{"last_updated":1742587824,"ttl":60,"version":"2.2","data":{"bikes":[{"bike_id":"7aba737c-3cc6-4138-9710-5bf9f292e1d7","system_id":"levelo_inurba_marseille","lat":43.29878,"lon":5.38901,"is_reserved":false,"is_disabled":false,"rental_uris":{"android":"levelo://app?vid=7aba737c-3cc6-4138-9710-5bf9f292e1d7","ios":"levelo://app?vid=7aba737c-3cc6-4138-9710-5bf9f292e1d7"},"vehicle_type_id":"4","last_reported":1742587824,"current_range_meters":2000,"station_id":"ce4bh392rcd13ifvqdl0","pricing_plan_id":"cebpf4jnsgd1na2vs0mg"},{"bike_id":"29929d79-ad21-443e-ae25-06854db837f5","system_id":"levelo_inurba_marseille","lat":43.30795,"lon":5.38156,"is_reserved":false,"is_disabled":false,"rental_uris":{"android":"levelo://app?vid=29929d79-ad21-443e-ae25-06854db837f5","ios":"levelo://app?vid=29929d79-ad21-443e-ae25-06854db837f5"},"vehicle_type_id":"4","last_reported":1742587824,"current_range_meters":2000,"station_id":"ce4bgt12rcd13ifvqce0","pricing_plan_id":"cebpf4jnsgd1na2vs0mg"},{"bike_id":"7d2c2e87-0c51-49a0-b505-d837a8a953b5","system_id":"levelo_inurba_marseille","lat":43.2953,"lon":5.38535,"is_reserved":false,"is_disabled":false,"rental_uris":{"android":"levelo://app?vid=7d2c2e87-0c51-49a0-b505-d837a8a953b5","ios":"levelo://app?vid=7d2c2e87-0c51-49a0-b505-d837a8a953b5"},"vehicle_type_id":"4","last_reported":1742587824,"current_range_meters":2800,"station_id":"ce4bgih2rcd13ifvqba0","pricing_plan_id":"cebpf4jnsgd1na2vs0mg"},{"bike_id":"5fa43231-e63c-4e20-9b69-e53f24eed317","system_id":"levelo_inurba_marseille","lat":43.24653,"lon":5.38898,"is_reserved":false,"is_disabled":true,"rental_uris":{"android":"levelo://app?vid=5fa43231-e63c-4e20-9b69-e53f24eed317","ios":"levelo://app?vid=5fa43231-e63c-4e20-9b69-e53f24eed317"},"vehicle_type_id":"4","last_reported":1742587824,"current_range_meters":3200,"station_id":"ce4bhg12rcd13ifvqf60","pricing_plan_id":"cebpf4jnsgd1na2vs0mg"},{"bike_id":"916a0248-4ca6-4546-95d4-a5ed97a83eb5","system_id":"levelo_inurba_marseille","lat":43.29055,"lon":5.37022,"is_reserved":false,"is_disabled":false,"rental_uris":{"android":"levelo://app?vid=916a0248-4ca6-4546-95d4-a5ed97a83eb5","ios":"levelo://app?vid=916a0248-4ca6-4546-95d4-a5ed97a83eb5"},"vehicle_type_id":"4","last_reported":1742587824,"current_range_meters":3200,"station_id":"","pricing_plan_id":"cebpf4jnsgd1na2vs0mg"},{"bike_id":"85e51a2a-070c-44ac-80eb-b460bf792e27","system_id":"levelo_inurba_marseille","lat":43.30891,"lon":5.39645,"is_reserved":false,"is_disabled":false,"rental_uris":{"android":"levelo://app?vid=85e51a2a-070c-44ac-80eb-b460bf792e27","ios":"levelo://app?vid=85e51a2a-070c-44ac-80eb-b460bf792e27"},"vehicle_type_id":"4","last_reported":1742587824,"current_range_meters":3200,"station_id":"ce4bh012rcd13ifvqcv0","pricing_plan_id":"cebpf4jnsgd1na2vs0mg"},{"bike_id":"1ee00db3-a2de-405b-b75a-708fda0b556a","system_id":"levelo_inurba_marseille","lat":43.30951,"lon":5.4012,"is_reserved":false,"is_disabled":false,"rental_uris":{"android":"levelo://app?vid=1ee00db3-a2de-405b-b75a-708fda0b556a","ios":"levelo://app?vid=1ee00db3-a2de-405b-b75a-708fda0b556a"},"vehicle_type_id":"4","last_reported":1742587824,"current_range_meters":3200,"station_id":"ce4bgvp2rcd13ifvqct0","pricing_plan_id":"cebpf4jnsgd1na2vs0mg"},{"bike_id":"5d28bce7-ab1a-4e8b-ae70-12e427a81793","system_id":"levelo_inurba_marseille","lat":43.24167,"lon":5.36406,"is_reserved":false,"is_disabled":true,"rental_uris":{"android":"levelo://app?vid=5d28bce7-ab1a-4e8b-ae70-12e427a81793","ios":"levelo://app?vid=5d28bce7-ab1a-4e8b-ae70-12e427a81793"},"vehicle_type_id":"4","last_reported":1742587824,"current_range_meters":3200,"station_id":"cpo36qri1sfpv3e86is0","pricing_plan_id":"cebpf4jnsgd1na2vs0mg"},{"bike_id":"a9bfdc5f-7bba-4077-92d3-1695b43dbeb1","system_id":"levelo_inurba_marseille","lat":43.30123,"lon":5.39876,"is_reserved":false,"is_disabled":false,"rental_uris":{"android":"levelo://app?vid=a9bfdc5f-7bba-4077-92d3-1695b43dbeb1","ios":"levelo://app?vid=a9bfdc5f-7bba-4077-92d3-1695b43dbeb1"},"vehicle_type_id":"4","last_reported":1742587824,"current_range_meters":2800,"station_id":"ce4bh0h2rcd13ifvqd40","pricing_plan_id":"cebpf4jnsgd1na2vs0mg"},{"bike_id":"dff3b81e-8d16-4bfe-abe5-a5b793783284","system_id":"levelo_inurba_marseille","lat":43.31343,"lon":5.39678,"is_reserved":false,"is_disabled":false,"rental_uris":{"android":"levelo://app?vid=dff3b81e-8d16-4bfe-abe5-a5b793783284","ios":"levelo://app?vid=dff3b81e-8d16-4bfe-abe5-a5b793783284"},"vehicle_type_id":"4","last_reported":1742587824,"current_range_meters":3600,"station_id":"ce4bgvp2rcd13ifvqcu0","pricing_plan_id":"cebpf4jnsgd1na2vs0mg"},{"bike_id":"38fa863a-91a2-44eb-b718-19af02253b65","system_id":"levelo_inurba_marseille","lat":43.26946,"lon":5.40283,"is_reserved":false,"is_disabled":true,"rental_uris":{"android":"levelo://app?vid=38fa863a-91a2-44eb-b718-19af02253b65","ios":"levelo://app?vid=38fa863a-91a2-44eb-b718-19af02253b65"},"vehicle_type_id":"4","last_reported":1742587824,"current_range_meters":3600,"station_id":"cjm6bp8fraef2m0cb0m0","pricing_plan_id":"cebpf4jnsgd1na2vs0mg"},{"bike_id":"d9e241e4-0a60-4a24-8d48-bbec2e73c971","system_id":"levelo_inurba_marseille","lat":43.29619,"lon":5.37164,"is_reserved":false,"is_disabled":false,"rental_uris":{"android":"levelo://app?vid=d9e241e4-0a60-4a24-8d48-bbec2e73c971","ios":"levelo://app?vid=d9e241e4-0a60-4a24-8d48-bbec2e73c971"},"vehicle_type_id":"4","last_reported":1742587824,"current_range_meters":4000,"station_id":"ce4bgnh2rcd13ifvqc0g","pricing_plan_id":"cebpf4jnsgd1na2vs0mg"},{"bike_id":"b48df6f2-49ac-46c5-853b-1ea665955a9e","system_id":"levelo_inurba_marseille","lat":43.31686,"lon":5.40475,"is_reserved":false,"is_disabled":false,"rental_uris":{"android":"levelo://app?vid=b48df6f2-49ac-46c5-853b-1ea665955a9e","ios":"levelo://app?vid=b48df6f2-49ac-46c5-853b-1ea665955a9e"},"vehicle_type_id":"4","last_reported":1742587824,"current_range_meters":4000,"station_id":"ce4bh012rcd13ifvqd00","pricing_plan_id":"cebpf4jnsgd1na2vs0mg"},{"bike_id":"628fefc0-c71d-4844-8f82-26651c57ef18","system_id":"levelo_inurba_marseille","lat":43.30887,"lon":5.39657,"is_reserved":false,"is_disabled":false,"rental_uris":{"android":"levelo://app?vid=628fefc0-c71d-4844-8f82-26651c57ef18","ios":"levelo://app?vid=628fefc0-c71d-4844-8f82-26651c57ef18"},"vehicle_type_id":"4","last_reported":1742587824,"current_range_meters":4400,"station_id":"ce4bh012rcd13ifvqcv0","pricing_plan_id":"cebpf4jnsgd1na2vs0mg"},{"bike_id":"3571308e-17d6-406a-a417-08e6d5e7db5e","system_id":"levelo_inurba_marseille","lat":43.30604,"lon":5.37241,"is_reserved":false,"is_disabled":false,"rental_uris":{"android":"levelo://app?vid=3571308e-17d6-406a-a417-08e6d5e7db5e","ios":"levelo://app?vid=3571308e-17d6-406a-a417-08e6d5e7db5e"},"vehicle_type_id":"4","last_reported":1742587824,"current_range_meters":4400,"station_id":"ce4bgqh2rcd13ifvqc4g","pricing_plan_id":"cebpf4jnsgd1na2vs0mg"},{"bike_id":"a1d4474e-dc54-4e96-8359-81b099ba1a93","system_id":"levelo_inurba_marseille","lat":43.23208,"lon":5.39974,"is_reserved":false,"is_disabled":false,"rental_uris":{"android":"levelo://app?vid=a1d4474e-dc54-4e96-8359-81b099ba1a93","ios":"levelo://app?vid=a1d4474e-dc54-4e96-8359-81b099ba1a93"},"vehicle_type_id":"4","last_reported":1742587824,"current_range_meters":4800,"station_id":"ce4bhn12rcd13ifvqgqg","pricing_plan_id":"cebpf4jnsgd1na2vs0mg"},{"bike_id":"d22e7cb6-db7a-4572-b8a3-44cdf3733a9e","system_id":"levelo_inurba_marseille","lat":43.27094,"lon":5.40234,"is_reserved":false,"is_disabled":false,"rental_uris":{"android":"levelo://app?vid=d22e7cb6-db7a-4572-b8a3-44cdf3733a9e","ios":"levelo://app?vid=d22e7cb6-db7a-4572-b8a3-44cdf3733a9e"},"vehicle_type_id":"4","last_reported":1742587824,"current_range_meters":4800,"station_id":"ce4bhk92rcd13ifvqgc0","pricing_plan_id":"cebpf4jnsgd1na2vs0mg"},{"bike_id":"eeb99589-e63d-4b9d-b015-af5ec36bd6cf","system_id":"levelo_inurba_marseille","lat":43.25717,"lon":5.41106,"is_reserved":false,"is_disabled":false,"rental_uris":{"android":"levelo://app?vid=eeb99589-e63d-4b9d-b015-af5ec36bd6cf","ios":"levelo://app?vid=eeb99589-e63d-4b9d-b015-af5ec36bd6cf"},"vehicle_type_id":"4","last_reported":1742587824,"current_range_meters":4800,"station_id":"ce4bhkp2rcd13ifvqgd0","pricing_plan_id":"cebpf4jnsgd1na2vs0mg"},{"bike_id":"a290e572-c2c5-409a-927b-45c41c2e75dd","system_id":"levelo_inurba_marseille","lat":43.2513,"lon":5.40331,"is_reserved":false,"is_disabled":false,"rental_uris":{"android":"levelo://app?vid=a290e572-c2c5-409a-927b-45c41c2e75dd","ios":"levelo://app?vid=a290e572-c2c5-409a-927b-45c41c2e75dd"},"vehicle_type_id":"4","last_reported":1742587824,"current_range_meters":4800,"station_id":"ce4bhlh2rcd13ifvqgig","pricing_plan_id":"cebpf4jnsgd1na2vs0mg"},{"bike_id":"91161f6e-9a29-4e40-bdf3-1d905f1c5eaf","system_id":"levelo_inurba_marseille","lat":43.32664,"lon":5.40984,"is_reserved":false,"is_disabled":false,"rental_uris":{"android":"levelo://app?vid=91161f6e-9a29-4e40-bdf3-1d905f1c5eaf","ios":"levelo://app?vid=91161f6e-9a29-4e40-bdf3-1d905f1c5eaf"},"vehicle_type_id":"4","last_reported":1742587824,"current_range_meters":5600,"station_id":"ce4bhpp2rcd13ifvqhgg","pricing_plan_id":"cebpf4jnsgd1na2vs0mg"},{"bike_id":"b266faba-4e26-4c50-b078-a54d17773ddd","system_id":"levelo_inurba_marseille","lat":43.24549,"lon":5.39528,"is_reserved":false,"is_disabled":false,"rental_uris":{"android":"levelo://app?vid=b266faba-4e26-4c50-b078-a54d17773ddd","ios":"levelo://app?vid=b266faba-4e26-4c50-b078-a54d17773ddd"},"vehicle_type_id":"4","last_reported":1742587824,"current_range_meters":5600,"station_id":"ce4bhlp2rcd13ifvqgjg","pricing_plan_id":"cebpf4jnsgd1na2vs0mg"},{"bike_id":"e8dbfa90-5070-4eb9-a6d1-6601cd06bcf2","system_id":"levelo_inurba_marseille","lat":43.31166,"lon":5.38712,"is_reserved":false,"is_disabled":false,"rental_uris":{"android":"levelo://app?vid=e8dbfa90-5070-4eb9-a6d1-6601cd06bcf2","ios":"levelo://app?vid=e8dbfa90-5070-4eb9-a6d1-6601cd06bcf2"},"vehicle_type_id":"4","last_reported":1742587824,"current_range_meters":5600,"station_id":"ce4bgv12rcd13ifvqcp0","pricing_plan_id":"cebpf4jnsgd1na2vs0mg"},{"bike_id":"17cf9dff-5308-49d4-8479-c0b2be020768","system_id":"levelo_inurba_marseille","lat":43.27876,"lon":5.40767,"is_reserved":false,"is_disabled":false,"rental_uris":{"android":"levelo://app?vid=17cf9dff-5308-49d4-8479-c0b2be020768","ios":"levelo://app?vid=17cf9dff-5308-49d4-8479-c0b2be020768"},"vehicle_type_id":"4","last_reported":1742587824,"current_range_meters":5600,"station_id":"","pricing_plan_id":"cebpf4jnsgd1na2vs0mg"},{"bike_id":"1bb93a8f-b158-4722-a0a5-d7d909368045","system_id":"levelo_inurba_marseille","lat":43.2396,"lon":5.36629,"is_reserved":false,"is_disabled":false,"rental_uris":{"android":"levelo://app?vid=1bb93a8f-b158-4722-a0a5-d7d909368045","ios":"levelo://app?vid=1bb93a8f-b158-4722-a0a5-d7d909368045"},"vehicle_type_id":"4","last_reported":1742587824,"current_range_meters":5600,"station_id":"ce4bhi12rcd13ifvqfp0","pricing_plan_id":"cebpf4jnsgd1na2vs0mg"},{"bike_id":"7cf77dac-5ea3-4338-8755-0f32e12bd56b","system_id":"levelo_inurba_marseille","lat":43.28969,"lon":5.37832,"is_reserved":false,"is_disabled":false,"rental_uris":{"android":"levelo://app?vid=7cf77dac-5ea3-4338-8755-0f32e12bd56b","ios":"levelo://app?vid=7cf77dac-5ea3-4338-8755-0f32e12bd56b"},"vehicle_type_id":"4","last_reported":1742587824,"current_range_meters":6000,"station_id":"ce4bh9p2rcd13ifvqed0","pricing_plan_id":"cebpf4jnsgd1na2vs0mg"},{"bike_id":"3347b3b5-5021-4048-a5c7-44173ddb1a3b","system_id":"levelo_inurba_marseille","lat":43.30904,"lon":5.39661,"is_reserved":false,"is_disabled":false,"rental_uris":{"android":"levelo://app?vid=3347b3b5-5021-4048-a5c7-44173ddb1a3b","ios":"levelo://app?vid=3347b3b5-5021-4048-a5c7-44173ddb1a3b"},"vehicle_type_id":"4","last_reported":1742587824,"current_range_meters":6000,"station_id":"ce4bh012rcd13ifvqcv0","pricing_plan_id":"cebpf4jnsgd1na2vs0mg"},{"bike_id":"1464a903-a11a-448a-9a87-e10526b28969","system_id":"levelo_inurba_marseille","lat":43.30542,"lon":5.36529,"is_reserved":false,"is_disabled":false,"rental_uris":{"android":"levelo://app?vid=1464a903-a11a-448a-9a87-e10526b28969","ios":"levelo://app?vid=1464a903-a11a-448a-9a87-e10526b28969"},"vehicle_type_id":"4","last_reported":1742587824,"current_range_meters":6000,"station_id":"","pricing_plan_id":"cebpf4jnsgd1na2vs0mg"},{"bike_id":"b9e4bdd0-024c-4547-9a94-39d0c7923642","system_id":"levelo_inurba_marseille","lat":43.24168,"lon":5.36417,"is_reserved":false,"is_disabled":false,"rental_uris":{"android":"levelo://app?vid=b9e4bdd0-024c-4547-9a94-39d0c7923642","ios":"levelo://app?vid=b9e4bdd0-024c-4547-9a94-39d0c7923642"},"vehicle_type_id":"4","last_reported":1742587824,"current_range_meters":6000,"station_id":"cpo36qri1sfpv3e86is0","pricing_plan_id":"cebpf4jnsgd1na2vs0mg"},{"bike_id":"c5bb5dca-1dc9-450e-9a3d-9fa737cf345d","system_id":"levelo_inurba_marseille","lat":43.24648,"lon":5.38909,"is_reserved":false,"is_disabled":false,"rental_uris":{"android":"levelo://app?vid=c5bb5dca-1dc9-450e-9a3d-9fa737cf345d","ios":"levelo://app?vid=c5bb5dca-1dc9-450e-9a3d-9fa737cf345d"},"vehicle_type_id":"4","last_reported":1742587824,"current_range_meters":6000,"station_id":"ce4bhg12rcd13ifvqf60","pricing_plan_id":"cebpf4jnsgd1na2vs0mg"},{"bike_id":"89118a19-3b0e-435d-8cb3-6ec0853a9b66","system_id":"levelo_inurba_marseille","lat":43.28651,"lon":5.35098,"is_reserved":false,"is_disabled":false,"rental_uris":{"android":"levelo://app?vid=89118a19-3b0e-435d-8cb3-6ec0853a9b66","ios":"levelo://app?vid=89118a19-3b0e-435d-8cb3-6ec0853a9b66"},"vehicle_type_id":"4","last_reported":1742587824,"current_range_meters":6400,"station_id":"ce4bhch2rcd13ifvqeug","pricing_plan_id":"cebpf4jnsgd1na2vs0mg"},{"bike_id":"fd87eab3-6dd6-4660-91cd-04d2e7effdd0","system_id":"levelo_inurba_marseille","lat":43.27968,"lon":5.41051,"is_reserved":false,"is_disabled":false,"rental_uris":{"android":"levelo://app?vid=fd87eab3-6dd6-4660-91cd-04d2e7effdd0","ios":"levelo://app?vid=fd87eab3-6dd6-4660-91cd-04d2e7effdd0"},"vehicle_type_id":"4","last_reported":1742587824,"current_range_meters":6400,"station_id":"ce4bhnp2rcd13ifvqh0g","pricing_plan_id":"cebpf4jnsgd1na2vs0mg"},{"bike_id":"67b812a4-0945-4bb2-be9f-9732e9615d08","system_id":"levelo_inurba_marseille","lat":43.32342,"lon":5.38913,"is_reserved":false,"is_disabled":false,"rental_uris":{"android":"levelo://app?vid=67b812a4-0945-4bb2-be9f-9732e9615d08","ios":"levelo://app?vid=67b812a4-0945-4bb2-be9f-9732e9615d08"},"vehicle_type_id":"4","last_reported":1742587824,"current_range_meters":6400,"station_id":"ce4bhqp2rcd13ifvqhog","pricing_plan_id":"cebpf4jnsgd1na2vs0mg"},{"bike_id":"c2b69246-ab46-4e64-b18d-3cf9672163dd","system_id":"levelo_inurba_marseille","lat":43.2583,"lon":5.39404,"is_reserved":false,"is_disabled":false,"rental_uris":{"android":"levelo://app?vid=c2b69246-ab46-4e64-b18d-3cf9672163dd","ios":"levelo://app?vid=c2b69246-ab46-4e64-b18d-3cf9672163dd"},"vehicle_type_id":"4","last_reported":1742587824,"current_range_meters":6400,"station_id":"ce4bhip2rcd13ifvqft0","pricing_plan_id":"cebpf4jnsgd1na2vs0mg"},{"bike_id":"06515d4c-d5d1-4557-8e83-261628cb009d","system_id":"levelo_inurba_marseille","lat":43.31219,"lon":5.36871,"is_reserved":false,"is_disabled":false,"rental_uris":{"android":"levelo://app?vid=06515d4c-d5d1-4557-8e83-261628cb009d","ios":"levelo://app?vid=06515d4c-d5d1-4557-8e83-261628cb009d"},"vehicle_type_id":"4","last_reported":1742587824,"current_range_meters":6400,"station_id":"ce4bgl92rcd13ifvqbq0","pricing_plan_id":"cebpf4jnsgd1na2vs0mg"},{"bike_id":"58123090-37fe-46f9-b479-a06a09c31a65","system_id":"levelo_inurba_marseille","lat":43.28103,"lon":5.37861,"is_reserved":false,"is_disabled":false,"rental_uris":{"android":"levelo://app?vid=58123090-37fe-46f9-b479-a06a09c31a65","ios":"levelo://app?vid=58123090-37fe-46f9-b479-a06a09c31a65"},"vehicle_type_id":"4","last_reported":1742587824,"current_range_meters":6800,"station_id":"ce4bha12rcd13ifvqee0","pricing_plan_id":"cebpf4jnsgd1na2vs0mg"},{"bike_id":"1d8daad7-9bb4-40dd-adfc-e589f483368c","system_id":"levelo_inurba_marseille","lat":43.25814,"lon":5.39423,"is_reserved":false,"is_disabled":false,"rental_uris":{"android":"levelo://app?vid=1d8daad7-9bb4-40dd-adfc-e589f483368c","ios":"levelo://app?vid=1d8daad7-9bb4-40dd-adfc-e589f483368c"},"vehicle_type_id":"4","last_reported":1742587824,"current_range_meters":6800,"station_id":"ce4bhip2rcd13ifvqft0","pricing_plan_id":"cebpf4jnsgd1na2vs0mg"},{"bike_id":"8c9fa4ba-3022-472d-a524-2b34aef0abf8","system_id":"levelo_inurba_marseille","lat":43.30006,"lon":5.3721,"is_reserved":false,"is_disabled":true,"rental_uris":{"android":"levelo://app?vid=8c9fa4ba-3022-472d-a524-2b34aef0abf8","ios":"levelo://app?vid=8c9fa4ba-3022-472d-a524-2b34aef0abf8"},"vehicle_type_id":"4","last_reported":1742587824,"current_range_meters":6800,"station_id":"ce4bgr92rcd13ifvqc7g","pricing_plan_id":"cebpf4jnsgd1na2vs0mg"},{"bike_id":"4cbc815f-81cb-4b3f-a536-29e8befb1fe3","system_id":"levelo_inurba_marseille","lat":43.25005,"lon":5.38931,"is_reserved":false,"is_disabled":false,"rental_uris":{"android":"levelo://app?vid=4cbc815f-81cb-4b3f-a536-29e8befb1fe3","ios":"levelo://app?vid=4cbc815f-81cb-4b3f-a536-29e8befb1fe3"},"vehicle_type_id":"4","last_reported":1742587824,"current_range_meters":6800,"station_id":"ce4bhgp2rcd13ifvqfd0","pricing_plan_id":"cebpf4jnsgd1na2vs0mg"},{"bike_id":"eb7d88b0-98fc-4cff-9d54-8b75e5bfb5c8","system_id":"levelo_inurba_marseille","lat":43.29404,"lon":5.38612,"is_reserved":false,"is_disabled":false,"rental_uris":{"android":"levelo://app?vid=eb7d88b0-98fc-4cff-9d54-8b75e5bfb5c8","ios":"levelo://app?vid=eb7d88b0-98fc-4cff-9d54-8b75e5bfb5c8"},"vehicle_type_id":"4","last_reported":1742587824,"current_range_meters":6800,"station_id":"ce4bh2h2rcd13ifvqdh0","pricing_plan_id":"cebpf4jnsgd1na2vs0mg"},{"bike_id":"ba567f58-2844-4522-b481-874ce34498c2","system_id":"levelo_inurba_marseille","lat":43.296,"lon":5.38106,"is_reserved":false,"is_disabled":false,"rental_uris":{"android":"levelo://app?vid=ba567f58-2844-4522-b481-874ce34498c2","ios":"levelo://app?vid=ba567f58-2844-4522-b481-874ce34498c2"},"vehicle_type_id":"4","last_reported":1742587824,"current_range_meters":6800,"station_id":"ce4bgl12rcd13ifvqbo0","pricing_plan_id":"cebpf4jnsgd1na2vs0mg"},{"bike_id":"1e50b20c-4b31-49d1-bb07-b807a4aa42bc","system_id":"levelo_inurba_marseille","lat":43.29199,"lon":5.39329,"is_reserved":false,"is_disabled":false,"rental_uris":{"android":"levelo://app?vid=1e50b20c-4b31-49d1-bb07-b807a4aa42bc","ios":"levelo://app?vid=1e50b20c-4b31-49d1-bb07-b807a4aa42bc"},"vehicle_type_id":"4","last_reported":1742587824,"current_range_meters":6800,"station_id":"ce4bh192rcd13ifvqdd0","pricing_plan_id":"cebpf4jnsgd1na2vs0mg"},{"bike_id":"c3dfb280-aaa4-4cef-b17e-dbaf2e842dc0","system_id":"levelo_inurba_marseille","lat":43.28487,"lon":5.38416,"is_reserved":false,"is_disabled":false,"rental_uris":{"android":"levelo://app?vid=c3dfb280-aaa4-4cef-b17e-dbaf2e842dc0","ios":"levelo://app?vid=c3dfb280-aaa4-4cef-b17e-dbaf2e842dc0"},"vehicle_type_id":"4","last_reported":1742587824,"current_range_meters":6800,"station_id":"ce4bh512rcd13ifvqe3g","pricing_plan_id":"cebpf4jnsgd1na2vs0mg"},{"bike_id":"62bf2f5c-9819-4816-afad-4a268d7a76b8","system_id":"levelo_inurba_marseille","lat":43.24165,"lon":5.36404,"is_reserved":false,"is_disabled":false,"rental_uris":{"android":"levelo://app?vid=62bf2f5c-9819-4816-afad-4a268d7a76b8","ios":"levelo://app?vid=62bf2f5c-9819-4816-afad-4a268d7a76b8"},"vehicle_type_id":"4","last_reported":1742587824,"current_range_meters":7200,"station_id":"cpo36qri1sfpv3e86is0","pricing_plan_id":"cebpf4jnsgd1na2vs0mg"},{"bike_id":"8682048b-22d3-4d81-b8c1-fb4c78459528","system_id":"levelo_inurba_marseille","lat":43.32648,"lon":5.40995,"is_reserved":false,"is_disabled":false,"rental_uris":{"android":"levelo://app?vid=8682048b-22d3-4d81-b8c1-fb4c78459528","ios":"levelo://app?vid=8682048b-22d3-4d81-b8c1-fb4c78459528"},"vehicle_type_id":"4","last_reported":1742587824,"current_range_meters":6800,"station_id":"ce4bhpp2rcd13ifvqhgg","pricing_plan_id":"cebpf4jnsgd1na2vs0mg"},{"bike_id":"ce37ecae-d805-4c70-8485-1ee9b4bc63d3","system_id":"levelo_inurba_marseille","lat":43.29261,"lon":5.38442,"is_reserved":false,"is_disabled":false,"rental_uris":{"android":"levelo://app?vid=ce37ecae-d805-4c70-8485-1ee9b4bc63d3","ios":"levelo://app?vid=ce37ecae-d805-4c70-8485-1ee9b4bc63d3"},"vehicle_type_id":"4","last_reported":1742587824,"current_range_meters":7200,"station_id":"ce4bh692rcd13ifvqea0","pricing_plan_id":"cebpf4jnsgd1na2vs0mg"},{"bike_id":"af0dd9ac-7466-4151-a052-abde29cf9b49","system_id":"levelo_inurba_marseille","lat":43.23195,"lon":5.35565,"is_reserved":false,"is_disabled":false,"rental_uris":{"android":"levelo://app?vid=af0dd9ac-7466-4151-a052-abde29cf9b49","ios":"levelo://app?vid=af0dd9ac-7466-4151-a052-abde29cf9b49"},"vehicle_type_id":"4","last_reported":1742587824,"current_range_meters":7200,"station_id":"ce4bhu92rcd13ifvqi70","pricing_plan_id":"cebpf4jnsgd1na2vs0mg"},{"bike_id":"99d4f2a7-22a3-4802-bbca-4667960daf47","system_id":"levelo_inurba_marseille","lat":43.24669,"lon":5.38164,"is_reserved":false,"is_disabled":false,"rental_uris":{"android":"levelo://app?vid=99d4f2a7-22a3-4802-bbca-4667960daf47","ios":"levelo://app?vid=99d4f2a7-22a3-4802-bbca-4667960daf47"},"vehicle_type_id":"4","last_reported":1742587824,"current_range_meters":7200,"station_id":"ce4bhih2rcd13ifvqfr0","pricing_plan_id":"cebpf4jnsgd1na2vs0mg"},{"bike_id":"922b096d-666d-4ce7-a176-6f001bc6c56e","system_id":"levelo_inurba_marseille","lat":43.32044,"lon":5.41549,"is_reserved":false,"is_disabled":false,"rental_uris":{"android":"levelo://app?vid=922b096d-666d-4ce7-a176-6f001bc6c56e","ios":"levelo://app?vid=922b096d-666d-4ce7-a176-6f001bc6c56e"},"vehicle_type_id":"4","last_reported":1742587824,"current_range_meters":7200,"station_id":"ce4bhq92rcd13ifvqhkg","pricing_plan_id":"cebpf4jnsgd1na2vs0mg"},{"bike_id":"46e325e1-4b70-4630-bfdc-9758fa69893c","system_id":"levelo_inurba_marseille","lat":43.28169,"lon":5.42662,"is_reserved":false,"is_disabled":false,"rental_uris":{"android":"levelo://app?vid=46e325e1-4b70-4630-bfdc-9758fa69893c","ios":"levelo://app?vid=46e325e1-4b70-4630-bfdc-9758fa69893c"},"vehicle_type_id":"4","last_reported":1742587824,"current_range_meters":7200,"station_id":"ce4bhnh2rcd13ifvqgug","pricing_plan_id":"cebpf4jnsgd1na2vs0mg"},{"bike_id":"46a6916f-e4f0-4b64-b772-88f06138a936","system_id":"levelo_inurba_marseille","lat":43.29437,"lon":5.38612,"is_reserved":false,"is_disabled":false,"rental_uris":{"android":"levelo://app?vid=46a6916f-e4f0-4b64-b772-88f06138a936","ios":"levelo://app?vid=46a6916f-e4f0-4b64-b772-88f06138a936"},"vehicle_type_id":"4","last_reported":1742587824,"current_range_meters":6800,"station_id":"ce4bh2h2rcd13ifvqdh0","pricing_plan_id":"cebpf4jnsgd1na2vs0mg"},{"bike_id":"6402bf4a-9b22-415f-aa5f-36058116e1b9","system_id":"levelo_inurba_marseille","lat":43.27818,"lon":5.4072,"is_reserved":false,"is_disabled":false,"rental_uris":{"android":"levelo://app?vid=6402bf4a-9b22-415f-aa5f-36058116e1b9","ios":"levelo://app?vid=6402bf4a-9b22-415f-aa5f-36058116e1b9"},"vehicle_type_id":"4","last_reported":1742587824,"current_range_meters":7200,"station_id":"ce4bhnh2rcd13ifvqgtg","pricing_plan_id":"cebpf4jnsgd1na2vs0mg"},{"bike_id":"2d86cf0c-8220-4a0c-a77e-5b4210ae7f59","system_id":"levelo_inurba_marseille","lat":43.30474,"lon":5.37076,"is_reserved":false,"is_disabled":false,"rental_uris":{"android":"levelo://app?vid=2d86cf0c-8220-4a0c-a77e-5b4210ae7f59","ios":"levelo://app?vid=2d86cf0c-8220-4a0c-a77e-5b4210ae7f59"},"vehicle_type_id":"4","last_reported":1742587824,"current_range_meters":7200,"station_id":"","pricing_plan_id":"cebpf4jnsgd1na2vs0mg"},{"bike_id":"1c4034bf-01f3-461c-886c-378fcd960c34","system_id":"levelo_inurba_marseille","lat":43.29922,"lon":5.3653,"is_reserved":false,"is_disabled":false,"rental_uris":{"android":"levelo://app?vid=1c4034bf-01f3-461c-886c-378fcd960c34","ios":"levelo://app?vid=1c4034bf-01f3-461c-886c-378fcd960c34"},"vehicle_type_id":"4","last_reported":1742587824,"current_range_meters":8000,"station_id":"ce4bgm92rcd13ifvqbr0","pricing_plan_id":"cebpf4jnsgd1na2vs0mg"},{"bike_id":"490f24fb-19fa-45d1-aeb1-cf2283f14534","system_id":"levelo_inurba_marseille","lat":43.30596,"lon":5.37216,"is_reserved":false,"is_disabled":false,"rental_uris":{"android":"levelo://app?vid=490f24fb-19fa-45d1-aeb1-cf2283f14534","ios":"levelo://app?vid=490f24fb-19fa-45d1-aeb1-cf2283f14534"},"vehicle_type_id":"4","last_reported":1742587824,"current_range_meters":8000,"station_id":"ce4bgqh2rcd13ifvqc4g","pricing_plan_id":"cebpf4jnsgd1na2vs0mg"},{"bike_id":"3b4a34b8-c962-4dc0-9248-cbfa2b78c15f","system_id":"levelo_inurba_marseille","lat":43.278105,"lon":5.407208,"is_reserved":false,"is_disabled":false,"rental_uris":{"android":"levelo://app?vid=3b4a34b8-c962-4dc0-9248-cbfa2b78c15f","ios":"levelo://app?vid=3b4a34b8-c962-4dc0-9248-cbfa2b78c15f"},"vehicle_type_id":"4","last_reported":1742587824,"current_range_meters":8000,"station_id":"ce4bhnh2rcd13ifvqgtg","pricing_plan_id":"cebpf4jnsgd1na2vs0mg"},{"bike_id":"6d65e6fd-315f-4be2-abc4-6ec5171a9629","system_id":"levelo_inurba_marseille","lat":43.29621,"lon":5.37734,"is_reserved":false,"is_disabled":false,"rental_uris":{"android":"levelo://app?vid=6d65e6fd-315f-4be2-abc4-6ec5171a9629","ios":"levelo://app?vid=6d65e6fd-315f-4be2-abc4-6ec5171a9629"},"vehicle_type_id":"4","last_reported":1742587824,"current_range_meters":8000,"station_id":"ce4bgi92rcd13ifvqb90","pricing_plan_id":"cebpf4jnsgd1na2vs0mg"},{"bike_id":"2678929a-312d-4089-b116-1e816de7db90","system_id":"levelo_inurba_marseille","lat":43.3215,"lon":5.36725,"is_reserved":false,"is_disabled":false,"rental_uris":{"android":"levelo://app?vid=2678929a-312d-4089-b116-1e816de7db90","ios":"levelo://app?vid=2678929a-312d-4089-b116-1e816de7db90"},"vehicle_type_id":"4","last_reported":1742587824,"current_range_meters":8000,"station_id":"","pricing_plan_id":"cebpf4jnsgd1na2vs0mg"},{"bike_id":"b62add21-7e65-4515-8ade-47eae307b639","system_id":"levelo_inurba_marseille","lat":43.30887,"lon":5.37183,"is_reserved":false,"is_disabled":false,"rental_uris":{"android":"levelo://app?vid=b62add21-7e65-4515-8ade-47eae307b639","ios":"levelo://app?vid=b62add21-7e65-4515-8ade-47eae307b639"},"vehicle_type_id":"4","last_reported":1742587824,"current_range_meters":8000,"station_id":"ce4bguh2rcd13ifvqckg","pricing_plan_id":"cebpf4jnsgd1na2vs0mg"},{"bike_id":"07a22c03-f1ef-44a4-bb45-3c50bcccdcf7","system_id":"levelo_inurba_marseille","lat":43.32042,"lon":5.41535,"is_reserved":false,"is_disabled":false,"rental_uris":{"android":"levelo://app?vid=07a22c03-f1ef-44a4-bb45-3c50bcccdcf7","ios":"levelo://app?vid=07a22c03-f1ef-44a4-bb45-3c50bcccdcf7"},"vehicle_type_id":"4","last_reported":1742587824,"current_range_meters":8000,"station_id":"ce4bhq92rcd13ifvqhkg","pricing_plan_id":"cebpf4jnsgd1na2vs0mg"},{"bike_id":"21586356-4657-4d38-a5a0-e9ea73c07dfa","system_id":"levelo_inurba_marseille","lat":43.27941,"lon":5.41052,"is_reserved":false,"is_disabled":false,"rental_uris":{"android":"levelo://app?vid=21586356-4657-4d38-a5a0-e9ea73c07dfa","ios":"levelo://app?vid=21586356-4657-4d38-a5a0-e9ea73c07dfa"},"vehicle_type_id":"4","last_reported":1742587824,"current_range_meters":8000,"station_id":"ce4bhnp2rcd13ifvqh0g","pricing_plan_id":"cebpf4jnsgd1na2vs0mg"},{"bike_id":"5705e8ca-cea6-420f-aa99-17f9997a866a","system_id":"levelo_inurba_marseille","lat":43.2782,"lon":5.40705,"is_reserved":false,"is_disabled":false,"rental_uris":{"android":"levelo://app?vid=5705e8ca-cea6-420f-aa99-17f9997a866a","ios":"levelo://app?vid=5705e8ca-cea6-420f-aa99-17f9997a866a"},"vehicle_type_id":"4","last_reported":1742587824,"current_range_meters":8000,"station_id":"ce4bhnh2rcd13ifvqgtg","pricing_plan_id":"cebpf4jnsgd1na2vs0mg"},{"bike_id":"54d24ba1-27a0-4d9e-a774-1edebaee5ec2","system_id":"levelo_inurba_marseille","lat":43.30329,"lon":5.40434,"is_reserved":false,"is_disabled":false,"rental_uris":{"android":"levelo://app?vid=54d24ba1-27a0-4d9e-a774-1edebaee5ec2","ios":"levelo://app?vid=54d24ba1-27a0-4d9e-a774-1edebaee5ec2"},"vehicle_type_id":"4","last_reported":1742587824,"current_range_meters":8000,"station_id":"ce4bh012rcd13ifvqd10","pricing_plan_id":"cebpf4jnsgd1na2vs0mg"},{"bike_id":"e59ac587-b641-4bc5-8287-2bc37563c395","system_id":"levelo_inurba_marseille","lat":43.32271,"lon":5.3824,"is_reserved":false,"is_disabled":false,"rental_uris":{"android":"levelo://app?vid=e59ac587-b641-4bc5-8287-2bc37563c395","ios":"levelo://app?vid=e59ac587-b641-4bc5-8287-2bc37563c395"},"vehicle_type_id":"4","last_reported":1742587824,"current_range_meters":7200,"station_id":"ce4bhr12rcd13ifvqhqg","pricing_plan_id":"cebpf4jnsgd1na2vs0mg"},{"bike_id":"cc17e95f-f87b-4221-a760-7c60902a7308","system_id":"levelo_inurba_marseille","lat":43.29552,"lon":5.38546,"is_reserved":false,"is_disabled":false,"rental_uris":{"android":"levelo://app?vid=cc17e95f-f87b-4221-a760-7c60902a7308","ios":"levelo://app?vid=cc17e95f-f87b-4221-a760-7c60902a7308"},"vehicle_type_id":"4","last_reported":1742587824,"current_range_meters":8000,"station_id":"ce4bgih2rcd13ifvqba0","pricing_plan_id":"cebpf4jnsgd1na2vs0mg"},{"bike_id":"e2a96eda-5d48-4ff7-bf55-15388c78a2fc","system_id":"levelo_inurba_marseille","lat":43.29618,"lon":5.38113,"is_reserved":false,"is_disabled":false,"rental_uris":{"android":"levelo://app?vid=e2a96eda-5d48-4ff7-bf55-15388c78a2fc","ios":"levelo://app?vid=e2a96eda-5d48-4ff7-bf55-15388c78a2fc"},"vehicle_type_id":"4","last_reported":1742587824,"current_range_meters":8000,"station_id":"ce4bgl12rcd13ifvqbo0","pricing_plan_id":"cebpf4jnsgd1na2vs0mg"},{"bike_id":"0cc44c87-17fe-499c-977d-487d85dc253c","system_id":"levelo_inurba_marseille","lat":43.30873,"lon":5.39663,"is_reserved":false,"is_disabled":false,"rental_uris":{"android":"levelo://app?vid=0cc44c87-17fe-499c-977d-487d85dc253c","ios":"levelo://app?vid=0cc44c87-17fe-499c-977d-487d85dc253c"},"vehicle_type_id":"4","last_reported":1742587824,"current_range_meters":8400,"station_id":"ce4bh012rcd13ifvqcv0","pricing_plan_id":"cebpf4jnsgd1na2vs0mg"},{"bike_id":"07b88f4f-1312-4f37-adb2-413142aa5a7c","system_id":"levelo_inurba_marseille","lat":43.24388,"lon":5.37059,"is_reserved":false,"is_disabled":false,"rental_uris":{"android":"levelo://app?vid=07b88f4f-1312-4f37-adb2-413142aa5a7c","ios":"levelo://app?vid=07b88f4f-1312-4f37-adb2-413142aa5a7c"},"vehicle_type_id":"4","last_reported":1742587824,"current_range_meters":8000,"station_id":"ce4bhhh2rcd13ifvqfk0","pricing_plan_id":"cebpf4jnsgd1na2vs0mg"},{"bike_id":"801a4cea-70de-4c6d-b3fc-f3760232a8f2","system_id":"levelo_inurba_marseille","lat":43.29537,"lon":5.3854,"is_reserved":false,"is_disabled":false,"rental_uris":{"android":"levelo://app?vid=801a4cea-70de-4c6d-b3fc-f3760232a8f2","ios":"levelo://app?vid=801a4cea-70de-4c6d-b3fc-f3760232a8f2"},"vehicle_type_id":"4","last_reported":1742587824,"current_range_meters":8000,"station_id":"ce4bgih2rcd13ifvqba0","pricing_plan_id":"cebpf4jnsgd1na2vs0mg"},{"bike_id":"1c3b5361-695c-4ccc-94f9-aca7f37b6d45","system_id":"levelo_inurba_marseille","lat":43.23195,"lon":5.3556,"is_reserved":false,"is_disabled":false,"rental_uris":{"android":"levelo://app?vid=1c3b5361-695c-4ccc-94f9-aca7f37b6d45","ios":"levelo://app?vid=1c3b5361-695c-4ccc-94f9-aca7f37b6d45"},"vehicle_type_id":"4","last_reported":1742587824,"current_range_meters":8400,"station_id":"ce4bhu92rcd13ifvqi70","pricing_plan_id":"cebpf4jnsgd1na2vs0mg"},{"bike_id":"a67c54b6-5ce9-4632-8070-5ca7d5b7fc9e","system_id":"levelo_inurba_marseille","lat":43.23068,"lon":5.35502,"is_reserved":false,"is_disabled":false,"rental_uris":{"android":"levelo://app?vid=a67c54b6-5ce9-4632-8070-5ca7d5b7fc9e","ios":"levelo://app?vid=a67c54b6-5ce9-4632-8070-5ca7d5b7fc9e"},"vehicle_type_id":"4","last_reported":1742587824,"current_range_meters":8400,"station_id":"cpo3342slgdg3j2ifvpg","pricing_plan_id":"cebpf4jnsgd1na2vs0mg"},{"bike_id":"f589539d-d63d-45fb-bd41-4fe66d427517","system_id":"levelo_inurba_marseille","lat":43.31083,"lon":5.38351,"is_reserved":false,"is_disabled":false,"rental_uris":{"android":"levelo://app?vid=f589539d-d63d-45fb-bd41-4fe66d427517","ios":"levelo://app?vid=f589539d-d63d-45fb-bd41-4fe66d427517"},"vehicle_type_id":"4","last_reported":1742587824,"current_range_meters":8400,"station_id":"ce4bgv92rcd13ifvqcr0","pricing_plan_id":"cebpf4jnsgd1na2vs0mg"},{"bike_id":"1ac43662-596f-4368-8af3-af24f5c6030d","system_id":"levelo_inurba_marseille","lat":43.3302,"lon":5.39033,"is_reserved":false,"is_disabled":false,"rental_uris":{"android":"levelo://app?vid=1ac43662-596f-4368-8af3-af24f5c6030d","ios":"levelo://app?vid=1ac43662-596f-4368-8af3-af24f5c6030d"},"vehicle_type_id":"4","last_reported":1742587824,"current_range_meters":8400,"station_id":"ce4bhr92rcd13ifvqhrg","pricing_plan_id":"cebpf4jnsgd1na2vs0mg"},{"bike_id":"85be84b3-d8bd-4d8d-86c8-2618de04ac42","system_id":"levelo_inurba_marseille","lat":43.27055,"lon":5.40262,"is_reserved":false,"is_disabled":false,"rental_uris":{"android":"levelo://app?vid=85be84b3-d8bd-4d8d-86c8-2618de04ac42","ios":"levelo://app?vid=85be84b3-d8bd-4d8d-86c8-2618de04ac42"},"vehicle_type_id":"4","last_reported":1742587824,"current_range_meters":8400,"station_id":"ce4bhk92rcd13ifvqgc0","pricing_plan_id":"cebpf4jnsgd1na2vs0mg"},{"bike_id":"b932d33e-91a4-45e0-8ca0-dca14df5ba52","system_id":"levelo_inurba_marseille","lat":43.31088,"lon":5.37746,"is_reserved":false,"is_disabled":false,"rental_uris":{"android":"levelo://app?vid=b932d33e-91a4-45e0-8ca0-dca14df5ba52","ios":"levelo://app?vid=b932d33e-91a4-45e0-8ca0-dca14df5ba52"},"vehicle_type_id":"4","last_reported":1742587824,"current_range_meters":8400,"station_id":"ce4bgt92rcd13ifvqcg0","pricing_plan_id":"cebpf4jnsgd1na2vs0mg"},{"bike_id":"9c14fb4f-316f-47fe-813a-8bc435dea8f9","system_id":"levelo_inurba_marseille","lat":43.3028,"lon":5.40069,"is_reserved":false,"is_disabled":false,"rental_uris":{"android":"levelo://app?vid=9c14fb4f-316f-47fe-813a-8bc435dea8f9","ios":"levelo://app?vid=9c14fb4f-316f-47fe-813a-8bc435dea8f9"},"vehicle_type_id":"4","last_reported":1742587824,"current_range_meters":8400,"station_id":"ce4bgvh2rcd13ifvqcs0","pricing_plan_id":"cebpf4jnsgd1na2vs0mg"},{"bike_id":"1be185f4-0713-4882-b27a-82f20bf5f7f2","system_id":"levelo_inurba_marseille","lat":43.26194,"lon":5.37448,"is_reserved":false,"is_disabled":false,"rental_uris":{"android":"levelo://app?vid=1be185f4-0713-4882-b27a-82f20bf5f7f2","ios":"levelo://app?vid=1be185f4-0713-4882-b27a-82f20bf5f7f2"},"vehicle_type_id":"4","last_reported":1742587824,"current_range_meters":8800,"station_id":"ce4bhgp2rcd13ifvqfc0","pricing_plan_id":"cebpf4jnsgd1na2vs0mg"},{"bike_id":"6b9f258c-1031-4975-9128-1ece84625cf6","system_id":"levelo_inurba_marseille","lat":43.3107,"lon":5.3835,"is_reserved":false,"is_disabled":false,"rental_uris":{"android":"levelo://app?vid=6b9f258c-1031-4975-9128-1ece84625cf6","ios":"levelo://app?vid=6b9f258c-1031-4975-9128-1ece84625cf6"},"vehicle_type_id":"4","last_reported":1742587824,"current_range_meters":8800,"station_id":"ce4bgv92rcd13ifvqcr0","pricing_plan_id":"cebpf4jnsgd1na2vs0mg"},{"bike_id":"9fcb3f14-f368-4f79-aa70-01b27150c36b","system_id":"levelo_inurba_marseille","lat":43.3065,"lon":5.37239,"is_reserved":false,"is_disabled":false,"rental_uris":{"android":"levelo://app?vid=9fcb3f14-f368-4f79-aa70-01b27150c36b","ios":"levelo://app?vid=9fcb3f14-f368-4f79-aa70-01b27150c36b"},"vehicle_type_id":"4","last_reported":1742587824,"current_range_meters":8800,"station_id":"","pricing_plan_id":"cebpf4jnsgd1na2vs0mg"},{"bike_id":"bf5d7bdb-65a8-4310-b955-6a76e2cbd7fe","system_id":"levelo_inurba_marseille","lat":43.33759,"lon":5.39154,"is_reserved":false,"is_disabled":false,"rental_uris":{"android":"levelo://app?vid=bf5d7bdb-65a8-4310-b955-6a76e2cbd7fe","ios":"levelo://app?vid=bf5d7bdb-65a8-4310-b955-6a76e2cbd7fe"},"vehicle_type_id":"4","last_reported":1742587824,"current_range_meters":9200,"station_id":"","pricing_plan_id":"cebpf4jnsgd1na2vs0mg"},{"bike_id":"ba235a48-5c65-421e-bc0f-5d274db30547","system_id":"levelo_inurba_marseille","lat":43.27806,"lon":5.40706,"is_reserved":false,"is_disabled":false,"rental_uris":{"android":"levelo://app?vid=ba235a48-5c65-421e-bc0f-5d274db30547","ios":"levelo://app?vid=ba235a48-5c65-421e-bc0f-5d274db30547"},"vehicle_type_id":"4","last_reported":1742587824,"current_range_meters":8800,"station_id":"ce4bhnh2rcd13ifvqgtg","pricing_plan_id":"cebpf4jnsgd1na2vs0mg"},{"bike_id":"18cf6a33-e930-473a-b68d-461cb2393bb0","system_id":"levelo_inurba_marseille","lat":43.3095,"lon":5.39027,"is_reserved":false,"is_disabled":false,"rental_uris":{"android":"levelo://app?vid=18cf6a33-e930-473a-b68d-461cb2393bb0","ios":"levelo://app?vid=18cf6a33-e930-473a-b68d-461cb2393bb0"},"vehicle_type_id":"4","last_reported":1742587824,"current_range_meters":8800,"station_id":"ce4bgup2rcd13ifvqco0","pricing_plan_id":"cebpf4jnsgd1na2vs0mg"},{"bike_id":"28c070b6-831a-4ca4-96f5-53fd9f42bfa5","system_id":"levelo_inurba_marseille","lat":43.31088,"lon":5.38373,"is_reserved":false,"is_disabled":false,"rental_uris":{"android":"levelo://app?vid=28c070b6-831a-4ca4-96f5-53fd9f42bfa5","ios":"levelo://app?vid=28c070b6-831a-4ca4-96f5-53fd9f42bfa5"},"vehicle_type_id":"4","last_reported":1742587824,"current_range_meters":8800,"station_id":"ce4bgv92rcd13ifvqcr0","pricing_plan_id":"cebpf4jnsgd1na2vs0mg"},{"bike_id":"e265df41-e3c3-4888-b03b-e669d37614f2","system_id":"levelo_inurba_marseille","lat":43.26225,"lon":5.40444,"is_reserved":false,"is_disabled":false,"rental_uris":{"android":"levelo://app?vid=e265df41-e3c3-4888-b03b-e669d37614f2","ios":"levelo://app?vid=e265df41-e3c3-4888-b03b-e669d37614f2"},"vehicle_type_id":"4","last_reported":1742587824,"current_range_meters":8800,"station_id":"ce4bhmh2rcd13ifvqgmg","pricing_plan_id":"cebpf4jnsgd1na2vs0mg"},{"bike_id":"e214e47e-4857-41bd-bec8-2b0cdb3e6503","system_id":"levelo_inurba_marseille","lat":43.3013,"lon":5.39878,"is_reserved":false,"is_disabled":false,"rental_uris":{"android":"levelo://app?vid=e214e47e-4857-41bd-bec8-2b0cdb3e6503","ios":"levelo://app?vid=e214e47e-4857-41bd-bec8-2b0cdb3e6503"},"vehicle_type_id":"4","last_reported":1742587824,"current_range_meters":8800,"station_id":"ce4bh0h2rcd13ifvqd40","pricing_plan_id":"cebpf4jnsgd1na2vs0mg"},{"bike_id":"b2feb0d1-8edd-45b5-a12e-6eb6f17c73ff","system_id":"levelo_inurba_marseille","lat":43.29874,"lon":5.38908,"is_reserved":false,"is_disabled":false,"rental_uris":{"android":"levelo://app?vid=b2feb0d1-8edd-45b5-a12e-6eb6f17c73ff","ios":"levelo://app?vid=b2feb0d1-8edd-45b5-a12e-6eb6f17c73ff"},"vehicle_type_id":"4","last_reported":1742587824,"current_range_meters":9200,"station_id":"ce4bh392rcd13ifvqdl0","pricing_plan_id":"cebpf4jnsgd1na2vs0mg"},{"bike_id":"899ab87e-4ea4-40e5-9304-e09f83aad3d0","system_id":"levelo_inurba_marseille","lat":43.23959,"lon":5.3664,"is_reserved":false,"is_disabled":false,"rental_uris":{"android":"levelo://app?vid=899ab87e-4ea4-40e5-9304-e09f83aad3d0","ios":"levelo://app?vid=899ab87e-4ea4-40e5-9304-e09f83aad3d0"},"vehicle_type_id":"4","last_reported":1742587824,"current_range_meters":9200,"station_id":"ce4bhi12rcd13ifvqfp0","pricing_plan_id":"cebpf4jnsgd1na2vs0mg"},{"bike_id":"d1e2eda3-365c-4795-ba1a-afa4c6f039ac","system_id":"levelo_inurba_marseille","lat":43.29967,"lon":5.385,"is_reserved":false,"is_disabled":false,"rental_uris":{"android":"levelo://app?vid=d1e2eda3-365c-4795-ba1a-afa4c6f039ac","ios":"levelo://app?vid=d1e2eda3-365c-4795-ba1a-afa4c6f039ac"},"vehicle_type_id":"4","last_reported":1742587824,"current_range_meters":8800,"station_id":"ce4bgj92rcd13ifvqbd0","pricing_plan_id":"cebpf4jnsgd1na2vs0mg"},{"bike_id":"45b64d53-5e74-433a-9861-b630bfd7ded2","system_id":"levelo_inurba_marseille","lat":43.27813,"lon":5.40702,"is_reserved":false,"is_disabled":false,"rental_uris":{"android":"levelo://app?vid=45b64d53-5e74-433a-9861-b630bfd7ded2","ios":"levelo://app?vid=45b64d53-5e74-433a-9861-b630bfd7ded2"},"vehicle_type_id":"4","last_reported":1742587824,"current_range_meters":9200,"station_id":"ce4bhnh2rcd13ifvqgtg","pricing_plan_id":"cebpf4jnsgd1na2vs0mg"},{"bike_id":"cf055f0d-64ca-4d3b-af73-bef858b3ca22","system_id":"levelo_inurba_marseille","lat":43.29596,"lon":5.38102,"is_reserved":false,"is_disabled":false,"rental_uris":{"android":"levelo://app?vid=cf055f0d-64ca-4d3b-af73-bef858b3ca22","ios":"levelo://app?vid=cf055f0d-64ca-4d3b-af73-bef858b3ca22"},"vehicle_type_id":"4","last_reported":1742587824,"current_range_meters":9200,"station_id":"ce4bgl12rcd13ifvqbo0","pricing_plan_id":"cebpf4jnsgd1na2vs0mg"},{"bike_id":"1323d2cd-c4e0-4783-b4f1-4daaeb41faef","system_id":"levelo_inurba_marseille","lat":43.23955,"lon":5.36648,"is_reserved":false,"is_disabled":false,"rental_uris":{"android":"levelo://app?vid=1323d2cd-c4e0-4783-b4f1-4daaeb41faef","ios":"levelo://app?vid=1323d2cd-c4e0-4783-b4f1-4daaeb41faef"},"vehicle_type_id":"4","last_reported":1742587824,"current_range_meters":9200,"station_id":"ce4bhi12rcd13ifvqfp0","pricing_plan_id":"cebpf4jnsgd1na2vs0mg"},{"bike_id":"20e2be53-78ac-4b24-8dad-96b43d72add2","system_id":"levelo_inurba_marseille","lat":43.3107,"lon":5.38349,"is_reserved":false,"is_disabled":false,"rental_uris":{"android":"levelo://app?vid=20e2be53-78ac-4b24-8dad-96b43d72add2","ios":"levelo://app?vid=20e2be53-78ac-4b24-8dad-96b43d72add2"},"vehicle_type_id":"4","last_reported":1742587824,"current_range_meters":9200,"station_id":"ce4bgv92rcd13ifvqcr0","pricing_plan_id":"cebpf4jnsgd1na2vs0mg"},{"bike_id":"36122bc8-3d81-471a-ae65-d15e3475afd5","system_id":"levelo_inurba_marseille","lat":43.23966,"lon":5.36634,"is_reserved":false,"is_disabled":false,"rental_uris":{"android":"levelo://app?vid=36122bc8-3d81-471a-ae65-d15e3475afd5","ios":"levelo://app?vid=36122bc8-3d81-471a-ae65-d15e3475afd5"},"vehicle_type_id":"4","last_reported":1742587824,"current_range_meters":9200,"station_id":"ce4bhi12rcd13ifvqfp0","pricing_plan_id":"cebpf4jnsgd1na2vs0mg"},{"bike_id":"9b80c4db-51e1-4e4e-8ecd-a558d3a24fd7","system_id":"levelo_inurba_marseille","lat":43.33166,"lon":5.38241,"is_reserved":false,"is_disabled":false,"rental_uris":{"android":"levelo://app?vid=9b80c4db-51e1-4e4e-8ecd-a558d3a24fd7","ios":"levelo://app?vid=9b80c4db-51e1-4e4e-8ecd-a558d3a24fd7"},"vehicle_type_id":"4","last_reported":1742587824,"current_range_meters":9200,"station_id":"","pricing_plan_id":"cebpf4jnsgd1na2vs0mg"},{"bike_id":"8451845f-f5b6-4fe7-ba98-abf100b83efd","system_id":"levelo_inurba_marseille","lat":43.29713,"lon":5.37673,"is_reserved":false,"is_disabled":true,"rental_uris":{"android":"levelo://app?vid=8451845f-f5b6-4fe7-ba98-abf100b83efd","ios":"levelo://app?vid=8451845f-f5b6-4fe7-ba98-abf100b83efd"},"vehicle_type_id":"4","last_reported":1742587824,"current_range_meters":9200,"station_id":"ce4bgkh2rcd13ifvqbl0","pricing_plan_id":"cebpf4jnsgd1na2vs0mg"},{"bike_id":"d6aff1ed-229c-4ff0-b6d9-674bc21c7e9b","system_id":"levelo_inurba_marseille","lat":43.30881,"lon":5.39642,"is_reserved":false,"is_disabled":false,"rental_uris":{"android":"levelo://app?vid=d6aff1ed-229c-4ff0-b6d9-674bc21c7e9b","ios":"levelo://app?vid=d6aff1ed-229c-4ff0-b6d9-674bc21c7e9b"},"vehicle_type_id":"4","last_reported":1742587824,"current_range_meters":9200,"station_id":"ce4bh012rcd13ifvqcv0","pricing_plan_id":"cebpf4jnsgd1na2vs0mg"},{"bike_id":"587739f6-5d0e-49bf-b955-95e0be8f7390","system_id":"levelo_inurba_marseille","lat":43.29254,"lon":5.40912,"is_reserved":false,"is_disabled":false,"rental_uris":{"android":"levelo://app?vid=587739f6-5d0e-49bf-b955-95e0be8f7390","ios":"levelo://app?vid=587739f6-5d0e-49bf-b955-95e0be8f7390"},"vehicle_type_id":"4","last_reported":1742587824,"current_range_meters":9200,"station_id":"ce4bh192rcd13ifvqdc0","pricing_plan_id":"cebpf4jnsgd1na2vs0mg"},{"bike_id":"c247e2d9-bc0a-43fc-96f6-63366ce4549c","system_id":"levelo_inurba_marseille","lat":43.28454,"lon":5.39196,"is_reserved":false,"is_disabled":false,"rental_uris":{"android":"levelo://app?vid=c247e2d9-bc0a-43fc-96f6-63366ce4549c","ios":"levelo://app?vid=c247e2d9-bc0a-43fc-96f6-63366ce4549c"},"vehicle_type_id":"4","last_reported":1742587824,"current_range_meters":9200,"station_id":"ce4bhoh2rcd13ifvqh5g","pricing_plan_id":"cebpf4jnsgd1na2vs0mg"},{"bike_id":"19aa4361-eae3-4e88-a4f3-b0fcac10355f","system_id":"levelo_inurba_marseille","lat":43.29312,"lon":5.37161,"is_reserved":false,"is_disabled":false,"rental_uris":{"android":"levelo://app?vid=19aa4361-eae3-4e88-a4f3-b0fcac10355f","ios":"levelo://app?vid=19aa4361-eae3-4e88-a4f3-b0fcac10355f"},"vehicle_type_id":"4","last_reported":1742587824,"current_range_meters":9200,"station_id":"ce4bgh92rcd13ifvqb40","pricing_plan_id":"cebpf4jnsgd1na2vs0mg"},{"bike_id":"a06df953-ee24-4eee-acd9-cfb685fc1c62","system_id":"levelo_inurba_marseille","lat":43.31431,"lon":5.37457,"is_reserved":false,"is_disabled":false,"rental_uris":{"android":"levelo://app?vid=a06df953-ee24-4eee-acd9-cfb685fc1c62","ios":"levelo://app?vid=a06df953-ee24-4eee-acd9-cfb685fc1c62"},"vehicle_type_id":"4","last_reported":1742587824,"current_range_meters":9600,"station_id":"","pricing_plan_id":"cebpf4jnsgd1na2vs0mg"},{"bike_id":"512a1343-6def-4fe4-beeb-eece3e586a9d","system_id":"levelo_inurba_marseille","lat":43.29553,"lon":5.42305,"is_reserved":false,"is_disabled":false,"rental_uris":{"android":"levelo://app?vid=512a1343-6def-4fe4-beeb-eece3e586a9d","ios":"levelo://app?vid=512a1343-6def-4fe4-beeb-eece3e586a9d"},"vehicle_type_id":"4","last_reported":1742587824,"current_range_meters":9200,"station_id":"ce4bhph2rcd13ifvqhdg","pricing_plan_id":"cebpf4jnsgd1na2vs0mg"},{"bike_id":"d000c8ac-0c96-4fc1-ac84-5f67409cab71","system_id":"levelo_inurba_marseille","lat":43.32487,"lon":5.36549,"is_reserved":false,"is_disabled":false,"rental_uris":{"android":"levelo://app?vid=d000c8ac-0c96-4fc1-ac84-5f67409cab71","ios":"levelo://app?vid=d000c8ac-0c96-4fc1-ac84-5f67409cab71"},"vehicle_type_id":"4","last_reported":1742587824,"current_range_meters":9600,"station_id":"ce4bhs12rcd13ifvqhvg","pricing_plan_id":"cebpf4jnsgd1na2vs0mg"},{"bike_id":"cff5c5d7-b2c2-4661-bcba-b7a09aa5def1","system_id":"levelo_inurba_marseille","lat":43.30324,"lon":5.36945,"is_reserved":false,"is_disabled":false,"rental_uris":{"android":"levelo://app?vid=cff5c5d7-b2c2-4661-bcba-b7a09aa5def1","ios":"levelo://app?vid=cff5c5d7-b2c2-4661-bcba-b7a09aa5def1"},"vehicle_type_id":"4","last_reported":1742587824,"current_range_meters":9600,"station_id":"ce4bgqh2rcd13ifvqc5g","pricing_plan_id":"cebpf4jnsgd1na2vs0mg"},{"bike_id":"4d2c7c19-30a8-4ecd-9a4d-9a6bd3bacdcf","system_id":"levelo_inurba_marseille","lat":43.29262,"lon":5.38455,"is_reserved":false,"is_disabled":false,"rental_uris":{"android":"levelo://app?vid=4d2c7c19-30a8-4ecd-9a4d-9a6bd3bacdcf","ios":"levelo://app?vid=4d2c7c19-30a8-4ecd-9a4d-9a6bd3bacdcf"},"vehicle_type_id":"4","last_reported":1742587824,"current_range_meters":9600,"station_id":"ce4bh692rcd13ifvqea0","pricing_plan_id":"cebpf4jnsgd1na2vs0mg"},{"bike_id":"93fff6e4-609c-4a77-877c-9f41f1057427","system_id":"levelo_inurba_marseille","lat":43.28622,"lon":5.35096,"is_reserved":false,"is_disabled":false,"rental_uris":{"android":"levelo://app?vid=93fff6e4-609c-4a77-877c-9f41f1057427","ios":"levelo://app?vid=93fff6e4-609c-4a77-877c-9f41f1057427"},"vehicle_type_id":"4","last_reported":1742587824,"current_range_meters":9600,"station_id":"ce4bhch2rcd13ifvqeug","pricing_plan_id":"cebpf4jnsgd1na2vs0mg"},{"bike_id":"f26047fe-e325-4cda-a7da-2e6f1320cab5","system_id":"levelo_inurba_marseille","lat":43.26522,"lon":5.3953,"is_reserved":false,"is_disabled":false,"rental_uris":{"android":"levelo://app?vid=f26047fe-e325-4cda-a7da-2e6f1320cab5","ios":"levelo://app?vid=f26047fe-e325-4cda-a7da-2e6f1320cab5"},"vehicle_type_id":"4","last_reported":1742587824,"current_range_meters":9600,"station_id":"ce4bhi12rcd13ifvqfq0","pricing_plan_id":"cebpf4jnsgd1na2vs0mg"},{"bike_id":"1f4b5356-d265-454a-aa48-2f7dec9d4d2a","system_id":"levelo_inurba_marseille","lat":43.3375,"lon":5.39224,"is_reserved":false,"is_disabled":false,"rental_uris":{"android":"levelo://app?vid=1f4b5356-d265-454a-aa48-2f7dec9d4d2a","ios":"levelo://app?vid=1f4b5356-d265-454a-aa48-2f7dec9d4d2a"},"vehicle_type_id":"4","last_reported":1742587824,"current_range_meters":9600,"station_id":"ce4bhr92rcd13ifvqhsg","pricing_plan_id":"cebpf4jnsgd1na2vs0mg"},{"bike_id":"18dbbf3f-e7fe-4ce0-8368-6c4dced60cd7","system_id":"levelo_inurba_marseille","lat":43.29904,"lon":5.38141,"is_reserved":false,"is_disabled":false,"rental_uris":{"android":"levelo://app?vid=18dbbf3f-e7fe-4ce0-8368-6c4dced60cd7","ios":"levelo://app?vid=18dbbf3f-e7fe-4ce0-8368-6c4dced60cd7"},"vehicle_type_id":"4","last_reported":1742587824,"current_range_meters":9600,"station_id":"ce4bgj12rcd13ifvqbc0","pricing_plan_id":"cebpf4jnsgd1na2vs0mg"},{"bike_id":"3ee69224-7c6a-448e-b5bc-935bb2df6bdf","system_id":"levelo_inurba_marseille","lat":43.2808,"lon":5.39652,"is_reserved":false,"is_disabled":false,"rental_uris":{"android":"levelo://app?vid=3ee69224-7c6a-448e-b5bc-935bb2df6bdf","ios":"levelo://app?vid=3ee69224-7c6a-448e-b5bc-935bb2df6bdf"},"vehicle_type_id":"4","last_reported":1742587824,"current_range_meters":9600,"station_id":"ce4bho12rcd13ifvqh2g","pricing_plan_id":"cebpf4jnsgd1na2vs0mg"},{"bike_id":"f1c1254d-d9d6-4485-8910-4ae2a7c84bc0","system_id":"levelo_inurba_marseille","lat":43.23189,"lon":5.39982,"is_reserved":false,"is_disabled":false,"rental_uris":{"android":"levelo://app?vid=f1c1254d-d9d6-4485-8910-4ae2a7c84bc0","ios":"levelo://app?vid=f1c1254d-d9d6-4485-8910-4ae2a7c84bc0"},"vehicle_type_id":"4","last_reported":1742587824,"current_range_meters":9600,"station_id":"ce4bhn12rcd13ifvqgqg","pricing_plan_id":"cebpf4jnsgd1na2vs0mg"},{"bike_id":"0457f642-4a01-4c98-a514-f4ddd3553243","system_id":"levelo_inurba_marseille","lat":43.29541,"lon":5.3855,"is_reserved":false,"is_disabled":false,"rental_uris":{"android":"levelo://app?vid=0457f642-4a01-4c98-a514-f4ddd3553243","ios":"levelo://app?vid=0457f642-4a01-4c98-a514-f4ddd3553243"},"vehicle_type_id":"4","last_reported":1742587824,"current_range_meters":9600,"station_id":"ce4bgih2rcd13ifvqba0","pricing_plan_id":"cebpf4jnsgd1na2vs0mg"},{"bike_id":"52c16ac5-3447-4053-956c-78fc8bf0dc7c","system_id":"levelo_inurba_marseille","lat":43.32366,"lon":5.36764,"is_reserved":false,"is_disabled":false,"rental_uris":{"android":"levelo://app?vid=52c16ac5-3447-4053-956c-78fc8bf0dc7c","ios":"levelo://app?vid=52c16ac5-3447-4053-956c-78fc8bf0dc7c"},"vehicle_type_id":"4","last_reported":1742587824,"current_range_meters":10000,"station_id":"ce4bhsh2rcd13ifvqi2g","pricing_plan_id":"cebpf4jnsgd1na2vs0mg"},{"bike_id":"9f1c3e5c-869d-4869-b7c6-0c926f2da6bf","system_id":"levelo_inurba_marseille","lat":43.2834,"lon":5.39793,"is_reserved":false,"is_disabled":false,"rental_uris":{"android":"levelo://app?vid=9f1c3e5c-869d-4869-b7c6-0c926f2da6bf","ios":"levelo://app?vid=9f1c3e5c-869d-4869-b7c6-0c926f2da6bf"},"vehicle_type_id":"4","last_reported":1742587824,"current_range_meters":10000,"station_id":"","pricing_plan_id":"cebpf4jnsgd1na2vs0mg"},{"bike_id":"7c92fa4a-9bc1-44b2-9208-97d3580ce3ec","system_id":"levelo_inurba_marseille","lat":43.24992,"lon":5.38956,"is_reserved":false,"is_disabled":false,"rental_uris":{"android":"levelo://app?vid=7c92fa4a-9bc1-44b2-9208-97d3580ce3ec","ios":"levelo://app?vid=7c92fa4a-9bc1-44b2-9208-97d3580ce3ec"},"vehicle_type_id":"4","last_reported":1742587824,"current_range_meters":10000,"station_id":"ce4bhgp2rcd13ifvqfd0","pricing_plan_id":"cebpf4jnsgd1na2vs0mg"},{"bike_id":"7a7c73e7-a501-4b78-9258-d3fd6f0e0ef8","system_id":"levelo_inurba_marseille","lat":43.28736,"lon":5.36458,"is_reserved":false,"is_disabled":false,"rental_uris":{"android":"levelo://app?vid=7a7c73e7-a501-4b78-9258-d3fd6f0e0ef8","ios":"levelo://app?vid=7a7c73e7-a501-4b78-9258-d3fd6f0e0ef8"},"vehicle_type_id":"4","last_reported":1742587824,"current_range_meters":10000,"station_id":"","pricing_plan_id":"cebpf4jnsgd1na2vs0mg"},{"bike_id":"a52dfbd3-560f-4dad-8ae6-494d05ea4c89","system_id":"levelo_inurba_marseille","lat":43.32302,"lon":5.38281,"is_reserved":false,"is_disabled":false,"rental_uris":{"android":"levelo://app?vid=a52dfbd3-560f-4dad-8ae6-494d05ea4c89","ios":"levelo://app?vid=a52dfbd3-560f-4dad-8ae6-494d05ea4c89"},"vehicle_type_id":"4","last_reported":1742587824,"current_range_meters":10000,"station_id":"ce4bhr12rcd13ifvqhqg","pricing_plan_id":"cebpf4jnsgd1na2vs0mg"},{"bike_id":"de2b8656-9b7e-420b-a7e5-0945a3affb7c","system_id":"levelo_inurba_marseille","lat":43.29916,"lon":5.36529,"is_reserved":false,"is_disabled":false,"rental_uris":{"android":"levelo://app?vid=de2b8656-9b7e-420b-a7e5-0945a3affb7c","ios":"levelo://app?vid=de2b8656-9b7e-420b-a7e5-0945a3affb7c"},"vehicle_type_id":"4","last_reported":1742587824,"current_range_meters":10000,"station_id":"ce4bgm92rcd13ifvqbr0","pricing_plan_id":"cebpf4jnsgd1na2vs0mg"},{"bike_id":"2c69b466-5688-4e6a-aa37-bf74dd1c8e76","system_id":"levelo_inurba_marseille","lat":43.26821,"lon":5.40237,"is_reserved":false,"is_disabled":false,"rental_uris":{"android":"levelo://app?vid=2c69b466-5688-4e6a-aa37-bf74dd1c8e76","ios":"levelo://app?vid=2c69b466-5688-4e6a-aa37-bf74dd1c8e76"},"vehicle_type_id":"4","last_reported":1742587824,"current_range_meters":10000,"station_id":"ce501612rcd8frsf0b60","pricing_plan_id":"cebpf4jnsgd1na2vs0mg"},{"bike_id":"58e380e3-6b50-415f-873c-7c40b3ff03f2","system_id":"levelo_inurba_marseille","lat":43.27835,"lon":5.40733,"is_reserved":false,"is_disabled":false,"rental_uris":{"android":"levelo://app?vid=58e380e3-6b50-415f-873c-7c40b3ff03f2","ios":"levelo://app?vid=58e380e3-6b50-415f-873c-7c40b3ff03f2"},"vehicle_type_id":"4","last_reported":1742587824,"current_range_meters":10000,"station_id":"ce4bhnh2rcd13ifvqgtg","pricing_plan_id":"cebpf4jnsgd1na2vs0mg"},{"bike_id":"27de0c76-7a26-4063-9191-61c6657b98eb","system_id":"levelo_inurba_marseille","lat":43.29424,"lon":5.38632,"is_reserved":false,"is_disabled":false,"rental_uris":{"android":"levelo://app?vid=27de0c76-7a26-4063-9191-61c6657b98eb","ios":"levelo://app?vid=27de0c76-7a26-4063-9191-61c6657b98eb"},"vehicle_type_id":"4","last_reported":1742587824,"current_range_meters":10000,"station_id":"ce4bh2h2rcd13ifvqdh0","pricing_plan_id":"cebpf4jnsgd1na2vs0mg"},{"bike_id":"257266cf-683b-4c8a-a350-70a5c3f41572","system_id":"levelo_inurba_marseille","lat":43.3118,"lon":5.38708,"is_reserved":false,"is_disabled":false,"rental_uris":{"android":"levelo://app?vid=257266cf-683b-4c8a-a350-70a5c3f41572","ios":"levelo://app?vid=257266cf-683b-4c8a-a350-70a5c3f41572"},"vehicle_type_id":"4","last_reported":1742587824,"current_range_meters":10800,"station_id":"ce4bgv12rcd13ifvqcp0","pricing_plan_id":"cebpf4jnsgd1na2vs0mg"},{"bike_id":"900e44dd-1317-4e6e-ac50-7e0c8fe7d455","system_id":"levelo_inurba_marseille","lat":43.23966,"lon":5.36641,"is_reserved":false,"is_disabled":false,"rental_uris":{"android":"levelo://app?vid=900e44dd-1317-4e6e-ac50-7e0c8fe7d455","ios":"levelo://app?vid=900e44dd-1317-4e6e-ac50-7e0c8fe7d455"},"vehicle_type_id":"4","last_reported":1742587824,"current_range_meters":10800,"station_id":"ce4bhi12rcd13ifvqfp0","pricing_plan_id":"cebpf4jnsgd1na2vs0mg"},{"bike_id":"33063778-d13b-488d-a098-00d76ac265e1","system_id":"levelo_inurba_marseille","lat":43.31076,"lon":5.38316,"is_reserved":false,"is_disabled":false,"rental_uris":{"android":"levelo://app?vid=33063778-d13b-488d-a098-00d76ac265e1","ios":"levelo://app?vid=33063778-d13b-488d-a098-00d76ac265e1"},"vehicle_type_id":"4","last_reported":1742587824,"current_range_meters":10800,"station_id":"ce4bgv92rcd13ifvqcr0","pricing_plan_id":"cebpf4jnsgd1na2vs0mg"},{"bike_id":"dc537980-6042-493d-8080-0667efb1d6ad","system_id":"levelo_inurba_marseille","lat":43.24539,"lon":5.39533,"is_reserved":false,"is_disabled":false,"rental_uris":{"android":"levelo://app?vid=dc537980-6042-493d-8080-0667efb1d6ad","ios":"levelo://app?vid=dc537980-6042-493d-8080-0667efb1d6ad"},"vehicle_type_id":"4","last_reported":1742587824,"current_range_meters":10800,"station_id":"ce4bhlp2rcd13ifvqgjg","pricing_plan_id":"cebpf4jnsgd1na2vs0mg"},{"bike_id":"dea95f65-6c29-46fb-a35a-27fb89ec4543","system_id":"levelo_inurba_marseille","lat":43.29266,"lon":5.3844,"is_reserved":false,"is_disabled":false,"rental_uris":{"android":"levelo://app?vid=dea95f65-6c29-46fb-a35a-27fb89ec4543","ios":"levelo://app?vid=dea95f65-6c29-46fb-a35a-27fb89ec4543"},"vehicle_type_id":"4","last_reported":1742587824,"current_range_meters":10800,"station_id":"ce4bh692rcd13ifvqea0","pricing_plan_id":"cebpf4jnsgd1na2vs0mg"},{"bike_id":"aad8559b-e137-4459-b1c9-e668b0a1b60c","system_id":"levelo_inurba_marseille","lat":43.30135,"lon":5.3987,"is_reserved":false,"is_disabled":false,"rental_uris":{"android":"levelo://app?vid=aad8559b-e137-4459-b1c9-e668b0a1b60c","ios":"levelo://app?vid=aad8559b-e137-4459-b1c9-e668b0a1b60c"},"vehicle_type_id":"4","last_reported":1742587824,"current_range_meters":10800,"station_id":"ce4bh0h2rcd13ifvqd40","pricing_plan_id":"cebpf4jnsgd1na2vs0mg"},{"bike_id":"fbbb3028-b15b-4750-98dc-ac90972ecc9b","system_id":"levelo_inurba_marseille","lat":43.32119,"lon":5.36769,"is_reserved":false,"is_disabled":false,"rental_uris":{"android":"levelo://app?vid=fbbb3028-b15b-4750-98dc-ac90972ecc9b","ios":"levelo://app?vid=fbbb3028-b15b-4750-98dc-ac90972ecc9b"},"vehicle_type_id":"4","last_reported":1742587824,"current_range_meters":10800,"station_id":"ce4bhrh2rcd13ifvqhug","pricing_plan_id":"cebpf4jnsgd1na2vs0mg"},{"bike_id":"276613ec-3310-44d6-ae3f-44328dd4fd15","system_id":"levelo_inurba_marseille","lat":43.2583,"lon":5.39419,"is_reserved":false,"is_disabled":false,"rental_uris":{"android":"levelo://app?vid=276613ec-3310-44d6-ae3f-44328dd4fd15","ios":"levelo://app?vid=276613ec-3310-44d6-ae3f-44328dd4fd15"},"vehicle_type_id":"4","last_reported":1742587824,"current_range_meters":10800,"station_id":"ce4bhip2rcd13ifvqft0","pricing_plan_id":"cebpf4jnsgd1na2vs0mg"},{"bike_id":"297f3262-f3e5-4de8-9e84-22e119cd844a","system_id":"levelo_inurba_marseille","lat":43.29627,"lon":5.40606,"is_reserved":false,"is_disabled":false,"rental_uris":{"android":"levelo://app?vid=297f3262-f3e5-4de8-9e84-22e119cd844a","ios":"levelo://app?vid=297f3262-f3e5-4de8-9e84-22e119cd844a"},"vehicle_type_id":"4","last_reported":1742587824,"current_range_meters":10800,"station_id":"ce4bh0h2rcd13ifvqd60","pricing_plan_id":"cebpf4jnsgd1na2vs0mg"},{"bike_id":"48f2a215-7a63-4ee4-b8ca-a2ac971f9a74","system_id":"levelo_inurba_marseille","lat":43.30352,"lon":5.41883,"is_reserved":false,"is_disabled":false,"rental_uris":{"android":"levelo://app?vid=48f2a215-7a63-4ee4-b8ca-a2ac971f9a74","ios":"levelo://app?vid=48f2a215-7a63-4ee4-b8ca-a2ac971f9a74"},"vehicle_type_id":"4","last_reported":1742587824,"current_range_meters":10800,"station_id":"ce4bhop2rcd13ifvqh7g","pricing_plan_id":"cebpf4jnsgd1na2vs0mg"},{"bike_id":"1dcafae9-cd8e-4ddb-b6f5-7d53348885d6","system_id":"levelo_inurba_marseille","lat":43.29422,"lon":5.38616,"is_reserved":false,"is_disabled":false,"rental_uris":{"android":"levelo://app?vid=1dcafae9-cd8e-4ddb-b6f5-7d53348885d6","ios":"levelo://app?vid=1dcafae9-cd8e-4ddb-b6f5-7d53348885d6"},"vehicle_type_id":"4","last_reported":1742587824,"current_range_meters":11200,"station_id":"ce4bh2h2rcd13ifvqdh0","pricing_plan_id":"cebpf4jnsgd1na2vs0mg"},{"bike_id":"29c299a3-8deb-46e4-8cd6-c7a928ea34d7","system_id":"levelo_inurba_marseille","lat":43.26558,"lon":5.37277,"is_reserved":false,"is_disabled":false,"rental_uris":{"android":"levelo://app?vid=29c299a3-8deb-46e4-8cd6-c7a928ea34d7","ios":"levelo://app?vid=29c299a3-8deb-46e4-8cd6-c7a928ea34d7"},"vehicle_type_id":"4","last_reported":1742587824,"current_range_meters":11200,"station_id":"ce4bhg12rcd13ifvqf70","pricing_plan_id":"cebpf4jnsgd1na2vs0mg"},{"bike_id":"4ba195f2-4e06-4130-b7bc-1a40b3280063","system_id":"levelo_inurba_marseille","lat":43.27552,"lon":5.38415,"is_reserved":false,"is_disabled":false,"rental_uris":{"android":"levelo://app?vid=4ba195f2-4e06-4130-b7bc-1a40b3280063","ios":"levelo://app?vid=4ba195f2-4e06-4130-b7bc-1a40b3280063"},"vehicle_type_id":"4","last_reported":1742587824,"current_range_meters":11200,"station_id":"ce4bhh92rcd13ifvqfi0","pricing_plan_id":"cebpf4jnsgd1na2vs0mg"},{"bike_id":"f7b19721-c68b-4280-b653-43eff6dbb1fd","system_id":"levelo_inurba_marseille","lat":43.32122,"lon":5.36791,"is_reserved":false,"is_disabled":false,"rental_uris":{"android":"levelo://app?vid=f7b19721-c68b-4280-b653-43eff6dbb1fd","ios":"levelo://app?vid=f7b19721-c68b-4280-b653-43eff6dbb1fd"},"vehicle_type_id":"4","last_reported":1742587824,"current_range_meters":11200,"station_id":"ce4bhrh2rcd13ifvqhug","pricing_plan_id":"cebpf4jnsgd1na2vs0mg"},{"bike_id":"5fb66f2a-93ea-4114-9bd5-335c82e3a4cb","system_id":"levelo_inurba_marseille","lat":43.2587,"lon":5.39903,"is_reserved":false,"is_disabled":false,"rental_uris":{"android":"levelo://app?vid=5fb66f2a-93ea-4114-9bd5-335c82e3a4cb","ios":"levelo://app?vid=5fb66f2a-93ea-4114-9bd5-335c82e3a4cb"},"vehicle_type_id":"4","last_reported":1742587824,"current_range_meters":11200,"station_id":"ce4bhl92rcd13ifvqghg","pricing_plan_id":"cebpf4jnsgd1na2vs0mg"},{"bike_id":"4f7ac6cf-ebe1-498a-824b-1c0b60d0f428","system_id":"levelo_inurba_marseille","lat":43.23957,"lon":5.36629,"is_reserved":false,"is_disabled":false,"rental_uris":{"android":"levelo://app?vid=4f7ac6cf-ebe1-498a-824b-1c0b60d0f428","ios":"levelo://app?vid=4f7ac6cf-ebe1-498a-824b-1c0b60d0f428"},"vehicle_type_id":"4","last_reported":1742587824,"current_range_meters":11200,"station_id":"ce4bhi12rcd13ifvqfp0","pricing_plan_id":"cebpf4jnsgd1na2vs0mg"},{"bike_id":"56867255-0b40-4a6c-95b6-afdc2e4f8cec","system_id":"levelo_inurba_marseille","lat":43.29531,"lon":5.38555,"is_reserved":false,"is_disabled":false,"rental_uris":{"android":"levelo://app?vid=56867255-0b40-4a6c-95b6-afdc2e4f8cec","ios":"levelo://app?vid=56867255-0b40-4a6c-95b6-afdc2e4f8cec"},"vehicle_type_id":"4","last_reported":1742587824,"current_range_meters":11600,"station_id":"ce4bgih2rcd13ifvqba0","pricing_plan_id":"cebpf4jnsgd1na2vs0mg"},{"bike_id":"c7690d8f-d650-495b-82f0-2abd9a4308b7","system_id":"levelo_inurba_marseille","lat":43.25576,"lon":5.38249,"is_reserved":false,"is_disabled":false,"rental_uris":{"android":"levelo://app?vid=c7690d8f-d650-495b-82f0-2abd9a4308b7","ios":"levelo://app?vid=c7690d8f-d650-495b-82f0-2abd9a4308b7"},"vehicle_type_id":"4","last_reported":1742587824,"current_range_meters":11600,"station_id":"ce4bhih2rcd13ifvqfs0","pricing_plan_id":"cebpf4jnsgd1na2vs0mg"},{"bike_id":"82f37921-6537-42a8-91cd-5eb3f95800cb","system_id":"levelo_inurba_marseille","lat":43.28694,"lon":5.37391,"is_reserved":false,"is_disabled":false,"rental_uris":{"android":"levelo://app?vid=82f37921-6537-42a8-91cd-5eb3f95800cb","ios":"levelo://app?vid=82f37921-6537-42a8-91cd-5eb3f95800cb"},"vehicle_type_id":"4","last_reported":1742587824,"current_range_meters":11600,"station_id":"ce4bh3p2rcd13ifvqdq0","pricing_plan_id":"cebpf4jnsgd1na2vs0mg"},{"bike_id":"225f7fc2-2214-417a-94d8-573a71efde8e","system_id":"levelo_inurba_marseille","lat":43.29421,"lon":5.38616,"is_reserved":false,"is_disabled":false,"rental_uris":{"android":"levelo://app?vid=225f7fc2-2214-417a-94d8-573a71efde8e","ios":"levelo://app?vid=225f7fc2-2214-417a-94d8-573a71efde8e"},"vehicle_type_id":"4","last_reported":1742587824,"current_range_meters":11600,"station_id":"ce4bh2h2rcd13ifvqdh0","pricing_plan_id":"cebpf4jnsgd1na2vs0mg"},{"bike_id":"295b2b96-8a22-4b6f-a45b-df5a7ed58969","system_id":"levelo_inurba_marseille","lat":43.33758,"lon":5.39189,"is_reserved":false,"is_disabled":false,"rental_uris":{"android":"levelo://app?vid=295b2b96-8a22-4b6f-a45b-df5a7ed58969","ios":"levelo://app?vid=295b2b96-8a22-4b6f-a45b-df5a7ed58969"},"vehicle_type_id":"4","last_reported":1742587824,"current_range_meters":12000,"station_id":"ce4bhr92rcd13ifvqhsg","pricing_plan_id":"cebpf4jnsgd1na2vs0mg"},{"bike_id":"b672f335-47a8-4062-a575-6187d8508057","system_id":"levelo_inurba_marseille","lat":43.26053,"lon":5.39394,"is_reserved":false,"is_disabled":false,"rental_uris":{"android":"levelo://app?vid=b672f335-47a8-4062-a575-6187d8508057","ios":"levelo://app?vid=b672f335-47a8-4062-a575-6187d8508057"},"vehicle_type_id":"4","last_reported":1742587824,"current_range_meters":12000,"station_id":"ce4bhh92rcd13ifvqfj0","pricing_plan_id":"cebpf4jnsgd1na2vs0mg"},{"bike_id":"e1e493b8-6ddd-477f-a5c7-ce583728c84a","system_id":"levelo_inurba_marseille","lat":43.29025,"lon":5.38158,"is_reserved":false,"is_disabled":false,"rental_uris":{"android":"levelo://app?vid=e1e493b8-6ddd-477f-a5c7-ce583728c84a","ios":"levelo://app?vid=e1e493b8-6ddd-477f-a5c7-ce583728c84a"},"vehicle_type_id":"4","last_reported":1742587824,"current_range_meters":12000,"station_id":"ce4bh4p2rcd13ifvqe1g","pricing_plan_id":"cebpf4jnsgd1na2vs0mg"},{"bike_id":"3edb904b-ad5d-447e-ba08-4ac1801adea2","system_id":"levelo_inurba_marseille","lat":43.28078,"lon":5.39655,"is_reserved":false,"is_disabled":false,"rental_uris":{"android":"levelo://app?vid=3edb904b-ad5d-447e-ba08-4ac1801adea2","ios":"levelo://app?vid=3edb904b-ad5d-447e-ba08-4ac1801adea2"},"vehicle_type_id":"4","last_reported":1742587824,"current_range_meters":12000,"station_id":"ce4bho12rcd13ifvqh2g","pricing_plan_id":"cebpf4jnsgd1na2vs0mg"},{"bike_id":"6f3844ff-2aa2-4473-952c-bd329dc94e95","system_id":"levelo_inurba_marseille","lat":43.25838,"lon":5.39442,"is_reserved":false,"is_disabled":false,"rental_uris":{"android":"levelo://app?vid=6f3844ff-2aa2-4473-952c-bd329dc94e95","ios":"levelo://app?vid=6f3844ff-2aa2-4473-952c-bd329dc94e95"},"vehicle_type_id":"4","last_reported":1742587824,"current_range_meters":12000,"station_id":"ce4bhip2rcd13ifvqft0","pricing_plan_id":"cebpf4jnsgd1na2vs0mg"},{"bike_id":"764dcd05-4b00-4745-9435-692182d1f88c","system_id":"levelo_inurba_marseille","lat":43.27815,"lon":5.40685,"is_reserved":false,"is_disabled":false,"rental_uris":{"android":"levelo://app?vid=764dcd05-4b00-4745-9435-692182d1f88c","ios":"levelo://app?vid=764dcd05-4b00-4745-9435-692182d1f88c"},"vehicle_type_id":"4","last_reported":1742587824,"current_range_meters":12400,"station_id":"ce4bhnh2rcd13ifvqgtg","pricing_plan_id":"cebpf4jnsgd1na2vs0mg"},{"bike_id":"b27e663d-7d59-41b9-b9f9-663ece9c76db","system_id":"levelo_inurba_marseille","lat":43.29568,"lon":5.37534,"is_reserved":false,"is_disabled":false,"rental_uris":{"android":"levelo://app?vid=b27e663d-7d59-41b9-b9f9-663ece9c76db","ios":"levelo://app?vid=b27e663d-7d59-41b9-b9f9-663ece9c76db"},"vehicle_type_id":"4","last_reported":1742587824,"current_range_meters":12400,"station_id":"ce4bgh92rcd13ifvqb50","pricing_plan_id":"cebpf4jnsgd1na2vs0mg"},{"bike_id":"5b0fce43-3e12-4757-9de7-875968833c20","system_id":"levelo_inurba_marseille","lat":43.28857,"lon":5.35903,"is_reserved":false,"is_disabled":false,"rental_uris":{"android":"levelo://app?vid=5b0fce43-3e12-4757-9de7-875968833c20","ios":"levelo://app?vid=5b0fce43-3e12-4757-9de7-875968833c20"},"vehicle_type_id":"4","last_reported":1742587824,"current_range_meters":12400,"station_id":"ce4bhb12rcd13ifvqem0","pricing_plan_id":"cebpf4jnsgd1na2vs0mg"},{"bike_id":"b5fcb98a-c8d5-4f1a-a9b4-b3362af2a9c7","system_id":"levelo_inurba_marseille","lat":43.23064,"lon":5.35493,"is_reserved":false,"is_disabled":false,"rental_uris":{"android":"levelo://app?vid=b5fcb98a-c8d5-4f1a-a9b4-b3362af2a9c7","ios":"levelo://app?vid=b5fcb98a-c8d5-4f1a-a9b4-b3362af2a9c7"},"vehicle_type_id":"4","last_reported":1742587824,"current_range_meters":12400,"station_id":"cpo3342slgdg3j2ifvpg","pricing_plan_id":"cebpf4jnsgd1na2vs0mg"},{"bike_id":"fd374c94-c23a-4732-8325-3edfd7597f3f","system_id":"levelo_inurba_marseille","lat":43.31278,"lon":5.40179,"is_reserved":false,"is_disabled":false,"rental_uris":{"android":"levelo://app?vid=fd374c94-c23a-4732-8325-3edfd7597f3f","ios":"levelo://app?vid=fd374c94-c23a-4732-8325-3edfd7597f3f"},"vehicle_type_id":"4","last_reported":1742587824,"current_range_meters":12000,"station_id":"ce4bh092rcd13ifvqd30","pricing_plan_id":"cebpf4jnsgd1na2vs0mg"},{"bike_id":"fe239f3d-5c83-42bd-8b99-e0b3f3784fb5","system_id":"levelo_inurba_marseille","lat":43.24597,"lon":5.38395,"is_reserved":false,"is_disabled":false,"rental_uris":{"android":"levelo://app?vid=fe239f3d-5c83-42bd-8b99-e0b3f3784fb5","ios":"levelo://app?vid=fe239f3d-5c83-42bd-8b99-e0b3f3784fb5"},"vehicle_type_id":"4","last_reported":1742587824,"current_range_meters":12400,"station_id":"","pricing_plan_id":"cebpf4jnsgd1na2vs0mg"},{"bike_id":"8ff6a3b5-d1d9-417b-86f0-6d0ace3538d0","system_id":"levelo_inurba_marseille","lat":43.25832,"lon":5.39436,"is_reserved":false,"is_disabled":false,"rental_uris":{"android":"levelo://app?vid=8ff6a3b5-d1d9-417b-86f0-6d0ace3538d0","ios":"levelo://app?vid=8ff6a3b5-d1d9-417b-86f0-6d0ace3538d0"},"vehicle_type_id":"4","last_reported":1742587824,"current_range_meters":12800,"station_id":"ce4bhip2rcd13ifvqft0","pricing_plan_id":"cebpf4jnsgd1na2vs0mg"},{"bike_id":"3ddc33bd-e1d4-464e-94f5-7bf7dc1512b3","system_id":"levelo_inurba_marseille","lat":43.32275,"lon":5.38292,"is_reserved":false,"is_disabled":false,"rental_uris":{"android":"levelo://app?vid=3ddc33bd-e1d4-464e-94f5-7bf7dc1512b3","ios":"levelo://app?vid=3ddc33bd-e1d4-464e-94f5-7bf7dc1512b3"},"vehicle_type_id":"4","last_reported":1742587824,"current_range_meters":12800,"station_id":"ce4bhr12rcd13ifvqhqg","pricing_plan_id":"cebpf4jnsgd1na2vs0mg"},{"bike_id":"772f75bc-7c85-4a70-bc29-c90a4b230203","system_id":"levelo_inurba_marseille","lat":43.29508,"lon":5.394,"is_reserved":false,"is_disabled":false,"rental_uris":{"android":"levelo://app?vid=772f75bc-7c85-4a70-bc29-c90a4b230203","ios":"levelo://app?vid=772f75bc-7c85-4a70-bc29-c90a4b230203"},"vehicle_type_id":"4","last_reported":1742587824,"current_range_meters":12400,"station_id":"ce4bh292rcd13ifvqdf0","pricing_plan_id":"cebpf4jnsgd1na2vs0mg"},{"bike_id":"7028a785-09a5-4a10-b399-406b69c451e0","system_id":"levelo_inurba_marseille","lat":43.303,"lon":5.39221,"is_reserved":false,"is_disabled":false,"rental_uris":{"android":"levelo://app?vid=7028a785-09a5-4a10-b399-406b69c451e0","ios":"levelo://app?vid=7028a785-09a5-4a10-b399-406b69c451e0"},"vehicle_type_id":"4","last_reported":1742587824,"current_range_meters":12800,"station_id":"ce4bgkh2rcd13ifvqbk0","pricing_plan_id":"cebpf4jnsgd1na2vs0mg"},{"bike_id":"2e498aa3-894e-4c76-80f7-89d7d325670d","system_id":"levelo_inurba_marseille","lat":43.31486,"lon":5.37313,"is_reserved":false,"is_disabled":false,"rental_uris":{"android":"levelo://app?vid=2e498aa3-894e-4c76-80f7-89d7d325670d","ios":"levelo://app?vid=2e498aa3-894e-4c76-80f7-89d7d325670d"},"vehicle_type_id":"4","last_reported":1742587824,"current_range_meters":12400,"station_id":"ce4bgt12rcd13ifvqcd0","pricing_plan_id":"cebpf4jnsgd1na2vs0mg"},{"bike_id":"222aa150-cb5e-4510-a174-9c17af09dd9b","system_id":"levelo_inurba_marseille","lat":43.27812,"lon":5.40706,"is_reserved":false,"is_disabled":false,"rental_uris":{"android":"levelo://app?vid=222aa150-cb5e-4510-a174-9c17af09dd9b","ios":"levelo://app?vid=222aa150-cb5e-4510-a174-9c17af09dd9b"},"vehicle_type_id":"4","last_reported":1742587824,"current_range_meters":12800,"station_id":"ce4bhnh2rcd13ifvqgtg","pricing_plan_id":"cebpf4jnsgd1na2vs0mg"},{"bike_id":"a59d9fa3-dd5d-4d82-bd81-d577cd1919dd","system_id":"levelo_inurba_marseille","lat":43.29434,"lon":5.3865,"is_reserved":false,"is_disabled":false,"rental_uris":{"android":"levelo://app?vid=a59d9fa3-dd5d-4d82-bd81-d577cd1919dd","ios":"levelo://app?vid=a59d9fa3-dd5d-4d82-bd81-d577cd1919dd"},"vehicle_type_id":"4","last_reported":1742587824,"current_range_meters":12800,"station_id":"ce4bh2h2rcd13ifvqdh0","pricing_plan_id":"cebpf4jnsgd1na2vs0mg"},{"bike_id":"38044645-ece5-4bcd-8d4d-db0d7b3b13cd","system_id":"levelo_inurba_marseille","lat":43.2457,"lon":5.39521,"is_reserved":false,"is_disabled":false,"rental_uris":{"android":"levelo://app?vid=38044645-ece5-4bcd-8d4d-db0d7b3b13cd","ios":"levelo://app?vid=38044645-ece5-4bcd-8d4d-db0d7b3b13cd"},"vehicle_type_id":"4","last_reported":1742587824,"current_range_meters":12800,"station_id":"ce4bhlp2rcd13ifvqgjg","pricing_plan_id":"cebpf4jnsgd1na2vs0mg"},{"bike_id":"1ad1e638-dde0-4d32-b7a6-6921507901a1","system_id":"levelo_inurba_marseille","lat":43.29202,"lon":5.3934,"is_reserved":false,"is_disabled":false,"rental_uris":{"android":"levelo://app?vid=1ad1e638-dde0-4d32-b7a6-6921507901a1","ios":"levelo://app?vid=1ad1e638-dde0-4d32-b7a6-6921507901a1"},"vehicle_type_id":"4","last_reported":1742587824,"current_range_meters":12800,"station_id":"ce4bh192rcd13ifvqdd0","pricing_plan_id":"cebpf4jnsgd1na2vs0mg"},{"bike_id":"9c747ab1-84e4-463f-87ba-f786aa5852f4","system_id":"levelo_inurba_marseille","lat":43.2782,"lon":5.40711,"is_reserved":false,"is_disabled":false,"rental_uris":{"android":"levelo://app?vid=9c747ab1-84e4-463f-87ba-f786aa5852f4","ios":"levelo://app?vid=9c747ab1-84e4-463f-87ba-f786aa5852f4"},"vehicle_type_id":"4","last_reported":1742587824,"current_range_meters":13600,"station_id":"ce4bhnh2rcd13ifvqgtg","pricing_plan_id":"cebpf4jnsgd1na2vs0mg"},{"bike_id":"cb0d462f-af8f-4ec4-8127-ba1c9fc2a6af","system_id":"levelo_inurba_marseille","lat":43.31378,"lon":5.36701,"is_reserved":false,"is_disabled":false,"rental_uris":{"android":"levelo://app?vid=cb0d462f-af8f-4ec4-8127-ba1c9fc2a6af","ios":"levelo://app?vid=cb0d462f-af8f-4ec4-8127-ba1c9fc2a6af"},"vehicle_type_id":"4","last_reported":1742587824,"current_range_meters":13600,"station_id":"ce4bgr92rcd13ifvqc6g","pricing_plan_id":"cebpf4jnsgd1na2vs0mg"},{"bike_id":"1941e1fe-aa74-4007-afde-fda9d78d046e","system_id":"levelo_inurba_marseille","lat":43.29298,"lon":5.37617,"is_reserved":false,"is_disabled":false,"rental_uris":{"android":"levelo://app?vid=1941e1fe-aa74-4007-afde-fda9d78d046e","ios":"levelo://app?vid=1941e1fe-aa74-4007-afde-fda9d78d046e"},"vehicle_type_id":"4","last_reported":1742587824,"current_range_meters":14000,"station_id":"ce4bgi12rcd13ifvqb80","pricing_plan_id":"cebpf4jnsgd1na2vs0mg"},{"bike_id":"2b75be19-d94e-4b6c-be88-04f2452ee0ca","system_id":"levelo_inurba_marseille","lat":43.2944,"lon":5.38616,"is_reserved":false,"is_disabled":false,"rental_uris":{"android":"levelo://app?vid=2b75be19-d94e-4b6c-be88-04f2452ee0ca","ios":"levelo://app?vid=2b75be19-d94e-4b6c-be88-04f2452ee0ca"},"vehicle_type_id":"4","last_reported":1742587824,"current_range_meters":14000,"station_id":"ce4bh2h2rcd13ifvqdh0","pricing_plan_id":"cebpf4jnsgd1na2vs0mg"},{"bike_id":"9683555e-fe04-4de7-b706-7a9b0019a6a7","system_id":"levelo_inurba_marseille","lat":43.33753,"lon":5.37495,"is_reserved":false,"is_disabled":true,"rental_uris":{"android":"levelo://app?vid=9683555e-fe04-4de7-b706-7a9b0019a6a7","ios":"levelo://app?vid=9683555e-fe04-4de7-b706-7a9b0019a6a7"},"vehicle_type_id":"4","last_reported":1742587824,"current_range_meters":14000,"station_id":"ce4bh2h2rcd13ifvqdh0","pricing_plan_id":"cebpf4jnsgd1na2vs0mg"},{"bike_id":"04a99d1d-6eb5-4ac6-a116-c793e04a61d9","system_id":"levelo_inurba_marseille","lat":43.3042,"lon":5.39737,"is_reserved":false,"is_disabled":false,"rental_uris":{"android":"levelo://app?vid=04a99d1d-6eb5-4ac6-a116-c793e04a61d9","ios":"levelo://app?vid=04a99d1d-6eb5-4ac6-a116-c793e04a61d9"},"vehicle_type_id":"4","last_reported":1742587824,"current_range_meters":13600,"station_id":"ce4bh092rcd13ifvqd20","pricing_plan_id":"cebpf4jnsgd1na2vs0mg"},{"bike_id":"f6fd2b49-2f86-410d-aeae-f6721c9e62b3","system_id":"levelo_inurba_marseille","lat":43.29327,"lon":5.37186,"is_reserved":false,"is_disabled":false,"rental_uris":{"android":"levelo://app?vid=f6fd2b49-2f86-410d-aeae-f6721c9e62b3","ios":"levelo://app?vid=f6fd2b49-2f86-410d-aeae-f6721c9e62b3"},"vehicle_type_id":"4","last_reported":1742587824,"current_range_meters":14400,"station_id":"ce4bgh92rcd13ifvqb40","pricing_plan_id":"cebpf4jnsgd1na2vs0mg"},{"bike_id":"e65fdea6-45d3-423a-85b4-6347f360306a","system_id":"levelo_inurba_marseille","lat":43.33041,"lon":5.39036,"is_reserved":false,"is_disabled":false,"rental_uris":{"android":"levelo://app?vid=e65fdea6-45d3-423a-85b4-6347f360306a","ios":"levelo://app?vid=e65fdea6-45d3-423a-85b4-6347f360306a"},"vehicle_type_id":"4","last_reported":1742587824,"current_range_meters":14400,"station_id":"ce4bhr92rcd13ifvqhrg","pricing_plan_id":"cebpf4jnsgd1na2vs0mg"},{"bike_id":"da653a88-96eb-4720-a0bb-47f61c7fd94f","system_id":"levelo_inurba_marseille","lat":43.29783,"lon":5.38111,"is_reserved":false,"is_disabled":false,"rental_uris":{"android":"levelo://app?vid=da653a88-96eb-4720-a0bb-47f61c7fd94f","ios":"levelo://app?vid=da653a88-96eb-4720-a0bb-47f61c7fd94f"},"vehicle_type_id":"4","last_reported":1742587824,"current_range_meters":14000,"station_id":"ce4bgip2rcd13ifvqbb0","pricing_plan_id":"cebpf4jnsgd1na2vs0mg"},{"bike_id":"8ba18d3f-6658-41f2-b6f5-195bbe0fe7ed","system_id":"levelo_inurba_marseille","lat":43.30601,"lon":5.39352,"is_reserved":false,"is_disabled":false,"rental_uris":{"android":"levelo://app?vid=8ba18d3f-6658-41f2-b6f5-195bbe0fe7ed","ios":"levelo://app?vid=8ba18d3f-6658-41f2-b6f5-195bbe0fe7ed"},"vehicle_type_id":"4","last_reported":1742587824,"current_range_meters":14400,"station_id":"ce4bh0p2rcd13ifvqd80","pricing_plan_id":"cebpf4jnsgd1na2vs0mg"},{"bike_id":"a28e0502-d669-4ebb-a5ff-0c9b8b947845","system_id":"levelo_inurba_marseille","lat":43.31219,"lon":5.36876,"is_reserved":false,"is_disabled":false,"rental_uris":{"android":"levelo://app?vid=a28e0502-d669-4ebb-a5ff-0c9b8b947845","ios":"levelo://app?vid=a28e0502-d669-4ebb-a5ff-0c9b8b947845"},"vehicle_type_id":"4","last_reported":1742587824,"current_range_meters":14000,"station_id":"ce4bgl92rcd13ifvqbq0","pricing_plan_id":"cebpf4jnsgd1na2vs0mg"},{"bike_id":"0151e69a-7271-4975-8a4f-5521ff79c8a1","system_id":"levelo_inurba_marseille","lat":43.29589,"lon":5.36742,"is_reserved":false,"is_disabled":false,"rental_uris":{"android":"levelo://app?vid=0151e69a-7271-4975-8a4f-5521ff79c8a1","ios":"levelo://app?vid=0151e69a-7271-4975-8a4f-5521ff79c8a1"},"vehicle_type_id":"4","last_reported":1742587824,"current_range_meters":14000,"station_id":"ce4bgph2rcd13ifvqc2g","pricing_plan_id":"cebpf4jnsgd1na2vs0mg"},{"bike_id":"0b49bdf5-e1e6-4881-ad0b-23dfc5b30bed","system_id":"levelo_inurba_marseille","lat":43.30791,"lon":5.3766,"is_reserved":false,"is_disabled":false,"rental_uris":{"android":"levelo://app?vid=0b49bdf5-e1e6-4881-ad0b-23dfc5b30bed","ios":"levelo://app?vid=0b49bdf5-e1e6-4881-ad0b-23dfc5b30bed"},"vehicle_type_id":"4","last_reported":1742587824,"current_range_meters":14400,"station_id":"ce4bgv92rcd13ifvqcq0","pricing_plan_id":"cebpf4jnsgd1na2vs0mg"},{"bike_id":"18e4405d-2604-43bc-90ca-13f900d8c858","system_id":"levelo_inurba_marseille","lat":43.29425,"lon":5.38641,"is_reserved":false,"is_disabled":false,"rental_uris":{"android":"levelo://app?vid=18e4405d-2604-43bc-90ca-13f900d8c858","ios":"levelo://app?vid=18e4405d-2604-43bc-90ca-13f900d8c858"},"vehicle_type_id":"4","last_reported":1742587824,"current_range_meters":14400,"station_id":"ce4bh2h2rcd13ifvqdh0","pricing_plan_id":"cebpf4jnsgd1na2vs0mg"},{"bike_id":"1df2e6f6-63d4-4f34-92e1-d1b0e12ddb5a","system_id":"levelo_inurba_marseille","lat":43.23185,"lon":5.3998,"is_reserved":false,"is_disabled":false,"rental_uris":{"android":"levelo://app?vid=1df2e6f6-63d4-4f34-92e1-d1b0e12ddb5a","ios":"levelo://app?vid=1df2e6f6-63d4-4f34-92e1-d1b0e12ddb5a"},"vehicle_type_id":"4","last_reported":1742587824,"current_range_meters":14400,"station_id":"ce4bhn12rcd13ifvqgqg","pricing_plan_id":"cebpf4jnsgd1na2vs0mg"},{"bike_id":"fb45ad3c-928a-4b4f-8727-c717b800f1e2","system_id":"levelo_inurba_marseille","lat":43.29615,"lon":5.381,"is_reserved":false,"is_disabled":false,"rental_uris":{"android":"levelo://app?vid=fb45ad3c-928a-4b4f-8727-c717b800f1e2","ios":"levelo://app?vid=fb45ad3c-928a-4b4f-8727-c717b800f1e2"},"vehicle_type_id":"4","last_reported":1742587824,"current_range_meters":14400,"station_id":"ce4bgl12rcd13ifvqbo0","pricing_plan_id":"cebpf4jnsgd1na2vs0mg"},{"bike_id":"6e0b2987-7114-46b3-ba18-75a8af637801","system_id":"levelo_inurba_marseille","lat":43.30394,"lon":5.4249,"is_reserved":false,"is_disabled":false,"rental_uris":{"android":"levelo://app?vid=6e0b2987-7114-46b3-ba18-75a8af637801","ios":"levelo://app?vid=6e0b2987-7114-46b3-ba18-75a8af637801"},"vehicle_type_id":"4","last_reported":1742587824,"current_range_meters":14800,"station_id":"ce4bhoh2rcd13ifvqh6g","pricing_plan_id":"cebpf4jnsgd1na2vs0mg"},{"bike_id":"783ea8a6-724e-4dc6-9e98-38098d4c1741","system_id":"levelo_inurba_marseille","lat":43.29266,"lon":5.36852,"is_reserved":false,"is_disabled":false,"rental_uris":{"android":"levelo://app?vid=783ea8a6-724e-4dc6-9e98-38098d4c1741","ios":"levelo://app?vid=783ea8a6-724e-4dc6-9e98-38098d4c1741"},"vehicle_type_id":"4","last_reported":1742587824,"current_range_meters":14800,"station_id":"ce4bhbp2rcd13ifvqesg","pricing_plan_id":"cebpf4jnsgd1na2vs0mg"},{"bike_id":"fd755c27-2d15-4bc8-95e2-ba8a034d2372","system_id":"levelo_inurba_marseille","lat":43.2988,"lon":5.3891,"is_reserved":false,"is_disabled":false,"rental_uris":{"android":"levelo://app?vid=fd755c27-2d15-4bc8-95e2-ba8a034d2372","ios":"levelo://app?vid=fd755c27-2d15-4bc8-95e2-ba8a034d2372"},"vehicle_type_id":"4","last_reported":1742587824,"current_range_meters":14800,"station_id":"ce4bh392rcd13ifvqdl0","pricing_plan_id":"cebpf4jnsgd1na2vs0mg"},{"bike_id":"302bc0ae-8754-4be9-a133-02b14fa4c2a9","system_id":"levelo_inurba_marseille","lat":43.31119,"lon":5.37757,"is_reserved":false,"is_disabled":false,"rental_uris":{"android":"levelo://app?vid=302bc0ae-8754-4be9-a133-02b14fa4c2a9","ios":"levelo://app?vid=302bc0ae-8754-4be9-a133-02b14fa4c2a9"},"vehicle_type_id":"4","last_reported":1742587824,"current_range_meters":14800,"station_id":"ce4bgt92rcd13ifvqcg0","pricing_plan_id":"cebpf4jnsgd1na2vs0mg"},{"bike_id":"f7d99d5b-5d03-43fe-a8b3-3f8f3b5b929d","system_id":"levelo_inurba_marseille","lat":43.29873,"lon":5.39782,"is_reserved":false,"is_disabled":false,"rental_uris":{"android":"levelo://app?vid=f7d99d5b-5d03-43fe-a8b3-3f8f3b5b929d","ios":"levelo://app?vid=f7d99d5b-5d03-43fe-a8b3-3f8f3b5b929d"},"vehicle_type_id":"4","last_reported":1742587824,"current_range_meters":14800,"station_id":"ce4bh0h2rcd13ifvqd50","pricing_plan_id":"cebpf4jnsgd1na2vs0mg"},{"bike_id":"6b1005c5-ec16-4f9b-90f6-2354c4365903","system_id":"levelo_inurba_marseille","lat":43.29283,"lon":5.36849,"is_reserved":false,"is_disabled":false,"rental_uris":{"android":"levelo://app?vid=6b1005c5-ec16-4f9b-90f6-2354c4365903","ios":"levelo://app?vid=6b1005c5-ec16-4f9b-90f6-2354c4365903"},"vehicle_type_id":"4","last_reported":1742587824,"current_range_meters":14800,"station_id":"ce4bhbp2rcd13ifvqesg","pricing_plan_id":"cebpf4jnsgd1na2vs0mg"},{"bike_id":"72503a27-a949-4a46-b139-c44d4f416a58","system_id":"levelo_inurba_marseille","lat":43.23191,"lon":5.35549,"is_reserved":false,"is_disabled":false,"rental_uris":{"android":"levelo://app?vid=72503a27-a949-4a46-b139-c44d4f416a58","ios":"levelo://app?vid=72503a27-a949-4a46-b139-c44d4f416a58"},"vehicle_type_id":"4","last_reported":1742587824,"current_range_meters":15200,"station_id":"ce4bhu92rcd13ifvqi70","pricing_plan_id":"cebpf4jnsgd1na2vs0mg"},{"bike_id":"a7c269ac-750b-4e61-a0a4-f774b818338f","system_id":"levelo_inurba_marseille","lat":43.280777,"lon":5.396575,"is_reserved":false,"is_disabled":false,"rental_uris":{"android":"levelo://app?vid=a7c269ac-750b-4e61-a0a4-f774b818338f","ios":"levelo://app?vid=a7c269ac-750b-4e61-a0a4-f774b818338f"},"vehicle_type_id":"4","last_reported":1742587824,"current_range_meters":15200,"station_id":"","pricing_plan_id":"cebpf4jnsgd1na2vs0mg"},{"bike_id":"b8947409-508b-461c-b433-a1d5d02b6078","system_id":"levelo_inurba_marseille","lat":43.26558,"lon":5.373,"is_reserved":false,"is_disabled":false,"rental_uris":{"android":"levelo://app?vid=b8947409-508b-461c-b433-a1d5d02b6078","ios":"levelo://app?vid=b8947409-508b-461c-b433-a1d5d02b6078"},"vehicle_type_id":"4","last_reported":1742587824,"current_range_meters":15200,"station_id":"ce4bhg12rcd13ifvqf70","pricing_plan_id":"cebpf4jnsgd1na2vs0mg"},{"bike_id":"04a4ef5e-741c-4109-b3e0-14a08cc7db10","system_id":"levelo_inurba_marseille","lat":43.33012,"lon":5.39069,"is_reserved":false,"is_disabled":false,"rental_uris":{"android":"levelo://app?vid=04a4ef5e-741c-4109-b3e0-14a08cc7db10","ios":"levelo://app?vid=04a4ef5e-741c-4109-b3e0-14a08cc7db10"},"vehicle_type_id":"4","last_reported":1742587824,"current_range_meters":16000,"station_id":"ce4bhr92rcd13ifvqhrg","pricing_plan_id":"cebpf4jnsgd1na2vs0mg"},{"bike_id":"6056531a-3e1a-4c36-a541-6a34140512b7","system_id":"levelo_inurba_marseille","lat":43.31453,"lon":5.37233,"is_reserved":false,"is_disabled":false,"rental_uris":{"android":"levelo://app?vid=6056531a-3e1a-4c36-a541-6a34140512b7","ios":"levelo://app?vid=6056531a-3e1a-4c36-a541-6a34140512b7"},"vehicle_type_id":"4","last_reported":1742587824,"current_range_meters":15200,"station_id":"","pricing_plan_id":"cebpf4jnsgd1na2vs0mg"},{"bike_id":"779365de-9e7e-435f-9959-7e486fb3ab2d","system_id":"levelo_inurba_marseille","lat":43.2925,"lon":5.37629,"is_reserved":false,"is_disabled":false,"rental_uris":{"android":"levelo://app?vid=779365de-9e7e-435f-9959-7e486fb3ab2d","ios":"levelo://app?vid=779365de-9e7e-435f-9959-7e486fb3ab2d"},"vehicle_type_id":"4","last_reported":1742587824,"current_range_meters":15200,"station_id":"ce4bgi12rcd13ifvqb80","pricing_plan_id":"cebpf4jnsgd1na2vs0mg"},{"bike_id":"9e5fb07a-40f5-48a7-8576-b3add1049650","system_id":"levelo_inurba_marseille","lat":43.2762,"lon":5.36118,"is_reserved":false,"is_disabled":false,"rental_uris":{"android":"levelo://app?vid=9e5fb07a-40f5-48a7-8576-b3add1049650","ios":"levelo://app?vid=9e5fb07a-40f5-48a7-8576-b3add1049650"},"vehicle_type_id":"4","last_reported":1742587824,"current_range_meters":16000,"station_id":"ce4bgj92rcd13ifvqbe0","pricing_plan_id":"cebpf4jnsgd1na2vs0mg"},{"bike_id":"fbb498fe-0420-4fc0-a001-6f20ac1d59dd","system_id":"levelo_inurba_marseille","lat":43.33614,"lon":5.41019,"is_reserved":false,"is_disabled":true,"rental_uris":{"android":"levelo://app?vid=fbb498fe-0420-4fc0-a001-6f20ac1d59dd","ios":"levelo://app?vid=fbb498fe-0420-4fc0-a001-6f20ac1d59dd"},"vehicle_type_id":"4","last_reported":1742587824,"current_range_meters":16000,"station_id":"ce4bhqh2rcd13ifvqhmg","pricing_plan_id":"cebpf4jnsgd1na2vs0mg"},{"bike_id":"fabef5ba-78bd-444f-8775-d6c21179e6f7","system_id":"levelo_inurba_marseille","lat":43.29416,"lon":5.38621,"is_reserved":false,"is_disabled":true,"rental_uris":{"android":"levelo://app?vid=fabef5ba-78bd-444f-8775-d6c21179e6f7","ios":"levelo://app?vid=fabef5ba-78bd-444f-8775-d6c21179e6f7"},"vehicle_type_id":"4","last_reported":1742587824,"current_range_meters":16000,"station_id":"ce4bh2h2rcd13ifvqdh0","pricing_plan_id":"cebpf4jnsgd1na2vs0mg"},{"bike_id":"f39eebaf-f4e1-4cce-8237-2c3fcbf1a21f","system_id":"levelo_inurba_marseille","lat":43.29036,"lon":5.35928,"is_reserved":false,"is_disabled":false,"rental_uris":{"android":"levelo://app?vid=f39eebaf-f4e1-4cce-8237-2c3fcbf1a21f","ios":"levelo://app?vid=f39eebaf-f4e1-4cce-8237-2c3fcbf1a21f"},"vehicle_type_id":"4","last_reported":1742587824,"current_range_meters":16000,"station_id":"ce4bha92rcd13ifvqeg0","pricing_plan_id":"cebpf4jnsgd1na2vs0mg"},{"bike_id":"e25963ed-e672-4a92-a417-d585a3bc1692","system_id":"levelo_inurba_marseille","lat":43.27867,"lon":5.39743,"is_reserved":false,"is_disabled":true,"rental_uris":{"android":"levelo://app?vid=e25963ed-e672-4a92-a417-d585a3bc1692","ios":"levelo://app?vid=e25963ed-e672-4a92-a417-d585a3bc1692"},"vehicle_type_id":"4","last_reported":1742587824,"current_range_meters":16000,"station_id":"","pricing_plan_id":"cebpf4jnsgd1na2vs0mg"},{"bike_id":"5b11d453-6f94-47a5-bb26-1ad375790f66","system_id":"levelo_inurba_marseille","lat":43.30325,"lon":5.40446,"is_reserved":false,"is_disabled":false,"rental_uris":{"android":"levelo://app?vid=5b11d453-6f94-47a5-bb26-1ad375790f66","ios":"levelo://app?vid=5b11d453-6f94-47a5-bb26-1ad375790f66"},"vehicle_type_id":"4","last_reported":1742587824,"current_range_meters":16000,"station_id":"ce4bh012rcd13ifvqd10","pricing_plan_id":"cebpf4jnsgd1na2vs0mg"},{"bike_id":"049af6ba-b215-43da-aea8-951e47555d26","system_id":"levelo_inurba_marseille","lat":43.30077,"lon":5.39067,"is_reserved":false,"is_disabled":false,"rental_uris":{"android":"levelo://app?vid=049af6ba-b215-43da-aea8-951e47555d26","ios":"levelo://app?vid=049af6ba-b215-43da-aea8-951e47555d26"},"vehicle_type_id":"4","last_reported":1742587824,"current_range_meters":16000,"station_id":"ce4bh192rcd13ifvqdb0","pricing_plan_id":"cebpf4jnsgd1na2vs0mg"},{"bike_id":"7e74b698-9062-469b-b8c2-03653df17d53","system_id":"levelo_inurba_marseille","lat":43.30896,"lon":5.39655,"is_reserved":false,"is_disabled":false,"rental_uris":{"android":"levelo://app?vid=7e74b698-9062-469b-b8c2-03653df17d53","ios":"levelo://app?vid=7e74b698-9062-469b-b8c2-03653df17d53"},"vehicle_type_id":"4","last_reported":1742587824,"current_range_meters":16000,"station_id":"ce4bh012rcd13ifvqcv0","pricing_plan_id":"cebpf4jnsgd1na2vs0mg"},{"bike_id":"c4cb6f7e-4659-4494-b4f2-0df90c9d6970","system_id":"levelo_inurba_marseille","lat":43.24396,"lon":5.37059,"is_reserved":false,"is_disabled":false,"rental_uris":{"android":"levelo://app?vid=c4cb6f7e-4659-4494-b4f2-0df90c9d6970","ios":"levelo://app?vid=c4cb6f7e-4659-4494-b4f2-0df90c9d6970"},"vehicle_type_id":"4","last_reported":1742587824,"current_range_meters":16000,"station_id":"ce4bhhh2rcd13ifvqfk0","pricing_plan_id":"cebpf4jnsgd1na2vs0mg"},{"bike_id":"76fb2b02-411c-4fc2-83ba-67b25181248f","system_id":"levelo_inurba_marseille","lat":43.28721,"lon":5.36095,"is_reserved":false,"is_disabled":false,"rental_uris":{"android":"levelo://app?vid=76fb2b02-411c-4fc2-83ba-67b25181248f","ios":"levelo://app?vid=76fb2b02-411c-4fc2-83ba-67b25181248f"},"vehicle_type_id":"4","last_reported":1742587824,"current_range_meters":16000,"station_id":"cki0cbj6b192h4jlfktg","pricing_plan_id":"cebpf4jnsgd1na2vs0mg"},{"bike_id":"9da8d655-6e03-4568-82b8-9d84c99c1233","system_id":"levelo_inurba_marseille","lat":43.31192,"lon":5.38708,"is_reserved":false,"is_disabled":false,"rental_uris":{"android":"levelo://app?vid=9da8d655-6e03-4568-82b8-9d84c99c1233","ios":"levelo://app?vid=9da8d655-6e03-4568-82b8-9d84c99c1233"},"vehicle_type_id":"4","last_reported":1742587824,"current_range_meters":15200,"station_id":"ce4bgv12rcd13ifvqcp0","pricing_plan_id":"cebpf4jnsgd1na2vs0mg"},{"bike_id":"3f3f99da-6673-441e-a5b3-6857219a400e","system_id":"levelo_inurba_marseille","lat":43.25003,"lon":5.38942,"is_reserved":false,"is_disabled":false,"rental_uris":{"android":"levelo://app?vid=3f3f99da-6673-441e-a5b3-6857219a400e","ios":"levelo://app?vid=3f3f99da-6673-441e-a5b3-6857219a400e"},"vehicle_type_id":"4","last_reported":1742587824,"current_range_meters":16000,"station_id":"ce4bhgp2rcd13ifvqfd0","pricing_plan_id":"cebpf4jnsgd1na2vs0mg"},{"bike_id":"d3ebde68-98d7-4a24-a835-e6ce3b34fc4b","system_id":"levelo_inurba_marseille","lat":43.26566,"lon":5.37323,"is_reserved":false,"is_disabled":false,"rental_uris":{"android":"levelo://app?vid=d3ebde68-98d7-4a24-a835-e6ce3b34fc4b","ios":"levelo://app?vid=d3ebde68-98d7-4a24-a835-e6ce3b34fc4b"},"vehicle_type_id":"4","last_reported":1742587824,"current_range_meters":16000,"station_id":"ce4bhg12rcd13ifvqf70","pricing_plan_id":"cebpf4jnsgd1na2vs0mg"},{"bike_id":"47476f7a-6089-40f4-82cd-55d2acb8987b","system_id":"levelo_inurba_marseille","lat":43.23957,"lon":5.36664,"is_reserved":false,"is_disabled":false,"rental_uris":{"android":"levelo://app?vid=47476f7a-6089-40f4-82cd-55d2acb8987b","ios":"levelo://app?vid=47476f7a-6089-40f4-82cd-55d2acb8987b"},"vehicle_type_id":"4","last_reported":1742587824,"current_range_meters":16000,"station_id":"ce4bhi12rcd13ifvqfp0","pricing_plan_id":"cebpf4jnsgd1na2vs0mg"},{"bike_id":"7038600d-2ea3-458a-a378-9b8b0acc1942","system_id":"levelo_inurba_marseille","lat":43.29607,"lon":5.38106,"is_reserved":false,"is_disabled":false,"rental_uris":{"android":"levelo://app?vid=7038600d-2ea3-458a-a378-9b8b0acc1942","ios":"levelo://app?vid=7038600d-2ea3-458a-a378-9b8b0acc1942"},"vehicle_type_id":"4","last_reported":1742587824,"current_range_meters":16400,"station_id":"ce4bgl12rcd13ifvqbo0","pricing_plan_id":"cebpf4jnsgd1na2vs0mg"},{"bike_id":"7d9bf2d2-5153-499c-a1fb-dcb365a9e566","system_id":"levelo_inurba_marseille","lat":43.24178,"lon":5.39745,"is_reserved":false,"is_disabled":false,"rental_uris":{"android":"levelo://app?vid=7d9bf2d2-5153-499c-a1fb-dcb365a9e566","ios":"levelo://app?vid=7d9bf2d2-5153-499c-a1fb-dcb365a9e566"},"vehicle_type_id":"4","last_reported":1742587824,"current_range_meters":16400,"station_id":"ce4bhn12rcd13ifvqgpg","pricing_plan_id":"cebpf4jnsgd1na2vs0mg"},{"bike_id":"0add7d23-5c00-421e-b90c-2e142015581b","system_id":"levelo_inurba_marseille","lat":43.29432,"lon":5.39769,"is_reserved":false,"is_disabled":false,"rental_uris":{"android":"levelo://app?vid=0add7d23-5c00-421e-b90c-2e142015581b","ios":"levelo://app?vid=0add7d23-5c00-421e-b90c-2e142015581b"},"vehicle_type_id":"4","last_reported":1742587824,"current_range_meters":16000,"station_id":"ce4bh3h2rcd13ifvqdo0","pricing_plan_id":"cebpf4jnsgd1na2vs0mg"},{"bike_id":"d16d5ae2-a108-44f8-a226-14fecf4f3137","system_id":"levelo_inurba_marseille","lat":43.28006,"lon":5.40032,"is_reserved":false,"is_disabled":false,"rental_uris":{"android":"levelo://app?vid=d16d5ae2-a108-44f8-a226-14fecf4f3137","ios":"levelo://app?vid=d16d5ae2-a108-44f8-a226-14fecf4f3137"},"vehicle_type_id":"4","last_reported":1742587824,"current_range_meters":16400,"station_id":"ce4bho92rcd13ifvqh4g","pricing_plan_id":"cebpf4jnsgd1na2vs0mg"},{"bike_id":"2032e81a-8d24-4036-9cc6-bf67698b8322","system_id":"levelo_inurba_marseille","lat":43.24195,"lon":5.39757,"is_reserved":false,"is_disabled":false,"rental_uris":{"android":"levelo://app?vid=2032e81a-8d24-4036-9cc6-bf67698b8322","ios":"levelo://app?vid=2032e81a-8d24-4036-9cc6-bf67698b8322"},"vehicle_type_id":"4","last_reported":1742587824,"current_range_meters":16400,"station_id":"ce4bhn12rcd13ifvqgpg","pricing_plan_id":"cebpf4jnsgd1na2vs0mg"},{"bike_id":"949523fd-15fa-4843-af06-2684d4623f3a","system_id":"levelo_inurba_marseille","lat":43.29273,"lon":5.36835,"is_reserved":false,"is_disabled":false,"rental_uris":{"android":"levelo://app?vid=949523fd-15fa-4843-af06-2684d4623f3a","ios":"levelo://app?vid=949523fd-15fa-4843-af06-2684d4623f3a"},"vehicle_type_id":"4","last_reported":1742587824,"current_range_meters":16400,"station_id":"ce4bhbp2rcd13ifvqesg","pricing_plan_id":"cebpf4jnsgd1na2vs0mg"},{"bike_id":"d115cd95-7ca9-41b0-8689-a1da733dfb56","system_id":"levelo_inurba_marseille","lat":43.29373,"lon":5.37856,"is_reserved":false,"is_disabled":false,"rental_uris":{"android":"levelo://app?vid=d115cd95-7ca9-41b0-8689-a1da733dfb56","ios":"levelo://app?vid=d115cd95-7ca9-41b0-8689-a1da733dfb56"},"vehicle_type_id":"4","last_reported":1742587824,"current_range_meters":16800,"station_id":"ce4bgjh2rcd13ifvqbf0","pricing_plan_id":"cebpf4jnsgd1na2vs0mg"},{"bike_id":"acd9ce7b-e08a-4222-a322-17f186f8fa7c","system_id":"levelo_inurba_marseille","lat":43.30419,"lon":5.41292,"is_reserved":false,"is_disabled":false,"rental_uris":{"android":"levelo://app?vid=acd9ce7b-e08a-4222-a322-17f186f8fa7c","ios":"levelo://app?vid=acd9ce7b-e08a-4222-a322-17f186f8fa7c"},"vehicle_type_id":"4","last_reported":1742587824,"current_range_meters":18000,"station_id":"ce4bhop2rcd13ifvqh8g","pricing_plan_id":"cebpf4jnsgd1na2vs0mg"},{"bike_id":"5e3e35b3-6759-4954-a22e-0acf9fa523e5","system_id":"levelo_inurba_marseille","lat":43.31359,"lon":5.36737,"is_reserved":false,"is_disabled":false,"rental_uris":{"android":"levelo://app?vid=5e3e35b3-6759-4954-a22e-0acf9fa523e5","ios":"levelo://app?vid=5e3e35b3-6759-4954-a22e-0acf9fa523e5"},"vehicle_type_id":"4","last_reported":1742587824,"current_range_meters":16800,"station_id":"ce4bgr92rcd13ifvqc6g","pricing_plan_id":"cebpf4jnsgd1na2vs0mg"},{"bike_id":"280a7095-4eb2-43f9-a0c4-f90b539d0a09","system_id":"levelo_inurba_marseille","lat":43.30927,"lon":5.40142,"is_reserved":false,"is_disabled":false,"rental_uris":{"android":"levelo://app?vid=280a7095-4eb2-43f9-a0c4-f90b539d0a09","ios":"levelo://app?vid=280a7095-4eb2-43f9-a0c4-f90b539d0a09"},"vehicle_type_id":"4","last_reported":1742587824,"current_range_meters":16800,"station_id":"ce4bgvp2rcd13ifvqct0","pricing_plan_id":"cebpf4jnsgd1na2vs0mg"},{"bike_id":"a1abd43d-b831-4aef-806b-2c87564102d5","system_id":"levelo_inurba_marseille","lat":43.30879,"lon":5.37191,"is_reserved":false,"is_disabled":false,"rental_uris":{"android":"levelo://app?vid=a1abd43d-b831-4aef-806b-2c87564102d5","ios":"levelo://app?vid=a1abd43d-b831-4aef-806b-2c87564102d5"},"vehicle_type_id":"4","last_reported":1742587824,"current_range_meters":16800,"station_id":"ce4bguh2rcd13ifvqckg","pricing_plan_id":"cebpf4jnsgd1na2vs0mg"},{"bike_id":"ff0b86f7-1349-4aed-8f97-17f96801d957","system_id":"levelo_inurba_marseille","lat":43.28357,"lon":5.39217,"is_reserved":false,"is_disabled":false,"rental_uris":{"android":"levelo://app?vid=ff0b86f7-1349-4aed-8f97-17f96801d957","ios":"levelo://app?vid=ff0b86f7-1349-4aed-8f97-17f96801d957"},"vehicle_type_id":"4","last_reported":1742587824,"current_range_meters":16800,"station_id":"","pricing_plan_id":"cebpf4jnsgd1na2vs0mg"},{"bike_id":"cf5468b8-3202-4a37-b52f-a6e0da4daff0","system_id":"levelo_inurba_marseille","lat":43.27819,"lon":5.4071,"is_reserved":false,"is_disabled":false,"rental_uris":{"android":"levelo://app?vid=cf5468b8-3202-4a37-b52f-a6e0da4daff0","ios":"levelo://app?vid=cf5468b8-3202-4a37-b52f-a6e0da4daff0"},"vehicle_type_id":"4","last_reported":1742587824,"current_range_meters":16800,"station_id":"ce4bhnh2rcd13ifvqgtg","pricing_plan_id":"cebpf4jnsgd1na2vs0mg"},{"bike_id":"20319b38-0bb2-4cba-8151-8eb47e1235c3","system_id":"levelo_inurba_marseille","lat":43.27002,"lon":5.39239,"is_reserved":false,"is_disabled":false,"rental_uris":{"android":"levelo://app?vid=20319b38-0bb2-4cba-8151-8eb47e1235c3","ios":"levelo://app?vid=20319b38-0bb2-4cba-8151-8eb47e1235c3"},"vehicle_type_id":"4","last_reported":1742587824,"current_range_meters":16800,"station_id":"","pricing_plan_id":"cebpf4jnsgd1na2vs0mg"},{"bike_id":"11bfbbff-726c-4e95-a1f0-089f685bac68","system_id":"levelo_inurba_marseille","lat":43.24386,"lon":5.3706,"is_reserved":false,"is_disabled":false,"rental_uris":{"android":"levelo://app?vid=11bfbbff-726c-4e95-a1f0-089f685bac68","ios":"levelo://app?vid=11bfbbff-726c-4e95-a1f0-089f685bac68"},"vehicle_type_id":"4","last_reported":1742587824,"current_range_meters":16800,"station_id":"ce4bhhh2rcd13ifvqfk0","pricing_plan_id":"cebpf4jnsgd1na2vs0mg"},{"bike_id":"362c0793-680f-43b7-a1aa-d84cd3219497","system_id":"levelo_inurba_marseille","lat":43.31051,"lon":5.38332,"is_reserved":false,"is_disabled":false,"rental_uris":{"android":"levelo://app?vid=362c0793-680f-43b7-a1aa-d84cd3219497","ios":"levelo://app?vid=362c0793-680f-43b7-a1aa-d84cd3219497"},"vehicle_type_id":"4","last_reported":1742587824,"current_range_meters":16800,"station_id":"ce4bgv92rcd13ifvqcr0","pricing_plan_id":"cebpf4jnsgd1na2vs0mg"},{"bike_id":"b6069b84-a07b-445d-a58c-8caad1641412","system_id":"levelo_inurba_marseille","lat":43.29312,"lon":5.3716,"is_reserved":false,"is_disabled":false,"rental_uris":{"android":"levelo://app?vid=b6069b84-a07b-445d-a58c-8caad1641412","ios":"levelo://app?vid=b6069b84-a07b-445d-a58c-8caad1641412"},"vehicle_type_id":"4","last_reported":1742587824,"current_range_meters":16800,"station_id":"ce4bgh92rcd13ifvqb40","pricing_plan_id":"cebpf4jnsgd1na2vs0mg"},{"bike_id":"eed41007-570d-4d7f-871a-7ed78fc319fd","system_id":"levelo_inurba_marseille","lat":43.29939,"lon":5.36526,"is_reserved":false,"is_disabled":false,"rental_uris":{"android":"levelo://app?vid=eed41007-570d-4d7f-871a-7ed78fc319fd","ios":"levelo://app?vid=eed41007-570d-4d7f-871a-7ed78fc319fd"},"vehicle_type_id":"4","last_reported":1742587824,"current_range_meters":16800,"station_id":"ce4bgm92rcd13ifvqbr0","pricing_plan_id":"cebpf4jnsgd1na2vs0mg"},{"bike_id":"302da745-dc3e-489e-b2c8-445dcb3c38b1","system_id":"levelo_inurba_marseille","lat":43.23089,"lon":5.35498,"is_reserved":false,"is_disabled":false,"rental_uris":{"android":"levelo://app?vid=302da745-dc3e-489e-b2c8-445dcb3c38b1","ios":"levelo://app?vid=302da745-dc3e-489e-b2c8-445dcb3c38b1"},