{"last_updated":1727737762,"ttl":60,"version":"2.2","data":{"bikes":[{"bike_id":"136ddb5a-94ab-4599-bf81-a15d52b4d7f3","system_id":"levelo_inurba_marseille","lat":43.30891,"lon":5.39663,"is_reserved":false,"is_disabled":false,"rental_uris":{"android":"levelo://app?vid=136ddb5a-94ab-4599-bf81-a15d52b4d7f3","ios":"levelo://app?vid=136ddb5a-94ab-4599-bf81-a15d52b4d7f3"},"vehicle_type_id":"4","last_reported":1727737762,"current_range_meters":19200,"station_id":"ce4bh012rcd13ifvqcv0","pricing_plan_id":"cebpf4jnsgd1na2vs0mg"},{"bike_id":"308fe677-f7b3-43b3-bbca-63d6ad242560","system_id":"levelo_inurba_marseille","lat":43.31994,"lon":5.3815,"is_reserved":false,"is_disabled":false,"rental_uris":{"android":"levelo://app?vid=308fe677-f7b3-43b3-bbca-63d6ad242560","ios":"levelo://app?vid=308fe677-f7b3-43b3-bbca-63d6ad242560"},"vehicle_type_id":"4","last_reported":1727737762,"current_range_meters":24000,"station_id":"ce4bhr12rcd13ifvqhpg","pricing_plan_id":"cebpf4jnsgd1na2vs0mg"},{"bike_id":"4381ca69-94ed-4fb4-97b0-6e2433f67f2f","system_id":"levelo_inurba_marseille","lat":43.33724,"lon":5.39184,"is_reserved":false,"is_disabled":false,"rental_uris":{"android":"levelo://app?vid=4381ca69-94ed-4fb4-97b0-6e2433f67f2f","ios":"levelo://app?vid=4381ca69-94ed-4fb4-97b0-6e2433f67f2f"},"vehicle_type_id":"4","last_reported":1727737762,"current_range_meters":38800,"station_id":"ce4bhr92rcd13ifvqhsg","pricing_plan_id":"cebpf4jnsgd1na2vs0mg"},{"bike_id":"9eb74fb0-dfce-4f5d-a33a-440993fb0b9d","system_id":"levelo_inurba_marseille","lat":43.29623,"lon":5.40614,"is_reserved":false,"is_disabled":false,"rental_uris":{"android":"levelo://app?vid=9eb74fb0-dfce-4f5d-a33a-440993fb0b9d","ios":"levelo://app?vid=9eb74fb0-dfce-4f5d-a33a-440993fb0b9d"},"vehicle_type_id":"4","last_reported":1727737762,"current_range_meters":38400,"station_id":"ce4bh0h2rcd13ifvqd60","pricing_plan_id":"cebpf4jnsgd1na2vs0mg"},{"bike_id":"86c4c979-de11-47da-924e-27f82b5a603c","system_id":"levelo_inurba_marseille","lat":43.24411,"lon":5.37067,"is_reserved":false,"is_disabled":false,"rental_uris":{"android":"levelo://app?vid=86c4c979-de11-47da-924e-27f82b5a603c","ios":"levelo://app?vid=86c4c979-de11-47da-924e-27f82b5a603c"},"vehicle_type_id":"4","last_reported":1727737762,"current_range_meters":6400,"station_id":"ce4bhhh2rcd13ifvqfk0","pricing_plan_id":"cebpf4jnsgd1na2vs0mg"},{"bike_id":"321e2427-fed6-42aa-9807-83ced0507fe5","system_id":"levelo_inurba_marseille","lat":43.28461,"lon":5.35884,"is_reserved":false,"is_disabled":false,"rental_uris":{"android":"levelo://app?vid=321e2427-fed6-42aa-9807-83ced0507fe5","ios":"levelo://app?vid=321e2427-fed6-42aa-9807-83ced0507fe5"},"vehicle_type_id":"4","last_reported":1727737762,"current_range_meters":36400,"station_id":"ce4bhah2rcd13ifvqei0","pricing_plan_id":"cebpf4jnsgd1na2vs0mg"},{"bike_id":"0629e9f1-7af5-473d-bd97-c9951d8dd2d8","system_id":"levelo_inurba_marseille","lat":43.25093,"lon":5.40297,"is_reserved":false,"is_disabled":false,"rental_uris":{"android":"levelo://app?vid=0629e9f1-7af5-473d-bd97-c9951d8dd2d8","ios":"levelo://app?vid=0629e9f1-7af5-473d-bd97-c9951d8dd2d8"},"vehicle_type_id":"4","last_reported":1727737762,"current_range_meters":3200,"station_id":"ce4bhlh2rcd13ifvqgig","pricing_plan_id":"cebpf4jnsgd1na2vs0mg"},{"bike_id":"dcac54ef-85cb-4ec7-966f-afce09f873e9","system_id":"levelo_inurba_marseille","lat":43.31991,"lon":5.3815,"is_reserved":false,"is_disabled":false,"rental_uris":{"android":"levelo://app?vid=dcac54ef-85cb-4ec7-966f-afce09f873e9","ios":"levelo://app?vid=dcac54ef-85cb-4ec7-966f-afce09f873e9"},"vehicle_type_id":"4","last_reported":1727737762,"current_range_meters":23200,"station_id":"ce4bhr12rcd13ifvqhpg","pricing_plan_id":"cebpf4jnsgd1na2vs0mg"},{"bike_id":"1c006b78-d253-4b91-b794-7153290a0e66","system_id":"levelo_inurba_marseille","lat":43.31759,"lon":5.39018,"is_reserved":false,"is_disabled":false,"rental_uris":{"android":"levelo://app?vid=1c006b78-d253-4b91-b794-7153290a0e66","ios":"levelo://app?vid=1c006b78-d253-4b91-b794-7153290a0e66"},"vehicle_type_id":"4","last_reported":1727737762,"current_range_meters":38800,"station_id":"ce4bhqp2rcd13ifvqhng","pricing_plan_id":"cebpf4jnsgd1na2vs0mg"},{"bike_id":"0d31a271-58df-4c2e-a39b-bf4de9c34014","system_id":"levelo_inurba_marseille","lat":43.24173,"lon":5.364016,"is_reserved":false,"is_disabled":false,"rental_uris":{"android":"levelo://app?vid=0d31a271-58df-4c2e-a39b-bf4de9c34014","ios":"levelo://app?vid=0d31a271-58df-4c2e-a39b-bf4de9c34014"},"vehicle_type_id":"4","last_reported":1727737762,"current_range_meters":17600,"station_id":"cpo36qri1sfpv3e86is0","pricing_plan_id":"cebpf4jnsgd1na2vs0mg"},{"bike_id":"7d138d0a-524b-4d53-90e0-5ada32f5effb","system_id":"levelo_inurba_marseille","lat":43.30315,"lon":5.369,"is_reserved":false,"is_disabled":false,"rental_uris":{"android":"levelo://app?vid=7d138d0a-524b-4d53-90e0-5ada32f5effb","ios":"levelo://app?vid=7d138d0a-524b-4d53-90e0-5ada32f5effb"},"vehicle_type_id":"4","last_reported":1727737762,"current_range_meters":38800,"station_id":"ce4bgqh2rcd13ifvqc5g","pricing_plan_id":"cebpf4jnsgd1na2vs0mg"},{"bike_id":"d430d7b1-396c-41b0-8215-fd0a563f41b1","system_id":"levelo_inurba_marseille","lat":43.28707,"lon":5.39974,"is_reserved":false,"is_disabled":false,"rental_uris":{"android":"levelo://app?vid=d430d7b1-396c-41b0-8215-fd0a563f41b1","ios":"levelo://app?vid=d430d7b1-396c-41b0-8215-fd0a563f41b1"},"vehicle_type_id":"4","last_reported":1727737762,"current_range_meters":10000,"station_id":"ce4bho92rcd13ifvqh3g","pricing_plan_id":"cebpf4jnsgd1na2vs0mg"},{"bike_id":"d1901d2e-eb48-424e-8a75-7377ed728a9e","system_id":"levelo_inurba_marseille","lat":43.31536,"lon":5.38029,"is_reserved":false,"is_disabled":false,"rental_uris":{"android":"levelo://app?vid=d1901d2e-eb48-424e-8a75-7377ed728a9e","ios":"levelo://app?vid=d1901d2e-eb48-424e-8a75-7377ed728a9e"},"vehicle_type_id":"4","last_reported":1727737762,"current_range_meters":38000,"station_id":"ce4bhsp2rcd13ifvqi50","pricing_plan_id":"cebpf4jnsgd1na2vs0mg"},{"bike_id":"6fc0ad42-2767-4eea-bbe6-f50e92ac93e4","system_id":"levelo_inurba_marseille","lat":43.29966,"lon":5.41319,"is_reserved":false,"is_disabled":false,"rental_uris":{"android":"levelo://app?vid=6fc0ad42-2767-4eea-bbe6-f50e92ac93e4","ios":"levelo://app?vid=6fc0ad42-2767-4eea-bbe6-f50e92ac93e4"},"vehicle_type_id":"4","last_reported":1727737762,"current_range_meters":38800,"station_id":"ce4bhp12rcd13ifvqh9g","pricing_plan_id":"cebpf4jnsgd1na2vs0mg"},{"bike_id":"bb15d45c-0c04-4ecf-83e5-5ae759de7c89","system_id":"levelo_inurba_marseille","lat":43.30599,"lon":5.39354,"is_reserved":false,"is_disabled":false,"rental_uris":{"android":"levelo://app?vid=bb15d45c-0c04-4ecf-83e5-5ae759de7c89","ios":"levelo://app?vid=bb15d45c-0c04-4ecf-83e5-5ae759de7c89"},"vehicle_type_id":"4","last_reported":1727737762,"current_range_meters":19200,"station_id":"ce4bh0p2rcd13ifvqd80","pricing_plan_id":"cebpf4jnsgd1na2vs0mg"},{"bike_id":"859f6f17-9196-4815-aa9d-5cdcef592b2a","system_id":"levelo_inurba_marseille","lat":43.28438,"lon":5.39205,"is_reserved":false,"is_disabled":false,"rental_uris":{"android":"levelo://app?vid=859f6f17-9196-4815-aa9d-5cdcef592b2a","ios":"levelo://app?vid=859f6f17-9196-4815-aa9d-5cdcef592b2a"},"vehicle_type_id":"4","last_reported":1727737762,"current_range_meters":39200,"station_id":"ce4bhoh2rcd13ifvqh5g","pricing_plan_id":"cebpf4jnsgd1na2vs0mg"},{"bike_id":"417d0cf4-3eaf-4831-b2a8-e60c1f731624","system_id":"levelo_inurba_marseille","lat":43.28458,"lon":5.35888,"is_reserved":false,"is_disabled":false,"rental_uris":{"android":"levelo://app?vid=417d0cf4-3eaf-4831-b2a8-e60c1f731624","ios":"levelo://app?vid=417d0cf4-3eaf-4831-b2a8-e60c1f731624"},"vehicle_type_id":"4","last_reported":1727737762,"current_range_meters":39200,"station_id":"ce4bhah2rcd13ifvqei0","pricing_plan_id":"cebpf4jnsgd1na2vs0mg"},{"bike_id":"692b52da-ebae-4f02-9038-5a7809b78483","system_id":"levelo_inurba_marseille","lat":43.30799,"lon":5.43523,"is_reserved":false,"is_disabled":false,"rental_uris":{"android":"levelo://app?vid=692b52da-ebae-4f02-9038-5a7809b78483","ios":"levelo://app?vid=692b52da-ebae-4f02-9038-5a7809b78483"},"vehicle_type_id":"4","last_reported":1727737762,"current_range_meters":38800,"station_id":"ce4bhph2rcd13ifvqheg","pricing_plan_id":"cebpf4jnsgd1na2vs0mg"},{"bike_id":"552874eb-4b23-4c75-8b69-71d4a51daadf","system_id":"levelo_inurba_marseille","lat":43.30431,"lon":5.38877,"is_reserved":false,"is_disabled":false,"rental_uris":{"android":"levelo://app?vid=552874eb-4b23-4c75-8b69-71d4a51daadf","ios":"levelo://app?vid=552874eb-4b23-4c75-8b69-71d4a51daadf"},"vehicle_type_id":"4","last_reported":1727737762,"current_range_meters":37600,"station_id":"ce4bgk12rcd13ifvqbi0","pricing_plan_id":"cebpf4jnsgd1na2vs0mg"},{"bike_id":"5f7722c8-e5e6-4dbd-b844-991a7c2ad47c","system_id":"levelo_inurba_marseille","lat":43.28459,"lon":5.35905,"is_reserved":false,"is_disabled":false,"rental_uris":{"android":"levelo://app?vid=5f7722c8-e5e6-4dbd-b844-991a7c2ad47c","ios":"levelo://app?vid=5f7722c8-e5e6-4dbd-b844-991a7c2ad47c"},"vehicle_type_id":"4","last_reported":1727737762,"current_range_meters":36000,"station_id":"ce4bhah2rcd13ifvqei0","pricing_plan_id":"cebpf4jnsgd1na2vs0mg"},{"bike_id":"4bdafc63-9244-450f-9cc5-57766add025a","system_id":"levelo_inurba_marseille","lat":43.31287,"lon":5.4017,"is_reserved":false,"is_disabled":false,"rental_uris":{"android":"levelo://app?vid=4bdafc63-9244-450f-9cc5-57766add025a","ios":"levelo://app?vid=4bdafc63-9244-450f-9cc5-57766add025a"},"vehicle_type_id":"4","last_reported":1727737762,"current_range_meters":36800,"station_id":"ce4bh092rcd13ifvqd30","pricing_plan_id":"cebpf4jnsgd1na2vs0mg"},{"bike_id":"973f241f-e39a-4ee0-b362-a389cc3853d1","system_id":"levelo_inurba_marseille","lat":43.307268,"lon":5.381686,"is_reserved":false,"is_disabled":false,"rental_uris":{"android":"levelo://app?vid=973f241f-e39a-4ee0-b362-a389cc3853d1","ios":"levelo://app?vid=973f241f-e39a-4ee0-b362-a389cc3853d1"},"vehicle_type_id":"4","last_reported":1727737762,"current_range_meters":26000,"station_id":"ce4bh292rcd13ifvqdf0","pricing_plan_id":"cebpf4jnsgd1na2vs0mg"},{"bike_id":"2a3b116a-1622-41fb-9e3b-9700b558192d","system_id":"levelo_inurba_marseille","lat":43.280196,"lon":5.360875,"is_reserved":false,"is_disabled":false,"rental_uris":{"android":"levelo://app?vid=2a3b116a-1622-41fb-9e3b-9700b558192d","ios":"levelo://app?vid=2a3b116a-1622-41fb-9e3b-9700b558192d"},"vehicle_type_id":"4","last_reported":1727737762,"current_range_meters":16400,"station_id":"","pricing_plan_id":"cebpf4jnsgd1na2vs0mg"},{"bike_id":"961b57d5-ac43-4638-9217-7a2a3548a865","system_id":"levelo_inurba_marseille","lat":43.30955,"lon":5.39044,"is_reserved":false,"is_disabled":false,"rental_uris":{"android":"levelo://app?vid=961b57d5-ac43-4638-9217-7a2a3548a865","ios":"levelo://app?vid=961b57d5-ac43-4638-9217-7a2a3548a865"},"vehicle_type_id":"4","last_reported":1727737762,"current_range_meters":38800,"station_id":"ce4bgup2rcd13ifvqco0","pricing_plan_id":"cebpf4jnsgd1na2vs0mg"},{"bike_id":"c6310a53-842c-4c40-97d7-b8b3158dce16","system_id":"levelo_inurba_marseille","lat":43.31084,"lon":5.38351,"is_reserved":false,"is_disabled":false,"rental_uris":{"android":"levelo://app?vid=c6310a53-842c-4c40-97d7-b8b3158dce16","ios":"levelo://app?vid=c6310a53-842c-4c40-97d7-b8b3158dce16"},"vehicle_type_id":"4","last_reported":1727737762,"current_range_meters":23200,"station_id":"ce4bgv92rcd13ifvqcr0","pricing_plan_id":"cebpf4jnsgd1na2vs0mg"},{"bike_id":"4f06ead8-fca4-4dd6-a4e5-5ed87e045694","system_id":"levelo_inurba_marseille","lat":43.25729,"lon":5.41115,"is_reserved":false,"is_disabled":false,"rental_uris":{"android":"levelo://app?vid=4f06ead8-fca4-4dd6-a4e5-5ed87e045694","ios":"levelo://app?vid=4f06ead8-fca4-4dd6-a4e5-5ed87e045694"},"vehicle_type_id":"4","last_reported":1727737762,"current_range_meters":28400,"station_id":"ce4bhkp2rcd13ifvqgd0","pricing_plan_id":"cebpf4jnsgd1na2vs0mg"},{"bike_id":"b50d61d5-c95c-40de-8142-c1434ce0b3ec","system_id":"levelo_inurba_marseille","lat":43.29886,"lon":5.39733,"is_reserved":false,"is_disabled":false,"rental_uris":{"android":"levelo://app?vid=b50d61d5-c95c-40de-8142-c1434ce0b3ec","ios":"levelo://app?vid=b50d61d5-c95c-40de-8142-c1434ce0b3ec"},"vehicle_type_id":"4","last_reported":1727737762,"current_range_meters":32000,"station_id":"ce4bh0h2rcd13ifvqd50","pricing_plan_id":"cebpf4jnsgd1na2vs0mg"},{"bike_id":"e2ed4bbf-c496-4916-9f88-0e78b50a395f","system_id":"levelo_inurba_marseille","lat":43.30148,"lon":5.39874,"is_reserved":false,"is_disabled":false,"rental_uris":{"android":"levelo://app?vid=e2ed4bbf-c496-4916-9f88-0e78b50a395f","ios":"levelo://app?vid=e2ed4bbf-c496-4916-9f88-0e78b50a395f"},"vehicle_type_id":"4","last_reported":1727737762,"current_range_meters":38000,"station_id":"ce4bh0h2rcd13ifvqd40","pricing_plan_id":"cebpf4jnsgd1na2vs0mg"},{"bike_id":"42f236e7-a370-4e2a-8144-184c4e55d3b5","system_id":"levelo_inurba_marseille","lat":43.28665,"lon":5.36361,"is_reserved":false,"is_disabled":false,"rental_uris":{"android":"levelo://app?vid=42f236e7-a370-4e2a-8144-184c4e55d3b5","ios":"levelo://app?vid=42f236e7-a370-4e2a-8144-184c4e55d3b5"},"vehicle_type_id":"4","last_reported":1727737762,"current_range_meters":26800,"station_id":"ce4bhah2rcd13ifvqej0","pricing_plan_id":"cebpf4jnsgd1na2vs0mg"},{"bike_id":"3a2a10a5-6b1f-4bb7-9e95-436e732a6364","system_id":"levelo_inurba_marseille","lat":43.31889,"lon":5.40728,"is_reserved":false,"is_disabled":false,"rental_uris":{"android":"levelo://app?vid=3a2a10a5-6b1f-4bb7-9e95-436e732a6364","ios":"levelo://app?vid=3a2a10a5-6b1f-4bb7-9e95-436e732a6364"},"vehicle_type_id":"4","last_reported":1727737762,"current_range_meters":40000,"station_id":"ce4bhq12rcd13ifvqhig","pricing_plan_id":"cebpf4jnsgd1na2vs0mg"},{"bike_id":"6fd4fe66-0c29-4c23-a8bc-4dd99e44ea36","system_id":"levelo_inurba_marseille","lat":43.28404,"lon":5.37521,"is_reserved":false,"is_disabled":false,"rental_uris":{"android":"levelo://app?vid=6fd4fe66-0c29-4c23-a8bc-4dd99e44ea36","ios":"levelo://app?vid=6fd4fe66-0c29-4c23-a8bc-4dd99e44ea36"},"vehicle_type_id":"4","last_reported":1727737762,"current_range_meters":4400,"station_id":"ce4bh412rcd13ifvqds0","pricing_plan_id":"cebpf4jnsgd1na2vs0mg"},{"bike_id":"9fc0059e-c96e-482f-b5a5-911df430f0c1","system_id":"levelo_inurba_marseille","lat":43.25084,"lon":5.39525,"is_reserved":false,"is_disabled":false,"rental_uris":{"android":"levelo://app?vid=9fc0059e-c96e-482f-b5a5-911df430f0c1","ios":"levelo://app?vid=9fc0059e-c96e-482f-b5a5-911df430f0c1"},"vehicle_type_id":"4","last_reported":1727737762,"current_range_meters":22800,"station_id":"ce4bhm12rcd13ifvqgkg","pricing_plan_id":"cebpf4jnsgd1na2vs0mg"},{"bike_id":"f6005f79-8ab7-4000-9d10-147791cdc683","system_id":"levelo_inurba_marseille","lat":43.24396,"lon":5.37052,"is_reserved":false,"is_disabled":false,"rental_uris":{"android":"levelo://app?vid=f6005f79-8ab7-4000-9d10-147791cdc683","ios":"levelo://app?vid=f6005f79-8ab7-4000-9d10-147791cdc683"},"vehicle_type_id":"4","last_reported":1727737762,"current_range_meters":40000,"station_id":"ce4bhhh2rcd13ifvqfk0","pricing_plan_id":"cebpf4jnsgd1na2vs0mg"},{"bike_id":"fd582551-3059-4b96-b662-c8ffde0eef18","system_id":"levelo_inurba_marseille","lat":43.30929,"lon":5.40137,"is_reserved":false,"is_disabled":false,"rental_uris":{"android":"levelo://app?vid=fd582551-3059-4b96-b662-c8ffde0eef18","ios":"levelo://app?vid=fd582551-3059-4b96-b662-c8ffde0eef18"},"vehicle_type_id":"4","last_reported":1727737762,"current_range_meters":11600,"station_id":"ce4bgvp2rcd13ifvqct0","pricing_plan_id":"cebpf4jnsgd1na2vs0mg"},{"bike_id":"fdc4ee10-4fdb-4ebc-95e6-0cccc412136a","system_id":"levelo_inurba_marseille","lat":43.28853,"lon":5.39319,"is_reserved":false,"is_disabled":false,"rental_uris":{"android":"levelo://app?vid=fdc4ee10-4fdb-4ebc-95e6-0cccc412136a","ios":"levelo://app?vid=fdc4ee10-4fdb-4ebc-95e6-0cccc412136a"},"vehicle_type_id":"4","last_reported":1727737762,"current_range_meters":36000,"station_id":"ce4bh2p2rcd13ifvqdi0","pricing_plan_id":"cebpf4jnsgd1na2vs0mg"},{"bike_id":"6b183cd8-2f6b-485a-b86b-7ee498d9e2cc","system_id":"levelo_inurba_marseille","lat":43.27494,"lon":5.42449,"is_reserved":false,"is_disabled":false,"rental_uris":{"android":"levelo://app?vid=6b183cd8-2f6b-485a-b86b-7ee498d9e2cc","ios":"levelo://app?vid=6b183cd8-2f6b-485a-b86b-7ee498d9e2cc"},"vehicle_type_id":"4","last_reported":1727737762,"current_range_meters":30800,"station_id":"ce4bhn92rcd13ifvqgrg","pricing_plan_id":"cebpf4jnsgd1na2vs0mg"},{"bike_id":"1fbfcdac-570c-450f-b663-6cf9642fc3d9","system_id":"levelo_inurba_marseille","lat":43.30652,"lon":5.40083,"is_reserved":false,"is_disabled":false,"rental_uris":{"android":"levelo://app?vid=1fbfcdac-570c-450f-b663-6cf9642fc3d9","ios":"levelo://app?vid=1fbfcdac-570c-450f-b663-6cf9642fc3d9"},"vehicle_type_id":"4","last_reported":1727737762,"current_range_meters":38400,"station_id":"ce4bh112rcd13ifvqda0","pricing_plan_id":"cebpf4jnsgd1na2vs0mg"},{"bike_id":"771e3987-61f1-4090-9be5-bfbeac734e63","system_id":"levelo_inurba_marseille","lat":43.2828,"lon":5.35078,"is_reserved":false,"is_disabled":false,"rental_uris":{"android":"levelo://app?vid=771e3987-61f1-4090-9be5-bfbeac734e63","ios":"levelo://app?vid=771e3987-61f1-4090-9be5-bfbeac734e63"},"vehicle_type_id":"4","last_reported":1727737762,"current_range_meters":14000,"station_id":"ce4bhbp2rcd13ifvqerg","pricing_plan_id":"cebpf4jnsgd1na2vs0mg"},{"bike_id":"331bf754-18c5-49b3-a53c-f5ee9aaecd7b","system_id":"levelo_inurba_marseille","lat":43.31485,"lon":5.37306,"is_reserved":false,"is_disabled":false,"rental_uris":{"android":"levelo://app?vid=331bf754-18c5-49b3-a53c-f5ee9aaecd7b","ios":"levelo://app?vid=331bf754-18c5-49b3-a53c-f5ee9aaecd7b"},"vehicle_type_id":"4","last_reported":1727737762,"current_range_meters":38400,"station_id":"ce4bgt12rcd13ifvqcd0","pricing_plan_id":"cebpf4jnsgd1na2vs0mg"},{"bike_id":"ac066f27-895d-417a-b557-bc08bf23f951","system_id":"levelo_inurba_marseille","lat":43.24395,"lon":5.37059,"is_reserved":false,"is_disabled":false,"rental_uris":{"android":"levelo://app?vid=ac066f27-895d-417a-b557-bc08bf23f951","ios":"levelo://app?vid=ac066f27-895d-417a-b557-bc08bf23f951"},"vehicle_type_id":"4","last_reported":1727737762,"current_range_meters":38800,"station_id":"ce4bhhh2rcd13ifvqfk0","pricing_plan_id":"cebpf4jnsgd1na2vs0mg"},{"bike_id":"d9685031-e7c0-43a0-83cb-41ae49fb0e29","system_id":"levelo_inurba_marseille","lat":43.30589,"lon":5.39348,"is_reserved":false,"is_disabled":false,"rental_uris":{"android":"levelo://app?vid=d9685031-e7c0-43a0-83cb-41ae49fb0e29","ios":"levelo://app?vid=d9685031-e7c0-43a0-83cb-41ae49fb0e29"},"vehicle_type_id":"4","last_reported":1727737762,"current_range_meters":35200,"station_id":"ce4bh0p2rcd13ifvqd80","pricing_plan_id":"cebpf4jnsgd1na2vs0mg"},{"bike_id":"4af23175-3cc8-4f7a-808d-7a29f00ac751","system_id":"levelo_inurba_marseille","lat":43.2898,"lon":5.3784,"is_reserved":false,"is_disabled":false,"rental_uris":{"android":"levelo://app?vid=4af23175-3cc8-4f7a-808d-7a29f00ac751","ios":"levelo://app?vid=4af23175-3cc8-4f7a-808d-7a29f00ac751"},"vehicle_type_id":"4","last_reported":1727737762,"current_range_meters":38800,"station_id":"ce4bh9p2rcd13ifvqed0","pricing_plan_id":"cebpf4jnsgd1na2vs0mg"},{"bike_id":"e33b5774-bead-4005-8787-a219fad5a46e","system_id":"levelo_inurba_marseille","lat":43.22933,"lon":5.35379,"is_reserved":false,"is_disabled":false,"rental_uris":{"android":"levelo://app?vid=e33b5774-bead-4005-8787-a219fad5a46e","ios":"levelo://app?vid=e33b5774-bead-4005-8787-a219fad5a46e"},"vehicle_type_id":"4","last_reported":1727737762,"current_range_meters":38800,"station_id":"cpo3532slgdg3j2ikp40","pricing_plan_id":"cebpf4jnsgd1na2vs0mg"},{"bike_id":"56d65ef6-5c51-47b7-8f1e-9b11fc17a21a","system_id":"levelo_inurba_marseille","lat":43.23188,"lon":5.39992,"is_reserved":false,"is_disabled":false,"rental_uris":{"android":"levelo://app?vid=56d65ef6-5c51-47b7-8f1e-9b11fc17a21a","ios":"levelo://app?vid=56d65ef6-5c51-47b7-8f1e-9b11fc17a21a"},"vehicle_type_id":"4","last_reported":1727737762,"current_range_meters":9200,"station_id":"ce4bhn12rcd13ifvqgqg","pricing_plan_id":"cebpf4jnsgd1na2vs0mg"},{"bike_id":"5da57b22-3ba2-4b50-a433-4bb78b8882bb","system_id":"levelo_inurba_marseille","lat":43.29039,"lon":5.35917,"is_reserved":false,"is_disabled":false,"rental_uris":{"android":"levelo://app?vid=5da57b22-3ba2-4b50-a433-4bb78b8882bb","ios":"levelo://app?vid=5da57b22-3ba2-4b50-a433-4bb78b8882bb"},"vehicle_type_id":"4","last_reported":1727737762,"current_range_meters":39200,"station_id":"ce4bha92rcd13ifvqeg0","pricing_plan_id":"cebpf4jnsgd1na2vs0mg"},{"bike_id":"d106df73-0f94-4ce9-b9fe-3f7e7fa30584","system_id":"levelo_inurba_marseille","lat":43.29512,"lon":5.39394,"is_reserved":false,"is_disabled":false,"rental_uris":{"android":"levelo://app?vid=d106df73-0f94-4ce9-b9fe-3f7e7fa30584","ios":"levelo://app?vid=d106df73-0f94-4ce9-b9fe-3f7e7fa30584"},"vehicle_type_id":"4","last_reported":1727737762,"current_range_meters":16000,"station_id":"ce4bh292rcd13ifvqdf0","pricing_plan_id":"cebpf4jnsgd1na2vs0mg"},{"bike_id":"4bcd84f9-a432-408b-a049-9eaf36d9e249","system_id":"levelo_inurba_marseille","lat":43.25868,"lon":5.39902,"is_reserved":false,"is_disabled":false,"rental_uris":{"android":"levelo://app?vid=4bcd84f9-a432-408b-a049-9eaf36d9e249","ios":"levelo://app?vid=4bcd84f9-a432-408b-a049-9eaf36d9e249"},"vehicle_type_id":"4","last_reported":1727737762,"current_range_meters":14400,"station_id":"ce4bhl92rcd13ifvqghg","pricing_plan_id":"cebpf4jnsgd1na2vs0mg"},{"bike_id":"5da9ad07-5c53-4cb7-a3fb-6c01d385f84b","system_id":"levelo_inurba_marseille","lat":43.24678,"lon":5.38157,"is_reserved":false,"is_disabled":false,"rental_uris":{"android":"levelo://app?vid=5da9ad07-5c53-4cb7-a3fb-6c01d385f84b","ios":"levelo://app?vid=5da9ad07-5c53-4cb7-a3fb-6c01d385f84b"},"vehicle_type_id":"4","last_reported":1727737762,"current_range_meters":38800,"station_id":"ce4bhih2rcd13ifvqfr0","pricing_plan_id":"cebpf4jnsgd1na2vs0mg"},{"bike_id":"22e65e0a-096d-4887-a119-61dcd48b6861","system_id":"levelo_inurba_marseille","lat":43.32493,"lon":5.36561,"is_reserved":false,"is_disabled":false,"rental_uris":{"android":"levelo://app?vid=22e65e0a-096d-4887-a119-61dcd48b6861","ios":"levelo://app?vid=22e65e0a-096d-4887-a119-61dcd48b6861"},"vehicle_type_id":"4","last_reported":1727737762,"current_range_meters":38800,"station_id":"ce4bhs12rcd13ifvqhvg","pricing_plan_id":"cebpf4jnsgd1na2vs0mg"},{"bike_id":"be5c1af7-fb3a-4132-b59e-f330cb06ffdb","system_id":"levelo_inurba_marseille","lat":43.29806,"lon":5.39336,"is_reserved":false,"is_disabled":false,"rental_uris":{"android":"levelo://app?vid=be5c1af7-fb3a-4132-b59e-f330cb06ffdb","ios":"levelo://app?vid=be5c1af7-fb3a-4132-b59e-f330cb06ffdb"},"vehicle_type_id":"4","last_reported":1727737762,"current_range_meters":32800,"station_id":"chh1huq6cuj3fo74tm60","pricing_plan_id":"cebpf4jnsgd1na2vs0mg"},{"bike_id":"3648acaf-9a07-42d1-9b82-54e90669d334","system_id":"levelo_inurba_marseille","lat":43.24193,"lon":5.3974,"is_reserved":false,"is_disabled":false,"rental_uris":{"android":"levelo://app?vid=3648acaf-9a07-42d1-9b82-54e90669d334","ios":"levelo://app?vid=3648acaf-9a07-42d1-9b82-54e90669d334"},"vehicle_type_id":"4","last_reported":1727737762,"current_range_meters":39200,"station_id":"ce4bhn12rcd13ifvqgpg","pricing_plan_id":"cebpf4jnsgd1na2vs0mg"},{"bike_id":"11633c0e-1ace-404f-89ee-7d8e42bb4dfa","system_id":"levelo_inurba_marseille","lat":43.29804,"lon":5.40407,"is_reserved":false,"is_disabled":false,"rental_uris":{"android":"levelo://app?vid=11633c0e-1ace-404f-89ee-7d8e42bb4dfa","ios":"levelo://app?vid=11633c0e-1ace-404f-89ee-7d8e42bb4dfa"},"vehicle_type_id":"4","last_reported":1727737762,"current_range_meters":37600,"station_id":"ce4bh112rcd13ifvqd90","pricing_plan_id":"cebpf4jnsgd1na2vs0mg"},{"bike_id":"fe5454b1-a52f-4f6c-9287-e09a12de6e53","system_id":"levelo_inurba_marseille","lat":43.24803,"lon":5.37453,"is_reserved":false,"is_disabled":false,"rental_uris":{"android":"levelo://app?vid=fe5454b1-a52f-4f6c-9287-e09a12de6e53","ios":"levelo://app?vid=fe5454b1-a52f-4f6c-9287-e09a12de6e53"},"vehicle_type_id":"4","last_reported":1727737762,"current_range_meters":39200,"station_id":"ce4bhgh2rcd13ifvqfb0","pricing_plan_id":"cebpf4jnsgd1na2vs0mg"},{"bike_id":"4c7e3c0d-4983-42af-ba97-4d8f2a1c7ae5","system_id":"levelo_inurba_marseille","lat":43.32003,"lon":5.38154,"is_reserved":false,"is_disabled":false,"rental_uris":{"android":"levelo://app?vid=4c7e3c0d-4983-42af-ba97-4d8f2a1c7ae5","ios":"levelo://app?vid=4c7e3c0d-4983-42af-ba97-4d8f2a1c7ae5"},"vehicle_type_id":"4","last_reported":1727737762,"current_range_meters":39200,"station_id":"ce4bhr12rcd13ifvqhpg","pricing_plan_id":"cebpf4jnsgd1na2vs0mg"},{"bike_id":"c4a886c6-7f28-4d3d-8dd5-576c8dad7dba","system_id":"levelo_inurba_marseille","lat":43.29049,"lon":5.35908,"is_reserved":false,"is_disabled":false,"rental_uris":{"android":"levelo://app?vid=c4a886c6-7f28-4d3d-8dd5-576c8dad7dba","ios":"levelo://app?vid=c4a886c6-7f28-4d3d-8dd5-576c8dad7dba"},"vehicle_type_id":"4","last_reported":1727737762,"current_range_meters":38000,"station_id":"ce4bha92rcd13ifvqeg0","pricing_plan_id":"cebpf4jnsgd1na2vs0mg"},{"bike_id":"f3796b83-d0ff-4e28-ab91-f20a8aacf6fc","system_id":"levelo_inurba_marseille","lat":43.28733,"lon":5.3609,"is_reserved":false,"is_disabled":false,"rental_uris":{"android":"levelo://app?vid=f3796b83-d0ff-4e28-ab91-f20a8aacf6fc","ios":"levelo://app?vid=f3796b83-d0ff-4e28-ab91-f20a8aacf6fc"},"vehicle_type_id":"4","last_reported":1727737762,"current_range_meters":37600,"station_id":"cki0cbj6b192h4jlfktg","pricing_plan_id":"cebpf4jnsgd1na2vs0mg"},{"bike_id":"1a4763a4-3eac-445e-80d7-f51ca0928a5d","system_id":"levelo_inurba_marseille","lat":43.2955,"lon":5.42287,"is_reserved":false,"is_disabled":false,"rental_uris":{"android":"levelo://app?vid=1a4763a4-3eac-445e-80d7-f51ca0928a5d","ios":"levelo://app?vid=1a4763a4-3eac-445e-80d7-f51ca0928a5d"},"vehicle_type_id":"4","last_reported":1727737762,"current_range_meters":38800,"station_id":"ce4bhph2rcd13ifvqhdg","pricing_plan_id":"cebpf4jnsgd1na2vs0mg"},{"bike_id":"5dbf8eb5-61aa-4f3c-ae3e-9d25cdeafbe1","system_id":"levelo_inurba_marseille","lat":43.32002,"lon":5.38156,"is_reserved":false,"is_disabled":false,"rental_uris":{"android":"levelo://app?vid=5dbf8eb5-61aa-4f3c-ae3e-9d25cdeafbe1","ios":"levelo://app?vid=5dbf8eb5-61aa-4f3c-ae3e-9d25cdeafbe1"},"vehicle_type_id":"4","last_reported":1727737762,"current_range_meters":30000,"station_id":"ce4bhr12rcd13ifvqhpg","pricing_plan_id":"cebpf4jnsgd1na2vs0mg"},{"bike_id":"cd1b2a3e-a454-4fcd-9e85-c389c955b12e","system_id":"levelo_inurba_marseille","lat":43.27916,"lon":5.39583,"is_reserved":false,"is_disabled":false,"rental_uris":{"android":"levelo://app?vid=cd1b2a3e-a454-4fcd-9e85-c389c955b12e","ios":"levelo://app?vid=cd1b2a3e-a454-4fcd-9e85-c389c955b12e"},"vehicle_type_id":"4","last_reported":1727737762,"current_range_meters":18800,"station_id":"ce4bhf92rcd13ifvqf40","pricing_plan_id":"cebpf4jnsgd1na2vs0mg"},{"bike_id":"ada71883-4a66-4523-b9de-ac95acea5059","system_id":"levelo_inurba_marseille","lat":43.30805,"lon":5.43523,"is_reserved":false,"is_disabled":false,"rental_uris":{"android":"levelo://app?vid=ada71883-4a66-4523-b9de-ac95acea5059","ios":"levelo://app?vid=ada71883-4a66-4523-b9de-ac95acea5059"},"vehicle_type_id":"4","last_reported":1727737762,"current_range_meters":38000,"station_id":"ce4bhph2rcd13ifvqheg","pricing_plan_id":"cebpf4jnsgd1na2vs0mg"},{"bike_id":"1b2f79a4-61c7-449e-90ee-62f41ab15549","system_id":"levelo_inurba_marseille","lat":43.3043,"lon":5.39742,"is_reserved":false,"is_disabled":false,"rental_uris":{"android":"levelo://app?vid=1b2f79a4-61c7-449e-90ee-62f41ab15549","ios":"levelo://app?vid=1b2f79a4-61c7-449e-90ee-62f41ab15549"},"vehicle_type_id":"4","last_reported":1727737762,"current_range_meters":36800,"station_id":"ce4bh092rcd13ifvqd20","pricing_plan_id":"cebpf4jnsgd1na2vs0mg"},{"bike_id":"aa2b390e-4c45-4f84-909c-e24af45d5d9f","system_id":"levelo_inurba_marseille","lat":43.29554,"lon":5.4228,"is_reserved":false,"is_disabled":false,"rental_uris":{"android":"levelo://app?vid=aa2b390e-4c45-4f84-909c-e24af45d5d9f","ios":"levelo://app?vid=aa2b390e-4c45-4f84-909c-e24af45d5d9f"},"vehicle_type_id":"4","last_reported":1727737762,"current_range_meters":38800,"station_id":"ce4bhph2rcd13ifvqhdg","pricing_plan_id":"cebpf4jnsgd1na2vs0mg"},{"bike_id":"e9e2bec2-b3a7-4a3c-aeb7-bb25da1b7406","system_id":"levelo_inurba_marseille","lat":43.31693,"lon":5.40473,"is_reserved":false,"is_disabled":false,"rental_uris":{"android":"levelo://app?vid=e9e2bec2-b3a7-4a3c-aeb7-bb25da1b7406","ios":"levelo://app?vid=e9e2bec2-b3a7-4a3c-aeb7-bb25da1b7406"},"vehicle_type_id":"4","last_reported":1727737762,"current_range_meters":22000,"station_id":"ce4bh012rcd13ifvqd00","pricing_plan_id":"cebpf4jnsgd1na2vs0mg"},{"bike_id":"113d971e-9438-42d2-b3a9-a2f3f65d81c0","system_id":"levelo_inurba_marseille","lat":43.31488,"lon":5.37309,"is_reserved":false,"is_disabled":false,"rental_uris":{"android":"levelo://app?vid=113d971e-9438-42d2-b3a9-a2f3f65d81c0","ios":"levelo://app?vid=113d971e-9438-42d2-b3a9-a2f3f65d81c0"},"vehicle_type_id":"4","last_reported":1727737762,"current_range_meters":36800,"station_id":"ce4bgt12rcd13ifvqcd0","pricing_plan_id":"cebpf4jnsgd1na2vs0mg"},{"bike_id":"e16e97b3-f1a5-4dfb-a258-135f4936a5e7","system_id":"levelo_inurba_marseille","lat":43.31071,"lon":5.38345,"is_reserved":false,"is_disabled":false,"rental_uris":{"android":"levelo://app?vid=e16e97b3-f1a5-4dfb-a258-135f4936a5e7","ios":"levelo://app?vid=e16e97b3-f1a5-4dfb-a258-135f4936a5e7"},"vehicle_type_id":"4","last_reported":1727737762,"current_range_meters":38800,"station_id":"ce4bgv92rcd13ifvqcr0","pricing_plan_id":"cebpf4jnsgd1na2vs0mg"},{"bike_id":"5d34d44a-5657-4046-9997-746fa7323ea5","system_id":"levelo_inurba_marseille","lat":43.32554,"lon":5.41414,"is_reserved":false,"is_disabled":false,"rental_uris":{"android":"levelo://app?vid=5d34d44a-5657-4046-9997-746fa7323ea5","ios":"levelo://app?vid=5d34d44a-5657-4046-9997-746fa7323ea5"},"vehicle_type_id":"4","last_reported":1727737762,"current_range_meters":38800,"station_id":"ce4bhq12rcd13ifvqhhg","pricing_plan_id":"cebpf4jnsgd1na2vs0mg"},{"bike_id":"d4a200a5-71be-4e4f-996b-05c824b6ae83","system_id":"levelo_inurba_marseille","lat":43.28729,"lon":5.36081,"is_reserved":false,"is_disabled":false,"rental_uris":{"android":"levelo://app?vid=d4a200a5-71be-4e4f-996b-05c824b6ae83","ios":"levelo://app?vid=d4a200a5-71be-4e4f-996b-05c824b6ae83"},"vehicle_type_id":"4","last_reported":1727737762,"current_range_meters":18000,"station_id":"cki0cbj6b192h4jlfktg","pricing_plan_id":"cebpf4jnsgd1na2vs0mg"},{"bike_id":"0025408f-f6c1-481f-9d54-9a4f4861dd4c","system_id":"levelo_inurba_marseille","lat":43.31273,"lon":5.40159,"is_reserved":false,"is_disabled":false,"rental_uris":{"android":"levelo://app?vid=0025408f-f6c1-481f-9d54-9a4f4861dd4c","ios":"levelo://app?vid=0025408f-f6c1-481f-9d54-9a4f4861dd4c"},"vehicle_type_id":"4","last_reported":1727737762,"current_range_meters":7200,"station_id":"ce4bh092rcd13ifvqd30","pricing_plan_id":"cebpf4jnsgd1na2vs0mg"},{"bike_id":"95233c5f-f9ca-484b-86fa-16a68e32bc0a","system_id":"levelo_inurba_marseille","lat":43.30435,"lon":5.39752,"is_reserved":false,"is_disabled":false,"rental_uris":{"android":"levelo://app?vid=95233c5f-f9ca-484b-86fa-16a68e32bc0a","ios":"levelo://app?vid=95233c5f-f9ca-484b-86fa-16a68e32bc0a"},"vehicle_type_id":"4","last_reported":1727737762,"current_range_meters":38000,"station_id":"ce4bh092rcd13ifvqd20","pricing_plan_id":"cebpf4jnsgd1na2vs0mg"},{"bike_id":"63f10e86-8660-4331-a40e-1476b016bc7b","system_id":"levelo_inurba_marseille","lat":43.234228,"lon":5.359421,"is_reserved":false,"is_disabled":false,"rental_uris":{"android":"levelo://app?vid=63f10e86-8660-4331-a40e-1476b016bc7b","ios":"levelo://app?vid=63f10e86-8660-4331-a40e-1476b016bc7b"},"vehicle_type_id":"4","last_reported":1727737762,"current_range_meters":38400,"station_id":"","pricing_plan_id":"cebpf4jnsgd1na2vs0mg"},{"bike_id":"85f8698a-70fa-4c5f-bc37-d5b672eac777","system_id":"levelo_inurba_marseille","lat":43.28106,"lon":5.37843,"is_reserved":false,"is_disabled":false,"rental_uris":{"android":"levelo://app?vid=85f8698a-70fa-4c5f-bc37-d5b672eac777","ios":"levelo://app?vid=85f8698a-70fa-4c5f-bc37-d5b672eac777"},"vehicle_type_id":"4","last_reported":1727737762,"current_range_meters":37600,"station_id":"ce4bha12rcd13ifvqee0","pricing_plan_id":"cebpf4jnsgd1na2vs0mg"},{"bike_id":"2a57891e-38a9-487a-8477-b737cb35bb34","system_id":"levelo_inurba_marseille","lat":43.30933,"lon":5.40129,"is_reserved":false,"is_disabled":false,"rental_uris":{"android":"levelo://app?vid=2a57891e-38a9-487a-8477-b737cb35bb34","ios":"levelo://app?vid=2a57891e-38a9-487a-8477-b737cb35bb34"},"vehicle_type_id":"4","last_reported":1727737762,"current_range_meters":38800,"station_id":"ce4bgvp2rcd13ifvqct0","pricing_plan_id":"cebpf4jnsgd1na2vs0mg"},{"bike_id":"0768601a-63fc-48b6-af0b-e3c24f752213","system_id":"levelo_inurba_marseille","lat":43.33721,"lon":5.39178,"is_reserved":false,"is_disabled":false,"rental_uris":{"android":"levelo://app?vid=0768601a-63fc-48b6-af0b-e3c24f752213","ios":"levelo://app?vid=0768601a-63fc-48b6-af0b-e3c24f752213"},"vehicle_type_id":"4","last_reported":1727737762,"current_range_meters":9600,"station_id":"ce4bhr92rcd13ifvqhsg","pricing_plan_id":"cebpf4jnsgd1na2vs0mg"},{"bike_id":"338c802c-f8cb-430f-a8d1-f33bdd0ead8a","system_id":"levelo_inurba_marseille","lat":43.24394,"lon":5.37065,"is_reserved":false,"is_disabled":false,"rental_uris":{"android":"levelo://app?vid=338c802c-f8cb-430f-a8d1-f33bdd0ead8a","ios":"levelo://app?vid=338c802c-f8cb-430f-a8d1-f33bdd0ead8a"},"vehicle_type_id":"4","last_reported":1727737762,"current_range_meters":38800,"station_id":"ce4bhhh2rcd13ifvqfk0","pricing_plan_id":"cebpf4jnsgd1na2vs0mg"},{"bike_id":"d8e5e8c2-ae26-4e8a-b2f8-144fc3a14157","system_id":"levelo_inurba_marseille","lat":43.3054,"lon":5.38428,"is_reserved":false,"is_disabled":false,"rental_uris":{"android":"levelo://app?vid=d8e5e8c2-ae26-4e8a-b2f8-144fc3a14157","ios":"levelo://app?vid=d8e5e8c2-ae26-4e8a-b2f8-144fc3a14157"},"vehicle_type_id":"4","last_reported":1727737762,"current_range_meters":37600,"station_id":"ce4bgg92rcd13ifvqb30","pricing_plan_id":"cebpf4jnsgd1na2vs0mg"},{"bike_id":"618db686-91bb-4b32-9421-264f1a14d91b","system_id":"levelo_inurba_marseille","lat":43.28571,"lon":5.39501,"is_reserved":false,"is_disabled":false,"rental_uris":{"android":"levelo://app?vid=618db686-91bb-4b32-9421-264f1a14d91b","ios":"levelo://app?vid=618db686-91bb-4b32-9421-264f1a14d91b"},"vehicle_type_id":"4","last_reported":1727737762,"current_range_meters":6800,"station_id":"ce4bh292rcd13ifvqdg0","pricing_plan_id":"cebpf4jnsgd1na2vs0mg"},{"bike_id":"847f88c4-d44a-4f8f-b26a-e93b93fedb5c","system_id":"levelo_inurba_marseille","lat":43.31273,"lon":5.40171,"is_reserved":false,"is_disabled":false,"rental_uris":{"android":"levelo://app?vid=847f88c4-d44a-4f8f-b26a-e93b93fedb5c","ios":"levelo://app?vid=847f88c4-d44a-4f8f-b26a-e93b93fedb5c"},"vehicle_type_id":"4","last_reported":1727737762,"current_range_meters":38800,"station_id":"ce4bh092rcd13ifvqd30","pricing_plan_id":"cebpf4jnsgd1na2vs0mg"},{"bike_id":"1e37e45a-ffba-4ff3-bbd3-5a2788cc89b2","system_id":"levelo_inurba_marseille","lat":43.33611,"lon":5.41033,"is_reserved":false,"is_disabled":false,"rental_uris":{"android":"levelo://app?vid=1e37e45a-ffba-4ff3-bbd3-5a2788cc89b2","ios":"levelo://app?vid=1e37e45a-ffba-4ff3-bbd3-5a2788cc89b2"},"vehicle_type_id":"4","last_reported":1727737762,"current_range_meters":24000,"station_id":"ce4bhqh2rcd13ifvqhmg","pricing_plan_id":"cebpf4jnsgd1na2vs0mg"},{"bike_id":"c7c8be41-8ab6-4808-a6c3-69923c56de0d","system_id":"levelo_inurba_marseille","lat":43.30793,"lon":5.37649,"is_reserved":false,"is_disabled":false,"rental_uris":{"android":"levelo://app?vid=c7c8be41-8ab6-4808-a6c3-69923c56de0d","ios":"levelo://app?vid=c7c8be41-8ab6-4808-a6c3-69923c56de0d"},"vehicle_type_id":"4","last_reported":1727737762,"current_range_meters":38000,"station_id":"ce4bgv92rcd13ifvqcq0","pricing_plan_id":"cebpf4jnsgd1na2vs0mg"},{"bike_id":"e2daef4f-c38f-4a92-bfd2-cae3d37e0507","system_id":"levelo_inurba_marseille","lat":43.30962,"lon":5.39043,"is_reserved":false,"is_disabled":false,"rental_uris":{"android":"levelo://app?vid=e2daef4f-c38f-4a92-bfd2-cae3d37e0507","ios":"levelo://app?vid=e2daef4f-c38f-4a92-bfd2-cae3d37e0507"},"vehicle_type_id":"4","last_reported":1727737762,"current_range_meters":24400,"station_id":"ce4bgup2rcd13ifvqco0","pricing_plan_id":"cebpf4jnsgd1na2vs0mg"},{"bike_id":"f587029b-345a-4061-8199-21049f1466f6","system_id":"levelo_inurba_marseille","lat":43.33033,"lon":5.39044,"is_reserved":false,"is_disabled":false,"rental_uris":{"android":"levelo://app?vid=f587029b-345a-4061-8199-21049f1466f6","ios":"levelo://app?vid=f587029b-345a-4061-8199-21049f1466f6"},"vehicle_type_id":"4","last_reported":1727737762,"current_range_meters":30400,"station_id":"ce4bhr92rcd13ifvqhrg","pricing_plan_id":"cebpf4jnsgd1na2vs0mg"},{"bike_id":"0d77effa-5a61-4fbc-bb28-d38022cbf155","system_id":"levelo_inurba_marseille","lat":43.25582,"lon":5.38232,"is_reserved":false,"is_disabled":false,"rental_uris":{"android":"levelo://app?vid=0d77effa-5a61-4fbc-bb28-d38022cbf155","ios":"levelo://app?vid=0d77effa-5a61-4fbc-bb28-d38022cbf155"},"vehicle_type_id":"4","last_reported":1727737762,"current_range_meters":35600,"station_id":"ce4bhih2rcd13ifvqfs0","pricing_plan_id":"cebpf4jnsgd1na2vs0mg"},{"bike_id":"564ab5aa-2480-4970-8b4c-304e5443c6ac","system_id":"levelo_inurba_marseille","lat":43.25729,"lon":5.41112,"is_reserved":false,"is_disabled":false,"rental_uris":{"android":"levelo://app?vid=564ab5aa-2480-4970-8b4c-304e5443c6ac","ios":"levelo://app?vid=564ab5aa-2480-4970-8b4c-304e5443c6ac"},"vehicle_type_id":"4","last_reported":1727737762,"current_range_meters":28800,"station_id":"ce4bhkp2rcd13ifvqgd0","pricing_plan_id":"cebpf4jnsgd1na2vs0mg"},{"bike_id":"1556b97b-7055-4c02-9b93-26a9e32683bd","system_id":"levelo_inurba_marseille","lat":43.27172,"lon":5.40988,"is_reserved":false,"is_disabled":false,"rental_uris":{"android":"levelo://app?vid=1556b97b-7055-4c02-9b93-26a9e32683bd","ios":"levelo://app?vid=1556b97b-7055-4c02-9b93-26a9e32683bd"},"vehicle_type_id":"4","last_reported":1727737762,"current_range_meters":35200,"station_id":"ce4bhl12rcd13ifvqgf0","pricing_plan_id":"cebpf4jnsgd1na2vs0mg"},{"bike_id":"ea86d9aa-3025-4e42-a879-d59d63acfa56","system_id":"levelo_inurba_marseille","lat":43.32368,"lon":5.38884,"is_reserved":false,"is_disabled":false,"rental_uris":{"android":"levelo://app?vid=ea86d9aa-3025-4e42-a879-d59d63acfa56","ios":"levelo://app?vid=ea86d9aa-3025-4e42-a879-d59d63acfa56"},"vehicle_type_id":"4","last_reported":1727737762,"current_range_meters":38800,"station_id":"ce4bhqp2rcd13ifvqhog","pricing_plan_id":"cebpf4jnsgd1na2vs0mg"},{"bike_id":"d4bf0cfc-9960-41ec-af81-381bb44a761f","system_id":"levelo_inurba_marseille","lat":43.31076,"lon":5.38347,"is_reserved":false,"is_disabled":false,"rental_uris":{"android":"levelo://app?vid=d4bf0cfc-9960-41ec-af81-381bb44a761f","ios":"levelo://app?vid=d4bf0cfc-9960-41ec-af81-381bb44a761f"},"vehicle_type_id":"4","last_reported":1727737762,"current_range_meters":38800,"station_id":"ce4bgv92rcd13ifvqcr0","pricing_plan_id":"cebpf4jnsgd1na2vs0mg"},{"bike_id":"17cc47b6-dc31-4d70-a81e-bc0afd588111","system_id":"levelo_inurba_marseille","lat":43.2843,"lon":5.34985,"is_reserved":false,"is_disabled":false,"rental_uris":{"android":"levelo://app?vid=17cc47b6-dc31-4d70-a81e-bc0afd588111","ios":"levelo://app?vid=17cc47b6-dc31-4d70-a81e-bc0afd588111"},"vehicle_type_id":"4","last_reported":1727737762,"current_range_meters":33200,"station_id":"ce4bhbh2rcd13ifvqepg","pricing_plan_id":"cebpf4jnsgd1na2vs0mg"},{"bike_id":"fd3d4aeb-070c-417a-9d53-991cbf630224","system_id":"levelo_inurba_marseille","lat":43.28977,"lon":5.37841,"is_reserved":false,"is_disabled":false,"rental_uris":{"android":"levelo://app?vid=fd3d4aeb-070c-417a-9d53-991cbf630224","ios":"levelo://app?vid=fd3d4aeb-070c-417a-9d53-991cbf630224"},"vehicle_type_id":"4","last_reported":1727737762,"current_range_meters":38800,"station_id":"ce4bh9p2rcd13ifvqed0","pricing_plan_id":"cebpf4jnsgd1na2vs0mg"},{"bike_id":"96d10b1f-6b81-4134-a8c4-3a4bf34c7275","system_id":"levelo_inurba_marseille","lat":43.29634,"lon":5.40593,"is_reserved":false,"is_disabled":false,"rental_uris":{"android":"levelo://app?vid=96d10b1f-6b81-4134-a8c4-3a4bf34c7275","ios":"levelo://app?vid=96d10b1f-6b81-4134-a8c4-3a4bf34c7275"},"vehicle_type_id":"4","last_reported":1727737762,"current_range_meters":24400,"station_id":"ce4bh0h2rcd13ifvqd60","pricing_plan_id":"cebpf4jnsgd1na2vs0mg"},{"bike_id":"59dea60b-0868-493c-8d4e-1efd870d8b0c","system_id":"levelo_inurba_marseille","lat":43.31543,"lon":5.38022,"is_reserved":false,"is_disabled":false,"rental_uris":{"android":"levelo://app?vid=59dea60b-0868-493c-8d4e-1efd870d8b0c","ios":"levelo://app?vid=59dea60b-0868-493c-8d4e-1efd870d8b0c"},"vehicle_type_id":"4","last_reported":1727737762,"current_range_meters":8000,"station_id":"ce4bhsp2rcd13ifvqi50","pricing_plan_id":"cebpf4jnsgd1na2vs0mg"},{"bike_id":"252eed4b-d9b5-40ca-a9a7-2425c5c96f31","system_id":"levelo_inurba_marseille","lat":43.28458,"lon":5.359,"is_reserved":false,"is_disabled":false,"rental_uris":{"android":"levelo://app?vid=252eed4b-d9b5-40ca-a9a7-2425c5c96f31","ios":"levelo://app?vid=252eed4b-d9b5-40ca-a9a7-2425c5c96f31"},"vehicle_type_id":"4","last_reported":1727737762,"current_range_meters":40000,"station_id":"ce4bhah2rcd13ifvqei0","pricing_plan_id":"cebpf4jnsgd1na2vs0mg"},{"bike_id":"8ea13cde-51fb-4987-8fdb-e7aea384b773","system_id":"levelo_inurba_marseille","lat":43.31719,"lon":5.43712,"is_reserved":false,"is_disabled":false,"rental_uris":{"android":"levelo://app?vid=8ea13cde-51fb-4987-8fdb-e7aea384b773","ios":"levelo://app?vid=8ea13cde-51fb-4987-8fdb-e7aea384b773"},"vehicle_type_id":"4","last_reported":1727737762,"current_range_meters":40000,"station_id":"ce4bhp92rcd13ifvqhcg","pricing_plan_id":"cebpf4jnsgd1na2vs0mg"},{"bike_id":"7e0ef1c3-12bb-4a2f-900a-f676edaa35fe","system_id":"levelo_inurba_marseille","lat":43.31173,"lon":5.38718,"is_reserved":false,"is_disabled":false,"rental_uris":{"android":"levelo://app?vid=7e0ef1c3-12bb-4a2f-900a-f676edaa35fe","ios":"levelo://app?vid=7e0ef1c3-12bb-4a2f-900a-f676edaa35fe"},"vehicle_type_id":"4","last_reported":1727737762,"current_range_meters":25200,"station_id":"ce4bgv12rcd13ifvqcp0","pricing_plan_id":"cebpf4jnsgd1na2vs0mg"},{"bike_id":"dd126ad6-3005-4e97-ba0b-180dc274239b","system_id":"levelo_inurba_marseille","lat":43.28446,"lon":5.39208,"is_reserved":false,"is_disabled":false,"rental_uris":{"android":"levelo://app?vid=dd126ad6-3005-4e97-ba0b-180dc274239b","ios":"levelo://app?vid=dd126ad6-3005-4e97-ba0b-180dc274239b"},"vehicle_type_id":"4","last_reported":1727737762,"current_range_meters":39200,"station_id":"ce4bhoh2rcd13ifvqh5g","pricing_plan_id":"cebpf4jnsgd1na2vs0mg"},{"bike_id":"c0b4d258-90bd-4e28-9b1f-baccd83d4f14","system_id":"levelo_inurba_marseille","lat":43.2757,"lon":5.38419,"is_reserved":false,"is_disabled":false,"rental_uris":{"android":"levelo://app?vid=c0b4d258-90bd-4e28-9b1f-baccd83d4f14","ios":"levelo://app?vid=c0b4d258-90bd-4e28-9b1f-baccd83d4f14"},"vehicle_type_id":"4","last_reported":1727737762,"current_range_meters":24800,"station_id":"ce4bhh92rcd13ifvqfi0","pricing_plan_id":"cebpf4jnsgd1na2vs0mg"},{"bike_id":"426a8d51-60eb-455f-908a-b13db90b3250","system_id":"levelo_inurba_marseille","lat":43.28712,"lon":5.39982,"is_reserved":false,"is_disabled":false,"rental_uris":{"android":"levelo://app?vid=426a8d51-60eb-455f-908a-b13db90b3250","ios":"levelo://app?vid=426a8d51-60eb-455f-908a-b13db90b3250"},"vehicle_type_id":"4","last_reported":1727737762,"current_range_meters":27600,"station_id":"ce4bho92rcd13ifvqh3g","pricing_plan_id":"cebpf4jnsgd1na2vs0mg"},{"bike_id":"7ca9a03e-5469-4981-b42c-d69f72ea598c","system_id":"levelo_inurba_marseille","lat":43.29791,"lon":5.39337,"is_reserved":false,"is_disabled":false,"rental_uris":{"android":"levelo://app?vid=7ca9a03e-5469-4981-b42c-d69f72ea598c","ios":"levelo://app?vid=7ca9a03e-5469-4981-b42c-d69f72ea598c"},"vehicle_type_id":"4","last_reported":1727737762,"current_range_meters":32800,"station_id":"chh1huq6cuj3fo74tm60","pricing_plan_id":"cebpf4jnsgd1na2vs0mg"},{"bike_id":"634ea072-51cb-416d-afd6-0d1b956f5964","system_id":"levelo_inurba_marseille","lat":43.26554,"lon":5.37283,"is_reserved":false,"is_disabled":false,"rental_uris":{"android":"levelo://app?vid=634ea072-51cb-416d-afd6-0d1b956f5964","ios":"levelo://app?vid=634ea072-51cb-416d-afd6-0d1b956f5964"},"vehicle_type_id":"4","last_reported":1727737762,"current_range_meters":38800,"station_id":"ce4bhg12rcd13ifvqf70","pricing_plan_id":"cebpf4jnsgd1na2vs0mg"},{"bike_id":"0c273724-94b8-41b2-89ed-ccb2c19aea09","system_id":"levelo_inurba_marseille","lat":43.27842,"lon":5.39215,"is_reserved":false,"is_disabled":false,"rental_uris":{"android":"levelo://app?vid=0c273724-94b8-41b2-89ed-ccb2c19aea09","ios":"levelo://app?vid=0c273724-94b8-41b2-89ed-ccb2c19aea09"},"vehicle_type_id":"4","last_reported":1727737762,"current_range_meters":30000,"station_id":"ce4bhjp2rcd13ifvqga0","pricing_plan_id":"cebpf4jnsgd1na2vs0mg"},{"bike_id":"b5d12c42-07bc-4fb6-847a-db804002b50a","system_id":"levelo_inurba_marseille","lat":43.31285,"lon":5.40163,"is_reserved":false,"is_disabled":false,"rental_uris":{"android":"levelo://app?vid=b5d12c42-07bc-4fb6-847a-db804002b50a","ios":"levelo://app?vid=b5d12c42-07bc-4fb6-847a-db804002b50a"},"vehicle_type_id":"4","last_reported":1727737762,"current_range_meters":32800,"station_id":"ce4bh092rcd13ifvqd30","pricing_plan_id":"cebpf4jnsgd1na2vs0mg"},{"bike_id":"5e0ac19d-f167-483b-938a-772ef86e05c6","system_id":"levelo_inurba_marseille","lat":43.30648,"lon":5.4009,"is_reserved":false,"is_disabled":false,"rental_uris":{"android":"levelo://app?vid=5e0ac19d-f167-483b-938a-772ef86e05c6","ios":"levelo://app?vid=5e0ac19d-f167-483b-938a-772ef86e05c6"},"vehicle_type_id":"4","last_reported":1727737762,"current_range_meters":33200,"station_id":"ce4bh112rcd13ifvqda0","pricing_plan_id":"cebpf4jnsgd1na2vs0mg"},{"bike_id":"adf7a01d-ac11-418a-b84d-2fd8ee25364e","system_id":"levelo_inurba_marseille","lat":43.29261,"lon":5.40913,"is_reserved":false,"is_disabled":false,"rental_uris":{"android":"levelo://app?vid=adf7a01d-ac11-418a-b84d-2fd8ee25364e","ios":"levelo://app?vid=adf7a01d-ac11-418a-b84d-2fd8ee25364e"},"vehicle_type_id":"4","last_reported":1727737762,"current_range_meters":39200,"station_id":"ce4bh192rcd13ifvqdc0","pricing_plan_id":"cebpf4jnsgd1na2vs0mg"},{"bike_id":"bae7c130-8843-4768-9c38-13bfc8059882","system_id":"levelo_inurba_marseille","lat":43.30658,"lon":5.40076,"is_reserved":false,"is_disabled":false,"rental_uris":{"android":"levelo://app?vid=bae7c130-8843-4768-9c38-13bfc8059882","ios":"levelo://app?vid=bae7c130-8843-4768-9c38-13bfc8059882"},"vehicle_type_id":"4","last_reported":1727737762,"current_range_meters":11600,"station_id":"ce4bh112rcd13ifvqda0","pricing_plan_id":"cebpf4jnsgd1na2vs0mg"},{"bike_id":"ff3321d0-5940-42b8-9fd8-ad85ac490d4e","system_id":"levelo_inurba_marseille","lat":43.26562,"lon":5.37283,"is_reserved":false,"is_disabled":false,"rental_uris":{"android":"levelo://app?vid=ff3321d0-5940-42b8-9fd8-ad85ac490d4e","ios":"levelo://app?vid=ff3321d0-5940-42b8-9fd8-ad85ac490d4e"},"vehicle_type_id":"4","last_reported":1727737762,"current_range_meters":9600,"station_id":"ce4bhg12rcd13ifvqf70","pricing_plan_id":"cebpf4jnsgd1na2vs0mg"},{"bike_id":"e63cfab4-ae1f-48ea-8404-44e5ba3708f5","system_id":"levelo_inurba_marseille","lat":43.28574,"lon":5.39499,"is_reserved":false,"is_disabled":false,"rental_uris":{"android":"levelo://app?vid=e63cfab4-ae1f-48ea-8404-44e5ba3708f5","ios":"levelo://app?vid=e63cfab4-ae1f-48ea-8404-44e5ba3708f5"},"vehicle_type_id":"4","last_reported":1727737762,"current_range_meters":38000,"station_id":"ce4bh292rcd13ifvqdg0","pricing_plan_id":"cebpf4jnsgd1na2vs0mg"},{"bike_id":"8348ce12-ff0e-49a0-833d-0e92ac879452","system_id":"levelo_inurba_marseille","lat":43.308,"lon":5.43519,"is_reserved":false,"is_disabled":false,"rental_uris":{"android":"levelo://app?vid=8348ce12-ff0e-49a0-833d-0e92ac879452","ios":"levelo://app?vid=8348ce12-ff0e-49a0-833d-0e92ac879452"},"vehicle_type_id":"4","last_reported":1727737762,"current_range_meters":38800,"station_id":"ce4bhph2rcd13ifvqheg","pricing_plan_id":"cebpf4jnsgd1na2vs0mg"},{"bike_id":"0c5c1d49-6bc4-4aef-b7dc-fe96a79fb417","system_id":"levelo_inurba_marseille","lat":43.28462,"lon":5.35901,"is_reserved":false,"is_disabled":false,"rental_uris":{"android":"levelo://app?vid=0c5c1d49-6bc4-4aef-b7dc-fe96a79fb417","ios":"levelo://app?vid=0c5c1d49-6bc4-4aef-b7dc-fe96a79fb417"},"vehicle_type_id":"4","last_reported":1727737762,"current_range_meters":3200,"station_id":"ce4bhah2rcd13ifvqei0","pricing_plan_id":"cebpf4jnsgd1na2vs0mg"},{"bike_id":"acd2a23b-7b3a-4c57-bcfe-c6aaba52a3ea","system_id":"levelo_inurba_marseille","lat":43.32334,"lon":5.40625,"is_reserved":false,"is_disabled":false,"rental_uris":{"android":"levelo://app?vid=acd2a23b-7b3a-4c57-bcfe-c6aaba52a3ea","ios":"levelo://app?vid=acd2a23b-7b3a-4c57-bcfe-c6aaba52a3ea"},"vehicle_type_id":"4","last_reported":1727737762,"current_range_meters":26800,"station_id":"ce4bhq92rcd13ifvqhjg","pricing_plan_id":"cebpf4jnsgd1na2vs0mg"},{"bike_id":"535dd871-313b-415d-829d-d86d2b45d946","system_id":"levelo_inurba_marseille","lat":43.31072,"lon":5.38352,"is_reserved":false,"is_disabled":false,"rental_uris":{"android":"levelo://app?vid=535dd871-313b-415d-829d-d86d2b45d946","ios":"levelo://app?vid=535dd871-313b-415d-829d-d86d2b45d946"},"vehicle_type_id":"4","last_reported":1727737762,"current_range_meters":8400,"station_id":"ce4bgv92rcd13ifvqcr0","pricing_plan_id":"cebpf4jnsgd1na2vs0mg"},{"bike_id":"10d2f8c5-4f68-45c8-92e8-fe9584570ce7","system_id":"levelo_inurba_marseille","lat":43.31379,"lon":5.38502,"is_reserved":false,"is_disabled":false,"rental_uris":{"android":"levelo://app?vid=10d2f8c5-4f68-45c8-92e8-fe9584570ce7","ios":"levelo://app?vid=10d2f8c5-4f68-45c8-92e8-fe9584570ce7"},"vehicle_type_id":"4","last_reported":1727737762,"current_range_meters":38800,"station_id":"ce4bgt92rcd13ifvqcf0","pricing_plan_id":"cebpf4jnsgd1na2vs0mg"},{"bike_id":"d6ffa2c3-066f-4c7d-a8e6-c609e6b3e9bb","system_id":"levelo_inurba_marseille","lat":43.28451,"lon":5.35886,"is_reserved":false,"is_disabled":false,"rental_uris":{"android":"levelo://app?vid=d6ffa2c3-066f-4c7d-a8e6-c609e6b3e9bb","ios":"levelo://app?vid=d6ffa2c3-066f-4c7d-a8e6-c609e6b3e9bb"},"vehicle_type_id":"4","last_reported":1727737762,"current_range_meters":38800,"station_id":"ce4bhah2rcd13ifvqei0","pricing_plan_id":"cebpf4jnsgd1na2vs0mg"},{"bike_id":"44cfccc0-cd29-42bb-8eaf-c1aaa12f0f30","system_id":"levelo_inurba_marseille","lat":43.31336,"lon":5.39699,"is_reserved":false,"is_disabled":false,"rental_uris":{"android":"levelo://app?vid=44cfccc0-cd29-42bb-8eaf-c1aaa12f0f30","ios":"levelo://app?vid=44cfccc0-cd29-42bb-8eaf-c1aaa12f0f30"},"vehicle_type_id":"4","last_reported":1727737762,"current_range_meters":26800,"station_id":"ce4bgvp2rcd13ifvqcu0","pricing_plan_id":"cebpf4jnsgd1na2vs0mg"},{"bike_id":"c89309bb-86e2-4db1-88cc-1861e4c8c527","system_id":"levelo_inurba_marseille","lat":43.23189,"lon":5.39983,"is_reserved":false,"is_disabled":false,"rental_uris":{"android":"levelo://app?vid=c89309bb-86e2-4db1-88cc-1861e4c8c527","ios":"levelo://app?vid=c89309bb-86e2-4db1-88cc-1861e4c8c527"},"vehicle_type_id":"4","last_reported":1727737762,"current_range_meters":38800,"station_id":"ce4bhn12rcd13ifvqgqg","pricing_plan_id":"cebpf4jnsgd1na2vs0mg"},{"bike_id":"ee4b0160-15c4-4141-9c7a-16e047c14938","system_id":"levelo_inurba_marseille","lat":43.31397,"lon":5.38222,"is_reserved":false,"is_disabled":false,"rental_uris":{"android":"levelo://app?vid=ee4b0160-15c4-4141-9c7a-16e047c14938","ios":"levelo://app?vid=ee4b0160-15c4-4141-9c7a-16e047c14938"},"vehicle_type_id":"4","last_reported":1727737762,"current_range_meters":17200,"station_id":"","pricing_plan_id":"cebpf4jnsgd1na2vs0mg"},{"bike_id":"c061777b-0ac7-456e-8711-65ddc7e8cc17","system_id":"levelo_inurba_marseille","lat":43.24808,"lon":5.37452,"is_reserved":false,"is_disabled":false,"rental_uris":{"android":"levelo://app?vid=c061777b-0ac7-456e-8711-65ddc7e8cc17","ios":"levelo://app?vid=c061777b-0ac7-456e-8711-65ddc7e8cc17"},"vehicle_type_id":"4","last_reported":1727737762,"current_range_meters":39200,"station_id":"ce4bhgh2rcd13ifvqfb0","pricing_plan_id":"cebpf4jnsgd1na2vs0mg"},{"bike_id":"d995d233-d2fe-4db9-b69b-baa1337469bf","system_id":"levelo_inurba_marseille","lat":43.267174,"lon":5.401364,"is_reserved":false,"is_disabled":false,"rental_uris":{"android":"levelo://app?vid=d995d233-d2fe-4db9-b69b-baa1337469bf","ios":"levelo://app?vid=d995d233-d2fe-4db9-b69b-baa1337469bf"},"vehicle_type_id":"4","last_reported":1727737762,"current_range_meters":16400,"station_id":"ce4bhm92rcd13ifvqglg","pricing_plan_id":"cebpf4jnsgd1na2vs0mg"},{"bike_id":"dd7787d1-957c-4990-9c8a-fe91ad017aef","system_id":"levelo_inurba_marseille","lat":43.2696,"lon":5.38637,"is_reserved":false,"is_disabled":false,"rental_uris":{"android":"levelo://app?vid=dd7787d1-957c-4990-9c8a-fe91ad017aef","ios":"levelo://app?vid=dd7787d1-957c-4990-9c8a-fe91ad017aef"},"vehicle_type_id":"4","last_reported":1727737762,"current_range_meters":38000,"station_id":"ce4bhh92rcd13ifvqfh0","pricing_plan_id":"cebpf4jnsgd1na2vs0mg"},{"bike_id":"cecfd5d5-1681-43a8-ad9b-52dfd6a88e80","system_id":"levelo_inurba_marseille","lat":43.28346,"lon":5.38111,"is_reserved":false,"is_disabled":false,"rental_uris":{"android":"levelo://app?vid=cecfd5d5-1681-43a8-ad9b-52dfd6a88e80","ios":"levelo://app?vid=cecfd5d5-1681-43a8-ad9b-52dfd6a88e80"},"vehicle_type_id":"4","last_reported":1727737762,"current_range_meters":30800,"station_id":"ce4bh412rcd13ifvqdr0","pricing_plan_id":"cebpf4jnsgd1na2vs0mg"},{"bike_id":"7efd4502-9028-4534-8a5a-b236283648c9","system_id":"levelo_inurba_marseille","lat":43.31765,"lon":5.39005,"is_reserved":false,"is_disabled":false,"rental_uris":{"android":"levelo://app?vid=7efd4502-9028-4534-8a5a-b236283648c9","ios":"levelo://app?vid=7efd4502-9028-4534-8a5a-b236283648c9"},"vehicle_type_id":"4","last_reported":1727737762,"current_range_meters":39200,"station_id":"ce4bhqp2rcd13ifvqhng","pricing_plan_id":"cebpf4jnsgd1na2vs0mg"},{"bike_id":"a1027a8a-6add-4e47-ab64-7ddfc5e202e1","system_id":"levelo_inurba_marseille","lat":43.2607,"lon":5.39398,"is_reserved":false,"is_disabled":false,"rental_uris":{"android":"levelo://app?vid=a1027a8a-6add-4e47-ab64-7ddfc5e202e1","ios":"levelo://app?vid=a1027a8a-6add-4e47-ab64-7ddfc5e202e1"},"vehicle_type_id":"4","last_reported":1727737762,"current_range_meters":38800,"station_id":"ce4bhh92rcd13ifvqfj0","pricing_plan_id":"cebpf4jnsgd1na2vs0mg"},{"bike_id":"8a48edaf-4228-4b40-b0eb-bafdcc58b952","system_id":"levelo_inurba_marseille","lat":43.30936,"lon":5.40158,"is_reserved":false,"is_disabled":false,"rental_uris":{"android":"levelo://app?vid=8a48edaf-4228-4b40-b0eb-bafdcc58b952","ios":"levelo://app?vid=8a48edaf-4228-4b40-b0eb-bafdcc58b952"},"vehicle_type_id":"4","last_reported":1727737762,"current_range_meters":35200,"station_id":"ce4bgvp2rcd13ifvqct0","pricing_plan_id":"cebpf4jnsgd1na2vs0mg"},{"bike_id":"b652f429-09b8-4697-9c1b-3b9adc3c55d8","system_id":"levelo_inurba_marseille","lat":43.26871,"lon":5.39135,"is_reserved":false,"is_disabled":false,"rental_uris":{"android":"levelo://app?vid=b652f429-09b8-4697-9c1b-3b9adc3c55d8","ios":"levelo://app?vid=b652f429-09b8-4697-9c1b-3b9adc3c55d8"},"vehicle_type_id":"4","last_reported":1727737762,"current_range_meters":9600,"station_id":"","pricing_plan_id":"cebpf4jnsgd1na2vs0mg"},{"bike_id":"f13a9d32-ac22-4629-8783-b2b7d51902b2","system_id":"levelo_inurba_marseille","lat":43.29291,"lon":5.40131,"is_reserved":false,"is_disabled":false,"rental_uris":{"android":"levelo://app?vid=f13a9d32-ac22-4629-8783-b2b7d51902b2","ios":"levelo://app?vid=f13a9d32-ac22-4629-8783-b2b7d51902b2"},"vehicle_type_id":"4","last_reported":1727737762,"current_range_meters":30400,"station_id":"ce4bh312rcd13ifvqdk0","pricing_plan_id":"cebpf4jnsgd1na2vs0mg"},{"bike_id":"9dc55e30-a5d4-4347-a775-05ecc3523693","system_id":"levelo_inurba_marseille","lat":43.29041,"lon":5.39961,"is_reserved":false,"is_disabled":false,"rental_uris":{"android":"levelo://app?vid=9dc55e30-a5d4-4347-a775-05ecc3523693","ios":"levelo://app?vid=9dc55e30-a5d4-4347-a775-05ecc3523693"},"vehicle_type_id":"4","last_reported":1727737762,"current_range_meters":38000,"station_id":"ce4bh392rcd13ifvqdm0","pricing_plan_id":"cebpf4jnsgd1na2vs0mg"},{"bike_id":"4ce16e06-b46e-4c1c-95a1-84a90a8e7281","system_id":"levelo_inurba_marseille","lat":43.27079,"lon":5.42285,"is_reserved":false,"is_disabled":false,"rental_uris":{"android":"levelo://app?vid=4ce16e06-b46e-4c1c-95a1-84a90a8e7281","ios":"levelo://app?vid=4ce16e06-b46e-4c1c-95a1-84a90a8e7281"},"vehicle_type_id":"4","last_reported":1727737762,"current_range_meters":35600,"station_id":"ce4bhk92rcd13ifvqgb0","pricing_plan_id":"cebpf4jnsgd1na2vs0mg"},{"bike_id":"11177cfa-2f4f-4a0e-b4d1-daf8a3d9ea88","system_id":"levelo_inurba_marseille","lat":43.31079,"lon":5.3836,"is_reserved":false,"is_disabled":false,"rental_uris":{"android":"levelo://app?vid=11177cfa-2f4f-4a0e-b4d1-daf8a3d9ea88","ios":"levelo://app?vid=11177cfa-2f4f-4a0e-b4d1-daf8a3d9ea88"},"vehicle_type_id":"4","last_reported":1727737762,"current_range_meters":38400,"station_id":"ce4bgv92rcd13ifvqcr0","pricing_plan_id":"cebpf4jnsgd1na2vs0mg"},{"bike_id":"ed25d164-ab48-4db9-804f-8cc31882d100","system_id":"levelo_inurba_marseille","lat":43.3149,"lon":5.37304,"is_reserved":false,"is_disabled":false,"rental_uris":{"android":"levelo://app?vid=ed25d164-ab48-4db9-804f-8cc31882d100","ios":"levelo://app?vid=ed25d164-ab48-4db9-804f-8cc31882d100"},"vehicle_type_id":"4","last_reported":1727737762,"current_range_meters":25200,"station_id":"ce4bgt12rcd13ifvqcd0","pricing_plan_id":"cebpf4jnsgd1na2vs0mg"},{"bike_id":"15c7350b-454f-4ffa-978b-348e8c8be9a5","system_id":"levelo_inurba_marseille","lat":43.23974,"lon":5.36621,"is_reserved":false,"is_disabled":false,"rental_uris":{"android":"levelo://app?vid=15c7350b-454f-4ffa-978b-348e8c8be9a5","ios":"levelo://app?vid=15c7350b-454f-4ffa-978b-348e8c8be9a5"},"vehicle_type_id":"4","last_reported":1727737762,"current_range_meters":38800,"station_id":"ce4bhi12rcd13ifvqfp0","pricing_plan_id":"cebpf4jnsgd1na2vs0mg"},{"bike_id":"c64b4215-54dc-4f69-92e1-5cf1019d6fff","system_id":"levelo_inurba_marseille","lat":43.3176,"lon":5.39016,"is_reserved":false,"is_disabled":false,"rental_uris":{"android":"levelo://app?vid=c64b4215-54dc-4f69-92e1-5cf1019d6fff","ios":"levelo://app?vid=c64b4215-54dc-4f69-92e1-5cf1019d6fff"},"vehicle_type_id":"4","last_reported":1727737762,"current_range_meters":38400,"station_id":"ce4bhqp2rcd13ifvqhng","pricing_plan_id":"cebpf4jnsgd1na2vs0mg"},{"bike_id":"e4be49b0-8a10-41c6-89ae-fc8d90e19ba5","system_id":"levelo_inurba_marseille","lat":43.33727,"lon":5.39187,"is_reserved":false,"is_disabled":false,"rental_uris":{"android":"levelo://app?vid=e4be49b0-8a10-41c6-89ae-fc8d90e19ba5","ios":"levelo://app?vid=e4be49b0-8a10-41c6-89ae-fc8d90e19ba5"},"vehicle_type_id":"4","last_reported":1727737762,"current_range_meters":37600,"station_id":"ce4bhr92rcd13ifvqhsg","pricing_plan_id":"cebpf4jnsgd1na2vs0mg"},{"bike_id":"1e9e9232-fb31-4735-b9ba-3e1dcfa10a86","system_id":"levelo_inurba_marseille","lat":43.28713,"lon":5.39993,"is_reserved":false,"is_disabled":false,"rental_uris":{"android":"levelo://app?vid=1e9e9232-fb31-4735-b9ba-3e1dcfa10a86","ios":"levelo://app?vid=1e9e9232-fb31-4735-b9ba-3e1dcfa10a86"},"vehicle_type_id":"4","last_reported":1727737762,"current_range_meters":27200,"station_id":"ce4bho92rcd13ifvqh3g","pricing_plan_id":"cebpf4jnsgd1na2vs0mg"},{"bike_id":"6bf82de6-77b5-4c19-b80b-a09bece61c89","system_id":"levelo_inurba_marseille","lat":43.27907,"lon":5.3801,"is_reserved":false,"is_disabled":false,"rental_uris":{"android":"levelo://app?vid=6bf82de6-77b5-4c19-b80b-a09bece61c89","ios":"levelo://app?vid=6bf82de6-77b5-4c19-b80b-a09bece61c89"},"vehicle_type_id":"4","last_reported":1727737762,"current_range_meters":16000,"station_id":"ce4bhf92rcd13ifvqf50","pricing_plan_id":"cebpf4jnsgd1na2vs0mg"},{"bike_id":"9535a422-21bd-4d3b-82ec-0ddd79cceaee","system_id":"levelo_inurba_marseille","lat":43.24479,"lon":5.37256,"is_reserved":false,"is_disabled":false,"rental_uris":{"android":"levelo://app?vid=9535a422-21bd-4d3b-82ec-0ddd79cceaee","ios":"levelo://app?vid=9535a422-21bd-4d3b-82ec-0ddd79cceaee"},"vehicle_type_id":"4","last_reported":1727737762,"current_range_meters":12000,"station_id":"","pricing_plan_id":"cebpf4jnsgd1na2vs0mg"},{"bike_id":"3d0fedc9-7688-408e-b497-e4629a55bdac","system_id":"levelo_inurba_marseille","lat":43.30901,"lon":5.36943,"is_reserved":false,"is_disabled":false,"rental_uris":{"android":"levelo://app?vid=3d0fedc9-7688-408e-b497-e4629a55bdac","ios":"levelo://app?vid=3d0fedc9-7688-408e-b497-e4629a55bdac"},"vehicle_type_id":"4","last_reported":1727737762,"current_range_meters":18800,"station_id":"","pricing_plan_id":"cebpf4jnsgd1na2vs0mg"},{"bike_id":"cf2728b2-144a-40c9-8d35-5d2bffaca613","system_id":"levelo_inurba_marseille","lat":43.22945,"lon":5.35383,"is_reserved":false,"is_disabled":false,"rental_uris":{"android":"levelo://app?vid=cf2728b2-144a-40c9-8d35-5d2bffaca613","ios":"levelo://app?vid=cf2728b2-144a-40c9-8d35-5d2bffaca613"},"vehicle_type_id":"4","last_reported":1727737762,"current_range_meters":36800,"station_id":"cpo3532slgdg3j2ikp40","pricing_plan_id":"cebpf4jnsgd1na2vs0mg"},{"bike_id":"fd016b7e-f1d5-4a8e-bddb-6ebb54293737","system_id":"levelo_inurba_marseille","lat":43.29201,"lon":5.39313,"is_reserved":false,"is_disabled":false,"rental_uris":{"android":"levelo://app?vid=fd016b7e-f1d5-4a8e-bddb-6ebb54293737","ios":"levelo://app?vid=fd016b7e-f1d5-4a8e-bddb-6ebb54293737"},"vehicle_type_id":"4","last_reported":1727737762,"current_range_meters":38800,"station_id":"ce4bh192rcd13ifvqdd0","pricing_plan_id":"cebpf4jnsgd1na2vs0mg"},{"bike_id":"31147f8f-0511-41e4-a8e7-e2fd128489a6","system_id":"levelo_inurba_marseille","lat":43.30895,"lon":5.39648,"is_reserved":false,"is_disabled":false,"rental_uris":{"android":"levelo://app?vid=31147f8f-0511-41e4-a8e7-e2fd128489a6","ios":"levelo://app?vid=31147f8f-0511-41e4-a8e7-e2fd128489a6"},"vehicle_type_id":"4","last_reported":1727737762,"current_range_meters":38800,"station_id":"ce4bh012rcd13ifvqcv0","pricing_plan_id":"cebpf4jnsgd1na2vs0mg"},{"bike_id":"8ab7ac50-3211-4192-918e-0e6dc4d26a2c","system_id":"levelo_inurba_marseille","lat":43.29551,"lon":5.42272,"is_reserved":false,"is_disabled":false,"rental_uris":{"android":"levelo://app?vid=8ab7ac50-3211-4192-918e-0e6dc4d26a2c","ios":"levelo://app?vid=8ab7ac50-3211-4192-918e-0e6dc4d26a2c"},"vehicle_type_id":"4","last_reported":1727737762,"current_range_meters":38800,"station_id":"ce4bhph2rcd13ifvqhdg","pricing_plan_id":"cebpf4jnsgd1na2vs0mg"},{"bike_id":"501061ae-0e07-408f-ba4d-5e9df87b6299","system_id":"levelo_inurba_marseille","lat":43.27074,"lon":5.42269,"is_reserved":false,"is_disabled":false,"rental_uris":{"android":"levelo://app?vid=501061ae-0e07-408f-ba4d-5e9df87b6299","ios":"levelo://app?vid=501061ae-0e07-408f-ba4d-5e9df87b6299"},"vehicle_type_id":"4","last_reported":1727737762,"current_range_meters":24800,"station_id":"ce4bhk92rcd13ifvqgb0","pricing_plan_id":"cebpf4jnsgd1na2vs0mg"},{"bike_id":"beccbcaa-028a-45ce-9110-5727c2f5a1d9","system_id":"levelo_inurba_marseille","lat":43.33024,"lon":5.39035,"is_reserved":false,"is_disabled":false,"rental_uris":{"android":"levelo://app?vid=beccbcaa-028a-45ce-9110-5727c2f5a1d9","ios":"levelo://app?vid=beccbcaa-028a-45ce-9110-5727c2f5a1d9"},"vehicle_type_id":"4","last_reported":1727737762,"current_range_meters":37600,"station_id":"ce4bhr92rcd13ifvqhrg","pricing_plan_id":"cebpf4jnsgd1na2vs0mg"},{"bike_id":"ce865a1a-6d84-4642-b6a8-718ff5f00af0","system_id":"levelo_inurba_marseille","lat":43.28465,"lon":5.35887,"is_reserved":false,"is_disabled":false,"rental_uris":{"android":"levelo://app?vid=ce865a1a-6d84-4642-b6a8-718ff5f00af0","ios":"levelo://app?vid=ce865a1a-6d84-4642-b6a8-718ff5f00af0"},"vehicle_type_id":"4","last_reported":1727737762,"current_range_meters":38800,"station_id":"ce4bhah2rcd13ifvqei0","pricing_plan_id":"cebpf4jnsgd1na2vs0mg"},{"bike_id":"2869ef24-a9c2-4743-ad6a-16cca3db72b7","system_id":"levelo_inurba_marseille","lat":43.28453,"lon":5.3589,"is_reserved":false,"is_disabled":false,"rental_uris":{"android":"levelo://app?vid=2869ef24-a9c2-4743-ad6a-16cca3db72b7","ios":"levelo://app?vid=2869ef24-a9c2-4743-ad6a-16cca3db72b7"},"vehicle_type_id":"4","last_reported":1727737762,"current_range_meters":31200,"station_id":"ce4bhah2rcd13ifvqei0","pricing_plan_id":"cebpf4jnsgd1na2vs0mg"},{"bike_id":"ca982a33-bcc1-41d9-8388-8671af91acb9","system_id":"levelo_inurba_marseille","lat":43.24076,"lon":5.37764,"is_reserved":false,"is_disabled":false,"rental_uris":{"android":"levelo://app?vid=ca982a33-bcc1-41d9-8388-8671af91acb9","ios":"levelo://app?vid=ca982a33-bcc1-41d9-8388-8671af91acb9"},"vehicle_type_id":"4","last_reported":1727737762,"current_range_meters":38800,"station_id":"ce4bhnp2rcd13ifvqgvg","pricing_plan_id":"cebpf4jnsgd1na2vs0mg"},{"bike_id":"43dca3d2-40d8-4d74-a102-3751799955c2","system_id":"levelo_inurba_marseille","lat":43.30438,"lon":5.39753,"is_reserved":false,"is_disabled":false,"rental_uris":{"android":"levelo://app?vid=43dca3d2-40d8-4d74-a102-3751799955c2","ios":"levelo://app?vid=43dca3d2-40d8-4d74-a102-3751799955c2"},"vehicle_type_id":"4","last_reported":1727737762,"current_range_meters":40000,"station_id":"ce4bh092rcd13ifvqd20","pricing_plan_id":"cebpf4jnsgd1na2vs0mg"},{"bike_id":"7f35fd56-dbfb-4f54-8ce2-264a744c5cc5","system_id":"levelo_inurba_marseille","lat":43.292587,"lon":5.40906,"is_reserved":false,"is_disabled":false,"rental_uris":{"android":"levelo://app?vid=7f35fd56-dbfb-4f54-8ce2-264a744c5cc5","ios":"levelo://app?vid=7f35fd56-dbfb-4f54-8ce2-264a744c5cc5"},"vehicle_type_id":"4","last_reported":1727737762,"current_range_meters":14400,"station_id":"ce4bh192rcd13ifvqdc0","pricing_plan_id":"cebpf4jnsgd1na2vs0mg"},{"bike_id":"88bc6409-e51c-4b9c-88b5-3d3c5c3a5cf0","system_id":"levelo_inurba_marseille","lat":43.28467,"lon":5.35894,"is_reserved":false,"is_disabled":false,"rental_uris":{"android":"levelo://app?vid=88bc6409-e51c-4b9c-88b5-3d3c5c3a5cf0","ios":"levelo://app?vid=88bc6409-e51c-4b9c-88b5-3d3c5c3a5cf0"},"vehicle_type_id":"4","last_reported":1727737762,"current_range_meters":33600,"station_id":"ce4bhah2rcd13ifvqei0","pricing_plan_id":"cebpf4jnsgd1na2vs0mg"},{"bike_id":"c93fa33d-fafc-4158-bf8d-0714053cb97d","system_id":"levelo_inurba_marseille","lat":43.30607,"lon":5.39364,"is_reserved":false,"is_disabled":false,"rental_uris":{"android":"levelo://app?vid=c93fa33d-fafc-4158-bf8d-0714053cb97d","ios":"levelo://app?vid=c93fa33d-fafc-4158-bf8d-0714053cb97d"},"vehicle_type_id":"4","last_reported":1727737762,"current_range_meters":39200,"station_id":"ce4bh0p2rcd13ifvqd80","pricing_plan_id":"cebpf4jnsgd1na2vs0mg"},{"bike_id":"edc8fd59-f02b-4117-881e-c3f94441fed4","system_id":"levelo_inurba_marseille","lat":43.29795,"lon":5.39352,"is_reserved":false,"is_disabled":false,"rental_uris":{"android":"levelo://app?vid=edc8fd59-f02b-4117-881e-c3f94441fed4","ios":"levelo://app?vid=edc8fd59-f02b-4117-881e-c3f94441fed4"},"vehicle_type_id":"4","last_reported":1727737762,"current_range_meters":38400,"station_id":"chh1huq6cuj3fo74tm60","pricing_plan_id":"cebpf4jnsgd1na2vs0mg"},{"bike_id":"c2df8cca-733f-41c2-9a75-8eb5b646f167","system_id":"levelo_inurba_marseille","lat":43.25582,"lon":5.38243,"is_reserved":false,"is_disabled":false,"rental_uris":{"android":"levelo://app?vid=c2df8cca-733f-41c2-9a75-8eb5b646f167","ios":"levelo://app?vid=c2df8cca-733f-41c2-9a75-8eb5b646f167"},"vehicle_type_id":"4","last_reported":1727737762,"current_range_meters":39200,"station_id":"ce4bhih2rcd13ifvqfs0","pricing_plan_id":"cebpf4jnsgd1na2vs0mg"},{"bike_id":"5122379c-5b6a-4c2e-97c3-6ecb28531e6c","system_id":"levelo_inurba_marseille","lat":43.29637,"lon":5.40602,"is_reserved":false,"is_disabled":false,"rental_uris":{"android":"levelo://app?vid=5122379c-5b6a-4c2e-97c3-6ecb28531e6c","ios":"levelo://app?vid=5122379c-5b6a-4c2e-97c3-6ecb28531e6c"},"vehicle_type_id":"4","last_reported":1727737762,"current_range_meters":39200,"station_id":"ce4bh0h2rcd13ifvqd60","pricing_plan_id":"cebpf4jnsgd1na2vs0mg"},{"bike_id":"e7e6ae5b-16ab-4d76-8d0d-287277e45790","system_id":"levelo_inurba_marseille","lat":43.28708,"lon":5.3998,"is_reserved":false,"is_disabled":false,"rental_uris":{"android":"levelo://app?vid=e7e6ae5b-16ab-4d76-8d0d-287277e45790","ios":"levelo://app?vid=e7e6ae5b-16ab-4d76-8d0d-287277e45790"},"vehicle_type_id":"4","last_reported":1727737762,"current_range_meters":22000,"station_id":"ce4bho92rcd13ifvqh3g","pricing_plan_id":"cebpf4jnsgd1na2vs0mg"},{"bike_id":"b65e26fd-4436-42b6-869d-ffed6ad30e88","system_id":"levelo_inurba_marseille","lat":43.32364,"lon":5.38884,"is_reserved":false,"is_disabled":false,"rental_uris":{"android":"levelo://app?vid=b65e26fd-4436-42b6-869d-ffed6ad30e88","ios":"levelo://app?vid=b65e26fd-4436-42b6-869d-ffed6ad30e88"},"vehicle_type_id":"4","last_reported":1727737762,"current_range_meters":17600,"station_id":"ce4bhqp2rcd13ifvqhog","pricing_plan_id":"cebpf4jnsgd1na2vs0mg"},{"bike_id":"87ba9259-be9f-4eba-96ba-6440bb7ae36c","system_id":"levelo_inurba_marseille","lat":43.3043,"lon":5.38894,"is_reserved":false,"is_disabled":false,"rental_uris":{"android":"levelo://app?vid=87ba9259-be9f-4eba-96ba-6440bb7ae36c","ios":"levelo://app?vid=87ba9259-be9f-4eba-96ba-6440bb7ae36c"},"vehicle_type_id":"4","last_reported":1727737762,"current_range_meters":40000,"station_id":"ce4bgk12rcd13ifvqbi0","pricing_plan_id":"cebpf4jnsgd1na2vs0mg"},{"bike_id":"4c275dfe-6c2c-4a97-9a57-41adfd9a7f01","system_id":"levelo_inurba_marseille","lat":43.28291,"lon":5.3509,"is_reserved":false,"is_disabled":false,"rental_uris":{"android":"levelo://app?vid=4c275dfe-6c2c-4a97-9a57-41adfd9a7f01","ios":"levelo://app?vid=4c275dfe-6c2c-4a97-9a57-41adfd9a7f01"},"vehicle_type_id":"4","last_reported":1727737762,"current_range_meters":28400,"station_id":"ce4bhbp2rcd13ifvqerg","pricing_plan_id":"cebpf4jnsgd1na2vs0mg"},{"bike_id":"25d9cc49-9f76-4438-9226-b335e175cd93","system_id":"levelo_inurba_marseille","lat":43.29258,"lon":5.40909,"is_reserved":false,"is_disabled":false,"rental_uris":{"android":"levelo://app?vid=25d9cc49-9f76-4438-9226-b335e175cd93","ios":"levelo://app?vid=25d9cc49-9f76-4438-9226-b335e175cd93"},"vehicle_type_id":"4","last_reported":1727737762,"current_range_meters":36400,"station_id":"ce4bh192rcd13ifvqdc0","pricing_plan_id":"cebpf4jnsgd1na2vs0mg"},{"bike_id":"3aac640d-bda1-4a4d-848e-dbd6b047d11d","system_id":"levelo_inurba_marseille","lat":43.2827,"lon":5.35083,"is_reserved":false,"is_disabled":false,"rental_uris":{"android":"levelo://app?vid=3aac640d-bda1-4a4d-848e-dbd6b047d11d","ios":"levelo://app?vid=3aac640d-bda1-4a4d-848e-dbd6b047d11d"},"vehicle_type_id":"4","last_reported":1727737762,"current_range_meters":38800,"station_id":"ce4bhbp2rcd13ifvqerg","pricing_plan_id":"cebpf4jnsgd1na2vs0mg"},{"bike_id":"0d53950e-9f3f-42de-bc0d-2f7e6b2ff3ee","system_id":"levelo_inurba_marseille","lat":43.26203,"lon":5.37933,"is_reserved":false,"is_disabled":false,"rental_uris":{"android":"levelo://app?vid=0d53950e-9f3f-42de-bc0d-2f7e6b2ff3ee","ios":"levelo://app?vid=0d53950e-9f3f-42de-bc0d-2f7e6b2ff3ee"},"vehicle_type_id":"4","last_reported":1727737762,"current_range_meters":37600,"station_id":"ce4bhjp2rcd13ifvqg90","pricing_plan_id":"cebpf4jnsgd1na2vs0mg"},{"bike_id":"2f83ee8c-fed5-4ebd-9125-0f70befdf84e","system_id":"levelo_inurba_marseille","lat":43.31704,"lon":5.37756,"is_reserved":false,"is_disabled":false,"rental_uris":{"android":"levelo://app?vid=2f83ee8c-fed5-4ebd-9125-0f70befdf84e","ios":"levelo://app?vid=2f83ee8c-fed5-4ebd-9125-0f70befdf84e"},"vehicle_type_id":"4","last_reported":1727737762,"current_range_meters":38400,"station_id":"ce4bgth2rcd13ifvqch0","pricing_plan_id":"cebpf4jnsgd1na2vs0mg"},{"bike_id":"2dacaa4c-a8ce-4b9e-a0a5-5d5e889bbae0","system_id":"levelo_inurba_marseille","lat":43.2885,"lon":5.35844,"is_reserved":false,"is_disabled":false,"rental_uris":{"android":"levelo://app?vid=2dacaa4c-a8ce-4b9e-a0a5-5d5e889bbae0","ios":"levelo://app?vid=2dacaa4c-a8ce-4b9e-a0a5-5d5e889bbae0"},"vehicle_type_id":"4","last_reported":1727737762,"current_range_meters":8400,"station_id":"ce4bhb12rcd13ifvqem0","pricing_plan_id":"cebpf4jnsgd1na2vs0mg"},{"bike_id":"310586a2-3827-41b0-860f-34a70ac9e7f4","system_id":"levelo_inurba_marseille","lat":43.29901,"lon":5.43659,"is_reserved":false,"is_disabled":false,"rental_uris":{"android":"levelo://app?vid=310586a2-3827-41b0-860f-34a70ac9e7f4","ios":"levelo://app?vid=310586a2-3827-41b0-860f-34a70ac9e7f4"},"vehicle_type_id":"4","last_reported":1727737762,"current_range_meters":19600,"station_id":"ce4bhpp2rcd13ifvqhfg","pricing_plan_id":"cebpf4jnsgd1na2vs0mg"},{"bike_id":"991a9c03-46e2-4e92-84d2-04b83505d89e","system_id":"levelo_inurba_marseille","lat":43.2846,"lon":5.35897,"is_reserved":false,"is_disabled":false,"rental_uris":{"android":"levelo://app?vid=991a9c03-46e2-4e92-84d2-04b83505d89e","ios":"levelo://app?vid=991a9c03-46e2-4e92-84d2-04b83505d89e"},"vehicle_type_id":"4","last_reported":1727737762,"current_range_meters":16000,"station_id":"ce4bhah2rcd13ifvqei0","pricing_plan_id":"cebpf4jnsgd1na2vs0mg"},{"bike_id":"798ac519-7599-4d78-a191-dabc8f50dd2b","system_id":"levelo_inurba_marseille","lat":43.293701,"lon":5.387705,"is_reserved":false,"is_disabled":false,"rental_uris":{"android":"levelo://app?vid=798ac519-7599-4d78-a191-dabc8f50dd2b","ios":"levelo://app?vid=798ac519-7599-4d78-a191-dabc8f50dd2b"},"vehicle_type_id":"4","last_reported":1727737762,"current_range_meters":11200,"station_id":"ce4bhnh2rcd13ifvqgtg","pricing_plan_id":"cebpf4jnsgd1na2vs0mg"},{"bike_id":"18354a97-2a1f-47bd-b525-a3d682496f94","system_id":"levelo_inurba_marseille","lat":43.28006,"lon":5.40011,"is_reserved":false,"is_disabled":false,"rental_uris":{"android":"levelo://app?vid=18354a97-2a1f-47bd-b525-a3d682496f94","ios":"levelo://app?vid=18354a97-2a1f-47bd-b525-a3d682496f94"},"vehicle_type_id":"4","last_reported":1727737762,"current_range_meters":8400,"station_id":"ce4bho92rcd13ifvqh4g","pricing_plan_id":"cebpf4jnsgd1na2vs0mg"},{"bike_id":"378ba320-ac32-4abf-8e49-d3a4d70036ab","system_id":"levelo_inurba_marseille","lat":43.31762,"lon":5.39023,"is_reserved":false,"is_disabled":false,"rental_uris":{"android":"levelo://app?vid=378ba320-ac32-4abf-8e49-d3a4d70036ab","ios":"levelo://app?vid=378ba320-ac32-4abf-8e49-d3a4d70036ab"},"vehicle_type_id":"4","last_reported":1727737762,"current_range_meters":38800,"station_id":"ce4bhqp2rcd13ifvqhng","pricing_plan_id":"cebpf4jnsgd1na2vs0mg"},{"bike_id":"7f16d137-9a1b-4cc7-8bb0-ba1a6b63931b","system_id":"levelo_inurba_marseille","lat":43.31227,"lon":5.36844,"is_reserved":false,"is_disabled":false,"rental_uris":{"android":"levelo://app?vid=7f16d137-9a1b-4cc7-8bb0-ba1a6b63931b","ios":"levelo://app?vid=7f16d137-9a1b-4cc7-8bb0-ba1a6b63931b"},"vehicle_type_id":"4","last_reported":1727737762,"current_range_meters":38400,"station_id":"ce4bgl92rcd13ifvqbq0","pricing_plan_id":"cebpf4jnsgd1na2vs0mg"},{"bike_id":"aae2a0b3-0c8a-49b7-9d6b-19c479aa88ff","system_id":"levelo_inurba_marseille","lat":43.29916,"lon":5.37487,"is_reserved":false,"is_disabled":false,"rental_uris":{"android":"levelo://app?vid=aae2a0b3-0c8a-49b7-9d6b-19c479aa88ff","ios":"levelo://app?vid=aae2a0b3-0c8a-49b7-9d6b-19c479aa88ff"},"vehicle_type_id":"4","last_reported":1727737762,"current_range_meters":30000,"station_id":"ce4bgjh2rcd13ifvqbg0","pricing_plan_id":"cebpf4jnsgd1na2vs0mg"},{"bike_id":"7cb7e074-6876-4d77-9851-6c29bdc1f8c8","system_id":"levelo_inurba_marseille","lat":43.24557,"lon":5.39528,"is_reserved":false,"is_disabled":false,"rental_uris":{"android":"levelo://app?vid=7cb7e074-6876-4d77-9851-6c29bdc1f8c8","ios":"levelo://app?vid=7cb7e074-6876-4d77-9851-6c29bdc1f8c8"},"vehicle_type_id":"4","last_reported":1727737762,"current_range_meters":38800,"station_id":"ce4bhlp2rcd13ifvqgjg","pricing_plan_id":"cebpf4jnsgd1na2vs0mg"},{"bike_id":"c854d3e4-0fef-4652-b425-4cc634ac9fe5","system_id":"levelo_inurba_marseille","lat":43.31726,"lon":5.43709,"is_reserved":false,"is_disabled":false,"rental_uris":{"android":"levelo://app?vid=c854d3e4-0fef-4652-b425-4cc634ac9fe5","ios":"levelo://app?vid=c854d3e4-0fef-4652-b425-4cc634ac9fe5"},"vehicle_type_id":"4","last_reported":1727737762,"current_range_meters":6400,"station_id":"ce4bhp92rcd13ifvqhcg","pricing_plan_id":"cebpf4jnsgd1na2vs0mg"},{"bike_id":"689f1662-22e9-4367-8cfa-1364af11698f","system_id":"levelo_inurba_marseille","lat":43.26214,"lon":5.37926,"is_reserved":false,"is_disabled":false,"rental_uris":{"android":"levelo://app?vid=689f1662-22e9-4367-8cfa-1364af11698f","ios":"levelo://app?vid=689f1662-22e9-4367-8cfa-1364af11698f"},"vehicle_type_id":"4","last_reported":1727737762,"current_range_meters":38800,"station_id":"ce4bhjp2rcd13ifvqg90","pricing_plan_id":"cebpf4jnsgd1na2vs0mg"},{"bike_id":"a2ead7c0-9648-4d47-b3ce-5755c5c88bf2","system_id":"levelo_inurba_marseille","lat":43.29289,"lon":5.40129,"is_reserved":false,"is_disabled":false,"rental_uris":{"android":"levelo://app?vid=a2ead7c0-9648-4d47-b3ce-5755c5c88bf2","ios":"levelo://app?vid=a2ead7c0-9648-4d47-b3ce-5755c5c88bf2"},"vehicle_type_id":"4","last_reported":1727737762,"current_range_meters":30400,"station_id":"","pricing_plan_id":"cebpf4jnsgd1na2vs0mg"},{"bike_id":"c0d15641-dd0b-40ca-88d5-cec1b9183073","system_id":"levelo_inurba_marseille","lat":43.28465,"lon":5.359,"is_reserved":false,"is_disabled":false,"rental_uris":{"android":"levelo://app?vid=c0d15641-dd0b-40ca-88d5-cec1b9183073","ios":"levelo://app?vid=c0d15641-dd0b-40ca-88d5-cec1b9183073"},"vehicle_type_id":"4","last_reported":1727737762,"current_range_meters":7200,"station_id":"ce4bhah2rcd13ifvqei0","pricing_plan_id":"cebpf4jnsgd1na2vs0mg"},{"bike_id":"ef87f0bc-9f56-42d5-a876-3e3c771c451c","system_id":"levelo_inurba_marseille","lat":43.29281,"lon":5.40122,"is_reserved":false,"is_disabled":false,"rental_uris":{"android":"levelo://app?vid=ef87f0bc-9f56-42d5-a876-3e3c771c451c","ios":"levelo://app?vid=ef87f0bc-9f56-42d5-a876-3e3c771c451c"},"vehicle_type_id":"4","last_reported":1727737762,"current_range_meters":38800,"station_id":"ce4bh312rcd13ifvqdk0","pricing_plan_id":"cebpf4jnsgd1na2vs0mg"},{"bike_id":"04c87857-6b72-4df4-a0be-b91887432380","system_id":"levelo_inurba_marseille","lat":43.23971,"lon":5.3663,"is_reserved":false,"is_disabled":false,"rental_uris":{"android":"levelo://app?vid=04c87857-6b72-4df4-a0be-b91887432380","ios":"levelo://app?vid=04c87857-6b72-4df4-a0be-b91887432380"},"vehicle_type_id":"4","last_reported":1727737762,"current_range_meters":37600,"station_id":"ce4bhi12rcd13ifvqfp0","pricing_plan_id":"cebpf4jnsgd1na2vs0mg"},{"bike_id":"ee23ad79-1ec9-47e4-ad62-bd4b9f5a2779","system_id":"levelo_inurba_marseille","lat":43.29529,"lon":5.39398,"is_reserved":false,"is_disabled":false,"rental_uris":{"android":"levelo://app?vid=ee23ad79-1ec9-47e4-ad62-bd4b9f5a2779","ios":"levelo://app?vid=ee23ad79-1ec9-47e4-ad62-bd4b9f5a2779"},"vehicle_type_id":"4","last_reported":1727737762,"current_range_meters":39200,"station_id":"ce4bh292rcd13ifvqdf0","pricing_plan_id":"cebpf4jnsgd1na2vs0mg"},{"bike_id":"d424650e-61e7-4062-a728-e0f910c3ce2e","system_id":"levelo_inurba_marseille","lat":43.24661,"lon":5.38164,"is_reserved":false,"is_disabled":false,"rental_uris":{"android":"levelo://app?vid=d424650e-61e7-4062-a728-e0f910c3ce2e","ios":"levelo://app?vid=d424650e-61e7-4062-a728-e0f910c3ce2e"},"vehicle_type_id":"4","last_reported":1727737762,"current_range_meters":38800,"station_id":"ce4bhih2rcd13ifvqfr0","pricing_plan_id":"cebpf4jnsgd1na2vs0mg"},{"bike_id":"625b5f47-7e62-42f9-9d8b-f639d9667495","system_id":"levelo_inurba_marseille","lat":43.301178,"lon":5.364074,"is_reserved":false,"is_disabled":false,"rental_uris":{"android":"levelo://app?vid=625b5f47-7e62-42f9-9d8b-f639d9667495","ios":"levelo://app?vid=625b5f47-7e62-42f9-9d8b-f639d9667495"},"vehicle_type_id":"4","last_reported":1727737762,"current_range_meters":7200,"station_id":"","pricing_plan_id":"cebpf4jnsgd1na2vs0mg"},{"bike_id":"d354de6e-09c2-44ea-a629-0b4ea5bc66ff","system_id":"levelo_inurba_marseille","lat":43.28525,"lon":5.39132,"is_reserved":false,"is_disabled":false,"rental_uris":{"android":"levelo://app?vid=d354de6e-09c2-44ea-a629-0b4ea5bc66ff","ios":"levelo://app?vid=d354de6e-09c2-44ea-a629-0b4ea5bc66ff"},"vehicle_type_id":"4","last_reported":1727737762,"current_range_meters":20400,"station_id":"ce4bh3p2rcd13ifvqdp0","pricing_plan_id":"cebpf4jnsgd1na2vs0mg"},{"bike_id":"8d6df995-b414-4bde-a877-70f45be9bede","system_id":"levelo_inurba_marseille","lat":43.29719,"lon":5.36624,"is_reserved":false,"is_disabled":false,"rental_uris":{"android":"levelo://app?vid=8d6df995-b414-4bde-a877-70f45be9bede","ios":"levelo://app?vid=8d6df995-b414-4bde-a877-70f45be9bede"},"vehicle_type_id":"4","last_reported":1727737762,"current_range_meters":38800,"station_id":"ce4bgn12rcd13ifvqbt0","pricing_plan_id":"cebpf4jnsgd1na2vs0mg"},{"bike_id":"c85834c1-4a71-485f-a432-5961eb7995aa","system_id":"levelo_inurba_marseille","lat":43.30662,"lon":5.40078,"is_reserved":false,"is_disabled":false,"rental_uris":{"android":"levelo://app?vid=c85834c1-4a71-485f-a432-5961eb7995aa","ios":"levelo://app?vid=c85834c1-4a71-485f-a432-5961eb7995aa"},"vehicle_type_id":"4","last_reported":1727737762,"current_range_meters":38800,"station_id":"ce4bh112rcd13ifvqda0","pricing_plan_id":"cebpf4jnsgd1na2vs0mg"},{"bike_id":"bf31d161-a87a-4f7f-9f2e-88c28947a498","system_id":"levelo_inurba_marseille","lat":43.28718,"lon":5.37361,"is_reserved":false,"is_disabled":false,"rental_uris":{"android":"levelo://app?vid=bf31d161-a87a-4f7f-9f2e-88c28947a498","ios":"levelo://app?vid=bf31d161-a87a-4f7f-9f2e-88c28947a498"},"vehicle_type_id":"4","last_reported":1727737762,"current_range_meters":38400,"station_id":"ce4bh3p2rcd13ifvqdq0","pricing_plan_id":"cebpf4jnsgd1na2vs0mg"},{"bike_id":"b2586d7f-0035-4565-9d82-49b4efe88b28","system_id":"levelo_inurba_marseille","lat":43.27215,"lon":5.39169,"is_reserved":false,"is_disabled":false,"rental_uris":{"android":"levelo://app?vid=b2586d7f-0035-4565-9d82-49b4efe88b28","ios":"levelo://app?vid=b2586d7f-0035-4565-9d82-49b4efe88b28"},"vehicle_type_id":"4","last_reported":1727737762,"current_range_meters":13600,"station_id":"","pricing_plan_id":"cebpf4jnsgd1na2vs0mg"},{"bike_id":"d3329261-bcf8-4d34-a85a-51710066765c","system_id":"levelo_inurba_marseille","lat":43.3151,"lon":5.37313,"is_reserved":false,"is_disabled":false,"rental_uris":{"android":"levelo://app?vid=d3329261-bcf8-4d34-a85a-51710066765c","ios":"levelo://app?vid=d3329261-bcf8-4d34-a85a-51710066765c"},"vehicle_type_id":"4","last_reported":1727737762,"current_range_meters":31200,"station_id":"ce4bgt12rcd13ifvqcd0","pricing_plan_id":"cebpf4jnsgd1na2vs0mg"},{"bike_id":"ae7464ad-529a-4efd-b996-61c01b643231","system_id":"levelo_inurba_marseille","lat":43.25507,"lon":5.37653,"is_reserved":false,"is_disabled":false,"rental_uris":{"android":"levelo://app?vid=ae7464ad-529a-4efd-b996-61c01b643231","ios":"levelo://app?vid=ae7464ad-529a-4efd-b996-61c01b643231"},"vehicle_type_id":"4","last_reported":1727737762,"current_range_meters":38800,"station_id":"ce4bhh12rcd13ifvqff0","pricing_plan_id":"cebpf4jnsgd1na2vs0mg"},{"bike_id":"6c4a97ef-ed56-4d85-98d9-463a709b63f3","system_id":"levelo_inurba_marseille","lat":43.24192,"lon":5.40562,"is_reserved":false,"is_disabled":false,"rental_uris":{"android":"levelo://app?vid=6c4a97ef-ed56-4d85-98d9-463a709b63f3","ios":"levelo://app?vid=6c4a97ef-ed56-4d85-98d9-463a709b63f3"},"vehicle_type_id":"4","last_reported":1727737762,"current_range_meters":23200,"station_id":"","pricing_plan_id":"cebpf4jnsgd1na2vs0mg"},{"bike_id":"ab80b424-bfc5-4709-9b95-a2bee6a56f64","system_id":"levelo_inurba_marseille","lat":43.32292,"lon":5.38263,"is_reserved":false,"is_disabled":false,"rental_uris":{"android":"levelo://app?vid=ab80b424-bfc5-4709-9b95-a2bee6a56f64","ios":"levelo://app?vid=ab80b424-bfc5-4709-9b95-a2bee6a56f64"},"vehicle_type_id":"4","last_reported":1727737762,"current_range_meters":38800,"station_id":"ce4bhr12rcd13ifvqhqg","pricing_plan_id":"cebpf4jnsgd1na2vs0mg"},{"bike_id":"595fb5d2-fea8-4017-acfb-0ad3abcf605d","system_id":"levelo_inurba_marseille","lat":43.29208,"lon":5.39322,"is_reserved":false,"is_disabled":false,"rental_uris":{"android":"levelo://app?vid=595fb5d2-fea8-4017-acfb-0ad3abcf605d","ios":"levelo://app?vid=595fb5d2-fea8-4017-acfb-0ad3abcf605d"},"vehicle_type_id":"4","last_reported":1727737762,"current_range_meters":36400,"station_id":"ce4bh192rcd13ifvqdd0","pricing_plan_id":"cebpf4jnsgd1na2vs0mg"},{"bike_id":"e146b5d0-59bf-491d-8f1e-463e89e952b1","system_id":"levelo_inurba_marseille","lat":43.23189,"lon":5.39993,"is_reserved":false,"is_disabled":false,"rental_uris":{"android":"levelo://app?vid=e146b5d0-59bf-491d-8f1e-463e89e952b1","ios":"levelo://app?vid=e146b5d0-59bf-491d-8f1e-463e89e952b1"},"vehicle_type_id":"4","last_reported":1727737762,"current_range_meters":38800,"station_id":"ce4bhn12rcd13ifvqgqg","pricing_plan_id":"cebpf4jnsgd1na2vs0mg"},{"bike_id":"39b4fab6-0cc5-490f-b542-51791f19b118","system_id":"levelo_inurba_marseille","lat":43.30544,"lon":5.38426,"is_reserved":false,"is_disabled":false,"rental_uris":{"android":"levelo://app?vid=39b4fab6-0cc5-490f-b542-51791f19b118","ios":"levelo://app?vid=39b4fab6-0cc5-490f-b542-51791f19b118"},"vehicle_type_id":"4","last_reported":1727737762,"current_range_meters":38800,"station_id":"ce4bgg92rcd13ifvqb30","pricing_plan_id":"cebpf4jnsgd1na2vs0mg"},{"bike_id":"798c4278-1622-4c86-8893-fc54c9358653","system_id":"levelo_inurba_marseille","lat":43.25095,"lon":5.39513,"is_reserved":false,"is_disabled":false,"rental_uris":{"android":"levelo://app?vid=798c4278-1622-4c86-8893-fc54c9358653","ios":"levelo://app?vid=798c4278-1622-4c86-8893-fc54c9358653"},"vehicle_type_id":"4","last_reported":1727737762,"current_range_meters":32400,"station_id":"ce4bhm12rcd13ifvqgkg","pricing_plan_id":"cebpf4jnsgd1na2vs0mg"},{"bike_id":"a12211cf-5812-442b-975a-5b9ba044ba32","system_id":"levelo_inurba_marseille","lat":43.31269,"lon":5.40176,"is_reserved":false,"is_disabled":false,"rental_uris":{"android":"levelo://app?vid=a12211cf-5812-442b-975a-5b9ba044ba32","ios":"levelo://app?vid=a12211cf-5812-442b-975a-5b9ba044ba32"},"vehicle_type_id":"4","last_reported":1727737762,"current_range_meters":39200,"station_id":"ce4bh092rcd13ifvqd30","pricing_plan_id":"cebpf4jnsgd1na2vs0mg"},{"bike_id":"f493192b-13c6-47a1-9573-739dd32e633f","system_id":"levelo_inurba_marseille","lat":43.337444,"lon":5.374475,"is_reserved":false,"is_disabled":false,"rental_uris":{"android":"levelo://app?vid=f493192b-13c6-47a1-9573-739dd32e633f","ios":"levelo://app?vid=f493192b-13c6-47a1-9573-739dd32e633f"},"vehicle_type_id":"4","last_reported":1727737762,"current_range_meters":19600,"station_id":"","pricing_plan_id":"cebpf4jnsgd1na2vs0mg"},{"bike_id":"2f91abf2-1367-48a5-a243-2fc940a07d67","system_id":"levelo_inurba_marseille","lat":43.27374,"lon":5.3625,"is_reserved":false,"is_disabled":false,"rental_uris":{"android":"levelo://app?vid=2f91abf2-1367-48a5-a243-2fc940a07d67","ios":"levelo://app?vid=2f91abf2-1367-48a5-a243-2fc940a07d67"},"vehicle_type_id":"4","last_reported":1727737762,"current_range_meters":39200,"station_id":"ce4bhbh2rcd13ifvqeo0","pricing_plan_id":"cebpf4jnsgd1na2vs0mg"},{"bike_id":"27d64a42-abc6-4d9a-b978-66f234b01e3b","system_id":"levelo_inurba_marseille","lat":43.30544,"lon":5.38423,"is_reserved":false,"is_disabled":false,"rental_uris":{"android":"levelo://app?vid=27d64a42-abc6-4d9a-b978-66f234b01e3b","ios":"levelo://app?vid=27d64a42-abc6-4d9a-b978-66f234b01e3b"},"vehicle_type_id":"4","last_reported":1727737762,"current_range_meters":35600,"station_id":"ce4bgg92rcd13ifvqb30","pricing_plan_id":"cebpf4jnsgd1na2vs0mg"},{"bike_id":"815d75ab-59db-49f2-9d6c-a851d5f73245","system_id":"levelo_inurba_marseille","lat":43.32296,"lon":5.3828,"is_reserved":false,"is_disabled":false,"rental_uris":{"android":"levelo://app?vid=815d75ab-59db-49f2-9d6c-a851d5f73245","ios":"levelo://app?vid=815d75ab-59db-49f2-9d6c-a851d5f73245"},"vehicle_type_id":"4","last_reported":1727737762,"current_range_meters":34000,"station_id":"ce4bhr12rcd13ifvqhqg","pricing_plan_id":"cebpf4jnsgd1na2vs0mg"},{"bike_id":"ce6166ea-c4ad-4ecf-8cb6-35a2f13ea8fd","system_id":"levelo_inurba_marseille","lat":43.23967,"lon":5.36626,"is_reserved":false,"is_disabled":false,"rental_uris":{"android":"levelo://app?vid=ce6166ea-c4ad-4ecf-8cb6-35a2f13ea8fd","ios":"levelo://app?vid=ce6166ea-c4ad-4ecf-8cb6-35a2f13ea8fd"},"vehicle_type_id":"4","last_reported":1727737762,"current_range_meters":20400,"station_id":"ce4bhi12rcd13ifvqfp0","pricing_plan_id":"cebpf4jnsgd1na2vs0mg"},{"bike_id":"25e3a668-37a3-42b9-adc4-cba370d49ac9","system_id":"levelo_inurba_marseille","lat":43.3129,"lon":5.40164,"is_reserved":false,"is_disabled":false,"rental_uris":{"android":"levelo://app?vid=25e3a668-37a3-42b9-adc4-cba370d49ac9","ios":"levelo://app?vid=25e3a668-37a3-42b9-adc4-cba370d49ac9"},"vehicle_type_id":"4","last_reported":1727737762,"current_range_meters":17200,"station_id":"ce4bh092rcd13ifvqd30","pricing_plan_id":"cebpf4jnsgd1na2vs0mg"},{"bike_id":"b15fcd7b-5130-4db2-a871-9f6d81a6b882","system_id":"levelo_inurba_marseille","lat":43.289332,"lon":5.363979,"is_reserved":false,"is_disabled":false,"rental_uris":{"android":"levelo://app?vid=b15fcd7b-5130-4db2-a871-9f6d81a6b882","ios":"levelo://app?vid=b15fcd7b-5130-4db2-a871-9f6d81a6b882"},"vehicle_type_id":"4","last_reported":1727737762,"current_range_meters":20800,"station_id":"ce4bhc92rcd13ifvqetg","pricing_plan_id":"cebpf4jnsgd1na2vs0mg"},{"bike_id":"b5bfd41d-10ac-4067-b17f-2a9310a26edd","system_id":"levelo_inurba_marseille","lat":43.2846,"lon":5.35894,"is_reserved":false,"is_disabled":false,"rental_uris":{"android":"levelo://app?vid=b5bfd41d-10ac-4067-b17f-2a9310a26edd","ios":"levelo://app?vid=b5bfd41d-10ac-4067-b17f-2a9310a26edd"},"vehicle_type_id":"4","last_reported":1727737762,"current_range_meters":11600,"station_id":"ce4bhah2rcd13ifvqei0","pricing_plan_id":"cebpf4jnsgd1na2vs0mg"},{"bike_id":"f4f5bd9f-5e67-4c31-bf13-de0629c8fa98","system_id":"levelo_inurba_marseille","lat":43.30965,"lon":5.39054,"is_reserved":false,"is_disabled":false,"rental_uris":{"android":"levelo://app?vid=f4f5bd9f-5e67-4c31-bf13-de0629c8fa98","ios":"levelo://app?vid=f4f5bd9f-5e67-4c31-bf13-de0629c8fa98"},"vehicle_type_id":"4","last_reported":1727737762,"current_range_meters":28800,"station_id":"ce4bgup2rcd13ifvqco0","pricing_plan_id":"cebpf4jnsgd1na2vs0mg"},{"bike_id":"0fce1726-2144-421b-ac7d-6b318d37412b","system_id":"levelo_inurba_marseille","lat":43.28404,"lon":5.3752,"is_reserved":false,"is_disabled":false,"rental_uris":{"android":"levelo://app?vid=0fce1726-2144-421b-ac7d-6b318d37412b","ios":"levelo://app?vid=0fce1726-2144-421b-ac7d-6b318d37412b"},"vehicle_type_id":"4","last_reported":1727737762,"current_range_meters":33600,"station_id":"ce4bh412rcd13ifvqds0","pricing_plan_id":"cebpf4jnsgd1na2vs0mg"},{"bike_id":"341291e5-f916-49fb-a047-08d81c664b8d","system_id":"levelo_inurba_marseille","lat":43.28427,"lon":5.37513,"is_reserved":false,"is_disabled":false,"rental_uris":{"android":"levelo://app?vid=341291e5-f916-49fb-a047-08d81c664b8d","ios":"levelo://app?vid=341291e5-f916-49fb-a047-08d81c664b8d"},"vehicle_type_id":"4","last_reported":1727737762,"current_range_meters":6400,"station_id":"ce4bh412rcd13ifvqds0","pricing_plan_id":"cebpf4jnsgd1na2vs0mg"},{"bike_id":"74b807e0-c6f2-4284-a13d-25cb1f3715ff","system_id":"levelo_inurba_marseille","lat":43.31535,"lon":5.38016,"is_reserved":false,"is_disabled":false,"rental_uris":{"android":"levelo://app?vid=74b807e0-c6f2-4284-a13d-25cb1f3715ff","ios":"levelo://app?vid=74b807e0-c6f2-4284-a13d-25cb1f3715ff"},"vehicle_type_id":"4","last_reported":1727737762,"current_range_meters":32000,"station_id":"ce4bhsp2rcd13ifvqi50","pricing_plan_id":"cebpf4jnsgd1na2vs0mg"},{"bike_id":"8ca1e27b-ef3d-4e8f-a407-92e4a0c423b4","system_id":"levelo_inurba_marseille","lat":43.29552,"lon":5.42286,"is_reserved":false,"is_disabled":false,"rental_uris":{"android":"levelo://app?vid=8ca1e27b-ef3d-4e8f-a407-92e4a0c423b4","ios":"levelo://app?vid=8ca1e27b-ef3d-4e8f-a407-92e4a0c423b4"},"vehicle_type_id":"4","last_reported":1727737762,"current_range_meters":38800,"station_id":"ce4bhph2rcd13ifvqhdg","pricing_plan_id":"cebpf4jnsgd1na2vs0mg"},{"bike_id":"12fde011-8652-49b9-873e-72da5e76fc34","system_id":"levelo_inurba_marseille","lat":43.28422,"lon":5.37508,"is_reserved":false,"is_disabled":false,"rental_uris":{"android":"levelo://app?vid=12fde011-8652-49b9-873e-72da5e76fc34","ios":"levelo://app?vid=12fde011-8652-49b9-873e-72da5e76fc34"},"vehicle_type_id":"4","last_reported":1727737762,"current_range_meters":37600,"station_id":"ce4bh412rcd13ifvqds0","pricing_plan_id":"cebpf4jnsgd1na2vs0mg"},{"bike_id":"be5558bb-2b92-4d3d-8025-f3902abf3e19","system_id":"levelo_inurba_marseille","lat":43.30933,"lon":5.40132,"is_reserved":false,"is_disabled":false,"rental_uris":{"android":"levelo://app?vid=be5558bb-2b92-4d3d-8025-f3902abf3e19","ios":"levelo://app?vid=be5558bb-2b92-4d3d-8025-f3902abf3e19"},"vehicle_type_id":"4","last_reported":1727737762,"current_range_meters":14800,"station_id":"ce4bgvp2rcd13ifvqct0","pricing_plan_id":"cebpf4jnsgd1na2vs0mg"},{"bike_id":"a298c391-65d5-4fca-bc1f-31375ee54cd7","system_id":"levelo_inurba_marseille","lat":43.24551,"lon":5.39537,"is_reserved":false,"is_disabled":false,"rental_uris":{"android":"levelo://app?vid=a298c391-65d5-4fca-bc1f-31375ee54cd7","ios":"levelo://app?vid=a298c391-65d5-4fca-bc1f-31375ee54cd7"},"vehicle_type_id":"4","last_reported":1727737762,"current_range_meters":38800,"station_id":"ce4bhlp2rcd13ifvqgjg","pricing_plan_id":"cebpf4jnsgd1na2vs0mg"},{"bike_id":"eef0ff24-2e3f-471a-8736-b680248f123f","system_id":"levelo_inurba_marseille","lat":43.31711,"lon":5.37737,"is_reserved":false,"is_disabled":false,"rental_uris":{"android":"levelo://app?vid=eef0ff24-2e3f-471a-8736-b680248f123f","ios":"levelo://app?vid=eef0ff24-2e3f-471a-8736-b680248f123f"},"vehicle_type_id":"4","last_reported":1727737762,"current_range_meters":37600,"station_id":"ce4bgth2rcd13ifvqch0","pricing_plan_id":"cebpf4jnsgd1na2vs0mg"},{"bike_id":"122b629b-a216-489f-90ff-d6e3354a8c19","system_id":"levelo_inurba_marseille","lat":43.28706,"lon":5.37393,"is_reserved":false,"is_disabled":false,"rental_uris":{"android":"levelo://app?vid=122b629b-a216-489f-90ff-d6e3354a8c19","ios":"levelo://app?vid=122b629b-a216-489f-90ff-d6e3354a8c19"},"vehicle_type_id":"4","last_reported":1727737762,"current_range_meters":26000,"station_id":"ce4bh3p2rcd13ifvqdq0","pricing_plan_id":"cebpf4jnsgd1na2vs0mg"},{"bike_id":"b67c03ca-859f-47b9-972d-3df0596b733e","system_id":"levelo_inurba_marseille","lat":43.23201,"lon":5.35548,"is_reserved":false,"is_disabled":false,"rental_uris":{"android":"levelo://app?vid=b67c03ca-859f-47b9-972d-3df0596b733e","ios":"levelo://app?vid=b67c03ca-859f-47b9-972d-3df0596b733e"},"vehicle_type_id":"4","last_reported":1727737762,"current_range_meters":38800,"station_id":"ce4bhu92rcd13ifvqi70","pricing_plan_id":"cebpf4jnsgd1na2vs0mg"},{"bike_id":"30ca6f4c-ff60-4d26-a525-382381553e0d","system_id":"levelo_inurba_marseille","lat":43.27998,"lon":5.4001,"is_reserved":false,"is_disabled":false,"rental_uris":{"android":"levelo://app?vid=30ca6f4c-ff60-4d26-a525-382381553e0d","ios":"levelo://app?vid=30ca6f4c-ff60-4d26-a525-382381553e0d"},"vehicle_type_id":"4","last_reported":1727737762,"current_range_meters":38000,"station_id":"ce4bho92rcd13ifvqh4g","pricing_plan_id":"cebpf4jnsgd1na2vs0mg"},{"bike_id":"98e01353-bf46-438a-9437-17e5f8344ab8","system_id":"levelo_inurba_marseille","lat":43.26544,"lon":5.37295,"is_reserved":false,"is_disabled":false,"rental_uris":{"android":"levelo://app?vid=98e01353-bf46-438a-9437-17e5f8344ab8","ios":"levelo://app?vid=98e01353-bf46-438a-9437-17e5f8344ab8"},"vehicle_type_id":"4","last_reported":1727737762,"current_range_meters":4000,"station_id":"ce4bhg12rcd13ifvqf70","pricing_plan_id":"cebpf4jnsgd1na2vs0mg"},{"bike_id":"44f752b4-53ea-4571-8d1b-c77546739719","system_id":"levelo_inurba_marseille","lat":43.30788,"lon":5.37656,"is_reserved":false,"is_disabled":false,"rental_uris":{"android":"levelo://app?vid=44f752b4-53ea-4571-8d1b-c77546739719","ios":"levelo://app?vid=44f752b4-53ea-4571-8d1b-c77546739719"},"vehicle_type_id":"4","last_reported":1727737762,"current_range_meters":29600,"station_id":"ce4bgv92rcd13ifvqcq0","pricing_plan_id":"cebpf4jnsgd1na2vs0mg"},{"bike_id":"47a10d07-fc19-444a-8722-ec23b84d227f","system_id":"levelo_inurba_marseille","lat":43.279449,"lon":5.410471,"is_reserved":false,"is_disabled":false,"rental_uris":{"android":"levelo://app?vid=47a10d07-fc19-444a-8722-ec23b84d227f","ios":"levelo://app?vid=47a10d07-fc19-444a-8722-ec23b84d227f"},"vehicle_type_id":"4","last_reported":1727737762,"current_range_meters":34800,"station_id":"ce4bhnp2rcd13ifvqh0g","pricing_plan_id":"cebpf4jnsgd1na2vs0mg"},{"bike_id":"b874a983-a573-422c-b4ee-5aa8ec9bc283","system_id":"levelo_inurba_marseille","lat":43.30788,"lon":5.37643,"is_reserved":false,"is_disabled":false,"rental_uris":{"android":"levelo://app?vid=b874a983-a573-422c-b4ee-5aa8ec9bc283","ios":"levelo://app?vid=b874a983-a573-422c-b4ee-5aa8ec9bc283"},"vehicle_type_id":"4","last_reported":1727737762,"current_range_meters":36800,"station_id":"ce4bgv92rcd13ifvqcq0","pricing_plan_id":"cebpf4jnsgd1na2vs0mg"},{"bike_id":"6847ea94-801a-4977-8e71-95f9eb9578b8","system_id":"levelo_inurba_marseille","lat":43.310861,"lon":5.424274,"is_reserved":false,"is_disabled":false,"rental_uris":{"android":"levelo://app?vid=6847ea94-801a-4977-8e71-95f9eb9578b8","ios":"levelo://app?vid=6847ea94-801a-4977-8e71-95f9eb9578b8"},"vehicle_type_id":"4","last_reported":1727737762,"current_range_meters":38800,"station_id":"ce4bhp92rcd13ifvqhag","pricing_plan_id":"cebpf4jnsgd1na2vs0mg"},{"bike_id":"7fb719ff-c716-4e42-b314-fdb0b433df5b","system_id":"levelo_inurba_marseille","lat":43.28703,"lon":5.39985,"is_reserved":false,"is_disabled":false,"rental_uris":{"android":"levelo://app?vid=7fb719ff-c716-4e42-b314-fdb0b433df5b","ios":"levelo://app?vid=7fb719ff-c716-4e42-b314-fdb0b433df5b"},"vehicle_type_id":"4","last_reported":1727737762,"current_range_meters":6800,"station_id":"ce4bho92rcd13ifvqh3g","pricing_plan_id":"cebpf4jnsgd1na2vs0mg"},{"bike_id":"2671abe3-ebc3-4ff9-b93a-9bc1fa61c25a","system_id":"levelo_inurba_marseille","lat":43.30941,"lon":5.40134,"is_reserved":false,"is_disabled":false,"rental_uris":{"android":"levelo://app?vid=2671abe3-ebc3-4ff9-b93a-9bc1fa61c25a","ios":"levelo://app?vid=2671abe3-ebc3-4ff9-b93a-9bc1fa61c25a"},"vehicle_type_id":"4","last_reported":1727737762,"current_range_meters":24000,"station_id":"ce4bgvp2rcd13ifvqct0","pricing_plan_id":"cebpf4jnsgd1na2vs0mg"},{"bike_id":"9a3f086c-eeed-485e-a847-3f6aeb96728b","system_id":"levelo_inurba_marseille","lat":43.28462,"lon":5.3588,"is_reserved":false,"is_disabled":false,"rental_uris":{"android":"levelo://app?vid=9a3f086c-eeed-485e-a847-3f6aeb96728b","ios":"levelo://app?vid=9a3f086c-eeed-485e-a847-3f6aeb96728b"},"vehicle_type_id":"4","last_reported":1727737762,"current_range_meters":3600,"station_id":"ce4bhah2rcd13ifvqei0","pricing_plan_id":"cebpf4jnsgd1na2vs0mg"},{"bike_id":"64d9e30a-3c87-493a-839b-48a7888ef484","system_id":"levelo_inurba_marseille","lat":43.28076,"lon":5.39648,"is_reserved":false,"is_disabled":false,"rental_uris":{"android":"levelo://app?vid=64d9e30a-3c87-493a-839b-48a7888ef484","ios":"levelo://app?vid=64d9e30a-3c87-493a-839b-48a7888ef484"},"vehicle_type_id":"4","last_reported":1727737762,"current_range_meters":37600,"station_id":"ce4bho12rcd13ifvqh2g","pricing_plan_id":"cebpf4jnsgd1na2vs0mg"},