{"last_updated":1770852126,"ttl":60,"version":"2.2","data":{"bikes":[{"bike_id":"854df501-d52b-4d3a-bae5-4979639c29cf","system_id":"levelo_inurba_marseille","lat":43.30556,"lon":5.37279,"is_reserved":false,"is_disabled":true,"rental_uris":{"android":"levelo://app?vid=854df501-d52b-4d3a-bae5-4979639c29cf","ios":"levelo://app?vid=854df501-d52b-4d3a-bae5-4979639c29cf"},"vehicle_type_id":"4","last_reported":1770852126,"current_range_meters":2800,"station_id":"ce4bgqh2rcd13ifvqc4g","pricing_plan_id":"cebpf4jnsgd1na2vs0mg"},{"bike_id":"7e3ab4cc-f1d0-40c5-93c0-f0b43c67658b","system_id":"levelo_inurba_marseille","lat":43.25354,"lon":5.42166,"is_reserved":false,"is_disabled":false,"rental_uris":{"android":"levelo://app?vid=7e3ab4cc-f1d0-40c5-93c0-f0b43c67658b","ios":"levelo://app?vid=7e3ab4cc-f1d0-40c5-93c0-f0b43c67658b"},"vehicle_type_id":"4","last_reported":1770852126,"current_range_meters":2800,"station_id":"st_d2m65c5bi1j21697t3ng","pricing_plan_id":"cebpf4jnsgd1na2vs0mg"},{"bike_id":"44c6aa93-1f46-4cbd-a298-6cd74e811e92","system_id":"levelo_inurba_marseille","lat":43.2175,"lon":5.34602,"is_reserved":false,"is_disabled":false,"rental_uris":{"android":"levelo://app?vid=44c6aa93-1f46-4cbd-a298-6cd74e811e92","ios":"levelo://app?vid=44c6aa93-1f46-4cbd-a298-6cd74e811e92"},"vehicle_type_id":"4","last_reported":1770852126,"current_range_meters":2800,"station_id":"","pricing_plan_id":"cebpf4jnsgd1na2vs0mg"},{"bike_id":"7a764ea1-3db9-42d3-bcb4-96b88fa6fb42","system_id":"levelo_inurba_marseille","lat":43.28452,"lon":5.38774,"is_reserved":false,"is_disabled":false,"rental_uris":{"android":"levelo://app?vid=7a764ea1-3db9-42d3-bcb4-96b88fa6fb42","ios":"levelo://app?vid=7a764ea1-3db9-42d3-bcb4-96b88fa6fb42"},"vehicle_type_id":"4","last_reported":1770852126,"current_range_meters":2800,"station_id":"","pricing_plan_id":"cebpf4jnsgd1na2vs0mg"},{"bike_id":"a6943d09-3de1-473f-8504-0e6aa6ee9f3a","system_id":"levelo_inurba_marseille","lat":43.24472,"lon":5.42509,"is_reserved":false,"is_disabled":false,"rental_uris":{"android":"levelo://app?vid=a6943d09-3de1-473f-8504-0e6aa6ee9f3a","ios":"levelo://app?vid=a6943d09-3de1-473f-8504-0e6aa6ee9f3a"},"vehicle_type_id":"4","last_reported":1770852126,"current_range_meters":2800,"station_id":"st_d4a3vfp97mjs738cd8kg","pricing_plan_id":"cebpf4jnsgd1na2vs0mg"},{"bike_id":"5f7df976-2770-4b0d-bd16-1a5d3e4bd86a","system_id":"levelo_inurba_marseille","lat":43.26034,"lon":5.37534,"is_reserved":false,"is_disabled":false,"rental_uris":{"android":"levelo://app?vid=5f7df976-2770-4b0d-bd16-1a5d3e4bd86a","ios":"levelo://app?vid=5f7df976-2770-4b0d-bd16-1a5d3e4bd86a"},"vehicle_type_id":"4","last_reported":1770852126,"current_range_meters":2800,"station_id":"ce4bhgh2rcd13ifvqfa0","pricing_plan_id":"cebpf4jnsgd1na2vs0mg"},{"bike_id":"b1429378-b93e-4184-b373-85f0415c9919","system_id":"levelo_inurba_marseille","lat":43.2463,"lon":5.4314,"is_reserved":false,"is_disabled":false,"rental_uris":{"android":"levelo://app?vid=b1429378-b93e-4184-b373-85f0415c9919","ios":"levelo://app?vid=b1429378-b93e-4184-b373-85f0415c9919"},"vehicle_type_id":"4","last_reported":1770852126,"current_range_meters":2800,"station_id":"st_d2m6c4gdas8pm72e190g","pricing_plan_id":"cebpf4jnsgd1na2vs0mg"},{"bike_id":"7c6ed3de-0bb2-4065-8253-1bc56d52b23f","system_id":"levelo_inurba_marseille","lat":43.31166,"lon":5.38725,"is_reserved":false,"is_disabled":false,"rental_uris":{"android":"levelo://app?vid=7c6ed3de-0bb2-4065-8253-1bc56d52b23f","ios":"levelo://app?vid=7c6ed3de-0bb2-4065-8253-1bc56d52b23f"},"vehicle_type_id":"4","last_reported":1770852126,"current_range_meters":2800,"station_id":"ce4bgv12rcd13ifvqcp0","pricing_plan_id":"cebpf4jnsgd1na2vs0mg"},{"bike_id":"e1972e28-c5f7-4898-9f3a-cff0aa5fe0de","system_id":"levelo_inurba_marseille","lat":43.24171,"lon":5.39699,"is_reserved":false,"is_disabled":false,"rental_uris":{"android":"levelo://app?vid=e1972e28-c5f7-4898-9f3a-cff0aa5fe0de","ios":"levelo://app?vid=e1972e28-c5f7-4898-9f3a-cff0aa5fe0de"},"vehicle_type_id":"4","last_reported":1770852126,"current_range_meters":2800,"station_id":"ce4bhn12rcd13ifvqgpg","pricing_plan_id":"cebpf4jnsgd1na2vs0mg"},{"bike_id":"e2bab02f-134a-4a03-b820-db1146050e9c","system_id":"levelo_inurba_marseille","lat":43.2316,"lon":5.43716,"is_reserved":false,"is_disabled":false,"rental_uris":{"android":"levelo://app?vid=e2bab02f-134a-4a03-b820-db1146050e9c","ios":"levelo://app?vid=e2bab02f-134a-4a03-b820-db1146050e9c"},"vehicle_type_id":"4","last_reported":1770852126,"current_range_meters":2800,"station_id":"ce4bhmp2rcd13ifvqgog","pricing_plan_id":"cebpf4jnsgd1na2vs0mg"},{"bike_id":"32b27b47-6c8b-49c6-8b48-fbeace627871","system_id":"levelo_inurba_marseille","lat":43.312227,"lon":5.368967,"is_reserved":false,"is_disabled":false,"rental_uris":{"android":"levelo://app?vid=32b27b47-6c8b-49c6-8b48-fbeace627871","ios":"levelo://app?vid=32b27b47-6c8b-49c6-8b48-fbeace627871"},"vehicle_type_id":"4","last_reported":1770852126,"current_range_meters":3200,"station_id":"ce4bgl92rcd13ifvqbq0","pricing_plan_id":"cebpf4jnsgd1na2vs0mg"},{"bike_id":"fefa9d33-2b99-4c0b-9890-359dd9ed4dcf","system_id":"levelo_inurba_marseille","lat":43.30657,"lon":5.40079,"is_reserved":false,"is_disabled":false,"rental_uris":{"android":"levelo://app?vid=fefa9d33-2b99-4c0b-9890-359dd9ed4dcf","ios":"levelo://app?vid=fefa9d33-2b99-4c0b-9890-359dd9ed4dcf"},"vehicle_type_id":"4","last_reported":1770852126,"current_range_meters":3200,"station_id":"ce4bh112rcd13ifvqda0","pricing_plan_id":"cebpf4jnsgd1na2vs0mg"},{"bike_id":"890f56d4-596e-400c-b85e-06636da41b20","system_id":"levelo_inurba_marseille","lat":43.24998,"lon":5.38939,"is_reserved":false,"is_disabled":false,"rental_uris":{"android":"levelo://app?vid=890f56d4-596e-400c-b85e-06636da41b20","ios":"levelo://app?vid=890f56d4-596e-400c-b85e-06636da41b20"},"vehicle_type_id":"4","last_reported":1770852126,"current_range_meters":3200,"station_id":"ce4bhgp2rcd13ifvqfd0","pricing_plan_id":"cebpf4jnsgd1na2vs0mg"},{"bike_id":"5e35ff8d-6502-4575-8da4-888ae86322e5","system_id":"levelo_inurba_marseille","lat":43.28417,"lon":5.35004,"is_reserved":false,"is_disabled":false,"rental_uris":{"android":"levelo://app?vid=5e35ff8d-6502-4575-8da4-888ae86322e5","ios":"levelo://app?vid=5e35ff8d-6502-4575-8da4-888ae86322e5"},"vehicle_type_id":"4","last_reported":1770852126,"current_range_meters":3200,"station_id":"ce4bhbh2rcd13ifvqepg","pricing_plan_id":"cebpf4jnsgd1na2vs0mg"},{"bike_id":"54bd52e6-912c-41e4-90a6-85e5c05a7d3d","system_id":"levelo_inurba_marseille","lat":43.22579,"lon":5.4164,"is_reserved":false,"is_disabled":false,"rental_uris":{"android":"levelo://app?vid=54bd52e6-912c-41e4-90a6-85e5c05a7d3d","ios":"levelo://app?vid=54bd52e6-912c-41e4-90a6-85e5c05a7d3d"},"vehicle_type_id":"4","last_reported":1770852126,"current_range_meters":3200,"station_id":"st_d2o4gvlbi1j2169b742g","pricing_plan_id":"cebpf4jnsgd1na2vs0mg"},{"bike_id":"d01f5ba5-555f-4fd5-bda1-8012d30858b6","system_id":"levelo_inurba_marseille","lat":43.284876,"lon":5.483923,"is_reserved":false,"is_disabled":false,"rental_uris":{"android":"levelo://app?vid=d01f5ba5-555f-4fd5-bda1-8012d30858b6","ios":"levelo://app?vid=d01f5ba5-555f-4fd5-bda1-8012d30858b6"},"vehicle_type_id":"4","last_reported":1770852126,"current_range_meters":3200,"station_id":"st_d3svhcjqgbts73a3dn0g","pricing_plan_id":"cebpf4jnsgd1na2vs0mg"},{"bike_id":"3ffec92f-ff8a-4f6d-85da-32f5b1172400","system_id":"levelo_inurba_marseille","lat":43.28931,"lon":5.36648,"is_reserved":false,"is_disabled":false,"rental_uris":{"android":"levelo://app?vid=3ffec92f-ff8a-4f6d-85da-32f5b1172400","ios":"levelo://app?vid=3ffec92f-ff8a-4f6d-85da-32f5b1172400"},"vehicle_type_id":"4","last_reported":1770852126,"current_range_meters":3200,"station_id":"ce4bhap2rcd13ifvqek0","pricing_plan_id":"cebpf4jnsgd1na2vs0mg"},{"bike_id":"0a87e4d7-925e-474f-8c3b-ba0d3fcb0f33","system_id":"levelo_inurba_marseille","lat":43.22554,"lon":5.4164,"is_reserved":false,"is_disabled":false,"rental_uris":{"android":"levelo://app?vid=0a87e4d7-925e-474f-8c3b-ba0d3fcb0f33","ios":"levelo://app?vid=0a87e4d7-925e-474f-8c3b-ba0d3fcb0f33"},"vehicle_type_id":"4","last_reported":1770852126,"current_range_meters":3200,"station_id":"st_d2o4gvlbi1j2169b742g","pricing_plan_id":"cebpf4jnsgd1na2vs0mg"},{"bike_id":"df9e5f42-90b9-401d-8180-05632704815b","system_id":"levelo_inurba_marseille","lat":43.3026,"lon":5.38623,"is_reserved":false,"is_disabled":false,"rental_uris":{"android":"levelo://app?vid=df9e5f42-90b9-401d-8180-05632704815b","ios":"levelo://app?vid=df9e5f42-90b9-401d-8180-05632704815b"},"vehicle_type_id":"4","last_reported":1770852126,"current_range_meters":3200,"station_id":"","pricing_plan_id":"cebpf4jnsgd1na2vs0mg"},{"bike_id":"e2a8d83c-1fb9-47f7-bd26-d9f7a7aaa2fc","system_id":"levelo_inurba_marseille","lat":43.29792,"lon":5.37109,"is_reserved":false,"is_disabled":false,"rental_uris":{"android":"levelo://app?vid=e2a8d83c-1fb9-47f7-bd26-d9f7a7aaa2fc","ios":"levelo://app?vid=e2a8d83c-1fb9-47f7-bd26-d9f7a7aaa2fc"},"vehicle_type_id":"4","last_reported":1770852126,"current_range_meters":3200,"station_id":"ce4bgop2rcd13ifvqc1g","pricing_plan_id":"cebpf4jnsgd1na2vs0mg"},{"bike_id":"eb54f403-f5f5-4152-9cd4-d31f05df5ad8","system_id":"levelo_inurba_marseille","lat":43.26211,"lon":5.40442,"is_reserved":false,"is_disabled":false,"rental_uris":{"android":"levelo://app?vid=eb54f403-f5f5-4152-9cd4-d31f05df5ad8","ios":"levelo://app?vid=eb54f403-f5f5-4152-9cd4-d31f05df5ad8"},"vehicle_type_id":"4","last_reported":1770852126,"current_range_meters":3200,"station_id":"ce4bhmh2rcd13ifvqgmg","pricing_plan_id":"cebpf4jnsgd1na2vs0mg"},{"bike_id":"b0577ca1-afa8-48fa-be5c-f4673c1a2294","system_id":"levelo_inurba_marseille","lat":43.28007,"lon":5.41294,"is_reserved":false,"is_disabled":false,"rental_uris":{"android":"levelo://app?vid=b0577ca1-afa8-48fa-be5c-f4673c1a2294","ios":"levelo://app?vid=b0577ca1-afa8-48fa-be5c-f4673c1a2294"},"vehicle_type_id":"4","last_reported":1770852126,"current_range_meters":3200,"station_id":"","pricing_plan_id":"cebpf4jnsgd1na2vs0mg"},{"bike_id":"ecb39c78-a132-4b24-a1ed-3bbd4e6e80ca","system_id":"levelo_inurba_marseille","lat":43.28095,"lon":5.37854,"is_reserved":false,"is_disabled":false,"rental_uris":{"android":"levelo://app?vid=ecb39c78-a132-4b24-a1ed-3bbd4e6e80ca","ios":"levelo://app?vid=ecb39c78-a132-4b24-a1ed-3bbd4e6e80ca"},"vehicle_type_id":"4","last_reported":1770852126,"current_range_meters":3600,"station_id":"ce4bha12rcd13ifvqee0","pricing_plan_id":"cebpf4jnsgd1na2vs0mg"},{"bike_id":"aa9cd450-ccc1-453a-b1c0-e6627bf491c2","system_id":"levelo_inurba_marseille","lat":43.27917,"lon":5.39599,"is_reserved":false,"is_disabled":false,"rental_uris":{"android":"levelo://app?vid=aa9cd450-ccc1-453a-b1c0-e6627bf491c2","ios":"levelo://app?vid=aa9cd450-ccc1-453a-b1c0-e6627bf491c2"},"vehicle_type_id":"4","last_reported":1770852126,"current_range_meters":3600,"station_id":"ce4bhf92rcd13ifvqf40","pricing_plan_id":"cebpf4jnsgd1na2vs0mg"},{"bike_id":"a0bebe35-677e-4de2-8a0f-50384dfdd1d0","system_id":"levelo_inurba_marseille","lat":43.24082,"lon":5.37766,"is_reserved":false,"is_disabled":false,"rental_uris":{"android":"levelo://app?vid=a0bebe35-677e-4de2-8a0f-50384dfdd1d0","ios":"levelo://app?vid=a0bebe35-677e-4de2-8a0f-50384dfdd1d0"},"vehicle_type_id":"4","last_reported":1770852126,"current_range_meters":3600,"station_id":"ce4bhnp2rcd13ifvqgvg","pricing_plan_id":"cebpf4jnsgd1na2vs0mg"},{"bike_id":"ebd2e0de-cc65-4b1f-9566-745420c5069a","system_id":"levelo_inurba_marseille","lat":43.27511,"lon":5.41579,"is_reserved":false,"is_disabled":false,"rental_uris":{"android":"levelo://app?vid=ebd2e0de-cc65-4b1f-9566-745420c5069a","ios":"levelo://app?vid=ebd2e0de-cc65-4b1f-9566-745420c5069a"},"vehicle_type_id":"4","last_reported":1770852126,"current_range_meters":3600,"station_id":"","pricing_plan_id":"cebpf4jnsgd1na2vs0mg"},{"bike_id":"8fadd539-4297-4d2a-8099-d8a6abb3494e","system_id":"levelo_inurba_marseille","lat":43.27567,"lon":5.38397,"is_reserved":false,"is_disabled":false,"rental_uris":{"android":"levelo://app?vid=8fadd539-4297-4d2a-8099-d8a6abb3494e","ios":"levelo://app?vid=8fadd539-4297-4d2a-8099-d8a6abb3494e"},"vehicle_type_id":"4","last_reported":1770852126,"current_range_meters":3600,"station_id":"ce4bhh92rcd13ifvqfi0","pricing_plan_id":"cebpf4jnsgd1na2vs0mg"},{"bike_id":"9c9b73bd-f1ce-446d-8136-136cd9f60f16","system_id":"levelo_inurba_marseille","lat":43.2744,"lon":5.39385,"is_reserved":false,"is_disabled":false,"rental_uris":{"android":"levelo://app?vid=9c9b73bd-f1ce-446d-8136-136cd9f60f16","ios":"levelo://app?vid=9c9b73bd-f1ce-446d-8136-136cd9f60f16"},"vehicle_type_id":"4","last_reported":1770852126,"current_range_meters":3600,"station_id":"ce4bhdp2rcd13ifvqf20","pricing_plan_id":"cebpf4jnsgd1na2vs0mg"},{"bike_id":"3cf4412f-4eab-4fb4-bd6a-b9dfe83e38cc","system_id":"levelo_inurba_marseille","lat":43.24176,"lon":5.39741,"is_reserved":false,"is_disabled":false,"rental_uris":{"android":"levelo://app?vid=3cf4412f-4eab-4fb4-bd6a-b9dfe83e38cc","ios":"levelo://app?vid=3cf4412f-4eab-4fb4-bd6a-b9dfe83e38cc"},"vehicle_type_id":"4","last_reported":1770852126,"current_range_meters":3600,"station_id":"ce4bhn12rcd13ifvqgpg","pricing_plan_id":"cebpf4jnsgd1na2vs0mg"},{"bike_id":"d99d8fe4-b2b7-4ecd-b5db-4cee32291c21","system_id":"levelo_inurba_marseille","lat":43.239648,"lon":5.366319,"is_reserved":false,"is_disabled":false,"rental_uris":{"android":"levelo://app?vid=d99d8fe4-b2b7-4ecd-b5db-4cee32291c21","ios":"levelo://app?vid=d99d8fe4-b2b7-4ecd-b5db-4cee32291c21"},"vehicle_type_id":"4","last_reported":1770852126,"current_range_meters":3600,"station_id":"ce4bhi12rcd13ifvqfp0","pricing_plan_id":"cebpf4jnsgd1na2vs0mg"},{"bike_id":"7080df34-f09d-47d5-be55-0d618d1ddb54","system_id":"levelo_inurba_marseille","lat":43.27575,"lon":5.38418,"is_reserved":false,"is_disabled":false,"rental_uris":{"android":"levelo://app?vid=7080df34-f09d-47d5-be55-0d618d1ddb54","ios":"levelo://app?vid=7080df34-f09d-47d5-be55-0d618d1ddb54"},"vehicle_type_id":"4","last_reported":1770852126,"current_range_meters":3600,"station_id":"ce4bhh92rcd13ifvqfi0","pricing_plan_id":"cebpf4jnsgd1na2vs0mg"},{"bike_id":"1dcf3562-4dbd-4c4f-b48a-ff6e94dcbfdd","system_id":"levelo_inurba_marseille","lat":43.24668,"lon":5.38132,"is_reserved":false,"is_disabled":false,"rental_uris":{"android":"levelo://app?vid=1dcf3562-4dbd-4c4f-b48a-ff6e94dcbfdd","ios":"levelo://app?vid=1dcf3562-4dbd-4c4f-b48a-ff6e94dcbfdd"},"vehicle_type_id":"4","last_reported":1770852126,"current_range_meters":3600,"station_id":"ce4bhih2rcd13ifvqfr0","pricing_plan_id":"cebpf4jnsgd1na2vs0mg"},{"bike_id":"8b4263f7-2795-486a-b290-22850f34f9ba","system_id":"levelo_inurba_marseille","lat":43.25003,"lon":5.38928,"is_reserved":false,"is_disabled":false,"rental_uris":{"android":"levelo://app?vid=8b4263f7-2795-486a-b290-22850f34f9ba","ios":"levelo://app?vid=8b4263f7-2795-486a-b290-22850f34f9ba"},"vehicle_type_id":"4","last_reported":1770852126,"current_range_meters":3600,"station_id":"ce4bhgp2rcd13ifvqfd0","pricing_plan_id":"cebpf4jnsgd1na2vs0mg"},{"bike_id":"890d666c-9da6-4153-bd7e-60e53c0ee9bf","system_id":"levelo_inurba_marseille","lat":43.33761,"lon":5.37477,"is_reserved":false,"is_disabled":true,"rental_uris":{"android":"levelo://app?vid=890d666c-9da6-4153-bd7e-60e53c0ee9bf","ios":"levelo://app?vid=890d666c-9da6-4153-bd7e-60e53c0ee9bf"},"vehicle_type_id":"4","last_reported":1770852126,"current_range_meters":4000,"station_id":"","pricing_plan_id":"cebpf4jnsgd1na2vs0mg"},{"bike_id":"6f6a04ad-dd00-4f4a-bdfd-a835cfa0cc11","system_id":"levelo_inurba_marseille","lat":43.27092,"lon":5.38313,"is_reserved":false,"is_disabled":false,"rental_uris":{"android":"levelo://app?vid=6f6a04ad-dd00-4f4a-bdfd-a835cfa0cc11","ios":"levelo://app?vid=6f6a04ad-dd00-4f4a-bdfd-a835cfa0cc11"},"vehicle_type_id":"4","last_reported":1770852126,"current_range_meters":4000,"station_id":"st_d3n2fo6cfp8s73cte1j0","pricing_plan_id":"cebpf4jnsgd1na2vs0mg"},{"bike_id":"021e05cb-d562-422d-83c5-2ce813c660cc","system_id":"levelo_inurba_marseille","lat":43.28163,"lon":5.42647,"is_reserved":false,"is_disabled":false,"rental_uris":{"android":"levelo://app?vid=021e05cb-d562-422d-83c5-2ce813c660cc","ios":"levelo://app?vid=021e05cb-d562-422d-83c5-2ce813c660cc"},"vehicle_type_id":"4","last_reported":1770852126,"current_range_meters":4000,"station_id":"ce4bhnh2rcd13ifvqgug","pricing_plan_id":"cebpf4jnsgd1na2vs0mg"},{"bike_id":"0791f832-532b-4a81-8501-1d24505211ed","system_id":"levelo_inurba_marseille","lat":43.29205,"lon":5.35786,"is_reserved":false,"is_disabled":false,"rental_uris":{"android":"levelo://app?vid=0791f832-532b-4a81-8501-1d24505211ed","ios":"levelo://app?vid=0791f832-532b-4a81-8501-1d24505211ed"},"vehicle_type_id":"4","last_reported":1770852126,"current_range_meters":4000,"station_id":"ce4bhb12rcd13ifvqel0","pricing_plan_id":"cebpf4jnsgd1na2vs0mg"},{"bike_id":"aa5643aa-8a63-4d4f-b21f-c58dc8124a62","system_id":"levelo_inurba_marseille","lat":43.2439,"lon":5.3705,"is_reserved":false,"is_disabled":false,"rental_uris":{"android":"levelo://app?vid=aa5643aa-8a63-4d4f-b21f-c58dc8124a62","ios":"levelo://app?vid=aa5643aa-8a63-4d4f-b21f-c58dc8124a62"},"vehicle_type_id":"4","last_reported":1770852126,"current_range_meters":4000,"station_id":"ce4bhhh2rcd13ifvqfk0","pricing_plan_id":"cebpf4jnsgd1na2vs0mg"},{"bike_id":"a8cd9642-47c6-4401-90a5-20d1b59e685c","system_id":"levelo_inurba_marseille","lat":43.28859,"lon":5.42517,"is_reserved":false,"is_disabled":false,"rental_uris":{"android":"levelo://app?vid=a8cd9642-47c6-4401-90a5-20d1b59e685c","ios":"levelo://app?vid=a8cd9642-47c6-4401-90a5-20d1b59e685c"},"vehicle_type_id":"4","last_reported":1770852126,"current_range_meters":4000,"station_id":"st_d3b462108ojc7389ooeg","pricing_plan_id":"cebpf4jnsgd1na2vs0mg"},{"bike_id":"aadc1405-47c9-40f9-b954-b39d95d47069","system_id":"levelo_inurba_marseille","lat":43.2984,"lon":5.36267,"is_reserved":false,"is_disabled":false,"rental_uris":{"android":"levelo://app?vid=aadc1405-47c9-40f9-b954-b39d95d47069","ios":"levelo://app?vid=aadc1405-47c9-40f9-b954-b39d95d47069"},"vehicle_type_id":"4","last_reported":1770852126,"current_range_meters":4000,"station_id":"","pricing_plan_id":"cebpf4jnsgd1na2vs0mg"},{"bike_id":"6beb6b9a-203a-40a9-b008-84ef954ce931","system_id":"levelo_inurba_marseille","lat":43.30126,"lon":5.38778,"is_reserved":false,"is_disabled":false,"rental_uris":{"android":"levelo://app?vid=6beb6b9a-203a-40a9-b008-84ef954ce931","ios":"levelo://app?vid=6beb6b9a-203a-40a9-b008-84ef954ce931"},"vehicle_type_id":"4","last_reported":1770852126,"current_range_meters":4000,"station_id":"ce4bghh2rcd13ifvqb60","pricing_plan_id":"cebpf4jnsgd1na2vs0mg"},{"bike_id":"ab7260d3-0b60-4920-bd6e-553838fbba97","system_id":"levelo_inurba_marseille","lat":43.304695,"lon":5.402109,"is_reserved":false,"is_disabled":false,"rental_uris":{"android":"levelo://app?vid=ab7260d3-0b60-4920-bd6e-553838fbba97","ios":"levelo://app?vid=ab7260d3-0b60-4920-bd6e-553838fbba97"},"vehicle_type_id":"4","last_reported":1770852126,"current_range_meters":4400,"station_id":"","pricing_plan_id":"cebpf4jnsgd1na2vs0mg"},{"bike_id":"181777f8-f2e9-4556-8faf-fa3e8dce1295","system_id":"levelo_inurba_marseille","lat":43.290701,"lon":5.379907,"is_reserved":false,"is_disabled":false,"rental_uris":{"android":"levelo://app?vid=181777f8-f2e9-4556-8faf-fa3e8dce1295","ios":"levelo://app?vid=181777f8-f2e9-4556-8faf-fa3e8dce1295"},"vehicle_type_id":"4","last_reported":1770852126,"current_range_meters":4400,"station_id":"","pricing_plan_id":"cebpf4jnsgd1na2vs0mg"},{"bike_id":"caca33be-e15c-4bfb-b63a-d99631bdec75","system_id":"levelo_inurba_marseille","lat":43.26572,"lon":5.39024,"is_reserved":false,"is_disabled":false,"rental_uris":{"android":"levelo://app?vid=caca33be-e15c-4bfb-b63a-d99631bdec75","ios":"levelo://app?vid=caca33be-e15c-4bfb-b63a-d99631bdec75"},"vehicle_type_id":"4","last_reported":1770852126,"current_range_meters":4400,"station_id":"ce4bhe12rcd13ifvqf30","pricing_plan_id":"cebpf4jnsgd1na2vs0mg"},{"bike_id":"a4933106-3088-48d5-b62e-5e3809209992","system_id":"levelo_inurba_marseille","lat":43.28716,"lon":5.36112,"is_reserved":false,"is_disabled":false,"rental_uris":{"android":"levelo://app?vid=a4933106-3088-48d5-b62e-5e3809209992","ios":"levelo://app?vid=a4933106-3088-48d5-b62e-5e3809209992"},"vehicle_type_id":"4","last_reported":1770852126,"current_range_meters":4400,"station_id":"cki0cbj6b192h4jlfktg","pricing_plan_id":"cebpf4jnsgd1na2vs0mg"},{"bike_id":"c5905c63-82ea-4157-aaa6-22b59855d28f","system_id":"levelo_inurba_marseille","lat":43.232,"lon":5.39971,"is_reserved":false,"is_disabled":false,"rental_uris":{"android":"levelo://app?vid=c5905c63-82ea-4157-aaa6-22b59855d28f","ios":"levelo://app?vid=c5905c63-82ea-4157-aaa6-22b59855d28f"},"vehicle_type_id":"4","last_reported":1770852126,"current_range_meters":4400,"station_id":"ce4bhn12rcd13ifvqgqg","pricing_plan_id":"cebpf4jnsgd1na2vs0mg"},{"bike_id":"4e0f9367-7bac-4416-a504-19f0c84a5aa3","system_id":"levelo_inurba_marseille","lat":43.28154,"lon":5.42639,"is_reserved":false,"is_disabled":false,"rental_uris":{"android":"levelo://app?vid=4e0f9367-7bac-4416-a504-19f0c84a5aa3","ios":"levelo://app?vid=4e0f9367-7bac-4416-a504-19f0c84a5aa3"},"vehicle_type_id":"4","last_reported":1770852126,"current_range_meters":4800,"station_id":"ce4bhnh2rcd13ifvqgug","pricing_plan_id":"cebpf4jnsgd1na2vs0mg"},{"bike_id":"c6176d61-506f-4755-a0d6-6ccb9566f89a","system_id":"levelo_inurba_marseille","lat":43.25644,"lon":5.411318,"is_reserved":false,"is_disabled":false,"rental_uris":{"android":"levelo://app?vid=c6176d61-506f-4755-a0d6-6ccb9566f89a","ios":"levelo://app?vid=c6176d61-506f-4755-a0d6-6ccb9566f89a"},"vehicle_type_id":"4","last_reported":1770852126,"current_range_meters":4800,"station_id":"","pricing_plan_id":"cebpf4jnsgd1na2vs0mg"},{"bike_id":"1fed4add-aae6-45dc-a8f1-a0c848be9f5d","system_id":"levelo_inurba_marseille","lat":43.261988,"lon":5.379376,"is_reserved":false,"is_disabled":false,"rental_uris":{"android":"levelo://app?vid=1fed4add-aae6-45dc-a8f1-a0c848be9f5d","ios":"levelo://app?vid=1fed4add-aae6-45dc-a8f1-a0c848be9f5d"},"vehicle_type_id":"4","last_reported":1770852126,"current_range_meters":4800,"station_id":"ce4bhjp2rcd13ifvqg90","pricing_plan_id":"cebpf4jnsgd1na2vs0mg"},{"bike_id":"1c120683-67bc-428a-aa0f-bec572dfb863","system_id":"levelo_inurba_marseille","lat":43.25583,"lon":5.38242,"is_reserved":false,"is_disabled":false,"rental_uris":{"android":"levelo://app?vid=1c120683-67bc-428a-aa0f-bec572dfb863","ios":"levelo://app?vid=1c120683-67bc-428a-aa0f-bec572dfb863"},"vehicle_type_id":"4","last_reported":1770852126,"current_range_meters":4800,"station_id":"ce4bhih2rcd13ifvqfs0","pricing_plan_id":"cebpf4jnsgd1na2vs0mg"},{"bike_id":"4659f5f2-43a6-4213-b84f-184d5dec64b3","system_id":"levelo_inurba_marseille","lat":43.33546,"lon":5.3746,"is_reserved":false,"is_disabled":false,"rental_uris":{"android":"levelo://app?vid=4659f5f2-43a6-4213-b84f-184d5dec64b3","ios":"levelo://app?vid=4659f5f2-43a6-4213-b84f-184d5dec64b3"},"vehicle_type_id":"4","last_reported":1770852126,"current_range_meters":4800,"station_id":"st_d46tts09ee8s73dlu43g","pricing_plan_id":"cebpf4jnsgd1na2vs0mg"},{"bike_id":"68436fc7-aad0-465d-a1eb-d153a2c2801a","system_id":"levelo_inurba_marseille","lat":43.33163,"lon":5.37702,"is_reserved":false,"is_disabled":false,"rental_uris":{"android":"levelo://app?vid=68436fc7-aad0-465d-a1eb-d153a2c2801a","ios":"levelo://app?vid=68436fc7-aad0-465d-a1eb-d153a2c2801a"},"vehicle_type_id":"4","last_reported":1770852126,"current_range_meters":4800,"station_id":"st_d46cu089ee8s73dldbu0","pricing_plan_id":"cebpf4jnsgd1na2vs0mg"},{"bike_id":"8a086d1d-5ee9-4602-bc53-25876ff7f196","system_id":"levelo_inurba_marseille","lat":43.310431,"lon":5.371669,"is_reserved":false,"is_disabled":false,"rental_uris":{"android":"levelo://app?vid=8a086d1d-5ee9-4602-bc53-25876ff7f196","ios":"levelo://app?vid=8a086d1d-5ee9-4602-bc53-25876ff7f196"},"vehicle_type_id":"4","last_reported":1770852126,"current_range_meters":4800,"station_id":"st_d4kl2rp97mjs73e7tdfg","pricing_plan_id":"cebpf4jnsgd1na2vs0mg"},{"bike_id":"bdde70ef-70ce-4d41-a03b-1cac73853d63","system_id":"levelo_inurba_marseille","lat":43.24164,"lon":5.36388,"is_reserved":false,"is_disabled":false,"rental_uris":{"android":"levelo://app?vid=bdde70ef-70ce-4d41-a03b-1cac73853d63","ios":"levelo://app?vid=bdde70ef-70ce-4d41-a03b-1cac73853d63"},"vehicle_type_id":"4","last_reported":1770852126,"current_range_meters":4800,"station_id":"cpo36qri1sfpv3e86is0","pricing_plan_id":"cebpf4jnsgd1na2vs0mg"},{"bike_id":"0f2cc21d-ee8f-40cf-940c-bb6b1ccfe1b0","system_id":"levelo_inurba_marseille","lat":43.28932,"lon":5.3839,"is_reserved":false,"is_disabled":true,"rental_uris":{"android":"levelo://app?vid=0f2cc21d-ee8f-40cf-940c-bb6b1ccfe1b0","ios":"levelo://app?vid=0f2cc21d-ee8f-40cf-940c-bb6b1ccfe1b0"},"vehicle_type_id":"4","last_reported":1770852126,"current_range_meters":4800,"station_id":"ce4bh612rcd13ifvqe6g","pricing_plan_id":"cebpf4jnsgd1na2vs0mg"},{"bike_id":"d6b9d7ff-4ec2-4ca9-ba28-5a5dad54cfd3","system_id":"levelo_inurba_marseille","lat":43.28488,"lon":5.48394,"is_reserved":false,"is_disabled":false,"rental_uris":{"android":"levelo://app?vid=d6b9d7ff-4ec2-4ca9-ba28-5a5dad54cfd3","ios":"levelo://app?vid=d6b9d7ff-4ec2-4ca9-ba28-5a5dad54cfd3"},"vehicle_type_id":"4","last_reported":1770852126,"current_range_meters":4800,"station_id":"","pricing_plan_id":"cebpf4jnsgd1na2vs0mg"},{"bike_id":"cc8657f3-cee0-4726-8427-1495a502b0dc","system_id":"levelo_inurba_marseille","lat":43.29759,"lon":5.4277,"is_reserved":false,"is_disabled":false,"rental_uris":{"android":"levelo://app?vid=cc8657f3-cee0-4726-8427-1495a502b0dc","ios":"levelo://app?vid=cc8657f3-cee0-4726-8427-1495a502b0dc"},"vehicle_type_id":"4","last_reported":1770852126,"current_range_meters":4800,"station_id":"st_d3md5207bmas73dh9klg","pricing_plan_id":"cebpf4jnsgd1na2vs0mg"},{"bike_id":"93b00136-09fe-4a17-8fb6-8d647dc37c64","system_id":"levelo_inurba_marseille","lat":43.2621,"lon":5.37913,"is_reserved":false,"is_disabled":false,"rental_uris":{"android":"levelo://app?vid=93b00136-09fe-4a17-8fb6-8d647dc37c64","ios":"levelo://app?vid=93b00136-09fe-4a17-8fb6-8d647dc37c64"},"vehicle_type_id":"4","last_reported":1770852126,"current_range_meters":4800,"station_id":"ce4bhjp2rcd13ifvqg90","pricing_plan_id":"cebpf4jnsgd1na2vs0mg"},{"bike_id":"26c58297-f4b1-45e3-ad9b-de8767b87ae2","system_id":"levelo_inurba_marseille","lat":43.309155,"lon":5.401609,"is_reserved":false,"is_disabled":true,"rental_uris":{"android":"levelo://app?vid=26c58297-f4b1-45e3-ad9b-de8767b87ae2","ios":"levelo://app?vid=26c58297-f4b1-45e3-ad9b-de8767b87ae2"},"vehicle_type_id":"4","last_reported":1770852126,"current_range_meters":4800,"station_id":"ce4bgvp2rcd13ifvqct0","pricing_plan_id":"cebpf4jnsgd1na2vs0mg"},{"bike_id":"28ba5f80-b380-4f87-ab54-07bffd0c90be","system_id":"levelo_inurba_marseille","lat":43.29041,"lon":5.38651,"is_reserved":false,"is_disabled":false,"rental_uris":{"android":"levelo://app?vid=28ba5f80-b380-4f87-ab54-07bffd0c90be","ios":"levelo://app?vid=28ba5f80-b380-4f87-ab54-07bffd0c90be"},"vehicle_type_id":"4","last_reported":1770852126,"current_range_meters":4800,"station_id":"ce4bh4p2rcd13ifvqe0g","pricing_plan_id":"cebpf4jnsgd1na2vs0mg"},{"bike_id":"69cb53c0-4939-4da6-a53e-35e4cb2de7f7","system_id":"levelo_inurba_marseille","lat":43.22555,"lon":5.41636,"is_reserved":false,"is_disabled":false,"rental_uris":{"android":"levelo://app?vid=69cb53c0-4939-4da6-a53e-35e4cb2de7f7","ios":"levelo://app?vid=69cb53c0-4939-4da6-a53e-35e4cb2de7f7"},"vehicle_type_id":"4","last_reported":1770852126,"current_range_meters":4800,"station_id":"st_d2o4gvlbi1j2169b742g","pricing_plan_id":"cebpf4jnsgd1na2vs0mg"},{"bike_id":"eb6aca81-ad88-40dd-938e-913f6202e10b","system_id":"levelo_inurba_marseille","lat":43.30645,"lon":5.40109,"is_reserved":false,"is_disabled":false,"rental_uris":{"android":"levelo://app?vid=eb6aca81-ad88-40dd-938e-913f6202e10b","ios":"levelo://app?vid=eb6aca81-ad88-40dd-938e-913f6202e10b"},"vehicle_type_id":"4","last_reported":1770852126,"current_range_meters":4800,"station_id":"ce4bh112rcd13ifvqda0","pricing_plan_id":"cebpf4jnsgd1na2vs0mg"},{"bike_id":"f48bd293-c074-4925-8aae-b36da4cadab9","system_id":"levelo_inurba_marseille","lat":43.24681,"lon":5.38144,"is_reserved":false,"is_disabled":false,"rental_uris":{"android":"levelo://app?vid=f48bd293-c074-4925-8aae-b36da4cadab9","ios":"levelo://app?vid=f48bd293-c074-4925-8aae-b36da4cadab9"},"vehicle_type_id":"4","last_reported":1770852126,"current_range_meters":4800,"station_id":"ce4bhih2rcd13ifvqfr0","pricing_plan_id":"cebpf4jnsgd1na2vs0mg"},{"bike_id":"bc58a61e-5dee-4f48-b37b-2d8085ac5b73","system_id":"levelo_inurba_marseille","lat":43.24948,"lon":5.40473,"is_reserved":false,"is_disabled":false,"rental_uris":{"android":"levelo://app?vid=bc58a61e-5dee-4f48-b37b-2d8085ac5b73","ios":"levelo://app?vid=bc58a61e-5dee-4f48-b37b-2d8085ac5b73"},"vehicle_type_id":"4","last_reported":1770852126,"current_range_meters":5600,"station_id":"st_d2ngiaodas8pm72gd1h0","pricing_plan_id":"cebpf4jnsgd1na2vs0mg"},{"bike_id":"a009a46c-7b49-4f47-a80f-cefd77c84d81","system_id":"levelo_inurba_marseille","lat":43.2869,"lon":5.37405,"is_reserved":false,"is_disabled":false,"rental_uris":{"android":"levelo://app?vid=a009a46c-7b49-4f47-a80f-cefd77c84d81","ios":"levelo://app?vid=a009a46c-7b49-4f47-a80f-cefd77c84d81"},"vehicle_type_id":"4","last_reported":1770852126,"current_range_meters":5600,"station_id":"ce4bh3p2rcd13ifvqdq0","pricing_plan_id":"cebpf4jnsgd1na2vs0mg"},{"bike_id":"76cdd72b-1b4e-40fd-bf82-c57ca1c0d3dc","system_id":"levelo_inurba_marseille","lat":43.29314,"lon":5.37167,"is_reserved":false,"is_disabled":false,"rental_uris":{"android":"levelo://app?vid=76cdd72b-1b4e-40fd-bf82-c57ca1c0d3dc","ios":"levelo://app?vid=76cdd72b-1b4e-40fd-bf82-c57ca1c0d3dc"},"vehicle_type_id":"4","last_reported":1770852126,"current_range_meters":5600,"station_id":"ce4bgh92rcd13ifvqb40","pricing_plan_id":"cebpf4jnsgd1na2vs0mg"},{"bike_id":"1ee4abda-7b84-4885-9a96-34f7fb9e355a","system_id":"levelo_inurba_marseille","lat":43.29526,"lon":5.39373,"is_reserved":false,"is_disabled":false,"rental_uris":{"android":"levelo://app?vid=1ee4abda-7b84-4885-9a96-34f7fb9e355a","ios":"levelo://app?vid=1ee4abda-7b84-4885-9a96-34f7fb9e355a"},"vehicle_type_id":"4","last_reported":1770852126,"current_range_meters":5600,"station_id":"ce4bh292rcd13ifvqdf0","pricing_plan_id":"cebpf4jnsgd1na2vs0mg"},{"bike_id":"070e6942-f4e8-46ac-9fa8-9860b9182619","system_id":"levelo_inurba_marseille","lat":43.28557,"lon":5.39421,"is_reserved":false,"is_disabled":false,"rental_uris":{"android":"levelo://app?vid=070e6942-f4e8-46ac-9fa8-9860b9182619","ios":"levelo://app?vid=070e6942-f4e8-46ac-9fa8-9860b9182619"},"vehicle_type_id":"4","last_reported":1770852126,"current_range_meters":5600,"station_id":"","pricing_plan_id":"cebpf4jnsgd1na2vs0mg"},{"bike_id":"238249fa-46de-416c-b2d1-b229a6220ad5","system_id":"levelo_inurba_marseille","lat":43.26577,"lon":5.39015,"is_reserved":false,"is_disabled":false,"rental_uris":{"android":"levelo://app?vid=238249fa-46de-416c-b2d1-b229a6220ad5","ios":"levelo://app?vid=238249fa-46de-416c-b2d1-b229a6220ad5"},"vehicle_type_id":"4","last_reported":1770852126,"current_range_meters":5600,"station_id":"ce4bhe12rcd13ifvqf30","pricing_plan_id":"cebpf4jnsgd1na2vs0mg"},{"bike_id":"46b0ad31-3bc1-4916-b611-e12bc5cb5275","system_id":"levelo_inurba_marseille","lat":43.31107,"lon":5.37085,"is_reserved":false,"is_disabled":false,"rental_uris":{"android":"levelo://app?vid=46b0ad31-3bc1-4916-b611-e12bc5cb5275","ios":"levelo://app?vid=46b0ad31-3bc1-4916-b611-e12bc5cb5275"},"vehicle_type_id":"4","last_reported":1770852126,"current_range_meters":5600,"station_id":"st_d4kl2rp97mjs73e7tdfg","pricing_plan_id":"cebpf4jnsgd1na2vs0mg"},{"bike_id":"bb2f0852-14d9-41af-bf2c-c7052b44ac9d","system_id":"levelo_inurba_marseille","lat":43.27906,"lon":5.38013,"is_reserved":false,"is_disabled":false,"rental_uris":{"android":"levelo://app?vid=bb2f0852-14d9-41af-bf2c-c7052b44ac9d","ios":"levelo://app?vid=bb2f0852-14d9-41af-bf2c-c7052b44ac9d"},"vehicle_type_id":"4","last_reported":1770852126,"current_range_meters":5600,"station_id":"ce4bhf92rcd13ifvqf50","pricing_plan_id":"cebpf4jnsgd1na2vs0mg"},{"bike_id":"00ad28ab-0cc9-49a6-bc67-8002beb6b3be","system_id":"levelo_inurba_marseille","lat":43.311737,"lon":5.387103,"is_reserved":false,"is_disabled":false,"rental_uris":{"android":"levelo://app?vid=00ad28ab-0cc9-49a6-bc67-8002beb6b3be","ios":"levelo://app?vid=00ad28ab-0cc9-49a6-bc67-8002beb6b3be"},"vehicle_type_id":"4","last_reported":1770852126,"current_range_meters":6000,"station_id":"ce4bgv12rcd13ifvqcp0","pricing_plan_id":"cebpf4jnsgd1na2vs0mg"},{"bike_id":"705379f0-9f22-461e-8900-3556f13ec82c","system_id":"levelo_inurba_marseille","lat":43.31715,"lon":5.37754,"is_reserved":false,"is_disabled":false,"rental_uris":{"android":"levelo://app?vid=705379f0-9f22-461e-8900-3556f13ec82c","ios":"levelo://app?vid=705379f0-9f22-461e-8900-3556f13ec82c"},"vehicle_type_id":"4","last_reported":1770852126,"current_range_meters":6000,"station_id":"ce4bgth2rcd13ifvqch0","pricing_plan_id":"cebpf4jnsgd1na2vs0mg"},{"bike_id":"702dd76a-ce6a-41a4-a548-a4e69fe3077e","system_id":"levelo_inurba_marseille","lat":43.311705,"lon":5.387225,"is_reserved":false,"is_disabled":false,"rental_uris":{"android":"levelo://app?vid=702dd76a-ce6a-41a4-a548-a4e69fe3077e","ios":"levelo://app?vid=702dd76a-ce6a-41a4-a548-a4e69fe3077e"},"vehicle_type_id":"4","last_reported":1770852126,"current_range_meters":6000,"station_id":"ce4bgv12rcd13ifvqcp0","pricing_plan_id":"cebpf4jnsgd1na2vs0mg"},{"bike_id":"39f9b61e-9e27-467c-b081-5b6c22a6c92f","system_id":"levelo_inurba_marseille","lat":43.26549,"lon":5.37341,"is_reserved":false,"is_disabled":false,"rental_uris":{"android":"levelo://app?vid=39f9b61e-9e27-467c-b081-5b6c22a6c92f","ios":"levelo://app?vid=39f9b61e-9e27-467c-b081-5b6c22a6c92f"},"vehicle_type_id":"4","last_reported":1770852126,"current_range_meters":6000,"station_id":"ce4bhg12rcd13ifvqf70","pricing_plan_id":"cebpf4jnsgd1na2vs0mg"},{"bike_id":"731fc15c-c104-4770-9ef0-c105b69abaed","system_id":"levelo_inurba_marseille","lat":43.28615,"lon":5.39885,"is_reserved":false,"is_disabled":false,"rental_uris":{"android":"levelo://app?vid=731fc15c-c104-4770-9ef0-c105b69abaed","ios":"levelo://app?vid=731fc15c-c104-4770-9ef0-c105b69abaed"},"vehicle_type_id":"4","last_reported":1770852126,"current_range_meters":6000,"station_id":"st_d4a7ka997mjs738ck50g","pricing_plan_id":"cebpf4jnsgd1na2vs0mg"},{"bike_id":"f9ed33b9-c22f-4224-8fce-2fa3490b2166","system_id":"levelo_inurba_marseille","lat":43.24959,"lon":5.40496,"is_reserved":false,"is_disabled":false,"rental_uris":{"android":"levelo://app?vid=f9ed33b9-c22f-4224-8fce-2fa3490b2166","ios":"levelo://app?vid=f9ed33b9-c22f-4224-8fce-2fa3490b2166"},"vehicle_type_id":"4","last_reported":1770852126,"current_range_meters":6000,"station_id":"st_d2ngiaodas8pm72gd1h0","pricing_plan_id":"cebpf4jnsgd1na2vs0mg"},{"bike_id":"11bc5bdd-81ca-47e9-a742-a3fbf153d2de","system_id":"levelo_inurba_marseille","lat":43.28215,"lon":5.39036,"is_reserved":false,"is_disabled":false,"rental_uris":{"android":"levelo://app?vid=11bc5bdd-81ca-47e9-a742-a3fbf153d2de","ios":"levelo://app?vid=11bc5bdd-81ca-47e9-a742-a3fbf153d2de"},"vehicle_type_id":"4","last_reported":1770852126,"current_range_meters":6000,"station_id":"ce4bhn92rcd13ifvqgsg","pricing_plan_id":"cebpf4jnsgd1na2vs0mg"},{"bike_id":"2affd706-1a73-4406-817f-db5cd6760f1d","system_id":"levelo_inurba_marseille","lat":43.31325,"lon":5.39707,"is_reserved":false,"is_disabled":false,"rental_uris":{"android":"levelo://app?vid=2affd706-1a73-4406-817f-db5cd6760f1d","ios":"levelo://app?vid=2affd706-1a73-4406-817f-db5cd6760f1d"},"vehicle_type_id":"4","last_reported":1770852126,"current_range_meters":6000,"station_id":"ce4bgvp2rcd13ifvqcu0","pricing_plan_id":"cebpf4jnsgd1na2vs0mg"},{"bike_id":"3134c517-2159-4eeb-9e3a-0e8b0e099b3c","system_id":"levelo_inurba_marseille","lat":43.3009,"lon":5.39074,"is_reserved":false,"is_disabled":false,"rental_uris":{"android":"levelo://app?vid=3134c517-2159-4eeb-9e3a-0e8b0e099b3c","ios":"levelo://app?vid=3134c517-2159-4eeb-9e3a-0e8b0e099b3c"},"vehicle_type_id":"4","last_reported":1770852126,"current_range_meters":6000,"station_id":"ce4bh192rcd13ifvqdb0","pricing_plan_id":"cebpf4jnsgd1na2vs0mg"},{"bike_id":"fe86c9ba-789d-48cb-b139-57215407552e","system_id":"levelo_inurba_marseille","lat":43.33782,"lon":5.37428,"is_reserved":false,"is_disabled":false,"rental_uris":{"android":"levelo://app?vid=fe86c9ba-789d-48cb-b139-57215407552e","ios":"levelo://app?vid=fe86c9ba-789d-48cb-b139-57215407552e"},"vehicle_type_id":"4","last_reported":1770852126,"current_range_meters":6400,"station_id":"","pricing_plan_id":"cebpf4jnsgd1na2vs0mg"},{"bike_id":"d4ca1552-174d-4ef7-a9fa-51001d780ed8","system_id":"levelo_inurba_marseille","lat":43.317136,"lon":5.436985,"is_reserved":false,"is_disabled":false,"rental_uris":{"android":"levelo://app?vid=d4ca1552-174d-4ef7-a9fa-51001d780ed8","ios":"levelo://app?vid=d4ca1552-174d-4ef7-a9fa-51001d780ed8"},"vehicle_type_id":"4","last_reported":1770852126,"current_range_meters":6400,"station_id":"","pricing_plan_id":"cebpf4jnsgd1na2vs0mg"},{"bike_id":"a8033c18-bf59-458a-9eb0-147256918905","system_id":"levelo_inurba_marseille","lat":43.31059,"lon":5.37184,"is_reserved":false,"is_disabled":false,"rental_uris":{"android":"levelo://app?vid=a8033c18-bf59-458a-9eb0-147256918905","ios":"levelo://app?vid=a8033c18-bf59-458a-9eb0-147256918905"},"vehicle_type_id":"4","last_reported":1770852126,"current_range_meters":6400,"station_id":"st_d4kl2rp97mjs73e7tdfg","pricing_plan_id":"cebpf4jnsgd1na2vs0mg"},{"bike_id":"ae861497-9a22-4231-afa9-8238d5c5713c","system_id":"levelo_inurba_marseille","lat":43.24164,"lon":5.36389,"is_reserved":false,"is_disabled":false,"rental_uris":{"android":"levelo://app?vid=ae861497-9a22-4231-afa9-8238d5c5713c","ios":"levelo://app?vid=ae861497-9a22-4231-afa9-8238d5c5713c"},"vehicle_type_id":"4","last_reported":1770852126,"current_range_meters":6400,"station_id":"cpo36qri1sfpv3e86is0","pricing_plan_id":"cebpf4jnsgd1na2vs0mg"},{"bike_id":"42774bf2-1f0f-4edf-8b71-020ac5c84340","system_id":"levelo_inurba_marseille","lat":43.29788,"lon":5.39335,"is_reserved":false,"is_disabled":false,"rental_uris":{"android":"levelo://app?vid=42774bf2-1f0f-4edf-8b71-020ac5c84340","ios":"levelo://app?vid=42774bf2-1f0f-4edf-8b71-020ac5c84340"},"vehicle_type_id":"4","last_reported":1770852126,"current_range_meters":6400,"station_id":"chh1huq6cuj3fo74tm60","pricing_plan_id":"cebpf4jnsgd1na2vs0mg"},{"bike_id":"f7d8dc11-c4e5-487b-974b-49c7ef38cbe3","system_id":"levelo_inurba_marseille","lat":43.2697,"lon":5.38619,"is_reserved":false,"is_disabled":false,"rental_uris":{"android":"levelo://app?vid=f7d8dc11-c4e5-487b-974b-49c7ef38cbe3","ios":"levelo://app?vid=f7d8dc11-c4e5-487b-974b-49c7ef38cbe3"},"vehicle_type_id":"4","last_reported":1770852126,"current_range_meters":6400,"station_id":"ce4bhh92rcd13ifvqfh0","pricing_plan_id":"cebpf4jnsgd1na2vs0mg"},{"bike_id":"db7b3935-f773-48e0-9df5-d4a6524636a4","system_id":"levelo_inurba_marseille","lat":43.29534,"lon":5.39029,"is_reserved":false,"is_disabled":false,"rental_uris":{"android":"levelo://app?vid=db7b3935-f773-48e0-9df5-d4a6524636a4","ios":"levelo://app?vid=db7b3935-f773-48e0-9df5-d4a6524636a4"},"vehicle_type_id":"4","last_reported":1770852126,"current_range_meters":6400,"station_id":"ce4bh3p2rcd13ifvqdp0","pricing_plan_id":"cebpf4jnsgd1na2vs0mg"},{"bike_id":"935888c3-3f75-4d90-9af7-b81b065c26d2","system_id":"levelo_inurba_marseille","lat":43.31893,"lon":5.40743,"is_reserved":false,"is_disabled":false,"rental_uris":{"android":"levelo://app?vid=935888c3-3f75-4d90-9af7-b81b065c26d2","ios":"levelo://app?vid=935888c3-3f75-4d90-9af7-b81b065c26d2"},"vehicle_type_id":"4","last_reported":1770852126,"current_range_meters":6400,"station_id":"ce4bhq12rcd13ifvqhig","pricing_plan_id":"cebpf4jnsgd1na2vs0mg"},{"bike_id":"33352d89-c7bd-4d2f-8796-2f3b2fb0783e","system_id":"levelo_inurba_marseille","lat":43.28153,"lon":5.42695,"is_reserved":false,"is_disabled":false,"rental_uris":{"android":"levelo://app?vid=33352d89-c7bd-4d2f-8796-2f3b2fb0783e","ios":"levelo://app?vid=33352d89-c7bd-4d2f-8796-2f3b2fb0783e"},"vehicle_type_id":"4","last_reported":1770852126,"current_range_meters":6400,"station_id":"ce4bhnh2rcd13ifvqgug","pricing_plan_id":"cebpf4jnsgd1na2vs0mg"},{"bike_id":"cdb5c25c-a15a-4142-a44d-9f93b3d885b7","system_id":"levelo_inurba_marseille","lat":43.28902,"lon":5.43162,"is_reserved":false,"is_disabled":false,"rental_uris":{"android":"levelo://app?vid=cdb5c25c-a15a-4142-a44d-9f93b3d885b7","ios":"levelo://app?vid=cdb5c25c-a15a-4142-a44d-9f93b3d885b7"},"vehicle_type_id":"4","last_reported":1770852126,"current_range_meters":6400,"station_id":"","pricing_plan_id":"cebpf4jnsgd1na2vs0mg"},{"bike_id":"934b9f80-d041-425c-b5ef-429303874b6a","system_id":"levelo_inurba_marseille","lat":43.31705,"lon":5.4046,"is_reserved":false,"is_disabled":false,"rental_uris":{"android":"levelo://app?vid=934b9f80-d041-425c-b5ef-429303874b6a","ios":"levelo://app?vid=934b9f80-d041-425c-b5ef-429303874b6a"},"vehicle_type_id":"4","last_reported":1770852126,"current_range_meters":6400,"station_id":"ce4bh012rcd13ifvqd00","pricing_plan_id":"cebpf4jnsgd1na2vs0mg"},{"bike_id":"ea1c6171-5afb-4c13-9162-abe8d2806df9","system_id":"levelo_inurba_marseille","lat":43.27042,"lon":5.38312,"is_reserved":false,"is_disabled":false,"rental_uris":{"android":"levelo://app?vid=ea1c6171-5afb-4c13-9162-abe8d2806df9","ios":"levelo://app?vid=ea1c6171-5afb-4c13-9162-abe8d2806df9"},"vehicle_type_id":"4","last_reported":1770852126,"current_range_meters":6400,"station_id":"st_d3n2fo6cfp8s73cte1j0","pricing_plan_id":"cebpf4jnsgd1na2vs0mg"},{"bike_id":"647a1652-6fe3-4f62-84e0-345c49e7ef27","system_id":"levelo_inurba_marseille","lat":43.30933,"lon":5.3847,"is_reserved":false,"is_disabled":false,"rental_uris":{"android":"levelo://app?vid=647a1652-6fe3-4f62-84e0-345c49e7ef27","ios":"levelo://app?vid=647a1652-6fe3-4f62-84e0-345c49e7ef27"},"vehicle_type_id":"4","last_reported":1770852126,"current_range_meters":6400,"station_id":"","pricing_plan_id":"cebpf4jnsgd1na2vs0mg"},{"bike_id":"0d60f49b-2168-485f-9c8c-8bf326d0ba55","system_id":"levelo_inurba_marseille","lat":43.24501,"lon":5.4244,"is_reserved":false,"is_disabled":false,"rental_uris":{"android":"levelo://app?vid=0d60f49b-2168-485f-9c8c-8bf326d0ba55","ios":"levelo://app?vid=0d60f49b-2168-485f-9c8c-8bf326d0ba55"},"vehicle_type_id":"4","last_reported":1770852126,"current_range_meters":6800,"station_id":"","pricing_plan_id":"cebpf4jnsgd1na2vs0mg"},{"bike_id":"1a0d99f0-ee74-4956-bad4-992b0789ccc7","system_id":"levelo_inurba_marseille","lat":43.21201,"lon":5.35053,"is_reserved":false,"is_disabled":false,"rental_uris":{"android":"levelo://app?vid=1a0d99f0-ee74-4956-bad4-992b0789ccc7","ios":"levelo://app?vid=1a0d99f0-ee74-4956-bad4-992b0789ccc7"},"vehicle_type_id":"4","last_reported":1770852126,"current_range_meters":6800,"station_id":"st_cvj6sg6p6f1abm77japg","pricing_plan_id":"cebpf4jnsgd1na2vs0mg"},{"bike_id":"ed5f093d-1aa3-4ff9-ab82-20bb031f1bc6","system_id":"levelo_inurba_marseille","lat":43.2853,"lon":5.44099,"is_reserved":false,"is_disabled":true,"rental_uris":{"android":"levelo://app?vid=ed5f093d-1aa3-4ff9-ab82-20bb031f1bc6","ios":"levelo://app?vid=ed5f093d-1aa3-4ff9-ab82-20bb031f1bc6"},"vehicle_type_id":"4","last_reported":1770852126,"current_range_meters":6800,"station_id":"","pricing_plan_id":"cebpf4jnsgd1na2vs0mg"},{"bike_id":"e44df137-3a9f-4865-a2d3-769a6f5bfc14","system_id":"levelo_inurba_marseille","lat":43.30894,"lon":5.36856,"is_reserved":false,"is_disabled":false,"rental_uris":{"android":"levelo://app?vid=e44df137-3a9f-4865-a2d3-769a6f5bfc14","ios":"levelo://app?vid=e44df137-3a9f-4865-a2d3-769a6f5bfc14"},"vehicle_type_id":"4","last_reported":1770852126,"current_range_meters":6800,"station_id":"ce4bgn92rcd13ifvqbvg","pricing_plan_id":"cebpf4jnsgd1na2vs0mg"},{"bike_id":"f8639601-1139-4514-95e9-6e0370e570c7","system_id":"levelo_inurba_marseille","lat":43.30322,"lon":5.40438,"is_reserved":false,"is_disabled":false,"rental_uris":{"android":"levelo://app?vid=f8639601-1139-4514-95e9-6e0370e570c7","ios":"levelo://app?vid=f8639601-1139-4514-95e9-6e0370e570c7"},"vehicle_type_id":"4","last_reported":1770852126,"current_range_meters":6800,"station_id":"ce4bh012rcd13ifvqd10","pricing_plan_id":"cebpf4jnsgd1na2vs0mg"},{"bike_id":"8ff4a9fa-0d2e-4f7f-8193-e7a8dba5ca9a","system_id":"levelo_inurba_marseille","lat":43.25322,"lon":5.42158,"is_reserved":false,"is_disabled":false,"rental_uris":{"android":"levelo://app?vid=8ff4a9fa-0d2e-4f7f-8193-e7a8dba5ca9a","ios":"levelo://app?vid=8ff4a9fa-0d2e-4f7f-8193-e7a8dba5ca9a"},"vehicle_type_id":"4","last_reported":1770852126,"current_range_meters":6800,"station_id":"st_d2m65c5bi1j21697t3ng","pricing_plan_id":"cebpf4jnsgd1na2vs0mg"},{"bike_id":"7b92e220-9d47-4ab3-998f-d8a4cc588b3b","system_id":"levelo_inurba_marseille","lat":43.24945,"lon":5.40482,"is_reserved":false,"is_disabled":false,"rental_uris":{"android":"levelo://app?vid=7b92e220-9d47-4ab3-998f-d8a4cc588b3b","ios":"levelo://app?vid=7b92e220-9d47-4ab3-998f-d8a4cc588b3b"},"vehicle_type_id":"4","last_reported":1770852126,"current_range_meters":6800,"station_id":"st_d2ngiaodas8pm72gd1h0","pricing_plan_id":"cebpf4jnsgd1na2vs0mg"},{"bike_id":"73adc959-6ab7-428b-b7d2-aaafd84c0048","system_id":"levelo_inurba_marseille","lat":43.28849,"lon":5.3584,"is_reserved":false,"is_disabled":false,"rental_uris":{"android":"levelo://app?vid=73adc959-6ab7-428b-b7d2-aaafd84c0048","ios":"levelo://app?vid=73adc959-6ab7-428b-b7d2-aaafd84c0048"},"vehicle_type_id":"4","last_reported":1770852126,"current_range_meters":6800,"station_id":"ce4bhb12rcd13ifvqem0","pricing_plan_id":"cebpf4jnsgd1na2vs0mg"},{"bike_id":"6efe5f0a-6c4f-403e-907f-5428484845d2","system_id":"levelo_inurba_marseille","lat":43.317069,"lon":5.40389,"is_reserved":false,"is_disabled":false,"rental_uris":{"android":"levelo://app?vid=6efe5f0a-6c4f-403e-907f-5428484845d2","ios":"levelo://app?vid=6efe5f0a-6c4f-403e-907f-5428484845d2"},"vehicle_type_id":"4","last_reported":1770852126,"current_range_meters":6800,"station_id":"","pricing_plan_id":"cebpf4jnsgd1na2vs0mg"},{"bike_id":"33da22e5-78c2-418b-9ffb-ebfb4f018e77","system_id":"levelo_inurba_marseille","lat":43.30339,"lon":5.40433,"is_reserved":false,"is_disabled":false,"rental_uris":{"android":"levelo://app?vid=33da22e5-78c2-418b-9ffb-ebfb4f018e77","ios":"levelo://app?vid=33da22e5-78c2-418b-9ffb-ebfb4f018e77"},"vehicle_type_id":"4","last_reported":1770852126,"current_range_meters":6800,"station_id":"ce4bh012rcd13ifvqd10","pricing_plan_id":"cebpf4jnsgd1na2vs0mg"},{"bike_id":"2a63844a-84ce-42ba-a570-71001293621e","system_id":"levelo_inurba_marseille","lat":43.30812,"lon":5.43555,"is_reserved":false,"is_disabled":false,"rental_uris":{"android":"levelo://app?vid=2a63844a-84ce-42ba-a570-71001293621e","ios":"levelo://app?vid=2a63844a-84ce-42ba-a570-71001293621e"},"vehicle_type_id":"4","last_reported":1770852126,"current_range_meters":6800,"station_id":"","pricing_plan_id":"cebpf4jnsgd1na2vs0mg"},{"bike_id":"80402ecf-b8d7-4b37-a51b-bc25571b17fe","system_id":"levelo_inurba_marseille","lat":43.26225,"lon":5.40419,"is_reserved":false,"is_disabled":true,"rental_uris":{"android":"levelo://app?vid=80402ecf-b8d7-4b37-a51b-bc25571b17fe","ios":"levelo://app?vid=80402ecf-b8d7-4b37-a51b-bc25571b17fe"},"vehicle_type_id":"4","last_reported":1770852126,"current_range_meters":6800,"station_id":"ce4bhmh2rcd13ifvqgmg","pricing_plan_id":"cebpf4jnsgd1na2vs0mg"},{"bike_id":"1cf7a3f0-701f-4fb4-b5cf-3f9ecbf53dee","system_id":"levelo_inurba_marseille","lat":43.321981,"lon":5.405574,"is_reserved":false,"is_disabled":false,"rental_uris":{"android":"levelo://app?vid=1cf7a3f0-701f-4fb4-b5cf-3f9ecbf53dee","ios":"levelo://app?vid=1cf7a3f0-701f-4fb4-b5cf-3f9ecbf53dee"},"vehicle_type_id":"4","last_reported":1770852126,"current_range_meters":6800,"station_id":"","pricing_plan_id":"cebpf4jnsgd1na2vs0mg"},{"bike_id":"cc43a2a6-4df1-46ee-89a5-e5908a5338ed","system_id":"levelo_inurba_marseille","lat":43.28483,"lon":5.48388,"is_reserved":false,"is_disabled":false,"rental_uris":{"android":"levelo://app?vid=cc43a2a6-4df1-46ee-89a5-e5908a5338ed","ios":"levelo://app?vid=cc43a2a6-4df1-46ee-89a5-e5908a5338ed"},"vehicle_type_id":"4","last_reported":1770852126,"current_range_meters":6800,"station_id":"st_d3svhcjqgbts73a3dn0g","pricing_plan_id":"cebpf4jnsgd1na2vs0mg"},{"bike_id":"b26f7bc8-3e05-415f-a7f6-6fe56a75bb5c","system_id":"levelo_inurba_marseille","lat":43.26073,"lon":5.39396,"is_reserved":false,"is_disabled":false,"rental_uris":{"android":"levelo://app?vid=b26f7bc8-3e05-415f-a7f6-6fe56a75bb5c","ios":"levelo://app?vid=b26f7bc8-3e05-415f-a7f6-6fe56a75bb5c"},"vehicle_type_id":"4","last_reported":1770852126,"current_range_meters":6800,"station_id":"ce4bhh92rcd13ifvqfj0","pricing_plan_id":"cebpf4jnsgd1na2vs0mg"},{"bike_id":"35224973-f4b2-4bb3-b009-5c6f2bd6b1d8","system_id":"levelo_inurba_marseille","lat":43.30311,"lon":5.36905,"is_reserved":false,"is_disabled":false,"rental_uris":{"android":"levelo://app?vid=35224973-f4b2-4bb3-b009-5c6f2bd6b1d8","ios":"levelo://app?vid=35224973-f4b2-4bb3-b009-5c6f2bd6b1d8"},"vehicle_type_id":"4","last_reported":1770852126,"current_range_meters":7200,"station_id":"ce4bgqh2rcd13ifvqc5g","pricing_plan_id":"cebpf4jnsgd1na2vs0mg"},{"bike_id":"9c4fa197-e784-47a1-9a3e-1e64aa186f14","system_id":"levelo_inurba_marseille","lat":43.25946,"lon":5.40902,"is_reserved":false,"is_disabled":false,"rental_uris":{"android":"levelo://app?vid=9c4fa197-e784-47a1-9a3e-1e64aa186f14","ios":"levelo://app?vid=9c4fa197-e784-47a1-9a3e-1e64aa186f14"},"vehicle_type_id":"4","last_reported":1770852126,"current_range_meters":7200,"station_id":"ce4bhm92rcd13ifvqglg","pricing_plan_id":"cebpf4jnsgd1na2vs0mg"},{"bike_id":"f4548a4a-dac8-478b-b4ac-1b0e221b119a","system_id":"levelo_inurba_marseille","lat":43.24691,"lon":5.38139,"is_reserved":false,"is_disabled":false,"rental_uris":{"android":"levelo://app?vid=f4548a4a-dac8-478b-b4ac-1b0e221b119a","ios":"levelo://app?vid=f4548a4a-dac8-478b-b4ac-1b0e221b119a"},"vehicle_type_id":"4","last_reported":1770852126,"current_range_meters":7200,"station_id":"ce4bhih2rcd13ifvqfr0","pricing_plan_id":"cebpf4jnsgd1na2vs0mg"},{"bike_id":"b6b5b67a-3fcb-4ccb-a108-cc00421ca8e4","system_id":"levelo_inurba_marseille","lat":43.29926,"lon":5.38551,"is_reserved":false,"is_disabled":false,"rental_uris":{"android":"levelo://app?vid=b6b5b67a-3fcb-4ccb-a108-cc00421ca8e4","ios":"levelo://app?vid=b6b5b67a-3fcb-4ccb-a108-cc00421ca8e4"},"vehicle_type_id":"4","last_reported":1770852126,"current_range_meters":7200,"station_id":"","pricing_plan_id":"cebpf4jnsgd1na2vs0mg"},{"bike_id":"fdcca747-1f0c-4265-9d25-6a349973ec5d","system_id":"levelo_inurba_marseille","lat":43.331604,"lon":5.37693,"is_reserved":false,"is_disabled":false,"rental_uris":{"android":"levelo://app?vid=fdcca747-1f0c-4265-9d25-6a349973ec5d","ios":"levelo://app?vid=fdcca747-1f0c-4265-9d25-6a349973ec5d"},"vehicle_type_id":"4","last_reported":1770852126,"current_range_meters":7200,"station_id":"st_d46cu089ee8s73dldbu0","pricing_plan_id":"cebpf4jnsgd1na2vs0mg"},{"bike_id":"a554aa48-208b-4b1b-b109-4f271863a29b","system_id":"levelo_inurba_marseille","lat":43.2841,"lon":5.37551,"is_reserved":false,"is_disabled":false,"rental_uris":{"android":"levelo://app?vid=a554aa48-208b-4b1b-b109-4f271863a29b","ios":"levelo://app?vid=a554aa48-208b-4b1b-b109-4f271863a29b"},"vehicle_type_id":"4","last_reported":1770852126,"current_range_meters":7200,"station_id":"ce4bh412rcd13ifvqds0","pricing_plan_id":"cebpf4jnsgd1na2vs0mg"},{"bike_id":"9e3bc487-b0e5-43b2-98b8-caa6f87f206e","system_id":"levelo_inurba_marseille","lat":43.31722,"lon":5.37767,"is_reserved":false,"is_disabled":false,"rental_uris":{"android":"levelo://app?vid=9e3bc487-b0e5-43b2-98b8-caa6f87f206e","ios":"levelo://app?vid=9e3bc487-b0e5-43b2-98b8-caa6f87f206e"},"vehicle_type_id":"4","last_reported":1770852126,"current_range_meters":7200,"station_id":"ce4bgth2rcd13ifvqch0","pricing_plan_id":"cebpf4jnsgd1na2vs0mg"},{"bike_id":"9b586055-3525-4e43-ae53-8d6c2fff45ed","system_id":"levelo_inurba_marseille","lat":43.24159,"lon":5.36409,"is_reserved":false,"is_disabled":false,"rental_uris":{"android":"levelo://app?vid=9b586055-3525-4e43-ae53-8d6c2fff45ed","ios":"levelo://app?vid=9b586055-3525-4e43-ae53-8d6c2fff45ed"},"vehicle_type_id":"4","last_reported":1770852126,"current_range_meters":7200,"station_id":"cpo36qri1sfpv3e86is0","pricing_plan_id":"cebpf4jnsgd1na2vs0mg"},{"bike_id":"20675d49-e80f-47ba-a502-e666f9c0d14b","system_id":"levelo_inurba_marseille","lat":43.30306,"lon":5.36867,"is_reserved":false,"is_disabled":false,"rental_uris":{"android":"levelo://app?vid=20675d49-e80f-47ba-a502-e666f9c0d14b","ios":"levelo://app?vid=20675d49-e80f-47ba-a502-e666f9c0d14b"},"vehicle_type_id":"4","last_reported":1770852126,"current_range_meters":7200,"station_id":"ce4bgqh2rcd13ifvqc5g","pricing_plan_id":"cebpf4jnsgd1na2vs0mg"},{"bike_id":"5fda65b6-7f98-4bf6-b2de-a2c95ed917cc","system_id":"levelo_inurba_marseille","lat":43.25465,"lon":5.3845,"is_reserved":false,"is_disabled":false,"rental_uris":{"android":"levelo://app?vid=5fda65b6-7f98-4bf6-b2de-a2c95ed917cc","ios":"levelo://app?vid=5fda65b6-7f98-4bf6-b2de-a2c95ed917cc"},"vehicle_type_id":"4","last_reported":1770852126,"current_range_meters":7200,"station_id":"","pricing_plan_id":"cebpf4jnsgd1na2vs0mg"},{"bike_id":"ac9a885a-fe7d-4871-905c-95e91acf3aa8","system_id":"levelo_inurba_marseille","lat":43.22564,"lon":5.41633,"is_reserved":false,"is_disabled":false,"rental_uris":{"android":"levelo://app?vid=ac9a885a-fe7d-4871-905c-95e91acf3aa8","ios":"levelo://app?vid=ac9a885a-fe7d-4871-905c-95e91acf3aa8"},"vehicle_type_id":"4","last_reported":1770852126,"current_range_meters":7200,"station_id":"st_d2o4gvlbi1j2169b742g","pricing_plan_id":"cebpf4jnsgd1na2vs0mg"},{"bike_id":"1c8ad576-b604-4822-b51b-92bbf6fee65c","system_id":"levelo_inurba_marseille","lat":43.2657,"lon":5.39018,"is_reserved":false,"is_disabled":false,"rental_uris":{"android":"levelo://app?vid=1c8ad576-b604-4822-b51b-92bbf6fee65c","ios":"levelo://app?vid=1c8ad576-b604-4822-b51b-92bbf6fee65c"},"vehicle_type_id":"4","last_reported":1770852126,"current_range_meters":7200,"station_id":"ce4bhe12rcd13ifvqf30","pricing_plan_id":"cebpf4jnsgd1na2vs0mg"},{"bike_id":"e49febbf-0c71-414b-a977-061ff0ff49f2","system_id":"levelo_inurba_marseille","lat":43.30892,"lon":5.396295,"is_reserved":false,"is_disabled":false,"rental_uris":{"android":"levelo://app?vid=e49febbf-0c71-414b-a977-061ff0ff49f2","ios":"levelo://app?vid=e49febbf-0c71-414b-a977-061ff0ff49f2"},"vehicle_type_id":"4","last_reported":1770852126,"current_range_meters":7200,"station_id":"ce4bh012rcd13ifvqcv0","pricing_plan_id":"cebpf4jnsgd1na2vs0mg"},{"bike_id":"1ef2e3fb-a11e-4cc4-96b5-ecbfbbb8d188","system_id":"levelo_inurba_marseille","lat":43.31531,"lon":5.37269,"is_reserved":false,"is_disabled":false,"rental_uris":{"android":"levelo://app?vid=1ef2e3fb-a11e-4cc4-96b5-ecbfbbb8d188","ios":"levelo://app?vid=1ef2e3fb-a11e-4cc4-96b5-ecbfbbb8d188"},"vehicle_type_id":"4","last_reported":1770852126,"current_range_meters":7200,"station_id":"","pricing_plan_id":"cebpf4jnsgd1na2vs0mg"},{"bike_id":"60144355-c5a2-4b27-9517-15dba4ba79a0","system_id":"levelo_inurba_marseille","lat":43.25578,"lon":5.38216,"is_reserved":false,"is_disabled":true,"rental_uris":{"android":"levelo://app?vid=60144355-c5a2-4b27-9517-15dba4ba79a0","ios":"levelo://app?vid=60144355-c5a2-4b27-9517-15dba4ba79a0"},"vehicle_type_id":"4","last_reported":1770852126,"current_range_meters":7200,"station_id":"ce4bhih2rcd13ifvqfs0","pricing_plan_id":"cebpf4jnsgd1na2vs0mg"},{"bike_id":"3459ccef-2414-463a-bdb0-352ec2e48f58","system_id":"levelo_inurba_marseille","lat":43.262259,"lon":5.404594,"is_reserved":false,"is_disabled":false,"rental_uris":{"android":"levelo://app?vid=3459ccef-2414-463a-bdb0-352ec2e48f58","ios":"levelo://app?vid=3459ccef-2414-463a-bdb0-352ec2e48f58"},"vehicle_type_id":"4","last_reported":1770852126,"current_range_meters":7200,"station_id":"ce4bhmh2rcd13ifvqgmg","pricing_plan_id":"cebpf4jnsgd1na2vs0mg"},{"bike_id":"babdcd4a-655b-4e95-88f5-77a8529739da","system_id":"levelo_inurba_marseille","lat":43.22559,"lon":5.41636,"is_reserved":false,"is_disabled":false,"rental_uris":{"android":"levelo://app?vid=babdcd4a-655b-4e95-88f5-77a8529739da","ios":"levelo://app?vid=babdcd4a-655b-4e95-88f5-77a8529739da"},"vehicle_type_id":"4","last_reported":1770852126,"current_range_meters":7200,"station_id":"st_d2o4gvlbi1j2169b742g","pricing_plan_id":"cebpf4jnsgd1na2vs0mg"},{"bike_id":"609642fb-a89c-4479-9dd8-17a85a328b73","system_id":"levelo_inurba_marseille","lat":43.27584,"lon":5.38423,"is_reserved":false,"is_disabled":false,"rental_uris":{"android":"levelo://app?vid=609642fb-a89c-4479-9dd8-17a85a328b73","ios":"levelo://app?vid=609642fb-a89c-4479-9dd8-17a85a328b73"},"vehicle_type_id":"4","last_reported":1770852126,"current_range_meters":7200,"station_id":"ce4bhh92rcd13ifvqfi0","pricing_plan_id":"cebpf4jnsgd1na2vs0mg"},{"bike_id":"e5f6fbc0-79bf-4a02-84c6-e4620cc9aeec","system_id":"levelo_inurba_marseille","lat":43.29041,"lon":5.38654,"is_reserved":false,"is_disabled":false,"rental_uris":{"android":"levelo://app?vid=e5f6fbc0-79bf-4a02-84c6-e4620cc9aeec","ios":"levelo://app?vid=e5f6fbc0-79bf-4a02-84c6-e4620cc9aeec"},"vehicle_type_id":"4","last_reported":1770852126,"current_range_meters":8000,"station_id":"ce4bh4p2rcd13ifvqe0g","pricing_plan_id":"cebpf4jnsgd1na2vs0mg"},{"bike_id":"fe85a283-164e-4135-8ab7-7e2210250f6e","system_id":"levelo_inurba_marseille","lat":43.260595,"lon":5.393919,"is_reserved":false,"is_disabled":false,"rental_uris":{"android":"levelo://app?vid=fe85a283-164e-4135-8ab7-7e2210250f6e","ios":"levelo://app?vid=fe85a283-164e-4135-8ab7-7e2210250f6e"},"vehicle_type_id":"4","last_reported":1770852126,"current_range_meters":8000,"station_id":"ce4bhh92rcd13ifvqfj0","pricing_plan_id":"cebpf4jnsgd1na2vs0mg"},{"bike_id":"9df34885-ac04-43a6-b4c2-df2cea230626","system_id":"levelo_inurba_marseille","lat":43.31242,"lon":5.36854,"is_reserved":false,"is_disabled":false,"rental_uris":{"android":"levelo://app?vid=9df34885-ac04-43a6-b4c2-df2cea230626","ios":"levelo://app?vid=9df34885-ac04-43a6-b4c2-df2cea230626"},"vehicle_type_id":"4","last_reported":1770852126,"current_range_meters":8000,"station_id":"ce4bgl92rcd13ifvqbq0","pricing_plan_id":"cebpf4jnsgd1na2vs0mg"},{"bike_id":"834da72d-2e32-479e-bc3f-592da1e51209","system_id":"levelo_inurba_marseille","lat":43.27076,"lon":5.42279,"is_reserved":false,"is_disabled":false,"rental_uris":{"android":"levelo://app?vid=834da72d-2e32-479e-bc3f-592da1e51209","ios":"levelo://app?vid=834da72d-2e32-479e-bc3f-592da1e51209"},"vehicle_type_id":"4","last_reported":1770852126,"current_range_meters":8000,"station_id":"ce4bhk92rcd13ifvqgb0","pricing_plan_id":"cebpf4jnsgd1na2vs0mg"},{"bike_id":"c19acd5e-349f-4c94-ba60-c9653d5aeea0","system_id":"levelo_inurba_marseille","lat":43.29642,"lon":5.37147,"is_reserved":false,"is_disabled":false,"rental_uris":{"android":"levelo://app?vid=c19acd5e-349f-4c94-ba60-c9653d5aeea0","ios":"levelo://app?vid=c19acd5e-349f-4c94-ba60-c9653d5aeea0"},"vehicle_type_id":"4","last_reported":1770852126,"current_range_meters":8000,"station_id":"ce4bgnh2rcd13ifvqc0g","pricing_plan_id":"cebpf4jnsgd1na2vs0mg"},{"bike_id":"70352f9d-fd07-4c99-991c-1657e6a18c4c","system_id":"levelo_inurba_marseille","lat":43.306,"lon":5.39347,"is_reserved":false,"is_disabled":false,"rental_uris":{"android":"levelo://app?vid=70352f9d-fd07-4c99-991c-1657e6a18c4c","ios":"levelo://app?vid=70352f9d-fd07-4c99-991c-1657e6a18c4c"},"vehicle_type_id":"4","last_reported":1770852126,"current_range_meters":8000,"station_id":"ce4bh0p2rcd13ifvqd80","pricing_plan_id":"cebpf4jnsgd1na2vs0mg"},{"bike_id":"14ee209d-c046-40be-81f7-160a502d2b4f","system_id":"levelo_inurba_marseille","lat":43.26559,"lon":5.39025,"is_reserved":false,"is_disabled":false,"rental_uris":{"android":"levelo://app?vid=14ee209d-c046-40be-81f7-160a502d2b4f","ios":"levelo://app?vid=14ee209d-c046-40be-81f7-160a502d2b4f"},"vehicle_type_id":"4","last_reported":1770852126,"current_range_meters":8000,"station_id":"ce4bhe12rcd13ifvqf30","pricing_plan_id":"cebpf4jnsgd1na2vs0mg"},{"bike_id":"8e298756-702e-457c-bb9c-74d840066687","system_id":"levelo_inurba_marseille","lat":43.29,"lon":5.35601,"is_reserved":false,"is_disabled":false,"rental_uris":{"android":"levelo://app?vid=8e298756-702e-457c-bb9c-74d840066687","ios":"levelo://app?vid=8e298756-702e-457c-bb9c-74d840066687"},"vehicle_type_id":"4","last_reported":1770852126,"current_range_meters":8000,"station_id":"ce4bhb92rcd13ifvqen0","pricing_plan_id":"cebpf4jnsgd1na2vs0mg"},{"bike_id":"4878db2c-1746-4e84-a2dc-9ef31135b542","system_id":"levelo_inurba_marseille","lat":43.2586,"lon":5.39904,"is_reserved":false,"is_disabled":false,"rental_uris":{"android":"levelo://app?vid=4878db2c-1746-4e84-a2dc-9ef31135b542","ios":"levelo://app?vid=4878db2c-1746-4e84-a2dc-9ef31135b542"},"vehicle_type_id":"4","last_reported":1770852126,"current_range_meters":8000,"station_id":"ce4bhl92rcd13ifvqghg","pricing_plan_id":"cebpf4jnsgd1na2vs0mg"},{"bike_id":"d997c6b7-acb1-4efa-ae35-2d8c161e2e69","system_id":"levelo_inurba_marseille","lat":43.23222,"lon":5.35475,"is_reserved":false,"is_disabled":false,"rental_uris":{"android":"levelo://app?vid=d997c6b7-acb1-4efa-ae35-2d8c161e2e69","ios":"levelo://app?vid=d997c6b7-acb1-4efa-ae35-2d8c161e2e69"},"vehicle_type_id":"4","last_reported":1770852126,"current_range_meters":8000,"station_id":"ce4bhu92rcd13ifvqi70","pricing_plan_id":"cebpf4jnsgd1na2vs0mg"},{"bike_id":"f7ef2194-0ff0-4412-a5a4-ba61315ba186","system_id":"levelo_inurba_marseille","lat":43.29929,"lon":5.36535,"is_reserved":false,"is_disabled":false,"rental_uris":{"android":"levelo://app?vid=f7ef2194-0ff0-4412-a5a4-ba61315ba186","ios":"levelo://app?vid=f7ef2194-0ff0-4412-a5a4-ba61315ba186"},"vehicle_type_id":"4","last_reported":1770852126,"current_range_meters":8000,"station_id":"ce4bgm92rcd13ifvqbr0","pricing_plan_id":"cebpf4jnsgd1na2vs0mg"},{"bike_id":"c0bf6b51-8534-4485-8010-d8536b85eb11","system_id":"levelo_inurba_marseille","lat":43.29304,"lon":5.40831,"is_reserved":false,"is_disabled":false,"rental_uris":{"android":"levelo://app?vid=c0bf6b51-8534-4485-8010-d8536b85eb11","ios":"levelo://app?vid=c0bf6b51-8534-4485-8010-d8536b85eb11"},"vehicle_type_id":"4","last_reported":1770852126,"current_range_meters":8000,"station_id":"","pricing_plan_id":"cebpf4jnsgd1na2vs0mg"},{"bike_id":"d57a3244-648d-4ee3-b3a8-8cd92e1d9c9e","system_id":"levelo_inurba_marseille","lat":43.28833,"lon":5.39318,"is_reserved":false,"is_disabled":false,"rental_uris":{"android":"levelo://app?vid=d57a3244-648d-4ee3-b3a8-8cd92e1d9c9e","ios":"levelo://app?vid=d57a3244-648d-4ee3-b3a8-8cd92e1d9c9e"},"vehicle_type_id":"4","last_reported":1770852126,"current_range_meters":8000,"station_id":"ce4bh2p2rcd13ifvqdi0","pricing_plan_id":"cebpf4jnsgd1na2vs0mg"},{"bike_id":"d6ac2655-5d13-492c-96b2-0753705b3ccf","system_id":"levelo_inurba_marseille","lat":43.30141,"lon":5.37425,"is_reserved":false,"is_disabled":false,"rental_uris":{"android":"levelo://app?vid=d6ac2655-5d13-492c-96b2-0753705b3ccf","ios":"levelo://app?vid=d6ac2655-5d13-492c-96b2-0753705b3ccf"},"vehicle_type_id":"4","last_reported":1770852126,"current_range_meters":8000,"station_id":"ce4bgs92rcd13ifvqcc0","pricing_plan_id":"cebpf4jnsgd1na2vs0mg"},{"bike_id":"602b1aa7-ae78-4f99-bdeb-c1fa3809495e","system_id":"levelo_inurba_marseille","lat":43.24388,"lon":5.37071,"is_reserved":false,"is_disabled":false,"rental_uris":{"android":"levelo://app?vid=602b1aa7-ae78-4f99-bdeb-c1fa3809495e","ios":"levelo://app?vid=602b1aa7-ae78-4f99-bdeb-c1fa3809495e"},"vehicle_type_id":"4","last_reported":1770852126,"current_range_meters":8000,"station_id":"ce4bhhh2rcd13ifvqfk0","pricing_plan_id":"cebpf4jnsgd1na2vs0mg"},{"bike_id":"83b1ccff-bf30-4513-9198-679ab1a3ddf4","system_id":"levelo_inurba_marseille","lat":43.29587,"lon":5.39005,"is_reserved":false,"is_disabled":false,"rental_uris":{"android":"levelo://app?vid=83b1ccff-bf30-4513-9198-679ab1a3ddf4","ios":"levelo://app?vid=83b1ccff-bf30-4513-9198-679ab1a3ddf4"},"vehicle_type_id":"4","last_reported":1770852126,"current_range_meters":8000,"station_id":"","pricing_plan_id":"cebpf4jnsgd1na2vs0mg"},{"bike_id":"8eacced8-272b-41d9-9397-61b329ca6fac","system_id":"levelo_inurba_marseille","lat":43.25945,"lon":5.40891,"is_reserved":false,"is_disabled":false,"rental_uris":{"android":"levelo://app?vid=8eacced8-272b-41d9-9397-61b329ca6fac","ios":"levelo://app?vid=8eacced8-272b-41d9-9397-61b329ca6fac"},"vehicle_type_id":"4","last_reported":1770852126,"current_range_meters":8000,"station_id":"ce4bhm92rcd13ifvqglg","pricing_plan_id":"cebpf4jnsgd1na2vs0mg"},{"bike_id":"75ae7e56-e2d5-4caa-b027-309faf585654","system_id":"levelo_inurba_marseille","lat":43.26238,"lon":5.40429,"is_reserved":false,"is_disabled":false,"rental_uris":{"android":"levelo://app?vid=75ae7e56-e2d5-4caa-b027-309faf585654","ios":"levelo://app?vid=75ae7e56-e2d5-4caa-b027-309faf585654"},"vehicle_type_id":"4","last_reported":1770852126,"current_range_meters":8000,"station_id":"ce4bhmh2rcd13ifvqgmg","pricing_plan_id":"cebpf4jnsgd1na2vs0mg"},{"bike_id":"43381b2d-ff70-4654-9dcd-c277cc3a60b7","system_id":"levelo_inurba_marseille","lat":43.28668,"lon":5.36343,"is_reserved":false,"is_disabled":false,"rental_uris":{"android":"levelo://app?vid=43381b2d-ff70-4654-9dcd-c277cc3a60b7","ios":"levelo://app?vid=43381b2d-ff70-4654-9dcd-c277cc3a60b7"},"vehicle_type_id":"4","last_reported":1770852126,"current_range_meters":8000,"station_id":"ce4bhah2rcd13ifvqej0","pricing_plan_id":"cebpf4jnsgd1na2vs0mg"},{"bike_id":"8b4b38ac-f6cb-48ed-90a4-30149ea67fd7","system_id":"levelo_inurba_marseille","lat":43.292327,"lon":5.396273,"is_reserved":false,"is_disabled":false,"rental_uris":{"android":"levelo://app?vid=8b4b38ac-f6cb-48ed-90a4-30149ea67fd7","ios":"levelo://app?vid=8b4b38ac-f6cb-48ed-90a4-30149ea67fd7"},"vehicle_type_id":"4","last_reported":1770852126,"current_range_meters":8000,"station_id":"","pricing_plan_id":"cebpf4jnsgd1na2vs0mg"},{"bike_id":"3c81327d-9491-4c43-a28e-b4a9a9c09c30","system_id":"levelo_inurba_marseille","lat":43.30132,"lon":5.39859,"is_reserved":false,"is_disabled":false,"rental_uris":{"android":"levelo://app?vid=3c81327d-9491-4c43-a28e-b4a9a9c09c30","ios":"levelo://app?vid=3c81327d-9491-4c43-a28e-b4a9a9c09c30"},"vehicle_type_id":"4","last_reported":1770852126,"current_range_meters":8000,"station_id":"ce4bh0h2rcd13ifvqd40","pricing_plan_id":"cebpf4jnsgd1na2vs0mg"},{"bike_id":"3049585f-06dd-4169-a4e3-184aafe2993f","system_id":"levelo_inurba_marseille","lat":43.26608,"lon":5.39061,"is_reserved":false,"is_disabled":false,"rental_uris":{"android":"levelo://app?vid=3049585f-06dd-4169-a4e3-184aafe2993f","ios":"levelo://app?vid=3049585f-06dd-4169-a4e3-184aafe2993f"},"vehicle_type_id":"4","last_reported":1770852126,"current_range_meters":8000,"station_id":"ce4bhe12rcd13ifvqf30","pricing_plan_id":"cebpf4jnsgd1na2vs0mg"},{"bike_id":"a1db546c-a97e-4591-aafd-91b5e1930b56","system_id":"levelo_inurba_marseille","lat":43.30746,"lon":5.42447,"is_reserved":false,"is_disabled":false,"rental_uris":{"android":"levelo://app?vid=a1db546c-a97e-4591-aafd-91b5e1930b56","ios":"levelo://app?vid=a1db546c-a97e-4591-aafd-91b5e1930b56"},"vehicle_type_id":"4","last_reported":1770852126,"current_range_meters":8000,"station_id":"st_cvj6ca6bvosntc0bfgr0","pricing_plan_id":"cebpf4jnsgd1na2vs0mg"},{"bike_id":"83547083-566a-463a-8eca-6d57242cf68e","system_id":"levelo_inurba_marseille","lat":43.31331,"lon":5.397007,"is_reserved":false,"is_disabled":false,"rental_uris":{"android":"levelo://app?vid=83547083-566a-463a-8eca-6d57242cf68e","ios":"levelo://app?vid=83547083-566a-463a-8eca-6d57242cf68e"},"vehicle_type_id":"4","last_reported":1770852126,"current_range_meters":8000,"station_id":"ce4bgvp2rcd13ifvqcu0","pricing_plan_id":"cebpf4jnsgd1na2vs0mg"},{"bike_id":"3dca28bf-bf86-4712-beab-510d41901615","system_id":"levelo_inurba_marseille","lat":43.281,"lon":5.37853,"is_reserved":false,"is_disabled":false,"rental_uris":{"android":"levelo://app?vid=3dca28bf-bf86-4712-beab-510d41901615","ios":"levelo://app?vid=3dca28bf-bf86-4712-beab-510d41901615"},"vehicle_type_id":"4","last_reported":1770852126,"current_range_meters":8000,"station_id":"ce4bha12rcd13ifvqee0","pricing_plan_id":"cebpf4jnsgd1na2vs0mg"},{"bike_id":"1575819e-1691-454c-a527-d36087e3e272","system_id":"levelo_inurba_marseille","lat":43.28423,"lon":5.37512,"is_reserved":false,"is_disabled":false,"rental_uris":{"android":"levelo://app?vid=1575819e-1691-454c-a527-d36087e3e272","ios":"levelo://app?vid=1575819e-1691-454c-a527-d36087e3e272"},"vehicle_type_id":"4","last_reported":1770852126,"current_range_meters":8000,"station_id":"ce4bh412rcd13ifvqds0","pricing_plan_id":"cebpf4jnsgd1na2vs0mg"},{"bike_id":"c1d994da-b33c-4a64-a196-28f0ec7412ca","system_id":"levelo_inurba_marseille","lat":43.31679,"lon":5.43735,"is_reserved":false,"is_disabled":false,"rental_uris":{"android":"levelo://app?vid=c1d994da-b33c-4a64-a196-28f0ec7412ca","ios":"levelo://app?vid=c1d994da-b33c-4a64-a196-28f0ec7412ca"},"vehicle_type_id":"4","last_reported":1770852126,"current_range_meters":8400,"station_id":"ce4bhp92rcd13ifvqhcg","pricing_plan_id":"cebpf4jnsgd1na2vs0mg"},{"bike_id":"cb05de58-dbc1-400d-aa8b-a6612234f1ad","system_id":"levelo_inurba_marseille","lat":43.28172,"lon":5.42636,"is_reserved":false,"is_disabled":false,"rental_uris":{"android":"levelo://app?vid=cb05de58-dbc1-400d-aa8b-a6612234f1ad","ios":"levelo://app?vid=cb05de58-dbc1-400d-aa8b-a6612234f1ad"},"vehicle_type_id":"4","last_reported":1770852126,"current_range_meters":8400,"station_id":"ce4bhnh2rcd13ifvqgug","pricing_plan_id":"cebpf4jnsgd1na2vs0mg"},{"bike_id":"db23b77c-fd00-48ae-9f64-fca8b674234f","system_id":"levelo_inurba_marseille","lat":43.29523,"lon":5.39023,"is_reserved":false,"is_disabled":false,"rental_uris":{"android":"levelo://app?vid=db23b77c-fd00-48ae-9f64-fca8b674234f","ios":"levelo://app?vid=db23b77c-fd00-48ae-9f64-fca8b674234f"},"vehicle_type_id":"4","last_reported":1770852126,"current_range_meters":8400,"station_id":"ce4bh3p2rcd13ifvqdp0","pricing_plan_id":"cebpf4jnsgd1na2vs0mg"},{"bike_id":"f80528f9-6bb1-4b22-a63c-5e57ad403fb2","system_id":"levelo_inurba_marseille","lat":43.24707,"lon":5.38153,"is_reserved":false,"is_disabled":false,"rental_uris":{"android":"levelo://app?vid=f80528f9-6bb1-4b22-a63c-5e57ad403fb2","ios":"levelo://app?vid=f80528f9-6bb1-4b22-a63c-5e57ad403fb2"},"vehicle_type_id":"4","last_reported":1770852126,"current_range_meters":8400,"station_id":"ce4bhih2rcd13ifvqfr0","pricing_plan_id":"cebpf4jnsgd1na2vs0mg"},{"bike_id":"5bedc8bc-97e5-4d15-9187-f5bfba57e305","system_id":"levelo_inurba_marseille","lat":43.31125,"lon":5.37754,"is_reserved":false,"is_disabled":false,"rental_uris":{"android":"levelo://app?vid=5bedc8bc-97e5-4d15-9187-f5bfba57e305","ios":"levelo://app?vid=5bedc8bc-97e5-4d15-9187-f5bfba57e305"},"vehicle_type_id":"4","last_reported":1770852126,"current_range_meters":8400,"station_id":"ce4bgt92rcd13ifvqcg0","pricing_plan_id":"cebpf4jnsgd1na2vs0mg"},{"bike_id":"46bd018f-3ddc-47ce-9b3f-33f22f379846","system_id":"levelo_inurba_marseille","lat":43.30547,"lon":5.38419,"is_reserved":false,"is_disabled":false,"rental_uris":{"android":"levelo://app?vid=46bd018f-3ddc-47ce-9b3f-33f22f379846","ios":"levelo://app?vid=46bd018f-3ddc-47ce-9b3f-33f22f379846"},"vehicle_type_id":"4","last_reported":1770852126,"current_range_meters":8400,"station_id":"ce4bgg92rcd13ifvqb30","pricing_plan_id":"cebpf4jnsgd1na2vs0mg"},{"bike_id":"406b8143-680c-411e-8da6-8818c609b259","system_id":"levelo_inurba_marseille","lat":43.22931,"lon":5.3538,"is_reserved":false,"is_disabled":false,"rental_uris":{"android":"levelo://app?vid=406b8143-680c-411e-8da6-8818c609b259","ios":"levelo://app?vid=406b8143-680c-411e-8da6-8818c609b259"},"vehicle_type_id":"4","last_reported":1770852126,"current_range_meters":8400,"station_id":"cpo3532slgdg3j2ikp40","pricing_plan_id":"cebpf4jnsgd1na2vs0mg"},{"bike_id":"d4f35a76-1393-47b4-bbe3-40b27d2e1530","system_id":"levelo_inurba_marseille","lat":43.30139,"lon":5.3985,"is_reserved":false,"is_disabled":false,"rental_uris":{"android":"levelo://app?vid=d4f35a76-1393-47b4-bbe3-40b27d2e1530","ios":"levelo://app?vid=d4f35a76-1393-47b4-bbe3-40b27d2e1530"},"vehicle_type_id":"4","last_reported":1770852126,"current_range_meters":8400,"station_id":"ce4bh0h2rcd13ifvqd40","pricing_plan_id":"cebpf4jnsgd1na2vs0mg"},{"bike_id":"df851928-0210-44aa-9b6b-dae103965811","system_id":"levelo_inurba_marseille","lat":43.24028,"lon":5.36238,"is_reserved":false,"is_disabled":false,"rental_uris":{"android":"levelo://app?vid=df851928-0210-44aa-9b6b-dae103965811","ios":"levelo://app?vid=df851928-0210-44aa-9b6b-dae103965811"},"vehicle_type_id":"4","last_reported":1770852126,"current_range_meters":8400,"station_id":"","pricing_plan_id":"cebpf4jnsgd1na2vs0mg"},{"bike_id":"2325f709-2312-4884-9117-4b40aa097667","system_id":"levelo_inurba_marseille","lat":43.2465,"lon":5.38889,"is_reserved":false,"is_disabled":false,"rental_uris":{"android":"levelo://app?vid=2325f709-2312-4884-9117-4b40aa097667","ios":"levelo://app?vid=2325f709-2312-4884-9117-4b40aa097667"},"vehicle_type_id":"4","last_reported":1770852126,"current_range_meters":8400,"station_id":"ce4bhg12rcd13ifvqf60","pricing_plan_id":"cebpf4jnsgd1na2vs0mg"},{"bike_id":"9f033575-6369-46b2-8ded-c3ba921253f1","system_id":"levelo_inurba_marseille","lat":43.28695,"lon":5.37406,"is_reserved":false,"is_disabled":false,"rental_uris":{"android":"levelo://app?vid=9f033575-6369-46b2-8ded-c3ba921253f1","ios":"levelo://app?vid=9f033575-6369-46b2-8ded-c3ba921253f1"},"vehicle_type_id":"4","last_reported":1770852126,"current_range_meters":8400,"station_id":"ce4bh3p2rcd13ifvqdq0","pricing_plan_id":"cebpf4jnsgd1na2vs0mg"},{"bike_id":"523c39cb-502a-4314-85ce-e95dca698dff","system_id":"levelo_inurba_marseille","lat":43.31157,"lon":5.38756,"is_reserved":false,"is_disabled":false,"rental_uris":{"android":"levelo://app?vid=523c39cb-502a-4314-85ce-e95dca698dff","ios":"levelo://app?vid=523c39cb-502a-4314-85ce-e95dca698dff"},"vehicle_type_id":"4","last_reported":1770852126,"current_range_meters":8400,"station_id":"ce4bgv12rcd13ifvqcp0","pricing_plan_id":"cebpf4jnsgd1na2vs0mg"},{"bike_id":"274ea62a-e153-4e2c-bdee-a88aa40b9a8e","system_id":"levelo_inurba_marseille","lat":43.24811,"lon":5.37459,"is_reserved":false,"is_disabled":false,"rental_uris":{"android":"levelo://app?vid=274ea62a-e153-4e2c-bdee-a88aa40b9a8e","ios":"levelo://app?vid=274ea62a-e153-4e2c-bdee-a88aa40b9a8e"},"vehicle_type_id":"4","last_reported":1770852126,"current_range_meters":8400,"station_id":"ce4bhgh2rcd13ifvqfb0","pricing_plan_id":"cebpf4jnsgd1na2vs0mg"},{"bike_id":"eb153995-5d33-4b1d-a5c0-ee8cc4302ea8","system_id":"levelo_inurba_marseille","lat":43.26604,"lon":5.39083,"is_reserved":false,"is_disabled":false,"rental_uris":{"android":"levelo://app?vid=eb153995-5d33-4b1d-a5c0-ee8cc4302ea8","ios":"levelo://app?vid=eb153995-5d33-4b1d-a5c0-ee8cc4302ea8"},"vehicle_type_id":"4","last_reported":1770852126,"current_range_meters":8800,"station_id":"","pricing_plan_id":"cebpf4jnsgd1na2vs0mg"},{"bike_id":"e9421683-8a44-4760-a496-43bb8698ca76","system_id":"levelo_inurba_marseille","lat":43.29029,"lon":5.38643,"is_reserved":false,"is_disabled":false,"rental_uris":{"android":"levelo://app?vid=e9421683-8a44-4760-a496-43bb8698ca76","ios":"levelo://app?vid=e9421683-8a44-4760-a496-43bb8698ca76"},"vehicle_type_id":"4","last_reported":1770852126,"current_range_meters":8800,"station_id":"ce4bh4p2rcd13ifvqe0g","pricing_plan_id":"cebpf4jnsgd1na2vs0mg"},{"bike_id":"adedccca-d77d-4967-91ed-2661b5b510ba","system_id":"levelo_inurba_marseille","lat":43.225587,"lon":5.416273,"is_reserved":false,"is_disabled":false,"rental_uris":{"android":"levelo://app?vid=adedccca-d77d-4967-91ed-2661b5b510ba","ios":"levelo://app?vid=adedccca-d77d-4967-91ed-2661b5b510ba"},"vehicle_type_id":"4","last_reported":1770852126,"current_range_meters":8800,"station_id":"st_d2o4gvlbi1j2169b742g","pricing_plan_id":"cebpf4jnsgd1na2vs0mg"},{"bike_id":"062188ea-bb7c-4305-9db6-8d3c62c894c4","system_id":"levelo_inurba_marseille","lat":43.30268,"lon":5.4005,"is_reserved":false,"is_disabled":false,"rental_uris":{"android":"levelo://app?vid=062188ea-bb7c-4305-9db6-8d3c62c894c4","ios":"levelo://app?vid=062188ea-bb7c-4305-9db6-8d3c62c894c4"},"vehicle_type_id":"4","last_reported":1770852126,"current_range_meters":8800,"station_id":"ce4bgvh2rcd13ifvqcs0","pricing_plan_id":"cebpf4jnsgd1na2vs0mg"},{"bike_id":"661c1ad9-8e78-490b-aa77-0dd317a910f6","system_id":"levelo_inurba_marseille","lat":43.272121,"lon":5.391934,"is_reserved":false,"is_disabled":true,"rental_uris":{"android":"levelo://app?vid=661c1ad9-8e78-490b-aa77-0dd317a910f6","ios":"levelo://app?vid=661c1ad9-8e78-490b-aa77-0dd317a910f6"},"vehicle_type_id":"4","last_reported":1770852126,"current_range_meters":8800,"station_id":"ce4bhhp2rcd13ifvqfm0","pricing_plan_id":"cebpf4jnsgd1na2vs0mg"},{"bike_id":"df15c576-fb6d-4d04-ae5c-9f90a70bc826","system_id":"levelo_inurba_marseille","lat":43.30153,"lon":5.38065,"is_reserved":false,"is_disabled":false,"rental_uris":{"android":"levelo://app?vid=df15c576-fb6d-4d04-ae5c-9f90a70bc826","ios":"levelo://app?vid=df15c576-fb6d-4d04-ae5c-9f90a70bc826"},"vehicle_type_id":"4","last_reported":1770852126,"current_range_meters":8800,"station_id":"ce4bgjp2rcd13ifvqbh0","pricing_plan_id":"cebpf4jnsgd1na2vs0mg"},{"bike_id":"e6191106-931c-4b85-a4d8-214c1c34ad15","system_id":"levelo_inurba_marseille","lat":43.301386,"lon":5.398614,"is_reserved":false,"is_disabled":false,"rental_uris":{"android":"levelo://app?vid=e6191106-931c-4b85-a4d8-214c1c34ad15","ios":"levelo://app?vid=e6191106-931c-4b85-a4d8-214c1c34ad15"},"vehicle_type_id":"4","last_reported":1770852126,"current_range_meters":8800,"station_id":"ce4bh0h2rcd13ifvqd40","pricing_plan_id":"cebpf4jnsgd1na2vs0mg"},{"bike_id":"7373e048-0697-42be-9a17-d478c47616d8","system_id":"levelo_inurba_marseille","lat":43.29163,"lon":5.38629,"is_reserved":false,"is_disabled":false,"rental_uris":{"android":"levelo://app?vid=7373e048-0697-42be-9a17-d478c47616d8","ios":"levelo://app?vid=7373e048-0697-42be-9a17-d478c47616d8"},"vehicle_type_id":"4","last_reported":1770852126,"current_range_meters":8800,"station_id":"ce4bh4p2rcd13ifvqe0g","pricing_plan_id":"cebpf4jnsgd1na2vs0mg"},{"bike_id":"86af84ac-783a-4579-b02b-799f57f5fe48","system_id":"levelo_inurba_marseille","lat":43.29312,"lon":5.37172,"is_reserved":false,"is_disabled":false,"rental_uris":{"android":"levelo://app?vid=86af84ac-783a-4579-b02b-799f57f5fe48","ios":"levelo://app?vid=86af84ac-783a-4579-b02b-799f57f5fe48"},"vehicle_type_id":"4","last_reported":1770852126,"current_range_meters":8800,"station_id":"ce4bgh92rcd13ifvqb40","pricing_plan_id":"cebpf4jnsgd1na2vs0mg"},{"bike_id":"cb9be5fc-0f8f-4012-b222-62b158765b42","system_id":"levelo_inurba_marseille","lat":43.22931,"lon":5.35396,"is_reserved":false,"is_disabled":false,"rental_uris":{"android":"levelo://app?vid=cb9be5fc-0f8f-4012-b222-62b158765b42","ios":"levelo://app?vid=cb9be5fc-0f8f-4012-b222-62b158765b42"},"vehicle_type_id":"4","last_reported":1770852126,"current_range_meters":8800,"station_id":"cpo3532slgdg3j2ikp40","pricing_plan_id":"cebpf4jnsgd1na2vs0mg"},{"bike_id":"43dde8b4-0fb7-4149-a928-ee1cef6b60f0","system_id":"levelo_inurba_marseille","lat":43.3405,"lon":5.36128,"is_reserved":false,"is_disabled":false,"rental_uris":{"android":"levelo://app?vid=43dde8b4-0fb7-4149-a928-ee1cef6b60f0","ios":"levelo://app?vid=43dde8b4-0fb7-4149-a928-ee1cef6b60f0"},"vehicle_type_id":"4","last_reported":1770852126,"current_range_meters":8800,"station_id":"","pricing_plan_id":"cebpf4jnsgd1na2vs0mg"},{"bike_id":"31a7a706-1ff4-486d-b0ea-aa0afb881a3f","system_id":"levelo_inurba_marseille","lat":43.31094,"lon":5.38499,"is_reserved":false,"is_disabled":false,"rental_uris":{"android":"levelo://app?vid=31a7a706-1ff4-486d-b0ea-aa0afb881a3f","ios":"levelo://app?vid=31a7a706-1ff4-486d-b0ea-aa0afb881a3f"},"vehicle_type_id":"4","last_reported":1770852126,"current_range_meters":8800,"station_id":"","pricing_plan_id":"cebpf4jnsgd1na2vs0mg"},{"bike_id":"48e51c2c-d55f-4098-8ec5-eb37bd86ae9a","system_id":"levelo_inurba_marseille","lat":43.28516,"lon":5.38928,"is_reserved":false,"is_disabled":false,"rental_uris":{"android":"levelo://app?vid=48e51c2c-d55f-4098-8ec5-eb37bd86ae9a","ios":"levelo://app?vid=48e51c2c-d55f-4098-8ec5-eb37bd86ae9a"},"vehicle_type_id":"4","last_reported":1770852126,"current_range_meters":8800,"station_id":"","pricing_plan_id":"cebpf4jnsgd1na2vs0mg"},{"bike_id":"8f6b4977-c372-461d-bafb-b1e5cde75c02","system_id":"levelo_inurba_marseille","lat":43.27499,"lon":5.42441,"is_reserved":false,"is_disabled":false,"rental_uris":{"android":"levelo://app?vid=8f6b4977-c372-461d-bafb-b1e5cde75c02","ios":"levelo://app?vid=8f6b4977-c372-461d-bafb-b1e5cde75c02"},"vehicle_type_id":"4","last_reported":1770852126,"current_range_meters":8800,"station_id":"ce4bhn92rcd13ifvqgrg","pricing_plan_id":"cebpf4jnsgd1na2vs0mg"},{"bike_id":"0a4ea903-ee33-4db6-a318-89c0f17cc64d","system_id":"levelo_inurba_marseille","lat":43.28849,"lon":5.3932,"is_reserved":false,"is_disabled":false,"rental_uris":{"android":"levelo://app?vid=0a4ea903-ee33-4db6-a318-89c0f17cc64d","ios":"levelo://app?vid=0a4ea903-ee33-4db6-a318-89c0f17cc64d"},"vehicle_type_id":"4","last_reported":1770852126,"current_range_meters":8800,"station_id":"ce4bh2p2rcd13ifvqdi0","pricing_plan_id":"cebpf4jnsgd1na2vs0mg"},{"bike_id":"3159301f-1013-4443-9e9c-959090e8db43","system_id":"levelo_inurba_marseille","lat":43.29287,"lon":5.36762,"is_reserved":false,"is_disabled":true,"rental_uris":{"android":"levelo://app?vid=3159301f-1013-4443-9e9c-959090e8db43","ios":"levelo://app?vid=3159301f-1013-4443-9e9c-959090e8db43"},"vehicle_type_id":"4","last_reported":1770852126,"current_range_meters":8800,"station_id":"ce4bhbp2rcd13ifvqesg","pricing_plan_id":"cebpf4jnsgd1na2vs0mg"},{"bike_id":"a1d93ba8-2dd0-436c-bba7-a53d5370b9b0","system_id":"levelo_inurba_marseille","lat":43.28848,"lon":5.35836,"is_reserved":false,"is_disabled":false,"rental_uris":{"android":"levelo://app?vid=a1d93ba8-2dd0-436c-bba7-a53d5370b9b0","ios":"levelo://app?vid=a1d93ba8-2dd0-436c-bba7-a53d5370b9b0"},"vehicle_type_id":"4","last_reported":1770852126,"current_range_meters":8800,"station_id":"ce4bhb12rcd13ifvqem0","pricing_plan_id":"cebpf4jnsgd1na2vs0mg"},{"bike_id":"1666b265-643d-41e7-bcc3-6167a6d49f91","system_id":"levelo_inurba_marseille","lat":43.225459,"lon":5.348228,"is_reserved":false,"is_disabled":false,"rental_uris":{"android":"levelo://app?vid=1666b265-643d-41e7-bcc3-6167a6d49f91","ios":"levelo://app?vid=1666b265-643d-41e7-bcc3-6167a6d49f91"},"vehicle_type_id":"4","last_reported":1770852126,"current_range_meters":9200,"station_id":"","pricing_plan_id":"cebpf4jnsgd1na2vs0mg"},{"bike_id":"eca4816e-45f0-4ac2-b99c-c0c67a590391","system_id":"levelo_inurba_marseille","lat":43.31182,"lon":5.38709,"is_reserved":false,"is_disabled":false,"rental_uris":{"android":"levelo://app?vid=eca4816e-45f0-4ac2-b99c-c0c67a590391","ios":"levelo://app?vid=eca4816e-45f0-4ac2-b99c-c0c67a590391"},"vehicle_type_id":"4","last_reported":1770852126,"current_range_meters":9200,"station_id":"ce4bgv12rcd13ifvqcp0","pricing_plan_id":"cebpf4jnsgd1na2vs0mg"},{"bike_id":"e8f6072d-cb7a-4c92-910e-c0ad88e47ede","system_id":"levelo_inurba_marseille","lat":43.25089,"lon":5.39512,"is_reserved":false,"is_disabled":false,"rental_uris":{"android":"levelo://app?vid=e8f6072d-cb7a-4c92-910e-c0ad88e47ede","ios":"levelo://app?vid=e8f6072d-cb7a-4c92-910e-c0ad88e47ede"},"vehicle_type_id":"4","last_reported":1770852126,"current_range_meters":9200,"station_id":"ce4bhm12rcd13ifvqgkg","pricing_plan_id":"cebpf4jnsgd1na2vs0mg"},{"bike_id":"14f61e44-8496-49e1-8819-a0328677c7db","system_id":"levelo_inurba_marseille","lat":43.24981,"lon":5.40428,"is_reserved":false,"is_disabled":false,"rental_uris":{"android":"levelo://app?vid=14f61e44-8496-49e1-8819-a0328677c7db","ios":"levelo://app?vid=14f61e44-8496-49e1-8819-a0328677c7db"},"vehicle_type_id":"4","last_reported":1770852126,"current_range_meters":9200,"station_id":"","pricing_plan_id":"cebpf4jnsgd1na2vs0mg"},{"bike_id":"4f6799ab-1f1b-458c-b591-107c4b5d714f","system_id":"levelo_inurba_marseille","lat":43.312726,"lon":5.401681,"is_reserved":false,"is_disabled":false,"rental_uris":{"android":"levelo://app?vid=4f6799ab-1f1b-458c-b591-107c4b5d714f","ios":"levelo://app?vid=4f6799ab-1f1b-458c-b591-107c4b5d714f"},"vehicle_type_id":"4","last_reported":1770852126,"current_range_meters":9200,"station_id":"ce4bh092rcd13ifvqd30","pricing_plan_id":"cebpf4jnsgd1na2vs0mg"},{"bike_id":"6b1615c6-ed15-4f54-a909-9987a18221e0","system_id":"levelo_inurba_marseille","lat":43.28697,"lon":5.37412,"is_reserved":false,"is_disabled":false,"rental_uris":{"android":"levelo://app?vid=6b1615c6-ed15-4f54-a909-9987a18221e0","ios":"levelo://app?vid=6b1615c6-ed15-4f54-a909-9987a18221e0"},"vehicle_type_id":"4","last_reported":1770852126,"current_range_meters":9200,"station_id":"ce4bh3p2rcd13ifvqdq0","pricing_plan_id":"cebpf4jnsgd1na2vs0mg"},{"bike_id":"d98f09ff-8b59-4519-baee-c61bc86adc1e","system_id":"levelo_inurba_marseille","lat":43.29492,"lon":5.43299,"is_reserved":false,"is_disabled":false,"rental_uris":{"android":"levelo://app?vid=d98f09ff-8b59-4519-baee-c61bc86adc1e","ios":"levelo://app?vid=d98f09ff-8b59-4519-baee-c61bc86adc1e"},"vehicle_type_id":"4","last_reported":1770852126,"current_range_meters":9200,"station_id":"st_d3j5ugp08ojc73fj9d10","pricing_plan_id":"cebpf4jnsgd1na2vs0mg"},{"bike_id":"65105307-5cc2-4d11-b2c7-4fc5135f2c9f","system_id":"levelo_inurba_marseille","lat":43.31354,"lon":5.39571,"is_reserved":false,"is_disabled":false,"rental_uris":{"android":"levelo://app?vid=65105307-5cc2-4d11-b2c7-4fc5135f2c9f","ios":"levelo://app?vid=65105307-5cc2-4d11-b2c7-4fc5135f2c9f"},"vehicle_type_id":"4","last_reported":1770852126,"current_range_meters":9200,"station_id":"","pricing_plan_id":"cebpf4jnsgd1na2vs0mg"},{"bike_id":"5bf74107-2605-4f6d-a2d8-ffd2d1955b5f","system_id":"levelo_inurba_marseille","lat":43.30324,"lon":5.40436,"is_reserved":false,"is_disabled":false,"rental_uris":{"android":"levelo://app?vid=5bf74107-2605-4f6d-a2d8-ffd2d1955b5f","ios":"levelo://app?vid=5bf74107-2605-4f6d-a2d8-ffd2d1955b5f"},"vehicle_type_id":"4","last_reported":1770852126,"current_range_meters":9200,"station_id":"ce4bh012rcd13ifvqd10","pricing_plan_id":"cebpf4jnsgd1na2vs0mg"},{"bike_id":"e4e339ef-9ecd-4aac-a718-7fda12e4c40e","system_id":"levelo_inurba_marseille","lat":43.24946,"lon":5.40508,"is_reserved":false,"is_disabled":false,"rental_uris":{"android":"levelo://app?vid=e4e339ef-9ecd-4aac-a718-7fda12e4c40e","ios":"levelo://app?vid=e4e339ef-9ecd-4aac-a718-7fda12e4c40e"},"vehicle_type_id":"4","last_reported":1770852126,"current_range_meters":9200,"station_id":"st_d2ngiaodas8pm72gd1h0","pricing_plan_id":"cebpf4jnsgd1na2vs0mg"},{"bike_id":"5ecdca59-da81-4119-a256-c37296e94b7b","system_id":"levelo_inurba_marseille","lat":43.29479,"lon":5.43338,"is_reserved":false,"is_disabled":false,"rental_uris":{"android":"levelo://app?vid=5ecdca59-da81-4119-a256-c37296e94b7b","ios":"levelo://app?vid=5ecdca59-da81-4119-a256-c37296e94b7b"},"vehicle_type_id":"4","last_reported":1770852126,"current_range_meters":9200,"station_id":"st_d3j5ugp08ojc73fj9d10","pricing_plan_id":"cebpf4jnsgd1na2vs0mg"},{"bike_id":"608ce379-f6f9-4a1f-a935-93248eb882ba","system_id":"levelo_inurba_marseille","lat":43.30676,"lon":5.40089,"is_reserved":false,"is_disabled":true,"rental_uris":{"android":"levelo://app?vid=608ce379-f6f9-4a1f-a935-93248eb882ba","ios":"levelo://app?vid=608ce379-f6f9-4a1f-a935-93248eb882ba"},"vehicle_type_id":"4","last_reported":1770852126,"current_range_meters":9200,"station_id":"ce4bh112rcd13ifvqda0","pricing_plan_id":"cebpf4jnsgd1na2vs0mg"},{"bike_id":"b0088b6c-d34b-407e-b0d7-ea6ce590ba24","system_id":"levelo_inurba_marseille","lat":43.28459,"lon":5.35878,"is_reserved":false,"is_disabled":false,"rental_uris":{"android":"levelo://app?vid=b0088b6c-d34b-407e-b0d7-ea6ce590ba24","ios":"levelo://app?vid=b0088b6c-d34b-407e-b0d7-ea6ce590ba24"},"vehicle_type_id":"4","last_reported":1770852126,"current_range_meters":9200,"station_id":"ce4bhah2rcd13ifvqei0","pricing_plan_id":"cebpf4jnsgd1na2vs0mg"},{"bike_id":"ec62a230-b4b8-4847-9d7e-743ca8d7b6aa","system_id":"levelo_inurba_marseille","lat":43.2794,"lon":5.4103,"is_reserved":false,"is_disabled":false,"rental_uris":{"android":"levelo://app?vid=ec62a230-b4b8-4847-9d7e-743ca8d7b6aa","ios":"levelo://app?vid=ec62a230-b4b8-4847-9d7e-743ca8d7b6aa"},"vehicle_type_id":"4","last_reported":1770852126,"current_range_meters":9200,"station_id":"ce4bhnp2rcd13ifvqh0g","pricing_plan_id":"cebpf4jnsgd1na2vs0mg"},{"bike_id":"2cf2ef66-b332-43a1-bcc1-d25206d35422","system_id":"levelo_inurba_marseille","lat":43.286963,"lon":5.373938,"is_reserved":false,"is_disabled":false,"rental_uris":{"android":"levelo://app?vid=2cf2ef66-b332-43a1-bcc1-d25206d35422","ios":"levelo://app?vid=2cf2ef66-b332-43a1-bcc1-d25206d35422"},"vehicle_type_id":"4","last_reported":1770852126,"current_range_meters":9200,"station_id":"ce4bh3p2rcd13ifvqdq0","pricing_plan_id":"cebpf4jnsgd1na2vs0mg"},{"bike_id":"bd334df6-c164-496c-9857-d0540d57e40a","system_id":"levelo_inurba_marseille","lat":43.31893,"lon":5.40724,"is_reserved":false,"is_disabled":false,"rental_uris":{"android":"levelo://app?vid=bd334df6-c164-496c-9857-d0540d57e40a","ios":"levelo://app?vid=bd334df6-c164-496c-9857-d0540d57e40a"},"vehicle_type_id":"4","last_reported":1770852126,"current_range_meters":9600,"station_id":"ce4bhq12rcd13ifvqhig","pricing_plan_id":"cebpf4jnsgd1na2vs0mg"},{"bike_id":"6ac1e8d6-7c90-4600-9479-b781281726c6","system_id":"levelo_inurba_marseille","lat":43.28161,"lon":5.42642,"is_reserved":false,"is_disabled":false,"rental_uris":{"android":"levelo://app?vid=6ac1e8d6-7c90-4600-9479-b781281726c6","ios":"levelo://app?vid=6ac1e8d6-7c90-4600-9479-b781281726c6"},"vehicle_type_id":"4","last_reported":1770852126,"current_range_meters":9600,"station_id":"ce4bhnh2rcd13ifvqgug","pricing_plan_id":"cebpf4jnsgd1na2vs0mg"},{"bike_id":"9d737d6f-8edf-4cdf-8cf6-b3ddcb3c4861","system_id":"levelo_inurba_marseille","lat":43.2791,"lon":5.39587,"is_reserved":false,"is_disabled":false,"rental_uris":{"android":"levelo://app?vid=9d737d6f-8edf-4cdf-8cf6-b3ddcb3c4861","ios":"levelo://app?vid=9d737d6f-8edf-4cdf-8cf6-b3ddcb3c4861"},"vehicle_type_id":"4","last_reported":1770852126,"current_range_meters":9600,"station_id":"ce4bhf92rcd13ifvqf40","pricing_plan_id":"cebpf4jnsgd1na2vs0mg"},{"bike_id":"5f6ae4c8-a7cd-4f3b-9adf-671bbd618c70","system_id":"levelo_inurba_marseille","lat":43.25577,"lon":5.38227,"is_reserved":false,"is_disabled":false,"rental_uris":{"android":"levelo://app?vid=5f6ae4c8-a7cd-4f3b-9adf-671bbd618c70","ios":"levelo://app?vid=5f6ae4c8-a7cd-4f3b-9adf-671bbd618c70"},"vehicle_type_id":"4","last_reported":1770852126,"current_range_meters":9600,"station_id":"ce4bhih2rcd13ifvqfs0","pricing_plan_id":"cebpf4jnsgd1na2vs0mg"},{"bike_id":"d68d0ef1-979f-4e42-a1e1-e3e83de8da0b","system_id":"levelo_inurba_marseille","lat":43.31085,"lon":5.42431,"is_reserved":false,"is_disabled":false,"rental_uris":{"android":"levelo://app?vid=d68d0ef1-979f-4e42-a1e1-e3e83de8da0b","ios":"levelo://app?vid=d68d0ef1-979f-4e42-a1e1-e3e83de8da0b"},"vehicle_type_id":"4","last_reported":1770852126,"current_range_meters":9600,"station_id":"ce4bhp92rcd13ifvqhag","pricing_plan_id":"cebpf4jnsgd1na2vs0mg"},{"bike_id":"f2392119-7f02-4ead-bf5e-9802d8bbf91d","system_id":"levelo_inurba_marseille","lat":43.29636,"lon":5.40604,"is_reserved":false,"is_disabled":false,"rental_uris":{"android":"levelo://app?vid=f2392119-7f02-4ead-bf5e-9802d8bbf91d","ios":"levelo://app?vid=f2392119-7f02-4ead-bf5e-9802d8bbf91d"},"vehicle_type_id":"4","last_reported":1770852126,"current_range_meters":9600,"station_id":"ce4bh0h2rcd13ifvqd60","pricing_plan_id":"cebpf4jnsgd1na2vs0mg"},{"bike_id":"6d146b90-da11-4bbb-b527-7da7e2561db2","system_id":"levelo_inurba_marseille","lat":43.28486,"lon":5.48368,"is_reserved":false,"is_disabled":false,"rental_uris":{"android":"levelo://app?vid=6d146b90-da11-4bbb-b527-7da7e2561db2","ios":"levelo://app?vid=6d146b90-da11-4bbb-b527-7da7e2561db2"},"vehicle_type_id":"4","last_reported":1770852126,"current_range_meters":9600,"station_id":"st_d3svhcjqgbts73a3dn0g","pricing_plan_id":"cebpf4jnsgd1na2vs0mg"},{"bike_id":"bb6faa0c-4182-45af-b174-e42f3eae8837","system_id":"levelo_inurba_marseille","lat":43.24643,"lon":5.38933,"is_reserved":false,"is_disabled":false,"rental_uris":{"android":"levelo://app?vid=bb6faa0c-4182-45af-b174-e42f3eae8837","ios":"levelo://app?vid=bb6faa0c-4182-45af-b174-e42f3eae8837"},"vehicle_type_id":"4","last_reported":1770852126,"current_range_meters":9600,"station_id":"ce4bhg12rcd13ifvqf60","pricing_plan_id":"cebpf4jnsgd1na2vs0mg"},{"bike_id":"7f112df5-018e-4586-90da-c694474635ac","system_id":"levelo_inurba_marseille","lat":43.28604,"lon":5.39871,"is_reserved":false,"is_disabled":false,"rental_uris":{"android":"levelo://app?vid=7f112df5-018e-4586-90da-c694474635ac","ios":"levelo://app?vid=7f112df5-018e-4586-90da-c694474635ac"},"vehicle_type_id":"4","last_reported":1770852126,"current_range_meters":9600,"station_id":"st_d4a7ka997mjs738ck50g","pricing_plan_id":"cebpf4jnsgd1na2vs0mg"},{"bike_id":"8f3a9ea3-3d5f-4beb-8e6c-40222b0c90d4","system_id":"levelo_inurba_marseille","lat":43.28373,"lon":5.35353,"is_reserved":false,"is_disabled":false,"rental_uris":{"android":"levelo://app?vid=8f3a9ea3-3d5f-4beb-8e6c-40222b0c90d4","ios":"levelo://app?vid=8f3a9ea3-3d5f-4beb-8e6c-40222b0c90d4"},"vehicle_type_id":"4","last_reported":1770852126,"current_range_meters":9600,"station_id":"","pricing_plan_id":"cebpf4jnsgd1na2vs0mg"},{"bike_id":"73022bc6-390d-4043-a19d-d1ca32a8b2f8","system_id":"levelo_inurba_marseille","lat":43.25333,"lon":5.42166,"is_reserved":false,"is_disabled":false,"rental_uris":{"android":"levelo://app?vid=73022bc6-390d-4043-a19d-d1ca32a8b2f8","ios":"levelo://app?vid=73022bc6-390d-4043-a19d-d1ca32a8b2f8"},"vehicle_type_id":"4","last_reported":1770852126,"current_range_meters":9600,"station_id":"st_d2m65c5bi1j21697t3ng","pricing_plan_id":"cebpf4jnsgd1na2vs0mg"},{"bike_id":"294fabbf-8a05-444a-b881-7ef6351bc000","system_id":"levelo_inurba_marseille","lat":43.28102,"lon":5.37862,"is_reserved":false,"is_disabled":false,"rental_uris":{"android":"levelo://app?vid=294fabbf-8a05-444a-b881-7ef6351bc000","ios":"levelo://app?vid=294fabbf-8a05-444a-b881-7ef6351bc000"},"vehicle_type_id":"4","last_reported":1770852126,"current_range_meters":9600,"station_id":"ce4bha12rcd13ifvqee0","pricing_plan_id":"cebpf4jnsgd1na2vs0mg"},{"bike_id":"5e1483a8-5297-42d2-bcf2-2e56b3cf77b6","system_id":"levelo_inurba_marseille","lat":43.27929,"lon":5.39578,"is_reserved":false,"is_disabled":false,"rental_uris":{"android":"levelo://app?vid=5e1483a8-5297-42d2-bcf2-2e56b3cf77b6","ios":"levelo://app?vid=5e1483a8-5297-42d2-bcf2-2e56b3cf77b6"},"vehicle_type_id":"4","last_reported":1770852126,"current_range_meters":9600,"station_id":"ce4bhf92rcd13ifvqf40","pricing_plan_id":"cebpf4jnsgd1na2vs0mg"},{"bike_id":"820102d8-4bf3-43d0-bf33-9724fbbf610e","system_id":"levelo_inurba_marseille","lat":43.28157,"lon":5.42639,"is_reserved":false,"is_disabled":false,"rental_uris":{"android":"levelo://app?vid=820102d8-4bf3-43d0-bf33-9724fbbf610e","ios":"levelo://app?vid=820102d8-4bf3-43d0-bf33-9724fbbf610e"},"vehicle_type_id":"4","last_reported":1770852126,"current_range_meters":9600,"station_id":"ce4bhnh2rcd13ifvqgug","pricing_plan_id":"cebpf4jnsgd1na2vs0mg"},{"bike_id":"84b303d8-229a-4ab6-b401-e3fea30572e9","system_id":"levelo_inurba_marseille","lat":43.29521,"lon":5.39404,"is_reserved":false,"is_disabled":false,"rental_uris":{"android":"levelo://app?vid=84b303d8-229a-4ab6-b401-e3fea30572e9","ios":"levelo://app?vid=84b303d8-229a-4ab6-b401-e3fea30572e9"},"vehicle_type_id":"4","last_reported":1770852126,"current_range_meters":9600,"station_id":"ce4bh292rcd13ifvqdf0","pricing_plan_id":"cebpf4jnsgd1na2vs0mg"},{"bike_id":"f5dfc69a-605e-4870-9f15-288a758bb79e","system_id":"levelo_inurba_marseille","lat":43.29767,"lon":5.42783,"is_reserved":false,"is_disabled":false,"rental_uris":{"android":"levelo://app?vid=f5dfc69a-605e-4870-9f15-288a758bb79e","ios":"levelo://app?vid=f5dfc69a-605e-4870-9f15-288a758bb79e"},"vehicle_type_id":"4","last_reported":1770852126,"current_range_meters":9600,"station_id":"st_d3md5207bmas73dh9klg","pricing_plan_id":"cebpf4jnsgd1na2vs0mg"},{"bike_id":"e904dd17-ace2-4b0e-93d3-285bfd5f9a4c","system_id":"levelo_inurba_marseille","lat":43.29777,"lon":5.37095,"is_reserved":false,"is_disabled":false,"rental_uris":{"android":"levelo://app?vid=e904dd17-ace2-4b0e-93d3-285bfd5f9a4c","ios":"levelo://app?vid=e904dd17-ace2-4b0e-93d3-285bfd5f9a4c"},"vehicle_type_id":"4","last_reported":1770852126,"current_range_meters":9600,"station_id":"ce4bgop2rcd13ifvqc1g","pricing_plan_id":"cebpf4jnsgd1na2vs0mg"},{"bike_id":"a0f00b77-3668-4cb1-9cb3-dbbe136dba2b","system_id":"levelo_inurba_marseille","lat":43.25582,"lon":5.3825,"is_reserved":false,"is_disabled":false,"rental_uris":{"android":"levelo://app?vid=a0f00b77-3668-4cb1-9cb3-dbbe136dba2b","ios":"levelo://app?vid=a0f00b77-3668-4cb1-9cb3-dbbe136dba2b"},"vehicle_type_id":"4","last_reported":1770852126,"current_range_meters":9600,"station_id":"ce4bhih2rcd13ifvqfs0","pricing_plan_id":"cebpf4jnsgd1na2vs0mg"},{"bike_id":"46795c32-d155-4823-a0f3-872b06d1e11d","system_id":"levelo_inurba_marseille","lat":43.21753,"lon":5.34603,"is_reserved":false,"is_disabled":false,"rental_uris":{"android":"levelo://app?vid=46795c32-d155-4823-a0f3-872b06d1e11d","ios":"levelo://app?vid=46795c32-d155-4823-a0f3-872b06d1e11d"},"vehicle_type_id":"4","last_reported":1770852126,"current_range_meters":9600,"station_id":"","pricing_plan_id":"cebpf4jnsgd1na2vs0mg"},{"bike_id":"3d3d88ee-ed7c-4568-9649-490d356c279b","system_id":"levelo_inurba_marseille","lat":43.29214,"lon":5.36069,"is_reserved":false,"is_disabled":false,"rental_uris":{"android":"levelo://app?vid=3d3d88ee-ed7c-4568-9649-490d356c279b","ios":"levelo://app?vid=3d3d88ee-ed7c-4568-9649-490d356c279b"},"vehicle_type_id":"4","last_reported":1770852126,"current_range_meters":9600,"station_id":"ce4bhbh2rcd13ifvqeqg","pricing_plan_id":"cebpf4jnsgd1na2vs0mg"},{"bike_id":"2c280c3f-a671-4116-a330-c5490eb16528","system_id":"levelo_inurba_marseille","lat":43.24668,"lon":5.38158,"is_reserved":false,"is_disabled":false,"rental_uris":{"android":"levelo://app?vid=2c280c3f-a671-4116-a330-c5490eb16528","ios":"levelo://app?vid=2c280c3f-a671-4116-a330-c5490eb16528"},"vehicle_type_id":"4","last_reported":1770852126,"current_range_meters":9600,"station_id":"ce4bhih2rcd13ifvqfr0","pricing_plan_id":"cebpf4jnsgd1na2vs0mg"},{"bike_id":"989b5b08-d948-4be9-bc29-7318c8ff2142","system_id":"levelo_inurba_marseille","lat":43.24633,"lon":5.43145,"is_reserved":false,"is_disabled":false,"rental_uris":{"android":"levelo://app?vid=989b5b08-d948-4be9-bc29-7318c8ff2142","ios":"levelo://app?vid=989b5b08-d948-4be9-bc29-7318c8ff2142"},"vehicle_type_id":"4","last_reported":1770852126,"current_range_meters":9600,"station_id":"st_d2m6c4gdas8pm72e190g","pricing_plan_id":"cebpf4jnsgd1na2vs0mg"},{"bike_id":"a521bf28-9bbd-442d-ab9f-54179b7dcb84","system_id":"levelo_inurba_marseille","lat":43.30934,"lon":5.40179,"is_reserved":false,"is_disabled":false,"rental_uris":{"android":"levelo://app?vid=a521bf28-9bbd-442d-ab9f-54179b7dcb84","ios":"levelo://app?vid=a521bf28-9bbd-442d-ab9f-54179b7dcb84"},"vehicle_type_id":"4","last_reported":1770852126,"current_range_meters":10000,"station_id":"ce4bgvp2rcd13ifvqct0","pricing_plan_id":"cebpf4jnsgd1na2vs0mg"},