{"last_updated":1703617535,"ttl":30,"version":"2.2","data":{"bikes":[{"bike_id":"359a5d7c-9e6a-470e-bb1c-233de3183714","system_id":"levelo_inurba_marseille","lat":43.312239,"lon":5.368562,"is_reserved":false,"is_disabled":false,"rental_uris":{"android":"levelo://app?vid=359a5d7c-9e6a-470e-bb1c-233de3183714","ios":"levelo://app?vid=359a5d7c-9e6a-470e-bb1c-233de3183714"},"vehicle_type_id":"4","last_reported":1703617535,"current_range_meters":26000,"station_id":"ce4bgl92rcd13ifvqbq0","pricing_plan_id":"free"},{"bike_id":"e075fba3-6aba-4538-a7e2-5aaeb94b9f46","system_id":"levelo_inurba_marseille","lat":43.312239,"lon":5.368562,"is_reserved":false,"is_disabled":false,"rental_uris":{"android":"levelo://app?vid=e075fba3-6aba-4538-a7e2-5aaeb94b9f46","ios":"levelo://app?vid=e075fba3-6aba-4538-a7e2-5aaeb94b9f46"},"vehicle_type_id":"4","last_reported":1703617535,"current_range_meters":20800,"station_id":"ce4bgl92rcd13ifvqbq0","pricing_plan_id":"free"},{"bike_id":"b87ce8f5-256c-4188-af24-88f4e141d07a","system_id":"levelo_inurba_marseille","lat":43.309076,"lon":5.368465,"is_reserved":false,"is_disabled":false,"rental_uris":{"android":"levelo://app?vid=b87ce8f5-256c-4188-af24-88f4e141d07a","ios":"levelo://app?vid=b87ce8f5-256c-4188-af24-88f4e141d07a"},"vehicle_type_id":"4","last_reported":1703617535,"current_range_meters":20000,"station_id":"ce4bgn92rcd13ifvqbvg","pricing_plan_id":"free"},{"bike_id":"b931d269-f7ba-46db-ba3a-b5519adb677d","system_id":"levelo_inurba_marseille","lat":43.314811,"lon":5.373103,"is_reserved":false,"is_disabled":false,"rental_uris":{"android":"levelo://app?vid=b931d269-f7ba-46db-ba3a-b5519adb677d","ios":"levelo://app?vid=b931d269-f7ba-46db-ba3a-b5519adb677d"},"vehicle_type_id":"4","last_reported":1703617535,"current_range_meters":31600,"station_id":"ce4bgt12rcd13ifvqcd0","pricing_plan_id":"free"},{"bike_id":"750388b3-b6d6-461f-8fed-d482843d7a3c","system_id":"levelo_inurba_marseille","lat":43.314811,"lon":5.373104,"is_reserved":false,"is_disabled":false,"rental_uris":{"android":"levelo://app?vid=750388b3-b6d6-461f-8fed-d482843d7a3c","ios":"levelo://app?vid=750388b3-b6d6-461f-8fed-d482843d7a3c"},"vehicle_type_id":"4","last_reported":1703617535,"current_range_meters":30000,"station_id":"ce4bgt12rcd13ifvqcd0","pricing_plan_id":"free"},{"bike_id":"fe032cb2-9303-4e00-a8b5-bc010f01750a","system_id":"levelo_inurba_marseille","lat":43.31487,"lon":5.37312,"is_reserved":false,"is_disabled":false,"rental_uris":{"android":"levelo://app?vid=fe032cb2-9303-4e00-a8b5-bc010f01750a","ios":"levelo://app?vid=fe032cb2-9303-4e00-a8b5-bc010f01750a"},"vehicle_type_id":"4","last_reported":1703617535,"current_range_meters":27600,"station_id":"","pricing_plan_id":"free"},{"bike_id":"98fc8f36-009c-49c0-bde9-eaacf0237add","system_id":"levelo_inurba_marseille","lat":43.314934,"lon":5.373924,"is_reserved":false,"is_disabled":false,"rental_uris":{"android":"levelo://app?vid=98fc8f36-009c-49c0-bde9-eaacf0237add","ios":"levelo://app?vid=98fc8f36-009c-49c0-bde9-eaacf0237add"},"vehicle_type_id":"4","last_reported":1703617535,"current_range_meters":24800,"station_id":"","pricing_plan_id":"free"},{"bike_id":"437be774-9347-4f56-865e-861017296255","system_id":"levelo_inurba_marseille","lat":43.318964,"lon":5.36877,"is_reserved":false,"is_disabled":false,"rental_uris":{"android":"levelo://app?vid=437be774-9347-4f56-865e-861017296255","ios":"levelo://app?vid=437be774-9347-4f56-865e-861017296255"},"vehicle_type_id":"4","last_reported":1703617535,"current_range_meters":11200,"station_id":"","pricing_plan_id":"free"},{"bike_id":"60136220-8031-455a-8bb5-e4b5de34d648","system_id":"levelo_inurba_marseille","lat":43.305989,"lon":5.37225,"is_reserved":false,"is_disabled":false,"rental_uris":{"android":"levelo://app?vid=60136220-8031-455a-8bb5-e4b5de34d648","ios":"levelo://app?vid=60136220-8031-455a-8bb5-e4b5de34d648"},"vehicle_type_id":"4","last_reported":1703617535,"current_range_meters":12400,"station_id":"ce4bgqh2rcd13ifvqc4g","pricing_plan_id":"free"},{"bike_id":"b061bfe4-9ece-49a3-8659-e5632938f5dc","system_id":"levelo_inurba_marseille","lat":43.311125,"lon":5.377624,"is_reserved":false,"is_disabled":false,"rental_uris":{"android":"levelo://app?vid=b061bfe4-9ece-49a3-8659-e5632938f5dc","ios":"levelo://app?vid=b061bfe4-9ece-49a3-8659-e5632938f5dc"},"vehicle_type_id":"4","last_reported":1703617535,"current_range_meters":30000,"station_id":"ce4bgt92rcd13ifvqcg0","pricing_plan_id":"free"},{"bike_id":"de5a5de1-5fe5-42e3-9c3f-34e8b3df6b65","system_id":"levelo_inurba_marseille","lat":43.311167,"lon":5.37769,"is_reserved":false,"is_disabled":false,"rental_uris":{"android":"levelo://app?vid=de5a5de1-5fe5-42e3-9c3f-34e8b3df6b65","ios":"levelo://app?vid=de5a5de1-5fe5-42e3-9c3f-34e8b3df6b65"},"vehicle_type_id":"4","last_reported":1703617535,"current_range_meters":18000,"station_id":"ce4bgt92rcd13ifvqcg0","pricing_plan_id":"free"},{"bike_id":"05dbfcdd-3885-492a-b9e5-96a290f20f91","system_id":"levelo_inurba_marseille","lat":43.311125,"lon":5.377624,"is_reserved":false,"is_disabled":false,"rental_uris":{"android":"levelo://app?vid=05dbfcdd-3885-492a-b9e5-96a290f20f91","ios":"levelo://app?vid=05dbfcdd-3885-492a-b9e5-96a290f20f91"},"vehicle_type_id":"4","last_reported":1703617535,"current_range_meters":22800,"station_id":"ce4bgt92rcd13ifvqcg0","pricing_plan_id":"free"},{"bike_id":"4f451358-31d7-4b64-be96-2fce55f7e75f","system_id":"levelo_inurba_marseille","lat":43.307945,"lon":5.376487,"is_reserved":false,"is_disabled":false,"rental_uris":{"android":"levelo://app?vid=4f451358-31d7-4b64-be96-2fce55f7e75f","ios":"levelo://app?vid=4f451358-31d7-4b64-be96-2fce55f7e75f"},"vehicle_type_id":"4","last_reported":1703617535,"current_range_meters":24400,"station_id":"ce4bgv92rcd13ifvqcq0","pricing_plan_id":"free"},{"bike_id":"f5485fb3-6908-4a19-9802-f3271733bbef","system_id":"levelo_inurba_marseille","lat":43.307945,"lon":5.376487,"is_reserved":false,"is_disabled":false,"rental_uris":{"android":"levelo://app?vid=f5485fb3-6908-4a19-9802-f3271733bbef","ios":"levelo://app?vid=f5485fb3-6908-4a19-9802-f3271733bbef"},"vehicle_type_id":"4","last_reported":1703617535,"current_range_meters":25200,"station_id":"ce4bgv92rcd13ifvqcq0","pricing_plan_id":"free"},{"bike_id":"4d253966-2b1d-4f80-a6e0-281d872c687a","system_id":"levelo_inurba_marseille","lat":43.317135,"lon":5.377195,"is_reserved":false,"is_disabled":false,"rental_uris":{"android":"levelo://app?vid=4d253966-2b1d-4f80-a6e0-281d872c687a","ios":"levelo://app?vid=4d253966-2b1d-4f80-a6e0-281d872c687a"},"vehicle_type_id":"4","last_reported":1703617535,"current_range_meters":20400,"station_id":"ce4bgth2rcd13ifvqch0","pricing_plan_id":"free"},{"bike_id":"2e6e535e-52f0-4fe4-8204-6f3fbd323108","system_id":"levelo_inurba_marseille","lat":43.317075,"lon":5.377367,"is_reserved":false,"is_disabled":false,"rental_uris":{"android":"levelo://app?vid=2e6e535e-52f0-4fe4-8204-6f3fbd323108","ios":"levelo://app?vid=2e6e535e-52f0-4fe4-8204-6f3fbd323108"},"vehicle_type_id":"4","last_reported":1703617535,"current_range_meters":26400,"station_id":"ce4bgth2rcd13ifvqch0","pricing_plan_id":"free"},{"bike_id":"d01bea36-f5d3-4bd8-b117-209f24674382","system_id":"levelo_inurba_marseille","lat":43.317075,"lon":5.377367,"is_reserved":false,"is_disabled":false,"rental_uris":{"android":"levelo://app?vid=d01bea36-f5d3-4bd8-b117-209f24674382","ios":"levelo://app?vid=d01bea36-f5d3-4bd8-b117-209f24674382"},"vehicle_type_id":"4","last_reported":1703617535,"current_range_meters":20000,"station_id":"ce4bgth2rcd13ifvqch0","pricing_plan_id":"free"},{"bike_id":"e8f88ded-13b6-489c-a6f9-afa444ec13d3","system_id":"levelo_inurba_marseille","lat":43.307945,"lon":5.376487,"is_reserved":false,"is_disabled":false,"rental_uris":{"android":"levelo://app?vid=e8f88ded-13b6-489c-a6f9-afa444ec13d3","ios":"levelo://app?vid=e8f88ded-13b6-489c-a6f9-afa444ec13d3"},"vehicle_type_id":"4","last_reported":1703617535,"current_range_meters":20000,"station_id":"ce4bgv92rcd13ifvqcq0","pricing_plan_id":"free"},{"bike_id":"5b265290-4694-44d6-8842-e8fc3d1e5436","system_id":"levelo_inurba_marseille","lat":43.301939,"lon":5.366286,"is_reserved":false,"is_disabled":false,"rental_uris":{"android":"levelo://app?vid=5b265290-4694-44d6-8842-e8fc3d1e5436","ios":"levelo://app?vid=5b265290-4694-44d6-8842-e8fc3d1e5436"},"vehicle_type_id":"4","last_reported":1703617535,"current_range_meters":4400,"station_id":"ce4bgrh2rcd13ifvqc8g","pricing_plan_id":"free"},{"bike_id":"1b4419af-8c05-4d56-8daa-afe8e598a700","system_id":"levelo_inurba_marseille","lat":43.308012,"lon":5.381511,"is_reserved":false,"is_disabled":false,"rental_uris":{"android":"levelo://app?vid=1b4419af-8c05-4d56-8daa-afe8e598a700","ios":"levelo://app?vid=1b4419af-8c05-4d56-8daa-afe8e598a700"},"vehicle_type_id":"4","last_reported":1703617535,"current_range_meters":30800,"station_id":"ce4bgt12rcd13ifvqce0","pricing_plan_id":"free"},{"bike_id":"56f345dd-5057-49e4-9c2a-dc2a2de6ec7d","system_id":"levelo_inurba_marseille","lat":43.308012,"lon":5.381511,"is_reserved":false,"is_disabled":false,"rental_uris":{"android":"levelo://app?vid=56f345dd-5057-49e4-9c2a-dc2a2de6ec7d","ios":"levelo://app?vid=56f345dd-5057-49e4-9c2a-dc2a2de6ec7d"},"vehicle_type_id":"4","last_reported":1703617535,"current_range_meters":11600,"station_id":"ce4bgt12rcd13ifvqce0","pricing_plan_id":"free"},{"bike_id":"382b2c4a-4fd0-4c3a-acbf-6fa6ef0d9a2e","system_id":"levelo_inurba_marseille","lat":43.308012,"lon":5.381511,"is_reserved":false,"is_disabled":false,"rental_uris":{"android":"levelo://app?vid=382b2c4a-4fd0-4c3a-acbf-6fa6ef0d9a2e","ios":"levelo://app?vid=382b2c4a-4fd0-4c3a-acbf-6fa6ef0d9a2e"},"vehicle_type_id":"4","last_reported":1703617535,"current_range_meters":22000,"station_id":"ce4bgt12rcd13ifvqce0","pricing_plan_id":"free"},{"bike_id":"b35aaccb-8af9-4f9a-b783-732e331263f8","system_id":"levelo_inurba_marseille","lat":43.308012,"lon":5.381511,"is_reserved":false,"is_disabled":false,"rental_uris":{"android":"levelo://app?vid=b35aaccb-8af9-4f9a-b783-732e331263f8","ios":"levelo://app?vid=b35aaccb-8af9-4f9a-b783-732e331263f8"},"vehicle_type_id":"4","last_reported":1703617535,"current_range_meters":24800,"station_id":"ce4bgt12rcd13ifvqce0","pricing_plan_id":"free"},{"bike_id":"d2209fd0-6e1e-4b46-89eb-44545c4f07f8","system_id":"levelo_inurba_marseille","lat":43.308012,"lon":5.381511,"is_reserved":false,"is_disabled":false,"rental_uris":{"android":"levelo://app?vid=d2209fd0-6e1e-4b46-89eb-44545c4f07f8","ios":"levelo://app?vid=d2209fd0-6e1e-4b46-89eb-44545c4f07f8"},"vehicle_type_id":"4","last_reported":1703617535,"current_range_meters":27600,"station_id":"ce4bgt12rcd13ifvqce0","pricing_plan_id":"free"},{"bike_id":"bb6049dc-99b6-46b9-960b-b6be12bd1a3d","system_id":"levelo_inurba_marseille","lat":43.308012,"lon":5.381511,"is_reserved":false,"is_disabled":false,"rental_uris":{"android":"levelo://app?vid=bb6049dc-99b6-46b9-960b-b6be12bd1a3d","ios":"levelo://app?vid=bb6049dc-99b6-46b9-960b-b6be12bd1a3d"},"vehicle_type_id":"4","last_reported":1703617535,"current_range_meters":18400,"station_id":"ce4bgt12rcd13ifvqce0","pricing_plan_id":"free"},{"bike_id":"a4c9db62-e396-4539-993a-7a0850c8f675","system_id":"levelo_inurba_marseille","lat":43.304173,"lon":5.37845,"is_reserved":false,"is_disabled":false,"rental_uris":{"android":"levelo://app?vid=a4c9db62-e396-4539-993a-7a0850c8f675","ios":"levelo://app?vid=a4c9db62-e396-4539-993a-7a0850c8f675"},"vehicle_type_id":"4","last_reported":1703617535,"current_range_meters":29200,"station_id":"ce4bguh2rcd13ifvqcj0","pricing_plan_id":"free"},{"bike_id":"f5c0e4d6-16bd-47eb-ba92-aa201d0984ce","system_id":"levelo_inurba_marseille","lat":43.324771,"lon":5.36557,"is_reserved":false,"is_disabled":false,"rental_uris":{"android":"levelo://app?vid=f5c0e4d6-16bd-47eb-ba92-aa201d0984ce","ios":"levelo://app?vid=f5c0e4d6-16bd-47eb-ba92-aa201d0984ce"},"vehicle_type_id":"4","last_reported":1703617535,"current_range_meters":28400,"station_id":"ce4bhs12rcd13ifvqhvg","pricing_plan_id":"free"},{"bike_id":"e101af2c-c501-4e28-8d72-12ad3a8d21a2","system_id":"levelo_inurba_marseille","lat":43.324771,"lon":5.36557,"is_reserved":false,"is_disabled":false,"rental_uris":{"android":"levelo://app?vid=e101af2c-c501-4e28-8d72-12ad3a8d21a2","ios":"levelo://app?vid=e101af2c-c501-4e28-8d72-12ad3a8d21a2"},"vehicle_type_id":"4","last_reported":1703617535,"current_range_meters":22400,"station_id":"ce4bhs12rcd13ifvqhvg","pricing_plan_id":"free"},{"bike_id":"d01c7cfc-2230-472e-906e-13110349dea5","system_id":"levelo_inurba_marseille","lat":43.30274,"lon":5.37683,"is_reserved":false,"is_disabled":false,"rental_uris":{"android":"levelo://app?vid=d01c7cfc-2230-472e-906e-13110349dea5","ios":"levelo://app?vid=d01c7cfc-2230-472e-906e-13110349dea5"},"vehicle_type_id":"4","last_reported":1703617535,"current_range_meters":28400,"station_id":"ce4bguh2rcd13ifvqcj0","pricing_plan_id":"free"},{"bike_id":"c1036f84-926b-4f48-9508-638d09d99652","system_id":"levelo_inurba_marseille","lat":43.302823,"lon":5.377057,"is_reserved":false,"is_disabled":false,"rental_uris":{"android":"levelo://app?vid=c1036f84-926b-4f48-9508-638d09d99652","ios":"levelo://app?vid=c1036f84-926b-4f48-9508-638d09d99652"},"vehicle_type_id":"4","last_reported":1703617535,"current_range_meters":27600,"station_id":"ce4bguh2rcd13ifvqcj0","pricing_plan_id":"free"},{"bike_id":"dce5a95d-3708-473f-b69d-a5b6db17ba84","system_id":"levelo_inurba_marseille","lat":43.309047,"lon":5.396551,"is_reserved":false,"is_disabled":false,"rental_uris":{"android":"levelo://app?vid=dce5a95d-3708-473f-b69d-a5b6db17ba84","ios":"levelo://app?vid=dce5a95d-3708-473f-b69d-a5b6db17ba84"},"vehicle_type_id":"4","last_reported":1703617535,"current_range_meters":8000,"station_id":"ce4bh012rcd13ifvqcv0","pricing_plan_id":"free"},{"bike_id":"9fd0f1fb-194c-4d6c-a7e1-13975396e81c","system_id":"levelo_inurba_marseille","lat":43.301453,"lon":5.37416,"is_reserved":false,"is_disabled":false,"rental_uris":{"android":"levelo://app?vid=9fd0f1fb-194c-4d6c-a7e1-13975396e81c","ios":"levelo://app?vid=9fd0f1fb-194c-4d6c-a7e1-13975396e81c"},"vehicle_type_id":"4","last_reported":1703617535,"current_range_meters":12400,"station_id":"","pricing_plan_id":"free"},{"bike_id":"00918877-1345-4713-9b5a-28e9738e66ab","system_id":"levelo_inurba_marseille","lat":43.319935,"lon":5.381699,"is_reserved":false,"is_disabled":false,"rental_uris":{"android":"levelo://app?vid=00918877-1345-4713-9b5a-28e9738e66ab","ios":"levelo://app?vid=00918877-1345-4713-9b5a-28e9738e66ab"},"vehicle_type_id":"4","last_reported":1703617535,"current_range_meters":3600,"station_id":"ce4bhr12rcd13ifvqhpg","pricing_plan_id":"free"},{"bike_id":"d50a7df1-7e74-446f-b9f4-2754cff05bd9","system_id":"levelo_inurba_marseille","lat":43.319935,"lon":5.381699,"is_reserved":false,"is_disabled":false,"rental_uris":{"android":"levelo://app?vid=d50a7df1-7e74-446f-b9f4-2754cff05bd9","ios":"levelo://app?vid=d50a7df1-7e74-446f-b9f4-2754cff05bd9"},"vehicle_type_id":"4","last_reported":1703617535,"current_range_meters":9200,"station_id":"ce4bhr12rcd13ifvqhpg","pricing_plan_id":"free"},{"bike_id":"8aba050a-8811-4086-b8e8-4572cc6fcac0","system_id":"levelo_inurba_marseille","lat":43.319935,"lon":5.381699,"is_reserved":false,"is_disabled":false,"rental_uris":{"android":"levelo://app?vid=8aba050a-8811-4086-b8e8-4572cc6fcac0","ios":"levelo://app?vid=8aba050a-8811-4086-b8e8-4572cc6fcac0"},"vehicle_type_id":"4","last_reported":1703617535,"current_range_meters":21600,"station_id":"ce4bhr12rcd13ifvqhpg","pricing_plan_id":"free"},{"bike_id":"a971f3b5-927e-4921-a296-cc0107e3d66d","system_id":"levelo_inurba_marseille","lat":43.313571,"lon":5.384829,"is_reserved":false,"is_disabled":false,"rental_uris":{"android":"levelo://app?vid=a971f3b5-927e-4921-a296-cc0107e3d66d","ios":"levelo://app?vid=a971f3b5-927e-4921-a296-cc0107e3d66d"},"vehicle_type_id":"4","last_reported":1703617535,"current_range_meters":28400,"station_id":"ce4bgt92rcd13ifvqcf0","pricing_plan_id":"free"},{"bike_id":"a3620e20-0296-47a9-b20a-b20160667f0d","system_id":"levelo_inurba_marseille","lat":43.313571,"lon":5.384829,"is_reserved":false,"is_disabled":false,"rental_uris":{"android":"levelo://app?vid=a3620e20-0296-47a9-b20a-b20160667f0d","ios":"levelo://app?vid=a3620e20-0296-47a9-b20a-b20160667f0d"},"vehicle_type_id":"4","last_reported":1703617535,"current_range_meters":14800,"station_id":"ce4bgt92rcd13ifvqcf0","pricing_plan_id":"free"},{"bike_id":"aa03c749-4512-4be3-ae57-dcd11eb286a6","system_id":"levelo_inurba_marseille","lat":43.313571,"lon":5.384829,"is_reserved":false,"is_disabled":false,"rental_uris":{"android":"levelo://app?vid=aa03c749-4512-4be3-ae57-dcd11eb286a6","ios":"levelo://app?vid=aa03c749-4512-4be3-ae57-dcd11eb286a6"},"vehicle_type_id":"4","last_reported":1703617535,"current_range_meters":20400,"station_id":"ce4bgt92rcd13ifvqcf0","pricing_plan_id":"free"},{"bike_id":"9a6dbaa9-ce8f-4adf-92a5-13d99be18384","system_id":"levelo_inurba_marseille","lat":43.313571,"lon":5.384829,"is_reserved":false,"is_disabled":false,"rental_uris":{"android":"levelo://app?vid=9a6dbaa9-ce8f-4adf-92a5-13d99be18384","ios":"levelo://app?vid=9a6dbaa9-ce8f-4adf-92a5-13d99be18384"},"vehicle_type_id":"4","last_reported":1703617535,"current_range_meters":27600,"station_id":"ce4bgt92rcd13ifvqcf0","pricing_plan_id":"free"},{"bike_id":"f6ce5080-13bd-460c-8f9c-fd4fcaa45167","system_id":"levelo_inurba_marseille","lat":43.299222,"lon":5.365554,"is_reserved":false,"is_disabled":false,"rental_uris":{"android":"levelo://app?vid=f6ce5080-13bd-460c-8f9c-fd4fcaa45167","ios":"levelo://app?vid=f6ce5080-13bd-460c-8f9c-fd4fcaa45167"},"vehicle_type_id":"4","last_reported":1703617535,"current_range_meters":4000,"station_id":"ce4bgm92rcd13ifvqbr0","pricing_plan_id":"free"},{"bike_id":"cc4da9de-65d5-4b03-a151-94016d9571a2","system_id":"levelo_inurba_marseille","lat":43.299222,"lon":5.365554,"is_reserved":false,"is_disabled":false,"rental_uris":{"android":"levelo://app?vid=cc4da9de-65d5-4b03-a151-94016d9571a2","ios":"levelo://app?vid=cc4da9de-65d5-4b03-a151-94016d9571a2"},"vehicle_type_id":"4","last_reported":1703617535,"current_range_meters":22800,"station_id":"ce4bgm92rcd13ifvqbr0","pricing_plan_id":"free"},{"bike_id":"6edec6f6-6777-48ad-930a-1b4f11e1b839","system_id":"levelo_inurba_marseille","lat":43.299209,"lon":5.365547,"is_reserved":false,"is_disabled":false,"rental_uris":{"android":"levelo://app?vid=6edec6f6-6777-48ad-930a-1b4f11e1b839","ios":"levelo://app?vid=6edec6f6-6777-48ad-930a-1b4f11e1b839"},"vehicle_type_id":"4","last_reported":1703617535,"current_range_meters":22400,"station_id":"ce4bgm92rcd13ifvqbr0","pricing_plan_id":"free"},{"bike_id":"5c521df4-606b-455d-8167-e197a1f393bb","system_id":"levelo_inurba_marseille","lat":43.30039,"lon":5.37434,"is_reserved":false,"is_disabled":false,"rental_uris":{"android":"levelo://app?vid=5c521df4-606b-455d-8167-e197a1f393bb","ios":"levelo://app?vid=5c521df4-606b-455d-8167-e197a1f393bb"},"vehicle_type_id":"4","last_reported":1703617535,"current_range_meters":6800,"station_id":"","pricing_plan_id":"free"},{"bike_id":"b7e64b69-9850-47e5-b937-dba600477927","system_id":"levelo_inurba_marseille","lat":43.298511,"lon":5.362896,"is_reserved":false,"is_disabled":false,"rental_uris":{"android":"levelo://app?vid=b7e64b69-9850-47e5-b937-dba600477927","ios":"levelo://app?vid=b7e64b69-9850-47e5-b937-dba600477927"},"vehicle_type_id":"4","last_reported":1703617535,"current_range_meters":31200,"station_id":"ce4bgpp2rcd13ifvqc3g","pricing_plan_id":"free"},{"bike_id":"6e33b6f2-797c-4e8c-8af1-3add54dba90a","system_id":"levelo_inurba_marseille","lat":43.298444,"lon":5.362951,"is_reserved":false,"is_disabled":false,"rental_uris":{"android":"levelo://app?vid=6e33b6f2-797c-4e8c-8af1-3add54dba90a","ios":"levelo://app?vid=6e33b6f2-797c-4e8c-8af1-3add54dba90a"},"vehicle_type_id":"4","last_reported":1703617535,"current_range_meters":19200,"station_id":"ce4bgpp2rcd13ifvqc3g","pricing_plan_id":"free"},{"bike_id":"247b6e4f-62f7-4cfb-9c57-8f0d14286b5f","system_id":"levelo_inurba_marseille","lat":43.297794,"lon":5.370888,"is_reserved":false,"is_disabled":false,"rental_uris":{"android":"levelo://app?vid=247b6e4f-62f7-4cfb-9c57-8f0d14286b5f","ios":"levelo://app?vid=247b6e4f-62f7-4cfb-9c57-8f0d14286b5f"},"vehicle_type_id":"4","last_reported":1703617535,"current_range_meters":6800,"station_id":"ce4bgop2rcd13ifvqc1g","pricing_plan_id":"free"},{"bike_id":"9f5a96a2-0db8-4b1c-8450-c51d03940f00","system_id":"levelo_inurba_marseille","lat":43.322872,"lon":5.382756,"is_reserved":false,"is_disabled":false,"rental_uris":{"android":"levelo://app?vid=9f5a96a2-0db8-4b1c-8450-c51d03940f00","ios":"levelo://app?vid=9f5a96a2-0db8-4b1c-8450-c51d03940f00"},"vehicle_type_id":"4","last_reported":1703617535,"current_range_meters":27200,"station_id":"ce4bhr12rcd13ifvqhqg","pricing_plan_id":"free"},{"bike_id":"7b35961e-ce26-4a19-be21-bf42fab4fce9","system_id":"levelo_inurba_marseille","lat":43.322872,"lon":5.382756,"is_reserved":false,"is_disabled":false,"rental_uris":{"android":"levelo://app?vid=7b35961e-ce26-4a19-be21-bf42fab4fce9","ios":"levelo://app?vid=7b35961e-ce26-4a19-be21-bf42fab4fce9"},"vehicle_type_id":"4","last_reported":1703617535,"current_range_meters":28800,"station_id":"ce4bhr12rcd13ifvqhqg","pricing_plan_id":"free"},{"bike_id":"1cecd7ec-d453-43c5-a38d-0ee14477aaf1","system_id":"levelo_inurba_marseille","lat":43.322872,"lon":5.382756,"is_reserved":false,"is_disabled":false,"rental_uris":{"android":"levelo://app?vid=1cecd7ec-d453-43c5-a38d-0ee14477aaf1","ios":"levelo://app?vid=1cecd7ec-d453-43c5-a38d-0ee14477aaf1"},"vehicle_type_id":"4","last_reported":1703617535,"current_range_meters":28000,"station_id":"ce4bhr12rcd13ifvqhqg","pricing_plan_id":"free"},{"bike_id":"5fed18d1-7f81-4167-a351-7c4be7bb7921","system_id":"levelo_inurba_marseille","lat":43.32822,"lon":5.36662,"is_reserved":false,"is_disabled":false,"rental_uris":{"android":"levelo://app?vid=5fed18d1-7f81-4167-a351-7c4be7bb7921","ios":"levelo://app?vid=5fed18d1-7f81-4167-a351-7c4be7bb7921"},"vehicle_type_id":"4","last_reported":1703617535,"current_range_meters":24400,"station_id":"ce4bhs92rcd13ifvqi0g","pricing_plan_id":"free"},{"bike_id":"51714c4a-3132-4951-88ec-80e85fa125e8","system_id":"levelo_inurba_marseille","lat":43.328227,"lon":5.36677,"is_reserved":false,"is_disabled":false,"rental_uris":{"android":"levelo://app?vid=51714c4a-3132-4951-88ec-80e85fa125e8","ios":"levelo://app?vid=51714c4a-3132-4951-88ec-80e85fa125e8"},"vehicle_type_id":"4","last_reported":1703617535,"current_range_meters":27200,"station_id":"ce4bhs92rcd13ifvqi0g","pricing_plan_id":"free"},{"bike_id":"5c89eee7-6e83-42b4-bd81-efdcf68f6666","system_id":"levelo_inurba_marseille","lat":43.32824,"lon":5.36668,"is_reserved":false,"is_disabled":false,"rental_uris":{"android":"levelo://app?vid=5c89eee7-6e83-42b4-bd81-efdcf68f6666","ios":"levelo://app?vid=5c89eee7-6e83-42b4-bd81-efdcf68f6666"},"vehicle_type_id":"4","last_reported":1703617535,"current_range_meters":28800,"station_id":"ce4bhs92rcd13ifvqi0g","pricing_plan_id":"free"},{"bike_id":"be72c8fa-57ca-4b39-a06f-106528121e53","system_id":"levelo_inurba_marseille","lat":43.328371,"lon":5.366909,"is_reserved":false,"is_disabled":false,"rental_uris":{"android":"levelo://app?vid=be72c8fa-57ca-4b39-a06f-106528121e53","ios":"levelo://app?vid=be72c8fa-57ca-4b39-a06f-106528121e53"},"vehicle_type_id":"4","last_reported":1703617535,"current_range_meters":7200,"station_id":"ce4bhs92rcd13ifvqi0g","pricing_plan_id":"free"},{"bike_id":"a448ca86-2b35-41e1-89c4-32a99bab0563","system_id":"levelo_inurba_marseille","lat":43.328371,"lon":5.366912,"is_reserved":false,"is_disabled":false,"rental_uris":{"android":"levelo://app?vid=a448ca86-2b35-41e1-89c4-32a99bab0563","ios":"levelo://app?vid=a448ca86-2b35-41e1-89c4-32a99bab0563"},"vehicle_type_id":"4","last_reported":1703617535,"current_range_meters":31200,"station_id":"ce4bhs92rcd13ifvqi0g","pricing_plan_id":"free"},{"bike_id":"904f83aa-e9ab-401d-84c1-9edfed82b884","system_id":"levelo_inurba_marseille","lat":43.328371,"lon":5.366909,"is_reserved":false,"is_disabled":false,"rental_uris":{"android":"levelo://app?vid=904f83aa-e9ab-401d-84c1-9edfed82b884","ios":"levelo://app?vid=904f83aa-e9ab-401d-84c1-9edfed82b884"},"vehicle_type_id":"4","last_reported":1703617535,"current_range_meters":18000,"station_id":"ce4bhs92rcd13ifvqi0g","pricing_plan_id":"free"},{"bike_id":"6f67326a-1664-406f-9978-902e013e2357","system_id":"levelo_inurba_marseille","lat":43.328371,"lon":5.366909,"is_reserved":false,"is_disabled":false,"rental_uris":{"android":"levelo://app?vid=6f67326a-1664-406f-9978-902e013e2357","ios":"levelo://app?vid=6f67326a-1664-406f-9978-902e013e2357"},"vehicle_type_id":"4","last_reported":1703617535,"current_range_meters":30800,"station_id":"ce4bhs92rcd13ifvqi0g","pricing_plan_id":"free"},{"bike_id":"de708f00-7118-4d7c-9021-d7dcbd798473","system_id":"levelo_inurba_marseille","lat":43.328371,"lon":5.366909,"is_reserved":false,"is_disabled":false,"rental_uris":{"android":"levelo://app?vid=de708f00-7118-4d7c-9021-d7dcbd798473","ios":"levelo://app?vid=de708f00-7118-4d7c-9021-d7dcbd798473"},"vehicle_type_id":"4","last_reported":1703617535,"current_range_meters":24000,"station_id":"ce4bhs92rcd13ifvqi0g","pricing_plan_id":"free"},{"bike_id":"ea7074d7-b7c9-4941-82c2-dff391bae9cb","system_id":"levelo_inurba_marseille","lat":43.328371,"lon":5.366909,"is_reserved":false,"is_disabled":false,"rental_uris":{"android":"levelo://app?vid=ea7074d7-b7c9-4941-82c2-dff391bae9cb","ios":"levelo://app?vid=ea7074d7-b7c9-4941-82c2-dff391bae9cb"},"vehicle_type_id":"4","last_reported":1703617535,"current_range_meters":23200,"station_id":"ce4bhs92rcd13ifvqi0g","pricing_plan_id":"free"},{"bike_id":"25b80f7a-2eb4-4fc4-a94e-112dfa074463","system_id":"levelo_inurba_marseille","lat":43.29709,"lon":5.36608,"is_reserved":false,"is_disabled":false,"rental_uris":{"android":"levelo://app?vid=25b80f7a-2eb4-4fc4-a94e-112dfa074463","ios":"levelo://app?vid=25b80f7a-2eb4-4fc4-a94e-112dfa074463"},"vehicle_type_id":"4","last_reported":1703617535,"current_range_meters":23200,"station_id":"ce4bgn12rcd13ifvqbt0","pricing_plan_id":"free"},{"bike_id":"b9b20529-257c-4f14-a1ae-44eac640fddb","system_id":"levelo_inurba_marseille","lat":43.297163,"lon":5.365866,"is_reserved":false,"is_disabled":false,"rental_uris":{"android":"levelo://app?vid=b9b20529-257c-4f14-a1ae-44eac640fddb","ios":"levelo://app?vid=b9b20529-257c-4f14-a1ae-44eac640fddb"},"vehicle_type_id":"4","last_reported":1703617535,"current_range_meters":31200,"station_id":"ce4bgn12rcd13ifvqbt0","pricing_plan_id":"free"},{"bike_id":"9012f819-c033-4be0-92cc-28c7aae3f5cc","system_id":"levelo_inurba_marseille","lat":43.297027,"lon":5.36144,"is_reserved":false,"is_disabled":false,"rental_uris":{"android":"levelo://app?vid=9012f819-c033-4be0-92cc-28c7aae3f5cc","ios":"levelo://app?vid=9012f819-c033-4be0-92cc-28c7aae3f5cc"},"vehicle_type_id":"4","last_reported":1703617535,"current_range_meters":23200,"station_id":"","pricing_plan_id":"free"},{"bike_id":"b83c8fd4-a17a-4b11-9bb1-c71fbbfa6596","system_id":"levelo_inurba_marseille","lat":43.29672,"lon":5.36177,"is_reserved":false,"is_disabled":false,"rental_uris":{"android":"levelo://app?vid=b83c8fd4-a17a-4b11-9bb1-c71fbbfa6596","ios":"levelo://app?vid=b83c8fd4-a17a-4b11-9bb1-c71fbbfa6596"},"vehicle_type_id":"4","last_reported":1703617535,"current_range_meters":22400,"station_id":"","pricing_plan_id":"free"},{"bike_id":"26ba0bf8-bcdc-4522-9c8f-850e7bc2de96","system_id":"levelo_inurba_marseille","lat":43.296693,"lon":5.361813,"is_reserved":false,"is_disabled":false,"rental_uris":{"android":"levelo://app?vid=26ba0bf8-bcdc-4522-9c8f-850e7bc2de96","ios":"levelo://app?vid=26ba0bf8-bcdc-4522-9c8f-850e7bc2de96"},"vehicle_type_id":"4","last_reported":1703617535,"current_range_meters":20400,"station_id":"","pricing_plan_id":"free"},{"bike_id":"7cd124e5-cd1f-48aa-b0d7-982c276a2779","system_id":"levelo_inurba_marseille","lat":43.2968,"lon":5.37291,"is_reserved":false,"is_disabled":false,"rental_uris":{"android":"levelo://app?vid=7cd124e5-cd1f-48aa-b0d7-982c276a2779","ios":"levelo://app?vid=7cd124e5-cd1f-48aa-b0d7-982c276a2779"},"vehicle_type_id":"4","last_reported":1703617535,"current_range_meters":25200,"station_id":"ce4bgk12rcd13ifvqbj0","pricing_plan_id":"free"},{"bike_id":"921b424d-ad0d-4c7a-9d74-66e3a49bfa19","system_id":"levelo_inurba_marseille","lat":43.32934,"lon":5.36612,"is_reserved":false,"is_disabled":false,"rental_uris":{"android":"levelo://app?vid=921b424d-ad0d-4c7a-9d74-66e3a49bfa19","ios":"levelo://app?vid=921b424d-ad0d-4c7a-9d74-66e3a49bfa19"},"vehicle_type_id":"4","last_reported":1703617535,"current_range_meters":20000,"station_id":"","pricing_plan_id":"free"},{"bike_id":"5df20435-a963-4a82-812e-bed677a27a9b","system_id":"levelo_inurba_marseille","lat":43.296131,"lon":5.370773,"is_reserved":false,"is_disabled":false,"rental_uris":{"android":"levelo://app?vid=5df20435-a963-4a82-812e-bed677a27a9b","ios":"levelo://app?vid=5df20435-a963-4a82-812e-bed677a27a9b"},"vehicle_type_id":"4","last_reported":1703617535,"current_range_meters":29600,"station_id":"ce4bgnh2rcd13ifvqc0g","pricing_plan_id":"free"},{"bike_id":"664a6d48-d802-4a78-9256-c21d49e83872","system_id":"levelo_inurba_marseille","lat":43.29573,"lon":5.367355,"is_reserved":false,"is_disabled":false,"rental_uris":{"android":"levelo://app?vid=664a6d48-d802-4a78-9256-c21d49e83872","ios":"levelo://app?vid=664a6d48-d802-4a78-9256-c21d49e83872"},"vehicle_type_id":"4","last_reported":1703617535,"current_range_meters":18000,"station_id":"ce4bgph2rcd13ifvqc2g","pricing_plan_id":"free"},{"bike_id":"44971f9d-0475-4547-93b5-66a1fb74532a","system_id":"levelo_inurba_marseille","lat":43.29573,"lon":5.367355,"is_reserved":false,"is_disabled":false,"rental_uris":{"android":"levelo://app?vid=44971f9d-0475-4547-93b5-66a1fb74532a","ios":"levelo://app?vid=44971f9d-0475-4547-93b5-66a1fb74532a"},"vehicle_type_id":"4","last_reported":1703617535,"current_range_meters":17200,"station_id":"ce4bgph2rcd13ifvqc2g","pricing_plan_id":"free"},{"bike_id":"11a450a5-1df3-45ed-90fc-ffc21ef858f6","system_id":"levelo_inurba_marseille","lat":43.30411,"lon":5.387867,"is_reserved":false,"is_disabled":false,"rental_uris":{"android":"levelo://app?vid=11a450a5-1df3-45ed-90fc-ffc21ef858f6","ios":"levelo://app?vid=11a450a5-1df3-45ed-90fc-ffc21ef858f6"},"vehicle_type_id":"4","last_reported":1703617535,"current_range_meters":20400,"station_id":"","pricing_plan_id":"free"},{"bike_id":"14ab3560-2354-4f11-9358-4e47520a0c26","system_id":"levelo_inurba_marseille","lat":43.317557,"lon":5.390173,"is_reserved":false,"is_disabled":false,"rental_uris":{"android":"levelo://app?vid=14ab3560-2354-4f11-9358-4e47520a0c26","ios":"levelo://app?vid=14ab3560-2354-4f11-9358-4e47520a0c26"},"vehicle_type_id":"4","last_reported":1703617535,"current_range_meters":17600,"station_id":"ce4bhqp2rcd13ifvqhng","pricing_plan_id":"free"},{"bike_id":"6630e8ed-1566-484d-9bc5-1cd9908d4453","system_id":"levelo_inurba_marseille","lat":43.317557,"lon":5.390173,"is_reserved":false,"is_disabled":false,"rental_uris":{"android":"levelo://app?vid=6630e8ed-1566-484d-9bc5-1cd9908d4453","ios":"levelo://app?vid=6630e8ed-1566-484d-9bc5-1cd9908d4453"},"vehicle_type_id":"4","last_reported":1703617535,"current_range_meters":31600,"station_id":"ce4bhqp2rcd13ifvqhng","pricing_plan_id":"free"},{"bike_id":"f192d185-78e6-4e96-a92a-a2efd4bee7fc","system_id":"levelo_inurba_marseille","lat":43.317557,"lon":5.390173,"is_reserved":false,"is_disabled":false,"rental_uris":{"android":"levelo://app?vid=f192d185-78e6-4e96-a92a-a2efd4bee7fc","ios":"levelo://app?vid=f192d185-78e6-4e96-a92a-a2efd4bee7fc"},"vehicle_type_id":"4","last_reported":1703617535,"current_range_meters":10400,"station_id":"ce4bhqp2rcd13ifvqhng","pricing_plan_id":"free"},{"bike_id":"02b31deb-8d27-47bf-bbf0-4ae52b237d44","system_id":"levelo_inurba_marseille","lat":43.317557,"lon":5.390173,"is_reserved":false,"is_disabled":false,"rental_uris":{"android":"levelo://app?vid=02b31deb-8d27-47bf-bbf0-4ae52b237d44","ios":"levelo://app?vid=02b31deb-8d27-47bf-bbf0-4ae52b237d44"},"vehicle_type_id":"4","last_reported":1703617535,"current_range_meters":18400,"station_id":"ce4bhqp2rcd13ifvqhng","pricing_plan_id":"free"},{"bike_id":"934099ef-e998-414f-950b-4c0020d9d57f","system_id":"levelo_inurba_marseille","lat":43.317557,"lon":5.390173,"is_reserved":false,"is_disabled":false,"rental_uris":{"android":"levelo://app?vid=934099ef-e998-414f-950b-4c0020d9d57f","ios":"levelo://app?vid=934099ef-e998-414f-950b-4c0020d9d57f"},"vehicle_type_id":"4","last_reported":1703617535,"current_range_meters":18400,"station_id":"ce4bhqp2rcd13ifvqhng","pricing_plan_id":"free"},{"bike_id":"7084b80c-6653-4455-a29c-e0534abc34ab","system_id":"levelo_inurba_marseille","lat":43.304278,"lon":5.388868,"is_reserved":false,"is_disabled":false,"rental_uris":{"android":"levelo://app?vid=7084b80c-6653-4455-a29c-e0534abc34ab","ios":"levelo://app?vid=7084b80c-6653-4455-a29c-e0534abc34ab"},"vehicle_type_id":"4","last_reported":1703617535,"current_range_meters":16800,"station_id":"ce4bgk12rcd13ifvqbi0","pricing_plan_id":"free"},{"bike_id":"ec626073-db5e-4806-9efb-d5e57cf9be19","system_id":"levelo_inurba_marseille","lat":43.296263,"lon":5.377094,"is_reserved":false,"is_disabled":false,"rental_uris":{"android":"levelo://app?vid=ec626073-db5e-4806-9efb-d5e57cf9be19","ios":"levelo://app?vid=ec626073-db5e-4806-9efb-d5e57cf9be19"},"vehicle_type_id":"4","last_reported":1703617535,"current_range_meters":27200,"station_id":"ce4bgi92rcd13ifvqb90","pricing_plan_id":"free"},{"bike_id":"be867e07-a0bb-4a5f-8fba-f949f60d94d8","system_id":"levelo_inurba_marseille","lat":43.298037,"lon":5.381066,"is_reserved":false,"is_disabled":false,"rental_uris":{"android":"levelo://app?vid=be867e07-a0bb-4a5f-8fba-f949f60d94d8","ios":"levelo://app?vid=be867e07-a0bb-4a5f-8fba-f949f60d94d8"},"vehicle_type_id":"4","last_reported":1703617535,"current_range_meters":19600,"station_id":"ce4bgip2rcd13ifvqbb0","pricing_plan_id":"free"},{"bike_id":"a4fb0178-b377-41d1-9814-098af74f819f","system_id":"levelo_inurba_marseille","lat":43.304278,"lon":5.388868,"is_reserved":false,"is_disabled":false,"rental_uris":{"android":"levelo://app?vid=a4fb0178-b377-41d1-9814-098af74f819f","ios":"levelo://app?vid=a4fb0178-b377-41d1-9814-098af74f819f"},"vehicle_type_id":"4","last_reported":1703617535,"current_range_meters":17200,"station_id":"ce4bgk12rcd13ifvqbi0","pricing_plan_id":"free"},{"bike_id":"c19c2ecc-f8a7-4b78-9975-94a5ed0d265c","system_id":"levelo_inurba_marseille","lat":43.304278,"lon":5.388868,"is_reserved":false,"is_disabled":false,"rental_uris":{"android":"levelo://app?vid=c19c2ecc-f8a7-4b78-9975-94a5ed0d265c","ios":"levelo://app?vid=c19c2ecc-f8a7-4b78-9975-94a5ed0d265c"},"vehicle_type_id":"4","last_reported":1703617535,"current_range_meters":15200,"station_id":"ce4bgk12rcd13ifvqbi0","pricing_plan_id":"free"},{"bike_id":"b89883b8-6536-4451-920d-22afc2ec4ed4","system_id":"levelo_inurba_marseille","lat":43.295279,"lon":5.375048,"is_reserved":false,"is_disabled":false,"rental_uris":{"android":"levelo://app?vid=b89883b8-6536-4451-920d-22afc2ec4ed4","ios":"levelo://app?vid=b89883b8-6536-4451-920d-22afc2ec4ed4"},"vehicle_type_id":"4","last_reported":1703617535,"current_range_meters":18800,"station_id":"ce4bgkp2rcd13ifvqbmg","pricing_plan_id":"free"},{"bike_id":"a998ee98-d9d6-413e-a8d6-4e7187c3acd0","system_id":"levelo_inurba_marseille","lat":43.299707,"lon":5.384859,"is_reserved":false,"is_disabled":false,"rental_uris":{"android":"levelo://app?vid=a998ee98-d9d6-413e-a8d6-4e7187c3acd0","ios":"levelo://app?vid=a998ee98-d9d6-413e-a8d6-4e7187c3acd0"},"vehicle_type_id":"4","last_reported":1703617535,"current_range_meters":24400,"station_id":"ce4bgj92rcd13ifvqbd0","pricing_plan_id":"free"},{"bike_id":"45ae2363-3642-4979-a6b5-9f5aed238183","system_id":"levelo_inurba_marseille","lat":43.299717,"lon":5.384845,"is_reserved":false,"is_disabled":false,"rental_uris":{"android":"levelo://app?vid=45ae2363-3642-4979-a6b5-9f5aed238183","ios":"levelo://app?vid=45ae2363-3642-4979-a6b5-9f5aed238183"},"vehicle_type_id":"4","last_reported":1703617535,"current_range_meters":29200,"station_id":"ce4bgj92rcd13ifvqbd0","pricing_plan_id":"free"},{"bike_id":"25f4032f-5fbe-42b0-beab-a26795921a00","system_id":"levelo_inurba_marseille","lat":43.299717,"lon":5.384845,"is_reserved":false,"is_disabled":false,"rental_uris":{"android":"levelo://app?vid=25f4032f-5fbe-42b0-beab-a26795921a00","ios":"levelo://app?vid=25f4032f-5fbe-42b0-beab-a26795921a00"},"vehicle_type_id":"4","last_reported":1703617535,"current_range_meters":31200,"station_id":"ce4bgj92rcd13ifvqbd0","pricing_plan_id":"free"},{"bike_id":"e802caa8-1ac2-4bd8-b5b5-ff3863edc74a","system_id":"levelo_inurba_marseille","lat":43.299717,"lon":5.384845,"is_reserved":false,"is_disabled":false,"rental_uris":{"android":"levelo://app?vid=e802caa8-1ac2-4bd8-b5b5-ff3863edc74a","ios":"levelo://app?vid=e802caa8-1ac2-4bd8-b5b5-ff3863edc74a"},"vehicle_type_id":"4","last_reported":1703617535,"current_range_meters":12000,"station_id":"ce4bgj92rcd13ifvqbd0","pricing_plan_id":"free"},{"bike_id":"b28037bb-a9f5-4150-8758-7d7f6f529dac","system_id":"levelo_inurba_marseille","lat":43.32367,"lon":5.388836,"is_reserved":false,"is_disabled":false,"rental_uris":{"android":"levelo://app?vid=b28037bb-a9f5-4150-8758-7d7f6f529dac","ios":"levelo://app?vid=b28037bb-a9f5-4150-8758-7d7f6f529dac"},"vehicle_type_id":"4","last_reported":1703617535,"current_range_meters":12400,"station_id":"ce4bhqp2rcd13ifvqhog","pricing_plan_id":"free"},{"bike_id":"0aeff03b-c088-4633-a9b9-ca0ac8a59c2c","system_id":"levelo_inurba_marseille","lat":43.32375,"lon":5.38878,"is_reserved":false,"is_disabled":false,"rental_uris":{"android":"levelo://app?vid=0aeff03b-c088-4633-a9b9-ca0ac8a59c2c","ios":"levelo://app?vid=0aeff03b-c088-4633-a9b9-ca0ac8a59c2c"},"vehicle_type_id":"4","last_reported":1703617535,"current_range_meters":5200,"station_id":"ce4bhqp2rcd13ifvqhog","pricing_plan_id":"free"},{"bike_id":"6229a11e-67ff-4128-994f-a106996e1234","system_id":"levelo_inurba_marseille","lat":43.32367,"lon":5.388836,"is_reserved":false,"is_disabled":false,"rental_uris":{"android":"levelo://app?vid=6229a11e-67ff-4128-994f-a106996e1234","ios":"levelo://app?vid=6229a11e-67ff-4128-994f-a106996e1234"},"vehicle_type_id":"4","last_reported":1703617535,"current_range_meters":7600,"station_id":"ce4bhqp2rcd13ifvqhog","pricing_plan_id":"free"},{"bike_id":"d610dc3b-e90c-4ee3-8957-c3a8878f35dd","system_id":"levelo_inurba_marseille","lat":43.29601,"lon":5.381084,"is_reserved":false,"is_disabled":false,"rental_uris":{"android":"levelo://app?vid=d610dc3b-e90c-4ee3-8957-c3a8878f35dd","ios":"levelo://app?vid=d610dc3b-e90c-4ee3-8957-c3a8878f35dd"},"vehicle_type_id":"4","last_reported":1703617535,"current_range_meters":14400,"station_id":"ce4bgl12rcd13ifvqbo0","pricing_plan_id":"free"},{"bike_id":"e2ef9571-10da-483f-8a54-f610a9d2cba9","system_id":"levelo_inurba_marseille","lat":43.29601,"lon":5.381084,"is_reserved":false,"is_disabled":false,"rental_uris":{"android":"levelo://app?vid=e2ef9571-10da-483f-8a54-f610a9d2cba9","ios":"levelo://app?vid=e2ef9571-10da-483f-8a54-f610a9d2cba9"},"vehicle_type_id":"4","last_reported":1703617535,"current_range_meters":14000,"station_id":"ce4bgl12rcd13ifvqbo0","pricing_plan_id":"free"},{"bike_id":"b0d2c6c5-4168-4a5b-bbde-0059e81d8fd5","system_id":"levelo_inurba_marseille","lat":43.292749,"lon":5.368402,"is_reserved":false,"is_disabled":false,"rental_uris":{"android":"levelo://app?vid=b0d2c6c5-4168-4a5b-bbde-0059e81d8fd5","ios":"levelo://app?vid=b0d2c6c5-4168-4a5b-bbde-0059e81d8fd5"},"vehicle_type_id":"4","last_reported":1703617535,"current_range_meters":800,"station_id":"ce4bhbp2rcd13ifvqesg","pricing_plan_id":"free"},{"bike_id":"d6ecf9ad-accd-47ab-bb80-e9b41a11c8ed","system_id":"levelo_inurba_marseille","lat":43.305994,"lon":5.393687,"is_reserved":false,"is_disabled":false,"rental_uris":{"android":"levelo://app?vid=d6ecf9ad-accd-47ab-bb80-e9b41a11c8ed","ios":"levelo://app?vid=d6ecf9ad-accd-47ab-bb80-e9b41a11c8ed"},"vehicle_type_id":"4","last_reported":1703617535,"current_range_meters":14800,"station_id":"ce4bh0p2rcd13ifvqd80","pricing_plan_id":"free"},{"bike_id":"07c2a101-4d07-470d-b92a-3de9ba80b0a0","system_id":"levelo_inurba_marseille","lat":43.305994,"lon":5.393687,"is_reserved":false,"is_disabled":false,"rental_uris":{"android":"levelo://app?vid=07c2a101-4d07-470d-b92a-3de9ba80b0a0","ios":"levelo://app?vid=07c2a101-4d07-470d-b92a-3de9ba80b0a0"},"vehicle_type_id":"4","last_reported":1703617535,"current_range_meters":24000,"station_id":"ce4bh0p2rcd13ifvqd80","pricing_plan_id":"free"},{"bike_id":"34752f6a-67f6-419a-a13c-d092149e9d03","system_id":"levelo_inurba_marseille","lat":43.2936,"lon":5.37835,"is_reserved":false,"is_disabled":false,"rental_uris":{"android":"levelo://app?vid=34752f6a-67f6-419a-a13c-d092149e9d03","ios":"levelo://app?vid=34752f6a-67f6-419a-a13c-d092149e9d03"},"vehicle_type_id":"4","last_reported":1703617535,"current_range_meters":22800,"station_id":"ce4bgjh2rcd13ifvqbf0","pricing_plan_id":"free"},{"bike_id":"8a3dedcb-a47f-4b5b-952c-beb123a987f0","system_id":"levelo_inurba_marseille","lat":43.292311,"lon":5.360731,"is_reserved":false,"is_disabled":false,"rental_uris":{"android":"levelo://app?vid=8a3dedcb-a47f-4b5b-952c-beb123a987f0","ios":"levelo://app?vid=8a3dedcb-a47f-4b5b-952c-beb123a987f0"},"vehicle_type_id":"4","last_reported":1703617535,"current_range_meters":30000,"station_id":"ce4bhbh2rcd13ifvqeqg","pricing_plan_id":"free"},{"bike_id":"5988ce9f-473a-4bf4-87d6-88005766eb18","system_id":"levelo_inurba_marseille","lat":43.291675,"lon":5.371583,"is_reserved":false,"is_disabled":false,"rental_uris":{"android":"levelo://app?vid=5988ce9f-473a-4bf4-87d6-88005766eb18","ios":"levelo://app?vid=5988ce9f-473a-4bf4-87d6-88005766eb18"},"vehicle_type_id":"4","last_reported":1703617535,"current_range_meters":24000,"station_id":"ce4bha92rcd13ifvqeh0","pricing_plan_id":"free"},{"bike_id":"3bb8d376-dbd2-41c8-81d7-29c11ff68e70","system_id":"levelo_inurba_marseille","lat":43.298732,"lon":5.389011,"is_reserved":false,"is_disabled":false,"rental_uris":{"android":"levelo://app?vid=3bb8d376-dbd2-41c8-81d7-29c11ff68e70","ios":"levelo://app?vid=3bb8d376-dbd2-41c8-81d7-29c11ff68e70"},"vehicle_type_id":"4","last_reported":1703617535,"current_range_meters":20000,"station_id":"","pricing_plan_id":"free"},{"bike_id":"00adc04f-d541-4aac-9c27-7e0bf1935a73","system_id":"levelo_inurba_marseille","lat":43.29869,"lon":5.38905,"is_reserved":false,"is_disabled":false,"rental_uris":{"android":"levelo://app?vid=00adc04f-d541-4aac-9c27-7e0bf1935a73","ios":"levelo://app?vid=00adc04f-d541-4aac-9c27-7e0bf1935a73"},"vehicle_type_id":"4","last_reported":1703617535,"current_range_meters":14800,"station_id":"","pricing_plan_id":"free"},{"bike_id":"1bb7557e-eac8-4579-af6c-b9683358fea4","system_id":"levelo_inurba_marseille","lat":43.298722,"lon":5.389096,"is_reserved":false,"is_disabled":false,"rental_uris":{"android":"levelo://app?vid=1bb7557e-eac8-4579-af6c-b9683358fea4","ios":"levelo://app?vid=1bb7557e-eac8-4579-af6c-b9683358fea4"},"vehicle_type_id":"4","last_reported":1703617535,"current_range_meters":23600,"station_id":"","pricing_plan_id":"free"},{"bike_id":"f8ad87fb-faf9-4310-8434-bc415fdf4816","system_id":"levelo_inurba_marseille","lat":43.298666,"lon":5.389088,"is_reserved":false,"is_disabled":false,"rental_uris":{"android":"levelo://app?vid=f8ad87fb-faf9-4310-8434-bc415fdf4816","ios":"levelo://app?vid=f8ad87fb-faf9-4310-8434-bc415fdf4816"},"vehicle_type_id":"4","last_reported":1703617535,"current_range_meters":21600,"station_id":"","pricing_plan_id":"free"},{"bike_id":"83da56ef-c98e-4a29-9845-cefd5b085f83","system_id":"levelo_inurba_marseille","lat":43.309038,"lon":5.396546,"is_reserved":false,"is_disabled":false,"rental_uris":{"android":"levelo://app?vid=83da56ef-c98e-4a29-9845-cefd5b085f83","ios":"levelo://app?vid=83da56ef-c98e-4a29-9845-cefd5b085f83"},"vehicle_type_id":"4","last_reported":1703617535,"current_range_meters":31600,"station_id":"ce4bh012rcd13ifvqcv0","pricing_plan_id":"free"},{"bike_id":"6e41d692-23fc-4ffb-833f-520f69f97811","system_id":"levelo_inurba_marseille","lat":43.313291,"lon":5.396838,"is_reserved":false,"is_disabled":false,"rental_uris":{"android":"levelo://app?vid=6e41d692-23fc-4ffb-833f-520f69f97811","ios":"levelo://app?vid=6e41d692-23fc-4ffb-833f-520f69f97811"},"vehicle_type_id":"4","last_reported":1703617535,"current_range_meters":14000,"station_id":"ce4bgvp2rcd13ifvqcu0","pricing_plan_id":"free"},{"bike_id":"94113dfe-1841-4eb4-a206-dfb275cb371b","system_id":"levelo_inurba_marseille","lat":43.309047,"lon":5.396551,"is_reserved":false,"is_disabled":false,"rental_uris":{"android":"levelo://app?vid=94113dfe-1841-4eb4-a206-dfb275cb371b","ios":"levelo://app?vid=94113dfe-1841-4eb4-a206-dfb275cb371b"},"vehicle_type_id":"4","last_reported":1703617535,"current_range_meters":29200,"station_id":"ce4bh012rcd13ifvqcv0","pricing_plan_id":"free"},{"bike_id":"c58ba41a-636f-4589-8431-bb83ec018498","system_id":"levelo_inurba_marseille","lat":43.313291,"lon":5.396838,"is_reserved":false,"is_disabled":false,"rental_uris":{"android":"levelo://app?vid=c58ba41a-636f-4589-8431-bb83ec018498","ios":"levelo://app?vid=c58ba41a-636f-4589-8431-bb83ec018498"},"vehicle_type_id":"4","last_reported":1703617535,"current_range_meters":29200,"station_id":"ce4bgvp2rcd13ifvqcu0","pricing_plan_id":"free"},{"bike_id":"c45e1210-13e4-4afa-9226-9ab93dc1e814","system_id":"levelo_inurba_marseille","lat":43.309038,"lon":5.396546,"is_reserved":false,"is_disabled":false,"rental_uris":{"android":"levelo://app?vid=c45e1210-13e4-4afa-9226-9ab93dc1e814","ios":"levelo://app?vid=c45e1210-13e4-4afa-9226-9ab93dc1e814"},"vehicle_type_id":"4","last_reported":1703617535,"current_range_meters":28000,"station_id":"ce4bh012rcd13ifvqcv0","pricing_plan_id":"free"},{"bike_id":"9ac3d446-5ebd-44be-b20a-21849522d3f5","system_id":"levelo_inurba_marseille","lat":43.309047,"lon":5.396551,"is_reserved":false,"is_disabled":false,"rental_uris":{"android":"levelo://app?vid=9ac3d446-5ebd-44be-b20a-21849522d3f5","ios":"levelo://app?vid=9ac3d446-5ebd-44be-b20a-21849522d3f5"},"vehicle_type_id":"4","last_reported":1703617535,"current_range_meters":16400,"station_id":"ce4bh012rcd13ifvqcv0","pricing_plan_id":"free"},{"bike_id":"b406cc4a-93b3-4ffc-a76d-1a0bc4b380d7","system_id":"levelo_inurba_marseille","lat":43.29529,"lon":5.385581,"is_reserved":false,"is_disabled":false,"rental_uris":{"android":"levelo://app?vid=b406cc4a-93b3-4ffc-a76d-1a0bc4b380d7","ios":"levelo://app?vid=b406cc4a-93b3-4ffc-a76d-1a0bc4b380d7"},"vehicle_type_id":"4","last_reported":1703617535,"current_range_meters":7200,"station_id":"ce4bgih2rcd13ifvqba0","pricing_plan_id":"free"},{"bike_id":"0aa5d323-407a-4d75-a8e9-b77fe5e8bf6e","system_id":"levelo_inurba_marseille","lat":43.29529,"lon":5.385581,"is_reserved":false,"is_disabled":false,"rental_uris":{"android":"levelo://app?vid=0aa5d323-407a-4d75-a8e9-b77fe5e8bf6e","ios":"levelo://app?vid=0aa5d323-407a-4d75-a8e9-b77fe5e8bf6e"},"vehicle_type_id":"4","last_reported":1703617535,"current_range_meters":6800,"station_id":"ce4bgih2rcd13ifvqba0","pricing_plan_id":"free"},{"bike_id":"9e0f9748-e206-4caa-8aec-3836ab1af9b9","system_id":"levelo_inurba_marseille","lat":43.29526,"lon":5.38541,"is_reserved":false,"is_disabled":false,"rental_uris":{"android":"levelo://app?vid=9e0f9748-e206-4caa-8aec-3836ab1af9b9","ios":"levelo://app?vid=9e0f9748-e206-4caa-8aec-3836ab1af9b9"},"vehicle_type_id":"4","last_reported":1703617535,"current_range_meters":18800,"station_id":"ce4bgih2rcd13ifvqba0","pricing_plan_id":"free"},{"bike_id":"37aa2ace-07a4-4393-888a-98e42e1ffc78","system_id":"levelo_inurba_marseille","lat":43.29529,"lon":5.385581,"is_reserved":false,"is_disabled":false,"rental_uris":{"android":"levelo://app?vid=37aa2ace-07a4-4393-888a-98e42e1ffc78","ios":"levelo://app?vid=37aa2ace-07a4-4393-888a-98e42e1ffc78"},"vehicle_type_id":"4","last_reported":1703617535,"current_range_meters":31200,"station_id":"ce4bgih2rcd13ifvqba0","pricing_plan_id":"free"},{"bike_id":"7b76e13c-3849-45cc-8a43-2b23ce1c1f94","system_id":"levelo_inurba_marseille","lat":43.290779,"lon":5.371482,"is_reserved":false,"is_disabled":false,"rental_uris":{"android":"levelo://app?vid=7b76e13c-3849-45cc-8a43-2b23ce1c1f94","ios":"levelo://app?vid=7b76e13c-3849-45cc-8a43-2b23ce1c1f94"},"vehicle_type_id":"4","last_reported":1703617535,"current_range_meters":30800,"station_id":"ce4bh5p2rcd13ifvqe4g","pricing_plan_id":"free"},{"bike_id":"b661a9f5-3549-44d0-accf-3b270df0df9b","system_id":"levelo_inurba_marseille","lat":43.290779,"lon":5.371482,"is_reserved":false,"is_disabled":false,"rental_uris":{"android":"levelo://app?vid=b661a9f5-3549-44d0-accf-3b270df0df9b","ios":"levelo://app?vid=b661a9f5-3549-44d0-accf-3b270df0df9b"},"vehicle_type_id":"4","last_reported":1703617535,"current_range_meters":18000,"station_id":"ce4bh5p2rcd13ifvqe4g","pricing_plan_id":"free"},{"bike_id":"1e5cf9c4-c357-4519-81a8-055640605e8f","system_id":"levelo_inurba_marseille","lat":43.290779,"lon":5.371482,"is_reserved":false,"is_disabled":false,"rental_uris":{"android":"levelo://app?vid=1e5cf9c4-c357-4519-81a8-055640605e8f","ios":"levelo://app?vid=1e5cf9c4-c357-4519-81a8-055640605e8f"},"vehicle_type_id":"4","last_reported":1703617535,"current_range_meters":23200,"station_id":"ce4bh5p2rcd13ifvqe4g","pricing_plan_id":"free"},{"bike_id":"2383e45b-d3e4-417b-919e-42dabd7f68d8","system_id":"levelo_inurba_marseille","lat":43.290779,"lon":5.371482,"is_reserved":false,"is_disabled":false,"rental_uris":{"android":"levelo://app?vid=2383e45b-d3e4-417b-919e-42dabd7f68d8","ios":"levelo://app?vid=2383e45b-d3e4-417b-919e-42dabd7f68d8"},"vehicle_type_id":"4","last_reported":1703617535,"current_range_meters":18400,"station_id":"ce4bh5p2rcd13ifvqe4g","pricing_plan_id":"free"},{"bike_id":"e8993941-c0bb-4dd1-8dc2-1ed268351c26","system_id":"levelo_inurba_marseille","lat":43.290631,"lon":5.359244,"is_reserved":false,"is_disabled":false,"rental_uris":{"android":"levelo://app?vid=e8993941-c0bb-4dd1-8dc2-1ed268351c26","ios":"levelo://app?vid=e8993941-c0bb-4dd1-8dc2-1ed268351c26"},"vehicle_type_id":"4","last_reported":1703617535,"current_range_meters":15600,"station_id":"ce4bha92rcd13ifvqeg0","pricing_plan_id":"free"},{"bike_id":"04a29f43-a762-4724-9b3b-a55c832cbf9e","system_id":"levelo_inurba_marseille","lat":43.289184,"lon":5.366408,"is_reserved":false,"is_disabled":false,"rental_uris":{"android":"levelo://app?vid=04a29f43-a762-4724-9b3b-a55c832cbf9e","ios":"levelo://app?vid=04a29f43-a762-4724-9b3b-a55c832cbf9e"},"vehicle_type_id":"4","last_reported":1703617535,"current_range_meters":24000,"station_id":"ce4bhap2rcd13ifvqek0","pricing_plan_id":"free"},{"bike_id":"e3542953-4022-4a32-a0e2-1a23f2a8be9b","system_id":"levelo_inurba_marseille","lat":43.294162,"lon":5.386292,"is_reserved":false,"is_disabled":false,"rental_uris":{"android":"levelo://app?vid=e3542953-4022-4a32-a0e2-1a23f2a8be9b","ios":"levelo://app?vid=e3542953-4022-4a32-a0e2-1a23f2a8be9b"},"vehicle_type_id":"4","last_reported":1703617535,"current_range_meters":18000,"station_id":"ce4bh2h2rcd13ifvqdh0","pricing_plan_id":"free"},{"bike_id":"bd2eaf3d-4695-4040-a4bf-f84ae7be111a","system_id":"levelo_inurba_marseille","lat":43.294162,"lon":5.386292,"is_reserved":false,"is_disabled":false,"rental_uris":{"android":"levelo://app?vid=bd2eaf3d-4695-4040-a4bf-f84ae7be111a","ios":"levelo://app?vid=bd2eaf3d-4695-4040-a4bf-f84ae7be111a"},"vehicle_type_id":"4","last_reported":1703617535,"current_range_meters":20000,"station_id":"ce4bh2h2rcd13ifvqdh0","pricing_plan_id":"free"},{"bike_id":"6d4532a3-ee0d-45af-abbb-94b9d8de78d9","system_id":"levelo_inurba_marseille","lat":43.294162,"lon":5.386292,"is_reserved":false,"is_disabled":false,"rental_uris":{"android":"levelo://app?vid=6d4532a3-ee0d-45af-abbb-94b9d8de78d9","ios":"levelo://app?vid=6d4532a3-ee0d-45af-abbb-94b9d8de78d9"},"vehicle_type_id":"4","last_reported":1703617535,"current_range_meters":4000,"station_id":"ce4bh2h2rcd13ifvqdh0","pricing_plan_id":"free"},{"bike_id":"53fb38fe-6a1e-49fd-ae73-692cc0f0ed33","system_id":"levelo_inurba_marseille","lat":43.294153,"lon":5.386305,"is_reserved":false,"is_disabled":false,"rental_uris":{"android":"levelo://app?vid=53fb38fe-6a1e-49fd-ae73-692cc0f0ed33","ios":"levelo://app?vid=53fb38fe-6a1e-49fd-ae73-692cc0f0ed33"},"vehicle_type_id":"4","last_reported":1703617535,"current_range_meters":29600,"station_id":"ce4bh2h2rcd13ifvqdh0","pricing_plan_id":"free"},{"bike_id":"8fc6dc51-1558-4258-8a5f-ce0063fbbaa3","system_id":"levelo_inurba_marseille","lat":43.289468,"lon":5.363719,"is_reserved":false,"is_disabled":false,"rental_uris":{"android":"levelo://app?vid=8fc6dc51-1558-4258-8a5f-ce0063fbbaa3","ios":"levelo://app?vid=8fc6dc51-1558-4258-8a5f-ce0063fbbaa3"},"vehicle_type_id":"4","last_reported":1703617535,"current_range_meters":28800,"station_id":"ce4bhc92rcd13ifvqetg","pricing_plan_id":"free"},{"bike_id":"e1f87e32-a9e8-49e2-8b4f-15d7dcc108de","system_id":"levelo_inurba_marseille","lat":43.292642,"lon":5.384254,"is_reserved":false,"is_disabled":false,"rental_uris":{"android":"levelo://app?vid=e1f87e32-a9e8-49e2-8b4f-15d7dcc108de","ios":"levelo://app?vid=e1f87e32-a9e8-49e2-8b4f-15d7dcc108de"},"vehicle_type_id":"4","last_reported":1703617535,"current_range_meters":23200,"station_id":"ce4bh692rcd13ifvqea0","pricing_plan_id":"free"},{"bike_id":"23662936-7627-44fa-a071-ee28f6713241","system_id":"levelo_inurba_marseille","lat":43.292644,"lon":5.384257,"is_reserved":false,"is_disabled":false,"rental_uris":{"android":"levelo://app?vid=23662936-7627-44fa-a071-ee28f6713241","ios":"levelo://app?vid=23662936-7627-44fa-a071-ee28f6713241"},"vehicle_type_id":"4","last_reported":1703617535,"current_range_meters":27200,"station_id":"ce4bh692rcd13ifvqea0","pricing_plan_id":"free"},{"bike_id":"d9a3696f-4e93-4521-8bdd-89397ec20b96","system_id":"levelo_inurba_marseille","lat":43.292644,"lon":5.384257,"is_reserved":false,"is_disabled":false,"rental_uris":{"android":"levelo://app?vid=d9a3696f-4e93-4521-8bdd-89397ec20b96","ios":"levelo://app?vid=d9a3696f-4e93-4521-8bdd-89397ec20b96"},"vehicle_type_id":"4","last_reported":1703617535,"current_range_meters":26800,"station_id":"ce4bh692rcd13ifvqea0","pricing_plan_id":"free"},{"bike_id":"624a507b-4f95-4918-b21e-5ce8735bbde3","system_id":"levelo_inurba_marseille","lat":43.292644,"lon":5.384257,"is_reserved":false,"is_disabled":false,"rental_uris":{"android":"levelo://app?vid=624a507b-4f95-4918-b21e-5ce8735bbde3","ios":"levelo://app?vid=624a507b-4f95-4918-b21e-5ce8735bbde3"},"vehicle_type_id":"4","last_reported":1703617535,"current_range_meters":28000,"station_id":"ce4bh692rcd13ifvqea0","pricing_plan_id":"free"},{"bike_id":"aeef21ff-8122-4b12-8f1a-697c5bb6a5ad","system_id":"levelo_inurba_marseille","lat":43.292644,"lon":5.384257,"is_reserved":false,"is_disabled":false,"rental_uris":{"android":"levelo://app?vid=aeef21ff-8122-4b12-8f1a-697c5bb6a5ad","ios":"levelo://app?vid=aeef21ff-8122-4b12-8f1a-697c5bb6a5ad"},"vehicle_type_id":"4","last_reported":1703617535,"current_range_meters":18400,"station_id":"ce4bh692rcd13ifvqea0","pricing_plan_id":"free"},{"bike_id":"66f5e0b4-9f5f-4fd5-bee4-3d7417a4c13f","system_id":"levelo_inurba_marseille","lat":43.290104,"lon":5.356111,"is_reserved":false,"is_disabled":false,"rental_uris":{"android":"levelo://app?vid=66f5e0b4-9f5f-4fd5-bee4-3d7417a4c13f","ios":"levelo://app?vid=66f5e0b4-9f5f-4fd5-bee4-3d7417a4c13f"},"vehicle_type_id":"4","last_reported":1703617535,"current_range_meters":0,"station_id":"ce4bhb92rcd13ifvqen0","pricing_plan_id":"free"},{"bike_id":"9be33895-f937-403a-8937-20d3410b967b","system_id":"levelo_inurba_marseille","lat":43.290995,"lon":5.381361,"is_reserved":false,"is_disabled":false,"rental_uris":{"android":"levelo://app?vid=9be33895-f937-403a-8937-20d3410b967b","ios":"levelo://app?vid=9be33895-f937-403a-8937-20d3410b967b"},"vehicle_type_id":"4","last_reported":1703617535,"current_range_meters":18400,"station_id":"ce4bh512rcd13ifvqe2g","pricing_plan_id":"free"},{"bike_id":"0a5283ad-c1e3-4154-8926-97ef69636c54","system_id":"levelo_inurba_marseille","lat":43.290995,"lon":5.381361,"is_reserved":false,"is_disabled":false,"rental_uris":{"android":"levelo://app?vid=0a5283ad-c1e3-4154-8926-97ef69636c54","ios":"levelo://app?vid=0a5283ad-c1e3-4154-8926-97ef69636c54"},"vehicle_type_id":"4","last_reported":1703617535,"current_range_meters":13200,"station_id":"ce4bh512rcd13ifvqe2g","pricing_plan_id":"free"},{"bike_id":"9e64f113-6936-4491-89c9-8c0889fef29c","system_id":"levelo_inurba_marseille","lat":43.297815,"lon":5.393548,"is_reserved":false,"is_disabled":false,"rental_uris":{"android":"levelo://app?vid=9e64f113-6936-4491-89c9-8c0889fef29c","ios":"levelo://app?vid=9e64f113-6936-4491-89c9-8c0889fef29c"},"vehicle_type_id":"4","last_reported":1703617535,"current_range_meters":21600,"station_id":"chh1huq6cuj3fo74tm60","pricing_plan_id":"free"},{"bike_id":"7528b2c6-0071-4cbe-b556-7a0cb6294854","system_id":"levelo_inurba_marseille","lat":43.29785,"lon":5.39338,"is_reserved":false,"is_disabled":false,"rental_uris":{"android":"levelo://app?vid=7528b2c6-0071-4cbe-b556-7a0cb6294854","ios":"levelo://app?vid=7528b2c6-0071-4cbe-b556-7a0cb6294854"},"vehicle_type_id":"4","last_reported":1703617535,"current_range_meters":21200,"station_id":"chh1huq6cuj3fo74tm60","pricing_plan_id":"free"},{"bike_id":"5d94fdb3-fca3-4009-9e79-b425b7366543","system_id":"levelo_inurba_marseille","lat":43.295169,"lon":5.390426,"is_reserved":false,"is_disabled":false,"rental_uris":{"android":"levelo://app?vid=5d94fdb3-fca3-4009-9e79-b425b7366543","ios":"levelo://app?vid=5d94fdb3-fca3-4009-9e79-b425b7366543"},"vehicle_type_id":"4","last_reported":1703617535,"current_range_meters":22000,"station_id":"ce4bh3p2rcd13ifvqdp0","pricing_plan_id":"free"},{"bike_id":"79cb188f-f44d-4894-b8d8-ba585adda99c","system_id":"levelo_inurba_marseille","lat":43.330442,"lon":5.389148,"is_reserved":false,"is_disabled":false,"rental_uris":{"android":"levelo://app?vid=79cb188f-f44d-4894-b8d8-ba585adda99c","ios":"levelo://app?vid=79cb188f-f44d-4894-b8d8-ba585adda99c"},"vehicle_type_id":"4","last_reported":1703617535,"current_range_meters":800,"station_id":"ce4bhr92rcd13ifvqhrg","pricing_plan_id":"free"},{"bike_id":"495faf64-a935-4c6e-b77f-2b296d14493a","system_id":"levelo_inurba_marseille","lat":43.331017,"lon":5.389194,"is_reserved":false,"is_disabled":false,"rental_uris":{"android":"levelo://app?vid=495faf64-a935-4c6e-b77f-2b296d14493a","ios":"levelo://app?vid=495faf64-a935-4c6e-b77f-2b296d14493a"},"vehicle_type_id":"4","last_reported":1703617535,"current_range_meters":20000,"station_id":"","pricing_plan_id":"free"},{"bike_id":"18ec1453-63e5-4b22-a54e-20e51e1a0d8d","system_id":"levelo_inurba_marseille","lat":43.33019,"lon":5.39043,"is_reserved":false,"is_disabled":false,"rental_uris":{"android":"levelo://app?vid=18ec1453-63e5-4b22-a54e-20e51e1a0d8d","ios":"levelo://app?vid=18ec1453-63e5-4b22-a54e-20e51e1a0d8d"},"vehicle_type_id":"4","last_reported":1703617535,"current_range_meters":19600,"station_id":"","pricing_plan_id":"free"},{"bike_id":"dc0ccc7c-ba1b-4cde-b242-23dbe62099b9","system_id":"levelo_inurba_marseille","lat":43.295169,"lon":5.390426,"is_reserved":false,"is_disabled":false,"rental_uris":{"android":"levelo://app?vid=dc0ccc7c-ba1b-4cde-b242-23dbe62099b9","ios":"levelo://app?vid=dc0ccc7c-ba1b-4cde-b242-23dbe62099b9"},"vehicle_type_id":"4","last_reported":1703617535,"current_range_meters":27200,"station_id":"ce4bh3p2rcd13ifvqdp0","pricing_plan_id":"free"},{"bike_id":"f3c63c7b-09e2-4734-8986-14ad4d133994","system_id":"levelo_inurba_marseille","lat":43.33028,"lon":5.39053,"is_reserved":false,"is_disabled":false,"rental_uris":{"android":"levelo://app?vid=f3c63c7b-09e2-4734-8986-14ad4d133994","ios":"levelo://app?vid=f3c63c7b-09e2-4734-8986-14ad4d133994"},"vehicle_type_id":"4","last_reported":1703617535,"current_range_meters":10400,"station_id":"","pricing_plan_id":"free"},{"bike_id":"01eec893-cb22-47ea-ba6f-18aee64380c7","system_id":"levelo_inurba_marseille","lat":43.330316,"lon":5.390897,"is_reserved":false,"is_disabled":false,"rental_uris":{"android":"levelo://app?vid=01eec893-cb22-47ea-ba6f-18aee64380c7","ios":"levelo://app?vid=01eec893-cb22-47ea-ba6f-18aee64380c7"},"vehicle_type_id":"4","last_reported":1703617535,"current_range_meters":8800,"station_id":"","pricing_plan_id":"free"},{"bike_id":"951b968f-1b40-4663-888d-c8c39e72bbe5","system_id":"levelo_inurba_marseille","lat":43.28856,"lon":5.358371,"is_reserved":false,"is_disabled":false,"rental_uris":{"android":"levelo://app?vid=951b968f-1b40-4663-888d-c8c39e72bbe5","ios":"levelo://app?vid=951b968f-1b40-4663-888d-c8c39e72bbe5"},"vehicle_type_id":"4","last_reported":1703617535,"current_range_meters":22800,"station_id":"ce4bhb12rcd13ifvqem0","pricing_plan_id":"free"},{"bike_id":"7a543b19-90cd-4a87-b80d-37f423d89307","system_id":"levelo_inurba_marseille","lat":43.33035,"lon":5.391265,"is_reserved":false,"is_disabled":false,"rental_uris":{"android":"levelo://app?vid=7a543b19-90cd-4a87-b80d-37f423d89307","ios":"levelo://app?vid=7a543b19-90cd-4a87-b80d-37f423d89307"},"vehicle_type_id":"4","last_reported":1703617535,"current_range_meters":7600,"station_id":"","pricing_plan_id":"free"},{"bike_id":"3408225b-ef8b-48b7-8130-eeeabaf97d4a","system_id":"levelo_inurba_marseille","lat":43.28856,"lon":5.358371,"is_reserved":false,"is_disabled":false,"rental_uris":{"android":"levelo://app?vid=3408225b-ef8b-48b7-8130-eeeabaf97d4a","ios":"levelo://app?vid=3408225b-ef8b-48b7-8130-eeeabaf97d4a"},"vehicle_type_id":"4","last_reported":1703617535,"current_range_meters":23200,"station_id":"ce4bhb12rcd13ifvqem0","pricing_plan_id":"free"},{"bike_id":"f259ff35-01ed-45e5-99e7-bd4768dfe9e5","system_id":"levelo_inurba_marseille","lat":43.28856,"lon":5.358371,"is_reserved":false,"is_disabled":false,"rental_uris":{"android":"levelo://app?vid=f259ff35-01ed-45e5-99e7-bd4768dfe9e5","ios":"levelo://app?vid=f259ff35-01ed-45e5-99e7-bd4768dfe9e5"},"vehicle_type_id":"4","last_reported":1703617535,"current_range_meters":1200,"station_id":"ce4bhb12rcd13ifvqem0","pricing_plan_id":"free"},{"bike_id":"66e2e38e-4c40-423a-ac04-f3f21ba492ce","system_id":"levelo_inurba_marseille","lat":43.28856,"lon":5.358371,"is_reserved":false,"is_disabled":false,"rental_uris":{"android":"levelo://app?vid=66e2e38e-4c40-423a-ac04-f3f21ba492ce","ios":"levelo://app?vid=66e2e38e-4c40-423a-ac04-f3f21ba492ce"},"vehicle_type_id":"4","last_reported":1703617535,"current_range_meters":19600,"station_id":"ce4bhb12rcd13ifvqem0","pricing_plan_id":"free"},{"bike_id":"bfea4373-68d7-4ffc-884c-d7e273317940","system_id":"levelo_inurba_marseille","lat":43.309371,"lon":5.401449,"is_reserved":false,"is_disabled":false,"rental_uris":{"android":"levelo://app?vid=bfea4373-68d7-4ffc-884c-d7e273317940","ios":"levelo://app?vid=bfea4373-68d7-4ffc-884c-d7e273317940"},"vehicle_type_id":"4","last_reported":1703617535,"current_range_meters":22000,"station_id":"ce4bgvp2rcd13ifvqct0","pricing_plan_id":"free"},{"bike_id":"e80f0ed0-6a4e-405a-8da1-244c0c09f819","system_id":"levelo_inurba_marseille","lat":43.312609,"lon":5.401662,"is_reserved":false,"is_disabled":false,"rental_uris":{"android":"levelo://app?vid=e80f0ed0-6a4e-405a-8da1-244c0c09f819","ios":"levelo://app?vid=e80f0ed0-6a4e-405a-8da1-244c0c09f819"},"vehicle_type_id":"4","last_reported":1703617535,"current_range_meters":22400,"station_id":"ce4bh092rcd13ifvqd30","pricing_plan_id":"free"},{"bike_id":"ebfe6fb4-dca5-4644-983c-b19c6f78c74e","system_id":"levelo_inurba_marseille","lat":43.312609,"lon":5.401662,"is_reserved":false,"is_disabled":false,"rental_uris":{"android":"levelo://app?vid=ebfe6fb4-dca5-4644-983c-b19c6f78c74e","ios":"levelo://app?vid=ebfe6fb4-dca5-4644-983c-b19c6f78c74e"},"vehicle_type_id":"4","last_reported":1703617535,"current_range_meters":18000,"station_id":"ce4bh092rcd13ifvqd30","pricing_plan_id":"free"},{"bike_id":"690eccad-9069-43a9-a974-0f635be67caa","system_id":"levelo_inurba_marseille","lat":43.309371,"lon":5.401449,"is_reserved":false,"is_disabled":false,"rental_uris":{"android":"levelo://app?vid=690eccad-9069-43a9-a974-0f635be67caa","ios":"levelo://app?vid=690eccad-9069-43a9-a974-0f635be67caa"},"vehicle_type_id":"4","last_reported":1703617535,"current_range_meters":22400,"station_id":"ce4bgvp2rcd13ifvqct0","pricing_plan_id":"free"},{"bike_id":"32335269-76a9-4069-b997-a4abce83378b","system_id":"levelo_inurba_marseille","lat":43.309371,"lon":5.401449,"is_reserved":false,"is_disabled":false,"rental_uris":{"android":"levelo://app?vid=32335269-76a9-4069-b997-a4abce83378b","ios":"levelo://app?vid=32335269-76a9-4069-b997-a4abce83378b"},"vehicle_type_id":"4","last_reported":1703617535,"current_range_meters":10000,"station_id":"ce4bgvp2rcd13ifvqct0","pricing_plan_id":"free"},{"bike_id":"088eacfa-022a-45c3-be1f-39a115813f60","system_id":"levelo_inurba_marseille","lat":43.306412,"lon":5.401035,"is_reserved":false,"is_disabled":false,"rental_uris":{"android":"levelo://app?vid=088eacfa-022a-45c3-be1f-39a115813f60","ios":"levelo://app?vid=088eacfa-022a-45c3-be1f-39a115813f60"},"vehicle_type_id":"4","last_reported":1703617535,"current_range_meters":30800,"station_id":"ce4bh112rcd13ifvqda0","pricing_plan_id":"free"},{"bike_id":"e8333dc6-0a00-4918-9bf4-210e7c543756","system_id":"levelo_inurba_marseille","lat":43.306412,"lon":5.401035,"is_reserved":false,"is_disabled":false,"rental_uris":{"android":"levelo://app?vid=e8333dc6-0a00-4918-9bf4-210e7c543756","ios":"levelo://app?vid=e8333dc6-0a00-4918-9bf4-210e7c543756"},"vehicle_type_id":"4","last_reported":1703617535,"current_range_meters":27600,"station_id":"ce4bh112rcd13ifvqda0","pricing_plan_id":"free"},{"bike_id":"990249c1-31d5-4323-86fa-d90df9a357b6","system_id":"levelo_inurba_marseille","lat":43.299028,"lon":5.381509,"is_reserved":false,"is_disabled":false,"rental_uris":{"android":"levelo://app?vid=990249c1-31d5-4323-86fa-d90df9a357b6","ios":"levelo://app?vid=990249c1-31d5-4323-86fa-d90df9a357b6"},"vehicle_type_id":"4","last_reported":1703617535,"current_range_meters":26800,"station_id":"ce4bgj12rcd13ifvqbc0","pricing_plan_id":"free"},{"bike_id":"be7018ef-6800-4949-bbff-57f6f7ea3f65","system_id":"levelo_inurba_marseille","lat":43.30642,"lon":5.401031,"is_reserved":false,"is_disabled":false,"rental_uris":{"android":"levelo://app?vid=be7018ef-6800-4949-bbff-57f6f7ea3f65","ios":"levelo://app?vid=be7018ef-6800-4949-bbff-57f6f7ea3f65"},"vehicle_type_id":"4","last_reported":1703617535,"current_range_meters":30800,"station_id":"ce4bh112rcd13ifvqda0","pricing_plan_id":"free"},{"bike_id":"3a70ba87-d511-4aaf-b0ab-bf41a847d3c0","system_id":"levelo_inurba_marseille","lat":43.337708,"lon":5.37439,"is_reserved":false,"is_disabled":false,"rental_uris":{"android":"levelo://app?vid=3a70ba87-d511-4aaf-b0ab-bf41a847d3c0","ios":"levelo://app?vid=3a70ba87-d511-4aaf-b0ab-bf41a847d3c0"},"vehicle_type_id":"4","last_reported":1703617535,"current_range_meters":24400,"station_id":"ce4bguh2rcd13ifvqcj0","pricing_plan_id":"free"},{"bike_id":"8fbbbffa-7bee-4afd-8bd1-ac1734e61144","system_id":"levelo_inurba_marseille","lat":43.30642,"lon":5.401031,"is_reserved":false,"is_disabled":false,"rental_uris":{"android":"levelo://app?vid=8fbbbffa-7bee-4afd-8bd1-ac1734e61144","ios":"levelo://app?vid=8fbbbffa-7bee-4afd-8bd1-ac1734e61144"},"vehicle_type_id":"4","last_reported":1703617535,"current_range_meters":10800,"station_id":"ce4bh112rcd13ifvqda0","pricing_plan_id":"free"},{"bike_id":"aa743935-8558-45a1-aa4e-06dd50e5fa89","system_id":"levelo_inurba_marseille","lat":43.28727,"lon":5.36078,"is_reserved":false,"is_disabled":false,"rental_uris":{"android":"levelo://app?vid=aa743935-8558-45a1-aa4e-06dd50e5fa89","ios":"levelo://app?vid=aa743935-8558-45a1-aa4e-06dd50e5fa89"},"vehicle_type_id":"4","last_reported":1703617535,"current_range_meters":29200,"station_id":"cki0cbj6b192h4jlfktg","pricing_plan_id":"free"},{"bike_id":"395b4c6b-2846-48f8-adf3-a7b6e4defa20","system_id":"levelo_inurba_marseille","lat":43.28727,"lon":5.36078,"is_reserved":false,"is_disabled":false,"rental_uris":{"android":"levelo://app?vid=395b4c6b-2846-48f8-adf3-a7b6e4defa20","ios":"levelo://app?vid=395b4c6b-2846-48f8-adf3-a7b6e4defa20"},"vehicle_type_id":"4","last_reported":1703617535,"current_range_meters":27200,"station_id":"cki0cbj6b192h4jlfktg","pricing_plan_id":"free"},{"bike_id":"91720a86-83e3-4909-9469-824364526d66","system_id":"levelo_inurba_marseille","lat":43.298681,"lon":5.397225,"is_reserved":false,"is_disabled":false,"rental_uris":{"android":"levelo://app?vid=91720a86-83e3-4909-9469-824364526d66","ios":"levelo://app?vid=91720a86-83e3-4909-9469-824364526d66"},"vehicle_type_id":"4","last_reported":1703617535,"current_range_meters":7200,"station_id":"ce4bh0h2rcd13ifvqd50","pricing_plan_id":"free"},{"bike_id":"f5430d8c-dbc0-4e31-a003-95dde548e7cc","system_id":"levelo_inurba_marseille","lat":43.298681,"lon":5.397225,"is_reserved":false,"is_disabled":false,"rental_uris":{"android":"levelo://app?vid=f5430d8c-dbc0-4e31-a003-95dde548e7cc","ios":"levelo://app?vid=f5430d8c-dbc0-4e31-a003-95dde548e7cc"},"vehicle_type_id":"4","last_reported":1703617535,"current_range_meters":23200,"station_id":"ce4bh0h2rcd13ifvqd50","pricing_plan_id":"free"},{"bike_id":"087c5a14-c078-453c-9bee-ba5a37992a23","system_id":"levelo_inurba_marseille","lat":43.298681,"lon":5.397225,"is_reserved":false,"is_disabled":false,"rental_uris":{"android":"levelo://app?vid=087c5a14-c078-453c-9bee-ba5a37992a23","ios":"levelo://app?vid=087c5a14-c078-453c-9bee-ba5a37992a23"},"vehicle_type_id":"4","last_reported":1703617535,"current_range_meters":26000,"station_id":"ce4bh0h2rcd13ifvqd50","pricing_plan_id":"free"},{"bike_id":"0a67022f-0fa1-47f3-8900-589953965666","system_id":"levelo_inurba_marseille","lat":43.286591,"lon":5.363346,"is_reserved":false,"is_disabled":false,"rental_uris":{"android":"levelo://app?vid=0a67022f-0fa1-47f3-8900-589953965666","ios":"levelo://app?vid=0a67022f-0fa1-47f3-8900-589953965666"},"vehicle_type_id":"4","last_reported":1703617535,"current_range_meters":400,"station_id":"ce4bhah2rcd13ifvqej0","pricing_plan_id":"free"},{"bike_id":"3047a84a-afb8-4bac-a4b8-f4cf2dd1af39","system_id":"levelo_inurba_marseille","lat":43.286961,"lon":5.373785,"is_reserved":false,"is_disabled":false,"rental_uris":{"android":"levelo://app?vid=3047a84a-afb8-4bac-a4b8-f4cf2dd1af39","ios":"levelo://app?vid=3047a84a-afb8-4bac-a4b8-f4cf2dd1af39"},"vehicle_type_id":"4","last_reported":1703617535,"current_range_meters":26800,"station_id":"ce4bh3p2rcd13ifvqdq0","pricing_plan_id":"free"},{"bike_id":"c9c9bda5-31b6-4788-b7e2-a35eab64ee2b","system_id":"levelo_inurba_marseille","lat":43.287035,"lon":5.373927,"is_reserved":false,"is_disabled":false,"rental_uris":{"android":"levelo://app?vid=c9c9bda5-31b6-4788-b7e2-a35eab64ee2b","ios":"levelo://app?vid=c9c9bda5-31b6-4788-b7e2-a35eab64ee2b"},"vehicle_type_id":"4","last_reported":1703617535,"current_range_meters":24800,"station_id":"ce4bh3p2rcd13ifvqdq0","pricing_plan_id":"free"},{"bike_id":"e56e991a-bbbb-4287-b92c-1cbf046bf9b8","system_id":"levelo_inurba_marseille","lat":43.295196,"lon":5.39397,"is_reserved":false,"is_disabled":false,"rental_uris":{"android":"levelo://app?vid=e56e991a-bbbb-4287-b92c-1cbf046bf9b8","ios":"levelo://app?vid=e56e991a-bbbb-4287-b92c-1cbf046bf9b8"},"vehicle_type_id":"4","last_reported":1703617535,"current_range_meters":14800,"station_id":"ce4bh292rcd13ifvqdf0","pricing_plan_id":"free"},{"bike_id":"b7681a99-f7c4-4efc-b51e-0779935b20b6","system_id":"levelo_inurba_marseille","lat":43.298681,"lon":5.397225,"is_reserved":false,"is_disabled":false,"rental_uris":{"android":"levelo://app?vid=b7681a99-f7c4-4efc-b51e-0779935b20b6","ios":"levelo://app?vid=b7681a99-f7c4-4efc-b51e-0779935b20b6"},"vehicle_type_id":"4","last_reported":1703617535,"current_range_meters":11200,"station_id":"ce4bh0h2rcd13ifvqd50","pricing_plan_id":"free"},{"bike_id":"24d1fe63-dc56-4b92-97ac-6dd140861387","system_id":"levelo_inurba_marseille","lat":43.289307,"lon":5.38406,"is_reserved":false,"is_disabled":false,"rental_uris":{"android":"levelo://app?vid=24d1fe63-dc56-4b92-97ac-6dd140861387","ios":"levelo://app?vid=24d1fe63-dc56-4b92-97ac-6dd140861387"},"vehicle_type_id":"4","last_reported":1703617535,"current_range_meters":25200,"station_id":"ce4bh612rcd13ifvqe6g","pricing_plan_id":"free"},{"bike_id":"59ee2bfc-c36e-4ce9-b329-d348da76d953","system_id":"levelo_inurba_marseille","lat":43.302759,"lon":5.400793,"is_reserved":false,"is_disabled":false,"rental_uris":{"android":"levelo://app?vid=59ee2bfc-c36e-4ce9-b329-d348da76d953","ios":"levelo://app?vid=59ee2bfc-c36e-4ce9-b329-d348da76d953"},"vehicle_type_id":"4","last_reported":1703617535,"current_range_meters":28800,"station_id":"ce4bgvh2rcd13ifvqcs0","pricing_plan_id":"free"},{"bike_id":"1bafe52b-de01-4b2b-ba84-f729c4d660ef","system_id":"levelo_inurba_marseille","lat":43.286039,"lon":5.370679,"is_reserved":false,"is_disabled":false,"rental_uris":{"android":"levelo://app?vid=1bafe52b-de01-4b2b-ba84-f729c4d660ef","ios":"levelo://app?vid=1bafe52b-de01-4b2b-ba84-f729c4d660ef"},"vehicle_type_id":"4","last_reported":1703617535,"current_range_meters":17600,"station_id":"ce4bht12rcd13ifvqi60","pricing_plan_id":"free"},{"bike_id":"7260845c-a0df-4ce3-b635-e91590bb4f9a","system_id":"levelo_inurba_marseille","lat":43.286072,"lon":5.370689,"is_reserved":false,"is_disabled":false,"rental_uris":{"android":"levelo://app?vid=7260845c-a0df-4ce3-b635-e91590bb4f9a","ios":"levelo://app?vid=7260845c-a0df-4ce3-b635-e91590bb4f9a"},"vehicle_type_id":"4","last_reported":1703617535,"current_range_meters":19200,"station_id":"ce4bht12rcd13ifvqi60","pricing_plan_id":"free"},{"bike_id":"e42f2d48-1eac-4ea9-97da-9a200b97c493","system_id":"levelo_inurba_marseille","lat":43.28604,"lon":5.37065,"is_reserved":false,"is_disabled":false,"rental_uris":{"android":"levelo://app?vid=e42f2d48-1eac-4ea9-97da-9a200b97c493","ios":"levelo://app?vid=e42f2d48-1eac-4ea9-97da-9a200b97c493"},"vehicle_type_id":"4","last_reported":1703617535,"current_range_meters":23200,"station_id":"ce4bht12rcd13ifvqi60","pricing_plan_id":"free"},{"bike_id":"47b716f5-8e75-4c4d-ad26-d15ea90f5f09","system_id":"levelo_inurba_marseille","lat":43.287185,"lon":5.379373,"is_reserved":false,"is_disabled":false,"rental_uris":{"android":"levelo://app?vid=47b716f5-8e75-4c4d-ad26-d15ea90f5f09","ios":"levelo://app?vid=47b716f5-8e75-4c4d-ad26-d15ea90f5f09"},"vehicle_type_id":"4","last_reported":1703617535,"current_range_meters":10000,"station_id":"ce4bh9p2rcd13ifvqec0","pricing_plan_id":"free"},{"bike_id":"fa7570f2-256e-4948-b3fc-55402630ffd7","system_id":"levelo_inurba_marseille","lat":43.291994,"lon":5.392907,"is_reserved":false,"is_disabled":false,"rental_uris":{"android":"levelo://app?vid=fa7570f2-256e-4948-b3fc-55402630ffd7","ios":"levelo://app?vid=fa7570f2-256e-4948-b3fc-55402630ffd7"},"vehicle_type_id":"4","last_reported":1703617535,"current_range_meters":0,"station_id":"ce4bh192rcd13ifvqdd0","pricing_plan_id":"free"},{"bike_id":"6eaa031f-1c12-4e13-8c29-868e6eafb553","system_id":"levelo_inurba_marseille","lat":43.29193,"lon":5.39314,"is_reserved":false,"is_disabled":false,"rental_uris":{"android":"levelo://app?vid=6eaa031f-1c12-4e13-8c29-868e6eafb553","ios":"levelo://app?vid=6eaa031f-1c12-4e13-8c29-868e6eafb553"},"vehicle_type_id":"4","last_reported":1703617535,"current_range_meters":27600,"station_id":"ce4bh192rcd13ifvqdd0","pricing_plan_id":"free"},{"bike_id":"bf5587c6-0562-49c6-a59c-ea8ae5c66a61","system_id":"levelo_inurba_marseille","lat":43.29198,"lon":5.393398,"is_reserved":false,"is_disabled":false,"rental_uris":{"android":"levelo://app?vid=bf5587c6-0562-49c6-a59c-ea8ae5c66a61","ios":"levelo://app?vid=bf5587c6-0562-49c6-a59c-ea8ae5c66a61"},"vehicle_type_id":"4","last_reported":1703617535,"current_range_meters":6000,"station_id":"ce4bh192rcd13ifvqdd0","pricing_plan_id":"free"},{"bike_id":"e2adfa7c-882e-48a1-9ee4-b36e6186ebbf","system_id":"levelo_inurba_marseille","lat":43.330912,"lon":5.396935,"is_reserved":false,"is_disabled":false,"rental_uris":{"android":"levelo://app?vid=e2adfa7c-882e-48a1-9ee4-b36e6186ebbf","ios":"levelo://app?vid=e2adfa7c-882e-48a1-9ee4-b36e6186ebbf"},"vehicle_type_id":"4","last_reported":1703617535,"current_range_meters":2000,"station_id":"","pricing_plan_id":"free"},{"bike_id":"bfb1e7ac-b731-4acc-9c1e-16ad4946f499","system_id":"levelo_inurba_marseille","lat":43.285848,"lon":5.350787,"is_reserved":false,"is_disabled":false,"rental_uris":{"android":"levelo://app?vid=bfb1e7ac-b731-4acc-9c1e-16ad4946f499","ios":"levelo://app?vid=bfb1e7ac-b731-4acc-9c1e-16ad4946f499"},"vehicle_type_id":"4","last_reported":1703617535,"current_range_meters":27200,"station_id":"ce4bhch2rcd13ifvqeug","pricing_plan_id":"free"},{"bike_id":"8e66fad7-0713-4093-8fa1-8d19cacc0042","system_id":"levelo_inurba_marseille","lat":43.28455,"lon":5.35896,"is_reserved":false,"is_disabled":false,"rental_uris":{"android":"levelo://app?vid=8e66fad7-0713-4093-8fa1-8d19cacc0042","ios":"levelo://app?vid=8e66fad7-0713-4093-8fa1-8d19cacc0042"},"vehicle_type_id":"4","last_reported":1703617535,"current_range_meters":25200,"station_id":"ce4bhah2rcd13ifvqei0","pricing_plan_id":"free"},{"bike_id":"3ab71d57-f31d-4921-8d19-d8aa06494a99","system_id":"levelo_inurba_marseille","lat":43.284543,"lon":5.35889,"is_reserved":false,"is_disabled":false,"rental_uris":{"android":"levelo://app?vid=3ab71d57-f31d-4921-8d19-d8aa06494a99","ios":"levelo://app?vid=3ab71d57-f31d-4921-8d19-d8aa06494a99"},"vehicle_type_id":"4","last_reported":1703617535,"current_range_meters":13600,"station_id":"ce4bhah2rcd13ifvqei0","pricing_plan_id":"free"},{"bike_id":"ee34b0cb-3b36-4a75-b0a7-d9f1e13f004d","system_id":"levelo_inurba_marseille","lat":43.284513,"lon":5.358957,"is_reserved":false,"is_disabled":false,"rental_uris":{"android":"levelo://app?vid=ee34b0cb-3b36-4a75-b0a7-d9f1e13f004d","ios":"levelo://app?vid=ee34b0cb-3b36-4a75-b0a7-d9f1e13f004d"},"vehicle_type_id":"4","last_reported":1703617535,"current_range_meters":8400,"station_id":"ce4bhah2rcd13ifvqei0","pricing_plan_id":"free"},{"bike_id":"4cd86e13-8bfc-45f2-9ab8-42e6de13b38c","system_id":"levelo_inurba_marseille","lat":43.294314,"lon":5.397498,"is_reserved":false,"is_disabled":false,"rental_uris":{"android":"levelo://app?vid=4cd86e13-8bfc-45f2-9ab8-42e6de13b38c","ios":"levelo://app?vid=4cd86e13-8bfc-45f2-9ab8-42e6de13b38c"},"vehicle_type_id":"4","last_reported":1703617535,"current_range_meters":23600,"station_id":"ce4bh3h2rcd13ifvqdo0","pricing_plan_id":"free"},{"bike_id":"51e17138-6637-4300-b9a2-aa8c98496572","system_id":"levelo_inurba_marseille","lat":43.285856,"lon":5.350771,"is_reserved":false,"is_disabled":false,"rental_uris":{"android":"levelo://app?vid=51e17138-6637-4300-b9a2-aa8c98496572","ios":"levelo://app?vid=51e17138-6637-4300-b9a2-aa8c98496572"},"vehicle_type_id":"4","last_reported":1703617535,"current_range_meters":22000,"station_id":"ce4bhch2rcd13ifvqeug","pricing_plan_id":"free"},{"bike_id":"7d9bfb9c-3108-4579-9797-f218f09d5a33","system_id":"levelo_inurba_marseille","lat":43.283998,"lon":5.375062,"is_reserved":false,"is_disabled":false,"rental_uris":{"android":"levelo://app?vid=7d9bfb9c-3108-4579-9797-f218f09d5a33","ios":"levelo://app?vid=7d9bfb9c-3108-4579-9797-f218f09d5a33"},"vehicle_type_id":"4","last_reported":1703617535,"current_range_meters":14000,"station_id":"ce4bh412rcd13ifvqds0","pricing_plan_id":"free"},{"bike_id":"96b2ffa9-ebc1-4a7c-8400-482a164dc524","system_id":"levelo_inurba_marseille","lat":43.283998,"lon":5.375062,"is_reserved":false,"is_disabled":false,"rental_uris":{"android":"levelo://app?vid=96b2ffa9-ebc1-4a7c-8400-482a164dc524","ios":"levelo://app?vid=96b2ffa9-ebc1-4a7c-8400-482a164dc524"},"vehicle_type_id":"4","last_reported":1703617535,"current_range_meters":0,"station_id":"ce4bh412rcd13ifvqds0","pricing_plan_id":"free"},{"bike_id":"b3c74a90-056c-47f9-bf2e-21253b84e506","system_id":"levelo_inurba_marseille","lat":43.283998,"lon":5.375062,"is_reserved":false,"is_disabled":false,"rental_uris":{"android":"levelo://app?vid=b3c74a90-056c-47f9-bf2e-21253b84e506","ios":"levelo://app?vid=b3c74a90-056c-47f9-bf2e-21253b84e506"},"vehicle_type_id":"4","last_reported":1703617535,"current_range_meters":22800,"station_id":"ce4bh412rcd13ifvqds0","pricing_plan_id":"free"},{"bike_id":"b9591d78-e2df-46a2-84d9-ec62354db356","system_id":"levelo_inurba_marseille","lat":43.295713,"lon":5.399639,"is_reserved":false,"is_disabled":false,"rental_uris":{"android":"levelo://app?vid=b9591d78-e2df-46a2-84d9-ec62354db356","ios":"levelo://app?vid=b9591d78-e2df-46a2-84d9-ec62354db356"},"vehicle_type_id":"4","last_reported":1703617535,"current_range_meters":8800,"station_id":"ce4bh312rcd13ifvqdj0","pricing_plan_id":"free"},{"bike_id":"33382b81-ee31-4324-8941-451362ef5ad6","system_id":"levelo_inurba_marseille","lat":43.295713,"lon":5.399639,"is_reserved":false,"is_disabled":false,"rental_uris":{"android":"levelo://app?vid=33382b81-ee31-4324-8941-451362ef5ad6","ios":"levelo://app?vid=33382b81-ee31-4324-8941-451362ef5ad6"},"vehicle_type_id":"4","last_reported":1703617535,"current_range_meters":6800,"station_id":"ce4bh312rcd13ifvqdj0","pricing_plan_id":"free"},{"bike_id":"9e68e8b2-14e1-4803-b010-426b0224a805","system_id":"levelo_inurba_marseille","lat":43.295713,"lon":5.399639,"is_reserved":false,"is_disabled":false,"rental_uris":{"android":"levelo://app?vid=9e68e8b2-14e1-4803-b010-426b0224a805","ios":"levelo://app?vid=9e68e8b2-14e1-4803-b010-426b0224a805"},"vehicle_type_id":"4","last_reported":1703617535,"current_range_meters":26400,"station_id":"ce4bh312rcd13ifvqdj0","pricing_plan_id":"free"},{"bike_id":"826589f8-856e-4430-84c2-071b20d27bee","system_id":"levelo_inurba_marseille","lat":43.319179,"lon":5.407725,"is_reserved":false,"is_disabled":false,"rental_uris":{"android":"levelo://app?vid=826589f8-856e-4430-84c2-071b20d27bee","ios":"levelo://app?vid=826589f8-856e-4430-84c2-071b20d27bee"},"vehicle_type_id":"4","last_reported":1703617535,"current_range_meters":28400,"station_id":"ce4bhq12rcd13ifvqhig","pricing_plan_id":"free"},{"bike_id":"0f78220a-16f8-4667-a617-106a8c4df1d0","system_id":"levelo_inurba_marseille","lat":43.29795,"lon":5.404086,"is_reserved":false,"is_disabled":false,"rental_uris":{"android":"levelo://app?vid=0f78220a-16f8-4667-a617-106a8c4df1d0","ios":"levelo://app?vid=0f78220a-16f8-4667-a617-106a8c4df1d0"},"vehicle_type_id":"4","last_reported":1703617535,"current_range_meters":29200,"station_id":"ce4bh112rcd13ifvqd90","pricing_plan_id":"free"},{"bike_id":"929408d6-8d9c-42e5-bcbf-e961eef6e1da","system_id":"levelo_inurba_marseille","lat":43.283494,"lon":5.380945,"is_reserved":false,"is_disabled":false,"rental_uris":{"android":"levelo://app?vid=929408d6-8d9c-42e5-bcbf-e961eef6e1da","ios":"levelo://app?vid=929408d6-8d9c-42e5-bcbf-e961eef6e1da"},"vehicle_type_id":"4","last_reported":1703617535,"current_range_meters":0,"station_id":"ce4bh412rcd13ifvqdr0","pricing_plan_id":"free"},{"bike_id":"e0b68692-8b72-46fb-ac41-394761fb3425","system_id":"levelo_inurba_marseille","lat":43.283494,"lon":5.380945,"is_reserved":false,"is_disabled":false,"rental_uris":{"android":"levelo://app?vid=e0b68692-8b72-46fb-ac41-394761fb3425","ios":"levelo://app?vid=e0b68692-8b72-46fb-ac41-394761fb3425"},"vehicle_type_id":"4","last_reported":1703617535,"current_range_meters":31600,"station_id":"ce4bh412rcd13ifvqdr0","pricing_plan_id":"free"},{"bike_id":"dd56f053-76e9-4b1a-be9a-a855afb8a653","system_id":"levelo_inurba_marseille","lat":43.283494,"lon":5.380945,"is_reserved":false,"is_disabled":false,"rental_uris":{"android":"levelo://app?vid=dd56f053-76e9-4b1a-be9a-a855afb8a653","ios":"levelo://app?vid=dd56f053-76e9-4b1a-be9a-a855afb8a653"},"vehicle_type_id":"4","last_reported":1703617535,"current_range_meters":23200,"station_id":"ce4bh412rcd13ifvqdr0","pricing_plan_id":"free"},{"bike_id":"ddedd4db-7bba-4397-8ccb-787f9d9ddabe","system_id":"levelo_inurba_marseille","lat":43.283498,"lon":5.380948,"is_reserved":false,"is_disabled":false,"rental_uris":{"android":"levelo://app?vid=ddedd4db-7bba-4397-8ccb-787f9d9ddabe","ios":"levelo://app?vid=ddedd4db-7bba-4397-8ccb-787f9d9ddabe"},"vehicle_type_id":"4","last_reported":1703617535,"current_range_meters":6400,"station_id":"ce4bh412rcd13ifvqdr0","pricing_plan_id":"free"},{"bike_id":"96f08949-9741-46b9-b3c5-0056fdb3c07d","system_id":"levelo_inurba_marseille","lat":43.283494,"lon":5.380945,"is_reserved":false,"is_disabled":false,"rental_uris":{"android":"levelo://app?vid=96f08949-9741-46b9-b3c5-0056fdb3c07d","ios":"levelo://app?vid=96f08949-9741-46b9-b3c5-0056fdb3c07d"},"vehicle_type_id":"4","last_reported":1703617535,"current_range_meters":18000,"station_id":"ce4bh412rcd13ifvqdr0","pricing_plan_id":"free"},{"bike_id":"8752f406-7ee5-452b-aa39-8aaf354476cc","system_id":"levelo_inurba_marseille","lat":43.283498,"lon":5.380948,"is_reserved":false,"is_disabled":false,"rental_uris":{"android":"levelo://app?vid=8752f406-7ee5-452b-aa39-8aaf354476cc","ios":"levelo://app?vid=8752f406-7ee5-452b-aa39-8aaf354476cc"},"vehicle_type_id":"4","last_reported":1703617535,"current_range_meters":16400,"station_id":"ce4bh412rcd13ifvqdr0","pricing_plan_id":"free"},{"bike_id":"bd70cfc0-cbcf-4770-8b6c-efb9dbd68efa","system_id":"levelo_inurba_marseille","lat":43.283498,"lon":5.380948,"is_reserved":false,"is_disabled":false,"rental_uris":{"android":"levelo://app?vid=bd70cfc0-cbcf-4770-8b6c-efb9dbd68efa","ios":"levelo://app?vid=bd70cfc0-cbcf-4770-8b6c-efb9dbd68efa"},"vehicle_type_id":"4","last_reported":1703617535,"current_range_meters":23600,"station_id":"ce4bh412rcd13ifvqdr0","pricing_plan_id":"free"},{"bike_id":"f13ec3b6-4233-4299-8051-736bcb56f9bc","system_id":"levelo_inurba_marseille","lat":43.283498,"lon":5.380948,"is_reserved":false,"is_disabled":false,"rental_uris":{"android":"levelo://app?vid=f13ec3b6-4233-4299-8051-736bcb56f9bc","ios":"levelo://app?vid=f13ec3b6-4233-4299-8051-736bcb56f9bc"},"vehicle_type_id":"4","last_reported":1703617535,"current_range_meters":9200,"station_id":"ce4bh412rcd13ifvqdr0","pricing_plan_id":"free"},{"bike_id":"c17cf6bd-767b-4bd0-8d7e-872b5c64c3a6","system_id":"levelo_inurba_marseille","lat":43.283498,"lon":5.380948,"is_reserved":false,"is_disabled":false,"rental_uris":{"android":"levelo://app?vid=c17cf6bd-767b-4bd0-8d7e-872b5c64c3a6","ios":"levelo://app?vid=c17cf6bd-767b-4bd0-8d7e-872b5c64c3a6"},"vehicle_type_id":"4","last_reported":1703617535,"current_range_meters":18400,"station_id":"ce4bh412rcd13ifvqdr0","pricing_plan_id":"free"},{"bike_id":"e485450b-2736-4f4c-b94b-0da5a69b88aa","system_id":"levelo_inurba_marseille","lat":43.33385,"lon":5.39822,"is_reserved":false,"is_disabled":false,"rental_uris":{"android":"levelo://app?vid=e485450b-2736-4f4c-b94b-0da5a69b88aa","ios":"levelo://app?vid=e485450b-2736-4f4c-b94b-0da5a69b88aa"},"vehicle_type_id":"4","last_reported":1703617535,"current_range_meters":21600,"station_id":"","pricing_plan_id":"free"},{"bike_id":"b8dc04a1-c27c-403f-89bb-d1a2749f1063","system_id":"levelo_inurba_marseille","lat":43.289363,"lon":5.396322,"is_reserved":false,"is_disabled":false,"rental_uris":{"android":"levelo://app?vid=b8dc04a1-c27c-403f-89bb-d1a2749f1063","ios":"levelo://app?vid=b8dc04a1-c27c-403f-89bb-d1a2749f1063"},"vehicle_type_id":"4","last_reported":1703617535,"current_range_meters":6800,"station_id":"ce4bh3h2rcd13ifvqdn0","pricing_plan_id":"free"},{"bike_id":"47306c0d-a88e-46ff-8858-f966fa62f63a","system_id":"levelo_inurba_marseille","lat":43.289363,"lon":5.396322,"is_reserved":false,"is_disabled":false,"rental_uris":{"android":"levelo://app?vid=47306c0d-a88e-46ff-8858-f966fa62f63a","ios":"levelo://app?vid=47306c0d-a88e-46ff-8858-f966fa62f63a"},"vehicle_type_id":"4","last_reported":1703617535,"current_range_meters":26000,"station_id":"ce4bh3h2rcd13ifvqdn0","pricing_plan_id":"free"},{"bike_id":"e67dac4f-939b-4d98-8085-821c2c82d655","system_id":"levelo_inurba_marseille","lat":43.292724,"lon":5.401131,"is_reserved":false,"is_disabled":false,"rental_uris":{"android":"levelo://app?vid=e67dac4f-939b-4d98-8085-821c2c82d655","ios":"levelo://app?vid=e67dac4f-939b-4d98-8085-821c2c82d655"},"vehicle_type_id":"4","last_reported":1703617535,"current_range_meters":31200,"station_id":"ce4bh312rcd13ifvqdk0","pricing_plan_id":"free"},{"bike_id":"7a80aaf6-2af8-48ee-b756-6452e3303d8a","system_id":"levelo_inurba_marseille","lat":43.292724,"lon":5.401131,"is_reserved":false,"is_disabled":false,"rental_uris":{"android":"levelo://app?vid=7a80aaf6-2af8-48ee-b756-6452e3303d8a","ios":"levelo://app?vid=7a80aaf6-2af8-48ee-b756-6452e3303d8a"},"vehicle_type_id":"4","last_reported":1703617535,"current_range_meters":20400,"station_id":"ce4bh312rcd13ifvqdk0","pricing_plan_id":"free"},{"bike_id":"90ffeefc-74ab-4748-9a02-eae743c978ba","system_id":"levelo_inurba_marseille","lat":43.292724,"lon":5.401131,"is_reserved":false,"is_disabled":false,"rental_uris":{"android":"levelo://app?vid=90ffeefc-74ab-4748-9a02-eae743c978ba","ios":"levelo://app?vid=90ffeefc-74ab-4748-9a02-eae743c978ba"},"vehicle_type_id":"4","last_reported":1703617535,"current_range_meters":22000,"station_id":"ce4bh312rcd13ifvqdk0","pricing_plan_id":"free"},{"bike_id":"f2dd676e-7f07-48b4-b81a-d68dd6418714","system_id":"levelo_inurba_marseille","lat":43.292724,"lon":5.401131,"is_reserved":false,"is_disabled":false,"rental_uris":{"android":"levelo://app?vid=f2dd676e-7f07-48b4-b81a-d68dd6418714","ios":"levelo://app?vid=f2dd676e-7f07-48b4-b81a-d68dd6418714"},"vehicle_type_id":"4","last_reported":1703617535,"current_range_meters":19200,"station_id":"ce4bh312rcd13ifvqdk0","pricing_plan_id":"free"},{"bike_id":"37e35540-b466-4795-8c0e-8ad6f212cf9b","system_id":"levelo_inurba_marseille","lat":43.28275,"lon":5.35059,"is_reserved":false,"is_disabled":false,"rental_uris":{"android":"levelo://app?vid=37e35540-b466-4795-8c0e-8ad6f212cf9b","ios":"levelo://app?vid=37e35540-b466-4795-8c0e-8ad6f212cf9b"},"vehicle_type_id":"4","last_reported":1703617535,"current_range_meters":12000,"station_id":"ce4bhbp2rcd13ifvqerg","pricing_plan_id":"free"},{"bike_id":"787fc710-c520-40d9-ae3d-3491dbbb263b","system_id":"levelo_inurba_marseille","lat":43.2837,"lon":5.38631,"is_reserved":false,"is_disabled":false,"rental_uris":{"android":"levelo://app?vid=787fc710-c520-40d9-ae3d-3491dbbb263b","ios":"levelo://app?vid=787fc710-c520-40d9-ae3d-3491dbbb263b"},"vehicle_type_id":"4","last_reported":1703617535,"current_range_meters":0,"station_id":"ce4bh492rcd13ifvqdvg","pricing_plan_id":"free"},{"bike_id":"ba3e5f0f-ed4a-48cc-8a92-f35f9f83ccbc","system_id":"levelo_inurba_marseille","lat":43.283502,"lon":5.386471,"is_reserved":false,"is_disabled":false,"rental_uris":{"android":"levelo://app?vid=ba3e5f0f-ed4a-48cc-8a92-f35f9f83ccbc","ios":"levelo://app?vid=ba3e5f0f-ed4a-48cc-8a92-f35f9f83ccbc"},"vehicle_type_id":"4","last_reported":1703617535,"current_range_meters":8800,"station_id":"ce4bh492rcd13ifvqdvg","pricing_plan_id":"free"},{"bike_id":"24e2c243-d810-4cb0-bf16-4757ab160c8b","system_id":"levelo_inurba_marseille","lat":43.28039,"lon":5.369297,"is_reserved":false,"is_disabled":false,"rental_uris":{"android":"levelo://app?vid=24e2c243-d810-4cb0-bf16-4757ab160c8b","ios":"levelo://app?vid=24e2c243-d810-4cb0-bf16-4757ab160c8b"},"vehicle_type_id":"4","last_reported":1703617535,"current_range_meters":28000,"station_id":"ce4bha12rcd13ifvqef0","pricing_plan_id":"free"},{"bike_id":"21cdddc6-61d7-4c4d-8e98-9b6c2f0d4480","system_id":"levelo_inurba_marseille","lat":43.280382,"lon":5.369291,"is_reserved":false,"is_disabled":false,"rental_uris":{"android":"levelo://app?vid=21cdddc6-61d7-4c4d-8e98-9b6c2f0d4480","ios":"levelo://app?vid=21cdddc6-61d7-4c4d-8e98-9b6c2f0d4480"},"vehicle_type_id":"4","last_reported":1703617535,"current_range_meters":24000,"station_id":"ce4bha12rcd13ifvqef0","pricing_plan_id":"free"},{"bike_id":"ccc034cc-109e-4698-90c9-6cf535e482fc","system_id":"levelo_inurba_marseille","lat":43.283502,"lon":5.386471,"is_reserved":false,"is_disabled":false,"rental_uris":{"android":"levelo://app?vid=ccc034cc-109e-4698-90c9-6cf535e482fc","ios":"levelo://app?vid=ccc034cc-109e-4698-90c9-6cf535e482fc"},"vehicle_type_id":"4","last_reported":1703617535,"current_range_meters":16000,"station_id":"ce4bh492rcd13ifvqdvg","pricing_plan_id":"free"},{"bike_id":"874247a8-b851-4752-bb55-16e8eebdc42c","system_id":"levelo_inurba_marseille","lat":43.280382,"lon":5.369291,"is_reserved":false,"is_disabled":false,"rental_uris":{"android":"levelo://app?vid=874247a8-b851-4752-bb55-16e8eebdc42c","ios":"levelo://app?vid=874247a8-b851-4752-bb55-16e8eebdc42c"},"vehicle_type_id":"4","last_reported":1703617535,"current_range_meters":30400,"station_id":"ce4bha12rcd13ifvqef0","pricing_plan_id":"free"},{"bike_id":"1d293311-311b-489d-bb4f-f10e101bd61a","system_id":"levelo_inurba_marseille","lat":43.29041,"lon":5.399634,"is_reserved":false,"is_disabled":false,"rental_uris":{"android":"levelo://app?vid=1d293311-311b-489d-bb4f-f10e101bd61a","ios":"levelo://app?vid=1d293311-311b-489d-bb4f-f10e101bd61a"},"vehicle_type_id":"4","last_reported":1703617535,"current_range_meters":11200,"station_id":"ce4bh392rcd13ifvqdm0","pricing_plan_id":"free"},{"bike_id":"f11c0d97-8f26-4026-85eb-53e9266c8779","system_id":"levelo_inurba_marseille","lat":43.281044,"lon":5.378308,"is_reserved":false,"is_disabled":false,"rental_uris":{"android":"levelo://app?vid=f11c0d97-8f26-4026-85eb-53e9266c8779","ios":"levelo://app?vid=f11c0d97-8f26-4026-85eb-53e9266c8779"},"vehicle_type_id":"4","last_reported":1703617535,"current_range_meters":24400,"station_id":"ce4bha12rcd13ifvqee0","pricing_plan_id":"free"},{"bike_id":"2f480e3f-e459-45f1-8d71-e0a8ac0a6abe","system_id":"levelo_inurba_marseille","lat":43.284462,"lon":5.392121,"is_reserved":false,"is_disabled":false,"rental_uris":{"android":"levelo://app?vid=2f480e3f-e459-45f1-8d71-e0a8ac0a6abe","ios":"levelo://app?vid=2f480e3f-e459-45f1-8d71-e0a8ac0a6abe"},"vehicle_type_id":"4","last_reported":1703617535,"current_range_meters":28400,"station_id":"ce4bhoh2rcd13ifvqh5g","pricing_plan_id":"free"},{"bike_id":"b4716231-4054-4fe3-80bb-824f92905830","system_id":"levelo_inurba_marseille","lat":43.284462,"lon":5.392121,"is_reserved":false,"is_disabled":false,"rental_uris":{"android":"levelo://app?vid=b4716231-4054-4fe3-80bb-824f92905830","ios":"levelo://app?vid=b4716231-4054-4fe3-80bb-824f92905830"},"vehicle_type_id":"4","last_reported":1703617535,"current_range_meters":23200,"station_id":"ce4bhoh2rcd13ifvqh5g","pricing_plan_id":"free"},{"bike_id":"a4a5ccde-62af-4c28-95c1-d68b50703509","system_id":"levelo_inurba_marseille","lat":43.326605,"lon":5.409903,"is_reserved":false,"is_disabled":false,"rental_uris":{"android":"levelo://app?vid=a4a5ccde-62af-4c28-95c1-d68b50703509","ios":"levelo://app?vid=a4a5ccde-62af-4c28-95c1-d68b50703509"},"vehicle_type_id":"4","last_reported":1703617535,"current_range_meters":30800,"station_id":"ce4bhpp2rcd13ifvqhgg","pricing_plan_id":"free"},{"bike_id":"c5abbc0f-9532-4f22-93a3-8763d4be1acd","system_id":"levelo_inurba_marseille","lat":43.304188,"lon":5.412904,"is_reserved":false,"is_disabled":false,"rental_uris":{"android":"levelo://app?vid=c5abbc0f-9532-4f22-93a3-8763d4be1acd","ios":"levelo://app?vid=c5abbc0f-9532-4f22-93a3-8763d4be1acd"},"vehicle_type_id":"4","last_reported":1703617535,"current_range_meters":28800,"station_id":"ce4bhop2rcd13ifvqh8g","pricing_plan_id":"free"},{"bike_id":"23a18914-adeb-4148-a7d9-94eed249347d","system_id":"levelo_inurba_marseille","lat":43.304188,"lon":5.412904,"is_reserved":false,"is_disabled":false,"rental_uris":{"android":"levelo://app?vid=23a18914-adeb-4148-a7d9-94eed249347d","ios":"levelo://app?vid=23a18914-adeb-4148-a7d9-94eed249347d"},"vehicle_type_id":"4","last_reported":1703617535,"current_range_meters":26400,"station_id":"ce4bhop2rcd13ifvqh8g","pricing_plan_id":"free"},{"bike_id":"8a8bd902-1bc2-4dc8-a475-e7aa7fdbac57","system_id":"levelo_inurba_marseille","lat":43.287154,"lon":5.399979,"is_reserved":false,"is_disabled":false,"rental_uris":{"android":"levelo://app?vid=8a8bd902-1bc2-4dc8-a475-e7aa7fdbac57","ios":"levelo://app?vid=8a8bd902-1bc2-4dc8-a475-e7aa7fdbac57"},"vehicle_type_id":"4","last_reported":1703617535,"current_range_meters":7600,"station_id":"ce4bho92rcd13ifvqh3g","pricing_plan_id":"free"},{"bike_id":"1f49b234-69ed-438e-8d08-179a4fc9c8c6","system_id":"levelo_inurba_marseille","lat":43.320045,"lon":5.415046,"is_reserved":false,"is_disabled":false,"rental_uris":{"android":"levelo://app?vid=1f49b234-69ed-438e-8d08-179a4fc9c8c6","ios":"levelo://app?vid=1f49b234-69ed-438e-8d08-179a4fc9c8c6"},"vehicle_type_id":"4","last_reported":1703617535,"current_range_meters":31600,"station_id":"ce4bhq92rcd13ifvqhkg","pricing_plan_id":"free"},{"bike_id":"c7bd3360-8623-45a1-80df-ba9edb342255","system_id":"levelo_inurba_marseille","lat":43.320045,"lon":5.415046,"is_reserved":false,"is_disabled":false,"rental_uris":{"android":"levelo://app?vid=c7bd3360-8623-45a1-80df-ba9edb342255","ios":"levelo://app?vid=c7bd3360-8623-45a1-80df-ba9edb342255"},"vehicle_type_id":"4","last_reported":1703617535,"current_range_meters":8800,"station_id":"ce4bhq92rcd13ifvqhkg","pricing_plan_id":"free"},{"bike_id":"e42b51bd-7b83-49aa-9027-6a27d219eb7f","system_id":"levelo_inurba_marseille","lat":43.279742,"lon":5.38744,"is_reserved":false,"is_disabled":false,"rental_uris":{"android":"levelo://app?vid=e42b51bd-7b83-49aa-9027-6a27d219eb7f","ios":"levelo://app?vid=e42b51bd-7b83-49aa-9027-6a27d219eb7f"},"vehicle_type_id":"4","last_reported":1703617535,"current_range_meters":13200,"station_id":"ce4bhg12rcd13ifvqf80","pricing_plan_id":"free"},{"bike_id":"0f9ba54f-2d34-4815-a7a3-85ee9d8e32a4","system_id":"levelo_inurba_marseille","lat":43.320045,"lon":5.415048,"is_reserved":false,"is_disabled":false,"rental_uris":{"android":"levelo://app?vid=0f9ba54f-2d34-4815-a7a3-85ee9d8e32a4","ios":"levelo://app?vid=0f9ba54f-2d34-4815-a7a3-85ee9d8e32a4"},"vehicle_type_id":"4","last_reported":1703617535,"current_range_meters":29200,"station_id":"ce4bhq92rcd13ifvqhkg","pricing_plan_id":"free"},{"bike_id":"ddf6ee76-df1d-4211-a047-b58bf2672a56","system_id":"levelo_inurba_marseille","lat":43.303837,"lon":5.418724,"is_reserved":false,"is_disabled":false,"rental_uris":{"android":"levelo://app?vid=ddf6ee76-df1d-4211-a047-b58bf2672a56","ios":"levelo://app?vid=ddf6ee76-df1d-4211-a047-b58bf2672a56"},"vehicle_type_id":"4","last_reported":1703617535,"current_range_meters":28000,"station_id":"ce4bhop2rcd13ifvqh7g","pricing_plan_id":"free"},{"bike_id":"ebe708c8-4e63-4d9f-b013-3cdabbc3d1be","system_id":"levelo_inurba_marseille","lat":43.276769,"lon":5.388787,"is_reserved":false,"is_disabled":false,"rental_uris":{"android":"levelo://app?vid=ebe708c8-4e63-4d9f-b013-3cdabbc3d1be","ios":"levelo://app?vid=ebe708c8-4e63-4d9f-b013-3cdabbc3d1be"},"vehicle_type_id":"4","last_reported":1703617535,"current_range_meters":10400,"station_id":"ce4bhi12rcd13ifvqfo0","pricing_plan_id":"free"},{"bike_id":"704be52c-3b70-4426-88c8-83f6ddc8792d","system_id":"levelo_inurba_marseille","lat":43.276769,"lon":5.388787,"is_reserved":false,"is_disabled":false,"rental_uris":{"android":"levelo://app?vid=704be52c-3b70-4426-88c8-83f6ddc8792d","ios":"levelo://app?vid=704be52c-3b70-4426-88c8-83f6ddc8792d"},"vehicle_type_id":"4","last_reported":1703617535,"current_range_meters":30400,"station_id":"ce4bhi12rcd13ifvqfo0","pricing_plan_id":"free"},{"bike_id":"88bfcab4-2322-402d-ac14-e5e089db449c","system_id":"levelo_inurba_marseille","lat":43.336134,"lon":5.410341,"is_reserved":false,"is_disabled":false,"rental_uris":{"android":"levelo://app?vid=88bfcab4-2322-402d-ac14-e5e089db449c","ios":"levelo://app?vid=88bfcab4-2322-402d-ac14-e5e089db449c"},"vehicle_type_id":"4","last_reported":1703617535,"current_range_meters":26800,"station_id":"ce4bhqh2rcd13ifvqhmg","pricing_plan_id":"free"},{"bike_id":"8f9279d9-9184-4925-a96c-00c2721d0aad","system_id":"levelo_inurba_marseille","lat":43.276771,"lon":5.388799,"is_reserved":false,"is_disabled":false,"rental_uris":{"android":"levelo://app?vid=8f9279d9-9184-4925-a96c-00c2721d0aad","ios":"levelo://app?vid=8f9279d9-9184-4925-a96c-00c2721d0aad"},