{"last_updated":1733242292,"ttl":60,"version":"2.2","data":{"bikes":[{"bike_id":"d02aa8d1-cc56-4a8a-9e61-4c40a23b5768","system_id":"levelo_inurba_marseille","lat":43.25003,"lon":5.38925,"is_reserved":false,"is_disabled":false,"rental_uris":{"android":"levelo://app?vid=d02aa8d1-cc56-4a8a-9e61-4c40a23b5768","ios":"levelo://app?vid=d02aa8d1-cc56-4a8a-9e61-4c40a23b5768"},"vehicle_type_id":"4","last_reported":1733242292,"current_range_meters":22800,"station_id":"ce4bhgp2rcd13ifvqfd0","pricing_plan_id":"cebpf4jnsgd1na2vs0mg"},{"bike_id":"2706ac48-9320-41cb-b277-ff0066b84541","system_id":"levelo_inurba_marseille","lat":43.26802,"lon":5.40275,"is_reserved":false,"is_disabled":false,"rental_uris":{"android":"levelo://app?vid=2706ac48-9320-41cb-b277-ff0066b84541","ios":"levelo://app?vid=2706ac48-9320-41cb-b277-ff0066b84541"},"vehicle_type_id":"4","last_reported":1733242292,"current_range_meters":29600,"station_id":"ce501612rcd8frsf0b60","pricing_plan_id":"cebpf4jnsgd1na2vs0mg"},{"bike_id":"df479c2c-35ac-44ad-b9d6-81c89ed769ce","system_id":"levelo_inurba_marseille","lat":43.29683,"lon":5.37077,"is_reserved":false,"is_disabled":true,"rental_uris":{"android":"levelo://app?vid=df479c2c-35ac-44ad-b9d6-81c89ed769ce","ios":"levelo://app?vid=df479c2c-35ac-44ad-b9d6-81c89ed769ce"},"vehicle_type_id":"4","last_reported":1733242292,"current_range_meters":0,"station_id":"","pricing_plan_id":"cebpf4jnsgd1na2vs0mg"},{"bike_id":"8e029eaf-e104-4c5d-858d-6cd39de73d09","system_id":"levelo_inurba_marseille","lat":43.24169,"lon":5.36394,"is_reserved":false,"is_disabled":false,"rental_uris":{"android":"levelo://app?vid=8e029eaf-e104-4c5d-858d-6cd39de73d09","ios":"levelo://app?vid=8e029eaf-e104-4c5d-858d-6cd39de73d09"},"vehicle_type_id":"4","last_reported":1733242292,"current_range_meters":14400,"station_id":"cpo36qri1sfpv3e86is0","pricing_plan_id":"cebpf4jnsgd1na2vs0mg"},{"bike_id":"fd85f247-bc9f-4512-8957-89e7641ccdee","system_id":"levelo_inurba_marseille","lat":43.32476,"lon":5.36575,"is_reserved":false,"is_disabled":false,"rental_uris":{"android":"levelo://app?vid=fd85f247-bc9f-4512-8957-89e7641ccdee","ios":"levelo://app?vid=fd85f247-bc9f-4512-8957-89e7641ccdee"},"vehicle_type_id":"4","last_reported":1733242292,"current_range_meters":38400,"station_id":"ce4bhs12rcd13ifvqhvg","pricing_plan_id":"cebpf4jnsgd1na2vs0mg"},{"bike_id":"db7b0108-fa05-40ba-b924-066683d40771","system_id":"levelo_inurba_marseille","lat":43.29524,"lon":5.38535,"is_reserved":false,"is_disabled":false,"rental_uris":{"android":"levelo://app?vid=db7b0108-fa05-40ba-b924-066683d40771","ios":"levelo://app?vid=db7b0108-fa05-40ba-b924-066683d40771"},"vehicle_type_id":"4","last_reported":1733242292,"current_range_meters":10800,"station_id":"ce4bgih2rcd13ifvqba0","pricing_plan_id":"cebpf4jnsgd1na2vs0mg"},{"bike_id":"da2f08eb-648d-4a74-ae22-04002360146a","system_id":"levelo_inurba_marseille","lat":43.27323,"lon":5.39092,"is_reserved":false,"is_disabled":false,"rental_uris":{"android":"levelo://app?vid=da2f08eb-648d-4a74-ae22-04002360146a","ios":"levelo://app?vid=da2f08eb-648d-4a74-ae22-04002360146a"},"vehicle_type_id":"4","last_reported":1733242292,"current_range_meters":33600,"station_id":"ce4bhgp2rcd13ifvqfe0","pricing_plan_id":"cebpf4jnsgd1na2vs0mg"},{"bike_id":"bf2697d8-6d9e-4d88-9119-8a9081010bc1","system_id":"levelo_inurba_marseille","lat":43.27997,"lon":5.40016,"is_reserved":false,"is_disabled":false,"rental_uris":{"android":"levelo://app?vid=bf2697d8-6d9e-4d88-9119-8a9081010bc1","ios":"levelo://app?vid=bf2697d8-6d9e-4d88-9119-8a9081010bc1"},"vehicle_type_id":"4","last_reported":1733242292,"current_range_meters":27200,"station_id":"ce4bho92rcd13ifvqh4g","pricing_plan_id":"cebpf4jnsgd1na2vs0mg"},{"bike_id":"44667e0e-3f11-43c3-8c43-85aa4e53fc8f","system_id":"levelo_inurba_marseille","lat":43.30415,"lon":5.41285,"is_reserved":false,"is_disabled":true,"rental_uris":{"android":"levelo://app?vid=44667e0e-3f11-43c3-8c43-85aa4e53fc8f","ios":"levelo://app?vid=44667e0e-3f11-43c3-8c43-85aa4e53fc8f"},"vehicle_type_id":"4","last_reported":1733242292,"current_range_meters":0,"station_id":"ce4bhop2rcd13ifvqh8g","pricing_plan_id":"cebpf4jnsgd1na2vs0mg"},{"bike_id":"be407bbe-d1ce-48de-8db2-09114af9efd7","system_id":"levelo_inurba_marseille","lat":43.32367,"lon":5.36763,"is_reserved":false,"is_disabled":false,"rental_uris":{"android":"levelo://app?vid=be407bbe-d1ce-48de-8db2-09114af9efd7","ios":"levelo://app?vid=be407bbe-d1ce-48de-8db2-09114af9efd7"},"vehicle_type_id":"4","last_reported":1733242292,"current_range_meters":38000,"station_id":"ce4bhsh2rcd13ifvqi2g","pricing_plan_id":"cebpf4jnsgd1na2vs0mg"},{"bike_id":"c6c1c062-49da-44a9-8106-47f425d4aedf","system_id":"levelo_inurba_marseille","lat":43.27995,"lon":5.41668,"is_reserved":false,"is_disabled":true,"rental_uris":{"android":"levelo://app?vid=c6c1c062-49da-44a9-8106-47f425d4aedf","ios":"levelo://app?vid=c6c1c062-49da-44a9-8106-47f425d4aedf"},"vehicle_type_id":"4","last_reported":1733242292,"current_range_meters":1200,"station_id":"ce4bho12rcd13ifvqh1g","pricing_plan_id":"cebpf4jnsgd1na2vs0mg"},{"bike_id":"3156a369-568f-481d-b39d-8ff7a71dd8b1","system_id":"levelo_inurba_marseille","lat":43.26943,"lon":5.4025,"is_reserved":false,"is_disabled":true,"rental_uris":{"android":"levelo://app?vid=3156a369-568f-481d-b39d-8ff7a71dd8b1","ios":"levelo://app?vid=3156a369-568f-481d-b39d-8ff7a71dd8b1"},"vehicle_type_id":"4","last_reported":1733242292,"current_range_meters":400,"station_id":"cjm6bp8fraef2m0cb0m0","pricing_plan_id":"cebpf4jnsgd1na2vs0mg"},{"bike_id":"8bd642b2-0279-44c7-9ee2-fc3b57332c83","system_id":"levelo_inurba_marseille","lat":43.27455,"lon":5.40073,"is_reserved":false,"is_disabled":true,"rental_uris":{"android":"levelo://app?vid=8bd642b2-0279-44c7-9ee2-fc3b57332c83","ios":"levelo://app?vid=8bd642b2-0279-44c7-9ee2-fc3b57332c83"},"vehicle_type_id":"4","last_reported":1733242292,"current_range_meters":0,"station_id":"","pricing_plan_id":"cebpf4jnsgd1na2vs0mg"},{"bike_id":"6eb4112f-b04e-4ce7-a089-1ffad5140b6a","system_id":"levelo_inurba_marseille","lat":43.29273,"lon":5.36845,"is_reserved":false,"is_disabled":true,"rental_uris":{"android":"levelo://app?vid=6eb4112f-b04e-4ce7-a089-1ffad5140b6a","ios":"levelo://app?vid=6eb4112f-b04e-4ce7-a089-1ffad5140b6a"},"vehicle_type_id":"4","last_reported":1733242292,"current_range_meters":1600,"station_id":"ce4bhbp2rcd13ifvqesg","pricing_plan_id":"cebpf4jnsgd1na2vs0mg"},{"bike_id":"6484fda0-a4a5-4835-863b-fd43d58e7131","system_id":"levelo_inurba_marseille","lat":43.29263,"lon":5.36846,"is_reserved":false,"is_disabled":false,"rental_uris":{"android":"levelo://app?vid=6484fda0-a4a5-4835-863b-fd43d58e7131","ios":"levelo://app?vid=6484fda0-a4a5-4835-863b-fd43d58e7131"},"vehicle_type_id":"4","last_reported":1733242292,"current_range_meters":16000,"station_id":"ce4bhbp2rcd13ifvqesg","pricing_plan_id":"cebpf4jnsgd1na2vs0mg"},{"bike_id":"647c9f5d-38ae-406a-af37-47e78bdb92c8","system_id":"levelo_inurba_marseille","lat":43.337444,"lon":5.374475,"is_reserved":false,"is_disabled":false,"rental_uris":{"android":"levelo://app?vid=647c9f5d-38ae-406a-af37-47e78bdb92c8","ios":"levelo://app?vid=647c9f5d-38ae-406a-af37-47e78bdb92c8"},"vehicle_type_id":"4","last_reported":1733242292,"current_range_meters":24000,"station_id":"","pricing_plan_id":"cebpf4jnsgd1na2vs0mg"},{"bike_id":"68312c43-285d-4f27-94e7-eac55ce1358c","system_id":"levelo_inurba_marseille","lat":43.270591,"lon":5.402585,"is_reserved":false,"is_disabled":true,"rental_uris":{"android":"levelo://app?vid=68312c43-285d-4f27-94e7-eac55ce1358c","ios":"levelo://app?vid=68312c43-285d-4f27-94e7-eac55ce1358c"},"vehicle_type_id":"4","last_reported":1733242292,"current_range_meters":2000,"station_id":"ce4bhk92rcd13ifvqgc0","pricing_plan_id":"cebpf4jnsgd1na2vs0mg"},{"bike_id":"c9ae347f-afd8-436c-933c-cf5e2e790d85","system_id":"levelo_inurba_marseille","lat":43.30198,"lon":5.39458,"is_reserved":false,"is_disabled":true,"rental_uris":{"android":"levelo://app?vid=c9ae347f-afd8-436c-933c-cf5e2e790d85","ios":"levelo://app?vid=c9ae347f-afd8-436c-933c-cf5e2e790d85"},"vehicle_type_id":"4","last_reported":1733242292,"current_range_meters":34800,"station_id":"ce4bh0p2rcd13ifvqd70","pricing_plan_id":"cebpf4jnsgd1na2vs0mg"},{"bike_id":"16c81e58-5de2-4b13-a3b2-87a46dd75cc9","system_id":"levelo_inurba_marseille","lat":43.31755,"lon":5.39023,"is_reserved":false,"is_disabled":true,"rental_uris":{"android":"levelo://app?vid=16c81e58-5de2-4b13-a3b2-87a46dd75cc9","ios":"levelo://app?vid=16c81e58-5de2-4b13-a3b2-87a46dd75cc9"},"vehicle_type_id":"4","last_reported":1733242292,"current_range_meters":2000,"station_id":"ce4bhqp2rcd13ifvqhng","pricing_plan_id":"cebpf4jnsgd1na2vs0mg"},{"bike_id":"676bbcc1-d912-4387-b599-2f7fca4abe43","system_id":"levelo_inurba_marseille","lat":43.32657,"lon":5.40999,"is_reserved":false,"is_disabled":false,"rental_uris":{"android":"levelo://app?vid=676bbcc1-d912-4387-b599-2f7fca4abe43","ios":"levelo://app?vid=676bbcc1-d912-4387-b599-2f7fca4abe43"},"vehicle_type_id":"4","last_reported":1733242292,"current_range_meters":33200,"station_id":"ce4bhpp2rcd13ifvqhgg","pricing_plan_id":"cebpf4jnsgd1na2vs0mg"},{"bike_id":"6159f4a3-8afe-462e-8061-3fb35aed3a41","system_id":"levelo_inurba_marseille","lat":43.28417,"lon":5.34988,"is_reserved":false,"is_disabled":false,"rental_uris":{"android":"levelo://app?vid=6159f4a3-8afe-462e-8061-3fb35aed3a41","ios":"levelo://app?vid=6159f4a3-8afe-462e-8061-3fb35aed3a41"},"vehicle_type_id":"4","last_reported":1733242292,"current_range_meters":38800,"station_id":"ce4bhbh2rcd13ifvqepg","pricing_plan_id":"cebpf4jnsgd1na2vs0mg"},{"bike_id":"28b52837-d828-49e4-b4be-cfbac010c328","system_id":"levelo_inurba_marseille","lat":43.3372,"lon":5.39197,"is_reserved":false,"is_disabled":true,"rental_uris":{"android":"levelo://app?vid=28b52837-d828-49e4-b4be-cfbac010c328","ios":"levelo://app?vid=28b52837-d828-49e4-b4be-cfbac010c328"},"vehicle_type_id":"4","last_reported":1733242292,"current_range_meters":0,"station_id":"ce4bhr92rcd13ifvqhsg","pricing_plan_id":"cebpf4jnsgd1na2vs0mg"},{"bike_id":"b3f478ac-3b05-4edf-bdbf-76399090f8e9","system_id":"levelo_inurba_marseille","lat":43.29994,"lon":5.37639,"is_reserved":false,"is_disabled":true,"rental_uris":{"android":"levelo://app?vid=b3f478ac-3b05-4edf-bdbf-76399090f8e9","ios":"levelo://app?vid=b3f478ac-3b05-4edf-bdbf-76399090f8e9"},"vehicle_type_id":"4","last_reported":1733242292,"current_range_meters":0,"station_id":"","pricing_plan_id":"cebpf4jnsgd1na2vs0mg"},{"bike_id":"c3587c28-5435-41c6-a9b7-aa468e6b19aa","system_id":"levelo_inurba_marseille","lat":43.29746,"lon":5.37916,"is_reserved":false,"is_disabled":true,"rental_uris":{"android":"levelo://app?vid=c3587c28-5435-41c6-a9b7-aa468e6b19aa","ios":"levelo://app?vid=c3587c28-5435-41c6-a9b7-aa468e6b19aa"},"vehicle_type_id":"4","last_reported":1733242292,"current_range_meters":0,"station_id":"","pricing_plan_id":"cebpf4jnsgd1na2vs0mg"},{"bike_id":"c40ff175-de78-43e6-9ad4-1f4881518873","system_id":"levelo_inurba_marseille","lat":43.28613,"lon":5.37061,"is_reserved":false,"is_disabled":true,"rental_uris":{"android":"levelo://app?vid=c40ff175-de78-43e6-9ad4-1f4881518873","ios":"levelo://app?vid=c40ff175-de78-43e6-9ad4-1f4881518873"},"vehicle_type_id":"4","last_reported":1733242292,"current_range_meters":1600,"station_id":"ce4bht12rcd13ifvqi60","pricing_plan_id":"cebpf4jnsgd1na2vs0mg"},{"bike_id":"8dc4e48d-7076-404b-bc1d-c47f2714d4fd","system_id":"levelo_inurba_marseille","lat":43.24639,"lon":5.38898,"is_reserved":false,"is_disabled":false,"rental_uris":{"android":"levelo://app?vid=8dc4e48d-7076-404b-bc1d-c47f2714d4fd","ios":"levelo://app?vid=8dc4e48d-7076-404b-bc1d-c47f2714d4fd"},"vehicle_type_id":"4","last_reported":1733242292,"current_range_meters":38800,"station_id":"ce4bhg12rcd13ifvqf60","pricing_plan_id":"cebpf4jnsgd1na2vs0mg"},{"bike_id":"e8d9fcd3-6c4c-4c2e-a87e-41c5e4dfa6d0","system_id":"levelo_inurba_marseille","lat":43.25438,"lon":5.38158,"is_reserved":false,"is_disabled":true,"rental_uris":{"android":"levelo://app?vid=e8d9fcd3-6c4c-4c2e-a87e-41c5e4dfa6d0","ios":"levelo://app?vid=e8d9fcd3-6c4c-4c2e-a87e-41c5e4dfa6d0"},"vehicle_type_id":"4","last_reported":1733242292,"current_range_meters":0,"station_id":"","pricing_plan_id":"cebpf4jnsgd1na2vs0mg"},{"bike_id":"e7c2b082-ef91-42b1-9ef0-9e4329cee9cb","system_id":"levelo_inurba_marseille","lat":43.29898,"lon":5.4033,"is_reserved":false,"is_disabled":true,"rental_uris":{"android":"levelo://app?vid=e7c2b082-ef91-42b1-9ef0-9e4329cee9cb","ios":"levelo://app?vid=e7c2b082-ef91-42b1-9ef0-9e4329cee9cb"},"vehicle_type_id":"4","last_reported":1733242292,"current_range_meters":0,"station_id":"","pricing_plan_id":"cebpf4jnsgd1na2vs0mg"},{"bike_id":"16e03701-590e-4b64-8a34-43e9f78250b8","system_id":"levelo_inurba_marseille","lat":43.31322,"lon":5.39696,"is_reserved":false,"is_disabled":false,"rental_uris":{"android":"levelo://app?vid=16e03701-590e-4b64-8a34-43e9f78250b8","ios":"levelo://app?vid=16e03701-590e-4b64-8a34-43e9f78250b8"},"vehicle_type_id":"4","last_reported":1733242292,"current_range_meters":35200,"station_id":"ce4bgvp2rcd13ifvqcu0","pricing_plan_id":"cebpf4jnsgd1na2vs0mg"},{"bike_id":"6f2cb0cd-0c40-481c-b3eb-59c82ab83f4c","system_id":"levelo_inurba_marseille","lat":43.23161,"lon":5.43673,"is_reserved":false,"is_disabled":false,"rental_uris":{"android":"levelo://app?vid=6f2cb0cd-0c40-481c-b3eb-59c82ab83f4c","ios":"levelo://app?vid=6f2cb0cd-0c40-481c-b3eb-59c82ab83f4c"},"vehicle_type_id":"4","last_reported":1733242292,"current_range_meters":38800,"station_id":"ce4bhmp2rcd13ifvqgog","pricing_plan_id":"cebpf4jnsgd1na2vs0mg"},{"bike_id":"e5af8f06-b11d-4a9c-a17e-c358f51ba456","system_id":"levelo_inurba_marseille","lat":43.24811,"lon":5.37462,"is_reserved":false,"is_disabled":false,"rental_uris":{"android":"levelo://app?vid=e5af8f06-b11d-4a9c-a17e-c358f51ba456","ios":"levelo://app?vid=e5af8f06-b11d-4a9c-a17e-c358f51ba456"},"vehicle_type_id":"4","last_reported":1733242292,"current_range_meters":38800,"station_id":"ce4bhgh2rcd13ifvqfb0","pricing_plan_id":"cebpf4jnsgd1na2vs0mg"},{"bike_id":"525e387d-f53d-4c13-8e33-a48ec09c1aef","system_id":"levelo_inurba_marseille","lat":43.30556,"lon":5.3654,"is_reserved":false,"is_disabled":false,"rental_uris":{"android":"levelo://app?vid=525e387d-f53d-4c13-8e33-a48ec09c1aef","ios":"levelo://app?vid=525e387d-f53d-4c13-8e33-a48ec09c1aef"},"vehicle_type_id":"4","last_reported":1733242292,"current_range_meters":27200,"station_id":"ce4bgs12rcd13ifvqcag","pricing_plan_id":"cebpf4jnsgd1na2vs0mg"},{"bike_id":"0ee0ab59-5abb-4d53-bc4d-a3af2b711996","system_id":"levelo_inurba_marseille","lat":43.32365,"lon":5.36757,"is_reserved":false,"is_disabled":false,"rental_uris":{"android":"levelo://app?vid=0ee0ab59-5abb-4d53-bc4d-a3af2b711996","ios":"levelo://app?vid=0ee0ab59-5abb-4d53-bc4d-a3af2b711996"},"vehicle_type_id":"4","last_reported":1733242292,"current_range_meters":34000,"station_id":"ce4bhsh2rcd13ifvqi2g","pricing_plan_id":"cebpf4jnsgd1na2vs0mg"},{"bike_id":"1c8aaca2-d827-4c07-9e13-663b3ed20aac","system_id":"levelo_inurba_marseille","lat":43.24653,"lon":5.38894,"is_reserved":false,"is_disabled":false,"rental_uris":{"android":"levelo://app?vid=1c8aaca2-d827-4c07-9e13-663b3ed20aac","ios":"levelo://app?vid=1c8aaca2-d827-4c07-9e13-663b3ed20aac"},"vehicle_type_id":"4","last_reported":1733242292,"current_range_meters":25600,"station_id":"ce4bhg12rcd13ifvqf60","pricing_plan_id":"cebpf4jnsgd1na2vs0mg"},{"bike_id":"97a0da6a-72af-403b-ba0d-f41fda819173","system_id":"levelo_inurba_marseille","lat":43.31068,"lon":5.38353,"is_reserved":false,"is_disabled":false,"rental_uris":{"android":"levelo://app?vid=97a0da6a-72af-403b-ba0d-f41fda819173","ios":"levelo://app?vid=97a0da6a-72af-403b-ba0d-f41fda819173"},"vehicle_type_id":"4","last_reported":1733242292,"current_range_meters":31200,"station_id":"ce4bgv92rcd13ifvqcr0","pricing_plan_id":"cebpf4jnsgd1na2vs0mg"},{"bike_id":"19a39442-c7ac-49db-a0df-a3de8fa32134","system_id":"levelo_inurba_marseille","lat":43.27054,"lon":5.40264,"is_reserved":false,"is_disabled":false,"rental_uris":{"android":"levelo://app?vid=19a39442-c7ac-49db-a0df-a3de8fa32134","ios":"levelo://app?vid=19a39442-c7ac-49db-a0df-a3de8fa32134"},"vehicle_type_id":"4","last_reported":1733242292,"current_range_meters":19600,"station_id":"ce4bhk92rcd13ifvqgc0","pricing_plan_id":"cebpf4jnsgd1na2vs0mg"},{"bike_id":"e12bdda5-dc2c-4545-bb40-fff311effa17","system_id":"levelo_inurba_marseille","lat":43.29781,"lon":5.38117,"is_reserved":false,"is_disabled":true,"rental_uris":{"android":"levelo://app?vid=e12bdda5-dc2c-4545-bb40-fff311effa17","ios":"levelo://app?vid=e12bdda5-dc2c-4545-bb40-fff311effa17"},"vehicle_type_id":"4","last_reported":1733242292,"current_range_meters":0,"station_id":"ce4bgip2rcd13ifvqbb0","pricing_plan_id":"cebpf4jnsgd1na2vs0mg"},{"bike_id":"a9498f6b-b5f3-4b18-a2a2-8638d60f44ea","system_id":"levelo_inurba_marseille","lat":43.31322,"lon":5.36647,"is_reserved":false,"is_disabled":false,"rental_uris":{"android":"levelo://app?vid=a9498f6b-b5f3-4b18-a2a2-8638d60f44ea","ios":"levelo://app?vid=a9498f6b-b5f3-4b18-a2a2-8638d60f44ea"},"vehicle_type_id":"4","last_reported":1733242292,"current_range_meters":6800,"station_id":"","pricing_plan_id":"cebpf4jnsgd1na2vs0mg"},{"bike_id":"16bea42d-3248-41fd-8b51-39fb3d7ec2c4","system_id":"levelo_inurba_marseille","lat":43.26469,"lon":5.38526,"is_reserved":false,"is_disabled":true,"rental_uris":{"android":"levelo://app?vid=16bea42d-3248-41fd-8b51-39fb3d7ec2c4","ios":"levelo://app?vid=16bea42d-3248-41fd-8b51-39fb3d7ec2c4"},"vehicle_type_id":"4","last_reported":1733242292,"current_range_meters":0,"station_id":"","pricing_plan_id":"cebpf4jnsgd1na2vs0mg"},{"bike_id":"f1e81463-8853-4232-aa19-c0e7cbe087de","system_id":"levelo_inurba_marseille","lat":43.26582,"lon":5.39025,"is_reserved":false,"is_disabled":false,"rental_uris":{"android":"levelo://app?vid=f1e81463-8853-4232-aa19-c0e7cbe087de","ios":"levelo://app?vid=f1e81463-8853-4232-aa19-c0e7cbe087de"},"vehicle_type_id":"4","last_reported":1733242292,"current_range_meters":18800,"station_id":"ce4bhe12rcd13ifvqf30","pricing_plan_id":"cebpf4jnsgd1na2vs0mg"},{"bike_id":"3f8ea729-39a1-43e2-bad5-cf8568b686b4","system_id":"levelo_inurba_marseille","lat":43.28114,"lon":5.37834,"is_reserved":false,"is_disabled":false,"rental_uris":{"android":"levelo://app?vid=3f8ea729-39a1-43e2-bad5-cf8568b686b4","ios":"levelo://app?vid=3f8ea729-39a1-43e2-bad5-cf8568b686b4"},"vehicle_type_id":"4","last_reported":1733242292,"current_range_meters":22400,"station_id":"ce4bha12rcd13ifvqee0","pricing_plan_id":"cebpf4jnsgd1na2vs0mg"},{"bike_id":"dc024656-8506-4b5a-a609-460bbae9d176","system_id":"levelo_inurba_marseille","lat":43.30813,"lon":5.3794,"is_reserved":false,"is_disabled":false,"rental_uris":{"android":"levelo://app?vid=dc024656-8506-4b5a-a609-460bbae9d176","ios":"levelo://app?vid=dc024656-8506-4b5a-a609-460bbae9d176"},"vehicle_type_id":"4","last_reported":1733242292,"current_range_meters":22400,"station_id":"","pricing_plan_id":"cebpf4jnsgd1na2vs0mg"},{"bike_id":"4b28bd5d-1a26-4f90-908e-d956ae4825f7","system_id":"levelo_inurba_marseille","lat":43.2842,"lon":5.34981,"is_reserved":false,"is_disabled":false,"rental_uris":{"android":"levelo://app?vid=4b28bd5d-1a26-4f90-908e-d956ae4825f7","ios":"levelo://app?vid=4b28bd5d-1a26-4f90-908e-d956ae4825f7"},"vehicle_type_id":"4","last_reported":1733242292,"current_range_meters":14000,"station_id":"ce4bhbh2rcd13ifvqepg","pricing_plan_id":"cebpf4jnsgd1na2vs0mg"},{"bike_id":"d28eeb12-d2f0-47f4-8ac9-b15ca93467c8","system_id":"levelo_inurba_marseille","lat":43.31717,"lon":5.42396,"is_reserved":false,"is_disabled":false,"rental_uris":{"android":"levelo://app?vid=d28eeb12-d2f0-47f4-8ac9-b15ca93467c8","ios":"levelo://app?vid=d28eeb12-d2f0-47f4-8ac9-b15ca93467c8"},"vehicle_type_id":"4","last_reported":1733242292,"current_range_meters":26800,"station_id":"ce4bhp92rcd13ifvqhbg","pricing_plan_id":"cebpf4jnsgd1na2vs0mg"},{"bike_id":"e2e8b087-1e95-4cf6-9073-cf74cd2e9d2d","system_id":"levelo_inurba_marseille","lat":43.28125,"lon":5.3786,"is_reserved":false,"is_disabled":false,"rental_uris":{"android":"levelo://app?vid=e2e8b087-1e95-4cf6-9073-cf74cd2e9d2d","ios":"levelo://app?vid=e2e8b087-1e95-4cf6-9073-cf74cd2e9d2d"},"vehicle_type_id":"4","last_reported":1733242292,"current_range_meters":24400,"station_id":"ce4bha12rcd13ifvqee0","pricing_plan_id":"cebpf4jnsgd1na2vs0mg"},{"bike_id":"3a2f145d-aec3-4c90-8aa1-dad397c348a5","system_id":"levelo_inurba_marseille","lat":43.27419,"lon":5.39418,"is_reserved":false,"is_disabled":false,"rental_uris":{"android":"levelo://app?vid=3a2f145d-aec3-4c90-8aa1-dad397c348a5","ios":"levelo://app?vid=3a2f145d-aec3-4c90-8aa1-dad397c348a5"},"vehicle_type_id":"4","last_reported":1733242292,"current_range_meters":26800,"station_id":"ce4bhdp2rcd13ifvqf20","pricing_plan_id":"cebpf4jnsgd1na2vs0mg"},{"bike_id":"02ec7421-2229-4707-aad2-8afef039a348","system_id":"levelo_inurba_marseille","lat":43.30356,"lon":5.41879,"is_reserved":false,"is_disabled":false,"rental_uris":{"android":"levelo://app?vid=02ec7421-2229-4707-aad2-8afef039a348","ios":"levelo://app?vid=02ec7421-2229-4707-aad2-8afef039a348"},"vehicle_type_id":"4","last_reported":1733242292,"current_range_meters":20000,"station_id":"ce4bhop2rcd13ifvqh7g","pricing_plan_id":"cebpf4jnsgd1na2vs0mg"},{"bike_id":"763a15e5-5c0c-4db3-84a6-87cc9fff8ea4","system_id":"levelo_inurba_marseille","lat":43.27979,"lon":5.44229,"is_reserved":false,"is_disabled":false,"rental_uris":{"android":"levelo://app?vid=763a15e5-5c0c-4db3-84a6-87cc9fff8ea4","ios":"levelo://app?vid=763a15e5-5c0c-4db3-84a6-87cc9fff8ea4"},"vehicle_type_id":"4","last_reported":1733242292,"current_range_meters":17200,"station_id":"","pricing_plan_id":"cebpf4jnsgd1na2vs0mg"},{"bike_id":"de7b09c0-53ed-42ba-a94d-94352f73172c","system_id":"levelo_inurba_marseille","lat":43.29231,"lon":5.36061,"is_reserved":false,"is_disabled":false,"rental_uris":{"android":"levelo://app?vid=de7b09c0-53ed-42ba-a94d-94352f73172c","ios":"levelo://app?vid=de7b09c0-53ed-42ba-a94d-94352f73172c"},"vehicle_type_id":"4","last_reported":1733242292,"current_range_meters":35200,"station_id":"ce4bhbh2rcd13ifvqeqg","pricing_plan_id":"cebpf4jnsgd1na2vs0mg"},{"bike_id":"a9741b14-02a8-48ee-9c9f-a109263e4bcf","system_id":"levelo_inurba_marseille","lat":43.30886,"lon":5.37194,"is_reserved":false,"is_disabled":false,"rental_uris":{"android":"levelo://app?vid=a9741b14-02a8-48ee-9c9f-a109263e4bcf","ios":"levelo://app?vid=a9741b14-02a8-48ee-9c9f-a109263e4bcf"},"vehicle_type_id":"4","last_reported":1733242292,"current_range_meters":36400,"station_id":"ce4bguh2rcd13ifvqckg","pricing_plan_id":"cebpf4jnsgd1na2vs0mg"},{"bike_id":"0a17e587-83dd-48d4-a36d-da6d5d7313a5","system_id":"levelo_inurba_marseille","lat":43.28656,"lon":5.36364,"is_reserved":false,"is_disabled":false,"rental_uris":{"android":"levelo://app?vid=0a17e587-83dd-48d4-a36d-da6d5d7313a5","ios":"levelo://app?vid=0a17e587-83dd-48d4-a36d-da6d5d7313a5"},"vehicle_type_id":"4","last_reported":1733242292,"current_range_meters":20000,"station_id":"ce4bhah2rcd13ifvqej0","pricing_plan_id":"cebpf4jnsgd1na2vs0mg"},{"bike_id":"0f767916-c8df-43bc-aca5-beda0b0a31f4","system_id":"levelo_inurba_marseille","lat":43.30531,"lon":5.36545,"is_reserved":false,"is_disabled":false,"rental_uris":{"android":"levelo://app?vid=0f767916-c8df-43bc-aca5-beda0b0a31f4","ios":"levelo://app?vid=0f767916-c8df-43bc-aca5-beda0b0a31f4"},"vehicle_type_id":"4","last_reported":1733242292,"current_range_meters":20400,"station_id":"ce4bgs12rcd13ifvqcag","pricing_plan_id":"cebpf4jnsgd1na2vs0mg"},{"bike_id":"45ff3798-a743-4ffc-962c-fbce8ce4e073","system_id":"levelo_inurba_marseille","lat":43.23148,"lon":5.43711,"is_reserved":false,"is_disabled":false,"rental_uris":{"android":"levelo://app?vid=45ff3798-a743-4ffc-962c-fbce8ce4e073","ios":"levelo://app?vid=45ff3798-a743-4ffc-962c-fbce8ce4e073"},"vehicle_type_id":"4","last_reported":1733242292,"current_range_meters":10800,"station_id":"ce4bhmp2rcd13ifvqgog","pricing_plan_id":"cebpf4jnsgd1na2vs0mg"},{"bike_id":"b6bf0fc6-e8dd-4244-b189-4fd4fe6327fb","system_id":"levelo_inurba_marseille","lat":43.30549,"lon":5.3654,"is_reserved":false,"is_disabled":false,"rental_uris":{"android":"levelo://app?vid=b6bf0fc6-e8dd-4244-b189-4fd4fe6327fb","ios":"levelo://app?vid=b6bf0fc6-e8dd-4244-b189-4fd4fe6327fb"},"vehicle_type_id":"4","last_reported":1733242292,"current_range_meters":39200,"station_id":"ce4bgs12rcd13ifvqcag","pricing_plan_id":"cebpf4jnsgd1na2vs0mg"},{"bike_id":"c8f3efc0-404e-46e3-af7d-89ab7ece3da2","system_id":"levelo_inurba_marseille","lat":43.30953,"lon":5.3904,"is_reserved":false,"is_disabled":false,"rental_uris":{"android":"levelo://app?vid=c8f3efc0-404e-46e3-af7d-89ab7ece3da2","ios":"levelo://app?vid=c8f3efc0-404e-46e3-af7d-89ab7ece3da2"},"vehicle_type_id":"4","last_reported":1733242292,"current_range_meters":38800,"station_id":"ce4bgup2rcd13ifvqco0","pricing_plan_id":"cebpf4jnsgd1na2vs0mg"},{"bike_id":"cb18a97f-360b-42ae-896e-1b05c8d31e47","system_id":"levelo_inurba_marseille","lat":43.30955,"lon":5.39028,"is_reserved":false,"is_disabled":true,"rental_uris":{"android":"levelo://app?vid=cb18a97f-360b-42ae-896e-1b05c8d31e47","ios":"levelo://app?vid=cb18a97f-360b-42ae-896e-1b05c8d31e47"},"vehicle_type_id":"4","last_reported":1733242292,"current_range_meters":1200,"station_id":"ce4bgup2rcd13ifvqco0","pricing_plan_id":"cebpf4jnsgd1na2vs0mg"},{"bike_id":"cdfe6590-4984-4014-86c8-6dd70747c27a","system_id":"levelo_inurba_marseille","lat":43.29737,"lon":5.37434,"is_reserved":false,"is_disabled":true,"rental_uris":{"android":"levelo://app?vid=cdfe6590-4984-4014-86c8-6dd70747c27a","ios":"levelo://app?vid=cdfe6590-4984-4014-86c8-6dd70747c27a"},"vehicle_type_id":"4","last_reported":1733242292,"current_range_meters":0,"station_id":"","pricing_plan_id":"cebpf4jnsgd1na2vs0mg"},{"bike_id":"8c10b77e-9276-4f90-bb28-d9403699abca","system_id":"levelo_inurba_marseille","lat":43.27559,"lon":5.3842,"is_reserved":false,"is_disabled":true,"rental_uris":{"android":"levelo://app?vid=8c10b77e-9276-4f90-bb28-d9403699abca","ios":"levelo://app?vid=8c10b77e-9276-4f90-bb28-d9403699abca"},"vehicle_type_id":"4","last_reported":1733242292,"current_range_meters":0,"station_id":"ce4bhh92rcd13ifvqfi0","pricing_plan_id":"cebpf4jnsgd1na2vs0mg"},{"bike_id":"b93ef5be-e422-4941-a8c5-3cd46ee02a9b","system_id":"levelo_inurba_marseille","lat":43.31325,"lon":5.39689,"is_reserved":false,"is_disabled":false,"rental_uris":{"android":"levelo://app?vid=b93ef5be-e422-4941-a8c5-3cd46ee02a9b","ios":"levelo://app?vid=b93ef5be-e422-4941-a8c5-3cd46ee02a9b"},"vehicle_type_id":"4","last_reported":1733242292,"current_range_meters":22000,"station_id":"ce4bgvp2rcd13ifvqcu0","pricing_plan_id":"cebpf4jnsgd1na2vs0mg"},{"bike_id":"36142e23-8ff6-4096-ad19-b039c8156b69","system_id":"levelo_inurba_marseille","lat":43.28655,"lon":5.36347,"is_reserved":false,"is_disabled":true,"rental_uris":{"android":"levelo://app?vid=36142e23-8ff6-4096-ad19-b039c8156b69","ios":"levelo://app?vid=36142e23-8ff6-4096-ad19-b039c8156b69"},"vehicle_type_id":"4","last_reported":1733242292,"current_range_meters":30400,"station_id":"ce4bhah2rcd13ifvqej0","pricing_plan_id":"cebpf4jnsgd1na2vs0mg"},{"bike_id":"62151972-709f-408b-9da7-401c31277bc5","system_id":"levelo_inurba_marseille","lat":43.23962,"lon":5.36634,"is_reserved":false,"is_disabled":false,"rental_uris":{"android":"levelo://app?vid=62151972-709f-408b-9da7-401c31277bc5","ios":"levelo://app?vid=62151972-709f-408b-9da7-401c31277bc5"},"vehicle_type_id":"4","last_reported":1733242292,"current_range_meters":9600,"station_id":"ce4bhi12rcd13ifvqfp0","pricing_plan_id":"cebpf4jnsgd1na2vs0mg"},{"bike_id":"e7020523-0bf0-43a7-9e67-67079d853995","system_id":"levelo_inurba_marseille","lat":43.30426,"lon":5.38896,"is_reserved":false,"is_disabled":false,"rental_uris":{"android":"levelo://app?vid=e7020523-0bf0-43a7-9e67-67079d853995","ios":"levelo://app?vid=e7020523-0bf0-43a7-9e67-67079d853995"},"vehicle_type_id":"4","last_reported":1733242292,"current_range_meters":36800,"station_id":"ce4bgk12rcd13ifvqbi0","pricing_plan_id":"cebpf4jnsgd1na2vs0mg"},{"bike_id":"4c3fb316-febe-4764-b0a1-d58fd67e3e9a","system_id":"levelo_inurba_marseille","lat":43.28188,"lon":5.3829,"is_reserved":false,"is_disabled":true,"rental_uris":{"android":"levelo://app?vid=4c3fb316-febe-4764-b0a1-d58fd67e3e9a","ios":"levelo://app?vid=4c3fb316-febe-4764-b0a1-d58fd67e3e9a"},"vehicle_type_id":"4","last_reported":1733242292,"current_range_meters":26000,"station_id":"","pricing_plan_id":"cebpf4jnsgd1na2vs0mg"},{"bike_id":"987a5ab4-d60c-480c-94b6-7cab38975402","system_id":"levelo_inurba_marseille","lat":43.29748,"lon":5.37971,"is_reserved":false,"is_disabled":true,"rental_uris":{"android":"levelo://app?vid=987a5ab4-d60c-480c-94b6-7cab38975402","ios":"levelo://app?vid=987a5ab4-d60c-480c-94b6-7cab38975402"},"vehicle_type_id":"4","last_reported":1733242292,"current_range_meters":0,"station_id":"","pricing_plan_id":"cebpf4jnsgd1na2vs0mg"},{"bike_id":"6877f033-d09d-44d8-8868-c02f5054dd5f","system_id":"levelo_inurba_marseille","lat":43.31488,"lon":5.37258,"is_reserved":false,"is_disabled":false,"rental_uris":{"android":"levelo://app?vid=6877f033-d09d-44d8-8868-c02f5054dd5f","ios":"levelo://app?vid=6877f033-d09d-44d8-8868-c02f5054dd5f"},"vehicle_type_id":"4","last_reported":1733242292,"current_range_meters":10800,"station_id":"ce4bgt12rcd13ifvqcd0","pricing_plan_id":"cebpf4jnsgd1na2vs0mg"},{"bike_id":"2c4596ad-0ad9-4016-b92b-0093349de2b4","system_id":"levelo_inurba_marseille","lat":43.30719,"lon":5.382423,"is_reserved":false,"is_disabled":true,"rental_uris":{"android":"levelo://app?vid=2c4596ad-0ad9-4016-b92b-0093349de2b4","ios":"levelo://app?vid=2c4596ad-0ad9-4016-b92b-0093349de2b4"},"vehicle_type_id":"4","last_reported":1733242292,"current_range_meters":0,"station_id":"","pricing_plan_id":"cebpf4jnsgd1na2vs0mg"},{"bike_id":"1f28300c-d8be-4d08-b5ea-d3aadf1e301d","system_id":"levelo_inurba_marseille","lat":43.2624,"lon":5.4211,"is_reserved":false,"is_disabled":false,"rental_uris":{"android":"levelo://app?vid=1f28300c-d8be-4d08-b5ea-d3aadf1e301d","ios":"levelo://app?vid=1f28300c-d8be-4d08-b5ea-d3aadf1e301d"},"vehicle_type_id":"4","last_reported":1733242292,"current_range_meters":18000,"station_id":"","pricing_plan_id":"cebpf4jnsgd1na2vs0mg"},{"bike_id":"b7ab8c01-033f-4395-8276-23c850ad3d02","system_id":"levelo_inurba_marseille","lat":43.303245,"lon":5.365968,"is_reserved":false,"is_disabled":true,"rental_uris":{"android":"levelo://app?vid=b7ab8c01-033f-4395-8276-23c850ad3d02","ios":"levelo://app?vid=b7ab8c01-033f-4395-8276-23c850ad3d02"},"vehicle_type_id":"4","last_reported":1733242292,"current_range_meters":0,"station_id":"","pricing_plan_id":"cebpf4jnsgd1na2vs0mg"},{"bike_id":"c6e6729e-5027-422b-b134-990c8bb67ebc","system_id":"levelo_inurba_marseille","lat":43.28034,"lon":5.3695,"is_reserved":false,"is_disabled":false,"rental_uris":{"android":"levelo://app?vid=c6e6729e-5027-422b-b134-990c8bb67ebc","ios":"levelo://app?vid=c6e6729e-5027-422b-b134-990c8bb67ebc"},"vehicle_type_id":"4","last_reported":1733242292,"current_range_meters":38800,"station_id":"ce4bha12rcd13ifvqef0","pricing_plan_id":"cebpf4jnsgd1na2vs0mg"},{"bike_id":"42a1b85a-92cc-457e-bc13-e35a3377f85a","system_id":"levelo_inurba_marseille","lat":43.29563,"lon":5.3997,"is_reserved":false,"is_disabled":false,"rental_uris":{"android":"levelo://app?vid=42a1b85a-92cc-457e-bc13-e35a3377f85a","ios":"levelo://app?vid=42a1b85a-92cc-457e-bc13-e35a3377f85a"},"vehicle_type_id":"4","last_reported":1733242292,"current_range_meters":23200,"station_id":"ce4bh312rcd13ifvqdj0","pricing_plan_id":"cebpf4jnsgd1na2vs0mg"},{"bike_id":"52e284ed-286c-41ec-a0e1-33e67adcb323","system_id":"levelo_inurba_marseille","lat":43.29788,"lon":5.3813,"is_reserved":false,"is_disabled":false,"rental_uris":{"android":"levelo://app?vid=52e284ed-286c-41ec-a0e1-33e67adcb323","ios":"levelo://app?vid=52e284ed-286c-41ec-a0e1-33e67adcb323"},"vehicle_type_id":"4","last_reported":1733242292,"current_range_meters":8800,"station_id":"ce4bgip2rcd13ifvqbb0","pricing_plan_id":"cebpf4jnsgd1na2vs0mg"},{"bike_id":"6848453c-feed-4ca1-98b0-68aa5323d5fd","system_id":"levelo_inurba_marseille","lat":43.28414,"lon":5.37515,"is_reserved":false,"is_disabled":false,"rental_uris":{"android":"levelo://app?vid=6848453c-feed-4ca1-98b0-68aa5323d5fd","ios":"levelo://app?vid=6848453c-feed-4ca1-98b0-68aa5323d5fd"},"vehicle_type_id":"4","last_reported":1733242292,"current_range_meters":25600,"station_id":"ce4bh412rcd13ifvqds0","pricing_plan_id":"cebpf4jnsgd1na2vs0mg"},{"bike_id":"330a642a-274e-4e68-8fe1-5d4031c17262","system_id":"levelo_inurba_marseille","lat":43.26488,"lon":5.39547,"is_reserved":false,"is_disabled":false,"rental_uris":{"android":"levelo://app?vid=330a642a-274e-4e68-8fe1-5d4031c17262","ios":"levelo://app?vid=330a642a-274e-4e68-8fe1-5d4031c17262"},"vehicle_type_id":"4","last_reported":1733242292,"current_range_meters":39200,"station_id":"ce4bhi12rcd13ifvqfq0","pricing_plan_id":"cebpf4jnsgd1na2vs0mg"},{"bike_id":"67aba151-110e-4351-831c-3be52248cb2f","system_id":"levelo_inurba_marseille","lat":43.24553,"lon":5.3953,"is_reserved":false,"is_disabled":true,"rental_uris":{"android":"levelo://app?vid=67aba151-110e-4351-831c-3be52248cb2f","ios":"levelo://app?vid=67aba151-110e-4351-831c-3be52248cb2f"},"vehicle_type_id":"4","last_reported":1733242292,"current_range_meters":0,"station_id":"ce4bhlp2rcd13ifvqgjg","pricing_plan_id":"cebpf4jnsgd1na2vs0mg"},{"bike_id":"6cc6805f-c0ca-4585-bdf1-b5a0339762b0","system_id":"levelo_inurba_marseille","lat":43.29016,"lon":5.42808,"is_reserved":false,"is_disabled":false,"rental_uris":{"android":"levelo://app?vid=6cc6805f-c0ca-4585-bdf1-b5a0339762b0","ios":"levelo://app?vid=6cc6805f-c0ca-4585-bdf1-b5a0339762b0"},"vehicle_type_id":"4","last_reported":1733242292,"current_range_meters":2800,"station_id":"","pricing_plan_id":"cebpf4jnsgd1na2vs0mg"},{"bike_id":"cfc0e471-5b24-46d3-b0d2-e878ce36c9a7","system_id":"levelo_inurba_marseille","lat":43.32479,"lon":5.36569,"is_reserved":false,"is_disabled":false,"rental_uris":{"android":"levelo://app?vid=cfc0e471-5b24-46d3-b0d2-e878ce36c9a7","ios":"levelo://app?vid=cfc0e471-5b24-46d3-b0d2-e878ce36c9a7"},"vehicle_type_id":"4","last_reported":1733242292,"current_range_meters":24800,"station_id":"ce4bhs12rcd13ifvqhvg","pricing_plan_id":"cebpf4jnsgd1na2vs0mg"},{"bike_id":"85ae4d23-3989-435b-95d7-448acf817513","system_id":"levelo_inurba_marseille","lat":43.29844,"lon":5.36266,"is_reserved":false,"is_disabled":false,"rental_uris":{"android":"levelo://app?vid=85ae4d23-3989-435b-95d7-448acf817513","ios":"levelo://app?vid=85ae4d23-3989-435b-95d7-448acf817513"},"vehicle_type_id":"4","last_reported":1733242292,"current_range_meters":36400,"station_id":"ce4bgpp2rcd13ifvqc3g","pricing_plan_id":"cebpf4jnsgd1na2vs0mg"},{"bike_id":"8d1c8b92-79bb-4181-b0d2-5e94db1a14d0","system_id":"levelo_inurba_marseille","lat":43.300062,"lon":5.382726,"is_reserved":false,"is_disabled":true,"rental_uris":{"android":"levelo://app?vid=8d1c8b92-79bb-4181-b0d2-5e94db1a14d0","ios":"levelo://app?vid=8d1c8b92-79bb-4181-b0d2-5e94db1a14d0"},"vehicle_type_id":"4","last_reported":1733242292,"current_range_meters":0,"station_id":"","pricing_plan_id":"cebpf4jnsgd1na2vs0mg"},{"bike_id":"050aba9c-fce9-48d0-a0c6-4bbc08a3ad8e","system_id":"levelo_inurba_marseille","lat":43.2649,"lon":5.39547,"is_reserved":false,"is_disabled":false,"rental_uris":{"android":"levelo://app?vid=050aba9c-fce9-48d0-a0c6-4bbc08a3ad8e","ios":"levelo://app?vid=050aba9c-fce9-48d0-a0c6-4bbc08a3ad8e"},"vehicle_type_id":"4","last_reported":1733242292,"current_range_meters":29600,"station_id":"ce4bhi12rcd13ifvqfq0","pricing_plan_id":"cebpf4jnsgd1na2vs0mg"},{"bike_id":"46300011-357c-4e2b-954d-8fc9e53fc133","system_id":"levelo_inurba_marseille","lat":43.31323,"lon":5.397,"is_reserved":false,"is_disabled":false,"rental_uris":{"android":"levelo://app?vid=46300011-357c-4e2b-954d-8fc9e53fc133","ios":"levelo://app?vid=46300011-357c-4e2b-954d-8fc9e53fc133"},"vehicle_type_id":"4","last_reported":1733242292,"current_range_meters":18800,"station_id":"ce4bgvp2rcd13ifvqcu0","pricing_plan_id":"cebpf4jnsgd1na2vs0mg"},{"bike_id":"97fe8876-1322-4a25-ba1c-44d51d7c69b3","system_id":"levelo_inurba_marseille","lat":43.31726,"lon":5.42397,"is_reserved":false,"is_disabled":false,"rental_uris":{"android":"levelo://app?vid=97fe8876-1322-4a25-ba1c-44d51d7c69b3","ios":"levelo://app?vid=97fe8876-1322-4a25-ba1c-44d51d7c69b3"},"vehicle_type_id":"4","last_reported":1733242292,"current_range_meters":38000,"station_id":"ce4bhp92rcd13ifvqhbg","pricing_plan_id":"cebpf4jnsgd1na2vs0mg"},{"bike_id":"a89a93fd-5a84-4e0e-aee4-1654d5001b46","system_id":"levelo_inurba_marseille","lat":43.25863,"lon":5.399,"is_reserved":false,"is_disabled":false,"rental_uris":{"android":"levelo://app?vid=a89a93fd-5a84-4e0e-aee4-1654d5001b46","ios":"levelo://app?vid=a89a93fd-5a84-4e0e-aee4-1654d5001b46"},"vehicle_type_id":"4","last_reported":1733242292,"current_range_meters":6800,"station_id":"ce4bhl92rcd13ifvqghg","pricing_plan_id":"cebpf4jnsgd1na2vs0mg"},{"bike_id":"d12e07bc-303e-4665-a4bc-2ae6e909e195","system_id":"levelo_inurba_marseille","lat":43.30809,"lon":5.40023,"is_reserved":false,"is_disabled":false,"rental_uris":{"android":"levelo://app?vid=d12e07bc-303e-4665-a4bc-2ae6e909e195","ios":"levelo://app?vid=d12e07bc-303e-4665-a4bc-2ae6e909e195"},"vehicle_type_id":"4","last_reported":1733242292,"current_range_meters":36800,"station_id":"","pricing_plan_id":"cebpf4jnsgd1na2vs0mg"},{"bike_id":"8c6ae27f-3733-439a-943c-f088570574ea","system_id":"levelo_inurba_marseille","lat":43.24803,"lon":5.37454,"is_reserved":false,"is_disabled":false,"rental_uris":{"android":"levelo://app?vid=8c6ae27f-3733-439a-943c-f088570574ea","ios":"levelo://app?vid=8c6ae27f-3733-439a-943c-f088570574ea"},"vehicle_type_id":"4","last_reported":1733242292,"current_range_meters":38800,"station_id":"ce4bhgh2rcd13ifvqfb0","pricing_plan_id":"cebpf4jnsgd1na2vs0mg"},{"bike_id":"30548017-e5f5-4193-a4b7-acc2c9e9bfdb","system_id":"levelo_inurba_marseille","lat":43.3302,"lon":5.39041,"is_reserved":false,"is_disabled":false,"rental_uris":{"android":"levelo://app?vid=30548017-e5f5-4193-a4b7-acc2c9e9bfdb","ios":"levelo://app?vid=30548017-e5f5-4193-a4b7-acc2c9e9bfdb"},"vehicle_type_id":"4","last_reported":1733242292,"current_range_meters":5600,"station_id":"ce4bhr92rcd13ifvqhrg","pricing_plan_id":"cebpf4jnsgd1na2vs0mg"},{"bike_id":"ae11192b-7477-4050-9e15-a2e6b81f0e44","system_id":"levelo_inurba_marseille","lat":43.30263,"lon":5.38664,"is_reserved":false,"is_disabled":false,"rental_uris":{"android":"levelo://app?vid=ae11192b-7477-4050-9e15-a2e6b81f0e44","ios":"levelo://app?vid=ae11192b-7477-4050-9e15-a2e6b81f0e44"},"vehicle_type_id":"4","last_reported":1733242292,"current_range_meters":8800,"station_id":"","pricing_plan_id":"cebpf4jnsgd1na2vs0mg"},{"bike_id":"4e666bff-a384-4eb4-909f-618e48911254","system_id":"levelo_inurba_marseille","lat":43.27995,"lon":5.40022,"is_reserved":false,"is_disabled":false,"rental_uris":{"android":"levelo://app?vid=4e666bff-a384-4eb4-909f-618e48911254","ios":"levelo://app?vid=4e666bff-a384-4eb4-909f-618e48911254"},"vehicle_type_id":"4","last_reported":1733242292,"current_range_meters":38800,"station_id":"ce4bho92rcd13ifvqh4g","pricing_plan_id":"cebpf4jnsgd1na2vs0mg"},{"bike_id":"8c052c98-1594-4821-97d8-f52c80119a63","system_id":"levelo_inurba_marseille","lat":43.29256,"lon":5.40912,"is_reserved":false,"is_disabled":false,"rental_uris":{"android":"levelo://app?vid=8c052c98-1594-4821-97d8-f52c80119a63","ios":"levelo://app?vid=8c052c98-1594-4821-97d8-f52c80119a63"},"vehicle_type_id":"4","last_reported":1733242292,"current_range_meters":37600,"station_id":"ce4bh192rcd13ifvqdc0","pricing_plan_id":"cebpf4jnsgd1na2vs0mg"},{"bike_id":"c20e537a-30c8-4733-9b51-690ae59b7648","system_id":"levelo_inurba_marseille","lat":43.31271,"lon":5.40183,"is_reserved":false,"is_disabled":false,"rental_uris":{"android":"levelo://app?vid=c20e537a-30c8-4733-9b51-690ae59b7648","ios":"levelo://app?vid=c20e537a-30c8-4733-9b51-690ae59b7648"},"vehicle_type_id":"4","last_reported":1733242292,"current_range_meters":34000,"station_id":"ce4bh092rcd13ifvqd30","pricing_plan_id":"cebpf4jnsgd1na2vs0mg"},{"bike_id":"4b3a70c9-f0d4-4df4-8219-50d9dad1308f","system_id":"levelo_inurba_marseille","lat":43.26787,"lon":5.39413,"is_reserved":false,"is_disabled":false,"rental_uris":{"android":"levelo://app?vid=4b3a70c9-f0d4-4df4-8219-50d9dad1308f","ios":"levelo://app?vid=4b3a70c9-f0d4-4df4-8219-50d9dad1308f"},"vehicle_type_id":"4","last_reported":1733242292,"current_range_meters":32400,"station_id":"ce4bhh12rcd13ifvqfg0","pricing_plan_id":"cebpf4jnsgd1na2vs0mg"},{"bike_id":"dc2a0316-e7b0-4a46-b88a-41b2966ba0d3","system_id":"levelo_inurba_marseille","lat":43.29172,"lon":5.39327,"is_reserved":false,"is_disabled":false,"rental_uris":{"android":"levelo://app?vid=dc2a0316-e7b0-4a46-b88a-41b2966ba0d3","ios":"levelo://app?vid=dc2a0316-e7b0-4a46-b88a-41b2966ba0d3"},"vehicle_type_id":"4","last_reported":1733242292,"current_range_meters":19600,"station_id":"ce4bh192rcd13ifvqdd0","pricing_plan_id":"cebpf4jnsgd1na2vs0mg"},{"bike_id":"4f8c6457-7b21-40cc-8da9-83dbe00b2111","system_id":"levelo_inurba_marseille","lat":43.2795,"lon":5.41053,"is_reserved":false,"is_disabled":false,"rental_uris":{"android":"levelo://app?vid=4f8c6457-7b21-40cc-8da9-83dbe00b2111","ios":"levelo://app?vid=4f8c6457-7b21-40cc-8da9-83dbe00b2111"},"vehicle_type_id":"4","last_reported":1733242292,"current_range_meters":36000,"station_id":"ce4bhnp2rcd13ifvqh0g","pricing_plan_id":"cebpf4jnsgd1na2vs0mg"},{"bike_id":"d2c28698-e177-4ec3-804c-ede2349774ad","system_id":"levelo_inurba_marseille","lat":43.2603,"lon":5.37544,"is_reserved":false,"is_disabled":false,"rental_uris":{"android":"levelo://app?vid=d2c28698-e177-4ec3-804c-ede2349774ad","ios":"levelo://app?vid=d2c28698-e177-4ec3-804c-ede2349774ad"},"vehicle_type_id":"4","last_reported":1733242292,"current_range_meters":12000,"station_id":"ce4bhgh2rcd13ifvqfa0","pricing_plan_id":"cebpf4jnsgd1na2vs0mg"},{"bike_id":"7aa36af5-168c-4195-8ee1-75f39bdf92cc","system_id":"levelo_inurba_marseille","lat":43.28,"lon":5.41666,"is_reserved":false,"is_disabled":false,"rental_uris":{"android":"levelo://app?vid=7aa36af5-168c-4195-8ee1-75f39bdf92cc","ios":"levelo://app?vid=7aa36af5-168c-4195-8ee1-75f39bdf92cc"},"vehicle_type_id":"4","last_reported":1733242292,"current_range_meters":39200,"station_id":"ce4bho12rcd13ifvqh1g","pricing_plan_id":"cebpf4jnsgd1na2vs0mg"},{"bike_id":"9f4deee7-7f31-4c2e-82c6-46a38d5aa3cf","system_id":"levelo_inurba_marseille","lat":43.2984,"lon":5.36269,"is_reserved":false,"is_disabled":false,"rental_uris":{"android":"levelo://app?vid=9f4deee7-7f31-4c2e-82c6-46a38d5aa3cf","ios":"levelo://app?vid=9f4deee7-7f31-4c2e-82c6-46a38d5aa3cf"},"vehicle_type_id":"4","last_reported":1733242292,"current_range_meters":39200,"station_id":"ce4bgpp2rcd13ifvqc3g","pricing_plan_id":"cebpf4jnsgd1na2vs0mg"},{"bike_id":"9c77a68d-2e99-44e9-b903-950fb6644d35","system_id":"levelo_inurba_marseille","lat":43.25268,"lon":5.39464,"is_reserved":false,"is_disabled":true,"rental_uris":{"android":"levelo://app?vid=9c77a68d-2e99-44e9-b903-950fb6644d35","ios":"levelo://app?vid=9c77a68d-2e99-44e9-b903-950fb6644d35"},"vehicle_type_id":"4","last_reported":1733242292,"current_range_meters":0,"station_id":"","pricing_plan_id":"cebpf4jnsgd1na2vs0mg"},{"bike_id":"1b9ce348-e4ad-40fa-8a6f-3fc4c0b5c375","system_id":"levelo_inurba_marseille","lat":43.26936,"lon":5.40258,"is_reserved":false,"is_disabled":false,"rental_uris":{"android":"levelo://app?vid=1b9ce348-e4ad-40fa-8a6f-3fc4c0b5c375","ios":"levelo://app?vid=1b9ce348-e4ad-40fa-8a6f-3fc4c0b5c375"},"vehicle_type_id":"4","last_reported":1733242292,"current_range_meters":10800,"station_id":"cjm6bp8fraef2m0cb0m0","pricing_plan_id":"cebpf4jnsgd1na2vs0mg"},{"bike_id":"962f1a4f-dcef-4401-abf0-df4724b09119","system_id":"levelo_inurba_marseille","lat":43.31712,"lon":5.37742,"is_reserved":false,"is_disabled":false,"rental_uris":{"android":"levelo://app?vid=962f1a4f-dcef-4401-abf0-df4724b09119","ios":"levelo://app?vid=962f1a4f-dcef-4401-abf0-df4724b09119"},"vehicle_type_id":"4","last_reported":1733242292,"current_range_meters":32800,"station_id":"ce4bgth2rcd13ifvqch0","pricing_plan_id":"cebpf4jnsgd1na2vs0mg"},{"bike_id":"b4eaa05c-9d32-48a8-beba-a05e88c6f247","system_id":"levelo_inurba_marseille","lat":43.30591,"lon":5.37221,"is_reserved":false,"is_disabled":false,"rental_uris":{"android":"levelo://app?vid=b4eaa05c-9d32-48a8-beba-a05e88c6f247","ios":"levelo://app?vid=b4eaa05c-9d32-48a8-beba-a05e88c6f247"},"vehicle_type_id":"4","last_reported":1733242292,"current_range_meters":38800,"station_id":"ce4bgqh2rcd13ifvqc4g","pricing_plan_id":"cebpf4jnsgd1na2vs0mg"},{"bike_id":"83985555-c848-4b28-808f-8a7e7cf8519e","system_id":"levelo_inurba_marseille","lat":43.2811,"lon":5.44166,"is_reserved":false,"is_disabled":true,"rental_uris":{"android":"levelo://app?vid=83985555-c848-4b28-808f-8a7e7cf8519e","ios":"levelo://app?vid=83985555-c848-4b28-808f-8a7e7cf8519e"},"vehicle_type_id":"4","last_reported":1733242292,"current_range_meters":0,"station_id":"","pricing_plan_id":"cebpf4jnsgd1na2vs0mg"},{"bike_id":"b43027b0-d717-4fa9-a907-dd179eb05ae6","system_id":"levelo_inurba_marseille","lat":43.28724,"lon":5.3793,"is_reserved":false,"is_disabled":true,"rental_uris":{"android":"levelo://app?vid=b43027b0-d717-4fa9-a907-dd179eb05ae6","ios":"levelo://app?vid=b43027b0-d717-4fa9-a907-dd179eb05ae6"},"vehicle_type_id":"4","last_reported":1733242292,"current_range_meters":1600,"station_id":"ce4bh9p2rcd13ifvqec0","pricing_plan_id":"cebpf4jnsgd1na2vs0mg"},{"bike_id":"941eeae1-8936-4a86-b31a-ea87d84b2048","system_id":"levelo_inurba_marseille","lat":43.28056,"lon":5.35634,"is_reserved":false,"is_disabled":false,"rental_uris":{"android":"levelo://app?vid=941eeae1-8936-4a86-b31a-ea87d84b2048","ios":"levelo://app?vid=941eeae1-8936-4a86-b31a-ea87d84b2048"},"vehicle_type_id":"4","last_reported":1733242292,"current_range_meters":6400,"station_id":"","pricing_plan_id":"cebpf4jnsgd1na2vs0mg"},{"bike_id":"0826325f-8d51-494d-8296-ed6b114170c2","system_id":"levelo_inurba_marseille","lat":43.29301,"lon":5.37465,"is_reserved":false,"is_disabled":false,"rental_uris":{"android":"levelo://app?vid=0826325f-8d51-494d-8296-ed6b114170c2","ios":"levelo://app?vid=0826325f-8d51-494d-8296-ed6b114170c2"},"vehicle_type_id":"4","last_reported":1733242292,"current_range_meters":14400,"station_id":"ce4bgi12rcd13ifvqb70","pricing_plan_id":"cebpf4jnsgd1na2vs0mg"},{"bike_id":"afffd621-dccc-49f4-8d6c-13a2bffc6176","system_id":"levelo_inurba_marseille","lat":43.25088,"lon":5.39522,"is_reserved":false,"is_disabled":false,"rental_uris":{"android":"levelo://app?vid=afffd621-dccc-49f4-8d6c-13a2bffc6176","ios":"levelo://app?vid=afffd621-dccc-49f4-8d6c-13a2bffc6176"},"vehicle_type_id":"4","last_reported":1733242292,"current_range_meters":25200,"station_id":"ce4bhm12rcd13ifvqgkg","pricing_plan_id":"cebpf4jnsgd1na2vs0mg"},{"bike_id":"a6026f62-2384-43c6-9a8f-3a8b4f6c0db6","system_id":"levelo_inurba_marseille","lat":43.30606,"lon":5.37224,"is_reserved":false,"is_disabled":false,"rental_uris":{"android":"levelo://app?vid=a6026f62-2384-43c6-9a8f-3a8b4f6c0db6","ios":"levelo://app?vid=a6026f62-2384-43c6-9a8f-3a8b4f6c0db6"},"vehicle_type_id":"4","last_reported":1733242292,"current_range_meters":36400,"station_id":"ce4bgqh2rcd13ifvqc4g","pricing_plan_id":"cebpf4jnsgd1na2vs0mg"},{"bike_id":"d5dc8b48-0564-4629-a65c-97bbfeb5bca1","system_id":"levelo_inurba_marseille","lat":43.26174,"lon":5.37456,"is_reserved":false,"is_disabled":false,"rental_uris":{"android":"levelo://app?vid=d5dc8b48-0564-4629-a65c-97bbfeb5bca1","ios":"levelo://app?vid=d5dc8b48-0564-4629-a65c-97bbfeb5bca1"},"vehicle_type_id":"4","last_reported":1733242292,"current_range_meters":36400,"station_id":"ce4bhgp2rcd13ifvqfc0","pricing_plan_id":"cebpf4jnsgd1na2vs0mg"},{"bike_id":"d968385f-de2b-44eb-96a8-54efc707caa9","system_id":"levelo_inurba_marseille","lat":43.23198,"lon":5.35547,"is_reserved":false,"is_disabled":false,"rental_uris":{"android":"levelo://app?vid=d968385f-de2b-44eb-96a8-54efc707caa9","ios":"levelo://app?vid=d968385f-de2b-44eb-96a8-54efc707caa9"},"vehicle_type_id":"4","last_reported":1733242292,"current_range_meters":39200,"station_id":"ce4bhu92rcd13ifvqi70","pricing_plan_id":"cebpf4jnsgd1na2vs0mg"},{"bike_id":"9ebb14bb-13f9-4197-82b0-644ebf303db2","system_id":"levelo_inurba_marseille","lat":43.29719,"lon":5.37692,"is_reserved":false,"is_disabled":false,"rental_uris":{"android":"levelo://app?vid=9ebb14bb-13f9-4197-82b0-644ebf303db2","ios":"levelo://app?vid=9ebb14bb-13f9-4197-82b0-644ebf303db2"},"vehicle_type_id":"4","last_reported":1733242292,"current_range_meters":38800,"station_id":"ce4bgkh2rcd13ifvqbl0","pricing_plan_id":"cebpf4jnsgd1na2vs0mg"},{"bike_id":"e218f52a-3c8a-490a-99d9-5af7196625b0","system_id":"levelo_inurba_marseille","lat":43.23195,"lon":5.35548,"is_reserved":false,"is_disabled":false,"rental_uris":{"android":"levelo://app?vid=e218f52a-3c8a-490a-99d9-5af7196625b0","ios":"levelo://app?vid=e218f52a-3c8a-490a-99d9-5af7196625b0"},"vehicle_type_id":"4","last_reported":1733242292,"current_range_meters":39200,"station_id":"ce4bhu92rcd13ifvqi70","pricing_plan_id":"cebpf4jnsgd1na2vs0mg"},{"bike_id":"506c09f4-6c9b-4fb3-996c-4c7f86dd75a8","system_id":"levelo_inurba_marseille","lat":43.24557,"lon":5.37351,"is_reserved":false,"is_disabled":true,"rental_uris":{"android":"levelo://app?vid=506c09f4-6c9b-4fb3-996c-4c7f86dd75a8","ios":"levelo://app?vid=506c09f4-6c9b-4fb3-996c-4c7f86dd75a8"},"vehicle_type_id":"4","last_reported":1733242292,"current_range_meters":0,"station_id":"","pricing_plan_id":"cebpf4jnsgd1na2vs0mg"},{"bike_id":"c97c2e97-7800-4756-89b2-96fa26ad2a88","system_id":"levelo_inurba_marseille","lat":43.2885,"lon":5.35853,"is_reserved":false,"is_disabled":false,"rental_uris":{"android":"levelo://app?vid=c97c2e97-7800-4756-89b2-96fa26ad2a88","ios":"levelo://app?vid=c97c2e97-7800-4756-89b2-96fa26ad2a88"},"vehicle_type_id":"4","last_reported":1733242292,"current_range_meters":36000,"station_id":"ce4bhb12rcd13ifvqem0","pricing_plan_id":"cebpf4jnsgd1na2vs0mg"},{"bike_id":"4c447cfe-1055-4775-84e2-7316c429a49d","system_id":"levelo_inurba_marseille","lat":43.29962,"lon":5.4132,"is_reserved":false,"is_disabled":false,"rental_uris":{"android":"levelo://app?vid=4c447cfe-1055-4775-84e2-7316c429a49d","ios":"levelo://app?vid=4c447cfe-1055-4775-84e2-7316c429a49d"},"vehicle_type_id":"4","last_reported":1733242292,"current_range_meters":31200,"station_id":"ce4bhp12rcd13ifvqh9g","pricing_plan_id":"cebpf4jnsgd1na2vs0mg"},{"bike_id":"9202c63e-372c-4469-a5c1-8e35757d1940","system_id":"levelo_inurba_marseille","lat":43.30053,"lon":5.38832,"is_reserved":false,"is_disabled":true,"rental_uris":{"android":"levelo://app?vid=9202c63e-372c-4469-a5c1-8e35757d1940","ios":"levelo://app?vid=9202c63e-372c-4469-a5c1-8e35757d1940"},"vehicle_type_id":"4","last_reported":1733242292,"current_range_meters":0,"station_id":"","pricing_plan_id":"cebpf4jnsgd1na2vs0mg"},{"bike_id":"920590ea-3bd8-4b99-b4a0-70ebbab9daec","system_id":"levelo_inurba_marseille","lat":43.29438,"lon":5.39756,"is_reserved":false,"is_disabled":false,"rental_uris":{"android":"levelo://app?vid=920590ea-3bd8-4b99-b4a0-70ebbab9daec","ios":"levelo://app?vid=920590ea-3bd8-4b99-b4a0-70ebbab9daec"},"vehicle_type_id":"4","last_reported":1733242292,"current_range_meters":28800,"station_id":"ce4bh3h2rcd13ifvqdo0","pricing_plan_id":"cebpf4jnsgd1na2vs0mg"},{"bike_id":"59fe6ee5-2970-40fb-8f17-79075f699540","system_id":"levelo_inurba_marseille","lat":43.27055,"lon":5.40265,"is_reserved":false,"is_disabled":false,"rental_uris":{"android":"levelo://app?vid=59fe6ee5-2970-40fb-8f17-79075f699540","ios":"levelo://app?vid=59fe6ee5-2970-40fb-8f17-79075f699540"},"vehicle_type_id":"4","last_reported":1733242292,"current_range_meters":38400,"station_id":"ce4bhk92rcd13ifvqgc0","pricing_plan_id":"cebpf4jnsgd1na2vs0mg"},{"bike_id":"7f47dccf-323c-49ea-922a-458eaec8cf23","system_id":"levelo_inurba_marseille","lat":43.30591,"lon":5.37217,"is_reserved":false,"is_disabled":false,"rental_uris":{"android":"levelo://app?vid=7f47dccf-323c-49ea-922a-458eaec8cf23","ios":"levelo://app?vid=7f47dccf-323c-49ea-922a-458eaec8cf23"},"vehicle_type_id":"4","last_reported":1733242292,"current_range_meters":38800,"station_id":"ce4bgqh2rcd13ifvqc4g","pricing_plan_id":"cebpf4jnsgd1na2vs0mg"},{"bike_id":"8cbb1876-809e-4922-953b-40d493b437d4","system_id":"levelo_inurba_marseille","lat":43.32341,"lon":5.40626,"is_reserved":false,"is_disabled":false,"rental_uris":{"android":"levelo://app?vid=8cbb1876-809e-4922-953b-40d493b437d4","ios":"levelo://app?vid=8cbb1876-809e-4922-953b-40d493b437d4"},"vehicle_type_id":"4","last_reported":1733242292,"current_range_meters":23200,"station_id":"ce4bhq92rcd13ifvqhjg","pricing_plan_id":"cebpf4jnsgd1na2vs0mg"},{"bike_id":"4a163e59-10c0-4f85-9663-cc135fcf421e","system_id":"levelo_inurba_marseille","lat":43.24806,"lon":5.37459,"is_reserved":false,"is_disabled":false,"rental_uris":{"android":"levelo://app?vid=4a163e59-10c0-4f85-9663-cc135fcf421e","ios":"levelo://app?vid=4a163e59-10c0-4f85-9663-cc135fcf421e"},"vehicle_type_id":"4","last_reported":1733242292,"current_range_meters":22400,"station_id":"ce4bhgh2rcd13ifvqfb0","pricing_plan_id":"cebpf4jnsgd1na2vs0mg"},{"bike_id":"719e509a-25e4-4b1b-9830-f708d85d7593","system_id":"levelo_inurba_marseille","lat":43.29569,"lon":5.37512,"is_reserved":false,"is_disabled":true,"rental_uris":{"android":"levelo://app?vid=719e509a-25e4-4b1b-9830-f708d85d7593","ios":"levelo://app?vid=719e509a-25e4-4b1b-9830-f708d85d7593"},"vehicle_type_id":"4","last_reported":1733242292,"current_range_meters":0,"station_id":"ce4bgh92rcd13ifvqb50","pricing_plan_id":"cebpf4jnsgd1na2vs0mg"},{"bike_id":"34990873-3196-4058-b006-4ffbc0216fdf","system_id":"levelo_inurba_marseille","lat":43.23195,"lon":5.35545,"is_reserved":false,"is_disabled":false,"rental_uris":{"android":"levelo://app?vid=34990873-3196-4058-b006-4ffbc0216fdf","ios":"levelo://app?vid=34990873-3196-4058-b006-4ffbc0216fdf"},"vehicle_type_id":"4","last_reported":1733242292,"current_range_meters":39200,"station_id":"ce4bhu92rcd13ifvqi70","pricing_plan_id":"cebpf4jnsgd1na2vs0mg"},{"bike_id":"235e4433-937e-41f8-a4d6-6889c27bd8c1","system_id":"levelo_inurba_marseille","lat":43.31069,"lon":5.38351,"is_reserved":false,"is_disabled":false,"rental_uris":{"android":"levelo://app?vid=235e4433-937e-41f8-a4d6-6889c27bd8c1","ios":"levelo://app?vid=235e4433-937e-41f8-a4d6-6889c27bd8c1"},"vehicle_type_id":"4","last_reported":1733242292,"current_range_meters":24000,"station_id":"ce4bgv92rcd13ifvqcr0","pricing_plan_id":"cebpf4jnsgd1na2vs0mg"},{"bike_id":"21775811-19e2-4b3f-ac47-c3080d64b0f7","system_id":"levelo_inurba_marseille","lat":43.31479,"lon":5.3731,"is_reserved":false,"is_disabled":false,"rental_uris":{"android":"levelo://app?vid=21775811-19e2-4b3f-ac47-c3080d64b0f7","ios":"levelo://app?vid=21775811-19e2-4b3f-ac47-c3080d64b0f7"},"vehicle_type_id":"4","last_reported":1733242292,"current_range_meters":32800,"station_id":"ce4bgt12rcd13ifvqcd0","pricing_plan_id":"cebpf4jnsgd1na2vs0mg"},{"bike_id":"7eeb5ac6-a3ab-4724-a0d1-17bed7e385e6","system_id":"levelo_inurba_marseille","lat":43.28001,"lon":5.4167,"is_reserved":false,"is_disabled":true,"rental_uris":{"android":"levelo://app?vid=7eeb5ac6-a3ab-4724-a0d1-17bed7e385e6","ios":"levelo://app?vid=7eeb5ac6-a3ab-4724-a0d1-17bed7e385e6"},"vehicle_type_id":"4","last_reported":1733242292,"current_range_meters":29600,"station_id":"ce4bho12rcd13ifvqh1g","pricing_plan_id":"cebpf4jnsgd1na2vs0mg"},{"bike_id":"48f7fad5-9736-4854-ad66-3ac0235f4d2f","system_id":"levelo_inurba_marseille","lat":43.27067,"lon":5.40262,"is_reserved":false,"is_disabled":false,"rental_uris":{"android":"levelo://app?vid=48f7fad5-9736-4854-ad66-3ac0235f4d2f","ios":"levelo://app?vid=48f7fad5-9736-4854-ad66-3ac0235f4d2f"},"vehicle_type_id":"4","last_reported":1733242292,"current_range_meters":23200,"station_id":"ce4bhk92rcd13ifvqgc0","pricing_plan_id":"cebpf4jnsgd1na2vs0mg"},{"bike_id":"171fbc81-c574-4f77-9c24-c32cf204d37f","system_id":"levelo_inurba_marseille","lat":43.27999,"lon":5.41665,"is_reserved":false,"is_disabled":false,"rental_uris":{"android":"levelo://app?vid=171fbc81-c574-4f77-9c24-c32cf204d37f","ios":"levelo://app?vid=171fbc81-c574-4f77-9c24-c32cf204d37f"},"vehicle_type_id":"4","last_reported":1733242292,"current_range_meters":14000,"station_id":"ce4bho12rcd13ifvqh1g","pricing_plan_id":"cebpf4jnsgd1na2vs0mg"},{"bike_id":"5210d8d9-04c6-4fee-b7d1-3324d6822571","system_id":"levelo_inurba_marseille","lat":43.29262,"lon":5.3844,"is_reserved":false,"is_disabled":false,"rental_uris":{"android":"levelo://app?vid=5210d8d9-04c6-4fee-b7d1-3324d6822571","ios":"levelo://app?vid=5210d8d9-04c6-4fee-b7d1-3324d6822571"},"vehicle_type_id":"4","last_reported":1733242292,"current_range_meters":7200,"station_id":"ce4bh692rcd13ifvqea0","pricing_plan_id":"cebpf4jnsgd1na2vs0mg"},{"bike_id":"1765576d-ad21-4bb0-85a8-4c7cde4f5294","system_id":"levelo_inurba_marseille","lat":43.29617,"lon":5.37155,"is_reserved":false,"is_disabled":true,"rental_uris":{"android":"levelo://app?vid=1765576d-ad21-4bb0-85a8-4c7cde4f5294","ios":"levelo://app?vid=1765576d-ad21-4bb0-85a8-4c7cde4f5294"},"vehicle_type_id":"4","last_reported":1733242292,"current_range_meters":5600,"station_id":"ce4bgnh2rcd13ifvqc0g","pricing_plan_id":"cebpf4jnsgd1na2vs0mg"},{"bike_id":"d66bb060-eae4-4237-b847-a034287e114d","system_id":"levelo_inurba_marseille","lat":43.23952,"lon":5.3665,"is_reserved":false,"is_disabled":false,"rental_uris":{"android":"levelo://app?vid=d66bb060-eae4-4237-b847-a034287e114d","ios":"levelo://app?vid=d66bb060-eae4-4237-b847-a034287e114d"},"vehicle_type_id":"4","last_reported":1733242292,"current_range_meters":22800,"station_id":"ce4bhi12rcd13ifvqfp0","pricing_plan_id":"cebpf4jnsgd1na2vs0mg"},{"bike_id":"fe7dc555-114a-4665-bcb6-9907c11b0a8b","system_id":"levelo_inurba_marseille","lat":43.30416,"lon":5.41286,"is_reserved":false,"is_disabled":false,"rental_uris":{"android":"levelo://app?vid=fe7dc555-114a-4665-bcb6-9907c11b0a8b","ios":"levelo://app?vid=fe7dc555-114a-4665-bcb6-9907c11b0a8b"},"vehicle_type_id":"4","last_reported":1733242292,"current_range_meters":13600,"station_id":"ce4bhop2rcd13ifvqh8g","pricing_plan_id":"cebpf4jnsgd1na2vs0mg"},{"bike_id":"ad8d176a-6c33-4b1d-87b7-0c246e30bb56","system_id":"levelo_inurba_marseille","lat":43.25001,"lon":5.38923,"is_reserved":false,"is_disabled":false,"rental_uris":{"android":"levelo://app?vid=ad8d176a-6c33-4b1d-87b7-0c246e30bb56","ios":"levelo://app?vid=ad8d176a-6c33-4b1d-87b7-0c246e30bb56"},"vehicle_type_id":"4","last_reported":1733242292,"current_range_meters":22000,"station_id":"ce4bhgp2rcd13ifvqfd0","pricing_plan_id":"cebpf4jnsgd1na2vs0mg"},{"bike_id":"306ac285-bc0c-4835-93e0-a6039d545963","system_id":"levelo_inurba_marseille","lat":43.30089,"lon":5.39087,"is_reserved":false,"is_disabled":true,"rental_uris":{"android":"levelo://app?vid=306ac285-bc0c-4835-93e0-a6039d545963","ios":"levelo://app?vid=306ac285-bc0c-4835-93e0-a6039d545963"},"vehicle_type_id":"4","last_reported":1733242292,"current_range_meters":38800,"station_id":"ce4bh192rcd13ifvqdb0","pricing_plan_id":"cebpf4jnsgd1na2vs0mg"},{"bike_id":"a08686d5-2f01-4d05-b371-757cd60c3c1a","system_id":"levelo_inurba_marseille","lat":43.3041,"lon":5.41287,"is_reserved":false,"is_disabled":false,"rental_uris":{"android":"levelo://app?vid=a08686d5-2f01-4d05-b371-757cd60c3c1a","ios":"levelo://app?vid=a08686d5-2f01-4d05-b371-757cd60c3c1a"},"vehicle_type_id":"4","last_reported":1733242292,"current_range_meters":25200,"station_id":"ce4bhop2rcd13ifvqh8g","pricing_plan_id":"cebpf4jnsgd1na2vs0mg"},{"bike_id":"510f7d64-056d-4591-848e-33c7bef51b35","system_id":"levelo_inurba_marseille","lat":43.32868,"lon":5.39794,"is_reserved":false,"is_disabled":false,"rental_uris":{"android":"levelo://app?vid=510f7d64-056d-4591-848e-33c7bef51b35","ios":"levelo://app?vid=510f7d64-056d-4591-848e-33c7bef51b35"},"vehicle_type_id":"4","last_reported":1733242292,"current_range_meters":6000,"station_id":"","pricing_plan_id":"cebpf4jnsgd1na2vs0mg"},{"bike_id":"1dc70cdf-4f74-41af-9e95-77502d50e11a","system_id":"levelo_inurba_marseille","lat":43.30417,"lon":5.41277,"is_reserved":false,"is_disabled":true,"rental_uris":{"android":"levelo://app?vid=1dc70cdf-4f74-41af-9e95-77502d50e11a","ios":"levelo://app?vid=1dc70cdf-4f74-41af-9e95-77502d50e11a"},"vehicle_type_id":"4","last_reported":1733242292,"current_range_meters":16800,"station_id":"ce4bhop2rcd13ifvqh8g","pricing_plan_id":"cebpf4jnsgd1na2vs0mg"},{"bike_id":"493af9ec-780a-44a3-be54-8ea9bc9b1958","system_id":"levelo_inurba_marseille","lat":43.30138,"lon":5.37428,"is_reserved":false,"is_disabled":false,"rental_uris":{"android":"levelo://app?vid=493af9ec-780a-44a3-be54-8ea9bc9b1958","ios":"levelo://app?vid=493af9ec-780a-44a3-be54-8ea9bc9b1958"},"vehicle_type_id":"4","last_reported":1733242292,"current_range_meters":32000,"station_id":"ce4bgs92rcd13ifvqcc0","pricing_plan_id":"cebpf4jnsgd1na2vs0mg"},{"bike_id":"9df13e83-2d1a-4fa2-90cc-97c540055c4e","system_id":"levelo_inurba_marseille","lat":43.29681,"lon":5.37296,"is_reserved":false,"is_disabled":false,"rental_uris":{"android":"levelo://app?vid=9df13e83-2d1a-4fa2-90cc-97c540055c4e","ios":"levelo://app?vid=9df13e83-2d1a-4fa2-90cc-97c540055c4e"},"vehicle_type_id":"4","last_reported":1733242292,"current_range_meters":16000,"station_id":"ce4bgk12rcd13ifvqbj0","pricing_plan_id":"cebpf4jnsgd1na2vs0mg"},{"bike_id":"9aa29f71-8cba-4555-aae6-2223aa938df2","system_id":"levelo_inurba_marseille","lat":43.27967,"lon":5.38738,"is_reserved":false,"is_disabled":false,"rental_uris":{"android":"levelo://app?vid=9aa29f71-8cba-4555-aae6-2223aa938df2","ios":"levelo://app?vid=9aa29f71-8cba-4555-aae6-2223aa938df2"},"vehicle_type_id":"4","last_reported":1733242292,"current_range_meters":25200,"station_id":"ce4bhg12rcd13ifvqf80","pricing_plan_id":"cebpf4jnsgd1na2vs0mg"},{"bike_id":"a57352c3-6470-473f-b725-4b1ac6d22442","system_id":"levelo_inurba_marseille","lat":43.28619,"lon":5.35105,"is_reserved":false,"is_disabled":false,"rental_uris":{"android":"levelo://app?vid=a57352c3-6470-473f-b725-4b1ac6d22442","ios":"levelo://app?vid=a57352c3-6470-473f-b725-4b1ac6d22442"},"vehicle_type_id":"4","last_reported":1733242292,"current_range_meters":22800,"station_id":"ce4bhch2rcd13ifvqeug","pricing_plan_id":"cebpf4jnsgd1na2vs0mg"},{"bike_id":"72e21a5e-0a93-46f4-be99-089514dd36e9","system_id":"levelo_inurba_marseille","lat":43.33027,"lon":5.3904,"is_reserved":false,"is_disabled":false,"rental_uris":{"android":"levelo://app?vid=72e21a5e-0a93-46f4-be99-089514dd36e9","ios":"levelo://app?vid=72e21a5e-0a93-46f4-be99-089514dd36e9"},"vehicle_type_id":"4","last_reported":1733242292,"current_range_meters":38800,"station_id":"ce4bhr92rcd13ifvqhrg","pricing_plan_id":"cebpf4jnsgd1na2vs0mg"},{"bike_id":"79c8ea6d-5102-4a1e-b941-afdabc095945","system_id":"levelo_inurba_marseille","lat":43.29069,"lon":5.38332,"is_reserved":false,"is_disabled":true,"rental_uris":{"android":"levelo://app?vid=79c8ea6d-5102-4a1e-b941-afdabc095945","ios":"levelo://app?vid=79c8ea6d-5102-4a1e-b941-afdabc095945"},"vehicle_type_id":"4","last_reported":1733242292,"current_range_meters":24800,"station_id":"","pricing_plan_id":"cebpf4jnsgd1na2vs0mg"},{"bike_id":"d85fe9b9-a328-4c45-85c9-2ca7bf4076d8","system_id":"levelo_inurba_marseille","lat":43.32474,"lon":5.3659,"is_reserved":false,"is_disabled":false,"rental_uris":{"android":"levelo://app?vid=d85fe9b9-a328-4c45-85c9-2ca7bf4076d8","ios":"levelo://app?vid=d85fe9b9-a328-4c45-85c9-2ca7bf4076d8"},"vehicle_type_id":"4","last_reported":1733242292,"current_range_meters":31200,"station_id":"ce4bhs12rcd13ifvqhvg","pricing_plan_id":"cebpf4jnsgd1na2vs0mg"},{"bike_id":"78f0ad12-dd8e-4a2a-9df2-d7c1caf5f6ad","system_id":"levelo_inurba_marseille","lat":43.29279,"lon":5.40123,"is_reserved":false,"is_disabled":true,"rental_uris":{"android":"levelo://app?vid=78f0ad12-dd8e-4a2a-9df2-d7c1caf5f6ad","ios":"levelo://app?vid=78f0ad12-dd8e-4a2a-9df2-d7c1caf5f6ad"},"vehicle_type_id":"4","last_reported":1733242292,"current_range_meters":0,"station_id":"ce4bh312rcd13ifvqdk0","pricing_plan_id":"cebpf4jnsgd1na2vs0mg"},{"bike_id":"b4ee3c15-0c0c-43aa-b7de-dcc3f63a9bee","system_id":"levelo_inurba_marseille","lat":43.30523,"lon":5.36549,"is_reserved":false,"is_disabled":false,"rental_uris":{"android":"levelo://app?vid=b4ee3c15-0c0c-43aa-b7de-dcc3f63a9bee","ios":"levelo://app?vid=b4ee3c15-0c0c-43aa-b7de-dcc3f63a9bee"},"vehicle_type_id":"4","last_reported":1733242292,"current_range_meters":39200,"station_id":"ce4bgs12rcd13ifvqcag","pricing_plan_id":"cebpf4jnsgd1na2vs0mg"},{"bike_id":"d337693b-82b2-4f65-ad74-9a2472a5f9cd","system_id":"levelo_inurba_marseille","lat":43.29788,"lon":5.38116,"is_reserved":false,"is_disabled":true,"rental_uris":{"android":"levelo://app?vid=d337693b-82b2-4f65-ad74-9a2472a5f9cd","ios":"levelo://app?vid=d337693b-82b2-4f65-ad74-9a2472a5f9cd"},"vehicle_type_id":"4","last_reported":1733242292,"current_range_meters":38000,"station_id":"ce4bgip2rcd13ifvqbb0","pricing_plan_id":"cebpf4jnsgd1na2vs0mg"},{"bike_id":"1f3491f0-7911-4ef6-949b-178332ea511b","system_id":"levelo_inurba_marseille","lat":43.27932,"lon":5.3875,"is_reserved":false,"is_disabled":false,"rental_uris":{"android":"levelo://app?vid=1f3491f0-7911-4ef6-949b-178332ea511b","ios":"levelo://app?vid=1f3491f0-7911-4ef6-949b-178332ea511b"},"vehicle_type_id":"4","last_reported":1733242292,"current_range_meters":24000,"station_id":"ce4bhg12rcd13ifvqf80","pricing_plan_id":"cebpf4jnsgd1na2vs0mg"},{"bike_id":"1c19a381-361c-452f-b2c4-e193a90d1bd9","system_id":"levelo_inurba_marseille","lat":43.27376,"lon":5.36263,"is_reserved":false,"is_disabled":false,"rental_uris":{"android":"levelo://app?vid=1c19a381-361c-452f-b2c4-e193a90d1bd9","ios":"levelo://app?vid=1c19a381-361c-452f-b2c4-e193a90d1bd9"},"vehicle_type_id":"4","last_reported":1733242292,"current_range_meters":30000,"station_id":"ce4bhbh2rcd13ifvqeo0","pricing_plan_id":"cebpf4jnsgd1na2vs0mg"},{"bike_id":"427d7497-fe79-4531-b7d6-69d2614ceec1","system_id":"levelo_inurba_marseille","lat":43.29154,"lon":5.38484,"is_reserved":false,"is_disabled":true,"rental_uris":{"android":"levelo://app?vid=427d7497-fe79-4531-b7d6-69d2614ceec1","ios":"levelo://app?vid=427d7497-fe79-4531-b7d6-69d2614ceec1"},"vehicle_type_id":"4","last_reported":1733242292,"current_range_meters":8800,"station_id":"","pricing_plan_id":"cebpf4jnsgd1na2vs0mg"},{"bike_id":"3297e9d8-1b69-417e-a665-303604e77dfd","system_id":"levelo_inurba_marseille","lat":43.23963,"lon":5.36634,"is_reserved":false,"is_disabled":false,"rental_uris":{"android":"levelo://app?vid=3297e9d8-1b69-417e-a665-303604e77dfd","ios":"levelo://app?vid=3297e9d8-1b69-417e-a665-303604e77dfd"},"vehicle_type_id":"4","last_reported":1733242292,"current_range_meters":38000,"station_id":"ce4bhi12rcd13ifvqfp0","pricing_plan_id":"cebpf4jnsgd1na2vs0mg"},{"bike_id":"ede3432a-ab97-47ac-a568-dc59ed0d8b20","system_id":"levelo_inurba_marseille","lat":43.30601,"lon":5.37228,"is_reserved":false,"is_disabled":false,"rental_uris":{"android":"levelo://app?vid=ede3432a-ab97-47ac-a568-dc59ed0d8b20","ios":"levelo://app?vid=ede3432a-ab97-47ac-a568-dc59ed0d8b20"},"vehicle_type_id":"4","last_reported":1733242292,"current_range_meters":27200,"station_id":"ce4bgqh2rcd13ifvqc4g","pricing_plan_id":"cebpf4jnsgd1na2vs0mg"},{"bike_id":"940ba3a0-e90f-4241-a5e7-e715ecc86f54","system_id":"levelo_inurba_marseille","lat":43.29611,"lon":5.37716,"is_reserved":false,"is_disabled":false,"rental_uris":{"android":"levelo://app?vid=940ba3a0-e90f-4241-a5e7-e715ecc86f54","ios":"levelo://app?vid=940ba3a0-e90f-4241-a5e7-e715ecc86f54"},"vehicle_type_id":"4","last_reported":1733242292,"current_range_meters":38400,"station_id":"ce4bgi92rcd13ifvqb90","pricing_plan_id":"cebpf4jnsgd1na2vs0mg"},{"bike_id":"a4b9e425-64b8-4ce2-a5ab-5fcc5d1230a4","system_id":"levelo_inurba_marseille","lat":43.32106,"lon":5.36779,"is_reserved":false,"is_disabled":false,"rental_uris":{"android":"levelo://app?vid=a4b9e425-64b8-4ce2-a5ab-5fcc5d1230a4","ios":"levelo://app?vid=a4b9e425-64b8-4ce2-a5ab-5fcc5d1230a4"},"vehicle_type_id":"4","last_reported":1733242292,"current_range_meters":10000,"station_id":"ce4bhrh2rcd13ifvqhug","pricing_plan_id":"cebpf4jnsgd1na2vs0mg"},{"bike_id":"803c1b66-728a-435a-beca-1893ffcb222f","system_id":"levelo_inurba_marseille","lat":43.29045,"lon":5.35912,"is_reserved":false,"is_disabled":false,"rental_uris":{"android":"levelo://app?vid=803c1b66-728a-435a-beca-1893ffcb222f","ios":"levelo://app?vid=803c1b66-728a-435a-beca-1893ffcb222f"},"vehicle_type_id":"4","last_reported":1733242292,"current_range_meters":20800,"station_id":"ce4bha92rcd13ifvqeg0","pricing_plan_id":"cebpf4jnsgd1na2vs0mg"},{"bike_id":"302ce1df-994c-4294-90e0-6c4c05857211","system_id":"levelo_inurba_marseille","lat":43.24808,"lon":5.37459,"is_reserved":false,"is_disabled":false,"rental_uris":{"android":"levelo://app?vid=302ce1df-994c-4294-90e0-6c4c05857211","ios":"levelo://app?vid=302ce1df-994c-4294-90e0-6c4c05857211"},"vehicle_type_id":"4","last_reported":1733242292,"current_range_meters":32800,"station_id":"ce4bhgh2rcd13ifvqfb0","pricing_plan_id":"cebpf4jnsgd1na2vs0mg"},{"bike_id":"b2bc1728-46a3-400e-bd39-12c204f62d20","system_id":"levelo_inurba_marseille","lat":43.26942,"lon":5.40242,"is_reserved":false,"is_disabled":false,"rental_uris":{"android":"levelo://app?vid=b2bc1728-46a3-400e-bd39-12c204f62d20","ios":"levelo://app?vid=b2bc1728-46a3-400e-bd39-12c204f62d20"},"vehicle_type_id":"4","last_reported":1733242292,"current_range_meters":26000,"station_id":"cjm6bp8fraef2m0cb0m0","pricing_plan_id":"cebpf4jnsgd1na2vs0mg"},{"bike_id":"b1e6b49b-359d-4791-b1ed-8e1b7d5c7a6e","system_id":"levelo_inurba_marseille","lat":43.27997,"lon":5.40022,"is_reserved":false,"is_disabled":false,"rental_uris":{"android":"levelo://app?vid=b1e6b49b-359d-4791-b1ed-8e1b7d5c7a6e","ios":"levelo://app?vid=b1e6b49b-359d-4791-b1ed-8e1b7d5c7a6e"},"vehicle_type_id":"4","last_reported":1733242292,"current_range_meters":10000,"station_id":"ce4bho92rcd13ifvqh4g","pricing_plan_id":"cebpf4jnsgd1na2vs0mg"},{"bike_id":"30c1f42d-ea0a-4498-9a48-98f60adfefde","system_id":"levelo_inurba_marseille","lat":43.289347,"lon":5.366243,"is_reserved":false,"is_disabled":false,"rental_uris":{"android":"levelo://app?vid=30c1f42d-ea0a-4498-9a48-98f60adfefde","ios":"levelo://app?vid=30c1f42d-ea0a-4498-9a48-98f60adfefde"},"vehicle_type_id":"4","last_reported":1733242292,"current_range_meters":36800,"station_id":"ce4bhap2rcd13ifvqek0","pricing_plan_id":"cebpf4jnsgd1na2vs0mg"},{"bike_id":"d93892bd-1549-4434-8ac1-e230c5210d1c","system_id":"levelo_inurba_marseille","lat":43.30609,"lon":5.37222,"is_reserved":false,"is_disabled":false,"rental_uris":{"android":"levelo://app?vid=d93892bd-1549-4434-8ac1-e230c5210d1c","ios":"levelo://app?vid=d93892bd-1549-4434-8ac1-e230c5210d1c"},"vehicle_type_id":"4","last_reported":1733242292,"current_range_meters":24000,"station_id":"ce4bgqh2rcd13ifvqc4g","pricing_plan_id":"cebpf4jnsgd1na2vs0mg"},{"bike_id":"0112a8c7-aaf7-4044-b05d-a8dc345517a8","system_id":"levelo_inurba_marseille","lat":43.31333,"lon":5.39702,"is_reserved":false,"is_disabled":false,"rental_uris":{"android":"levelo://app?vid=0112a8c7-aaf7-4044-b05d-a8dc345517a8","ios":"levelo://app?vid=0112a8c7-aaf7-4044-b05d-a8dc345517a8"},"vehicle_type_id":"4","last_reported":1733242292,"current_range_meters":28000,"station_id":"ce4bgvp2rcd13ifvqcu0","pricing_plan_id":"cebpf4jnsgd1na2vs0mg"},{"bike_id":"803ae2dc-bb0e-4bdd-a79c-7df72396dc05","system_id":"levelo_inurba_marseille","lat":43.27999,"lon":5.40008,"is_reserved":false,"is_disabled":false,"rental_uris":{"android":"levelo://app?vid=803ae2dc-bb0e-4bdd-a79c-7df72396dc05","ios":"levelo://app?vid=803ae2dc-bb0e-4bdd-a79c-7df72396dc05"},"vehicle_type_id":"4","last_reported":1733242292,"current_range_meters":30800,"station_id":"ce4bho92rcd13ifvqh4g","pricing_plan_id":"cebpf4jnsgd1na2vs0mg"},{"bike_id":"b052a9f0-d64a-47f2-97c2-5ce405763606","system_id":"levelo_inurba_marseille","lat":43.26784,"lon":5.39416,"is_reserved":false,"is_disabled":false,"rental_uris":{"android":"levelo://app?vid=b052a9f0-d64a-47f2-97c2-5ce405763606","ios":"levelo://app?vid=b052a9f0-d64a-47f2-97c2-5ce405763606"},"vehicle_type_id":"4","last_reported":1733242292,"current_range_meters":38800,"station_id":"ce4bhh12rcd13ifvqfg0","pricing_plan_id":"cebpf4jnsgd1na2vs0mg"},{"bike_id":"e574a8cd-cb8b-4705-988d-a54eaa629839","system_id":"levelo_inurba_marseille","lat":43.32361,"lon":5.36734,"is_reserved":false,"is_disabled":false,"rental_uris":{"android":"levelo://app?vid=e574a8cd-cb8b-4705-988d-a54eaa629839","ios":"levelo://app?vid=e574a8cd-cb8b-4705-988d-a54eaa629839"},"vehicle_type_id":"4","last_reported":1733242292,"current_range_meters":38800,"station_id":"ce4bhsh2rcd13ifvqi2g","pricing_plan_id":"cebpf4jnsgd1na2vs0mg"},{"bike_id":"a111a6cd-4af3-4fd0-a2de-0037d38b47f9","system_id":"levelo_inurba_marseille","lat":43.298409,"lon":5.362688,"is_reserved":false,"is_disabled":false,"rental_uris":{"android":"levelo://app?vid=a111a6cd-4af3-4fd0-a2de-0037d38b47f9","ios":"levelo://app?vid=a111a6cd-4af3-4fd0-a2de-0037d38b47f9"},"vehicle_type_id":"4","last_reported":1733242292,"current_range_meters":20800,"station_id":"ce4bgpp2rcd13ifvqc3g","pricing_plan_id":"cebpf4jnsgd1na2vs0mg"},{"bike_id":"b5a03233-d31f-4598-84c4-07d6d6043f52","system_id":"levelo_inurba_marseille","lat":43.2816,"lon":5.42655,"is_reserved":false,"is_disabled":false,"rental_uris":{"android":"levelo://app?vid=b5a03233-d31f-4598-84c4-07d6d6043f52","ios":"levelo://app?vid=b5a03233-d31f-4598-84c4-07d6d6043f52"},"vehicle_type_id":"4","last_reported":1733242292,"current_range_meters":35600,"station_id":"ce4bhnh2rcd13ifvqgug","pricing_plan_id":"cebpf4jnsgd1na2vs0mg"},{"bike_id":"57e0f190-7f16-4931-934d-384b1700b76f","system_id":"levelo_inurba_marseille","lat":43.33097,"lon":5.36217,"is_reserved":false,"is_disabled":true,"rental_uris":{"android":"levelo://app?vid=57e0f190-7f16-4931-934d-384b1700b76f","ios":"levelo://app?vid=57e0f190-7f16-4931-934d-384b1700b76f"},"vehicle_type_id":"4","last_reported":1733242292,"current_range_meters":1600,"station_id":"","pricing_plan_id":"cebpf4jnsgd1na2vs0mg"},{"bike_id":"5e160b8e-5c83-4423-b051-bd2cf577003d","system_id":"levelo_inurba_marseille","lat":43.23198,"lon":5.35549,"is_reserved":false,"is_disabled":false,"rental_uris":{"android":"levelo://app?vid=5e160b8e-5c83-4423-b051-bd2cf577003d","ios":"levelo://app?vid=5e160b8e-5c83-4423-b051-bd2cf577003d"},"vehicle_type_id":"4","last_reported":1733242292,"current_range_meters":39200,"station_id":"ce4bhu92rcd13ifvqi70","pricing_plan_id":"cebpf4jnsgd1na2vs0mg"},{"bike_id":"322cf6fe-0822-422b-95a4-35c4bd952f62","system_id":"levelo_inurba_marseille","lat":43.27178,"lon":5.4099,"is_reserved":false,"is_disabled":false,"rental_uris":{"android":"levelo://app?vid=322cf6fe-0822-422b-95a4-35c4bd952f62","ios":"levelo://app?vid=322cf6fe-0822-422b-95a4-35c4bd952f62"},"vehicle_type_id":"4","last_reported":1733242292,"current_range_meters":24000,"station_id":"ce4bhl12rcd13ifvqgf0","pricing_plan_id":"cebpf4jnsgd1na2vs0mg"},{"bike_id":"89790328-14f8-4b3a-86d2-09c07c01657a","system_id":"levelo_inurba_marseille","lat":43.33023,"lon":5.39038,"is_reserved":false,"is_disabled":false,"rental_uris":{"android":"levelo://app?vid=89790328-14f8-4b3a-86d2-09c07c01657a","ios":"levelo://app?vid=89790328-14f8-4b3a-86d2-09c07c01657a"},"vehicle_type_id":"4","last_reported":1733242292,"current_range_meters":30400,"station_id":"ce4bhr92rcd13ifvqhrg","pricing_plan_id":"cebpf4jnsgd1na2vs0mg"},{"bike_id":"2474f47f-3502-4a86-9cdf-a92970d48289","system_id":"levelo_inurba_marseille","lat":43.32368,"lon":5.38886,"is_reserved":false,"is_disabled":false,"rental_uris":{"android":"levelo://app?vid=2474f47f-3502-4a86-9cdf-a92970d48289","ios":"levelo://app?vid=2474f47f-3502-4a86-9cdf-a92970d48289"},"vehicle_type_id":"4","last_reported":1733242292,"current_range_meters":38800,"station_id":"ce4bhqp2rcd13ifvqhog","pricing_plan_id":"cebpf4jnsgd1na2vs0mg"},{"bike_id":"0ecfd779-5539-47af-aacd-2f9643bc2006","system_id":"levelo_inurba_marseille","lat":43.30149,"lon":5.38084,"is_reserved":false,"is_disabled":false,"rental_uris":{"android":"levelo://app?vid=0ecfd779-5539-47af-aacd-2f9643bc2006","ios":"levelo://app?vid=0ecfd779-5539-47af-aacd-2f9643bc2006"},"vehicle_type_id":"4","last_reported":1733242292,"current_range_meters":28800,"station_id":"ce4bgjp2rcd13ifvqbh0","pricing_plan_id":"cebpf4jnsgd1na2vs0mg"},{"bike_id":"f6f40092-5ef3-411c-9109-bb800ef614bd","system_id":"levelo_inurba_marseille","lat":43.30606,"lon":5.37233,"is_reserved":false,"is_disabled":false,"rental_uris":{"android":"levelo://app?vid=f6f40092-5ef3-411c-9109-bb800ef614bd","ios":"levelo://app?vid=f6f40092-5ef3-411c-9109-bb800ef614bd"},"vehicle_type_id":"4","last_reported":1733242292,"current_range_meters":36400,"station_id":"ce4bgqh2rcd13ifvqc4g","pricing_plan_id":"cebpf4jnsgd1na2vs0mg"},{"bike_id":"e1575d20-f755-4a45-bccd-fd543432db4d","system_id":"levelo_inurba_marseille","lat":43.30533,"lon":5.36543,"is_reserved":false,"is_disabled":false,"rental_uris":{"android":"levelo://app?vid=e1575d20-f755-4a45-bccd-fd543432db4d","ios":"levelo://app?vid=e1575d20-f755-4a45-bccd-fd543432db4d"},"vehicle_type_id":"4","last_reported":1733242292,"current_range_meters":38800,"station_id":"ce4bgs12rcd13ifvqcag","pricing_plan_id":"cebpf4jnsgd1na2vs0mg"},{"bike_id":"e63aa962-a242-44bd-8328-31cf6c0d9d3d","system_id":"levelo_inurba_marseille","lat":43.2931,"lon":5.37181,"is_reserved":false,"is_disabled":true,"rental_uris":{"android":"levelo://app?vid=e63aa962-a242-44bd-8328-31cf6c0d9d3d","ios":"levelo://app?vid=e63aa962-a242-44bd-8328-31cf6c0d9d3d"},"vehicle_type_id":"4","last_reported":1733242292,"current_range_meters":0,"station_id":"ce4bgh92rcd13ifvqb40","pricing_plan_id":"cebpf4jnsgd1na2vs0mg"},{"bike_id":"f8bcc820-9a1c-492a-9f26-6a6b26934b17","system_id":"levelo_inurba_marseille","lat":43.28608,"lon":5.3706,"is_reserved":false,"is_disabled":true,"rental_uris":{"android":"levelo://app?vid=f8bcc820-9a1c-492a-9f26-6a6b26934b17","ios":"levelo://app?vid=f8bcc820-9a1c-492a-9f26-6a6b26934b17"},"vehicle_type_id":"4","last_reported":1733242292,"current_range_meters":38400,"station_id":"ce4bht12rcd13ifvqi60","pricing_plan_id":"cebpf4jnsgd1na2vs0mg"},{"bike_id":"00b57f8c-80e5-4df4-8430-13bdd80f9fb1","system_id":"levelo_inurba_marseille","lat":43.24388,"lon":5.37064,"is_reserved":false,"is_disabled":false,"rental_uris":{"android":"levelo://app?vid=00b57f8c-80e5-4df4-8430-13bdd80f9fb1","ios":"levelo://app?vid=00b57f8c-80e5-4df4-8430-13bdd80f9fb1"},"vehicle_type_id":"4","last_reported":1733242292,"current_range_meters":35200,"station_id":"ce4bhhh2rcd13ifvqfk0","pricing_plan_id":"cebpf4jnsgd1na2vs0mg"},{"bike_id":"c1859f3c-cb81-4e1b-b452-7b0631cb67f2","system_id":"levelo_inurba_marseille","lat":43.26497,"lon":5.39565,"is_reserved":false,"is_disabled":false,"rental_uris":{"android":"levelo://app?vid=c1859f3c-cb81-4e1b-b452-7b0631cb67f2","ios":"levelo://app?vid=c1859f3c-cb81-4e1b-b452-7b0631cb67f2"},"vehicle_type_id":"4","last_reported":1733242292,"current_range_meters":30800,"station_id":"ce4bhi12rcd13ifvqfq0","pricing_plan_id":"cebpf4jnsgd1na2vs0mg"},{"bike_id":"3a9149f3-357c-4d0a-859b-18382ef024a5","system_id":"levelo_inurba_marseille","lat":43.32111,"lon":5.36774,"is_reserved":false,"is_disabled":false,"rental_uris":{"android":"levelo://app?vid=3a9149f3-357c-4d0a-859b-18382ef024a5","ios":"levelo://app?vid=3a9149f3-357c-4d0a-859b-18382ef024a5"},"vehicle_type_id":"4","last_reported":1733242292,"current_range_meters":31200,"station_id":"ce4bhrh2rcd13ifvqhug","pricing_plan_id":"cebpf4jnsgd1na2vs0mg"},{"bike_id":"e9f39ac8-f3d8-4707-b37d-d0895bcd6fe0","system_id":"levelo_inurba_marseille","lat":43.30601,"lon":5.37228,"is_reserved":false,"is_disabled":false,"rental_uris":{"android":"levelo://app?vid=e9f39ac8-f3d8-4707-b37d-d0895bcd6fe0","ios":"levelo://app?vid=e9f39ac8-f3d8-4707-b37d-d0895bcd6fe0"},"vehicle_type_id":"4","last_reported":1733242292,"current_range_meters":31200,"station_id":"ce4bgqh2rcd13ifvqc4g","pricing_plan_id":"cebpf4jnsgd1na2vs0mg"},{"bike_id":"1c0c63ca-f845-4933-b011-39e461495bdc","system_id":"levelo_inurba_marseille","lat":43.27952,"lon":5.41058,"is_reserved":false,"is_disabled":false,"rental_uris":{"android":"levelo://app?vid=1c0c63ca-f845-4933-b011-39e461495bdc","ios":"levelo://app?vid=1c0c63ca-f845-4933-b011-39e461495bdc"},"vehicle_type_id":"4","last_reported":1733242292,"current_range_meters":38400,"station_id":"ce4bhnp2rcd13ifvqh0g","pricing_plan_id":"cebpf4jnsgd1na2vs0mg"},{"bike_id":"da6a7a1d-e653-4950-af8c-8137b06f7d40","system_id":"levelo_inurba_marseille","lat":43.3004,"lon":5.37551,"is_reserved":false,"is_disabled":true,"rental_uris":{"android":"levelo://app?vid=da6a7a1d-e653-4950-af8c-8137b06f7d40","ios":"levelo://app?vid=da6a7a1d-e653-4950-af8c-8137b06f7d40"},"vehicle_type_id":"4","last_reported":1733242292,"current_range_meters":0,"station_id":"","pricing_plan_id":"cebpf4jnsgd1na2vs0mg"},{"bike_id":"6e4ee379-233c-4361-8486-1507f5be80bc","system_id":"levelo_inurba_marseille","lat":43.30155,"lon":5.38077,"is_reserved":false,"is_disabled":false,"rental_uris":{"android":"levelo://app?vid=6e4ee379-233c-4361-8486-1507f5be80bc","ios":"levelo://app?vid=6e4ee379-233c-4361-8486-1507f5be80bc"},"vehicle_type_id":"4","last_reported":1733242292,"current_range_meters":8800,"station_id":"ce4bgjp2rcd13ifvqbh0","pricing_plan_id":"cebpf4jnsgd1na2vs0mg"},{"bike_id":"491ebca4-7cd3-48ac-b3de-398bbd14b132","system_id":"levelo_inurba_marseille","lat":43.30954,"lon":5.39039,"is_reserved":false,"is_disabled":true,"rental_uris":{"android":"levelo://app?vid=491ebca4-7cd3-48ac-b3de-398bbd14b132","ios":"levelo://app?vid=491ebca4-7cd3-48ac-b3de-398bbd14b132"},"vehicle_type_id":"4","last_reported":1733242292,"current_range_meters":0,"station_id":"ce4bgup2rcd13ifvqco0","pricing_plan_id":"cebpf4jnsgd1na2vs0mg"},{"bike_id":"87779b40-d0ed-4337-9bf7-c9a883db3960","system_id":"levelo_inurba_marseille","lat":43.30416,"lon":5.41285,"is_reserved":false,"is_disabled":false,"rental_uris":{"android":"levelo://app?vid=87779b40-d0ed-4337-9bf7-c9a883db3960","ios":"levelo://app?vid=87779b40-d0ed-4337-9bf7-c9a883db3960"},"vehicle_type_id":"4","last_reported":1733242292,"current_range_meters":19200,"station_id":"ce4bhop2rcd13ifvqh8g","pricing_plan_id":"cebpf4jnsgd1na2vs0mg"},{"bike_id":"45bc554a-5b0c-4057-80c4-0bb72f2ad924","system_id":"levelo_inurba_marseille","lat":43.28943,"lon":5.3662,"is_reserved":false,"is_disabled":false,"rental_uris":{"android":"levelo://app?vid=45bc554a-5b0c-4057-80c4-0bb72f2ad924","ios":"levelo://app?vid=45bc554a-5b0c-4057-80c4-0bb72f2ad924"},"vehicle_type_id":"4","last_reported":1733242292,"current_range_meters":38800,"station_id":"ce4bhap2rcd13ifvqek0","pricing_plan_id":"cebpf4jnsgd1na2vs0mg"},{"bike_id":"a3874231-37f8-475b-8645-ff1cdf535aa7","system_id":"levelo_inurba_marseille","lat":43.27836,"lon":5.39209,"is_reserved":false,"is_disabled":false,"rental_uris":{"android":"levelo://app?vid=a3874231-37f8-475b-8645-ff1cdf535aa7","ios":"levelo://app?vid=a3874231-37f8-475b-8645-ff1cdf535aa7"},"vehicle_type_id":"4","last_reported":1733242292,"current_range_meters":8400,"station_id":"ce4bhjp2rcd13ifvqga0","pricing_plan_id":"cebpf4jnsgd1na2vs0mg"},{"bike_id":"fe7a8829-8e1d-4064-83a0-59a0c519b52b","system_id":"levelo_inurba_marseille","lat":43.23967,"lon":5.36634,"is_reserved":false,"is_disabled":false,"rental_uris":{"android":"levelo://app?vid=fe7a8829-8e1d-4064-83a0-59a0c519b52b","ios":"levelo://app?vid=fe7a8829-8e1d-4064-83a0-59a0c519b52b"},"vehicle_type_id":"4","last_reported":1733242292,"current_range_meters":38800,"station_id":"ce4bhi12rcd13ifvqfp0","pricing_plan_id":"cebpf4jnsgd1na2vs0mg"},{"bike_id":"8f82c7d2-3f71-4ab4-9c45-6544de44f10e","system_id":"levelo_inurba_marseille","lat":43.28929,"lon":5.36639,"is_reserved":false,"is_disabled":false,"rental_uris":{"android":"levelo://app?vid=8f82c7d2-3f71-4ab4-9c45-6544de44f10e","ios":"levelo://app?vid=8f82c7d2-3f71-4ab4-9c45-6544de44f10e"},"vehicle_type_id":"4","last_reported":1733242292,"current_range_meters":29600,"station_id":"ce4bhap2rcd13ifvqek0","pricing_plan_id":"cebpf4jnsgd1na2vs0mg"},{"bike_id":"c3b7a8fd-35d4-4067-974b-60699594ecfc","system_id":"levelo_inurba_marseille","lat":43.29078,"lon":5.37175,"is_reserved":false,"is_disabled":false,"rental_uris":{"android":"levelo://app?vid=c3b7a8fd-35d4-4067-974b-60699594ecfc","ios":"levelo://app?vid=c3b7a8fd-35d4-4067-974b-60699594ecfc"},"vehicle_type_id":"4","last_reported":1733242292,"current_range_meters":18000,"station_id":"ce4bh5p2rcd13ifvqe4g","pricing_plan_id":"cebpf4jnsgd1na2vs0mg"},{"bike_id":"d3b7caf1-7cfa-44bf-a45d-2b3522aa00bf","system_id":"levelo_inurba_marseille","lat":43.30249,"lon":5.37747,"is_reserved":false,"is_disabled":false,"rental_uris":{"android":"levelo://app?vid=d3b7caf1-7cfa-44bf-a45d-2b3522aa00bf","ios":"levelo://app?vid=d3b7caf1-7cfa-44bf-a45d-2b3522aa00bf"},"vehicle_type_id":"4","last_reported":1733242292,"current_range_meters":36800,"station_id":"ce4bguh2rcd13ifvqcj0","pricing_plan_id":"cebpf4jnsgd1na2vs0mg"},{"bike_id":"70c61673-8159-49b2-b6ed-4b8c3dd127e4","system_id":"levelo_inurba_marseille","lat":43.25085,"lon":5.39518,"is_reserved":false,"is_disabled":false,"rental_uris":{"android":"levelo://app?vid=70c61673-8159-49b2-b6ed-4b8c3dd127e4","ios":"levelo://app?vid=70c61673-8159-49b2-b6ed-4b8c3dd127e4"},"vehicle_type_id":"4","last_reported":1733242292,"current_range_meters":39200,"station_id":"ce4bhm12rcd13ifvqgkg","pricing_plan_id":"cebpf4jnsgd1na2vs0mg"},{"bike_id":"b6c4224b-b68a-497b-b9c4-93e3c31af28e","system_id":"levelo_inurba_marseille","lat":43.31062,"lon":5.38354,"is_reserved":false,"is_disabled":false,"rental_uris":{"android":"levelo://app?vid=b6c4224b-b68a-497b-b9c4-93e3c31af28e","ios":"levelo://app?vid=b6c4224b-b68a-497b-b9c4-93e3c31af28e"},"vehicle_type_id":"4","last_reported":1733242292,"current_range_meters":25600,"station_id":"ce4bgv92rcd13ifvqcr0","pricing_plan_id":"cebpf4jnsgd1na2vs0mg"},{"bike_id":"69c7e5b8-2331-4bc8-b7db-83a6cbe8dd93","system_id":"levelo_inurba_marseille","lat":43.30526,"lon":5.36707,"is_reserved":false,"is_disabled":true,"rental_uris":{"android":"levelo://app?vid=69c7e5b8-2331-4bc8-b7db-83a6cbe8dd93","ios":"levelo://app?vid=69c7e5b8-2331-4bc8-b7db-83a6cbe8dd93"},"vehicle_type_id":"4","last_reported":1733242292,"current_range_meters":1600,"station_id":"ce4bgrp2rcd13ifvqc9g","pricing_plan_id":"cebpf4jnsgd1na2vs0mg"},{"bike_id":"fe594fc4-83b4-4bec-8445-9ed4df0cad70","system_id":"levelo_inurba_marseille","lat":43.27173,"lon":5.40995,"is_reserved":false,"is_disabled":false,"rental_uris":{"android":"levelo://app?vid=fe594fc4-83b4-4bec-8445-9ed4df0cad70","ios":"levelo://app?vid=fe594fc4-83b4-4bec-8445-9ed4df0cad70"},"vehicle_type_id":"4","last_reported":1733242292,"current_range_meters":36400,"station_id":"ce4bhl12rcd13ifvqgf0","pricing_plan_id":"cebpf4jnsgd1na2vs0mg"},{"bike_id":"d9594733-6e50-4ddc-8ecb-4d3854d84bf6","system_id":"levelo_inurba_marseille","lat":43.2621,"lon":5.37454,"is_reserved":false,"is_disabled":false,"rental_uris":{"android":"levelo://app?vid=d9594733-6e50-4ddc-8ecb-4d3854d84bf6","ios":"levelo://app?vid=d9594733-6e50-4ddc-8ecb-4d3854d84bf6"},"vehicle_type_id":"4","last_reported":1733242292,"current_range_meters":37600,"station_id":"ce4bhgp2rcd13ifvqfc0","pricing_plan_id":"cebpf4jnsgd1na2vs0mg"},{"bike_id":"d9600396-5d38-4428-bbf6-dcf2c609d4d4","system_id":"levelo_inurba_marseille","lat":43.23959,"lon":5.36636,"is_reserved":false,"is_disabled":false,"rental_uris":{"android":"levelo://app?vid=d9600396-5d38-4428-bbf6-dcf2c609d4d4","ios":"levelo://app?vid=d9600396-5d38-4428-bbf6-dcf2c609d4d4"},"vehicle_type_id":"4","last_reported":1733242292,"current_range_meters":38800,"station_id":"ce4bhi12rcd13ifvqfp0","pricing_plan_id":"cebpf4jnsgd1na2vs0mg"},{"bike_id":"8258908c-2685-4346-a02e-eb0907e71275","system_id":"levelo_inurba_marseille","lat":43.28719,"lon":5.37398,"is_reserved":false,"is_disabled":false,"rental_uris":{"android":"levelo://app?vid=8258908c-2685-4346-a02e-eb0907e71275","ios":"levelo://app?vid=8258908c-2685-4346-a02e-eb0907e71275"},"vehicle_type_id":"4","last_reported":1733242292,"current_range_meters":8400,"station_id":"ce4bh3p2rcd13ifvqdq0","pricing_plan_id":"cebpf4jnsgd1na2vs0mg"},{"bike_id":"22da2a68-2e6f-4460-a8d4-fb31d0b59637","system_id":"levelo_inurba_marseille","lat":43.28075,"lon":5.39662,"is_reserved":false,"is_disabled":false,"rental_uris":{"android":"levelo://app?vid=22da2a68-2e6f-4460-a8d4-fb31d0b59637","ios":"levelo://app?vid=22da2a68-2e6f-4460-a8d4-fb31d0b59637"},"vehicle_type_id":"4","last_reported":1733242292,"current_range_meters":19600,"station_id":"ce4bho12rcd13ifvqh2g","pricing_plan_id":"cebpf4jnsgd1na2vs0mg"},{"bike_id":"afee990f-b1ca-4562-adf0-5c85af5d126c","system_id":"levelo_inurba_marseille","lat":43.2603,"lon":5.37548,"is_reserved":false,"is_disabled":false,"rental_uris":{"android":"levelo://app?vid=afee990f-b1ca-4562-adf0-5c85af5d126c","ios":"levelo://app?vid=afee990f-b1ca-4562-adf0-5c85af5d126c"},"vehicle_type_id":"4","last_reported":1733242292,"current_range_meters":33600,"station_id":"ce4bhgh2rcd13ifvqfa0","pricing_plan_id":"cebpf4jnsgd1na2vs0mg"},{"bike_id":"9f4c0763-e18d-4ff5-93af-cfebd61f34ad","system_id":"levelo_inurba_marseille","lat":43.24545,"lon":5.39525,"is_reserved":false,"is_disabled":false,"rental_uris":{"android":"levelo://app?vid=9f4c0763-e18d-4ff5-93af-cfebd61f34ad","ios":"levelo://app?vid=9f4c0763-e18d-4ff5-93af-cfebd61f34ad"},"vehicle_type_id":"4","last_reported":1733242292,"current_range_meters":38800,"station_id":"ce4bhlp2rcd13ifvqgjg","pricing_plan_id":"cebpf4jnsgd1na2vs0mg"},{"bike_id":"a95689b9-33aa-4999-bcfa-e51f7b387b2a","system_id":"levelo_inurba_marseille","lat":43.27973,"lon":5.38736,"is_reserved":false,"is_disabled":true,"rental_uris":{"android":"levelo://app?vid=a95689b9-33aa-4999-bcfa-e51f7b387b2a","ios":"levelo://app?vid=a95689b9-33aa-4999-bcfa-e51f7b387b2a"},"vehicle_type_id":"4","last_reported":1733242292,"current_range_meters":0,"station_id":"ce4bhg12rcd13ifvqf80","pricing_plan_id":"cebpf4jnsgd1na2vs0mg"},{"bike_id":"34814998-ad91-4fa2-bf76-a22b3567e7b1","system_id":"levelo_inurba_marseille","lat":43.28654,"lon":5.36351,"is_reserved":false,"is_disabled":false,"rental_uris":{"android":"levelo://app?vid=34814998-ad91-4fa2-bf76-a22b3567e7b1","ios":"levelo://app?vid=34814998-ad91-4fa2-bf76-a22b3567e7b1"},"vehicle_type_id":"4","last_reported":1733242292,"current_range_meters":36800,"station_id":"ce4bhah2rcd13ifvqej0","pricing_plan_id":"cebpf4jnsgd1na2vs0mg"},{"bike_id":"be8cd377-bf58-414c-876c-45495911bc5b","system_id":"levelo_inurba_marseille","lat":43.28695,"lon":5.41084,"is_reserved":false,"is_disabled":true,"rental_uris":{"android":"levelo://app?vid=be8cd377-bf58-414c-876c-45495911bc5b","ios":"levelo://app?vid=be8cd377-bf58-414c-876c-45495911bc5b"},"vehicle_type_id":"4","last_reported":1733242292,"current_range_meters":14000,"station_id":"","pricing_plan_id":"cebpf4jnsgd1na2vs0mg"},{"bike_id":"8095c463-6c49-49b8-9e3f-8f6c35ee110a","system_id":"levelo_inurba_marseille","lat":43.24652,"lon":5.38896,"is_reserved":false,"is_disabled":false,"rental_uris":{"android":"levelo://app?vid=8095c463-6c49-49b8-9e3f-8f6c35ee110a","ios":"levelo://app?vid=8095c463-6c49-49b8-9e3f-8f6c35ee110a"},"vehicle_type_id":"4","last_reported":1733242292,"current_range_meters":16800,"station_id":"ce4bhg12rcd13ifvqf60","pricing_plan_id":"cebpf4jnsgd1na2vs0mg"},{"bike_id":"aa401b72-f2ac-45f9-b9a3-8c2e40f4e27e","system_id":"levelo_inurba_marseille","lat":43.30413,"lon":5.41287,"is_reserved":false,"is_disabled":false,"rental_uris":{"android":"levelo://app?vid=aa401b72-f2ac-45f9-b9a3-8c2e40f4e27e","ios":"levelo://app?vid=aa401b72-f2ac-45f9-b9a3-8c2e40f4e27e"},"vehicle_type_id":"4","last_reported":1733242292,"current_range_meters":39200,"station_id":"ce4bhop2rcd13ifvqh8g","pricing_plan_id":"cebpf4jnsgd1na2vs0mg"},{"bike_id":"ab74d258-8d56-4ed9-9cb7-57ae1639ee73","system_id":"levelo_inurba_marseille","lat":43.2632,"lon":5.40141,"is_reserved":false,"is_disabled":true,"rental_uris":{"android":"levelo://app?vid=ab74d258-8d56-4ed9-9cb7-57ae1639ee73","ios":"levelo://app?vid=ab74d258-8d56-4ed9-9cb7-57ae1639ee73"},"vehicle_type_id":"4","last_reported":1733242292,"current_range_meters":0,"station_id":"","pricing_plan_id":"cebpf4jnsgd1na2vs0mg"},{"bike_id":"2305b7c6-e4e6-45a4-a263-52618fda5e7a","system_id":"levelo_inurba_marseille","lat":43.26555,"lon":5.37289,"is_reserved":false,"is_disabled":false,"rental_uris":{"android":"levelo://app?vid=2305b7c6-e4e6-45a4-a263-52618fda5e7a","ios":"levelo://app?vid=2305b7c6-e4e6-45a4-a263-52618fda5e7a"},"vehicle_type_id":"4","last_reported":1733242292,"current_range_meters":38800,"station_id":"ce4bhg12rcd13ifvqf70","pricing_plan_id":"cebpf4jnsgd1na2vs0mg"},{"bike_id":"bfd789d4-8708-47f2-871d-44494287b30e","system_id":"levelo_inurba_marseille","lat":43.2755,"lon":5.384447,"is_reserved":false,"is_disabled":false,"rental_uris":{"android":"levelo://app?vid=bfd789d4-8708-47f2-871d-44494287b30e","ios":"levelo://app?vid=bfd789d4-8708-47f2-871d-44494287b30e"},"vehicle_type_id":"4","last_reported":1733242292,"current_range_meters":31200,"station_id":"ce4bhh92rcd13ifvqfi0","pricing_plan_id":"cebpf4jnsgd1na2vs0mg"},{"bike_id":"2da9d581-a064-4591-9f3d-941009b9fd9f","system_id":"levelo_inurba_marseille","lat":43.27436,"lon":5.39412,"is_reserved":false,"is_disabled":false,"rental_uris":{"android":"levelo://app?vid=2da9d581-a064-4591-9f3d-941009b9fd9f","ios":"levelo://app?vid=2da9d581-a064-4591-9f3d-941009b9fd9f"},"vehicle_type_id":"4","last_reported":1733242292,"current_range_meters":36800,"station_id":"ce4bhdp2rcd13ifvqf20","pricing_plan_id":"cebpf4jnsgd1na2vs0mg"},{"bike_id":"d71c8cee-e359-494f-83f8-be9130ea613f","system_id":"levelo_inurba_marseille","lat":43.25723,"lon":5.41108,"is_reserved":false,"is_disabled":false,"rental_uris":{"android":"levelo://app?vid=d71c8cee-e359-494f-83f8-be9130ea613f","ios":"levelo://app?vid=d71c8cee-e359-494f-83f8-be9130ea613f"},"vehicle_type_id":"4","last_reported":1733242292,"current_range_meters":38800,"station_id":"ce4bhkp2rcd13ifvqgd0","pricing_plan_id":"cebpf4jnsgd1na2vs0mg"},{"bike_id":"5a64138a-b1ab-4dee-ad1f-4a78926fe568","system_id":"levelo_inurba_marseille","lat":43.26203,"lon":5.37933,"is_reserved":false,"is_disabled":false,"rental_uris":{"android":"levelo://app?vid=5a64138a-b1ab-4dee-ad1f-4a78926fe568","ios":"levelo://app?vid=5a64138a-b1ab-4dee-ad1f-4a78926fe568"},"vehicle_type_id":"4","last_reported":1733242292,"current_range_meters":33600,"station_id":"ce4bhjp2rcd13ifvqg90","pricing_plan_id":"cebpf4jnsgd1na2vs0mg"},{"bike_id":"b06d7e02-9074-4c5b-b6db-a26d868b19a5","system_id":"levelo_inurba_marseille","lat":43.29613,"lon":5.37723,"is_reserved":false,"is_disabled":false,"rental_uris":{"android":"levelo://app?vid=b06d7e02-9074-4c5b-b6db-a26d868b19a5","ios":"levelo://app?vid=b06d7e02-9074-4c5b-b6db-a26d868b19a5"},"vehicle_type_id":"4","last_reported":1733242292,"current_range_meters":30000,"station_id":"ce4bgi92rcd13ifvqb90","pricing_plan_id":"cebpf4jnsgd1na2vs0mg"},{"bike_id":"f4972a3b-77b5-4ed3-a999-58ae680537eb","system_id":"levelo_inurba_marseille","lat":43.30141,"lon":5.37418,"is_reserved":false,"is_disabled":false,"rental_uris":{"android":"levelo://app?vid=f4972a3b-77b5-4ed3-a999-58ae680537eb","ios":"levelo://app?vid=f4972a3b-77b5-4ed3-a999-58ae680537eb"},"vehicle_type_id":"4","last_reported":1733242292,"current_range_meters":36000,"station_id":"ce4bgs92rcd13ifvqcc0","pricing_plan_id":"cebpf4jnsgd1na2vs0mg"},{"bike_id":"6e38c8e6-6f49-4ddb-8a63-5e79a9d09523","system_id":"levelo_inurba_marseille","lat":43.2678,"lon":5.39413,"is_reserved":false,"is_disabled":false,"rental_uris":{"android":"levelo://app?vid=6e38c8e6-6f49-4ddb-8a63-5e79a9d09523","ios":"levelo://app?vid=6e38c8e6-6f49-4ddb-8a63-5e79a9d09523"},"vehicle_type_id":"4","last_reported":1733242292,"current_range_meters":38800,"station_id":"ce4bhh12rcd13ifvqfg0","pricing_plan_id":"cebpf4jnsgd1na2vs0mg"},{"bike_id":"a2130642-1647-4527-ad94-5bcb84a40454","system_id":"levelo_inurba_marseille","lat":43.26061,"lon":5.39398,"is_reserved":false,"is_disabled":false,"rental_uris":{"android":"levelo://app?vid=a2130642-1647-4527-ad94-5bcb84a40454","ios":"levelo://app?vid=a2130642-1647-4527-ad94-5bcb84a40454"},"vehicle_type_id":"4","last_reported":1733242292,"current_range_meters":22800,"station_id":"ce4bhh92rcd13ifvqfj0","pricing_plan_id":"cebpf4jnsgd1na2vs0mg"},{"bike_id":"05b1cad6-5837-4262-89e7-cdd743700db1","system_id":"levelo_inurba_marseille","lat":43.2315,"lon":5.4372,"is_reserved":false,"is_disabled":false,"rental_uris":{"android":"levelo://app?vid=05b1cad6-5837-4262-89e7-cdd743700db1","ios":"levelo://app?vid=05b1cad6-5837-4262-89e7-cdd743700db1"},"vehicle_type_id":"4","last_reported":1733242292,"current_range_meters":9600,"station_id":"ce4bhmp2rcd13ifvqgog","pricing_plan_id":"cebpf4jnsgd1na2vs0mg"},{"bike_id":"ab4c21d4-a275-4527-bec0-e4890ed042ae","system_id":"levelo_inurba_marseille","lat":43.29671,"lon":5.36883,"is_reserved":false,"is_disabled":true,"rental_uris":{"android":"levelo://app?vid=ab4c21d4-a275-4527-bec0-e4890ed042ae","ios":"levelo://app?vid=ab4c21d4-a275-4527-bec0-e4890ed042ae"},"vehicle_type_id":"4","last_reported":1733242292,"current_range_meters":0,"station_id":"","pricing_plan_id":"cebpf4jnsgd1na2vs0mg"},{"bike_id":"31fce235-5aad-4261-810a-43f6bed6b50d","system_id":"levelo_inurba_marseille","lat":43.29227,"lon":5.36056,"is_reserved":false,"is_disabled":false,"rental_uris":{"android":"levelo://app?vid=31fce235-5aad-4261-810a-43f6bed6b50d","ios":"levelo://app?vid=31fce235-5aad-4261-810a-43f6bed6b50d"},"vehicle_type_id":"4","last_reported":1733242292,"current_range_meters":30800,"station_id":"ce4bhbh2rcd13ifvqeqg","pricing_plan_id":"cebpf4jnsgd1na2vs0mg"},{"bike_id":"4af82fdb-13b9-42ea-a794-66359f38057a","system_id":"levelo_inurba_marseille","lat":43.29534,"lon":5.37515,"is_reserved":false,"is_disabled":false,"rental_uris":{"android":"levelo://app?vid=4af82fdb-13b9-42ea-a794-66359f38057a","ios":"levelo://app?vid=4af82fdb-13b9-42ea-a794-66359f38057a"},"vehicle_type_id":"4","last_reported":1733242292,"current_range_meters":30800,"station_id":"ce4bgkp2rcd13ifvqbmg","pricing_plan_id":"cebpf4jnsgd1na2vs0mg"},{"bike_id":"f7e0f85b-df2d-488b-8e46-1cfe25a71773","system_id":"levelo_inurba_marseille","lat":43.32358,"lon":5.36761,"is_reserved":false,"is_disabled":false,"rental_uris":{"android":"levelo://app?vid=f7e0f85b-df2d-488b-8e46-1cfe25a71773","ios":"levelo://app?vid=f7e0f85b-df2d-488b-8e46-1cfe25a71773"},"vehicle_type_id":"4","last_reported":1733242292,"current_range_meters":36800,"station_id":"ce4bhsh2rcd13ifvqi2g","pricing_plan_id":"cebpf4jnsgd1na2vs0mg"},{"bike_id":"eb70e15d-4e1e-42f0-9c9e-00f4b935e493","system_id":"levelo_inurba_marseille","lat":43.30539,"lon":5.36542,"is_reserved":false,"is_disabled":false,"rental_uris":{"android":"levelo://app?vid=eb70e15d-4e1e-42f0-9c9e-00f4b935e493","ios":"levelo://app?vid=eb70e15d-4e1e-42f0-9c9e-00f4b935e493"},"vehicle_type_id":"4","last_reported":1733242292,"current_range_meters":30000,"station_id":"ce4bgs12rcd13ifvqcag","pricing_plan_id":"cebpf4jnsgd1na2vs0mg"},{"bike_id":"9deeee1e-2417-4248-ae3f-bdd3bb1cc8f8","system_id":"levelo_inurba_marseille","lat":43.28617,"lon":5.35107,"is_reserved":false,"is_disabled":false,"rental_uris":{"android":"levelo://app?vid=9deeee1e-2417-4248-ae3f-bdd3bb1cc8f8","ios":"levelo://app?vid=9deeee1e-2417-4248-ae3f-bdd3bb1cc8f8"},"vehicle_type_id":"4","last_reported":1733242292,"current_range_meters":13600,"station_id":"ce4bhch2rcd13ifvqeug","pricing_plan_id":"cebpf4jnsgd1na2vs0mg"},{"bike_id":"3cd254cf-5a5a-445f-ada2-2a4a56b6a82e","system_id":"levelo_inurba_marseille","lat":43.3035,"lon":5.41879,"is_reserved":false,"is_disabled":false,"rental_uris":{"android":"levelo://app?vid=3cd254cf-5a5a-445f-ada2-2a4a56b6a82e","ios":"levelo://app?vid=3cd254cf-5a5a-445f-ada2-2a4a56b6a82e"},