{"last_updated":1750407297,"ttl":60,"version":"2.2","data":{"bikes":[{"bike_id":"3da29fb8-fc97-44c6-b9ac-31dd456b2fd4","system_id":"levelo_inurba_marseille","lat":43.33771,"lon":5.37424,"is_reserved":false,"is_disabled":true,"rental_uris":{"android":"levelo://app?vid=3da29fb8-fc97-44c6-b9ac-31dd456b2fd4","ios":"levelo://app?vid=3da29fb8-fc97-44c6-b9ac-31dd456b2fd4"},"vehicle_type_id":"4","last_reported":1750407298,"current_range_meters":0,"station_id":"","pricing_plan_id":"cebpf4jnsgd1na2vs0mg"},{"bike_id":"01861ad8-a8d7-4be6-816e-651927c87584","system_id":"levelo_inurba_marseille","lat":43.33751,"lon":5.37456,"is_reserved":false,"is_disabled":true,"rental_uris":{"android":"levelo://app?vid=01861ad8-a8d7-4be6-816e-651927c87584","ios":"levelo://app?vid=01861ad8-a8d7-4be6-816e-651927c87584"},"vehicle_type_id":"4","last_reported":1750407298,"current_range_meters":0,"station_id":"","pricing_plan_id":"cebpf4jnsgd1na2vs0mg"},{"bike_id":"eff675e9-75ca-47c9-bd95-5090bc060d4f","system_id":"levelo_inurba_marseille","lat":43.34053,"lon":5.36106,"is_reserved":false,"is_disabled":true,"rental_uris":{"android":"levelo://app?vid=eff675e9-75ca-47c9-bd95-5090bc060d4f","ios":"levelo://app?vid=eff675e9-75ca-47c9-bd95-5090bc060d4f"},"vehicle_type_id":"4","last_reported":1750407298,"current_range_meters":0,"station_id":"","pricing_plan_id":"cebpf4jnsgd1na2vs0mg"},{"bike_id":"4f79ed18-3754-4594-beef-87f7c093389b","system_id":"levelo_inurba_marseille","lat":43.34218,"lon":5.403538,"is_reserved":false,"is_disabled":true,"rental_uris":{"android":"levelo://app?vid=4f79ed18-3754-4594-beef-87f7c093389b","ios":"levelo://app?vid=4f79ed18-3754-4594-beef-87f7c093389b"},"vehicle_type_id":"4","last_reported":1750407298,"current_range_meters":0,"station_id":"","pricing_plan_id":"cebpf4jnsgd1na2vs0mg"},{"bike_id":"d4b2375e-15c2-4b2f-a628-6d423b46231b","system_id":"levelo_inurba_marseille","lat":43.24295,"lon":5.41178,"is_reserved":false,"is_disabled":true,"rental_uris":{"android":"levelo://app?vid=d4b2375e-15c2-4b2f-a628-6d423b46231b","ios":"levelo://app?vid=d4b2375e-15c2-4b2f-a628-6d423b46231b"},"vehicle_type_id":"4","last_reported":1750407298,"current_range_meters":0,"station_id":"","pricing_plan_id":"cebpf4jnsgd1na2vs0mg"},{"bike_id":"64b8b83e-503a-4015-b7c1-3bd9b6c0bb97","system_id":"levelo_inurba_marseille","lat":43.30306,"lon":5.45169,"is_reserved":false,"is_disabled":true,"rental_uris":{"android":"levelo://app?vid=64b8b83e-503a-4015-b7c1-3bd9b6c0bb97","ios":"levelo://app?vid=64b8b83e-503a-4015-b7c1-3bd9b6c0bb97"},"vehicle_type_id":"4","last_reported":1750407298,"current_range_meters":0,"station_id":"","pricing_plan_id":"cebpf4jnsgd1na2vs0mg"},{"bike_id":"d2bd57c8-6b64-48db-ad24-5398eb3fd9d6","system_id":"levelo_inurba_marseille","lat":43.337444,"lon":5.374475,"is_reserved":false,"is_disabled":true,"rental_uris":{"android":"levelo://app?vid=d2bd57c8-6b64-48db-ad24-5398eb3fd9d6","ios":"levelo://app?vid=d2bd57c8-6b64-48db-ad24-5398eb3fd9d6"},"vehicle_type_id":"4","last_reported":1750407298,"current_range_meters":0,"station_id":"","pricing_plan_id":"cebpf4jnsgd1na2vs0mg"},{"bike_id":"62a493c7-4534-4419-ad43-0582de34a72a","system_id":"levelo_inurba_marseille","lat":43.21366,"lon":5.355183,"is_reserved":false,"is_disabled":true,"rental_uris":{"android":"levelo://app?vid=62a493c7-4534-4419-ad43-0582de34a72a","ios":"levelo://app?vid=62a493c7-4534-4419-ad43-0582de34a72a"},"vehicle_type_id":"4","last_reported":1750407298,"current_range_meters":0,"station_id":"","pricing_plan_id":"cebpf4jnsgd1na2vs0mg"},{"bike_id":"4058c190-2d8f-4783-8d80-8d72c78a821c","system_id":"levelo_inurba_marseille","lat":43.33454,"lon":5.36384,"is_reserved":false,"is_disabled":true,"rental_uris":{"android":"levelo://app?vid=4058c190-2d8f-4783-8d80-8d72c78a821c","ios":"levelo://app?vid=4058c190-2d8f-4783-8d80-8d72c78a821c"},"vehicle_type_id":"4","last_reported":1750407298,"current_range_meters":0,"station_id":"","pricing_plan_id":"cebpf4jnsgd1na2vs0mg"},{"bike_id":"ebd468cf-6662-4fa9-87c4-1c37973b61c9","system_id":"levelo_inurba_marseille","lat":43.29779,"lon":5.40955,"is_reserved":false,"is_disabled":true,"rental_uris":{"android":"levelo://app?vid=ebd468cf-6662-4fa9-87c4-1c37973b61c9","ios":"levelo://app?vid=ebd468cf-6662-4fa9-87c4-1c37973b61c9"},"vehicle_type_id":"4","last_reported":1750407298,"current_range_meters":0,"station_id":"","pricing_plan_id":"cebpf4jnsgd1na2vs0mg"},{"bike_id":"a50a6588-33f7-480b-86db-f01191577927","system_id":"levelo_inurba_marseille","lat":43.27855,"lon":5.42817,"is_reserved":false,"is_disabled":true,"rental_uris":{"android":"levelo://app?vid=a50a6588-33f7-480b-86db-f01191577927","ios":"levelo://app?vid=a50a6588-33f7-480b-86db-f01191577927"},"vehicle_type_id":"4","last_reported":1750407298,"current_range_meters":0,"station_id":"","pricing_plan_id":"cebpf4jnsgd1na2vs0mg"},{"bike_id":"47196f00-388f-4b3b-a4de-3dba126cd107","system_id":"levelo_inurba_marseille","lat":43.24396,"lon":5.41177,"is_reserved":false,"is_disabled":true,"rental_uris":{"android":"levelo://app?vid=47196f00-388f-4b3b-a4de-3dba126cd107","ios":"levelo://app?vid=47196f00-388f-4b3b-a4de-3dba126cd107"},"vehicle_type_id":"4","last_reported":1750407298,"current_range_meters":0,"station_id":"","pricing_plan_id":"cebpf4jnsgd1na2vs0mg"},{"bike_id":"efb4bfd8-07a4-4223-a74a-5636a3528a1c","system_id":"levelo_inurba_marseille","lat":43.29257,"lon":5.45675,"is_reserved":false,"is_disabled":true,"rental_uris":{"android":"levelo://app?vid=efb4bfd8-07a4-4223-a74a-5636a3528a1c","ios":"levelo://app?vid=efb4bfd8-07a4-4223-a74a-5636a3528a1c"},"vehicle_type_id":"4","last_reported":1750407298,"current_range_meters":0,"station_id":"","pricing_plan_id":"cebpf4jnsgd1na2vs0mg"},{"bike_id":"d6609b4f-333b-43c1-9ebe-8726f5e76e88","system_id":"levelo_inurba_marseille","lat":43.337444,"lon":5.374475,"is_reserved":false,"is_disabled":true,"rental_uris":{"android":"levelo://app?vid=d6609b4f-333b-43c1-9ebe-8726f5e76e88","ios":"levelo://app?vid=d6609b4f-333b-43c1-9ebe-8726f5e76e88"},"vehicle_type_id":"4","last_reported":1750407298,"current_range_meters":0,"station_id":"","pricing_plan_id":"cebpf4jnsgd1na2vs0mg"},{"bike_id":"57c83ce1-960e-466a-b6c5-d93bc130c53a","system_id":"levelo_inurba_marseille","lat":43.24947,"lon":5.38942,"is_reserved":false,"is_disabled":true,"rental_uris":{"android":"levelo://app?vid=57c83ce1-960e-466a-b6c5-d93bc130c53a","ios":"levelo://app?vid=57c83ce1-960e-466a-b6c5-d93bc130c53a"},"vehicle_type_id":"4","last_reported":1750407298,"current_range_meters":0,"station_id":"","pricing_plan_id":"cebpf4jnsgd1na2vs0mg"},{"bike_id":"571baf67-6a69-4c97-9e33-e0ed1a077d62","system_id":"levelo_inurba_marseille","lat":43.29701,"lon":5.37699,"is_reserved":false,"is_disabled":true,"rental_uris":{"android":"levelo://app?vid=571baf67-6a69-4c97-9e33-e0ed1a077d62","ios":"levelo://app?vid=571baf67-6a69-4c97-9e33-e0ed1a077d62"},"vehicle_type_id":"4","last_reported":1750407298,"current_range_meters":0,"station_id":"ce4bgkh2rcd13ifvqbl0","pricing_plan_id":"cebpf4jnsgd1na2vs0mg"},{"bike_id":"446183d4-7767-4edb-91df-db8f5946f226","system_id":"levelo_inurba_marseille","lat":43.28614,"lon":5.35106,"is_reserved":false,"is_disabled":true,"rental_uris":{"android":"levelo://app?vid=446183d4-7767-4edb-91df-db8f5946f226","ios":"levelo://app?vid=446183d4-7767-4edb-91df-db8f5946f226"},"vehicle_type_id":"4","last_reported":1750407298,"current_range_meters":0,"station_id":"ce4bhch2rcd13ifvqeug","pricing_plan_id":"cebpf4jnsgd1na2vs0mg"},{"bike_id":"aeb33d79-a850-4545-aa09-69c06d0cf3f5","system_id":"levelo_inurba_marseille","lat":43.24172,"lon":5.39716,"is_reserved":false,"is_disabled":true,"rental_uris":{"android":"levelo://app?vid=aeb33d79-a850-4545-aa09-69c06d0cf3f5","ios":"levelo://app?vid=aeb33d79-a850-4545-aa09-69c06d0cf3f5"},"vehicle_type_id":"4","last_reported":1750407298,"current_range_meters":0,"station_id":"ce4bhn12rcd13ifvqgpg","pricing_plan_id":"cebpf4jnsgd1na2vs0mg"},{"bike_id":"69c8406c-2bb5-4a16-90c2-ca57ba903ca2","system_id":"levelo_inurba_marseille","lat":43.28003,"lon":5.40012,"is_reserved":false,"is_disabled":true,"rental_uris":{"android":"levelo://app?vid=69c8406c-2bb5-4a16-90c2-ca57ba903ca2","ios":"levelo://app?vid=69c8406c-2bb5-4a16-90c2-ca57ba903ca2"},"vehicle_type_id":"4","last_reported":1750407298,"current_range_meters":0,"station_id":"ce4bho92rcd13ifvqh4g","pricing_plan_id":"cebpf4jnsgd1na2vs0mg"},{"bike_id":"8f49a748-5547-4851-a01f-ec21c1b4690e","system_id":"levelo_inurba_marseille","lat":43.32476,"lon":5.36558,"is_reserved":false,"is_disabled":true,"rental_uris":{"android":"levelo://app?vid=8f49a748-5547-4851-a01f-ec21c1b4690e","ios":"levelo://app?vid=8f49a748-5547-4851-a01f-ec21c1b4690e"},"vehicle_type_id":"4","last_reported":1750407298,"current_range_meters":0,"station_id":"ce4bhs12rcd13ifvqhvg","pricing_plan_id":"cebpf4jnsgd1na2vs0mg"},{"bike_id":"05172c24-6dde-4907-8af6-01d0e481b4de","system_id":"levelo_inurba_marseille","lat":43.225,"lon":5.34787,"is_reserved":false,"is_disabled":true,"rental_uris":{"android":"levelo://app?vid=05172c24-6dde-4907-8af6-01d0e481b4de","ios":"levelo://app?vid=05172c24-6dde-4907-8af6-01d0e481b4de"},"vehicle_type_id":"4","last_reported":1750407298,"current_range_meters":0,"station_id":"st_cvj5dfep6f1abm77gieg","pricing_plan_id":"cebpf4jnsgd1na2vs0mg"},{"bike_id":"071be348-e535-46a5-b437-2fe87f1c4155","system_id":"levelo_inurba_marseille","lat":43.21756,"lon":5.346,"is_reserved":false,"is_disabled":true,"rental_uris":{"android":"levelo://app?vid=071be348-e535-46a5-b437-2fe87f1c4155","ios":"levelo://app?vid=071be348-e535-46a5-b437-2fe87f1c4155"},"vehicle_type_id":"4","last_reported":1750407298,"current_range_meters":0,"station_id":"st_cvj6r9ubvosntc0bgbag","pricing_plan_id":"cebpf4jnsgd1na2vs0mg"},{"bike_id":"9f330ac5-5f1d-46ed-a6b0-51cde3054b1a","system_id":"levelo_inurba_marseille","lat":43.21168,"lon":5.35064,"is_reserved":false,"is_disabled":true,"rental_uris":{"android":"levelo://app?vid=9f330ac5-5f1d-46ed-a6b0-51cde3054b1a","ios":"levelo://app?vid=9f330ac5-5f1d-46ed-a6b0-51cde3054b1a"},"vehicle_type_id":"4","last_reported":1750407298,"current_range_meters":0,"station_id":"st_cvj6sg6p6f1abm77japg","pricing_plan_id":"cebpf4jnsgd1na2vs0mg"},{"bike_id":"780983d0-98cd-48cd-b864-ef9a767ea130","system_id":"levelo_inurba_marseille","lat":43.21189,"lon":5.35067,"is_reserved":false,"is_disabled":true,"rental_uris":{"android":"levelo://app?vid=780983d0-98cd-48cd-b864-ef9a767ea130","ios":"levelo://app?vid=780983d0-98cd-48cd-b864-ef9a767ea130"},"vehicle_type_id":"4","last_reported":1750407298,"current_range_meters":0,"station_id":"st_cvj6sg6p6f1abm77japg","pricing_plan_id":"cebpf4jnsgd1na2vs0mg"},{"bike_id":"4ce5b165-f22d-40cf-abd3-1cb294861955","system_id":"levelo_inurba_marseille","lat":43.21188,"lon":5.35074,"is_reserved":false,"is_disabled":true,"rental_uris":{"android":"levelo://app?vid=4ce5b165-f22d-40cf-abd3-1cb294861955","ios":"levelo://app?vid=4ce5b165-f22d-40cf-abd3-1cb294861955"},"vehicle_type_id":"4","last_reported":1750407298,"current_range_meters":0,"station_id":"st_cvj6sg6p6f1abm77japg","pricing_plan_id":"cebpf4jnsgd1na2vs0mg"},{"bike_id":"3bbb3ce5-c63f-42a2-b2a1-470bb9065f9e","system_id":"levelo_inurba_marseille","lat":43.211911,"lon":5.350711,"is_reserved":false,"is_disabled":true,"rental_uris":{"android":"levelo://app?vid=3bbb3ce5-c63f-42a2-b2a1-470bb9065f9e","ios":"levelo://app?vid=3bbb3ce5-c63f-42a2-b2a1-470bb9065f9e"},"vehicle_type_id":"4","last_reported":1750407298,"current_range_meters":0,"station_id":"st_cvj6sg6p6f1abm77japg","pricing_plan_id":"cebpf4jnsgd1na2vs0mg"},{"bike_id":"cdfe7948-a710-4ab8-a2f8-9e1f8a38b925","system_id":"levelo_inurba_marseille","lat":43.23136,"lon":5.43703,"is_reserved":false,"is_disabled":true,"rental_uris":{"android":"levelo://app?vid=cdfe7948-a710-4ab8-a2f8-9e1f8a38b925","ios":"levelo://app?vid=cdfe7948-a710-4ab8-a2f8-9e1f8a38b925"},"vehicle_type_id":"4","last_reported":1750407298,"current_range_meters":400,"station_id":"ce4bhmp2rcd13ifvqgog","pricing_plan_id":"cebpf4jnsgd1na2vs0mg"},{"bike_id":"c8762192-12cf-4486-a152-15c46da7e3dd","system_id":"levelo_inurba_marseille","lat":43.29524,"lon":5.37513,"is_reserved":false,"is_disabled":true,"rental_uris":{"android":"levelo://app?vid=c8762192-12cf-4486-a152-15c46da7e3dd","ios":"levelo://app?vid=c8762192-12cf-4486-a152-15c46da7e3dd"},"vehicle_type_id":"4","last_reported":1750407298,"current_range_meters":1200,"station_id":"ce4bgkp2rcd13ifvqbmg","pricing_plan_id":"cebpf4jnsgd1na2vs0mg"},{"bike_id":"fc1e2aa9-9095-45f1-8c60-6f6f3517af7a","system_id":"levelo_inurba_marseille","lat":43.29005,"lon":5.35606,"is_reserved":false,"is_disabled":true,"rental_uris":{"android":"levelo://app?vid=fc1e2aa9-9095-45f1-8c60-6f6f3517af7a","ios":"levelo://app?vid=fc1e2aa9-9095-45f1-8c60-6f6f3517af7a"},"vehicle_type_id":"4","last_reported":1750407298,"current_range_meters":1200,"station_id":"ce4bhb92rcd13ifvqen0","pricing_plan_id":"cebpf4jnsgd1na2vs0mg"},{"bike_id":"63cd0e8d-0715-4122-88a2-abccbc88a1a0","system_id":"levelo_inurba_marseille","lat":43.28268,"lon":5.35057,"is_reserved":false,"is_disabled":true,"rental_uris":{"android":"levelo://app?vid=63cd0e8d-0715-4122-88a2-abccbc88a1a0","ios":"levelo://app?vid=63cd0e8d-0715-4122-88a2-abccbc88a1a0"},"vehicle_type_id":"4","last_reported":1750407298,"current_range_meters":1200,"station_id":"ce4bhbp2rcd13ifvqerg","pricing_plan_id":"cebpf4jnsgd1na2vs0mg"},{"bike_id":"e7873c13-c9dd-43ed-b8e8-5705bb27c2df","system_id":"levelo_inurba_marseille","lat":43.24384,"lon":5.37057,"is_reserved":false,"is_disabled":true,"rental_uris":{"android":"levelo://app?vid=e7873c13-c9dd-43ed-b8e8-5705bb27c2df","ios":"levelo://app?vid=e7873c13-c9dd-43ed-b8e8-5705bb27c2df"},"vehicle_type_id":"4","last_reported":1750407298,"current_range_meters":1200,"station_id":"ce4bhhh2rcd13ifvqfk0","pricing_plan_id":"cebpf4jnsgd1na2vs0mg"},{"bike_id":"04234bfb-5b04-4677-b80a-47353f31bdfc","system_id":"levelo_inurba_marseille","lat":43.30673,"lon":5.39282,"is_reserved":false,"is_disabled":true,"rental_uris":{"android":"levelo://app?vid=04234bfb-5b04-4677-b80a-47353f31bdfc","ios":"levelo://app?vid=04234bfb-5b04-4677-b80a-47353f31bdfc"},"vehicle_type_id":"4","last_reported":1750407298,"current_range_meters":2000,"station_id":"","pricing_plan_id":"cebpf4jnsgd1na2vs0mg"},{"bike_id":"4ef7aab2-6bf7-48b4-bfeb-a9c79c31d997","system_id":"levelo_inurba_marseille","lat":43.28613,"lon":5.35097,"is_reserved":false,"is_disabled":true,"rental_uris":{"android":"levelo://app?vid=4ef7aab2-6bf7-48b4-bfeb-a9c79c31d997","ios":"levelo://app?vid=4ef7aab2-6bf7-48b4-bfeb-a9c79c31d997"},"vehicle_type_id":"4","last_reported":1750407298,"current_range_meters":2000,"station_id":"ce4bhch2rcd13ifvqeug","pricing_plan_id":"cebpf4jnsgd1na2vs0mg"},{"bike_id":"1296a05b-0bb7-41b1-9035-618e3991d14e","system_id":"levelo_inurba_marseille","lat":43.241798,"lon":5.397338,"is_reserved":false,"is_disabled":true,"rental_uris":{"android":"levelo://app?vid=1296a05b-0bb7-41b1-9035-618e3991d14e","ios":"levelo://app?vid=1296a05b-0bb7-41b1-9035-618e3991d14e"},"vehicle_type_id":"4","last_reported":1750407298,"current_range_meters":2000,"station_id":"ce4bhn12rcd13ifvqgpg","pricing_plan_id":"cebpf4jnsgd1na2vs0mg"},{"bike_id":"5758f02d-ab77-4076-9ccd-2538e67f35b9","system_id":"levelo_inurba_marseille","lat":43.30102,"lon":5.3792,"is_reserved":false,"is_disabled":false,"rental_uris":{"android":"levelo://app?vid=5758f02d-ab77-4076-9ccd-2538e67f35b9","ios":"levelo://app?vid=5758f02d-ab77-4076-9ccd-2538e67f35b9"},"vehicle_type_id":"4","last_reported":1750407298,"current_range_meters":2800,"station_id":"","pricing_plan_id":"cebpf4jnsgd1na2vs0mg"},{"bike_id":"cc65c4be-9cd0-4f06-974c-ef90abf535bf","system_id":"levelo_inurba_marseille","lat":43.30534,"lon":5.36557,"is_reserved":false,"is_disabled":false,"rental_uris":{"android":"levelo://app?vid=cc65c4be-9cd0-4f06-974c-ef90abf535bf","ios":"levelo://app?vid=cc65c4be-9cd0-4f06-974c-ef90abf535bf"},"vehicle_type_id":"4","last_reported":1750407298,"current_range_meters":2800,"station_id":"ce4bgs12rcd13ifvqcag","pricing_plan_id":"cebpf4jnsgd1na2vs0mg"},{"bike_id":"886c2642-242f-4d5b-8d7a-76f6730bb69e","system_id":"levelo_inurba_marseille","lat":43.25936,"lon":5.409,"is_reserved":false,"is_disabled":false,"rental_uris":{"android":"levelo://app?vid=886c2642-242f-4d5b-8d7a-76f6730bb69e","ios":"levelo://app?vid=886c2642-242f-4d5b-8d7a-76f6730bb69e"},"vehicle_type_id":"4","last_reported":1750407298,"current_range_meters":3200,"station_id":"ce4bhm92rcd13ifvqglg","pricing_plan_id":"cebpf4jnsgd1na2vs0mg"},{"bike_id":"7861e0f3-cae3-43b0-9425-ac515c23cef4","system_id":"levelo_inurba_marseille","lat":43.24074,"lon":5.37762,"is_reserved":false,"is_disabled":false,"rental_uris":{"android":"levelo://app?vid=7861e0f3-cae3-43b0-9425-ac515c23cef4","ios":"levelo://app?vid=7861e0f3-cae3-43b0-9425-ac515c23cef4"},"vehicle_type_id":"4","last_reported":1750407298,"current_range_meters":3200,"station_id":"ce4bhnp2rcd13ifvqgvg","pricing_plan_id":"cebpf4jnsgd1na2vs0mg"},{"bike_id":"bda1efb0-b5db-4ea2-96e2-4b4c6297a531","system_id":"levelo_inurba_marseille","lat":43.2926,"lon":5.38438,"is_reserved":false,"is_disabled":false,"rental_uris":{"android":"levelo://app?vid=bda1efb0-b5db-4ea2-96e2-4b4c6297a531","ios":"levelo://app?vid=bda1efb0-b5db-4ea2-96e2-4b4c6297a531"},"vehicle_type_id":"4","last_reported":1750407298,"current_range_meters":3600,"station_id":"ce4bh692rcd13ifvqea0","pricing_plan_id":"cebpf4jnsgd1na2vs0mg"},{"bike_id":"7c99ad24-f54b-47fb-8498-08842985fbfe","system_id":"levelo_inurba_marseille","lat":43.27492,"lon":5.4245,"is_reserved":false,"is_disabled":false,"rental_uris":{"android":"levelo://app?vid=7c99ad24-f54b-47fb-8498-08842985fbfe","ios":"levelo://app?vid=7c99ad24-f54b-47fb-8498-08842985fbfe"},"vehicle_type_id":"4","last_reported":1750407298,"current_range_meters":3600,"station_id":"ce4bhn92rcd13ifvqgrg","pricing_plan_id":"cebpf4jnsgd1na2vs0mg"},{"bike_id":"ac0ce348-7e23-495c-844b-f21d8527a660","system_id":"levelo_inurba_marseille","lat":43.283383,"lon":5.432731,"is_reserved":false,"is_disabled":false,"rental_uris":{"android":"levelo://app?vid=ac0ce348-7e23-495c-844b-f21d8527a660","ios":"levelo://app?vid=ac0ce348-7e23-495c-844b-f21d8527a660"},"vehicle_type_id":"4","last_reported":1750407298,"current_range_meters":4400,"station_id":"","pricing_plan_id":"cebpf4jnsgd1na2vs0mg"},{"bike_id":"cb1e5ce0-b879-4678-999a-624f045890b9","system_id":"levelo_inurba_marseille","lat":43.31342,"lon":5.36698,"is_reserved":false,"is_disabled":false,"rental_uris":{"android":"levelo://app?vid=cb1e5ce0-b879-4678-999a-624f045890b9","ios":"levelo://app?vid=cb1e5ce0-b879-4678-999a-624f045890b9"},"vehicle_type_id":"4","last_reported":1750407298,"current_range_meters":4400,"station_id":"ce4bgr92rcd13ifvqc6g","pricing_plan_id":"cebpf4jnsgd1na2vs0mg"},{"bike_id":"61dd440e-532a-4611-8a64-de0e92d47504","system_id":"levelo_inurba_marseille","lat":43.28367,"lon":5.38628,"is_reserved":false,"is_disabled":false,"rental_uris":{"android":"levelo://app?vid=61dd440e-532a-4611-8a64-de0e92d47504","ios":"levelo://app?vid=61dd440e-532a-4611-8a64-de0e92d47504"},"vehicle_type_id":"4","last_reported":1750407298,"current_range_meters":5600,"station_id":"ce4bh492rcd13ifvqdvg","pricing_plan_id":"cebpf4jnsgd1na2vs0mg"},{"bike_id":"a4e434d9-a9ed-4bda-a37b-d0d33666bdd8","system_id":"levelo_inurba_marseille","lat":43.27823,"lon":5.39216,"is_reserved":false,"is_disabled":false,"rental_uris":{"android":"levelo://app?vid=a4e434d9-a9ed-4bda-a37b-d0d33666bdd8","ios":"levelo://app?vid=a4e434d9-a9ed-4bda-a37b-d0d33666bdd8"},"vehicle_type_id":"4","last_reported":1750407298,"current_range_meters":5600,"station_id":"ce4bhjp2rcd13ifvqga0","pricing_plan_id":"cebpf4jnsgd1na2vs0mg"},{"bike_id":"90a25513-6996-43bf-ae26-d822b1c2888c","system_id":"levelo_inurba_marseille","lat":43.29568,"lon":5.37502,"is_reserved":false,"is_disabled":false,"rental_uris":{"android":"levelo://app?vid=90a25513-6996-43bf-ae26-d822b1c2888c","ios":"levelo://app?vid=90a25513-6996-43bf-ae26-d822b1c2888c"},"vehicle_type_id":"4","last_reported":1750407298,"current_range_meters":6000,"station_id":"ce4bgh92rcd13ifvqb50","pricing_plan_id":"cebpf4jnsgd1na2vs0mg"},{"bike_id":"75789b9c-6ad6-4877-a53a-ab95bedba598","system_id":"levelo_inurba_marseille","lat":43.31258,"lon":5.40159,"is_reserved":false,"is_disabled":false,"rental_uris":{"android":"levelo://app?vid=75789b9c-6ad6-4877-a53a-ab95bedba598","ios":"levelo://app?vid=75789b9c-6ad6-4877-a53a-ab95bedba598"},"vehicle_type_id":"4","last_reported":1750407298,"current_range_meters":6000,"station_id":"ce4bh092rcd13ifvqd30","pricing_plan_id":"cebpf4jnsgd1na2vs0mg"},{"bike_id":"791230d7-d8e7-4dee-8e0d-b4dcc6f926c1","system_id":"levelo_inurba_marseille","lat":43.2315,"lon":5.43726,"is_reserved":false,"is_disabled":false,"rental_uris":{"android":"levelo://app?vid=791230d7-d8e7-4dee-8e0d-b4dcc6f926c1","ios":"levelo://app?vid=791230d7-d8e7-4dee-8e0d-b4dcc6f926c1"},"vehicle_type_id":"4","last_reported":1750407298,"current_range_meters":6400,"station_id":"ce4bhmp2rcd13ifvqgog","pricing_plan_id":"cebpf4jnsgd1na2vs0mg"},{"bike_id":"0dedb6f6-6801-483b-bfb8-9cd4533d158f","system_id":"levelo_inurba_marseille","lat":43.31158,"lon":5.38106,"is_reserved":false,"is_disabled":false,"rental_uris":{"android":"levelo://app?vid=0dedb6f6-6801-483b-bfb8-9cd4533d158f","ios":"levelo://app?vid=0dedb6f6-6801-483b-bfb8-9cd4533d158f"},"vehicle_type_id":"4","last_reported":1750407298,"current_range_meters":6800,"station_id":"","pricing_plan_id":"cebpf4jnsgd1na2vs0mg"},{"bike_id":"b0e9e585-bee8-4820-a675-631044f0517c","system_id":"levelo_inurba_marseille","lat":43.289332,"lon":5.366353,"is_reserved":false,"is_disabled":false,"rental_uris":{"android":"levelo://app?vid=b0e9e585-bee8-4820-a675-631044f0517c","ios":"levelo://app?vid=b0e9e585-bee8-4820-a675-631044f0517c"},"vehicle_type_id":"4","last_reported":1750407298,"current_range_meters":6800,"station_id":"ce4bha12rcd13ifvqef0","pricing_plan_id":"cebpf4jnsgd1na2vs0mg"},{"bike_id":"2ccf13bc-8b26-4b82-8802-8c6ab6961b05","system_id":"levelo_inurba_marseille","lat":43.23144,"lon":5.43713,"is_reserved":false,"is_disabled":false,"rental_uris":{"android":"levelo://app?vid=2ccf13bc-8b26-4b82-8802-8c6ab6961b05","ios":"levelo://app?vid=2ccf13bc-8b26-4b82-8802-8c6ab6961b05"},"vehicle_type_id":"4","last_reported":1750407298,"current_range_meters":6800,"station_id":"ce4bhmp2rcd13ifvqgog","pricing_plan_id":"cebpf4jnsgd1na2vs0mg"},{"bike_id":"d279728c-edc7-4dd8-9b14-cefd9091b513","system_id":"levelo_inurba_marseille","lat":43.24077,"lon":5.37746,"is_reserved":false,"is_disabled":false,"rental_uris":{"android":"levelo://app?vid=d279728c-edc7-4dd8-9b14-cefd9091b513","ios":"levelo://app?vid=d279728c-edc7-4dd8-9b14-cefd9091b513"},"vehicle_type_id":"4","last_reported":1750407298,"current_range_meters":6800,"station_id":"ce4bhnp2rcd13ifvqgvg","pricing_plan_id":"cebpf4jnsgd1na2vs0mg"},{"bike_id":"268aafb4-1331-426c-97bc-a7d6564caeb6","system_id":"levelo_inurba_marseille","lat":43.32933,"lon":5.37919,"is_reserved":false,"is_disabled":false,"rental_uris":{"android":"levelo://app?vid=268aafb4-1331-426c-97bc-a7d6564caeb6","ios":"levelo://app?vid=268aafb4-1331-426c-97bc-a7d6564caeb6"},"vehicle_type_id":"4","last_reported":1750407298,"current_range_meters":7200,"station_id":"","pricing_plan_id":"cebpf4jnsgd1na2vs0mg"},{"bike_id":"11f7d009-a791-4fa6-957f-db8c562dc2ec","system_id":"levelo_inurba_marseille","lat":43.30527,"lon":5.36558,"is_reserved":false,"is_disabled":false,"rental_uris":{"android":"levelo://app?vid=11f7d009-a791-4fa6-957f-db8c562dc2ec","ios":"levelo://app?vid=11f7d009-a791-4fa6-957f-db8c562dc2ec"},"vehicle_type_id":"4","last_reported":1750407298,"current_range_meters":7200,"station_id":"ce4bgs12rcd13ifvqcag","pricing_plan_id":"cebpf4jnsgd1na2vs0mg"},{"bike_id":"0bf896f6-fc0c-4490-8536-3ef4e0c5228f","system_id":"levelo_inurba_marseille","lat":43.29152,"lon":5.37157,"is_reserved":false,"is_disabled":false,"rental_uris":{"android":"levelo://app?vid=0bf896f6-fc0c-4490-8536-3ef4e0c5228f","ios":"levelo://app?vid=0bf896f6-fc0c-4490-8536-3ef4e0c5228f"},"vehicle_type_id":"4","last_reported":1750407298,"current_range_meters":7200,"station_id":"ce4bha92rcd13ifvqeh0","pricing_plan_id":"cebpf4jnsgd1na2vs0mg"},{"bike_id":"ecc09bb2-30a3-49e6-864f-1a0b69b24fec","system_id":"levelo_inurba_marseille","lat":43.28404,"lon":5.35029,"is_reserved":false,"is_disabled":false,"rental_uris":{"android":"levelo://app?vid=ecc09bb2-30a3-49e6-864f-1a0b69b24fec","ios":"levelo://app?vid=ecc09bb2-30a3-49e6-864f-1a0b69b24fec"},"vehicle_type_id":"4","last_reported":1750407298,"current_range_meters":7200,"station_id":"ce4bhbh2rcd13ifvqepg","pricing_plan_id":"cebpf4jnsgd1na2vs0mg"},{"bike_id":"43b3e706-b78b-4297-9608-0176c182dbf0","system_id":"levelo_inurba_marseille","lat":43.28702,"lon":5.37383,"is_reserved":false,"is_disabled":false,"rental_uris":{"android":"levelo://app?vid=43b3e706-b78b-4297-9608-0176c182dbf0","ios":"levelo://app?vid=43b3e706-b78b-4297-9608-0176c182dbf0"},"vehicle_type_id":"4","last_reported":1750407298,"current_range_meters":8000,"station_id":"ce4bh3p2rcd13ifvqdq0","pricing_plan_id":"cebpf4jnsgd1na2vs0mg"},{"bike_id":"56fdfc4e-979c-4ed5-9885-57018d76de79","system_id":"levelo_inurba_marseille","lat":43.29345,"lon":5.42829,"is_reserved":false,"is_disabled":false,"rental_uris":{"android":"levelo://app?vid=56fdfc4e-979c-4ed5-9885-57018d76de79","ios":"levelo://app?vid=56fdfc4e-979c-4ed5-9885-57018d76de79"},"vehicle_type_id":"4","last_reported":1750407298,"current_range_meters":8400,"station_id":"","pricing_plan_id":"cebpf4jnsgd1na2vs0mg"},{"bike_id":"3995bfb5-a31f-4af9-b96f-41a30c13f526","system_id":"levelo_inurba_marseille","lat":43.27369,"lon":5.36259,"is_reserved":false,"is_disabled":false,"rental_uris":{"android":"levelo://app?vid=3995bfb5-a31f-4af9-b96f-41a30c13f526","ios":"levelo://app?vid=3995bfb5-a31f-4af9-b96f-41a30c13f526"},"vehicle_type_id":"4","last_reported":1750407298,"current_range_meters":8400,"station_id":"ce4bhbh2rcd13ifvqeo0","pricing_plan_id":"cebpf4jnsgd1na2vs0mg"},{"bike_id":"bb2d2550-005d-483f-9047-dae98936df78","system_id":"levelo_inurba_marseille","lat":43.23959,"lon":5.36651,"is_reserved":false,"is_disabled":false,"rental_uris":{"android":"levelo://app?vid=bb2d2550-005d-483f-9047-dae98936df78","ios":"levelo://app?vid=bb2d2550-005d-483f-9047-dae98936df78"},"vehicle_type_id":"4","last_reported":1750407298,"current_range_meters":8400,"station_id":"ce4bhi12rcd13ifvqfp0","pricing_plan_id":"cebpf4jnsgd1na2vs0mg"},{"bike_id":"eb994d2d-f47b-453a-80bf-b52d3e939cf9","system_id":"levelo_inurba_marseille","lat":43.24052,"lon":5.37753,"is_reserved":false,"is_disabled":false,"rental_uris":{"android":"levelo://app?vid=eb994d2d-f47b-453a-80bf-b52d3e939cf9","ios":"levelo://app?vid=eb994d2d-f47b-453a-80bf-b52d3e939cf9"},"vehicle_type_id":"4","last_reported":1750407298,"current_range_meters":8400,"station_id":"ce4bhnp2rcd13ifvqgvg","pricing_plan_id":"cebpf4jnsgd1na2vs0mg"},{"bike_id":"96d559a7-9b5f-4fd6-82bc-a0735d086409","system_id":"levelo_inurba_marseille","lat":43.3042,"lon":5.41274,"is_reserved":false,"is_disabled":false,"rental_uris":{"android":"levelo://app?vid=96d559a7-9b5f-4fd6-82bc-a0735d086409","ios":"levelo://app?vid=96d559a7-9b5f-4fd6-82bc-a0735d086409"},"vehicle_type_id":"4","last_reported":1750407298,"current_range_meters":8400,"station_id":"ce4bhop2rcd13ifvqh8g","pricing_plan_id":"cebpf4jnsgd1na2vs0mg"},{"bike_id":"07ce0677-e4a3-426a-a60d-61e83ba96c43","system_id":"levelo_inurba_marseille","lat":43.34707,"lon":5.37898,"is_reserved":false,"is_disabled":false,"rental_uris":{"android":"levelo://app?vid=07ce0677-e4a3-426a-a60d-61e83ba96c43","ios":"levelo://app?vid=07ce0677-e4a3-426a-a60d-61e83ba96c43"},"vehicle_type_id":"4","last_reported":1750407298,"current_range_meters":8800,"station_id":"","pricing_plan_id":"cebpf4jnsgd1na2vs0mg"},{"bike_id":"0239cb23-e5e3-493a-affe-712251838cea","system_id":"levelo_inurba_marseille","lat":43.2926,"lon":5.37621,"is_reserved":false,"is_disabled":false,"rental_uris":{"android":"levelo://app?vid=0239cb23-e5e3-493a-affe-712251838cea","ios":"levelo://app?vid=0239cb23-e5e3-493a-affe-712251838cea"},"vehicle_type_id":"4","last_reported":1750407298,"current_range_meters":8800,"station_id":"ce4bgi12rcd13ifvqb80","pricing_plan_id":"cebpf4jnsgd1na2vs0mg"},{"bike_id":"ca109adb-27fd-4a69-842d-95e2cede97e4","system_id":"levelo_inurba_marseille","lat":43.30601,"lon":5.37234,"is_reserved":false,"is_disabled":false,"rental_uris":{"android":"levelo://app?vid=ca109adb-27fd-4a69-842d-95e2cede97e4","ios":"levelo://app?vid=ca109adb-27fd-4a69-842d-95e2cede97e4"},"vehicle_type_id":"4","last_reported":1750407298,"current_range_meters":8800,"station_id":"ce4bgqh2rcd13ifvqc4g","pricing_plan_id":"cebpf4jnsgd1na2vs0mg"},{"bike_id":"6595e495-f3b9-40c9-95f5-7782df025487","system_id":"levelo_inurba_marseille","lat":43.30543,"lon":5.36565,"is_reserved":false,"is_disabled":false,"rental_uris":{"android":"levelo://app?vid=6595e495-f3b9-40c9-95f5-7782df025487","ios":"levelo://app?vid=6595e495-f3b9-40c9-95f5-7782df025487"},"vehicle_type_id":"4","last_reported":1750407298,"current_range_meters":8800,"station_id":"ce4bgs12rcd13ifvqcag","pricing_plan_id":"cebpf4jnsgd1na2vs0mg"},{"bike_id":"5c213871-14f6-43ce-80f6-0a59de0239ba","system_id":"levelo_inurba_marseille","lat":43.28394,"lon":5.37527,"is_reserved":false,"is_disabled":false,"rental_uris":{"android":"levelo://app?vid=5c213871-14f6-43ce-80f6-0a59de0239ba","ios":"levelo://app?vid=5c213871-14f6-43ce-80f6-0a59de0239ba"},"vehicle_type_id":"4","last_reported":1750407298,"current_range_meters":8800,"station_id":"ce4bh412rcd13ifvqds0","pricing_plan_id":"cebpf4jnsgd1na2vs0mg"},{"bike_id":"cc28d4a6-dcc0-4230-9881-b3753862bd7f","system_id":"levelo_inurba_marseille","lat":43.24075,"lon":5.37759,"is_reserved":false,"is_disabled":false,"rental_uris":{"android":"levelo://app?vid=cc28d4a6-dcc0-4230-9881-b3753862bd7f","ios":"levelo://app?vid=cc28d4a6-dcc0-4230-9881-b3753862bd7f"},"vehicle_type_id":"4","last_reported":1750407298,"current_range_meters":8800,"station_id":"ce4bhnp2rcd13ifvqgvg","pricing_plan_id":"cebpf4jnsgd1na2vs0mg"},{"bike_id":"3fd858b2-825f-4f7a-b0cf-08057dd2e0ef","system_id":"levelo_inurba_marseille","lat":43.33592,"lon":5.40995,"is_reserved":false,"is_disabled":false,"rental_uris":{"android":"levelo://app?vid=3fd858b2-825f-4f7a-b0cf-08057dd2e0ef","ios":"levelo://app?vid=3fd858b2-825f-4f7a-b0cf-08057dd2e0ef"},"vehicle_type_id":"4","last_reported":1750407298,"current_range_meters":8800,"station_id":"ce4bhqh2rcd13ifvqhmg","pricing_plan_id":"cebpf4jnsgd1na2vs0mg"},{"bike_id":"f025e0b0-8595-426c-b214-cb9b74c5fcfd","system_id":"levelo_inurba_marseille","lat":43.32203,"lon":5.40571,"is_reserved":false,"is_disabled":false,"rental_uris":{"android":"levelo://app?vid=f025e0b0-8595-426c-b214-cb9b74c5fcfd","ios":"levelo://app?vid=f025e0b0-8595-426c-b214-cb9b74c5fcfd"},"vehicle_type_id":"4","last_reported":1750407298,"current_range_meters":9200,"station_id":"","pricing_plan_id":"cebpf4jnsgd1na2vs0mg"},{"bike_id":"a86e0a46-e444-43f1-b075-e18344039884","system_id":"levelo_inurba_marseille","lat":43.240726,"lon":5.377609,"is_reserved":false,"is_disabled":false,"rental_uris":{"android":"levelo://app?vid=a86e0a46-e444-43f1-b075-e18344039884","ios":"levelo://app?vid=a86e0a46-e444-43f1-b075-e18344039884"},"vehicle_type_id":"4","last_reported":1750407298,"current_range_meters":9200,"station_id":"","pricing_plan_id":"cebpf4jnsgd1na2vs0mg"},{"bike_id":"bbe91977-b04a-4354-a4e9-81e7fe7698ce","system_id":"levelo_inurba_marseille","lat":43.301825,"lon":5.366254,"is_reserved":false,"is_disabled":false,"rental_uris":{"android":"levelo://app?vid=bbe91977-b04a-4354-a4e9-81e7fe7698ce","ios":"levelo://app?vid=bbe91977-b04a-4354-a4e9-81e7fe7698ce"},"vehicle_type_id":"4","last_reported":1750407298,"current_range_meters":9200,"station_id":"ce4bgrh2rcd13ifvqc8g","pricing_plan_id":"cebpf4jnsgd1na2vs0mg"},{"bike_id":"c23d8ecb-92fa-4bc5-b496-c92409604518","system_id":"levelo_inurba_marseille","lat":43.27488,"lon":5.42476,"is_reserved":false,"is_disabled":false,"rental_uris":{"android":"levelo://app?vid=c23d8ecb-92fa-4bc5-b496-c92409604518","ios":"levelo://app?vid=c23d8ecb-92fa-4bc5-b496-c92409604518"},"vehicle_type_id":"4","last_reported":1750407298,"current_range_meters":9200,"station_id":"ce4bhn92rcd13ifvqgrg","pricing_plan_id":"cebpf4jnsgd1na2vs0mg"},{"bike_id":"361c99c7-2be5-4181-8870-4416458b2d38","system_id":"levelo_inurba_marseille","lat":43.24165,"lon":5.36413,"is_reserved":false,"is_disabled":false,"rental_uris":{"android":"levelo://app?vid=361c99c7-2be5-4181-8870-4416458b2d38","ios":"levelo://app?vid=361c99c7-2be5-4181-8870-4416458b2d38"},"vehicle_type_id":"4","last_reported":1750407298,"current_range_meters":9200,"station_id":"cpo36qri1sfpv3e86is0","pricing_plan_id":"cebpf4jnsgd1na2vs0mg"},{"bike_id":"93db2979-07b4-40fc-ac04-31624e351e32","system_id":"levelo_inurba_marseille","lat":43.303054,"lon":5.368979,"is_reserved":false,"is_disabled":false,"rental_uris":{"android":"levelo://app?vid=93db2979-07b4-40fc-ac04-31624e351e32","ios":"levelo://app?vid=93db2979-07b4-40fc-ac04-31624e351e32"},"vehicle_type_id":"4","last_reported":1750407298,"current_range_meters":9600,"station_id":"","pricing_plan_id":"cebpf4jnsgd1na2vs0mg"},{"bike_id":"74e58c3c-6de6-4ddc-8072-08325a79deec","system_id":"levelo_inurba_marseille","lat":43.23141,"lon":5.4372,"is_reserved":false,"is_disabled":false,"rental_uris":{"android":"levelo://app?vid=74e58c3c-6de6-4ddc-8072-08325a79deec","ios":"levelo://app?vid=74e58c3c-6de6-4ddc-8072-08325a79deec"},"vehicle_type_id":"4","last_reported":1750407298,"current_range_meters":9600,"station_id":"ce4bhmp2rcd13ifvqgog","pricing_plan_id":"cebpf4jnsgd1na2vs0mg"},{"bike_id":"b4775a28-eac1-41df-bc05-c2af1876add1","system_id":"levelo_inurba_marseille","lat":43.24071,"lon":5.37764,"is_reserved":false,"is_disabled":false,"rental_uris":{"android":"levelo://app?vid=b4775a28-eac1-41df-bc05-c2af1876add1","ios":"levelo://app?vid=b4775a28-eac1-41df-bc05-c2af1876add1"},"vehicle_type_id":"4","last_reported":1750407298,"current_range_meters":9600,"station_id":"ce4bhnp2rcd13ifvqgvg","pricing_plan_id":"cebpf4jnsgd1na2vs0mg"},{"bike_id":"282a5e29-818d-4889-9c76-abfbd5895eb8","system_id":"levelo_inurba_marseille","lat":43.303671,"lon":5.424941,"is_reserved":false,"is_disabled":false,"rental_uris":{"android":"levelo://app?vid=282a5e29-818d-4889-9c76-abfbd5895eb8","ios":"levelo://app?vid=282a5e29-818d-4889-9c76-abfbd5895eb8"},"vehicle_type_id":"4","last_reported":1750407298,"current_range_meters":9600,"station_id":"ce4bhoh2rcd13ifvqh6g","pricing_plan_id":"cebpf4jnsgd1na2vs0mg"},{"bike_id":"aea07dd4-8c3b-4df7-bf5b-a9fb48191541","system_id":"levelo_inurba_marseille","lat":43.29887,"lon":5.4367,"is_reserved":false,"is_disabled":false,"rental_uris":{"android":"levelo://app?vid=aea07dd4-8c3b-4df7-bf5b-a9fb48191541","ios":"levelo://app?vid=aea07dd4-8c3b-4df7-bf5b-a9fb48191541"},"vehicle_type_id":"4","last_reported":1750407298,"current_range_meters":9600,"station_id":"ce4bhpp2rcd13ifvqhfg","pricing_plan_id":"cebpf4jnsgd1na2vs0mg"},{"bike_id":"df735c88-ae0a-4f8e-9723-d29eb27d80b9","system_id":"levelo_inurba_marseille","lat":43.29934,"lon":5.3759,"is_reserved":false,"is_disabled":false,"rental_uris":{"android":"levelo://app?vid=df735c88-ae0a-4f8e-9723-d29eb27d80b9","ios":"levelo://app?vid=df735c88-ae0a-4f8e-9723-d29eb27d80b9"},"vehicle_type_id":"4","last_reported":1750407298,"current_range_meters":10000,"station_id":"","pricing_plan_id":"cebpf4jnsgd1na2vs0mg"},{"bike_id":"09b7a7f2-bc01-4388-8834-54888797b44c","system_id":"levelo_inurba_marseille","lat":43.30136,"lon":5.3742,"is_reserved":false,"is_disabled":false,"rental_uris":{"android":"levelo://app?vid=09b7a7f2-bc01-4388-8834-54888797b44c","ios":"levelo://app?vid=09b7a7f2-bc01-4388-8834-54888797b44c"},"vehicle_type_id":"4","last_reported":1750407298,"current_range_meters":10000,"station_id":"ce4bgs92rcd13ifvqcc0","pricing_plan_id":"cebpf4jnsgd1na2vs0mg"},{"bike_id":"58880025-fa4b-48ad-a17f-3b060cb69fde","system_id":"levelo_inurba_marseille","lat":43.24388,"lon":5.37055,"is_reserved":false,"is_disabled":false,"rental_uris":{"android":"levelo://app?vid=58880025-fa4b-48ad-a17f-3b060cb69fde","ios":"levelo://app?vid=58880025-fa4b-48ad-a17f-3b060cb69fde"},"vehicle_type_id":"4","last_reported":1750407298,"current_range_meters":10000,"station_id":"ce4bhhh2rcd13ifvqfk0","pricing_plan_id":"cebpf4jnsgd1na2vs0mg"},{"bike_id":"d9b2950a-cd4b-488f-8f1a-b2421b953666","system_id":"levelo_inurba_marseille","lat":43.31468,"lon":5.39224,"is_reserved":false,"is_disabled":false,"rental_uris":{"android":"levelo://app?vid=d9b2950a-cd4b-488f-8f1a-b2421b953666","ios":"levelo://app?vid=d9b2950a-cd4b-488f-8f1a-b2421b953666"},"vehicle_type_id":"4","last_reported":1750407298,"current_range_meters":10800,"station_id":"","pricing_plan_id":"cebpf4jnsgd1na2vs0mg"},{"bike_id":"aed739aa-9de9-4521-9684-ac16af581be0","system_id":"levelo_inurba_marseille","lat":43.28943,"lon":5.39633,"is_reserved":false,"is_disabled":false,"rental_uris":{"android":"levelo://app?vid=aed739aa-9de9-4521-9684-ac16af581be0","ios":"levelo://app?vid=aed739aa-9de9-4521-9684-ac16af581be0"},"vehicle_type_id":"4","last_reported":1750407298,"current_range_meters":10800,"station_id":"ce4bh3h2rcd13ifvqdn0","pricing_plan_id":"cebpf4jnsgd1na2vs0mg"},{"bike_id":"a3681147-2c2c-439f-aafe-fa72bfb54075","system_id":"levelo_inurba_marseille","lat":43.29259,"lon":5.38444,"is_reserved":false,"is_disabled":false,"rental_uris":{"android":"levelo://app?vid=a3681147-2c2c-439f-aafe-fa72bfb54075","ios":"levelo://app?vid=a3681147-2c2c-439f-aafe-fa72bfb54075"},"vehicle_type_id":"4","last_reported":1750407298,"current_range_meters":10800,"station_id":"ce4bh692rcd13ifvqea0","pricing_plan_id":"cebpf4jnsgd1na2vs0mg"},{"bike_id":"23164ea7-f10f-412e-a0de-db806c5e2185","system_id":"levelo_inurba_marseille","lat":43.31713,"lon":5.43717,"is_reserved":false,"is_disabled":false,"rental_uris":{"android":"levelo://app?vid=23164ea7-f10f-412e-a0de-db806c5e2185","ios":"levelo://app?vid=23164ea7-f10f-412e-a0de-db806c5e2185"},"vehicle_type_id":"4","last_reported":1750407298,"current_range_meters":10800,"station_id":"ce4bhp92rcd13ifvqhcg","pricing_plan_id":"cebpf4jnsgd1na2vs0mg"},{"bike_id":"5b43db9d-b35a-477e-af1d-a0f3964d74db","system_id":"levelo_inurba_marseille","lat":43.3301,"lon":5.39037,"is_reserved":false,"is_disabled":false,"rental_uris":{"android":"levelo://app?vid=5b43db9d-b35a-477e-af1d-a0f3964d74db","ios":"levelo://app?vid=5b43db9d-b35a-477e-af1d-a0f3964d74db"},"vehicle_type_id":"4","last_reported":1750407298,"current_range_meters":10800,"station_id":"ce4bhr92rcd13ifvqhrg","pricing_plan_id":"cebpf4jnsgd1na2vs0mg"},{"bike_id":"3faf2329-83a2-494e-b098-e7888ccf5fcb","system_id":"levelo_inurba_marseille","lat":43.28725,"lon":5.38316,"is_reserved":false,"is_disabled":false,"rental_uris":{"android":"levelo://app?vid=3faf2329-83a2-494e-b098-e7888ccf5fcb","ios":"levelo://app?vid=3faf2329-83a2-494e-b098-e7888ccf5fcb"},"vehicle_type_id":"4","last_reported":1750407298,"current_range_meters":11200,"station_id":"","pricing_plan_id":"cebpf4jnsgd1na2vs0mg"},{"bike_id":"f97e8a5a-a455-4cfe-992b-65845c83e180","system_id":"levelo_inurba_marseille","lat":43.29571,"lon":5.37493,"is_reserved":false,"is_disabled":false,"rental_uris":{"android":"levelo://app?vid=f97e8a5a-a455-4cfe-992b-65845c83e180","ios":"levelo://app?vid=f97e8a5a-a455-4cfe-992b-65845c83e180"},"vehicle_type_id":"4","last_reported":1750407298,"current_range_meters":11200,"station_id":"ce4bgh92rcd13ifvqb50","pricing_plan_id":"cebpf4jnsgd1na2vs0mg"},{"bike_id":"741b671f-a103-46c0-9bfc-9b0602781fd4","system_id":"levelo_inurba_marseille","lat":43.29509,"lon":5.37513,"is_reserved":false,"is_disabled":false,"rental_uris":{"android":"levelo://app?vid=741b671f-a103-46c0-9bfc-9b0602781fd4","ios":"levelo://app?vid=741b671f-a103-46c0-9bfc-9b0602781fd4"},"vehicle_type_id":"4","last_reported":1750407298,"current_range_meters":11200,"station_id":"ce4bgkp2rcd13ifvqbmg","pricing_plan_id":"cebpf4jnsgd1na2vs0mg"},{"bike_id":"d976c5ad-5171-47e3-9a04-4cedcf058ed1","system_id":"levelo_inurba_marseille","lat":43.30883,"lon":5.37183,"is_reserved":false,"is_disabled":false,"rental_uris":{"android":"levelo://app?vid=d976c5ad-5171-47e3-9a04-4cedcf058ed1","ios":"levelo://app?vid=d976c5ad-5171-47e3-9a04-4cedcf058ed1"},"vehicle_type_id":"4","last_reported":1750407298,"current_range_meters":11200,"station_id":"ce4bguh2rcd13ifvqckg","pricing_plan_id":"cebpf4jnsgd1na2vs0mg"},{"bike_id":"2b8c9cf7-c274-4162-a350-2cae58ec9705","system_id":"levelo_inurba_marseille","lat":43.30399,"lon":5.39789,"is_reserved":false,"is_disabled":false,"rental_uris":{"android":"levelo://app?vid=2b8c9cf7-c274-4162-a350-2cae58ec9705","ios":"levelo://app?vid=2b8c9cf7-c274-4162-a350-2cae58ec9705"},"vehicle_type_id":"4","last_reported":1750407298,"current_range_meters":11200,"station_id":"ce4bh092rcd13ifvqd20","pricing_plan_id":"cebpf4jnsgd1na2vs0mg"},{"bike_id":"5f222028-284a-46ae-ac09-8812d2701010","system_id":"levelo_inurba_marseille","lat":43.28985,"lon":5.37838,"is_reserved":false,"is_disabled":false,"rental_uris":{"android":"levelo://app?vid=5f222028-284a-46ae-ac09-8812d2701010","ios":"levelo://app?vid=5f222028-284a-46ae-ac09-8812d2701010"},"vehicle_type_id":"4","last_reported":1750407298,"current_range_meters":11200,"station_id":"ce4bh9p2rcd13ifvqed0","pricing_plan_id":"cebpf4jnsgd1na2vs0mg"},{"bike_id":"8db8dae3-08f3-4412-bd49-6665caac5494","system_id":"levelo_inurba_marseille","lat":43.29148,"lon":5.37162,"is_reserved":false,"is_disabled":false,"rental_uris":{"android":"levelo://app?vid=8db8dae3-08f3-4412-bd49-6665caac5494","ios":"levelo://app?vid=8db8dae3-08f3-4412-bd49-6665caac5494"},"vehicle_type_id":"4","last_reported":1750407298,"current_range_meters":11200,"station_id":"ce4bha92rcd13ifvqeh0","pricing_plan_id":"cebpf4jnsgd1na2vs0mg"},{"bike_id":"350369db-be74-425e-b5a7-4e415c2a2ef3","system_id":"levelo_inurba_marseille","lat":43.280917,"lon":5.396057,"is_reserved":false,"is_disabled":false,"rental_uris":{"android":"levelo://app?vid=350369db-be74-425e-b5a7-4e415c2a2ef3","ios":"levelo://app?vid=350369db-be74-425e-b5a7-4e415c2a2ef3"},"vehicle_type_id":"4","last_reported":1750407298,"current_range_meters":11200,"station_id":"ce4bho12rcd13ifvqh2g","pricing_plan_id":"cebpf4jnsgd1na2vs0mg"},{"bike_id":"e27573fd-8b8d-4e34-a09d-9cb09aa5fa49","system_id":"levelo_inurba_marseille","lat":43.2923,"lon":5.39984,"is_reserved":false,"is_disabled":false,"rental_uris":{"android":"levelo://app?vid=e27573fd-8b8d-4e34-a09d-9cb09aa5fa49","ios":"levelo://app?vid=e27573fd-8b8d-4e34-a09d-9cb09aa5fa49"},"vehicle_type_id":"4","last_reported":1750407298,"current_range_meters":11600,"station_id":"","pricing_plan_id":"cebpf4jnsgd1na2vs0mg"},{"bike_id":"ad6a4f1c-aeb7-4c6c-bcb2-1c647b6d275d","system_id":"levelo_inurba_marseille","lat":43.31335,"lon":5.36722,"is_reserved":false,"is_disabled":false,"rental_uris":{"android":"levelo://app?vid=ad6a4f1c-aeb7-4c6c-bcb2-1c647b6d275d","ios":"levelo://app?vid=ad6a4f1c-aeb7-4c6c-bcb2-1c647b6d275d"},"vehicle_type_id":"4","last_reported":1750407298,"current_range_meters":11600,"station_id":"ce4bgr92rcd13ifvqc6g","pricing_plan_id":"cebpf4jnsgd1na2vs0mg"},{"bike_id":"a2a849ac-b65d-4403-8f30-6be0fd81b75a","system_id":"levelo_inurba_marseille","lat":43.30551,"lon":5.36545,"is_reserved":false,"is_disabled":false,"rental_uris":{"android":"levelo://app?vid=a2a849ac-b65d-4403-8f30-6be0fd81b75a","ios":"levelo://app?vid=a2a849ac-b65d-4403-8f30-6be0fd81b75a"},"vehicle_type_id":"4","last_reported":1750407298,"current_range_meters":11600,"station_id":"ce4bgs12rcd13ifvqcag","pricing_plan_id":"cebpf4jnsgd1na2vs0mg"},{"bike_id":"57452e76-494f-4de7-8664-8d06979c1b6f","system_id":"levelo_inurba_marseille","lat":43.291065,"lon":5.428111,"is_reserved":false,"is_disabled":false,"rental_uris":{"android":"levelo://app?vid=57452e76-494f-4de7-8664-8d06979c1b6f","ios":"levelo://app?vid=57452e76-494f-4de7-8664-8d06979c1b6f"},"vehicle_type_id":"4","last_reported":1750407298,"current_range_meters":12000,"station_id":"","pricing_plan_id":"cebpf4jnsgd1na2vs0mg"},{"bike_id":"60563cbb-9061-4006-8e41-2def95d43c6c","system_id":"levelo_inurba_marseille","lat":43.313556,"lon":5.386544,"is_reserved":false,"is_disabled":false,"rental_uris":{"android":"levelo://app?vid=60563cbb-9061-4006-8e41-2def95d43c6c","ios":"levelo://app?vid=60563cbb-9061-4006-8e41-2def95d43c6c"},"vehicle_type_id":"4","last_reported":1750407298,"current_range_meters":12000,"station_id":"","pricing_plan_id":"cebpf4jnsgd1na2vs0mg"},{"bike_id":"f7574965-0667-4f3b-90e2-276750d028f1","system_id":"levelo_inurba_marseille","lat":43.33095,"lon":5.38247,"is_reserved":false,"is_disabled":false,"rental_uris":{"android":"levelo://app?vid=f7574965-0667-4f3b-90e2-276750d028f1","ios":"levelo://app?vid=f7574965-0667-4f3b-90e2-276750d028f1"},"vehicle_type_id":"4","last_reported":1750407298,"current_range_meters":12000,"station_id":"","pricing_plan_id":"cebpf4jnsgd1na2vs0mg"},{"bike_id":"8db33428-50ba-416d-8531-6c14fc6bbbbd","system_id":"levelo_inurba_marseille","lat":43.29578,"lon":5.37507,"is_reserved":false,"is_disabled":false,"rental_uris":{"android":"levelo://app?vid=8db33428-50ba-416d-8531-6c14fc6bbbbd","ios":"levelo://app?vid=8db33428-50ba-416d-8531-6c14fc6bbbbd"},"vehicle_type_id":"4","last_reported":1750407298,"current_range_meters":12000,"station_id":"ce4bgh92rcd13ifvqb50","pricing_plan_id":"cebpf4jnsgd1na2vs0mg"},{"bike_id":"bd446f73-5786-4727-9d1e-4e409c57bec0","system_id":"levelo_inurba_marseille","lat":43.30539,"lon":5.36704,"is_reserved":false,"is_disabled":false,"rental_uris":{"android":"levelo://app?vid=bd446f73-5786-4727-9d1e-4e409c57bec0","ios":"levelo://app?vid=bd446f73-5786-4727-9d1e-4e409c57bec0"},"vehicle_type_id":"4","last_reported":1750407298,"current_range_meters":12000,"station_id":"ce4bgrp2rcd13ifvqc9g","pricing_plan_id":"cebpf4jnsgd1na2vs0mg"},{"bike_id":"795166e6-a95b-4c8d-a470-abf7605307f5","system_id":"levelo_inurba_marseille","lat":43.30528,"lon":5.36715,"is_reserved":false,"is_disabled":false,"rental_uris":{"android":"levelo://app?vid=795166e6-a95b-4c8d-a470-abf7605307f5","ios":"levelo://app?vid=795166e6-a95b-4c8d-a470-abf7605307f5"},"vehicle_type_id":"4","last_reported":1750407298,"current_range_meters":12000,"station_id":"ce4bgrp2rcd13ifvqc9g","pricing_plan_id":"cebpf4jnsgd1na2vs0mg"},{"bike_id":"ee9e43c0-6612-42d2-8e5d-ee22cfd8ab29","system_id":"levelo_inurba_marseille","lat":43.246398,"lon":5.384395,"is_reserved":false,"is_disabled":false,"rental_uris":{"android":"levelo://app?vid=ee9e43c0-6612-42d2-8e5d-ee22cfd8ab29","ios":"levelo://app?vid=ee9e43c0-6612-42d2-8e5d-ee22cfd8ab29"},"vehicle_type_id":"4","last_reported":1750407298,"current_range_meters":12000,"station_id":"ce4bhhh2rcd13ifvqfk0","pricing_plan_id":"cebpf4jnsgd1na2vs0mg"},{"bike_id":"a1db6138-2c06-4a10-86f9-71b5be7e3b11","system_id":"levelo_inurba_marseille","lat":43.27051,"lon":5.40257,"is_reserved":false,"is_disabled":false,"rental_uris":{"android":"levelo://app?vid=a1db6138-2c06-4a10-86f9-71b5be7e3b11","ios":"levelo://app?vid=a1db6138-2c06-4a10-86f9-71b5be7e3b11"},"vehicle_type_id":"4","last_reported":1750407298,"current_range_meters":12000,"station_id":"ce4bhk92rcd13ifvqgc0","pricing_plan_id":"cebpf4jnsgd1na2vs0mg"},{"bike_id":"29321ce9-5870-42e1-b20d-b3aa3525e1e6","system_id":"levelo_inurba_marseille","lat":43.29704,"lon":5.37701,"is_reserved":false,"is_disabled":false,"rental_uris":{"android":"levelo://app?vid=29321ce9-5870-42e1-b20d-b3aa3525e1e6","ios":"levelo://app?vid=29321ce9-5870-42e1-b20d-b3aa3525e1e6"},"vehicle_type_id":"4","last_reported":1750407298,"current_range_meters":12400,"station_id":"ce4bgkh2rcd13ifvqbl0","pricing_plan_id":"cebpf4jnsgd1na2vs0mg"},{"bike_id":"fdaaa105-0af6-4556-80fc-c0b4bdc822fc","system_id":"levelo_inurba_marseille","lat":43.31222,"lon":5.36834,"is_reserved":false,"is_disabled":false,"rental_uris":{"android":"levelo://app?vid=fdaaa105-0af6-4556-80fc-c0b4bdc822fc","ios":"levelo://app?vid=fdaaa105-0af6-4556-80fc-c0b4bdc822fc"},"vehicle_type_id":"4","last_reported":1750407298,"current_range_meters":12400,"station_id":"ce4bgl92rcd13ifvqbq0","pricing_plan_id":"cebpf4jnsgd1na2vs0mg"},{"bike_id":"a7316e64-8fad-44fa-a5fd-4bad8bc6b8ec","system_id":"levelo_inurba_marseille","lat":43.29845,"lon":5.36276,"is_reserved":false,"is_disabled":false,"rental_uris":{"android":"levelo://app?vid=a7316e64-8fad-44fa-a5fd-4bad8bc6b8ec","ios":"levelo://app?vid=a7316e64-8fad-44fa-a5fd-4bad8bc6b8ec"},"vehicle_type_id":"4","last_reported":1750407298,"current_range_meters":12400,"station_id":"ce4bgpp2rcd13ifvqc3g","pricing_plan_id":"cebpf4jnsgd1na2vs0mg"},{"bike_id":"1e466cd0-4ebd-40dc-a9d0-f5b0d3d7d813","system_id":"levelo_inurba_marseille","lat":43.30529,"lon":5.36699,"is_reserved":false,"is_disabled":false,"rental_uris":{"android":"levelo://app?vid=1e466cd0-4ebd-40dc-a9d0-f5b0d3d7d813","ios":"levelo://app?vid=1e466cd0-4ebd-40dc-a9d0-f5b0d3d7d813"},"vehicle_type_id":"4","last_reported":1750407298,"current_range_meters":12400,"station_id":"ce4bgrp2rcd13ifvqc9g","pricing_plan_id":"cebpf4jnsgd1na2vs0mg"},{"bike_id":"6ed81a33-09ad-42be-9924-aaecd89e05b7","system_id":"levelo_inurba_marseille","lat":43.30269,"lon":5.37693,"is_reserved":false,"is_disabled":false,"rental_uris":{"android":"levelo://app?vid=6ed81a33-09ad-42be-9924-aaecd89e05b7","ios":"levelo://app?vid=6ed81a33-09ad-42be-9924-aaecd89e05b7"},"vehicle_type_id":"4","last_reported":1750407298,"current_range_meters":12400,"station_id":"ce4bguh2rcd13ifvqcj0","pricing_plan_id":"cebpf4jnsgd1na2vs0mg"},{"bike_id":"87dd263f-9448-49ae-8233-70e3199707bf","system_id":"levelo_inurba_marseille","lat":43.30953,"lon":5.39035,"is_reserved":false,"is_disabled":false,"rental_uris":{"android":"levelo://app?vid=87dd263f-9448-49ae-8233-70e3199707bf","ios":"levelo://app?vid=87dd263f-9448-49ae-8233-70e3199707bf"},"vehicle_type_id":"4","last_reported":1750407298,"current_range_meters":12400,"station_id":"ce4bgup2rcd13ifvqco0","pricing_plan_id":"cebpf4jnsgd1na2vs0mg"},{"bike_id":"2b3015ca-dd5b-40cd-8036-b581b20a720a","system_id":"levelo_inurba_marseille","lat":43.293802,"lon":5.382169,"is_reserved":false,"is_disabled":false,"rental_uris":{"android":"levelo://app?vid=2b3015ca-dd5b-40cd-8036-b581b20a720a","ios":"levelo://app?vid=2b3015ca-dd5b-40cd-8036-b581b20a720a"},"vehicle_type_id":"4","last_reported":1750407298,"current_range_meters":12400,"station_id":"ce4bh512rcd13ifvqe2g","pricing_plan_id":"cebpf4jnsgd1na2vs0mg"},{"bike_id":"c3507ecf-350a-4f40-a3ec-c054291d999e","system_id":"levelo_inurba_marseille","lat":43.28262,"lon":5.35066,"is_reserved":false,"is_disabled":false,"rental_uris":{"android":"levelo://app?vid=c3507ecf-350a-4f40-a3ec-c054291d999e","ios":"levelo://app?vid=c3507ecf-350a-4f40-a3ec-c054291d999e"},"vehicle_type_id":"4","last_reported":1750407298,"current_range_meters":12400,"station_id":"ce4bhbp2rcd13ifvqerg","pricing_plan_id":"cebpf4jnsgd1na2vs0mg"},{"bike_id":"f0ddc391-34e2-4568-a946-d90bc81b12b6","system_id":"levelo_inurba_marseille","lat":43.30525,"lon":5.36539,"is_reserved":false,"is_disabled":false,"rental_uris":{"android":"levelo://app?vid=f0ddc391-34e2-4568-a946-d90bc81b12b6","ios":"levelo://app?vid=f0ddc391-34e2-4568-a946-d90bc81b12b6"},"vehicle_type_id":"4","last_reported":1750407298,"current_range_meters":12800,"station_id":"ce4bgs12rcd13ifvqcag","pricing_plan_id":"cebpf4jnsgd1na2vs0mg"},{"bike_id":"36032af6-1cdf-4e49-bdb9-86ba92b24235","system_id":"levelo_inurba_marseille","lat":43.28488,"lon":5.38585,"is_reserved":false,"is_disabled":false,"rental_uris":{"android":"levelo://app?vid=36032af6-1cdf-4e49-bdb9-86ba92b24235","ios":"levelo://app?vid=36032af6-1cdf-4e49-bdb9-86ba92b24235"},"vehicle_type_id":"4","last_reported":1750407298,"current_range_meters":12800,"station_id":"ce4bh8p2rcd13ifvqeb0","pricing_plan_id":"cebpf4jnsgd1na2vs0mg"},{"bike_id":"9f8c22aa-c6d3-440f-bd63-eed444daeab4","system_id":"levelo_inurba_marseille","lat":43.24389,"lon":5.37059,"is_reserved":false,"is_disabled":false,"rental_uris":{"android":"levelo://app?vid=9f8c22aa-c6d3-440f-bd63-eed444daeab4","ios":"levelo://app?vid=9f8c22aa-c6d3-440f-bd63-eed444daeab4"},"vehicle_type_id":"4","last_reported":1750407298,"current_range_meters":12800,"station_id":"ce4bhhh2rcd13ifvqfk0","pricing_plan_id":"cebpf4jnsgd1na2vs0mg"},{"bike_id":"f1b3a608-eb2e-429c-a92f-b10ed9274e7d","system_id":"levelo_inurba_marseille","lat":43.23957,"lon":5.36639,"is_reserved":false,"is_disabled":false,"rental_uris":{"android":"levelo://app?vid=f1b3a608-eb2e-429c-a92f-b10ed9274e7d","ios":"levelo://app?vid=f1b3a608-eb2e-429c-a92f-b10ed9274e7d"},"vehicle_type_id":"4","last_reported":1750407298,"current_range_meters":12800,"station_id":"ce4bhi12rcd13ifvqfp0","pricing_plan_id":"cebpf4jnsgd1na2vs0mg"},{"bike_id":"cfcc63e5-33ec-4229-a7bf-4d1c7311a7b9","system_id":"levelo_inurba_marseille","lat":43.29894,"lon":5.43651,"is_reserved":false,"is_disabled":false,"rental_uris":{"android":"levelo://app?vid=cfcc63e5-33ec-4229-a7bf-4d1c7311a7b9","ios":"levelo://app?vid=cfcc63e5-33ec-4229-a7bf-4d1c7311a7b9"},"vehicle_type_id":"4","last_reported":1750407298,"current_range_meters":13600,"station_id":"ce4bhpp2rcd13ifvqhfg","pricing_plan_id":"cebpf4jnsgd1na2vs0mg"},{"bike_id":"199c2831-e081-4bc0-9b94-19503817091d","system_id":"levelo_inurba_marseille","lat":43.24888,"lon":5.40621,"is_reserved":false,"is_disabled":false,"rental_uris":{"android":"levelo://app?vid=199c2831-e081-4bc0-9b94-19503817091d","ios":"levelo://app?vid=199c2831-e081-4bc0-9b94-19503817091d"},"vehicle_type_id":"4","last_reported":1750407298,"current_range_meters":14000,"station_id":"","pricing_plan_id":"cebpf4jnsgd1na2vs0mg"},{"bike_id":"b8fb8e4f-6f14-4653-883c-c80d5426fb72","system_id":"levelo_inurba_marseille","lat":43.30884,"lon":5.37195,"is_reserved":false,"is_disabled":false,"rental_uris":{"android":"levelo://app?vid=b8fb8e4f-6f14-4653-883c-c80d5426fb72","ios":"levelo://app?vid=b8fb8e4f-6f14-4653-883c-c80d5426fb72"},"vehicle_type_id":"4","last_reported":1750407298,"current_range_meters":14000,"station_id":"ce4bguh2rcd13ifvqckg","pricing_plan_id":"cebpf4jnsgd1na2vs0mg"},{"bike_id":"ea833185-b2be-41ee-b611-cb1f55e0b1b4","system_id":"levelo_inurba_marseille","lat":43.30478,"lon":5.37907,"is_reserved":false,"is_disabled":false,"rental_uris":{"android":"levelo://app?vid=ea833185-b2be-41ee-b611-cb1f55e0b1b4","ios":"levelo://app?vid=ea833185-b2be-41ee-b611-cb1f55e0b1b4"},"vehicle_type_id":"4","last_reported":1750407298,"current_range_meters":14000,"station_id":"ce4bgup2rcd13ifvqcn0","pricing_plan_id":"cebpf4jnsgd1na2vs0mg"},{"bike_id":"b697f033-52bf-4909-a99e-c734984fb414","system_id":"levelo_inurba_marseille","lat":43.30419,"lon":5.39749,"is_reserved":false,"is_disabled":false,"rental_uris":{"android":"levelo://app?vid=b697f033-52bf-4909-a99e-c734984fb414","ios":"levelo://app?vid=b697f033-52bf-4909-a99e-c734984fb414"},"vehicle_type_id":"4","last_reported":1750407298,"current_range_meters":14000,"station_id":"ce4bh092rcd13ifvqd20","pricing_plan_id":"cebpf4jnsgd1na2vs0mg"},{"bike_id":"fdd3bd23-900b-4e02-aacf-7f06ecc114eb","system_id":"levelo_inurba_marseille","lat":43.25935,"lon":5.40895,"is_reserved":false,"is_disabled":false,"rental_uris":{"android":"levelo://app?vid=fdd3bd23-900b-4e02-aacf-7f06ecc114eb","ios":"levelo://app?vid=fdd3bd23-900b-4e02-aacf-7f06ecc114eb"},"vehicle_type_id":"4","last_reported":1750407298,"current_range_meters":14000,"station_id":"ce4bhm92rcd13ifvqglg","pricing_plan_id":"cebpf4jnsgd1na2vs0mg"},{"bike_id":"0708cf38-7a7f-4f4d-a4c6-7778c58c5a3c","system_id":"levelo_inurba_marseille","lat":43.28321,"lon":5.41091,"is_reserved":false,"is_disabled":false,"rental_uris":{"android":"levelo://app?vid=0708cf38-7a7f-4f4d-a4c6-7778c58c5a3c","ios":"levelo://app?vid=0708cf38-7a7f-4f4d-a4c6-7778c58c5a3c"},"vehicle_type_id":"4","last_reported":1750407298,"current_range_meters":14400,"station_id":"","pricing_plan_id":"cebpf4jnsgd1na2vs0mg"},{"bike_id":"59d39ccb-de8c-4723-8105-b2aa24d2605f","system_id":"levelo_inurba_marseille","lat":43.337332,"lon":5.391834,"is_reserved":false,"is_disabled":false,"rental_uris":{"android":"levelo://app?vid=59d39ccb-de8c-4723-8105-b2aa24d2605f","ios":"levelo://app?vid=59d39ccb-de8c-4723-8105-b2aa24d2605f"},"vehicle_type_id":"4","last_reported":1750407298,"current_range_meters":14400,"station_id":"ce4bhr92rcd13ifvqhsg","pricing_plan_id":"cebpf4jnsgd1na2vs0mg"},{"bike_id":"b854a247-484f-4d3e-95ef-f12c055de8fb","system_id":"levelo_inurba_marseille","lat":43.29962,"lon":5.37168,"is_reserved":false,"is_disabled":false,"rental_uris":{"android":"levelo://app?vid=b854a247-484f-4d3e-95ef-f12c055de8fb","ios":"levelo://app?vid=b854a247-484f-4d3e-95ef-f12c055de8fb"},"vehicle_type_id":"4","last_reported":1750407298,"current_range_meters":14800,"station_id":"ce4bgr92rcd13ifvqc7g","pricing_plan_id":"cebpf4jnsgd1na2vs0mg"},{"bike_id":"1cdd75c5-d2e0-4d86-adb4-9dcad43fdcb0","system_id":"levelo_inurba_marseille","lat":43.26935,"lon":5.3892,"is_reserved":false,"is_disabled":false,"rental_uris":{"android":"levelo://app?vid=1cdd75c5-d2e0-4d86-adb4-9dcad43fdcb0","ios":"levelo://app?vid=1cdd75c5-d2e0-4d86-adb4-9dcad43fdcb0"},"vehicle_type_id":"4","last_reported":1750407298,"current_range_meters":14800,"station_id":"ce4bhhh2rcd13ifvqfl0","pricing_plan_id":"cebpf4jnsgd1na2vs0mg"},{"bike_id":"f416ad53-bba4-4d5a-944d-f7e53781b6b1","system_id":"levelo_inurba_marseille","lat":43.27205,"lon":5.39177,"is_reserved":false,"is_disabled":false,"rental_uris":{"android":"levelo://app?vid=f416ad53-bba4-4d5a-944d-f7e53781b6b1","ios":"levelo://app?vid=f416ad53-bba4-4d5a-944d-f7e53781b6b1"},"vehicle_type_id":"4","last_reported":1750407298,"current_range_meters":14800,"station_id":"ce4bhhp2rcd13ifvqfm0","pricing_plan_id":"cebpf4jnsgd1na2vs0mg"},{"bike_id":"1feac994-2c91-4482-874c-9cb949aea3e6","system_id":"levelo_inurba_marseille","lat":43.33606,"lon":5.41028,"is_reserved":false,"is_disabled":false,"rental_uris":{"android":"levelo://app?vid=1feac994-2c91-4482-874c-9cb949aea3e6","ios":"levelo://app?vid=1feac994-2c91-4482-874c-9cb949aea3e6"},"vehicle_type_id":"4","last_reported":1750407298,"current_range_meters":14800,"station_id":"ce4bhqh2rcd13ifvqhmg","pricing_plan_id":"cebpf4jnsgd1na2vs0mg"},{"bike_id":"f30123e7-96d3-442d-9d01-6c98dc61e7c8","system_id":"levelo_inurba_marseille","lat":43.29809,"lon":5.36878,"is_reserved":false,"is_disabled":false,"rental_uris":{"android":"levelo://app?vid=f30123e7-96d3-442d-9d01-6c98dc61e7c8","ios":"levelo://app?vid=f30123e7-96d3-442d-9d01-6c98dc61e7c8"},"vehicle_type_id":"4","last_reported":1750407298,"current_range_meters":15200,"station_id":"","pricing_plan_id":"cebpf4jnsgd1na2vs0mg"},{"bike_id":"8ab23675-32b1-4185-a792-35c0613cd52f","system_id":"levelo_inurba_marseille","lat":43.3058,"lon":5.39763,"is_reserved":false,"is_disabled":false,"rental_uris":{"android":"levelo://app?vid=8ab23675-32b1-4185-a792-35c0613cd52f","ios":"levelo://app?vid=8ab23675-32b1-4185-a792-35c0613cd52f"},"vehicle_type_id":"4","last_reported":1750407298,"current_range_meters":15200,"station_id":"","pricing_plan_id":"cebpf4jnsgd1na2vs0mg"},{"bike_id":"7cb8a91c-fdce-4632-991c-37599e93af56","system_id":"levelo_inurba_marseille","lat":43.292879,"lon":5.371818,"is_reserved":false,"is_disabled":false,"rental_uris":{"android":"levelo://app?vid=7cb8a91c-fdce-4632-991c-37599e93af56","ios":"levelo://app?vid=7cb8a91c-fdce-4632-991c-37599e93af56"},"vehicle_type_id":"4","last_reported":1750407298,"current_range_meters":15200,"station_id":"ce4bgh92rcd13ifvqb40","pricing_plan_id":"cebpf4jnsgd1na2vs0mg"},{"bike_id":"90f59461-ff79-46ff-b6fa-928f6878f669","system_id":"levelo_inurba_marseille","lat":43.29941,"lon":5.36555,"is_reserved":false,"is_disabled":false,"rental_uris":{"android":"levelo://app?vid=90f59461-ff79-46ff-b6fa-928f6878f669","ios":"levelo://app?vid=90f59461-ff79-46ff-b6fa-928f6878f669"},"vehicle_type_id":"4","last_reported":1750407298,"current_range_meters":15200,"station_id":"ce4bgm92rcd13ifvqbr0","pricing_plan_id":"cebpf4jnsgd1na2vs0mg"},{"bike_id":"f92f6716-e6ed-4728-96df-9008d37cf0c0","system_id":"levelo_inurba_marseille","lat":43.30964,"lon":5.39033,"is_reserved":false,"is_disabled":false,"rental_uris":{"android":"levelo://app?vid=f92f6716-e6ed-4728-96df-9008d37cf0c0","ios":"levelo://app?vid=f92f6716-e6ed-4728-96df-9008d37cf0c0"},"vehicle_type_id":"4","last_reported":1750407298,"current_range_meters":15200,"station_id":"ce4bgup2rcd13ifvqco0","pricing_plan_id":"cebpf4jnsgd1na2vs0mg"},{"bike_id":"b70e9aff-0973-4d3f-8203-19675e665e0a","system_id":"levelo_inurba_marseille","lat":43.30942,"lon":5.39033,"is_reserved":false,"is_disabled":false,"rental_uris":{"android":"levelo://app?vid=b70e9aff-0973-4d3f-8203-19675e665e0a","ios":"levelo://app?vid=b70e9aff-0973-4d3f-8203-19675e665e0a"},"vehicle_type_id":"4","last_reported":1750407298,"current_range_meters":15200,"station_id":"ce4bgup2rcd13ifvqco0","pricing_plan_id":"cebpf4jnsgd1na2vs0mg"},{"bike_id":"6f4f7591-569b-44f0-b978-01b3ee6e04b6","system_id":"levelo_inurba_marseille","lat":43.29252,"lon":5.40904,"is_reserved":false,"is_disabled":false,"rental_uris":{"android":"levelo://app?vid=6f4f7591-569b-44f0-b978-01b3ee6e04b6","ios":"levelo://app?vid=6f4f7591-569b-44f0-b978-01b3ee6e04b6"},"vehicle_type_id":"4","last_reported":1750407298,"current_range_meters":15200,"station_id":"ce4bh192rcd13ifvqdc0","pricing_plan_id":"cebpf4jnsgd1na2vs0mg"},{"bike_id":"01f82335-1be4-49f0-bb9c-76bf3d817d2f","system_id":"levelo_inurba_marseille","lat":43.28415,"lon":5.34977,"is_reserved":false,"is_disabled":false,"rental_uris":{"android":"levelo://app?vid=01f82335-1be4-49f0-bb9c-76bf3d817d2f","ios":"levelo://app?vid=01f82335-1be4-49f0-bb9c-76bf3d817d2f"},"vehicle_type_id":"4","last_reported":1750407298,"current_range_meters":15200,"station_id":"ce4bhbh2rcd13ifvqepg","pricing_plan_id":"cebpf4jnsgd1na2vs0mg"},{"bike_id":"83e231f4-6d82-483d-849b-5ad417131e54","system_id":"levelo_inurba_marseille","lat":43.25493,"lon":5.37648,"is_reserved":false,"is_disabled":false,"rental_uris":{"android":"levelo://app?vid=83e231f4-6d82-483d-849b-5ad417131e54","ios":"levelo://app?vid=83e231f4-6d82-483d-849b-5ad417131e54"},"vehicle_type_id":"4","last_reported":1750407298,"current_range_meters":15200,"station_id":"ce4bhh12rcd13ifvqff0","pricing_plan_id":"cebpf4jnsgd1na2vs0mg"},{"bike_id":"d958a725-3458-4a0f-ac85-b9d0e5d52bb4","system_id":"levelo_inurba_marseille","lat":43.24071,"lon":5.37761,"is_reserved":false,"is_disabled":false,"rental_uris":{"android":"levelo://app?vid=d958a725-3458-4a0f-ac85-b9d0e5d52bb4","ios":"levelo://app?vid=d958a725-3458-4a0f-ac85-b9d0e5d52bb4"},"vehicle_type_id":"4","last_reported":1750407298,"current_range_meters":15200,"station_id":"ce4bhnp2rcd13ifvqgvg","pricing_plan_id":"cebpf4jnsgd1na2vs0mg"},{"bike_id":"7fb8f777-502e-4027-8e9f-d463bb7373be","system_id":"levelo_inurba_marseille","lat":43.29658,"lon":5.38015,"is_reserved":false,"is_disabled":false,"rental_uris":{"android":"levelo://app?vid=7fb8f777-502e-4027-8e9f-d463bb7373be","ios":"levelo://app?vid=7fb8f777-502e-4027-8e9f-d463bb7373be"},"vehicle_type_id":"4","last_reported":1750407298,"current_range_meters":16000,"station_id":"","pricing_plan_id":"cebpf4jnsgd1na2vs0mg"},{"bike_id":"435a42d4-a0f5-445e-bb82-8751bda5fab6","system_id":"levelo_inurba_marseille","lat":43.23137,"lon":5.43728,"is_reserved":false,"is_disabled":false,"rental_uris":{"android":"levelo://app?vid=435a42d4-a0f5-445e-bb82-8751bda5fab6","ios":"levelo://app?vid=435a42d4-a0f5-445e-bb82-8751bda5fab6"},"vehicle_type_id":"4","last_reported":1750407298,"current_range_meters":16000,"station_id":"ce4bhmp2rcd13ifvqgog","pricing_plan_id":"cebpf4jnsgd1na2vs0mg"},{"bike_id":"ff308599-a0df-462a-85f6-d4e2b27d5097","system_id":"levelo_inurba_marseille","lat":43.28716,"lon":5.39975,"is_reserved":false,"is_disabled":false,"rental_uris":{"android":"levelo://app?vid=ff308599-a0df-462a-85f6-d4e2b27d5097","ios":"levelo://app?vid=ff308599-a0df-462a-85f6-d4e2b27d5097"},"vehicle_type_id":"4","last_reported":1750407298,"current_range_meters":16000,"station_id":"ce4bho92rcd13ifvqh3g","pricing_plan_id":"cebpf4jnsgd1na2vs0mg"},{"bike_id":"ca6842d6-6a08-4dae-b545-a4aefc25764b","system_id":"levelo_inurba_marseille","lat":43.30295,"lon":5.38928,"is_reserved":false,"is_disabled":false,"rental_uris":{"android":"levelo://app?vid=ca6842d6-6a08-4dae-b545-a4aefc25764b","ios":"levelo://app?vid=ca6842d6-6a08-4dae-b545-a4aefc25764b"},"vehicle_type_id":"4","last_reported":1750407298,"current_range_meters":16400,"station_id":"","pricing_plan_id":"cebpf4jnsgd1na2vs0mg"},{"bike_id":"01a30f9e-4c23-4041-aa2f-b48799f12618","system_id":"levelo_inurba_marseille","lat":43.29594,"lon":5.3717,"is_reserved":false,"is_disabled":false,"rental_uris":{"android":"levelo://app?vid=01a30f9e-4c23-4041-aa2f-b48799f12618","ios":"levelo://app?vid=01a30f9e-4c23-4041-aa2f-b48799f12618"},"vehicle_type_id":"4","last_reported":1750407298,"current_range_meters":16400,"station_id":"ce4bgnh2rcd13ifvqc0g","pricing_plan_id":"cebpf4jnsgd1na2vs0mg"},{"bike_id":"c073cb9e-d6a4-4278-a40e-1d7841b21132","system_id":"levelo_inurba_marseille","lat":43.30959,"lon":5.39027,"is_reserved":false,"is_disabled":false,"rental_uris":{"android":"levelo://app?vid=c073cb9e-d6a4-4278-a40e-1d7841b21132","ios":"levelo://app?vid=c073cb9e-d6a4-4278-a40e-1d7841b21132"},"vehicle_type_id":"4","last_reported":1750407298,"current_range_meters":16400,"station_id":"ce4bgup2rcd13ifvqco0","pricing_plan_id":"cebpf4jnsgd1na2vs0mg"},{"bike_id":"9765131a-3ace-43fa-bca8-8a29ccceccbb","system_id":"levelo_inurba_marseille","lat":43.28411,"lon":5.34992,"is_reserved":false,"is_disabled":false,"rental_uris":{"android":"levelo://app?vid=9765131a-3ace-43fa-bca8-8a29ccceccbb","ios":"levelo://app?vid=9765131a-3ace-43fa-bca8-8a29ccceccbb"},"vehicle_type_id":"4","last_reported":1750407298,"current_range_meters":16400,"station_id":"ce4bhbh2rcd13ifvqepg","pricing_plan_id":"cebpf4jnsgd1na2vs0mg"},{"bike_id":"508b6d48-a5c0-4899-ac1c-6b571eb8f4a0","system_id":"levelo_inurba_marseille","lat":43.32469,"lon":5.36573,"is_reserved":false,"is_disabled":false,"rental_uris":{"android":"levelo://app?vid=508b6d48-a5c0-4899-ac1c-6b571eb8f4a0","ios":"levelo://app?vid=508b6d48-a5c0-4899-ac1c-6b571eb8f4a0"},"vehicle_type_id":"4","last_reported":1750407298,"current_range_meters":16400,"station_id":"ce4bhs12rcd13ifvqhvg","pricing_plan_id":"cebpf4jnsgd1na2vs0mg"},{"bike_id":"39ef9621-abc8-4224-9c70-d4b1653baf36","system_id":"levelo_inurba_marseille","lat":43.21181,"lon":5.35061,"is_reserved":false,"is_disabled":false,"rental_uris":{"android":"levelo://app?vid=39ef9621-abc8-4224-9c70-d4b1653baf36","ios":"levelo://app?vid=39ef9621-abc8-4224-9c70-d4b1653baf36"},"vehicle_type_id":"4","last_reported":1750407298,"current_range_meters":16400,"station_id":"st_cvj6sg6p6f1abm77japg","pricing_plan_id":"cebpf4jnsgd1na2vs0mg"},{"bike_id":"dc540ba2-fb63-45eb-b83a-1826fb3d30b7","system_id":"levelo_inurba_marseille","lat":43.24608,"lon":5.39267,"is_reserved":false,"is_disabled":false,"rental_uris":{"android":"levelo://app?vid=dc540ba2-fb63-45eb-b83a-1826fb3d30b7","ios":"levelo://app?vid=dc540ba2-fb63-45eb-b83a-1826fb3d30b7"},"vehicle_type_id":"4","last_reported":1750407298,"current_range_meters":16800,"station_id":"","pricing_plan_id":"cebpf4jnsgd1na2vs0mg"},{"bike_id":"8ef11a45-504d-45b0-a2b5-97fef9594218","system_id":"levelo_inurba_marseille","lat":43.29552,"lon":5.38144,"is_reserved":false,"is_disabled":false,"rental_uris":{"android":"levelo://app?vid=8ef11a45-504d-45b0-a2b5-97fef9594218","ios":"levelo://app?vid=8ef11a45-504d-45b0-a2b5-97fef9594218"},"vehicle_type_id":"4","last_reported":1750407298,"current_range_meters":16800,"station_id":"","pricing_plan_id":"cebpf4jnsgd1na2vs0mg"},{"bike_id":"0a7da1b8-94e3-4321-a925-c5e5aa8062a1","system_id":"levelo_inurba_marseille","lat":43.29271,"lon":5.3684,"is_reserved":false,"is_disabled":false,"rental_uris":{"android":"levelo://app?vid=0a7da1b8-94e3-4321-a925-c5e5aa8062a1","ios":"levelo://app?vid=0a7da1b8-94e3-4321-a925-c5e5aa8062a1"},"vehicle_type_id":"4","last_reported":1750407298,"current_range_meters":16800,"station_id":"ce4bhbp2rcd13ifvqesg","pricing_plan_id":"cebpf4jnsgd1na2vs0mg"},{"bike_id":"a7095007-534e-42f9-a689-e8ca5cbeecb4","system_id":"levelo_inurba_marseille","lat":43.25491,"lon":5.3765,"is_reserved":false,"is_disabled":false,"rental_uris":{"android":"levelo://app?vid=a7095007-534e-42f9-a689-e8ca5cbeecb4","ios":"levelo://app?vid=a7095007-534e-42f9-a689-e8ca5cbeecb4"},"vehicle_type_id":"4","last_reported":1750407298,"current_range_meters":16800,"station_id":"ce4bhh12rcd13ifvqff0","pricing_plan_id":"cebpf4jnsgd1na2vs0mg"},{"bike_id":"9c9432f2-200a-4685-a0d1-4fe23879268a","system_id":"levelo_inurba_marseille","lat":43.24064,"lon":5.37757,"is_reserved":false,"is_disabled":false,"rental_uris":{"android":"levelo://app?vid=9c9432f2-200a-4685-a0d1-4fe23879268a","ios":"levelo://app?vid=9c9432f2-200a-4685-a0d1-4fe23879268a"},"vehicle_type_id":"4","last_reported":1750407298,"current_range_meters":16800,"station_id":"ce4bhnp2rcd13ifvqgvg","pricing_plan_id":"cebpf4jnsgd1na2vs0mg"},{"bike_id":"638c6f23-d4b8-4a37-a65b-119dc56f97a2","system_id":"levelo_inurba_marseille","lat":43.30411,"lon":5.41287,"is_reserved":false,"is_disabled":false,"rental_uris":{"android":"levelo://app?vid=638c6f23-d4b8-4a37-a65b-119dc56f97a2","ios":"levelo://app?vid=638c6f23-d4b8-4a37-a65b-119dc56f97a2"},"vehicle_type_id":"4","last_reported":1750407298,"current_range_meters":16800,"station_id":"ce4bhop2rcd13ifvqh8g","pricing_plan_id":"cebpf4jnsgd1na2vs0mg"},{"bike_id":"8e92feac-7d18-4ddd-8b47-3e77cf9b9c34","system_id":"levelo_inurba_marseille","lat":43.23179,"lon":5.35563,"is_reserved":false,"is_disabled":false,"rental_uris":{"android":"levelo://app?vid=8e92feac-7d18-4ddd-8b47-3e77cf9b9c34","ios":"levelo://app?vid=8e92feac-7d18-4ddd-8b47-3e77cf9b9c34"},"vehicle_type_id":"4","last_reported":1750407298,"current_range_meters":16800,"station_id":"ce4bhu92rcd13ifvqi70","pricing_plan_id":"cebpf4jnsgd1na2vs0mg"},{"bike_id":"d40af265-11b5-43a6-9bb6-f910f57901ba","system_id":"levelo_inurba_marseille","lat":43.32931,"lon":5.38012,"is_reserved":false,"is_disabled":false,"rental_uris":{"android":"levelo://app?vid=d40af265-11b5-43a6-9bb6-f910f57901ba","ios":"levelo://app?vid=d40af265-11b5-43a6-9bb6-f910f57901ba"},"vehicle_type_id":"4","last_reported":1750407298,"current_range_meters":17200,"station_id":"","pricing_plan_id":"cebpf4jnsgd1na2vs0mg"},{"bike_id":"bd27fe72-6fbc-453f-8b77-bee10ab3b13c","system_id":"levelo_inurba_marseille","lat":43.29522,"lon":5.42382,"is_reserved":false,"is_disabled":false,"rental_uris":{"android":"levelo://app?vid=bd27fe72-6fbc-453f-8b77-bee10ab3b13c","ios":"levelo://app?vid=bd27fe72-6fbc-453f-8b77-bee10ab3b13c"},"vehicle_type_id":"4","last_reported":1750407298,"current_range_meters":17200,"station_id":"","pricing_plan_id":"cebpf4jnsgd1na2vs0mg"},{"bike_id":"b999c313-d6eb-46a2-b611-aedbb042c63f","system_id":"levelo_inurba_marseille","lat":43.28099,"lon":5.44057,"is_reserved":false,"is_disabled":false,"rental_uris":{"android":"levelo://app?vid=b999c313-d6eb-46a2-b611-aedbb042c63f","ios":"levelo://app?vid=b999c313-d6eb-46a2-b611-aedbb042c63f"},"vehicle_type_id":"4","last_reported":1750407298,"current_range_meters":17200,"station_id":"","pricing_plan_id":"cebpf4jnsgd1na2vs0mg"},{"bike_id":"923fbfe3-994a-40a5-9161-1cbf3848c7c4","system_id":"levelo_inurba_marseille","lat":43.30311,"lon":5.36896,"is_reserved":false,"is_disabled":false,"rental_uris":{"android":"levelo://app?vid=923fbfe3-994a-40a5-9161-1cbf3848c7c4","ios":"levelo://app?vid=923fbfe3-994a-40a5-9161-1cbf3848c7c4"},"vehicle_type_id":"4","last_reported":1750407298,"current_range_meters":17200,"station_id":"ce4bgqh2rcd13ifvqc5g","pricing_plan_id":"cebpf4jnsgd1na2vs0mg"},{"bike_id":"c7a83f03-dac2-4117-a93e-084f50699cff","system_id":"levelo_inurba_marseille","lat":43.21188,"lon":5.35062,"is_reserved":false,"is_disabled":false,"rental_uris":{"android":"levelo://app?vid=c7a83f03-dac2-4117-a93e-084f50699cff","ios":"levelo://app?vid=c7a83f03-dac2-4117-a93e-084f50699cff"},"vehicle_type_id":"4","last_reported":1750407298,"current_range_meters":17200,"station_id":"st_cvj6sg6p6f1abm77japg","pricing_plan_id":"cebpf4jnsgd1na2vs0mg"},{"bike_id":"e904481c-c075-4235-ab4b-c7d3ddbe3194","system_id":"levelo_inurba_marseille","lat":43.293304,"lon":5.370808,"is_reserved":false,"is_disabled":false,"rental_uris":{"android":"levelo://app?vid=e904481c-c075-4235-ab4b-c7d3ddbe3194","ios":"levelo://app?vid=e904481c-c075-4235-ab4b-c7d3ddbe3194"},"vehicle_type_id":"4","last_reported":1750407298,"current_range_meters":17600,"station_id":"","pricing_plan_id":"cebpf4jnsgd1na2vs0mg"},{"bike_id":"a355deee-f604-4bbe-bc6d-9b0b2f98b683","system_id":"levelo_inurba_marseille","lat":43.315,"lon":5.37301,"is_reserved":false,"is_disabled":false,"rental_uris":{"android":"levelo://app?vid=a355deee-f604-4bbe-bc6d-9b0b2f98b683","ios":"levelo://app?vid=a355deee-f604-4bbe-bc6d-9b0b2f98b683"},"vehicle_type_id":"4","last_reported":1750407298,"current_range_meters":17600,"station_id":"ce4bgt12rcd13ifvqcd0","pricing_plan_id":"cebpf4jnsgd1na2vs0mg"},{"bike_id":"0a5d4882-9b9b-42db-8d06-b76982439669","system_id":"levelo_inurba_marseille","lat":43.31368,"lon":5.38511,"is_reserved":false,"is_disabled":false,"rental_uris":{"android":"levelo://app?vid=0a5d4882-9b9b-42db-8d06-b76982439669","ios":"levelo://app?vid=0a5d4882-9b9b-42db-8d06-b76982439669"},"vehicle_type_id":"4","last_reported":1750407298,"current_range_meters":17600,"station_id":"ce4bgt92rcd13ifvqcf0","pricing_plan_id":"cebpf4jnsgd1na2vs0mg"},{"bike_id":"0567e01a-ad27-461a-9a6f-f71cff8765d1","system_id":"levelo_inurba_marseille","lat":43.25821,"lon":5.39437,"is_reserved":false,"is_disabled":false,"rental_uris":{"android":"levelo://app?vid=0567e01a-ad27-461a-9a6f-f71cff8765d1","ios":"levelo://app?vid=0567e01a-ad27-461a-9a6f-f71cff8765d1"},"vehicle_type_id":"4","last_reported":1750407298,"current_range_meters":17600,"station_id":"ce4bhip2rcd13ifvqft0","pricing_plan_id":"cebpf4jnsgd1na2vs0mg"},{"bike_id":"a22aa312-0025-4f42-88e2-b1e95e79340f","system_id":"levelo_inurba_marseille","lat":43.31685,"lon":5.38378,"is_reserved":false,"is_disabled":false,"rental_uris":{"android":"levelo://app?vid=a22aa312-0025-4f42-88e2-b1e95e79340f","ios":"levelo://app?vid=a22aa312-0025-4f42-88e2-b1e95e79340f"},"vehicle_type_id":"4","last_reported":1750407298,"current_range_meters":18000,"station_id":"","pricing_plan_id":"cebpf4jnsgd1na2vs0mg"},{"bike_id":"ffbb0c22-3f4e-4cdb-a0e5-79e3b9f3e1a2","system_id":"levelo_inurba_marseille","lat":43.33762,"lon":5.37461,"is_reserved":false,"is_disabled":false,"rental_uris":{"android":"levelo://app?vid=ffbb0c22-3f4e-4cdb-a0e5-79e3b9f3e1a2","ios":"levelo://app?vid=ffbb0c22-3f4e-4cdb-a0e5-79e3b9f3e1a2"},"vehicle_type_id":"4","last_reported":1750407298,"current_range_meters":18000,"station_id":"","pricing_plan_id":"cebpf4jnsgd1na2vs0mg"},{"bike_id":"df45026e-fb92-4939-a854-6b04a769a040","system_id":"levelo_inurba_marseille","lat":43.31484,"lon":5.37309,"is_reserved":false,"is_disabled":false,"rental_uris":{"android":"levelo://app?vid=df45026e-fb92-4939-a854-6b04a769a040","ios":"levelo://app?vid=df45026e-fb92-4939-a854-6b04a769a040"},"vehicle_type_id":"4","last_reported":1750407298,"current_range_meters":18000,"station_id":"ce4bgt12rcd13ifvqcd0","pricing_plan_id":"cebpf4jnsgd1na2vs0mg"},{"bike_id":"82b46f4a-45a2-4bf8-8545-92a56f2376c5","system_id":"levelo_inurba_marseille","lat":43.25709,"lon":5.41098,"is_reserved":false,"is_disabled":false,"rental_uris":{"android":"levelo://app?vid=82b46f4a-45a2-4bf8-8545-92a56f2376c5","ios":"levelo://app?vid=82b46f4a-45a2-4bf8-8545-92a56f2376c5"},"vehicle_type_id":"4","last_reported":1750407298,"current_range_meters":18000,"station_id":"ce4bhkp2rcd13ifvqgd0","pricing_plan_id":"cebpf4jnsgd1na2vs0mg"},{"bike_id":"835a6fbf-f6a4-423e-b39c-c5dcc4d1ef00","system_id":"levelo_inurba_marseille","lat":43.25935,"lon":5.4091,"is_reserved":false,"is_disabled":false,"rental_uris":{"android":"levelo://app?vid=835a6fbf-f6a4-423e-b39c-c5dcc4d1ef00","ios":"levelo://app?vid=835a6fbf-f6a4-423e-b39c-c5dcc4d1ef00"},"vehicle_type_id":"4","last_reported":1750407298,"current_range_meters":18000,"station_id":"ce4bhm92rcd13ifvqglg","pricing_plan_id":"cebpf4jnsgd1na2vs0mg"},{"bike_id":"a9f7e5b6-c3b9-477a-9dd1-4ff223f734c0","system_id":"levelo_inurba_marseille","lat":43.29902,"lon":5.43652,"is_reserved":false,"is_disabled":false,"rental_uris":{"android":"levelo://app?vid=a9f7e5b6-c3b9-477a-9dd1-4ff223f734c0","ios":"levelo://app?vid=a9f7e5b6-c3b9-477a-9dd1-4ff223f734c0"},"vehicle_type_id":"4","last_reported":1750407298,"current_range_meters":18000,"station_id":"ce4bhpp2rcd13ifvqhfg","pricing_plan_id":"cebpf4jnsgd1na2vs0mg"},{"bike_id":"4643bc90-1bac-4c4b-98b1-e2d500830573","system_id":"levelo_inurba_marseille","lat":43.31371,"lon":5.37704,"is_reserved":false,"is_disabled":false,"rental_uris":{"android":"levelo://app?vid=4643bc90-1bac-4c4b-98b1-e2d500830573","ios":"levelo://app?vid=4643bc90-1bac-4c4b-98b1-e2d500830573"},"vehicle_type_id":"4","last_reported":1750407298,"current_range_meters":18800,"station_id":"","pricing_plan_id":"cebpf4jnsgd1na2vs0mg"},{"bike_id":"9341c0d1-9c0f-4ecc-b4f3-60d7483c0653","system_id":"levelo_inurba_marseille","lat":43.30137,"lon":5.37419,"is_reserved":false,"is_disabled":false,"rental_uris":{"android":"levelo://app?vid=9341c0d1-9c0f-4ecc-b4f3-60d7483c0653","ios":"levelo://app?vid=9341c0d1-9c0f-4ecc-b4f3-60d7483c0653"},"vehicle_type_id":"4","last_reported":1750407298,"current_range_meters":18800,"station_id":"ce4bgs92rcd13ifvqcc0","pricing_plan_id":"cebpf4jnsgd1na2vs0mg"},{"bike_id":"204afd8f-d13a-468d-a59c-e2db9671fff1","system_id":"levelo_inurba_marseille","lat":43.244079,"lon":5.371114,"is_reserved":false,"is_disabled":false,"rental_uris":{"android":"levelo://app?vid=204afd8f-d13a-468d-a59c-e2db9671fff1","ios":"levelo://app?vid=204afd8f-d13a-468d-a59c-e2db9671fff1"},"vehicle_type_id":"4","last_reported":1750407298,"current_range_meters":18800,"station_id":"ce4bhhh2rcd13ifvqfk0","pricing_plan_id":"cebpf4jnsgd1na2vs0mg"},{"bike_id":"7859db16-e7a7-41fa-82dc-5dd81d12afd0","system_id":"levelo_inurba_marseille","lat":43.33592,"lon":5.40976,"is_reserved":false,"is_disabled":false,"rental_uris":{"android":"levelo://app?vid=7859db16-e7a7-41fa-82dc-5dd81d12afd0","ios":"levelo://app?vid=7859db16-e7a7-41fa-82dc-5dd81d12afd0"},"vehicle_type_id":"4","last_reported":1750407298,"current_range_meters":18800,"station_id":"ce4bhqh2rcd13ifvqhmg","pricing_plan_id":"cebpf4jnsgd1na2vs0mg"},{"bike_id":"a9cca4e7-c0c5-4e7e-bd71-3d26daad6e18","system_id":"levelo_inurba_marseille","lat":43.3013,"lon":5.37408,"is_reserved":false,"is_disabled":false,"rental_uris":{"android":"levelo://app?vid=a9cca4e7-c0c5-4e7e-bd71-3d26daad6e18","ios":"levelo://app?vid=a9cca4e7-c0c5-4e7e-bd71-3d26daad6e18"},"vehicle_type_id":"4","last_reported":1750407298,"current_range_meters":19200,"station_id":"ce4bgs92rcd13ifvqcc0","pricing_plan_id":"cebpf4jnsgd1na2vs0mg"},{"bike_id":"6cba152d-1187-410d-a720-4e3682b957d6","system_id":"levelo_inurba_marseille","lat":43.30302,"lon":5.37709,"is_reserved":false,"is_disabled":false,"rental_uris":{"android":"levelo://app?vid=6cba152d-1187-410d-a720-4e3682b957d6","ios":"levelo://app?vid=6cba152d-1187-410d-a720-4e3682b957d6"},"vehicle_type_id":"4","last_reported":1750407298,"current_range_meters":19200,"station_id":"ce4bguh2rcd13ifvqcj0","pricing_plan_id":"cebpf4jnsgd1na2vs0mg"},{"bike_id":"dad8a219-5ebe-40f6-90fb-385592f95738","system_id":"levelo_inurba_marseille","lat":43.29257,"lon":5.38444,"is_reserved":false,"is_disabled":false,"rental_uris":{"android":"levelo://app?vid=dad8a219-5ebe-40f6-90fb-385592f95738","ios":"levelo://app?vid=dad8a219-5ebe-40f6-90fb-385592f95738"},"vehicle_type_id":"4","last_reported":1750407298,"current_range_meters":19200,"station_id":"ce4bh692rcd13ifvqea0","pricing_plan_id":"cebpf4jnsgd1na2vs0mg"},{"bike_id":"f3d7bf34-f0d1-4255-af65-f8675bd207e5","system_id":"levelo_inurba_marseille","lat":43.28279,"lon":5.35065,"is_reserved":false,"is_disabled":false,"rental_uris":{"android":"levelo://app?vid=f3d7bf34-f0d1-4255-af65-f8675bd207e5","ios":"levelo://app?vid=f3d7bf34-f0d1-4255-af65-f8675bd207e5"},"vehicle_type_id":"4","last_reported":1750407298,"current_range_meters":19200,"station_id":"ce4bhbp2rcd13ifvqerg","pricing_plan_id":"cebpf4jnsgd1na2vs0mg"},{"bike_id":"0a11771e-cc24-4d24-baf4-0abfe3e65cfe","system_id":"levelo_inurba_marseille","lat":43.28598,"lon":5.35137,"is_reserved":false,"is_disabled":false,"rental_uris":{"android":"levelo://app?vid=0a11771e-cc24-4d24-baf4-0abfe3e65cfe","ios":"levelo://app?vid=0a11771e-cc24-4d24-baf4-0abfe3e65cfe"},"vehicle_type_id":"4","last_reported":1750407298,"current_range_meters":19200,"station_id":"ce4bhch2rcd13ifvqeug","pricing_plan_id":"cebpf4jnsgd1na2vs0mg"},{"bike_id":"29c79b0b-308d-4c3e-a11e-45c915850854","system_id":"levelo_inurba_marseille","lat":43.26186,"lon":5.37954,"is_reserved":false,"is_disabled":false,"rental_uris":{"android":"levelo://app?vid=29c79b0b-308d-4c3e-a11e-45c915850854","ios":"levelo://app?vid=29c79b0b-308d-4c3e-a11e-45c915850854"},"vehicle_type_id":"4","last_reported":1750407298,"current_range_meters":19200,"station_id":"ce4bhjp2rcd13ifvqg90","pricing_plan_id":"cebpf4jnsgd1na2vs0mg"},{"bike_id":"b690cbd1-835e-4460-bd07-42a249da34cd","system_id":"levelo_inurba_marseille","lat":43.28611,"lon":5.37057,"is_reserved":false,"is_disabled":false,"rental_uris":{"android":"levelo://app?vid=b690cbd1-835e-4460-bd07-42a249da34cd","ios":"levelo://app?vid=b690cbd1-835e-4460-bd07-42a249da34cd"},"vehicle_type_id":"4","last_reported":1750407298,"current_range_meters":19200,"station_id":"ce4bht12rcd13ifvqi60","pricing_plan_id":"cebpf4jnsgd1na2vs0mg"},{"bike_id":"a4ff1886-948f-489c-b8f8-527cff5591b8","system_id":"levelo_inurba_marseille","lat":43.29599,"lon":5.381,"is_reserved":false,"is_disabled":false,"rental_uris":{"android":"levelo://app?vid=a4ff1886-948f-489c-b8f8-527cff5591b8","ios":"levelo://app?vid=a4ff1886-948f-489c-b8f8-527cff5591b8"},"vehicle_type_id":"4","last_reported":1750407298,"current_range_meters":19600,"station_id":"","pricing_plan_id":"cebpf4jnsgd1na2vs0mg"},{"bike_id":"21e8a1fe-5d14-4d1c-9afb-9cdfcbeb0d92","system_id":"levelo_inurba_marseille","lat":43.259272,"lon":5.409033,"is_reserved":false,"is_disabled":false,"rental_uris":{"android":"levelo://app?vid=21e8a1fe-5d14-4d1c-9afb-9cdfcbeb0d92","ios":"levelo://app?vid=21e8a1fe-5d14-4d1c-9afb-9cdfcbeb0d92"},"vehicle_type_id":"4","last_reported":1750407298,"current_range_meters":19600,"station_id":"ce4bhm92rcd13ifvqglg","pricing_plan_id":"cebpf4jnsgd1na2vs0mg"},{"bike_id":"063e9941-d5f6-480d-a2cf-92698b2a4bd1","system_id":"levelo_inurba_marseille","lat":43.31496,"lon":5.37272,"is_reserved":false,"is_disabled":false,"rental_uris":{"android":"levelo://app?vid=063e9941-d5f6-480d-a2cf-92698b2a4bd1","ios":"levelo://app?vid=063e9941-d5f6-480d-a2cf-92698b2a4bd1"},"vehicle_type_id":"4","last_reported":1750407298,"current_range_meters":20000,"station_id":"ce4bgt12rcd13ifvqcd0","pricing_plan_id":"cebpf4jnsgd1na2vs0mg"},{"bike_id":"1ff400c7-18f8-476d-9872-0f3049f5ba87","system_id":"levelo_inurba_marseille","lat":43.308063,"lon":5.381564,"is_reserved":false,"is_disabled":false,"rental_uris":{"android":"levelo://app?vid=1ff400c7-18f8-476d-9872-0f3049f5ba87","ios":"levelo://app?vid=1ff400c7-18f8-476d-9872-0f3049f5ba87"},"vehicle_type_id":"4","last_reported":1750407298,"current_range_meters":20000,"station_id":"ce4bgt12rcd13ifvqce0","pricing_plan_id":"cebpf4jnsgd1na2vs0mg"},{"bike_id":"3016c664-b3a4-4c23-8ce2-835c1e80a2a0","system_id":"levelo_inurba_marseille","lat":43.29033,"lon":5.37564,"is_reserved":false,"is_disabled":false,"rental_uris":{"android":"levelo://app?vid=3016c664-b3a4-4c23-8ce2-835c1e80a2a0","ios":"levelo://app?vid=3016c664-b3a4-4c23-8ce2-835c1e80a2a0"},"vehicle_type_id":"4","last_reported":1750407298,"current_range_meters":20000,"station_id":"ce4bh692rcd13ifvqe90","pricing_plan_id":"cebpf4jnsgd1na2vs0mg"},{"bike_id":"abb42be9-ab78-460b-9b18-3d139f9fa65d","system_id":"levelo_inurba_marseille","lat":43.29033,"lon":5.37572,"is_reserved":false,"is_disabled":false,"rental_uris":{"android":"levelo://app?vid=abb42be9-ab78-460b-9b18-3d139f9fa65d","ios":"levelo://app?vid=abb42be9-ab78-460b-9b18-3d139f9fa65d"},"vehicle_type_id":"4","last_reported":1750407298,"current_range_meters":20000,"station_id":"ce4bh692rcd13ifvqe90","pricing_plan_id":"cebpf4jnsgd1na2vs0mg"},{"bike_id":"51777eb3-38fa-4435-90c6-8c6ceed0f87a","system_id":"levelo_inurba_marseille","lat":43.29198,"lon":5.35812,"is_reserved":false,"is_disabled":false,"rental_uris":{"android":"levelo://app?vid=51777eb3-38fa-4435-90c6-8c6ceed0f87a","ios":"levelo://app?vid=51777eb3-38fa-4435-90c6-8c6ceed0f87a"},"vehicle_type_id":"4","last_reported":1750407298,"current_range_meters":20000,"station_id":"ce4bhb12rcd13ifvqel0","pricing_plan_id":"cebpf4jnsgd1na2vs0mg"},{"bike_id":"73afa621-e2a5-44d6-a78f-f470499fc2e7","system_id":"levelo_inurba_marseille","lat":43.28269,"lon":5.35061,"is_reserved":false,"is_disabled":false,"rental_uris":{"android":"levelo://app?vid=73afa621-e2a5-44d6-a78f-f470499fc2e7","ios":"levelo://app?vid=73afa621-e2a5-44d6-a78f-f470499fc2e7"},"vehicle_type_id":"4","last_reported":1750407298,"current_range_meters":20000,"station_id":"ce4bhbp2rcd13ifvqerg","pricing_plan_id":"cebpf4jnsgd1na2vs0mg"},{"bike_id":"9661cd18-5066-41fc-b198-bdca5d8a541c","system_id":"levelo_inurba_marseille","lat":43.24167,"lon":5.36389,"is_reserved":false,"is_disabled":false,"rental_uris":{"android":"levelo://app?vid=9661cd18-5066-41fc-b198-bdca5d8a541c","ios":"levelo://app?vid=9661cd18-5066-41fc-b198-bdca5d8a541c"},"vehicle_type_id":"4","last_reported":1750407298,"current_range_meters":20000,"station_id":"cpo36qri1sfpv3e86is0","pricing_plan_id":"cebpf4jnsgd1na2vs0mg"},{"bike_id":"2d50ff45-3046-40df-b784-ee274c648ea0","system_id":"levelo_inurba_marseille","lat":43.3203,"lon":5.40817,"is_reserved":false,"is_disabled":false,"rental_uris":{"android":"levelo://app?vid=2d50ff45-3046-40df-b784-ee274c648ea0","ios":"levelo://app?vid=2d50ff45-3046-40df-b784-ee274c648ea0"},"vehicle_type_id":"4","last_reported":1750407298,"current_range_meters":20400,"station_id":"","pricing_plan_id":"cebpf4jnsgd1na2vs0mg"},{"bike_id":"9e010c21-fd43-4887-a87c-ad5772c621c4","system_id":"levelo_inurba_marseille","lat":43.29291,"lon":5.37146,"is_reserved":false,"is_disabled":false,"rental_uris":{"android":"levelo://app?vid=9e010c21-fd43-4887-a87c-ad5772c621c4","ios":"levelo://app?vid=9e010c21-fd43-4887-a87c-ad5772c621c4"},"vehicle_type_id":"4","last_reported":1750407298,"current_range_meters":20400,"station_id":"ce4bgh92rcd13ifvqb40","pricing_plan_id":"cebpf4jnsgd1na2vs0mg"},{"bike_id":"2f639635-3897-4284-aa90-a1160dcb54f9","system_id":"levelo_inurba_marseille","lat":43.28726,"lon":5.37947,"is_reserved":false,"is_disabled":false,"rental_uris":{"android":"levelo://app?vid=2f639635-3897-4284-aa90-a1160dcb54f9","ios":"levelo://app?vid=2f639635-3897-4284-aa90-a1160dcb54f9"},"vehicle_type_id":"4","last_reported":1750407298,"current_range_meters":20400,"station_id":"ce4bh9p2rcd13ifvqec0","pricing_plan_id":"cebpf4jnsgd1na2vs0mg"},{"bike_id":"870c0e41-4f8f-4255-8033-a12fb7a131b1","system_id":"levelo_inurba_marseille","lat":43.289316,"lon":5.366398,"is_reserved":false,"is_disabled":false,"rental_uris":{"android":"levelo://app?vid=870c0e41-4f8f-4255-8033-a12fb7a131b1","ios":"levelo://app?vid=870c0e41-4f8f-4255-8033-a12fb7a131b1"},"vehicle_type_id":"4","last_reported":1750407298,"current_range_meters":20400,"station_id":"ce4bhap2rcd13ifvqek0","pricing_plan_id":"cebpf4jnsgd1na2vs0mg"},{"bike_id":"8e0cab98-7fd9-4048-a5d5-42e156688643","system_id":"levelo_inurba_marseille","lat":43.28698,"lon":5.39981,"is_reserved":false,"is_disabled":false,"rental_uris":{"android":"levelo://app?vid=8e0cab98-7fd9-4048-a5d5-42e156688643","ios":"levelo://app?vid=8e0cab98-7fd9-4048-a5d5-42e156688643"},"vehicle_type_id":"4","last_reported":1750407298,"current_range_meters":20400,"station_id":"ce4bho92rcd13ifvqh3g","pricing_plan_id":"cebpf4jnsgd1na2vs0mg"},{"bike_id":"2ebb486d-da0f-4ded-9558-964d959bffed","system_id":"levelo_inurba_marseille","lat":43.31715,"lon":5.43689,"is_reserved":false,"is_disabled":false,"rental_uris":{"android":"levelo://app?vid=2ebb486d-da0f-4ded-9558-964d959bffed","ios":"levelo://app?vid=2ebb486d-da0f-4ded-9558-964d959bffed"},"vehicle_type_id":"4","last_reported":1750407298,"current_range_meters":20400,"station_id":"ce4bhp92rcd13ifvqhcg","pricing_plan_id":"cebpf4jnsgd1na2vs0mg"},{"bike_id":"62f76f27-f677-45cf-aaea-4161aedc12b8","system_id":"levelo_inurba_marseille","lat":43.32476,"lon":5.36575,"is_reserved":false,"is_disabled":false,"rental_uris":{"android":"levelo://app?vid=62f76f27-f677-45cf-aaea-4161aedc12b8","ios":"levelo://app?vid=62f76f27-f677-45cf-aaea-4161aedc12b8"},"vehicle_type_id":"4","last_reported":1750407298,"current_range_meters":20400,"station_id":"ce4bhs12rcd13ifvqhvg","pricing_plan_id":"cebpf4jnsgd1na2vs0mg"},{"bike_id":"5187990f-0e38-4183-960c-3c6c679fb2e8","system_id":"levelo_inurba_marseille","lat":43.21187,"lon":5.35068,"is_reserved":false,"is_disabled":false,"rental_uris":{"android":"levelo://app?vid=5187990f-0e38-4183-960c-3c6c679fb2e8","ios":"levelo://app?vid=5187990f-0e38-4183-960c-3c6c679fb2e8"},"vehicle_type_id":"4","last_reported":1750407298,"current_range_meters":20400,"station_id":"st_cvj6sg6p6f1abm77japg","pricing_plan_id":"cebpf4jnsgd1na2vs0mg"},{"bike_id":"973db25f-144a-495b-98c4-15b4ae2dacd8","system_id":"levelo_inurba_marseille","lat":43.313328,"lon":5.37498,"is_reserved":false,"is_disabled":false,"rental_uris":{"android":"levelo://app?vid=973db25f-144a-495b-98c4-15b4ae2dacd8","ios":"levelo://app?vid=973db25f-144a-495b-98c4-15b4ae2dacd8"},"vehicle_type_id":"4","last_reported":1750407298,"current_range_meters":20800,"station_id":"","pricing_plan_id":"cebpf4jnsgd1na2vs0mg"},{"bike_id":"5ad91d08-dafd-4b06-ad6f-741f77df8b64","system_id":"levelo_inurba_marseille","lat":43.3028,"lon":5.37711,"is_reserved":false,"is_disabled":false,"rental_uris":{"android":"levelo://app?vid=5ad91d08-dafd-4b06-ad6f-741f77df8b64","ios":"levelo://app?vid=5ad91d08-dafd-4b06-ad6f-741f77df8b64"},"vehicle_type_id":"4","last_reported":1750407298,"current_range_meters":20800,"station_id":"ce4bguh2rcd13ifvqcj0","pricing_plan_id":"cebpf4jnsgd1na2vs0mg"},{"bike_id":"ebdca124-e94d-461d-99f5-4915ad4dfe7f","system_id":"levelo_inurba_marseille","lat":43.27667,"lon":5.38868,"is_reserved":false,"is_disabled":false,"rental_uris":{"android":"levelo://app?vid=ebdca124-e94d-461d-99f5-4915ad4dfe7f","ios":"levelo://app?vid=ebdca124-e94d-461d-99f5-4915ad4dfe7f"},"vehicle_type_id":"4","last_reported":1750407298,"current_range_meters":20800,"station_id":"ce4bhi12rcd13ifvqfo0","pricing_plan_id":"cebpf4jnsgd1na2vs0mg"},{"bike_id":"3a729660-015a-4bc2-a363-6cc584a87840","system_id":"levelo_inurba_marseille","lat":43.29787,"lon":5.381,"is_reserved":false,"is_disabled":false,"rental_uris":{"android":"levelo://app?vid=3a729660-015a-4bc2-a363-6cc584a87840","ios":"levelo://app?vid=3a729660-015a-4bc2-a363-6cc584a87840"},"vehicle_type_id":"4","last_reported":1750407298,"current_range_meters":21600,"station_id":"ce4bgip2rcd13ifvqbb0","pricing_plan_id":"cebpf4jnsgd1na2vs0mg"},{"bike_id":"413d7471-c69c-4e23-b9e0-7dd10f962fe4","system_id":"levelo_inurba_marseille","lat":43.29705,"lon":5.37696,"is_reserved":false,"is_disabled":false,"rental_uris":{"android":"levelo://app?vid=413d7471-c69c-4e23-b9e0-7dd10f962fe4","ios":"levelo://app?vid=413d7471-c69c-4e23-b9e0-7dd10f962fe4"},"vehicle_type_id":"4","last_reported":1750407298,"current_range_meters":21600,"station_id":"ce4bgkh2rcd13ifvqbl0","pricing_plan_id":"cebpf4jnsgd1na2vs0mg"},{"bike_id":"a7b005c7-29fd-4e4c-9396-f9efad682286","system_id":"levelo_inurba_marseille","lat":43.30458,"lon":5.37901,"is_reserved":false,"is_disabled":false,"rental_uris":{"android":"levelo://app?vid=a7b005c7-29fd-4e4c-9396-f9efad682286","ios":"levelo://app?vid=a7b005c7-29fd-4e4c-9396-f9efad682286"},"vehicle_type_id":"4","last_reported":1750407298,"current_range_meters":21600,"station_id":"ce4bgup2rcd13ifvqcn0","pricing_plan_id":"cebpf4jnsgd1na2vs0mg"},{"bike_id":"584bf8b8-5da7-4909-96ad-5a643d3bf26a","system_id":"levelo_inurba_marseille","lat":43.30461,"lon":5.3789,"is_reserved":false,"is_disabled":false,"rental_uris":{"android":"levelo://app?vid=584bf8b8-5da7-4909-96ad-5a643d3bf26a","ios":"levelo://app?vid=584bf8b8-5da7-4909-96ad-5a643d3bf26a"},"vehicle_type_id":"4","last_reported":1750407298,"current_range_meters":21600,"station_id":"ce4bgup2rcd13ifvqcn0","pricing_plan_id":"cebpf4jnsgd1na2vs0mg"},{"bike_id":"fb2f866a-15a1-4fe3-a8ae-42326e0f7851","system_id":"levelo_inurba_marseille","lat":43.24081,"lon":5.37751,"is_reserved":false,"is_disabled":false,"rental_uris":{"android":"levelo://app?vid=fb2f866a-15a1-4fe3-a8ae-42326e0f7851","ios":"levelo://app?vid=fb2f866a-15a1-4fe3-a8ae-42326e0f7851"},"vehicle_type_id":"4","last_reported":1750407298,"current_range_meters":21600,"station_id":"ce4bhnp2rcd13ifvqgvg","pricing_plan_id":"cebpf4jnsgd1na2vs0mg"},{"bike_id":"da32209e-34f8-44bc-a49e-9e216b2c6bfe","system_id":"levelo_inurba_marseille","lat":43.24077,"lon":5.37759,"is_reserved":false,"is_disabled":false,"rental_uris":{"android":"levelo://app?vid=da32209e-34f8-44bc-a49e-9e216b2c6bfe","ios":"levelo://app?vid=da32209e-34f8-44bc-a49e-9e216b2c6bfe"},"vehicle_type_id":"4","last_reported":1750407298,"current_range_meters":21600,"station_id":"ce4bhnp2rcd13ifvqgvg","pricing_plan_id":"cebpf4jnsgd1na2vs0mg"},{"bike_id":"ab173c46-afbb-43be-b515-c8120110c854","system_id":"levelo_inurba_marseille","lat":43.33606,"lon":5.41035,"is_reserved":false,"is_disabled":false,"rental_uris":{"android":"levelo://app?vid=ab173c46-afbb-43be-b515-c8120110c854","ios":"levelo://app?vid=ab173c46-afbb-43be-b515-c8120110c854"},"vehicle_type_id":"4","last_reported":1750407298,"current_range_meters":21600,"station_id":"ce4bhqh2rcd13ifvqhmg","pricing_plan_id":"cebpf4jnsgd1na2vs0mg"},{"bike_id":"f20d9be8-f65a-4615-a334-097d875818ce","system_id":"levelo_inurba_marseille","lat":43.28906,"lon":5.37297,"is_reserved":false,"is_disabled":false,"rental_uris":{"android":"levelo://app?vid=f20d9be8-f65a-4615-a334-097d875818ce","ios":"levelo://app?vid=f20d9be8-f65a-4615-a334-097d875818ce"},"vehicle_type_id":"4","last_reported":1750407298,"current_range_meters":22000,"station_id":"","pricing_plan_id":"cebpf4jnsgd1na2vs0mg"},{"bike_id":"fc0ed801-0d57-4b9e-8bab-b3bc8818fe1d","system_id":"levelo_inurba_marseille","lat":43.31486,"lon":5.3731,"is_reserved":false,"is_disabled":false,"rental_uris":{"android":"levelo://app?vid=fc0ed801-0d57-4b9e-8bab-b3bc8818fe1d","ios":"levelo://app?vid=fc0ed801-0d57-4b9e-8bab-b3bc8818fe1d"},"vehicle_type_id":"4","last_reported":1750407298,"current_range_meters":22000,"station_id":"ce4bgt12rcd13ifvqcd0","pricing_plan_id":"cebpf4jnsgd1na2vs0mg"},{"bike_id":"1c4a3c9d-5ced-4357-a51d-2da84d1dad25","system_id":"levelo_inurba_marseille","lat":43.337444,"lon":5.374475,"is_reserved":false,"is_disabled":false,"rental_uris":{"android":"levelo://app?vid=1c4a3c9d-5ced-4357-a51d-2da84d1dad25","ios":"levelo://app?vid=1c4a3c9d-5ced-4357-a51d-2da84d1dad25"},"vehicle_type_id":"4","last_reported":1750407298,"current_range_meters":22400,"station_id":"","pricing_plan_id":"cebpf4jnsgd1na2vs0mg"},{"bike_id":"a6b0b430-0398-474d-a5dc-a7d5e967381b","system_id":"levelo_inurba_marseille","lat":43.31483,"lon":5.3728,"is_reserved":false,"is_disabled":false,"rental_uris":{"android":"levelo://app?vid=a6b0b430-0398-474d-a5dc-a7d5e967381b","ios":"levelo://app?vid=a6b0b430-0398-474d-a5dc-a7d5e967381b"},"vehicle_type_id":"4","last_reported":1750407298,"current_range_meters":22400,"station_id":"ce4bgt12rcd13ifvqcd0","pricing_plan_id":"cebpf4jnsgd1na2vs0mg"},{"bike_id":"10143a0d-c84c-4937-acb1-8529a9741469","system_id":"levelo_inurba_marseille","lat":43.25495,"lon":5.37643,"is_reserved":false,"is_disabled":false,"rental_uris":{"android":"levelo://app?vid=10143a0d-c84c-4937-acb1-8529a9741469","ios":"levelo://app?vid=10143a0d-c84c-4937-acb1-8529a9741469"},"vehicle_type_id":"4","last_reported":1750407298,"current_range_meters":22400,"station_id":"ce4bhh12rcd13ifvqff0","pricing_plan_id":"cebpf4jnsgd1na2vs0mg"},{"bike_id":"e5f4044d-233e-4ead-9a28-f1c98e0f3ec3","system_id":"levelo_inurba_marseille","lat":43.27205,"lon":5.39181,"is_reserved":false,"is_disabled":false,"rental_uris":{"android":"levelo://app?vid=e5f4044d-233e-4ead-9a28-f1c98e0f3ec3","ios":"levelo://app?vid=e5f4044d-233e-4ead-9a28-f1c98e0f3ec3"},"vehicle_type_id":"4","last_reported":1750407298,"current_range_meters":22400,"station_id":"ce4bhhp2rcd13ifvqfm0","pricing_plan_id":"cebpf4jnsgd1na2vs0mg"},{"bike_id":"63098c47-5cf9-4592-8cee-b7ff480a7a5b","system_id":"levelo_inurba_marseille","lat":43.27172,"lon":5.40991,"is_reserved":false,"is_disabled":false,"rental_uris":{"android":"levelo://app?vid=63098c47-5cf9-4592-8cee-b7ff480a7a5b","ios":"levelo://app?vid=63098c47-5cf9-4592-8cee-b7ff480a7a5b"},"vehicle_type_id":"4","last_reported":1750407298,"current_range_meters":22400,"station_id":"ce4bhl12rcd13ifvqgf0","pricing_plan_id":"cebpf4jnsgd1na2vs0mg"},{"bike_id":"b3c403d1-b04b-4c6f-9171-8101d3df2718","system_id":"levelo_inurba_marseille","lat":43.25928,"lon":5.40903,"is_reserved":false,"is_disabled":false,"rental_uris":{"android":"levelo://app?vid=b3c403d1-b04b-4c6f-9171-8101d3df2718","ios":"levelo://app?vid=b3c403d1-b04b-4c6f-9171-8101d3df2718"},"vehicle_type_id":"4","last_reported":1750407298,"current_range_meters":22400,"station_id":"ce4bhm92rcd13ifvqglg","pricing_plan_id":"cebpf4jnsgd1na2vs0mg"},{"bike_id":"5da4e83b-8697-4c2d-ab54-ded034bb60b7","system_id":"levelo_inurba_marseille","lat":43.29283,"lon":5.45657,"is_reserved":false,"is_disabled":false,"rental_uris":{"android":"levelo://app?vid=5da4e83b-8697-4c2d-ab54-ded034bb60b7","ios":"levelo://app?vid=5da4e83b-8697-4c2d-ab54-ded034bb60b7"},"vehicle_type_id":"4","last_reported":1750407298,"current_range_meters":22800,"station_id":"","pricing_plan_id":"cebpf4jnsgd1na2vs0mg"},{"bike_id":"85c4b35a-5487-4018-b418-40941cfe14cf","system_id":"levelo_inurba_marseille","lat":43.29937,"lon":5.36541,"is_reserved":false,"is_disabled":false,"rental_uris":{"android":"levelo://app?vid=85c4b35a-5487-4018-b418-40941cfe14cf","ios":"levelo://app?vid=85c4b35a-5487-4018-b418-40941cfe14cf"},"vehicle_type_id":"4","last_reported":1750407298,"current_range_meters":22800,"station_id":"ce4bgm92rcd13ifvqbr0","pricing_plan_id":"cebpf4jnsgd1na2vs0mg"},{"bike_id":"1a116009-03a4-4548-bc25-02c8ab6e38f2","system_id":"levelo_inurba_marseille","lat":43.3053,"lon":5.36697,"is_reserved":false,"is_disabled":false,"rental_uris":{"android":"levelo://app?vid=1a116009-03a4-4548-bc25-02c8ab6e38f2","ios":"levelo://app?vid=1a116009-03a4-4548-bc25-02c8ab6e38f2"},"vehicle_type_id":"4","last_reported":1750407298,"current_range_meters":22800,"station_id":"ce4bgrp2rcd13ifvqc9g","pricing_plan_id":"cebpf4jnsgd1na2vs0mg"},{"bike_id":"d5f8dec4-8010-45e0-ba9f-ba80bf89c565","system_id":"levelo_inurba_marseille","lat":43.30516,"lon":5.36704,"is_reserved":false,"is_disabled":false,"rental_uris":{"android":"levelo://app?vid=d5f8dec4-8010-45e0-ba9f-ba80bf89c565","ios":"levelo://app?vid=d5f8dec4-8010-45e0-ba9f-ba80bf89c565"},"vehicle_type_id":"4","last_reported":1750407298,"current_range_meters":22800,"station_id":"ce4bgrp2rcd13ifvqc9g","pricing_plan_id":"cebpf4jnsgd1na2vs0mg"},{"bike_id":"cf952e4d-60f7-49f2-b9d0-5f6a81c7fb73","system_id":"levelo_inurba_marseille","lat":43.28416,"lon":5.34982,"is_reserved":false,"is_disabled":false,"rental_uris":{"android":"levelo://app?vid=cf952e4d-60f7-49f2-b9d0-5f6a81c7fb73","ios":"levelo://app?vid=cf952e4d-60f7-49f2-b9d0-5f6a81c7fb73"},"vehicle_type_id":"4","last_reported":1750407298,"current_range_meters":22800,"station_id":"ce4bhbh2rcd13ifvqepg","pricing_plan_id":"cebpf4jnsgd1na2vs0mg"},