{"last_updated":1741684276,"ttl":60,"version":"2.2","data":{"bikes":[{"bike_id":"39b549cc-04b0-41e6-b127-e68e272d2ac4","system_id":"levelo_inurba_marseille","lat":43.30958,"lon":5.39035,"is_reserved":false,"is_disabled":false,"rental_uris":{"android":"levelo://app?vid=39b549cc-04b0-41e6-b127-e68e272d2ac4","ios":"levelo://app?vid=39b549cc-04b0-41e6-b127-e68e272d2ac4"},"vehicle_type_id":"4","last_reported":1741684276,"current_range_meters":2800,"station_id":"ce4bgup2rcd13ifvqco0","pricing_plan_id":"cebpf4jnsgd1na2vs0mg"},{"bike_id":"ffabacd6-59d5-4e93-b987-7e83309d9413","system_id":"levelo_inurba_marseille","lat":43.29747,"lon":5.400727,"is_reserved":false,"is_disabled":false,"rental_uris":{"android":"levelo://app?vid=ffabacd6-59d5-4e93-b987-7e83309d9413","ios":"levelo://app?vid=ffabacd6-59d5-4e93-b987-7e83309d9413"},"vehicle_type_id":"4","last_reported":1741684276,"current_range_meters":2800,"station_id":"","pricing_plan_id":"cebpf4jnsgd1na2vs0mg"},{"bike_id":"3fc702ed-329f-4307-b932-fa074e478481","system_id":"levelo_inurba_marseille","lat":43.32497,"lon":5.36573,"is_reserved":false,"is_disabled":false,"rental_uris":{"android":"levelo://app?vid=3fc702ed-329f-4307-b932-fa074e478481","ios":"levelo://app?vid=3fc702ed-329f-4307-b932-fa074e478481"},"vehicle_type_id":"4","last_reported":1741684276,"current_range_meters":3200,"station_id":"ce4bhs12rcd13ifvqhvg","pricing_plan_id":"cebpf4jnsgd1na2vs0mg"},{"bike_id":"dda9481d-fef4-45ec-a2df-8d5712181e40","system_id":"levelo_inurba_marseille","lat":43.27681,"lon":5.38901,"is_reserved":false,"is_disabled":false,"rental_uris":{"android":"levelo://app?vid=dda9481d-fef4-45ec-a2df-8d5712181e40","ios":"levelo://app?vid=dda9481d-fef4-45ec-a2df-8d5712181e40"},"vehicle_type_id":"4","last_reported":1741684276,"current_range_meters":3200,"station_id":"ce4bhi12rcd13ifvqfo0","pricing_plan_id":"cebpf4jnsgd1na2vs0mg"},{"bike_id":"8eed1973-7f9e-4a6c-8f5f-ff6a4ca58d56","system_id":"levelo_inurba_marseille","lat":43.28945,"lon":5.3664,"is_reserved":false,"is_disabled":false,"rental_uris":{"android":"levelo://app?vid=8eed1973-7f9e-4a6c-8f5f-ff6a4ca58d56","ios":"levelo://app?vid=8eed1973-7f9e-4a6c-8f5f-ff6a4ca58d56"},"vehicle_type_id":"4","last_reported":1741684276,"current_range_meters":3200,"station_id":"ce4bhap2rcd13ifvqek0","pricing_plan_id":"cebpf4jnsgd1na2vs0mg"},{"bike_id":"20ff66a4-a761-4356-aeaf-58f786047a64","system_id":"levelo_inurba_marseille","lat":43.25579,"lon":5.38244,"is_reserved":false,"is_disabled":false,"rental_uris":{"android":"levelo://app?vid=20ff66a4-a761-4356-aeaf-58f786047a64","ios":"levelo://app?vid=20ff66a4-a761-4356-aeaf-58f786047a64"},"vehicle_type_id":"4","last_reported":1741684276,"current_range_meters":3200,"station_id":"ce4bhih2rcd13ifvqfs0","pricing_plan_id":"cebpf4jnsgd1na2vs0mg"},{"bike_id":"9937e914-3003-4aa8-b3ac-fe75cff8bd2a","system_id":"levelo_inurba_marseille","lat":43.276642,"lon":5.388906,"is_reserved":false,"is_disabled":false,"rental_uris":{"android":"levelo://app?vid=9937e914-3003-4aa8-b3ac-fe75cff8bd2a","ios":"levelo://app?vid=9937e914-3003-4aa8-b3ac-fe75cff8bd2a"},"vehicle_type_id":"4","last_reported":1741684276,"current_range_meters":3200,"station_id":"ce4bhi12rcd13ifvqfo0","pricing_plan_id":"cebpf4jnsgd1na2vs0mg"},{"bike_id":"85858945-288d-4d7b-aac5-8cf9d060c580","system_id":"levelo_inurba_marseille","lat":43.32339,"lon":5.36682,"is_reserved":false,"is_disabled":false,"rental_uris":{"android":"levelo://app?vid=85858945-288d-4d7b-aac5-8cf9d060c580","ios":"levelo://app?vid=85858945-288d-4d7b-aac5-8cf9d060c580"},"vehicle_type_id":"4","last_reported":1741684276,"current_range_meters":3200,"station_id":"","pricing_plan_id":"cebpf4jnsgd1na2vs0mg"},{"bike_id":"35be52e8-6b84-4099-8ea0-f38652827724","system_id":"levelo_inurba_marseille","lat":43.30597,"lon":5.39377,"is_reserved":false,"is_disabled":true,"rental_uris":{"android":"levelo://app?vid=35be52e8-6b84-4099-8ea0-f38652827724","ios":"levelo://app?vid=35be52e8-6b84-4099-8ea0-f38652827724"},"vehicle_type_id":"4","last_reported":1741684276,"current_range_meters":3600,"station_id":"ce4bh0p2rcd13ifvqd80","pricing_plan_id":"cebpf4jnsgd1na2vs0mg"},{"bike_id":"e268dd4c-9f4f-4a1a-85e8-2d3aaeef7cbe","system_id":"levelo_inurba_marseille","lat":43.25935,"lon":5.40894,"is_reserved":false,"is_disabled":false,"rental_uris":{"android":"levelo://app?vid=e268dd4c-9f4f-4a1a-85e8-2d3aaeef7cbe","ios":"levelo://app?vid=e268dd4c-9f4f-4a1a-85e8-2d3aaeef7cbe"},"vehicle_type_id":"4","last_reported":1741684276,"current_range_meters":4000,"station_id":"ce4bhm92rcd13ifvqglg","pricing_plan_id":"cebpf4jnsgd1na2vs0mg"},{"bike_id":"574c2d07-d28d-416d-9749-f13a96704d7c","system_id":"levelo_inurba_marseille","lat":43.2925,"lon":5.37621,"is_reserved":false,"is_disabled":false,"rental_uris":{"android":"levelo://app?vid=574c2d07-d28d-416d-9749-f13a96704d7c","ios":"levelo://app?vid=574c2d07-d28d-416d-9749-f13a96704d7c"},"vehicle_type_id":"4","last_reported":1741684276,"current_range_meters":4000,"station_id":"ce4bgi12rcd13ifvqb80","pricing_plan_id":"cebpf4jnsgd1na2vs0mg"},{"bike_id":"bdb9182f-f56e-4249-9607-c4248c824db0","system_id":"levelo_inurba_marseille","lat":43.27807,"lon":5.40707,"is_reserved":false,"is_disabled":false,"rental_uris":{"android":"levelo://app?vid=bdb9182f-f56e-4249-9607-c4248c824db0","ios":"levelo://app?vid=bdb9182f-f56e-4249-9607-c4248c824db0"},"vehicle_type_id":"4","last_reported":1741684276,"current_range_meters":4000,"station_id":"ce4bhnh2rcd13ifvqgtg","pricing_plan_id":"cebpf4jnsgd1na2vs0mg"},{"bike_id":"57bb9620-7e1d-4375-9183-8aca42377c8c","system_id":"levelo_inurba_marseille","lat":43.304673,"lon":5.382128,"is_reserved":false,"is_disabled":false,"rental_uris":{"android":"levelo://app?vid=57bb9620-7e1d-4375-9183-8aca42377c8c","ios":"levelo://app?vid=57bb9620-7e1d-4375-9183-8aca42377c8c"},"vehicle_type_id":"4","last_reported":1741684276,"current_range_meters":4000,"station_id":"","pricing_plan_id":"cebpf4jnsgd1na2vs0mg"},{"bike_id":"b104001a-10f7-4c93-b613-2b76cb885027","system_id":"levelo_inurba_marseille","lat":43.31138,"lon":5.37121,"is_reserved":false,"is_disabled":false,"rental_uris":{"android":"levelo://app?vid=b104001a-10f7-4c93-b613-2b76cb885027","ios":"levelo://app?vid=b104001a-10f7-4c93-b613-2b76cb885027"},"vehicle_type_id":"4","last_reported":1741684276,"current_range_meters":4400,"station_id":"","pricing_plan_id":"cebpf4jnsgd1na2vs0mg"},{"bike_id":"3c57a3fc-75b6-4e79-8a13-aa2e0eee3189","system_id":"levelo_inurba_marseille","lat":43.28149,"lon":5.42625,"is_reserved":false,"is_disabled":false,"rental_uris":{"android":"levelo://app?vid=3c57a3fc-75b6-4e79-8a13-aa2e0eee3189","ios":"levelo://app?vid=3c57a3fc-75b6-4e79-8a13-aa2e0eee3189"},"vehicle_type_id":"4","last_reported":1741684276,"current_range_meters":4800,"station_id":"ce4bhnh2rcd13ifvqgug","pricing_plan_id":"cebpf4jnsgd1na2vs0mg"},{"bike_id":"06602cd9-19e8-4133-a020-4c175a2b377d","system_id":"levelo_inurba_marseille","lat":43.31338,"lon":5.36725,"is_reserved":false,"is_disabled":false,"rental_uris":{"android":"levelo://app?vid=06602cd9-19e8-4133-a020-4c175a2b377d","ios":"levelo://app?vid=06602cd9-19e8-4133-a020-4c175a2b377d"},"vehicle_type_id":"4","last_reported":1741684276,"current_range_meters":4800,"station_id":"ce4bgr92rcd13ifvqc6g","pricing_plan_id":"cebpf4jnsgd1na2vs0mg"},{"bike_id":"0e74fd1f-eaa3-4d4e-8241-d5fba15781cb","system_id":"levelo_inurba_marseille","lat":43.30549,"lon":5.36532,"is_reserved":false,"is_disabled":false,"rental_uris":{"android":"levelo://app?vid=0e74fd1f-eaa3-4d4e-8241-d5fba15781cb","ios":"levelo://app?vid=0e74fd1f-eaa3-4d4e-8241-d5fba15781cb"},"vehicle_type_id":"4","last_reported":1741684276,"current_range_meters":4800,"station_id":"ce4bgs12rcd13ifvqcag","pricing_plan_id":"cebpf4jnsgd1na2vs0mg"},{"bike_id":"b721eb50-abed-42ba-86f7-ef91b0c0cfd7","system_id":"levelo_inurba_marseille","lat":43.24069,"lon":5.37759,"is_reserved":false,"is_disabled":false,"rental_uris":{"android":"levelo://app?vid=b721eb50-abed-42ba-86f7-ef91b0c0cfd7","ios":"levelo://app?vid=b721eb50-abed-42ba-86f7-ef91b0c0cfd7"},"vehicle_type_id":"4","last_reported":1741684276,"current_range_meters":4800,"station_id":"ce4bhnp2rcd13ifvqgvg","pricing_plan_id":"cebpf4jnsgd1na2vs0mg"},{"bike_id":"2fbb2f0e-b64e-445e-a2b3-ee5227dc63e4","system_id":"levelo_inurba_marseille","lat":43.26951,"lon":5.36732,"is_reserved":false,"is_disabled":false,"rental_uris":{"android":"levelo://app?vid=2fbb2f0e-b64e-445e-a2b3-ee5227dc63e4","ios":"levelo://app?vid=2fbb2f0e-b64e-445e-a2b3-ee5227dc63e4"},"vehicle_type_id":"4","last_reported":1741684276,"current_range_meters":5600,"station_id":"","pricing_plan_id":"cebpf4jnsgd1na2vs0mg"},{"bike_id":"9363f041-756c-4065-8501-317f0ce189b2","system_id":"levelo_inurba_marseille","lat":43.30455,"lon":5.37914,"is_reserved":false,"is_disabled":false,"rental_uris":{"android":"levelo://app?vid=9363f041-756c-4065-8501-317f0ce189b2","ios":"levelo://app?vid=9363f041-756c-4065-8501-317f0ce189b2"},"vehicle_type_id":"4","last_reported":1741684276,"current_range_meters":5600,"station_id":"ce4bgup2rcd13ifvqcn0","pricing_plan_id":"cebpf4jnsgd1na2vs0mg"},{"bike_id":"7f08542c-3622-4bee-8852-d0974c0ec085","system_id":"levelo_inurba_marseille","lat":43.24184,"lon":5.36319,"is_reserved":false,"is_disabled":false,"rental_uris":{"android":"levelo://app?vid=7f08542c-3622-4bee-8852-d0974c0ec085","ios":"levelo://app?vid=7f08542c-3622-4bee-8852-d0974c0ec085"},"vehicle_type_id":"4","last_reported":1741684276,"current_range_meters":5600,"station_id":"","pricing_plan_id":"cebpf4jnsgd1na2vs0mg"},{"bike_id":"533fd0b3-7e3b-4ff8-8559-652a63a78640","system_id":"levelo_inurba_marseille","lat":43.32534,"lon":5.41431,"is_reserved":false,"is_disabled":false,"rental_uris":{"android":"levelo://app?vid=533fd0b3-7e3b-4ff8-8559-652a63a78640","ios":"levelo://app?vid=533fd0b3-7e3b-4ff8-8559-652a63a78640"},"vehicle_type_id":"4","last_reported":1741684276,"current_range_meters":5600,"station_id":"ce4bhq12rcd13ifvqhhg","pricing_plan_id":"cebpf4jnsgd1na2vs0mg"},{"bike_id":"654968cd-8f70-4bea-ab46-7ea5521aaac7","system_id":"levelo_inurba_marseille","lat":43.27989,"lon":5.39986,"is_reserved":false,"is_disabled":false,"rental_uris":{"android":"levelo://app?vid=654968cd-8f70-4bea-ab46-7ea5521aaac7","ios":"levelo://app?vid=654968cd-8f70-4bea-ab46-7ea5521aaac7"},"vehicle_type_id":"4","last_reported":1741684276,"current_range_meters":5600,"station_id":"ce4bho92rcd13ifvqh4g","pricing_plan_id":"cebpf4jnsgd1na2vs0mg"},{"bike_id":"8d16ec14-b678-4c3c-9cd9-52f1db7be6ee","system_id":"levelo_inurba_marseille","lat":43.2987,"lon":5.39744,"is_reserved":false,"is_disabled":false,"rental_uris":{"android":"levelo://app?vid=8d16ec14-b678-4c3c-9cd9-52f1db7be6ee","ios":"levelo://app?vid=8d16ec14-b678-4c3c-9cd9-52f1db7be6ee"},"vehicle_type_id":"4","last_reported":1741684276,"current_range_meters":5600,"station_id":"ce4bh0h2rcd13ifvqd50","pricing_plan_id":"cebpf4jnsgd1na2vs0mg"},{"bike_id":"5d44eec5-0f76-4d9d-87c9-f425c19e364b","system_id":"levelo_inurba_marseille","lat":43.25087,"lon":5.39525,"is_reserved":false,"is_disabled":false,"rental_uris":{"android":"levelo://app?vid=5d44eec5-0f76-4d9d-87c9-f425c19e364b","ios":"levelo://app?vid=5d44eec5-0f76-4d9d-87c9-f425c19e364b"},"vehicle_type_id":"4","last_reported":1741684276,"current_range_meters":5600,"station_id":"ce4bhm12rcd13ifvqgkg","pricing_plan_id":"cebpf4jnsgd1na2vs0mg"},{"bike_id":"e8772d48-caac-4533-aaa5-56369b3e2b87","system_id":"levelo_inurba_marseille","lat":43.29024,"lon":5.39996,"is_reserved":false,"is_disabled":false,"rental_uris":{"android":"levelo://app?vid=e8772d48-caac-4533-aaa5-56369b3e2b87","ios":"levelo://app?vid=e8772d48-caac-4533-aaa5-56369b3e2b87"},"vehicle_type_id":"4","last_reported":1741684276,"current_range_meters":5600,"station_id":"ce4bh392rcd13ifvqdm0","pricing_plan_id":"cebpf4jnsgd1na2vs0mg"},{"bike_id":"db7b4edc-0eb2-4d6c-a049-e1c31062207f","system_id":"levelo_inurba_marseille","lat":43.2922,"lon":5.36078,"is_reserved":false,"is_disabled":false,"rental_uris":{"android":"levelo://app?vid=db7b4edc-0eb2-4d6c-a049-e1c31062207f","ios":"levelo://app?vid=db7b4edc-0eb2-4d6c-a049-e1c31062207f"},"vehicle_type_id":"4","last_reported":1741684276,"current_range_meters":6000,"station_id":"ce4bhbh2rcd13ifvqeqg","pricing_plan_id":"cebpf4jnsgd1na2vs0mg"},{"bike_id":"51b43b8b-3545-4d48-8116-ac92a2b410e9","system_id":"levelo_inurba_marseille","lat":43.31514,"lon":5.37305,"is_reserved":false,"is_disabled":false,"rental_uris":{"android":"levelo://app?vid=51b43b8b-3545-4d48-8116-ac92a2b410e9","ios":"levelo://app?vid=51b43b8b-3545-4d48-8116-ac92a2b410e9"},"vehicle_type_id":"4","last_reported":1741684276,"current_range_meters":6000,"station_id":"ce4bgt12rcd13ifvqcd0","pricing_plan_id":"cebpf4jnsgd1na2vs0mg"},{"bike_id":"cff4445f-6b70-4c92-a3aa-728d1723639c","system_id":"levelo_inurba_marseille","lat":43.25091,"lon":5.39521,"is_reserved":false,"is_disabled":false,"rental_uris":{"android":"levelo://app?vid=cff4445f-6b70-4c92-a3aa-728d1723639c","ios":"levelo://app?vid=cff4445f-6b70-4c92-a3aa-728d1723639c"},"vehicle_type_id":"4","last_reported":1741684276,"current_range_meters":6400,"station_id":"ce4bhm12rcd13ifvqgkg","pricing_plan_id":"cebpf4jnsgd1na2vs0mg"},{"bike_id":"1907067d-5e3d-40ca-8a47-ba415b8b2a28","system_id":"levelo_inurba_marseille","lat":43.3361,"lon":5.41016,"is_reserved":false,"is_disabled":true,"rental_uris":{"android":"levelo://app?vid=1907067d-5e3d-40ca-8a47-ba415b8b2a28","ios":"levelo://app?vid=1907067d-5e3d-40ca-8a47-ba415b8b2a28"},"vehicle_type_id":"4","last_reported":1741684276,"current_range_meters":6400,"station_id":"ce4bhqh2rcd13ifvqhmg","pricing_plan_id":"cebpf4jnsgd1na2vs0mg"},{"bike_id":"ce4d618d-a090-462a-af94-5e66f4cc9c62","system_id":"levelo_inurba_marseille","lat":43.27495,"lon":5.42463,"is_reserved":false,"is_disabled":false,"rental_uris":{"android":"levelo://app?vid=ce4d618d-a090-462a-af94-5e66f4cc9c62","ios":"levelo://app?vid=ce4d618d-a090-462a-af94-5e66f4cc9c62"},"vehicle_type_id":"4","last_reported":1741684276,"current_range_meters":6400,"station_id":"ce4bhn92rcd13ifvqgrg","pricing_plan_id":"cebpf4jnsgd1na2vs0mg"},{"bike_id":"1f72adc6-3d1a-4fad-a905-cb9dcd596e26","system_id":"levelo_inurba_marseille","lat":43.23843,"lon":5.43567,"is_reserved":false,"is_disabled":false,"rental_uris":{"android":"levelo://app?vid=1f72adc6-3d1a-4fad-a905-cb9dcd596e26","ios":"levelo://app?vid=1f72adc6-3d1a-4fad-a905-cb9dcd596e26"},"vehicle_type_id":"4","last_reported":1741684276,"current_range_meters":6400,"station_id":"","pricing_plan_id":"cebpf4jnsgd1na2vs0mg"},{"bike_id":"4db736b9-68d3-4f2a-9431-002ce7a44183","system_id":"levelo_inurba_marseille","lat":43.23157,"lon":5.43708,"is_reserved":false,"is_disabled":false,"rental_uris":{"android":"levelo://app?vid=4db736b9-68d3-4f2a-9431-002ce7a44183","ios":"levelo://app?vid=4db736b9-68d3-4f2a-9431-002ce7a44183"},"vehicle_type_id":"4","last_reported":1741684276,"current_range_meters":6400,"station_id":"ce4bhmp2rcd13ifvqgog","pricing_plan_id":"cebpf4jnsgd1na2vs0mg"},{"bike_id":"4fc82004-ba25-46e8-9d12-a8bf2240aace","system_id":"levelo_inurba_marseille","lat":43.23189,"lon":5.40008,"is_reserved":false,"is_disabled":false,"rental_uris":{"android":"levelo://app?vid=4fc82004-ba25-46e8-9d12-a8bf2240aace","ios":"levelo://app?vid=4fc82004-ba25-46e8-9d12-a8bf2240aace"},"vehicle_type_id":"4","last_reported":1741684276,"current_range_meters":6800,"station_id":"ce4bhn12rcd13ifvqgqg","pricing_plan_id":"cebpf4jnsgd1na2vs0mg"},{"bike_id":"6d0827ae-7a3c-41e5-9466-b5a3897d36de","system_id":"levelo_inurba_marseille","lat":43.25855,"lon":5.39892,"is_reserved":false,"is_disabled":false,"rental_uris":{"android":"levelo://app?vid=6d0827ae-7a3c-41e5-9466-b5a3897d36de","ios":"levelo://app?vid=6d0827ae-7a3c-41e5-9466-b5a3897d36de"},"vehicle_type_id":"4","last_reported":1741684276,"current_range_meters":6800,"station_id":"ce4bhl92rcd13ifvqghg","pricing_plan_id":"cebpf4jnsgd1na2vs0mg"},{"bike_id":"f93a887d-a126-44d2-9e40-f2c5f520ab73","system_id":"levelo_inurba_marseille","lat":43.26217,"lon":5.3744,"is_reserved":false,"is_disabled":false,"rental_uris":{"android":"levelo://app?vid=f93a887d-a126-44d2-9e40-f2c5f520ab73","ios":"levelo://app?vid=f93a887d-a126-44d2-9e40-f2c5f520ab73"},"vehicle_type_id":"4","last_reported":1741684276,"current_range_meters":6800,"station_id":"ce4bhgp2rcd13ifvqfc0","pricing_plan_id":"cebpf4jnsgd1na2vs0mg"},{"bike_id":"af7cad9e-fa8d-48b7-9985-2a246121bd34","system_id":"levelo_inurba_marseille","lat":43.28615,"lon":5.35106,"is_reserved":false,"is_disabled":false,"rental_uris":{"android":"levelo://app?vid=af7cad9e-fa8d-48b7-9985-2a246121bd34","ios":"levelo://app?vid=af7cad9e-fa8d-48b7-9985-2a246121bd34"},"vehicle_type_id":"4","last_reported":1741684276,"current_range_meters":6800,"station_id":"ce4bhch2rcd13ifvqeug","pricing_plan_id":"cebpf4jnsgd1na2vs0mg"},{"bike_id":"373a1af5-2b90-40ba-bdc3-b87140071d00","system_id":"levelo_inurba_marseille","lat":43.31188,"lon":5.40321,"is_reserved":false,"is_disabled":true,"rental_uris":{"android":"levelo://app?vid=373a1af5-2b90-40ba-bdc3-b87140071d00","ios":"levelo://app?vid=373a1af5-2b90-40ba-bdc3-b87140071d00"},"vehicle_type_id":"4","last_reported":1741684276,"current_range_meters":6800,"station_id":"","pricing_plan_id":"cebpf4jnsgd1na2vs0mg"},{"bike_id":"27ec60e3-b2e3-435c-ba4c-8372ab285bb1","system_id":"levelo_inurba_marseille","lat":43.28138,"lon":5.42634,"is_reserved":false,"is_disabled":false,"rental_uris":{"android":"levelo://app?vid=27ec60e3-b2e3-435c-ba4c-8372ab285bb1","ios":"levelo://app?vid=27ec60e3-b2e3-435c-ba4c-8372ab285bb1"},"vehicle_type_id":"4","last_reported":1741684276,"current_range_meters":6800,"station_id":"ce4bhnh2rcd13ifvqgug","pricing_plan_id":"cebpf4jnsgd1na2vs0mg"},{"bike_id":"d7d9cc6d-64a1-48b6-9851-0012a3a340ab","system_id":"levelo_inurba_marseille","lat":43.26567,"lon":5.39005,"is_reserved":false,"is_disabled":false,"rental_uris":{"android":"levelo://app?vid=d7d9cc6d-64a1-48b6-9851-0012a3a340ab","ios":"levelo://app?vid=d7d9cc6d-64a1-48b6-9851-0012a3a340ab"},"vehicle_type_id":"4","last_reported":1741684276,"current_range_meters":6800,"station_id":"ce4bhe12rcd13ifvqf30","pricing_plan_id":"cebpf4jnsgd1na2vs0mg"},{"bike_id":"c835eee2-01bf-4ff1-a164-4c90e0a065d9","system_id":"levelo_inurba_marseille","lat":43.24999,"lon":5.38929,"is_reserved":false,"is_disabled":false,"rental_uris":{"android":"levelo://app?vid=c835eee2-01bf-4ff1-a164-4c90e0a065d9","ios":"levelo://app?vid=c835eee2-01bf-4ff1-a164-4c90e0a065d9"},"vehicle_type_id":"4","last_reported":1741684276,"current_range_meters":6800,"station_id":"ce4bhgp2rcd13ifvqfd0","pricing_plan_id":"cebpf4jnsgd1na2vs0mg"},{"bike_id":"3594b121-1026-4236-abac-8602433cb8d2","system_id":"levelo_inurba_marseille","lat":43.31078,"lon":5.42442,"is_reserved":false,"is_disabled":false,"rental_uris":{"android":"levelo://app?vid=3594b121-1026-4236-abac-8602433cb8d2","ios":"levelo://app?vid=3594b121-1026-4236-abac-8602433cb8d2"},"vehicle_type_id":"4","last_reported":1741684276,"current_range_meters":7200,"station_id":"ce4bhp92rcd13ifvqhag","pricing_plan_id":"cebpf4jnsgd1na2vs0mg"},{"bike_id":"38f542ad-31a3-49ba-9bc1-a996f0ca647d","system_id":"levelo_inurba_marseille","lat":43.29038,"lon":5.40028,"is_reserved":false,"is_disabled":false,"rental_uris":{"android":"levelo://app?vid=38f542ad-31a3-49ba-9bc1-a996f0ca647d","ios":"levelo://app?vid=38f542ad-31a3-49ba-9bc1-a996f0ca647d"},"vehicle_type_id":"4","last_reported":1741684276,"current_range_meters":6000,"station_id":"","pricing_plan_id":"cebpf4jnsgd1na2vs0mg"},{"bike_id":"58e479a9-c3a4-4826-ad96-179cb000b7c3","system_id":"levelo_inurba_marseille","lat":43.31365,"lon":5.36714,"is_reserved":false,"is_disabled":false,"rental_uris":{"android":"levelo://app?vid=58e479a9-c3a4-4826-ad96-179cb000b7c3","ios":"levelo://app?vid=58e479a9-c3a4-4826-ad96-179cb000b7c3"},"vehicle_type_id":"4","last_reported":1741684276,"current_range_meters":7200,"station_id":"ce4bgr92rcd13ifvqc6g","pricing_plan_id":"cebpf4jnsgd1na2vs0mg"},{"bike_id":"ae40c0ce-3c12-4d0b-bbf9-30cde05c01af","system_id":"levelo_inurba_marseille","lat":43.25938,"lon":5.40902,"is_reserved":false,"is_disabled":false,"rental_uris":{"android":"levelo://app?vid=ae40c0ce-3c12-4d0b-bbf9-30cde05c01af","ios":"levelo://app?vid=ae40c0ce-3c12-4d0b-bbf9-30cde05c01af"},"vehicle_type_id":"4","last_reported":1741684276,"current_range_meters":7200,"station_id":"ce4bhm92rcd13ifvqglg","pricing_plan_id":"cebpf4jnsgd1na2vs0mg"},{"bike_id":"79c57314-f027-4667-abbf-97a0360ae6ae","system_id":"levelo_inurba_marseille","lat":43.30552,"lon":5.36701,"is_reserved":false,"is_disabled":false,"rental_uris":{"android":"levelo://app?vid=79c57314-f027-4667-abbf-97a0360ae6ae","ios":"levelo://app?vid=79c57314-f027-4667-abbf-97a0360ae6ae"},"vehicle_type_id":"4","last_reported":1741684276,"current_range_meters":7200,"station_id":"ce4bgrp2rcd13ifvqc9g","pricing_plan_id":"cebpf4jnsgd1na2vs0mg"},{"bike_id":"eda074eb-77af-4e4c-901c-478d03102cf3","system_id":"levelo_inurba_marseille","lat":43.33608,"lon":5.41025,"is_reserved":false,"is_disabled":false,"rental_uris":{"android":"levelo://app?vid=eda074eb-77af-4e4c-901c-478d03102cf3","ios":"levelo://app?vid=eda074eb-77af-4e4c-901c-478d03102cf3"},"vehicle_type_id":"4","last_reported":1741684276,"current_range_meters":7200,"station_id":"ce4bhqh2rcd13ifvqhmg","pricing_plan_id":"cebpf4jnsgd1na2vs0mg"},{"bike_id":"e5cf046b-59d9-4bef-98b0-d71713cfc93e","system_id":"levelo_inurba_marseille","lat":43.325369,"lon":5.4144,"is_reserved":false,"is_disabled":false,"rental_uris":{"android":"levelo://app?vid=e5cf046b-59d9-4bef-98b0-d71713cfc93e","ios":"levelo://app?vid=e5cf046b-59d9-4bef-98b0-d71713cfc93e"},"vehicle_type_id":"4","last_reported":1741684276,"current_range_meters":7200,"station_id":"ce4bhq12rcd13ifvqhhg","pricing_plan_id":"cebpf4jnsgd1na2vs0mg"},{"bike_id":"1de9f52f-027a-4b1f-83c1-bb6364117d2f","system_id":"levelo_inurba_marseille","lat":43.30141,"lon":5.37409,"is_reserved":false,"is_disabled":false,"rental_uris":{"android":"levelo://app?vid=1de9f52f-027a-4b1f-83c1-bb6364117d2f","ios":"levelo://app?vid=1de9f52f-027a-4b1f-83c1-bb6364117d2f"},"vehicle_type_id":"4","last_reported":1741684276,"current_range_meters":7200,"station_id":"ce4bgs92rcd13ifvqcc0","pricing_plan_id":"cebpf4jnsgd1na2vs0mg"},{"bike_id":"42b8606a-5a39-4c18-ab8e-ae2998dcaace","system_id":"levelo_inurba_marseille","lat":43.299,"lon":5.43662,"is_reserved":false,"is_disabled":false,"rental_uris":{"android":"levelo://app?vid=42b8606a-5a39-4c18-ab8e-ae2998dcaace","ios":"levelo://app?vid=42b8606a-5a39-4c18-ab8e-ae2998dcaace"},"vehicle_type_id":"4","last_reported":1741684276,"current_range_meters":8000,"station_id":"ce4bhpp2rcd13ifvqhfg","pricing_plan_id":"cebpf4jnsgd1na2vs0mg"},{"bike_id":"4a28802a-00fd-4ad7-8b56-ad16e097ba31","system_id":"levelo_inurba_marseille","lat":43.30144,"lon":5.38072,"is_reserved":false,"is_disabled":false,"rental_uris":{"android":"levelo://app?vid=4a28802a-00fd-4ad7-8b56-ad16e097ba31","ios":"levelo://app?vid=4a28802a-00fd-4ad7-8b56-ad16e097ba31"},"vehicle_type_id":"4","last_reported":1741684276,"current_range_meters":2800,"station_id":"ce4bgjp2rcd13ifvqbh0","pricing_plan_id":"cebpf4jnsgd1na2vs0mg"},{"bike_id":"550f4f9f-afbd-4396-bec2-cdce79ad77cc","system_id":"levelo_inurba_marseille","lat":43.32477,"lon":5.36561,"is_reserved":false,"is_disabled":false,"rental_uris":{"android":"levelo://app?vid=550f4f9f-afbd-4396-bec2-cdce79ad77cc","ios":"levelo://app?vid=550f4f9f-afbd-4396-bec2-cdce79ad77cc"},"vehicle_type_id":"4","last_reported":1741684276,"current_range_meters":8000,"station_id":"ce4bhs12rcd13ifvqhvg","pricing_plan_id":"cebpf4jnsgd1na2vs0mg"},{"bike_id":"54afd193-ee95-4f5e-975a-c9018d9dcb98","system_id":"levelo_inurba_marseille","lat":43.32366,"lon":5.36789,"is_reserved":false,"is_disabled":false,"rental_uris":{"android":"levelo://app?vid=54afd193-ee95-4f5e-975a-c9018d9dcb98","ios":"levelo://app?vid=54afd193-ee95-4f5e-975a-c9018d9dcb98"},"vehicle_type_id":"4","last_reported":1741684276,"current_range_meters":8000,"station_id":"ce4bhsh2rcd13ifvqi2g","pricing_plan_id":"cebpf4jnsgd1na2vs0mg"},{"bike_id":"7f59646a-2d98-41f1-be7c-a690e01f50fe","system_id":"levelo_inurba_marseille","lat":43.25936,"lon":5.40902,"is_reserved":false,"is_disabled":false,"rental_uris":{"android":"levelo://app?vid=7f59646a-2d98-41f1-be7c-a690e01f50fe","ios":"levelo://app?vid=7f59646a-2d98-41f1-be7c-a690e01f50fe"},"vehicle_type_id":"4","last_reported":1741684276,"current_range_meters":8000,"station_id":"ce4bhm92rcd13ifvqglg","pricing_plan_id":"cebpf4jnsgd1na2vs0mg"},{"bike_id":"d6b8b55b-28e0-4afb-9cbd-5f5195446675","system_id":"levelo_inurba_marseille","lat":43.27502,"lon":5.42459,"is_reserved":false,"is_disabled":false,"rental_uris":{"android":"levelo://app?vid=d6b8b55b-28e0-4afb-9cbd-5f5195446675","ios":"levelo://app?vid=d6b8b55b-28e0-4afb-9cbd-5f5195446675"},"vehicle_type_id":"4","last_reported":1741684276,"current_range_meters":8000,"station_id":"ce4bhn92rcd13ifvqgrg","pricing_plan_id":"cebpf4jnsgd1na2vs0mg"},{"bike_id":"1903ec43-b9f5-43f2-8e9d-88de6c1f7933","system_id":"levelo_inurba_marseille","lat":43.24175,"lon":5.39718,"is_reserved":false,"is_disabled":false,"rental_uris":{"android":"levelo://app?vid=1903ec43-b9f5-43f2-8e9d-88de6c1f7933","ios":"levelo://app?vid=1903ec43-b9f5-43f2-8e9d-88de6c1f7933"},"vehicle_type_id":"4","last_reported":1741684276,"current_range_meters":8000,"station_id":"ce4bhn12rcd13ifvqgpg","pricing_plan_id":"cebpf4jnsgd1na2vs0mg"},{"bike_id":"ff7e6dc6-f1cc-47c3-86cc-e5a81f654d05","system_id":"levelo_inurba_marseille","lat":43.29231,"lon":5.36086,"is_reserved":false,"is_disabled":false,"rental_uris":{"android":"levelo://app?vid=ff7e6dc6-f1cc-47c3-86cc-e5a81f654d05","ios":"levelo://app?vid=ff7e6dc6-f1cc-47c3-86cc-e5a81f654d05"},"vehicle_type_id":"4","last_reported":1741684276,"current_range_meters":8000,"station_id":"ce4bhbh2rcd13ifvqeqg","pricing_plan_id":"cebpf4jnsgd1na2vs0mg"},{"bike_id":"ddee1647-1456-4503-bfaf-1db97fd5eadb","system_id":"levelo_inurba_marseille","lat":43.29759,"lon":5.371,"is_reserved":false,"is_disabled":false,"rental_uris":{"android":"levelo://app?vid=ddee1647-1456-4503-bfaf-1db97fd5eadb","ios":"levelo://app?vid=ddee1647-1456-4503-bfaf-1db97fd5eadb"},"vehicle_type_id":"4","last_reported":1741684276,"current_range_meters":8400,"station_id":"ce4bgop2rcd13ifvqc1g","pricing_plan_id":"cebpf4jnsgd1na2vs0mg"},{"bike_id":"51adcbf7-cc40-40b2-a2e5-10a977595c60","system_id":"levelo_inurba_marseille","lat":43.26684,"lon":5.38268,"is_reserved":false,"is_disabled":false,"rental_uris":{"android":"levelo://app?vid=51adcbf7-cc40-40b2-a2e5-10a977595c60","ios":"levelo://app?vid=51adcbf7-cc40-40b2-a2e5-10a977595c60"},"vehicle_type_id":"4","last_reported":1741684276,"current_range_meters":8400,"station_id":"ce4bhg92rcd13ifvqf90","pricing_plan_id":"cebpf4jnsgd1na2vs0mg"},{"bike_id":"4fc4fa40-ac99-447f-9a0e-511503fd1b8b","system_id":"levelo_inurba_marseille","lat":43.29065,"lon":5.38365,"is_reserved":false,"is_disabled":false,"rental_uris":{"android":"levelo://app?vid=4fc4fa40-ac99-447f-9a0e-511503fd1b8b","ios":"levelo://app?vid=4fc4fa40-ac99-447f-9a0e-511503fd1b8b"},"vehicle_type_id":"4","last_reported":1741684276,"current_range_meters":8400,"station_id":"","pricing_plan_id":"cebpf4jnsgd1na2vs0mg"},{"bike_id":"6a797f92-bae2-44c1-be08-e609627e4329","system_id":"levelo_inurba_marseille","lat":43.296187,"lon":5.378575,"is_reserved":false,"is_disabled":false,"rental_uris":{"android":"levelo://app?vid=6a797f92-bae2-44c1-be08-e609627e4329","ios":"levelo://app?vid=6a797f92-bae2-44c1-be08-e609627e4329"},"vehicle_type_id":"4","last_reported":1741684276,"current_range_meters":8400,"station_id":"ce4bhb92rcd13ifvqen0","pricing_plan_id":"cebpf4jnsgd1na2vs0mg"},{"bike_id":"ee1df33c-3439-44c7-bbf5-060e77a42202","system_id":"levelo_inurba_marseille","lat":43.24079,"lon":5.37754,"is_reserved":false,"is_disabled":false,"rental_uris":{"android":"levelo://app?vid=ee1df33c-3439-44c7-bbf5-060e77a42202","ios":"levelo://app?vid=ee1df33c-3439-44c7-bbf5-060e77a42202"},"vehicle_type_id":"4","last_reported":1741684276,"current_range_meters":8400,"station_id":"ce4bhnp2rcd13ifvqgvg","pricing_plan_id":"cebpf4jnsgd1na2vs0mg"},{"bike_id":"8dc02748-fd0d-499c-9998-f2d0ad394b1a","system_id":"levelo_inurba_marseille","lat":43.29225,"lon":5.36081,"is_reserved":false,"is_disabled":false,"rental_uris":{"android":"levelo://app?vid=8dc02748-fd0d-499c-9998-f2d0ad394b1a","ios":"levelo://app?vid=8dc02748-fd0d-499c-9998-f2d0ad394b1a"},"vehicle_type_id":"4","last_reported":1741684276,"current_range_meters":8400,"station_id":"ce4bhbh2rcd13ifvqeqg","pricing_plan_id":"cebpf4jnsgd1na2vs0mg"},{"bike_id":"ad9885b8-46bd-41dc-b0e6-4f15bcb85518","system_id":"levelo_inurba_marseille","lat":43.31094,"lon":5.42431,"is_reserved":false,"is_disabled":false,"rental_uris":{"android":"levelo://app?vid=ad9885b8-46bd-41dc-b0e6-4f15bcb85518","ios":"levelo://app?vid=ad9885b8-46bd-41dc-b0e6-4f15bcb85518"},"vehicle_type_id":"4","last_reported":1741684276,"current_range_meters":8400,"station_id":"ce4bhp92rcd13ifvqhag","pricing_plan_id":"cebpf4jnsgd1na2vs0mg"},{"bike_id":"121171ad-f770-40f1-b831-4e91162b1f9d","system_id":"levelo_inurba_marseille","lat":43.28351,"lon":5.38136,"is_reserved":false,"is_disabled":false,"rental_uris":{"android":"levelo://app?vid=121171ad-f770-40f1-b831-4e91162b1f9d","ios":"levelo://app?vid=121171ad-f770-40f1-b831-4e91162b1f9d"},"vehicle_type_id":"4","last_reported":1741684276,"current_range_meters":8400,"station_id":"ce4bh412rcd13ifvqdr0","pricing_plan_id":"cebpf4jnsgd1na2vs0mg"},{"bike_id":"bfe8d041-b5b1-4782-b6f5-24dc03c310e6","system_id":"levelo_inurba_marseille","lat":43.30145,"lon":5.38109,"is_reserved":false,"is_disabled":false,"rental_uris":{"android":"levelo://app?vid=bfe8d041-b5b1-4782-b6f5-24dc03c310e6","ios":"levelo://app?vid=bfe8d041-b5b1-4782-b6f5-24dc03c310e6"},"vehicle_type_id":"4","last_reported":1741684276,"current_range_meters":8800,"station_id":"ce4bgjp2rcd13ifvqbh0","pricing_plan_id":"cebpf4jnsgd1na2vs0mg"},{"bike_id":"787941c7-68e4-4a9e-b1f1-d3bf469258e1","system_id":"levelo_inurba_marseille","lat":43.24167,"lon":5.39712,"is_reserved":false,"is_disabled":false,"rental_uris":{"android":"levelo://app?vid=787941c7-68e4-4a9e-b1f1-d3bf469258e1","ios":"levelo://app?vid=787941c7-68e4-4a9e-b1f1-d3bf469258e1"},"vehicle_type_id":"4","last_reported":1741684276,"current_range_meters":8800,"station_id":"ce4bhn12rcd13ifvqgpg","pricing_plan_id":"cebpf4jnsgd1na2vs0mg"},{"bike_id":"7e98c5d5-d16b-4dd3-9c13-6de9d9266f74","system_id":"levelo_inurba_marseille","lat":43.30931,"lon":5.39008,"is_reserved":false,"is_disabled":false,"rental_uris":{"android":"levelo://app?vid=7e98c5d5-d16b-4dd3-9c13-6de9d9266f74","ios":"levelo://app?vid=7e98c5d5-d16b-4dd3-9c13-6de9d9266f74"},"vehicle_type_id":"4","last_reported":1741684276,"current_range_meters":8800,"station_id":"ce4bgup2rcd13ifvqco0","pricing_plan_id":"cebpf4jnsgd1na2vs0mg"},{"bike_id":"20c1e358-1c7f-4912-9588-5a74dcb84090","system_id":"levelo_inurba_marseille","lat":43.25003,"lon":5.38926,"is_reserved":false,"is_disabled":false,"rental_uris":{"android":"levelo://app?vid=20c1e358-1c7f-4912-9588-5a74dcb84090","ios":"levelo://app?vid=20c1e358-1c7f-4912-9588-5a74dcb84090"},"vehicle_type_id":"4","last_reported":1741684276,"current_range_meters":8800,"station_id":"ce4bhgp2rcd13ifvqfd0","pricing_plan_id":"cebpf4jnsgd1na2vs0mg"},{"bike_id":"10a93a3f-eec1-4069-9dee-564bf5e0d5e9","system_id":"levelo_inurba_marseille","lat":43.2751,"lon":5.42478,"is_reserved":false,"is_disabled":false,"rental_uris":{"android":"levelo://app?vid=10a93a3f-eec1-4069-9dee-564bf5e0d5e9","ios":"levelo://app?vid=10a93a3f-eec1-4069-9dee-564bf5e0d5e9"},"vehicle_type_id":"4","last_reported":1741684276,"current_range_meters":8800,"station_id":"ce4bhn92rcd13ifvqgrg","pricing_plan_id":"cebpf4jnsgd1na2vs0mg"},{"bike_id":"09bbb690-af86-458c-bbad-70d10e2033ee","system_id":"levelo_inurba_marseille","lat":43.23078,"lon":5.35505,"is_reserved":false,"is_disabled":false,"rental_uris":{"android":"levelo://app?vid=09bbb690-af86-458c-bbad-70d10e2033ee","ios":"levelo://app?vid=09bbb690-af86-458c-bbad-70d10e2033ee"},"vehicle_type_id":"4","last_reported":1741684276,"current_range_meters":8800,"station_id":"cpo3342slgdg3j2ifvpg","pricing_plan_id":"cebpf4jnsgd1na2vs0mg"},{"bike_id":"639ebcb9-d9a7-47f0-8ae2-ba7d475eb4ed","system_id":"levelo_inurba_marseille","lat":43.29807,"lon":5.38104,"is_reserved":false,"is_disabled":false,"rental_uris":{"android":"levelo://app?vid=639ebcb9-d9a7-47f0-8ae2-ba7d475eb4ed","ios":"levelo://app?vid=639ebcb9-d9a7-47f0-8ae2-ba7d475eb4ed"},"vehicle_type_id":"4","last_reported":1741684276,"current_range_meters":8800,"station_id":"ce4bgip2rcd13ifvqbb0","pricing_plan_id":"cebpf4jnsgd1na2vs0mg"},{"bike_id":"9fc042b1-ba36-492c-980d-1bd31e8d0406","system_id":"levelo_inurba_marseille","lat":43.2594,"lon":5.40897,"is_reserved":false,"is_disabled":false,"rental_uris":{"android":"levelo://app?vid=9fc042b1-ba36-492c-980d-1bd31e8d0406","ios":"levelo://app?vid=9fc042b1-ba36-492c-980d-1bd31e8d0406"},"vehicle_type_id":"4","last_reported":1741684276,"current_range_meters":8800,"station_id":"ce4bhm92rcd13ifvqglg","pricing_plan_id":"cebpf4jnsgd1na2vs0mg"},{"bike_id":"e6bfedde-b8d3-483f-9c12-e45beb87d7c9","system_id":"levelo_inurba_marseille","lat":43.23174,"lon":5.43717,"is_reserved":false,"is_disabled":false,"rental_uris":{"android":"levelo://app?vid=e6bfedde-b8d3-483f-9c12-e45beb87d7c9","ios":"levelo://app?vid=e6bfedde-b8d3-483f-9c12-e45beb87d7c9"},"vehicle_type_id":"4","last_reported":1741684276,"current_range_meters":8800,"station_id":"ce4bhmp2rcd13ifvqgog","pricing_plan_id":"cebpf4jnsgd1na2vs0mg"},{"bike_id":"51772d6c-c0b3-48d9-81cb-ae5466e6f822","system_id":"levelo_inurba_marseille","lat":43.23144,"lon":5.43724,"is_reserved":false,"is_disabled":false,"rental_uris":{"android":"levelo://app?vid=51772d6c-c0b3-48d9-81cb-ae5466e6f822","ios":"levelo://app?vid=51772d6c-c0b3-48d9-81cb-ae5466e6f822"},"vehicle_type_id":"4","last_reported":1741684276,"current_range_meters":8800,"station_id":"ce4bhmp2rcd13ifvqgog","pricing_plan_id":"cebpf4jnsgd1na2vs0mg"},{"bike_id":"acc1658b-7ea3-44a5-a65b-40f1faa0438d","system_id":"levelo_inurba_marseille","lat":43.325338,"lon":5.414571,"is_reserved":false,"is_disabled":false,"rental_uris":{"android":"levelo://app?vid=acc1658b-7ea3-44a5-a65b-40f1faa0438d","ios":"levelo://app?vid=acc1658b-7ea3-44a5-a65b-40f1faa0438d"},"vehicle_type_id":"4","last_reported":1741684276,"current_range_meters":9200,"station_id":"ce4bhq12rcd13ifvqhhg","pricing_plan_id":"cebpf4jnsgd1na2vs0mg"},{"bike_id":"a7284538-656e-44f3-ad7d-14543f4d3b4f","system_id":"levelo_inurba_marseille","lat":43.25577,"lon":5.38234,"is_reserved":false,"is_disabled":false,"rental_uris":{"android":"levelo://app?vid=a7284538-656e-44f3-ad7d-14543f4d3b4f","ios":"levelo://app?vid=a7284538-656e-44f3-ad7d-14543f4d3b4f"},"vehicle_type_id":"4","last_reported":1741684276,"current_range_meters":9200,"station_id":"ce4bhih2rcd13ifvqfs0","pricing_plan_id":"cebpf4jnsgd1na2vs0mg"},{"bike_id":"9ec7e908-b0df-42ed-8d89-ffbf02b65291","system_id":"levelo_inurba_marseille","lat":43.23156,"lon":5.43707,"is_reserved":false,"is_disabled":false,"rental_uris":{"android":"levelo://app?vid=9ec7e908-b0df-42ed-8d89-ffbf02b65291","ios":"levelo://app?vid=9ec7e908-b0df-42ed-8d89-ffbf02b65291"},"vehicle_type_id":"4","last_reported":1741684276,"current_range_meters":9200,"station_id":"ce4bhmp2rcd13ifvqgog","pricing_plan_id":"cebpf4jnsgd1na2vs0mg"},{"bike_id":"1920f354-c4b5-4d1a-bc6f-aba0c6cd151e","system_id":"levelo_inurba_marseille","lat":43.27832,"lon":5.40694,"is_reserved":false,"is_disabled":false,"rental_uris":{"android":"levelo://app?vid=1920f354-c4b5-4d1a-bc6f-aba0c6cd151e","ios":"levelo://app?vid=1920f354-c4b5-4d1a-bc6f-aba0c6cd151e"},"vehicle_type_id":"4","last_reported":1741684276,"current_range_meters":9200,"station_id":"ce4bhnh2rcd13ifvqgtg","pricing_plan_id":"cebpf4jnsgd1na2vs0mg"},{"bike_id":"8dc2c2dc-de0f-4fd2-b739-faf253fff5e5","system_id":"levelo_inurba_marseille","lat":43.23161,"lon":5.43723,"is_reserved":false,"is_disabled":false,"rental_uris":{"android":"levelo://app?vid=8dc2c2dc-de0f-4fd2-b739-faf253fff5e5","ios":"levelo://app?vid=8dc2c2dc-de0f-4fd2-b739-faf253fff5e5"},"vehicle_type_id":"4","last_reported":1741684276,"current_range_meters":9200,"station_id":"ce4bhmp2rcd13ifvqgog","pricing_plan_id":"cebpf4jnsgd1na2vs0mg"},{"bike_id":"807236cd-1adc-4863-bee9-bb21fbd25854","system_id":"levelo_inurba_marseille","lat":43.28457,"lon":5.35878,"is_reserved":false,"is_disabled":false,"rental_uris":{"android":"levelo://app?vid=807236cd-1adc-4863-bee9-bb21fbd25854","ios":"levelo://app?vid=807236cd-1adc-4863-bee9-bb21fbd25854"},"vehicle_type_id":"4","last_reported":1741684276,"current_range_meters":9200,"station_id":"ce4bhah2rcd13ifvqei0","pricing_plan_id":"cebpf4jnsgd1na2vs0mg"},{"bike_id":"80771939-f406-42f7-81c5-33180fd8a338","system_id":"levelo_inurba_marseille","lat":43.23189,"lon":5.35545,"is_reserved":false,"is_disabled":false,"rental_uris":{"android":"levelo://app?vid=80771939-f406-42f7-81c5-33180fd8a338","ios":"levelo://app?vid=80771939-f406-42f7-81c5-33180fd8a338"},"vehicle_type_id":"4","last_reported":1741684276,"current_range_meters":9200,"station_id":"ce4bhu92rcd13ifvqi70","pricing_plan_id":"cebpf4jnsgd1na2vs0mg"},{"bike_id":"2aee716a-3c4c-466c-84b8-e6a21c99288e","system_id":"levelo_inurba_marseille","lat":43.29523,"lon":5.37532,"is_reserved":false,"is_disabled":false,"rental_uris":{"android":"levelo://app?vid=2aee716a-3c4c-466c-84b8-e6a21c99288e","ios":"levelo://app?vid=2aee716a-3c4c-466c-84b8-e6a21c99288e"},"vehicle_type_id":"4","last_reported":1741684276,"current_range_meters":9200,"station_id":"ce4bgkp2rcd13ifvqbmg","pricing_plan_id":"cebpf4jnsgd1na2vs0mg"},{"bike_id":"ae8af7b7-c05b-4384-9261-7a9f39e0a5b5","system_id":"levelo_inurba_marseille","lat":43.32477,"lon":5.36584,"is_reserved":false,"is_disabled":false,"rental_uris":{"android":"levelo://app?vid=ae8af7b7-c05b-4384-9261-7a9f39e0a5b5","ios":"levelo://app?vid=ae8af7b7-c05b-4384-9261-7a9f39e0a5b5"},"vehicle_type_id":"4","last_reported":1741684276,"current_range_meters":9200,"station_id":"ce4bhs12rcd13ifvqhvg","pricing_plan_id":"cebpf4jnsgd1na2vs0mg"},{"bike_id":"d8a08524-68eb-4ea2-9817-725f7d1839a6","system_id":"levelo_inurba_marseille","lat":43.309596,"lon":5.390384,"is_reserved":false,"is_disabled":false,"rental_uris":{"android":"levelo://app?vid=d8a08524-68eb-4ea2-9817-725f7d1839a6","ios":"levelo://app?vid=d8a08524-68eb-4ea2-9817-725f7d1839a6"},"vehicle_type_id":"4","last_reported":1741684276,"current_range_meters":9200,"station_id":"ce4bgup2rcd13ifvqco0","pricing_plan_id":"cebpf4jnsgd1na2vs0mg"},{"bike_id":"9d530a38-5346-4a7a-b618-285f3b2f5903","system_id":"levelo_inurba_marseille","lat":43.26561,"lon":5.39015,"is_reserved":false,"is_disabled":false,"rental_uris":{"android":"levelo://app?vid=9d530a38-5346-4a7a-b618-285f3b2f5903","ios":"levelo://app?vid=9d530a38-5346-4a7a-b618-285f3b2f5903"},"vehicle_type_id":"4","last_reported":1741684276,"current_range_meters":9600,"station_id":"ce4bhe12rcd13ifvqf30","pricing_plan_id":"cebpf4jnsgd1na2vs0mg"},{"bike_id":"c30a5f55-cc1b-4590-b8ef-3b9f2512cc45","system_id":"levelo_inurba_marseille","lat":43.26055,"lon":5.39397,"is_reserved":false,"is_disabled":false,"rental_uris":{"android":"levelo://app?vid=c30a5f55-cc1b-4590-b8ef-3b9f2512cc45","ios":"levelo://app?vid=c30a5f55-cc1b-4590-b8ef-3b9f2512cc45"},"vehicle_type_id":"4","last_reported":1741684276,"current_range_meters":9600,"station_id":"ce4bhh92rcd13ifvqfj0","pricing_plan_id":"cebpf4jnsgd1na2vs0mg"},{"bike_id":"becd39d3-f5e3-4be9-9165-ebb87c8ec59e","system_id":"levelo_inurba_marseille","lat":43.24077,"lon":5.37756,"is_reserved":false,"is_disabled":false,"rental_uris":{"android":"levelo://app?vid=becd39d3-f5e3-4be9-9165-ebb87c8ec59e","ios":"levelo://app?vid=becd39d3-f5e3-4be9-9165-ebb87c8ec59e"},"vehicle_type_id":"4","last_reported":1741684276,"current_range_meters":9600,"station_id":"ce4bhnp2rcd13ifvqgvg","pricing_plan_id":"cebpf4jnsgd1na2vs0mg"},{"bike_id":"5c2aa1ed-67ce-4ac7-a122-1eabfecc0b35","system_id":"levelo_inurba_marseille","lat":43.32102,"lon":5.36792,"is_reserved":false,"is_disabled":false,"rental_uris":{"android":"levelo://app?vid=5c2aa1ed-67ce-4ac7-a122-1eabfecc0b35","ios":"levelo://app?vid=5c2aa1ed-67ce-4ac7-a122-1eabfecc0b35"},"vehicle_type_id":"4","last_reported":1741684276,"current_range_meters":9600,"station_id":"ce4bhrh2rcd13ifvqhug","pricing_plan_id":"cebpf4jnsgd1na2vs0mg"},{"bike_id":"801b4269-feea-46f5-8279-a9fcce5a9f18","system_id":"levelo_inurba_marseille","lat":43.31176,"lon":5.38725,"is_reserved":false,"is_disabled":false,"rental_uris":{"android":"levelo://app?vid=801b4269-feea-46f5-8279-a9fcce5a9f18","ios":"levelo://app?vid=801b4269-feea-46f5-8279-a9fcce5a9f18"},"vehicle_type_id":"4","last_reported":1741684276,"current_range_meters":9600,"station_id":"ce4bgv12rcd13ifvqcp0","pricing_plan_id":"cebpf4jnsgd1na2vs0mg"},{"bike_id":"863e6216-6fe0-42c9-b78d-574b7877db2b","system_id":"levelo_inurba_marseille","lat":43.29606,"lon":5.38105,"is_reserved":false,"is_disabled":false,"rental_uris":{"android":"levelo://app?vid=863e6216-6fe0-42c9-b78d-574b7877db2b","ios":"levelo://app?vid=863e6216-6fe0-42c9-b78d-574b7877db2b"},"vehicle_type_id":"4","last_reported":1741684276,"current_range_meters":10000,"station_id":"ce4bh3p2rcd13ifvqdq0","pricing_plan_id":"cebpf4jnsgd1na2vs0mg"},{"bike_id":"27459785-4edf-4f27-b842-1984a62c6dde","system_id":"levelo_inurba_marseille","lat":43.25092,"lon":5.39516,"is_reserved":false,"is_disabled":false,"rental_uris":{"android":"levelo://app?vid=27459785-4edf-4f27-b842-1984a62c6dde","ios":"levelo://app?vid=27459785-4edf-4f27-b842-1984a62c6dde"},"vehicle_type_id":"4","last_reported":1741684276,"current_range_meters":9600,"station_id":"ce4bhm12rcd13ifvqgkg","pricing_plan_id":"cebpf4jnsgd1na2vs0mg"},{"bike_id":"c1bda9e2-cfd4-46ef-b129-54b2ad3b2e00","system_id":"levelo_inurba_marseille","lat":43.26947,"lon":5.38639,"is_reserved":false,"is_disabled":false,"rental_uris":{"android":"levelo://app?vid=c1bda9e2-cfd4-46ef-b129-54b2ad3b2e00","ios":"levelo://app?vid=c1bda9e2-cfd4-46ef-b129-54b2ad3b2e00"},"vehicle_type_id":"4","last_reported":1741684276,"current_range_meters":9600,"station_id":"ce4bhh92rcd13ifvqfh0","pricing_plan_id":"cebpf4jnsgd1na2vs0mg"},{"bike_id":"1a8ab441-f02f-439e-9fd3-0bbc0b1b97af","system_id":"levelo_inurba_marseille","lat":43.32546,"lon":5.41434,"is_reserved":false,"is_disabled":false,"rental_uris":{"android":"levelo://app?vid=1a8ab441-f02f-439e-9fd3-0bbc0b1b97af","ios":"levelo://app?vid=1a8ab441-f02f-439e-9fd3-0bbc0b1b97af"},"vehicle_type_id":"4","last_reported":1741684276,"current_range_meters":10000,"station_id":"ce4bhq12rcd13ifvqhhg","pricing_plan_id":"cebpf4jnsgd1na2vs0mg"},{"bike_id":"ffb286e2-62fa-45b6-a590-5e88edf52383","system_id":"levelo_inurba_marseille","lat":43.29292,"lon":5.37459,"is_reserved":false,"is_disabled":false,"rental_uris":{"android":"levelo://app?vid=ffb286e2-62fa-45b6-a590-5e88edf52383","ios":"levelo://app?vid=ffb286e2-62fa-45b6-a590-5e88edf52383"},"vehicle_type_id":"4","last_reported":1741684276,"current_range_meters":10000,"station_id":"ce4bgi12rcd13ifvqb70","pricing_plan_id":"cebpf4jnsgd1na2vs0mg"},{"bike_id":"301c8de4-8782-48bb-ba23-25ee745d055a","system_id":"levelo_inurba_marseille","lat":43.26945,"lon":5.38644,"is_reserved":false,"is_disabled":false,"rental_uris":{"android":"levelo://app?vid=301c8de4-8782-48bb-ba23-25ee745d055a","ios":"levelo://app?vid=301c8de4-8782-48bb-ba23-25ee745d055a"},"vehicle_type_id":"4","last_reported":1741684276,"current_range_meters":10000,"station_id":"ce4bhh92rcd13ifvqfh0","pricing_plan_id":"cebpf4jnsgd1na2vs0mg"},{"bike_id":"a6907114-91e5-4406-958d-4b895c3084d0","system_id":"levelo_inurba_marseille","lat":43.29898,"lon":5.43679,"is_reserved":false,"is_disabled":false,"rental_uris":{"android":"levelo://app?vid=a6907114-91e5-4406-958d-4b895c3084d0","ios":"levelo://app?vid=a6907114-91e5-4406-958d-4b895c3084d0"},"vehicle_type_id":"4","last_reported":1741684276,"current_range_meters":10000,"station_id":"ce4bhpp2rcd13ifvqhfg","pricing_plan_id":"cebpf4jnsgd1na2vs0mg"},{"bike_id":"8d3bfa3e-f60c-4623-a3f8-7df16c7f51ac","system_id":"levelo_inurba_marseille","lat":43.30954,"lon":5.39032,"is_reserved":false,"is_disabled":false,"rental_uris":{"android":"levelo://app?vid=8d3bfa3e-f60c-4623-a3f8-7df16c7f51ac","ios":"levelo://app?vid=8d3bfa3e-f60c-4623-a3f8-7df16c7f51ac"},"vehicle_type_id":"4","last_reported":1741684276,"current_range_meters":10000,"station_id":"ce4bgup2rcd13ifvqco0","pricing_plan_id":"cebpf4jnsgd1na2vs0mg"},{"bike_id":"b1501b8e-2ee1-4553-acb1-72f90ec94e26","system_id":"levelo_inurba_marseille","lat":43.29085,"lon":5.38151,"is_reserved":false,"is_disabled":false,"rental_uris":{"android":"levelo://app?vid=b1501b8e-2ee1-4553-acb1-72f90ec94e26","ios":"levelo://app?vid=b1501b8e-2ee1-4553-acb1-72f90ec94e26"},"vehicle_type_id":"4","last_reported":1741684276,"current_range_meters":10000,"station_id":"ce4bh512rcd13ifvqe2g","pricing_plan_id":"cebpf4jnsgd1na2vs0mg"},{"bike_id":"273bd5c8-11b1-4218-b928-f05b9264665f","system_id":"levelo_inurba_marseille","lat":43.27497,"lon":5.4246,"is_reserved":false,"is_disabled":false,"rental_uris":{"android":"levelo://app?vid=273bd5c8-11b1-4218-b928-f05b9264665f","ios":"levelo://app?vid=273bd5c8-11b1-4218-b928-f05b9264665f"},"vehicle_type_id":"4","last_reported":1741684276,"current_range_meters":9600,"station_id":"ce4bhn92rcd13ifvqgrg","pricing_plan_id":"cebpf4jnsgd1na2vs0mg"},{"bike_id":"f8e0aebb-9570-4e43-9f51-19f51db951a0","system_id":"levelo_inurba_marseille","lat":43.265616,"lon":5.390063,"is_reserved":false,"is_disabled":true,"rental_uris":{"android":"levelo://app?vid=f8e0aebb-9570-4e43-9f51-19f51db951a0","ios":"levelo://app?vid=f8e0aebb-9570-4e43-9f51-19f51db951a0"},"vehicle_type_id":"4","last_reported":1741684276,"current_range_meters":10000,"station_id":"ce4bhe12rcd13ifvqf30","pricing_plan_id":"cebpf4jnsgd1na2vs0mg"},{"bike_id":"5642e684-db30-44c5-8b62-bc684f0d10a2","system_id":"levelo_inurba_marseille","lat":43.27497,"lon":5.42465,"is_reserved":false,"is_disabled":false,"rental_uris":{"android":"levelo://app?vid=5642e684-db30-44c5-8b62-bc684f0d10a2","ios":"levelo://app?vid=5642e684-db30-44c5-8b62-bc684f0d10a2"},"vehicle_type_id":"4","last_reported":1741684276,"current_range_meters":10000,"station_id":"ce4bhn92rcd13ifvqgrg","pricing_plan_id":"cebpf4jnsgd1na2vs0mg"},{"bike_id":"847b7ee0-0e84-437d-8853-9e88ceccf4e3","system_id":"levelo_inurba_marseille","lat":43.23154,"lon":5.43709,"is_reserved":false,"is_disabled":false,"rental_uris":{"android":"levelo://app?vid=847b7ee0-0e84-437d-8853-9e88ceccf4e3","ios":"levelo://app?vid=847b7ee0-0e84-437d-8853-9e88ceccf4e3"},"vehicle_type_id":"4","last_reported":1741684276,"current_range_meters":10000,"station_id":"ce4bhmp2rcd13ifvqgog","pricing_plan_id":"cebpf4jnsgd1na2vs0mg"},{"bike_id":"23656674-d6a3-4bae-91f6-7585900000fc","system_id":"levelo_inurba_marseille","lat":43.30959,"lon":5.39043,"is_reserved":false,"is_disabled":false,"rental_uris":{"android":"levelo://app?vid=23656674-d6a3-4bae-91f6-7585900000fc","ios":"levelo://app?vid=23656674-d6a3-4bae-91f6-7585900000fc"},"vehicle_type_id":"4","last_reported":1741684276,"current_range_meters":10000,"station_id":"ce4bgup2rcd13ifvqco0","pricing_plan_id":"cebpf4jnsgd1na2vs0mg"},{"bike_id":"df56eda1-e6ed-4c6f-8a9a-a8e1711b1f72","system_id":"levelo_inurba_marseille","lat":43.25943,"lon":5.40901,"is_reserved":false,"is_disabled":false,"rental_uris":{"android":"levelo://app?vid=df56eda1-e6ed-4c6f-8a9a-a8e1711b1f72","ios":"levelo://app?vid=df56eda1-e6ed-4c6f-8a9a-a8e1711b1f72"},"vehicle_type_id":"4","last_reported":1741684276,"current_range_meters":10000,"station_id":"ce4bhm92rcd13ifvqglg","pricing_plan_id":"cebpf4jnsgd1na2vs0mg"},{"bike_id":"9ec52ed9-9c0e-4e61-a378-5327e3711632","system_id":"levelo_inurba_marseille","lat":43.2473,"lon":5.41151,"is_reserved":false,"is_disabled":false,"rental_uris":{"android":"levelo://app?vid=9ec52ed9-9c0e-4e61-a378-5327e3711632","ios":"levelo://app?vid=9ec52ed9-9c0e-4e61-a378-5327e3711632"},"vehicle_type_id":"4","last_reported":1741684276,"current_range_meters":10000,"station_id":"","pricing_plan_id":"cebpf4jnsgd1na2vs0mg"},{"bike_id":"b9680ac6-d12e-4a12-9dd8-1396db5e067b","system_id":"levelo_inurba_marseille","lat":43.23149,"lon":5.43704,"is_reserved":false,"is_disabled":false,"rental_uris":{"android":"levelo://app?vid=b9680ac6-d12e-4a12-9dd8-1396db5e067b","ios":"levelo://app?vid=b9680ac6-d12e-4a12-9dd8-1396db5e067b"},"vehicle_type_id":"4","last_reported":1741684276,"current_range_meters":10800,"station_id":"ce4bhmp2rcd13ifvqgog","pricing_plan_id":"cebpf4jnsgd1na2vs0mg"},{"bike_id":"2c1fac1b-7deb-4276-b5a7-c1ca47daa5d4","system_id":"levelo_inurba_marseille","lat":43.29615,"lon":5.37163,"is_reserved":false,"is_disabled":false,"rental_uris":{"android":"levelo://app?vid=2c1fac1b-7deb-4276-b5a7-c1ca47daa5d4","ios":"levelo://app?vid=2c1fac1b-7deb-4276-b5a7-c1ca47daa5d4"},"vehicle_type_id":"4","last_reported":1741684276,"current_range_meters":10800,"station_id":"ce4bgnh2rcd13ifvqc0g","pricing_plan_id":"cebpf4jnsgd1na2vs0mg"},{"bike_id":"bfe76b26-4cce-4a8d-8e2e-190cbae21f24","system_id":"levelo_inurba_marseille","lat":43.271818,"lon":5.409854,"is_reserved":false,"is_disabled":false,"rental_uris":{"android":"levelo://app?vid=bfe76b26-4cce-4a8d-8e2e-190cbae21f24","ios":"levelo://app?vid=bfe76b26-4cce-4a8d-8e2e-190cbae21f24"},"vehicle_type_id":"4","last_reported":1741684276,"current_range_meters":10800,"station_id":"ce4bhl12rcd13ifvqgf0","pricing_plan_id":"cebpf4jnsgd1na2vs0mg"},{"bike_id":"33693a23-de93-4370-bba2-a86596247d48","system_id":"levelo_inurba_marseille","lat":43.25013,"lon":5.38934,"is_reserved":false,"is_disabled":false,"rental_uris":{"android":"levelo://app?vid=33693a23-de93-4370-bba2-a86596247d48","ios":"levelo://app?vid=33693a23-de93-4370-bba2-a86596247d48"},"vehicle_type_id":"4","last_reported":1741684276,"current_range_meters":10800,"station_id":"ce4bhgp2rcd13ifvqfd0","pricing_plan_id":"cebpf4jnsgd1na2vs0mg"},{"bike_id":"9283d10b-1d18-4101-9ecc-a44946b9624f","system_id":"levelo_inurba_marseille","lat":43.3135,"lon":5.36709,"is_reserved":false,"is_disabled":false,"rental_uris":{"android":"levelo://app?vid=9283d10b-1d18-4101-9ecc-a44946b9624f","ios":"levelo://app?vid=9283d10b-1d18-4101-9ecc-a44946b9624f"},"vehicle_type_id":"4","last_reported":1741684276,"current_range_meters":10800,"station_id":"ce4bgr92rcd13ifvqc6g","pricing_plan_id":"cebpf4jnsgd1na2vs0mg"},{"bike_id":"89059245-3b8b-486d-b024-20583b4ae4d8","system_id":"levelo_inurba_marseille","lat":43.30291,"lon":5.36932,"is_reserved":false,"is_disabled":false,"rental_uris":{"android":"levelo://app?vid=89059245-3b8b-486d-b024-20583b4ae4d8","ios":"levelo://app?vid=89059245-3b8b-486d-b024-20583b4ae4d8"},"vehicle_type_id":"4","last_reported":1741684276,"current_range_meters":10800,"station_id":"ce4bgqh2rcd13ifvqc5g","pricing_plan_id":"cebpf4jnsgd1na2vs0mg"},{"bike_id":"0d9431e1-f868-427a-acb7-8ddd048ba317","system_id":"levelo_inurba_marseille","lat":43.2984,"lon":5.3627,"is_reserved":false,"is_disabled":false,"rental_uris":{"android":"levelo://app?vid=0d9431e1-f868-427a-acb7-8ddd048ba317","ios":"levelo://app?vid=0d9431e1-f868-427a-acb7-8ddd048ba317"},"vehicle_type_id":"4","last_reported":1741684276,"current_range_meters":10800,"station_id":"ce4bgpp2rcd13ifvqc3g","pricing_plan_id":"cebpf4jnsgd1na2vs0mg"},{"bike_id":"f640465e-8c9e-425a-8e36-08d8d5201bf6","system_id":"levelo_inurba_marseille","lat":43.23208,"lon":5.35555,"is_reserved":false,"is_disabled":false,"rental_uris":{"android":"levelo://app?vid=f640465e-8c9e-425a-8e36-08d8d5201bf6","ios":"levelo://app?vid=f640465e-8c9e-425a-8e36-08d8d5201bf6"},"vehicle_type_id":"4","last_reported":1741684276,"current_range_meters":10800,"station_id":"ce4bhu92rcd13ifvqi70","pricing_plan_id":"cebpf4jnsgd1na2vs0mg"},{"bike_id":"58d1b5b3-d322-4418-97d0-3066ec3d9afc","system_id":"levelo_inurba_marseille","lat":43.23196,"lon":5.35544,"is_reserved":false,"is_disabled":false,"rental_uris":{"android":"levelo://app?vid=58d1b5b3-d322-4418-97d0-3066ec3d9afc","ios":"levelo://app?vid=58d1b5b3-d322-4418-97d0-3066ec3d9afc"},"vehicle_type_id":"4","last_reported":1741684276,"current_range_meters":10800,"station_id":"ce4bhu92rcd13ifvqi70","pricing_plan_id":"cebpf4jnsgd1na2vs0mg"},{"bike_id":"aaa6117f-695a-4870-93d8-ce1ed03dac44","system_id":"levelo_inurba_marseille","lat":43.3056,"lon":5.3653,"is_reserved":false,"is_disabled":true,"rental_uris":{"android":"levelo://app?vid=aaa6117f-695a-4870-93d8-ce1ed03dac44","ios":"levelo://app?vid=aaa6117f-695a-4870-93d8-ce1ed03dac44"},"vehicle_type_id":"4","last_reported":1741684276,"current_range_meters":11200,"station_id":"ce4bgs12rcd13ifvqcag","pricing_plan_id":"cebpf4jnsgd1na2vs0mg"},{"bike_id":"6d44f63a-0b96-41bf-b660-451115d175cf","system_id":"levelo_inurba_marseille","lat":43.25937,"lon":5.40898,"is_reserved":false,"is_disabled":false,"rental_uris":{"android":"levelo://app?vid=6d44f63a-0b96-41bf-b660-451115d175cf","ios":"levelo://app?vid=6d44f63a-0b96-41bf-b660-451115d175cf"},"vehicle_type_id":"4","last_reported":1741684276,"current_range_meters":11200,"station_id":"ce4bhm92rcd13ifvqglg","pricing_plan_id":"cebpf4jnsgd1na2vs0mg"},{"bike_id":"6423918c-790a-4fd7-b29d-6d9df26db5f9","system_id":"levelo_inurba_marseille","lat":43.29426,"lon":5.40898,"is_reserved":false,"is_disabled":false,"rental_uris":{"android":"levelo://app?vid=6423918c-790a-4fd7-b29d-6d9df26db5f9","ios":"levelo://app?vid=6423918c-790a-4fd7-b29d-6d9df26db5f9"},"vehicle_type_id":"4","last_reported":1741684276,"current_range_meters":11200,"station_id":"","pricing_plan_id":"cebpf4jnsgd1na2vs0mg"},{"bike_id":"dbd9c0b2-6080-4cfa-817c-a41dd8fc0a00","system_id":"levelo_inurba_marseille","lat":43.29689,"lon":5.37699,"is_reserved":false,"is_disabled":false,"rental_uris":{"android":"levelo://app?vid=dbd9c0b2-6080-4cfa-817c-a41dd8fc0a00","ios":"levelo://app?vid=dbd9c0b2-6080-4cfa-817c-a41dd8fc0a00"},"vehicle_type_id":"4","last_reported":1741684276,"current_range_meters":11200,"station_id":"ce4bgkh2rcd13ifvqbl0","pricing_plan_id":"cebpf4jnsgd1na2vs0mg"},{"bike_id":"a3e991cd-2936-493d-9fcb-48f77e04aeb1","system_id":"levelo_inurba_marseille","lat":43.3052,"lon":5.36551,"is_reserved":false,"is_disabled":false,"rental_uris":{"android":"levelo://app?vid=a3e991cd-2936-493d-9fcb-48f77e04aeb1","ios":"levelo://app?vid=a3e991cd-2936-493d-9fcb-48f77e04aeb1"},"vehicle_type_id":"4","last_reported":1741684276,"current_range_meters":11600,"station_id":"ce4bgs12rcd13ifvqcag","pricing_plan_id":"cebpf4jnsgd1na2vs0mg"},{"bike_id":"1ee9dbf5-b0e2-4af5-8fd1-f41f66f7bf91","system_id":"levelo_inurba_marseille","lat":43.30812,"lon":5.38157,"is_reserved":false,"is_disabled":false,"rental_uris":{"android":"levelo://app?vid=1ee9dbf5-b0e2-4af5-8fd1-f41f66f7bf91","ios":"levelo://app?vid=1ee9dbf5-b0e2-4af5-8fd1-f41f66f7bf91"},"vehicle_type_id":"4","last_reported":1741684276,"current_range_meters":11600,"station_id":"ce4bgt12rcd13ifvqce0","pricing_plan_id":"cebpf4jnsgd1na2vs0mg"},{"bike_id":"27e318c2-e264-4cfc-9929-f95db0150b20","system_id":"levelo_inurba_marseille","lat":43.25932,"lon":5.4091,"is_reserved":false,"is_disabled":false,"rental_uris":{"android":"levelo://app?vid=27e318c2-e264-4cfc-9929-f95db0150b20","ios":"levelo://app?vid=27e318c2-e264-4cfc-9929-f95db0150b20"},"vehicle_type_id":"4","last_reported":1741684276,"current_range_meters":11600,"station_id":"ce4bhm92rcd13ifvqglg","pricing_plan_id":"cebpf4jnsgd1na2vs0mg"},{"bike_id":"577fc21b-dbcc-468c-a81f-1f45a015cfda","system_id":"levelo_inurba_marseille","lat":43.23147,"lon":5.43675,"is_reserved":false,"is_disabled":false,"rental_uris":{"android":"levelo://app?vid=577fc21b-dbcc-468c-a81f-1f45a015cfda","ios":"levelo://app?vid=577fc21b-dbcc-468c-a81f-1f45a015cfda"},"vehicle_type_id":"4","last_reported":1741684276,"current_range_meters":11600,"station_id":"ce4bhmp2rcd13ifvqgog","pricing_plan_id":"cebpf4jnsgd1na2vs0mg"},{"bike_id":"45e1f0d2-b1a5-473b-ab11-dda8d72e9701","system_id":"levelo_inurba_marseille","lat":43.29571,"lon":5.37519,"is_reserved":false,"is_disabled":false,"rental_uris":{"android":"levelo://app?vid=45e1f0d2-b1a5-473b-ab11-dda8d72e9701","ios":"levelo://app?vid=45e1f0d2-b1a5-473b-ab11-dda8d72e9701"},"vehicle_type_id":"4","last_reported":1741684276,"current_range_meters":11600,"station_id":"ce4bgh92rcd13ifvqb50","pricing_plan_id":"cebpf4jnsgd1na2vs0mg"},{"bike_id":"415e7a31-245d-4ead-9f33-dad092a04302","system_id":"levelo_inurba_marseille","lat":43.23073,"lon":5.35496,"is_reserved":false,"is_disabled":false,"rental_uris":{"android":"levelo://app?vid=415e7a31-245d-4ead-9f33-dad092a04302","ios":"levelo://app?vid=415e7a31-245d-4ead-9f33-dad092a04302"},"vehicle_type_id":"4","last_reported":1741684276,"current_range_meters":12000,"station_id":"cpo3342slgdg3j2ifvpg","pricing_plan_id":"cebpf4jnsgd1na2vs0mg"},{"bike_id":"cdd29a02-0905-4ed7-aa8a-6508ae564de9","system_id":"levelo_inurba_marseille","lat":43.27844,"lon":5.40756,"is_reserved":false,"is_disabled":false,"rental_uris":{"android":"levelo://app?vid=cdd29a02-0905-4ed7-aa8a-6508ae564de9","ios":"levelo://app?vid=cdd29a02-0905-4ed7-aa8a-6508ae564de9"},"vehicle_type_id":"4","last_reported":1741684276,"current_range_meters":12000,"station_id":"ce4bhnh2rcd13ifvqgtg","pricing_plan_id":"cebpf4jnsgd1na2vs0mg"},{"bike_id":"d97b2471-b3fc-41d7-b0dd-67f2a1dff450","system_id":"levelo_inurba_marseille","lat":43.293674,"lon":5.37835,"is_reserved":false,"is_disabled":false,"rental_uris":{"android":"levelo://app?vid=d97b2471-b3fc-41d7-b0dd-67f2a1dff450","ios":"levelo://app?vid=d97b2471-b3fc-41d7-b0dd-67f2a1dff450"},"vehicle_type_id":"4","last_reported":1741684276,"current_range_meters":12000,"station_id":"ce4bgpp2rcd13ifvqc3g","pricing_plan_id":"cebpf4jnsgd1na2vs0mg"},{"bike_id":"9acab34d-76c9-4fd5-bed6-0265a89df8bb","system_id":"levelo_inurba_marseille","lat":43.25729,"lon":5.41077,"is_reserved":false,"is_disabled":false,"rental_uris":{"android":"levelo://app?vid=9acab34d-76c9-4fd5-bed6-0265a89df8bb","ios":"levelo://app?vid=9acab34d-76c9-4fd5-bed6-0265a89df8bb"},"vehicle_type_id":"4","last_reported":1741684276,"current_range_meters":12000,"station_id":"ce4bhkp2rcd13ifvqgd0","pricing_plan_id":"cebpf4jnsgd1na2vs0mg"},{"bike_id":"b5dd2d38-0bed-4de0-a7f1-31aa94f278e3","system_id":"levelo_inurba_marseille","lat":43.26581,"lon":5.39041,"is_reserved":false,"is_disabled":false,"rental_uris":{"android":"levelo://app?vid=b5dd2d38-0bed-4de0-a7f1-31aa94f278e3","ios":"levelo://app?vid=b5dd2d38-0bed-4de0-a7f1-31aa94f278e3"},"vehicle_type_id":"4","last_reported":1741684276,"current_range_meters":12000,"station_id":"ce4bhe12rcd13ifvqf30","pricing_plan_id":"cebpf4jnsgd1na2vs0mg"},{"bike_id":"02ccda15-ca98-4f66-a5ee-609c485d624e","system_id":"levelo_inurba_marseille","lat":43.23962,"lon":5.36628,"is_reserved":false,"is_disabled":false,"rental_uris":{"android":"levelo://app?vid=02ccda15-ca98-4f66-a5ee-609c485d624e","ios":"levelo://app?vid=02ccda15-ca98-4f66-a5ee-609c485d624e"},"vehicle_type_id":"4","last_reported":1741684276,"current_range_meters":12000,"station_id":"ce4bhi12rcd13ifvqfp0","pricing_plan_id":"cebpf4jnsgd1na2vs0mg"},{"bike_id":"31fe666b-4d10-46d0-b2ee-25c9d00ec515","system_id":"levelo_inurba_marseille","lat":43.24648,"lon":5.38909,"is_reserved":false,"is_disabled":false,"rental_uris":{"android":"levelo://app?vid=31fe666b-4d10-46d0-b2ee-25c9d00ec515","ios":"levelo://app?vid=31fe666b-4d10-46d0-b2ee-25c9d00ec515"},"vehicle_type_id":"4","last_reported":1741684276,"current_range_meters":12000,"station_id":"ce4bhg12rcd13ifvqf60","pricing_plan_id":"cebpf4jnsgd1na2vs0mg"},{"bike_id":"602d068b-17ec-4c43-a941-51f4b635d1bf","system_id":"levelo_inurba_marseille","lat":43.25933,"lon":5.40909,"is_reserved":false,"is_disabled":false,"rental_uris":{"android":"levelo://app?vid=602d068b-17ec-4c43-a941-51f4b635d1bf","ios":"levelo://app?vid=602d068b-17ec-4c43-a941-51f4b635d1bf"},"vehicle_type_id":"4","last_reported":1741684276,"current_range_meters":12000,"station_id":"ce4bhm92rcd13ifvqglg","pricing_plan_id":"cebpf4jnsgd1na2vs0mg"},{"bike_id":"491953a4-4fe5-4896-9868-5607d38c6662","system_id":"levelo_inurba_marseille","lat":43.24656,"lon":5.38895,"is_reserved":false,"is_disabled":false,"rental_uris":{"android":"levelo://app?vid=491953a4-4fe5-4896-9868-5607d38c6662","ios":"levelo://app?vid=491953a4-4fe5-4896-9868-5607d38c6662"},"vehicle_type_id":"4","last_reported":1741684276,"current_range_meters":11600,"station_id":"ce4bhg12rcd13ifvqf60","pricing_plan_id":"cebpf4jnsgd1na2vs0mg"},{"bike_id":"6bf2a12c-8e2e-4305-995a-5ba524d947aa","system_id":"levelo_inurba_marseille","lat":43.31688,"lon":5.4047,"is_reserved":false,"is_disabled":false,"rental_uris":{"android":"levelo://app?vid=6bf2a12c-8e2e-4305-995a-5ba524d947aa","ios":"levelo://app?vid=6bf2a12c-8e2e-4305-995a-5ba524d947aa"},"vehicle_type_id":"4","last_reported":1741684276,"current_range_meters":12000,"station_id":"ce4bh012rcd13ifvqd00","pricing_plan_id":"cebpf4jnsgd1na2vs0mg"},{"bike_id":"23ac169e-f280-4a7a-a122-4806f7d50a6f","system_id":"levelo_inurba_marseille","lat":43.2455,"lon":5.3952,"is_reserved":false,"is_disabled":false,"rental_uris":{"android":"levelo://app?vid=23ac169e-f280-4a7a-a122-4806f7d50a6f","ios":"levelo://app?vid=23ac169e-f280-4a7a-a122-4806f7d50a6f"},"vehicle_type_id":"4","last_reported":1741684276,"current_range_meters":12000,"station_id":"ce4bhlp2rcd13ifvqgjg","pricing_plan_id":"cebpf4jnsgd1na2vs0mg"},{"bike_id":"8b556025-3745-4f27-aabf-c177ed11b29c","system_id":"levelo_inurba_marseille","lat":43.2962,"lon":5.37145,"is_reserved":false,"is_disabled":false,"rental_uris":{"android":"levelo://app?vid=8b556025-3745-4f27-aabf-c177ed11b29c","ios":"levelo://app?vid=8b556025-3745-4f27-aabf-c177ed11b29c"},"vehicle_type_id":"4","last_reported":1741684276,"current_range_meters":12000,"station_id":"ce4bgnh2rcd13ifvqc0g","pricing_plan_id":"cebpf4jnsgd1na2vs0mg"},{"bike_id":"2307b9a2-3eec-4ec4-8600-1d354d88887c","system_id":"levelo_inurba_marseille","lat":43.29382,"lon":5.37856,"is_reserved":false,"is_disabled":false,"rental_uris":{"android":"levelo://app?vid=2307b9a2-3eec-4ec4-8600-1d354d88887c","ios":"levelo://app?vid=2307b9a2-3eec-4ec4-8600-1d354d88887c"},"vehicle_type_id":"4","last_reported":1741684276,"current_range_meters":12400,"station_id":"ce4bgjh2rcd13ifvqbf0","pricing_plan_id":"cebpf4jnsgd1na2vs0mg"},{"bike_id":"fcbf8782-a849-4763-93c7-fc2f970c471e","system_id":"levelo_inurba_marseille","lat":43.3095,"lon":5.39036,"is_reserved":false,"is_disabled":false,"rental_uris":{"android":"levelo://app?vid=fcbf8782-a849-4763-93c7-fc2f970c471e","ios":"levelo://app?vid=fcbf8782-a849-4763-93c7-fc2f970c471e"},"vehicle_type_id":"4","last_reported":1741684276,"current_range_meters":12400,"station_id":"ce4bgup2rcd13ifvqco0","pricing_plan_id":"cebpf4jnsgd1na2vs0mg"},{"bike_id":"346fb289-79af-4845-b397-c3ba6c0f27c9","system_id":"levelo_inurba_marseille","lat":43.29707,"lon":5.36615,"is_reserved":false,"is_disabled":false,"rental_uris":{"android":"levelo://app?vid=346fb289-79af-4845-b397-c3ba6c0f27c9","ios":"levelo://app?vid=346fb289-79af-4845-b397-c3ba6c0f27c9"},"vehicle_type_id":"4","last_reported":1741684276,"current_range_meters":12400,"station_id":"ce4bgn12rcd13ifvqbt0","pricing_plan_id":"cebpf4jnsgd1na2vs0mg"},{"bike_id":"adbda3f8-bf28-42b6-b199-11ee1a621649","system_id":"levelo_inurba_marseille","lat":43.33767,"lon":5.37417,"is_reserved":false,"is_disabled":false,"rental_uris":{"android":"levelo://app?vid=adbda3f8-bf28-42b6-b199-11ee1a621649","ios":"levelo://app?vid=adbda3f8-bf28-42b6-b199-11ee1a621649"},"vehicle_type_id":"4","last_reported":1741684276,"current_range_meters":12400,"station_id":"","pricing_plan_id":"cebpf4jnsgd1na2vs0mg"},{"bike_id":"d2fb46e0-e2b4-4c51-811d-22794158f078","system_id":"levelo_inurba_marseille","lat":43.29854,"lon":5.39762,"is_reserved":false,"is_disabled":true,"rental_uris":{"android":"levelo://app?vid=d2fb46e0-e2b4-4c51-811d-22794158f078","ios":"levelo://app?vid=d2fb46e0-e2b4-4c51-811d-22794158f078"},"vehicle_type_id":"4","last_reported":1741684276,"current_range_meters":12400,"station_id":"ce4bh0h2rcd13ifvqd50","pricing_plan_id":"cebpf4jnsgd1na2vs0mg"},{"bike_id":"aac30127-a1e3-4c73-9272-f3afaf1d3a7f","system_id":"levelo_inurba_marseille","lat":43.24079,"lon":5.3773,"is_reserved":false,"is_disabled":false,"rental_uris":{"android":"levelo://app?vid=aac30127-a1e3-4c73-9272-f3afaf1d3a7f","ios":"levelo://app?vid=aac30127-a1e3-4c73-9272-f3afaf1d3a7f"},"vehicle_type_id":"4","last_reported":1741684276,"current_range_meters":12400,"station_id":"ce4bhnp2rcd13ifvqgvg","pricing_plan_id":"cebpf4jnsgd1na2vs0mg"},{"bike_id":"3e37f03c-e5a4-4e97-951f-7786bb1c3928","system_id":"levelo_inurba_marseille","lat":43.23153,"lon":5.43726,"is_reserved":false,"is_disabled":false,"rental_uris":{"android":"levelo://app?vid=3e37f03c-e5a4-4e97-951f-7786bb1c3928","ios":"levelo://app?vid=3e37f03c-e5a4-4e97-951f-7786bb1c3928"},"vehicle_type_id":"4","last_reported":1741684276,"current_range_meters":12400,"station_id":"ce4bhmp2rcd13ifvqgog","pricing_plan_id":"cebpf4jnsgd1na2vs0mg"},{"bike_id":"34d2662f-9bc9-4083-b2d5-7c63275b5a44","system_id":"levelo_inurba_marseille","lat":43.24076,"lon":5.37762,"is_reserved":false,"is_disabled":false,"rental_uris":{"android":"levelo://app?vid=34d2662f-9bc9-4083-b2d5-7c63275b5a44","ios":"levelo://app?vid=34d2662f-9bc9-4083-b2d5-7c63275b5a44"},"vehicle_type_id":"4","last_reported":1741684276,"current_range_meters":12400,"station_id":"ce4bhnp2rcd13ifvqgvg","pricing_plan_id":"cebpf4jnsgd1na2vs0mg"},{"bike_id":"1e0ddd91-f000-49ad-b5c8-18c32daa31e7","system_id":"levelo_inurba_marseille","lat":43.30917,"lon":5.36854,"is_reserved":false,"is_disabled":false,"rental_uris":{"android":"levelo://app?vid=1e0ddd91-f000-49ad-b5c8-18c32daa31e7","ios":"levelo://app?vid=1e0ddd91-f000-49ad-b5c8-18c32daa31e7"},"vehicle_type_id":"4","last_reported":1741684276,"current_range_meters":12400,"station_id":"ce4bgn92rcd13ifvqbvg","pricing_plan_id":"cebpf4jnsgd1na2vs0mg"},{"bike_id":"5398703d-01ce-45ef-86ac-c2aee641b140","system_id":"levelo_inurba_marseille","lat":43.272,"lon":5.39181,"is_reserved":false,"is_disabled":false,"rental_uris":{"android":"levelo://app?vid=5398703d-01ce-45ef-86ac-c2aee641b140","ios":"levelo://app?vid=5398703d-01ce-45ef-86ac-c2aee641b140"},"vehicle_type_id":"4","last_reported":1741684276,"current_range_meters":12400,"station_id":"ce4bhhp2rcd13ifvqfm0","pricing_plan_id":"cebpf4jnsgd1na2vs0mg"},{"bike_id":"2167c054-9e8b-4b99-9bdf-41f5e2ac86e0","system_id":"levelo_inurba_marseille","lat":43.32484,"lon":5.36573,"is_reserved":false,"is_disabled":false,"rental_uris":{"android":"levelo://app?vid=2167c054-9e8b-4b99-9bdf-41f5e2ac86e0","ios":"levelo://app?vid=2167c054-9e8b-4b99-9bdf-41f5e2ac86e0"},"vehicle_type_id":"4","last_reported":1741684276,"current_range_meters":12800,"station_id":"ce4bhs12rcd13ifvqhvg","pricing_plan_id":"cebpf4jnsgd1na2vs0mg"},{"bike_id":"2931d81f-abb3-45b8-9224-dc3fce2fae31","system_id":"levelo_inurba_marseille","lat":43.32361,"lon":5.36759,"is_reserved":false,"is_disabled":false,"rental_uris":{"android":"levelo://app?vid=2931d81f-abb3-45b8-9224-dc3fce2fae31","ios":"levelo://app?vid=2931d81f-abb3-45b8-9224-dc3fce2fae31"},"vehicle_type_id":"4","last_reported":1741684276,"current_range_meters":12800,"station_id":"ce4bhsh2rcd13ifvqi2g","pricing_plan_id":"cebpf4jnsgd1na2vs0mg"},{"bike_id":"716492ae-81b6-4ed5-8177-f4759b370b67","system_id":"levelo_inurba_marseille","lat":43.28148,"lon":5.42632,"is_reserved":false,"is_disabled":false,"rental_uris":{"android":"levelo://app?vid=716492ae-81b6-4ed5-8177-f4759b370b67","ios":"levelo://app?vid=716492ae-81b6-4ed5-8177-f4759b370b67"},"vehicle_type_id":"4","last_reported":1741684276,"current_range_meters":12800,"station_id":"ce4bhnh2rcd13ifvqgug","pricing_plan_id":"cebpf4jnsgd1na2vs0mg"},{"bike_id":"99d458d5-9d42-4927-a08f-ec4384c9275b","system_id":"levelo_inurba_marseille","lat":43.3095,"lon":5.39035,"is_reserved":false,"is_disabled":false,"rental_uris":{"android":"levelo://app?vid=99d458d5-9d42-4927-a08f-ec4384c9275b","ios":"levelo://app?vid=99d458d5-9d42-4927-a08f-ec4384c9275b"},"vehicle_type_id":"4","last_reported":1741684276,"current_range_meters":11200,"station_id":"ce4bgup2rcd13ifvqco0","pricing_plan_id":"cebpf4jnsgd1na2vs0mg"},{"bike_id":"7f58d9e5-acbe-40df-8048-40fec1830ecf","system_id":"levelo_inurba_marseille","lat":43.32474,"lon":5.36578,"is_reserved":false,"is_disabled":false,"rental_uris":{"android":"levelo://app?vid=7f58d9e5-acbe-40df-8048-40fec1830ecf","ios":"levelo://app?vid=7f58d9e5-acbe-40df-8048-40fec1830ecf"},"vehicle_type_id":"4","last_reported":1741684276,"current_range_meters":13600,"station_id":"ce4bhs12rcd13ifvqhvg","pricing_plan_id":"cebpf4jnsgd1na2vs0mg"},{"bike_id":"ab2cb916-a63e-4220-a885-c7e999377ee5","system_id":"levelo_inurba_marseille","lat":43.29278,"lon":5.36852,"is_reserved":false,"is_disabled":false,"rental_uris":{"android":"levelo://app?vid=ab2cb916-a63e-4220-a885-c7e999377ee5","ios":"levelo://app?vid=ab2cb916-a63e-4220-a885-c7e999377ee5"},"vehicle_type_id":"4","last_reported":1741684276,"current_range_meters":13600,"station_id":"ce4bhbp2rcd13ifvqesg","pricing_plan_id":"cebpf4jnsgd1na2vs0mg"},{"bike_id":"41f961de-067c-48ce-af3b-611892bf4388","system_id":"levelo_inurba_marseille","lat":43.31367,"lon":5.36733,"is_reserved":false,"is_disabled":false,"rental_uris":{"android":"levelo://app?vid=41f961de-067c-48ce-af3b-611892bf4388","ios":"levelo://app?vid=41f961de-067c-48ce-af3b-611892bf4388"},"vehicle_type_id":"4","last_reported":1741684276,"current_range_meters":13600,"station_id":"ce4bgr92rcd13ifvqc6g","pricing_plan_id":"cebpf4jnsgd1na2vs0mg"},{"bike_id":"7efac877-4bac-4d33-81c2-5e8339d415d6","system_id":"levelo_inurba_marseille","lat":43.31365,"lon":5.36713,"is_reserved":false,"is_disabled":false,"rental_uris":{"android":"levelo://app?vid=7efac877-4bac-4d33-81c2-5e8339d415d6","ios":"levelo://app?vid=7efac877-4bac-4d33-81c2-5e8339d415d6"},"vehicle_type_id":"4","last_reported":1741684276,"current_range_meters":14000,"station_id":"ce4bgr92rcd13ifvqc6g","pricing_plan_id":"cebpf4jnsgd1na2vs0mg"},{"bike_id":"2cdec81d-2593-4153-a426-2f527f1b29e2","system_id":"levelo_inurba_marseille","lat":43.23595,"lon":5.391,"is_reserved":false,"is_disabled":false,"rental_uris":{"android":"levelo://app?vid=2cdec81d-2593-4153-a426-2f527f1b29e2","ios":"levelo://app?vid=2cdec81d-2593-4153-a426-2f527f1b29e2"},"vehicle_type_id":"4","last_reported":1741684276,"current_range_meters":14000,"station_id":"","pricing_plan_id":"cebpf4jnsgd1na2vs0mg"},{"bike_id":"69af4c50-9077-436a-8c73-2ffdc4c386f1","system_id":"levelo_inurba_marseille","lat":43.24174,"lon":5.39732,"is_reserved":false,"is_disabled":false,"rental_uris":{"android":"levelo://app?vid=69af4c50-9077-436a-8c73-2ffdc4c386f1","ios":"levelo://app?vid=69af4c50-9077-436a-8c73-2ffdc4c386f1"},"vehicle_type_id":"4","last_reported":1741684276,"current_range_meters":14000,"station_id":"ce4bhn12rcd13ifvqgpg","pricing_plan_id":"cebpf4jnsgd1na2vs0mg"},{"bike_id":"ebdc0adc-86d4-4882-8983-2d6c86413625","system_id":"levelo_inurba_marseille","lat":43.23147,"lon":5.43717,"is_reserved":false,"is_disabled":false,"rental_uris":{"android":"levelo://app?vid=ebdc0adc-86d4-4882-8983-2d6c86413625","ios":"levelo://app?vid=ebdc0adc-86d4-4882-8983-2d6c86413625"},"vehicle_type_id":"4","last_reported":1741684276,"current_range_meters":14000,"station_id":"ce4bhmp2rcd13ifvqgog","pricing_plan_id":"cebpf4jnsgd1na2vs0mg"},{"bike_id":"f3bb8725-4b68-4c77-94ca-e14587dc5a22","system_id":"levelo_inurba_marseille","lat":43.241782,"lon":5.397368,"is_reserved":false,"is_disabled":false,"rental_uris":{"android":"levelo://app?vid=f3bb8725-4b68-4c77-94ca-e14587dc5a22","ios":"levelo://app?vid=f3bb8725-4b68-4c77-94ca-e14587dc5a22"},"vehicle_type_id":"4","last_reported":1741684276,"current_range_meters":14000,"station_id":"ce4bhn12rcd13ifvqgpg","pricing_plan_id":"cebpf4jnsgd1na2vs0mg"},{"bike_id":"d0c6aa16-9a4a-470a-bfa5-c5f4c2159474","system_id":"levelo_inurba_marseille","lat":43.25815,"lon":5.39433,"is_reserved":false,"is_disabled":false,"rental_uris":{"android":"levelo://app?vid=d0c6aa16-9a4a-470a-bfa5-c5f4c2159474","ios":"levelo://app?vid=d0c6aa16-9a4a-470a-bfa5-c5f4c2159474"},"vehicle_type_id":"4","last_reported":1741684276,"current_range_meters":14000,"station_id":"ce4bhip2rcd13ifvqft0","pricing_plan_id":"cebpf4jnsgd1na2vs0mg"},{"bike_id":"9776d519-3376-4f51-aaa3-2da63911d7cc","system_id":"levelo_inurba_marseille","lat":43.25114,"lon":5.39511,"is_reserved":false,"is_disabled":false,"rental_uris":{"android":"levelo://app?vid=9776d519-3376-4f51-aaa3-2da63911d7cc","ios":"levelo://app?vid=9776d519-3376-4f51-aaa3-2da63911d7cc"},"vehicle_type_id":"4","last_reported":1741684276,"current_range_meters":14400,"station_id":"ce4bhm12rcd13ifvqgkg","pricing_plan_id":"cebpf4jnsgd1na2vs0mg"},{"bike_id":"85feaa69-281c-4532-9634-3954940480cf","system_id":"levelo_inurba_marseille","lat":43.26708,"lon":5.38293,"is_reserved":false,"is_disabled":true,"rental_uris":{"android":"levelo://app?vid=85feaa69-281c-4532-9634-3954940480cf","ios":"levelo://app?vid=85feaa69-281c-4532-9634-3954940480cf"},"vehicle_type_id":"4","last_reported":1741684276,"current_range_meters":14400,"station_id":"ce4bhg92rcd13ifvqf90","pricing_plan_id":"cebpf4jnsgd1na2vs0mg"},{"bike_id":"8e517124-4992-44de-86f2-acd52ad37c73","system_id":"levelo_inurba_marseille","lat":43.30533,"lon":5.36698,"is_reserved":false,"is_disabled":false,"rental_uris":{"android":"levelo://app?vid=8e517124-4992-44de-86f2-acd52ad37c73","ios":"levelo://app?vid=8e517124-4992-44de-86f2-acd52ad37c73"},"vehicle_type_id":"4","last_reported":1741684276,"current_range_meters":14400,"station_id":"ce4bgrp2rcd13ifvqc9g","pricing_plan_id":"cebpf4jnsgd1na2vs0mg"},{"bike_id":"21a98077-97a5-4182-b1fc-3570e927fac1","system_id":"levelo_inurba_marseille","lat":43.25829,"lon":5.39414,"is_reserved":false,"is_disabled":false,"rental_uris":{"android":"levelo://app?vid=21a98077-97a5-4182-b1fc-3570e927fac1","ios":"levelo://app?vid=21a98077-97a5-4182-b1fc-3570e927fac1"},"vehicle_type_id":"4","last_reported":1741684276,"current_range_meters":14400,"station_id":"ce4bhip2rcd13ifvqft0","pricing_plan_id":"cebpf4jnsgd1na2vs0mg"},{"bike_id":"262ed5cd-dcd3-4df4-8953-e5f7601271d9","system_id":"levelo_inurba_marseille","lat":43.25107,"lon":5.40323,"is_reserved":false,"is_disabled":false,"rental_uris":{"android":"levelo://app?vid=262ed5cd-dcd3-4df4-8953-e5f7601271d9","ios":"levelo://app?vid=262ed5cd-dcd3-4df4-8953-e5f7601271d9"},"vehicle_type_id":"4","last_reported":1741684276,"current_range_meters":14800,"station_id":"ce4bhlh2rcd13ifvqgig","pricing_plan_id":"cebpf4jnsgd1na2vs0mg"},{"bike_id":"a4fac8e6-a059-4371-8e6f-2d6b74f7acb4","system_id":"levelo_inurba_marseille","lat":43.29305,"lon":5.37183,"is_reserved":false,"is_disabled":false,"rental_uris":{"android":"levelo://app?vid=a4fac8e6-a059-4371-8e6f-2d6b74f7acb4","ios":"levelo://app?vid=a4fac8e6-a059-4371-8e6f-2d6b74f7acb4"},"vehicle_type_id":"4","last_reported":1741684276,"current_range_meters":14800,"station_id":"ce4bgh92rcd13ifvqb40","pricing_plan_id":"cebpf4jnsgd1na2vs0mg"},{"bike_id":"745774de-fcde-4ad7-a451-5e776c96f75c","system_id":"levelo_inurba_marseille","lat":43.30948,"lon":5.39028,"is_reserved":false,"is_disabled":false,"rental_uris":{"android":"levelo://app?vid=745774de-fcde-4ad7-a451-5e776c96f75c","ios":"levelo://app?vid=745774de-fcde-4ad7-a451-5e776c96f75c"},"vehicle_type_id":"4","last_reported":1741684276,"current_range_meters":14800,"station_id":"ce4bgup2rcd13ifvqco0","pricing_plan_id":"cebpf4jnsgd1na2vs0mg"},{"bike_id":"d65655c6-b767-4d94-8ca7-0cdd29548d84","system_id":"levelo_inurba_marseille","lat":43.27515,"lon":5.42468,"is_reserved":false,"is_disabled":false,"rental_uris":{"android":"levelo://app?vid=d65655c6-b767-4d94-8ca7-0cdd29548d84","ios":"levelo://app?vid=d65655c6-b767-4d94-8ca7-0cdd29548d84"},"vehicle_type_id":"4","last_reported":1741684276,"current_range_meters":12400,"station_id":"ce4bhn92rcd13ifvqgrg","pricing_plan_id":"cebpf4jnsgd1na2vs0mg"},{"bike_id":"02672eb4-7881-450b-8fc9-e2c5980815b8","system_id":"levelo_inurba_marseille","lat":43.24075,"lon":5.37792,"is_reserved":false,"is_disabled":false,"rental_uris":{"android":"levelo://app?vid=02672eb4-7881-450b-8fc9-e2c5980815b8","ios":"levelo://app?vid=02672eb4-7881-450b-8fc9-e2c5980815b8"},"vehicle_type_id":"4","last_reported":1741684276,"current_range_meters":14800,"station_id":"ce4bhnp2rcd13ifvqgvg","pricing_plan_id":"cebpf4jnsgd1na2vs0mg"},{"bike_id":"4bfcd54c-0c6d-46de-b866-38b1631266ea","system_id":"levelo_inurba_marseille","lat":43.32553,"lon":5.41436,"is_reserved":false,"is_disabled":false,"rental_uris":{"android":"levelo://app?vid=4bfcd54c-0c6d-46de-b866-38b1631266ea","ios":"levelo://app?vid=4bfcd54c-0c6d-46de-b866-38b1631266ea"},"vehicle_type_id":"4","last_reported":1741684276,"current_range_meters":14800,"station_id":"ce4bhq12rcd13ifvqhhg","pricing_plan_id":"cebpf4jnsgd1na2vs0mg"},{"bike_id":"987f57cb-56a3-4c4f-8b37-b0bd8fd56709","system_id":"levelo_inurba_marseille","lat":43.316668,"lon":5.389976,"is_reserved":false,"is_disabled":false,"rental_uris":{"android":"levelo://app?vid=987f57cb-56a3-4c4f-8b37-b0bd8fd56709","ios":"levelo://app?vid=987f57cb-56a3-4c4f-8b37-b0bd8fd56709"},"vehicle_type_id":"4","last_reported":1741684276,"current_range_meters":14800,"station_id":"ce4bhqp2rcd13ifvqhng","pricing_plan_id":"cebpf4jnsgd1na2vs0mg"},{"bike_id":"a60756e4-2849-4155-a38a-d73c68cfdb00","system_id":"levelo_inurba_marseille","lat":43.29383,"lon":5.3785,"is_reserved":false,"is_disabled":false,"rental_uris":{"android":"levelo://app?vid=a60756e4-2849-4155-a38a-d73c68cfdb00","ios":"levelo://app?vid=a60756e4-2849-4155-a38a-d73c68cfdb00"},"vehicle_type_id":"4","last_reported":1741684276,"current_range_meters":15200,"station_id":"ce4bgjh2rcd13ifvqbf0","pricing_plan_id":"cebpf4jnsgd1na2vs0mg"},{"bike_id":"c51f4b89-6d6a-4283-8e0f-0262aef0b482","system_id":"levelo_inurba_marseille","lat":43.29594,"lon":5.38103,"is_reserved":false,"is_disabled":true,"rental_uris":{"android":"levelo://app?vid=c51f4b89-6d6a-4283-8e0f-0262aef0b482","ios":"levelo://app?vid=c51f4b89-6d6a-4283-8e0f-0262aef0b482"},"vehicle_type_id":"4","last_reported":1741684276,"current_range_meters":15200,"station_id":"ce4bgl12rcd13ifvqbo0","pricing_plan_id":"cebpf4jnsgd1na2vs0mg"},{"bike_id":"64380add-2319-48e1-b676-3f4acc0c3114","system_id":"levelo_inurba_marseille","lat":43.27997,"lon":5.41662,"is_reserved":false,"is_disabled":false,"rental_uris":{"android":"levelo://app?vid=64380add-2319-48e1-b676-3f4acc0c3114","ios":"levelo://app?vid=64380add-2319-48e1-b676-3f4acc0c3114"},"vehicle_type_id":"4","last_reported":1741684276,"current_range_meters":15200,"station_id":"ce4bho12rcd13ifvqh1g","pricing_plan_id":"cebpf4jnsgd1na2vs0mg"},{"bike_id":"c1fdf776-5ff6-4f38-96ad-d3bee4a7cebb","system_id":"levelo_inurba_marseille","lat":43.23145,"lon":5.43715,"is_reserved":false,"is_disabled":false,"rental_uris":{"android":"levelo://app?vid=c1fdf776-5ff6-4f38-96ad-d3bee4a7cebb","ios":"levelo://app?vid=c1fdf776-5ff6-4f38-96ad-d3bee4a7cebb"},"vehicle_type_id":"4","last_reported":1741684276,"current_range_meters":15200,"station_id":"ce4bhmp2rcd13ifvqgog","pricing_plan_id":"cebpf4jnsgd1na2vs0mg"},{"bike_id":"b4a0f766-3481-4a2f-88ab-bf050ea28608","system_id":"levelo_inurba_marseille","lat":43.29098,"lon":5.38006,"is_reserved":false,"is_disabled":false,"rental_uris":{"android":"levelo://app?vid=b4a0f766-3481-4a2f-88ab-bf050ea28608","ios":"levelo://app?vid=b4a0f766-3481-4a2f-88ab-bf050ea28608"},"vehicle_type_id":"4","last_reported":1741684276,"current_range_meters":15200,"station_id":"ce4bhqp2rcd13ifvqhng","pricing_plan_id":"cebpf4jnsgd1na2vs0mg"},{"bike_id":"81ebf633-21c8-4fe1-a0ef-3e4784ba4330","system_id":"levelo_inurba_marseille","lat":43.28197,"lon":5.40261,"is_reserved":false,"is_disabled":false,"rental_uris":{"android":"levelo://app?vid=81ebf633-21c8-4fe1-a0ef-3e4784ba4330","ios":"levelo://app?vid=81ebf633-21c8-4fe1-a0ef-3e4784ba4330"},"vehicle_type_id":"4","last_reported":1741684276,"current_range_meters":15200,"station_id":"","pricing_plan_id":"cebpf4jnsgd1na2vs0mg"},{"bike_id":"a268dcbc-ddd2-4b2c-89cc-fbb307910755","system_id":"levelo_inurba_marseille","lat":43.30484,"lon":5.3791,"is_reserved":false,"is_disabled":false,"rental_uris":{"android":"levelo://app?vid=a268dcbc-ddd2-4b2c-89cc-fbb307910755","ios":"levelo://app?vid=a268dcbc-ddd2-4b2c-89cc-fbb307910755"},"vehicle_type_id":"4","last_reported":1741684276,"current_range_meters":15200,"station_id":"ce4bgup2rcd13ifvqcn0","pricing_plan_id":"cebpf4jnsgd1na2vs0mg"},{"bike_id":"9f5ffd05-b2c4-4285-a079-6e0cf794377b","system_id":"levelo_inurba_marseille","lat":43.3031,"lon":5.36898,"is_reserved":false,"is_disabled":false,"rental_uris":{"android":"levelo://app?vid=9f5ffd05-b2c4-4285-a079-6e0cf794377b","ios":"levelo://app?vid=9f5ffd05-b2c4-4285-a079-6e0cf794377b"},"vehicle_type_id":"4","last_reported":1741684276,"current_range_meters":15200,"station_id":"ce4bgqh2rcd13ifvqc5g","pricing_plan_id":"cebpf4jnsgd1na2vs0mg"},{"bike_id":"ab133eb8-7645-481b-8d68-7b7e97d89317","system_id":"levelo_inurba_marseille","lat":43.24082,"lon":5.37757,"is_reserved":false,"is_disabled":false,"rental_uris":{"android":"levelo://app?vid=ab133eb8-7645-481b-8d68-7b7e97d89317","ios":"levelo://app?vid=ab133eb8-7645-481b-8d68-7b7e97d89317"},"vehicle_type_id":"4","last_reported":1741684276,"current_range_meters":16000,"station_id":"ce4bhnp2rcd13ifvqgvg","pricing_plan_id":"cebpf4jnsgd1na2vs0mg"},{"bike_id":"c012cb5d-cc6c-48db-8d04-a321ffc6e266","system_id":"levelo_inurba_marseille","lat":43.30528,"lon":5.36698,"is_reserved":false,"is_disabled":false,"rental_uris":{"android":"levelo://app?vid=c012cb5d-cc6c-48db-8d04-a321ffc6e266","ios":"levelo://app?vid=c012cb5d-cc6c-48db-8d04-a321ffc6e266"},"vehicle_type_id":"4","last_reported":1741684276,"current_range_meters":16000,"station_id":"ce4bgrp2rcd13ifvqc9g","pricing_plan_id":"cebpf4jnsgd1na2vs0mg"},{"bike_id":"0755bdbc-0f44-48cb-b443-efca9fcfcc79","system_id":"levelo_inurba_marseille","lat":43.23179,"lon":5.43708,"is_reserved":false,"is_disabled":false,"rental_uris":{"android":"levelo://app?vid=0755bdbc-0f44-48cb-b443-efca9fcfcc79","ios":"levelo://app?vid=0755bdbc-0f44-48cb-b443-efca9fcfcc79"},"vehicle_type_id":"4","last_reported":1741684276,"current_range_meters":16000,"station_id":"ce4bhmp2rcd13ifvqgog","pricing_plan_id":"cebpf4jnsgd1na2vs0mg"},{"bike_id":"90e4636f-5acf-4803-a3ed-f0ba6d29d559","system_id":"levelo_inurba_marseille","lat":43.30416,"lon":5.38903,"is_reserved":false,"is_disabled":true,"rental_uris":{"android":"levelo://app?vid=90e4636f-5acf-4803-a3ed-f0ba6d29d559","ios":"levelo://app?vid=90e4636f-5acf-4803-a3ed-f0ba6d29d559"},"vehicle_type_id":"4","last_reported":1741684276,"current_range_meters":16000,"station_id":"ce4bgk12rcd13ifvqbi0","pricing_plan_id":"cebpf4jnsgd1na2vs0mg"},{"bike_id":"37e6d503-9d47-4d9d-a3fc-9e83bcf4b4a1","system_id":"levelo_inurba_marseille","lat":43.29305,"lon":5.37459,"is_reserved":false,"is_disabled":false,"rental_uris":{"android":"levelo://app?vid=37e6d503-9d47-4d9d-a3fc-9e83bcf4b4a1","ios":"levelo://app?vid=37e6d503-9d47-4d9d-a3fc-9e83bcf4b4a1"},"vehicle_type_id":"4","last_reported":1741684276,"current_range_meters":16000,"station_id":"ce4bgi12rcd13ifvqb70","pricing_plan_id":"cebpf4jnsgd1na2vs0mg"},{"bike_id":"1d29006d-4d43-4a57-a6a2-1b55f406bf4a","system_id":"levelo_inurba_marseille","lat":43.30561,"lon":5.36729,"is_reserved":false,"is_disabled":false,"rental_uris":{"android":"levelo://app?vid=1d29006d-4d43-4a57-a6a2-1b55f406bf4a","ios":"levelo://app?vid=1d29006d-4d43-4a57-a6a2-1b55f406bf4a"},"vehicle_type_id":"4","last_reported":1741684276,"current_range_meters":16000,"station_id":"ce4bgrp2rcd13ifvqc9g","pricing_plan_id":"cebpf4jnsgd1na2vs0mg"},{"bike_id":"1885d2da-d9fd-4384-a976-48c98d5bae46","system_id":"levelo_inurba_marseille","lat":43.27517,"lon":5.42457,"is_reserved":false,"is_disabled":false,"rental_uris":{"android":"levelo://app?vid=1885d2da-d9fd-4384-a976-48c98d5bae46","ios":"levelo://app?vid=1885d2da-d9fd-4384-a976-48c98d5bae46"},"vehicle_type_id":"4","last_reported":1741684276,"current_range_meters":16000,"station_id":"ce4bhn92rcd13ifvqgrg","pricing_plan_id":"cebpf4jnsgd1na2vs0mg"},{"bike_id":"28ddcdf4-024a-4f42-80ff-fb3bac3f5f61","system_id":"levelo_inurba_marseille","lat":43.24168,"lon":5.36382,"is_reserved":false,"is_disabled":false,"rental_uris":{"android":"levelo://app?vid=28ddcdf4-024a-4f42-80ff-fb3bac3f5f61","ios":"levelo://app?vid=28ddcdf4-024a-4f42-80ff-fb3bac3f5f61"},"vehicle_type_id":"4","last_reported":1741684276,"current_range_meters":16400,"station_id":"cpo36qri1sfpv3e86is0","pricing_plan_id":"cebpf4jnsgd1na2vs0mg"},{"bike_id":"0c65e6ca-7494-49e4-9cfc-2bac04035b1d","system_id":"levelo_inurba_marseille","lat":43.28845,"lon":5.40014,"is_reserved":false,"is_disabled":true,"rental_uris":{"android":"levelo://app?vid=0c65e6ca-7494-49e4-9cfc-2bac04035b1d","ios":"levelo://app?vid=0c65e6ca-7494-49e4-9cfc-2bac04035b1d"},"vehicle_type_id":"4","last_reported":1741684276,"current_range_meters":16400,"station_id":"ce4bho92rcd13ifvqh3g","pricing_plan_id":"cebpf4jnsgd1na2vs0mg"},{"bike_id":"17b872eb-086c-460e-bcad-782a4a781cf9","system_id":"levelo_inurba_marseille","lat":43.25137,"lon":5.42721,"is_reserved":false,"is_disabled":false,"rental_uris":{"android":"levelo://app?vid=17b872eb-086c-460e-bcad-782a4a781cf9","ios":"levelo://app?vid=17b872eb-086c-460e-bcad-782a4a781cf9"},"vehicle_type_id":"4","last_reported":1741684276,"current_range_meters":16400,"station_id":"","pricing_plan_id":"cebpf4jnsgd1na2vs0mg"},{"bike_id":"e246a648-b32b-470c-8c3a-0e61d94ed94c","system_id":"levelo_inurba_marseille","lat":43.28862,"lon":5.39342,"is_reserved":false,"is_disabled":true,"rental_uris":{"android":"levelo://app?vid=e246a648-b32b-470c-8c3a-0e61d94ed94c","ios":"levelo://app?vid=e246a648-b32b-470c-8c3a-0e61d94ed94c"},"vehicle_type_id":"4","last_reported":1741684276,"current_range_meters":16400,"station_id":"ce4bh2p2rcd13ifvqdi0","pricing_plan_id":"cebpf4jnsgd1na2vs0mg"},{"bike_id":"bf1fa238-64b6-47da-af78-02e7db9c53de","system_id":"levelo_inurba_marseille","lat":43.31087,"lon":5.42441,"is_reserved":false,"is_disabled":false,"rental_uris":{"android":"levelo://app?vid=bf1fa238-64b6-47da-af78-02e7db9c53de","ios":"levelo://app?vid=bf1fa238-64b6-47da-af78-02e7db9c53de"},"vehicle_type_id":"4","last_reported":1741684276,"current_range_meters":16400,"station_id":"ce4bhp92rcd13ifvqhag","pricing_plan_id":"cebpf4jnsgd1na2vs0mg"},{"bike_id":"e23735d3-f17d-4415-b0db-476c79ec5d41","system_id":"levelo_inurba_marseille","lat":43.24082,"lon":5.37752,"is_reserved":false,"is_disabled":false,"rental_uris":{"android":"levelo://app?vid=e23735d3-f17d-4415-b0db-476c79ec5d41","ios":"levelo://app?vid=e23735d3-f17d-4415-b0db-476c79ec5d41"},"vehicle_type_id":"4","last_reported":1741684276,"current_range_meters":16400,"station_id":"ce4bhnp2rcd13ifvqgvg","pricing_plan_id":"cebpf4jnsgd1na2vs0mg"},{"bike_id":"be04fb7b-49e7-491b-ab49-5893cbae4799","system_id":"levelo_inurba_marseille","lat":43.250085,"lon":5.389195,"is_reserved":false,"is_disabled":false,"rental_uris":{"android":"levelo://app?vid=be04fb7b-49e7-491b-ab49-5893cbae4799","ios":"levelo://app?vid=be04fb7b-49e7-491b-ab49-5893cbae4799"},"vehicle_type_id":"4","last_reported":1741684276,"current_range_meters":16400,"station_id":"ce4bhgp2rcd13ifvqfd0","pricing_plan_id":"cebpf4jnsgd1na2vs0mg"},{"bike_id":"652c282d-7522-46a8-b99a-0b970b5cdd3a","system_id":"levelo_inurba_marseille","lat":43.29574,"lon":5.3996,"is_reserved":false,"is_disabled":true,"rental_uris":{"android":"levelo://app?vid=652c282d-7522-46a8-b99a-0b970b5cdd3a","ios":"levelo://app?vid=652c282d-7522-46a8-b99a-0b970b5cdd3a"},"vehicle_type_id":"4","last_reported":1741684276,"current_range_meters":16400,"station_id":"ce4bh312rcd13ifvqdj0","pricing_plan_id":"cebpf4jnsgd1na2vs0mg"},{"bike_id":"803ea8dd-d180-4e7f-8cac-6164ca1b88ff","system_id":"levelo_inurba_marseille","lat":43.27814,"lon":5.40755,"is_reserved":false,"is_disabled":false,"rental_uris":{"android":"levelo://app?vid=803ea8dd-d180-4e7f-8cac-6164ca1b88ff","ios":"levelo://app?vid=803ea8dd-d180-4e7f-8cac-6164ca1b88ff"},"vehicle_type_id":"4","last_reported":1741684276,"current_range_meters":16400,"station_id":"ce4bhnh2rcd13ifvqgtg","pricing_plan_id":"cebpf4jnsgd1na2vs0mg"},{"bike_id":"03fcef79-f017-4d15-a10d-891c5cd96db2","system_id":"levelo_inurba_marseille","lat":43.230667,"lon":5.354929,"is_reserved":false,"is_disabled":false,"rental_uris":{"android":"levelo://app?vid=03fcef79-f017-4d15-a10d-891c5cd96db2","ios":"levelo://app?vid=03fcef79-f017-4d15-a10d-891c5cd96db2"},"vehicle_type_id":"4","last_reported":1741684276,"current_range_meters":16400,"station_id":"cpo3342slgdg3j2ifvpg","pricing_plan_id":"cebpf4jnsgd1na2vs0mg"},{"bike_id":"f829a819-671e-4b71-9c22-56c5f8047725","system_id":"levelo_inurba_marseille","lat":43.32364,"lon":5.36773,"is_reserved":false,"is_disabled":false,"rental_uris":{"android":"levelo://app?vid=f829a819-671e-4b71-9c22-56c5f8047725","ios":"levelo://app?vid=f829a819-671e-4b71-9c22-56c5f8047725"},"vehicle_type_id":"4","last_reported":1741684276,"current_range_meters":16400,"station_id":"ce4bhsh2rcd13ifvqi2g","pricing_plan_id":"cebpf4jnsgd1na2vs0mg"},{"bike_id":"f7d65875-3334-496a-95a9-c7219ff61e0d","system_id":"levelo_inurba_marseille","lat":43.2985,"lon":5.36282,"is_reserved":false,"is_disabled":false,"rental_uris":{"android":"levelo://app?vid=f7d65875-3334-496a-95a9-c7219ff61e0d","ios":"levelo://app?vid=f7d65875-3334-496a-95a9-c7219ff61e0d"},"vehicle_type_id":"4","last_reported":1741684276,"current_range_meters":16400,"station_id":"ce4bgpp2rcd13ifvqc3g","pricing_plan_id":"cebpf4jnsgd1na2vs0mg"},{"bike_id":"d8f8b9d4-699d-4feb-9a45-c202cb90c6f0","system_id":"levelo_inurba_marseille","lat":43.25082,"lon":5.39511,"is_reserved":false,"is_disabled":false,"rental_uris":{"android":"levelo://app?vid=d8f8b9d4-699d-4feb-9a45-c202cb90c6f0","ios":"levelo://app?vid=d8f8b9d4-699d-4feb-9a45-c202cb90c6f0"},"vehicle_type_id":"4","last_reported":1741684276,"current_range_meters":16400,"station_id":"ce4bhm12rcd13ifvqgkg","pricing_plan_id":"cebpf4jnsgd1na2vs0mg"},{"bike_id":"c6744031-ceb0-4286-96e0-03b89d3ddb4d","system_id":"levelo_inurba_marseille","lat":43.30944,"lon":5.39051,"is_reserved":false,"is_disabled":false,"rental_uris":{"android":"levelo://app?vid=c6744031-ceb0-4286-96e0-03b89d3ddb4d","ios":"levelo://app?vid=c6744031-ceb0-4286-96e0-03b89d3ddb4d"},"vehicle_type_id":"4","last_reported":1741684276,"current_range_meters":16800,"station_id":"ce4bgup2rcd13ifvqco0","pricing_plan_id":"cebpf4jnsgd1na2vs0mg"},{"bike_id":"62b39f31-5911-4811-a38e-4612c47628dd","system_id":"levelo_inurba_marseille","lat":43.25817,"lon":5.39435,"is_reserved":false,"is_disabled":false,"rental_uris":{"android":"levelo://app?vid=62b39f31-5911-4811-a38e-4612c47628dd","ios":"levelo://app?vid=62b39f31-5911-4811-a38e-4612c47628dd"},"vehicle_type_id":"4","last_reported":1741684276,"current_range_meters":17200,"station_id":"ce4bhip2rcd13ifvqft0","pricing_plan_id":"cebpf4jnsgd1na2vs0mg"},{"bike_id":"6047f686-f62e-4792-9107-47ed0ac16c4c","system_id":"levelo_inurba_marseille","lat":43.30534,"lon":5.36721,"is_reserved":false,"is_disabled":false,"rental_uris":{"android":"levelo://app?vid=6047f686-f62e-4792-9107-47ed0ac16c4c","ios":"levelo://app?vid=6047f686-f62e-4792-9107-47ed0ac16c4c"},"vehicle_type_id":"4","last_reported":1741684276,"current_range_meters":16800,"station_id":"ce4bgrp2rcd13ifvqc9g","pricing_plan_id":"cebpf4jnsgd1na2vs0mg"},{"bike_id":"bb6388ec-21b2-40d4-86e4-837e36c85c50","system_id":"levelo_inurba_marseille","lat":43.2417,"lon":5.36413,"is_reserved":false,"is_disabled":false,"rental_uris":{"android":"levelo://app?vid=bb6388ec-21b2-40d4-86e4-837e36c85c50","ios":"levelo://app?vid=bb6388ec-21b2-40d4-86e4-837e36c85c50"},"vehicle_type_id":"4","last_reported":1741684276,"current_range_meters":16800,"station_id":"cpo36qri1sfpv3e86is0","pricing_plan_id":"cebpf4jnsgd1na2vs0mg"},{"bike_id":"bd5feca8-1ca3-4c95-af45-8385699c8354","system_id":"levelo_inurba_marseille","lat":43.2962,"lon":5.37163,"is_reserved":false,"is_disabled":false,"rental_uris":{"android":"levelo://app?vid=bd5feca8-1ca3-4c95-af45-8385699c8354","ios":"levelo://app?vid=bd5feca8-1ca3-4c95-af45-8385699c8354"},"vehicle_type_id":"4","last_reported":1741684276,"current_range_meters":16800,"station_id":"ce4bgnh2rcd13ifvqc0g","pricing_plan_id":"cebpf4jnsgd1na2vs0mg"},{"bike_id":"3ea8914c-4d1e-4908-8e3f-d1ca0cffded0","system_id":"levelo_inurba_marseille","lat":43.25928,"lon":5.40909,"is_reserved":false,"is_disabled":false,"rental_uris":{"android":"levelo://app?vid=3ea8914c-4d1e-4908-8e3f-d1ca0cffded0","ios":"levelo://app?vid=3ea8914c-4d1e-4908-8e3f-d1ca0cffded0"},"vehicle_type_id":"4","last_reported":1741684276,"current_range_meters":16800,"station_id":"ce4bhm92rcd13ifvqglg","pricing_plan_id":"cebpf4jnsgd1na2vs0mg"},{"bike_id":"ef1e8782-a881-4032-bb39-0ec326c73d98","system_id":"levelo_inurba_marseille","lat":43.32476,"lon":5.36569,"is_reserved":false,"is_disabled":false,"rental_uris":{"android":"levelo://app?vid=ef1e8782-a881-4032-bb39-0ec326c73d98","ios":"levelo://app?vid=ef1e8782-a881-4032-bb39-0ec326c73d98"},"vehicle_type_id":"4","last_reported":1741684276,"current_range_meters":16800,"station_id":"ce4bhs12rcd13ifvqhvg","pricing_plan_id":"cebpf4jnsgd1na2vs0mg"},{"bike_id":"5b40fcbb-5339-4d09-8622-7ef474631ab1","system_id":"levelo_inurba_marseille","lat":43.30544,"lon":5.36723,"is_reserved":false,"is_disabled":false,"rental_uris":{"android":"levelo://app?vid=5b40fcbb-5339-4d09-8622-7ef474631ab1","ios":"levelo://app?vid=5b40fcbb-5339-4d09-8622-7ef474631ab1"},"vehicle_type_id":"4","last_reported":1741684276,"current_range_meters":16800,"station_id":"ce4bgrp2rcd13ifvqc9g","pricing_plan_id":"cebpf4jnsgd1na2vs0mg"},{"bike_id":"c90a1d29-abcd-4dc7-b59d-b2aadab8771a","system_id":"levelo_inurba_marseille","lat":43.30304,"lon":5.3688,"is_reserved":false,"is_disabled":false,"rental_uris":{"android":"levelo://app?vid=c90a1d29-abcd-4dc7-b59d-b2aadab8771a","ios":"levelo://app?vid=c90a1d29-abcd-4dc7-b59d-b2aadab8771a"},"vehicle_type_id":"4","last_reported":1741684276,"current_range_meters":16800,"station_id":"ce4bgqh2rcd13ifvqc5g","pricing_plan_id":"cebpf4jnsgd1na2vs0mg"},{"bike_id":"1a54d3c6-53dd-4a39-940e-6536b3ebda3e","system_id":"levelo_inurba_marseille","lat":43.32538,"lon":5.41448,"is_reserved":false,"is_disabled":false,"rental_uris":{"android":"levelo://app?vid=1a54d3c6-53dd-4a39-940e-6536b3ebda3e","ios":"levelo://app?vid=1a54d3c6-53dd-4a39-940e-6536b3ebda3e"},"vehicle_type_id":"4","last_reported":1741684276,"current_range_meters":17200,"station_id":"ce4bhq12rcd13ifvqhhg","pricing_plan_id":"cebpf4jnsgd1na2vs0mg"},{"bike_id":"97a476ec-ebb2-47e9-9d47-3f7832a2c8e6","system_id":"levelo_inurba_marseille","lat":43.29859,"lon":5.36298,"is_reserved":false,"is_disabled":false,"rental_uris":{"android":"levelo://app?vid=97a476ec-ebb2-47e9-9d47-3f7832a2c8e6","ios":"levelo://app?vid=97a476ec-ebb2-47e9-9d47-3f7832a2c8e6"},"vehicle_type_id":"4","last_reported":1741684276,"current_range_meters":17200,"station_id":"ce4bgpp2rcd13ifvqc3g","pricing_plan_id":"cebpf4jnsgd1na2vs0mg"},{"bike_id":"f3b197bc-36e4-4968-b987-704264304381","system_id":"levelo_inurba_marseille","lat":43.27057,"lon":5.40257,"is_reserved":false,"is_disabled":false,"rental_uris":{"android":"levelo://app?vid=f3b197bc-36e4-4968-b987-704264304381","ios":"levelo://app?vid=f3b197bc-36e4-4968-b987-704264304381"},"vehicle_type_id":"4","last_reported":1741684276,"current_range_meters":17200,"station_id":"ce4bhk92rcd13ifvqgc0","pricing_plan_id":"cebpf4jnsgd1na2vs0mg"},{"bike_id":"2e17f9b9-a1bb-4d5c-865d-32cf753f1e5f","system_id":"levelo_inurba_marseille","lat":43.27489,"lon":5.42459,"is_reserved":false,"is_disabled":false,"rental_uris":{"android":"levelo://app?vid=2e17f9b9-a1bb-4d5c-865d-32cf753f1e5f","ios":"levelo://app?vid=2e17f9b9-a1bb-4d5c-865d-32cf753f1e5f"},"vehicle_type_id":"4","last_reported":1741684276,"current_range_meters":17200,"station_id":"ce4bhn92rcd13ifvqgrg","pricing_plan_id":"cebpf4jnsgd1na2vs0mg"},{"bike_id":"2f5a9a6a-d9b3-43b1-9abb-f5abbfff54de","system_id":"levelo_inurba_marseille","lat":43.30954,"lon":5.39053,"is_reserved":false,"is_disabled":false,"rental_uris":{"android":"levelo://app?vid=2f5a9a6a-d9b3-43b1-9abb-f5abbfff54de","ios":"levelo://app?vid=2f5a9a6a-d9b3-43b1-9abb-f5abbfff54de"},"vehicle_type_id":"4","last_reported":1741684276,"current_range_meters":17200,"station_id":"ce4bgup2rcd13ifvqco0","pricing_plan_id":"cebpf4jnsgd1na2vs0mg"},{"bike_id":"8ad85dbe-e75c-44b7-a59f-2827b8a24433","system_id":"levelo_inurba_marseille","lat":43.292216,"lon":5.36059,"is_reserved":false,"is_disabled":false,"rental_uris":{"android":"levelo://app?vid=8ad85dbe-e75c-44b7-a59f-2827b8a24433","ios":"levelo://app?vid=8ad85dbe-e75c-44b7-a59f-2827b8a24433"},"vehicle_type_id":"4","last_reported":1741684276,"current_range_meters":17200,"station_id":"ce4bhbh2rcd13ifvqeqg","pricing_plan_id":"cebpf4jnsgd1na2vs0mg"},{"bike_id":"c4250e82-8c81-4e44-ba6b-37b6bdb4676e","system_id":"levelo_inurba_marseille","lat":43.30545,"lon":5.3671,"is_reserved":false,"is_disabled":false,"rental_uris":{"android":"levelo://app?vid=c4250e82-8c81-4e44-ba6b-37b6bdb4676e","ios":"levelo://app?vid=c4250e82-8c81-4e44-ba6b-37b6bdb4676e"},"vehicle_type_id":"4","last_reported":1741684276,"current_range_meters":17200,"station_id":"ce4bgrp2rcd13ifvqc9g","pricing_plan_id":"cebpf4jnsgd1na2vs0mg"},{"bike_id":"5559a053-7fc7-4b9d-bfdb-281953baff79","system_id":"levelo_inurba_marseille","lat":43.24648,"lon":5.3889,"is_reserved":false,"is_disabled":false,"rental_uris":{"android":"levelo://app?vid=5559a053-7fc7-4b9d-bfdb-281953baff79","ios":"levelo://app?vid=5559a053-7fc7-4b9d-bfdb-281953baff79"},"vehicle_type_id":"4","last_reported":1741684276,"current_range_meters":17200,"station_id":"ce4bhg12rcd13ifvqf60","pricing_plan_id":"cebpf4jnsgd1na2vs0mg"},{"bike_id":"674fe8b8-599b-4e40-873d-2495c87f69c8","system_id":"levelo_inurba_marseille","lat":43.27555,"lon":5.3844,"is_reserved":false,"is_disabled":false,"rental_uris":{"android":"levelo://app?vid=674fe8b8-599b-4e40-873d-2495c87f69c8","ios":"levelo://app?vid=674fe8b8-599b-4e40-873d-2495c87f69c8"},"vehicle_type_id":"4","last_reported":1741684276,"current_range_meters":16800,"station_id":"ce4bhh92rcd13ifvqfi0","pricing_plan_id":"cebpf4jnsgd1na2vs0mg"},{"bike_id":"6f3fdde9-8483-4cac-974d-fe89c4dbd719","system_id":"levelo_inurba_marseille","lat":43.31084,"lon":5.42439,"is_reserved":false,"is_disabled":false,"rental_uris":{"android":"levelo://app?vid=6f3fdde9-8483-4cac-974d-fe89c4dbd719","ios":"levelo://app?vid=6f3fdde9-8483-4cac-974d-fe89c4dbd719"},"vehicle_type_id":"4","last_reported":1741684276,"current_range_meters":17200,"station_id":"ce4bhp92rcd13ifvqhag","pricing_plan_id":"cebpf4jnsgd1na2vs0mg"},{"bike_id":"56cabc3a-9e87-48a3-9537-3b8d1d12a4a4","system_id":"levelo_inurba_marseille","lat":43.27501,"lon":5.42454,"is_reserved":false,"is_disabled":false,"rental_uris":{"android":"levelo://app?vid=56cabc3a-9e87-48a3-9537-3b8d1d12a4a4","ios":"levelo://app?vid=56cabc3a-9e87-48a3-9537-3b8d1d12a4a4"},"vehicle_type_id":"4","last_reported":1741684276,"current_range_meters":17600,"station_id":"ce4bhn92rcd13ifvqgrg","pricing_plan_id":"cebpf4jnsgd1na2vs0mg"},{"bike_id":"a4ce6389-69c8-41eb-a2cb-27e113df5153","system_id":"levelo_inurba_marseille","lat":43.28621,"lon":5.35099,"is_reserved":false,"is_disabled":false,"rental_uris":{"android":"levelo://app?vid=a4ce6389-69c8-41eb-a2cb-27e113df5153","ios":"levelo://app?vid=a4ce6389-69c8-41eb-a2cb-27e113df5153"},"vehicle_type_id":"4","last_reported":1741684276,"current_range_meters":17600,"station_id":"ce4bhch2rcd13ifvqeug","pricing_plan_id":"cebpf4jnsgd1na2vs0mg"},