{"last_updated":1726736983,"ttl":30,"version":"2.2","data":{"bikes":[{"bike_id":"53f85c0f-9bc3-428d-8e67-2607741aa3ee","system_id":"levelo_inurba_marseille","lat":43.32532,"lon":5.41445,"is_reserved":false,"is_disabled":false,"rental_uris":{"android":"levelo://app?vid=53f85c0f-9bc3-428d-8e67-2607741aa3ee","ios":"levelo://app?vid=53f85c0f-9bc3-428d-8e67-2607741aa3ee"},"vehicle_type_id":"4","last_reported":1726736983,"current_range_meters":14000,"station_id":"ce4bhq12rcd13ifvqhhg","pricing_plan_id":"cebpf4jnsgd1na2vs0mg"},{"bike_id":"7254fac7-cb54-45cf-b5c1-7ab5cf195c30","system_id":"levelo_inurba_marseille","lat":43.29294,"lon":5.37451,"is_reserved":false,"is_disabled":false,"rental_uris":{"android":"levelo://app?vid=7254fac7-cb54-45cf-b5c1-7ab5cf195c30","ios":"levelo://app?vid=7254fac7-cb54-45cf-b5c1-7ab5cf195c30"},"vehicle_type_id":"4","last_reported":1726736983,"current_range_meters":15200,"station_id":"ce4bgi12rcd13ifvqb70","pricing_plan_id":"cebpf4jnsgd1na2vs0mg"},{"bike_id":"897a2a90-a513-4bc6-aa39-1ef51f15e559","system_id":"levelo_inurba_marseille","lat":43.2694,"lon":5.38642,"is_reserved":false,"is_disabled":false,"rental_uris":{"android":"levelo://app?vid=897a2a90-a513-4bc6-aa39-1ef51f15e559","ios":"levelo://app?vid=897a2a90-a513-4bc6-aa39-1ef51f15e559"},"vehicle_type_id":"4","last_reported":1726736983,"current_range_meters":28400,"station_id":"ce4bhh92rcd13ifvqfh0","pricing_plan_id":"cebpf4jnsgd1na2vs0mg"},{"bike_id":"270101bb-bd3f-4ff1-ada6-f9cc215e3b46","system_id":"levelo_inurba_marseille","lat":43.29509,"lon":5.375,"is_reserved":false,"is_disabled":false,"rental_uris":{"android":"levelo://app?vid=270101bb-bd3f-4ff1-ada6-f9cc215e3b46","ios":"levelo://app?vid=270101bb-bd3f-4ff1-ada6-f9cc215e3b46"},"vehicle_type_id":"4","last_reported":1726736983,"current_range_meters":8400,"station_id":"ce4bgkp2rcd13ifvqbmg","pricing_plan_id":"cebpf4jnsgd1na2vs0mg"},{"bike_id":"bcd59c70-f502-4da2-a9fc-0250e80dd2d8","system_id":"levelo_inurba_marseille","lat":43.29725,"lon":5.3769,"is_reserved":false,"is_disabled":false,"rental_uris":{"android":"levelo://app?vid=bcd59c70-f502-4da2-a9fc-0250e80dd2d8","ios":"levelo://app?vid=bcd59c70-f502-4da2-a9fc-0250e80dd2d8"},"vehicle_type_id":"4","last_reported":1726736983,"current_range_meters":39200,"station_id":"ce4bgkh2rcd13ifvqbl0","pricing_plan_id":"cebpf4jnsgd1na2vs0mg"},{"bike_id":"20d916b6-22cb-4b5e-8970-14142ae4a1de","system_id":"levelo_inurba_marseille","lat":43.30943,"lon":5.39043,"is_reserved":false,"is_disabled":false,"rental_uris":{"android":"levelo://app?vid=20d916b6-22cb-4b5e-8970-14142ae4a1de","ios":"levelo://app?vid=20d916b6-22cb-4b5e-8970-14142ae4a1de"},"vehicle_type_id":"4","last_reported":1726736983,"current_range_meters":27200,"station_id":"ce4bgup2rcd13ifvqco0","pricing_plan_id":"cebpf4jnsgd1na2vs0mg"},{"bike_id":"d67c1e61-afc2-4146-b9fc-88e137531238","system_id":"levelo_inurba_marseille","lat":43.29546,"lon":5.42284,"is_reserved":false,"is_disabled":false,"rental_uris":{"android":"levelo://app?vid=d67c1e61-afc2-4146-b9fc-88e137531238","ios":"levelo://app?vid=d67c1e61-afc2-4146-b9fc-88e137531238"},"vehicle_type_id":"4","last_reported":1726736983,"current_range_meters":9200,"station_id":"ce4bhph2rcd13ifvqhdg","pricing_plan_id":"cebpf4jnsgd1na2vs0mg"},{"bike_id":"706f489f-123a-4c57-83f7-c2d2263bd906","system_id":"levelo_inurba_marseille","lat":43.34143,"lon":5.40905,"is_reserved":false,"is_disabled":false,"rental_uris":{"android":"levelo://app?vid=706f489f-123a-4c57-83f7-c2d2263bd906","ios":"levelo://app?vid=706f489f-123a-4c57-83f7-c2d2263bd906"},"vehicle_type_id":"4","last_reported":1726736983,"current_range_meters":11600,"station_id":"ce4bhqh2rcd13ifvqhlg","pricing_plan_id":"cebpf4jnsgd1na2vs0mg"},{"bike_id":"70cccf6a-6f9f-43b0-a4d2-80222d66e7df","system_id":"levelo_inurba_marseille","lat":43.33606,"lon":5.41036,"is_reserved":false,"is_disabled":false,"rental_uris":{"android":"levelo://app?vid=70cccf6a-6f9f-43b0-a4d2-80222d66e7df","ios":"levelo://app?vid=70cccf6a-6f9f-43b0-a4d2-80222d66e7df"},"vehicle_type_id":"4","last_reported":1726736983,"current_range_meters":6800,"station_id":"ce4bhqh2rcd13ifvqhmg","pricing_plan_id":"cebpf4jnsgd1na2vs0mg"},{"bike_id":"45c11ef7-b1b5-438a-807c-75b91a2c74f8","system_id":"levelo_inurba_marseille","lat":43.267854,"lon":5.394141,"is_reserved":false,"is_disabled":false,"rental_uris":{"android":"levelo://app?vid=45c11ef7-b1b5-438a-807c-75b91a2c74f8","ios":"levelo://app?vid=45c11ef7-b1b5-438a-807c-75b91a2c74f8"},"vehicle_type_id":"4","last_reported":1726736983,"current_range_meters":24400,"station_id":"ce4bhh12rcd13ifvqfg0","pricing_plan_id":"cebpf4jnsgd1na2vs0mg"},{"bike_id":"6cbf7334-272b-475e-b8aa-f44f29cebaae","system_id":"levelo_inurba_marseille","lat":43.30469,"lon":5.37907,"is_reserved":false,"is_disabled":false,"rental_uris":{"android":"levelo://app?vid=6cbf7334-272b-475e-b8aa-f44f29cebaae","ios":"levelo://app?vid=6cbf7334-272b-475e-b8aa-f44f29cebaae"},"vehicle_type_id":"4","last_reported":1726736983,"current_range_meters":38800,"station_id":"ce4bgup2rcd13ifvqcn0","pricing_plan_id":"cebpf4jnsgd1na2vs0mg"},{"bike_id":"ea518a3b-2ba6-4aef-8e8b-1da3cf82019a","system_id":"levelo_inurba_marseille","lat":43.27496,"lon":5.42454,"is_reserved":false,"is_disabled":false,"rental_uris":{"android":"levelo://app?vid=ea518a3b-2ba6-4aef-8e8b-1da3cf82019a","ios":"levelo://app?vid=ea518a3b-2ba6-4aef-8e8b-1da3cf82019a"},"vehicle_type_id":"4","last_reported":1726736983,"current_range_meters":6400,"station_id":"ce4bhn92rcd13ifvqgrg","pricing_plan_id":"cebpf4jnsgd1na2vs0mg"},{"bike_id":"9a8caa05-259e-4b84-bd68-de2f9c9d3fc6","system_id":"levelo_inurba_marseille","lat":43.30454,"lon":5.37899,"is_reserved":false,"is_disabled":false,"rental_uris":{"android":"levelo://app?vid=9a8caa05-259e-4b84-bd68-de2f9c9d3fc6","ios":"levelo://app?vid=9a8caa05-259e-4b84-bd68-de2f9c9d3fc6"},"vehicle_type_id":"4","last_reported":1726736983,"current_range_meters":14000,"station_id":"ce4bgup2rcd13ifvqcn0","pricing_plan_id":"cebpf4jnsgd1na2vs0mg"},{"bike_id":"e532fd53-ad12-4848-82ea-70ac934c1c37","system_id":"levelo_inurba_marseille","lat":43.33752,"lon":5.37445,"is_reserved":false,"is_disabled":false,"rental_uris":{"android":"levelo://app?vid=e532fd53-ad12-4848-82ea-70ac934c1c37","ios":"levelo://app?vid=e532fd53-ad12-4848-82ea-70ac934c1c37"},"vehicle_type_id":"4","last_reported":1726736983,"current_range_meters":37600,"station_id":"","pricing_plan_id":"cebpf4jnsgd1na2vs0mg"},{"bike_id":"16aff90c-07c9-446e-b8cf-7b04ea13322c","system_id":"levelo_inurba_marseille","lat":43.28152,"lon":5.42635,"is_reserved":false,"is_disabled":false,"rental_uris":{"android":"levelo://app?vid=16aff90c-07c9-446e-b8cf-7b04ea13322c","ios":"levelo://app?vid=16aff90c-07c9-446e-b8cf-7b04ea13322c"},"vehicle_type_id":"4","last_reported":1726736983,"current_range_meters":36000,"station_id":"ce4bhnh2rcd13ifvqgug","pricing_plan_id":"cebpf4jnsgd1na2vs0mg"},{"bike_id":"9a7bef7e-aa27-4b3e-b3a0-16082888faf1","system_id":"levelo_inurba_marseille","lat":43.25926,"lon":5.40911,"is_reserved":false,"is_disabled":false,"rental_uris":{"android":"levelo://app?vid=9a7bef7e-aa27-4b3e-b3a0-16082888faf1","ios":"levelo://app?vid=9a7bef7e-aa27-4b3e-b3a0-16082888faf1"},"vehicle_type_id":"4","last_reported":1726736983,"current_range_meters":35600,"station_id":"ce4bhm92rcd13ifvqglg","pricing_plan_id":"cebpf4jnsgd1na2vs0mg"},{"bike_id":"041c0490-5b08-49a8-8899-604f1c7105c4","system_id":"levelo_inurba_marseille","lat":43.304169,"lon":5.397439,"is_reserved":false,"is_disabled":false,"rental_uris":{"android":"levelo://app?vid=041c0490-5b08-49a8-8899-604f1c7105c4","ios":"levelo://app?vid=041c0490-5b08-49a8-8899-604f1c7105c4"},"vehicle_type_id":"4","last_reported":1726736983,"current_range_meters":38000,"station_id":"ce4bh092rcd13ifvqd20","pricing_plan_id":"cebpf4jnsgd1na2vs0mg"},{"bike_id":"ba671468-6022-443b-8c16-a1ff584a748a","system_id":"levelo_inurba_marseille","lat":43.32477,"lon":5.36576,"is_reserved":false,"is_disabled":false,"rental_uris":{"android":"levelo://app?vid=ba671468-6022-443b-8c16-a1ff584a748a","ios":"levelo://app?vid=ba671468-6022-443b-8c16-a1ff584a748a"},"vehicle_type_id":"4","last_reported":1726736983,"current_range_meters":36000,"station_id":"ce4bhs12rcd13ifvqhvg","pricing_plan_id":"cebpf4jnsgd1na2vs0mg"},{"bike_id":"a48c0f10-3a7a-4fe8-8343-dded0834619f","system_id":"levelo_inurba_marseille","lat":43.2408,"lon":5.3775,"is_reserved":false,"is_disabled":false,"rental_uris":{"android":"levelo://app?vid=a48c0f10-3a7a-4fe8-8343-dded0834619f","ios":"levelo://app?vid=a48c0f10-3a7a-4fe8-8343-dded0834619f"},"vehicle_type_id":"4","last_reported":1726736983,"current_range_meters":14000,"station_id":"ce4bhnp2rcd13ifvqgvg","pricing_plan_id":"cebpf4jnsgd1na2vs0mg"},{"bike_id":"ac9e3561-3b4d-4605-8c14-af14acce3214","system_id":"levelo_inurba_marseille","lat":43.24995,"lon":5.38938,"is_reserved":false,"is_disabled":false,"rental_uris":{"android":"levelo://app?vid=ac9e3561-3b4d-4605-8c14-af14acce3214","ios":"levelo://app?vid=ac9e3561-3b4d-4605-8c14-af14acce3214"},"vehicle_type_id":"4","last_reported":1726736983,"current_range_meters":32000,"station_id":"ce4bhgp2rcd13ifvqfd0","pricing_plan_id":"cebpf4jnsgd1na2vs0mg"},{"bike_id":"d7d44bd6-3589-4710-b211-c1c587d69caf","system_id":"levelo_inurba_marseille","lat":43.30959,"lon":5.39037,"is_reserved":false,"is_disabled":false,"rental_uris":{"android":"levelo://app?vid=d7d44bd6-3589-4710-b211-c1c587d69caf","ios":"levelo://app?vid=d7d44bd6-3589-4710-b211-c1c587d69caf"},"vehicle_type_id":"4","last_reported":1726736983,"current_range_meters":17600,"station_id":"ce4bgup2rcd13ifvqco0","pricing_plan_id":"cebpf4jnsgd1na2vs0mg"},{"bike_id":"4af403ff-232e-437f-a15e-03f83dae4a86","system_id":"levelo_inurba_marseille","lat":43.3054,"lon":5.36562,"is_reserved":false,"is_disabled":false,"rental_uris":{"android":"levelo://app?vid=4af403ff-232e-437f-a15e-03f83dae4a86","ios":"levelo://app?vid=4af403ff-232e-437f-a15e-03f83dae4a86"},"vehicle_type_id":"4","last_reported":1726736983,"current_range_meters":24800,"station_id":"ce4bgs12rcd13ifvqcag","pricing_plan_id":"cebpf4jnsgd1na2vs0mg"},{"bike_id":"64b8db7b-e020-426b-bc67-cc08026eaa92","system_id":"levelo_inurba_marseille","lat":43.2984,"lon":5.36268,"is_reserved":false,"is_disabled":false,"rental_uris":{"android":"levelo://app?vid=64b8db7b-e020-426b-bc67-cc08026eaa92","ios":"levelo://app?vid=64b8db7b-e020-426b-bc67-cc08026eaa92"},"vehicle_type_id":"4","last_reported":1726736983,"current_range_meters":39200,"station_id":"ce4bgpp2rcd13ifvqc3g","pricing_plan_id":"cebpf4jnsgd1na2vs0mg"},{"bike_id":"1482efb1-fe53-4632-a3fe-8c59edbd5a59","system_id":"levelo_inurba_marseille","lat":43.29609,"lon":5.37738,"is_reserved":false,"is_disabled":false,"rental_uris":{"android":"levelo://app?vid=1482efb1-fe53-4632-a3fe-8c59edbd5a59","ios":"levelo://app?vid=1482efb1-fe53-4632-a3fe-8c59edbd5a59"},"vehicle_type_id":"4","last_reported":1726736983,"current_range_meters":16000,"station_id":"ce4bgi92rcd13ifvqb90","pricing_plan_id":"cebpf4jnsgd1na2vs0mg"},{"bike_id":"422fb2d9-e531-4235-863b-a809f34dec48","system_id":"levelo_inurba_marseille","lat":43.29774,"lon":5.37111,"is_reserved":false,"is_disabled":false,"rental_uris":{"android":"levelo://app?vid=422fb2d9-e531-4235-863b-a809f34dec48","ios":"levelo://app?vid=422fb2d9-e531-4235-863b-a809f34dec48"},"vehicle_type_id":"4","last_reported":1726736983,"current_range_meters":27600,"station_id":"ce4bgop2rcd13ifvqc1g","pricing_plan_id":"cebpf4jnsgd1na2vs0mg"},{"bike_id":"71c16840-17e4-4c9f-b942-9f8c33862568","system_id":"levelo_inurba_marseille","lat":43.27982,"lon":5.3873,"is_reserved":false,"is_disabled":false,"rental_uris":{"android":"levelo://app?vid=71c16840-17e4-4c9f-b942-9f8c33862568","ios":"levelo://app?vid=71c16840-17e4-4c9f-b942-9f8c33862568"},"vehicle_type_id":"4","last_reported":1726736983,"current_range_meters":38000,"station_id":"ce4bhg12rcd13ifvqf80","pricing_plan_id":"cebpf4jnsgd1na2vs0mg"},{"bike_id":"ae1f5f7f-17c0-46a5-b7ab-0048b5451920","system_id":"levelo_inurba_marseille","lat":43.28848,"lon":5.35874,"is_reserved":false,"is_disabled":false,"rental_uris":{"android":"levelo://app?vid=ae1f5f7f-17c0-46a5-b7ab-0048b5451920","ios":"levelo://app?vid=ae1f5f7f-17c0-46a5-b7ab-0048b5451920"},"vehicle_type_id":"4","last_reported":1726736983,"current_range_meters":6800,"station_id":"ce4bhb12rcd13ifvqem0","pricing_plan_id":"cebpf4jnsgd1na2vs0mg"},{"bike_id":"09fe1c78-41f6-4b2d-83da-40dfca1a837d","system_id":"levelo_inurba_marseille","lat":43.24178,"lon":5.39737,"is_reserved":false,"is_disabled":false,"rental_uris":{"android":"levelo://app?vid=09fe1c78-41f6-4b2d-83da-40dfca1a837d","ios":"levelo://app?vid=09fe1c78-41f6-4b2d-83da-40dfca1a837d"},"vehicle_type_id":"4","last_reported":1726736983,"current_range_meters":22800,"station_id":"ce4bhn12rcd13ifvqgpg","pricing_plan_id":"cebpf4jnsgd1na2vs0mg"},{"bike_id":"66f2ebb6-f107-4f8a-863a-75c42410b0c9","system_id":"levelo_inurba_marseille","lat":43.31165,"lon":5.39362,"is_reserved":false,"is_disabled":false,"rental_uris":{"android":"levelo://app?vid=66f2ebb6-f107-4f8a-863a-75c42410b0c9","ios":"levelo://app?vid=66f2ebb6-f107-4f8a-863a-75c42410b0c9"},"vehicle_type_id":"4","last_reported":1726736983,"current_range_meters":26800,"station_id":"","pricing_plan_id":"cebpf4jnsgd1na2vs0mg"},{"bike_id":"8c910254-16a0-4c58-825d-72ee122d8a97","system_id":"levelo_inurba_marseille","lat":43.337444,"lon":5.374475,"is_reserved":false,"is_disabled":false,"rental_uris":{"android":"levelo://app?vid=8c910254-16a0-4c58-825d-72ee122d8a97","ios":"levelo://app?vid=8c910254-16a0-4c58-825d-72ee122d8a97"},"vehicle_type_id":"4","last_reported":1726736983,"current_range_meters":24800,"station_id":"ce4bh192rcd13ifvqdb0","pricing_plan_id":"cebpf4jnsgd1na2vs0mg"},{"bike_id":"2bc21d36-e9c1-4ac7-aae9-a800945214f5","system_id":"levelo_inurba_marseille","lat":43.30135,"lon":5.37428,"is_reserved":false,"is_disabled":false,"rental_uris":{"android":"levelo://app?vid=2bc21d36-e9c1-4ac7-aae9-a800945214f5","ios":"levelo://app?vid=2bc21d36-e9c1-4ac7-aae9-a800945214f5"},"vehicle_type_id":"4","last_reported":1726736983,"current_range_meters":27200,"station_id":"ce4bgs92rcd13ifvqcc0","pricing_plan_id":"cebpf4jnsgd1na2vs0mg"},{"bike_id":"a5f3ec2a-ce93-418c-93e1-8b1d09bb5a1f","system_id":"levelo_inurba_marseille","lat":43.26808,"lon":5.40272,"is_reserved":false,"is_disabled":false,"rental_uris":{"android":"levelo://app?vid=a5f3ec2a-ce93-418c-93e1-8b1d09bb5a1f","ios":"levelo://app?vid=a5f3ec2a-ce93-418c-93e1-8b1d09bb5a1f"},"vehicle_type_id":"4","last_reported":1726736983,"current_range_meters":8400,"station_id":"ce501612rcd8frsf0b60","pricing_plan_id":"cebpf4jnsgd1na2vs0mg"},{"bike_id":"781f16a0-cc22-4498-ab74-3692f019830d","system_id":"levelo_inurba_marseille","lat":43.26205,"lon":5.37931,"is_reserved":false,"is_disabled":false,"rental_uris":{"android":"levelo://app?vid=781f16a0-cc22-4498-ab74-3692f019830d","ios":"levelo://app?vid=781f16a0-cc22-4498-ab74-3692f019830d"},"vehicle_type_id":"4","last_reported":1726736983,"current_range_meters":26800,"station_id":"ce4bhjp2rcd13ifvqg90","pricing_plan_id":"cebpf4jnsgd1na2vs0mg"},{"bike_id":"97ab6dd7-178d-4a04-b974-d241232e826a","system_id":"levelo_inurba_marseille","lat":43.3095,"lon":5.39032,"is_reserved":false,"is_disabled":false,"rental_uris":{"android":"levelo://app?vid=97ab6dd7-178d-4a04-b974-d241232e826a","ios":"levelo://app?vid=97ab6dd7-178d-4a04-b974-d241232e826a"},"vehicle_type_id":"4","last_reported":1726736983,"current_range_meters":33600,"station_id":"ce4bgup2rcd13ifvqco0","pricing_plan_id":"cebpf4jnsgd1na2vs0mg"},{"bike_id":"8985a7e5-d9b7-4ee6-9335-fd8939fcdf07","system_id":"levelo_inurba_marseille","lat":43.27498,"lon":5.4246,"is_reserved":false,"is_disabled":false,"rental_uris":{"android":"levelo://app?vid=8985a7e5-d9b7-4ee6-9335-fd8939fcdf07","ios":"levelo://app?vid=8985a7e5-d9b7-4ee6-9335-fd8939fcdf07"},"vehicle_type_id":"4","last_reported":1726736983,"current_range_meters":24400,"station_id":"ce4bhn92rcd13ifvqgrg","pricing_plan_id":"cebpf4jnsgd1na2vs0mg"},{"bike_id":"78cd0229-63f4-4790-99c6-4a9a185a91ac","system_id":"levelo_inurba_marseille","lat":43.26055,"lon":5.39393,"is_reserved":false,"is_disabled":false,"rental_uris":{"android":"levelo://app?vid=78cd0229-63f4-4790-99c6-4a9a185a91ac","ios":"levelo://app?vid=78cd0229-63f4-4790-99c6-4a9a185a91ac"},"vehicle_type_id":"4","last_reported":1726736983,"current_range_meters":40000,"station_id":"ce4bhh92rcd13ifvqfj0","pricing_plan_id":"cebpf4jnsgd1na2vs0mg"},{"bike_id":"94b792e3-4671-44d8-9241-f3fb87ab6fe9","system_id":"levelo_inurba_marseille","lat":43.2318,"lon":5.39985,"is_reserved":false,"is_disabled":false,"rental_uris":{"android":"levelo://app?vid=94b792e3-4671-44d8-9241-f3fb87ab6fe9","ios":"levelo://app?vid=94b792e3-4671-44d8-9241-f3fb87ab6fe9"},"vehicle_type_id":"4","last_reported":1726736983,"current_range_meters":38800,"station_id":"ce4bhn12rcd13ifvqgqg","pricing_plan_id":"cebpf4jnsgd1na2vs0mg"},{"bike_id":"5ee72852-9360-467f-8628-81c7887b89c6","system_id":"levelo_inurba_marseille","lat":43.24077,"lon":5.37758,"is_reserved":false,"is_disabled":false,"rental_uris":{"android":"levelo://app?vid=5ee72852-9360-467f-8628-81c7887b89c6","ios":"levelo://app?vid=5ee72852-9360-467f-8628-81c7887b89c6"},"vehicle_type_id":"4","last_reported":1726736983,"current_range_meters":16400,"station_id":"ce4bhnp2rcd13ifvqgvg","pricing_plan_id":"cebpf4jnsgd1na2vs0mg"},{"bike_id":"761e06fc-dc11-43ec-b79b-6e72e1210877","system_id":"levelo_inurba_marseille","lat":43.30535,"lon":5.36552,"is_reserved":false,"is_disabled":false,"rental_uris":{"android":"levelo://app?vid=761e06fc-dc11-43ec-b79b-6e72e1210877","ios":"levelo://app?vid=761e06fc-dc11-43ec-b79b-6e72e1210877"},"vehicle_type_id":"4","last_reported":1726736983,"current_range_meters":32400,"station_id":"ce4bgs12rcd13ifvqcag","pricing_plan_id":"cebpf4jnsgd1na2vs0mg"},{"bike_id":"bffdbd19-8970-46fc-ad7d-b4e838076a2b","system_id":"levelo_inurba_marseille","lat":43.30543,"lon":5.3656,"is_reserved":false,"is_disabled":false,"rental_uris":{"android":"levelo://app?vid=bffdbd19-8970-46fc-ad7d-b4e838076a2b","ios":"levelo://app?vid=bffdbd19-8970-46fc-ad7d-b4e838076a2b"},"vehicle_type_id":"4","last_reported":1726736983,"current_range_meters":33600,"station_id":"ce4bgs12rcd13ifvqcag","pricing_plan_id":"cebpf4jnsgd1na2vs0mg"},{"bike_id":"036ab25f-0c34-4c45-8e88-1fc9200da6fd","system_id":"levelo_inurba_marseille","lat":43.2716,"lon":5.42704,"is_reserved":false,"is_disabled":false,"rental_uris":{"android":"levelo://app?vid=036ab25f-0c34-4c45-8e88-1fc9200da6fd","ios":"levelo://app?vid=036ab25f-0c34-4c45-8e88-1fc9200da6fd"},"vehicle_type_id":"4","last_reported":1726736983,"current_range_meters":30800,"station_id":"","pricing_plan_id":"cebpf4jnsgd1na2vs0mg"},{"bike_id":"c2272d1c-de85-40c3-8a06-70b6bf4106b7","system_id":"levelo_inurba_marseille","lat":43.30799,"lon":5.43528,"is_reserved":false,"is_disabled":false,"rental_uris":{"android":"levelo://app?vid=c2272d1c-de85-40c3-8a06-70b6bf4106b7","ios":"levelo://app?vid=c2272d1c-de85-40c3-8a06-70b6bf4106b7"},"vehicle_type_id":"4","last_reported":1726736983,"current_range_meters":38000,"station_id":"ce4bhph2rcd13ifvqheg","pricing_plan_id":"cebpf4jnsgd1na2vs0mg"},{"bike_id":"c1d8a9f0-cde4-474f-8d86-26987bae3190","system_id":"levelo_inurba_marseille","lat":43.33606,"lon":5.41017,"is_reserved":false,"is_disabled":false,"rental_uris":{"android":"levelo://app?vid=c1d8a9f0-cde4-474f-8d86-26987bae3190","ios":"levelo://app?vid=c1d8a9f0-cde4-474f-8d86-26987bae3190"},"vehicle_type_id":"4","last_reported":1726736983,"current_range_meters":24400,"station_id":"ce4bhqh2rcd13ifvqhmg","pricing_plan_id":"cebpf4jnsgd1na2vs0mg"},{"bike_id":"3a25a5b1-9593-4cec-86f9-39274f1b1719","system_id":"levelo_inurba_marseille","lat":43.27561,"lon":5.38406,"is_reserved":false,"is_disabled":false,"rental_uris":{"android":"levelo://app?vid=3a25a5b1-9593-4cec-86f9-39274f1b1719","ios":"levelo://app?vid=3a25a5b1-9593-4cec-86f9-39274f1b1719"},"vehicle_type_id":"4","last_reported":1726736983,"current_range_meters":31200,"station_id":"ce4bhh92rcd13ifvqfi0","pricing_plan_id":"cebpf4jnsgd1na2vs0mg"},{"bike_id":"6ac0eb2f-9542-4934-b248-49828bcb22c2","system_id":"levelo_inurba_marseille","lat":43.27495,"lon":5.42448,"is_reserved":false,"is_disabled":false,"rental_uris":{"android":"levelo://app?vid=6ac0eb2f-9542-4934-b248-49828bcb22c2","ios":"levelo://app?vid=6ac0eb2f-9542-4934-b248-49828bcb22c2"},"vehicle_type_id":"4","last_reported":1726736983,"current_range_meters":20800,"station_id":"ce4bhn92rcd13ifvqgrg","pricing_plan_id":"cebpf4jnsgd1na2vs0mg"},{"bike_id":"38b7aaaa-5299-4007-8e90-4889ff1d3ce7","system_id":"levelo_inurba_marseille","lat":43.23144,"lon":5.4373,"is_reserved":false,"is_disabled":false,"rental_uris":{"android":"levelo://app?vid=38b7aaaa-5299-4007-8e90-4889ff1d3ce7","ios":"levelo://app?vid=38b7aaaa-5299-4007-8e90-4889ff1d3ce7"},"vehicle_type_id":"4","last_reported":1726736983,"current_range_meters":39200,"station_id":"ce4bhmp2rcd13ifvqgog","pricing_plan_id":"cebpf4jnsgd1na2vs0mg"},{"bike_id":"5cc53505-f644-47f4-8faa-c9e23f5803f2","system_id":"levelo_inurba_marseille","lat":43.24538,"lon":5.39533,"is_reserved":false,"is_disabled":false,"rental_uris":{"android":"levelo://app?vid=5cc53505-f644-47f4-8faa-c9e23f5803f2","ios":"levelo://app?vid=5cc53505-f644-47f4-8faa-c9e23f5803f2"},"vehicle_type_id":"4","last_reported":1726736983,"current_range_meters":33600,"station_id":"ce4bhlp2rcd13ifvqgjg","pricing_plan_id":"cebpf4jnsgd1na2vs0mg"},{"bike_id":"26f288b7-89b9-409b-9ddf-e2b7a23a52f6","system_id":"levelo_inurba_marseille","lat":43.33779,"lon":5.37435,"is_reserved":false,"is_disabled":false,"rental_uris":{"android":"levelo://app?vid=26f288b7-89b9-409b-9ddf-e2b7a23a52f6","ios":"levelo://app?vid=26f288b7-89b9-409b-9ddf-e2b7a23a52f6"},"vehicle_type_id":"4","last_reported":1726736983,"current_range_meters":37600,"station_id":"","pricing_plan_id":"cebpf4jnsgd1na2vs0mg"},{"bike_id":"7c01414b-caf6-4ee1-85f1-2c9de71dff39","system_id":"levelo_inurba_marseille","lat":43.30946,"lon":5.39042,"is_reserved":false,"is_disabled":false,"rental_uris":{"android":"levelo://app?vid=7c01414b-caf6-4ee1-85f1-2c9de71dff39","ios":"levelo://app?vid=7c01414b-caf6-4ee1-85f1-2c9de71dff39"},"vehicle_type_id":"4","last_reported":1726736983,"current_range_meters":38400,"station_id":"ce4bgup2rcd13ifvqco0","pricing_plan_id":"cebpf4jnsgd1na2vs0mg"},{"bike_id":"31674790-8365-40d2-bdef-19029206a5f3","system_id":"levelo_inurba_marseille","lat":43.30473,"lon":5.37907,"is_reserved":false,"is_disabled":false,"rental_uris":{"android":"levelo://app?vid=31674790-8365-40d2-bdef-19029206a5f3","ios":"levelo://app?vid=31674790-8365-40d2-bdef-19029206a5f3"},"vehicle_type_id":"4","last_reported":1726736983,"current_range_meters":34800,"station_id":"ce4bgup2rcd13ifvqcn0","pricing_plan_id":"cebpf4jnsgd1na2vs0mg"},{"bike_id":"7a34f971-a4db-40c7-9ba9-7d8849a4f6eb","system_id":"levelo_inurba_marseille","lat":43.30136,"lon":5.37405,"is_reserved":false,"is_disabled":false,"rental_uris":{"android":"levelo://app?vid=7a34f971-a4db-40c7-9ba9-7d8849a4f6eb","ios":"levelo://app?vid=7a34f971-a4db-40c7-9ba9-7d8849a4f6eb"},"vehicle_type_id":"4","last_reported":1726736983,"current_range_meters":14000,"station_id":"ce4bgs92rcd13ifvqcc0","pricing_plan_id":"cebpf4jnsgd1na2vs0mg"},{"bike_id":"b3d81444-f632-4a95-88b6-a30aa314cc07","system_id":"levelo_inurba_marseille","lat":43.28153,"lon":5.42644,"is_reserved":false,"is_disabled":false,"rental_uris":{"android":"levelo://app?vid=b3d81444-f632-4a95-88b6-a30aa314cc07","ios":"levelo://app?vid=b3d81444-f632-4a95-88b6-a30aa314cc07"},"vehicle_type_id":"4","last_reported":1726736983,"current_range_meters":28400,"station_id":"ce4bhnh2rcd13ifvqgug","pricing_plan_id":"cebpf4jnsgd1na2vs0mg"},{"bike_id":"61064d6b-12cb-4c7b-a862-f305a442f63b","system_id":"levelo_inurba_marseille","lat":43.33742,"lon":5.37454,"is_reserved":false,"is_disabled":false,"rental_uris":{"android":"levelo://app?vid=61064d6b-12cb-4c7b-a862-f305a442f63b","ios":"levelo://app?vid=61064d6b-12cb-4c7b-a862-f305a442f63b"},"vehicle_type_id":"4","last_reported":1726736983,"current_range_meters":36400,"station_id":"","pricing_plan_id":"cebpf4jnsgd1na2vs0mg"},{"bike_id":"1e543bff-8d11-4c7f-b24e-74e644073541","system_id":"levelo_inurba_marseille","lat":43.33609,"lon":5.41015,"is_reserved":false,"is_disabled":false,"rental_uris":{"android":"levelo://app?vid=1e543bff-8d11-4c7f-b24e-74e644073541","ios":"levelo://app?vid=1e543bff-8d11-4c7f-b24e-74e644073541"},"vehicle_type_id":"4","last_reported":1726736983,"current_range_meters":24400,"station_id":"ce4bhqh2rcd13ifvqhmg","pricing_plan_id":"cebpf4jnsgd1na2vs0mg"},{"bike_id":"a4b40a5b-b229-4030-b463-a72c1dad498e","system_id":"levelo_inurba_marseille","lat":43.24077,"lon":5.37746,"is_reserved":false,"is_disabled":false,"rental_uris":{"android":"levelo://app?vid=a4b40a5b-b229-4030-b463-a72c1dad498e","ios":"levelo://app?vid=a4b40a5b-b229-4030-b463-a72c1dad498e"},"vehicle_type_id":"4","last_reported":1726736983,"current_range_meters":17200,"station_id":"ce4bhnp2rcd13ifvqgvg","pricing_plan_id":"cebpf4jnsgd1na2vs0mg"},{"bike_id":"cc37381e-9335-4b4e-a554-8ca8c7c27f92","system_id":"levelo_inurba_marseille","lat":43.27488,"lon":5.4246,"is_reserved":false,"is_disabled":false,"rental_uris":{"android":"levelo://app?vid=cc37381e-9335-4b4e-a554-8ca8c7c27f92","ios":"levelo://app?vid=cc37381e-9335-4b4e-a554-8ca8c7c27f92"},"vehicle_type_id":"4","last_reported":1726736983,"current_range_meters":9200,"station_id":"ce4bhn92rcd13ifvqgrg","pricing_plan_id":"cebpf4jnsgd1na2vs0mg"},{"bike_id":"888ff640-8b2d-4406-bb74-d69912626280","system_id":"levelo_inurba_marseille","lat":43.3046,"lon":5.37901,"is_reserved":false,"is_disabled":false,"rental_uris":{"android":"levelo://app?vid=888ff640-8b2d-4406-bb74-d69912626280","ios":"levelo://app?vid=888ff640-8b2d-4406-bb74-d69912626280"},"vehicle_type_id":"4","last_reported":1726736983,"current_range_meters":38800,"station_id":"ce4bgup2rcd13ifvqcn0","pricing_plan_id":"cebpf4jnsgd1na2vs0mg"},{"bike_id":"c335f60b-3103-40cf-8ba6-cb4ccb98e006","system_id":"levelo_inurba_marseille","lat":43.337444,"lon":5.374475,"is_reserved":false,"is_disabled":false,"rental_uris":{"android":"levelo://app?vid=c335f60b-3103-40cf-8ba6-cb4ccb98e006","ios":"levelo://app?vid=c335f60b-3103-40cf-8ba6-cb4ccb98e006"},"vehicle_type_id":"4","last_reported":1726736983,"current_range_meters":28000,"station_id":"ce4bh192rcd13ifvqdb0","pricing_plan_id":"cebpf4jnsgd1na2vs0mg"},{"bike_id":"a7ba0621-91e3-4669-b4dd-c57703025c57","system_id":"levelo_inurba_marseille","lat":43.31348,"lon":5.3671,"is_reserved":false,"is_disabled":false,"rental_uris":{"android":"levelo://app?vid=a7ba0621-91e3-4669-b4dd-c57703025c57","ios":"levelo://app?vid=a7ba0621-91e3-4669-b4dd-c57703025c57"},"vehicle_type_id":"4","last_reported":1726736983,"current_range_meters":33600,"station_id":"ce4bgr92rcd13ifvqc6g","pricing_plan_id":"cebpf4jnsgd1na2vs0mg"},{"bike_id":"cea90d14-d4cd-44bb-a828-f022d2c2c276","system_id":"levelo_inurba_marseille","lat":43.26946,"lon":5.38639,"is_reserved":false,"is_disabled":false,"rental_uris":{"android":"levelo://app?vid=cea90d14-d4cd-44bb-a828-f022d2c2c276","ios":"levelo://app?vid=cea90d14-d4cd-44bb-a828-f022d2c2c276"},"vehicle_type_id":"4","last_reported":1726736983,"current_range_meters":38000,"station_id":"ce4bhh92rcd13ifvqfh0","pricing_plan_id":"cebpf4jnsgd1na2vs0mg"},{"bike_id":"9252acf3-e294-40ab-8fdc-fbb38b1a9a7d","system_id":"levelo_inurba_marseille","lat":43.23959,"lon":5.36642,"is_reserved":false,"is_disabled":false,"rental_uris":{"android":"levelo://app?vid=9252acf3-e294-40ab-8fdc-fbb38b1a9a7d","ios":"levelo://app?vid=9252acf3-e294-40ab-8fdc-fbb38b1a9a7d"},"vehicle_type_id":"4","last_reported":1726736983,"current_range_meters":27200,"station_id":"ce4bhi12rcd13ifvqfp0","pricing_plan_id":"cebpf4jnsgd1na2vs0mg"},{"bike_id":"154787d4-03e2-4b4a-97d7-df4da2486b91","system_id":"levelo_inurba_marseille","lat":43.30476,"lon":5.37911,"is_reserved":false,"is_disabled":false,"rental_uris":{"android":"levelo://app?vid=154787d4-03e2-4b4a-97d7-df4da2486b91","ios":"levelo://app?vid=154787d4-03e2-4b4a-97d7-df4da2486b91"},"vehicle_type_id":"4","last_reported":1726736983,"current_range_meters":28800,"station_id":"ce4bgup2rcd13ifvqcn0","pricing_plan_id":"cebpf4jnsgd1na2vs0mg"},{"bike_id":"7b0e0d0e-650d-40d7-95d7-ab8fb85396b0","system_id":"levelo_inurba_marseille","lat":43.24069,"lon":5.37759,"is_reserved":false,"is_disabled":false,"rental_uris":{"android":"levelo://app?vid=7b0e0d0e-650d-40d7-95d7-ab8fb85396b0","ios":"levelo://app?vid=7b0e0d0e-650d-40d7-95d7-ab8fb85396b0"},"vehicle_type_id":"4","last_reported":1726736983,"current_range_meters":35600,"station_id":"ce4bhnp2rcd13ifvqgvg","pricing_plan_id":"cebpf4jnsgd1na2vs0mg"},{"bike_id":"a0ea4c20-eeae-4054-a4b5-699b69c4c176","system_id":"levelo_inurba_marseille","lat":43.29558,"lon":5.42287,"is_reserved":false,"is_disabled":false,"rental_uris":{"android":"levelo://app?vid=a0ea4c20-eeae-4054-a4b5-699b69c4c176","ios":"levelo://app?vid=a0ea4c20-eeae-4054-a4b5-699b69c4c176"},"vehicle_type_id":"4","last_reported":1726736983,"current_range_meters":14400,"station_id":"ce4bhph2rcd13ifvqhdg","pricing_plan_id":"cebpf4jnsgd1na2vs0mg"},{"bike_id":"f7f5db0e-acdc-46e3-a241-02bb5c5ee4fc","system_id":"levelo_inurba_marseille","lat":43.33606,"lon":5.4103,"is_reserved":false,"is_disabled":false,"rental_uris":{"android":"levelo://app?vid=f7f5db0e-acdc-46e3-a241-02bb5c5ee4fc","ios":"levelo://app?vid=f7f5db0e-acdc-46e3-a241-02bb5c5ee4fc"},"vehicle_type_id":"4","last_reported":1726736983,"current_range_meters":35200,"station_id":"ce4bhqh2rcd13ifvqhmg","pricing_plan_id":"cebpf4jnsgd1na2vs0mg"},{"bike_id":"81981891-9de1-4c9a-a20f-55d1f58fb677","system_id":"levelo_inurba_marseille","lat":43.27311,"lon":5.39075,"is_reserved":false,"is_disabled":false,"rental_uris":{"android":"levelo://app?vid=81981891-9de1-4c9a-a20f-55d1f58fb677","ios":"levelo://app?vid=81981891-9de1-4c9a-a20f-55d1f58fb677"},"vehicle_type_id":"4","last_reported":1726736983,"current_range_meters":38000,"station_id":"ce4bhgp2rcd13ifvqfe0","pricing_plan_id":"cebpf4jnsgd1na2vs0mg"},{"bike_id":"c41f96f4-8f35-4f19-a2f5-29cc43f449ce","system_id":"levelo_inurba_marseille","lat":43.27303,"lon":5.39094,"is_reserved":false,"is_disabled":false,"rental_uris":{"android":"levelo://app?vid=c41f96f4-8f35-4f19-a2f5-29cc43f449ce","ios":"levelo://app?vid=c41f96f4-8f35-4f19-a2f5-29cc43f449ce"},"vehicle_type_id":"4","last_reported":1726736983,"current_range_meters":10000,"station_id":"ce4bhgp2rcd13ifvqfe0","pricing_plan_id":"cebpf4jnsgd1na2vs0mg"},{"bike_id":"471f5d2b-6054-4015-b2d1-3adfb1b3fc49","system_id":"levelo_inurba_marseille","lat":43.2407,"lon":5.3776,"is_reserved":false,"is_disabled":false,"rental_uris":{"android":"levelo://app?vid=471f5d2b-6054-4015-b2d1-3adfb1b3fc49","ios":"levelo://app?vid=471f5d2b-6054-4015-b2d1-3adfb1b3fc49"},"vehicle_type_id":"4","last_reported":1726736983,"current_range_meters":6800,"station_id":"ce4bhnp2rcd13ifvqgvg","pricing_plan_id":"cebpf4jnsgd1na2vs0mg"},{"bike_id":"2f8944d6-8b2a-464d-8a19-ec487b750fad","system_id":"levelo_inurba_marseille","lat":43.24078,"lon":5.37751,"is_reserved":false,"is_disabled":false,"rental_uris":{"android":"levelo://app?vid=2f8944d6-8b2a-464d-8a19-ec487b750fad","ios":"levelo://app?vid=2f8944d6-8b2a-464d-8a19-ec487b750fad"},"vehicle_type_id":"4","last_reported":1726736983,"current_range_meters":34800,"station_id":"ce4bhnp2rcd13ifvqgvg","pricing_plan_id":"cebpf4jnsgd1na2vs0mg"},{"bike_id":"ed27d86c-27cd-42da-88bc-8cc42d89a088","system_id":"levelo_inurba_marseille","lat":43.27561,"lon":5.38438,"is_reserved":false,"is_disabled":false,"rental_uris":{"android":"levelo://app?vid=ed27d86c-27cd-42da-88bc-8cc42d89a088","ios":"levelo://app?vid=ed27d86c-27cd-42da-88bc-8cc42d89a088"},"vehicle_type_id":"4","last_reported":1726736983,"current_range_meters":37600,"station_id":"ce4bhh92rcd13ifvqfi0","pricing_plan_id":"cebpf4jnsgd1na2vs0mg"},{"bike_id":"3478db76-45d7-45d3-b887-36ba03898ebd","system_id":"levelo_inurba_marseille","lat":43.23143,"lon":5.43718,"is_reserved":false,"is_disabled":false,"rental_uris":{"android":"levelo://app?vid=3478db76-45d7-45d3-b887-36ba03898ebd","ios":"levelo://app?vid=3478db76-45d7-45d3-b887-36ba03898ebd"},"vehicle_type_id":"4","last_reported":1726736983,"current_range_meters":38800,"station_id":"ce4bhmp2rcd13ifvqgog","pricing_plan_id":"cebpf4jnsgd1na2vs0mg"},{"bike_id":"853e6708-776b-4893-bf72-13102086e3de","system_id":"levelo_inurba_marseille","lat":43.26557,"lon":5.37292,"is_reserved":false,"is_disabled":false,"rental_uris":{"android":"levelo://app?vid=853e6708-776b-4893-bf72-13102086e3de","ios":"levelo://app?vid=853e6708-776b-4893-bf72-13102086e3de"},"vehicle_type_id":"4","last_reported":1726736983,"current_range_meters":24800,"station_id":"ce4bhg12rcd13ifvqf70","pricing_plan_id":"cebpf4jnsgd1na2vs0mg"},{"bike_id":"f038a968-9567-4ba6-a473-0d10a31aed44","system_id":"levelo_inurba_marseille","lat":43.29971,"lon":5.37182,"is_reserved":false,"is_disabled":false,"rental_uris":{"android":"levelo://app?vid=f038a968-9567-4ba6-a473-0d10a31aed44","ios":"levelo://app?vid=f038a968-9567-4ba6-a473-0d10a31aed44"},"vehicle_type_id":"4","last_reported":1726736983,"current_range_meters":16000,"station_id":"ce4bgr92rcd13ifvqc7g","pricing_plan_id":"cebpf4jnsgd1na2vs0mg"},{"bike_id":"2ddac43b-c3bc-41d6-85d4-b443eb8a122b","system_id":"levelo_inurba_marseille","lat":43.30143,"lon":5.38103,"is_reserved":false,"is_disabled":false,"rental_uris":{"android":"levelo://app?vid=2ddac43b-c3bc-41d6-85d4-b443eb8a122b","ios":"levelo://app?vid=2ddac43b-c3bc-41d6-85d4-b443eb8a122b"},"vehicle_type_id":"4","last_reported":1726736983,"current_range_meters":9600,"station_id":"ce4bgjp2rcd13ifvqbh0","pricing_plan_id":"cebpf4jnsgd1na2vs0mg"},{"bike_id":"c68065d0-098d-49a1-a6e6-6b7287bf251d","system_id":"levelo_inurba_marseille","lat":43.24171,"lon":5.39737,"is_reserved":false,"is_disabled":false,"rental_uris":{"android":"levelo://app?vid=c68065d0-098d-49a1-a6e6-6b7287bf251d","ios":"levelo://app?vid=c68065d0-098d-49a1-a6e6-6b7287bf251d"},"vehicle_type_id":"4","last_reported":1726736983,"current_range_meters":8400,"station_id":"ce4bhn12rcd13ifvqgpg","pricing_plan_id":"cebpf4jnsgd1na2vs0mg"},{"bike_id":"86d2fbbc-c469-4ea8-9619-326d1c533696","system_id":"levelo_inurba_marseille","lat":43.25488,"lon":5.37648,"is_reserved":false,"is_disabled":false,"rental_uris":{"android":"levelo://app?vid=86d2fbbc-c469-4ea8-9619-326d1c533696","ios":"levelo://app?vid=86d2fbbc-c469-4ea8-9619-326d1c533696"},"vehicle_type_id":"4","last_reported":1726736983,"current_range_meters":36800,"station_id":"ce4bhh12rcd13ifvqff0","pricing_plan_id":"cebpf4jnsgd1na2vs0mg"},{"bike_id":"67e3c1fd-cc33-408d-a8d2-3988da69d6ab","system_id":"levelo_inurba_marseille","lat":43.33615,"lon":5.41025,"is_reserved":false,"is_disabled":false,"rental_uris":{"android":"levelo://app?vid=67e3c1fd-cc33-408d-a8d2-3988da69d6ab","ios":"levelo://app?vid=67e3c1fd-cc33-408d-a8d2-3988da69d6ab"},"vehicle_type_id":"4","last_reported":1726736983,"current_range_meters":19200,"station_id":"ce4bhqh2rcd13ifvqhmg","pricing_plan_id":"cebpf4jnsgd1na2vs0mg"},{"bike_id":"a7ec649a-e17d-4f88-b0c2-2dd13506f258","system_id":"levelo_inurba_marseille","lat":43.28148,"lon":5.42641,"is_reserved":false,"is_disabled":false,"rental_uris":{"android":"levelo://app?vid=a7ec649a-e17d-4f88-b0c2-2dd13506f258","ios":"levelo://app?vid=a7ec649a-e17d-4f88-b0c2-2dd13506f258"},"vehicle_type_id":"4","last_reported":1726736983,"current_range_meters":20000,"station_id":"ce4bhnh2rcd13ifvqgug","pricing_plan_id":"cebpf4jnsgd1na2vs0mg"},{"bike_id":"d75818b3-a7ee-4b70-9ce8-5c23d00bb619","system_id":"levelo_inurba_marseille","lat":43.28145,"lon":5.42648,"is_reserved":false,"is_disabled":false,"rental_uris":{"android":"levelo://app?vid=d75818b3-a7ee-4b70-9ce8-5c23d00bb619","ios":"levelo://app?vid=d75818b3-a7ee-4b70-9ce8-5c23d00bb619"},"vehicle_type_id":"4","last_reported":1726736983,"current_range_meters":12400,"station_id":"ce4bhnh2rcd13ifvqgug","pricing_plan_id":"cebpf4jnsgd1na2vs0mg"},{"bike_id":"b072bb4c-557c-4182-9cfc-5cedbd7bf470","system_id":"levelo_inurba_marseille","lat":43.32529,"lon":5.4145,"is_reserved":false,"is_disabled":false,"rental_uris":{"android":"levelo://app?vid=b072bb4c-557c-4182-9cfc-5cedbd7bf470","ios":"levelo://app?vid=b072bb4c-557c-4182-9cfc-5cedbd7bf470"},"vehicle_type_id":"4","last_reported":1726736983,"current_range_meters":18000,"station_id":"ce4bhq12rcd13ifvqhhg","pricing_plan_id":"cebpf4jnsgd1na2vs0mg"},{"bike_id":"d3403a44-3f24-4c39-a46d-875f95948ebd","system_id":"levelo_inurba_marseille","lat":43.30433,"lon":5.41285,"is_reserved":false,"is_disabled":false,"rental_uris":{"android":"levelo://app?vid=d3403a44-3f24-4c39-a46d-875f95948ebd","ios":"levelo://app?vid=d3403a44-3f24-4c39-a46d-875f95948ebd"},"vehicle_type_id":"4","last_reported":1726736983,"current_range_meters":8800,"station_id":"ce4bhop2rcd13ifvqh8g","pricing_plan_id":"cebpf4jnsgd1na2vs0mg"},{"bike_id":"fdc1b110-9b7c-4b3f-ad3d-6f9dc5cf5157","system_id":"levelo_inurba_marseille","lat":43.29552,"lon":5.42287,"is_reserved":false,"is_disabled":false,"rental_uris":{"android":"levelo://app?vid=fdc1b110-9b7c-4b3f-ad3d-6f9dc5cf5157","ios":"levelo://app?vid=fdc1b110-9b7c-4b3f-ad3d-6f9dc5cf5157"},"vehicle_type_id":"4","last_reported":1726736983,"current_range_meters":40000,"station_id":"ce4bhph2rcd13ifvqhdg","pricing_plan_id":"cebpf4jnsgd1na2vs0mg"},{"bike_id":"c58a09e0-e27d-474f-b410-f612c6647346","system_id":"levelo_inurba_marseille","lat":43.30553,"lon":5.36717,"is_reserved":false,"is_disabled":false,"rental_uris":{"android":"levelo://app?vid=c58a09e0-e27d-474f-b410-f612c6647346","ios":"levelo://app?vid=c58a09e0-e27d-474f-b410-f612c6647346"},"vehicle_type_id":"4","last_reported":1726736983,"current_range_meters":27600,"station_id":"ce4bgrp2rcd13ifvqc9g","pricing_plan_id":"cebpf4jnsgd1na2vs0mg"},{"bike_id":"beb15bd0-b449-4862-b0ef-bc6b9508122c","system_id":"levelo_inurba_marseille","lat":43.27608,"lon":5.36112,"is_reserved":false,"is_disabled":false,"rental_uris":{"android":"levelo://app?vid=beb15bd0-b449-4862-b0ef-bc6b9508122c","ios":"levelo://app?vid=beb15bd0-b449-4862-b0ef-bc6b9508122c"},"vehicle_type_id":"4","last_reported":1726736983,"current_range_meters":3600,"station_id":"ce4bgj92rcd13ifvqbe0","pricing_plan_id":"cebpf4jnsgd1na2vs0mg"},{"bike_id":"a78358d4-2e0d-4d1b-9800-f677344b73bb","system_id":"levelo_inurba_marseille","lat":43.26944,"lon":5.38642,"is_reserved":false,"is_disabled":false,"rental_uris":{"android":"levelo://app?vid=a78358d4-2e0d-4d1b-9800-f677344b73bb","ios":"levelo://app?vid=a78358d4-2e0d-4d1b-9800-f677344b73bb"},"vehicle_type_id":"4","last_reported":1726736983,"current_range_meters":36400,"station_id":"ce4bhh92rcd13ifvqfh0","pricing_plan_id":"cebpf4jnsgd1na2vs0mg"},{"bike_id":"7296939a-e07b-445c-bd52-40cde8ccbba2","system_id":"levelo_inurba_marseille","lat":43.2602,"lon":5.37556,"is_reserved":false,"is_disabled":false,"rental_uris":{"android":"levelo://app?vid=7296939a-e07b-445c-bd52-40cde8ccbba2","ios":"levelo://app?vid=7296939a-e07b-445c-bd52-40cde8ccbba2"},"vehicle_type_id":"4","last_reported":1726736983,"current_range_meters":38000,"station_id":"ce4bhgh2rcd13ifvqfa0","pricing_plan_id":"cebpf4jnsgd1na2vs0mg"},{"bike_id":"396c78d3-3cdf-4955-b7cd-320e402782db","system_id":"levelo_inurba_marseille","lat":43.29965,"lon":5.41328,"is_reserved":false,"is_disabled":false,"rental_uris":{"android":"levelo://app?vid=396c78d3-3cdf-4955-b7cd-320e402782db","ios":"levelo://app?vid=396c78d3-3cdf-4955-b7cd-320e402782db"},"vehicle_type_id":"4","last_reported":1726736983,"current_range_meters":34000,"station_id":"ce4bhp12rcd13ifvqh9g","pricing_plan_id":"cebpf4jnsgd1na2vs0mg"},{"bike_id":"a84ccf15-a62f-4b0b-9163-e457f54dff33","system_id":"levelo_inurba_marseille","lat":43.28152,"lon":5.42642,"is_reserved":false,"is_disabled":false,"rental_uris":{"android":"levelo://app?vid=a84ccf15-a62f-4b0b-9163-e457f54dff33","ios":"levelo://app?vid=a84ccf15-a62f-4b0b-9163-e457f54dff33"},"vehicle_type_id":"4","last_reported":1726736983,"current_range_meters":10000,"station_id":"ce4bhnh2rcd13ifvqgug","pricing_plan_id":"cebpf4jnsgd1na2vs0mg"},{"bike_id":"e669bd6c-abbe-4921-ba26-9fc661d40bbb","system_id":"levelo_inurba_marseille","lat":43.30544,"lon":5.36532,"is_reserved":false,"is_disabled":false,"rental_uris":{"android":"levelo://app?vid=e669bd6c-abbe-4921-ba26-9fc661d40bbb","ios":"levelo://app?vid=e669bd6c-abbe-4921-ba26-9fc661d40bbb"},"vehicle_type_id":"4","last_reported":1726736983,"current_range_meters":36000,"station_id":"ce4bgs12rcd13ifvqcag","pricing_plan_id":"cebpf4jnsgd1na2vs0mg"},{"bike_id":"51523a7c-bb1e-41a9-afc2-3721cc37c73c","system_id":"levelo_inurba_marseille","lat":43.25827,"lon":5.39429,"is_reserved":false,"is_disabled":false,"rental_uris":{"android":"levelo://app?vid=51523a7c-bb1e-41a9-afc2-3721cc37c73c","ios":"levelo://app?vid=51523a7c-bb1e-41a9-afc2-3721cc37c73c"},"vehicle_type_id":"4","last_reported":1726736983,"current_range_meters":40000,"station_id":"ce4bhip2rcd13ifvqft0","pricing_plan_id":"cebpf4jnsgd1na2vs0mg"},{"bike_id":"356cfe7d-8a0f-4d85-a739-7c2ea65146a0","system_id":"levelo_inurba_marseille","lat":43.24076,"lon":5.37756,"is_reserved":false,"is_disabled":false,"rental_uris":{"android":"levelo://app?vid=356cfe7d-8a0f-4d85-a739-7c2ea65146a0","ios":"levelo://app?vid=356cfe7d-8a0f-4d85-a739-7c2ea65146a0"},"vehicle_type_id":"4","last_reported":1726736983,"current_range_meters":25200,"station_id":"ce4bhnp2rcd13ifvqgvg","pricing_plan_id":"cebpf4jnsgd1na2vs0mg"},{"bike_id":"0c903ba0-b4e3-4fea-8c51-2aa3188cd2ff","system_id":"levelo_inurba_marseille","lat":43.27489,"lon":5.42459,"is_reserved":false,"is_disabled":false,"rental_uris":{"android":"levelo://app?vid=0c903ba0-b4e3-4fea-8c51-2aa3188cd2ff","ios":"levelo://app?vid=0c903ba0-b4e3-4fea-8c51-2aa3188cd2ff"},"vehicle_type_id":"4","last_reported":1726736983,"current_range_meters":29600,"station_id":"ce4bhn92rcd13ifvqgrg","pricing_plan_id":"cebpf4jnsgd1na2vs0mg"},{"bike_id":"376e4ba1-7a4d-4c07-bc97-59fafac349c4","system_id":"levelo_inurba_marseille","lat":43.24999,"lon":5.38926,"is_reserved":false,"is_disabled":false,"rental_uris":{"android":"levelo://app?vid=376e4ba1-7a4d-4c07-bc97-59fafac349c4","ios":"levelo://app?vid=376e4ba1-7a4d-4c07-bc97-59fafac349c4"},"vehicle_type_id":"4","last_reported":1726736983,"current_range_meters":28800,"station_id":"ce4bhgp2rcd13ifvqfd0","pricing_plan_id":"cebpf4jnsgd1na2vs0mg"},{"bike_id":"7c542f9b-4edf-4a63-8625-025738c7f0bb","system_id":"levelo_inurba_marseille","lat":43.31224,"lon":5.3688,"is_reserved":false,"is_disabled":false,"rental_uris":{"android":"levelo://app?vid=7c542f9b-4edf-4a63-8625-025738c7f0bb","ios":"levelo://app?vid=7c542f9b-4edf-4a63-8625-025738c7f0bb"},"vehicle_type_id":"4","last_reported":1726736983,"current_range_meters":18000,"station_id":"ce4bgl92rcd13ifvqbq0","pricing_plan_id":"cebpf4jnsgd1na2vs0mg"},{"bike_id":"749485f6-88b3-425e-be69-e0b536cfcad6","system_id":"levelo_inurba_marseille","lat":43.23965,"lon":5.36634,"is_reserved":false,"is_disabled":false,"rental_uris":{"android":"levelo://app?vid=749485f6-88b3-425e-be69-e0b536cfcad6","ios":"levelo://app?vid=749485f6-88b3-425e-be69-e0b536cfcad6"},"vehicle_type_id":"4","last_reported":1726736983,"current_range_meters":35600,"station_id":"ce4bhi12rcd13ifvqfp0","pricing_plan_id":"cebpf4jnsgd1na2vs0mg"},{"bike_id":"4637f38a-faa6-4c8b-ae8d-2112023d8ec3","system_id":"levelo_inurba_marseille","lat":43.25577,"lon":5.38237,"is_reserved":false,"is_disabled":false,"rental_uris":{"android":"levelo://app?vid=4637f38a-faa6-4c8b-ae8d-2112023d8ec3","ios":"levelo://app?vid=4637f38a-faa6-4c8b-ae8d-2112023d8ec3"},"vehicle_type_id":"4","last_reported":1726736983,"current_range_meters":40000,"station_id":"ce4bhih2rcd13ifvqfs0","pricing_plan_id":"cebpf4jnsgd1na2vs0mg"},{"bike_id":"8bc6e695-5a00-4887-830e-2271485e9be5","system_id":"levelo_inurba_marseille","lat":43.27609,"lon":5.36107,"is_reserved":false,"is_disabled":false,"rental_uris":{"android":"levelo://app?vid=8bc6e695-5a00-4887-830e-2271485e9be5","ios":"levelo://app?vid=8bc6e695-5a00-4887-830e-2271485e9be5"},"vehicle_type_id":"4","last_reported":1726736983,"current_range_meters":37600,"station_id":"ce4bgj92rcd13ifvqbe0","pricing_plan_id":"cebpf4jnsgd1na2vs0mg"},{"bike_id":"c32dc568-f10c-4010-ad55-d5f360cf461f","system_id":"levelo_inurba_marseille","lat":43.30549,"lon":5.36539,"is_reserved":false,"is_disabled":false,"rental_uris":{"android":"levelo://app?vid=c32dc568-f10c-4010-ad55-d5f360cf461f","ios":"levelo://app?vid=c32dc568-f10c-4010-ad55-d5f360cf461f"},"vehicle_type_id":"4","last_reported":1726736983,"current_range_meters":38800,"station_id":"ce4bgs12rcd13ifvqcag","pricing_plan_id":"cebpf4jnsgd1na2vs0mg"},{"bike_id":"7a560853-5a8c-4d6f-85af-e6147a8cd961","system_id":"levelo_inurba_marseille","lat":43.304603,"lon":5.379067,"is_reserved":false,"is_disabled":false,"rental_uris":{"android":"levelo://app?vid=7a560853-5a8c-4d6f-85af-e6147a8cd961","ios":"levelo://app?vid=7a560853-5a8c-4d6f-85af-e6147a8cd961"},"vehicle_type_id":"4","last_reported":1726736983,"current_range_meters":30000,"station_id":"ce4bgup2rcd13ifvqcn0","pricing_plan_id":"cebpf4jnsgd1na2vs0mg"},{"bike_id":"aaeae615-2194-47c5-84e0-363507d6e824","system_id":"levelo_inurba_marseille","lat":43.3228,"lon":5.38266,"is_reserved":false,"is_disabled":false,"rental_uris":{"android":"levelo://app?vid=aaeae615-2194-47c5-84e0-363507d6e824","ios":"levelo://app?vid=aaeae615-2194-47c5-84e0-363507d6e824"},"vehicle_type_id":"4","last_reported":1726736983,"current_range_meters":25200,"station_id":"ce4bhr12rcd13ifvqhqg","pricing_plan_id":"cebpf4jnsgd1na2vs0mg"},{"bike_id":"1397a30c-d848-4ca4-b952-1fb1c2bd8c48","system_id":"levelo_inurba_marseille","lat":43.30151,"lon":5.38069,"is_reserved":false,"is_disabled":false,"rental_uris":{"android":"levelo://app?vid=1397a30c-d848-4ca4-b952-1fb1c2bd8c48","ios":"levelo://app?vid=1397a30c-d848-4ca4-b952-1fb1c2bd8c48"},"vehicle_type_id":"4","last_reported":1726736983,"current_range_meters":14400,"station_id":"ce4bgjp2rcd13ifvqbh0","pricing_plan_id":"cebpf4jnsgd1na2vs0mg"},{"bike_id":"6bea07ff-b7cf-43d7-9614-efd55ed0f2d6","system_id":"levelo_inurba_marseille","lat":43.24645,"lon":5.38894,"is_reserved":false,"is_disabled":false,"rental_uris":{"android":"levelo://app?vid=6bea07ff-b7cf-43d7-9614-efd55ed0f2d6","ios":"levelo://app?vid=6bea07ff-b7cf-43d7-9614-efd55ed0f2d6"},"vehicle_type_id":"4","last_reported":1726736983,"current_range_meters":27600,"station_id":"ce4bhg12rcd13ifvqf60","pricing_plan_id":"cebpf4jnsgd1na2vs0mg"},{"bike_id":"6b04faea-2c70-4e61-8aea-50dfd713833f","system_id":"levelo_inurba_marseille","lat":43.26934,"lon":5.38914,"is_reserved":false,"is_disabled":false,"rental_uris":{"android":"levelo://app?vid=6b04faea-2c70-4e61-8aea-50dfd713833f","ios":"levelo://app?vid=6b04faea-2c70-4e61-8aea-50dfd713833f"},"vehicle_type_id":"4","last_reported":1726736983,"current_range_meters":22800,"station_id":"ce4bhhh2rcd13ifvqfl0","pricing_plan_id":"cebpf4jnsgd1na2vs0mg"},{"bike_id":"667e0fe2-e718-4e5e-9981-7e0ecdc8ab33","system_id":"levelo_inurba_marseille","lat":43.31482,"lon":5.373,"is_reserved":false,"is_disabled":false,"rental_uris":{"android":"levelo://app?vid=667e0fe2-e718-4e5e-9981-7e0ecdc8ab33","ios":"levelo://app?vid=667e0fe2-e718-4e5e-9981-7e0ecdc8ab33"},"vehicle_type_id":"4","last_reported":1726736983,"current_range_meters":38000,"station_id":"ce4bgt12rcd13ifvqcd0","pricing_plan_id":"cebpf4jnsgd1na2vs0mg"},{"bike_id":"9be94feb-a495-4651-8693-da9a946157ae","system_id":"levelo_inurba_marseille","lat":43.25008,"lon":5.38919,"is_reserved":false,"is_disabled":false,"rental_uris":{"android":"levelo://app?vid=9be94feb-a495-4651-8693-da9a946157ae","ios":"levelo://app?vid=9be94feb-a495-4651-8693-da9a946157ae"},"vehicle_type_id":"4","last_reported":1726736983,"current_range_meters":16400,"station_id":"ce4bhgp2rcd13ifvqfd0","pricing_plan_id":"cebpf4jnsgd1na2vs0mg"},{"bike_id":"f4b7c585-7f45-441f-83b3-d8af3c7501f8","system_id":"levelo_inurba_marseille","lat":43.30204,"lon":5.36634,"is_reserved":false,"is_disabled":false,"rental_uris":{"android":"levelo://app?vid=f4b7c585-7f45-441f-83b3-d8af3c7501f8","ios":"levelo://app?vid=f4b7c585-7f45-441f-83b3-d8af3c7501f8"},"vehicle_type_id":"4","last_reported":1726736983,"current_range_meters":0,"station_id":"ce4bgrh2rcd13ifvqc8g","pricing_plan_id":"cebpf4jnsgd1na2vs0mg"},{"bike_id":"c34c129c-c090-4402-921d-f7d12157c4e3","system_id":"levelo_inurba_marseille","lat":43.289307,"lon":5.364025,"is_reserved":false,"is_disabled":false,"rental_uris":{"android":"levelo://app?vid=c34c129c-c090-4402-921d-f7d12157c4e3","ios":"levelo://app?vid=c34c129c-c090-4402-921d-f7d12157c4e3"},"vehicle_type_id":"4","last_reported":1726736983,"current_range_meters":16000,"station_id":"ce4bgkp2rcd13ifvqbmg","pricing_plan_id":"cebpf4jnsgd1na2vs0mg"},{"bike_id":"a5cd8307-20cc-4eb9-b57d-a4f6fffd25c4","system_id":"levelo_inurba_marseille","lat":43.26938,"lon":5.38636,"is_reserved":false,"is_disabled":false,"rental_uris":{"android":"levelo://app?vid=a5cd8307-20cc-4eb9-b57d-a4f6fffd25c4","ios":"levelo://app?vid=a5cd8307-20cc-4eb9-b57d-a4f6fffd25c4"},"vehicle_type_id":"4","last_reported":1726736983,"current_range_meters":6400,"station_id":"ce4bhh92rcd13ifvqfh0","pricing_plan_id":"cebpf4jnsgd1na2vs0mg"},{"bike_id":"5853071a-a7de-43ad-87c8-982495d79fa0","system_id":"levelo_inurba_marseille","lat":43.25009,"lon":5.38916,"is_reserved":false,"is_disabled":false,"rental_uris":{"android":"levelo://app?vid=5853071a-a7de-43ad-87c8-982495d79fa0","ios":"levelo://app?vid=5853071a-a7de-43ad-87c8-982495d79fa0"},"vehicle_type_id":"4","last_reported":1726736983,"current_range_meters":36000,"station_id":"ce4bhgp2rcd13ifvqfd0","pricing_plan_id":"cebpf4jnsgd1na2vs0mg"},{"bike_id":"38b7a7db-70f7-4d57-b525-b40a61ca7ebe","system_id":"levelo_inurba_marseille","lat":43.313324,"lon":5.396974,"is_reserved":false,"is_disabled":false,"rental_uris":{"android":"levelo://app?vid=38b7a7db-70f7-4d57-b525-b40a61ca7ebe","ios":"levelo://app?vid=38b7a7db-70f7-4d57-b525-b40a61ca7ebe"},"vehicle_type_id":"4","last_reported":1726736983,"current_range_meters":38000,"station_id":"ce4bgvp2rcd13ifvqcu0","pricing_plan_id":"cebpf4jnsgd1na2vs0mg"},{"bike_id":"51c1ab5c-1e9a-49ba-858e-427133b223c6","system_id":"levelo_inurba_marseille","lat":43.28485,"lon":5.34996,"is_reserved":false,"is_disabled":false,"rental_uris":{"android":"levelo://app?vid=51c1ab5c-1e9a-49ba-858e-427133b223c6","ios":"levelo://app?vid=51c1ab5c-1e9a-49ba-858e-427133b223c6"},"vehicle_type_id":"4","last_reported":1726736983,"current_range_meters":30000,"station_id":"ce4bhbh2rcd13ifvqepg","pricing_plan_id":"cebpf4jnsgd1na2vs0mg"},{"bike_id":"80fe57d1-b34c-45a6-aa5e-f03a4432698f","system_id":"levelo_inurba_marseille","lat":43.26773,"lon":5.39424,"is_reserved":false,"is_disabled":false,"rental_uris":{"android":"levelo://app?vid=80fe57d1-b34c-45a6-aa5e-f03a4432698f","ios":"levelo://app?vid=80fe57d1-b34c-45a6-aa5e-f03a4432698f"},"vehicle_type_id":"4","last_reported":1726736983,"current_range_meters":18000,"station_id":"ce4bhh12rcd13ifvqfg0","pricing_plan_id":"cebpf4jnsgd1na2vs0mg"},{"bike_id":"e631b8a2-d40b-44b6-9396-30b5b3ab5f0b","system_id":"levelo_inurba_marseille","lat":43.29576,"lon":5.36742,"is_reserved":false,"is_disabled":false,"rental_uris":{"android":"levelo://app?vid=e631b8a2-d40b-44b6-9396-30b5b3ab5f0b","ios":"levelo://app?vid=e631b8a2-d40b-44b6-9396-30b5b3ab5f0b"},"vehicle_type_id":"4","last_reported":1726736983,"current_range_meters":6000,"station_id":"ce4bgph2rcd13ifvqc2g","pricing_plan_id":"cebpf4jnsgd1na2vs0mg"},{"bike_id":"247b413c-9246-40fe-8d26-4a68a671dadb","system_id":"levelo_inurba_marseille","lat":43.27304,"lon":5.39096,"is_reserved":false,"is_disabled":false,"rental_uris":{"android":"levelo://app?vid=247b413c-9246-40fe-8d26-4a68a671dadb","ios":"levelo://app?vid=247b413c-9246-40fe-8d26-4a68a671dadb"},"vehicle_type_id":"4","last_reported":1726736983,"current_range_meters":20800,"station_id":"ce4bhgp2rcd13ifvqfe0","pricing_plan_id":"cebpf4jnsgd1na2vs0mg"},{"bike_id":"02bb3f37-0be5-4a53-8ab2-0ad1754d6f88","system_id":"levelo_inurba_marseille","lat":43.30283,"lon":5.377,"is_reserved":false,"is_disabled":false,"rental_uris":{"android":"levelo://app?vid=02bb3f37-0be5-4a53-8ab2-0ad1754d6f88","ios":"levelo://app?vid=02bb3f37-0be5-4a53-8ab2-0ad1754d6f88"},"vehicle_type_id":"4","last_reported":1726736983,"current_range_meters":40000,"station_id":"ce4bguh2rcd13ifvqcj0","pricing_plan_id":"cebpf4jnsgd1na2vs0mg"},{"bike_id":"d3b700ec-11cd-4fc9-a27b-7142c41b0c26","system_id":"levelo_inurba_marseille","lat":43.30461,"lon":5.37901,"is_reserved":false,"is_disabled":false,"rental_uris":{"android":"levelo://app?vid=d3b700ec-11cd-4fc9-a27b-7142c41b0c26","ios":"levelo://app?vid=d3b700ec-11cd-4fc9-a27b-7142c41b0c26"},"vehicle_type_id":"4","last_reported":1726736983,"current_range_meters":32400,"station_id":"ce4bgup2rcd13ifvqcn0","pricing_plan_id":"cebpf4jnsgd1na2vs0mg"},{"bike_id":"ed08e990-72bf-488f-9476-64584a604f05","system_id":"levelo_inurba_marseille","lat":43.319905,"lon":5.381651,"is_reserved":false,"is_disabled":false,"rental_uris":{"android":"levelo://app?vid=ed08e990-72bf-488f-9476-64584a604f05","ios":"levelo://app?vid=ed08e990-72bf-488f-9476-64584a604f05"},"vehicle_type_id":"4","last_reported":1726736983,"current_range_meters":19600,"station_id":"ce4bhr12rcd13ifvqhpg","pricing_plan_id":"cebpf4jnsgd1na2vs0mg"},{"bike_id":"4f4c133c-b838-4ebb-976a-12965ad0d013","system_id":"levelo_inurba_marseille","lat":43.30534,"lon":5.367,"is_reserved":false,"is_disabled":false,"rental_uris":{"android":"levelo://app?vid=4f4c133c-b838-4ebb-976a-12965ad0d013","ios":"levelo://app?vid=4f4c133c-b838-4ebb-976a-12965ad0d013"},"vehicle_type_id":"4","last_reported":1726736983,"current_range_meters":39200,"station_id":"ce4bgrp2rcd13ifvqc9g","pricing_plan_id":"cebpf4jnsgd1na2vs0mg"},{"bike_id":"dd8d4f71-d58c-4e01-a96d-60ab9d281e12","system_id":"levelo_inurba_marseille","lat":43.27298,"lon":5.39087,"is_reserved":false,"is_disabled":false,"rental_uris":{"android":"levelo://app?vid=dd8d4f71-d58c-4e01-a96d-60ab9d281e12","ios":"levelo://app?vid=dd8d4f71-d58c-4e01-a96d-60ab9d281e12"},"vehicle_type_id":"4","last_reported":1726736983,"current_range_meters":23200,"station_id":"ce4bhgp2rcd13ifvqfe0","pricing_plan_id":"cebpf4jnsgd1na2vs0mg"},{"bike_id":"c99d3b3a-0176-4df5-b988-b6d29e126bad","system_id":"levelo_inurba_marseille","lat":43.231781,"lon":5.399926,"is_reserved":false,"is_disabled":false,"rental_uris":{"android":"levelo://app?vid=c99d3b3a-0176-4df5-b988-b6d29e126bad","ios":"levelo://app?vid=c99d3b3a-0176-4df5-b988-b6d29e126bad"},"vehicle_type_id":"4","last_reported":1726736983,"current_range_meters":38400,"station_id":"ce4bhn12rcd13ifvqgqg","pricing_plan_id":"cebpf4jnsgd1na2vs0mg"},{"bike_id":"7f85c424-76bf-4e62-aa08-945834d9fa36","system_id":"levelo_inurba_marseille","lat":43.30466,"lon":5.37894,"is_reserved":false,"is_disabled":false,"rental_uris":{"android":"levelo://app?vid=7f85c424-76bf-4e62-aa08-945834d9fa36","ios":"levelo://app?vid=7f85c424-76bf-4e62-aa08-945834d9fa36"},"vehicle_type_id":"4","last_reported":1726736983,"current_range_meters":40000,"station_id":"ce4bgup2rcd13ifvqcn0","pricing_plan_id":"cebpf4jnsgd1na2vs0mg"},{"bike_id":"5c59cc01-d461-43c5-8a64-d13f65e90a88","system_id":"levelo_inurba_marseille","lat":43.30902,"lon":5.36852,"is_reserved":false,"is_disabled":false,"rental_uris":{"android":"levelo://app?vid=5c59cc01-d461-43c5-8a64-d13f65e90a88","ios":"levelo://app?vid=5c59cc01-d461-43c5-8a64-d13f65e90a88"},"vehicle_type_id":"4","last_reported":1726736983,"current_range_meters":19200,"station_id":"ce4bgn92rcd13ifvqbvg","pricing_plan_id":"cebpf4jnsgd1na2vs0mg"},{"bike_id":"55fed244-caf4-46e6-99fc-fcd916ddb5b7","system_id":"levelo_inurba_marseille","lat":43.23198,"lon":5.35542,"is_reserved":false,"is_disabled":false,"rental_uris":{"android":"levelo://app?vid=55fed244-caf4-46e6-99fc-fcd916ddb5b7","ios":"levelo://app?vid=55fed244-caf4-46e6-99fc-fcd916ddb5b7"},"vehicle_type_id":"4","last_reported":1726736983,"current_range_meters":19600,"station_id":"ce4bhu92rcd13ifvqi70","pricing_plan_id":"cebpf4jnsgd1na2vs0mg"},{"bike_id":"180adcd2-2c07-4d51-b7cb-0c8da7c9902f","system_id":"levelo_inurba_marseille","lat":43.26199,"lon":5.3792,"is_reserved":false,"is_disabled":false,"rental_uris":{"android":"levelo://app?vid=180adcd2-2c07-4d51-b7cb-0c8da7c9902f","ios":"levelo://app?vid=180adcd2-2c07-4d51-b7cb-0c8da7c9902f"},"vehicle_type_id":"4","last_reported":1726736983,"current_range_meters":33600,"station_id":"ce4bhjp2rcd13ifvqg90","pricing_plan_id":"cebpf4jnsgd1na2vs0mg"},{"bike_id":"da7453a4-a543-439d-a57a-b04a958158fc","system_id":"levelo_inurba_marseille","lat":43.25943,"lon":5.409,"is_reserved":false,"is_disabled":false,"rental_uris":{"android":"levelo://app?vid=da7453a4-a543-439d-a57a-b04a958158fc","ios":"levelo://app?vid=da7453a4-a543-439d-a57a-b04a958158fc"},"vehicle_type_id":"4","last_reported":1726736983,"current_range_meters":30800,"station_id":"ce4bhm92rcd13ifvqglg","pricing_plan_id":"cebpf4jnsgd1na2vs0mg"},{"bike_id":"b8cb3e08-b3bd-4819-ab7b-5aaaf972d65e","system_id":"levelo_inurba_marseille","lat":43.28703,"lon":5.39983,"is_reserved":false,"is_disabled":false,"rental_uris":{"android":"levelo://app?vid=b8cb3e08-b3bd-4819-ab7b-5aaaf972d65e","ios":"levelo://app?vid=b8cb3e08-b3bd-4819-ab7b-5aaaf972d65e"},"vehicle_type_id":"4","last_reported":1726736983,"current_range_meters":30800,"station_id":"ce4bho92rcd13ifvqh3g","pricing_plan_id":"cebpf4jnsgd1na2vs0mg"},{"bike_id":"a5ac0cca-ed4c-48ca-a726-adfadbced234","system_id":"levelo_inurba_marseille","lat":43.26791,"lon":5.39411,"is_reserved":false,"is_disabled":false,"rental_uris":{"android":"levelo://app?vid=a5ac0cca-ed4c-48ca-a726-adfadbced234","ios":"levelo://app?vid=a5ac0cca-ed4c-48ca-a726-adfadbced234"},"vehicle_type_id":"4","last_reported":1726736983,"current_range_meters":4400,"station_id":"ce4bhh12rcd13ifvqfg0","pricing_plan_id":"cebpf4jnsgd1na2vs0mg"},{"bike_id":"ee68800c-f319-4020-b038-a34d6349dff4","system_id":"levelo_inurba_marseille","lat":43.23145,"lon":5.43712,"is_reserved":false,"is_disabled":false,"rental_uris":{"android":"levelo://app?vid=ee68800c-f319-4020-b038-a34d6349dff4","ios":"levelo://app?vid=ee68800c-f319-4020-b038-a34d6349dff4"},"vehicle_type_id":"4","last_reported":1726736983,"current_range_meters":18800,"station_id":"ce4bhmp2rcd13ifvqgog","pricing_plan_id":"cebpf4jnsgd1na2vs0mg"},{"bike_id":"29282010-0b32-42d2-af0d-1f754ea6ce81","system_id":"levelo_inurba_marseille","lat":43.2835,"lon":5.38618,"is_reserved":false,"is_disabled":false,"rental_uris":{"android":"levelo://app?vid=29282010-0b32-42d2-af0d-1f754ea6ce81","ios":"levelo://app?vid=29282010-0b32-42d2-af0d-1f754ea6ce81"},"vehicle_type_id":"4","last_reported":1726736983,"current_range_meters":24400,"station_id":"ce4bh492rcd13ifvqdvg","pricing_plan_id":"cebpf4jnsgd1na2vs0mg"},{"bike_id":"b1d6a91f-837f-4163-af80-6d333d9c1c9e","system_id":"levelo_inurba_marseille","lat":43.32532,"lon":5.4145,"is_reserved":false,"is_disabled":false,"rental_uris":{"android":"levelo://app?vid=b1d6a91f-837f-4163-af80-6d333d9c1c9e","ios":"levelo://app?vid=b1d6a91f-837f-4163-af80-6d333d9c1c9e"},"vehicle_type_id":"4","last_reported":1726736983,"current_range_meters":17200,"station_id":"ce4bhq12rcd13ifvqhhg","pricing_plan_id":"cebpf4jnsgd1na2vs0mg"},{"bike_id":"bb84d119-edcd-41c0-91e8-a062977a7329","system_id":"levelo_inurba_marseille","lat":43.31718,"lon":5.424,"is_reserved":false,"is_disabled":false,"rental_uris":{"android":"levelo://app?vid=bb84d119-edcd-41c0-91e8-a062977a7329","ios":"levelo://app?vid=bb84d119-edcd-41c0-91e8-a062977a7329"},"vehicle_type_id":"4","last_reported":1726736983,"current_range_meters":19600,"station_id":"ce4bhp92rcd13ifvqhbg","pricing_plan_id":"cebpf4jnsgd1na2vs0mg"},{"bike_id":"d95d6d74-17ea-4756-b192-a967e24cda36","system_id":"levelo_inurba_marseille","lat":43.27942,"lon":5.4105,"is_reserved":false,"is_disabled":false,"rental_uris":{"android":"levelo://app?vid=d95d6d74-17ea-4756-b192-a967e24cda36","ios":"levelo://app?vid=d95d6d74-17ea-4756-b192-a967e24cda36"},"vehicle_type_id":"4","last_reported":1726736983,"current_range_meters":20000,"station_id":"ce4bhnp2rcd13ifvqh0g","pricing_plan_id":"cebpf4jnsgd1na2vs0mg"},{"bike_id":"6dd65f80-bc12-4cf3-ade3-78fd80b49797","system_id":"levelo_inurba_marseille","lat":43.25938,"lon":5.40902,"is_reserved":false,"is_disabled":false,"rental_uris":{"android":"levelo://app?vid=6dd65f80-bc12-4cf3-ade3-78fd80b49797","ios":"levelo://app?vid=6dd65f80-bc12-4cf3-ade3-78fd80b49797"},"vehicle_type_id":"4","last_reported":1726736983,"current_range_meters":20400,"station_id":"ce4bhm92rcd13ifvqglg","pricing_plan_id":"cebpf4jnsgd1na2vs0mg"},{"bike_id":"e9c12d1b-6da0-4cc3-83bb-95bd5eb4adbb","system_id":"levelo_inurba_marseille","lat":43.30138,"lon":5.37425,"is_reserved":false,"is_disabled":false,"rental_uris":{"android":"levelo://app?vid=e9c12d1b-6da0-4cc3-83bb-95bd5eb4adbb","ios":"levelo://app?vid=e9c12d1b-6da0-4cc3-83bb-95bd5eb4adbb"},"vehicle_type_id":"4","last_reported":1726736983,"current_range_meters":39200,"station_id":"ce4bgs92rcd13ifvqcc0","pricing_plan_id":"cebpf4jnsgd1na2vs0mg"},{"bike_id":"f1790ff8-1ddc-4c5f-9bb2-716596b83d20","system_id":"levelo_inurba_marseille","lat":43.28034,"lon":5.36951,"is_reserved":false,"is_disabled":false,"rental_uris":{"android":"levelo://app?vid=f1790ff8-1ddc-4c5f-9bb2-716596b83d20","ios":"levelo://app?vid=f1790ff8-1ddc-4c5f-9bb2-716596b83d20"},"vehicle_type_id":"4","last_reported":1726736983,"current_range_meters":19600,"station_id":"ce4bha12rcd13ifvqef0","pricing_plan_id":"cebpf4jnsgd1na2vs0mg"},{"bike_id":"2cbb6dd5-2ec8-4ba5-808a-c5301f897d27","system_id":"levelo_inurba_marseille","lat":43.23951,"lon":5.36637,"is_reserved":false,"is_disabled":false,"rental_uris":{"android":"levelo://app?vid=2cbb6dd5-2ec8-4ba5-808a-c5301f897d27","ios":"levelo://app?vid=2cbb6dd5-2ec8-4ba5-808a-c5301f897d27"},"vehicle_type_id":"4","last_reported":1726736983,"current_range_meters":24000,"station_id":"ce4bhi12rcd13ifvqfp0","pricing_plan_id":"cebpf4jnsgd1na2vs0mg"},{"bike_id":"60a6f6c2-c23b-4cfd-a0cb-c3d4101e03a6","system_id":"levelo_inurba_marseille","lat":43.29839,"lon":5.36263,"is_reserved":false,"is_disabled":false,"rental_uris":{"android":"levelo://app?vid=60a6f6c2-c23b-4cfd-a0cb-c3d4101e03a6","ios":"levelo://app?vid=60a6f6c2-c23b-4cfd-a0cb-c3d4101e03a6"},"vehicle_type_id":"4","last_reported":1726736983,"current_range_meters":39200,"station_id":"ce4bgpp2rcd13ifvqc3g","pricing_plan_id":"cebpf4jnsgd1na2vs0mg"},{"bike_id":"522f25f9-f336-4203-8c67-1e466172e0bb","system_id":"levelo_inurba_marseille","lat":43.29033,"lon":5.37561,"is_reserved":false,"is_disabled":false,"rental_uris":{"android":"levelo://app?vid=522f25f9-f336-4203-8c67-1e466172e0bb","ios":"levelo://app?vid=522f25f9-f336-4203-8c67-1e466172e0bb"},"vehicle_type_id":"4","last_reported":1726736983,"current_range_meters":20000,"station_id":"ce4bh692rcd13ifvqe90","pricing_plan_id":"cebpf4jnsgd1na2vs0mg"},{"bike_id":"a271a571-7400-40e0-8e71-e83076131bee","system_id":"levelo_inurba_marseille","lat":43.24076,"lon":5.37753,"is_reserved":false,"is_disabled":false,"rental_uris":{"android":"levelo://app?vid=a271a571-7400-40e0-8e71-e83076131bee","ios":"levelo://app?vid=a271a571-7400-40e0-8e71-e83076131bee"},"vehicle_type_id":"4","last_reported":1726736983,"current_range_meters":34800,"station_id":"ce4bhnp2rcd13ifvqgvg","pricing_plan_id":"cebpf4jnsgd1na2vs0mg"},{"bike_id":"92302f36-89d5-4600-9a31-638bb75a4857","system_id":"levelo_inurba_marseille","lat":43.33607,"lon":5.41033,"is_reserved":false,"is_disabled":false,"rental_uris":{"android":"levelo://app?vid=92302f36-89d5-4600-9a31-638bb75a4857","ios":"levelo://app?vid=92302f36-89d5-4600-9a31-638bb75a4857"},"vehicle_type_id":"4","last_reported":1726736983,"current_range_meters":36800,"station_id":"ce4bhqh2rcd13ifvqhmg","pricing_plan_id":"cebpf4jnsgd1na2vs0mg"},{"bike_id":"ab6dfeea-21e3-4eb0-85c5-3fa34a84021e","system_id":"levelo_inurba_marseille","lat":43.28712,"lon":5.37946,"is_reserved":false,"is_disabled":false,"rental_uris":{"android":"levelo://app?vid=ab6dfeea-21e3-4eb0-85c5-3fa34a84021e","ios":"levelo://app?vid=ab6dfeea-21e3-4eb0-85c5-3fa34a84021e"},"vehicle_type_id":"4","last_reported":1726736983,"current_range_meters":18000,"station_id":"ce4bh9p2rcd13ifvqec0","pricing_plan_id":"cebpf4jnsgd1na2vs0mg"},{"bike_id":"8ff22955-17f5-45c1-afdb-042ab4ba47ce","system_id":"levelo_inurba_marseille","lat":43.24072,"lon":5.37764,"is_reserved":false,"is_disabled":false,"rental_uris":{"android":"levelo://app?vid=8ff22955-17f5-45c1-afdb-042ab4ba47ce","ios":"levelo://app?vid=8ff22955-17f5-45c1-afdb-042ab4ba47ce"},"vehicle_type_id":"4","last_reported":1726736983,"current_range_meters":27200,"station_id":"ce4bhnp2rcd13ifvqgvg","pricing_plan_id":"cebpf4jnsgd1na2vs0mg"},{"bike_id":"cbdee263-28c4-4479-ae53-620b05016a58","system_id":"levelo_inurba_marseille","lat":43.31354,"lon":5.36708,"is_reserved":false,"is_disabled":false,"rental_uris":{"android":"levelo://app?vid=cbdee263-28c4-4479-ae53-620b05016a58","ios":"levelo://app?vid=cbdee263-28c4-4479-ae53-620b05016a58"},"vehicle_type_id":"4","last_reported":1726736983,"current_range_meters":30800,"station_id":"ce4bgr92rcd13ifvqc6g","pricing_plan_id":"cebpf4jnsgd1na2vs0mg"},{"bike_id":"52fffaf1-dd98-4e0a-a39d-48011512624f","system_id":"levelo_inurba_marseille","lat":43.25498,"lon":5.3765,"is_reserved":false,"is_disabled":false,"rental_uris":{"android":"levelo://app?vid=52fffaf1-dd98-4e0a-a39d-48011512624f","ios":"levelo://app?vid=52fffaf1-dd98-4e0a-a39d-48011512624f"},"vehicle_type_id":"4","last_reported":1726736983,"current_range_meters":30000,"station_id":"ce4bhh12rcd13ifvqff0","pricing_plan_id":"cebpf4jnsgd1na2vs0mg"},{"bike_id":"54f0dbf5-a349-47b8-b649-bd849b46acd1","system_id":"levelo_inurba_marseille","lat":43.30139,"lon":5.37419,"is_reserved":false,"is_disabled":false,"rental_uris":{"android":"levelo://app?vid=54f0dbf5-a349-47b8-b649-bd849b46acd1","ios":"levelo://app?vid=54f0dbf5-a349-47b8-b649-bd849b46acd1"},"vehicle_type_id":"4","last_reported":1726736983,"current_range_meters":38000,"station_id":"ce4bgs92rcd13ifvqcc0","pricing_plan_id":"cebpf4jnsgd1na2vs0mg"},{"bike_id":"ab957eff-0a72-4c5a-a176-6c0e2015c982","system_id":"levelo_inurba_marseille","lat":43.29844,"lon":5.36282,"is_reserved":false,"is_disabled":false,"rental_uris":{"android":"levelo://app?vid=ab957eff-0a72-4c5a-a176-6c0e2015c982","ios":"levelo://app?vid=ab957eff-0a72-4c5a-a176-6c0e2015c982"},"vehicle_type_id":"4","last_reported":1726736983,"current_range_meters":20800,"station_id":"ce4bgpp2rcd13ifvqc3g","pricing_plan_id":"cebpf4jnsgd1na2vs0mg"},{"bike_id":"8c4e7ff3-c407-4ee4-a178-d8cada511f9f","system_id":"levelo_inurba_marseille","lat":43.24995,"lon":5.38929,"is_reserved":false,"is_disabled":false,"rental_uris":{"android":"levelo://app?vid=8c4e7ff3-c407-4ee4-a178-d8cada511f9f","ios":"levelo://app?vid=8c4e7ff3-c407-4ee4-a178-d8cada511f9f"},"vehicle_type_id":"4","last_reported":1726736983,"current_range_meters":30000,"station_id":"ce4bhgp2rcd13ifvqfd0","pricing_plan_id":"cebpf4jnsgd1na2vs0mg"},{"bike_id":"d37aa318-9eec-42e5-ad66-edcb803356f0","system_id":"levelo_inurba_marseille","lat":43.27805,"lon":5.42812,"is_reserved":false,"is_disabled":false,"rental_uris":{"android":"levelo://app?vid=d37aa318-9eec-42e5-ad66-edcb803356f0","ios":"levelo://app?vid=d37aa318-9eec-42e5-ad66-edcb803356f0"},"vehicle_type_id":"4","last_reported":1726736983,"current_range_meters":6000,"station_id":"","pricing_plan_id":"cebpf4jnsgd1na2vs0mg"},{"bike_id":"7617fe43-8fec-4602-b5d5-e996c1eb6a44","system_id":"levelo_inurba_marseille","lat":43.23192,"lon":5.35546,"is_reserved":false,"is_disabled":false,"rental_uris":{"android":"levelo://app?vid=7617fe43-8fec-4602-b5d5-e996c1eb6a44","ios":"levelo://app?vid=7617fe43-8fec-4602-b5d5-e996c1eb6a44"},"vehicle_type_id":"4","last_reported":1726736983,"current_range_meters":39200,"station_id":"ce4bhu92rcd13ifvqi70","pricing_plan_id":"cebpf4jnsgd1na2vs0mg"},{"bike_id":"99bc560b-3038-410f-ba17-a53607539008","system_id":"levelo_inurba_marseille","lat":43.30904,"lon":5.36847,"is_reserved":false,"is_disabled":false,"rental_uris":{"android":"levelo://app?vid=99bc560b-3038-410f-ba17-a53607539008","ios":"levelo://app?vid=99bc560b-3038-410f-ba17-a53607539008"},"vehicle_type_id":"4","last_reported":1726736983,"current_range_meters":24400,"station_id":"ce4bgn92rcd13ifvqbvg","pricing_plan_id":"cebpf4jnsgd1na2vs0mg"},{"bike_id":"011c3d55-2368-40f1-b590-0f25bc645971","system_id":"levelo_inurba_marseille","lat":43.3361,"lon":5.41029,"is_reserved":false,"is_disabled":false,"rental_uris":{"android":"levelo://app?vid=011c3d55-2368-40f1-b590-0f25bc645971","ios":"levelo://app?vid=011c3d55-2368-40f1-b590-0f25bc645971"},"vehicle_type_id":"4","last_reported":1726736983,"current_range_meters":33200,"station_id":"ce4bhqh2rcd13ifvqhmg","pricing_plan_id":"cebpf4jnsgd1na2vs0mg"},{"bike_id":"bf481fac-aa2b-40b9-b84e-b23278a59f50","system_id":"levelo_inurba_marseille","lat":43.30418,"lon":5.4128,"is_reserved":false,"is_disabled":false,"rental_uris":{"android":"levelo://app?vid=bf481fac-aa2b-40b9-b84e-b23278a59f50","ios":"levelo://app?vid=bf481fac-aa2b-40b9-b84e-b23278a59f50"},"vehicle_type_id":"4","last_reported":1726736983,"current_range_meters":22000,"station_id":"ce4bhop2rcd13ifvqh8g","pricing_plan_id":"cebpf4jnsgd1na2vs0mg"},{"bike_id":"bbf98b5f-9d4a-44dd-9803-f66613dc0499","system_id":"levelo_inurba_marseille","lat":43.27381,"lon":5.36261,"is_reserved":false,"is_disabled":false,"rental_uris":{"android":"levelo://app?vid=bbf98b5f-9d4a-44dd-9803-f66613dc0499","ios":"levelo://app?vid=bbf98b5f-9d4a-44dd-9803-f66613dc0499"},"vehicle_type_id":"4","last_reported":1726736983,"current_range_meters":36400,"station_id":"ce4bhbh2rcd13ifvqeo0","pricing_plan_id":"cebpf4jnsgd1na2vs0mg"},{"bike_id":"1e862ebc-eb59-48a0-ae9e-6ae87b052c26","system_id":"levelo_inurba_marseille","lat":43.29846,"lon":5.36279,"is_reserved":false,"is_disabled":false,"rental_uris":{"android":"levelo://app?vid=1e862ebc-eb59-48a0-ae9e-6ae87b052c26","ios":"levelo://app?vid=1e862ebc-eb59-48a0-ae9e-6ae87b052c26"},"vehicle_type_id":"4","last_reported":1726736983,"current_range_meters":28800,"station_id":"ce4bgpp2rcd13ifvqc3g","pricing_plan_id":"cebpf4jnsgd1na2vs0mg"},{"bike_id":"2b714e73-49f8-4f26-bb6d-7d72ce23aabc","system_id":"levelo_inurba_marseille","lat":43.23054,"lon":5.35493,"is_reserved":false,"is_disabled":false,"rental_uris":{"android":"levelo://app?vid=2b714e73-49f8-4f26-bb6d-7d72ce23aabc","ios":"levelo://app?vid=2b714e73-49f8-4f26-bb6d-7d72ce23aabc"},"vehicle_type_id":"4","last_reported":1726736983,"current_range_meters":3200,"station_id":"cpo3342slgdg3j2ifvpg","pricing_plan_id":"cebpf4jnsgd1na2vs0mg"},{"bike_id":"6abd6ed8-e9da-4163-9975-ae064d953b07","system_id":"levelo_inurba_marseille","lat":43.25937,"lon":5.40903,"is_reserved":false,"is_disabled":false,"rental_uris":{"android":"levelo://app?vid=6abd6ed8-e9da-4163-9975-ae064d953b07","ios":"levelo://app?vid=6abd6ed8-e9da-4163-9975-ae064d953b07"},"vehicle_type_id":"4","last_reported":1726736983,"current_range_meters":30800,"station_id":"ce4bhm92rcd13ifvqglg","pricing_plan_id":"cebpf4jnsgd1na2vs0mg"},{"bike_id":"87483675-10ba-4b90-9ed9-a62636228fd3","system_id":"levelo_inurba_marseille","lat":43.25934,"lon":5.40909,"is_reserved":false,"is_disabled":false,"rental_uris":{"android":"levelo://app?vid=87483675-10ba-4b90-9ed9-a62636228fd3","ios":"levelo://app?vid=87483675-10ba-4b90-9ed9-a62636228fd3"},"vehicle_type_id":"4","last_reported":1726736983,"current_range_meters":33200,"station_id":"ce4bhm92rcd13ifvqglg","pricing_plan_id":"cebpf4jnsgd1na2vs0mg"},{"bike_id":"2e64ac77-37d0-42c4-9b89-df897b66197d","system_id":"levelo_inurba_marseille","lat":43.29964,"lon":5.41321,"is_reserved":false,"is_disabled":false,"rental_uris":{"android":"levelo://app?vid=2e64ac77-37d0-42c4-9b89-df897b66197d","ios":"levelo://app?vid=2e64ac77-37d0-42c4-9b89-df897b66197d"},"vehicle_type_id":"4","last_reported":1726736983,"current_range_meters":39200,"station_id":"ce4bhp12rcd13ifvqh9g","pricing_plan_id":"cebpf4jnsgd1na2vs0mg"},{"bike_id":"12fd216c-4005-44e5-a188-d2b75f8e3663","system_id":"levelo_inurba_marseille","lat":43.29895,"lon":5.3813,"is_reserved":false,"is_disabled":false,"rental_uris":{"android":"levelo://app?vid=12fd216c-4005-44e5-a188-d2b75f8e3663","ios":"levelo://app?vid=12fd216c-4005-44e5-a188-d2b75f8e3663"},"vehicle_type_id":"4","last_reported":1726736983,"current_range_meters":36800,"station_id":"ce4bgj12rcd13ifvqbc0","pricing_plan_id":"cebpf4jnsgd1na2vs0mg"},{"bike_id":"fa0db3ec-c33f-4697-be37-31039aa03f65","system_id":"levelo_inurba_marseille","lat":43.243835,"lon":5.370561,"is_reserved":false,"is_disabled":false,"rental_uris":{"android":"levelo://app?vid=fa0db3ec-c33f-4697-be37-31039aa03f65","ios":"levelo://app?vid=fa0db3ec-c33f-4697-be37-31039aa03f65"},"vehicle_type_id":"4","last_reported":1726736983,"current_range_meters":36400,"station_id":"ce4bhhh2rcd13ifvqfk0","pricing_plan_id":"cebpf4jnsgd1na2vs0mg"},{"bike_id":"af2bef4f-9caa-4eea-a587-3f3222bd844b","system_id":"levelo_inurba_marseille","lat":43.2408,"lon":5.37749,"is_reserved":false,"is_disabled":false,"rental_uris":{"android":"levelo://app?vid=af2bef4f-9caa-4eea-a587-3f3222bd844b","ios":"levelo://app?vid=af2bef4f-9caa-4eea-a587-3f3222bd844b"},"vehicle_type_id":"4","last_reported":1726736983,"current_range_meters":35600,"station_id":"ce4bhnp2rcd13ifvqgvg","pricing_plan_id":"cebpf4jnsgd1na2vs0mg"},{"bike_id":"be5df729-f5f3-4260-8f93-c174d533b9fa","system_id":"levelo_inurba_marseille","lat":43.2499,"lon":5.38923,"is_reserved":false,"is_disabled":false,"rental_uris":{"android":"levelo://app?vid=be5df729-f5f3-4260-8f93-c174d533b9fa","ios":"levelo://app?vid=be5df729-f5f3-4260-8f93-c174d533b9fa"},"vehicle_type_id":"4","last_reported":1726736983,"current_range_meters":29600,"station_id":"ce4bhgp2rcd13ifvqfd0","pricing_plan_id":"cebpf4jnsgd1na2vs0mg"},{"bike_id":"c9aa5411-d979-4495-b085-e7e9038ea406","system_id":"levelo_inurba_marseille","lat":43.28421,"lon":5.34976,"is_reserved":false,"is_disabled":false,"rental_uris":{"android":"levelo://app?vid=c9aa5411-d979-4495-b085-e7e9038ea406","ios":"levelo://app?vid=c9aa5411-d979-4495-b085-e7e9038ea406"},"vehicle_type_id":"4","last_reported":1726736983,"current_range_meters":28800,"station_id":"ce4bhbh2rcd13ifvqepg","pricing_plan_id":"cebpf4jnsgd1na2vs0mg"},{"bike_id":"bda43ea3-dbdd-4b08-a349-4b0d86fdb032","system_id":"levelo_inurba_marseille","lat":43.24073,"lon":5.37743,"is_reserved":false,"is_disabled":false,"rental_uris":{"android":"levelo://app?vid=bda43ea3-dbdd-4b08-a349-4b0d86fdb032","ios":"levelo://app?vid=bda43ea3-dbdd-4b08-a349-4b0d86fdb032"},"vehicle_type_id":"4","last_reported":1726736983,"current_range_meters":36400,"station_id":"ce4bhnp2rcd13ifvqgvg","pricing_plan_id":"cebpf4jnsgd1na2vs0mg"},{"bike_id":"7872948f-4eb5-4217-b532-0383a06374fd","system_id":"levelo_inurba_marseille","lat":43.25931,"lon":5.40907,"is_reserved":false,"is_disabled":false,"rental_uris":{"android":"levelo://app?vid=7872948f-4eb5-4217-b532-0383a06374fd","ios":"levelo://app?vid=7872948f-4eb5-4217-b532-0383a06374fd"},"vehicle_type_id":"4","last_reported":1726736983,"current_range_meters":28400,"station_id":"ce4bhm92rcd13ifvqglg","pricing_plan_id":"cebpf4jnsgd1na2vs0mg"},{"bike_id":"6ad4bd65-2018-415b-af44-c744844bc858","system_id":"levelo_inurba_marseille","lat":43.24077,"lon":5.37757,"is_reserved":false,"is_disabled":false,"rental_uris":{"android":"levelo://app?vid=6ad4bd65-2018-415b-af44-c744844bc858","ios":"levelo://app?vid=6ad4bd65-2018-415b-af44-c744844bc858"},"vehicle_type_id":"4","last_reported":1726736983,"current_range_meters":14800,"station_id":"ce4bhnp2rcd13ifvqgvg","pricing_plan_id":"cebpf4jnsgd1na2vs0mg"},{"bike_id":"d62a3b6b-3952-4115-a9de-a42ba245ef79","system_id":"levelo_inurba_marseille","lat":43.29936,"lon":5.36538,"is_reserved":false,"is_disabled":false,"rental_uris":{"android":"levelo://app?vid=d62a3b6b-3952-4115-a9de-a42ba245ef79","ios":"levelo://app?vid=d62a3b6b-3952-4115-a9de-a42ba245ef79"},"vehicle_type_id":"4","last_reported":1726736983,"current_range_meters":27600,"station_id":"ce4bgm92rcd13ifvqbr0","pricing_plan_id":"cebpf4jnsgd1na2vs0mg"},{"bike_id":"83ca9bd0-3343-425c-8a8c-6e8a7e31c55f","system_id":"levelo_inurba_marseille","lat":43.31345,"lon":5.36722,"is_reserved":false,"is_disabled":false,"rental_uris":{"android":"levelo://app?vid=83ca9bd0-3343-425c-8a8c-6e8a7e31c55f","ios":"levelo://app?vid=83ca9bd0-3343-425c-8a8c-6e8a7e31c55f"},"vehicle_type_id":"4","last_reported":1726736983,"current_range_meters":39200,"station_id":"ce4bgr92rcd13ifvqc6g","pricing_plan_id":"cebpf4jnsgd1na2vs0mg"},{"bike_id":"3054afe6-4c88-4656-9a5d-c31a1a4a065f","system_id":"levelo_inurba_marseille","lat":43.32467,"lon":5.36563,"is_reserved":false,"is_disabled":false,"rental_uris":{"android":"levelo://app?vid=3054afe6-4c88-4656-9a5d-c31a1a4a065f","ios":"levelo://app?vid=3054afe6-4c88-4656-9a5d-c31a1a4a065f"},"vehicle_type_id":"4","last_reported":1726736983,"current_range_meters":34000,"station_id":"ce4bhs12rcd13ifvqhvg","pricing_plan_id":"cebpf4jnsgd1na2vs0mg"},{"bike_id":"0e4b3fff-8da9-4e63-a733-ee49c7744aed","system_id":"levelo_inurba_marseille","lat":43.29304,"lon":5.3716,"is_reserved":false,"is_disabled":false,"rental_uris":{"android":"levelo://app?vid=0e4b3fff-8da9-4e63-a733-ee49c7744aed","ios":"levelo://app?vid=0e4b3fff-8da9-4e63-a733-ee49c7744aed"},"vehicle_type_id":"4","last_reported":1726736983,"current_range_meters":27600,"station_id":"ce4bgh92rcd13ifvqb40","pricing_plan_id":"cebpf4jnsgd1na2vs0mg"},{"bike_id":"498d7683-d252-4f3f-abc7-c4839fb52ad1","system_id":"levelo_inurba_marseille","lat":43.28148,"lon":5.42646,"is_reserved":false,"is_disabled":false,"rental_uris":{"android":"levelo://app?vid=498d7683-d252-4f3f-abc7-c4839fb52ad1","ios":"levelo://app?vid=498d7683-d252-4f3f-abc7-c4839fb52ad1"},"vehicle_type_id":"4","last_reported":1726736983,"current_range_meters":26000,"station_id":"ce4bhnh2rcd13ifvqgug","pricing_plan_id":"cebpf4jnsgd1na2vs0mg"},{"bike_id":"5e0f56f5-f149-429e-9dfd-69fe06337df6","system_id":"levelo_inurba_marseille","lat":43.30474,"lon":5.37916,"is_reserved":false,"is_disabled":false,"rental_uris":{"android":"levelo://app?vid=5e0f56f5-f149-429e-9dfd-69fe06337df6","ios":"levelo://app?vid=5e0f56f5-f149-429e-9dfd-69fe06337df6"},"vehicle_type_id":"4","last_reported":1726736983,"current_range_meters":24400,"station_id":"ce4bgup2rcd13ifvqcn0","pricing_plan_id":"cebpf4jnsgd1na2vs0mg"},{"bike_id":"e4889189-3c74-4ff5-8860-0ffbb1e05e7b","system_id":"levelo_inurba_marseille","lat":43.26952,"lon":5.38635,"is_reserved":false,"is_disabled":false,"rental_uris":{"android":"levelo://app?vid=e4889189-3c74-4ff5-8860-0ffbb1e05e7b","ios":"levelo://app?vid=e4889189-3c74-4ff5-8860-0ffbb1e05e7b"},"vehicle_type_id":"4","last_reported":1726736983,"current_range_meters":12000,"station_id":"ce4bhh92rcd13ifvqfh0","pricing_plan_id":"cebpf4jnsgd1na2vs0mg"},{"bike_id":"ff864caa-5642-4f22-9bc0-88f3132d8ae8","system_id":"levelo_inurba_marseille","lat":43.24072,"lon":5.37762,"is_reserved":false,"is_disabled":false,"rental_uris":{"android":"levelo://app?vid=ff864caa-5642-4f22-9bc0-88f3132d8ae8","ios":"levelo://app?vid=ff864caa-5642-4f22-9bc0-88f3132d8ae8"},"vehicle_type_id":"4","last_reported":1726736983,"current_range_meters":8400,"station_id":"ce4bhnp2rcd13ifvqgvg","pricing_plan_id":"cebpf4jnsgd1na2vs0mg"},{"bike_id":"1f311034-02fb-4c57-b325-32eb758642b2","system_id":"levelo_inurba_marseille","lat":43.29846,"lon":5.36282,"is_reserved":false,"is_disabled":false,"rental_uris":{"android":"levelo://app?vid=1f311034-02fb-4c57-b325-32eb758642b2","ios":"levelo://app?vid=1f311034-02fb-4c57-b325-32eb758642b2"},"vehicle_type_id":"4","last_reported":1726736983,"current_range_meters":36400,"station_id":"ce4bgpp2rcd13ifvqc3g","pricing_plan_id":"cebpf4jnsgd1na2vs0mg"},{"bike_id":"b0f1c81c-8960-426e-93aa-c13847378dbe","system_id":"levelo_inurba_marseille","lat":43.29913,"lon":5.38154,"is_reserved":false,"is_disabled":false,"rental_uris":{"android":"levelo://app?vid=b0f1c81c-8960-426e-93aa-c13847378dbe","ios":"levelo://app?vid=b0f1c81c-8960-426e-93aa-c13847378dbe"},"vehicle_type_id":"4","last_reported":1726736983,"current_range_meters":7200,"station_id":"ce4bgj12rcd13ifvqbc0","pricing_plan_id":"cebpf4jnsgd1na2vs0mg"},{"bike_id":"936a80c9-4c29-4980-bd1f-8473634ba9a6","system_id":"levelo_inurba_marseille","lat":43.29172,"lon":5.3717,"is_reserved":false,"is_disabled":false,"rental_uris":{"android":"levelo://app?vid=936a80c9-4c29-4980-bd1f-8473634ba9a6","ios":"levelo://app?vid=936a80c9-4c29-4980-bd1f-8473634ba9a6"},"vehicle_type_id":"4","last_reported":1726736983,"current_range_meters":19200,"station_id":"ce4bha92rcd13ifvqeh0","pricing_plan_id":"cebpf4jnsgd1na2vs0mg"},{"bike_id":"e0b9fde8-8bce-456d-bdb9-1dbe3347f9ce","system_id":"levelo_inurba_marseille","lat":43.23148,"lon":5.43721,"is_reserved":false,"is_disabled":false,"rental_uris":{"android":"levelo://app?vid=e0b9fde8-8bce-456d-bdb9-1dbe3347f9ce","ios":"levelo://app?vid=e0b9fde8-8bce-456d-bdb9-1dbe3347f9ce"},"vehicle_type_id":"4","last_reported":1726736983,"current_range_meters":8800,"station_id":"ce4bhmp2rcd13ifvqgog","pricing_plan_id":"cebpf4jnsgd1na2vs0mg"},{"bike_id":"29affaf3-d71e-45cb-aab6-43585a820bd5","system_id":"levelo_inurba_marseille","lat":43.29849,"lon":5.36292,"is_reserved":false,"is_disabled":false,"rental_uris":{"android":"levelo://app?vid=29affaf3-d71e-45cb-aab6-43585a820bd5","ios":"levelo://app?vid=29affaf3-d71e-45cb-aab6-43585a820bd5"},"vehicle_type_id":"4","last_reported":1726736983,"current_range_meters":38800,"station_id":"ce4bgpp2rcd13ifvqc3g","pricing_plan_id":"cebpf4jnsgd1na2vs0mg"},{"bike_id":"7ed6941b-afc4-460f-8af3-ab9c555ffb27","system_id":"levelo_inurba_marseille","lat":43.30533,"lon":5.36716,"is_reserved":false,"is_disabled":false,"rental_uris":{"android":"levelo://app?vid=7ed6941b-afc4-460f-8af3-ab9c555ffb27","ios":"levelo://app?vid=7ed6941b-afc4-460f-8af3-ab9c555ffb27"},"vehicle_type_id":"4","last_reported":1726736983,"current_range_meters":40000,"station_id":"ce4bgrp2rcd13ifvqc9g","pricing_plan_id":"cebpf4jnsgd1na2vs0mg"},{"bike_id":"66979b52-14f7-44b1-a286-4b115afc35a7","system_id":"levelo_inurba_marseille","lat":43.25001,"lon":5.38925,"is_reserved":false,"is_disabled":false,"rental_uris":{"android":"levelo://app?vid=66979b52-14f7-44b1-a286-4b115afc35a7","ios":"levelo://app?vid=66979b52-14f7-44b1-a286-4b115afc35a7"},"vehicle_type_id":"4","last_reported":1726736983,"current_range_meters":36800,"station_id":"ce4bhgp2rcd13ifvqfd0","pricing_plan_id":"cebpf4jnsgd1na2vs0mg"},{"bike_id":"db5bed51-afb9-4548-98e9-7b7ae226c501","system_id":"levelo_inurba_marseille","lat":43.33756,"lon":5.37453,"is_reserved":false,"is_disabled":false,"rental_uris":{"android":"levelo://app?vid=db5bed51-afb9-4548-98e9-7b7ae226c501","ios":"levelo://app?vid=db5bed51-afb9-4548-98e9-7b7ae226c501"},"vehicle_type_id":"4","last_reported":1726736983,"current_range_meters":26000,"station_id":"","pricing_plan_id":"cebpf4jnsgd1na2vs0mg"},{"bike_id":"2d18bdf3-b839-4bd3-b0ec-633ade641185","system_id":"levelo_inurba_marseille","lat":43.29249,"lon":5.39927,"is_reserved":false,"is_disabled":false,"rental_uris":{"android":"levelo://app?vid=2d18bdf3-b839-4bd3-b0ec-633ade641185","ios":"levelo://app?vid=2d18bdf3-b839-4bd3-b0ec-633ade641185"},"vehicle_type_id":"4","last_reported":1726736983,"current_range_meters":36400,"station_id":"","pricing_plan_id":"cebpf4jnsgd1na2vs0mg"},{"bike_id":"6864a05c-76c0-4648-ae7c-db87fef70f83","system_id":"levelo_inurba_marseille","lat":43.2749,"lon":5.42448,"is_reserved":false,"is_disabled":false,"rental_uris":{"android":"levelo://app?vid=6864a05c-76c0-4648-ae7c-db87fef70f83","ios":"levelo://app?vid=6864a05c-76c0-4648-ae7c-db87fef70f83"},"vehicle_type_id":"4","last_reported":1726736983,"current_range_meters":6400,"station_id":"ce4bhn92rcd13ifvqgrg","pricing_plan_id":"cebpf4jnsgd1na2vs0mg"},{"bike_id":"f1925469-9217-450d-9259-fc5ba656a5ff","system_id":"levelo_inurba_marseille","lat":43.25927,"lon":5.40914,"is_reserved":false,"is_disabled":false,"rental_uris":{"android":"levelo://app?vid=f1925469-9217-450d-9259-fc5ba656a5ff","ios":"levelo://app?vid=f1925469-9217-450d-9259-fc5ba656a5ff"},"vehicle_type_id":"4","last_reported":1726736983,"current_range_meters":38000,"station_id":"ce4bhm92rcd13ifvqglg","pricing_plan_id":"cebpf4jnsgd1na2vs0mg"},{"bike_id":"69399783-5eae-4af9-ae4b-1495b2d249b1","system_id":"levelo_inurba_marseille","lat":43.24158,"lon":5.36402,"is_reserved":false,"is_disabled":false,"rental_uris":{"android":"levelo://app?vid=69399783-5eae-4af9-ae4b-1495b2d249b1","ios":"levelo://app?vid=69399783-5eae-4af9-ae4b-1495b2d249b1"},"vehicle_type_id":"4","last_reported":1726736983,"current_range_meters":34000,"station_id":"cpo36qri1sfpv3e86is0","pricing_plan_id":"cebpf4jnsgd1na2vs0mg"},{"bike_id":"3f513f49-e3b1-4c4c-bbdc-e5ae3b2b72d3","system_id":"levelo_inurba_marseille","lat":43.27485,"lon":5.42458,"is_reserved":false,"is_disabled":false,"rental_uris":{"android":"levelo://app?vid=3f513f49-e3b1-4c4c-bbdc-e5ae3b2b72d3","ios":"levelo://app?vid=3f513f49-e3b1-4c4c-bbdc-e5ae3b2b72d3"},"vehicle_type_id":"4","last_reported":1726736983,"current_range_meters":22000,"station_id":"ce4bhn92rcd13ifvqgrg","pricing_plan_id":"cebpf4jnsgd1na2vs0mg"},{"bike_id":"42fca651-4bb4-4b39-8dde-cd01124da3f6","system_id":"levelo_inurba_marseille","lat":43.26677,"lon":5.38265,"is_reserved":false,"is_disabled":false,"rental_uris":{"android":"levelo://app?vid=42fca651-4bb4-4b39-8dde-cd01124da3f6","ios":"levelo://app?vid=42fca651-4bb4-4b39-8dde-cd01124da3f6"},"vehicle_type_id":"4","last_reported":1726736983,"current_range_meters":29600,"station_id":"ce4bhg92rcd13ifvqf90","pricing_plan_id":"cebpf4jnsgd1na2vs0mg"},{"bike_id":"7305223a-4e08-456c-b99e-04f9b23d1bee","system_id":"levelo_inurba_marseille","lat":43.31754,"lon":5.39028,"is_reserved":false,"is_disabled":false,"rental_uris":{"android":"levelo://app?vid=7305223a-4e08-456c-b99e-04f9b23d1bee","ios":"levelo://app?vid=7305223a-4e08-456c-b99e-04f9b23d1bee"},"vehicle_type_id":"4","last_reported":1726736983,"current_range_meters":38800,"station_id":"ce4bhqp2rcd13ifvqhng","pricing_plan_id":"cebpf4jnsgd1na2vs0mg"},{"bike_id":"c07f4740-ebab-4d5c-b22e-deddf1ddd7da","system_id":"levelo_inurba_marseille","lat":43.2984,"lon":5.36265,"is_reserved":false,"is_disabled":false,"rental_uris":{"android":"levelo://app?vid=c07f4740-ebab-4d5c-b22e-deddf1ddd7da","ios":"levelo://app?vid=c07f4740-ebab-4d5c-b22e-deddf1ddd7da"},"vehicle_type_id":"4","last_reported":1726736983,"current_range_meters":39200,"station_id":"ce4bgpp2rcd13ifvqc3g","pricing_plan_id":"cebpf4jnsgd1na2vs0mg"},{"bike_id":"15974002-b466-4881-a3b8-3f18cb574325","system_id":"levelo_inurba_marseille","lat":43.27309,"lon":5.39089,"is_reserved":false,"is_disabled":false,"rental_uris":{"android":"levelo://app?vid=15974002-b466-4881-a3b8-3f18cb574325","ios":"levelo://app?vid=15974002-b466-4881-a3b8-3f18cb574325"},"vehicle_type_id":"4","last_reported":1726736983,"current_range_meters":20000,"station_id":"ce4bhgp2rcd13ifvqfe0","pricing_plan_id":"cebpf4jnsgd1na2vs0mg"},{"bike_id":"a811345e-c046-4ee5-87fd-576f86d7c458","system_id":"levelo_inurba_marseille","lat":43.25932,"lon":5.40908,"is_reserved":false,"is_disabled":false,"rental_uris":{"android":"levelo://app?vid=a811345e-c046-4ee5-87fd-576f86d7c458","ios":"levelo://app?vid=a811345e-c046-4ee5-87fd-576f86d7c458"},"vehicle_type_id":"4","last_reported":1726736983,"current_range_meters":37600,"station_id":"ce4bhm92rcd13ifvqglg","pricing_plan_id":"cebpf4jnsgd1na2vs0mg"},{"bike_id":"527d5e60-cfbd-45dd-91ae-dca6c4301132","system_id":"levelo_inurba_marseille","lat":43.28702,"lon":5.39988,"is_reserved":false,"is_disabled":false,"rental_uris":{"android":"levelo://app?vid=527d5e60-cfbd-45dd-91ae-dca6c4301132","ios":"levelo://app?vid=527d5e60-cfbd-45dd-91ae-dca6c4301132"},"vehicle_type_id":"4","last_reported":1726736983,"current_range_meters":22400,"station_id":"ce4bho92rcd13ifvqh3g","pricing_plan_id":"cebpf4jnsgd1na2vs0mg"},{"bike_id":"884b4613-2a72-46e8-b1fd-814e1222921b","system_id":"levelo_inurba_marseille","lat":43.30546,"lon":5.36717,"is_reserved":false,"is_disabled":false,"rental_uris":{"android":"levelo://app?vid=884b4613-2a72-46e8-b1fd-814e1222921b","ios":"levelo://app?vid=884b4613-2a72-46e8-b1fd-814e1222921b"},"vehicle_type_id":"4","last_reported":1726736983,"current_range_meters":12000,"station_id":"ce4bgrp2rcd13ifvqc9g","pricing_plan_id":"cebpf4jnsgd1na2vs0mg"},{"bike_id":"58014cc6-4f39-4119-a8a0-cdc0e2507820","system_id":"levelo_inurba_marseille","lat":43.32287,"lon":5.38269,"is_reserved":false,"is_disabled":false,"rental_uris":{"android":"levelo://app?vid=58014cc6-4f39-4119-a8a0-cdc0e2507820","ios":"levelo://app?vid=58014cc6-4f39-4119-a8a0-cdc0e2507820"},"vehicle_type_id":"4","last_reported":1726736983,"current_range_meters":39200,"station_id":"ce4bhr12rcd13ifvqhqg","pricing_plan_id":"cebpf4jnsgd1na2vs0mg"},{"bike_id":"c62c95b5-6f9e-42eb-9748-6689d3c1ea72","system_id":"levelo_inurba_marseille","lat":43.24177,"lon":5.39741,"is_reserved":false,"is_disabled":false,"rental_uris":{"android":"levelo://app?vid=c62c95b5-6f9e-42eb-9748-6689d3c1ea72","ios":"levelo://app?vid=c62c95b5-6f9e-42eb-9748-6689d3c1ea72"},"vehicle_type_id":"4","last_reported":1726736983,"current_range_meters":38800,"station_id":"ce4bhn12rcd13ifvqgpg","pricing_plan_id":"cebpf4jnsgd1na2vs0mg"},{"bike_id":"b375ad79-f0cb-4d47-9a12-a6895782b8ef","system_id":"levelo_inurba_marseille","lat":43.29976,"lon":5.37191,"is_reserved":false,"is_disabled":false,"rental_uris":{"android":"levelo://app?vid=b375ad79-f0cb-4d47-9a12-a6895782b8ef","ios":"levelo://app?vid=b375ad79-f0cb-4d47-9a12-a6895782b8ef"},"vehicle_type_id":"4","last_reported":1726736983,"current_range_meters":4400,"station_id":"ce4bgr92rcd13ifvqc7g","pricing_plan_id":"cebpf4jnsgd1na2vs0mg"},{"bike_id":"58a0977a-4560-4644-908f-41ef1eb01cb6","system_id":"levelo_inurba_marseille","lat":43.2694,"lon":5.38642,"is_reserved":false,"is_disabled":false,"rental_uris":{"android":"levelo://app?vid=58a0977a-4560-4644-908f-41ef1eb01cb6","ios":"levelo://app?vid=58a0977a-4560-4644-908f-41ef1eb01cb6"},"vehicle_type_id":"4","last_reported":1726736983,"current_range_meters":32000,"station_id":"ce4bhh92rcd13ifvqfh0","pricing_plan_id":"cebpf4jnsgd1na2vs0mg"},{"bike_id":"9af0c345-e2cf-4dd1-83ef-5ff99965f904","system_id":"levelo_inurba_marseille","lat":43.31687,"lon":5.40478,"is_reserved":false,"is_disabled":false,"rental_uris":{"android":"levelo://app?vid=9af0c345-e2cf-4dd1-83ef-5ff99965f904","ios":"levelo://app?vid=9af0c345-e2cf-4dd1-83ef-5ff99965f904"},"vehicle_type_id":"4","last_reported":1726736983,"current_range_meters":33200,"station_id":"ce4bh012rcd13ifvqd00","pricing_plan_id":"cebpf4jnsgd1na2vs0mg"},{"bike_id":"9942a47b-d751-4701-8db6-fd3aae6ec433","system_id":"levelo_inurba_marseille","lat":43.27487,"lon":5.42459,"is_reserved":false,"is_disabled":false,"rental_uris":{"android":"levelo://app?vid=9942a47b-d751-4701-8db6-fd3aae6ec433","ios":"levelo://app?vid=9942a47b-d751-4701-8db6-fd3aae6ec433"},"vehicle_type_id":"4","last_reported":1726736983,"current_range_meters":30800,"station_id":"ce4bhn92rcd13ifvqgrg","pricing_plan_id":"cebpf4jnsgd1na2vs0mg"},{"bike_id":"3a643a13-d852-4164-b5f1-2086ca5ef5c3","system_id":"levelo_inurba_marseille","lat":43.30294,"lon":5.3695,"is_reserved":false,"is_disabled":false,"rental_uris":{"android":"levelo://app?vid=3a643a13-d852-4164-b5f1-2086ca5ef5c3","ios":"levelo://app?vid=3a643a13-d852-4164-b5f1-2086ca5ef5c3"},"vehicle_type_id":"4","last_reported":1726736983,"current_range_meters":14800,"station_id":"ce4bgqh2rcd13ifvqc5g","pricing_plan_id":"cebpf4jnsgd1na2vs0mg"},{"bike_id":"f4a274be-07e0-43fb-97a5-f5ef7a2d6f8a","system_id":"levelo_inurba_marseille","lat":43.26948,"lon":5.38643,"is_reserved":false,"is_disabled":false,"rental_uris":{"android":"levelo://app?vid=f4a274be-07e0-43fb-97a5-f5ef7a2d6f8a","ios":"levelo://app?vid=f4a274be-07e0-43fb-97a5-f5ef7a2d6f8a"},"vehicle_type_id":"4","last_reported":1726736983,"current_range_meters":26800,"station_id":"ce4bhh92rcd13ifvqfh0","pricing_plan_id":"cebpf4jnsgd1na2vs0mg"},{"bike_id":"17cd38d4-4da4-41dd-b1cb-62ac66828af3","system_id":"levelo_inurba_marseille","lat":43.30477,"lon":5.37902,"is_reserved":false,"is_disabled":false,"rental_uris":{"android":"levelo://app?vid=17cd38d4-4da4-41dd-b1cb-62ac66828af3","ios":"levelo://app?vid=17cd38d4-4da4-41dd-b1cb-62ac66828af3"},"vehicle_type_id":"4","last_reported":1726736983,"current_range_meters":25600,"station_id":"ce4bgup2rcd13ifvqcn0","pricing_plan_id":"cebpf4jnsgd1na2vs0mg"},{"bike_id":"cf404fd7-ce83-477b-9c2b-1c2f8a0ebd8c","system_id":"levelo_inurba_marseille","lat":43.240723,"lon":5.37759,"is_reserved":false,"is_disabled":false,"rental_uris":{"android":"levelo://app?vid=cf404fd7-ce83-477b-9c2b-1c2f8a0ebd8c","ios":"levelo://app?vid=cf404fd7-ce83-477b-9c2b-1c2f8a0ebd8c"},"vehicle_type_id":"4","last_reported":1726736983,"current_range_meters":22400,"station_id":"ce4bhgh2rcd13ifvqfa0","pricing_plan_id":"cebpf4jnsgd1na2vs0mg"},{"bike_id":"b1f51ce9-8c30-4281-804b-4c3643a2a65b","system_id":"levelo_inurba_marseille","lat":43.30276,"lon":5.37703,"is_reserved":false,"is_disabled":false,"rental_uris":{"android":"levelo://app?vid=b1f51ce9-8c30-4281-804b-4c3643a2a65b","ios":"levelo://app?vid=b1f51ce9-8c30-4281-804b-4c3643a2a65b"},"vehicle_type_id":"4","last_reported":1726736983,"current_range_meters":40000,"station_id":"ce4bguh2rcd13ifvqcj0","pricing_plan_id":"cebpf4jnsgd1na2vs0mg"},{"bike_id":"15cd0306-fc06-484f-ac40-88af11264c42","system_id":"levelo_inurba_marseille","lat":43.27486,"lon":5.4246,"is_reserved":false,"is_disabled":false,"rental_uris":{"android":"levelo://app?vid=15cd0306-fc06-484f-ac40-88af11264c42","ios":"levelo://app?vid=15cd0306-fc06-484f-ac40-88af11264c42"},"vehicle_type_id":"4","last_reported":1726736983,"current_range_meters":28800,"station_id":"ce4bhn92rcd13ifvqgrg","pricing_plan_id":"cebpf4jnsgd1na2vs0mg"},{"bike_id":"fb986fe7-8c15-4498-a389-29ce87e03bec","system_id":"levelo_inurba_marseille","lat":43.2695,"lon":5.38641,"is_reserved":false,"is_disabled":false,"rental_uris":{"android":"levelo://app?vid=fb986fe7-8c15-4498-a389-29ce87e03bec","ios":"levelo://app?vid=fb986fe7-8c15-4498-a389-29ce87e03bec"},"vehicle_type_id":"4","last_reported":1726736983,"current_range_meters":24800,"station_id":"ce4bhh92rcd13ifvqfh0","pricing_plan_id":"cebpf4jnsgd1na2vs0mg"},{"bike_id":"a5167d20-2104-475d-a982-32ed65c102d6","system_id":"levelo_inurba_marseille","lat":43.30555,"lon":5.36535,"is_reserved":false,"is_disabled":false,"rental_uris":{"android":"levelo://app?vid=a5167d20-2104-475d-a982-32ed65c102d6","ios":"levelo://app?vid=a5167d20-2104-475d-a982-32ed65c102d6"},"vehicle_type_id":"4","last_reported":1726736983,"current_range_meters":32400,"station_id":"ce4bgs12rcd13ifvqcag","pricing_plan_id":"cebpf4jnsgd1na2vs0mg"},{"bike_id":"526c2c1a-1265-49d0-a905-0aea83a07597","system_id":"levelo_inurba_marseille","lat":43.30136,"lon":5.3742,"is_reserved":false,"is_disabled":false,"rental_uris":{"android":"levelo://app?vid=526c2c1a-1265-49d0-a905-0aea83a07597","ios":"levelo://app?vid=526c2c1a-1265-49d0-a905-0aea83a07597"},"vehicle_type_id":"4","last_reported":1726736983,"current_range_meters":3200,"station_id":"ce4bgs92rcd13ifvqcc0","pricing_plan_id":"cebpf4jnsgd1na2vs0mg"},{"bike_id":"bcb7cdb4-7ba1-4986-bc10-71dce9cd7b22","system_id":"levelo_inurba_marseille","lat":43.30138,"lon":5.37422,"is_reserved":false,"is_disabled":false,"rental_uris":{"android":"levelo://app?vid=bcb7cdb4-7ba1-4986-bc10-71dce9cd7b22","ios":"levelo://app?vid=bcb7cdb4-7ba1-4986-bc10-71dce9cd7b22"},"vehicle_type_id":"4","last_reported":1726736983,"current_range_meters":30000,"station_id":"ce4bgs92rcd13ifvqcc0","pricing_plan_id":"cebpf4jnsgd1na2vs0mg"},{"bike_id":"7d54046c-3cf1-4344-8137-17101feedbd5","system_id":"levelo_inurba_marseille","lat":43.32284,"lon":5.38278,"is_reserved":false,"is_disabled":false,"rental_uris":{"android":"levelo://app?vid=7d54046c-3cf1-4344-8137-17101feedbd5","ios":"levelo://app?vid=7d54046c-3cf1-4344-8137-17101feedbd5"},"vehicle_type_id":"4","last_reported":1726736983,"current_range_meters":37600,"station_id":"ce4bhr12rcd13ifvqhqg","pricing_plan_id":"cebpf4jnsgd1na2vs0mg"},{"bike_id":"6b6c4fab-0bd1-4725-a1b7-466b87a727bc","system_id":"levelo_inurba_marseille","lat":43.30531,"lon":5.36543,"is_reserved":false,"is_disabled":false,"rental_uris":{"android":"levelo://app?vid=6b6c4fab-0bd1-4725-a1b7-466b87a727bc","ios":"levelo://app?vid=6b6c4fab-0bd1-4725-a1b7-466b87a727bc"},"vehicle_type_id":"4","last_reported":1726736983,"current_range_meters":26000,"station_id":"ce4bgs12rcd13ifvqcag","pricing_plan_id":"cebpf4jnsgd1na2vs0mg"},{"bike_id":"4018871b-e691-4492-a5fe-496f0cda8b66","system_id":"levelo_inurba_marseille","lat":43.27492,"lon":5.42456,"is_reserved":false,"is_disabled":false,"rental_uris":{"android":"levelo://app?vid=4018871b-e691-4492-a5fe-496f0cda8b66","ios":"levelo://app?vid=4018871b-e691-4492-a5fe-496f0cda8b66"},"vehicle_type_id":"4","last_reported":1726736983,"current_range_meters":36000,"station_id":"ce4bhn92rcd13ifvqgrg","pricing_plan_id":"cebpf4jnsgd1na2vs0mg"},{"bike_id":"e05e9620-442b-4d43-999e-917e0d2701d8","system_id":"levelo_inurba_marseille","lat":43.292999,"lon":5.374756,"is_reserved":false,"is_disabled":false,"rental_uris":{"android":"levelo://app?vid=e05e9620-442b-4d43-999e-917e0d2701d8","ios":"levelo://app?vid=e05e9620-442b-4d43-999e-917e0d2701d8"},"vehicle_type_id":"4","last_reported":1726736983,"current_range_meters":32400,"station_id":"ce4bgi12rcd13ifvqb70","pricing_plan_id":"cebpf4jnsgd1na2vs0mg"},{"bike_id":"3d60987c-b124-4c14-b227-d39bc2c8435b","system_id":"levelo_inurba_marseille","lat":43.30594,"lon":5.37231,"is_reserved":false,"is_disabled":false,"rental_uris":{"android":"levelo://app?vid=3d60987c-b124-4c14-b227-d39bc2c8435b","ios":"levelo://app?vid=3d60987c-b124-4c14-b227-d39bc2c8435b"},"vehicle_type_id":"4","last_reported":1726736983,"current_range_meters":39200,"station_id":"ce4bgqh2rcd13ifvqc4g","pricing_plan_id":"cebpf4jnsgd1na2vs0mg"},{"bike_id":"fa2e946d-01fe-4bb4-a2b0-55af60a0bcec","system_id":"levelo_inurba_marseille","lat":43.3373,"lon":5.39182,"is_reserved":false,"is_disabled":false,"rental_uris":{"android":"levelo://app?vid=fa2e946d-01fe-4bb4-a2b0-55af60a0bcec","ios":"levelo://app?vid=fa2e946d-01fe-4bb4-a2b0-55af60a0bcec"},"vehicle_type_id":"4","last_reported":1726736983,"current_range_meters":37600,"station_id":"ce4bhr92rcd13ifvqhsg","pricing_plan_id":"cebpf4jnsgd1na2vs0mg"},{"bike_id":"2c939d6a-9be2-484e-890f-1b0b4a4b4370","system_id":"levelo_inurba_marseille","lat":43.281,"lon":5.37838,"is_reserved":false,"is_disabled":false,"rental_uris":{"android":"levelo://app?vid=2c939d6a-9be2-484e-890f-1b0b4a4b4370","ios":"levelo://app?vid=2c939d6a-9be2-484e-890f-1b0b4a4b4370"},"vehicle_type_id":"4","last_reported":1726736983,"current_range_meters":32000,"station_id":"ce4bha12rcd13ifvqee0","pricing_plan_id":"cebpf4jnsgd1na2vs0mg"},{"bike_id":"43661485-e851-4b87-98e2-873b75f46e77","system_id":"levelo_inurba_marseille","lat":43.26062,"lon":5.39399,"is_reserved":false,"is_disabled":false,"rental_uris":{"android":"levelo://app?vid=43661485-e851-4b87-98e2-873b75f46e77","ios":"levelo://app?vid=43661485-e851-4b87-98e2-873b75f46e77"},"vehicle_type_id":"4","last_reported":1726736983,"current_range_meters":17600,"station_id":"ce4bhh92rcd13ifvqfj0","pricing_plan_id":"cebpf4jnsgd1na2vs0mg"},{"bike_id":"ba4475d2-dc26-48c6-81d7-f2405336a72a","system_id":"levelo_inurba_marseille","lat":43.26946,"lon":5.38646,"is_reserved":false,"is_disabled":false,"rental_uris":{"android":"levelo://app?vid=ba4475d2-dc26-48c6-81d7-f2405336a72a","ios":"levelo://app?vid=ba4475d2-dc26-48c6-81d7-f2405336a72a"},"vehicle_type_id":"4","last_reported":1726736983,"current_range_meters":26000,"station_id":"ce4bhh92rcd13ifvqfh0","pricing_plan_id":"cebpf4jnsgd1na2vs0mg"},