{"last_updated":1768817895,"ttl":60,"version":"2.2","data":{"bikes":[{"bike_id":"7eded3b1-4745-4b4d-b80d-d88da3addd51","system_id":"levelo_inurba_marseille","lat":43.27606,"lon":5.36121,"is_reserved":false,"is_disabled":false,"rental_uris":{"android":"levelo://app?vid=7eded3b1-4745-4b4d-b80d-d88da3addd51","ios":"levelo://app?vid=7eded3b1-4745-4b4d-b80d-d88da3addd51"},"vehicle_type_id":"4","last_reported":1768817896,"current_range_meters":2800,"station_id":"ce4bgj92rcd13ifvqbe0","pricing_plan_id":"cebpf4jnsgd1na2vs0mg"},{"bike_id":"c5aedb3b-f715-45c8-98ed-e4eeb6bc7222","system_id":"levelo_inurba_marseille","lat":43.30941,"lon":5.37175,"is_reserved":false,"is_disabled":false,"rental_uris":{"android":"levelo://app?vid=c5aedb3b-f715-45c8-98ed-e4eeb6bc7222","ios":"levelo://app?vid=c5aedb3b-f715-45c8-98ed-e4eeb6bc7222"},"vehicle_type_id":"4","last_reported":1768817896,"current_range_meters":2800,"station_id":"ce4bguh2rcd13ifvqckg","pricing_plan_id":"cebpf4jnsgd1na2vs0mg"},{"bike_id":"d0b29b07-5102-4e6f-97b9-23723e4c0614","system_id":"levelo_inurba_marseille","lat":43.28472,"lon":5.48393,"is_reserved":false,"is_disabled":false,"rental_uris":{"android":"levelo://app?vid=d0b29b07-5102-4e6f-97b9-23723e4c0614","ios":"levelo://app?vid=d0b29b07-5102-4e6f-97b9-23723e4c0614"},"vehicle_type_id":"4","last_reported":1768817896,"current_range_meters":2800,"station_id":"","pricing_plan_id":"cebpf4jnsgd1na2vs0mg"},{"bike_id":"e9090b05-1a1b-4249-aa93-a774951369d3","system_id":"levelo_inurba_marseille","lat":43.28104,"lon":5.37844,"is_reserved":false,"is_disabled":false,"rental_uris":{"android":"levelo://app?vid=e9090b05-1a1b-4249-aa93-a774951369d3","ios":"levelo://app?vid=e9090b05-1a1b-4249-aa93-a774951369d3"},"vehicle_type_id":"4","last_reported":1768817896,"current_range_meters":2800,"station_id":"ce4bha12rcd13ifvqee0","pricing_plan_id":"cebpf4jnsgd1na2vs0mg"},{"bike_id":"ee944490-322d-4e82-9fc0-1f3cfa45072a","system_id":"levelo_inurba_marseille","lat":43.28864,"lon":5.4253,"is_reserved":false,"is_disabled":false,"rental_uris":{"android":"levelo://app?vid=ee944490-322d-4e82-9fc0-1f3cfa45072a","ios":"levelo://app?vid=ee944490-322d-4e82-9fc0-1f3cfa45072a"},"vehicle_type_id":"4","last_reported":1768817896,"current_range_meters":2800,"station_id":"st_d3b462108ojc7389ooeg","pricing_plan_id":"cebpf4jnsgd1na2vs0mg"},{"bike_id":"724da048-f937-4446-a0b2-3f881c76c59a","system_id":"levelo_inurba_marseille","lat":43.28151,"lon":5.42653,"is_reserved":false,"is_disabled":false,"rental_uris":{"android":"levelo://app?vid=724da048-f937-4446-a0b2-3f881c76c59a","ios":"levelo://app?vid=724da048-f937-4446-a0b2-3f881c76c59a"},"vehicle_type_id":"4","last_reported":1768817896,"current_range_meters":3200,"station_id":"ce4bhnh2rcd13ifvqgug","pricing_plan_id":"cebpf4jnsgd1na2vs0mg"},{"bike_id":"f9650e24-8048-44b3-9275-13d881c210a3","system_id":"levelo_inurba_marseille","lat":43.30295,"lon":5.37709,"is_reserved":false,"is_disabled":false,"rental_uris":{"android":"levelo://app?vid=f9650e24-8048-44b3-9275-13d881c210a3","ios":"levelo://app?vid=f9650e24-8048-44b3-9275-13d881c210a3"},"vehicle_type_id":"4","last_reported":1768817896,"current_range_meters":3200,"station_id":"ce4bguh2rcd13ifvqcj0","pricing_plan_id":"cebpf4jnsgd1na2vs0mg"},{"bike_id":"3ebc6d65-2173-4576-b1a3-328e4652fe47","system_id":"levelo_inurba_marseille","lat":43.26031,"lon":5.37551,"is_reserved":false,"is_disabled":false,"rental_uris":{"android":"levelo://app?vid=3ebc6d65-2173-4576-b1a3-328e4652fe47","ios":"levelo://app?vid=3ebc6d65-2173-4576-b1a3-328e4652fe47"},"vehicle_type_id":"4","last_reported":1768817896,"current_range_meters":3200,"station_id":"ce4bhgh2rcd13ifvqfa0","pricing_plan_id":"cebpf4jnsgd1na2vs0mg"},{"bike_id":"3fcd7be5-9e86-4360-8db1-236a81bdedf0","system_id":"levelo_inurba_marseille","lat":43.26024,"lon":5.39688,"is_reserved":false,"is_disabled":false,"rental_uris":{"android":"levelo://app?vid=3fcd7be5-9e86-4360-8db1-236a81bdedf0","ios":"levelo://app?vid=3fcd7be5-9e86-4360-8db1-236a81bdedf0"},"vehicle_type_id":"4","last_reported":1768817896,"current_range_meters":3200,"station_id":"","pricing_plan_id":"cebpf4jnsgd1na2vs0mg"},{"bike_id":"facd135e-5d16-41e6-9df2-8346db37bc1b","system_id":"levelo_inurba_marseille","lat":43.26951,"lon":5.38651,"is_reserved":false,"is_disabled":false,"rental_uris":{"android":"levelo://app?vid=facd135e-5d16-41e6-9df2-8346db37bc1b","ios":"levelo://app?vid=facd135e-5d16-41e6-9df2-8346db37bc1b"},"vehicle_type_id":"4","last_reported":1768817896,"current_range_meters":3200,"station_id":"ce4bhh92rcd13ifvqfh0","pricing_plan_id":"cebpf4jnsgd1na2vs0mg"},{"bike_id":"482fd7a4-6792-4bd7-9ad6-2a76eaf3d2e7","system_id":"levelo_inurba_marseille","lat":43.30139,"lon":5.37403,"is_reserved":false,"is_disabled":false,"rental_uris":{"android":"levelo://app?vid=482fd7a4-6792-4bd7-9ad6-2a76eaf3d2e7","ios":"levelo://app?vid=482fd7a4-6792-4bd7-9ad6-2a76eaf3d2e7"},"vehicle_type_id":"4","last_reported":1768817896,"current_range_meters":3600,"station_id":"ce4bgs92rcd13ifvqcc0","pricing_plan_id":"cebpf4jnsgd1na2vs0mg"},{"bike_id":"2e4ee5e8-6d91-467b-8480-688c2671b88d","system_id":"levelo_inurba_marseille","lat":43.27816,"lon":5.40722,"is_reserved":false,"is_disabled":false,"rental_uris":{"android":"levelo://app?vid=2e4ee5e8-6d91-467b-8480-688c2671b88d","ios":"levelo://app?vid=2e4ee5e8-6d91-467b-8480-688c2671b88d"},"vehicle_type_id":"4","last_reported":1768817896,"current_range_meters":3600,"station_id":"ce4bhnh2rcd13ifvqgtg","pricing_plan_id":"cebpf4jnsgd1na2vs0mg"},{"bike_id":"10aefc87-ce0b-443e-ad00-dc0a0914183b","system_id":"levelo_inurba_marseille","lat":43.24065,"lon":5.37715,"is_reserved":false,"is_disabled":false,"rental_uris":{"android":"levelo://app?vid=10aefc87-ce0b-443e-ad00-dc0a0914183b","ios":"levelo://app?vid=10aefc87-ce0b-443e-ad00-dc0a0914183b"},"vehicle_type_id":"4","last_reported":1768817896,"current_range_meters":3600,"station_id":"ce4bhnp2rcd13ifvqgvg","pricing_plan_id":"cebpf4jnsgd1na2vs0mg"},{"bike_id":"503a69a9-9c3d-4d52-8f91-b76ecb5b75ff","system_id":"levelo_inurba_marseille","lat":43.266766,"lon":5.38282,"is_reserved":false,"is_disabled":false,"rental_uris":{"android":"levelo://app?vid=503a69a9-9c3d-4d52-8f91-b76ecb5b75ff","ios":"levelo://app?vid=503a69a9-9c3d-4d52-8f91-b76ecb5b75ff"},"vehicle_type_id":"4","last_reported":1768817896,"current_range_meters":3600,"station_id":"ce4bhg92rcd13ifvqf90","pricing_plan_id":"cebpf4jnsgd1na2vs0mg"},{"bike_id":"c6b7d41c-17d5-4d4d-98f7-04f5d62108df","system_id":"levelo_inurba_marseille","lat":43.225563,"lon":5.416261,"is_reserved":false,"is_disabled":true,"rental_uris":{"android":"levelo://app?vid=c6b7d41c-17d5-4d4d-98f7-04f5d62108df","ios":"levelo://app?vid=c6b7d41c-17d5-4d4d-98f7-04f5d62108df"},"vehicle_type_id":"4","last_reported":1768817896,"current_range_meters":3600,"station_id":"st_d2o4gvlbi1j2169b742g","pricing_plan_id":"cebpf4jnsgd1na2vs0mg"},{"bike_id":"53e3bdc2-3350-4597-b889-679f95ce65f7","system_id":"levelo_inurba_marseille","lat":43.284725,"lon":5.384184,"is_reserved":false,"is_disabled":false,"rental_uris":{"android":"levelo://app?vid=53e3bdc2-3350-4597-b889-679f95ce65f7","ios":"levelo://app?vid=53e3bdc2-3350-4597-b889-679f95ce65f7"},"vehicle_type_id":"4","last_reported":1768817896,"current_range_meters":4000,"station_id":"","pricing_plan_id":"cebpf4jnsgd1na2vs0mg"},{"bike_id":"ff839314-dbe7-407b-b40a-0a369c1d2176","system_id":"levelo_inurba_marseille","lat":43.29243,"lon":5.38456,"is_reserved":false,"is_disabled":false,"rental_uris":{"android":"levelo://app?vid=ff839314-dbe7-407b-b40a-0a369c1d2176","ios":"levelo://app?vid=ff839314-dbe7-407b-b40a-0a369c1d2176"},"vehicle_type_id":"4","last_reported":1768817896,"current_range_meters":4000,"station_id":"ce4bh692rcd13ifvqea0","pricing_plan_id":"cebpf4jnsgd1na2vs0mg"},{"bike_id":"6f14ae8d-8959-4661-a35e-ffbf6c793c91","system_id":"levelo_inurba_marseille","lat":43.24395,"lon":5.37075,"is_reserved":false,"is_disabled":false,"rental_uris":{"android":"levelo://app?vid=6f14ae8d-8959-4661-a35e-ffbf6c793c91","ios":"levelo://app?vid=6f14ae8d-8959-4661-a35e-ffbf6c793c91"},"vehicle_type_id":"4","last_reported":1768817896,"current_range_meters":4000,"station_id":"ce4bhhh2rcd13ifvqfk0","pricing_plan_id":"cebpf4jnsgd1na2vs0mg"},{"bike_id":"06367266-2542-4e08-b5b1-c8f7a38cb02d","system_id":"levelo_inurba_marseille","lat":43.30952,"lon":5.39032,"is_reserved":false,"is_disabled":false,"rental_uris":{"android":"levelo://app?vid=06367266-2542-4e08-b5b1-c8f7a38cb02d","ios":"levelo://app?vid=06367266-2542-4e08-b5b1-c8f7a38cb02d"},"vehicle_type_id":"4","last_reported":1768817896,"current_range_meters":4000,"station_id":"ce4bgup2rcd13ifvqco0","pricing_plan_id":"cebpf4jnsgd1na2vs0mg"},{"bike_id":"e6e17677-89d0-46ad-ac0f-7beb99f7ec94","system_id":"levelo_inurba_marseille","lat":43.2848,"lon":5.38426,"is_reserved":false,"is_disabled":false,"rental_uris":{"android":"levelo://app?vid=e6e17677-89d0-46ad-ac0f-7beb99f7ec94","ios":"levelo://app?vid=e6e17677-89d0-46ad-ac0f-7beb99f7ec94"},"vehicle_type_id":"4","last_reported":1768817896,"current_range_meters":4000,"station_id":"ce4bh512rcd13ifvqe3g","pricing_plan_id":"cebpf4jnsgd1na2vs0mg"},{"bike_id":"97796854-4dd8-491a-b7a7-15ef7af6df38","system_id":"levelo_inurba_marseille","lat":43.26487,"lon":5.39562,"is_reserved":false,"is_disabled":false,"rental_uris":{"android":"levelo://app?vid=97796854-4dd8-491a-b7a7-15ef7af6df38","ios":"levelo://app?vid=97796854-4dd8-491a-b7a7-15ef7af6df38"},"vehicle_type_id":"4","last_reported":1768817896,"current_range_meters":4000,"station_id":"ce4bhi12rcd13ifvqfq0","pricing_plan_id":"cebpf4jnsgd1na2vs0mg"},{"bike_id":"0105de79-43a8-4de9-af65-6d3d110a6400","system_id":"levelo_inurba_marseille","lat":43.2415,"lon":5.39722,"is_reserved":false,"is_disabled":false,"rental_uris":{"android":"levelo://app?vid=0105de79-43a8-4de9-af65-6d3d110a6400","ios":"levelo://app?vid=0105de79-43a8-4de9-af65-6d3d110a6400"},"vehicle_type_id":"4","last_reported":1768817896,"current_range_meters":4400,"station_id":"ce4bhn12rcd13ifvqgpg","pricing_plan_id":"cebpf4jnsgd1na2vs0mg"},{"bike_id":"c55653aa-3b40-49b8-ab2e-4981db381d01","system_id":"levelo_inurba_marseille","lat":43.27993,"lon":5.4167,"is_reserved":false,"is_disabled":false,"rental_uris":{"android":"levelo://app?vid=c55653aa-3b40-49b8-ab2e-4981db381d01","ios":"levelo://app?vid=c55653aa-3b40-49b8-ab2e-4981db381d01"},"vehicle_type_id":"4","last_reported":1768817896,"current_range_meters":4400,"station_id":"ce4bho12rcd13ifvqh1g","pricing_plan_id":"cebpf4jnsgd1na2vs0mg"},{"bike_id":"bd5b8903-ee80-42f9-a060-38ece4dff82d","system_id":"levelo_inurba_marseille","lat":43.275,"lon":5.42463,"is_reserved":false,"is_disabled":false,"rental_uris":{"android":"levelo://app?vid=bd5b8903-ee80-42f9-a060-38ece4dff82d","ios":"levelo://app?vid=bd5b8903-ee80-42f9-a060-38ece4dff82d"},"vehicle_type_id":"4","last_reported":1768817896,"current_range_meters":4400,"station_id":"ce4bhn92rcd13ifvqgrg","pricing_plan_id":"cebpf4jnsgd1na2vs0mg"},{"bike_id":"ec84f853-3c1e-432f-84f1-c7932f803205","system_id":"levelo_inurba_marseille","lat":43.24483,"lon":5.42555,"is_reserved":false,"is_disabled":false,"rental_uris":{"android":"levelo://app?vid=ec84f853-3c1e-432f-84f1-c7932f803205","ios":"levelo://app?vid=ec84f853-3c1e-432f-84f1-c7932f803205"},"vehicle_type_id":"4","last_reported":1768817896,"current_range_meters":4400,"station_id":"st_d4a3vfp97mjs738cd8kg","pricing_plan_id":"cebpf4jnsgd1na2vs0mg"},{"bike_id":"f105a622-1eec-4225-9e46-e84e6e6b6073","system_id":"levelo_inurba_marseille","lat":43.248259,"lon":5.374675,"is_reserved":false,"is_disabled":false,"rental_uris":{"android":"levelo://app?vid=f105a622-1eec-4225-9e46-e84e6e6b6073","ios":"levelo://app?vid=f105a622-1eec-4225-9e46-e84e6e6b6073"},"vehicle_type_id":"4","last_reported":1768817896,"current_range_meters":4400,"station_id":"ce4bhgh2rcd13ifvqfb0","pricing_plan_id":"cebpf4jnsgd1na2vs0mg"},{"bike_id":"3e15202c-22fa-4f79-b5eb-bebda2f7cc1c","system_id":"levelo_inurba_marseille","lat":43.24079,"lon":5.37781,"is_reserved":false,"is_disabled":false,"rental_uris":{"android":"levelo://app?vid=3e15202c-22fa-4f79-b5eb-bebda2f7cc1c","ios":"levelo://app?vid=3e15202c-22fa-4f79-b5eb-bebda2f7cc1c"},"vehicle_type_id":"4","last_reported":1768817896,"current_range_meters":4400,"station_id":"ce4bhnp2rcd13ifvqgvg","pricing_plan_id":"cebpf4jnsgd1na2vs0mg"},{"bike_id":"833b6106-dfe6-4cdd-9d1d-a98f15b29da7","system_id":"levelo_inurba_marseille","lat":43.25571,"lon":5.38228,"is_reserved":false,"is_disabled":false,"rental_uris":{"android":"levelo://app?vid=833b6106-dfe6-4cdd-9d1d-a98f15b29da7","ios":"levelo://app?vid=833b6106-dfe6-4cdd-9d1d-a98f15b29da7"},"vehicle_type_id":"4","last_reported":1768817896,"current_range_meters":4400,"station_id":"ce4bhih2rcd13ifvqfs0","pricing_plan_id":"cebpf4jnsgd1na2vs0mg"},{"bike_id":"80dd23a5-0dde-4636-a849-634c5c6760f9","system_id":"levelo_inurba_marseille","lat":43.24053,"lon":5.37778,"is_reserved":false,"is_disabled":false,"rental_uris":{"android":"levelo://app?vid=80dd23a5-0dde-4636-a849-634c5c6760f9","ios":"levelo://app?vid=80dd23a5-0dde-4636-a849-634c5c6760f9"},"vehicle_type_id":"4","last_reported":1768817896,"current_range_meters":4400,"station_id":"ce4bhnp2rcd13ifvqgvg","pricing_plan_id":"cebpf4jnsgd1na2vs0mg"},{"bike_id":"4a28a0a5-92a3-4f41-871e-f75bf8fb68f3","system_id":"levelo_inurba_marseille","lat":43.30409,"lon":5.40981,"is_reserved":false,"is_disabled":false,"rental_uris":{"android":"levelo://app?vid=4a28a0a5-92a3-4f41-871e-f75bf8fb68f3","ios":"levelo://app?vid=4a28a0a5-92a3-4f41-871e-f75bf8fb68f3"},"vehicle_type_id":"4","last_reported":1768817896,"current_range_meters":4400,"station_id":"","pricing_plan_id":"cebpf4jnsgd1na2vs0mg"},{"bike_id":"2cde3825-9f56-4240-83b3-7ac9750b5616","system_id":"levelo_inurba_marseille","lat":43.29772,"lon":5.37119,"is_reserved":false,"is_disabled":false,"rental_uris":{"android":"levelo://app?vid=2cde3825-9f56-4240-83b3-7ac9750b5616","ios":"levelo://app?vid=2cde3825-9f56-4240-83b3-7ac9750b5616"},"vehicle_type_id":"4","last_reported":1768817896,"current_range_meters":4400,"station_id":"ce4bgop2rcd13ifvqc1g","pricing_plan_id":"cebpf4jnsgd1na2vs0mg"},{"bike_id":"4127f607-aa3a-484d-aaf5-da423da90890","system_id":"levelo_inurba_marseille","lat":43.24078,"lon":5.37755,"is_reserved":false,"is_disabled":false,"rental_uris":{"android":"levelo://app?vid=4127f607-aa3a-484d-aaf5-da423da90890","ios":"levelo://app?vid=4127f607-aa3a-484d-aaf5-da423da90890"},"vehicle_type_id":"4","last_reported":1768817896,"current_range_meters":4400,"station_id":"ce4bhnp2rcd13ifvqgvg","pricing_plan_id":"cebpf4jnsgd1na2vs0mg"},{"bike_id":"38db2f0a-ed0e-4617-b81e-20d14e2b7ca7","system_id":"levelo_inurba_marseille","lat":43.3095,"lon":5.39031,"is_reserved":false,"is_disabled":false,"rental_uris":{"android":"levelo://app?vid=38db2f0a-ed0e-4617-b81e-20d14e2b7ca7","ios":"levelo://app?vid=38db2f0a-ed0e-4617-b81e-20d14e2b7ca7"},"vehicle_type_id":"4","last_reported":1768817896,"current_range_meters":4400,"station_id":"ce4bgup2rcd13ifvqco0","pricing_plan_id":"cebpf4jnsgd1na2vs0mg"},{"bike_id":"2b38c1fe-7b40-40b3-a3f9-5013de1a9ac2","system_id":"levelo_inurba_marseille","lat":43.26196,"lon":5.37471,"is_reserved":false,"is_disabled":false,"rental_uris":{"android":"levelo://app?vid=2b38c1fe-7b40-40b3-a3f9-5013de1a9ac2","ios":"levelo://app?vid=2b38c1fe-7b40-40b3-a3f9-5013de1a9ac2"},"vehicle_type_id":"4","last_reported":1768817896,"current_range_meters":4800,"station_id":"ce4bhgp2rcd13ifvqfc0","pricing_plan_id":"cebpf4jnsgd1na2vs0mg"},{"bike_id":"47237b5e-f6b9-429b-b13b-3f97d17e7b5e","system_id":"levelo_inurba_marseille","lat":43.30376,"lon":5.42491,"is_reserved":false,"is_disabled":false,"rental_uris":{"android":"levelo://app?vid=47237b5e-f6b9-429b-b13b-3f97d17e7b5e","ios":"levelo://app?vid=47237b5e-f6b9-429b-b13b-3f97d17e7b5e"},"vehicle_type_id":"4","last_reported":1768817896,"current_range_meters":4800,"station_id":"ce4bhoh2rcd13ifvqh6g","pricing_plan_id":"cebpf4jnsgd1na2vs0mg"},{"bike_id":"d2e09b08-74a4-4d06-8ec0-688eef749fe6","system_id":"levelo_inurba_marseille","lat":43.31212,"lon":5.36881,"is_reserved":false,"is_disabled":false,"rental_uris":{"android":"levelo://app?vid=d2e09b08-74a4-4d06-8ec0-688eef749fe6","ios":"levelo://app?vid=d2e09b08-74a4-4d06-8ec0-688eef749fe6"},"vehicle_type_id":"4","last_reported":1768817896,"current_range_meters":4800,"station_id":"ce4bgl92rcd13ifvqbq0","pricing_plan_id":"cebpf4jnsgd1na2vs0mg"},{"bike_id":"52d76d5a-c8fd-4dbd-b507-0ab60f5b55ae","system_id":"levelo_inurba_marseille","lat":43.25539,"lon":5.43232,"is_reserved":false,"is_disabled":false,"rental_uris":{"android":"levelo://app?vid=52d76d5a-c8fd-4dbd-b507-0ab60f5b55ae","ios":"levelo://app?vid=52d76d5a-c8fd-4dbd-b507-0ab60f5b55ae"},"vehicle_type_id":"4","last_reported":1768817896,"current_range_meters":4800,"station_id":"","pricing_plan_id":"cebpf4jnsgd1na2vs0mg"},{"bike_id":"5cccdad3-57e0-40c4-bb97-5effe42d761a","system_id":"levelo_inurba_marseille","lat":43.248,"lon":5.37469,"is_reserved":false,"is_disabled":false,"rental_uris":{"android":"levelo://app?vid=5cccdad3-57e0-40c4-bb97-5effe42d761a","ios":"levelo://app?vid=5cccdad3-57e0-40c4-bb97-5effe42d761a"},"vehicle_type_id":"4","last_reported":1768817896,"current_range_meters":4800,"station_id":"ce4bhgh2rcd13ifvqfb0","pricing_plan_id":"cebpf4jnsgd1na2vs0mg"},{"bike_id":"02ab98c5-1cd1-4d33-a034-5f5e1f65b38a","system_id":"levelo_inurba_marseille","lat":43.28481,"lon":5.48394,"is_reserved":false,"is_disabled":false,"rental_uris":{"android":"levelo://app?vid=02ab98c5-1cd1-4d33-a034-5f5e1f65b38a","ios":"levelo://app?vid=02ab98c5-1cd1-4d33-a034-5f5e1f65b38a"},"vehicle_type_id":"4","last_reported":1768817896,"current_range_meters":4800,"station_id":"","pricing_plan_id":"cebpf4jnsgd1na2vs0mg"},{"bike_id":"ab74dafd-bdde-4806-9312-7ac8c28f3c12","system_id":"levelo_inurba_marseille","lat":43.2884,"lon":5.42525,"is_reserved":false,"is_disabled":false,"rental_uris":{"android":"levelo://app?vid=ab74dafd-bdde-4806-9312-7ac8c28f3c12","ios":"levelo://app?vid=ab74dafd-bdde-4806-9312-7ac8c28f3c12"},"vehicle_type_id":"4","last_reported":1768817896,"current_range_meters":4800,"station_id":"st_d3b462108ojc7389ooeg","pricing_plan_id":"cebpf4jnsgd1na2vs0mg"},{"bike_id":"994958cc-37ca-424e-8080-0d7290f30946","system_id":"levelo_inurba_marseille","lat":43.26683,"lon":5.38257,"is_reserved":false,"is_disabled":false,"rental_uris":{"android":"levelo://app?vid=994958cc-37ca-424e-8080-0d7290f30946","ios":"levelo://app?vid=994958cc-37ca-424e-8080-0d7290f30946"},"vehicle_type_id":"4","last_reported":1768817896,"current_range_meters":4800,"station_id":"ce4bhg92rcd13ifvqf90","pricing_plan_id":"cebpf4jnsgd1na2vs0mg"},{"bike_id":"d8b9e957-f2b7-4f6e-b234-f493ee530339","system_id":"levelo_inurba_marseille","lat":43.29197,"lon":5.35815,"is_reserved":false,"is_disabled":false,"rental_uris":{"android":"levelo://app?vid=d8b9e957-f2b7-4f6e-b234-f493ee530339","ios":"levelo://app?vid=d8b9e957-f2b7-4f6e-b234-f493ee530339"},"vehicle_type_id":"4","last_reported":1768817896,"current_range_meters":4800,"station_id":"ce4bhb12rcd13ifvqel0","pricing_plan_id":"cebpf4jnsgd1na2vs0mg"},{"bike_id":"f85f4c33-1265-4e47-befa-9150dd174599","system_id":"levelo_inurba_marseille","lat":43.3034,"lon":5.37732,"is_reserved":false,"is_disabled":false,"rental_uris":{"android":"levelo://app?vid=f85f4c33-1265-4e47-befa-9150dd174599","ios":"levelo://app?vid=f85f4c33-1265-4e47-befa-9150dd174599"},"vehicle_type_id":"4","last_reported":1768817896,"current_range_meters":4800,"station_id":"","pricing_plan_id":"cebpf4jnsgd1na2vs0mg"},{"bike_id":"5cafc65a-336d-461b-9c9b-24020b0d2e9d","system_id":"levelo_inurba_marseille","lat":43.33525,"lon":5.37479,"is_reserved":false,"is_disabled":false,"rental_uris":{"android":"levelo://app?vid=5cafc65a-336d-461b-9c9b-24020b0d2e9d","ios":"levelo://app?vid=5cafc65a-336d-461b-9c9b-24020b0d2e9d"},"vehicle_type_id":"4","last_reported":1768817896,"current_range_meters":4800,"station_id":"","pricing_plan_id":"cebpf4jnsgd1na2vs0mg"},{"bike_id":"7598ef3a-b665-4fa8-b3de-2e188254c5cb","system_id":"levelo_inurba_marseille","lat":43.26484,"lon":5.39557,"is_reserved":false,"is_disabled":false,"rental_uris":{"android":"levelo://app?vid=7598ef3a-b665-4fa8-b3de-2e188254c5cb","ios":"levelo://app?vid=7598ef3a-b665-4fa8-b3de-2e188254c5cb"},"vehicle_type_id":"4","last_reported":1768817896,"current_range_meters":5600,"station_id":"ce4bhi12rcd13ifvqfq0","pricing_plan_id":"cebpf4jnsgd1na2vs0mg"},{"bike_id":"e67e42fe-b68e-4d43-9d57-582dc6eaf5d9","system_id":"levelo_inurba_marseille","lat":43.255734,"lon":5.382223,"is_reserved":false,"is_disabled":false,"rental_uris":{"android":"levelo://app?vid=e67e42fe-b68e-4d43-9d57-582dc6eaf5d9","ios":"levelo://app?vid=e67e42fe-b68e-4d43-9d57-582dc6eaf5d9"},"vehicle_type_id":"4","last_reported":1768817896,"current_range_meters":5600,"station_id":"ce4bhih2rcd13ifvqfs0","pricing_plan_id":"cebpf4jnsgd1na2vs0mg"},{"bike_id":"5037036f-188b-4c9c-9f7e-772a64c012d7","system_id":"levelo_inurba_marseille","lat":43.24165,"lon":5.39775,"is_reserved":false,"is_disabled":false,"rental_uris":{"android":"levelo://app?vid=5037036f-188b-4c9c-9f7e-772a64c012d7","ios":"levelo://app?vid=5037036f-188b-4c9c-9f7e-772a64c012d7"},"vehicle_type_id":"4","last_reported":1768817896,"current_range_meters":5600,"station_id":"ce4bhn12rcd13ifvqgpg","pricing_plan_id":"cebpf4jnsgd1na2vs0mg"},{"bike_id":"6355e7aa-a5cc-4172-b776-1eb210d2dfc4","system_id":"levelo_inurba_marseille","lat":43.31245,"lon":5.36837,"is_reserved":false,"is_disabled":false,"rental_uris":{"android":"levelo://app?vid=6355e7aa-a5cc-4172-b776-1eb210d2dfc4","ios":"levelo://app?vid=6355e7aa-a5cc-4172-b776-1eb210d2dfc4"},"vehicle_type_id":"4","last_reported":1768817896,"current_range_meters":5600,"station_id":"ce4bgl92rcd13ifvqbq0","pricing_plan_id":"cebpf4jnsgd1na2vs0mg"},{"bike_id":"e94c8ee4-b0a5-4778-abc5-57f1c73a979e","system_id":"levelo_inurba_marseille","lat":43.29574,"lon":5.36761,"is_reserved":false,"is_disabled":false,"rental_uris":{"android":"levelo://app?vid=e94c8ee4-b0a5-4778-abc5-57f1c73a979e","ios":"levelo://app?vid=e94c8ee4-b0a5-4778-abc5-57f1c73a979e"},"vehicle_type_id":"4","last_reported":1768817896,"current_range_meters":5600,"station_id":"ce4bgph2rcd13ifvqc2g","pricing_plan_id":"cebpf4jnsgd1na2vs0mg"},{"bike_id":"7138963b-56af-444b-9f3c-7acb67c6163b","system_id":"levelo_inurba_marseille","lat":43.26054,"lon":5.39406,"is_reserved":false,"is_disabled":false,"rental_uris":{"android":"levelo://app?vid=7138963b-56af-444b-9f3c-7acb67c6163b","ios":"levelo://app?vid=7138963b-56af-444b-9f3c-7acb67c6163b"},"vehicle_type_id":"4","last_reported":1768817896,"current_range_meters":5600,"station_id":"ce4bhh92rcd13ifvqfj0","pricing_plan_id":"cebpf4jnsgd1na2vs0mg"},{"bike_id":"9d4e52fe-5fd6-47e1-841a-1b3079f7fe1d","system_id":"levelo_inurba_marseille","lat":43.309,"lon":5.36873,"is_reserved":false,"is_disabled":false,"rental_uris":{"android":"levelo://app?vid=9d4e52fe-5fd6-47e1-841a-1b3079f7fe1d","ios":"levelo://app?vid=9d4e52fe-5fd6-47e1-841a-1b3079f7fe1d"},"vehicle_type_id":"4","last_reported":1768817896,"current_range_meters":6000,"station_id":"ce4bgn92rcd13ifvqbvg","pricing_plan_id":"cebpf4jnsgd1na2vs0mg"},{"bike_id":"627144b4-4e39-47cd-8c23-9c4e36af3bce","system_id":"levelo_inurba_marseille","lat":43.28723,"lon":5.37942,"is_reserved":false,"is_disabled":false,"rental_uris":{"android":"levelo://app?vid=627144b4-4e39-47cd-8c23-9c4e36af3bce","ios":"levelo://app?vid=627144b4-4e39-47cd-8c23-9c4e36af3bce"},"vehicle_type_id":"4","last_reported":1768817896,"current_range_meters":6000,"station_id":"ce4bh9p2rcd13ifvqec0","pricing_plan_id":"cebpf4jnsgd1na2vs0mg"},{"bike_id":"f760a7b1-29a2-400f-be88-26a576d0ed33","system_id":"levelo_inurba_marseille","lat":43.22562,"lon":5.4163,"is_reserved":false,"is_disabled":false,"rental_uris":{"android":"levelo://app?vid=f760a7b1-29a2-400f-be88-26a576d0ed33","ios":"levelo://app?vid=f760a7b1-29a2-400f-be88-26a576d0ed33"},"vehicle_type_id":"4","last_reported":1768817896,"current_range_meters":6000,"station_id":"st_d2o4gvlbi1j2169b742g","pricing_plan_id":"cebpf4jnsgd1na2vs0mg"},{"bike_id":"5ae218fc-4b59-47bf-843d-07e184a1a6c6","system_id":"levelo_inurba_marseille","lat":43.25583,"lon":5.3824,"is_reserved":false,"is_disabled":false,"rental_uris":{"android":"levelo://app?vid=5ae218fc-4b59-47bf-843d-07e184a1a6c6","ios":"levelo://app?vid=5ae218fc-4b59-47bf-843d-07e184a1a6c6"},"vehicle_type_id":"4","last_reported":1768817896,"current_range_meters":6000,"station_id":"ce4bhih2rcd13ifvqfs0","pricing_plan_id":"cebpf4jnsgd1na2vs0mg"},{"bike_id":"3e1b0ae8-bc2e-47bc-9eec-b1e55fd276e4","system_id":"levelo_inurba_marseille","lat":43.284787,"lon":5.483901,"is_reserved":false,"is_disabled":false,"rental_uris":{"android":"levelo://app?vid=3e1b0ae8-bc2e-47bc-9eec-b1e55fd276e4","ios":"levelo://app?vid=3e1b0ae8-bc2e-47bc-9eec-b1e55fd276e4"},"vehicle_type_id":"4","last_reported":1768817896,"current_range_meters":6000,"station_id":"st_d3svhcjqgbts73a3dn0g","pricing_plan_id":"cebpf4jnsgd1na2vs0mg"},{"bike_id":"4471b153-47fa-489c-846a-d53b16f561e8","system_id":"levelo_inurba_marseille","lat":43.26192,"lon":5.37478,"is_reserved":false,"is_disabled":false,"rental_uris":{"android":"levelo://app?vid=4471b153-47fa-489c-846a-d53b16f561e8","ios":"levelo://app?vid=4471b153-47fa-489c-846a-d53b16f561e8"},"vehicle_type_id":"4","last_reported":1768817896,"current_range_meters":6000,"station_id":"ce4bhgp2rcd13ifvqfc0","pricing_plan_id":"cebpf4jnsgd1na2vs0mg"},{"bike_id":"99eb7f6e-7d47-4fe7-a5ad-44af0b5818fb","system_id":"levelo_inurba_marseille","lat":43.24064,"lon":5.39732,"is_reserved":false,"is_disabled":false,"rental_uris":{"android":"levelo://app?vid=99eb7f6e-7d47-4fe7-a5ad-44af0b5818fb","ios":"levelo://app?vid=99eb7f6e-7d47-4fe7-a5ad-44af0b5818fb"},"vehicle_type_id":"4","last_reported":1768817896,"current_range_meters":6000,"station_id":"","pricing_plan_id":"cebpf4jnsgd1na2vs0mg"},{"bike_id":"997bd131-bc4b-4ed3-be50-234bd23db618","system_id":"levelo_inurba_marseille","lat":43.23785,"lon":5.36636,"is_reserved":false,"is_disabled":false,"rental_uris":{"android":"levelo://app?vid=997bd131-bc4b-4ed3-be50-234bd23db618","ios":"levelo://app?vid=997bd131-bc4b-4ed3-be50-234bd23db618"},"vehicle_type_id":"4","last_reported":1768817896,"current_range_meters":6000,"station_id":"st_d3nk18o9ro0c73en2l3g","pricing_plan_id":"cebpf4jnsgd1na2vs0mg"},{"bike_id":"f6adf0c1-f5b5-44a2-95f0-fade2e340101","system_id":"levelo_inurba_marseille","lat":43.27809,"lon":5.4071,"is_reserved":false,"is_disabled":false,"rental_uris":{"android":"levelo://app?vid=f6adf0c1-f5b5-44a2-95f0-fade2e340101","ios":"levelo://app?vid=f6adf0c1-f5b5-44a2-95f0-fade2e340101"},"vehicle_type_id":"4","last_reported":1768817896,"current_range_meters":6000,"station_id":"ce4bhnh2rcd13ifvqgtg","pricing_plan_id":"cebpf4jnsgd1na2vs0mg"},{"bike_id":"d19cfc42-b2b1-43d1-b130-a67d6f4e20e0","system_id":"levelo_inurba_marseille","lat":43.319,"lon":5.40104,"is_reserved":false,"is_disabled":false,"rental_uris":{"android":"levelo://app?vid=d19cfc42-b2b1-43d1-b130-a67d6f4e20e0","ios":"levelo://app?vid=d19cfc42-b2b1-43d1-b130-a67d6f4e20e0"},"vehicle_type_id":"4","last_reported":1768817896,"current_range_meters":6000,"station_id":"","pricing_plan_id":"cebpf4jnsgd1na2vs0mg"},{"bike_id":"d61d55f2-38b3-47bf-8db3-dd8829f32d8f","system_id":"levelo_inurba_marseille","lat":43.28533,"lon":5.441,"is_reserved":false,"is_disabled":false,"rental_uris":{"android":"levelo://app?vid=d61d55f2-38b3-47bf-8db3-dd8829f32d8f","ios":"levelo://app?vid=d61d55f2-38b3-47bf-8db3-dd8829f32d8f"},"vehicle_type_id":"4","last_reported":1768817896,"current_range_meters":6000,"station_id":"st_d3j3df2ikq2c7380ej80","pricing_plan_id":"cebpf4jnsgd1na2vs0mg"},{"bike_id":"a54d5df4-8e04-455c-aff5-6470c2bee2e4","system_id":"levelo_inurba_marseille","lat":43.27972,"lon":5.38525,"is_reserved":false,"is_disabled":false,"rental_uris":{"android":"levelo://app?vid=a54d5df4-8e04-455c-aff5-6470c2bee2e4","ios":"levelo://app?vid=a54d5df4-8e04-455c-aff5-6470c2bee2e4"},"vehicle_type_id":"4","last_reported":1768817896,"current_range_meters":6400,"station_id":"","pricing_plan_id":"cebpf4jnsgd1na2vs0mg"},{"bike_id":"e3ab7fbc-a543-4ce6-8bfb-a545434b1568","system_id":"levelo_inurba_marseille","lat":43.288546,"lon":5.425223,"is_reserved":false,"is_disabled":false,"rental_uris":{"android":"levelo://app?vid=e3ab7fbc-a543-4ce6-8bfb-a545434b1568","ios":"levelo://app?vid=e3ab7fbc-a543-4ce6-8bfb-a545434b1568"},"vehicle_type_id":"4","last_reported":1768817896,"current_range_meters":6400,"station_id":"st_d3b462108ojc7389ooeg","pricing_plan_id":"cebpf4jnsgd1na2vs0mg"},{"bike_id":"9d5bd6e3-5f32-42e7-82c4-5b32e671c5bf","system_id":"levelo_inurba_marseille","lat":43.31755,"lon":5.39019,"is_reserved":false,"is_disabled":false,"rental_uris":{"android":"levelo://app?vid=9d5bd6e3-5f32-42e7-82c4-5b32e671c5bf","ios":"levelo://app?vid=9d5bd6e3-5f32-42e7-82c4-5b32e671c5bf"},"vehicle_type_id":"4","last_reported":1768817896,"current_range_meters":6400,"station_id":"ce4bhqp2rcd13ifvqhng","pricing_plan_id":"cebpf4jnsgd1na2vs0mg"},{"bike_id":"4eadcc1b-0762-4040-86d7-ebfc094275a1","system_id":"levelo_inurba_marseille","lat":43.27208,"lon":5.39177,"is_reserved":false,"is_disabled":false,"rental_uris":{"android":"levelo://app?vid=4eadcc1b-0762-4040-86d7-ebfc094275a1","ios":"levelo://app?vid=4eadcc1b-0762-4040-86d7-ebfc094275a1"},"vehicle_type_id":"4","last_reported":1768817896,"current_range_meters":6400,"station_id":"","pricing_plan_id":"cebpf4jnsgd1na2vs0mg"},{"bike_id":"456fa838-bde1-41a1-bacb-725c5d31c7ed","system_id":"levelo_inurba_marseille","lat":43.27385,"lon":5.362456,"is_reserved":false,"is_disabled":false,"rental_uris":{"android":"levelo://app?vid=456fa838-bde1-41a1-bacb-725c5d31c7ed","ios":"levelo://app?vid=456fa838-bde1-41a1-bacb-725c5d31c7ed"},"vehicle_type_id":"4","last_reported":1768817896,"current_range_meters":6400,"station_id":"ce4bhbh2rcd13ifvqeo0","pricing_plan_id":"cebpf4jnsgd1na2vs0mg"},{"bike_id":"ba07251e-69c5-4418-ace3-7cd844e33077","system_id":"levelo_inurba_marseille","lat":43.27847,"lon":5.40687,"is_reserved":false,"is_disabled":false,"rental_uris":{"android":"levelo://app?vid=ba07251e-69c5-4418-ace3-7cd844e33077","ios":"levelo://app?vid=ba07251e-69c5-4418-ace3-7cd844e33077"},"vehicle_type_id":"4","last_reported":1768817896,"current_range_meters":6400,"station_id":"ce4bhnh2rcd13ifvqgtg","pricing_plan_id":"cebpf4jnsgd1na2vs0mg"},{"bike_id":"3685f9e3-08c8-45d7-ab98-5f889efb34b2","system_id":"levelo_inurba_marseille","lat":43.25855,"lon":5.39905,"is_reserved":false,"is_disabled":false,"rental_uris":{"android":"levelo://app?vid=3685f9e3-08c8-45d7-ab98-5f889efb34b2","ios":"levelo://app?vid=3685f9e3-08c8-45d7-ab98-5f889efb34b2"},"vehicle_type_id":"4","last_reported":1768817896,"current_range_meters":6400,"station_id":"ce4bhl92rcd13ifvqghg","pricing_plan_id":"cebpf4jnsgd1na2vs0mg"},{"bike_id":"825dbe6a-05ff-42c5-b686-988034ec5c97","system_id":"levelo_inurba_marseille","lat":43.27932,"lon":5.41049,"is_reserved":false,"is_disabled":true,"rental_uris":{"android":"levelo://app?vid=825dbe6a-05ff-42c5-b686-988034ec5c97","ios":"levelo://app?vid=825dbe6a-05ff-42c5-b686-988034ec5c97"},"vehicle_type_id":"4","last_reported":1768817896,"current_range_meters":6400,"station_id":"ce4bhnp2rcd13ifvqh0g","pricing_plan_id":"cebpf4jnsgd1na2vs0mg"},{"bike_id":"e0b3d136-4efd-4410-be5e-53b3cc12c4c3","system_id":"levelo_inurba_marseille","lat":43.2605,"lon":5.38652,"is_reserved":false,"is_disabled":false,"rental_uris":{"android":"levelo://app?vid=e0b3d136-4efd-4410-be5e-53b3cc12c4c3","ios":"levelo://app?vid=e0b3d136-4efd-4410-be5e-53b3cc12c4c3"},"vehicle_type_id":"4","last_reported":1768817896,"current_range_meters":6400,"station_id":"","pricing_plan_id":"cebpf4jnsgd1na2vs0mg"},{"bike_id":"e95eb614-35af-4d13-86ba-a59b6ae5ccee","system_id":"levelo_inurba_marseille","lat":43.2378,"lon":5.36634,"is_reserved":false,"is_disabled":false,"rental_uris":{"android":"levelo://app?vid=e95eb614-35af-4d13-86ba-a59b6ae5ccee","ios":"levelo://app?vid=e95eb614-35af-4d13-86ba-a59b6ae5ccee"},"vehicle_type_id":"4","last_reported":1768817896,"current_range_meters":6400,"station_id":"st_d3nk18o9ro0c73en2l3g","pricing_plan_id":"cebpf4jnsgd1na2vs0mg"},{"bike_id":"12b105ac-593d-473b-a16a-a4d1f9fb50c6","system_id":"levelo_inurba_marseille","lat":43.279786,"lon":5.38735,"is_reserved":false,"is_disabled":false,"rental_uris":{"android":"levelo://app?vid=12b105ac-593d-473b-a16a-a4d1f9fb50c6","ios":"levelo://app?vid=12b105ac-593d-473b-a16a-a4d1f9fb50c6"},"vehicle_type_id":"4","last_reported":1768817896,"current_range_meters":6400,"station_id":"","pricing_plan_id":"cebpf4jnsgd1na2vs0mg"},{"bike_id":"9ea71dd4-557a-49eb-872d-de0717506d64","system_id":"levelo_inurba_marseille","lat":43.23195,"lon":5.35543,"is_reserved":false,"is_disabled":false,"rental_uris":{"android":"levelo://app?vid=9ea71dd4-557a-49eb-872d-de0717506d64","ios":"levelo://app?vid=9ea71dd4-557a-49eb-872d-de0717506d64"},"vehicle_type_id":"4","last_reported":1768817896,"current_range_meters":6400,"station_id":"ce4bhu92rcd13ifvqi70","pricing_plan_id":"cebpf4jnsgd1na2vs0mg"},{"bike_id":"9e956125-d135-4c5b-a672-b787c5ecd852","system_id":"levelo_inurba_marseille","lat":43.24161,"lon":5.39717,"is_reserved":false,"is_disabled":false,"rental_uris":{"android":"levelo://app?vid=9e956125-d135-4c5b-a672-b787c5ecd852","ios":"levelo://app?vid=9e956125-d135-4c5b-a672-b787c5ecd852"},"vehicle_type_id":"4","last_reported":1768817896,"current_range_meters":6400,"station_id":"ce4bhn12rcd13ifvqgpg","pricing_plan_id":"cebpf4jnsgd1na2vs0mg"},{"bike_id":"84d602b3-8943-4780-bcf1-164d29a27b66","system_id":"levelo_inurba_marseille","lat":43.28472,"lon":5.48423,"is_reserved":false,"is_disabled":false,"rental_uris":{"android":"levelo://app?vid=84d602b3-8943-4780-bcf1-164d29a27b66","ios":"levelo://app?vid=84d602b3-8943-4780-bcf1-164d29a27b66"},"vehicle_type_id":"4","last_reported":1768817896,"current_range_meters":6400,"station_id":"","pricing_plan_id":"cebpf4jnsgd1na2vs0mg"},{"bike_id":"3b2cc1a1-ffda-4609-9e7c-37f44f8254f0","system_id":"levelo_inurba_marseille","lat":43.31383,"lon":5.38497,"is_reserved":false,"is_disabled":false,"rental_uris":{"android":"levelo://app?vid=3b2cc1a1-ffda-4609-9e7c-37f44f8254f0","ios":"levelo://app?vid=3b2cc1a1-ffda-4609-9e7c-37f44f8254f0"},"vehicle_type_id":"4","last_reported":1768817896,"current_range_meters":6400,"station_id":"ce4bgt92rcd13ifvqcf0","pricing_plan_id":"cebpf4jnsgd1na2vs0mg"},{"bike_id":"188c635f-31eb-4e45-b29f-e748801ba7a3","system_id":"levelo_inurba_marseille","lat":43.28468,"lon":5.48426,"is_reserved":false,"is_disabled":false,"rental_uris":{"android":"levelo://app?vid=188c635f-31eb-4e45-b29f-e748801ba7a3","ios":"levelo://app?vid=188c635f-31eb-4e45-b29f-e748801ba7a3"},"vehicle_type_id":"4","last_reported":1768817896,"current_range_meters":6400,"station_id":"st_d3svhcjqgbts73a3dn0g","pricing_plan_id":"cebpf4jnsgd1na2vs0mg"},{"bike_id":"c17fb97b-ae07-4c98-a543-c0e22027b693","system_id":"levelo_inurba_marseille","lat":43.2439,"lon":5.37071,"is_reserved":false,"is_disabled":false,"rental_uris":{"android":"levelo://app?vid=c17fb97b-ae07-4c98-a543-c0e22027b693","ios":"levelo://app?vid=c17fb97b-ae07-4c98-a543-c0e22027b693"},"vehicle_type_id":"4","last_reported":1768817896,"current_range_meters":6400,"station_id":"ce4bhhh2rcd13ifvqfk0","pricing_plan_id":"cebpf4jnsgd1na2vs0mg"},{"bike_id":"0975f492-1758-4813-958c-364296bfbee6","system_id":"levelo_inurba_marseille","lat":43.26344,"lon":5.39424,"is_reserved":false,"is_disabled":false,"rental_uris":{"android":"levelo://app?vid=0975f492-1758-4813-958c-364296bfbee6","ios":"levelo://app?vid=0975f492-1758-4813-958c-364296bfbee6"},"vehicle_type_id":"4","last_reported":1768817896,"current_range_meters":6800,"station_id":"","pricing_plan_id":"cebpf4jnsgd1na2vs0mg"},{"bike_id":"1606f888-b4dc-4200-b20c-005f9a7c7417","system_id":"levelo_inurba_marseille","lat":43.22949,"lon":5.3542,"is_reserved":false,"is_disabled":false,"rental_uris":{"android":"levelo://app?vid=1606f888-b4dc-4200-b20c-005f9a7c7417","ios":"levelo://app?vid=1606f888-b4dc-4200-b20c-005f9a7c7417"},"vehicle_type_id":"4","last_reported":1768817896,"current_range_meters":6800,"station_id":"cpo3532slgdg3j2ikp40","pricing_plan_id":"cebpf4jnsgd1na2vs0mg"},{"bike_id":"da5ec0dc-b428-4d22-9b7d-d9f0923ad17e","system_id":"levelo_inurba_marseille","lat":43.29634,"lon":5.371526,"is_reserved":false,"is_disabled":true,"rental_uris":{"android":"levelo://app?vid=da5ec0dc-b428-4d22-9b7d-d9f0923ad17e","ios":"levelo://app?vid=da5ec0dc-b428-4d22-9b7d-d9f0923ad17e"},"vehicle_type_id":"4","last_reported":1768817896,"current_range_meters":6800,"station_id":"ce4bgnh2rcd13ifvqc0g","pricing_plan_id":"cebpf4jnsgd1na2vs0mg"},{"bike_id":"6cf01478-fde2-46e6-bdc7-d20cd609786f","system_id":"levelo_inurba_marseille","lat":43.28485,"lon":5.38536,"is_reserved":false,"is_disabled":false,"rental_uris":{"android":"levelo://app?vid=6cf01478-fde2-46e6-bdc7-d20cd609786f","ios":"levelo://app?vid=6cf01478-fde2-46e6-bdc7-d20cd609786f"},"vehicle_type_id":"4","last_reported":1768817896,"current_range_meters":6800,"station_id":"ce4bh8p2rcd13ifvqeb0","pricing_plan_id":"cebpf4jnsgd1na2vs0mg"},{"bike_id":"0fd21be0-2047-4c19-93b0-3d78a043614b","system_id":"levelo_inurba_marseille","lat":43.23795,"lon":5.36647,"is_reserved":false,"is_disabled":false,"rental_uris":{"android":"levelo://app?vid=0fd21be0-2047-4c19-93b0-3d78a043614b","ios":"levelo://app?vid=0fd21be0-2047-4c19-93b0-3d78a043614b"},"vehicle_type_id":"4","last_reported":1768817896,"current_range_meters":6800,"station_id":"st_d3nk18o9ro0c73en2l3g","pricing_plan_id":"cebpf4jnsgd1na2vs0mg"},{"bike_id":"29afe764-5bd3-4798-b90c-797c6f1ff8b4","system_id":"levelo_inurba_marseille","lat":43.2731,"lon":5.39087,"is_reserved":false,"is_disabled":false,"rental_uris":{"android":"levelo://app?vid=29afe764-5bd3-4798-b90c-797c6f1ff8b4","ios":"levelo://app?vid=29afe764-5bd3-4798-b90c-797c6f1ff8b4"},"vehicle_type_id":"4","last_reported":1768817896,"current_range_meters":6800,"station_id":"ce4bhgp2rcd13ifvqfe0","pricing_plan_id":"cebpf4jnsgd1na2vs0mg"},{"bike_id":"2d060480-4076-4ee0-b2c8-9a6123da7b4a","system_id":"levelo_inurba_marseille","lat":43.30445,"lon":5.37913,"is_reserved":false,"is_disabled":false,"rental_uris":{"android":"levelo://app?vid=2d060480-4076-4ee0-b2c8-9a6123da7b4a","ios":"levelo://app?vid=2d060480-4076-4ee0-b2c8-9a6123da7b4a"},"vehicle_type_id":"4","last_reported":1768817896,"current_range_meters":6800,"station_id":"ce4bgup2rcd13ifvqcn0","pricing_plan_id":"cebpf4jnsgd1na2vs0mg"},{"bike_id":"80b40564-d8ca-4fba-94c7-74b7e6e95b0e","system_id":"levelo_inurba_marseille","lat":43.30535,"lon":5.3655,"is_reserved":false,"is_disabled":false,"rental_uris":{"android":"levelo://app?vid=80b40564-d8ca-4fba-94c7-74b7e6e95b0e","ios":"levelo://app?vid=80b40564-d8ca-4fba-94c7-74b7e6e95b0e"},"vehicle_type_id":"4","last_reported":1768817896,"current_range_meters":6800,"station_id":"ce4bgs12rcd13ifvqcag","pricing_plan_id":"cebpf4jnsgd1na2vs0mg"},{"bike_id":"6e6668ca-b731-4a0f-96be-569ad39a25a1","system_id":"levelo_inurba_marseille","lat":43.23153,"lon":5.43733,"is_reserved":false,"is_disabled":true,"rental_uris":{"android":"levelo://app?vid=6e6668ca-b731-4a0f-96be-569ad39a25a1","ios":"levelo://app?vid=6e6668ca-b731-4a0f-96be-569ad39a25a1"},"vehicle_type_id":"4","last_reported":1768817896,"current_range_meters":6800,"station_id":"ce4bhmp2rcd13ifvqgog","pricing_plan_id":"cebpf4jnsgd1na2vs0mg"},{"bike_id":"39133ef5-deb1-4ed5-9a13-e89d3e4fa4d7","system_id":"levelo_inurba_marseille","lat":43.30954,"lon":5.39044,"is_reserved":false,"is_disabled":false,"rental_uris":{"android":"levelo://app?vid=39133ef5-deb1-4ed5-9a13-e89d3e4fa4d7","ios":"levelo://app?vid=39133ef5-deb1-4ed5-9a13-e89d3e4fa4d7"},"vehicle_type_id":"4","last_reported":1768817896,"current_range_meters":6800,"station_id":"ce4bgup2rcd13ifvqco0","pricing_plan_id":"cebpf4jnsgd1na2vs0mg"},{"bike_id":"1837b76f-55b2-4942-aef4-b0d299ab4019","system_id":"levelo_inurba_marseille","lat":43.25221,"lon":5.38037,"is_reserved":false,"is_disabled":false,"rental_uris":{"android":"levelo://app?vid=1837b76f-55b2-4942-aef4-b0d299ab4019","ios":"levelo://app?vid=1837b76f-55b2-4942-aef4-b0d299ab4019"},"vehicle_type_id":"4","last_reported":1768817896,"current_range_meters":6800,"station_id":"","pricing_plan_id":"cebpf4jnsgd1na2vs0mg"},{"bike_id":"a9cdf974-4322-4744-b774-7480af4d3eeb","system_id":"levelo_inurba_marseille","lat":43.27992,"lon":5.41667,"is_reserved":false,"is_disabled":false,"rental_uris":{"android":"levelo://app?vid=a9cdf974-4322-4744-b774-7480af4d3eeb","ios":"levelo://app?vid=a9cdf974-4322-4744-b774-7480af4d3eeb"},"vehicle_type_id":"4","last_reported":1768817896,"current_range_meters":7200,"station_id":"ce4bho12rcd13ifvqh1g","pricing_plan_id":"cebpf4jnsgd1na2vs0mg"},{"bike_id":"ec1861e3-cf5e-47e7-9bee-92fe639b30f4","system_id":"levelo_inurba_marseille","lat":43.24529,"lon":5.39536,"is_reserved":false,"is_disabled":false,"rental_uris":{"android":"levelo://app?vid=ec1861e3-cf5e-47e7-9bee-92fe639b30f4","ios":"levelo://app?vid=ec1861e3-cf5e-47e7-9bee-92fe639b30f4"},"vehicle_type_id":"4","last_reported":1768817896,"current_range_meters":7200,"station_id":"ce4bhlp2rcd13ifvqgjg","pricing_plan_id":"cebpf4jnsgd1na2vs0mg"},{"bike_id":"681232eb-8730-4455-bfaa-f9a1ecc3ac98","system_id":"levelo_inurba_marseille","lat":43.24804,"lon":5.3746,"is_reserved":false,"is_disabled":false,"rental_uris":{"android":"levelo://app?vid=681232eb-8730-4455-bfaa-f9a1ecc3ac98","ios":"levelo://app?vid=681232eb-8730-4455-bfaa-f9a1ecc3ac98"},"vehicle_type_id":"4","last_reported":1768817896,"current_range_meters":7200,"station_id":"ce4bhgh2rcd13ifvqfb0","pricing_plan_id":"cebpf4jnsgd1na2vs0mg"},{"bike_id":"76bd8662-78d2-416e-bd1f-dbf6b13bf763","system_id":"levelo_inurba_marseille","lat":43.26933,"lon":5.40263,"is_reserved":false,"is_disabled":false,"rental_uris":{"android":"levelo://app?vid=76bd8662-78d2-416e-bd1f-dbf6b13bf763","ios":"levelo://app?vid=76bd8662-78d2-416e-bd1f-dbf6b13bf763"},"vehicle_type_id":"4","last_reported":1768817896,"current_range_meters":7200,"station_id":"cjm6bp8fraef2m0cb0m0","pricing_plan_id":"cebpf4jnsgd1na2vs0mg"},{"bike_id":"f105bb30-5feb-43b7-adae-39f585dd1cca","system_id":"levelo_inurba_marseille","lat":43.28607,"lon":5.35124,"is_reserved":false,"is_disabled":true,"rental_uris":{"android":"levelo://app?vid=f105bb30-5feb-43b7-adae-39f585dd1cca","ios":"levelo://app?vid=f105bb30-5feb-43b7-adae-39f585dd1cca"},"vehicle_type_id":"4","last_reported":1768817896,"current_range_meters":7200,"station_id":"ce4bhch2rcd13ifvqeug","pricing_plan_id":"cebpf4jnsgd1na2vs0mg"},{"bike_id":"f6dee482-e963-4223-be46-6a1a82c523df","system_id":"levelo_inurba_marseille","lat":43.24176,"lon":5.39729,"is_reserved":false,"is_disabled":false,"rental_uris":{"android":"levelo://app?vid=f6dee482-e963-4223-be46-6a1a82c523df","ios":"levelo://app?vid=f6dee482-e963-4223-be46-6a1a82c523df"},"vehicle_type_id":"4","last_reported":1768817896,"current_range_meters":7200,"station_id":"ce4bhn12rcd13ifvqgpg","pricing_plan_id":"cebpf4jnsgd1na2vs0mg"},{"bike_id":"c3633228-22c1-48b6-a73d-2db8665cea58","system_id":"levelo_inurba_marseille","lat":43.27812,"lon":5.40718,"is_reserved":false,"is_disabled":false,"rental_uris":{"android":"levelo://app?vid=c3633228-22c1-48b6-a73d-2db8665cea58","ios":"levelo://app?vid=c3633228-22c1-48b6-a73d-2db8665cea58"},"vehicle_type_id":"4","last_reported":1768817896,"current_range_meters":7200,"station_id":"ce4bhnh2rcd13ifvqgtg","pricing_plan_id":"cebpf4jnsgd1na2vs0mg"},{"bike_id":"44d80ca6-dac0-4000-97a2-ac8fa224bc0e","system_id":"levelo_inurba_marseille","lat":43.28742,"lon":5.37172,"is_reserved":false,"is_disabled":false,"rental_uris":{"android":"levelo://app?vid=44d80ca6-dac0-4000-97a2-ac8fa224bc0e","ios":"levelo://app?vid=44d80ca6-dac0-4000-97a2-ac8fa224bc0e"},"vehicle_type_id":"4","last_reported":1768817896,"current_range_meters":7200,"station_id":"","pricing_plan_id":"cebpf4jnsgd1na2vs0mg"},{"bike_id":"5e5e22bc-3c3d-4ad0-8a90-45bf55ecfadc","system_id":"levelo_inurba_marseille","lat":43.29028,"lon":5.3757,"is_reserved":false,"is_disabled":false,"rental_uris":{"android":"levelo://app?vid=5e5e22bc-3c3d-4ad0-8a90-45bf55ecfadc","ios":"levelo://app?vid=5e5e22bc-3c3d-4ad0-8a90-45bf55ecfadc"},"vehicle_type_id":"4","last_reported":1768817896,"current_range_meters":7200,"station_id":"ce4bh692rcd13ifvqe90","pricing_plan_id":"cebpf4jnsgd1na2vs0mg"},{"bike_id":"ef88c352-189d-4372-beb9-7002182fbb2b","system_id":"levelo_inurba_marseille","lat":43.27978,"lon":5.39976,"is_reserved":false,"is_disabled":false,"rental_uris":{"android":"levelo://app?vid=ef88c352-189d-4372-beb9-7002182fbb2b","ios":"levelo://app?vid=ef88c352-189d-4372-beb9-7002182fbb2b"},"vehicle_type_id":"4","last_reported":1768817896,"current_range_meters":7200,"station_id":"ce4bho92rcd13ifvqh4g","pricing_plan_id":"cebpf4jnsgd1na2vs0mg"},{"bike_id":"7ed5f5fe-b971-410d-806f-a167c85f1377","system_id":"levelo_inurba_marseille","lat":43.31357,"lon":5.38497,"is_reserved":false,"is_disabled":false,"rental_uris":{"android":"levelo://app?vid=7ed5f5fe-b971-410d-806f-a167c85f1377","ios":"levelo://app?vid=7ed5f5fe-b971-410d-806f-a167c85f1377"},"vehicle_type_id":"4","last_reported":1768817896,"current_range_meters":7200,"station_id":"ce4bgt92rcd13ifvqcf0","pricing_plan_id":"cebpf4jnsgd1na2vs0mg"},{"bike_id":"13c7565e-579a-4d8c-8e4a-79f4880e8378","system_id":"levelo_inurba_marseille","lat":43.25349,"lon":5.37989,"is_reserved":false,"is_disabled":false,"rental_uris":{"android":"levelo://app?vid=13c7565e-579a-4d8c-8e4a-79f4880e8378","ios":"levelo://app?vid=13c7565e-579a-4d8c-8e4a-79f4880e8378"},"vehicle_type_id":"4","last_reported":1768817896,"current_range_meters":7200,"station_id":"","pricing_plan_id":"cebpf4jnsgd1na2vs0mg"},{"bike_id":"85e5b6f5-3fad-4389-a62d-0d5edd813f11","system_id":"levelo_inurba_marseille","lat":43.26564,"lon":5.40329,"is_reserved":false,"is_disabled":false,"rental_uris":{"android":"levelo://app?vid=85e5b6f5-3fad-4389-a62d-0d5edd813f11","ios":"levelo://app?vid=85e5b6f5-3fad-4389-a62d-0d5edd813f11"},"vehicle_type_id":"4","last_reported":1768817896,"current_range_meters":7200,"station_id":"ce4bhmp2rcd13ifvqgng","pricing_plan_id":"cebpf4jnsgd1na2vs0mg"},{"bike_id":"bbe519d1-7d24-4dfc-8eea-7f3e8bf5a4b8","system_id":"levelo_inurba_marseille","lat":43.24179,"lon":5.39725,"is_reserved":false,"is_disabled":false,"rental_uris":{"android":"levelo://app?vid=bbe519d1-7d24-4dfc-8eea-7f3e8bf5a4b8","ios":"levelo://app?vid=bbe519d1-7d24-4dfc-8eea-7f3e8bf5a4b8"},"vehicle_type_id":"4","last_reported":1768817896,"current_range_meters":7200,"station_id":"ce4bhn12rcd13ifvqgpg","pricing_plan_id":"cebpf4jnsgd1na2vs0mg"},{"bike_id":"9ebaabad-635c-416b-8560-3a52d9f6d53c","system_id":"levelo_inurba_marseille","lat":43.29638,"lon":5.40598,"is_reserved":false,"is_disabled":false,"rental_uris":{"android":"levelo://app?vid=9ebaabad-635c-416b-8560-3a52d9f6d53c","ios":"levelo://app?vid=9ebaabad-635c-416b-8560-3a52d9f6d53c"},"vehicle_type_id":"4","last_reported":1768817896,"current_range_meters":7200,"station_id":"ce4bh0h2rcd13ifvqd60","pricing_plan_id":"cebpf4jnsgd1na2vs0mg"},{"bike_id":"edbdf6e9-2547-490c-a2bd-1ef1e295ef67","system_id":"levelo_inurba_marseille","lat":43.27211,"lon":5.3918,"is_reserved":false,"is_disabled":false,"rental_uris":{"android":"levelo://app?vid=edbdf6e9-2547-490c-a2bd-1ef1e295ef67","ios":"levelo://app?vid=edbdf6e9-2547-490c-a2bd-1ef1e295ef67"},"vehicle_type_id":"4","last_reported":1768817896,"current_range_meters":8000,"station_id":"ce4bhhp2rcd13ifvqfm0","pricing_plan_id":"cebpf4jnsgd1na2vs0mg"},{"bike_id":"017ac6ba-5de6-4940-8209-8a79986e4549","system_id":"levelo_inurba_marseille","lat":43.29259,"lon":5.38439,"is_reserved":false,"is_disabled":true,"rental_uris":{"android":"levelo://app?vid=017ac6ba-5de6-4940-8209-8a79986e4549","ios":"levelo://app?vid=017ac6ba-5de6-4940-8209-8a79986e4549"},"vehicle_type_id":"4","last_reported":1768817896,"current_range_meters":8000,"station_id":"ce4bh692rcd13ifvqea0","pricing_plan_id":"cebpf4jnsgd1na2vs0mg"},{"bike_id":"5197f958-cf80-4607-b163-03ff06a676ef","system_id":"levelo_inurba_marseille","lat":43.25343,"lon":5.42177,"is_reserved":false,"is_disabled":false,"rental_uris":{"android":"levelo://app?vid=5197f958-cf80-4607-b163-03ff06a676ef","ios":"levelo://app?vid=5197f958-cf80-4607-b163-03ff06a676ef"},"vehicle_type_id":"4","last_reported":1768817896,"current_range_meters":8000,"station_id":"st_d2m65c5bi1j21697t3ng","pricing_plan_id":"cebpf4jnsgd1na2vs0mg"},{"bike_id":"016900bc-5ac6-4330-ab84-4d755560128b","system_id":"levelo_inurba_marseille","lat":43.27956,"lon":5.39948,"is_reserved":false,"is_disabled":false,"rental_uris":{"android":"levelo://app?vid=016900bc-5ac6-4330-ab84-4d755560128b","ios":"levelo://app?vid=016900bc-5ac6-4330-ab84-4d755560128b"},"vehicle_type_id":"4","last_reported":1768817896,"current_range_meters":8000,"station_id":"","pricing_plan_id":"cebpf4jnsgd1na2vs0mg"},{"bike_id":"701fdb6a-1ac2-4762-962c-9860343097e8","system_id":"levelo_inurba_marseille","lat":43.273897,"lon":5.362297,"is_reserved":false,"is_disabled":false,"rental_uris":{"android":"levelo://app?vid=701fdb6a-1ac2-4762-962c-9860343097e8","ios":"levelo://app?vid=701fdb6a-1ac2-4762-962c-9860343097e8"},"vehicle_type_id":"4","last_reported":1768817896,"current_range_meters":8000,"station_id":"ce4bhbh2rcd13ifvqeo0","pricing_plan_id":"cebpf4jnsgd1na2vs0mg"},{"bike_id":"0b0bd9e8-0e91-4cd7-8087-c13549508128","system_id":"levelo_inurba_marseille","lat":43.28577,"lon":5.44088,"is_reserved":false,"is_disabled":false,"rental_uris":{"android":"levelo://app?vid=0b0bd9e8-0e91-4cd7-8087-c13549508128","ios":"levelo://app?vid=0b0bd9e8-0e91-4cd7-8087-c13549508128"},"vehicle_type_id":"4","last_reported":1768817896,"current_range_meters":8000,"station_id":"st_d3j3df2ikq2c7380ej80","pricing_plan_id":"cebpf4jnsgd1na2vs0mg"},{"bike_id":"a793b43a-2f1a-44e5-b8fd-5c578f863f85","system_id":"levelo_inurba_marseille","lat":43.317563,"lon":5.3902,"is_reserved":false,"is_disabled":false,"rental_uris":{"android":"levelo://app?vid=a793b43a-2f1a-44e5-b8fd-5c578f863f85","ios":"levelo://app?vid=a793b43a-2f1a-44e5-b8fd-5c578f863f85"},"vehicle_type_id":"4","last_reported":1768817896,"current_range_meters":8000,"station_id":"ce4bhqp2rcd13ifvqhng","pricing_plan_id":"cebpf4jnsgd1na2vs0mg"},{"bike_id":"8363ed1b-3faf-4ed0-99f5-c7e37d72081c","system_id":"levelo_inurba_marseille","lat":43.29687,"lon":5.37283,"is_reserved":false,"is_disabled":false,"rental_uris":{"android":"levelo://app?vid=8363ed1b-3faf-4ed0-99f5-c7e37d72081c","ios":"levelo://app?vid=8363ed1b-3faf-4ed0-99f5-c7e37d72081c"},"vehicle_type_id":"4","last_reported":1768817896,"current_range_meters":8000,"station_id":"ce4bgk12rcd13ifvqbj0","pricing_plan_id":"cebpf4jnsgd1na2vs0mg"},{"bike_id":"536f7c96-4167-4be5-8a94-92113cb642f7","system_id":"levelo_inurba_marseille","lat":43.22567,"lon":5.41637,"is_reserved":false,"is_disabled":false,"rental_uris":{"android":"levelo://app?vid=536f7c96-4167-4be5-8a94-92113cb642f7","ios":"levelo://app?vid=536f7c96-4167-4be5-8a94-92113cb642f7"},"vehicle_type_id":"4","last_reported":1768817896,"current_range_meters":8000,"station_id":"st_d2o4gvlbi1j2169b742g","pricing_plan_id":"cebpf4jnsgd1na2vs0mg"},{"bike_id":"7dbbcfab-8796-4f78-b67c-fb95c692bb9a","system_id":"levelo_inurba_marseille","lat":43.25182,"lon":5.40068,"is_reserved":false,"is_disabled":false,"rental_uris":{"android":"levelo://app?vid=7dbbcfab-8796-4f78-b67c-fb95c692bb9a","ios":"levelo://app?vid=7dbbcfab-8796-4f78-b67c-fb95c692bb9a"},"vehicle_type_id":"4","last_reported":1768817896,"current_range_meters":8000,"station_id":"","pricing_plan_id":"cebpf4jnsgd1na2vs0mg"},{"bike_id":"b8f52dd2-3ff0-49cc-ab26-cd9d95af28fe","system_id":"levelo_inurba_marseille","lat":43.25888,"lon":5.40991,"is_reserved":false,"is_disabled":false,"rental_uris":{"android":"levelo://app?vid=b8f52dd2-3ff0-49cc-ab26-cd9d95af28fe","ios":"levelo://app?vid=b8f52dd2-3ff0-49cc-ab26-cd9d95af28fe"},"vehicle_type_id":"4","last_reported":1768817896,"current_range_meters":8000,"station_id":"","pricing_plan_id":"cebpf4jnsgd1na2vs0mg"},{"bike_id":"80aa19b1-66cd-4933-b925-214cbe47378f","system_id":"levelo_inurba_marseille","lat":43.28484,"lon":5.38451,"is_reserved":false,"is_disabled":false,"rental_uris":{"android":"levelo://app?vid=80aa19b1-66cd-4933-b925-214cbe47378f","ios":"levelo://app?vid=80aa19b1-66cd-4933-b925-214cbe47378f"},"vehicle_type_id":"4","last_reported":1768817896,"current_range_meters":8000,"station_id":"ce4bh512rcd13ifvqe3g","pricing_plan_id":"cebpf4jnsgd1na2vs0mg"},{"bike_id":"7f13c47a-95ee-4905-8a5d-8ddc6be02549","system_id":"levelo_inurba_marseille","lat":43.25935,"lon":5.40864,"is_reserved":false,"is_disabled":false,"rental_uris":{"android":"levelo://app?vid=7f13c47a-95ee-4905-8a5d-8ddc6be02549","ios":"levelo://app?vid=7f13c47a-95ee-4905-8a5d-8ddc6be02549"},"vehicle_type_id":"4","last_reported":1768817896,"current_range_meters":8000,"station_id":"ce4bhm92rcd13ifvqglg","pricing_plan_id":"cebpf4jnsgd1na2vs0mg"},{"bike_id":"643a0bb3-7f00-438c-b64a-14f811a7652b","system_id":"levelo_inurba_marseille","lat":43.29664,"lon":5.3778,"is_reserved":false,"is_disabled":false,"rental_uris":{"android":"levelo://app?vid=643a0bb3-7f00-438c-b64a-14f811a7652b","ios":"levelo://app?vid=643a0bb3-7f00-438c-b64a-14f811a7652b"},"vehicle_type_id":"4","last_reported":1768817896,"current_range_meters":8000,"station_id":"","pricing_plan_id":"cebpf4jnsgd1na2vs0mg"},{"bike_id":"40ec9b3e-8a68-4f21-9a1a-c3df8cc32599","system_id":"levelo_inurba_marseille","lat":43.2407,"lon":5.37771,"is_reserved":false,"is_disabled":false,"rental_uris":{"android":"levelo://app?vid=40ec9b3e-8a68-4f21-9a1a-c3df8cc32599","ios":"levelo://app?vid=40ec9b3e-8a68-4f21-9a1a-c3df8cc32599"},"vehicle_type_id":"4","last_reported":1768817896,"current_range_meters":8000,"station_id":"ce4bhnp2rcd13ifvqgvg","pricing_plan_id":"cebpf4jnsgd1na2vs0mg"},{"bike_id":"02e483c1-0c99-4f17-9bb3-304a5b4c36f3","system_id":"levelo_inurba_marseille","lat":43.2694,"lon":5.38672,"is_reserved":false,"is_disabled":false,"rental_uris":{"android":"levelo://app?vid=02e483c1-0c99-4f17-9bb3-304a5b4c36f3","ios":"levelo://app?vid=02e483c1-0c99-4f17-9bb3-304a5b4c36f3"},"vehicle_type_id":"4","last_reported":1768817896,"current_range_meters":8000,"station_id":"ce4bhh92rcd13ifvqfh0","pricing_plan_id":"cebpf4jnsgd1na2vs0mg"},{"bike_id":"abf30d9a-8f0c-4626-8dc8-b0faa0cf4d72","system_id":"levelo_inurba_marseille","lat":43.24944,"lon":5.40482,"is_reserved":false,"is_disabled":false,"rental_uris":{"android":"levelo://app?vid=abf30d9a-8f0c-4626-8dc8-b0faa0cf4d72","ios":"levelo://app?vid=abf30d9a-8f0c-4626-8dc8-b0faa0cf4d72"},"vehicle_type_id":"4","last_reported":1768817896,"current_range_meters":8000,"station_id":"st_d2ngiaodas8pm72gd1h0","pricing_plan_id":"cebpf4jnsgd1na2vs0mg"},{"bike_id":"791ccb0c-3ea6-4f65-9436-65087a5f1af6","system_id":"levelo_inurba_marseille","lat":43.33753,"lon":5.37462,"is_reserved":false,"is_disabled":false,"rental_uris":{"android":"levelo://app?vid=791ccb0c-3ea6-4f65-9436-65087a5f1af6","ios":"levelo://app?vid=791ccb0c-3ea6-4f65-9436-65087a5f1af6"},"vehicle_type_id":"4","last_reported":1768817896,"current_range_meters":8000,"station_id":"","pricing_plan_id":"cebpf4jnsgd1na2vs0mg"},{"bike_id":"3019b242-daef-4adc-9001-a765b1be88a4","system_id":"levelo_inurba_marseille","lat":43.28523,"lon":5.44098,"is_reserved":false,"is_disabled":false,"rental_uris":{"android":"levelo://app?vid=3019b242-daef-4adc-9001-a765b1be88a4","ios":"levelo://app?vid=3019b242-daef-4adc-9001-a765b1be88a4"},"vehicle_type_id":"4","last_reported":1768817896,"current_range_meters":8000,"station_id":"st_d3j3df2ikq2c7380ej80","pricing_plan_id":"cebpf4jnsgd1na2vs0mg"},{"bike_id":"8455fcca-6f48-4b26-9ef4-64e076fe4155","system_id":"levelo_inurba_marseille","lat":43.26372,"lon":5.41068,"is_reserved":false,"is_disabled":false,"rental_uris":{"android":"levelo://app?vid=8455fcca-6f48-4b26-9ef4-64e076fe4155","ios":"levelo://app?vid=8455fcca-6f48-4b26-9ef4-64e076fe4155"},"vehicle_type_id":"4","last_reported":1768817896,"current_range_meters":8000,"station_id":"st_d4e5ca6na9uc73bfl5fg","pricing_plan_id":"cebpf4jnsgd1na2vs0mg"},{"bike_id":"544bcdbb-4ade-4e28-8d58-bd0ce6c900eb","system_id":"levelo_inurba_marseille","lat":43.25336,"lon":5.42195,"is_reserved":false,"is_disabled":false,"rental_uris":{"android":"levelo://app?vid=544bcdbb-4ade-4e28-8d58-bd0ce6c900eb","ios":"levelo://app?vid=544bcdbb-4ade-4e28-8d58-bd0ce6c900eb"},"vehicle_type_id":"4","last_reported":1768817896,"current_range_meters":8000,"station_id":"st_d2m65c5bi1j21697t3ng","pricing_plan_id":"cebpf4jnsgd1na2vs0mg"},{"bike_id":"f8bf59b4-3e23-4e90-bc70-5ee15a6c83c2","system_id":"levelo_inurba_marseille","lat":43.25349,"lon":5.42169,"is_reserved":false,"is_disabled":false,"rental_uris":{"android":"levelo://app?vid=f8bf59b4-3e23-4e90-bc70-5ee15a6c83c2","ios":"levelo://app?vid=f8bf59b4-3e23-4e90-bc70-5ee15a6c83c2"},"vehicle_type_id":"4","last_reported":1768817896,"current_range_meters":8400,"station_id":"st_d2m65c5bi1j21697t3ng","pricing_plan_id":"cebpf4jnsgd1na2vs0mg"},{"bike_id":"18dac61a-1dea-47ed-a42c-a887573968cf","system_id":"levelo_inurba_marseille","lat":43.31261,"lon":5.36843,"is_reserved":false,"is_disabled":false,"rental_uris":{"android":"levelo://app?vid=18dac61a-1dea-47ed-a42c-a887573968cf","ios":"levelo://app?vid=18dac61a-1dea-47ed-a42c-a887573968cf"},"vehicle_type_id":"4","last_reported":1768817896,"current_range_meters":8400,"station_id":"ce4bgl92rcd13ifvqbq0","pricing_plan_id":"cebpf4jnsgd1na2vs0mg"},{"bike_id":"71e3ca9b-9c57-4342-92a7-c4d37bb24fa5","system_id":"levelo_inurba_marseille","lat":43.30954,"lon":5.39039,"is_reserved":false,"is_disabled":false,"rental_uris":{"android":"levelo://app?vid=71e3ca9b-9c57-4342-92a7-c4d37bb24fa5","ios":"levelo://app?vid=71e3ca9b-9c57-4342-92a7-c4d37bb24fa5"},"vehicle_type_id":"4","last_reported":1768817896,"current_range_meters":8400,"station_id":"ce4bgup2rcd13ifvqco0","pricing_plan_id":"cebpf4jnsgd1na2vs0mg"},{"bike_id":"58fcb4ec-9c17-42cd-9134-f379e029a9fd","system_id":"levelo_inurba_marseille","lat":43.30173,"lon":5.37993,"is_reserved":false,"is_disabled":false,"rental_uris":{"android":"levelo://app?vid=58fcb4ec-9c17-42cd-9134-f379e029a9fd","ios":"levelo://app?vid=58fcb4ec-9c17-42cd-9134-f379e029a9fd"},"vehicle_type_id":"4","last_reported":1768817896,"current_range_meters":8400,"station_id":"","pricing_plan_id":"cebpf4jnsgd1na2vs0mg"},{"bike_id":"da91b041-43f0-4fc2-a665-c2c687c7ea44","system_id":"levelo_inurba_marseille","lat":43.31382,"lon":5.36689,"is_reserved":false,"is_disabled":false,"rental_uris":{"android":"levelo://app?vid=da91b041-43f0-4fc2-a665-c2c687c7ea44","ios":"levelo://app?vid=da91b041-43f0-4fc2-a665-c2c687c7ea44"},"vehicle_type_id":"4","last_reported":1768817896,"current_range_meters":8400,"station_id":"","pricing_plan_id":"cebpf4jnsgd1na2vs0mg"},{"bike_id":"a701194d-0cc5-497a-93ea-f1faca1626fe","system_id":"levelo_inurba_marseille","lat":43.26574,"lon":5.4036,"is_reserved":false,"is_disabled":false,"rental_uris":{"android":"levelo://app?vid=a701194d-0cc5-497a-93ea-f1faca1626fe","ios":"levelo://app?vid=a701194d-0cc5-497a-93ea-f1faca1626fe"},"vehicle_type_id":"4","last_reported":1768817896,"current_range_meters":8400,"station_id":"ce4bhmp2rcd13ifvqgng","pricing_plan_id":"cebpf4jnsgd1na2vs0mg"},{"bike_id":"4cdfadb1-1bf3-4d49-ad80-a271fd97b4c1","system_id":"levelo_inurba_marseille","lat":43.33758,"lon":5.37493,"is_reserved":false,"is_disabled":false,"rental_uris":{"android":"levelo://app?vid=4cdfadb1-1bf3-4d49-ad80-a271fd97b4c1","ios":"levelo://app?vid=4cdfadb1-1bf3-4d49-ad80-a271fd97b4c1"},"vehicle_type_id":"4","last_reported":1768817896,"current_range_meters":8400,"station_id":"","pricing_plan_id":"cebpf4jnsgd1na2vs0mg"},{"bike_id":"6eabd888-c6a1-4aa4-b081-69393e8da4b6","system_id":"levelo_inurba_marseille","lat":43.27808,"lon":5.40709,"is_reserved":false,"is_disabled":false,"rental_uris":{"android":"levelo://app?vid=6eabd888-c6a1-4aa4-b081-69393e8da4b6","ios":"levelo://app?vid=6eabd888-c6a1-4aa4-b081-69393e8da4b6"},"vehicle_type_id":"4","last_reported":1768817896,"current_range_meters":8400,"station_id":"ce4bhnh2rcd13ifvqgtg","pricing_plan_id":"cebpf4jnsgd1na2vs0mg"},{"bike_id":"f70a59b4-29fe-4c71-a82c-c9b428830b98","system_id":"levelo_inurba_marseille","lat":43.24064,"lon":5.37771,"is_reserved":false,"is_disabled":false,"rental_uris":{"android":"levelo://app?vid=f70a59b4-29fe-4c71-a82c-c9b428830b98","ios":"levelo://app?vid=f70a59b4-29fe-4c71-a82c-c9b428830b98"},"vehicle_type_id":"4","last_reported":1768817896,"current_range_meters":8400,"station_id":"ce4bhnp2rcd13ifvqgvg","pricing_plan_id":"cebpf4jnsgd1na2vs0mg"},{"bike_id":"5e7df9d7-418f-4368-a954-d50fe151d8de","system_id":"levelo_inurba_marseille","lat":43.22923,"lon":5.35391,"is_reserved":false,"is_disabled":false,"rental_uris":{"android":"levelo://app?vid=5e7df9d7-418f-4368-a954-d50fe151d8de","ios":"levelo://app?vid=5e7df9d7-418f-4368-a954-d50fe151d8de"},"vehicle_type_id":"4","last_reported":1768817896,"current_range_meters":8400,"station_id":"cpo3532slgdg3j2ikp40","pricing_plan_id":"cebpf4jnsgd1na2vs0mg"},{"bike_id":"6735a20a-0321-423c-a55a-4ecf97e291d0","system_id":"levelo_inurba_marseille","lat":43.22942,"lon":5.35393,"is_reserved":false,"is_disabled":false,"rental_uris":{"android":"levelo://app?vid=6735a20a-0321-423c-a55a-4ecf97e291d0","ios":"levelo://app?vid=6735a20a-0321-423c-a55a-4ecf97e291d0"},"vehicle_type_id":"4","last_reported":1768817896,"current_range_meters":8400,"station_id":"cpo3532slgdg3j2ikp40","pricing_plan_id":"cebpf4jnsgd1na2vs0mg"},{"bike_id":"676b108a-8631-463b-ac20-0a121b44cff0","system_id":"levelo_inurba_marseille","lat":43.264946,"lon":5.395401,"is_reserved":false,"is_disabled":false,"rental_uris":{"android":"levelo://app?vid=676b108a-8631-463b-ac20-0a121b44cff0","ios":"levelo://app?vid=676b108a-8631-463b-ac20-0a121b44cff0"},"vehicle_type_id":"4","last_reported":1768817896,"current_range_meters":8400,"station_id":"ce4bhi12rcd13ifvqfq0","pricing_plan_id":"cebpf4jnsgd1na2vs0mg"},{"bike_id":"94631cb0-3656-4d69-b507-fbfd79198860","system_id":"levelo_inurba_marseille","lat":43.24094,"lon":5.37721,"is_reserved":false,"is_disabled":false,"rental_uris":{"android":"levelo://app?vid=94631cb0-3656-4d69-b507-fbfd79198860","ios":"levelo://app?vid=94631cb0-3656-4d69-b507-fbfd79198860"},"vehicle_type_id":"4","last_reported":1768817896,"current_range_meters":8400,"station_id":"ce4bhnp2rcd13ifvqgvg","pricing_plan_id":"cebpf4jnsgd1na2vs0mg"},{"bike_id":"4778cb9d-6443-4f55-a030-33b6e639b854","system_id":"levelo_inurba_marseille","lat":43.30461,"lon":5.37908,"is_reserved":false,"is_disabled":false,"rental_uris":{"android":"levelo://app?vid=4778cb9d-6443-4f55-a030-33b6e639b854","ios":"levelo://app?vid=4778cb9d-6443-4f55-a030-33b6e639b854"},"vehicle_type_id":"4","last_reported":1768817896,"current_range_meters":8400,"station_id":"ce4bgup2rcd13ifvqcn0","pricing_plan_id":"cebpf4jnsgd1na2vs0mg"},{"bike_id":"31f23cd3-14a6-4c68-b8c7-cba1d8380530","system_id":"levelo_inurba_marseille","lat":43.27957,"lon":5.38749,"is_reserved":false,"is_disabled":false,"rental_uris":{"android":"levelo://app?vid=31f23cd3-14a6-4c68-b8c7-cba1d8380530","ios":"levelo://app?vid=31f23cd3-14a6-4c68-b8c7-cba1d8380530"},"vehicle_type_id":"4","last_reported":1768817896,"current_range_meters":8400,"station_id":"ce4bhg12rcd13ifvqf80","pricing_plan_id":"cebpf4jnsgd1na2vs0mg"},{"bike_id":"1c9d144d-1c5d-471f-b084-b4ff7dee9e97","system_id":"levelo_inurba_marseille","lat":43.28856,"lon":5.39328,"is_reserved":false,"is_disabled":false,"rental_uris":{"android":"levelo://app?vid=1c9d144d-1c5d-471f-b084-b4ff7dee9e97","ios":"levelo://app?vid=1c9d144d-1c5d-471f-b084-b4ff7dee9e97"},"vehicle_type_id":"4","last_reported":1768817896,"current_range_meters":8400,"station_id":"ce4bh2p2rcd13ifvqdi0","pricing_plan_id":"cebpf4jnsgd1na2vs0mg"},{"bike_id":"1149869c-2dca-45dc-8e7a-dda897f2d36c","system_id":"levelo_inurba_marseille","lat":43.26721,"lon":5.3826,"is_reserved":false,"is_disabled":false,"rental_uris":{"android":"levelo://app?vid=1149869c-2dca-45dc-8e7a-dda897f2d36c","ios":"levelo://app?vid=1149869c-2dca-45dc-8e7a-dda897f2d36c"},"vehicle_type_id":"4","last_reported":1768817896,"current_range_meters":8400,"station_id":"ce4bhg92rcd13ifvqf90","pricing_plan_id":"cebpf4jnsgd1na2vs0mg"},{"bike_id":"24fc7106-ed98-4e6e-a0e1-42e8ae0c7579","system_id":"levelo_inurba_marseille","lat":43.26566,"lon":5.39018,"is_reserved":false,"is_disabled":false,"rental_uris":{"android":"levelo://app?vid=24fc7106-ed98-4e6e-a0e1-42e8ae0c7579","ios":"levelo://app?vid=24fc7106-ed98-4e6e-a0e1-42e8ae0c7579"},"vehicle_type_id":"4","last_reported":1768817896,"current_range_meters":8400,"station_id":"ce4bhe12rcd13ifvqf30","pricing_plan_id":"cebpf4jnsgd1na2vs0mg"},{"bike_id":"7890d8a9-a5ee-4c6a-9a9c-ecbe6e802b3b","system_id":"levelo_inurba_marseille","lat":43.28008,"lon":5.40023,"is_reserved":false,"is_disabled":false,"rental_uris":{"android":"levelo://app?vid=7890d8a9-a5ee-4c6a-9a9c-ecbe6e802b3b","ios":"levelo://app?vid=7890d8a9-a5ee-4c6a-9a9c-ecbe6e802b3b"},"vehicle_type_id":"4","last_reported":1768817896,"current_range_meters":8800,"station_id":"ce4bho92rcd13ifvqh4g","pricing_plan_id":"cebpf4jnsgd1na2vs0mg"},{"bike_id":"de6c90fb-dd51-4e08-9dbd-a70160fc9495","system_id":"levelo_inurba_marseille","lat":43.26343,"lon":5.411,"is_reserved":false,"is_disabled":false,"rental_uris":{"android":"levelo://app?vid=de6c90fb-dd51-4e08-9dbd-a70160fc9495","ios":"levelo://app?vid=de6c90fb-dd51-4e08-9dbd-a70160fc9495"},"vehicle_type_id":"4","last_reported":1768817896,"current_range_meters":8800,"station_id":"st_d4e5ca6na9uc73bfl5fg","pricing_plan_id":"cebpf4jnsgd1na2vs0mg"},{"bike_id":"e1093d92-684f-463f-9907-089eedd95fa6","system_id":"levelo_inurba_marseille","lat":43.241728,"lon":5.397269,"is_reserved":false,"is_disabled":false,"rental_uris":{"android":"levelo://app?vid=e1093d92-684f-463f-9907-089eedd95fa6","ios":"levelo://app?vid=e1093d92-684f-463f-9907-089eedd95fa6"},"vehicle_type_id":"4","last_reported":1768817896,"current_range_meters":8800,"station_id":"ce4bhn12rcd13ifvqgpg","pricing_plan_id":"cebpf4jnsgd1na2vs0mg"},{"bike_id":"87f35a5d-485c-42c0-a0d6-d17c180ada41","system_id":"levelo_inurba_marseille","lat":43.24173,"lon":5.36395,"is_reserved":false,"is_disabled":false,"rental_uris":{"android":"levelo://app?vid=87f35a5d-485c-42c0-a0d6-d17c180ada41","ios":"levelo://app?vid=87f35a5d-485c-42c0-a0d6-d17c180ada41"},"vehicle_type_id":"4","last_reported":1768817896,"current_range_meters":8800,"station_id":"cpo36qri1sfpv3e86is0","pricing_plan_id":"cebpf4jnsgd1na2vs0mg"},{"bike_id":"484705cd-b20d-4716-8e33-beec169a25e2","system_id":"levelo_inurba_marseille","lat":43.29037,"lon":5.37553,"is_reserved":false,"is_disabled":false,"rental_uris":{"android":"levelo://app?vid=484705cd-b20d-4716-8e33-beec169a25e2","ios":"levelo://app?vid=484705cd-b20d-4716-8e33-beec169a25e2"},"vehicle_type_id":"4","last_reported":1768817896,"current_range_meters":8800,"station_id":"ce4bh692rcd13ifvqe90","pricing_plan_id":"cebpf4jnsgd1na2vs0mg"},{"bike_id":"86c3f0b8-2cd4-4a60-9cca-42812eafe40e","system_id":"levelo_inurba_marseille","lat":43.28158,"lon":5.42649,"is_reserved":false,"is_disabled":false,"rental_uris":{"android":"levelo://app?vid=86c3f0b8-2cd4-4a60-9cca-42812eafe40e","ios":"levelo://app?vid=86c3f0b8-2cd4-4a60-9cca-42812eafe40e"},"vehicle_type_id":"4","last_reported":1768817896,"current_range_meters":8800,"station_id":"ce4bhnh2rcd13ifvqgug","pricing_plan_id":"cebpf4jnsgd1na2vs0mg"},{"bike_id":"d816586a-894c-424b-aac9-ef0daf69ea76","system_id":"levelo_inurba_marseille","lat":43.30571,"lon":5.36719,"is_reserved":false,"is_disabled":false,"rental_uris":{"android":"levelo://app?vid=d816586a-894c-424b-aac9-ef0daf69ea76","ios":"levelo://app?vid=d816586a-894c-424b-aac9-ef0daf69ea76"},"vehicle_type_id":"4","last_reported":1768817896,"current_range_meters":8800,"station_id":"ce4bgrp2rcd13ifvqc9g","pricing_plan_id":"cebpf4jnsgd1na2vs0mg"},{"bike_id":"1bae9140-ff17-4e53-90ce-59eb9d8c1a5d","system_id":"levelo_inurba_marseille","lat":43.27999,"lon":5.41656,"is_reserved":false,"is_disabled":false,"rental_uris":{"android":"levelo://app?vid=1bae9140-ff17-4e53-90ce-59eb9d8c1a5d","ios":"levelo://app?vid=1bae9140-ff17-4e53-90ce-59eb9d8c1a5d"},"vehicle_type_id":"4","last_reported":1768817896,"current_range_meters":8800,"station_id":"ce4bho12rcd13ifvqh1g","pricing_plan_id":"cebpf4jnsgd1na2vs0mg"},{"bike_id":"5cbbbed7-1b78-4268-8b83-0756dccd4250","system_id":"levelo_inurba_marseille","lat":43.24951,"lon":5.40489,"is_reserved":false,"is_disabled":true,"rental_uris":{"android":"levelo://app?vid=5cbbbed7-1b78-4268-8b83-0756dccd4250","ios":"levelo://app?vid=5cbbbed7-1b78-4268-8b83-0756dccd4250"},"vehicle_type_id":"4","last_reported":1768817896,"current_range_meters":8800,"station_id":"st_d2ngiaodas8pm72gd1h0","pricing_plan_id":"cebpf4jnsgd1na2vs0mg"},{"bike_id":"fc7f4ac5-c043-433a-a8a5-7c04f75b6e03","system_id":"levelo_inurba_marseille","lat":43.23151,"lon":5.43725,"is_reserved":false,"is_disabled":false,"rental_uris":{"android":"levelo://app?vid=fc7f4ac5-c043-433a-a8a5-7c04f75b6e03","ios":"levelo://app?vid=fc7f4ac5-c043-433a-a8a5-7c04f75b6e03"},"vehicle_type_id":"4","last_reported":1768817896,"current_range_meters":8800,"station_id":"ce4bhmp2rcd13ifvqgog","pricing_plan_id":"cebpf4jnsgd1na2vs0mg"},{"bike_id":"22082c15-ecce-4cbe-939e-5e9c10f2ba84","system_id":"levelo_inurba_marseille","lat":43.3171,"lon":5.42427,"is_reserved":false,"is_disabled":false,"rental_uris":{"android":"levelo://app?vid=22082c15-ecce-4cbe-939e-5e9c10f2ba84","ios":"levelo://app?vid=22082c15-ecce-4cbe-939e-5e9c10f2ba84"},"vehicle_type_id":"4","last_reported":1768817896,"current_range_meters":8800,"station_id":"ce4bhp92rcd13ifvqhbg","pricing_plan_id":"cebpf4jnsgd1na2vs0mg"},{"bike_id":"2d7efe21-47b1-4bf3-a4fd-2dff75e156c5","system_id":"levelo_inurba_marseille","lat":43.217387,"lon":5.346013,"is_reserved":false,"is_disabled":false,"rental_uris":{"android":"levelo://app?vid=2d7efe21-47b1-4bf3-a4fd-2dff75e156c5","ios":"levelo://app?vid=2d7efe21-47b1-4bf3-a4fd-2dff75e156c5"},"vehicle_type_id":"4","last_reported":1768817896,"current_range_meters":8800,"station_id":"st_cvj6r9ubvosntc0bgbag","pricing_plan_id":"cebpf4jnsgd1na2vs0mg"},{"bike_id":"0f3a19af-39a2-4082-bd8e-26d337f54773","system_id":"levelo_inurba_marseille","lat":43.28874,"lon":5.42507,"is_reserved":false,"is_disabled":false,"rental_uris":{"android":"levelo://app?vid=0f3a19af-39a2-4082-bd8e-26d337f54773","ios":"levelo://app?vid=0f3a19af-39a2-4082-bd8e-26d337f54773"},"vehicle_type_id":"4","last_reported":1768817896,"current_range_meters":8800,"station_id":"st_d3b462108ojc7389ooeg","pricing_plan_id":"cebpf4jnsgd1na2vs0mg"},{"bike_id":"f786c428-b1e4-4a91-839d-04d60fce7ebe","system_id":"levelo_inurba_marseille","lat":43.27175,"lon":5.40998,"is_reserved":false,"is_disabled":false,"rental_uris":{"android":"levelo://app?vid=f786c428-b1e4-4a91-839d-04d60fce7ebe","ios":"levelo://app?vid=f786c428-b1e4-4a91-839d-04d60fce7ebe"},"vehicle_type_id":"4","last_reported":1768817896,"current_range_meters":8800,"station_id":"ce4bhl12rcd13ifvqgf0","pricing_plan_id":"cebpf4jnsgd1na2vs0mg"},{"bike_id":"e2ef0d85-7e9e-4699-945b-3bd5ff257a37","system_id":"levelo_inurba_marseille","lat":43.31144,"lon":5.37972,"is_reserved":false,"is_disabled":false,"rental_uris":{"android":"levelo://app?vid=e2ef0d85-7e9e-4699-945b-3bd5ff257a37","ios":"levelo://app?vid=e2ef0d85-7e9e-4699-945b-3bd5ff257a37"},"vehicle_type_id":"4","last_reported":1768817896,"current_range_meters":8800,"station_id":"","pricing_plan_id":"cebpf4jnsgd1na2vs0mg"},{"bike_id":"f5642a80-18f7-4f21-aeff-656a7f27169e","system_id":"levelo_inurba_marseille","lat":43.23157,"lon":5.43711,"is_reserved":false,"is_disabled":false,"rental_uris":{"android":"levelo://app?vid=f5642a80-18f7-4f21-aeff-656a7f27169e","ios":"levelo://app?vid=f5642a80-18f7-4f21-aeff-656a7f27169e"},"vehicle_type_id":"4","last_reported":1768817896,"current_range_meters":8800,"station_id":"ce4bhmp2rcd13ifvqgog","pricing_plan_id":"cebpf4jnsgd1na2vs0mg"},{"bike_id":"4460606d-0ed7-4e85-bbd0-7e06212046ac","system_id":"levelo_inurba_marseille","lat":43.26776,"lon":5.39425,"is_reserved":false,"is_disabled":false,"rental_uris":{"android":"levelo://app?vid=4460606d-0ed7-4e85-bbd0-7e06212046ac","ios":"levelo://app?vid=4460606d-0ed7-4e85-bbd0-7e06212046ac"},"vehicle_type_id":"4","last_reported":1768817896,"current_range_meters":9200,"station_id":"ce4bhh12rcd13ifvqfg0","pricing_plan_id":"cebpf4jnsgd1na2vs0mg"},{"bike_id":"760dca37-a904-42a9-b08c-dcd355cb4e4d","system_id":"levelo_inurba_marseille","lat":43.27983,"lon":5.40013,"is_reserved":false,"is_disabled":false,"rental_uris":{"android":"levelo://app?vid=760dca37-a904-42a9-b08c-dcd355cb4e4d","ios":"levelo://app?vid=760dca37-a904-42a9-b08c-dcd355cb4e4d"},"vehicle_type_id":"4","last_reported":1768817896,"current_range_meters":9200,"station_id":"ce4bho92rcd13ifvqh4g","pricing_plan_id":"cebpf4jnsgd1na2vs0mg"},{"bike_id":"7c6df23a-2034-4556-a426-ef6f0d837e29","system_id":"levelo_inurba_marseille","lat":43.29743,"lon":5.42755,"is_reserved":false,"is_disabled":false,"rental_uris":{"android":"levelo://app?vid=7c6df23a-2034-4556-a426-ef6f0d837e29","ios":"levelo://app?vid=7c6df23a-2034-4556-a426-ef6f0d837e29"},"vehicle_type_id":"4","last_reported":1768817896,"current_range_meters":9200,"station_id":"st_d3md5207bmas73dh9klg","pricing_plan_id":"cebpf4jnsgd1na2vs0mg"},{"bike_id":"0ce10287-7e22-4888-ba07-d145d0f55b6f","system_id":"levelo_inurba_marseille","lat":43.30192,"lon":5.36608,"is_reserved":false,"is_disabled":false,"rental_uris":{"android":"levelo://app?vid=0ce10287-7e22-4888-ba07-d145d0f55b6f","ios":"levelo://app?vid=0ce10287-7e22-4888-ba07-d145d0f55b6f"},"vehicle_type_id":"4","last_reported":1768817896,"current_range_meters":9200,"station_id":"ce4bgrh2rcd13ifvqc8g","pricing_plan_id":"cebpf4jnsgd1na2vs0mg"},{"bike_id":"f15b1f46-8371-48f1-8aa3-d6a3ebdd2129","system_id":"levelo_inurba_marseille","lat":43.25818,"lon":5.39442,"is_reserved":false,"is_disabled":false,"rental_uris":{"android":"levelo://app?vid=f15b1f46-8371-48f1-8aa3-d6a3ebdd2129","ios":"levelo://app?vid=f15b1f46-8371-48f1-8aa3-d6a3ebdd2129"},"vehicle_type_id":"4","last_reported":1768817896,"current_range_meters":9200,"station_id":"ce4bhip2rcd13ifvqft0","pricing_plan_id":"cebpf4jnsgd1na2vs0mg"},{"bike_id":"da374a68-90e5-477e-a817-f1fe29574ea6","system_id":"levelo_inurba_marseille","lat":43.30136,"lon":5.37436,"is_reserved":false,"is_disabled":false,"rental_uris":{"android":"levelo://app?vid=da374a68-90e5-477e-a817-f1fe29574ea6","ios":"levelo://app?vid=da374a68-90e5-477e-a817-f1fe29574ea6"},"vehicle_type_id":"4","last_reported":1768817896,"current_range_meters":9200,"station_id":"ce4bgs92rcd13ifvqcc0","pricing_plan_id":"cebpf4jnsgd1na2vs0mg"},{"bike_id":"816bb8a8-f8c1-4c2c-800a-b75b4245f3eb","system_id":"levelo_inurba_marseille","lat":43.26877,"lon":5.39588,"is_reserved":false,"is_disabled":false,"rental_uris":{"android":"levelo://app?vid=816bb8a8-f8c1-4c2c-800a-b75b4245f3eb","ios":"levelo://app?vid=816bb8a8-f8c1-4c2c-800a-b75b4245f3eb"},"vehicle_type_id":"4","last_reported":1768817896,"current_range_meters":9200,"station_id":"","pricing_plan_id":"cebpf4jnsgd1na2vs0mg"},{"bike_id":"6dbd3745-ce81-4e97-a7a0-fa0184775e48","system_id":"levelo_inurba_marseille","lat":43.24471,"lon":5.42576,"is_reserved":false,"is_disabled":false,"rental_uris":{"android":"levelo://app?vid=6dbd3745-ce81-4e97-a7a0-fa0184775e48","ios":"levelo://app?vid=6dbd3745-ce81-4e97-a7a0-fa0184775e48"},"vehicle_type_id":"4","last_reported":1768817896,"current_range_meters":9200,"station_id":"st_d4a3vfp97mjs738cd8kg","pricing_plan_id":"cebpf4jnsgd1na2vs0mg"},{"bike_id":"a18875b2-7fec-46fb-be96-0954e45585f5","system_id":"levelo_inurba_marseille","lat":43.27948,"lon":5.41051,"is_reserved":false,"is_disabled":false,"rental_uris":{"android":"levelo://app?vid=a18875b2-7fec-46fb-be96-0954e45585f5","ios":"levelo://app?vid=a18875b2-7fec-46fb-be96-0954e45585f5"},"vehicle_type_id":"4","last_reported":1768817896,"current_range_meters":9200,"station_id":"ce4bhnp2rcd13ifvqh0g","pricing_plan_id":"cebpf4jnsgd1na2vs0mg"},{"bike_id":"e06aecda-63f3-4f65-aa0a-12192ba695a5","system_id":"levelo_inurba_marseille","lat":43.29553,"lon":5.42298,"is_reserved":false,"is_disabled":false,"rental_uris":{"android":"levelo://app?vid=e06aecda-63f3-4f65-aa0a-12192ba695a5","ios":"levelo://app?vid=e06aecda-63f3-4f65-aa0a-12192ba695a5"},"vehicle_type_id":"4","last_reported":1768817896,"current_range_meters":9200,"station_id":"ce4bhph2rcd13ifvqhdg","pricing_plan_id":"cebpf4jnsgd1na2vs0mg"},{"bike_id":"10f99d68-7903-413b-9603-6b566054a04b","system_id":"levelo_inurba_marseille","lat":43.31244,"lon":5.36826,"is_reserved":false,"is_disabled":false,"rental_uris":{"android":"levelo://app?vid=10f99d68-7903-413b-9603-6b566054a04b","ios":"levelo://app?vid=10f99d68-7903-413b-9603-6b566054a04b"},"vehicle_type_id":"4","last_reported":1768817896,"current_range_meters":9200,"station_id":"ce4bgl92rcd13ifvqbq0","pricing_plan_id":"cebpf4jnsgd1na2vs0mg"},{"bike_id":"87a54c48-d7ac-433a-ae3b-f1377c77482d","system_id":"levelo_inurba_marseille","lat":43.31503,"lon":5.38018,"is_reserved":false,"is_disabled":false,"rental_uris":{"android":"levelo://app?vid=87a54c48-d7ac-433a-ae3b-f1377c77482d","ios":"levelo://app?vid=87a54c48-d7ac-433a-ae3b-f1377c77482d"},"vehicle_type_id":"4","last_reported":1768817896,"current_range_meters":9200,"station_id":"ce4bhsp2rcd13ifvqi50","pricing_plan_id":"cebpf4jnsgd1na2vs0mg"},{"bike_id":"c578439e-9109-42d3-8a05-9688893825d6","system_id":"levelo_inurba_marseille","lat":43.31221,"lon":5.36881,"is_reserved":false,"is_disabled":false,"rental_uris":{"android":"levelo://app?vid=c578439e-9109-42d3-8a05-9688893825d6","ios":"levelo://app?vid=c578439e-9109-42d3-8a05-9688893825d6"},"vehicle_type_id":"4","last_reported":1768817896,"current_range_meters":9200,"station_id":"ce4bgl92rcd13ifvqbq0","pricing_plan_id":"cebpf4jnsgd1na2vs0mg"},{"bike_id":"80b5b6ec-0d84-4f18-8da8-d8ab913ec870","system_id":"levelo_inurba_marseille","lat":43.27896,"lon":5.37409,"is_reserved":false,"is_disabled":false,"rental_uris":{"android":"levelo://app?vid=80b5b6ec-0d84-4f18-8da8-d8ab913ec870","ios":"levelo://app?vid=80b5b6ec-0d84-4f18-8da8-d8ab913ec870"},"vehicle_type_id":"4","last_reported":1768817896,"current_range_meters":9200,"station_id":"","pricing_plan_id":"cebpf4jnsgd1na2vs0mg"},{"bike_id":"30d554d5-b797-407a-9046-0cda36398b54","system_id":"levelo_inurba_marseille","lat":43.279419,"lon":5.410514,"is_reserved":false,"is_disabled":false,"rental_uris":{"android":"levelo://app?vid=30d554d5-b797-407a-9046-0cda36398b54","ios":"levelo://app?vid=30d554d5-b797-407a-9046-0cda36398b54"},"vehicle_type_id":"4","last_reported":1768817896,"current_range_meters":9200,"station_id":"ce4bhnp2rcd13ifvqh0g","pricing_plan_id":"cebpf4jnsgd1na2vs0mg"},{"bike_id":"5e47478e-2bb2-4617-945e-678ef1fb8faf","system_id":"levelo_inurba_marseille","lat":43.2974,"lon":5.42791,"is_reserved":false,"is_disabled":false,"rental_uris":{"android":"levelo://app?vid=5e47478e-2bb2-4617-945e-678ef1fb8faf","ios":"levelo://app?vid=5e47478e-2bb2-4617-945e-678ef1fb8faf"},"vehicle_type_id":"4","last_reported":1768817896,"current_range_meters":9200,"station_id":"st_d3md5207bmas73dh9klg","pricing_plan_id":"cebpf4jnsgd1na2vs0mg"},{"bike_id":"dfa72997-bdba-48f4-a1d1-63ff5130518c","system_id":"levelo_inurba_marseille","lat":43.323496,"lon":5.367318,"is_reserved":false,"is_disabled":false,"rental_uris":{"android":"levelo://app?vid=dfa72997-bdba-48f4-a1d1-63ff5130518c","ios":"levelo://app?vid=dfa72997-bdba-48f4-a1d1-63ff5130518c"},"vehicle_type_id":"4","last_reported":1768817896,"current_range_meters":9600,"station_id":"ce4bhsh2rcd13ifvqi2g","pricing_plan_id":"cebpf4jnsgd1na2vs0mg"},{"bike_id":"9731fe98-eff6-423c-9230-04d49ef1e664","system_id":"levelo_inurba_marseille","lat":43.24468,"lon":5.42542,"is_reserved":false,"is_disabled":false,"rental_uris":{"android":"levelo://app?vid=9731fe98-eff6-423c-9230-04d49ef1e664","ios":"levelo://app?vid=9731fe98-eff6-423c-9230-04d49ef1e664"},"vehicle_type_id":"4","last_reported":1768817896,"current_range_meters":9600,"station_id":"st_d4a3vfp97mjs738cd8kg","pricing_plan_id":"cebpf4jnsgd1na2vs0mg"},{"bike_id":"f9dc3e16-2a68-4cd6-a051-94f73f8c584d","system_id":"levelo_inurba_marseille","lat":43.27786,"lon":5.4073,"is_reserved":false,"is_disabled":false,"rental_uris":{"android":"levelo://app?vid=f9dc3e16-2a68-4cd6-a051-94f73f8c584d","ios":"levelo://app?vid=f9dc3e16-2a68-4cd6-a051-94f73f8c584d"},"vehicle_type_id":"4","last_reported":1768817896,"current_range_meters":9600,"station_id":"ce4bhnh2rcd13ifvqgtg","pricing_plan_id":"cebpf4jnsgd1na2vs0mg"},{"bike_id":"784bf8ae-0097-45a5-89e6-e9987ffc4672","system_id":"levelo_inurba_marseille","lat":43.24171,"lon":5.39729,"is_reserved":false,"is_disabled":false,"rental_uris":{"android":"levelo://app?vid=784bf8ae-0097-45a5-89e6-e9987ffc4672","ios":"levelo://app?vid=784bf8ae-0097-45a5-89e6-e9987ffc4672"},"vehicle_type_id":"4","last_reported":1768817896,"current_range_meters":9600,"station_id":"ce4bhn12rcd13ifvqgpg","pricing_plan_id":"cebpf4jnsgd1na2vs0mg"},{"bike_id":"6eaba300-7dc8-44c2-a644-44ad4313f929","system_id":"levelo_inurba_marseille","lat":43.27068,"lon":5.40249,"is_reserved":false,"is_disabled":false,"rental_uris":{"android":"levelo://app?vid=6eaba300-7dc8-44c2-a644-44ad4313f929","ios":"levelo://app?vid=6eaba300-7dc8-44c2-a644-44ad4313f929"},"vehicle_type_id":"4","last_reported":1768817896,"current_range_meters":9600,"station_id":"ce4bhk92rcd13ifvqgc0","pricing_plan_id":"cebpf4jnsgd1na2vs0mg"},{"bike_id":"897afa57-164c-4cfc-901d-614d477f19fd","system_id":"levelo_inurba_marseille","lat":43.29764,"lon":5.37321,"is_reserved":false,"is_disabled":false,"rental_uris":{"android":"levelo://app?vid=897afa57-164c-4cfc-901d-614d477f19fd","ios":"levelo://app?vid=897afa57-164c-4cfc-901d-614d477f19fd"},"vehicle_type_id":"4","last_reported":1768817896,"current_range_meters":9600,"station_id":"","pricing_plan_id":"cebpf4jnsgd1na2vs0mg"},{"bike_id":"e2b653d4-9472-4321-bf83-9f50d515ef90","system_id":"levelo_inurba_marseille","lat":43.30458,"lon":5.37914,"is_reserved":false,"is_disabled":false,"rental_uris":{"android":"levelo://app?vid=e2b653d4-9472-4321-bf83-9f50d515ef90","ios":"levelo://app?vid=e2b653d4-9472-4321-bf83-9f50d515ef90"},"vehicle_type_id":"4","last_reported":1768817896,"current_range_meters":9600,"station_id":"ce4bgup2rcd13ifvqcn0","pricing_plan_id":"cebpf4jnsgd1na2vs0mg"},{"bike_id":"257237c4-ad17-4c5c-bd8c-33a3d3f05dc6","system_id":"levelo_inurba_marseille","lat":43.285338,"lon":5.440969,"is_reserved":false,"is_disabled":false,"rental_uris":{"android":"levelo://app?vid=257237c4-ad17-4c5c-bd8c-33a3d3f05dc6","ios":"levelo://app?vid=257237c4-ad17-4c5c-bd8c-33a3d3f05dc6"},"vehicle_type_id":"4","last_reported":1768817896,"current_range_meters":9600,"station_id":"st_d3j3df2ikq2c7380ej80","pricing_plan_id":"cebpf4jnsgd1na2vs0mg"},{"bike_id":"79ee09ef-c9ef-45df-873b-2180e772469b","system_id":"levelo_inurba_marseille","lat":43.26219,"lon":5.38825,"is_reserved":false,"is_disabled":false,"rental_uris":{"android":"levelo://app?vid=79ee09ef-c9ef-45df-873b-2180e772469b","ios":"levelo://app?vid=79ee09ef-c9ef-45df-873b-2180e772469b"},"vehicle_type_id":"4","last_reported":1768817896,"current_range_meters":9600,"station_id":"","pricing_plan_id":"cebpf4jnsgd1na2vs0mg"},{"bike_id":"f422f916-5651-447a-b545-20bdb14e8bf5","system_id":"levelo_inurba_marseille","lat":43.30562,"lon":5.36493,"is_reserved":false,"is_disabled":false,"rental_uris":{"android":"levelo://app?vid=f422f916-5651-447a-b545-20bdb14e8bf5","ios":"levelo://app?vid=f422f916-5651-447a-b545-20bdb14e8bf5"},"vehicle_type_id":"4","last_reported":1768817896,"current_range_meters":9600,"station_id":"","pricing_plan_id":"cebpf4jnsgd1na2vs0mg"},{"bike_id":"b85dab4c-c201-439d-bedf-38b299652a5e","system_id":"levelo_inurba_marseille","lat":43.301462,"lon":5.380753,"is_reserved":false,"is_disabled":false,"rental_uris":{"android":"levelo://app?vid=b85dab4c-c201-439d-bedf-38b299652a5e","ios":"levelo://app?vid=b85dab4c-c201-439d-bedf-38b299652a5e"},"vehicle_type_id":"4","last_reported":1768817896,"current_range_meters":9600,"station_id":"ce4bgjp2rcd13ifvqbh0","pricing_plan_id":"cebpf4jnsgd1na2vs0mg"},{"bike_id":"ea64526a-5533-47b9-9c09-5171f3da77ab","system_id":"levelo_inurba_marseille","lat":43.28886,"lon":5.42975,"is_reserved":false,"is_disabled":false,"rental_uris":{"android":"levelo://app?vid=ea64526a-5533-47b9-9c09-5171f3da77ab","ios":"levelo://app?vid=ea64526a-5533-47b9-9c09-5171f3da77ab"},"vehicle_type_id":"4","last_reported":1768817896,"current_range_meters":9600,"station_id":"","pricing_plan_id":"cebpf4jnsgd1na2vs0mg"},{"bike_id":"74410b7c-20f3-464f-b084-77cf6745e281","system_id":"levelo_inurba_marseille","lat":43.29766,"lon":5.4279,"is_reserved":false,"is_disabled":false,"rental_uris":{"android":"levelo://app?vid=74410b7c-20f3-464f-b084-77cf6745e281","ios":"levelo://app?vid=74410b7c-20f3-464f-b084-77cf6745e281"},"vehicle_type_id":"4","last_reported":1768817896,"current_range_meters":10000,"station_id":"st_d3md5207bmas73dh9klg","pricing_plan_id":"cebpf4jnsgd1na2vs0mg"},{"bike_id":"cc75d74f-edcb-4d0c-834e-ebf6d03d0901","system_id":"levelo_inurba_marseille","lat":43.2794,"lon":5.41052,"is_reserved":false,"is_disabled":false,"rental_uris":{"android":"levelo://app?vid=cc75d74f-edcb-4d0c-834e-ebf6d03d0901","ios":"levelo://app?vid=cc75d74f-edcb-4d0c-834e-ebf6d03d0901"},"vehicle_type_id":"4","last_reported":1768817896,"current_range_meters":10000,"station_id":"ce4bhnp2rcd13ifvqh0g","pricing_plan_id":"cebpf4jnsgd1na2vs0mg"},{"bike_id":"04fe44b6-087d-43ef-aa29-698293fb8c87","system_id":"levelo_inurba_marseille","lat":43.31346,"lon":5.3851,"is_reserved":false,"is_disabled":false,"rental_uris":{"android":"levelo://app?vid=04fe44b6-087d-43ef-aa29-698293fb8c87","ios":"levelo://app?vid=04fe44b6-087d-43ef-aa29-698293fb8c87"},"vehicle_type_id":"4","last_reported":1768817896,"current_range_meters":10000,"station_id":"ce4bgt92rcd13ifvqcf0","pricing_plan_id":"cebpf4jnsgd1na2vs0mg"},{"bike_id":"0c250cd0-6f0a-4492-8c3a-6d60fb5f5d61","system_id":"levelo_inurba_marseille","lat":43.31057,"lon":5.37178,"is_reserved":false,"is_disabled":false,"rental_uris":{"android":"levelo://app?vid=0c250cd0-6f0a-4492-8c3a-6d60fb5f5d61","ios":"levelo://app?vid=0c250cd0-6f0a-4492-8c3a-6d60fb5f5d61"},"vehicle_type_id":"4","last_reported":1768817896,"current_range_meters":10000,"station_id":"st_d4kl2rp97mjs73e7tdfg","pricing_plan_id":"cebpf4jnsgd1na2vs0mg"},{"bike_id":"266e48ea-908e-4dc8-855a-c7fc287a6fac","system_id":"levelo_inurba_marseille","lat":43.3028,"lon":5.37725,"is_reserved":false,"is_disabled":false,"rental_uris":{"android":"levelo://app?vid=266e48ea-908e-4dc8-855a-c7fc287a6fac","ios":"levelo://app?vid=266e48ea-908e-4dc8-855a-c7fc287a6fac"},"vehicle_type_id":"4","last_reported":1768817896,"current_range_meters":10000,"station_id":"ce4bguh2rcd13ifvqcj0","pricing_plan_id":"cebpf4jnsgd1na2vs0mg"},{"bike_id":"fe068e4e-5726-4387-b759-602413089295","system_id":"levelo_inurba_marseille","lat":43.26067,"lon":5.39397,"is_reserved":false,"is_disabled":false,"rental_uris":{"android":"levelo://app?vid=fe068e4e-5726-4387-b759-602413089295","ios":"levelo://app?vid=fe068e4e-5726-4387-b759-602413089295"},"vehicle_type_id":"4","last_reported":1768817896,"current_range_meters":10000,"station_id":"ce4bhh92rcd13ifvqfj0","pricing_plan_id":"cebpf4jnsgd1na2vs0mg"},{"bike_id":"405bacf0-7d07-4ec7-aad7-72e1c5147c0f","system_id":"levelo_inurba_marseille","lat":43.30147,"lon":5.37417,"is_reserved":false,"is_disabled":false,"rental_uris":{"android":"levelo://app?vid=405bacf0-7d07-4ec7-aad7-72e1c5147c0f","ios":"levelo://app?vid=405bacf0-7d07-4ec7-aad7-72e1c5147c0f"},"vehicle_type_id":"4","last_reported":1768817896,"current_range_meters":10000,"station_id":"ce4bgs92rcd13ifvqcc0","pricing_plan_id":"cebpf4jnsgd1na2vs0mg"},{"bike_id":"15fa7938-6e9d-4ff0-8c10-f0e05689a462","system_id":"levelo_inurba_marseille","lat":43.3316,"lon":5.37713,"is_reserved":false,"is_disabled":false,"rental_uris":{"android":"levelo://app?vid=15fa7938-6e9d-4ff0-8c10-f0e05689a462","ios":"levelo://app?vid=15fa7938-6e9d-4ff0-8c10-f0e05689a462"},"vehicle_type_id":"4","last_reported":1768817896,"current_range_meters":10000,"station_id":"st_d46cu089ee8s73dldbu0","pricing_plan_id":"cebpf4jnsgd1na2vs0mg"},{"bike_id":"98b7c4bc-df41-4591-92d4-d03ff0b10e8b","system_id":"levelo_inurba_marseille","lat":43.30116,"lon":5.43102,"is_reserved":false,"is_disabled":false,"rental_uris":{"android":"levelo://app?vid=98b7c4bc-df41-4591-92d4-d03ff0b10e8b","ios":"levelo://app?vid=98b7c4bc-df41-4591-92d4-d03ff0b10e8b"},"vehicle_type_id":"4","last_reported":1768817896,"current_range_meters":10000,"station_id":"st_d3js3co5814s73ftftug","pricing_plan_id":"cebpf4jnsgd1na2vs0mg"},{"bike_id":"f02a6d56-5cc6-441d-b096-ec037e71ba0d","system_id":"levelo_inurba_marseille","lat":43.29106,"lon":5.38915,"is_reserved":false,"is_disabled":false,"rental_uris":{"android":"levelo://app?vid=f02a6d56-5cc6-441d-b096-ec037e71ba0d","ios":"levelo://app?vid=f02a6d56-5cc6-441d-b096-ec037e71ba0d"},"vehicle_type_id":"4","last_reported":1768817896,"current_range_meters":10000,"station_id":"","pricing_plan_id":"cebpf4jnsgd1na2vs0mg"},{"bike_id":"4d5a34c4-5f2e-4ef5-bb82-35f550258ee1","system_id":"levelo_inurba_marseille","lat":43.26047,"lon":5.394,"is_reserved":false,"is_disabled":false,"rental_uris":{"android":"levelo://app?vid=4d5a34c4-5f2e-4ef5-bb82-35f550258ee1","ios":"levelo://app?vid=4d5a34c4-5f2e-4ef5-bb82-35f550258ee1"},"vehicle_type_id":"4","last_reported":1768817896,"current_range_meters":10000,"station_id":"ce4bhh92rcd13ifvqfj0","pricing_plan_id":"cebpf4jnsgd1na2vs0mg"},{"bike_id":"8d5cc49b-0637-468f-bdc8-396f5ac55bc7","system_id":"levelo_inurba_marseille","lat":43.29929,"lon":5.36541,"is_reserved":false,"is_disabled":false,"rental_uris":{"android":"levelo://app?vid=8d5cc49b-0637-468f-bdc8-396f5ac55bc7","ios":"levelo://app?vid=8d5cc49b-0637-468f-bdc8-396f5ac55bc7"},"vehicle_type_id":"4","last_reported":1768817896,"current_range_meters":10000,"station_id":"ce4bgm92rcd13ifvqbr0","pricing_plan_id":"cebpf4jnsgd1na2vs0mg"},{"bike_id":"d81ef32a-a56b-4784-81ce-01a9faf82e78","system_id":"levelo_inurba_marseille","lat":43.24937,"lon":5.40515,"is_reserved":false,"is_disabled":false,"rental_uris":{"android":"levelo://app?vid=d81ef32a-a56b-4784-81ce-01a9faf82e78","ios":"levelo://app?vid=d81ef32a-a56b-4784-81ce-01a9faf82e78"},"vehicle_type_id":"4","last_reported":1768817896,"current_range_meters":10000,"station_id":"st_d2ngiaodas8pm72gd1h0","pricing_plan_id":"cebpf4jnsgd1na2vs0mg"},{"bike_id":"aad2f2a1-05d5-483b-af83-ed9a3138acee","system_id":"levelo_inurba_marseille","lat":43.24139,"lon":5.39714,"is_reserved":false,"is_disabled":false,"rental_uris":{"android":"levelo://app?vid=aad2f2a1-05d5-483b-af83-ed9a3138acee","ios":"levelo://app?vid=aad2f2a1-05d5-483b-af83-ed9a3138acee"},"vehicle_type_id":"4","last_reported":1768817896,"current_range_meters":10000,"station_id":"ce4bhn12rcd13ifvqgpg","pricing_plan_id":"cebpf4jnsgd1na2vs0mg"},{"bike_id":"d37fbd57-975a-458d-86c1-4646adc5d0a1","system_id":"levelo_inurba_marseille","lat":43.26019,"lon":5.41763,"is_reserved":false,"is_disabled":false,"rental_uris":{"android":"levelo://app?vid=d37fbd57-975a-458d-86c1-4646adc5d0a1","ios":"levelo://app?vid=d37fbd57-975a-458d-86c1-4646adc5d0a1"},"vehicle_type_id":"4","last_reported":1768817896,"current_range_meters":10000,"station_id":"","pricing_plan_id":"cebpf4jnsgd1na2vs0mg"},{"bike_id":"78aa8ab7-857a-4eb3-8420-e1306e947450","system_id":"levelo_inurba_marseille","lat":43.30474,"lon":5.37921,"is_reserved":false,"is_disabled":false,"rental_uris":{"android":"levelo://app?vid=78aa8ab7-857a-4eb3-8420-e1306e947450","ios":"levelo://app?vid=78aa8ab7-857a-4eb3-8420-e1306e947450"},"vehicle_type_id":"4","last_reported":1768817896,"current_range_meters":10000,"station_id":"ce4bgup2rcd13ifvqcn0","pricing_plan_id":"cebpf4jnsgd1na2vs0mg"},{"bike_id":"a230c296-8f76-4461-85f3-cef961a68cae","system_id":"levelo_inurba_marseille","lat":43.28146,"lon":5.43152,"is_reserved":false,"is_disabled":false,"rental_uris":{"android":"levelo://app?vid=a230c296-8f76-4461-85f3-cef961a68cae","ios":"levelo://app?vid=a230c296-8f76-4461-85f3-cef961a68cae"},"vehicle_type_id":"4","last_reported":1768817896,"current_range_meters":10000,"station_id":"","pricing_plan_id":"cebpf4jnsgd1na2vs0mg"},{"bike_id":"6bbadf6c-8015-4f56-b9a7-49931e981533","system_id":"levelo_inurba_marseille","lat":43.30494,"lon":5.36714,"is_reserved":false,"is_disabled":false,"rental_uris":{"android":"levelo://app?vid=6bbadf6c-8015-4f56-b9a7-49931e981533","ios":"levelo://app?vid=6bbadf6c-8015-4f56-b9a7-49931e981533"},"vehicle_type_id":"4","last_reported":1768817896,"current_range_meters":10000,"station_id":"","pricing_plan_id":"cebpf4jnsgd1na2vs0mg"},{"bike_id":"4011715e-b4bb-49be-9e0d-22ddc9ffc04a","system_id":"levelo_inurba_marseille","lat":43.28673,"lon":5.38658,"is_reserved":false,"is_disabled":false,"rental_uris":{"android":"levelo://app?vid=4011715e-b4bb-49be-9e0d-22ddc9ffc04a","ios":"levelo://app?vid=4011715e-b4bb-49be-9e0d-22ddc9ffc04a"},"vehicle_type_id":"4","last_reported":1768817896,"current_range_meters":10000,"station_id":"ce4bh492rcd13ifvqdug","pricing_plan_id":"cebpf4jnsgd1na2vs0mg"},{"bike_id":"289c4030-5ccc-4696-99db-11899f84ed21","system_id":"levelo_inurba_marseille","lat":43.23142,"lon":5.43723,"is_reserved":false,"is_disabled":false,"rental_uris":{"android":"levelo://app?vid=289c4030-5ccc-4696-99db-11899f84ed21","ios":"levelo://app?vid=289c4030-5ccc-4696-99db-11899f84ed21"},"vehicle_type_id":"4","last_reported":1768817896,"current_range_meters":10000,"station_id":"ce4bhmp2rcd13ifvqgog","pricing_plan_id":"cebpf4jnsgd1na2vs0mg"},{"bike_id":"56e385ce-3f8c-4732-b9b0-4ab42132f101","system_id":"levelo_inurba_marseille","lat":43.27977,"lon":5.4166,"is_reserved":false,"is_disabled":false,"rental_uris":{"android":"levelo://app?vid=56e385ce-3f8c-4732-b9b0-4ab42132f101","ios":"levelo://app?vid=56e385ce-3f8c-4732-b9b0-4ab42132f101"},"vehicle_type_id":"4","last_reported":1768817896,"current_range_meters":10000,"station_id":"ce4bho12rcd13ifvqh1g","pricing_plan_id":"cebpf4jnsgd1na2vs0mg"},{"bike_id":"614d3f27-8373-4fc7-a4ab-61247e39736b","system_id":"levelo_inurba_marseille","lat":43.26565,"lon":5.39042,"is_reserved":false,"is_disabled":false,"rental_uris":{"android":"levelo://app?vid=614d3f27-8373-4fc7-a4ab-61247e39736b","ios":"levelo://app?vid=614d3f27-8373-4fc7-a4ab-61247e39736b"},"vehicle_type_id":"4","last_reported":1768817896,"current_range_meters":10800,"station_id":"ce4bhe12rcd13ifvqf30","pricing_plan_id":"cebpf4jnsgd1na2vs0mg"},{"bike_id":"2754e82f-4036-4992-bd65-d11cd290c0f7","system_id":"levelo_inurba_marseille","lat":43.27993,"lon":5.40049,"is_reserved":false,"is_disabled":false,"rental_uris":{"android":"levelo://app?vid=2754e82f-4036-4992-bd65-d11cd290c0f7","ios":"levelo://app?vid=2754e82f-4036-4992-bd65-d11cd290c0f7"},"vehicle_type_id":"4","last_reported":1768817896,"current_range_meters":10800,"station_id":"ce4bho92rcd13ifvqh4g","pricing_plan_id":"cebpf4jnsgd1na2vs0mg"},{"bike_id":"361494c3-cd3d-450c-9015-a2ad0304dbbd","system_id":"levelo_inurba_marseille","lat":43.27978,"lon":5.41652,"is_reserved":false,"is_disabled":false,"rental_uris":{"android":"levelo://app?vid=361494c3-cd3d-450c-9015-a2ad0304dbbd","ios":"levelo://app?vid=361494c3-cd3d-450c-9015-a2ad0304dbbd"},"vehicle_type_id":"4","last_reported":1768817896,"current_range_meters":10800,"station_id":"ce4bho12rcd13ifvqh1g","pricing_plan_id":"cebpf4jnsgd1na2vs0mg"},{"bike_id":"1b5fb88f-3173-4085-bbe3-67e6cfa64575","system_id":"levelo_inurba_marseille","lat":43.28699,"lon":5.39985,"is_reserved":false,"is_disabled":false,"rental_uris":{"android":"levelo://app?vid=1b5fb88f-3173-4085-bbe3-67e6cfa64575","ios":"levelo://app?vid=1b5fb88f-3173-4085-bbe3-67e6cfa64575"},"vehicle_type_id":"4","last_reported":1768817896,"current_range_meters":10800,"station_id":"ce4bho92rcd13ifvqh3g","pricing_plan_id":"cebpf4jnsgd1na2vs0mg"},{"bike_id":"8bc5911e-e7fc-49e5-87c3-fd8fb417263b","system_id":"levelo_inurba_marseille","lat":43.30689,"lon":5.36625,"is_reserved":false,"is_disabled":false,"rental_uris":{"android":"levelo://app?vid=8bc5911e-e7fc-49e5-87c3-fd8fb417263b","ios":"levelo://app?vid=8bc5911e-e7fc-49e5-87c3-fd8fb417263b"},"vehicle_type_id":"4","last_reported":1768817896,"current_range_meters":10800,"station_id":"","pricing_plan_id":"cebpf4jnsgd1na2vs0mg"},{"bike_id":"4fa3edc5-5736-4185-b67a-9c469436760d","system_id":"levelo_inurba_marseille","lat":43.30266,"lon":5.43429,"is_reserved":false,"is_disabled":false,"rental_uris":{"android":"levelo://app?vid=4fa3edc5-5736-4185-b67a-9c469436760d","ios":"levelo://app?vid=4fa3edc5-5736-4185-b67a-9c469436760d"},"vehicle_type_id":"4","last_reported":1768817896,"current_range_meters":10800,"station_id":"","pricing_plan_id":"cebpf4jnsgd1na2vs0mg"},{"bike_id":"2f068eb9-df25-4c78-ae73-fc5bb4ded60a","system_id":"levelo_inurba_marseille","lat":43.25901,"lon":5.40861,"is_reserved":false,"is_disabled":false,"rental_uris":{"android":"levelo://app?vid=2f068eb9-df25-4c78-ae73-fc5bb4ded60a","ios":"levelo://app?vid=2f068eb9-df25-4c78-ae73-fc5bb4ded60a"},"vehicle_type_id":"4","last_reported":1768817896,"current_range_meters":10800,"station_id":"ce4bhm92rcd13ifvqglg","pricing_plan_id":"cebpf4jnsgd1na2vs0mg"},{"bike_id":"09bf29bb-9947-410d-b147-6d57ddc8d476","system_id":"levelo_inurba_marseille","lat":43.33151,"lon":5.37677,"is_reserved":false,"is_disabled":false,"rental_uris":{"android":"levelo://app?vid=09bf29bb-9947-410d-b147-6d57ddc8d476","ios":"levelo://app?vid=09bf29bb-9947-410d-b147-6d57ddc8d476"},"vehicle_type_id":"4","last_reported":1768817896,"current_range_meters":10800,"station_id":"st_d46cu089ee8s73dldbu0","pricing_plan_id":"cebpf4jnsgd1na2vs0mg"},{"bike_id":"9f8a798f-f95b-4979-8eb8-4ed719f4c356","system_id":"levelo_inurba_marseille","lat":43.303164,"lon":5.369223,"is_reserved":false,"is_disabled":false,"rental_uris":{"android":"levelo://app?vid=9f8a798f-f95b-4979-8eb8-4ed719f4c356","ios":"levelo://app?vid=9f8a798f-f95b-4979-8eb8-4ed719f4c356"},"vehicle_type_id":"4","last_reported":1768817896,"current_range_meters":10800,"station_id":"ce4bgqh2rcd13ifvqc5g","pricing_plan_id":"cebpf4jnsgd1na2vs0mg"},{"bike_id":"dd5bfe10-6db9-426c-9dec-818439827117","system_id":"levelo_inurba_marseille","lat":43.29026,"lon":5.37567,"is_reserved":false,"is_disabled":false,"rental_uris":{"android":"levelo://app?vid=dd5bfe10-6db9-426c-9dec-818439827117","ios":"levelo://app?vid=dd5bfe10-6db9-426c-9dec-818439827117"},"vehicle_type_id":"4","last_reported":1768817896,"current_range_meters":10800,"station_id":"ce4bh692rcd13ifvqe90","pricing_plan_id":"cebpf4jnsgd1na2vs0mg"},{"bike_id":"fffdac45-0a17-4303-b03b-94594e1f20e9","system_id":"levelo_inurba_marseille","lat":43.31255,"lon":5.36851,"is_reserved":false,"is_disabled":false,"rental_uris":{"android":"levelo://app?vid=fffdac45-0a17-4303-b03b-94594e1f20e9","ios":"levelo://app?vid=fffdac45-0a17-4303-b03b-94594e1f20e9"},"vehicle_type_id":"4","last_reported":1768817896,"current_range_meters":10800,"station_id":"ce4bgl92rcd13ifvqbq0","pricing_plan_id":"cebpf4jnsgd1na2vs0mg"},{"bike_id":"586dfadf-e81a-4fc2-a454-26b1964d327d","system_id":"levelo_inurba_marseille","lat":43.32347,"lon":5.36753,"is_reserved":false,"is_disabled":false,"rental_uris":{"android":"levelo://app?vid=586dfadf-e81a-4fc2-a454-26b1964d327d","ios":"levelo://app?vid=586dfadf-e81a-4fc2-a454-26b1964d327d"},"vehicle_type_id":"4","last_reported":1768817896,"current_range_meters":10800,"station_id":"ce4bhsh2rcd13ifvqi2g","pricing_plan_id":"cebpf4jnsgd1na2vs0mg"},