{"last_updated":1723572694,"ttl":30,"version":"2.2","data":{"bikes":[{"bike_id":"2399ca4a-afba-4cd7-894c-cd8f035b3c56","system_id":"levelo_inurba_marseille","lat":43.312195,"lon":5.368501,"is_reserved":false,"is_disabled":false,"rental_uris":{"android":"levelo://app?vid=2399ca4a-afba-4cd7-894c-cd8f035b3c56","ios":"levelo://app?vid=2399ca4a-afba-4cd7-894c-cd8f035b3c56"},"vehicle_type_id":"4","last_reported":1723572694,"current_range_meters":6000,"station_id":"","pricing_plan_id":"cebpf4jnsgd1na2vs0mg"},{"bike_id":"7f3a5a7f-12c3-4406-9a19-2cb7230eea10","system_id":"levelo_inurba_marseille","lat":43.312239,"lon":5.368562,"is_reserved":false,"is_disabled":false,"rental_uris":{"android":"levelo://app?vid=7f3a5a7f-12c3-4406-9a19-2cb7230eea10","ios":"levelo://app?vid=7f3a5a7f-12c3-4406-9a19-2cb7230eea10"},"vehicle_type_id":"4","last_reported":1723572694,"current_range_meters":8000,"station_id":"ce4bgl92rcd13ifvqbq0","pricing_plan_id":"cebpf4jnsgd1na2vs0mg"},{"bike_id":"ce0e461e-c8af-4d4c-985e-691212d6e28b","system_id":"levelo_inurba_marseille","lat":43.31223,"lon":5.36856,"is_reserved":false,"is_disabled":false,"rental_uris":{"android":"levelo://app?vid=ce0e461e-c8af-4d4c-985e-691212d6e28b","ios":"levelo://app?vid=ce0e461e-c8af-4d4c-985e-691212d6e28b"},"vehicle_type_id":"4","last_reported":1723572694,"current_range_meters":0,"station_id":"ce4bgl92rcd13ifvqbq0","pricing_plan_id":"cebpf4jnsgd1na2vs0mg"},{"bike_id":"d33735fc-2ac9-41c9-bf08-a56e76610cc5","system_id":"levelo_inurba_marseille","lat":43.309076,"lon":5.368465,"is_reserved":false,"is_disabled":false,"rental_uris":{"android":"levelo://app?vid=d33735fc-2ac9-41c9-bf08-a56e76610cc5","ios":"levelo://app?vid=d33735fc-2ac9-41c9-bf08-a56e76610cc5"},"vehicle_type_id":"4","last_reported":1723572694,"current_range_meters":14000,"station_id":"ce4bgn92rcd13ifvqbvg","pricing_plan_id":"cebpf4jnsgd1na2vs0mg"},{"bike_id":"5064e914-edc0-4b71-8877-7151846c1175","system_id":"levelo_inurba_marseille","lat":43.309076,"lon":5.368465,"is_reserved":false,"is_disabled":false,"rental_uris":{"android":"levelo://app?vid=5064e914-edc0-4b71-8877-7151846c1175","ios":"levelo://app?vid=5064e914-edc0-4b71-8877-7151846c1175"},"vehicle_type_id":"4","last_reported":1723572694,"current_range_meters":5200,"station_id":"ce4bgn92rcd13ifvqbvg","pricing_plan_id":"cebpf4jnsgd1na2vs0mg"},{"bike_id":"c7fefd1a-19d4-4513-b18a-ecf1b918fc0a","system_id":"levelo_inurba_marseille","lat":43.309076,"lon":5.368465,"is_reserved":false,"is_disabled":false,"rental_uris":{"android":"levelo://app?vid=c7fefd1a-19d4-4513-b18a-ecf1b918fc0a","ios":"levelo://app?vid=c7fefd1a-19d4-4513-b18a-ecf1b918fc0a"},"vehicle_type_id":"4","last_reported":1723572694,"current_range_meters":8000,"station_id":"ce4bgn92rcd13ifvqbvg","pricing_plan_id":"cebpf4jnsgd1na2vs0mg"},{"bike_id":"17f03b2c-0d1b-41af-9671-28dfccb21e5f","system_id":"levelo_inurba_marseille","lat":43.309076,"lon":5.368465,"is_reserved":false,"is_disabled":false,"rental_uris":{"android":"levelo://app?vid=17f03b2c-0d1b-41af-9671-28dfccb21e5f","ios":"levelo://app?vid=17f03b2c-0d1b-41af-9671-28dfccb21e5f"},"vehicle_type_id":"4","last_reported":1723572694,"current_range_meters":24400,"station_id":"ce4bgn92rcd13ifvqbvg","pricing_plan_id":"cebpf4jnsgd1na2vs0mg"},{"bike_id":"6d187005-c606-4650-9d29-3e5e21e7d5ab","system_id":"levelo_inurba_marseille","lat":43.31483,"lon":5.37309,"is_reserved":false,"is_disabled":false,"rental_uris":{"android":"levelo://app?vid=6d187005-c606-4650-9d29-3e5e21e7d5ab","ios":"levelo://app?vid=6d187005-c606-4650-9d29-3e5e21e7d5ab"},"vehicle_type_id":"4","last_reported":1723572694,"current_range_meters":24800,"station_id":"","pricing_plan_id":"cebpf4jnsgd1na2vs0mg"},{"bike_id":"cad2a3d6-29c9-43ae-b02d-caf61594cc35","system_id":"levelo_inurba_marseille","lat":43.314811,"lon":5.373104,"is_reserved":false,"is_disabled":false,"rental_uris":{"android":"levelo://app?vid=cad2a3d6-29c9-43ae-b02d-caf61594cc35","ios":"levelo://app?vid=cad2a3d6-29c9-43ae-b02d-caf61594cc35"},"vehicle_type_id":"4","last_reported":1723572694,"current_range_meters":0,"station_id":"ce4bgt12rcd13ifvqcd0","pricing_plan_id":"cebpf4jnsgd1na2vs0mg"},{"bike_id":"2d407b63-f4ea-4076-8899-24d55537420b","system_id":"levelo_inurba_marseille","lat":43.314811,"lon":5.373103,"is_reserved":false,"is_disabled":false,"rental_uris":{"android":"levelo://app?vid=2d407b63-f4ea-4076-8899-24d55537420b","ios":"levelo://app?vid=2d407b63-f4ea-4076-8899-24d55537420b"},"vehicle_type_id":"4","last_reported":1723572694,"current_range_meters":14000,"station_id":"ce4bgt12rcd13ifvqcd0","pricing_plan_id":"cebpf4jnsgd1na2vs0mg"},{"bike_id":"a0b2e41a-c9db-4de3-a1df-71b2cfebb804","system_id":"levelo_inurba_marseille","lat":43.309039,"lon":5.371797,"is_reserved":false,"is_disabled":false,"rental_uris":{"android":"levelo://app?vid=a0b2e41a-c9db-4de3-a1df-71b2cfebb804","ios":"levelo://app?vid=a0b2e41a-c9db-4de3-a1df-71b2cfebb804"},"vehicle_type_id":"4","last_reported":1723572694,"current_range_meters":0,"station_id":"ce4bguh2rcd13ifvqckg","pricing_plan_id":"cebpf4jnsgd1na2vs0mg"},{"bike_id":"794e9f10-53c3-4540-a25d-26570344a089","system_id":"levelo_inurba_marseille","lat":43.30901,"lon":5.37291,"is_reserved":false,"is_disabled":false,"rental_uris":{"android":"levelo://app?vid=794e9f10-53c3-4540-a25d-26570344a089","ios":"levelo://app?vid=794e9f10-53c3-4540-a25d-26570344a089"},"vehicle_type_id":"4","last_reported":1723572694,"current_range_meters":24400,"station_id":"","pricing_plan_id":"cebpf4jnsgd1na2vs0mg"},{"bike_id":"79b34ccf-9ed3-4c69-90a8-97db31e1605c","system_id":"levelo_inurba_marseille","lat":43.305712,"lon":5.365641,"is_reserved":false,"is_disabled":false,"rental_uris":{"android":"levelo://app?vid=79b34ccf-9ed3-4c69-90a8-97db31e1605c","ios":"levelo://app?vid=79b34ccf-9ed3-4c69-90a8-97db31e1605c"},"vehicle_type_id":"4","last_reported":1723572694,"current_range_meters":800,"station_id":"ce4bgs12rcd13ifvqcag","pricing_plan_id":"cebpf4jnsgd1na2vs0mg"},{"bike_id":"8d9bf60b-1f84-4510-8c85-22b2fbb2cbe7","system_id":"levelo_inurba_marseille","lat":43.305368,"lon":5.367343,"is_reserved":false,"is_disabled":false,"rental_uris":{"android":"levelo://app?vid=8d9bf60b-1f84-4510-8c85-22b2fbb2cbe7","ios":"levelo://app?vid=8d9bf60b-1f84-4510-8c85-22b2fbb2cbe7"},"vehicle_type_id":"4","last_reported":1723572694,"current_range_meters":23600,"station_id":"ce4bgrp2rcd13ifvqc9g","pricing_plan_id":"cebpf4jnsgd1na2vs0mg"},{"bike_id":"16ce72aa-e515-462a-a798-442ca174bc87","system_id":"levelo_inurba_marseille","lat":43.31596,"lon":5.37609,"is_reserved":false,"is_disabled":false,"rental_uris":{"android":"levelo://app?vid=16ce72aa-e515-462a-a798-442ca174bc87","ios":"levelo://app?vid=16ce72aa-e515-462a-a798-442ca174bc87"},"vehicle_type_id":"4","last_reported":1723572694,"current_range_meters":2800,"station_id":"","pricing_plan_id":"cebpf4jnsgd1na2vs0mg"},{"bike_id":"eabb42e4-b174-4508-8c54-7b1626eb1367","system_id":"levelo_inurba_marseille","lat":43.30531,"lon":5.36706,"is_reserved":false,"is_disabled":false,"rental_uris":{"android":"levelo://app?vid=eabb42e4-b174-4508-8c54-7b1626eb1367","ios":"levelo://app?vid=eabb42e4-b174-4508-8c54-7b1626eb1367"},"vehicle_type_id":"4","last_reported":1723572694,"current_range_meters":0,"station_id":"ce4bgrp2rcd13ifvqc9g","pricing_plan_id":"cebpf4jnsgd1na2vs0mg"},{"bike_id":"a8ea3bc7-ed44-406d-b1b9-7d1ad8a45228","system_id":"levelo_inurba_marseille","lat":43.311131,"lon":5.377651,"is_reserved":false,"is_disabled":false,"rental_uris":{"android":"levelo://app?vid=a8ea3bc7-ed44-406d-b1b9-7d1ad8a45228","ios":"levelo://app?vid=a8ea3bc7-ed44-406d-b1b9-7d1ad8a45228"},"vehicle_type_id":"4","last_reported":1723572694,"current_range_meters":3200,"station_id":"ce4bgt92rcd13ifvqcg0","pricing_plan_id":"cebpf4jnsgd1na2vs0mg"},{"bike_id":"de39d614-6aed-4821-8555-fd75c8d6c330","system_id":"levelo_inurba_marseille","lat":43.317075,"lon":5.377367,"is_reserved":false,"is_disabled":false,"rental_uris":{"android":"levelo://app?vid=de39d614-6aed-4821-8555-fd75c8d6c330","ios":"levelo://app?vid=de39d614-6aed-4821-8555-fd75c8d6c330"},"vehicle_type_id":"4","last_reported":1723572694,"current_range_meters":2000,"station_id":"ce4bgth2rcd13ifvqch0","pricing_plan_id":"cebpf4jnsgd1na2vs0mg"},{"bike_id":"f27bde69-f579-4adb-ae1d-f833fe185ff6","system_id":"levelo_inurba_marseille","lat":43.317075,"lon":5.377367,"is_reserved":false,"is_disabled":false,"rental_uris":{"android":"levelo://app?vid=f27bde69-f579-4adb-ae1d-f833fe185ff6","ios":"levelo://app?vid=f27bde69-f579-4adb-ae1d-f833fe185ff6"},"vehicle_type_id":"4","last_reported":1723572694,"current_range_meters":6400,"station_id":"ce4bgth2rcd13ifvqch0","pricing_plan_id":"cebpf4jnsgd1na2vs0mg"},{"bike_id":"4fef5692-bba9-460a-a774-7053515df4ac","system_id":"levelo_inurba_marseille","lat":43.31362,"lon":5.37915,"is_reserved":false,"is_disabled":false,"rental_uris":{"android":"levelo://app?vid=4fef5692-bba9-460a-a774-7053515df4ac","ios":"levelo://app?vid=4fef5692-bba9-460a-a774-7053515df4ac"},"vehicle_type_id":"4","last_reported":1723572694,"current_range_meters":4400,"station_id":"","pricing_plan_id":"cebpf4jnsgd1na2vs0mg"},{"bike_id":"069fb723-fcb8-440c-ad29-76ff4868d8a5","system_id":"levelo_inurba_marseille","lat":43.31359,"lon":5.37919,"is_reserved":false,"is_disabled":false,"rental_uris":{"android":"levelo://app?vid=069fb723-fcb8-440c-ad29-76ff4868d8a5","ios":"levelo://app?vid=069fb723-fcb8-440c-ad29-76ff4868d8a5"},"vehicle_type_id":"4","last_reported":1723572694,"current_range_meters":14800,"station_id":"","pricing_plan_id":"cebpf4jnsgd1na2vs0mg"},{"bike_id":"e7b2bf90-071a-497e-a7b8-5d577dec8dd8","system_id":"levelo_inurba_marseille","lat":43.3137,"lon":5.3792,"is_reserved":false,"is_disabled":false,"rental_uris":{"android":"levelo://app?vid=e7b2bf90-071a-497e-a7b8-5d577dec8dd8","ios":"levelo://app?vid=e7b2bf90-071a-497e-a7b8-5d577dec8dd8"},"vehicle_type_id":"4","last_reported":1723572694,"current_range_meters":17600,"station_id":"","pricing_plan_id":"cebpf4jnsgd1na2vs0mg"},{"bike_id":"e43d9e2c-9d56-4741-96c8-9ef311a5fe37","system_id":"levelo_inurba_marseille","lat":43.308653,"lon":5.378623,"is_reserved":false,"is_disabled":false,"rental_uris":{"android":"levelo://app?vid=e43d9e2c-9d56-4741-96c8-9ef311a5fe37","ios":"levelo://app?vid=e43d9e2c-9d56-4741-96c8-9ef311a5fe37"},"vehicle_type_id":"4","last_reported":1723572694,"current_range_meters":15200,"station_id":"","pricing_plan_id":"cebpf4jnsgd1na2vs0mg"},{"bike_id":"e334a42f-75f1-4e3c-a6af-2b5d24327085","system_id":"levelo_inurba_marseille","lat":43.303046,"lon":5.368981,"is_reserved":false,"is_disabled":false,"rental_uris":{"android":"levelo://app?vid=e334a42f-75f1-4e3c-a6af-2b5d24327085","ios":"levelo://app?vid=e334a42f-75f1-4e3c-a6af-2b5d24327085"},"vehicle_type_id":"4","last_reported":1723572694,"current_range_meters":3600,"station_id":"ce4bgqh2rcd13ifvqc5g","pricing_plan_id":"cebpf4jnsgd1na2vs0mg"},{"bike_id":"92a1c3a4-5393-45c4-9c50-5c0d0adcfb4b","system_id":"levelo_inurba_marseille","lat":43.315289,"lon":5.380349,"is_reserved":false,"is_disabled":false,"rental_uris":{"android":"levelo://app?vid=92a1c3a4-5393-45c4-9c50-5c0d0adcfb4b","ios":"levelo://app?vid=92a1c3a4-5393-45c4-9c50-5c0d0adcfb4b"},"vehicle_type_id":"4","last_reported":1723572694,"current_range_meters":0,"station_id":"ce4bhsp2rcd13ifvqi50","pricing_plan_id":"cebpf4jnsgd1na2vs0mg"},{"bike_id":"72ba4901-48ed-4966-8084-43caecc5775a","system_id":"levelo_inurba_marseille","lat":43.30196,"lon":5.36621,"is_reserved":false,"is_disabled":false,"rental_uris":{"android":"levelo://app?vid=72ba4901-48ed-4966-8084-43caecc5775a","ios":"levelo://app?vid=72ba4901-48ed-4966-8084-43caecc5775a"},"vehicle_type_id":"4","last_reported":1723572694,"current_range_meters":31200,"station_id":"ce4bgrh2rcd13ifvqc8g","pricing_plan_id":"cebpf4jnsgd1na2vs0mg"},{"bike_id":"3217b4cc-db23-4e96-b7f6-6e2e0258be46","system_id":"levelo_inurba_marseille","lat":43.324771,"lon":5.36557,"is_reserved":false,"is_disabled":false,"rental_uris":{"android":"levelo://app?vid=3217b4cc-db23-4e96-b7f6-6e2e0258be46","ios":"levelo://app?vid=3217b4cc-db23-4e96-b7f6-6e2e0258be46"},"vehicle_type_id":"4","last_reported":1723572694,"current_range_meters":24000,"station_id":"ce4bhs12rcd13ifvqhvg","pricing_plan_id":"cebpf4jnsgd1na2vs0mg"},{"bike_id":"4136fdda-985e-46d0-b7d7-5062d309752c","system_id":"levelo_inurba_marseille","lat":43.324771,"lon":5.36557,"is_reserved":false,"is_disabled":false,"rental_uris":{"android":"levelo://app?vid=4136fdda-985e-46d0-b7d7-5062d309752c","ios":"levelo://app?vid=4136fdda-985e-46d0-b7d7-5062d309752c"},"vehicle_type_id":"4","last_reported":1723572694,"current_range_meters":4400,"station_id":"ce4bhs12rcd13ifvqhvg","pricing_plan_id":"cebpf4jnsgd1na2vs0mg"},{"bike_id":"ec43ee6c-fdf1-46a8-bab9-a0712bf7de62","system_id":"levelo_inurba_marseille","lat":43.324771,"lon":5.36557,"is_reserved":false,"is_disabled":false,"rental_uris":{"android":"levelo://app?vid=ec43ee6c-fdf1-46a8-bab9-a0712bf7de62","ios":"levelo://app?vid=ec43ee6c-fdf1-46a8-bab9-a0712bf7de62"},"vehicle_type_id":"4","last_reported":1723572694,"current_range_meters":32000,"station_id":"ce4bhs12rcd13ifvqhvg","pricing_plan_id":"cebpf4jnsgd1na2vs0mg"},{"bike_id":"41791470-67e4-4870-a2eb-2182c4752f43","system_id":"levelo_inurba_marseille","lat":43.310804,"lon":5.38359,"is_reserved":false,"is_disabled":false,"rental_uris":{"android":"levelo://app?vid=41791470-67e4-4870-a2eb-2182c4752f43","ios":"levelo://app?vid=41791470-67e4-4870-a2eb-2182c4752f43"},"vehicle_type_id":"4","last_reported":1723572694,"current_range_meters":4000,"station_id":"ce4bgv92rcd13ifvqcr0","pricing_plan_id":"cebpf4jnsgd1na2vs0mg"},{"bike_id":"096b897c-57d6-4cd1-a68c-d7e67380baff","system_id":"levelo_inurba_marseille","lat":43.301429,"lon":5.37413,"is_reserved":false,"is_disabled":false,"rental_uris":{"android":"levelo://app?vid=096b897c-57d6-4cd1-a68c-d7e67380baff","ios":"levelo://app?vid=096b897c-57d6-4cd1-a68c-d7e67380baff"},"vehicle_type_id":"4","last_reported":1723572694,"current_range_meters":12800,"station_id":"ce4bgs92rcd13ifvqcc0","pricing_plan_id":"cebpf4jnsgd1na2vs0mg"},{"bike_id":"297abe88-38e0-42a2-9310-4a556a51f141","system_id":"levelo_inurba_marseille","lat":43.301429,"lon":5.37413,"is_reserved":false,"is_disabled":false,"rental_uris":{"android":"levelo://app?vid=297abe88-38e0-42a2-9310-4a556a51f141","ios":"levelo://app?vid=297abe88-38e0-42a2-9310-4a556a51f141"},"vehicle_type_id":"4","last_reported":1723572694,"current_range_meters":6400,"station_id":"ce4bgs92rcd13ifvqcc0","pricing_plan_id":"cebpf4jnsgd1na2vs0mg"},{"bike_id":"021395d2-049c-4f1f-8cfd-a3bd9cc43c74","system_id":"levelo_inurba_marseille","lat":43.302784,"lon":5.377158,"is_reserved":false,"is_disabled":false,"rental_uris":{"android":"levelo://app?vid=021395d2-049c-4f1f-8cfd-a3bd9cc43c74","ios":"levelo://app?vid=021395d2-049c-4f1f-8cfd-a3bd9cc43c74"},"vehicle_type_id":"4","last_reported":1723572694,"current_range_meters":0,"station_id":"ce4bguh2rcd13ifvqcj0","pricing_plan_id":"cebpf4jnsgd1na2vs0mg"},{"bike_id":"51a1cd39-3d5b-4255-9dc7-054f06bf1302","system_id":"levelo_inurba_marseille","lat":43.30143,"lon":5.37413,"is_reserved":false,"is_disabled":false,"rental_uris":{"android":"levelo://app?vid=51a1cd39-3d5b-4255-9dc7-054f06bf1302","ios":"levelo://app?vid=51a1cd39-3d5b-4255-9dc7-054f06bf1302"},"vehicle_type_id":"4","last_reported":1723572694,"current_range_meters":31600,"station_id":"ce4bgs92rcd13ifvqcc0","pricing_plan_id":"cebpf4jnsgd1na2vs0mg"},{"bike_id":"12b99780-2045-44f6-9a8c-7099fee7df4e","system_id":"levelo_inurba_marseille","lat":43.319935,"lon":5.381699,"is_reserved":false,"is_disabled":false,"rental_uris":{"android":"levelo://app?vid=12b99780-2045-44f6-9a8c-7099fee7df4e","ios":"levelo://app?vid=12b99780-2045-44f6-9a8c-7099fee7df4e"},"vehicle_type_id":"4","last_reported":1723572694,"current_range_meters":4800,"station_id":"ce4bhr12rcd13ifvqhpg","pricing_plan_id":"cebpf4jnsgd1na2vs0mg"},{"bike_id":"edfb23d0-c564-4dd7-944b-a9ea43721793","system_id":"levelo_inurba_marseille","lat":43.319935,"lon":5.381699,"is_reserved":false,"is_disabled":false,"rental_uris":{"android":"levelo://app?vid=edfb23d0-c564-4dd7-944b-a9ea43721793","ios":"levelo://app?vid=edfb23d0-c564-4dd7-944b-a9ea43721793"},"vehicle_type_id":"4","last_reported":1723572694,"current_range_meters":10800,"station_id":"ce4bhr12rcd13ifvqhpg","pricing_plan_id":"cebpf4jnsgd1na2vs0mg"},{"bike_id":"2b6d437c-e657-4ba9-87fb-1dbc83cfba1a","system_id":"levelo_inurba_marseille","lat":43.319935,"lon":5.381699,"is_reserved":false,"is_disabled":false,"rental_uris":{"android":"levelo://app?vid=2b6d437c-e657-4ba9-87fb-1dbc83cfba1a","ios":"levelo://app?vid=2b6d437c-e657-4ba9-87fb-1dbc83cfba1a"},"vehicle_type_id":"4","last_reported":1723572694,"current_range_meters":22400,"station_id":"ce4bhr12rcd13ifvqhpg","pricing_plan_id":"cebpf4jnsgd1na2vs0mg"},{"bike_id":"c80d8a89-9426-4bef-9706-cd4442558b1a","system_id":"levelo_inurba_marseille","lat":43.31368,"lon":5.38489,"is_reserved":false,"is_disabled":false,"rental_uris":{"android":"levelo://app?vid=c80d8a89-9426-4bef-9706-cd4442558b1a","ios":"levelo://app?vid=c80d8a89-9426-4bef-9706-cd4442558b1a"},"vehicle_type_id":"4","last_reported":1723572694,"current_range_meters":14800,"station_id":"ce4bgt92rcd13ifvqcf0","pricing_plan_id":"cebpf4jnsgd1na2vs0mg"},{"bike_id":"786ecc5c-8ee5-49d7-bbe4-7a332d821de4","system_id":"levelo_inurba_marseille","lat":43.313647,"lon":5.38501,"is_reserved":false,"is_disabled":false,"rental_uris":{"android":"levelo://app?vid=786ecc5c-8ee5-49d7-bbe4-7a332d821de4","ios":"levelo://app?vid=786ecc5c-8ee5-49d7-bbe4-7a332d821de4"},"vehicle_type_id":"4","last_reported":1723572694,"current_range_meters":2000,"station_id":"ce4bgt92rcd13ifvqcf0","pricing_plan_id":"cebpf4jnsgd1na2vs0mg"},{"bike_id":"3a55b5ad-e1ae-4856-b4b8-23755f657c56","system_id":"levelo_inurba_marseille","lat":43.299222,"lon":5.365554,"is_reserved":false,"is_disabled":false,"rental_uris":{"android":"levelo://app?vid=3a55b5ad-e1ae-4856-b4b8-23755f657c56","ios":"levelo://app?vid=3a55b5ad-e1ae-4856-b4b8-23755f657c56"},"vehicle_type_id":"4","last_reported":1723572694,"current_range_meters":1200,"station_id":"ce4bgm92rcd13ifvqbr0","pricing_plan_id":"cebpf4jnsgd1na2vs0mg"},{"bike_id":"ce7a47ff-dfab-4a8a-a71d-4597fa755ef7","system_id":"levelo_inurba_marseille","lat":43.299385,"lon":5.365472,"is_reserved":false,"is_disabled":false,"rental_uris":{"android":"levelo://app?vid=ce7a47ff-dfab-4a8a-a71d-4597fa755ef7","ios":"levelo://app?vid=ce7a47ff-dfab-4a8a-a71d-4597fa755ef7"},"vehicle_type_id":"4","last_reported":1723572694,"current_range_meters":22800,"station_id":"ce4bgm92rcd13ifvqbr0","pricing_plan_id":"cebpf4jnsgd1na2vs0mg"},{"bike_id":"2fa90750-0a3f-4977-b36a-0c8ba442b024","system_id":"levelo_inurba_marseille","lat":43.299222,"lon":5.365554,"is_reserved":false,"is_disabled":false,"rental_uris":{"android":"levelo://app?vid=2fa90750-0a3f-4977-b36a-0c8ba442b024","ios":"levelo://app?vid=2fa90750-0a3f-4977-b36a-0c8ba442b024"},"vehicle_type_id":"4","last_reported":1723572694,"current_range_meters":31200,"station_id":"ce4bgm92rcd13ifvqbr0","pricing_plan_id":"cebpf4jnsgd1na2vs0mg"},{"bike_id":"fd667c63-0e5d-417d-80dc-ad556989b6a4","system_id":"levelo_inurba_marseille","lat":43.299724,"lon":5.371829,"is_reserved":false,"is_disabled":false,"rental_uris":{"android":"levelo://app?vid=fd667c63-0e5d-417d-80dc-ad556989b6a4","ios":"levelo://app?vid=fd667c63-0e5d-417d-80dc-ad556989b6a4"},"vehicle_type_id":"4","last_reported":1723572694,"current_range_meters":9600,"station_id":"ce4bgr92rcd13ifvqc7g","pricing_plan_id":"cebpf4jnsgd1na2vs0mg"},{"bike_id":"4462c483-6ad5-4b74-8229-63a007d9a945","system_id":"levelo_inurba_marseille","lat":43.32674,"lon":5.36722,"is_reserved":false,"is_disabled":false,"rental_uris":{"android":"levelo://app?vid=4462c483-6ad5-4b74-8229-63a007d9a945","ios":"levelo://app?vid=4462c483-6ad5-4b74-8229-63a007d9a945"},"vehicle_type_id":"4","last_reported":1723572694,"current_range_meters":15600,"station_id":"","pricing_plan_id":"cebpf4jnsgd1na2vs0mg"},{"bike_id":"0524fcfc-ce3a-4d21-93c8-5c5c937e83fd","system_id":"levelo_inurba_marseille","lat":43.30178,"lon":5.37971,"is_reserved":false,"is_disabled":false,"rental_uris":{"android":"levelo://app?vid=0524fcfc-ce3a-4d21-93c8-5c5c937e83fd","ios":"levelo://app?vid=0524fcfc-ce3a-4d21-93c8-5c5c937e83fd"},"vehicle_type_id":"4","last_reported":1723572694,"current_range_meters":16400,"station_id":"","pricing_plan_id":"cebpf4jnsgd1na2vs0mg"},{"bike_id":"6e4fd6af-acc7-475b-92d1-dc38ac54474b","system_id":"levelo_inurba_marseille","lat":43.29849,"lon":5.36285,"is_reserved":false,"is_disabled":false,"rental_uris":{"android":"levelo://app?vid=6e4fd6af-acc7-475b-92d1-dc38ac54474b","ios":"levelo://app?vid=6e4fd6af-acc7-475b-92d1-dc38ac54474b"},"vehicle_type_id":"4","last_reported":1723572694,"current_range_meters":26000,"station_id":"ce4bgpp2rcd13ifvqc3g","pricing_plan_id":"cebpf4jnsgd1na2vs0mg"},{"bike_id":"5582fc4d-12b0-4c8e-a011-d9161d4b3a8d","system_id":"levelo_inurba_marseille","lat":43.298433,"lon":5.362774,"is_reserved":false,"is_disabled":false,"rental_uris":{"android":"levelo://app?vid=5582fc4d-12b0-4c8e-a011-d9161d4b3a8d","ios":"levelo://app?vid=5582fc4d-12b0-4c8e-a011-d9161d4b3a8d"},"vehicle_type_id":"4","last_reported":1723572694,"current_range_meters":0,"station_id":"ce4bgpp2rcd13ifvqc3g","pricing_plan_id":"cebpf4jnsgd1na2vs0mg"},{"bike_id":"2665ddf7-bef0-40c6-ad66-e852ea2d259d","system_id":"levelo_inurba_marseille","lat":43.299243,"lon":5.374807,"is_reserved":false,"is_disabled":false,"rental_uris":{"android":"levelo://app?vid=2665ddf7-bef0-40c6-ad66-e852ea2d259d","ios":"levelo://app?vid=2665ddf7-bef0-40c6-ad66-e852ea2d259d"},"vehicle_type_id":"4","last_reported":1723572694,"current_range_meters":7600,"station_id":"ce4bgjh2rcd13ifvqbg0","pricing_plan_id":"cebpf4jnsgd1na2vs0mg"},{"bike_id":"62a0f379-f615-447f-92e9-bca20fdb598d","system_id":"levelo_inurba_marseille","lat":43.29913,"lon":5.3757,"is_reserved":false,"is_disabled":false,"rental_uris":{"android":"levelo://app?vid=62a0f379-f615-447f-92e9-bca20fdb598d","ios":"levelo://app?vid=62a0f379-f615-447f-92e9-bca20fdb598d"},"vehicle_type_id":"4","last_reported":1723572694,"current_range_meters":4800,"station_id":"","pricing_plan_id":"cebpf4jnsgd1na2vs0mg"},{"bike_id":"ebfb74f5-4c53-498a-980d-adbf323598cf","system_id":"levelo_inurba_marseille","lat":43.297774,"lon":5.370875,"is_reserved":false,"is_disabled":false,"rental_uris":{"android":"levelo://app?vid=ebfb74f5-4c53-498a-980d-adbf323598cf","ios":"levelo://app?vid=ebfb74f5-4c53-498a-980d-adbf323598cf"},"vehicle_type_id":"4","last_reported":1723572694,"current_range_meters":11600,"station_id":"ce4bgop2rcd13ifvqc1g","pricing_plan_id":"cebpf4jnsgd1na2vs0mg"},{"bike_id":"d7c84610-3ae8-40f4-97bd-ac5a02a06485","system_id":"levelo_inurba_marseille","lat":43.297163,"lon":5.365866,"is_reserved":false,"is_disabled":false,"rental_uris":{"android":"levelo://app?vid=d7c84610-3ae8-40f4-97bd-ac5a02a06485","ios":"levelo://app?vid=d7c84610-3ae8-40f4-97bd-ac5a02a06485"},"vehicle_type_id":"4","last_reported":1723572694,"current_range_meters":10800,"station_id":"ce4bgn12rcd13ifvqbt0","pricing_plan_id":"cebpf4jnsgd1na2vs0mg"},{"bike_id":"89670e2f-8924-4290-8d06-c143dcfea1b2","system_id":"levelo_inurba_marseille","lat":43.29716,"lon":5.36877,"is_reserved":false,"is_disabled":false,"rental_uris":{"android":"levelo://app?vid=89670e2f-8924-4290-8d06-c143dcfea1b2","ios":"levelo://app?vid=89670e2f-8924-4290-8d06-c143dcfea1b2"},"vehicle_type_id":"4","last_reported":1723572694,"current_range_meters":2400,"station_id":"","pricing_plan_id":"cebpf4jnsgd1na2vs0mg"},{"bike_id":"97d4c31f-1d49-4436-a103-1042fa8d1b4a","system_id":"levelo_inurba_marseille","lat":43.2968,"lon":5.37291,"is_reserved":false,"is_disabled":false,"rental_uris":{"android":"levelo://app?vid=97d4c31f-1d49-4436-a103-1042fa8d1b4a","ios":"levelo://app?vid=97d4c31f-1d49-4436-a103-1042fa8d1b4a"},"vehicle_type_id":"4","last_reported":1723572694,"current_range_meters":26000,"station_id":"ce4bgk12rcd13ifvqbj0","pricing_plan_id":"cebpf4jnsgd1na2vs0mg"},{"bike_id":"49204d73-6a09-43a6-8441-cb5af3a4f17d","system_id":"levelo_inurba_marseille","lat":43.322673,"lon":5.385257,"is_reserved":false,"is_disabled":false,"rental_uris":{"android":"levelo://app?vid=49204d73-6a09-43a6-8441-cb5af3a4f17d","ios":"levelo://app?vid=49204d73-6a09-43a6-8441-cb5af3a4f17d"},"vehicle_type_id":"4","last_reported":1723572694,"current_range_meters":7600,"station_id":"","pricing_plan_id":"cebpf4jnsgd1na2vs0mg"},{"bike_id":"56325a19-f1bc-40cc-bca6-b8cc08d2a7f3","system_id":"levelo_inurba_marseille","lat":43.29573,"lon":5.367355,"is_reserved":false,"is_disabled":false,"rental_uris":{"android":"levelo://app?vid=56325a19-f1bc-40cc-bca6-b8cc08d2a7f3","ios":"levelo://app?vid=56325a19-f1bc-40cc-bca6-b8cc08d2a7f3"},"vehicle_type_id":"4","last_reported":1723572694,"current_range_meters":10400,"station_id":"ce4bgph2rcd13ifvqc2g","pricing_plan_id":"cebpf4jnsgd1na2vs0mg"},{"bike_id":"fd056494-1ca0-48ee-8331-d1e443f55afc","system_id":"levelo_inurba_marseille","lat":43.323256,"lon":5.384996,"is_reserved":false,"is_disabled":false,"rental_uris":{"android":"levelo://app?vid=fd056494-1ca0-48ee-8331-d1e443f55afc","ios":"levelo://app?vid=fd056494-1ca0-48ee-8331-d1e443f55afc"},"vehicle_type_id":"4","last_reported":1723572694,"current_range_meters":19600,"station_id":"","pricing_plan_id":"cebpf4jnsgd1na2vs0mg"},{"bike_id":"bde056fd-beda-4974-8223-5e4c4d80d749","system_id":"levelo_inurba_marseille","lat":43.29573,"lon":5.367355,"is_reserved":false,"is_disabled":false,"rental_uris":{"android":"levelo://app?vid=bde056fd-beda-4974-8223-5e4c4d80d749","ios":"levelo://app?vid=bde056fd-beda-4974-8223-5e4c4d80d749"},"vehicle_type_id":"4","last_reported":1723572694,"current_range_meters":29600,"station_id":"ce4bgph2rcd13ifvqc2g","pricing_plan_id":"cebpf4jnsgd1na2vs0mg"},{"bike_id":"037f0c42-c50d-4919-8ff1-c5f3159e8883","system_id":"levelo_inurba_marseille","lat":43.29573,"lon":5.367355,"is_reserved":false,"is_disabled":false,"rental_uris":{"android":"levelo://app?vid=037f0c42-c50d-4919-8ff1-c5f3159e8883","ios":"levelo://app?vid=037f0c42-c50d-4919-8ff1-c5f3159e8883"},"vehicle_type_id":"4","last_reported":1723572694,"current_range_meters":29600,"station_id":"ce4bgph2rcd13ifvqc2g","pricing_plan_id":"cebpf4jnsgd1na2vs0mg"},{"bike_id":"bbfb865d-259d-4f07-bb21-f6e28162769f","system_id":"levelo_inurba_marseille","lat":43.29573,"lon":5.367355,"is_reserved":false,"is_disabled":false,"rental_uris":{"android":"levelo://app?vid=bbfb865d-259d-4f07-bb21-f6e28162769f","ios":"levelo://app?vid=bbfb865d-259d-4f07-bb21-f6e28162769f"},"vehicle_type_id":"4","last_reported":1723572694,"current_range_meters":8400,"station_id":"ce4bgph2rcd13ifvqc2g","pricing_plan_id":"cebpf4jnsgd1na2vs0mg"},{"bike_id":"da83048c-85dd-47ae-a812-18890b032c08","system_id":"levelo_inurba_marseille","lat":43.2972,"lon":5.3769,"is_reserved":false,"is_disabled":false,"rental_uris":{"android":"levelo://app?vid=da83048c-85dd-47ae-a812-18890b032c08","ios":"levelo://app?vid=da83048c-85dd-47ae-a812-18890b032c08"},"vehicle_type_id":"4","last_reported":1723572694,"current_range_meters":0,"station_id":"ce4bgkh2rcd13ifvqbl0","pricing_plan_id":"cebpf4jnsgd1na2vs0mg"},{"bike_id":"f89fb044-bac3-4661-81f2-174a2ff0346a","system_id":"levelo_inurba_marseille","lat":43.29711,"lon":5.37679,"is_reserved":false,"is_disabled":false,"rental_uris":{"android":"levelo://app?vid=f89fb044-bac3-4661-81f2-174a2ff0346a","ios":"levelo://app?vid=f89fb044-bac3-4661-81f2-174a2ff0346a"},"vehicle_type_id":"4","last_reported":1723572694,"current_range_meters":8400,"station_id":"ce4bgkh2rcd13ifvqbl0","pricing_plan_id":"cebpf4jnsgd1na2vs0mg"},{"bike_id":"b79f811b-dc2d-441b-86e7-7a33a66b519f","system_id":"levelo_inurba_marseille","lat":43.309589,"lon":5.390258,"is_reserved":false,"is_disabled":false,"rental_uris":{"android":"levelo://app?vid=b79f811b-dc2d-441b-86e7-7a33a66b519f","ios":"levelo://app?vid=b79f811b-dc2d-441b-86e7-7a33a66b519f"},"vehicle_type_id":"4","last_reported":1723572694,"current_range_meters":800,"station_id":"ce4bgup2rcd13ifvqco0","pricing_plan_id":"cebpf4jnsgd1na2vs0mg"},{"bike_id":"b201e306-76a7-4178-bac6-0580c3709de8","system_id":"levelo_inurba_marseille","lat":43.298037,"lon":5.381066,"is_reserved":false,"is_disabled":false,"rental_uris":{"android":"levelo://app?vid=b201e306-76a7-4178-bac6-0580c3709de8","ios":"levelo://app?vid=b201e306-76a7-4178-bac6-0580c3709de8"},"vehicle_type_id":"4","last_reported":1723572694,"current_range_meters":5600,"station_id":"ce4bgip2rcd13ifvqbb0","pricing_plan_id":"cebpf4jnsgd1na2vs0mg"},{"bike_id":"1a097243-f513-4bce-8a52-08b3572396ff","system_id":"levelo_inurba_marseille","lat":43.298037,"lon":5.381066,"is_reserved":false,"is_disabled":false,"rental_uris":{"android":"levelo://app?vid=1a097243-f513-4bce-8a52-08b3572396ff","ios":"levelo://app?vid=1a097243-f513-4bce-8a52-08b3572396ff"},"vehicle_type_id":"4","last_reported":1723572694,"current_range_meters":17200,"station_id":"ce4bgip2rcd13ifvqbb0","pricing_plan_id":"cebpf4jnsgd1na2vs0mg"},{"bike_id":"c188c45d-2248-4e4c-ac84-9be1ccaa4043","system_id":"levelo_inurba_marseille","lat":43.295279,"lon":5.375048,"is_reserved":false,"is_disabled":false,"rental_uris":{"android":"levelo://app?vid=c188c45d-2248-4e4c-ac84-9be1ccaa4043","ios":"levelo://app?vid=c188c45d-2248-4e4c-ac84-9be1ccaa4043"},"vehicle_type_id":"4","last_reported":1723572694,"current_range_meters":21200,"station_id":"ce4bgkp2rcd13ifvqbmg","pricing_plan_id":"cebpf4jnsgd1na2vs0mg"},{"bike_id":"76a5f607-fd69-435a-ba30-8644d5cab6d9","system_id":"levelo_inurba_marseille","lat":43.29973,"lon":5.38487,"is_reserved":false,"is_disabled":false,"rental_uris":{"android":"levelo://app?vid=76a5f607-fd69-435a-ba30-8644d5cab6d9","ios":"levelo://app?vid=76a5f607-fd69-435a-ba30-8644d5cab6d9"},"vehicle_type_id":"4","last_reported":1723572694,"current_range_meters":10800,"station_id":"ce4bgj92rcd13ifvqbd0","pricing_plan_id":"cebpf4jnsgd1na2vs0mg"},{"bike_id":"09d0f4b5-136d-4b96-b8d0-5c043c7d343a","system_id":"levelo_inurba_marseille","lat":43.29969,"lon":5.3849,"is_reserved":false,"is_disabled":false,"rental_uris":{"android":"levelo://app?vid=09d0f4b5-136d-4b96-b8d0-5c043c7d343a","ios":"levelo://app?vid=09d0f4b5-136d-4b96-b8d0-5c043c7d343a"},"vehicle_type_id":"4","last_reported":1723572694,"current_range_meters":13600,"station_id":"ce4bgj92rcd13ifvqbd0","pricing_plan_id":"cebpf4jnsgd1na2vs0mg"},{"bike_id":"abbf47a4-50ca-4849-990b-63da1f2c7d2e","system_id":"levelo_inurba_marseille","lat":43.295279,"lon":5.375048,"is_reserved":false,"is_disabled":false,"rental_uris":{"android":"levelo://app?vid=abbf47a4-50ca-4849-990b-63da1f2c7d2e","ios":"levelo://app?vid=abbf47a4-50ca-4849-990b-63da1f2c7d2e"},"vehicle_type_id":"4","last_reported":1723572694,"current_range_meters":30800,"station_id":"ce4bgkp2rcd13ifvqbmg","pricing_plan_id":"cebpf4jnsgd1na2vs0mg"},{"bike_id":"99a8c6ac-2a77-4cea-9941-d24972b68bb2","system_id":"levelo_inurba_marseille","lat":43.295279,"lon":5.375048,"is_reserved":false,"is_disabled":false,"rental_uris":{"android":"levelo://app?vid=99a8c6ac-2a77-4cea-9941-d24972b68bb2","ios":"levelo://app?vid=99a8c6ac-2a77-4cea-9941-d24972b68bb2"},"vehicle_type_id":"4","last_reported":1723572694,"current_range_meters":22800,"station_id":"ce4bgkp2rcd13ifvqbmg","pricing_plan_id":"cebpf4jnsgd1na2vs0mg"},{"bike_id":"c3c5a9f1-bf8b-4882-8618-1e2bacdd4a19","system_id":"levelo_inurba_marseille","lat":43.29602,"lon":5.381084,"is_reserved":false,"is_disabled":false,"rental_uris":{"android":"levelo://app?vid=c3c5a9f1-bf8b-4882-8618-1e2bacdd4a19","ios":"levelo://app?vid=c3c5a9f1-bf8b-4882-8618-1e2bacdd4a19"},"vehicle_type_id":"4","last_reported":1723572694,"current_range_meters":6800,"station_id":"ce4bgl12rcd13ifvqbo0","pricing_plan_id":"cebpf4jnsgd1na2vs0mg"},{"bike_id":"b4f2c0a0-ff56-4218-b0e5-3b62a842665b","system_id":"levelo_inurba_marseille","lat":43.29602,"lon":5.381084,"is_reserved":false,"is_disabled":false,"rental_uris":{"android":"levelo://app?vid=b4f2c0a0-ff56-4218-b0e5-3b62a842665b","ios":"levelo://app?vid=b4f2c0a0-ff56-4218-b0e5-3b62a842665b"},"vehicle_type_id":"4","last_reported":1723572694,"current_range_meters":24400,"station_id":"ce4bgl12rcd13ifvqbo0","pricing_plan_id":"cebpf4jnsgd1na2vs0mg"},{"bike_id":"ea3ee229-4a96-40d7-8319-acad7fdb35f7","system_id":"levelo_inurba_marseille","lat":43.29591,"lon":5.38097,"is_reserved":false,"is_disabled":false,"rental_uris":{"android":"levelo://app?vid=ea3ee229-4a96-40d7-8319-acad7fdb35f7","ios":"levelo://app?vid=ea3ee229-4a96-40d7-8319-acad7fdb35f7"},"vehicle_type_id":"4","last_reported":1723572694,"current_range_meters":0,"station_id":"ce4bgl12rcd13ifvqbo0","pricing_plan_id":"cebpf4jnsgd1na2vs0mg"},{"bike_id":"294ccb1e-8abc-4dd8-81b4-8dae91b5c818","system_id":"levelo_inurba_marseille","lat":43.292749,"lon":5.368402,"is_reserved":false,"is_disabled":false,"rental_uris":{"android":"levelo://app?vid=294ccb1e-8abc-4dd8-81b4-8dae91b5c818","ios":"levelo://app?vid=294ccb1e-8abc-4dd8-81b4-8dae91b5c818"},"vehicle_type_id":"4","last_reported":1723572694,"current_range_meters":3200,"station_id":"ce4bhbp2rcd13ifvqesg","pricing_plan_id":"cebpf4jnsgd1na2vs0mg"},{"bike_id":"58fbe331-6216-41f0-8a63-ea7782274873","system_id":"levelo_inurba_marseille","lat":43.292807,"lon":5.36849,"is_reserved":false,"is_disabled":false,"rental_uris":{"android":"levelo://app?vid=58fbe331-6216-41f0-8a63-ea7782274873","ios":"levelo://app?vid=58fbe331-6216-41f0-8a63-ea7782274873"},"vehicle_type_id":"4","last_reported":1723572694,"current_range_meters":400,"station_id":"ce4bhbp2rcd13ifvqesg","pricing_plan_id":"cebpf4jnsgd1na2vs0mg"},{"bike_id":"da133975-3bcd-4f7e-8f06-d21ae9cb02a2","system_id":"levelo_inurba_marseille","lat":43.29276,"lon":5.36852,"is_reserved":false,"is_disabled":false,"rental_uris":{"android":"levelo://app?vid=da133975-3bcd-4f7e-8f06-d21ae9cb02a2","ios":"levelo://app?vid=da133975-3bcd-4f7e-8f06-d21ae9cb02a2"},"vehicle_type_id":"4","last_reported":1723572694,"current_range_meters":0,"station_id":"ce4bhbp2rcd13ifvqesg","pricing_plan_id":"cebpf4jnsgd1na2vs0mg"},{"bike_id":"96543af9-7889-48bf-9d6b-0217d99ec8c1","system_id":"levelo_inurba_marseille","lat":43.2927,"lon":5.36842,"is_reserved":false,"is_disabled":false,"rental_uris":{"android":"levelo://app?vid=96543af9-7889-48bf-9d6b-0217d99ec8c1","ios":"levelo://app?vid=96543af9-7889-48bf-9d6b-0217d99ec8c1"},"vehicle_type_id":"4","last_reported":1723572694,"current_range_meters":0,"station_id":"ce4bhbp2rcd13ifvqesg","pricing_plan_id":"cebpf4jnsgd1na2vs0mg"},{"bike_id":"eb4610b3-963c-4f9e-9e52-b1f62f47a354","system_id":"levelo_inurba_marseille","lat":43.32387,"lon":5.38996,"is_reserved":false,"is_disabled":false,"rental_uris":{"android":"levelo://app?vid=eb4610b3-963c-4f9e-9e52-b1f62f47a354","ios":"levelo://app?vid=eb4610b3-963c-4f9e-9e52-b1f62f47a354"},"vehicle_type_id":"4","last_reported":1723572694,"current_range_meters":2400,"station_id":"","pricing_plan_id":"cebpf4jnsgd1na2vs0mg"},{"bike_id":"1cd024a9-485e-4935-b3f9-7dc2fb7a9ec8","system_id":"levelo_inurba_marseille","lat":43.29446,"lon":5.37887,"is_reserved":false,"is_disabled":false,"rental_uris":{"android":"levelo://app?vid=1cd024a9-485e-4935-b3f9-7dc2fb7a9ec8","ios":"levelo://app?vid=1cd024a9-485e-4935-b3f9-7dc2fb7a9ec8"},"vehicle_type_id":"4","last_reported":1723572694,"current_range_meters":10400,"station_id":"","pricing_plan_id":"cebpf4jnsgd1na2vs0mg"},{"bike_id":"57ffb2a6-d59f-4276-875a-6d3a77498da9","system_id":"levelo_inurba_marseille","lat":43.29298,"lon":5.37454,"is_reserved":false,"is_disabled":false,"rental_uris":{"android":"levelo://app?vid=57ffb2a6-d59f-4276-875a-6d3a77498da9","ios":"levelo://app?vid=57ffb2a6-d59f-4276-875a-6d3a77498da9"},"vehicle_type_id":"4","last_reported":1723572694,"current_range_meters":0,"station_id":"ce4bgi12rcd13ifvqb70","pricing_plan_id":"cebpf4jnsgd1na2vs0mg"},{"bike_id":"92ced45b-2469-4ffd-bed2-b67bde85ffdf","system_id":"levelo_inurba_marseille","lat":43.29294,"lon":5.37441,"is_reserved":false,"is_disabled":false,"rental_uris":{"android":"levelo://app?vid=92ced45b-2469-4ffd-bed2-b67bde85ffdf","ios":"levelo://app?vid=92ced45b-2469-4ffd-bed2-b67bde85ffdf"},"vehicle_type_id":"4","last_reported":1723572694,"current_range_meters":0,"station_id":"ce4bgi12rcd13ifvqb70","pricing_plan_id":"cebpf4jnsgd1na2vs0mg"},{"bike_id":"b304c2b5-3f2c-4e94-bb12-26fea858ebc5","system_id":"levelo_inurba_marseille","lat":43.29291,"lon":5.37466,"is_reserved":false,"is_disabled":false,"rental_uris":{"android":"levelo://app?vid=b304c2b5-3f2c-4e94-bb12-26fea858ebc5","ios":"levelo://app?vid=b304c2b5-3f2c-4e94-bb12-26fea858ebc5"},"vehicle_type_id":"4","last_reported":1723572694,"current_range_meters":0,"station_id":"ce4bgi12rcd13ifvqb70","pricing_plan_id":"cebpf4jnsgd1na2vs0mg"},{"bike_id":"41dec2ff-f3bf-48dd-a56e-d5b0b2886304","system_id":"levelo_inurba_marseille","lat":43.293009,"lon":5.374584,"is_reserved":false,"is_disabled":false,"rental_uris":{"android":"levelo://app?vid=41dec2ff-f3bf-48dd-a56e-d5b0b2886304","ios":"levelo://app?vid=41dec2ff-f3bf-48dd-a56e-d5b0b2886304"},"vehicle_type_id":"4","last_reported":1723572694,"current_range_meters":0,"station_id":"ce4bgi12rcd13ifvqb70","pricing_plan_id":"cebpf4jnsgd1na2vs0mg"},{"bike_id":"d4b913bc-3240-4a0e-a3d1-715bca487a70","system_id":"levelo_inurba_marseille","lat":43.302992,"lon":5.392136,"is_reserved":false,"is_disabled":false,"rental_uris":{"android":"levelo://app?vid=d4b913bc-3240-4a0e-a3d1-715bca487a70","ios":"levelo://app?vid=d4b913bc-3240-4a0e-a3d1-715bca487a70"},"vehicle_type_id":"4","last_reported":1723572694,"current_range_meters":800,"station_id":"ce4bgkh2rcd13ifvqbk0","pricing_plan_id":"cebpf4jnsgd1na2vs0mg"},{"bike_id":"2749be58-3304-4986-bc7b-04182d7301e5","system_id":"levelo_inurba_marseille","lat":43.302992,"lon":5.392136,"is_reserved":false,"is_disabled":false,"rental_uris":{"android":"levelo://app?vid=2749be58-3304-4986-bc7b-04182d7301e5","ios":"levelo://app?vid=2749be58-3304-4986-bc7b-04182d7301e5"},"vehicle_type_id":"4","last_reported":1723572694,"current_range_meters":26400,"station_id":"ce4bgkh2rcd13ifvqbk0","pricing_plan_id":"cebpf4jnsgd1na2vs0mg"},{"bike_id":"820c9ad7-8a90-4879-83aa-cedb5b5f7a1f","system_id":"levelo_inurba_marseille","lat":43.303002,"lon":5.392142,"is_reserved":false,"is_disabled":false,"rental_uris":{"android":"levelo://app?vid=820c9ad7-8a90-4879-83aa-cedb5b5f7a1f","ios":"levelo://app?vid=820c9ad7-8a90-4879-83aa-cedb5b5f7a1f"},"vehicle_type_id":"4","last_reported":1723572694,"current_range_meters":11200,"station_id":"ce4bgkh2rcd13ifvqbk0","pricing_plan_id":"cebpf4jnsgd1na2vs0mg"},{"bike_id":"5cd79de9-8103-47d5-9e1e-a5aab46167af","system_id":"levelo_inurba_marseille","lat":43.2936,"lon":5.37835,"is_reserved":false,"is_disabled":false,"rental_uris":{"android":"levelo://app?vid=5cd79de9-8103-47d5-9e1e-a5aab46167af","ios":"levelo://app?vid=5cd79de9-8103-47d5-9e1e-a5aab46167af"},"vehicle_type_id":"4","last_reported":1723572694,"current_range_meters":13200,"station_id":"ce4bgjh2rcd13ifvqbf0","pricing_plan_id":"cebpf4jnsgd1na2vs0mg"},{"bike_id":"19d77829-7834-49a1-8944-e06b5ce22dfa","system_id":"levelo_inurba_marseille","lat":43.2936,"lon":5.37835,"is_reserved":false,"is_disabled":false,"rental_uris":{"android":"levelo://app?vid=19d77829-7834-49a1-8944-e06b5ce22dfa","ios":"levelo://app?vid=19d77829-7834-49a1-8944-e06b5ce22dfa"},"vehicle_type_id":"4","last_reported":1723572694,"current_range_meters":29200,"station_id":"ce4bgjh2rcd13ifvqbf0","pricing_plan_id":"cebpf4jnsgd1na2vs0mg"},{"bike_id":"499dc840-2f6f-4130-b771-45009cd7214f","system_id":"levelo_inurba_marseille","lat":43.30085,"lon":5.390856,"is_reserved":false,"is_disabled":false,"rental_uris":{"android":"levelo://app?vid=499dc840-2f6f-4130-b771-45009cd7214f","ios":"levelo://app?vid=499dc840-2f6f-4130-b771-45009cd7214f"},"vehicle_type_id":"4","last_reported":1723572694,"current_range_meters":26800,"station_id":"ce4bh192rcd13ifvqdb0","pricing_plan_id":"cebpf4jnsgd1na2vs0mg"},{"bike_id":"28b5dc01-5fb7-4824-b809-34728217afae","system_id":"levelo_inurba_marseille","lat":43.29225,"lon":5.3606,"is_reserved":false,"is_disabled":false,"rental_uris":{"android":"levelo://app?vid=28b5dc01-5fb7-4824-b809-34728217afae","ios":"levelo://app?vid=28b5dc01-5fb7-4824-b809-34728217afae"},"vehicle_type_id":"4","last_reported":1723572694,"current_range_meters":800,"station_id":"ce4bhbh2rcd13ifvqeqg","pricing_plan_id":"cebpf4jnsgd1na2vs0mg"},{"bike_id":"5933c699-4e55-4a91-9e88-708d2cfaafa9","system_id":"levelo_inurba_marseille","lat":43.30085,"lon":5.390856,"is_reserved":false,"is_disabled":false,"rental_uris":{"android":"levelo://app?vid=5933c699-4e55-4a91-9e88-708d2cfaafa9","ios":"levelo://app?vid=5933c699-4e55-4a91-9e88-708d2cfaafa9"},"vehicle_type_id":"4","last_reported":1723572694,"current_range_meters":21200,"station_id":"ce4bh192rcd13ifvqdb0","pricing_plan_id":"cebpf4jnsgd1na2vs0mg"},{"bike_id":"d966142d-b2cc-49a5-9d56-434d45837c7f","system_id":"levelo_inurba_marseille","lat":43.29222,"lon":5.36057,"is_reserved":false,"is_disabled":false,"rental_uris":{"android":"levelo://app?vid=d966142d-b2cc-49a5-9d56-434d45837c7f","ios":"levelo://app?vid=d966142d-b2cc-49a5-9d56-434d45837c7f"},"vehicle_type_id":"4","last_reported":1723572694,"current_range_meters":0,"station_id":"ce4bhbh2rcd13ifvqeqg","pricing_plan_id":"cebpf4jnsgd1na2vs0mg"},{"bike_id":"634457b1-6e38-4941-a7ba-09486d3a998c","system_id":"levelo_inurba_marseille","lat":43.29197,"lon":5.35807,"is_reserved":false,"is_disabled":false,"rental_uris":{"android":"levelo://app?vid=634457b1-6e38-4941-a7ba-09486d3a998c","ios":"levelo://app?vid=634457b1-6e38-4941-a7ba-09486d3a998c"},"vehicle_type_id":"4","last_reported":1723572694,"current_range_meters":0,"station_id":"ce4bhb12rcd13ifvqel0","pricing_plan_id":"cebpf4jnsgd1na2vs0mg"},{"bike_id":"1e3f3d28-f929-4aef-bf37-ac2e50e78f13","system_id":"levelo_inurba_marseille","lat":43.29193,"lon":5.35803,"is_reserved":false,"is_disabled":false,"rental_uris":{"android":"levelo://app?vid=1e3f3d28-f929-4aef-bf37-ac2e50e78f13","ios":"levelo://app?vid=1e3f3d28-f929-4aef-bf37-ac2e50e78f13"},"vehicle_type_id":"4","last_reported":1723572694,"current_range_meters":31200,"station_id":"ce4bhb12rcd13ifvqel0","pricing_plan_id":"cebpf4jnsgd1na2vs0mg"},{"bike_id":"16a0040d-dd73-414f-a4c2-3ef2d4c00494","system_id":"levelo_inurba_marseille","lat":43.29193,"lon":5.358,"is_reserved":false,"is_disabled":false,"rental_uris":{"android":"levelo://app?vid=16a0040d-dd73-414f-a4c2-3ef2d4c00494","ios":"levelo://app?vid=16a0040d-dd73-414f-a4c2-3ef2d4c00494"},"vehicle_type_id":"4","last_reported":1723572694,"current_range_meters":24400,"station_id":"ce4bhb12rcd13ifvqel0","pricing_plan_id":"cebpf4jnsgd1na2vs0mg"},{"bike_id":"9d4b68a5-c93f-4844-a235-5ff4a055b660","system_id":"levelo_inurba_marseille","lat":43.292385,"lon":5.37767,"is_reserved":false,"is_disabled":false,"rental_uris":{"android":"levelo://app?vid=9d4b68a5-c93f-4844-a235-5ff4a055b660","ios":"levelo://app?vid=9d4b68a5-c93f-4844-a235-5ff4a055b660"},"vehicle_type_id":"4","last_reported":1723572694,"current_range_meters":0,"station_id":"","pricing_plan_id":"cebpf4jnsgd1na2vs0mg"},{"bike_id":"6c952e4e-766d-45fe-b8a6-deb8807e2245","system_id":"levelo_inurba_marseille","lat":43.29192,"lon":5.35797,"is_reserved":false,"is_disabled":false,"rental_uris":{"android":"levelo://app?vid=6c952e4e-766d-45fe-b8a6-deb8807e2245","ios":"levelo://app?vid=6c952e4e-766d-45fe-b8a6-deb8807e2245"},"vehicle_type_id":"4","last_reported":1723572694,"current_range_meters":28000,"station_id":"ce4bhb12rcd13ifvqel0","pricing_plan_id":"cebpf4jnsgd1na2vs0mg"},{"bike_id":"8888a77c-2f66-49e0-958e-3bf2cce7c482","system_id":"levelo_inurba_marseille","lat":43.29192,"lon":5.35795,"is_reserved":false,"is_disabled":false,"rental_uris":{"android":"levelo://app?vid=8888a77c-2f66-49e0-958e-3bf2cce7c482","ios":"levelo://app?vid=8888a77c-2f66-49e0-958e-3bf2cce7c482"},"vehicle_type_id":"4","last_reported":1723572694,"current_range_meters":30800,"station_id":"ce4bhb12rcd13ifvqel0","pricing_plan_id":"cebpf4jnsgd1na2vs0mg"},{"bike_id":"a739aad7-b732-458a-9cc0-b05cbe1e2f0e","system_id":"levelo_inurba_marseille","lat":43.31328,"lon":5.39691,"is_reserved":false,"is_disabled":false,"rental_uris":{"android":"levelo://app?vid=a739aad7-b732-458a-9cc0-b05cbe1e2f0e","ios":"levelo://app?vid=a739aad7-b732-458a-9cc0-b05cbe1e2f0e"},"vehicle_type_id":"4","last_reported":1723572694,"current_range_meters":12400,"station_id":"ce4bgvp2rcd13ifvqcu0","pricing_plan_id":"cebpf4jnsgd1na2vs0mg"},{"bike_id":"2d251220-d0a1-4ad3-9d85-7ccc50b31030","system_id":"levelo_inurba_marseille","lat":43.2919,"lon":5.35796,"is_reserved":false,"is_disabled":false,"rental_uris":{"android":"levelo://app?vid=2d251220-d0a1-4ad3-9d85-7ccc50b31030","ios":"levelo://app?vid=2d251220-d0a1-4ad3-9d85-7ccc50b31030"},"vehicle_type_id":"4","last_reported":1723572694,"current_range_meters":31200,"station_id":"ce4bhb12rcd13ifvqel0","pricing_plan_id":"cebpf4jnsgd1na2vs0mg"},{"bike_id":"dd14464a-91a9-487a-a023-d7b6a3c93959","system_id":"levelo_inurba_marseille","lat":43.313291,"lon":5.396838,"is_reserved":false,"is_disabled":false,"rental_uris":{"android":"levelo://app?vid=dd14464a-91a9-487a-a023-d7b6a3c93959","ios":"levelo://app?vid=dd14464a-91a9-487a-a023-d7b6a3c93959"},"vehicle_type_id":"4","last_reported":1723572694,"current_range_meters":0,"station_id":"ce4bgvp2rcd13ifvqcu0","pricing_plan_id":"cebpf4jnsgd1na2vs0mg"},{"bike_id":"b5392e86-56a3-4d9f-a510-feb59383cc02","system_id":"levelo_inurba_marseille","lat":43.31326,"lon":5.39696,"is_reserved":false,"is_disabled":false,"rental_uris":{"android":"levelo://app?vid=b5392e86-56a3-4d9f-a510-feb59383cc02","ios":"levelo://app?vid=b5392e86-56a3-4d9f-a510-feb59383cc02"},"vehicle_type_id":"4","last_reported":1723572694,"current_range_meters":0,"station_id":"ce4bgvp2rcd13ifvqcu0","pricing_plan_id":"cebpf4jnsgd1na2vs0mg"},{"bike_id":"b6c6e921-d13a-4804-a886-ded7faebd8ad","system_id":"levelo_inurba_marseille","lat":43.29182,"lon":5.35806,"is_reserved":false,"is_disabled":false,"rental_uris":{"android":"levelo://app?vid=b6c6e921-d13a-4804-a886-ded7faebd8ad","ios":"levelo://app?vid=b6c6e921-d13a-4804-a886-ded7faebd8ad"},"vehicle_type_id":"4","last_reported":1723572694,"current_range_meters":28000,"station_id":"ce4bhb12rcd13ifvqel0","pricing_plan_id":"cebpf4jnsgd1na2vs0mg"},{"bike_id":"0f2966ed-fd34-4353-89e2-e7beecfbc086","system_id":"levelo_inurba_marseille","lat":43.29529,"lon":5.385581,"is_reserved":false,"is_disabled":false,"rental_uris":{"android":"levelo://app?vid=0f2966ed-fd34-4353-89e2-e7beecfbc086","ios":"levelo://app?vid=0f2966ed-fd34-4353-89e2-e7beecfbc086"},"vehicle_type_id":"4","last_reported":1723572694,"current_range_meters":10000,"station_id":"ce4bgih2rcd13ifvqba0","pricing_plan_id":"cebpf4jnsgd1na2vs0mg"},{"bike_id":"03fc3917-f41d-451c-b3d7-b02a18966aca","system_id":"levelo_inurba_marseille","lat":43.29529,"lon":5.385581,"is_reserved":false,"is_disabled":false,"rental_uris":{"android":"levelo://app?vid=03fc3917-f41d-451c-b3d7-b02a18966aca","ios":"levelo://app?vid=03fc3917-f41d-451c-b3d7-b02a18966aca"},"vehicle_type_id":"4","last_reported":1723572694,"current_range_meters":21600,"station_id":"ce4bgih2rcd13ifvqba0","pricing_plan_id":"cebpf4jnsgd1na2vs0mg"},{"bike_id":"24c23b95-9fe0-450d-beed-ae9a35a54b9b","system_id":"levelo_inurba_marseille","lat":43.29529,"lon":5.385581,"is_reserved":false,"is_disabled":false,"rental_uris":{"android":"levelo://app?vid=24c23b95-9fe0-450d-beed-ae9a35a54b9b","ios":"levelo://app?vid=24c23b95-9fe0-450d-beed-ae9a35a54b9b"},"vehicle_type_id":"4","last_reported":1723572694,"current_range_meters":14400,"station_id":"ce4bgih2rcd13ifvqba0","pricing_plan_id":"cebpf4jnsgd1na2vs0mg"},{"bike_id":"bedec6da-d6ad-4efe-af27-03fd8eb3cc4a","system_id":"levelo_inurba_marseille","lat":43.29529,"lon":5.385581,"is_reserved":false,"is_disabled":false,"rental_uris":{"android":"levelo://app?vid=bedec6da-d6ad-4efe-af27-03fd8eb3cc4a","ios":"levelo://app?vid=bedec6da-d6ad-4efe-af27-03fd8eb3cc4a"},"vehicle_type_id":"4","last_reported":1723572694,"current_range_meters":18400,"station_id":"ce4bgih2rcd13ifvqba0","pricing_plan_id":"cebpf4jnsgd1na2vs0mg"},{"bike_id":"95cf2b8c-27bb-4dc1-bcef-36b387c0b230","system_id":"levelo_inurba_marseille","lat":43.29529,"lon":5.385581,"is_reserved":false,"is_disabled":false,"rental_uris":{"android":"levelo://app?vid=95cf2b8c-27bb-4dc1-bcef-36b387c0b230","ios":"levelo://app?vid=95cf2b8c-27bb-4dc1-bcef-36b387c0b230"},"vehicle_type_id":"4","last_reported":1723572694,"current_range_meters":14800,"station_id":"ce4bgih2rcd13ifvqba0","pricing_plan_id":"cebpf4jnsgd1na2vs0mg"},{"bike_id":"a8b1440b-ac4c-4fd5-ab36-0fed0b24515b","system_id":"levelo_inurba_marseille","lat":43.29529,"lon":5.385581,"is_reserved":false,"is_disabled":false,"rental_uris":{"android":"levelo://app?vid=a8b1440b-ac4c-4fd5-ab36-0fed0b24515b","ios":"levelo://app?vid=a8b1440b-ac4c-4fd5-ab36-0fed0b24515b"},"vehicle_type_id":"4","last_reported":1723572694,"current_range_meters":24000,"station_id":"ce4bgih2rcd13ifvqba0","pricing_plan_id":"cebpf4jnsgd1na2vs0mg"},{"bike_id":"29a2532f-bb79-4bfe-9a9d-2dde31a922a0","system_id":"levelo_inurba_marseille","lat":43.29533,"lon":5.38556,"is_reserved":false,"is_disabled":false,"rental_uris":{"android":"levelo://app?vid=29a2532f-bb79-4bfe-9a9d-2dde31a922a0","ios":"levelo://app?vid=29a2532f-bb79-4bfe-9a9d-2dde31a922a0"},"vehicle_type_id":"4","last_reported":1723572694,"current_range_meters":31200,"station_id":"ce4bgih2rcd13ifvqba0","pricing_plan_id":"cebpf4jnsgd1na2vs0mg"},{"bike_id":"9d54aa26-7489-46d1-b1b2-5d248490c0db","system_id":"levelo_inurba_marseille","lat":43.290779,"lon":5.371482,"is_reserved":false,"is_disabled":false,"rental_uris":{"android":"levelo://app?vid=9d54aa26-7489-46d1-b1b2-5d248490c0db","ios":"levelo://app?vid=9d54aa26-7489-46d1-b1b2-5d248490c0db"},"vehicle_type_id":"4","last_reported":1723572694,"current_range_meters":16800,"station_id":"ce4bh5p2rcd13ifvqe4g","pricing_plan_id":"cebpf4jnsgd1na2vs0mg"},{"bike_id":"fa47a6dd-7d7f-4c77-9f1c-a0fd1e6793ca","system_id":"levelo_inurba_marseille","lat":43.292642,"lon":5.384254,"is_reserved":false,"is_disabled":false,"rental_uris":{"android":"levelo://app?vid=fa47a6dd-7d7f-4c77-9f1c-a0fd1e6793ca","ios":"levelo://app?vid=fa47a6dd-7d7f-4c77-9f1c-a0fd1e6793ca"},"vehicle_type_id":"4","last_reported":1723572694,"current_range_meters":31200,"station_id":"ce4bh692rcd13ifvqea0","pricing_plan_id":"cebpf4jnsgd1na2vs0mg"},{"bike_id":"d14223f2-0399-4819-a973-f71e898b2e24","system_id":"levelo_inurba_marseille","lat":43.290624,"lon":5.359245,"is_reserved":false,"is_disabled":false,"rental_uris":{"android":"levelo://app?vid=d14223f2-0399-4819-a973-f71e898b2e24","ios":"levelo://app?vid=d14223f2-0399-4819-a973-f71e898b2e24"},"vehicle_type_id":"4","last_reported":1723572694,"current_range_meters":28000,"station_id":"ce4bha92rcd13ifvqeg0","pricing_plan_id":"cebpf4jnsgd1na2vs0mg"},{"bike_id":"aa93893c-db5a-492c-bebb-4017f78f8d06","system_id":"levelo_inurba_marseille","lat":43.290631,"lon":5.359244,"is_reserved":false,"is_disabled":false,"rental_uris":{"android":"levelo://app?vid=aa93893c-db5a-492c-bebb-4017f78f8d06","ios":"levelo://app?vid=aa93893c-db5a-492c-bebb-4017f78f8d06"},"vehicle_type_id":"4","last_reported":1723572694,"current_range_meters":30000,"station_id":"ce4bha92rcd13ifvqeg0","pricing_plan_id":"cebpf4jnsgd1na2vs0mg"},{"bike_id":"6d6198f7-ae63-4919-97b9-7337fecd4a0b","system_id":"levelo_inurba_marseille","lat":43.290624,"lon":5.359245,"is_reserved":false,"is_disabled":false,"rental_uris":{"android":"levelo://app?vid=6d6198f7-ae63-4919-97b9-7337fecd4a0b","ios":"levelo://app?vid=6d6198f7-ae63-4919-97b9-7337fecd4a0b"},"vehicle_type_id":"4","last_reported":1723572694,"current_range_meters":31200,"station_id":"ce4bha92rcd13ifvqeg0","pricing_plan_id":"cebpf4jnsgd1na2vs0mg"},{"bike_id":"e0b7e8bd-da89-421e-b451-913a9b967e8e","system_id":"levelo_inurba_marseille","lat":43.29047,"lon":5.35914,"is_reserved":false,"is_disabled":false,"rental_uris":{"android":"levelo://app?vid=e0b7e8bd-da89-421e-b451-913a9b967e8e","ios":"levelo://app?vid=e0b7e8bd-da89-421e-b451-913a9b967e8e"},"vehicle_type_id":"4","last_reported":1723572694,"current_range_meters":31200,"station_id":"ce4bha92rcd13ifvqeg0","pricing_plan_id":"cebpf4jnsgd1na2vs0mg"},{"bike_id":"8b8a1e58-3879-4499-a69a-e7297b072bf2","system_id":"levelo_inurba_marseille","lat":43.2942,"lon":5.38619,"is_reserved":false,"is_disabled":false,"rental_uris":{"android":"levelo://app?vid=8b8a1e58-3879-4499-a69a-e7297b072bf2","ios":"levelo://app?vid=8b8a1e58-3879-4499-a69a-e7297b072bf2"},"vehicle_type_id":"4","last_reported":1723572694,"current_range_meters":5200,"station_id":"ce4bh2h2rcd13ifvqdh0","pricing_plan_id":"cebpf4jnsgd1na2vs0mg"},{"bike_id":"822e7763-a789-4475-9ced-4f60be66ad03","system_id":"levelo_inurba_marseille","lat":43.29032,"lon":5.37544,"is_reserved":false,"is_disabled":false,"rental_uris":{"android":"levelo://app?vid=822e7763-a789-4475-9ced-4f60be66ad03","ios":"levelo://app?vid=822e7763-a789-4475-9ced-4f60be66ad03"},"vehicle_type_id":"4","last_reported":1723572694,"current_range_meters":0,"station_id":"ce4bh692rcd13ifvqe90","pricing_plan_id":"cebpf4jnsgd1na2vs0mg"},{"bike_id":"4ddc26d8-8d20-4c59-bf90-2fa97ad33e2d","system_id":"levelo_inurba_marseille","lat":43.294162,"lon":5.386292,"is_reserved":false,"is_disabled":false,"rental_uris":{"android":"levelo://app?vid=4ddc26d8-8d20-4c59-bf90-2fa97ad33e2d","ios":"levelo://app?vid=4ddc26d8-8d20-4c59-bf90-2fa97ad33e2d"},"vehicle_type_id":"4","last_reported":1723572694,"current_range_meters":2000,"station_id":"ce4bh2h2rcd13ifvqdh0","pricing_plan_id":"cebpf4jnsgd1na2vs0mg"},{"bike_id":"2ef914cb-50f2-4b24-9860-6acce60014fc","system_id":"levelo_inurba_marseille","lat":43.294162,"lon":5.386292,"is_reserved":false,"is_disabled":false,"rental_uris":{"android":"levelo://app?vid=2ef914cb-50f2-4b24-9860-6acce60014fc","ios":"levelo://app?vid=2ef914cb-50f2-4b24-9860-6acce60014fc"},"vehicle_type_id":"4","last_reported":1723572694,"current_range_meters":2400,"station_id":"ce4bh2h2rcd13ifvqdh0","pricing_plan_id":"cebpf4jnsgd1na2vs0mg"},{"bike_id":"4d75c4e1-3ad4-4582-ad3b-76109365be50","system_id":"levelo_inurba_marseille","lat":43.294162,"lon":5.386292,"is_reserved":false,"is_disabled":false,"rental_uris":{"android":"levelo://app?vid=4d75c4e1-3ad4-4582-ad3b-76109365be50","ios":"levelo://app?vid=4d75c4e1-3ad4-4582-ad3b-76109365be50"},"vehicle_type_id":"4","last_reported":1723572694,"current_range_meters":0,"station_id":"ce4bh2h2rcd13ifvqdh0","pricing_plan_id":"cebpf4jnsgd1na2vs0mg"},{"bike_id":"adbefd68-0138-4d1d-a71b-92e743451596","system_id":"levelo_inurba_marseille","lat":43.294162,"lon":5.386292,"is_reserved":false,"is_disabled":false,"rental_uris":{"android":"levelo://app?vid=adbefd68-0138-4d1d-a71b-92e743451596","ios":"levelo://app?vid=adbefd68-0138-4d1d-a71b-92e743451596"},"vehicle_type_id":"4","last_reported":1723572694,"current_range_meters":0,"station_id":"ce4bh2h2rcd13ifvqdh0","pricing_plan_id":"cebpf4jnsgd1na2vs0mg"},{"bike_id":"c726fd52-da5d-4dda-85db-70253667cbbc","system_id":"levelo_inurba_marseille","lat":43.294162,"lon":5.386292,"is_reserved":false,"is_disabled":false,"rental_uris":{"android":"levelo://app?vid=c726fd52-da5d-4dda-85db-70253667cbbc","ios":"levelo://app?vid=c726fd52-da5d-4dda-85db-70253667cbbc"},"vehicle_type_id":"4","last_reported":1723572694,"current_range_meters":13600,"station_id":"ce4bh2h2rcd13ifvqdh0","pricing_plan_id":"cebpf4jnsgd1na2vs0mg"},{"bike_id":"de27e308-85c1-408b-8645-408ce3c26863","system_id":"levelo_inurba_marseille","lat":43.290327,"lon":5.375711,"is_reserved":false,"is_disabled":false,"rental_uris":{"android":"levelo://app?vid=de27e308-85c1-408b-8645-408ce3c26863","ios":"levelo://app?vid=de27e308-85c1-408b-8645-408ce3c26863"},"vehicle_type_id":"4","last_reported":1723572694,"current_range_meters":800,"station_id":"ce4bh692rcd13ifvqe90","pricing_plan_id":"cebpf4jnsgd1na2vs0mg"},{"bike_id":"b2e6f46a-886f-478c-9322-ba01585da1e8","system_id":"levelo_inurba_marseille","lat":43.289184,"lon":5.366408,"is_reserved":false,"is_disabled":false,"rental_uris":{"android":"levelo://app?vid=b2e6f46a-886f-478c-9322-ba01585da1e8","ios":"levelo://app?vid=b2e6f46a-886f-478c-9322-ba01585da1e8"},"vehicle_type_id":"4","last_reported":1723572694,"current_range_meters":31600,"station_id":"ce4bhap2rcd13ifvqek0","pricing_plan_id":"cebpf4jnsgd1na2vs0mg"},{"bike_id":"ddb6ed95-3a2b-43eb-a440-94b203965693","system_id":"levelo_inurba_marseille","lat":43.290327,"lon":5.375711,"is_reserved":false,"is_disabled":false,"rental_uris":{"android":"levelo://app?vid=ddb6ed95-3a2b-43eb-a440-94b203965693","ios":"levelo://app?vid=ddb6ed95-3a2b-43eb-a440-94b203965693"},"vehicle_type_id":"4","last_reported":1723572694,"current_range_meters":25200,"station_id":"ce4bh692rcd13ifvqe90","pricing_plan_id":"cebpf4jnsgd1na2vs0mg"},{"bike_id":"82802aca-aa4d-495b-a250-788ac173625c","system_id":"levelo_inurba_marseille","lat":43.28943,"lon":5.36636,"is_reserved":false,"is_disabled":false,"rental_uris":{"android":"levelo://app?vid=82802aca-aa4d-495b-a250-788ac173625c","ios":"levelo://app?vid=82802aca-aa4d-495b-a250-788ac173625c"},"vehicle_type_id":"4","last_reported":1723572694,"current_range_meters":27600,"station_id":"ce4bhap2rcd13ifvqek0","pricing_plan_id":"cebpf4jnsgd1na2vs0mg"},{"bike_id":"785b99d0-88f6-4012-93dd-d13f87e70911","system_id":"levelo_inurba_marseille","lat":43.289184,"lon":5.366408,"is_reserved":false,"is_disabled":false,"rental_uris":{"android":"levelo://app?vid=785b99d0-88f6-4012-93dd-d13f87e70911","ios":"levelo://app?vid=785b99d0-88f6-4012-93dd-d13f87e70911"},"vehicle_type_id":"4","last_reported":1723572694,"current_range_meters":31600,"station_id":"ce4bhap2rcd13ifvqek0","pricing_plan_id":"cebpf4jnsgd1na2vs0mg"},{"bike_id":"2b6be8bd-a851-444e-909a-4637e212f3f4","system_id":"levelo_inurba_marseille","lat":43.289184,"lon":5.366408,"is_reserved":false,"is_disabled":false,"rental_uris":{"android":"levelo://app?vid=2b6be8bd-a851-444e-909a-4637e212f3f4","ios":"levelo://app?vid=2b6be8bd-a851-444e-909a-4637e212f3f4"},"vehicle_type_id":"4","last_reported":1723572694,"current_range_meters":21600,"station_id":"ce4bhap2rcd13ifvqek0","pricing_plan_id":"cebpf4jnsgd1na2vs0mg"},{"bike_id":"c1aa8622-916d-451a-a445-106c3b333233","system_id":"levelo_inurba_marseille","lat":43.294162,"lon":5.386292,"is_reserved":false,"is_disabled":false,"rental_uris":{"android":"levelo://app?vid=c1aa8622-916d-451a-a445-106c3b333233","ios":"levelo://app?vid=c1aa8622-916d-451a-a445-106c3b333233"},"vehicle_type_id":"4","last_reported":1723572694,"current_range_meters":5200,"station_id":"ce4bh2h2rcd13ifvqdh0","pricing_plan_id":"cebpf4jnsgd1na2vs0mg"},{"bike_id":"afc23a5e-62cf-4a6e-8fd8-1c53af970307","system_id":"levelo_inurba_marseille","lat":43.289184,"lon":5.366408,"is_reserved":false,"is_disabled":false,"rental_uris":{"android":"levelo://app?vid=afc23a5e-62cf-4a6e-8fd8-1c53af970307","ios":"levelo://app?vid=afc23a5e-62cf-4a6e-8fd8-1c53af970307"},"vehicle_type_id":"4","last_reported":1723572694,"current_range_meters":25600,"station_id":"ce4bhap2rcd13ifvqek0","pricing_plan_id":"cebpf4jnsgd1na2vs0mg"},{"bike_id":"e4503b61-bb10-4caf-8379-cfa18145094a","system_id":"levelo_inurba_marseille","lat":43.289468,"lon":5.363719,"is_reserved":false,"is_disabled":false,"rental_uris":{"android":"levelo://app?vid=e4503b61-bb10-4caf-8379-cfa18145094a","ios":"levelo://app?vid=e4503b61-bb10-4caf-8379-cfa18145094a"},"vehicle_type_id":"4","last_reported":1723572694,"current_range_meters":10800,"station_id":"ce4bhc92rcd13ifvqetg","pricing_plan_id":"cebpf4jnsgd1na2vs0mg"},{"bike_id":"a9b9bc52-0e22-4d1b-b8eb-cf3ceb38cb81","system_id":"levelo_inurba_marseille","lat":43.289184,"lon":5.366408,"is_reserved":false,"is_disabled":false,"rental_uris":{"android":"levelo://app?vid=a9b9bc52-0e22-4d1b-b8eb-cf3ceb38cb81","ios":"levelo://app?vid=a9b9bc52-0e22-4d1b-b8eb-cf3ceb38cb81"},"vehicle_type_id":"4","last_reported":1723572694,"current_range_meters":10800,"station_id":"ce4bhap2rcd13ifvqek0","pricing_plan_id":"cebpf4jnsgd1na2vs0mg"},{"bike_id":"486ee6ef-da5c-4586-b34a-49d8bbde74fb","system_id":"levelo_inurba_marseille","lat":43.289468,"lon":5.363719,"is_reserved":false,"is_disabled":false,"rental_uris":{"android":"levelo://app?vid=486ee6ef-da5c-4586-b34a-49d8bbde74fb","ios":"levelo://app?vid=486ee6ef-da5c-4586-b34a-49d8bbde74fb"},"vehicle_type_id":"4","last_reported":1723572694,"current_range_meters":31600,"station_id":"ce4bhc92rcd13ifvqetg","pricing_plan_id":"cebpf4jnsgd1na2vs0mg"},{"bike_id":"88eeadb2-37fc-46d1-a710-7fd7c0c73c1e","system_id":"levelo_inurba_marseille","lat":43.289468,"lon":5.363719,"is_reserved":false,"is_disabled":false,"rental_uris":{"android":"levelo://app?vid=88eeadb2-37fc-46d1-a710-7fd7c0c73c1e","ios":"levelo://app?vid=88eeadb2-37fc-46d1-a710-7fd7c0c73c1e"},"vehicle_type_id":"4","last_reported":1723572694,"current_range_meters":31600,"station_id":"ce4bhc92rcd13ifvqetg","pricing_plan_id":"cebpf4jnsgd1na2vs0mg"},{"bike_id":"e21c9915-a36e-4b2a-b635-2ead697f1764","system_id":"levelo_inurba_marseille","lat":43.289468,"lon":5.363719,"is_reserved":false,"is_disabled":false,"rental_uris":{"android":"levelo://app?vid=e21c9915-a36e-4b2a-b635-2ead697f1764","ios":"levelo://app?vid=e21c9915-a36e-4b2a-b635-2ead697f1764"},"vehicle_type_id":"4","last_reported":1723572694,"current_range_meters":31200,"station_id":"ce4bhc92rcd13ifvqetg","pricing_plan_id":"cebpf4jnsgd1na2vs0mg"},{"bike_id":"8531dd1a-55c1-44e2-9d5c-93ff27dccbc6","system_id":"levelo_inurba_marseille","lat":43.28934,"lon":5.36388,"is_reserved":false,"is_disabled":false,"rental_uris":{"android":"levelo://app?vid=8531dd1a-55c1-44e2-9d5c-93ff27dccbc6","ios":"levelo://app?vid=8531dd1a-55c1-44e2-9d5c-93ff27dccbc6"},"vehicle_type_id":"4","last_reported":1723572694,"current_range_meters":17200,"station_id":"ce4bhc92rcd13ifvqetg","pricing_plan_id":"cebpf4jnsgd1na2vs0mg"},{"bike_id":"e1c88f33-2c08-4985-a808-972acf93a960","system_id":"levelo_inurba_marseille","lat":43.289468,"lon":5.363719,"is_reserved":false,"is_disabled":false,"rental_uris":{"android":"levelo://app?vid=e1c88f33-2c08-4985-a808-972acf93a960","ios":"levelo://app?vid=e1c88f33-2c08-4985-a808-972acf93a960"},"vehicle_type_id":"4","last_reported":1723572694,"current_range_meters":27200,"station_id":"ce4bhc92rcd13ifvqetg","pricing_plan_id":"cebpf4jnsgd1na2vs0mg"},{"bike_id":"202db86c-a0a1-41c3-8457-fd0289c0e01c","system_id":"levelo_inurba_marseille","lat":43.290104,"lon":5.356111,"is_reserved":false,"is_disabled":false,"rental_uris":{"android":"levelo://app?vid=202db86c-a0a1-41c3-8457-fd0289c0e01c","ios":"levelo://app?vid=202db86c-a0a1-41c3-8457-fd0289c0e01c"},"vehicle_type_id":"4","last_reported":1723572694,"current_range_meters":3600,"station_id":"ce4bhb92rcd13ifvqen0","pricing_plan_id":"cebpf4jnsgd1na2vs0mg"},{"bike_id":"a2b76aef-12ef-4dc7-beab-b28beb5bbda4","system_id":"levelo_inurba_marseille","lat":43.292642,"lon":5.384254,"is_reserved":false,"is_disabled":false,"rental_uris":{"android":"levelo://app?vid=a2b76aef-12ef-4dc7-beab-b28beb5bbda4","ios":"levelo://app?vid=a2b76aef-12ef-4dc7-beab-b28beb5bbda4"},"vehicle_type_id":"4","last_reported":1723572694,"current_range_meters":4800,"station_id":"ce4bh692rcd13ifvqea0","pricing_plan_id":"cebpf4jnsgd1na2vs0mg"},{"bike_id":"49936eff-0029-4157-b3ac-acf3b2046e1c","system_id":"levelo_inurba_marseille","lat":43.29268,"lon":5.38437,"is_reserved":false,"is_disabled":false,"rental_uris":{"android":"levelo://app?vid=49936eff-0029-4157-b3ac-acf3b2046e1c","ios":"levelo://app?vid=49936eff-0029-4157-b3ac-acf3b2046e1c"},"vehicle_type_id":"4","last_reported":1723572694,"current_range_meters":28400,"station_id":"ce4bh692rcd13ifvqea0","pricing_plan_id":"cebpf4jnsgd1na2vs0mg"},{"bike_id":"20cfdb78-65e4-4ab9-8a61-51a155f96ec0","system_id":"levelo_inurba_marseille","lat":43.304296,"lon":5.397513,"is_reserved":false,"is_disabled":false,"rental_uris":{"android":"levelo://app?vid=20cfdb78-65e4-4ab9-8a61-51a155f96ec0","ios":"levelo://app?vid=20cfdb78-65e4-4ab9-8a61-51a155f96ec0"},"vehicle_type_id":"4","last_reported":1723572694,"current_range_meters":0,"station_id":"ce4bh092rcd13ifvqd20","pricing_plan_id":"cebpf4jnsgd1na2vs0mg"},{"bike_id":"677fbaa9-fd21-44f9-808e-71f484a20689","system_id":"levelo_inurba_marseille","lat":43.292642,"lon":5.384254,"is_reserved":false,"is_disabled":false,"rental_uris":{"android":"levelo://app?vid=677fbaa9-fd21-44f9-808e-71f484a20689","ios":"levelo://app?vid=677fbaa9-fd21-44f9-808e-71f484a20689"},"vehicle_type_id":"4","last_reported":1723572694,"current_range_meters":17200,"station_id":"ce4bh692rcd13ifvqea0","pricing_plan_id":"cebpf4jnsgd1na2vs0mg"},{"bike_id":"bc758309-360f-4d65-a59b-55363d5bd7d9","system_id":"levelo_inurba_marseille","lat":43.29267,"lon":5.3844,"is_reserved":false,"is_disabled":false,"rental_uris":{"android":"levelo://app?vid=bc758309-360f-4d65-a59b-55363d5bd7d9","ios":"levelo://app?vid=bc758309-360f-4d65-a59b-55363d5bd7d9"},"vehicle_type_id":"4","last_reported":1723572694,"current_range_meters":15200,"station_id":"ce4bh692rcd13ifvqea0","pricing_plan_id":"cebpf4jnsgd1na2vs0mg"},{"bike_id":"08a59943-1f36-49e5-83d4-5a2f7fb4d799","system_id":"levelo_inurba_marseille","lat":43.292642,"lon":5.384254,"is_reserved":false,"is_disabled":false,"rental_uris":{"android":"levelo://app?vid=08a59943-1f36-49e5-83d4-5a2f7fb4d799","ios":"levelo://app?vid=08a59943-1f36-49e5-83d4-5a2f7fb4d799"},"vehicle_type_id":"4","last_reported":1723572694,"current_range_meters":31600,"station_id":"ce4bh692rcd13ifvqea0","pricing_plan_id":"cebpf4jnsgd1na2vs0mg"},{"bike_id":"c92201ab-01bd-41e9-b358-2d9acd1156b0","system_id":"levelo_inurba_marseille","lat":43.292642,"lon":5.384254,"is_reserved":false,"is_disabled":false,"rental_uris":{"android":"levelo://app?vid=c92201ab-01bd-41e9-b358-2d9acd1156b0","ios":"levelo://app?vid=c92201ab-01bd-41e9-b358-2d9acd1156b0"},"vehicle_type_id":"4","last_reported":1723572694,"current_range_meters":16800,"station_id":"ce4bh692rcd13ifvqea0","pricing_plan_id":"cebpf4jnsgd1na2vs0mg"},{"bike_id":"00e3a2e5-dc69-435f-acb0-5e2fc3eb0a53","system_id":"levelo_inurba_marseille","lat":43.292642,"lon":5.384254,"is_reserved":false,"is_disabled":false,"rental_uris":{"android":"levelo://app?vid=00e3a2e5-dc69-435f-acb0-5e2fc3eb0a53","ios":"levelo://app?vid=00e3a2e5-dc69-435f-acb0-5e2fc3eb0a53"},"vehicle_type_id":"4","last_reported":1723572694,"current_range_meters":18000,"station_id":"ce4bh692rcd13ifvqea0","pricing_plan_id":"cebpf4jnsgd1na2vs0mg"},{"bike_id":"66127749-6061-4fed-bb27-b005751e173f","system_id":"levelo_inurba_marseille","lat":43.29267,"lon":5.38444,"is_reserved":false,"is_disabled":false,"rental_uris":{"android":"levelo://app?vid=66127749-6061-4fed-bb27-b005751e173f","ios":"levelo://app?vid=66127749-6061-4fed-bb27-b005751e173f"},"vehicle_type_id":"4","last_reported":1723572694,"current_range_meters":8800,"station_id":"ce4bh692rcd13ifvqea0","pricing_plan_id":"cebpf4jnsgd1na2vs0mg"},{"bike_id":"f7e3bf2c-2a20-4f31-b5c2-fb5060e17d95","system_id":"levelo_inurba_marseille","lat":43.292644,"lon":5.384257,"is_reserved":false,"is_disabled":false,"rental_uris":{"android":"levelo://app?vid=f7e3bf2c-2a20-4f31-b5c2-fb5060e17d95","ios":"levelo://app?vid=f7e3bf2c-2a20-4f31-b5c2-fb5060e17d95"},"vehicle_type_id":"4","last_reported":1723572694,"current_range_meters":13600,"station_id":"ce4bh692rcd13ifvqea0","pricing_plan_id":"cebpf4jnsgd1na2vs0mg"},{"bike_id":"b04b39d7-411c-4949-bdea-4d35ddbc3c70","system_id":"levelo_inurba_marseille","lat":43.29267,"lon":5.38447,"is_reserved":false,"is_disabled":false,"rental_uris":{"android":"levelo://app?vid=b04b39d7-411c-4949-bdea-4d35ddbc3c70","ios":"levelo://app?vid=b04b39d7-411c-4949-bdea-4d35ddbc3c70"},"vehicle_type_id":"4","last_reported":1723572694,"current_range_meters":8800,"station_id":"ce4bh692rcd13ifvqea0","pricing_plan_id":"cebpf4jnsgd1na2vs0mg"},{"bike_id":"be1c4c8a-3a8b-4940-ad01-6cc1bacaa8a7","system_id":"levelo_inurba_marseille","lat":43.292642,"lon":5.384254,"is_reserved":false,"is_disabled":false,"rental_uris":{"android":"levelo://app?vid=be1c4c8a-3a8b-4940-ad01-6cc1bacaa8a7","ios":"levelo://app?vid=be1c4c8a-3a8b-4940-ad01-6cc1bacaa8a7"},"vehicle_type_id":"4","last_reported":1723572694,"current_range_meters":24400,"station_id":"ce4bh692rcd13ifvqea0","pricing_plan_id":"cebpf4jnsgd1na2vs0mg"},{"bike_id":"4d0b2a34-501a-4cd8-81f6-834b37e936c8","system_id":"levelo_inurba_marseille","lat":43.292644,"lon":5.384257,"is_reserved":false,"is_disabled":false,"rental_uris":{"android":"levelo://app?vid=4d0b2a34-501a-4cd8-81f6-834b37e936c8","ios":"levelo://app?vid=4d0b2a34-501a-4cd8-81f6-834b37e936c8"},"vehicle_type_id":"4","last_reported":1723572694,"current_range_meters":31600,"station_id":"ce4bh692rcd13ifvqea0","pricing_plan_id":"cebpf4jnsgd1na2vs0mg"},{"bike_id":"45ea836d-5f8e-42fb-af88-9ced19660e9b","system_id":"levelo_inurba_marseille","lat":43.292642,"lon":5.384254,"is_reserved":false,"is_disabled":false,"rental_uris":{"android":"levelo://app?vid=45ea836d-5f8e-42fb-af88-9ced19660e9b","ios":"levelo://app?vid=45ea836d-5f8e-42fb-af88-9ced19660e9b"},"vehicle_type_id":"4","last_reported":1723572694,"current_range_meters":14800,"station_id":"ce4bh692rcd13ifvqea0","pricing_plan_id":"cebpf4jnsgd1na2vs0mg"},{"bike_id":"429d2932-3b34-481b-a063-34e3fd3b2ebb","system_id":"levelo_inurba_marseille","lat":43.29259,"lon":5.38437,"is_reserved":false,"is_disabled":false,"rental_uris":{"android":"levelo://app?vid=429d2932-3b34-481b-a063-34e3fd3b2ebb","ios":"levelo://app?vid=429d2932-3b34-481b-a063-34e3fd3b2ebb"},"vehicle_type_id":"4","last_reported":1723572694,"current_range_meters":17600,"station_id":"ce4bh692rcd13ifvqea0","pricing_plan_id":"cebpf4jnsgd1na2vs0mg"},{"bike_id":"f160f27b-0b93-4c39-9937-1f666ad40115","system_id":"levelo_inurba_marseille","lat":43.292642,"lon":5.384254,"is_reserved":false,"is_disabled":false,"rental_uris":{"android":"levelo://app?vid=f160f27b-0b93-4c39-9937-1f666ad40115","ios":"levelo://app?vid=f160f27b-0b93-4c39-9937-1f666ad40115"},"vehicle_type_id":"4","last_reported":1723572694,"current_range_meters":31200,"station_id":"ce4bh692rcd13ifvqea0","pricing_plan_id":"cebpf4jnsgd1na2vs0mg"},{"bike_id":"0130bc44-586f-424c-adb4-cd063a287baf","system_id":"levelo_inurba_marseille","lat":43.29261,"lon":5.38445,"is_reserved":false,"is_disabled":false,"rental_uris":{"android":"levelo://app?vid=0130bc44-586f-424c-adb4-cd063a287baf","ios":"levelo://app?vid=0130bc44-586f-424c-adb4-cd063a287baf"},"vehicle_type_id":"4","last_reported":1723572694,"current_range_meters":11600,"station_id":"ce4bh692rcd13ifvqea0","pricing_plan_id":"cebpf4jnsgd1na2vs0mg"},{"bike_id":"2f355428-b1e8-4bb9-bf9a-a085d8adf4f9","system_id":"levelo_inurba_marseille","lat":43.292644,"lon":5.384257,"is_reserved":false,"is_disabled":false,"rental_uris":{"android":"levelo://app?vid=2f355428-b1e8-4bb9-bf9a-a085d8adf4f9","ios":"levelo://app?vid=2f355428-b1e8-4bb9-bf9a-a085d8adf4f9"},"vehicle_type_id":"4","last_reported":1723572694,"current_range_meters":23600,"station_id":"ce4bh692rcd13ifvqea0","pricing_plan_id":"cebpf4jnsgd1na2vs0mg"},{"bike_id":"caefc604-d85c-4d56-a1a4-57057a184b04","system_id":"levelo_inurba_marseille","lat":43.290104,"lon":5.356111,"is_reserved":false,"is_disabled":false,"rental_uris":{"android":"levelo://app?vid=caefc604-d85c-4d56-a1a4-57057a184b04","ios":"levelo://app?vid=caefc604-d85c-4d56-a1a4-57057a184b04"},"vehicle_type_id":"4","last_reported":1723572694,"current_range_meters":3200,"station_id":"ce4bhb92rcd13ifvqen0","pricing_plan_id":"cebpf4jnsgd1na2vs0mg"},{"bike_id":"2b1b1f88-eea6-47f8-a66a-ac2306b60460","system_id":"levelo_inurba_marseille","lat":43.29007,"lon":5.35616,"is_reserved":false,"is_disabled":false,"rental_uris":{"android":"levelo://app?vid=2b1b1f88-eea6-47f8-a66a-ac2306b60460","ios":"levelo://app?vid=2b1b1f88-eea6-47f8-a66a-ac2306b60460"},"vehicle_type_id":"4","last_reported":1723572694,"current_range_meters":23600,"station_id":"ce4bhb92rcd13ifvqen0","pricing_plan_id":"cebpf4jnsgd1na2vs0mg"},{"bike_id":"e53284f9-6681-4c29-bc59-58de190da603","system_id":"levelo_inurba_marseille","lat":43.290104,"lon":5.356111,"is_reserved":false,"is_disabled":false,"rental_uris":{"android":"levelo://app?vid=e53284f9-6681-4c29-bc59-58de190da603","ios":"levelo://app?vid=e53284f9-6681-4c29-bc59-58de190da603"},"vehicle_type_id":"4","last_reported":1723572694,"current_range_meters":23200,"station_id":"ce4bhb92rcd13ifvqen0","pricing_plan_id":"cebpf4jnsgd1na2vs0mg"},{"bike_id":"f7820918-a49c-467f-bf8a-c0eadc8ffd14","system_id":"levelo_inurba_marseille","lat":43.290103,"lon":5.356114,"is_reserved":false,"is_disabled":false,"rental_uris":{"android":"levelo://app?vid=f7820918-a49c-467f-bf8a-c0eadc8ffd14","ios":"levelo://app?vid=f7820918-a49c-467f-bf8a-c0eadc8ffd14"},"vehicle_type_id":"4","last_reported":1723572694,"current_range_meters":8800,"station_id":"ce4bhb92rcd13ifvqen0","pricing_plan_id":"cebpf4jnsgd1na2vs0mg"},{"bike_id":"f97311f1-717f-4c52-9412-28953ad47f86","system_id":"levelo_inurba_marseille","lat":43.290104,"lon":5.356111,"is_reserved":false,"is_disabled":false,"rental_uris":{"android":"levelo://app?vid=f97311f1-717f-4c52-9412-28953ad47f86","ios":"levelo://app?vid=f97311f1-717f-4c52-9412-28953ad47f86"},"vehicle_type_id":"4","last_reported":1723572694,"current_range_meters":28800,"station_id":"ce4bhb92rcd13ifvqen0","pricing_plan_id":"cebpf4jnsgd1na2vs0mg"},{"bike_id":"a244a426-d185-4f64-b90a-696f2598f6cd","system_id":"levelo_inurba_marseille","lat":43.290103,"lon":5.356114,"is_reserved":false,"is_disabled":false,"rental_uris":{"android":"levelo://app?vid=a244a426-d185-4f64-b90a-696f2598f6cd","ios":"levelo://app?vid=a244a426-d185-4f64-b90a-696f2598f6cd"},"vehicle_type_id":"4","last_reported":1723572694,"current_range_meters":15200,"station_id":"ce4bhb92rcd13ifvqen0","pricing_plan_id":"cebpf4jnsgd1na2vs0mg"},{"bike_id":"38ea23f4-24b2-4d9d-96c9-5d5582571b70","system_id":"levelo_inurba_marseille","lat":43.290104,"lon":5.356111,"is_reserved":false,"is_disabled":false,"rental_uris":{"android":"levelo://app?vid=38ea23f4-24b2-4d9d-96c9-5d5582571b70","ios":"levelo://app?vid=38ea23f4-24b2-4d9d-96c9-5d5582571b70"},"vehicle_type_id":"4","last_reported":1723572694,"current_range_meters":20000,"station_id":"ce4bhb92rcd13ifvqen0","pricing_plan_id":"cebpf4jnsgd1na2vs0mg"},{"bike_id":"d23eb702-c5ea-4842-98b6-3db7936402a7","system_id":"levelo_inurba_marseille","lat":43.290104,"lon":5.356111,"is_reserved":false,"is_disabled":false,"rental_uris":{"android":"levelo://app?vid=d23eb702-c5ea-4842-98b6-3db7936402a7","ios":"levelo://app?vid=d23eb702-c5ea-4842-98b6-3db7936402a7"},"vehicle_type_id":"4","last_reported":1723572694,"current_range_meters":17200,"station_id":"ce4bhb92rcd13ifvqen0","pricing_plan_id":"cebpf4jnsgd1na2vs0mg"},{"bike_id":"de75cd98-e575-4554-95d1-f7f18ca2d175","system_id":"levelo_inurba_marseille","lat":43.290104,"lon":5.356111,"is_reserved":false,"is_disabled":false,"rental_uris":{"android":"levelo://app?vid=de75cd98-e575-4554-95d1-f7f18ca2d175","ios":"levelo://app?vid=de75cd98-e575-4554-95d1-f7f18ca2d175"},"vehicle_type_id":"4","last_reported":1723572694,"current_range_meters":30000,"station_id":"ce4bhb92rcd13ifvqen0","pricing_plan_id":"cebpf4jnsgd1na2vs0mg"},{"bike_id":"bb7ec07d-5474-403d-8876-fef82e661268","system_id":"levelo_inurba_marseille","lat":43.290103,"lon":5.356114,"is_reserved":false,"is_disabled":false,"rental_uris":{"android":"levelo://app?vid=bb7ec07d-5474-403d-8876-fef82e661268","ios":"levelo://app?vid=bb7ec07d-5474-403d-8876-fef82e661268"},"vehicle_type_id":"4","last_reported":1723572694,"current_range_meters":27600,"station_id":"ce4bhb92rcd13ifvqen0","pricing_plan_id":"cebpf4jnsgd1na2vs0mg"},{"bike_id":"1b29e265-30fd-4a11-9e64-3293f679366f","system_id":"levelo_inurba_marseille","lat":43.29004,"lon":5.35612,"is_reserved":false,"is_disabled":false,"rental_uris":{"android":"levelo://app?vid=1b29e265-30fd-4a11-9e64-3293f679366f","ios":"levelo://app?vid=1b29e265-30fd-4a11-9e64-3293f679366f"},"vehicle_type_id":"4","last_reported":1723572694,"current_range_meters":22400,"station_id":"ce4bhb92rcd13ifvqen0","pricing_plan_id":"cebpf4jnsgd1na2vs0mg"},{"bike_id":"81fb2106-6206-46fc-8080-c89a35a3cb1c","system_id":"levelo_inurba_marseille","lat":43.290104,"lon":5.356111,"is_reserved":false,"is_disabled":false,"rental_uris":{"android":"levelo://app?vid=81fb2106-6206-46fc-8080-c89a35a3cb1c","ios":"levelo://app?vid=81fb2106-6206-46fc-8080-c89a35a3cb1c"},"vehicle_type_id":"4","last_reported":1723572694,"current_range_meters":2800,"station_id":"ce4bhb92rcd13ifvqen0","pricing_plan_id":"cebpf4jnsgd1na2vs0mg"},{"bike_id":"fd996666-0a5d-40fd-a164-9e00e4107143","system_id":"levelo_inurba_marseille","lat":43.290103,"lon":5.356114,"is_reserved":false,"is_disabled":false,"rental_uris":{"android":"levelo://app?vid=fd996666-0a5d-40fd-a164-9e00e4107143","ios":"levelo://app?vid=fd996666-0a5d-40fd-a164-9e00e4107143"},"vehicle_type_id":"4","last_reported":1723572694,"current_range_meters":31600,"station_id":"ce4bhb92rcd13ifvqen0","pricing_plan_id":"cebpf4jnsgd1na2vs0mg"},{"bike_id":"81e34009-9671-4aa2-bf76-4e188541eea1","system_id":"levelo_inurba_marseille","lat":43.290104,"lon":5.356111,"is_reserved":false,"is_disabled":false,"rental_uris":{"android":"levelo://app?vid=81e34009-9671-4aa2-bf76-4e188541eea1","ios":"levelo://app?vid=81e34009-9671-4aa2-bf76-4e188541eea1"},"vehicle_type_id":"4","last_reported":1723572694,"current_range_meters":29200,"station_id":"ce4bhb92rcd13ifvqen0","pricing_plan_id":"cebpf4jnsgd1na2vs0mg"},{"bike_id":"bad357c0-4dbb-4fd1-a938-6e09bf9867cb","system_id":"levelo_inurba_marseille","lat":43.29003,"lon":5.35609,"is_reserved":false,"is_disabled":false,"rental_uris":{"android":"levelo://app?vid=bad357c0-4dbb-4fd1-a938-6e09bf9867cb","ios":"levelo://app?vid=bad357c0-4dbb-4fd1-a938-6e09bf9867cb"},"vehicle_type_id":"4","last_reported":1723572694,"current_range_meters":10000,"station_id":"ce4bhb92rcd13ifvqen0","pricing_plan_id":"cebpf4jnsgd1na2vs0mg"},{"bike_id":"180f6d9a-06d6-45c9-855a-7535b4c9ecc3","system_id":"levelo_inurba_marseille","lat":43.290104,"lon":5.356111,"is_reserved":false,"is_disabled":false,"rental_uris":{"android":"levelo://app?vid=180f6d9a-06d6-45c9-855a-7535b4c9ecc3","ios":"levelo://app?vid=180f6d9a-06d6-45c9-855a-7535b4c9ecc3"},"vehicle_type_id":"4","last_reported":1723572694,"current_range_meters":2800,"station_id":"ce4bhb92rcd13ifvqen0","pricing_plan_id":"cebpf4jnsgd1na2vs0mg"},{"bike_id":"f1cf1e77-7d23-438c-b22d-090a335795b0","system_id":"levelo_inurba_marseille","lat":43.290103,"lon":5.356114,"is_reserved":false,"is_disabled":false,"rental_uris":{"android":"levelo://app?vid=f1cf1e77-7d23-438c-b22d-090a335795b0","ios":"levelo://app?vid=f1cf1e77-7d23-438c-b22d-090a335795b0"},"vehicle_type_id":"4","last_reported":1723572694,"current_range_meters":3600,"station_id":"ce4bhb92rcd13ifvqen0","pricing_plan_id":"cebpf4jnsgd1na2vs0mg"},{"bike_id":"42d3c761-524a-428c-8292-0bd8c6210962","system_id":"levelo_inurba_marseille","lat":43.29093,"lon":5.38122,"is_reserved":false,"is_disabled":false,"rental_uris":{"android":"levelo://app?vid=42d3c761-524a-428c-8292-0bd8c6210962","ios":"levelo://app?vid=42d3c761-524a-428c-8292-0bd8c6210962"},"vehicle_type_id":"4","last_reported":1723572694,"current_range_meters":31200,"station_id":"ce4bh512rcd13ifvqe2g","pricing_plan_id":"cebpf4jnsgd1na2vs0mg"},{"bike_id":"5f2a82d0-1d6f-4830-98ee-eda7391d0635","system_id":"levelo_inurba_marseille","lat":43.29097,"lon":5.38144,"is_reserved":false,"is_disabled":false,"rental_uris":{"android":"levelo://app?vid=5f2a82d0-1d6f-4830-98ee-eda7391d0635","ios":"levelo://app?vid=5f2a82d0-1d6f-4830-98ee-eda7391d0635"},"vehicle_type_id":"4","last_reported":1723572694,"current_range_meters":31200,"station_id":"ce4bh512rcd13ifvqe2g","pricing_plan_id":"cebpf4jnsgd1na2vs0mg"},{"bike_id":"23687936-440e-4ade-bfc2-b62477d3ee53","system_id":"levelo_inurba_marseille","lat":43.29093,"lon":5.38161,"is_reserved":false,"is_disabled":false,"rental_uris":{"android":"levelo://app?vid=23687936-440e-4ade-bfc2-b62477d3ee53","ios":"levelo://app?vid=23687936-440e-4ade-bfc2-b62477d3ee53"},"vehicle_type_id":"4","last_reported":1723572694,"current_range_meters":24800,"station_id":"ce4bh512rcd13ifvqe2g","pricing_plan_id":"cebpf4jnsgd1na2vs0mg"},{"bike_id":"07629f9c-0e49-4f7c-94a1-1a925d4ee288","system_id":"levelo_inurba_marseille","lat":43.297807,"lon":5.393533,"is_reserved":false,"is_disabled":false,"rental_uris":{"android":"levelo://app?vid=07629f9c-0e49-4f7c-94a1-1a925d4ee288","ios":"levelo://app?vid=07629f9c-0e49-4f7c-94a1-1a925d4ee288"},"vehicle_type_id":"4","last_reported":1723572694,"current_range_meters":5200,"station_id":"chh1huq6cuj3fo74tm60","pricing_plan_id":"cebpf4jnsgd1na2vs0mg"},{"bike_id":"adf474bc-95bf-4073-bff9-0fca829b6d04","system_id":"levelo_inurba_marseille","lat":43.297807,"lon":5.393533,"is_reserved":false,"is_disabled":false,"rental_uris":{"android":"levelo://app?vid=adf474bc-95bf-4073-bff9-0fca829b6d04","ios":"levelo://app?vid=adf474bc-95bf-4073-bff9-0fca829b6d04"},"vehicle_type_id":"4","last_reported":1723572694,"current_range_meters":4400,"station_id":"chh1huq6cuj3fo74tm60","pricing_plan_id":"cebpf4jnsgd1na2vs0mg"},{"bike_id":"b58bbcb0-a765-4f28-898b-268659748b62","system_id":"levelo_inurba_marseille","lat":43.295169,"lon":5.390426,"is_reserved":false,"is_disabled":false,"rental_uris":{"android":"levelo://app?vid=b58bbcb0-a765-4f28-898b-268659748b62","ios":"levelo://app?vid=b58bbcb0-a765-4f28-898b-268659748b62"},"vehicle_type_id":"4","last_reported":1723572694,"current_range_meters":24000,"station_id":"ce4bh3p2rcd13ifvqdp0","pricing_plan_id":"cebpf4jnsgd1na2vs0mg"},{"bike_id":"445268ff-bb40-4a6f-82ee-8b95a59abc81","system_id":"levelo_inurba_marseille","lat":43.28979,"lon":5.37836,"is_reserved":false,"is_disabled":false,"rental_uris":{"android":"levelo://app?vid=445268ff-bb40-4a6f-82ee-8b95a59abc81","ios":"levelo://app?vid=445268ff-bb40-4a6f-82ee-8b95a59abc81"},"vehicle_type_id":"4","last_reported":1723572694,"current_range_meters":800,"station_id":"ce4bh9p2rcd13ifvqed0","pricing_plan_id":"cebpf4jnsgd1na2vs0mg"},{"bike_id":"65ae9545-d976-4d3b-a72b-f7ea0ca61b6c","system_id":"levelo_inurba_marseille","lat":43.330442,"lon":5.389148,"is_reserved":false,"is_disabled":false,"rental_uris":{"android":"levelo://app?vid=65ae9545-d976-4d3b-a72b-f7ea0ca61b6c","ios":"levelo://app?vid=65ae9545-d976-4d3b-a72b-f7ea0ca61b6c"},"vehicle_type_id":"4","last_reported":1723572694,"current_range_meters":8800,"station_id":"ce4bhr92rcd13ifvqhrg","pricing_plan_id":"cebpf4jnsgd1na2vs0mg"},{"bike_id":"22c3efe6-5d33-4a26-acdf-c90a3679f90b","system_id":"levelo_inurba_marseille","lat":43.330442,"lon":5.389148,"is_reserved":false,"is_disabled":false,"rental_uris":{"android":"levelo://app?vid=22c3efe6-5d33-4a26-acdf-c90a3679f90b","ios":"levelo://app?vid=22c3efe6-5d33-4a26-acdf-c90a3679f90b"},"vehicle_type_id":"4","last_reported":1723572694,"current_range_meters":4400,"station_id":"ce4bhr92rcd13ifvqhrg","pricing_plan_id":"cebpf4jnsgd1na2vs0mg"},{"bike_id":"52669968-24bb-444c-b41d-cf89180ac9eb","system_id":"levelo_inurba_marseille","lat":43.310608,"lon":5.400715,"is_reserved":false,"is_disabled":false,"rental_uris":{"android":"levelo://app?vid=52669968-24bb-444c-b41d-cf89180ac9eb","ios":"levelo://app?vid=52669968-24bb-444c-b41d-cf89180ac9eb"},"vehicle_type_id":"4","last_reported":1723572694,"current_range_meters":29600,"station_id":"","pricing_plan_id":"cebpf4jnsgd1na2vs0mg"},{"bike_id":"53f7bb59-284d-4f80-880f-66f9633342f6","system_id":"levelo_inurba_marseille","lat":43.2901,"lon":5.381269,"is_reserved":false,"is_disabled":false,"rental_uris":{"android":"levelo://app?vid=53f7bb59-284d-4f80-880f-66f9633342f6","ios":"levelo://app?vid=53f7bb59-284d-4f80-880f-66f9633342f6"},"vehicle_type_id":"4","last_reported":1723572694,"current_range_meters":31200,"station_id":"ce4bh4p2rcd13ifvqe1g","pricing_plan_id":"cebpf4jnsgd1na2vs0mg"},{"bike_id":"ead34da7-3273-4dcf-a97c-fe48783f8e9a","system_id":"levelo_inurba_marseille","lat":43.290094,"lon":5.381264,"is_reserved":false,"is_disabled":false,"rental_uris":{"android":"levelo://app?vid=ead34da7-3273-4dcf-a97c-fe48783f8e9a","ios":"levelo://app?vid=ead34da7-3273-4dcf-a97c-fe48783f8e9a"},"vehicle_type_id":"4","last_reported":1723572694,"current_range_meters":27600,"station_id":"ce4bh4p2rcd13ifvqe1g","pricing_plan_id":"cebpf4jnsgd1na2vs0mg"},{"bike_id":"4c7881a3-bd56-45c4-8941-57597e5bdc2c","system_id":"levelo_inurba_marseille","lat":43.295169,"lon":5.390426,"is_reserved":false,"is_disabled":false,"rental_uris":{"android":"levelo://app?vid=4c7881a3-bd56-45c4-8941-57597e5bdc2c","ios":"levelo://app?vid=4c7881a3-bd56-45c4-8941-57597e5bdc2c"},"vehicle_type_id":"4","last_reported":1723572694,"current_range_meters":11200,"station_id":"ce4bh3p2rcd13ifvqdp0","pricing_plan_id":"cebpf4jnsgd1na2vs0mg"},{"bike_id":"dfc80c2c-8a03-427b-8afb-5c4a27a89b15","system_id":"levelo_inurba_marseille","lat":43.28856,"lon":5.358371,"is_reserved":false,"is_disabled":false,"rental_uris":{"android":"levelo://app?vid=dfc80c2c-8a03-427b-8afb-5c4a27a89b15","ios":"levelo://app?vid=dfc80c2c-8a03-427b-8afb-5c4a27a89b15"},"vehicle_type_id":"4","last_reported":1723572694,"current_range_meters":5200,"station_id":"ce4bhb12rcd13ifvqem0","pricing_plan_id":"cebpf4jnsgd1na2vs0mg"},{"bike_id":"33ac59d3-bb9b-463a-b183-d4fee2b58df6","system_id":"levelo_inurba_marseille","lat":43.288455,"lon":5.358411,"is_reserved":false,"is_disabled":false,"rental_uris":{"android":"levelo://app?vid=33ac59d3-bb9b-463a-b183-d4fee2b58df6","ios":"levelo://app?vid=33ac59d3-bb9b-463a-b183-d4fee2b58df6"},"vehicle_type_id":"4","last_reported":1723572694,"current_range_meters":31200,"station_id":"ce4bhb12rcd13ifvqem0","pricing_plan_id":"cebpf4jnsgd1na2vs0mg"},{"bike_id":"16157286-775e-40af-88d2-64ae53e2c8d0","system_id":"levelo_inurba_marseille","lat":43.28841,"lon":5.35855,"is_reserved":false,"is_disabled":false,"rental_uris":{"android":"levelo://app?vid=16157286-775e-40af-88d2-64ae53e2c8d0","ios":"levelo://app?vid=16157286-775e-40af-88d2-64ae53e2c8d0"},"vehicle_type_id":"4","last_reported":1723572694,"current_range_meters":2000,"station_id":"ce4bhb12rcd13ifvqem0","pricing_plan_id":"cebpf4jnsgd1na2vs0mg"},{"bike_id":"1318daf7-2fda-45b2-bf97-bf713fbfd6cd","system_id":"levelo_inurba_marseille","lat":43.312609,"lon":5.401662,"is_reserved":false,"is_disabled":false,"rental_uris":{"android":"levelo://app?vid=1318daf7-2fda-45b2-bf97-bf713fbfd6cd","ios":"levelo://app?vid=1318daf7-2fda-45b2-bf97-bf713fbfd6cd"},"vehicle_type_id":"4","last_reported":1723572694,"current_range_meters":16800,"station_id":"ce4bh092rcd13ifvqd30","pricing_plan_id":"cebpf4jnsgd1na2vs0mg"},{"bike_id":"136e59b3-3162-4472-970b-dd8ec9c3c714","system_id":"levelo_inurba_marseille","lat":43.309371,"lon":5.401449,"is_reserved":false,"is_disabled":false,"rental_uris":{"android":"levelo://app?vid=136e59b3-3162-4472-970b-dd8ec9c3c714","ios":"levelo://app?vid=136e59b3-3162-4472-970b-dd8ec9c3c714"},"vehicle_type_id":"4","last_reported":1723572694,"current_range_meters":1600,"station_id":"ce4bgvp2rcd13ifvqct0","pricing_plan_id":"cebpf4jnsgd1na2vs0mg"},{"bike_id":"58e414e5-5d35-4769-92f7-70c0f03a70c3","system_id":"levelo_inurba_marseille","lat":43.309371,"lon":5.401449,"is_reserved":false,"is_disabled":false,"rental_uris":{"android":"levelo://app?vid=58e414e5-5d35-4769-92f7-70c0f03a70c3","ios":"levelo://app?vid=58e414e5-5d35-4769-92f7-70c0f03a70c3"},"vehicle_type_id":"4","last_reported":1723572694,"current_range_meters":6400,"station_id":"ce4bgvp2rcd13ifvqct0","pricing_plan_id":"cebpf4jnsgd1na2vs0mg"},{"bike_id":"ac75d8e5-5139-4e43-a64e-51e7994c2517","system_id":"levelo_inurba_marseille","lat":43.337444,"lon":5.374475,"is_reserved":false,"is_disabled":false,"rental_uris":{"android":"levelo://app?vid=ac75d8e5-5139-4e43-a64e-51e7994c2517","ios":"levelo://app?vid=ac75d8e5-5139-4e43-a64e-51e7994c2517"},"vehicle_type_id":"3","last_reported":1723572694,"current_range_meters":24800,"station_id":"","pricing_plan_id":"cebpf4jnsgd1na2vs0mg"},{"bike_id":"15bca738-97fc-487e-96ae-6ffef47b827e","system_id":"levelo_inurba_marseille","lat":43.309371,"lon":5.401449,"is_reserved":false,"is_disabled":false,"rental_uris":{"android":"levelo://app?vid=15bca738-97fc-487e-96ae-6ffef47b827e","ios":"levelo://app?vid=15bca738-97fc-487e-96ae-6ffef47b827e"},"vehicle_type_id":"4","last_reported":1723572694,"current_range_meters":0,"station_id":"ce4bgvp2rcd13ifvqct0","pricing_plan_id":"cebpf4jnsgd1na2vs0mg"},{"bike_id":"b1c4c89c-fa9e-47cf-97e2-4b370e6c72cf","system_id":"levelo_inurba_marseille","lat":43.309371,"lon":5.401449,"is_reserved":false,"is_disabled":false,"rental_uris":{"android":"levelo://app?vid=b1c4c89c-fa9e-47cf-97e2-4b370e6c72cf","ios":"levelo://app?vid=b1c4c89c-fa9e-47cf-97e2-4b370e6c72cf"},"vehicle_type_id":"4","last_reported":1723572694,"current_range_meters":17600,"station_id":"ce4bgvp2rcd13ifvqct0","pricing_plan_id":"cebpf4jnsgd1na2vs0mg"},{"bike_id":"7d38e3fb-5969-4f36-bdc4-5ae121e9ff61","system_id":"levelo_inurba_marseille","lat":43.30927,"lon":5.40143,"is_reserved":false,"is_disabled":false,"rental_uris":{"android":"levelo://app?vid=7d38e3fb-5969-4f36-bdc4-5ae121e9ff61","ios":"levelo://app?vid=7d38e3fb-5969-4f36-bdc4-5ae121e9ff61"},"vehicle_type_id":"4","last_reported":1723572694,"current_range_meters":12800,"station_id":"","pricing_plan_id":"cebpf4jnsgd1na2vs0mg"},{"bike_id":"284e4c4a-3d46-4be7-9b8a-7609f1e39fc7","system_id":"levelo_inurba_marseille","lat":43.309371,"lon":5.401449,"is_reserved":false,"is_disabled":false,"rental_uris":{"android":"levelo://app?vid=284e4c4a-3d46-4be7-9b8a-7609f1e39fc7","ios":"levelo://app?vid=284e4c4a-3d46-4be7-9b8a-7609f1e39fc7"},"vehicle_type_id":"4","last_reported":1723572694,"current_range_meters":6000,"station_id":"ce4bgvp2rcd13ifvqct0","pricing_plan_id":"cebpf4jnsgd1na2vs0mg"},{"bike_id":"6ffa0744-ceaf-4c90-b83c-5aca8dd05db7","system_id":"levelo_inurba_marseille","lat":43.309371,"lon":5.401449,"is_reserved":false,"is_disabled":false,"rental_uris":{"android":"levelo://app?vid=6ffa0744-ceaf-4c90-b83c-5aca8dd05db7","ios":"levelo://app?vid=6ffa0744-ceaf-4c90-b83c-5aca8dd05db7"},"vehicle_type_id":"4","last_reported":1723572694,"current_range_meters":11600,"station_id":"ce4bgvp2rcd13ifvqct0","pricing_plan_id":"cebpf4jnsgd1na2vs0mg"},{"bike_id":"c6597611-0d91-4f31-be74-4cc2b78bc7aa","system_id":"levelo_inurba_marseille","lat":43.33751,"lon":5.3745,"is_reserved":false,"is_disabled":false,"rental_uris":{"android":"levelo://app?vid=c6597611-0d91-4f31-be74-4cc2b78bc7aa","ios":"levelo://app?vid=c6597611-0d91-4f31-be74-4cc2b78bc7aa"},"vehicle_type_id":"4","last_reported":1723572694,"current_range_meters":14000,"station_id":"","pricing_plan_id":"cebpf4jnsgd1na2vs0mg"},{"bike_id":"6086599c-14e6-492d-8b53-d8808720b8a6","system_id":"levelo_inurba_marseille","lat":43.287839,"lon":5.373678,"is_reserved":false,"is_disabled":false,"rental_uris":{"android":"levelo://app?vid=6086599c-14e6-492d-8b53-d8808720b8a6","ios":"levelo://app?vid=6086599c-14e6-492d-8b53-d8808720b8a6"},"vehicle_type_id":"4","last_reported":1723572694,"current_range_meters":4400,"station_id":"","pricing_plan_id":"cebpf4jnsgd1na2vs0mg"},{"bike_id":"00cf81c2-ffe6-4a33-b73a-04b22878f4d1","system_id":"levelo_inurba_marseille","lat":43.30642,"lon":5.401031,"is_reserved":false,"is_disabled":false,"rental_uris":{"android":"levelo://app?vid=00cf81c2-ffe6-4a33-b73a-04b22878f4d1","ios":"levelo://app?vid=00cf81c2-ffe6-4a33-b73a-04b22878f4d1"},"vehicle_type_id":"4","last_reported":1723572694,"current_range_meters":0,"station_id":"ce4bh112rcd13ifvqda0","pricing_plan_id":"cebpf4jnsgd1na2vs0mg"},{"bike_id":"1ece39e8-5ec5-465b-b0d5-bdea3554c74d","system_id":"levelo_inurba_marseille","lat":43.337589,"lon":5.374474,"is_reserved":false,"is_disabled":false,"rental_uris":{"android":"levelo://app?vid=1ece39e8-5ec5-465b-b0d5-bdea3554c74d","ios":"levelo://app?vid=1ece39e8-5ec5-465b-b0d5-bdea3554c74d"},"vehicle_type_id":"4","last_reported":1723572694,"current_range_meters":11200,"station_id":"","pricing_plan_id":"cebpf4jnsgd1na2vs0mg"},{"bike_id":"b331b77c-3532-48a1-890f-ae8e9d47db6c","system_id":"levelo_inurba_marseille","lat":43.30647,"lon":5.40092,"is_reserved":false,"is_disabled":false,"rental_uris":{"android":"levelo://app?vid=b331b77c-3532-48a1-890f-ae8e9d47db6c","ios":"levelo://app?vid=b331b77c-3532-48a1-890f-ae8e9d47db6c"},"vehicle_type_id":"4","last_reported":1723572694,"current_range_meters":21600,"station_id":"ce4bh112rcd13ifvqda0","pricing_plan_id":"cebpf4jnsgd1na2vs0mg"},{"bike_id":"f099e96f-3f1c-4dbb-bae3-29e8b0120760","system_id":"levelo_inurba_marseille","lat":43.306469,"lon":5.400947,"is_reserved":false,"is_disabled":false,"rental_uris":{"android":"levelo://app?vid=f099e96f-3f1c-4dbb-bae3-29e8b0120760","ios":"levelo://app?vid=f099e96f-3f1c-4dbb-bae3-29e8b0120760"},"vehicle_type_id":"4","last_reported":1723572694,"current_range_meters":28400,"station_id":"ce4bh012rcd13ifvqcv0","pricing_plan_id":"cebpf4jnsgd1na2vs0mg"},{"bike_id":"ade0861f-aa39-49ee-96bc-20008e0da4fa","system_id":"levelo_inurba_marseille","lat":43.301117,"lon":5.398795,"is_reserved":false,"is_disabled":false,"rental_uris":{"android":"levelo://app?vid=ade0861f-aa39-49ee-96bc-20008e0da4fa","ios":"levelo://app?vid=ade0861f-aa39-49ee-96bc-20008e0da4fa"},"vehicle_type_id":"4","last_reported":1723572694,"current_range_meters":10800,"station_id":"ce4bh0h2rcd13ifvqd40","pricing_plan_id":"cebpf4jnsgd1na2vs0mg"},{"bike_id":"e956b6f2-3ce2-40ce-9804-b0175628d395","system_id":"levelo_inurba_marseille","lat":43.28729,"lon":5.36078,"is_reserved":false,"is_disabled":false,"rental_uris":{"android":"levelo://app?vid=e956b6f2-3ce2-40ce-9804-b0175628d395","ios":"levelo://app?vid=e956b6f2-3ce2-40ce-9804-b0175628d395"},"vehicle_type_id":"4","last_reported":1723572694,"current_range_meters":18400,"station_id":"cki0cbj6b192h4jlfktg","pricing_plan_id":"cebpf4jnsgd1na2vs0mg"},{"bike_id":"3c6528f6-0cf6-4879-af03-6a17ba8eee4c","system_id":"levelo_inurba_marseille","lat":43.28726,"lon":5.3608,"is_reserved":false,"is_disabled":false,"rental_uris":{"android":"levelo://app?vid=3c6528f6-0cf6-4879-af03-6a17ba8eee4c","ios":"levelo://app?vid=3c6528f6-0cf6-4879-af03-6a17ba8eee4c"},"vehicle_type_id":"4","last_reported":1723572694,"current_range_meters":29600,"station_id":"cki0cbj6b192h4jlfktg","pricing_plan_id":"cebpf4jnsgd1na2vs0mg"},{"bike_id":"ebbea4bf-2ecc-483c-a5bd-8b016051fae9","system_id":"levelo_inurba_marseille","lat":43.28725,"lon":5.36085,"is_reserved":false,"is_disabled":false,"rental_uris":{"android":"levelo://app?vid=ebbea4bf-2ecc-483c-a5bd-8b016051fae9","ios":"levelo://app?vid=ebbea4bf-2ecc-483c-a5bd-8b016051fae9"},"vehicle_type_id":"4","last_reported":1723572694,"current_range_meters":19600,"station_id":"cki0cbj6b192h4jlfktg","pricing_plan_id":"cebpf4jnsgd1na2vs0mg"},{"bike_id":"f0dd32b3-25ad-4fd0-9400-bdfd370e6b26","system_id":"levelo_inurba_marseille","lat":43.291994,"lon":5.392907,"is_reserved":false,"is_disabled":false,"rental_uris":{"android":"levelo://app?vid=f0dd32b3-25ad-4fd0-9400-bdfd370e6b26","ios":"levelo://app?vid=f0dd32b3-25ad-4fd0-9400-bdfd370e6b26"},"vehicle_type_id":"4","last_reported":1723572694,"current_range_meters":20800,"station_id":"ce4bh192rcd13ifvqdd0","pricing_plan_id":"cebpf4jnsgd1na2vs0mg"},{"bike_id":"1ef2346d-fec8-4926-9a38-3061ed0e2811","system_id":"levelo_inurba_marseille","lat":43.298681,"lon":5.397225,"is_reserved":false,"is_disabled":false,"rental_uris":{"android":"levelo://app?vid=1ef2346d-fec8-4926-9a38-3061ed0e2811","ios":"levelo://app?vid=1ef2346d-fec8-4926-9a38-3061ed0e2811"},"vehicle_type_id":"4","last_reported":1723572694,"current_range_meters":0,"station_id":"ce4bh0h2rcd13ifvqd50","pricing_plan_id":"cebpf4jnsgd1na2vs0mg"},{"bike_id":"9a3bb345-c78a-4e1f-a502-aad361ad4f88","system_id":"levelo_inurba_marseille","lat":43.298681,"lon":5.397225,"is_reserved":false,"is_disabled":false,"rental_uris":{"android":"levelo://app?vid=9a3bb345-c78a-4e1f-a502-aad361ad4f88","ios":"levelo://app?vid=9a3bb345-c78a-4e1f-a502-aad361ad4f88"},"vehicle_type_id":"4","last_reported":1723572694,"current_range_meters":5600,"station_id":"ce4bh0h2rcd13ifvqd50","pricing_plan_id":"cebpf4jnsgd1na2vs0mg"},{"bike_id":"9c82271f-d2bf-4464-a9c2-79f2210f026b","system_id":"levelo_inurba_marseille","lat":43.298681,"lon":5.397225,"is_reserved":false,"is_disabled":false,"rental_uris":{"android":"levelo://app?vid=9c82271f-d2bf-4464-a9c2-79f2210f026b","ios":"levelo://app?vid=9c82271f-d2bf-4464-a9c2-79f2210f026b"},"vehicle_type_id":"4","last_reported":1723572694,"current_range_meters":25600,"station_id":"ce4bh0h2rcd13ifvqd50","pricing_plan_id":"cebpf4jnsgd1na2vs0mg"},{"bike_id":"7b390faf-4528-4641-860d-2e2ecfdcf7a8","system_id":"levelo_inurba_marseille","lat":43.286961,"lon":5.373785,"is_reserved":false,"is_disabled":false,"rental_uris":{"android":"levelo://app?vid=7b390faf-4528-4641-860d-2e2ecfdcf7a8","ios":"levelo://app?vid=7b390faf-4528-4641-860d-2e2ecfdcf7a8"},"vehicle_type_id":"4","last_reported":1723572694,"current_range_meters":0,"station_id":"ce4bh3p2rcd13ifvqdq0","pricing_plan_id":"cebpf4jnsgd1na2vs0mg"},{"bike_id":"41760bba-0bb5-401c-897e-2aedde864a67","system_id":"levelo_inurba_marseille","lat":43.286961,"lon":5.373785,"is_reserved":false,"is_disabled":false,"rental_uris":{"android":"levelo://app?vid=41760bba-0bb5-401c-897e-2aedde864a67","ios":"levelo://app?vid=41760bba-0bb5-401c-897e-2aedde864a67"},"vehicle_type_id":"4","last_reported":1723572694,"current_range_meters":0,"station_id":"ce4bh3p2rcd13ifvqdq0","pricing_plan_id":"cebpf4jnsgd1na2vs0mg"},{"bike_id":"ef05ebb6-6de4-461b-8f5d-1c23bc449d72","system_id":"levelo_inurba_marseille","lat":43.289307,"lon":5.38406,"is_reserved":false,"is_disabled":false,"rental_uris":{"android":"levelo://app?vid=ef05ebb6-6de4-461b-8f5d-1c23bc449d72","ios":"levelo://app?vid=ef05ebb6-6de4-461b-8f5d-1c23bc449d72"},"vehicle_type_id":"4","last_reported":1723572694,"current_range_meters":30000,"station_id":"ce4bh612rcd13ifvqe6g","pricing_plan_id":"cebpf4jnsgd1na2vs0mg"},{"bike_id":"6828b547-b327-45ac-846b-dc6433769210","system_id":"levelo_inurba_marseille","lat":43.290336,"lon":5.386425,"is_reserved":false,"is_disabled":false,"rental_uris":{"android":"levelo://app?vid=6828b547-b327-45ac-846b-dc6433769210","ios":"levelo://app?vid=6828b547-b327-45ac-846b-dc6433769210"},"vehicle_type_id":"4","last_reported":1723572694,"current_range_meters":11200,"station_id":"ce4bh4p2rcd13ifvqe0g","pricing_plan_id":"cebpf4jnsgd1na2vs0mg"},{"bike_id":"eaf857d7-3f38-44c6-8dc9-56098beff462","system_id":"levelo_inurba_marseille","lat":43.29024,"lon":5.38643,"is_reserved":false,"is_disabled":false,"rental_uris":{"android":"levelo://app?vid=eaf857d7-3f38-44c6-8dc9-56098beff462","ios":"levelo://app?vid=eaf857d7-3f38-44c6-8dc9-56098beff462"},"vehicle_type_id":"4","last_reported":1723572694,"current_range_meters":0,"station_id":"ce4bh4p2rcd13ifvqe0g","pricing_plan_id":"cebpf4jnsgd1na2vs0mg"},{"bike_id":"2b7e2fc8-0443-45c9-b688-5274f17e6771","system_id":"levelo_inurba_marseille","lat":43.290336,"lon":5.386425,"is_reserved":false,"is_disabled":false,"rental_uris":{"android":"levelo://app?vid=2b7e2fc8-0443-45c9-b688-5274f17e6771","ios":"levelo://app?vid=2b7e2fc8-0443-45c9-b688-5274f17e6771"},"vehicle_type_id":"4","last_reported":1723572694,"current_range_meters":10400,"station_id":"ce4bh4p2rcd13ifvqe0g","pricing_plan_id":"cebpf4jnsgd1na2vs0mg"},{"bike_id":"df4fd8c0-4031-4224-8008-0212673a2c87","system_id":"levelo_inurba_marseille","lat":43.302759,"lon":5.400793,"is_reserved":false,"is_disabled":false,"rental_uris":{"android":"levelo://app?vid=df4fd8c0-4031-4224-8008-0212673a2c87","ios":"levelo://app?vid=df4fd8c0-4031-4224-8008-0212673a2c87"},"vehicle_type_id":"4","last_reported":1723572694,"current_range_meters":5200,"station_id":"ce4bgvh2rcd13ifvqcs0","pricing_plan_id":"cebpf4jnsgd1na2vs0mg"},