{"last_updated":1741436002,"ttl":60,"version":"2.2","data":{"bikes":[{"bike_id":"f1380db9-2dc5-44ee-9fca-0e48bba1066d","system_id":"levelo_inurba_marseille","lat":43.23152,"lon":5.43704,"is_reserved":false,"is_disabled":false,"rental_uris":{"android":"levelo://app?vid=f1380db9-2dc5-44ee-9fca-0e48bba1066d","ios":"levelo://app?vid=f1380db9-2dc5-44ee-9fca-0e48bba1066d"},"vehicle_type_id":"4","last_reported":1741436002,"current_range_meters":2800,"station_id":"ce4bhmp2rcd13ifvqgog","pricing_plan_id":"cebpf4jnsgd1na2vs0mg"},{"bike_id":"0195c34b-82c4-4546-89a1-1f5a53421cfd","system_id":"levelo_inurba_marseille","lat":43.28501,"lon":5.37677,"is_reserved":false,"is_disabled":false,"rental_uris":{"android":"levelo://app?vid=0195c34b-82c4-4546-89a1-1f5a53421cfd","ios":"levelo://app?vid=0195c34b-82c4-4546-89a1-1f5a53421cfd"},"vehicle_type_id":"4","last_reported":1741436002,"current_range_meters":8000,"station_id":"","pricing_plan_id":"cebpf4jnsgd1na2vs0mg"},{"bike_id":"670bd896-8bc8-44b5-ac26-38d6004fae28","system_id":"levelo_inurba_marseille","lat":43.232,"lon":5.35557,"is_reserved":false,"is_disabled":false,"rental_uris":{"android":"levelo://app?vid=670bd896-8bc8-44b5-ac26-38d6004fae28","ios":"levelo://app?vid=670bd896-8bc8-44b5-ac26-38d6004fae28"},"vehicle_type_id":"4","last_reported":1741436002,"current_range_meters":2800,"station_id":"ce4bhu92rcd13ifvqi70","pricing_plan_id":"cebpf4jnsgd1na2vs0mg"},{"bike_id":"cb8ea90a-b113-4012-925a-45ad1844f039","system_id":"levelo_inurba_marseille","lat":43.29005,"lon":5.3561,"is_reserved":false,"is_disabled":false,"rental_uris":{"android":"levelo://app?vid=cb8ea90a-b113-4012-925a-45ad1844f039","ios":"levelo://app?vid=cb8ea90a-b113-4012-925a-45ad1844f039"},"vehicle_type_id":"4","last_reported":1741436002,"current_range_meters":3200,"station_id":"ce4bhb92rcd13ifvqen0","pricing_plan_id":"cebpf4jnsgd1na2vs0mg"},{"bike_id":"afa1b3d4-140c-4023-b381-99d91163bada","system_id":"levelo_inurba_marseille","lat":43.251,"lon":5.40335,"is_reserved":false,"is_disabled":false,"rental_uris":{"android":"levelo://app?vid=afa1b3d4-140c-4023-b381-99d91163bada","ios":"levelo://app?vid=afa1b3d4-140c-4023-b381-99d91163bada"},"vehicle_type_id":"4","last_reported":1741436002,"current_range_meters":3200,"station_id":"ce4bhlh2rcd13ifvqgig","pricing_plan_id":"cebpf4jnsgd1na2vs0mg"},{"bike_id":"c9151ceb-fd35-4b40-9877-b7757062111e","system_id":"levelo_inurba_marseille","lat":43.27819,"lon":5.40715,"is_reserved":false,"is_disabled":false,"rental_uris":{"android":"levelo://app?vid=c9151ceb-fd35-4b40-9877-b7757062111e","ios":"levelo://app?vid=c9151ceb-fd35-4b40-9877-b7757062111e"},"vehicle_type_id":"4","last_reported":1741436002,"current_range_meters":3200,"station_id":"ce4bhnh2rcd13ifvqgtg","pricing_plan_id":"cebpf4jnsgd1na2vs0mg"},{"bike_id":"3763ca09-281c-481c-9755-79dce3edd104","system_id":"levelo_inurba_marseille","lat":43.31987,"lon":5.38147,"is_reserved":false,"is_disabled":false,"rental_uris":{"android":"levelo://app?vid=3763ca09-281c-481c-9755-79dce3edd104","ios":"levelo://app?vid=3763ca09-281c-481c-9755-79dce3edd104"},"vehicle_type_id":"4","last_reported":1741436002,"current_range_meters":3200,"station_id":"ce4bhr12rcd13ifvqhpg","pricing_plan_id":"cebpf4jnsgd1na2vs0mg"},{"bike_id":"4eabbbdc-d58d-49e1-af96-c6c879ec5be3","system_id":"levelo_inurba_marseille","lat":43.30883,"lon":5.39656,"is_reserved":false,"is_disabled":false,"rental_uris":{"android":"levelo://app?vid=4eabbbdc-d58d-49e1-af96-c6c879ec5be3","ios":"levelo://app?vid=4eabbbdc-d58d-49e1-af96-c6c879ec5be3"},"vehicle_type_id":"4","last_reported":1741436002,"current_range_meters":3600,"station_id":"ce4bh012rcd13ifvqcv0","pricing_plan_id":"cebpf4jnsgd1na2vs0mg"},{"bike_id":"e03b3a46-c5a6-4a84-8460-b885a90b1187","system_id":"levelo_inurba_marseille","lat":43.23193,"lon":5.35541,"is_reserved":false,"is_disabled":false,"rental_uris":{"android":"levelo://app?vid=e03b3a46-c5a6-4a84-8460-b885a90b1187","ios":"levelo://app?vid=e03b3a46-c5a6-4a84-8460-b885a90b1187"},"vehicle_type_id":"4","last_reported":1741436002,"current_range_meters":3600,"station_id":"ce4bhu92rcd13ifvqi70","pricing_plan_id":"cebpf4jnsgd1na2vs0mg"},{"bike_id":"43bc5e18-7bfb-4e30-b758-942e653f0d5a","system_id":"levelo_inurba_marseille","lat":43.24647,"lon":5.40256,"is_reserved":false,"is_disabled":false,"rental_uris":{"android":"levelo://app?vid=43bc5e18-7bfb-4e30-b758-942e653f0d5a","ios":"levelo://app?vid=43bc5e18-7bfb-4e30-b758-942e653f0d5a"},"vehicle_type_id":"4","last_reported":1741436002,"current_range_meters":3600,"station_id":"","pricing_plan_id":"cebpf4jnsgd1na2vs0mg"},{"bike_id":"57f5c4a4-5cfc-4cfe-9323-6566dfe08595","system_id":"levelo_inurba_marseille","lat":43.28482,"lon":5.38406,"is_reserved":false,"is_disabled":false,"rental_uris":{"android":"levelo://app?vid=57f5c4a4-5cfc-4cfe-9323-6566dfe08595","ios":"levelo://app?vid=57f5c4a4-5cfc-4cfe-9323-6566dfe08595"},"vehicle_type_id":"4","last_reported":1741436002,"current_range_meters":3600,"station_id":"ce4bh512rcd13ifvqe3g","pricing_plan_id":"cebpf4jnsgd1na2vs0mg"},{"bike_id":"bb3cad49-1f44-4ca8-8b53-a9a721609bc8","system_id":"levelo_inurba_marseille","lat":43.313277,"lon":5.396917,"is_reserved":false,"is_disabled":false,"rental_uris":{"android":"levelo://app?vid=bb3cad49-1f44-4ca8-8b53-a9a721609bc8","ios":"levelo://app?vid=bb3cad49-1f44-4ca8-8b53-a9a721609bc8"},"vehicle_type_id":"4","last_reported":1741436002,"current_range_meters":4000,"station_id":"ce4bgvp2rcd13ifvqcu0","pricing_plan_id":"cebpf4jnsgd1na2vs0mg"},{"bike_id":"3332297b-ddda-468e-86eb-33cdac2c9b94","system_id":"levelo_inurba_marseille","lat":43.30353,"lon":5.41886,"is_reserved":false,"is_disabled":false,"rental_uris":{"android":"levelo://app?vid=3332297b-ddda-468e-86eb-33cdac2c9b94","ios":"levelo://app?vid=3332297b-ddda-468e-86eb-33cdac2c9b94"},"vehicle_type_id":"4","last_reported":1741436002,"current_range_meters":4000,"station_id":"ce4bhop2rcd13ifvqh7g","pricing_plan_id":"cebpf4jnsgd1na2vs0mg"},{"bike_id":"0089b359-2e71-42c1-94fb-d53a8826843c","system_id":"levelo_inurba_marseille","lat":43.29907,"lon":5.38143,"is_reserved":false,"is_disabled":false,"rental_uris":{"android":"levelo://app?vid=0089b359-2e71-42c1-94fb-d53a8826843c","ios":"levelo://app?vid=0089b359-2e71-42c1-94fb-d53a8826843c"},"vehicle_type_id":"4","last_reported":1741436002,"current_range_meters":4400,"station_id":"ce4bgj12rcd13ifvqbc0","pricing_plan_id":"cebpf4jnsgd1na2vs0mg"},{"bike_id":"a78fd91e-0f7a-49cf-a1c5-dd19d3651723","system_id":"levelo_inurba_marseille","lat":43.24804,"lon":5.37455,"is_reserved":false,"is_disabled":false,"rental_uris":{"android":"levelo://app?vid=a78fd91e-0f7a-49cf-a1c5-dd19d3651723","ios":"levelo://app?vid=a78fd91e-0f7a-49cf-a1c5-dd19d3651723"},"vehicle_type_id":"4","last_reported":1741436002,"current_range_meters":4000,"station_id":"ce4bhgh2rcd13ifvqfb0","pricing_plan_id":"cebpf4jnsgd1na2vs0mg"},{"bike_id":"3c6534b8-577b-4d98-9002-6e3d8f155192","system_id":"levelo_inurba_marseille","lat":43.23964,"lon":5.36623,"is_reserved":false,"is_disabled":false,"rental_uris":{"android":"levelo://app?vid=3c6534b8-577b-4d98-9002-6e3d8f155192","ios":"levelo://app?vid=3c6534b8-577b-4d98-9002-6e3d8f155192"},"vehicle_type_id":"4","last_reported":1741436002,"current_range_meters":4400,"station_id":"ce4bhi12rcd13ifvqfp0","pricing_plan_id":"cebpf4jnsgd1na2vs0mg"},{"bike_id":"53ba06d6-3b6c-4f49-bc80-8f7e1937ded3","system_id":"levelo_inurba_marseille","lat":43.27897,"lon":5.41234,"is_reserved":false,"is_disabled":false,"rental_uris":{"android":"levelo://app?vid=53ba06d6-3b6c-4f49-bc80-8f7e1937ded3","ios":"levelo://app?vid=53ba06d6-3b6c-4f49-bc80-8f7e1937ded3"},"vehicle_type_id":"4","last_reported":1741436002,"current_range_meters":4400,"station_id":"","pricing_plan_id":"cebpf4jnsgd1na2vs0mg"},{"bike_id":"3a090aba-8792-4e90-ae22-5154f3f7f1bc","system_id":"levelo_inurba_marseille","lat":43.32106,"lon":5.3679,"is_reserved":false,"is_disabled":false,"rental_uris":{"android":"levelo://app?vid=3a090aba-8792-4e90-ae22-5154f3f7f1bc","ios":"levelo://app?vid=3a090aba-8792-4e90-ae22-5154f3f7f1bc"},"vehicle_type_id":"4","last_reported":1741436002,"current_range_meters":4400,"station_id":"ce4bhrh2rcd13ifvqhug","pricing_plan_id":"cebpf4jnsgd1na2vs0mg"},{"bike_id":"24808a77-fd18-43f5-ba2d-a3e90bf0e5c0","system_id":"levelo_inurba_marseille","lat":43.29412,"lon":5.38622,"is_reserved":false,"is_disabled":false,"rental_uris":{"android":"levelo://app?vid=24808a77-fd18-43f5-ba2d-a3e90bf0e5c0","ios":"levelo://app?vid=24808a77-fd18-43f5-ba2d-a3e90bf0e5c0"},"vehicle_type_id":"4","last_reported":1741436002,"current_range_meters":3600,"station_id":"ce4bh2h2rcd13ifvqdh0","pricing_plan_id":"cebpf4jnsgd1na2vs0mg"},{"bike_id":"1d494359-a05b-4f55-845d-d2fd3d890fe7","system_id":"levelo_inurba_marseille","lat":43.24389,"lon":5.37058,"is_reserved":false,"is_disabled":false,"rental_uris":{"android":"levelo://app?vid=1d494359-a05b-4f55-845d-d2fd3d890fe7","ios":"levelo://app?vid=1d494359-a05b-4f55-845d-d2fd3d890fe7"},"vehicle_type_id":"4","last_reported":1741436002,"current_range_meters":4000,"station_id":"ce4bhhh2rcd13ifvqfk0","pricing_plan_id":"cebpf4jnsgd1na2vs0mg"},{"bike_id":"500b986a-3fb8-4992-82de-7abadb6f8f2f","system_id":"levelo_inurba_marseille","lat":43.29302,"lon":5.37456,"is_reserved":false,"is_disabled":true,"rental_uris":{"android":"levelo://app?vid=500b986a-3fb8-4992-82de-7abadb6f8f2f","ios":"levelo://app?vid=500b986a-3fb8-4992-82de-7abadb6f8f2f"},"vehicle_type_id":"4","last_reported":1741436002,"current_range_meters":4800,"station_id":"ce4bgi12rcd13ifvqb70","pricing_plan_id":"cebpf4jnsgd1na2vs0mg"},{"bike_id":"9d266adf-3426-48ee-8878-5b7f40309586","system_id":"levelo_inurba_marseille","lat":43.29039,"lon":5.3593,"is_reserved":false,"is_disabled":false,"rental_uris":{"android":"levelo://app?vid=9d266adf-3426-48ee-8878-5b7f40309586","ios":"levelo://app?vid=9d266adf-3426-48ee-8878-5b7f40309586"},"vehicle_type_id":"4","last_reported":1741436002,"current_range_meters":5600,"station_id":"ce4bha92rcd13ifvqeg0","pricing_plan_id":"cebpf4jnsgd1na2vs0mg"},{"bike_id":"d534de1e-bac1-47fb-b2f8-70bf20fd45fa","system_id":"levelo_inurba_marseille","lat":43.29918,"lon":5.37262,"is_reserved":false,"is_disabled":false,"rental_uris":{"android":"levelo://app?vid=d534de1e-bac1-47fb-b2f8-70bf20fd45fa","ios":"levelo://app?vid=d534de1e-bac1-47fb-b2f8-70bf20fd45fa"},"vehicle_type_id":"4","last_reported":1741436002,"current_range_meters":5600,"station_id":"ce4bgr92rcd13ifvqc7g","pricing_plan_id":"cebpf4jnsgd1na2vs0mg"},{"bike_id":"33fdcb46-0c2d-4e71-ae12-a8f13d5fae3a","system_id":"levelo_inurba_marseille","lat":43.25494,"lon":5.37639,"is_reserved":false,"is_disabled":false,"rental_uris":{"android":"levelo://app?vid=33fdcb46-0c2d-4e71-ae12-a8f13d5fae3a","ios":"levelo://app?vid=33fdcb46-0c2d-4e71-ae12-a8f13d5fae3a"},"vehicle_type_id":"4","last_reported":1741436002,"current_range_meters":6000,"station_id":"ce4bhh12rcd13ifvqff0","pricing_plan_id":"cebpf4jnsgd1na2vs0mg"},{"bike_id":"1fee6973-e38d-4ace-bdac-29acc87ed0ab","system_id":"levelo_inurba_marseille","lat":43.29896,"lon":5.43662,"is_reserved":false,"is_disabled":false,"rental_uris":{"android":"levelo://app?vid=1fee6973-e38d-4ace-bdac-29acc87ed0ab","ios":"levelo://app?vid=1fee6973-e38d-4ace-bdac-29acc87ed0ab"},"vehicle_type_id":"4","last_reported":1741436002,"current_range_meters":6000,"station_id":"ce4bhpp2rcd13ifvqhfg","pricing_plan_id":"cebpf4jnsgd1na2vs0mg"},{"bike_id":"910f7542-9b21-464b-9048-5b78c72d50f2","system_id":"levelo_inurba_marseille","lat":43.23061,"lon":5.3549,"is_reserved":false,"is_disabled":false,"rental_uris":{"android":"levelo://app?vid=910f7542-9b21-464b-9048-5b78c72d50f2","ios":"levelo://app?vid=910f7542-9b21-464b-9048-5b78c72d50f2"},"vehicle_type_id":"4","last_reported":1741436002,"current_range_meters":6000,"station_id":"cpo3342slgdg3j2ifvpg","pricing_plan_id":"cebpf4jnsgd1na2vs0mg"},{"bike_id":"5bdf4920-4195-476f-bc71-f6faaf7f7598","system_id":"levelo_inurba_marseille","lat":43.265,"lon":5.39562,"is_reserved":false,"is_disabled":false,"rental_uris":{"android":"levelo://app?vid=5bdf4920-4195-476f-bc71-f6faaf7f7598","ios":"levelo://app?vid=5bdf4920-4195-476f-bc71-f6faaf7f7598"},"vehicle_type_id":"4","last_reported":1741436002,"current_range_meters":6000,"station_id":"ce4bhi12rcd13ifvqfq0","pricing_plan_id":"cebpf4jnsgd1na2vs0mg"},{"bike_id":"b7d2f953-3da7-4daa-9fad-166d1f8731aa","system_id":"levelo_inurba_marseille","lat":43.24628,"lon":5.38796,"is_reserved":false,"is_disabled":false,"rental_uris":{"android":"levelo://app?vid=b7d2f953-3da7-4daa-9fad-166d1f8731aa","ios":"levelo://app?vid=b7d2f953-3da7-4daa-9fad-166d1f8731aa"},"vehicle_type_id":"4","last_reported":1741436002,"current_range_meters":6000,"station_id":"","pricing_plan_id":"cebpf4jnsgd1na2vs0mg"},{"bike_id":"17862a34-3eec-4197-9fce-46ac0067e359","system_id":"levelo_inurba_marseille","lat":43.26826,"lon":5.41343,"is_reserved":false,"is_disabled":false,"rental_uris":{"android":"levelo://app?vid=17862a34-3eec-4197-9fce-46ac0067e359","ios":"levelo://app?vid=17862a34-3eec-4197-9fce-46ac0067e359"},"vehicle_type_id":"4","last_reported":1741436002,"current_range_meters":6000,"station_id":"","pricing_plan_id":"cebpf4jnsgd1na2vs0mg"},{"bike_id":"0af30f24-954a-46d7-b033-51d52f807b8c","system_id":"levelo_inurba_marseille","lat":43.250126,"lon":5.389253,"is_reserved":false,"is_disabled":false,"rental_uris":{"android":"levelo://app?vid=0af30f24-954a-46d7-b033-51d52f807b8c","ios":"levelo://app?vid=0af30f24-954a-46d7-b033-51d52f807b8c"},"vehicle_type_id":"4","last_reported":1741436002,"current_range_meters":6400,"station_id":"ce4bhgp2rcd13ifvqfd0","pricing_plan_id":"cebpf4jnsgd1na2vs0mg"},{"bike_id":"4afdbfd0-98cd-490e-8f08-f8fabefa21b1","system_id":"levelo_inurba_marseille","lat":43.239637,"lon":5.366323,"is_reserved":false,"is_disabled":false,"rental_uris":{"android":"levelo://app?vid=4afdbfd0-98cd-490e-8f08-f8fabefa21b1","ios":"levelo://app?vid=4afdbfd0-98cd-490e-8f08-f8fabefa21b1"},"vehicle_type_id":"4","last_reported":1741436002,"current_range_meters":6400,"station_id":"ce4bhi12rcd13ifvqfp0","pricing_plan_id":"cebpf4jnsgd1na2vs0mg"},{"bike_id":"4ef37d01-3a7e-42f1-a9f7-e3be7c1afc72","system_id":"levelo_inurba_marseille","lat":43.23199,"lon":5.35527,"is_reserved":false,"is_disabled":false,"rental_uris":{"android":"levelo://app?vid=4ef37d01-3a7e-42f1-a9f7-e3be7c1afc72","ios":"levelo://app?vid=4ef37d01-3a7e-42f1-a9f7-e3be7c1afc72"},"vehicle_type_id":"4","last_reported":1741436002,"current_range_meters":6400,"station_id":"ce4bhu92rcd13ifvqi70","pricing_plan_id":"cebpf4jnsgd1na2vs0mg"},{"bike_id":"62391f34-3130-43d3-9ff9-87e80b4db075","system_id":"levelo_inurba_marseille","lat":43.32099,"lon":5.36762,"is_reserved":false,"is_disabled":false,"rental_uris":{"android":"levelo://app?vid=62391f34-3130-43d3-9ff9-87e80b4db075","ios":"levelo://app?vid=62391f34-3130-43d3-9ff9-87e80b4db075"},"vehicle_type_id":"4","last_reported":1741436002,"current_range_meters":6800,"station_id":"ce4bhrh2rcd13ifvqhug","pricing_plan_id":"cebpf4jnsgd1na2vs0mg"},{"bike_id":"51510a95-54e3-4b84-9b22-bfa3391426f3","system_id":"levelo_inurba_marseille","lat":43.23202,"lon":5.35547,"is_reserved":false,"is_disabled":false,"rental_uris":{"android":"levelo://app?vid=51510a95-54e3-4b84-9b22-bfa3391426f3","ios":"levelo://app?vid=51510a95-54e3-4b84-9b22-bfa3391426f3"},"vehicle_type_id":"4","last_reported":1741436002,"current_range_meters":6800,"station_id":"ce4bhu92rcd13ifvqi70","pricing_plan_id":"cebpf4jnsgd1na2vs0mg"},{"bike_id":"b2cada68-d22d-4962-a15a-eab832155af1","system_id":"levelo_inurba_marseille","lat":43.31342,"lon":5.39699,"is_reserved":false,"is_disabled":false,"rental_uris":{"android":"levelo://app?vid=b2cada68-d22d-4962-a15a-eab832155af1","ios":"levelo://app?vid=b2cada68-d22d-4962-a15a-eab832155af1"},"vehicle_type_id":"4","last_reported":1741436002,"current_range_meters":6800,"station_id":"ce4bgvp2rcd13ifvqcu0","pricing_plan_id":"cebpf4jnsgd1na2vs0mg"},{"bike_id":"d9708d6d-83b9-47c9-a90c-62bff4505670","system_id":"levelo_inurba_marseille","lat":43.274925,"lon":5.424531,"is_reserved":false,"is_disabled":false,"rental_uris":{"android":"levelo://app?vid=d9708d6d-83b9-47c9-a90c-62bff4505670","ios":"levelo://app?vid=d9708d6d-83b9-47c9-a90c-62bff4505670"},"vehicle_type_id":"4","last_reported":1741436002,"current_range_meters":6800,"station_id":"ce4bhn92rcd13ifvqgrg","pricing_plan_id":"cebpf4jnsgd1na2vs0mg"},{"bike_id":"904a8371-ebed-45e5-8cc3-b64b65860481","system_id":"levelo_inurba_marseille","lat":43.31722,"lon":5.37783,"is_reserved":false,"is_disabled":false,"rental_uris":{"android":"levelo://app?vid=904a8371-ebed-45e5-8cc3-b64b65860481","ios":"levelo://app?vid=904a8371-ebed-45e5-8cc3-b64b65860481"},"vehicle_type_id":"4","last_reported":1741436002,"current_range_meters":6800,"station_id":"ce4bgth2rcd13ifvqch0","pricing_plan_id":"cebpf4jnsgd1na2vs0mg"},{"bike_id":"d530a9af-79c5-4570-aa80-b6479ab81018","system_id":"levelo_inurba_marseille","lat":43.302497,"lon":5.400683,"is_reserved":false,"is_disabled":true,"rental_uris":{"android":"levelo://app?vid=d530a9af-79c5-4570-aa80-b6479ab81018","ios":"levelo://app?vid=d530a9af-79c5-4570-aa80-b6479ab81018"},"vehicle_type_id":"4","last_reported":1741436002,"current_range_meters":7200,"station_id":"ce4bgvh2rcd13ifvqcs0","pricing_plan_id":"cebpf4jnsgd1na2vs0mg"},{"bike_id":"59ef7ab1-f072-4315-9e2a-a3482cc569d5","system_id":"levelo_inurba_marseille","lat":43.29898,"lon":5.43665,"is_reserved":false,"is_disabled":false,"rental_uris":{"android":"levelo://app?vid=59ef7ab1-f072-4315-9e2a-a3482cc569d5","ios":"levelo://app?vid=59ef7ab1-f072-4315-9e2a-a3482cc569d5"},"vehicle_type_id":"4","last_reported":1741436002,"current_range_meters":7200,"station_id":"ce4bhpp2rcd13ifvqhfg","pricing_plan_id":"cebpf4jnsgd1na2vs0mg"},{"bike_id":"67c61671-e5f4-44ee-9eae-960d2e68f5ea","system_id":"levelo_inurba_marseille","lat":43.2962,"lon":5.37169,"is_reserved":false,"is_disabled":false,"rental_uris":{"android":"levelo://app?vid=67c61671-e5f4-44ee-9eae-960d2e68f5ea","ios":"levelo://app?vid=67c61671-e5f4-44ee-9eae-960d2e68f5ea"},"vehicle_type_id":"4","last_reported":1741436002,"current_range_meters":8400,"station_id":"ce4bgnh2rcd13ifvqc0g","pricing_plan_id":"cebpf4jnsgd1na2vs0mg"},{"bike_id":"583f31c5-a82a-4bac-8c0b-0cbd389e1660","system_id":"levelo_inurba_marseille","lat":43.231501,"lon":5.437212,"is_reserved":false,"is_disabled":false,"rental_uris":{"android":"levelo://app?vid=583f31c5-a82a-4bac-8c0b-0cbd389e1660","ios":"levelo://app?vid=583f31c5-a82a-4bac-8c0b-0cbd389e1660"},"vehicle_type_id":"4","last_reported":1741436002,"current_range_meters":7200,"station_id":"ce4bhhp2rcd13ifvqfm0","pricing_plan_id":"cebpf4jnsgd1na2vs0mg"},{"bike_id":"57c3563d-d98c-4bcf-8440-298f61a4f1b2","system_id":"levelo_inurba_marseille","lat":43.26689,"lon":5.38272,"is_reserved":false,"is_disabled":false,"rental_uris":{"android":"levelo://app?vid=57c3563d-d98c-4bcf-8440-298f61a4f1b2","ios":"levelo://app?vid=57c3563d-d98c-4bcf-8440-298f61a4f1b2"},"vehicle_type_id":"4","last_reported":1741436002,"current_range_meters":7200,"station_id":"ce4bhg92rcd13ifvqf90","pricing_plan_id":"cebpf4jnsgd1na2vs0mg"},{"bike_id":"bd1ca430-15b2-40f5-ab85-6f767aed8061","system_id":"levelo_inurba_marseille","lat":43.23057,"lon":5.35498,"is_reserved":false,"is_disabled":false,"rental_uris":{"android":"levelo://app?vid=bd1ca430-15b2-40f5-ab85-6f767aed8061","ios":"levelo://app?vid=bd1ca430-15b2-40f5-ab85-6f767aed8061"},"vehicle_type_id":"4","last_reported":1741436002,"current_range_meters":7200,"station_id":"cpo3342slgdg3j2ifvpg","pricing_plan_id":"cebpf4jnsgd1na2vs0mg"},{"bike_id":"0c346343-84b1-4fda-8aac-820728daf273","system_id":"levelo_inurba_marseille","lat":43.231505,"lon":5.43714,"is_reserved":false,"is_disabled":false,"rental_uris":{"android":"levelo://app?vid=0c346343-84b1-4fda-8aac-820728daf273","ios":"levelo://app?vid=0c346343-84b1-4fda-8aac-820728daf273"},"vehicle_type_id":"4","last_reported":1741436002,"current_range_meters":7200,"station_id":"ce4bhmp2rcd13ifvqgog","pricing_plan_id":"cebpf4jnsgd1na2vs0mg"},{"bike_id":"73fe4e15-c5de-49fa-8322-adf66720dbf0","system_id":"levelo_inurba_marseille","lat":43.22939,"lon":5.35376,"is_reserved":false,"is_disabled":false,"rental_uris":{"android":"levelo://app?vid=73fe4e15-c5de-49fa-8322-adf66720dbf0","ios":"levelo://app?vid=73fe4e15-c5de-49fa-8322-adf66720dbf0"},"vehicle_type_id":"4","last_reported":1741436002,"current_range_meters":8000,"station_id":"cpo3532slgdg3j2ikp40","pricing_plan_id":"cebpf4jnsgd1na2vs0mg"},{"bike_id":"a88b4020-160b-4d6c-b81c-275bfd9c24ac","system_id":"levelo_inurba_marseille","lat":43.26031,"lon":5.3755,"is_reserved":false,"is_disabled":false,"rental_uris":{"android":"levelo://app?vid=a88b4020-160b-4d6c-b81c-275bfd9c24ac","ios":"levelo://app?vid=a88b4020-160b-4d6c-b81c-275bfd9c24ac"},"vehicle_type_id":"4","last_reported":1741436002,"current_range_meters":8000,"station_id":"ce4bhgh2rcd13ifvqfa0","pricing_plan_id":"cebpf4jnsgd1na2vs0mg"},{"bike_id":"63e9eb89-2838-4d15-ae58-c4a6136489b2","system_id":"levelo_inurba_marseille","lat":43.29577,"lon":5.36744,"is_reserved":false,"is_disabled":false,"rental_uris":{"android":"levelo://app?vid=63e9eb89-2838-4d15-ae58-c4a6136489b2","ios":"levelo://app?vid=63e9eb89-2838-4d15-ae58-c4a6136489b2"},"vehicle_type_id":"4","last_reported":1741436002,"current_range_meters":8000,"station_id":"ce4bgph2rcd13ifvqc2g","pricing_plan_id":"cebpf4jnsgd1na2vs0mg"},{"bike_id":"2fc70a1d-f235-4d4d-8d59-5144d963da00","system_id":"levelo_inurba_marseille","lat":43.27522,"lon":5.42522,"is_reserved":false,"is_disabled":false,"rental_uris":{"android":"levelo://app?vid=2fc70a1d-f235-4d4d-8d59-5144d963da00","ios":"levelo://app?vid=2fc70a1d-f235-4d4d-8d59-5144d963da00"},"vehicle_type_id":"4","last_reported":1741436002,"current_range_meters":8000,"station_id":"","pricing_plan_id":"cebpf4jnsgd1na2vs0mg"},{"bike_id":"805e60eb-0027-4ccc-9fef-9309861e6ed7","system_id":"levelo_inurba_marseille","lat":43.25504,"lon":5.37653,"is_reserved":false,"is_disabled":false,"rental_uris":{"android":"levelo://app?vid=805e60eb-0027-4ccc-9fef-9309861e6ed7","ios":"levelo://app?vid=805e60eb-0027-4ccc-9fef-9309861e6ed7"},"vehicle_type_id":"4","last_reported":1741436002,"current_range_meters":8000,"station_id":"ce4bhh12rcd13ifvqff0","pricing_plan_id":"cebpf4jnsgd1na2vs0mg"},{"bike_id":"b9c7ad84-7bfa-4cc0-90ab-2011c1896e0e","system_id":"levelo_inurba_marseille","lat":43.22927,"lon":5.35376,"is_reserved":false,"is_disabled":false,"rental_uris":{"android":"levelo://app?vid=b9c7ad84-7bfa-4cc0-90ab-2011c1896e0e","ios":"levelo://app?vid=b9c7ad84-7bfa-4cc0-90ab-2011c1896e0e"},"vehicle_type_id":"4","last_reported":1741436002,"current_range_meters":8000,"station_id":"cpo3532slgdg3j2ikp40","pricing_plan_id":"cebpf4jnsgd1na2vs0mg"},{"bike_id":"0a9bc1bd-e305-40d4-8852-5005300b12a0","system_id":"levelo_inurba_marseille","lat":43.22933,"lon":5.353715,"is_reserved":false,"is_disabled":false,"rental_uris":{"android":"levelo://app?vid=0a9bc1bd-e305-40d4-8852-5005300b12a0","ios":"levelo://app?vid=0a9bc1bd-e305-40d4-8852-5005300b12a0"},"vehicle_type_id":"4","last_reported":1741436002,"current_range_meters":8400,"station_id":"cpo3532slgdg3j2ikp40","pricing_plan_id":"cebpf4jnsgd1na2vs0mg"},{"bike_id":"7b62c62b-d961-49e1-afe1-b0b21a291801","system_id":"levelo_inurba_marseille","lat":43.27877,"lon":5.41734,"is_reserved":false,"is_disabled":false,"rental_uris":{"android":"levelo://app?vid=7b62c62b-d961-49e1-afe1-b0b21a291801","ios":"levelo://app?vid=7b62c62b-d961-49e1-afe1-b0b21a291801"},"vehicle_type_id":"4","last_reported":1741436002,"current_range_meters":8400,"station_id":"","pricing_plan_id":"cebpf4jnsgd1na2vs0mg"},{"bike_id":"5cc2cd7c-53ff-4cba-8726-bca4510d677e","system_id":"levelo_inurba_marseille","lat":43.29778,"lon":5.37091,"is_reserved":false,"is_disabled":false,"rental_uris":{"android":"levelo://app?vid=5cc2cd7c-53ff-4cba-8726-bca4510d677e","ios":"levelo://app?vid=5cc2cd7c-53ff-4cba-8726-bca4510d677e"},"vehicle_type_id":"4","last_reported":1741436002,"current_range_meters":8400,"station_id":"ce4bgop2rcd13ifvqc1g","pricing_plan_id":"cebpf4jnsgd1na2vs0mg"},{"bike_id":"94e5c145-3ad9-419d-a025-3c7dea81bc8c","system_id":"levelo_inurba_marseille","lat":43.27618,"lon":5.36116,"is_reserved":false,"is_disabled":false,"rental_uris":{"android":"levelo://app?vid=94e5c145-3ad9-419d-a025-3c7dea81bc8c","ios":"levelo://app?vid=94e5c145-3ad9-419d-a025-3c7dea81bc8c"},"vehicle_type_id":"4","last_reported":1741436002,"current_range_meters":8400,"station_id":"ce4bgj92rcd13ifvqbe0","pricing_plan_id":"cebpf4jnsgd1na2vs0mg"},{"bike_id":"60fba7df-4520-4d63-9c5b-9a7a002cedfb","system_id":"levelo_inurba_marseille","lat":43.28034,"lon":5.39141,"is_reserved":false,"is_disabled":false,"rental_uris":{"android":"levelo://app?vid=60fba7df-4520-4d63-9c5b-9a7a002cedfb","ios":"levelo://app?vid=60fba7df-4520-4d63-9c5b-9a7a002cedfb"},"vehicle_type_id":"4","last_reported":1741436002,"current_range_meters":8400,"station_id":"","pricing_plan_id":"cebpf4jnsgd1na2vs0mg"},{"bike_id":"4ce1148f-94dc-4742-8f6c-b798d2b0023b","system_id":"levelo_inurba_marseille","lat":43.27996,"lon":5.41651,"is_reserved":false,"is_disabled":false,"rental_uris":{"android":"levelo://app?vid=4ce1148f-94dc-4742-8f6c-b798d2b0023b","ios":"levelo://app?vid=4ce1148f-94dc-4742-8f6c-b798d2b0023b"},"vehicle_type_id":"4","last_reported":1741436002,"current_range_meters":8400,"station_id":"ce4bho12rcd13ifvqh1g","pricing_plan_id":"cebpf4jnsgd1na2vs0mg"},{"bike_id":"2f7d9f34-8c81-40c4-9800-77242899a452","system_id":"levelo_inurba_marseille","lat":43.26554,"lon":5.37286,"is_reserved":false,"is_disabled":false,"rental_uris":{"android":"levelo://app?vid=2f7d9f34-8c81-40c4-9800-77242899a452","ios":"levelo://app?vid=2f7d9f34-8c81-40c4-9800-77242899a452"},"vehicle_type_id":"4","last_reported":1741436002,"current_range_meters":8400,"station_id":"ce4bhg12rcd13ifvqf70","pricing_plan_id":"cebpf4jnsgd1na2vs0mg"},{"bike_id":"bcca7c14-578d-447e-98ee-3917fb77be1f","system_id":"levelo_inurba_marseille","lat":43.309603,"lon":5.390537,"is_reserved":false,"is_disabled":false,"rental_uris":{"android":"levelo://app?vid=bcca7c14-578d-447e-98ee-3917fb77be1f","ios":"levelo://app?vid=bcca7c14-578d-447e-98ee-3917fb77be1f"},"vehicle_type_id":"4","last_reported":1741436002,"current_range_meters":8400,"station_id":"ce4bgup2rcd13ifvqco0","pricing_plan_id":"cebpf4jnsgd1na2vs0mg"},{"bike_id":"905d94c0-c7b3-457f-8700-6cd63b349918","system_id":"levelo_inurba_marseille","lat":43.27973,"lon":5.38743,"is_reserved":false,"is_disabled":false,"rental_uris":{"android":"levelo://app?vid=905d94c0-c7b3-457f-8700-6cd63b349918","ios":"levelo://app?vid=905d94c0-c7b3-457f-8700-6cd63b349918"},"vehicle_type_id":"4","last_reported":1741436002,"current_range_meters":8400,"station_id":"ce4bhg12rcd13ifvqf80","pricing_plan_id":"cebpf4jnsgd1na2vs0mg"},{"bike_id":"0e674cb4-f37d-4bd5-aaff-7ec953d386c6","system_id":"levelo_inurba_marseille","lat":43.24169,"lon":5.36399,"is_reserved":false,"is_disabled":false,"rental_uris":{"android":"levelo://app?vid=0e674cb4-f37d-4bd5-aaff-7ec953d386c6","ios":"levelo://app?vid=0e674cb4-f37d-4bd5-aaff-7ec953d386c6"},"vehicle_type_id":"4","last_reported":1741436002,"current_range_meters":8800,"station_id":"cpo36qri1sfpv3e86is0","pricing_plan_id":"cebpf4jnsgd1na2vs0mg"},{"bike_id":"f41e4659-585a-4979-8a4f-703517a72c7a","system_id":"levelo_inurba_marseille","lat":43.292388,"lon":5.371276,"is_reserved":false,"is_disabled":false,"rental_uris":{"android":"levelo://app?vid=f41e4659-585a-4979-8a4f-703517a72c7a","ios":"levelo://app?vid=f41e4659-585a-4979-8a4f-703517a72c7a"},"vehicle_type_id":"4","last_reported":1741436002,"current_range_meters":8800,"station_id":"ce4bgh92rcd13ifvqb40","pricing_plan_id":"cebpf4jnsgd1na2vs0mg"},{"bike_id":"ae99eef4-0d01-432b-b9f3-30beda5f0e73","system_id":"levelo_inurba_marseille","lat":43.29904,"lon":5.43657,"is_reserved":false,"is_disabled":false,"rental_uris":{"android":"levelo://app?vid=ae99eef4-0d01-432b-b9f3-30beda5f0e73","ios":"levelo://app?vid=ae99eef4-0d01-432b-b9f3-30beda5f0e73"},"vehicle_type_id":"4","last_reported":1741436002,"current_range_meters":9200,"station_id":"ce4bhpp2rcd13ifvqhfg","pricing_plan_id":"cebpf4jnsgd1na2vs0mg"},{"bike_id":"e524bcef-a391-41b2-bad2-673eae53ea51","system_id":"levelo_inurba_marseille","lat":43.31716,"lon":5.43717,"is_reserved":false,"is_disabled":false,"rental_uris":{"android":"levelo://app?vid=e524bcef-a391-41b2-bad2-673eae53ea51","ios":"levelo://app?vid=e524bcef-a391-41b2-bad2-673eae53ea51"},"vehicle_type_id":"4","last_reported":1741436002,"current_range_meters":9200,"station_id":"ce4bhp92rcd13ifvqhcg","pricing_plan_id":"cebpf4jnsgd1na2vs0mg"},{"bike_id":"2c17b157-37d9-408b-97c8-eb2ce2fa8932","system_id":"levelo_inurba_marseille","lat":43.25487,"lon":5.37654,"is_reserved":false,"is_disabled":false,"rental_uris":{"android":"levelo://app?vid=2c17b157-37d9-408b-97c8-eb2ce2fa8932","ios":"levelo://app?vid=2c17b157-37d9-408b-97c8-eb2ce2fa8932"},"vehicle_type_id":"4","last_reported":1741436002,"current_range_meters":9200,"station_id":"ce4bhh12rcd13ifvqff0","pricing_plan_id":"cebpf4jnsgd1na2vs0mg"},{"bike_id":"dac09d9e-9ab6-4c54-8fe2-7fcfc9203869","system_id":"levelo_inurba_marseille","lat":43.26557,"lon":5.37298,"is_reserved":false,"is_disabled":false,"rental_uris":{"android":"levelo://app?vid=dac09d9e-9ab6-4c54-8fe2-7fcfc9203869","ios":"levelo://app?vid=dac09d9e-9ab6-4c54-8fe2-7fcfc9203869"},"vehicle_type_id":"4","last_reported":1741436002,"current_range_meters":9200,"station_id":"ce4bhg12rcd13ifvqf70","pricing_plan_id":"cebpf4jnsgd1na2vs0mg"},{"bike_id":"0c6e8b0c-e7bd-48cb-a773-74632f1f1eee","system_id":"levelo_inurba_marseille","lat":43.25866,"lon":5.39902,"is_reserved":false,"is_disabled":false,"rental_uris":{"android":"levelo://app?vid=0c6e8b0c-e7bd-48cb-a773-74632f1f1eee","ios":"levelo://app?vid=0c6e8b0c-e7bd-48cb-a773-74632f1f1eee"},"vehicle_type_id":"4","last_reported":1741436002,"current_range_meters":9200,"station_id":"ce4bhl92rcd13ifvqghg","pricing_plan_id":"cebpf4jnsgd1na2vs0mg"},{"bike_id":"9bfe4e82-241b-4620-b471-d226beb88b23","system_id":"levelo_inurba_marseille","lat":43.22925,"lon":5.35386,"is_reserved":false,"is_disabled":false,"rental_uris":{"android":"levelo://app?vid=9bfe4e82-241b-4620-b471-d226beb88b23","ios":"levelo://app?vid=9bfe4e82-241b-4620-b471-d226beb88b23"},"vehicle_type_id":"4","last_reported":1741436002,"current_range_meters":9200,"station_id":"cpo3532slgdg3j2ikp40","pricing_plan_id":"cebpf4jnsgd1na2vs0mg"},{"bike_id":"ac269663-43a8-4f28-8118-be61d0478060","system_id":"levelo_inurba_marseille","lat":43.28717,"lon":5.40757,"is_reserved":false,"is_disabled":false,"rental_uris":{"android":"levelo://app?vid=ac269663-43a8-4f28-8118-be61d0478060","ios":"levelo://app?vid=ac269663-43a8-4f28-8118-be61d0478060"},"vehicle_type_id":"4","last_reported":1741436002,"current_range_meters":9200,"station_id":"","pricing_plan_id":"cebpf4jnsgd1na2vs0mg"},{"bike_id":"e1cdb9a5-b153-4cec-8a45-7316e6bb6b13","system_id":"levelo_inurba_marseille","lat":43.2511,"lon":5.40332,"is_reserved":false,"is_disabled":false,"rental_uris":{"android":"levelo://app?vid=e1cdb9a5-b153-4cec-8a45-7316e6bb6b13","ios":"levelo://app?vid=e1cdb9a5-b153-4cec-8a45-7316e6bb6b13"},"vehicle_type_id":"4","last_reported":1741436002,"current_range_meters":9200,"station_id":"ce4bhlh2rcd13ifvqgig","pricing_plan_id":"cebpf4jnsgd1na2vs0mg"},{"bike_id":"e403c8da-770c-44aa-afcb-9b22318d68d3","system_id":"levelo_inurba_marseille","lat":43.25105,"lon":5.40331,"is_reserved":false,"is_disabled":false,"rental_uris":{"android":"levelo://app?vid=e403c8da-770c-44aa-afcb-9b22318d68d3","ios":"levelo://app?vid=e403c8da-770c-44aa-afcb-9b22318d68d3"},"vehicle_type_id":"4","last_reported":1741436002,"current_range_meters":9600,"station_id":"ce4bhlh2rcd13ifvqgig","pricing_plan_id":"cebpf4jnsgd1na2vs0mg"},{"bike_id":"51fc9418-31ab-4501-ba2e-832b6722570d","system_id":"levelo_inurba_marseille","lat":43.23063,"lon":5.35481,"is_reserved":false,"is_disabled":false,"rental_uris":{"android":"levelo://app?vid=51fc9418-31ab-4501-ba2e-832b6722570d","ios":"levelo://app?vid=51fc9418-31ab-4501-ba2e-832b6722570d"},"vehicle_type_id":"4","last_reported":1741436002,"current_range_meters":9600,"station_id":"cpo3342slgdg3j2ifvpg","pricing_plan_id":"cebpf4jnsgd1na2vs0mg"},{"bike_id":"7a6390d5-30f1-42a9-81f6-77c4114cf172","system_id":"levelo_inurba_marseille","lat":43.27813,"lon":5.407,"is_reserved":false,"is_disabled":false,"rental_uris":{"android":"levelo://app?vid=7a6390d5-30f1-42a9-81f6-77c4114cf172","ios":"levelo://app?vid=7a6390d5-30f1-42a9-81f6-77c4114cf172"},"vehicle_type_id":"4","last_reported":1741436002,"current_range_meters":9600,"station_id":"ce4bhnh2rcd13ifvqgtg","pricing_plan_id":"cebpf4jnsgd1na2vs0mg"},{"bike_id":"c2a1a41e-9732-4e30-b1fa-2a89d88d4682","system_id":"levelo_inurba_marseille","lat":43.23156,"lon":5.4371,"is_reserved":false,"is_disabled":false,"rental_uris":{"android":"levelo://app?vid=c2a1a41e-9732-4e30-b1fa-2a89d88d4682","ios":"levelo://app?vid=c2a1a41e-9732-4e30-b1fa-2a89d88d4682"},"vehicle_type_id":"4","last_reported":1741436002,"current_range_meters":9600,"station_id":"ce4bhmp2rcd13ifvqgog","pricing_plan_id":"cebpf4jnsgd1na2vs0mg"},{"bike_id":"a61622e2-b0cd-41e0-a1f8-cd9a43552e70","system_id":"levelo_inurba_marseille","lat":43.2926,"lon":5.38444,"is_reserved":false,"is_disabled":false,"rental_uris":{"android":"levelo://app?vid=a61622e2-b0cd-41e0-a1f8-cd9a43552e70","ios":"levelo://app?vid=a61622e2-b0cd-41e0-a1f8-cd9a43552e70"},"vehicle_type_id":"4","last_reported":1741436002,"current_range_meters":9600,"station_id":"ce4bh692rcd13ifvqea0","pricing_plan_id":"cebpf4jnsgd1na2vs0mg"},{"bike_id":"4048f4cb-c79a-4e84-a8e6-068b2a53463d","system_id":"levelo_inurba_marseille","lat":43.29722,"lon":5.39394,"is_reserved":false,"is_disabled":false,"rental_uris":{"android":"levelo://app?vid=4048f4cb-c79a-4e84-a8e6-068b2a53463d","ios":"levelo://app?vid=4048f4cb-c79a-4e84-a8e6-068b2a53463d"},"vehicle_type_id":"4","last_reported":1741436002,"current_range_meters":9600,"station_id":"","pricing_plan_id":"cebpf4jnsgd1na2vs0mg"},{"bike_id":"201e16e9-1f9c-45a3-8dec-2d516ef1efcb","system_id":"levelo_inurba_marseille","lat":43.239687,"lon":5.366423,"is_reserved":false,"is_disabled":false,"rental_uris":{"android":"levelo://app?vid=201e16e9-1f9c-45a3-8dec-2d516ef1efcb","ios":"levelo://app?vid=201e16e9-1f9c-45a3-8dec-2d516ef1efcb"},"vehicle_type_id":"4","last_reported":1741436002,"current_range_meters":9600,"station_id":"ce4bhi12rcd13ifvqfp0","pricing_plan_id":"cebpf4jnsgd1na2vs0mg"},{"bike_id":"9b8789be-c150-4679-b8ba-e1d5e4639da2","system_id":"levelo_inurba_marseille","lat":43.25715,"lon":5.41099,"is_reserved":false,"is_disabled":false,"rental_uris":{"android":"levelo://app?vid=9b8789be-c150-4679-b8ba-e1d5e4639da2","ios":"levelo://app?vid=9b8789be-c150-4679-b8ba-e1d5e4639da2"},"vehicle_type_id":"4","last_reported":1741436002,"current_range_meters":9600,"station_id":"ce4bhkp2rcd13ifvqgd0","pricing_plan_id":"cebpf4jnsgd1na2vs0mg"},{"bike_id":"eefe66a8-9b10-4ded-8e0a-619e66601e02","system_id":"levelo_inurba_marseille","lat":43.2961,"lon":5.42608,"is_reserved":false,"is_disabled":false,"rental_uris":{"android":"levelo://app?vid=eefe66a8-9b10-4ded-8e0a-619e66601e02","ios":"levelo://app?vid=eefe66a8-9b10-4ded-8e0a-619e66601e02"},"vehicle_type_id":"4","last_reported":1741436002,"current_range_meters":9600,"station_id":"","pricing_plan_id":"cebpf4jnsgd1na2vs0mg"},{"bike_id":"fe26fd78-c21a-489a-935f-586d6749759b","system_id":"levelo_inurba_marseille","lat":43.29271,"lon":5.3684,"is_reserved":false,"is_disabled":true,"rental_uris":{"android":"levelo://app?vid=fe26fd78-c21a-489a-935f-586d6749759b","ios":"levelo://app?vid=fe26fd78-c21a-489a-935f-586d6749759b"},"vehicle_type_id":"4","last_reported":1741436002,"current_range_meters":9600,"station_id":"ce4bhbp2rcd13ifvqesg","pricing_plan_id":"cebpf4jnsgd1na2vs0mg"},{"bike_id":"f434f250-6f3b-4f81-87f7-8be1eb48cad2","system_id":"levelo_inurba_marseille","lat":43.257158,"lon":5.411097,"is_reserved":false,"is_disabled":false,"rental_uris":{"android":"levelo://app?vid=f434f250-6f3b-4f81-87f7-8be1eb48cad2","ios":"levelo://app?vid=f434f250-6f3b-4f81-87f7-8be1eb48cad2"},"vehicle_type_id":"4","last_reported":1741436002,"current_range_meters":10000,"station_id":"ce4bhkp2rcd13ifvqgd0","pricing_plan_id":"cebpf4jnsgd1na2vs0mg"},{"bike_id":"049fb279-0f85-4d71-9946-2c1f9d5cd1a0","system_id":"levelo_inurba_marseille","lat":43.23179,"lon":5.39988,"is_reserved":false,"is_disabled":false,"rental_uris":{"android":"levelo://app?vid=049fb279-0f85-4d71-9946-2c1f9d5cd1a0","ios":"levelo://app?vid=049fb279-0f85-4d71-9946-2c1f9d5cd1a0"},"vehicle_type_id":"4","last_reported":1741436002,"current_range_meters":10000,"station_id":"ce4bhn12rcd13ifvqgqg","pricing_plan_id":"cebpf4jnsgd1na2vs0mg"},{"bike_id":"41970413-2413-4c94-9de1-d44422e35eb7","system_id":"levelo_inurba_marseille","lat":43.24075,"lon":5.37755,"is_reserved":false,"is_disabled":false,"rental_uris":{"android":"levelo://app?vid=41970413-2413-4c94-9de1-d44422e35eb7","ios":"levelo://app?vid=41970413-2413-4c94-9de1-d44422e35eb7"},"vehicle_type_id":"4","last_reported":1741436002,"current_range_meters":10000,"station_id":"ce4bhnp2rcd13ifvqgvg","pricing_plan_id":"cebpf4jnsgd1na2vs0mg"},{"bike_id":"4f508b50-1e3d-40c5-be77-1e6495edbe07","system_id":"levelo_inurba_marseille","lat":43.25731,"lon":5.41057,"is_reserved":false,"is_disabled":false,"rental_uris":{"android":"levelo://app?vid=4f508b50-1e3d-40c5-be77-1e6495edbe07","ios":"levelo://app?vid=4f508b50-1e3d-40c5-be77-1e6495edbe07"},"vehicle_type_id":"4","last_reported":1741436002,"current_range_meters":10000,"station_id":"ce4bhkp2rcd13ifvqgd0","pricing_plan_id":"cebpf4jnsgd1na2vs0mg"},{"bike_id":"44c0f9a1-99ba-41cb-8f36-0e033c5e16cc","system_id":"levelo_inurba_marseille","lat":43.26193,"lon":5.37454,"is_reserved":false,"is_disabled":false,"rental_uris":{"android":"levelo://app?vid=44c0f9a1-99ba-41cb-8f36-0e033c5e16cc","ios":"levelo://app?vid=44c0f9a1-99ba-41cb-8f36-0e033c5e16cc"},"vehicle_type_id":"4","last_reported":1741436002,"current_range_meters":10000,"station_id":"ce4bhgp2rcd13ifvqfc0","pricing_plan_id":"cebpf4jnsgd1na2vs0mg"},{"bike_id":"c787a0ef-03a5-4d36-b53c-60238e9036da","system_id":"levelo_inurba_marseille","lat":43.23182,"lon":5.39994,"is_reserved":false,"is_disabled":false,"rental_uris":{"android":"levelo://app?vid=c787a0ef-03a5-4d36-b53c-60238e9036da","ios":"levelo://app?vid=c787a0ef-03a5-4d36-b53c-60238e9036da"},"vehicle_type_id":"4","last_reported":1741436002,"current_range_meters":10000,"station_id":"ce4bhn12rcd13ifvqgqg","pricing_plan_id":"cebpf4jnsgd1na2vs0mg"},{"bike_id":"14fd984d-b8be-4f42-92b1-175187a585c4","system_id":"levelo_inurba_marseille","lat":43.25821,"lon":5.39433,"is_reserved":false,"is_disabled":false,"rental_uris":{"android":"levelo://app?vid=14fd984d-b8be-4f42-92b1-175187a585c4","ios":"levelo://app?vid=14fd984d-b8be-4f42-92b1-175187a585c4"},"vehicle_type_id":"4","last_reported":1741436002,"current_range_meters":9200,"station_id":"ce4bhip2rcd13ifvqft0","pricing_plan_id":"cebpf4jnsgd1na2vs0mg"},{"bike_id":"b54292f7-ba5a-4ca2-851d-b34190bdf4a8","system_id":"levelo_inurba_marseille","lat":43.33011,"lon":5.39056,"is_reserved":false,"is_disabled":false,"rental_uris":{"android":"levelo://app?vid=b54292f7-ba5a-4ca2-851d-b34190bdf4a8","ios":"levelo://app?vid=b54292f7-ba5a-4ca2-851d-b34190bdf4a8"},"vehicle_type_id":"4","last_reported":1741436002,"current_range_meters":10000,"station_id":"ce4bhr92rcd13ifvqhrg","pricing_plan_id":"cebpf4jnsgd1na2vs0mg"},{"bike_id":"9e2a9734-63cc-4a01-8102-7cc50f45d2cf","system_id":"levelo_inurba_marseille","lat":43.28414,"lon":5.34996,"is_reserved":false,"is_disabled":false,"rental_uris":{"android":"levelo://app?vid=9e2a9734-63cc-4a01-8102-7cc50f45d2cf","ios":"levelo://app?vid=9e2a9734-63cc-4a01-8102-7cc50f45d2cf"},"vehicle_type_id":"4","last_reported":1741436002,"current_range_meters":10000,"station_id":"ce4bhbh2rcd13ifvqepg","pricing_plan_id":"cebpf4jnsgd1na2vs0mg"},{"bike_id":"40727ac6-4880-4abd-8b08-b3c4bd1e8d22","system_id":"levelo_inurba_marseille","lat":43.2558,"lon":5.38227,"is_reserved":false,"is_disabled":false,"rental_uris":{"android":"levelo://app?vid=40727ac6-4880-4abd-8b08-b3c4bd1e8d22","ios":"levelo://app?vid=40727ac6-4880-4abd-8b08-b3c4bd1e8d22"},"vehicle_type_id":"4","last_reported":1741436002,"current_range_meters":10000,"station_id":"ce4bhih2rcd13ifvqfs0","pricing_plan_id":"cebpf4jnsgd1na2vs0mg"},{"bike_id":"11e7fc3b-ed5a-4401-a0af-6e80583f87e8","system_id":"levelo_inurba_marseille","lat":43.27838,"lon":5.40707,"is_reserved":false,"is_disabled":false,"rental_uris":{"android":"levelo://app?vid=11e7fc3b-ed5a-4401-a0af-6e80583f87e8","ios":"levelo://app?vid=11e7fc3b-ed5a-4401-a0af-6e80583f87e8"},"vehicle_type_id":"4","last_reported":1741436002,"current_range_meters":10000,"station_id":"ce4bhnh2rcd13ifvqgtg","pricing_plan_id":"cebpf4jnsgd1na2vs0mg"},{"bike_id":"6c23a2b5-53ff-4de0-973d-72a69d9420f3","system_id":"levelo_inurba_marseille","lat":43.23064,"lon":5.35478,"is_reserved":false,"is_disabled":false,"rental_uris":{"android":"levelo://app?vid=6c23a2b5-53ff-4de0-973d-72a69d9420f3","ios":"levelo://app?vid=6c23a2b5-53ff-4de0-973d-72a69d9420f3"},"vehicle_type_id":"4","last_reported":1741436002,"current_range_meters":10000,"station_id":"cpo3342slgdg3j2ifvpg","pricing_plan_id":"cebpf4jnsgd1na2vs0mg"},{"bike_id":"5345365a-cb10-4f0d-a29c-3733f75b7932","system_id":"levelo_inurba_marseille","lat":43.31988,"lon":5.38148,"is_reserved":false,"is_disabled":false,"rental_uris":{"android":"levelo://app?vid=5345365a-cb10-4f0d-a29c-3733f75b7932","ios":"levelo://app?vid=5345365a-cb10-4f0d-a29c-3733f75b7932"},"vehicle_type_id":"4","last_reported":1741436002,"current_range_meters":10000,"station_id":"ce4bhr12rcd13ifvqhpg","pricing_plan_id":"cebpf4jnsgd1na2vs0mg"},{"bike_id":"5832083a-af6c-455b-9dbd-d8b68bd79a1e","system_id":"levelo_inurba_marseille","lat":43.298978,"lon":5.436699,"is_reserved":false,"is_disabled":false,"rental_uris":{"android":"levelo://app?vid=5832083a-af6c-455b-9dbd-d8b68bd79a1e","ios":"levelo://app?vid=5832083a-af6c-455b-9dbd-d8b68bd79a1e"},"vehicle_type_id":"4","last_reported":1741436002,"current_range_meters":10800,"station_id":"ce4bhpp2rcd13ifvqhfg","pricing_plan_id":"cebpf4jnsgd1na2vs0mg"},{"bike_id":"ec2aa46a-5e1c-4b87-98d6-e94e3321027c","system_id":"levelo_inurba_marseille","lat":43.297961,"lon":5.404018,"is_reserved":false,"is_disabled":false,"rental_uris":{"android":"levelo://app?vid=ec2aa46a-5e1c-4b87-98d6-e94e3321027c","ios":"levelo://app?vid=ec2aa46a-5e1c-4b87-98d6-e94e3321027c"},"vehicle_type_id":"4","last_reported":1741436002,"current_range_meters":10800,"station_id":"ce4bh2h2rcd13ifvqdh0","pricing_plan_id":"cebpf4jnsgd1na2vs0mg"},{"bike_id":"37363e4a-fcfd-40a6-a6cd-d5c21f94bfe2","system_id":"levelo_inurba_marseille","lat":43.25584,"lon":5.38227,"is_reserved":false,"is_disabled":false,"rental_uris":{"android":"levelo://app?vid=37363e4a-fcfd-40a6-a6cd-d5c21f94bfe2","ios":"levelo://app?vid=37363e4a-fcfd-40a6-a6cd-d5c21f94bfe2"},"vehicle_type_id":"4","last_reported":1741436002,"current_range_meters":10800,"station_id":"ce4bhih2rcd13ifvqfs0","pricing_plan_id":"cebpf4jnsgd1na2vs0mg"},{"bike_id":"4971b3ff-261f-40af-8f8b-2369ef77942a","system_id":"levelo_inurba_marseille","lat":43.2655,"lon":5.3729,"is_reserved":false,"is_disabled":false,"rental_uris":{"android":"levelo://app?vid=4971b3ff-261f-40af-8f8b-2369ef77942a","ios":"levelo://app?vid=4971b3ff-261f-40af-8f8b-2369ef77942a"},"vehicle_type_id":"4","last_reported":1741436002,"current_range_meters":10800,"station_id":"ce4bhg12rcd13ifvqf70","pricing_plan_id":"cebpf4jnsgd1na2vs0mg"},{"bike_id":"89422f8a-45be-442c-bf0c-b286afd8512f","system_id":"levelo_inurba_marseille","lat":43.2306,"lon":5.3549,"is_reserved":false,"is_disabled":false,"rental_uris":{"android":"levelo://app?vid=89422f8a-45be-442c-bf0c-b286afd8512f","ios":"levelo://app?vid=89422f8a-45be-442c-bf0c-b286afd8512f"},"vehicle_type_id":"4","last_reported":1741436002,"current_range_meters":10800,"station_id":"cpo3342slgdg3j2ifvpg","pricing_plan_id":"cebpf4jnsgd1na2vs0mg"},{"bike_id":"b533f38f-df9a-4e01-86fb-08f4b9bfcdfb","system_id":"levelo_inurba_marseille","lat":43.26218,"lon":5.42126,"is_reserved":false,"is_disabled":false,"rental_uris":{"android":"levelo://app?vid=b533f38f-df9a-4e01-86fb-08f4b9bfcdfb","ios":"levelo://app?vid=b533f38f-df9a-4e01-86fb-08f4b9bfcdfb"},"vehicle_type_id":"4","last_reported":1741436002,"current_range_meters":10800,"station_id":"","pricing_plan_id":"cebpf4jnsgd1na2vs0mg"},{"bike_id":"fb626a73-8dff-437b-b442-b1f6ec537a81","system_id":"levelo_inurba_marseille","lat":43.31992,"lon":5.38141,"is_reserved":false,"is_disabled":false,"rental_uris":{"android":"levelo://app?vid=fb626a73-8dff-437b-b442-b1f6ec537a81","ios":"levelo://app?vid=fb626a73-8dff-437b-b442-b1f6ec537a81"},"vehicle_type_id":"4","last_reported":1741436002,"current_range_meters":10800,"station_id":"ce4bhr12rcd13ifvqhpg","pricing_plan_id":"cebpf4jnsgd1na2vs0mg"},{"bike_id":"1e7a41b5-6a17-457c-92b9-27322979d536","system_id":"levelo_inurba_marseille","lat":43.26209,"lon":5.37444,"is_reserved":false,"is_disabled":false,"rental_uris":{"android":"levelo://app?vid=1e7a41b5-6a17-457c-92b9-27322979d536","ios":"levelo://app?vid=1e7a41b5-6a17-457c-92b9-27322979d536"},"vehicle_type_id":"4","last_reported":1741436002,"current_range_meters":10800,"station_id":"ce4bhgp2rcd13ifvqfc0","pricing_plan_id":"cebpf4jnsgd1na2vs0mg"},{"bike_id":"42a96660-5369-4d1c-976c-242db1fc067b","system_id":"levelo_inurba_marseille","lat":43.27213,"lon":5.39182,"is_reserved":false,"is_disabled":false,"rental_uris":{"android":"levelo://app?vid=42a96660-5369-4d1c-976c-242db1fc067b","ios":"levelo://app?vid=42a96660-5369-4d1c-976c-242db1fc067b"},"vehicle_type_id":"4","last_reported":1741436002,"current_range_meters":10800,"station_id":"ce4bhhp2rcd13ifvqfm0","pricing_plan_id":"cebpf4jnsgd1na2vs0mg"},{"bike_id":"b6d03f7d-48f0-4f19-9571-b5ead08ae183","system_id":"levelo_inurba_marseille","lat":43.23064,"lon":5.35486,"is_reserved":false,"is_disabled":false,"rental_uris":{"android":"levelo://app?vid=b6d03f7d-48f0-4f19-9571-b5ead08ae183","ios":"levelo://app?vid=b6d03f7d-48f0-4f19-9571-b5ead08ae183"},"vehicle_type_id":"4","last_reported":1741436002,"current_range_meters":11200,"station_id":"cpo3342slgdg3j2ifvpg","pricing_plan_id":"cebpf4jnsgd1na2vs0mg"},{"bike_id":"17c27ff3-3bbf-4590-80ed-6c950dfd10e2","system_id":"levelo_inurba_marseille","lat":43.28357,"lon":5.38643,"is_reserved":false,"is_disabled":false,"rental_uris":{"android":"levelo://app?vid=17c27ff3-3bbf-4590-80ed-6c950dfd10e2","ios":"levelo://app?vid=17c27ff3-3bbf-4590-80ed-6c950dfd10e2"},"vehicle_type_id":"4","last_reported":1741436002,"current_range_meters":11200,"station_id":"ce4bh492rcd13ifvqdvg","pricing_plan_id":"cebpf4jnsgd1na2vs0mg"},{"bike_id":"70d363e5-549d-4074-b73f-c79bfdb0f9c5","system_id":"levelo_inurba_marseille","lat":43.29223,"lon":5.36055,"is_reserved":false,"is_disabled":false,"rental_uris":{"android":"levelo://app?vid=70d363e5-549d-4074-b73f-c79bfdb0f9c5","ios":"levelo://app?vid=70d363e5-549d-4074-b73f-c79bfdb0f9c5"},"vehicle_type_id":"4","last_reported":1741436002,"current_range_meters":14400,"station_id":"ce4bhbh2rcd13ifvqeqg","pricing_plan_id":"cebpf4jnsgd1na2vs0mg"},{"bike_id":"b2c2514d-58df-4080-9acc-0a3325c87525","system_id":"levelo_inurba_marseille","lat":43.32366,"lon":5.36751,"is_reserved":false,"is_disabled":false,"rental_uris":{"android":"levelo://app?vid=b2c2514d-58df-4080-9acc-0a3325c87525","ios":"levelo://app?vid=b2c2514d-58df-4080-9acc-0a3325c87525"},"vehicle_type_id":"4","last_reported":1741436002,"current_range_meters":11200,"station_id":"ce4bhsh2rcd13ifvqi2g","pricing_plan_id":"cebpf4jnsgd1na2vs0mg"},{"bike_id":"25578e9b-3cec-48d4-8007-ba33c596dfe1","system_id":"levelo_inurba_marseille","lat":43.28421,"lon":5.382089,"is_reserved":false,"is_disabled":false,"rental_uris":{"android":"levelo://app?vid=25578e9b-3cec-48d4-8007-ba33c596dfe1","ios":"levelo://app?vid=25578e9b-3cec-48d4-8007-ba33c596dfe1"},"vehicle_type_id":"4","last_reported":1741436002,"current_range_meters":11200,"station_id":"ce4bh512rcd13ifvqe3g","pricing_plan_id":"cebpf4jnsgd1na2vs0mg"},{"bike_id":"0309297d-1cf9-47f7-9369-b159d3588501","system_id":"levelo_inurba_marseille","lat":43.27437,"lon":5.39399,"is_reserved":false,"is_disabled":false,"rental_uris":{"android":"levelo://app?vid=0309297d-1cf9-47f7-9369-b159d3588501","ios":"levelo://app?vid=0309297d-1cf9-47f7-9369-b159d3588501"},"vehicle_type_id":"4","last_reported":1741436002,"current_range_meters":11600,"station_id":"ce4bhdp2rcd13ifvqf20","pricing_plan_id":"cebpf4jnsgd1na2vs0mg"},{"bike_id":"3c7cb629-a989-4010-917f-b6565022dddc","system_id":"levelo_inurba_marseille","lat":43.31333,"lon":5.39687,"is_reserved":false,"is_disabled":false,"rental_uris":{"android":"levelo://app?vid=3c7cb629-a989-4010-917f-b6565022dddc","ios":"levelo://app?vid=3c7cb629-a989-4010-917f-b6565022dddc"},"vehicle_type_id":"4","last_reported":1741436002,"current_range_meters":11600,"station_id":"ce4bgvp2rcd13ifvqcu0","pricing_plan_id":"cebpf4jnsgd1na2vs0mg"},{"bike_id":"97d95439-94cf-421a-af98-a49a3db92d1a","system_id":"levelo_inurba_marseille","lat":43.24784,"lon":5.41741,"is_reserved":false,"is_disabled":false,"rental_uris":{"android":"levelo://app?vid=97d95439-94cf-421a-af98-a49a3db92d1a","ios":"levelo://app?vid=97d95439-94cf-421a-af98-a49a3db92d1a"},"vehicle_type_id":"4","last_reported":1741436002,"current_range_meters":11600,"station_id":"","pricing_plan_id":"cebpf4jnsgd1na2vs0mg"},{"bike_id":"8b722601-abad-44fa-88e3-ce51624ce56d","system_id":"levelo_inurba_marseille","lat":43.31117,"lon":5.37763,"is_reserved":false,"is_disabled":false,"rental_uris":{"android":"levelo://app?vid=8b722601-abad-44fa-88e3-ce51624ce56d","ios":"levelo://app?vid=8b722601-abad-44fa-88e3-ce51624ce56d"},"vehicle_type_id":"4","last_reported":1741436002,"current_range_meters":11600,"station_id":"ce4bgt92rcd13ifvqcg0","pricing_plan_id":"cebpf4jnsgd1na2vs0mg"},{"bike_id":"f22d424a-f036-468c-a78c-d0093b032e86","system_id":"levelo_inurba_marseille","lat":43.2621,"lon":5.37444,"is_reserved":false,"is_disabled":false,"rental_uris":{"android":"levelo://app?vid=f22d424a-f036-468c-a78c-d0093b032e86","ios":"levelo://app?vid=f22d424a-f036-468c-a78c-d0093b032e86"},"vehicle_type_id":"4","last_reported":1741436002,"current_range_meters":11600,"station_id":"ce4bhgp2rcd13ifvqfc0","pricing_plan_id":"cebpf4jnsgd1na2vs0mg"},{"bike_id":"b91c349d-e29a-492c-8766-4491647fbf92","system_id":"levelo_inurba_marseille","lat":43.297906,"lon":5.404057,"is_reserved":false,"is_disabled":false,"rental_uris":{"android":"levelo://app?vid=b91c349d-e29a-492c-8766-4491647fbf92","ios":"levelo://app?vid=b91c349d-e29a-492c-8766-4491647fbf92"},"vehicle_type_id":"4","last_reported":1741436002,"current_range_meters":9600,"station_id":"ce4bh2h2rcd13ifvqdh0","pricing_plan_id":"cebpf4jnsgd1na2vs0mg"},{"bike_id":"a4c567bd-3a3a-4f92-bec4-2b37e19a0310","system_id":"levelo_inurba_marseille","lat":43.28411,"lon":5.37534,"is_reserved":false,"is_disabled":false,"rental_uris":{"android":"levelo://app?vid=a4c567bd-3a3a-4f92-bec4-2b37e19a0310","ios":"levelo://app?vid=a4c567bd-3a3a-4f92-bec4-2b37e19a0310"},"vehicle_type_id":"4","last_reported":1741436002,"current_range_meters":11600,"station_id":"ce4bh412rcd13ifvqds0","pricing_plan_id":"cebpf4jnsgd1na2vs0mg"},{"bike_id":"5447f4a3-a511-4855-9238-830c32a4f6cf","system_id":"levelo_inurba_marseille","lat":43.28412,"lon":5.38466,"is_reserved":false,"is_disabled":false,"rental_uris":{"android":"levelo://app?vid=5447f4a3-a511-4855-9238-830c32a4f6cf","ios":"levelo://app?vid=5447f4a3-a511-4855-9238-830c32a4f6cf"},"vehicle_type_id":"4","last_reported":1741436002,"current_range_meters":12000,"station_id":"ce4bh512rcd13ifvqe3g","pricing_plan_id":"cebpf4jnsgd1na2vs0mg"},{"bike_id":"fbf804d7-6c73-46e9-abdb-acb74deb6dc4","system_id":"levelo_inurba_marseille","lat":43.23066,"lon":5.35479,"is_reserved":false,"is_disabled":false,"rental_uris":{"android":"levelo://app?vid=fbf804d7-6c73-46e9-abdb-acb74deb6dc4","ios":"levelo://app?vid=fbf804d7-6c73-46e9-abdb-acb74deb6dc4"},"vehicle_type_id":"4","last_reported":1741436002,"current_range_meters":12000,"station_id":"cpo3342slgdg3j2ifvpg","pricing_plan_id":"cebpf4jnsgd1na2vs0mg"},{"bike_id":"388ea826-f5fa-4632-a530-45d13cc0a769","system_id":"levelo_inurba_marseille","lat":43.23182,"lon":5.39991,"is_reserved":false,"is_disabled":false,"rental_uris":{"android":"levelo://app?vid=388ea826-f5fa-4632-a530-45d13cc0a769","ios":"levelo://app?vid=388ea826-f5fa-4632-a530-45d13cc0a769"},"vehicle_type_id":"4","last_reported":1741436002,"current_range_meters":12000,"station_id":"ce4bhn12rcd13ifvqgqg","pricing_plan_id":"cebpf4jnsgd1na2vs0mg"},{"bike_id":"dd8cec60-8ea0-4242-b7e4-eb6de8ca7419","system_id":"levelo_inurba_marseille","lat":43.26806,"lon":5.40244,"is_reserved":false,"is_disabled":false,"rental_uris":{"android":"levelo://app?vid=dd8cec60-8ea0-4242-b7e4-eb6de8ca7419","ios":"levelo://app?vid=dd8cec60-8ea0-4242-b7e4-eb6de8ca7419"},"vehicle_type_id":"4","last_reported":1741436002,"current_range_meters":12000,"station_id":"ce501612rcd8frsf0b60","pricing_plan_id":"cebpf4jnsgd1na2vs0mg"},{"bike_id":"4fe07e64-bcfc-4419-919e-e995a01fb3cd","system_id":"levelo_inurba_marseille","lat":43.29522,"lon":5.39393,"is_reserved":false,"is_disabled":false,"rental_uris":{"android":"levelo://app?vid=4fe07e64-bcfc-4419-919e-e995a01fb3cd","ios":"levelo://app?vid=4fe07e64-bcfc-4419-919e-e995a01fb3cd"},"vehicle_type_id":"4","last_reported":1741436002,"current_range_meters":11600,"station_id":"ce4bh292rcd13ifvqdf0","pricing_plan_id":"cebpf4jnsgd1na2vs0mg"},{"bike_id":"868ea0ac-3377-4ce1-9801-21b8673151be","system_id":"levelo_inurba_marseille","lat":43.30556,"lon":5.36559,"is_reserved":false,"is_disabled":false,"rental_uris":{"android":"levelo://app?vid=868ea0ac-3377-4ce1-9801-21b8673151be","ios":"levelo://app?vid=868ea0ac-3377-4ce1-9801-21b8673151be"},"vehicle_type_id":"4","last_reported":1741436002,"current_range_meters":14800,"station_id":"ce4bgs12rcd13ifvqcag","pricing_plan_id":"cebpf4jnsgd1na2vs0mg"},{"bike_id":"65d2271a-97b5-4913-95aa-cf77a293f0eb","system_id":"levelo_inurba_marseille","lat":43.26035,"lon":5.37535,"is_reserved":false,"is_disabled":false,"rental_uris":{"android":"levelo://app?vid=65d2271a-97b5-4913-95aa-cf77a293f0eb","ios":"levelo://app?vid=65d2271a-97b5-4913-95aa-cf77a293f0eb"},"vehicle_type_id":"4","last_reported":1741436002,"current_range_meters":12000,"station_id":"ce4bhgh2rcd13ifvqfa0","pricing_plan_id":"cebpf4jnsgd1na2vs0mg"},{"bike_id":"07ec0d69-a2c2-4fc4-bbb1-873ceb65ec0d","system_id":"levelo_inurba_marseille","lat":43.25587,"lon":5.38226,"is_reserved":false,"is_disabled":false,"rental_uris":{"android":"levelo://app?vid=07ec0d69-a2c2-4fc4-bbb1-873ceb65ec0d","ios":"levelo://app?vid=07ec0d69-a2c2-4fc4-bbb1-873ceb65ec0d"},"vehicle_type_id":"4","last_reported":1741436002,"current_range_meters":12000,"station_id":"ce4bhih2rcd13ifvqfs0","pricing_plan_id":"cebpf4jnsgd1na2vs0mg"},{"bike_id":"460162c0-f1d6-4651-a83d-343302372b74","system_id":"levelo_inurba_marseille","lat":43.26214,"lon":5.37447,"is_reserved":false,"is_disabled":false,"rental_uris":{"android":"levelo://app?vid=460162c0-f1d6-4651-a83d-343302372b74","ios":"levelo://app?vid=460162c0-f1d6-4651-a83d-343302372b74"},"vehicle_type_id":"4","last_reported":1741436002,"current_range_meters":12400,"station_id":"ce4bhgp2rcd13ifvqfc0","pricing_plan_id":"cebpf4jnsgd1na2vs0mg"},{"bike_id":"cdc6fa71-b8c0-46e7-902c-4e18b52385d2","system_id":"levelo_inurba_marseille","lat":43.2885,"lon":5.3997,"is_reserved":false,"is_disabled":false,"rental_uris":{"android":"levelo://app?vid=cdc6fa71-b8c0-46e7-902c-4e18b52385d2","ios":"levelo://app?vid=cdc6fa71-b8c0-46e7-902c-4e18b52385d2"},"vehicle_type_id":"4","last_reported":1741436002,"current_range_meters":12400,"station_id":"","pricing_plan_id":"cebpf4jnsgd1na2vs0mg"},{"bike_id":"71697849-ec58-4518-9158-9a1b7a1ea659","system_id":"levelo_inurba_marseille","lat":43.25123,"lon":5.40323,"is_reserved":false,"is_disabled":false,"rental_uris":{"android":"levelo://app?vid=71697849-ec58-4518-9158-9a1b7a1ea659","ios":"levelo://app?vid=71697849-ec58-4518-9158-9a1b7a1ea659"},"vehicle_type_id":"4","last_reported":1741436002,"current_range_meters":12400,"station_id":"ce4bhlh2rcd13ifvqgig","pricing_plan_id":"cebpf4jnsgd1na2vs0mg"},{"bike_id":"ae454a88-f24c-4e88-a7cf-9a915082084f","system_id":"levelo_inurba_marseille","lat":43.25867,"lon":5.39894,"is_reserved":false,"is_disabled":false,"rental_uris":{"android":"levelo://app?vid=ae454a88-f24c-4e88-a7cf-9a915082084f","ios":"levelo://app?vid=ae454a88-f24c-4e88-a7cf-9a915082084f"},"vehicle_type_id":"4","last_reported":1741436002,"current_range_meters":12800,"station_id":"ce4bhl92rcd13ifvqghg","pricing_plan_id":"cebpf4jnsgd1na2vs0mg"},{"bike_id":"c8846add-99ca-489e-a964-e3c7aace924c","system_id":"levelo_inurba_marseille","lat":43.29379,"lon":5.37846,"is_reserved":false,"is_disabled":false,"rental_uris":{"android":"levelo://app?vid=c8846add-99ca-489e-a964-e3c7aace924c","ios":"levelo://app?vid=c8846add-99ca-489e-a964-e3c7aace924c"},"vehicle_type_id":"4","last_reported":1741436002,"current_range_meters":12800,"station_id":"ce4bgjh2rcd13ifvqbf0","pricing_plan_id":"cebpf4jnsgd1na2vs0mg"},{"bike_id":"ec774c61-336a-4ba1-8e57-28a4070347c0","system_id":"levelo_inurba_marseille","lat":43.26223,"lon":5.40451,"is_reserved":false,"is_disabled":false,"rental_uris":{"android":"levelo://app?vid=ec774c61-336a-4ba1-8e57-28a4070347c0","ios":"levelo://app?vid=ec774c61-336a-4ba1-8e57-28a4070347c0"},"vehicle_type_id":"4","last_reported":1741436002,"current_range_meters":12800,"station_id":"ce4bhmh2rcd13ifvqgmg","pricing_plan_id":"cebpf4jnsgd1na2vs0mg"},{"bike_id":"d01e90ea-51a9-4a13-9c65-527a65da3de3","system_id":"levelo_inurba_marseille","lat":43.2804,"lon":5.36952,"is_reserved":false,"is_disabled":false,"rental_uris":{"android":"levelo://app?vid=d01e90ea-51a9-4a13-9c65-527a65da3de3","ios":"levelo://app?vid=d01e90ea-51a9-4a13-9c65-527a65da3de3"},"vehicle_type_id":"4","last_reported":1741436002,"current_range_meters":12800,"station_id":"ce4bha12rcd13ifvqef0","pricing_plan_id":"cebpf4jnsgd1na2vs0mg"},{"bike_id":"c1c412b3-ae23-45ab-894a-fe5b494cc9e6","system_id":"levelo_inurba_marseille","lat":43.23186,"lon":5.35547,"is_reserved":false,"is_disabled":false,"rental_uris":{"android":"levelo://app?vid=c1c412b3-ae23-45ab-894a-fe5b494cc9e6","ios":"levelo://app?vid=c1c412b3-ae23-45ab-894a-fe5b494cc9e6"},"vehicle_type_id":"4","last_reported":1741436002,"current_range_meters":12800,"station_id":"ce4bhu92rcd13ifvqi70","pricing_plan_id":"cebpf4jnsgd1na2vs0mg"},{"bike_id":"21a97c5e-42a1-42dc-8f0b-c09a56ace1b8","system_id":"levelo_inurba_marseille","lat":43.30374,"lon":5.42486,"is_reserved":false,"is_disabled":true,"rental_uris":{"android":"levelo://app?vid=21a97c5e-42a1-42dc-8f0b-c09a56ace1b8","ios":"levelo://app?vid=21a97c5e-42a1-42dc-8f0b-c09a56ace1b8"},"vehicle_type_id":"4","last_reported":1741436002,"current_range_meters":12800,"station_id":"","pricing_plan_id":"cebpf4jnsgd1na2vs0mg"},{"bike_id":"1ea763e3-cb4c-4547-9d45-8685bb75eebd","system_id":"levelo_inurba_marseille","lat":43.29305,"lon":5.3717,"is_reserved":false,"is_disabled":false,"rental_uris":{"android":"levelo://app?vid=1ea763e3-cb4c-4547-9d45-8685bb75eebd","ios":"levelo://app?vid=1ea763e3-cb4c-4547-9d45-8685bb75eebd"},"vehicle_type_id":"4","last_reported":1741436002,"current_range_meters":14400,"station_id":"ce4bgh92rcd13ifvqb40","pricing_plan_id":"cebpf4jnsgd1na2vs0mg"},{"bike_id":"b191e64a-7504-4b63-a325-101c45c9ae16","system_id":"levelo_inurba_marseille","lat":43.31209,"lon":5.36864,"is_reserved":false,"is_disabled":false,"rental_uris":{"android":"levelo://app?vid=b191e64a-7504-4b63-a325-101c45c9ae16","ios":"levelo://app?vid=b191e64a-7504-4b63-a325-101c45c9ae16"},"vehicle_type_id":"4","last_reported":1741436002,"current_range_meters":13600,"station_id":"ce4bgl92rcd13ifvqbq0","pricing_plan_id":"cebpf4jnsgd1na2vs0mg"},{"bike_id":"7db619cc-a847-4f94-b9d3-bbd6662611e1","system_id":"levelo_inurba_marseille","lat":43.29621,"lon":5.3717,"is_reserved":false,"is_disabled":false,"rental_uris":{"android":"levelo://app?vid=7db619cc-a847-4f94-b9d3-bbd6662611e1","ios":"levelo://app?vid=7db619cc-a847-4f94-b9d3-bbd6662611e1"},"vehicle_type_id":"4","last_reported":1741436002,"current_range_meters":16800,"station_id":"ce4bgnh2rcd13ifvqc0g","pricing_plan_id":"cebpf4jnsgd1na2vs0mg"},{"bike_id":"3787f6e2-a401-48ac-a63e-7fb62c813e50","system_id":"levelo_inurba_marseille","lat":43.25002,"lon":5.38925,"is_reserved":false,"is_disabled":false,"rental_uris":{"android":"levelo://app?vid=3787f6e2-a401-48ac-a63e-7fb62c813e50","ios":"levelo://app?vid=3787f6e2-a401-48ac-a63e-7fb62c813e50"},"vehicle_type_id":"4","last_reported":1741436002,"current_range_meters":12000,"station_id":"ce4bhgp2rcd13ifvqfd0","pricing_plan_id":"cebpf4jnsgd1na2vs0mg"},{"bike_id":"ec7b86b1-d2ba-4a31-a6b7-3733d23fbb99","system_id":"levelo_inurba_marseille","lat":43.28478,"lon":5.3856,"is_reserved":false,"is_disabled":false,"rental_uris":{"android":"levelo://app?vid=ec7b86b1-d2ba-4a31-a6b7-3733d23fbb99","ios":"levelo://app?vid=ec7b86b1-d2ba-4a31-a6b7-3733d23fbb99"},"vehicle_type_id":"4","last_reported":1741436002,"current_range_meters":14000,"station_id":"ce4bh8p2rcd13ifvqeb0","pricing_plan_id":"cebpf4jnsgd1na2vs0mg"},{"bike_id":"19bbe8da-d7df-496e-a677-cbaab925cf5e","system_id":"levelo_inurba_marseille","lat":43.24873,"lon":5.42513,"is_reserved":false,"is_disabled":false,"rental_uris":{"android":"levelo://app?vid=19bbe8da-d7df-496e-a677-cbaab925cf5e","ios":"levelo://app?vid=19bbe8da-d7df-496e-a677-cbaab925cf5e"},"vehicle_type_id":"4","last_reported":1741436002,"current_range_meters":14000,"station_id":"","pricing_plan_id":"cebpf4jnsgd1na2vs0mg"},{"bike_id":"ecb519b8-fb15-468f-ba71-7c8ed7f40bc5","system_id":"levelo_inurba_marseille","lat":43.29004,"lon":5.35614,"is_reserved":false,"is_disabled":false,"rental_uris":{"android":"levelo://app?vid=ecb519b8-fb15-468f-ba71-7c8ed7f40bc5","ios":"levelo://app?vid=ecb519b8-fb15-468f-ba71-7c8ed7f40bc5"},"vehicle_type_id":"4","last_reported":1741436002,"current_range_meters":13600,"station_id":"ce4bhb92rcd13ifvqen0","pricing_plan_id":"cebpf4jnsgd1na2vs0mg"},{"bike_id":"ea596784-7826-4b2f-973a-53cb2d0eec0f","system_id":"levelo_inurba_marseille","lat":43.32657,"lon":5.40993,"is_reserved":false,"is_disabled":false,"rental_uris":{"android":"levelo://app?vid=ea596784-7826-4b2f-973a-53cb2d0eec0f","ios":"levelo://app?vid=ea596784-7826-4b2f-973a-53cb2d0eec0f"},"vehicle_type_id":"4","last_reported":1741436002,"current_range_meters":14000,"station_id":"ce4bhpp2rcd13ifvqhgg","pricing_plan_id":"cebpf4jnsgd1na2vs0mg"},{"bike_id":"716ad52e-6276-401a-9565-37b068cf8f1c","system_id":"levelo_inurba_marseille","lat":43.2481,"lon":5.37447,"is_reserved":false,"is_disabled":false,"rental_uris":{"android":"levelo://app?vid=716ad52e-6276-401a-9565-37b068cf8f1c","ios":"levelo://app?vid=716ad52e-6276-401a-9565-37b068cf8f1c"},"vehicle_type_id":"4","last_reported":1741436002,"current_range_meters":14400,"station_id":"ce4bhgh2rcd13ifvqfb0","pricing_plan_id":"cebpf4jnsgd1na2vs0mg"},{"bike_id":"b7ca8830-f079-4a46-b3e5-e3b497346e8a","system_id":"levelo_inurba_marseille","lat":43.26195,"lon":5.37454,"is_reserved":false,"is_disabled":false,"rental_uris":{"android":"levelo://app?vid=b7ca8830-f079-4a46-b3e5-e3b497346e8a","ios":"levelo://app?vid=b7ca8830-f079-4a46-b3e5-e3b497346e8a"},"vehicle_type_id":"4","last_reported":1741436002,"current_range_meters":14400,"station_id":"ce4bhgp2rcd13ifvqfc0","pricing_plan_id":"cebpf4jnsgd1na2vs0mg"},{"bike_id":"953c792d-9ab8-4d1c-8b46-33d86986767f","system_id":"levelo_inurba_marseille","lat":43.292615,"lon":5.384355,"is_reserved":false,"is_disabled":false,"rental_uris":{"android":"levelo://app?vid=953c792d-9ab8-4d1c-8b46-33d86986767f","ios":"levelo://app?vid=953c792d-9ab8-4d1c-8b46-33d86986767f"},"vehicle_type_id":"4","last_reported":1741436002,"current_range_meters":14400,"station_id":"ce4bh692rcd13ifvqea0","pricing_plan_id":"cebpf4jnsgd1na2vs0mg"},{"bike_id":"975e2e54-7b2a-4f8c-9077-df20805036df","system_id":"levelo_inurba_marseille","lat":43.30307,"lon":5.39211,"is_reserved":false,"is_disabled":false,"rental_uris":{"android":"levelo://app?vid=975e2e54-7b2a-4f8c-9077-df20805036df","ios":"levelo://app?vid=975e2e54-7b2a-4f8c-9077-df20805036df"},"vehicle_type_id":"4","last_reported":1741436002,"current_range_meters":14400,"station_id":"ce4bgkh2rcd13ifvqbk0","pricing_plan_id":"cebpf4jnsgd1na2vs0mg"},{"bike_id":"4d343521-9ca0-4069-99fe-9269e65766b4","system_id":"levelo_inurba_marseille","lat":43.28414,"lon":5.34978,"is_reserved":false,"is_disabled":false,"rental_uris":{"android":"levelo://app?vid=4d343521-9ca0-4069-99fe-9269e65766b4","ios":"levelo://app?vid=4d343521-9ca0-4069-99fe-9269e65766b4"},"vehicle_type_id":"4","last_reported":1741436002,"current_range_meters":14400,"station_id":"ce4bhbh2rcd13ifvqepg","pricing_plan_id":"cebpf4jnsgd1na2vs0mg"},{"bike_id":"4450207a-188c-4e8e-ac18-2892c00e0044","system_id":"levelo_inurba_marseille","lat":43.27209,"lon":5.39181,"is_reserved":false,"is_disabled":false,"rental_uris":{"android":"levelo://app?vid=4450207a-188c-4e8e-ac18-2892c00e0044","ios":"levelo://app?vid=4450207a-188c-4e8e-ac18-2892c00e0044"},"vehicle_type_id":"4","last_reported":1741436002,"current_range_meters":14400,"station_id":"ce4bhhp2rcd13ifvqfm0","pricing_plan_id":"cebpf4jnsgd1na2vs0mg"},{"bike_id":"03e678da-8e6d-4b56-b4b6-4d69783fda8b","system_id":"levelo_inurba_marseille","lat":43.31686,"lon":5.40476,"is_reserved":false,"is_disabled":false,"rental_uris":{"android":"levelo://app?vid=03e678da-8e6d-4b56-b4b6-4d69783fda8b","ios":"levelo://app?vid=03e678da-8e6d-4b56-b4b6-4d69783fda8b"},"vehicle_type_id":"4","last_reported":1741436002,"current_range_meters":15200,"station_id":"ce4bh012rcd13ifvqd00","pricing_plan_id":"cebpf4jnsgd1na2vs0mg"},{"bike_id":"6332f21c-b735-409b-8f12-ffcec3dc9b39","system_id":"levelo_inurba_marseille","lat":43.23192,"lon":5.39991,"is_reserved":false,"is_disabled":false,"rental_uris":{"android":"levelo://app?vid=6332f21c-b735-409b-8f12-ffcec3dc9b39","ios":"levelo://app?vid=6332f21c-b735-409b-8f12-ffcec3dc9b39"},"vehicle_type_id":"4","last_reported":1741436002,"current_range_meters":15200,"station_id":"ce4bhn12rcd13ifvqgqg","pricing_plan_id":"cebpf4jnsgd1na2vs0mg"},{"bike_id":"079238e1-0d04-432b-9c0f-009ab548ccfa","system_id":"levelo_inurba_marseille","lat":43.27965,"lon":5.38721,"is_reserved":false,"is_disabled":false,"rental_uris":{"android":"levelo://app?vid=079238e1-0d04-432b-9c0f-009ab548ccfa","ios":"levelo://app?vid=079238e1-0d04-432b-9c0f-009ab548ccfa"},"vehicle_type_id":"4","last_reported":1741436002,"current_range_meters":15200,"station_id":"ce4bhg12rcd13ifvqf80","pricing_plan_id":"cebpf4jnsgd1na2vs0mg"},{"bike_id":"06e1cee7-7c99-4479-8f4d-bab500867740","system_id":"levelo_inurba_marseille","lat":43.23064,"lon":5.35488,"is_reserved":false,"is_disabled":false,"rental_uris":{"android":"levelo://app?vid=06e1cee7-7c99-4479-8f4d-bab500867740","ios":"levelo://app?vid=06e1cee7-7c99-4479-8f4d-bab500867740"},"vehicle_type_id":"4","last_reported":1741436002,"current_range_meters":16000,"station_id":"cpo3342slgdg3j2ifvpg","pricing_plan_id":"cebpf4jnsgd1na2vs0mg"},{"bike_id":"8c3dd305-bbce-454a-94bf-d502bda3352d","system_id":"levelo_inurba_marseille","lat":43.2842,"lon":5.34988,"is_reserved":false,"is_disabled":false,"rental_uris":{"android":"levelo://app?vid=8c3dd305-bbce-454a-94bf-d502bda3352d","ios":"levelo://app?vid=8c3dd305-bbce-454a-94bf-d502bda3352d"},"vehicle_type_id":"4","last_reported":1741436002,"current_range_meters":16000,"station_id":"ce4bhbh2rcd13ifvqepg","pricing_plan_id":"cebpf4jnsgd1na2vs0mg"},{"bike_id":"c14d7feb-080e-43e2-95f2-40c85436f912","system_id":"levelo_inurba_marseille","lat":43.33755,"lon":5.37423,"is_reserved":false,"is_disabled":false,"rental_uris":{"android":"levelo://app?vid=c14d7feb-080e-43e2-95f2-40c85436f912","ios":"levelo://app?vid=c14d7feb-080e-43e2-95f2-40c85436f912"},"vehicle_type_id":"4","last_reported":1741436002,"current_range_meters":16000,"station_id":"","pricing_plan_id":"cebpf4jnsgd1na2vs0mg"},{"bike_id":"51871b16-d4b8-45e5-9862-b7fd2add88a3","system_id":"levelo_inurba_marseille","lat":43.30144,"lon":5.38094,"is_reserved":false,"is_disabled":false,"rental_uris":{"android":"levelo://app?vid=51871b16-d4b8-45e5-9862-b7fd2add88a3","ios":"levelo://app?vid=51871b16-d4b8-45e5-9862-b7fd2add88a3"},"vehicle_type_id":"4","last_reported":1741436002,"current_range_meters":16000,"station_id":"ce4bgjp2rcd13ifvqbh0","pricing_plan_id":"cebpf4jnsgd1na2vs0mg"},{"bike_id":"e864a5f8-5d09-44e4-ac13-510caec44d44","system_id":"levelo_inurba_marseille","lat":43.29781,"lon":5.36194,"is_reserved":false,"is_disabled":false,"rental_uris":{"android":"levelo://app?vid=e864a5f8-5d09-44e4-ac13-510caec44d44","ios":"levelo://app?vid=e864a5f8-5d09-44e4-ac13-510caec44d44"},"vehicle_type_id":"4","last_reported":1741436002,"current_range_meters":16000,"station_id":"","pricing_plan_id":"cebpf4jnsgd1na2vs0mg"},{"bike_id":"0b6b8dd8-3450-4779-834c-499fd12aab96","system_id":"levelo_inurba_marseille","lat":43.27823,"lon":5.40711,"is_reserved":false,"is_disabled":false,"rental_uris":{"android":"levelo://app?vid=0b6b8dd8-3450-4779-834c-499fd12aab96","ios":"levelo://app?vid=0b6b8dd8-3450-4779-834c-499fd12aab96"},"vehicle_type_id":"4","last_reported":1741436002,"current_range_meters":16000,"station_id":"ce4bhnh2rcd13ifvqgtg","pricing_plan_id":"cebpf4jnsgd1na2vs0mg"},{"bike_id":"5b3feac3-b03c-46f0-be7e-bd037d3dd045","system_id":"levelo_inurba_marseille","lat":43.25711,"lon":5.41082,"is_reserved":false,"is_disabled":false,"rental_uris":{"android":"levelo://app?vid=5b3feac3-b03c-46f0-be7e-bd037d3dd045","ios":"levelo://app?vid=5b3feac3-b03c-46f0-be7e-bd037d3dd045"},"vehicle_type_id":"4","last_reported":1741436002,"current_range_meters":16400,"station_id":"ce4bhkp2rcd13ifvqgd0","pricing_plan_id":"cebpf4jnsgd1na2vs0mg"},{"bike_id":"ec8defe5-40d2-4aab-ac9c-23a24eeb0f18","system_id":"levelo_inurba_marseille","lat":43.28468,"lon":5.38422,"is_reserved":false,"is_disabled":false,"rental_uris":{"android":"levelo://app?vid=ec8defe5-40d2-4aab-ac9c-23a24eeb0f18","ios":"levelo://app?vid=ec8defe5-40d2-4aab-ac9c-23a24eeb0f18"},"vehicle_type_id":"4","last_reported":1741436002,"current_range_meters":16400,"station_id":"ce4bh512rcd13ifvqe3g","pricing_plan_id":"cebpf4jnsgd1na2vs0mg"},{"bike_id":"4dbf85b2-cd72-41a1-9e4e-e69c576be72e","system_id":"levelo_inurba_marseille","lat":43.27676,"lon":5.38899,"is_reserved":false,"is_disabled":false,"rental_uris":{"android":"levelo://app?vid=4dbf85b2-cd72-41a1-9e4e-e69c576be72e","ios":"levelo://app?vid=4dbf85b2-cd72-41a1-9e4e-e69c576be72e"},"vehicle_type_id":"4","last_reported":1741436002,"current_range_meters":16400,"station_id":"ce4bhi12rcd13ifvqfo0","pricing_plan_id":"cebpf4jnsgd1na2vs0mg"},{"bike_id":"ee926f57-a308-4c18-a6fa-c5abc65e8c4e","system_id":"levelo_inurba_marseille","lat":43.23963,"lon":5.36638,"is_reserved":false,"is_disabled":false,"rental_uris":{"android":"levelo://app?vid=ee926f57-a308-4c18-a6fa-c5abc65e8c4e","ios":"levelo://app?vid=ee926f57-a308-4c18-a6fa-c5abc65e8c4e"},"vehicle_type_id":"4","last_reported":1741436002,"current_range_meters":16400,"station_id":"ce4bhi12rcd13ifvqfp0","pricing_plan_id":"cebpf4jnsgd1na2vs0mg"},{"bike_id":"3a1203da-b99d-4623-9c0f-d962bb601f56","system_id":"levelo_inurba_marseille","lat":43.29525,"lon":5.37496,"is_reserved":false,"is_disabled":false,"rental_uris":{"android":"levelo://app?vid=3a1203da-b99d-4623-9c0f-d962bb601f56","ios":"levelo://app?vid=3a1203da-b99d-4623-9c0f-d962bb601f56"},"vehicle_type_id":"4","last_reported":1741436002,"current_range_meters":16400,"station_id":"ce4bgkp2rcd13ifvqbmg","pricing_plan_id":"cebpf4jnsgd1na2vs0mg"},{"bike_id":"d10f4563-0230-4e9a-817d-5d1c1f2e8988","system_id":"levelo_inurba_marseille","lat":43.31341,"lon":5.39688,"is_reserved":false,"is_disabled":false,"rental_uris":{"android":"levelo://app?vid=d10f4563-0230-4e9a-817d-5d1c1f2e8988","ios":"levelo://app?vid=d10f4563-0230-4e9a-817d-5d1c1f2e8988"},"vehicle_type_id":"4","last_reported":1741436002,"current_range_meters":16400,"station_id":"ce4bgvp2rcd13ifvqcu0","pricing_plan_id":"cebpf4jnsgd1na2vs0mg"},{"bike_id":"a76e6b61-ff09-4ed4-9bbe-f387dcc346d1","system_id":"levelo_inurba_marseille","lat":43.23154,"lon":5.43706,"is_reserved":false,"is_disabled":false,"rental_uris":{"android":"levelo://app?vid=a76e6b61-ff09-4ed4-9bbe-f387dcc346d1","ios":"levelo://app?vid=a76e6b61-ff09-4ed4-9bbe-f387dcc346d1"},"vehicle_type_id":"4","last_reported":1741436002,"current_range_meters":16400,"station_id":"ce4bhmp2rcd13ifvqgog","pricing_plan_id":"cebpf4jnsgd1na2vs0mg"},{"bike_id":"723c67fa-b4b3-48ca-834f-0eace723680b","system_id":"levelo_inurba_marseille","lat":43.26554,"lon":5.37302,"is_reserved":false,"is_disabled":false,"rental_uris":{"android":"levelo://app?vid=723c67fa-b4b3-48ca-834f-0eace723680b","ios":"levelo://app?vid=723c67fa-b4b3-48ca-834f-0eace723680b"},"vehicle_type_id":"4","last_reported":1741436002,"current_range_meters":16400,"station_id":"ce4bhg12rcd13ifvqf70","pricing_plan_id":"cebpf4jnsgd1na2vs0mg"},{"bike_id":"89cdc5a5-a744-4269-a86d-3ed5ecc287d5","system_id":"levelo_inurba_marseille","lat":43.2416,"lon":5.39716,"is_reserved":false,"is_disabled":false,"rental_uris":{"android":"levelo://app?vid=89cdc5a5-a744-4269-a86d-3ed5ecc287d5","ios":"levelo://app?vid=89cdc5a5-a744-4269-a86d-3ed5ecc287d5"},"vehicle_type_id":"4","last_reported":1741436002,"current_range_meters":16400,"station_id":"ce4bhn12rcd13ifvqgpg","pricing_plan_id":"cebpf4jnsgd1na2vs0mg"},{"bike_id":"c75ba289-7ce4-4648-8da4-b5c367b4d56d","system_id":"levelo_inurba_marseille","lat":43.27205,"lon":5.39183,"is_reserved":false,"is_disabled":false,"rental_uris":{"android":"levelo://app?vid=c75ba289-7ce4-4648-8da4-b5c367b4d56d","ios":"levelo://app?vid=c75ba289-7ce4-4648-8da4-b5c367b4d56d"},"vehicle_type_id":"4","last_reported":1741436002,"current_range_meters":17200,"station_id":"ce4bhhp2rcd13ifvqfm0","pricing_plan_id":"cebpf4jnsgd1na2vs0mg"},{"bike_id":"940cca92-41ee-4c82-aeb6-50fa5c0e6db1","system_id":"levelo_inurba_marseille","lat":43.30882,"lon":5.39645,"is_reserved":false,"is_disabled":false,"rental_uris":{"android":"levelo://app?vid=940cca92-41ee-4c82-aeb6-50fa5c0e6db1","ios":"levelo://app?vid=940cca92-41ee-4c82-aeb6-50fa5c0e6db1"},"vehicle_type_id":"4","last_reported":1741436002,"current_range_meters":16400,"station_id":"ce4bh012rcd13ifvqcv0","pricing_plan_id":"cebpf4jnsgd1na2vs0mg"},{"bike_id":"a0733266-aef6-4b32-bb77-fd5f6b69b2b3","system_id":"levelo_inurba_marseille","lat":43.32075,"lon":5.41515,"is_reserved":false,"is_disabled":false,"rental_uris":{"android":"levelo://app?vid=a0733266-aef6-4b32-bb77-fd5f6b69b2b3","ios":"levelo://app?vid=a0733266-aef6-4b32-bb77-fd5f6b69b2b3"},"vehicle_type_id":"4","last_reported":1741436002,"current_range_meters":16400,"station_id":"ce4bhq92rcd13ifvqhkg","pricing_plan_id":"cebpf4jnsgd1na2vs0mg"},{"bike_id":"e9dab2ce-7c7d-40d2-82aa-ed5c703d86fd","system_id":"levelo_inurba_marseille","lat":43.32121,"lon":5.36768,"is_reserved":false,"is_disabled":false,"rental_uris":{"android":"levelo://app?vid=e9dab2ce-7c7d-40d2-82aa-ed5c703d86fd","ios":"levelo://app?vid=e9dab2ce-7c7d-40d2-82aa-ed5c703d86fd"},"vehicle_type_id":"4","last_reported":1741436002,"current_range_meters":16800,"station_id":"ce4bhrh2rcd13ifvqhug","pricing_plan_id":"cebpf4jnsgd1na2vs0mg"},{"bike_id":"11f29ed2-4ef8-4d42-9fd4-992a0e5bd652","system_id":"levelo_inurba_marseille","lat":43.28349,"lon":5.38106,"is_reserved":false,"is_disabled":false,"rental_uris":{"android":"levelo://app?vid=11f29ed2-4ef8-4d42-9fd4-992a0e5bd652","ios":"levelo://app?vid=11f29ed2-4ef8-4d42-9fd4-992a0e5bd652"},"vehicle_type_id":"4","last_reported":1741436002,"current_range_meters":16400,"station_id":"ce4bh412rcd13ifvqdr0","pricing_plan_id":"cebpf4jnsgd1na2vs0mg"},{"bike_id":"b67ea5ad-547c-47fe-9883-70652af03759","system_id":"levelo_inurba_marseille","lat":43.29257,"lon":5.40917,"is_reserved":false,"is_disabled":false,"rental_uris":{"android":"levelo://app?vid=b67ea5ad-547c-47fe-9883-70652af03759","ios":"levelo://app?vid=b67ea5ad-547c-47fe-9883-70652af03759"},"vehicle_type_id":"4","last_reported":1741436002,"current_range_meters":16800,"station_id":"ce4bh192rcd13ifvqdc0","pricing_plan_id":"cebpf4jnsgd1na2vs0mg"},{"bike_id":"dc404e46-8217-49df-a9f9-0b1fb5b9d87a","system_id":"levelo_inurba_marseille","lat":43.28016,"lon":5.40422,"is_reserved":false,"is_disabled":false,"rental_uris":{"android":"levelo://app?vid=dc404e46-8217-49df-a9f9-0b1fb5b9d87a","ios":"levelo://app?vid=dc404e46-8217-49df-a9f9-0b1fb5b9d87a"},"vehicle_type_id":"4","last_reported":1741436002,"current_range_meters":16800,"station_id":"","pricing_plan_id":"cebpf4jnsgd1na2vs0mg"},{"bike_id":"7d5784fa-4cd9-4805-80bd-e45d001be8a2","system_id":"levelo_inurba_marseille","lat":43.257165,"lon":5.41116,"is_reserved":false,"is_disabled":false,"rental_uris":{"android":"levelo://app?vid=7d5784fa-4cd9-4805-80bd-e45d001be8a2","ios":"levelo://app?vid=7d5784fa-4cd9-4805-80bd-e45d001be8a2"},"vehicle_type_id":"4","last_reported":1741436002,"current_range_meters":17200,"station_id":"ce4bhkp2rcd13ifvqgd0","pricing_plan_id":"cebpf4jnsgd1na2vs0mg"},{"bike_id":"d880fb32-3ea8-4123-bdac-bd51be649f45","system_id":"levelo_inurba_marseille","lat":43.23062,"lon":5.35494,"is_reserved":false,"is_disabled":false,"rental_uris":{"android":"levelo://app?vid=d880fb32-3ea8-4123-bdac-bd51be649f45","ios":"levelo://app?vid=d880fb32-3ea8-4123-bdac-bd51be649f45"},"vehicle_type_id":"4","last_reported":1741436002,"current_range_meters":17200,"station_id":"cpo3342slgdg3j2ifvpg","pricing_plan_id":"cebpf4jnsgd1na2vs0mg"},{"bike_id":"1c0184c6-72ad-4860-a550-18c4478dfce6","system_id":"levelo_inurba_marseille","lat":43.27949,"lon":5.41044,"is_reserved":false,"is_disabled":false,"rental_uris":{"android":"levelo://app?vid=1c0184c6-72ad-4860-a550-18c4478dfce6","ios":"levelo://app?vid=1c0184c6-72ad-4860-a550-18c4478dfce6"},"vehicle_type_id":"4","last_reported":1741436002,"current_range_meters":17200,"station_id":"ce4bhnp2rcd13ifvqh0g","pricing_plan_id":"cebpf4jnsgd1na2vs0mg"},{"bike_id":"210653dd-26ad-4deb-a54b-70df4c4b1acc","system_id":"levelo_inurba_marseille","lat":43.23052,"lon":5.35468,"is_reserved":false,"is_disabled":false,"rental_uris":{"android":"levelo://app?vid=210653dd-26ad-4deb-a54b-70df4c4b1acc","ios":"levelo://app?vid=210653dd-26ad-4deb-a54b-70df4c4b1acc"},"vehicle_type_id":"4","last_reported":1741436002,"current_range_meters":17200,"station_id":"cpo3342slgdg3j2ifvpg","pricing_plan_id":"cebpf4jnsgd1na2vs0mg"},{"bike_id":"f6a21c52-00c8-4b4b-931c-930f7a98513a","system_id":"levelo_inurba_marseille","lat":43.280154,"lon":5.387235,"is_reserved":false,"is_disabled":false,"rental_uris":{"android":"levelo://app?vid=f6a21c52-00c8-4b4b-931c-930f7a98513a","ios":"levelo://app?vid=f6a21c52-00c8-4b4b-931c-930f7a98513a"},"vehicle_type_id":"4","last_reported":1741436002,"current_range_meters":17200,"station_id":"ce4bha92rcd13ifvqeg0","pricing_plan_id":"cebpf4jnsgd1na2vs0mg"},{"bike_id":"18770c3d-b6d7-4b78-97fd-2c7b0ca87d89","system_id":"levelo_inurba_marseille","lat":43.2439,"lon":5.37056,"is_reserved":false,"is_disabled":false,"rental_uris":{"android":"levelo://app?vid=18770c3d-b6d7-4b78-97fd-2c7b0ca87d89","ios":"levelo://app?vid=18770c3d-b6d7-4b78-97fd-2c7b0ca87d89"},"vehicle_type_id":"4","last_reported":1741436002,"current_range_meters":16800,"station_id":"ce4bhhh2rcd13ifvqfk0","pricing_plan_id":"cebpf4jnsgd1na2vs0mg"},{"bike_id":"deb81f77-c6e9-45d2-b680-8c00a5704cb4","system_id":"levelo_inurba_marseille","lat":43.32105,"lon":5.36782,"is_reserved":false,"is_disabled":false,"rental_uris":{"android":"levelo://app?vid=deb81f77-c6e9-45d2-b680-8c00a5704cb4","ios":"levelo://app?vid=deb81f77-c6e9-45d2-b680-8c00a5704cb4"},"vehicle_type_id":"4","last_reported":1741436002,"current_range_meters":17200,"station_id":"ce4bhrh2rcd13ifvqhug","pricing_plan_id":"cebpf4jnsgd1na2vs0mg"},{"bike_id":"ac28f047-cdec-4827-a9a5-65793bb8dab3","system_id":"levelo_inurba_marseille","lat":43.28619,"lon":5.35109,"is_reserved":false,"is_disabled":false,"rental_uris":{"android":"levelo://app?vid=ac28f047-cdec-4827-a9a5-65793bb8dab3","ios":"levelo://app?vid=ac28f047-cdec-4827-a9a5-65793bb8dab3"},"vehicle_type_id":"4","last_reported":1741436002,"current_range_meters":17200,"station_id":"ce4bhch2rcd13ifvqeug","pricing_plan_id":"cebpf4jnsgd1na2vs0mg"},{"bike_id":"d96a9b99-82c0-439c-90da-5cd0aed77495","system_id":"levelo_inurba_marseille","lat":43.2619,"lon":5.37451,"is_reserved":false,"is_disabled":false,"rental_uris":{"android":"levelo://app?vid=d96a9b99-82c0-439c-90da-5cd0aed77495","ios":"levelo://app?vid=d96a9b99-82c0-439c-90da-5cd0aed77495"},"vehicle_type_id":"4","last_reported":1741436002,"current_range_meters":17200,"station_id":"ce4bhgp2rcd13ifvqfc0","pricing_plan_id":"cebpf4jnsgd1na2vs0mg"},{"bike_id":"12ce932b-dad7-4959-a6cb-4a6e525935ed","system_id":"levelo_inurba_marseille","lat":43.29196,"lon":5.35801,"is_reserved":false,"is_disabled":false,"rental_uris":{"android":"levelo://app?vid=12ce932b-dad7-4959-a6cb-4a6e525935ed","ios":"levelo://app?vid=12ce932b-dad7-4959-a6cb-4a6e525935ed"},"vehicle_type_id":"4","last_reported":1741436002,"current_range_meters":16800,"station_id":"ce4bhb12rcd13ifvqel0","pricing_plan_id":"cebpf4jnsgd1na2vs0mg"},{"bike_id":"ef5830de-0baf-4e47-b157-4ef311ce965a","system_id":"levelo_inurba_marseille","lat":43.25721,"lon":5.41111,"is_reserved":false,"is_disabled":false,"rental_uris":{"android":"levelo://app?vid=ef5830de-0baf-4e47-b157-4ef311ce965a","ios":"levelo://app?vid=ef5830de-0baf-4e47-b157-4ef311ce965a"},"vehicle_type_id":"4","last_reported":1741436002,"current_range_meters":17200,"station_id":"ce4bhkp2rcd13ifvqgd0","pricing_plan_id":"cebpf4jnsgd1na2vs0mg"},{"bike_id":"2d201668-e0ff-4085-9ec0-5c082a94ad30","system_id":"levelo_inurba_marseille","lat":43.33783,"lon":5.37436,"is_reserved":false,"is_disabled":false,"rental_uris":{"android":"levelo://app?vid=2d201668-e0ff-4085-9ec0-5c082a94ad30","ios":"levelo://app?vid=2d201668-e0ff-4085-9ec0-5c082a94ad30"},"vehicle_type_id":"4","last_reported":1741436002,"current_range_meters":17200,"station_id":"","pricing_plan_id":"cebpf4jnsgd1na2vs0mg"},{"bike_id":"6e0b828f-255a-40f8-9404-1da9c53f32e3","system_id":"levelo_inurba_marseille","lat":43.29413,"lon":5.38634,"is_reserved":false,"is_disabled":false,"rental_uris":{"android":"levelo://app?vid=6e0b828f-255a-40f8-9404-1da9c53f32e3","ios":"levelo://app?vid=6e0b828f-255a-40f8-9404-1da9c53f32e3"},"vehicle_type_id":"4","last_reported":1741436002,"current_range_meters":18000,"station_id":"ce4bh2h2rcd13ifvqdh0","pricing_plan_id":"cebpf4jnsgd1na2vs0mg"},{"bike_id":"11ebf985-b073-454a-baa8-beec3c04cd37","system_id":"levelo_inurba_marseille","lat":43.33027,"lon":5.39045,"is_reserved":false,"is_disabled":false,"rental_uris":{"android":"levelo://app?vid=11ebf985-b073-454a-baa8-beec3c04cd37","ios":"levelo://app?vid=11ebf985-b073-454a-baa8-beec3c04cd37"},"vehicle_type_id":"4","last_reported":1741436002,"current_range_meters":17600,"station_id":"ce4bhr92rcd13ifvqhrg","pricing_plan_id":"cebpf4jnsgd1na2vs0mg"},{"bike_id":"a71f5391-91f9-4d09-a601-92c62e162a41","system_id":"levelo_inurba_marseille","lat":43.29343,"lon":5.38055,"is_reserved":false,"is_disabled":false,"rental_uris":{"android":"levelo://app?vid=a71f5391-91f9-4d09-a601-92c62e162a41","ios":"levelo://app?vid=a71f5391-91f9-4d09-a601-92c62e162a41"},"vehicle_type_id":"4","last_reported":1741436002,"current_range_meters":17600,"station_id":"","pricing_plan_id":"cebpf4jnsgd1na2vs0mg"},{"bike_id":"4c2f31be-d910-44a0-bf80-42c6447a123d","system_id":"levelo_inurba_marseille","lat":43.3203,"lon":5.41556,"is_reserved":false,"is_disabled":false,"rental_uris":{"android":"levelo://app?vid=4c2f31be-d910-44a0-bf80-42c6447a123d","ios":"levelo://app?vid=4c2f31be-d910-44a0-bf80-42c6447a123d"},"vehicle_type_id":"4","last_reported":1741436002,"current_range_meters":17600,"station_id":"ce4bhq92rcd13ifvqhkg","pricing_plan_id":"cebpf4jnsgd1na2vs0mg"},{"bike_id":"a540861e-4176-4142-940d-a52c68ceae64","system_id":"levelo_inurba_marseille","lat":43.25503,"lon":5.37653,"is_reserved":false,"is_disabled":false,"rental_uris":{"android":"levelo://app?vid=a540861e-4176-4142-940d-a52c68ceae64","ios":"levelo://app?vid=a540861e-4176-4142-940d-a52c68ceae64"},"vehicle_type_id":"4","last_reported":1741436002,"current_range_meters":17600,"station_id":"ce4bhh12rcd13ifvqff0","pricing_plan_id":"cebpf4jnsgd1na2vs0mg"},{"bike_id":"086d469f-dff5-4ec5-8e53-42a42c799cc9","system_id":"levelo_inurba_marseille","lat":43.29539,"lon":5.42283,"is_reserved":false,"is_disabled":false,"rental_uris":{"android":"levelo://app?vid=086d469f-dff5-4ec5-8e53-42a42c799cc9","ios":"levelo://app?vid=086d469f-dff5-4ec5-8e53-42a42c799cc9"},"vehicle_type_id":"4","last_reported":1741436002,"current_range_meters":16800,"station_id":"ce4bhph2rcd13ifvqhdg","pricing_plan_id":"cebpf4jnsgd1na2vs0mg"},{"bike_id":"98d6b5e7-ab8a-48b4-a847-7124bae4afc6","system_id":"levelo_inurba_marseille","lat":43.23056,"lon":5.35485,"is_reserved":false,"is_disabled":false,"rental_uris":{"android":"levelo://app?vid=98d6b5e7-ab8a-48b4-a847-7124bae4afc6","ios":"levelo://app?vid=98d6b5e7-ab8a-48b4-a847-7124bae4afc6"},"vehicle_type_id":"4","last_reported":1741436002,"current_range_meters":17600,"station_id":"cpo3342slgdg3j2ifvpg","pricing_plan_id":"cebpf4jnsgd1na2vs0mg"},{"bike_id":"99e69bf6-dc57-4127-a1aa-9a36825d1a88","system_id":"levelo_inurba_marseille","lat":43.32362,"lon":5.367526,"is_reserved":false,"is_disabled":false,"rental_uris":{"android":"levelo://app?vid=99e69bf6-dc57-4127-a1aa-9a36825d1a88","ios":"levelo://app?vid=99e69bf6-dc57-4127-a1aa-9a36825d1a88"},"vehicle_type_id":"4","last_reported":1741436002,"current_range_meters":17600,"station_id":"ce4bhsh2rcd13ifvqi2g","pricing_plan_id":"cebpf4jnsgd1na2vs0mg"},{"bike_id":"b4989edc-c87e-4a97-900a-5d1ebee0d515","system_id":"levelo_inurba_marseille","lat":43.27617,"lon":5.36109,"is_reserved":false,"is_disabled":false,"rental_uris":{"android":"levelo://app?vid=b4989edc-c87e-4a97-900a-5d1ebee0d515","ios":"levelo://app?vid=b4989edc-c87e-4a97-900a-5d1ebee0d515"},"vehicle_type_id":"4","last_reported":1741436002,"current_range_meters":17200,"station_id":"ce4bgj92rcd13ifvqbe0","pricing_plan_id":"cebpf4jnsgd1na2vs0mg"},{"bike_id":"3a28e81b-0b61-43f7-9a78-761aabf632e6","system_id":"levelo_inurba_marseille","lat":43.30137,"lon":5.37403,"is_reserved":false,"is_disabled":false,"rental_uris":{"android":"levelo://app?vid=3a28e81b-0b61-43f7-9a78-761aabf632e6","ios":"levelo://app?vid=3a28e81b-0b61-43f7-9a78-761aabf632e6"},"vehicle_type_id":"4","last_reported":1741436002,"current_range_meters":18000,"station_id":"ce4bgs92rcd13ifvqcc0","pricing_plan_id":"cebpf4jnsgd1na2vs0mg"},{"bike_id":"d60e2ba2-9d3a-4067-8d8a-3ebb91302584","system_id":"levelo_inurba_marseille","lat":43.29301,"lon":5.37759,"is_reserved":false,"is_disabled":false,"rental_uris":{"android":"levelo://app?vid=d60e2ba2-9d3a-4067-8d8a-3ebb91302584","ios":"levelo://app?vid=d60e2ba2-9d3a-4067-8d8a-3ebb91302584"},"vehicle_type_id":"4","last_reported":1741436002,"current_range_meters":18000,"station_id":"","pricing_plan_id":"cebpf4jnsgd1na2vs0mg"},{"bike_id":"83563c1c-bef7-4eab-bee7-f6756eeed608","system_id":"levelo_inurba_marseille","lat":43.25593,"lon":5.38235,"is_reserved":false,"is_disabled":false,"rental_uris":{"android":"levelo://app?vid=83563c1c-bef7-4eab-bee7-f6756eeed608","ios":"levelo://app?vid=83563c1c-bef7-4eab-bee7-f6756eeed608"},"vehicle_type_id":"4","last_reported":1741436002,"current_range_meters":18000,"station_id":"ce4bhih2rcd13ifvqfs0","pricing_plan_id":"cebpf4jnsgd1na2vs0mg"},{"bike_id":"e1a0293b-333d-4a97-9af3-0c51ffe4ad6e","system_id":"levelo_inurba_marseille","lat":43.2669,"lon":5.38251,"is_reserved":false,"is_disabled":false,"rental_uris":{"android":"levelo://app?vid=e1a0293b-333d-4a97-9af3-0c51ffe4ad6e","ios":"levelo://app?vid=e1a0293b-333d-4a97-9af3-0c51ffe4ad6e"},"vehicle_type_id":"4","last_reported":1741436002,"current_range_meters":18000,"station_id":"ce4bhg92rcd13ifvqf90","pricing_plan_id":"cebpf4jnsgd1na2vs0mg"},{"bike_id":"248a808b-4740-4942-b8ee-57317fd89238","system_id":"levelo_inurba_marseille","lat":43.228181,"lon":5.352014,"is_reserved":false,"is_disabled":false,"rental_uris":{"android":"levelo://app?vid=248a808b-4740-4942-b8ee-57317fd89238","ios":"levelo://app?vid=248a808b-4740-4942-b8ee-57317fd89238"},"vehicle_type_id":"4","last_reported":1741436002,"current_range_meters":18000,"station_id":"cpo3532slgdg3j2ikp40","pricing_plan_id":"cebpf4jnsgd1na2vs0mg"},{"bike_id":"e39cce55-f5eb-46e2-8d01-deca9e0dc868","system_id":"levelo_inurba_marseille","lat":43.28418,"lon":5.3498,"is_reserved":false,"is_disabled":false,"rental_uris":{"android":"levelo://app?vid=e39cce55-f5eb-46e2-8d01-deca9e0dc868","ios":"levelo://app?vid=e39cce55-f5eb-46e2-8d01-deca9e0dc868"},"vehicle_type_id":"4","last_reported":1741436002,"current_range_meters":18000,"station_id":"ce4bhbh2rcd13ifvqepg","pricing_plan_id":"cebpf4jnsgd1na2vs0mg"},{"bike_id":"ed1679ed-ba76-41b4-9ece-3c813d646aeb","system_id":"levelo_inurba_marseille","lat":43.24071,"lon":5.37765,"is_reserved":false,"is_disabled":false,"rental_uris":{"android":"levelo://app?vid=ed1679ed-ba76-41b4-9ece-3c813d646aeb","ios":"levelo://app?vid=ed1679ed-ba76-41b4-9ece-3c813d646aeb"},"vehicle_type_id":"4","last_reported":1741436002,"current_range_meters":18000,"station_id":"ce4bhnp2rcd13ifvqgvg","pricing_plan_id":"cebpf4jnsgd1na2vs0mg"},{"bike_id":"8690b643-fbb2-4c76-8565-6335d6f52b82","system_id":"levelo_inurba_marseille","lat":43.24075,"lon":5.3775,"is_reserved":false,"is_disabled":false,"rental_uris":{"android":"levelo://app?vid=8690b643-fbb2-4c76-8565-6335d6f52b82","ios":"levelo://app?vid=8690b643-fbb2-4c76-8565-6335d6f52b82"},"vehicle_type_id":"4","last_reported":1741436002,"current_range_meters":18000,"station_id":"ce4bhnp2rcd13ifvqgvg","pricing_plan_id":"cebpf4jnsgd1na2vs0mg"},{"bike_id":"7010ed15-b1c0-4687-82e0-c5a65b3df130","system_id":"levelo_inurba_marseille","lat":43.27984,"lon":5.4167,"is_reserved":false,"is_disabled":false,"rental_uris":{"android":"levelo://app?vid=7010ed15-b1c0-4687-82e0-c5a65b3df130","ios":"levelo://app?vid=7010ed15-b1c0-4687-82e0-c5a65b3df130"},"vehicle_type_id":"4","last_reported":1741436002,"current_range_meters":18000,"station_id":"ce4bho12rcd13ifvqh1g","pricing_plan_id":"cebpf4jnsgd1na2vs0mg"},{"bike_id":"136cc22b-8e5f-41d5-b8ec-9696132795a4","system_id":"levelo_inurba_marseille","lat":43.27928,"lon":5.41039,"is_reserved":false,"is_disabled":false,"rental_uris":{"android":"levelo://app?vid=136cc22b-8e5f-41d5-b8ec-9696132795a4","ios":"levelo://app?vid=136cc22b-8e5f-41d5-b8ec-9696132795a4"},"vehicle_type_id":"4","last_reported":1741436002,"current_range_meters":18000,"station_id":"ce4bhnp2rcd13ifvqh0g","pricing_plan_id":"cebpf4jnsgd1na2vs0mg"},{"bike_id":"f4e5bfa9-3ef2-44b4-adaa-362ec3cebcd0","system_id":"levelo_inurba_marseille","lat":43.33024,"lon":5.39048,"is_reserved":false,"is_disabled":false,"rental_uris":{"android":"levelo://app?vid=f4e5bfa9-3ef2-44b4-adaa-362ec3cebcd0","ios":"levelo://app?vid=f4e5bfa9-3ef2-44b4-adaa-362ec3cebcd0"},"vehicle_type_id":"4","last_reported":1741436002,"current_range_meters":18000,"station_id":"ce4bhr92rcd13ifvqhrg","pricing_plan_id":"cebpf4jnsgd1na2vs0mg"},{"bike_id":"db770aa1-b2c8-4d91-980b-b1ead4bc1f13","system_id":"levelo_inurba_marseille","lat":43.27085,"lon":5.40293,"is_reserved":false,"is_disabled":false,"rental_uris":{"android":"levelo://app?vid=db770aa1-b2c8-4d91-980b-b1ead4bc1f13","ios":"levelo://app?vid=db770aa1-b2c8-4d91-980b-b1ead4bc1f13"},"vehicle_type_id":"4","last_reported":1741436002,"current_range_meters":18000,"station_id":"ce4bhk92rcd13ifvqgc0","pricing_plan_id":"cebpf4jnsgd1na2vs0mg"},{"bike_id":"eaf95cb1-b676-4e8c-b5d6-922a79f56434","system_id":"levelo_inurba_marseille","lat":43.23192,"lon":5.35552,"is_reserved":false,"is_disabled":false,"rental_uris":{"android":"levelo://app?vid=eaf95cb1-b676-4e8c-b5d6-922a79f56434","ios":"levelo://app?vid=eaf95cb1-b676-4e8c-b5d6-922a79f56434"},"vehicle_type_id":"4","last_reported":1741436002,"current_range_meters":18800,"station_id":"ce4bhu92rcd13ifvqi70","pricing_plan_id":"cebpf4jnsgd1na2vs0mg"},{"bike_id":"5a90c755-5607-4bf6-a7b2-4afdeca917ec","system_id":"levelo_inurba_marseille","lat":43.26553,"lon":5.37276,"is_reserved":false,"is_disabled":false,"rental_uris":{"android":"levelo://app?vid=5a90c755-5607-4bf6-a7b2-4afdeca917ec","ios":"levelo://app?vid=5a90c755-5607-4bf6-a7b2-4afdeca917ec"},"vehicle_type_id":"4","last_reported":1741436002,"current_range_meters":18800,"station_id":"ce4bhg12rcd13ifvqf70","pricing_plan_id":"cebpf4jnsgd1na2vs0mg"},{"bike_id":"0c339209-f8b5-41e6-8b08-67f692b6b7a8","system_id":"levelo_inurba_marseille","lat":43.33014,"lon":5.39062,"is_reserved":false,"is_disabled":false,"rental_uris":{"android":"levelo://app?vid=0c339209-f8b5-41e6-8b08-67f692b6b7a8","ios":"levelo://app?vid=0c339209-f8b5-41e6-8b08-67f692b6b7a8"},"vehicle_type_id":"4","last_reported":1741436002,"current_range_meters":18800,"station_id":"ce4bhr92rcd13ifvqhrg","pricing_plan_id":"cebpf4jnsgd1na2vs0mg"},{"bike_id":"25b778c2-7102-4dfe-8b16-b15e62a28bb6","system_id":"levelo_inurba_marseille","lat":43.31125,"lon":5.37765,"is_reserved":false,"is_disabled":false,"rental_uris":{"android":"levelo://app?vid=25b778c2-7102-4dfe-8b16-b15e62a28bb6","ios":"levelo://app?vid=25b778c2-7102-4dfe-8b16-b15e62a28bb6"},"vehicle_type_id":"4","last_reported":1741436002,"current_range_meters":18800,"station_id":"ce4bgt92rcd13ifvqcg0","pricing_plan_id":"cebpf4jnsgd1na2vs0mg"},{"bike_id":"d35caae8-f4b3-4a1f-b4e5-a43076da933c","system_id":"levelo_inurba_marseille","lat":43.317194,"lon":5.376651,"is_reserved":false,"is_disabled":false,"rental_uris":{"android":"levelo://app?vid=d35caae8-f4b3-4a1f-b4e5-a43076da933c","ios":"levelo://app?vid=d35caae8-f4b3-4a1f-b4e5-a43076da933c"},"vehicle_type_id":"4","last_reported":1741436002,"current_range_meters":18800,"station_id":"","pricing_plan_id":"cebpf4jnsgd1na2vs0mg"},{"bike_id":"746a93f7-48b8-47de-8ffb-c90833f2c4aa","system_id":"levelo_inurba_marseille","lat":43.27956,"lon":5.4105,"is_reserved":false,"is_disabled":false,"rental_uris":{"android":"levelo://app?vid=746a93f7-48b8-47de-8ffb-c90833f2c4aa","ios":"levelo://app?vid=746a93f7-48b8-47de-8ffb-c90833f2c4aa"},"vehicle_type_id":"4","last_reported":1741436002,"current_range_meters":18800,"station_id":"ce4bhnp2rcd13ifvqh0g","pricing_plan_id":"cebpf4jnsgd1na2vs0mg"},{"bike_id":"c2bc20d1-76ba-4e6b-8066-d199041ccae7","system_id":"levelo_inurba_marseille","lat":43.2315,"lon":5.43715,"is_reserved":false,"is_disabled":false,"rental_uris":{"android":"levelo://app?vid=c2bc20d1-76ba-4e6b-8066-d199041ccae7","ios":"levelo://app?vid=c2bc20d1-76ba-4e6b-8066-d199041ccae7"},"vehicle_type_id":"4","last_reported":1741436002,"current_range_meters":18800,"station_id":"ce4bhmp2rcd13ifvqgog","pricing_plan_id":"cebpf4jnsgd1na2vs0mg"},{"bike_id":"b27b3330-e2a3-4f0e-a042-272d73ac67be","system_id":"levelo_inurba_marseille","lat":43.255,"lon":5.37647,"is_reserved":false,"is_disabled":false,"rental_uris":{"android":"levelo://app?vid=b27b3330-e2a3-4f0e-a042-272d73ac67be","ios":"levelo://app?vid=b27b3330-e2a3-4f0e-a042-272d73ac67be"},"vehicle_type_id":"4","last_reported":1741436002,"current_range_meters":18000,"station_id":"ce4bhh12rcd13ifvqff0","pricing_plan_id":"cebpf4jnsgd1na2vs0mg"},{"bike_id":"3a485042-bed2-4fa2-bde1-80d3db621928","system_id":"levelo_inurba_marseille","lat":43.27057,"lon":5.40256,"is_reserved":false,"is_disabled":false,"rental_uris":{"android":"levelo://app?vid=3a485042-bed2-4fa2-bde1-80d3db621928","ios":"levelo://app?vid=3a485042-bed2-4fa2-bde1-80d3db621928"},"vehicle_type_id":"4","last_reported":1741436002,"current_range_meters":18800,"station_id":"ce4bhk92rcd13ifvqgc0","pricing_plan_id":"cebpf4jnsgd1na2vs0mg"},{"bike_id":"7f963301-df90-4303-b263-933cdfcaf613","system_id":"levelo_inurba_marseille","lat":43.29849,"lon":5.36305,"is_reserved":false,"is_disabled":false,"rental_uris":{"android":"levelo://app?vid=7f963301-df90-4303-b263-933cdfcaf613","ios":"levelo://app?vid=7f963301-df90-4303-b263-933cdfcaf613"},"vehicle_type_id":"4","last_reported":1741436002,"current_range_meters":18800,"station_id":"ce4bgpp2rcd13ifvqc3g","pricing_plan_id":"cebpf4jnsgd1na2vs0mg"},{"bike_id":"58516daf-5c8f-48f7-a55c-f40a545449df","system_id":"levelo_inurba_marseille","lat":43.28099,"lon":5.37834,"is_reserved":false,"is_disabled":false,"rental_uris":{"android":"levelo://app?vid=58516daf-5c8f-48f7-a55c-f40a545449df","ios":"levelo://app?vid=58516daf-5c8f-48f7-a55c-f40a545449df"},"vehicle_type_id":"4","last_reported":1741436002,"current_range_meters":19200,"station_id":"ce4bha12rcd13ifvqee0","pricing_plan_id":"cebpf4jnsgd1na2vs0mg"},{"bike_id":"3795c289-beea-44c3-a7ae-fd3e55b72f22","system_id":"levelo_inurba_marseille","lat":43.28622,"lon":5.35092,"is_reserved":false,"is_disabled":true,"rental_uris":{"android":"levelo://app?vid=3795c289-beea-44c3-a7ae-fd3e55b72f22","ios":"levelo://app?vid=3795c289-beea-44c3-a7ae-fd3e55b72f22"},"vehicle_type_id":"4","last_reported":1741436002,"current_range_meters":19200,"station_id":"ce4bhch2rcd13ifvqeug","pricing_plan_id":"cebpf4jnsgd1na2vs0mg"},{"bike_id":"cc7f4987-ce14-48c9-bdee-fcfbe883bda7","system_id":"levelo_inurba_marseille","lat":43.25501,"lon":5.37649,"is_reserved":false,"is_disabled":false,"rental_uris":{"android":"levelo://app?vid=cc7f4987-ce14-48c9-bdee-fcfbe883bda7","ios":"levelo://app?vid=cc7f4987-ce14-48c9-bdee-fcfbe883bda7"},"vehicle_type_id":"4","last_reported":1741436002,"current_range_meters":19200,"station_id":"ce4bhh12rcd13ifvqff0","pricing_plan_id":"cebpf4jnsgd1na2vs0mg"},{"bike_id":"8579e54f-565e-4025-a73c-88723bee831d","system_id":"levelo_inurba_marseille","lat":43.23197,"lon":5.40023,"is_reserved":false,"is_disabled":false,"rental_uris":{"android":"levelo://app?vid=8579e54f-565e-4025-a73c-88723bee831d","ios":"levelo://app?vid=8579e54f-565e-4025-a73c-88723bee831d"},"vehicle_type_id":"4","last_reported":1741436002,"current_range_meters":19200,"station_id":"ce4bhn12rcd13ifvqgqg","pricing_plan_id":"cebpf4jnsgd1na2vs0mg"},{"bike_id":"17a6db54-ef2f-4511-a085-5bcf0dc414a8","system_id":"levelo_inurba_marseille","lat":43.241656,"lon":5.363935,"is_reserved":false,"is_disabled":false,"rental_uris":{"android":"levelo://app?vid=17a6db54-ef2f-4511-a085-5bcf0dc414a8","ios":"levelo://app?vid=17a6db54-ef2f-4511-a085-5bcf0dc414a8"},"vehicle_type_id":"4","last_reported":1741436002,"current_range_meters":19200,"station_id":"cpo36qri1sfpv3e86is0","pricing_plan_id":"cebpf4jnsgd1na2vs0mg"},{"bike_id":"3e9c9db7-5621-40f7-ac60-4edf2a24efaf","system_id":"levelo_inurba_marseille","lat":43.25583,"lon":5.38229,"is_reserved":false,"is_disabled":false,"rental_uris":{"android":"levelo://app?vid=3e9c9db7-5621-40f7-ac60-4edf2a24efaf","ios":"levelo://app?vid=3e9c9db7-5621-40f7-ac60-4edf2a24efaf"},"vehicle_type_id":"4","last_reported":1741436002,"current_range_meters":19200,"station_id":"ce4bhih2rcd13ifvqfs0","pricing_plan_id":"cebpf4jnsgd1na2vs0mg"},{"bike_id":"d7029567-4a63-40e0-bf6f-f8a2da7a3824","system_id":"levelo_inurba_marseille","lat":43.28704,"lon":5.39993,"is_reserved":false,"is_disabled":false,"rental_uris":{"android":"levelo://app?vid=d7029567-4a63-40e0-bf6f-f8a2da7a3824","ios":"levelo://app?vid=d7029567-4a63-40e0-bf6f-f8a2da7a3824"},"vehicle_type_id":"4","last_reported":1741436002,"current_range_meters":19200,"station_id":"ce4bho92rcd13ifvqh3g","pricing_plan_id":"cebpf4jnsgd1na2vs0mg"},{"bike_id":"d3067a3a-c937-4fb1-856f-1cd4410d68fd","system_id":"levelo_inurba_marseille","lat":43.23947,"lon":5.36651,"is_reserved":false,"is_disabled":false,"rental_uris":{"android":"levelo://app?vid=d3067a3a-c937-4fb1-856f-1cd4410d68fd","ios":"levelo://app?vid=d3067a3a-c937-4fb1-856f-1cd4410d68fd"},