{"last_updated":1704334807,"ttl":30,"version":"2.2","data":{"bikes":[{"bike_id":"153cfced-da78-4fe4-8efb-59d7aec8d95e","system_id":"levelo_inurba_marseille","lat":43.309136,"lon":5.368516,"is_reserved":false,"is_disabled":false,"rental_uris":{"android":"levelo://app?vid=153cfced-da78-4fe4-8efb-59d7aec8d95e","ios":"levelo://app?vid=153cfced-da78-4fe4-8efb-59d7aec8d95e"},"vehicle_type_id":"4","last_reported":1704334808,"current_range_meters":18000,"station_id":"ce4bgn92rcd13ifvqbvg","pricing_plan_id":"free"},{"bike_id":"c4a6f38e-4282-4743-a8ef-b6d8a6ed371f","system_id":"levelo_inurba_marseille","lat":43.314811,"lon":5.373103,"is_reserved":false,"is_disabled":false,"rental_uris":{"android":"levelo://app?vid=c4a6f38e-4282-4743-a8ef-b6d8a6ed371f","ios":"levelo://app?vid=c4a6f38e-4282-4743-a8ef-b6d8a6ed371f"},"vehicle_type_id":"4","last_reported":1704334808,"current_range_meters":16400,"station_id":"ce4bgt12rcd13ifvqcd0","pricing_plan_id":"free"},{"bike_id":"fa32ade7-2685-4cdd-a487-cefe5d2b262b","system_id":"levelo_inurba_marseille","lat":43.314811,"lon":5.373103,"is_reserved":false,"is_disabled":false,"rental_uris":{"android":"levelo://app?vid=fa32ade7-2685-4cdd-a487-cefe5d2b262b","ios":"levelo://app?vid=fa32ade7-2685-4cdd-a487-cefe5d2b262b"},"vehicle_type_id":"4","last_reported":1704334808,"current_range_meters":6400,"station_id":"ce4bgt12rcd13ifvqcd0","pricing_plan_id":"free"},{"bike_id":"e828013e-b6d9-4aa2-94ed-d43507943f53","system_id":"levelo_inurba_marseille","lat":43.314811,"lon":5.373103,"is_reserved":false,"is_disabled":false,"rental_uris":{"android":"levelo://app?vid=e828013e-b6d9-4aa2-94ed-d43507943f53","ios":"levelo://app?vid=e828013e-b6d9-4aa2-94ed-d43507943f53"},"vehicle_type_id":"4","last_reported":1704334808,"current_range_meters":9600,"station_id":"ce4bgt12rcd13ifvqcd0","pricing_plan_id":"free"},{"bike_id":"7e813283-bb9c-469f-91f1-41cc1a4964ba","system_id":"levelo_inurba_marseille","lat":43.314811,"lon":5.373103,"is_reserved":false,"is_disabled":false,"rental_uris":{"android":"levelo://app?vid=7e813283-bb9c-469f-91f1-41cc1a4964ba","ios":"levelo://app?vid=7e813283-bb9c-469f-91f1-41cc1a4964ba"},"vehicle_type_id":"4","last_reported":1704334808,"current_range_meters":2800,"station_id":"ce4bgt12rcd13ifvqcd0","pricing_plan_id":"free"},{"bike_id":"0a24da57-c811-4dea-9bc7-12f91992b54d","system_id":"levelo_inurba_marseille","lat":43.314811,"lon":5.373103,"is_reserved":false,"is_disabled":false,"rental_uris":{"android":"levelo://app?vid=0a24da57-c811-4dea-9bc7-12f91992b54d","ios":"levelo://app?vid=0a24da57-c811-4dea-9bc7-12f91992b54d"},"vehicle_type_id":"4","last_reported":1704334808,"current_range_meters":30400,"station_id":"ce4bgt12rcd13ifvqcd0","pricing_plan_id":"free"},{"bike_id":"6cee9a4c-0b21-4f53-9285-812ec88adf30","system_id":"levelo_inurba_marseille","lat":43.31498,"lon":5.37307,"is_reserved":false,"is_disabled":false,"rental_uris":{"android":"levelo://app?vid=6cee9a4c-0b21-4f53-9285-812ec88adf30","ios":"levelo://app?vid=6cee9a4c-0b21-4f53-9285-812ec88adf30"},"vehicle_type_id":"4","last_reported":1704334808,"current_range_meters":15600,"station_id":"ce4bgt12rcd13ifvqcd0","pricing_plan_id":"free"},{"bike_id":"d5473b7a-0a89-4a27-934b-61f957cbc11d","system_id":"levelo_inurba_marseille","lat":43.309039,"lon":5.371797,"is_reserved":false,"is_disabled":false,"rental_uris":{"android":"levelo://app?vid=d5473b7a-0a89-4a27-934b-61f957cbc11d","ios":"levelo://app?vid=d5473b7a-0a89-4a27-934b-61f957cbc11d"},"vehicle_type_id":"4","last_reported":1704334808,"current_range_meters":31200,"station_id":"ce4bguh2rcd13ifvqckg","pricing_plan_id":"free"},{"bike_id":"de2d62fc-c4ac-4f9d-addc-3c268404097a","system_id":"levelo_inurba_marseille","lat":43.308896,"lon":5.371962,"is_reserved":false,"is_disabled":false,"rental_uris":{"android":"levelo://app?vid=de2d62fc-c4ac-4f9d-addc-3c268404097a","ios":"levelo://app?vid=de2d62fc-c4ac-4f9d-addc-3c268404097a"},"vehicle_type_id":"4","last_reported":1704334808,"current_range_meters":3200,"station_id":"ce4bguh2rcd13ifvqckg","pricing_plan_id":"free"},{"bike_id":"821cd0b3-d44b-4686-8f87-f7ed2a01460f","system_id":"levelo_inurba_marseille","lat":43.311131,"lon":5.377651,"is_reserved":false,"is_disabled":false,"rental_uris":{"android":"levelo://app?vid=821cd0b3-d44b-4686-8f87-f7ed2a01460f","ios":"levelo://app?vid=821cd0b3-d44b-4686-8f87-f7ed2a01460f"},"vehicle_type_id":"4","last_reported":1704334808,"current_range_meters":12800,"station_id":"ce4bgt92rcd13ifvqcg0","pricing_plan_id":"free"},{"bike_id":"0f2f2c91-6148-408a-bda8-40612a84cfa3","system_id":"levelo_inurba_marseille","lat":43.311131,"lon":5.377651,"is_reserved":false,"is_disabled":false,"rental_uris":{"android":"levelo://app?vid=0f2f2c91-6148-408a-bda8-40612a84cfa3","ios":"levelo://app?vid=0f2f2c91-6148-408a-bda8-40612a84cfa3"},"vehicle_type_id":"4","last_reported":1704334808,"current_range_meters":13200,"station_id":"ce4bgt92rcd13ifvqcg0","pricing_plan_id":"free"},{"bike_id":"69696f73-a1f8-4304-af6d-867ddd2b6ffc","system_id":"levelo_inurba_marseille","lat":43.311131,"lon":5.377651,"is_reserved":false,"is_disabled":false,"rental_uris":{"android":"levelo://app?vid=69696f73-a1f8-4304-af6d-867ddd2b6ffc","ios":"levelo://app?vid=69696f73-a1f8-4304-af6d-867ddd2b6ffc"},"vehicle_type_id":"4","last_reported":1704334808,"current_range_meters":17200,"station_id":"ce4bgt92rcd13ifvqcg0","pricing_plan_id":"free"},{"bike_id":"35dcad53-0f03-4c82-a9b3-601c41a595fa","system_id":"levelo_inurba_marseille","lat":43.311131,"lon":5.377651,"is_reserved":false,"is_disabled":false,"rental_uris":{"android":"levelo://app?vid=35dcad53-0f03-4c82-a9b3-601c41a595fa","ios":"levelo://app?vid=35dcad53-0f03-4c82-a9b3-601c41a595fa"},"vehicle_type_id":"4","last_reported":1704334808,"current_range_meters":0,"station_id":"ce4bgt92rcd13ifvqcg0","pricing_plan_id":"free"},{"bike_id":"f70207fd-ad12-4592-a218-61226c8efc14","system_id":"levelo_inurba_marseille","lat":43.311131,"lon":5.377651,"is_reserved":false,"is_disabled":false,"rental_uris":{"android":"levelo://app?vid=f70207fd-ad12-4592-a218-61226c8efc14","ios":"levelo://app?vid=f70207fd-ad12-4592-a218-61226c8efc14"},"vehicle_type_id":"4","last_reported":1704334808,"current_range_meters":23200,"station_id":"ce4bgt92rcd13ifvqcg0","pricing_plan_id":"free"},{"bike_id":"d31f1c9b-861c-4020-a0f2-2565f25a5bea","system_id":"levelo_inurba_marseille","lat":43.311131,"lon":5.377651,"is_reserved":false,"is_disabled":false,"rental_uris":{"android":"levelo://app?vid=d31f1c9b-861c-4020-a0f2-2565f25a5bea","ios":"levelo://app?vid=d31f1c9b-861c-4020-a0f2-2565f25a5bea"},"vehicle_type_id":"4","last_reported":1704334808,"current_range_meters":10000,"station_id":"ce4bgt92rcd13ifvqcg0","pricing_plan_id":"free"},{"bike_id":"d70efa05-d8d3-4ed0-b455-a9fdac79c61f","system_id":"levelo_inurba_marseille","lat":43.311125,"lon":5.377624,"is_reserved":false,"is_disabled":false,"rental_uris":{"android":"levelo://app?vid=d70efa05-d8d3-4ed0-b455-a9fdac79c61f","ios":"levelo://app?vid=d70efa05-d8d3-4ed0-b455-a9fdac79c61f"},"vehicle_type_id":"4","last_reported":1704334808,"current_range_meters":27200,"station_id":"ce4bgt92rcd13ifvqcg0","pricing_plan_id":"free"},{"bike_id":"5a5f6380-591d-4db3-97a4-c1697f7ea939","system_id":"levelo_inurba_marseille","lat":43.308434,"lon":5.376504,"is_reserved":false,"is_disabled":false,"rental_uris":{"android":"levelo://app?vid=5a5f6380-591d-4db3-97a4-c1697f7ea939","ios":"levelo://app?vid=5a5f6380-591d-4db3-97a4-c1697f7ea939"},"vehicle_type_id":"4","last_reported":1704334808,"current_range_meters":10800,"station_id":"","pricing_plan_id":"free"},{"bike_id":"ac1c2805-137f-495f-9bd8-2bc5c986cb0d","system_id":"levelo_inurba_marseille","lat":43.307945,"lon":5.376487,"is_reserved":false,"is_disabled":false,"rental_uris":{"android":"levelo://app?vid=ac1c2805-137f-495f-9bd8-2bc5c986cb0d","ios":"levelo://app?vid=ac1c2805-137f-495f-9bd8-2bc5c986cb0d"},"vehicle_type_id":"4","last_reported":1704334808,"current_range_meters":23200,"station_id":"ce4bgv92rcd13ifvqcq0","pricing_plan_id":"free"},{"bike_id":"2a14dc71-5783-4e3a-b3fa-ff0e80c744f9","system_id":"levelo_inurba_marseille","lat":43.307945,"lon":5.376487,"is_reserved":false,"is_disabled":false,"rental_uris":{"android":"levelo://app?vid=2a14dc71-5783-4e3a-b3fa-ff0e80c744f9","ios":"levelo://app?vid=2a14dc71-5783-4e3a-b3fa-ff0e80c744f9"},"vehicle_type_id":"4","last_reported":1704334808,"current_range_meters":26800,"station_id":"ce4bgv92rcd13ifvqcq0","pricing_plan_id":"free"},{"bike_id":"691c4f64-dea0-4d21-8c30-5e479cb21b79","system_id":"levelo_inurba_marseille","lat":43.307945,"lon":5.376487,"is_reserved":false,"is_disabled":false,"rental_uris":{"android":"levelo://app?vid=691c4f64-dea0-4d21-8c30-5e479cb21b79","ios":"levelo://app?vid=691c4f64-dea0-4d21-8c30-5e479cb21b79"},"vehicle_type_id":"4","last_reported":1704334808,"current_range_meters":30000,"station_id":"ce4bgv92rcd13ifvqcq0","pricing_plan_id":"free"},{"bike_id":"f8f04d9a-5e4f-4390-96ab-e6a180f7e1bf","system_id":"levelo_inurba_marseille","lat":43.307945,"lon":5.376487,"is_reserved":false,"is_disabled":false,"rental_uris":{"android":"levelo://app?vid=f8f04d9a-5e4f-4390-96ab-e6a180f7e1bf","ios":"levelo://app?vid=f8f04d9a-5e4f-4390-96ab-e6a180f7e1bf"},"vehicle_type_id":"4","last_reported":1704334808,"current_range_meters":31200,"station_id":"ce4bgv92rcd13ifvqcq0","pricing_plan_id":"free"},{"bike_id":"54a77367-9e3a-4f37-8b72-f0b013566cdd","system_id":"levelo_inurba_marseille","lat":43.317075,"lon":5.377367,"is_reserved":false,"is_disabled":false,"rental_uris":{"android":"levelo://app?vid=54a77367-9e3a-4f37-8b72-f0b013566cdd","ios":"levelo://app?vid=54a77367-9e3a-4f37-8b72-f0b013566cdd"},"vehicle_type_id":"4","last_reported":1704334808,"current_range_meters":29200,"station_id":"ce4bgth2rcd13ifvqch0","pricing_plan_id":"free"},{"bike_id":"8cf729f1-921e-4ef1-87b9-afad50036306","system_id":"levelo_inurba_marseille","lat":43.317075,"lon":5.377367,"is_reserved":false,"is_disabled":false,"rental_uris":{"android":"levelo://app?vid=8cf729f1-921e-4ef1-87b9-afad50036306","ios":"levelo://app?vid=8cf729f1-921e-4ef1-87b9-afad50036306"},"vehicle_type_id":"4","last_reported":1704334808,"current_range_meters":30400,"station_id":"ce4bgth2rcd13ifvqch0","pricing_plan_id":"free"},{"bike_id":"c4e90871-bb94-4085-82dc-ccbd997a22ca","system_id":"levelo_inurba_marseille","lat":43.315305,"lon":5.379063,"is_reserved":false,"is_disabled":false,"rental_uris":{"android":"levelo://app?vid=c4e90871-bb94-4085-82dc-ccbd997a22ca","ios":"levelo://app?vid=c4e90871-bb94-4085-82dc-ccbd997a22ca"},"vehicle_type_id":"4","last_reported":1704334808,"current_range_meters":20800,"station_id":"","pricing_plan_id":"free"},{"bike_id":"4810d17d-15f2-4699-980f-89ebf8877f7a","system_id":"levelo_inurba_marseille","lat":43.315345,"lon":5.380222,"is_reserved":false,"is_disabled":false,"rental_uris":{"android":"levelo://app?vid=4810d17d-15f2-4699-980f-89ebf8877f7a","ios":"levelo://app?vid=4810d17d-15f2-4699-980f-89ebf8877f7a"},"vehicle_type_id":"4","last_reported":1704334808,"current_range_meters":28400,"station_id":"ce4bhsp2rcd13ifvqi50","pricing_plan_id":"free"},{"bike_id":"c9b58ad8-4b6e-43f6-8bbf-d4eeda40bfac","system_id":"levelo_inurba_marseille","lat":43.31532,"lon":5.38041,"is_reserved":false,"is_disabled":false,"rental_uris":{"android":"levelo://app?vid=c9b58ad8-4b6e-43f6-8bbf-d4eeda40bfac","ios":"levelo://app?vid=c9b58ad8-4b6e-43f6-8bbf-d4eeda40bfac"},"vehicle_type_id":"4","last_reported":1704334808,"current_range_meters":15600,"station_id":"ce4bhsp2rcd13ifvqi50","pricing_plan_id":"free"},{"bike_id":"de508916-8c53-49c9-b47e-c019221fa433","system_id":"levelo_inurba_marseille","lat":43.308012,"lon":5.381511,"is_reserved":false,"is_disabled":false,"rental_uris":{"android":"levelo://app?vid=de508916-8c53-49c9-b47e-c019221fa433","ios":"levelo://app?vid=de508916-8c53-49c9-b47e-c019221fa433"},"vehicle_type_id":"4","last_reported":1704334808,"current_range_meters":13600,"station_id":"ce4bgt12rcd13ifvqce0","pricing_plan_id":"free"},{"bike_id":"f48e3d9d-a334-4a60-b64e-b0ccd68875a1","system_id":"levelo_inurba_marseille","lat":43.308012,"lon":5.381511,"is_reserved":false,"is_disabled":false,"rental_uris":{"android":"levelo://app?vid=f48e3d9d-a334-4a60-b64e-b0ccd68875a1","ios":"levelo://app?vid=f48e3d9d-a334-4a60-b64e-b0ccd68875a1"},"vehicle_type_id":"4","last_reported":1704334808,"current_range_meters":17200,"station_id":"ce4bgt12rcd13ifvqce0","pricing_plan_id":"free"},{"bike_id":"bdc5cbf5-91b3-4deb-8c7b-88216ee49a0e","system_id":"levelo_inurba_marseille","lat":43.308012,"lon":5.381511,"is_reserved":false,"is_disabled":false,"rental_uris":{"android":"levelo://app?vid=bdc5cbf5-91b3-4deb-8c7b-88216ee49a0e","ios":"levelo://app?vid=bdc5cbf5-91b3-4deb-8c7b-88216ee49a0e"},"vehicle_type_id":"4","last_reported":1704334808,"current_range_meters":28000,"station_id":"ce4bgt12rcd13ifvqce0","pricing_plan_id":"free"},{"bike_id":"e0f13db6-caa4-494a-83d5-dc4f019daf02","system_id":"levelo_inurba_marseille","lat":43.304606,"lon":5.379026,"is_reserved":false,"is_disabled":false,"rental_uris":{"android":"levelo://app?vid=e0f13db6-caa4-494a-83d5-dc4f019daf02","ios":"levelo://app?vid=e0f13db6-caa4-494a-83d5-dc4f019daf02"},"vehicle_type_id":"4","last_reported":1704334808,"current_range_meters":20400,"station_id":"ce4bgup2rcd13ifvqcn0","pricing_plan_id":"free"},{"bike_id":"5377074b-30e2-4d67-825b-9deb3b1dbed3","system_id":"levelo_inurba_marseille","lat":43.304708,"lon":5.379039,"is_reserved":false,"is_disabled":false,"rental_uris":{"android":"levelo://app?vid=5377074b-30e2-4d67-825b-9deb3b1dbed3","ios":"levelo://app?vid=5377074b-30e2-4d67-825b-9deb3b1dbed3"},"vehicle_type_id":"4","last_reported":1704334808,"current_range_meters":5200,"station_id":"","pricing_plan_id":"free"},{"bike_id":"a4535830-2f3b-479e-a939-f97547203e35","system_id":"levelo_inurba_marseille","lat":43.313645,"lon":5.383283,"is_reserved":false,"is_disabled":false,"rental_uris":{"android":"levelo://app?vid=a4535830-2f3b-479e-a939-f97547203e35","ios":"levelo://app?vid=a4535830-2f3b-479e-a939-f97547203e35"},"vehicle_type_id":"4","last_reported":1704334808,"current_range_meters":3200,"station_id":"","pricing_plan_id":"free"},{"bike_id":"46860f54-e377-43be-9a00-4a59e724fcce","system_id":"levelo_inurba_marseille","lat":43.324771,"lon":5.36557,"is_reserved":false,"is_disabled":false,"rental_uris":{"android":"levelo://app?vid=46860f54-e377-43be-9a00-4a59e724fcce","ios":"levelo://app?vid=46860f54-e377-43be-9a00-4a59e724fcce"},"vehicle_type_id":"4","last_reported":1704334808,"current_range_meters":20000,"station_id":"ce4bhs12rcd13ifvqhvg","pricing_plan_id":"free"},{"bike_id":"1c6e55bf-6b0c-4848-96ae-9e712df180c6","system_id":"levelo_inurba_marseille","lat":43.319954,"lon":5.381494,"is_reserved":false,"is_disabled":false,"rental_uris":{"android":"levelo://app?vid=1c6e55bf-6b0c-4848-96ae-9e712df180c6","ios":"levelo://app?vid=1c6e55bf-6b0c-4848-96ae-9e712df180c6"},"vehicle_type_id":"4","last_reported":1704334808,"current_range_meters":30400,"station_id":"ce4bhr12rcd13ifvqhpg","pricing_plan_id":"free"},{"bike_id":"2a6911e4-99f7-4853-9039-ac05cf0c6d2a","system_id":"levelo_inurba_marseille","lat":43.319972,"lon":5.381488,"is_reserved":false,"is_disabled":false,"rental_uris":{"android":"levelo://app?vid=2a6911e4-99f7-4853-9039-ac05cf0c6d2a","ios":"levelo://app?vid=2a6911e4-99f7-4853-9039-ac05cf0c6d2a"},"vehicle_type_id":"4","last_reported":1704334808,"current_range_meters":28800,"station_id":"ce4bhr12rcd13ifvqhpg","pricing_plan_id":"free"},{"bike_id":"a9ec24e9-bba6-40c5-9fa6-b3c57d576f31","system_id":"levelo_inurba_marseille","lat":43.320009,"lon":5.38153,"is_reserved":false,"is_disabled":false,"rental_uris":{"android":"levelo://app?vid=a9ec24e9-bba6-40c5-9fa6-b3c57d576f31","ios":"levelo://app?vid=a9ec24e9-bba6-40c5-9fa6-b3c57d576f31"},"vehicle_type_id":"4","last_reported":1704334808,"current_range_meters":6000,"station_id":"ce4bhr12rcd13ifvqhpg","pricing_plan_id":"free"},{"bike_id":"d83adf21-815e-4460-a7bb-7e3eedda055b","system_id":"levelo_inurba_marseille","lat":43.319935,"lon":5.381699,"is_reserved":false,"is_disabled":false,"rental_uris":{"android":"levelo://app?vid=d83adf21-815e-4460-a7bb-7e3eedda055b","ios":"levelo://app?vid=d83adf21-815e-4460-a7bb-7e3eedda055b"},"vehicle_type_id":"4","last_reported":1704334808,"current_range_meters":10400,"station_id":"ce4bhr12rcd13ifvqhpg","pricing_plan_id":"free"},{"bike_id":"ee79770e-bf72-470e-9f00-8fbc791f5c3c","system_id":"levelo_inurba_marseille","lat":43.313571,"lon":5.384829,"is_reserved":false,"is_disabled":false,"rental_uris":{"android":"levelo://app?vid=ee79770e-bf72-470e-9f00-8fbc791f5c3c","ios":"levelo://app?vid=ee79770e-bf72-470e-9f00-8fbc791f5c3c"},"vehicle_type_id":"4","last_reported":1704334808,"current_range_meters":27600,"station_id":"ce4bgt92rcd13ifvqcf0","pricing_plan_id":"free"},{"bike_id":"27c3d127-87dc-4806-8e6b-a299b6a3761f","system_id":"levelo_inurba_marseille","lat":43.313571,"lon":5.384829,"is_reserved":false,"is_disabled":false,"rental_uris":{"android":"levelo://app?vid=27c3d127-87dc-4806-8e6b-a299b6a3761f","ios":"levelo://app?vid=27c3d127-87dc-4806-8e6b-a299b6a3761f"},"vehicle_type_id":"4","last_reported":1704334808,"current_range_meters":24400,"station_id":"ce4bgt92rcd13ifvqcf0","pricing_plan_id":"free"},{"bike_id":"70c80470-17c4-492e-98d2-7c44f4eb9b38","system_id":"levelo_inurba_marseille","lat":43.313571,"lon":5.384829,"is_reserved":false,"is_disabled":false,"rental_uris":{"android":"levelo://app?vid=70c80470-17c4-492e-98d2-7c44f4eb9b38","ios":"levelo://app?vid=70c80470-17c4-492e-98d2-7c44f4eb9b38"},"vehicle_type_id":"4","last_reported":1704334808,"current_range_meters":30000,"station_id":"ce4bgt92rcd13ifvqcf0","pricing_plan_id":"free"},{"bike_id":"7ed58cef-9b65-46f9-9167-f17bd0ef3bb4","system_id":"levelo_inurba_marseille","lat":43.313571,"lon":5.384829,"is_reserved":false,"is_disabled":false,"rental_uris":{"android":"levelo://app?vid=7ed58cef-9b65-46f9-9167-f17bd0ef3bb4","ios":"levelo://app?vid=7ed58cef-9b65-46f9-9167-f17bd0ef3bb4"},"vehicle_type_id":"4","last_reported":1704334808,"current_range_meters":22800,"station_id":"ce4bgt92rcd13ifvqcf0","pricing_plan_id":"free"},{"bike_id":"17504bde-947a-4cd6-98b3-9a4c66aca99b","system_id":"levelo_inurba_marseille","lat":43.313827,"lon":5.385007,"is_reserved":false,"is_disabled":false,"rental_uris":{"android":"levelo://app?vid=17504bde-947a-4cd6-98b3-9a4c66aca99b","ios":"levelo://app?vid=17504bde-947a-4cd6-98b3-9a4c66aca99b"},"vehicle_type_id":"4","last_reported":1704334808,"current_range_meters":15200,"station_id":"ce4bgt92rcd13ifvqcf0","pricing_plan_id":"free"},{"bike_id":"2054d66d-cff3-4309-8140-c1230c1824be","system_id":"levelo_inurba_marseille","lat":43.299222,"lon":5.365554,"is_reserved":false,"is_disabled":false,"rental_uris":{"android":"levelo://app?vid=2054d66d-cff3-4309-8140-c1230c1824be","ios":"levelo://app?vid=2054d66d-cff3-4309-8140-c1230c1824be"},"vehicle_type_id":"4","last_reported":1704334808,"current_range_meters":7200,"station_id":"ce4bgm92rcd13ifvqbr0","pricing_plan_id":"free"},{"bike_id":"b22604ec-0c4b-41b4-a20e-38add68f7682","system_id":"levelo_inurba_marseille","lat":43.32561,"lon":5.37462,"is_reserved":false,"is_disabled":false,"rental_uris":{"android":"levelo://app?vid=b22604ec-0c4b-41b4-a20e-38add68f7682","ios":"levelo://app?vid=b22604ec-0c4b-41b4-a20e-38add68f7682"},"vehicle_type_id":"4","last_reported":1704334808,"current_range_meters":23600,"station_id":"","pricing_plan_id":"free"},{"bike_id":"5ffca899-5674-4083-8d58-12da181c48fc","system_id":"levelo_inurba_marseille","lat":43.298433,"lon":5.362774,"is_reserved":false,"is_disabled":false,"rental_uris":{"android":"levelo://app?vid=5ffca899-5674-4083-8d58-12da181c48fc","ios":"levelo://app?vid=5ffca899-5674-4083-8d58-12da181c48fc"},"vehicle_type_id":"4","last_reported":1704334808,"current_range_meters":27200,"station_id":"ce4bgpp2rcd13ifvqc3g","pricing_plan_id":"free"},{"bike_id":"427f7517-88c4-40ae-99c2-42d786b24d0d","system_id":"levelo_inurba_marseille","lat":43.305354,"lon":5.384252,"is_reserved":false,"is_disabled":false,"rental_uris":{"android":"levelo://app?vid=427f7517-88c4-40ae-99c2-42d786b24d0d","ios":"levelo://app?vid=427f7517-88c4-40ae-99c2-42d786b24d0d"},"vehicle_type_id":"4","last_reported":1704334808,"current_range_meters":18800,"station_id":"ce4bgg92rcd13ifvqb30","pricing_plan_id":"free"},{"bike_id":"3639506c-cad4-4bf9-89cf-2529f0f9ff49","system_id":"levelo_inurba_marseille","lat":43.311722,"lon":5.387247,"is_reserved":false,"is_disabled":false,"rental_uris":{"android":"levelo://app?vid=3639506c-cad4-4bf9-89cf-2529f0f9ff49","ios":"levelo://app?vid=3639506c-cad4-4bf9-89cf-2529f0f9ff49"},"vehicle_type_id":"4","last_reported":1704334808,"current_range_meters":1600,"station_id":"ce4bgv12rcd13ifvqcp0","pricing_plan_id":"free"},{"bike_id":"ad73aca1-a95c-4377-a256-e28f3455b57e","system_id":"levelo_inurba_marseille","lat":43.311722,"lon":5.387247,"is_reserved":false,"is_disabled":false,"rental_uris":{"android":"levelo://app?vid=ad73aca1-a95c-4377-a256-e28f3455b57e","ios":"levelo://app?vid=ad73aca1-a95c-4377-a256-e28f3455b57e"},"vehicle_type_id":"4","last_reported":1704334808,"current_range_meters":13200,"station_id":"ce4bgv12rcd13ifvqcp0","pricing_plan_id":"free"},{"bike_id":"74c57145-750e-4525-a660-4c091c98ac65","system_id":"levelo_inurba_marseille","lat":43.311722,"lon":5.387247,"is_reserved":false,"is_disabled":false,"rental_uris":{"android":"levelo://app?vid=74c57145-750e-4525-a660-4c091c98ac65","ios":"levelo://app?vid=74c57145-750e-4525-a660-4c091c98ac65"},"vehicle_type_id":"4","last_reported":1704334808,"current_range_meters":15600,"station_id":"ce4bgv12rcd13ifvqcp0","pricing_plan_id":"free"},{"bike_id":"9a207992-a340-4439-8417-524f1f6867db","system_id":"levelo_inurba_marseille","lat":43.311722,"lon":5.387247,"is_reserved":false,"is_disabled":false,"rental_uris":{"android":"levelo://app?vid=9a207992-a340-4439-8417-524f1f6867db","ios":"levelo://app?vid=9a207992-a340-4439-8417-524f1f6867db"},"vehicle_type_id":"4","last_reported":1704334808,"current_range_meters":31200,"station_id":"ce4bgv12rcd13ifvqcp0","pricing_plan_id":"free"},{"bike_id":"0233118d-6be7-4240-a1a5-35a788f46e67","system_id":"levelo_inurba_marseille","lat":43.311786,"lon":5.387125,"is_reserved":false,"is_disabled":false,"rental_uris":{"android":"levelo://app?vid=0233118d-6be7-4240-a1a5-35a788f46e67","ios":"levelo://app?vid=0233118d-6be7-4240-a1a5-35a788f46e67"},"vehicle_type_id":"4","last_reported":1704334808,"current_range_meters":3200,"station_id":"ce4bgv12rcd13ifvqcp0","pricing_plan_id":"free"},{"bike_id":"d56d9bb3-ab0c-4686-af55-bf27e771e1f5","system_id":"levelo_inurba_marseille","lat":43.311722,"lon":5.387247,"is_reserved":false,"is_disabled":false,"rental_uris":{"android":"levelo://app?vid=d56d9bb3-ab0c-4686-af55-bf27e771e1f5","ios":"levelo://app?vid=d56d9bb3-ab0c-4686-af55-bf27e771e1f5"},"vehicle_type_id":"4","last_reported":1704334808,"current_range_meters":31600,"station_id":"ce4bgv12rcd13ifvqcp0","pricing_plan_id":"free"},{"bike_id":"f53e7a9d-7ee6-4428-85bd-3db5d7cc3975","system_id":"levelo_inurba_marseille","lat":43.322872,"lon":5.382756,"is_reserved":false,"is_disabled":false,"rental_uris":{"android":"levelo://app?vid=f53e7a9d-7ee6-4428-85bd-3db5d7cc3975","ios":"levelo://app?vid=f53e7a9d-7ee6-4428-85bd-3db5d7cc3975"},"vehicle_type_id":"4","last_reported":1704334808,"current_range_meters":22800,"station_id":"ce4bhr12rcd13ifvqhqg","pricing_plan_id":"free"},{"bike_id":"b1b531a6-b271-457f-a47c-b5f17d57c6b0","system_id":"levelo_inurba_marseille","lat":43.322872,"lon":5.382756,"is_reserved":false,"is_disabled":false,"rental_uris":{"android":"levelo://app?vid=b1b531a6-b271-457f-a47c-b5f17d57c6b0","ios":"levelo://app?vid=b1b531a6-b271-457f-a47c-b5f17d57c6b0"},"vehicle_type_id":"4","last_reported":1704334808,"current_range_meters":24400,"station_id":"ce4bhr12rcd13ifvqhqg","pricing_plan_id":"free"},{"bike_id":"e344a4f8-37b0-4824-b7de-a9d0470bf846","system_id":"levelo_inurba_marseille","lat":43.322872,"lon":5.382756,"is_reserved":false,"is_disabled":false,"rental_uris":{"android":"levelo://app?vid=e344a4f8-37b0-4824-b7de-a9d0470bf846","ios":"levelo://app?vid=e344a4f8-37b0-4824-b7de-a9d0470bf846"},"vehicle_type_id":"4","last_reported":1704334808,"current_range_meters":31600,"station_id":"ce4bhr12rcd13ifvqhqg","pricing_plan_id":"free"},{"bike_id":"346b8da7-209e-48b6-a6ff-ece6c0d65914","system_id":"levelo_inurba_marseille","lat":43.328371,"lon":5.366909,"is_reserved":false,"is_disabled":false,"rental_uris":{"android":"levelo://app?vid=346b8da7-209e-48b6-a6ff-ece6c0d65914","ios":"levelo://app?vid=346b8da7-209e-48b6-a6ff-ece6c0d65914"},"vehicle_type_id":"4","last_reported":1704334808,"current_range_meters":24000,"station_id":"ce4bhs92rcd13ifvqi0g","pricing_plan_id":"free"},{"bike_id":"95e60a05-c3f6-42d6-b8d8-8e09a3364abf","system_id":"levelo_inurba_marseille","lat":43.328371,"lon":5.366909,"is_reserved":false,"is_disabled":false,"rental_uris":{"android":"levelo://app?vid=95e60a05-c3f6-42d6-b8d8-8e09a3364abf","ios":"levelo://app?vid=95e60a05-c3f6-42d6-b8d8-8e09a3364abf"},"vehicle_type_id":"4","last_reported":1704334808,"current_range_meters":14800,"station_id":"ce4bhs92rcd13ifvqi0g","pricing_plan_id":"free"},{"bike_id":"a5bc165b-820b-4ab0-9f23-127e237a3215","system_id":"levelo_inurba_marseille","lat":43.297163,"lon":5.365866,"is_reserved":false,"is_disabled":false,"rental_uris":{"android":"levelo://app?vid=a5bc165b-820b-4ab0-9f23-127e237a3215","ios":"levelo://app?vid=a5bc165b-820b-4ab0-9f23-127e237a3215"},"vehicle_type_id":"4","last_reported":1704334808,"current_range_meters":25600,"station_id":"ce4bgn12rcd13ifvqbt0","pricing_plan_id":"free"},{"bike_id":"370cccf7-c9ba-46c2-819b-c8e8cacc4c21","system_id":"levelo_inurba_marseille","lat":43.3277,"lon":5.37458,"is_reserved":false,"is_disabled":false,"rental_uris":{"android":"levelo://app?vid=370cccf7-c9ba-46c2-819b-c8e8cacc4c21","ios":"levelo://app?vid=370cccf7-c9ba-46c2-819b-c8e8cacc4c21"},"vehicle_type_id":"4","last_reported":1704334808,"current_range_meters":2800,"station_id":"","pricing_plan_id":"free"},{"bike_id":"2a44d833-8ea0-4593-90e6-37854019817a","system_id":"levelo_inurba_marseille","lat":43.30957,"lon":5.39036,"is_reserved":false,"is_disabled":false,"rental_uris":{"android":"levelo://app?vid=2a44d833-8ea0-4593-90e6-37854019817a","ios":"levelo://app?vid=2a44d833-8ea0-4593-90e6-37854019817a"},"vehicle_type_id":"4","last_reported":1704334808,"current_range_meters":23200,"station_id":"ce4bgup2rcd13ifvqco0","pricing_plan_id":"free"},{"bike_id":"76cb6341-bbaf-4bbe-a1fa-3ab6bfaf5a2e","system_id":"levelo_inurba_marseille","lat":43.296921,"lon":5.376579,"is_reserved":false,"is_disabled":false,"rental_uris":{"android":"levelo://app?vid=76cb6341-bbaf-4bbe-a1fa-3ab6bfaf5a2e","ios":"levelo://app?vid=76cb6341-bbaf-4bbe-a1fa-3ab6bfaf5a2e"},"vehicle_type_id":"4","last_reported":1704334808,"current_range_meters":6400,"station_id":"ce4bgkh2rcd13ifvqbl0","pricing_plan_id":"free"},{"bike_id":"7c015a84-e1e2-4743-825b-1f2d28680ca0","system_id":"levelo_inurba_marseille","lat":43.317557,"lon":5.390173,"is_reserved":false,"is_disabled":false,"rental_uris":{"android":"levelo://app?vid=7c015a84-e1e2-4743-825b-1f2d28680ca0","ios":"levelo://app?vid=7c015a84-e1e2-4743-825b-1f2d28680ca0"},"vehicle_type_id":"4","last_reported":1704334808,"current_range_meters":21600,"station_id":"ce4bhqp2rcd13ifvqhng","pricing_plan_id":"free"},{"bike_id":"c45955cd-c08a-44c9-a8aa-d6757945c061","system_id":"levelo_inurba_marseille","lat":43.317557,"lon":5.390173,"is_reserved":false,"is_disabled":false,"rental_uris":{"android":"levelo://app?vid=c45955cd-c08a-44c9-a8aa-d6757945c061","ios":"levelo://app?vid=c45955cd-c08a-44c9-a8aa-d6757945c061"},"vehicle_type_id":"4","last_reported":1704334808,"current_range_meters":31200,"station_id":"ce4bhqp2rcd13ifvqhng","pricing_plan_id":"free"},{"bike_id":"3d4ee389-4467-4d7e-989a-c42b22d51f73","system_id":"levelo_inurba_marseille","lat":43.317557,"lon":5.390173,"is_reserved":false,"is_disabled":false,"rental_uris":{"android":"levelo://app?vid=3d4ee389-4467-4d7e-989a-c42b22d51f73","ios":"levelo://app?vid=3d4ee389-4467-4d7e-989a-c42b22d51f73"},"vehicle_type_id":"4","last_reported":1704334808,"current_range_meters":30800,"station_id":"ce4bhqp2rcd13ifvqhng","pricing_plan_id":"free"},{"bike_id":"d60802d6-4f47-444a-b234-883690eec05b","system_id":"levelo_inurba_marseille","lat":43.33062,"lon":5.3627,"is_reserved":false,"is_disabled":false,"rental_uris":{"android":"levelo://app?vid=d60802d6-4f47-444a-b234-883690eec05b","ios":"levelo://app?vid=d60802d6-4f47-444a-b234-883690eec05b"},"vehicle_type_id":"4","last_reported":1704334808,"current_range_meters":9600,"station_id":"","pricing_plan_id":"free"},{"bike_id":"1c9ec220-d7e7-4cee-a876-1a109e26db5a","system_id":"levelo_inurba_marseille","lat":43.32367,"lon":5.388836,"is_reserved":false,"is_disabled":false,"rental_uris":{"android":"levelo://app?vid=1c9ec220-d7e7-4cee-a876-1a109e26db5a","ios":"levelo://app?vid=1c9ec220-d7e7-4cee-a876-1a109e26db5a"},"vehicle_type_id":"4","last_reported":1704334808,"current_range_meters":15200,"station_id":"ce4bhqp2rcd13ifvqhog","pricing_plan_id":"free"},{"bike_id":"663c0a7e-890f-4ec8-b5d3-9a51bf6b0cb2","system_id":"levelo_inurba_marseille","lat":43.32367,"lon":5.388836,"is_reserved":false,"is_disabled":false,"rental_uris":{"android":"levelo://app?vid=663c0a7e-890f-4ec8-b5d3-9a51bf6b0cb2","ios":"levelo://app?vid=663c0a7e-890f-4ec8-b5d3-9a51bf6b0cb2"},"vehicle_type_id":"4","last_reported":1704334808,"current_range_meters":15200,"station_id":"ce4bhqp2rcd13ifvqhog","pricing_plan_id":"free"},{"bike_id":"7c8a4417-f7e7-4e73-9a7d-1f0fb51957a5","system_id":"levelo_inurba_marseille","lat":43.293259,"lon":5.371586,"is_reserved":false,"is_disabled":false,"rental_uris":{"android":"levelo://app?vid=7c8a4417-f7e7-4e73-9a7d-1f0fb51957a5","ios":"levelo://app?vid=7c8a4417-f7e7-4e73-9a7d-1f0fb51957a5"},"vehicle_type_id":"4","last_reported":1704334808,"current_range_meters":16400,"station_id":"ce4bgh92rcd13ifvqb40","pricing_plan_id":"free"},{"bike_id":"75aa7902-170b-47de-96d7-289c5c90a773","system_id":"levelo_inurba_marseille","lat":43.305824,"lon":5.393376,"is_reserved":false,"is_disabled":false,"rental_uris":{"android":"levelo://app?vid=75aa7902-170b-47de-96d7-289c5c90a773","ios":"levelo://app?vid=75aa7902-170b-47de-96d7-289c5c90a773"},"vehicle_type_id":"4","last_reported":1704334808,"current_range_meters":26800,"station_id":"ce4bgk12rcd13ifvqbi0","pricing_plan_id":"free"},{"bike_id":"841d87f1-853c-4cc4-a6ab-5ce12ca07038","system_id":"levelo_inurba_marseille","lat":43.301784,"lon":5.390888,"is_reserved":false,"is_disabled":false,"rental_uris":{"android":"levelo://app?vid=841d87f1-853c-4cc4-a6ab-5ce12ca07038","ios":"levelo://app?vid=841d87f1-853c-4cc4-a6ab-5ce12ca07038"},"vehicle_type_id":"4","last_reported":1704334808,"current_range_meters":19600,"station_id":"","pricing_plan_id":"free"},{"bike_id":"191048e9-34c8-4cb5-8b0a-5bb4d28b3b0b","system_id":"levelo_inurba_marseille","lat":43.30299,"lon":5.392097,"is_reserved":false,"is_disabled":false,"rental_uris":{"android":"levelo://app?vid=191048e9-34c8-4cb5-8b0a-5bb4d28b3b0b","ios":"levelo://app?vid=191048e9-34c8-4cb5-8b0a-5bb4d28b3b0b"},"vehicle_type_id":"4","last_reported":1704334808,"current_range_meters":0,"station_id":"ce4bgkh2rcd13ifvqbk0","pricing_plan_id":"free"},{"bike_id":"a3ca12d3-c2a4-4825-8fdd-95ce05b9c3c2","system_id":"levelo_inurba_marseille","lat":43.292311,"lon":5.360731,"is_reserved":false,"is_disabled":false,"rental_uris":{"android":"levelo://app?vid=a3ca12d3-c2a4-4825-8fdd-95ce05b9c3c2","ios":"levelo://app?vid=a3ca12d3-c2a4-4825-8fdd-95ce05b9c3c2"},"vehicle_type_id":"4","last_reported":1704334808,"current_range_meters":18000,"station_id":"ce4bhbh2rcd13ifvqeqg","pricing_plan_id":"free"},{"bike_id":"0335ee4d-b8d1-4700-8dff-e1974ac16b11","system_id":"levelo_inurba_marseille","lat":43.292673,"lon":5.376159,"is_reserved":false,"is_disabled":false,"rental_uris":{"android":"levelo://app?vid=0335ee4d-b8d1-4700-8dff-e1974ac16b11","ios":"levelo://app?vid=0335ee4d-b8d1-4700-8dff-e1974ac16b11"},"vehicle_type_id":"4","last_reported":1704334808,"current_range_meters":6800,"station_id":"","pricing_plan_id":"free"},{"bike_id":"bee0d25e-5928-4166-a427-6e32ca8691d8","system_id":"levelo_inurba_marseille","lat":43.292609,"lon":5.376165,"is_reserved":false,"is_disabled":false,"rental_uris":{"android":"levelo://app?vid=bee0d25e-5928-4166-a427-6e32ca8691d8","ios":"levelo://app?vid=bee0d25e-5928-4166-a427-6e32ca8691d8"},"vehicle_type_id":"4","last_reported":1704334808,"current_range_meters":16000,"station_id":"","pricing_plan_id":"free"},{"bike_id":"a0c74fc7-49d7-4fad-9058-caeaa08724dc","system_id":"levelo_inurba_marseille","lat":43.2987,"lon":5.389012,"is_reserved":false,"is_disabled":false,"rental_uris":{"android":"levelo://app?vid=a0c74fc7-49d7-4fad-9058-caeaa08724dc","ios":"levelo://app?vid=a0c74fc7-49d7-4fad-9058-caeaa08724dc"},"vehicle_type_id":"4","last_reported":1704334808,"current_range_meters":3600,"station_id":"","pricing_plan_id":"free"},{"bike_id":"8c75c840-5d05-4083-8415-273f5a4aeaf3","system_id":"levelo_inurba_marseille","lat":43.298715,"lon":5.389115,"is_reserved":false,"is_disabled":false,"rental_uris":{"android":"levelo://app?vid=8c75c840-5d05-4083-8415-273f5a4aeaf3","ios":"levelo://app?vid=8c75c840-5d05-4083-8415-273f5a4aeaf3"},"vehicle_type_id":"4","last_reported":1704334808,"current_range_meters":0,"station_id":"","pricing_plan_id":"free"},{"bike_id":"4a9311c4-4db5-4367-b1f7-d435bd185033","system_id":"levelo_inurba_marseille","lat":43.331831,"lon":5.380758,"is_reserved":false,"is_disabled":false,"rental_uris":{"android":"levelo://app?vid=4a9311c4-4db5-4367-b1f7-d435bd185033","ios":"levelo://app?vid=4a9311c4-4db5-4367-b1f7-d435bd185033"},"vehicle_type_id":"4","last_reported":1704334808,"current_range_meters":8000,"station_id":"","pricing_plan_id":"free"},{"bike_id":"b19e9e3c-25e4-4cdb-b900-0cbeb9591b92","system_id":"levelo_inurba_marseille","lat":43.309047,"lon":5.396551,"is_reserved":false,"is_disabled":false,"rental_uris":{"android":"levelo://app?vid=b19e9e3c-25e4-4cdb-b900-0cbeb9591b92","ios":"levelo://app?vid=b19e9e3c-25e4-4cdb-b900-0cbeb9591b92"},"vehicle_type_id":"4","last_reported":1704334808,"current_range_meters":10000,"station_id":"ce4bh012rcd13ifvqcv0","pricing_plan_id":"free"},{"bike_id":"47e84a78-df3b-4ef4-bdfb-f3014e55147e","system_id":"levelo_inurba_marseille","lat":43.309047,"lon":5.396551,"is_reserved":false,"is_disabled":false,"rental_uris":{"android":"levelo://app?vid=47e84a78-df3b-4ef4-bdfb-f3014e55147e","ios":"levelo://app?vid=47e84a78-df3b-4ef4-bdfb-f3014e55147e"},"vehicle_type_id":"4","last_reported":1704334808,"current_range_meters":22000,"station_id":"ce4bh012rcd13ifvqcv0","pricing_plan_id":"free"},{"bike_id":"b9d5d6bb-b122-457b-bf67-61aeee7a48e7","system_id":"levelo_inurba_marseille","lat":43.313291,"lon":5.396838,"is_reserved":false,"is_disabled":false,"rental_uris":{"android":"levelo://app?vid=b9d5d6bb-b122-457b-bf67-61aeee7a48e7","ios":"levelo://app?vid=b9d5d6bb-b122-457b-bf67-61aeee7a48e7"},"vehicle_type_id":"4","last_reported":1704334808,"current_range_meters":29600,"station_id":"ce4bgvp2rcd13ifvqcu0","pricing_plan_id":"free"},{"bike_id":"8953242b-50ef-4c04-849a-847ec471c69b","system_id":"levelo_inurba_marseille","lat":43.309038,"lon":5.396546,"is_reserved":false,"is_disabled":false,"rental_uris":{"android":"levelo://app?vid=8953242b-50ef-4c04-849a-847ec471c69b","ios":"levelo://app?vid=8953242b-50ef-4c04-849a-847ec471c69b"},"vehicle_type_id":"4","last_reported":1704334808,"current_range_meters":24400,"station_id":"ce4bh012rcd13ifvqcv0","pricing_plan_id":"free"},{"bike_id":"67c9b13c-3128-432a-a321-450ce7926d15","system_id":"levelo_inurba_marseille","lat":43.309038,"lon":5.396546,"is_reserved":false,"is_disabled":false,"rental_uris":{"android":"levelo://app?vid=67c9b13c-3128-432a-a321-450ce7926d15","ios":"levelo://app?vid=67c9b13c-3128-432a-a321-450ce7926d15"},"vehicle_type_id":"4","last_reported":1704334808,"current_range_meters":27200,"station_id":"ce4bh012rcd13ifvqcv0","pricing_plan_id":"free"},{"bike_id":"b063a027-619a-43c8-9899-ead57d35f75d","system_id":"levelo_inurba_marseille","lat":43.309047,"lon":5.396551,"is_reserved":false,"is_disabled":false,"rental_uris":{"android":"levelo://app?vid=b063a027-619a-43c8-9899-ead57d35f75d","ios":"levelo://app?vid=b063a027-619a-43c8-9899-ead57d35f75d"},"vehicle_type_id":"4","last_reported":1704334808,"current_range_meters":30400,"station_id":"ce4bh012rcd13ifvqcv0","pricing_plan_id":"free"},{"bike_id":"35755b7f-7df3-4761-aee0-d67f4536f045","system_id":"levelo_inurba_marseille","lat":43.313291,"lon":5.396838,"is_reserved":false,"is_disabled":false,"rental_uris":{"android":"levelo://app?vid=35755b7f-7df3-4761-aee0-d67f4536f045","ios":"levelo://app?vid=35755b7f-7df3-4761-aee0-d67f4536f045"},"vehicle_type_id":"4","last_reported":1704334808,"current_range_meters":13200,"station_id":"ce4bgvp2rcd13ifvqcu0","pricing_plan_id":"free"},{"bike_id":"240eef69-4a54-4667-84a0-a1467fcf10fb","system_id":"levelo_inurba_marseille","lat":43.309047,"lon":5.396551,"is_reserved":false,"is_disabled":false,"rental_uris":{"android":"levelo://app?vid=240eef69-4a54-4667-84a0-a1467fcf10fb","ios":"levelo://app?vid=240eef69-4a54-4667-84a0-a1467fcf10fb"},"vehicle_type_id":"4","last_reported":1704334808,"current_range_meters":8000,"station_id":"ce4bh012rcd13ifvqcv0","pricing_plan_id":"free"},{"bike_id":"e2d4cf6d-c503-4cc7-80b7-a14ecb288761","system_id":"levelo_inurba_marseille","lat":43.309038,"lon":5.396546,"is_reserved":false,"is_disabled":false,"rental_uris":{"android":"levelo://app?vid=e2d4cf6d-c503-4cc7-80b7-a14ecb288761","ios":"levelo://app?vid=e2d4cf6d-c503-4cc7-80b7-a14ecb288761"},"vehicle_type_id":"4","last_reported":1704334808,"current_range_meters":24800,"station_id":"ce4bh012rcd13ifvqcv0","pricing_plan_id":"free"},{"bike_id":"cce0092f-94e5-4b3a-bdad-34bea77c543c","system_id":"levelo_inurba_marseille","lat":43.309038,"lon":5.396546,"is_reserved":false,"is_disabled":false,"rental_uris":{"android":"levelo://app?vid=cce0092f-94e5-4b3a-bdad-34bea77c543c","ios":"levelo://app?vid=cce0092f-94e5-4b3a-bdad-34bea77c543c"},"vehicle_type_id":"4","last_reported":1704334808,"current_range_meters":18000,"station_id":"ce4bh012rcd13ifvqcv0","pricing_plan_id":"free"},{"bike_id":"4618c8c4-91b4-4c5b-9667-4b1388c43278","system_id":"levelo_inurba_marseille","lat":43.313291,"lon":5.396838,"is_reserved":false,"is_disabled":false,"rental_uris":{"android":"levelo://app?vid=4618c8c4-91b4-4c5b-9667-4b1388c43278","ios":"levelo://app?vid=4618c8c4-91b4-4c5b-9667-4b1388c43278"},"vehicle_type_id":"4","last_reported":1704334808,"current_range_meters":23600,"station_id":"ce4bgvp2rcd13ifvqcu0","pricing_plan_id":"free"},{"bike_id":"bbaa65b3-f133-4877-b49f-27299792c8f5","system_id":"levelo_inurba_marseille","lat":43.313291,"lon":5.396838,"is_reserved":false,"is_disabled":false,"rental_uris":{"android":"levelo://app?vid=bbaa65b3-f133-4877-b49f-27299792c8f5","ios":"levelo://app?vid=bbaa65b3-f133-4877-b49f-27299792c8f5"},"vehicle_type_id":"4","last_reported":1704334808,"current_range_meters":9600,"station_id":"ce4bgvp2rcd13ifvqcu0","pricing_plan_id":"free"},{"bike_id":"bcfa8101-8549-4290-95ee-c9ef9f526b61","system_id":"levelo_inurba_marseille","lat":43.309038,"lon":5.396546,"is_reserved":false,"is_disabled":false,"rental_uris":{"android":"levelo://app?vid=bcfa8101-8549-4290-95ee-c9ef9f526b61","ios":"levelo://app?vid=bcfa8101-8549-4290-95ee-c9ef9f526b61"},"vehicle_type_id":"4","last_reported":1704334808,"current_range_meters":11200,"station_id":"ce4bh012rcd13ifvqcv0","pricing_plan_id":"free"},{"bike_id":"fc6aeee5-cfee-4a7d-9ecd-8c8389c849f7","system_id":"levelo_inurba_marseille","lat":43.291994,"lon":5.357886,"is_reserved":false,"is_disabled":false,"rental_uris":{"android":"levelo://app?vid=fc6aeee5-cfee-4a7d-9ecd-8c8389c849f7","ios":"levelo://app?vid=fc6aeee5-cfee-4a7d-9ecd-8c8389c849f7"},"vehicle_type_id":"4","last_reported":1704334808,"current_range_meters":10000,"station_id":"ce4bhb12rcd13ifvqel0","pricing_plan_id":"free"},{"bike_id":"325db9e6-b640-4594-8765-7e44503ac457","system_id":"levelo_inurba_marseille","lat":43.313291,"lon":5.396838,"is_reserved":false,"is_disabled":false,"rental_uris":{"android":"levelo://app?vid=325db9e6-b640-4594-8765-7e44503ac457","ios":"levelo://app?vid=325db9e6-b640-4594-8765-7e44503ac457"},"vehicle_type_id":"4","last_reported":1704334808,"current_range_meters":19600,"station_id":"ce4bgvp2rcd13ifvqcu0","pricing_plan_id":"free"},{"bike_id":"4632b70d-b9bd-4373-84dd-9a7c8befe5cf","system_id":"levelo_inurba_marseille","lat":43.313291,"lon":5.396838,"is_reserved":false,"is_disabled":false,"rental_uris":{"android":"levelo://app?vid=4632b70d-b9bd-4373-84dd-9a7c8befe5cf","ios":"levelo://app?vid=4632b70d-b9bd-4373-84dd-9a7c8befe5cf"},"vehicle_type_id":"4","last_reported":1704334808,"current_range_meters":19200,"station_id":"ce4bgvp2rcd13ifvqcu0","pricing_plan_id":"free"},{"bike_id":"8d368af0-3de7-4857-9748-b51fbbf65cde","system_id":"levelo_inurba_marseille","lat":43.309038,"lon":5.396546,"is_reserved":false,"is_disabled":false,"rental_uris":{"android":"levelo://app?vid=8d368af0-3de7-4857-9748-b51fbbf65cde","ios":"levelo://app?vid=8d368af0-3de7-4857-9748-b51fbbf65cde"},"vehicle_type_id":"4","last_reported":1704334808,"current_range_meters":28800,"station_id":"ce4bh012rcd13ifvqcv0","pricing_plan_id":"free"},{"bike_id":"daa50d62-dc2d-4c36-9b6c-5d18fcad323c","system_id":"levelo_inurba_marseille","lat":43.309038,"lon":5.396546,"is_reserved":false,"is_disabled":false,"rental_uris":{"android":"levelo://app?vid=daa50d62-dc2d-4c36-9b6c-5d18fcad323c","ios":"levelo://app?vid=daa50d62-dc2d-4c36-9b6c-5d18fcad323c"},"vehicle_type_id":"4","last_reported":1704334808,"current_range_meters":8400,"station_id":"ce4bh012rcd13ifvqcv0","pricing_plan_id":"free"},{"bike_id":"52cb9422-bdda-444e-acf8-53ea52ac4c8d","system_id":"levelo_inurba_marseille","lat":43.309047,"lon":5.396551,"is_reserved":false,"is_disabled":false,"rental_uris":{"android":"levelo://app?vid=52cb9422-bdda-444e-acf8-53ea52ac4c8d","ios":"levelo://app?vid=52cb9422-bdda-444e-acf8-53ea52ac4c8d"},"vehicle_type_id":"4","last_reported":1704334808,"current_range_meters":28800,"station_id":"ce4bh012rcd13ifvqcv0","pricing_plan_id":"free"},{"bike_id":"ac200040-1a82-4963-b4a5-725d0db99592","system_id":"levelo_inurba_marseille","lat":43.309038,"lon":5.396546,"is_reserved":false,"is_disabled":false,"rental_uris":{"android":"levelo://app?vid=ac200040-1a82-4963-b4a5-725d0db99592","ios":"levelo://app?vid=ac200040-1a82-4963-b4a5-725d0db99592"},"vehicle_type_id":"4","last_reported":1704334808,"current_range_meters":31200,"station_id":"ce4bh012rcd13ifvqcv0","pricing_plan_id":"free"},{"bike_id":"82d1f46b-b236-4828-a9e7-962a314b4a66","system_id":"levelo_inurba_marseille","lat":43.313291,"lon":5.396838,"is_reserved":false,"is_disabled":false,"rental_uris":{"android":"levelo://app?vid=82d1f46b-b236-4828-a9e7-962a314b4a66","ios":"levelo://app?vid=82d1f46b-b236-4828-a9e7-962a314b4a66"},"vehicle_type_id":"4","last_reported":1704334808,"current_range_meters":30400,"station_id":"ce4bgvp2rcd13ifvqcu0","pricing_plan_id":"free"},{"bike_id":"8205d084-c47b-4fd2-ab65-c1ed9e2ca6ac","system_id":"levelo_inurba_marseille","lat":43.313291,"lon":5.396838,"is_reserved":false,"is_disabled":false,"rental_uris":{"android":"levelo://app?vid=8205d084-c47b-4fd2-ab65-c1ed9e2ca6ac","ios":"levelo://app?vid=8205d084-c47b-4fd2-ab65-c1ed9e2ca6ac"},"vehicle_type_id":"4","last_reported":1704334808,"current_range_meters":31200,"station_id":"ce4bgvp2rcd13ifvqcu0","pricing_plan_id":"free"},{"bike_id":"3811f1c0-5c6d-4342-b7bc-0851a0b06702","system_id":"levelo_inurba_marseille","lat":43.313291,"lon":5.396838,"is_reserved":false,"is_disabled":false,"rental_uris":{"android":"levelo://app?vid=3811f1c0-5c6d-4342-b7bc-0851a0b06702","ios":"levelo://app?vid=3811f1c0-5c6d-4342-b7bc-0851a0b06702"},"vehicle_type_id":"4","last_reported":1704334808,"current_range_meters":30400,"station_id":"ce4bgvp2rcd13ifvqcu0","pricing_plan_id":"free"},{"bike_id":"4e6e447a-17f6-4981-ac18-91ec05c1f791","system_id":"levelo_inurba_marseille","lat":43.313291,"lon":5.396838,"is_reserved":false,"is_disabled":false,"rental_uris":{"android":"levelo://app?vid=4e6e447a-17f6-4981-ac18-91ec05c1f791","ios":"levelo://app?vid=4e6e447a-17f6-4981-ac18-91ec05c1f791"},"vehicle_type_id":"4","last_reported":1704334808,"current_range_meters":31600,"station_id":"ce4bgvp2rcd13ifvqcu0","pricing_plan_id":"free"},{"bike_id":"0c64e829-2972-4a5b-8889-6d15d1a06b23","system_id":"levelo_inurba_marseille","lat":43.309047,"lon":5.396551,"is_reserved":false,"is_disabled":false,"rental_uris":{"android":"levelo://app?vid=0c64e829-2972-4a5b-8889-6d15d1a06b23","ios":"levelo://app?vid=0c64e829-2972-4a5b-8889-6d15d1a06b23"},"vehicle_type_id":"4","last_reported":1704334808,"current_range_meters":30000,"station_id":"ce4bh012rcd13ifvqcv0","pricing_plan_id":"free"},{"bike_id":"db0b473c-b957-4b85-92d4-070515c92a07","system_id":"levelo_inurba_marseille","lat":43.309038,"lon":5.396546,"is_reserved":false,"is_disabled":false,"rental_uris":{"android":"levelo://app?vid=db0b473c-b957-4b85-92d4-070515c92a07","ios":"levelo://app?vid=db0b473c-b957-4b85-92d4-070515c92a07"},"vehicle_type_id":"4","last_reported":1704334808,"current_range_meters":31600,"station_id":"ce4bh012rcd13ifvqcv0","pricing_plan_id":"free"},{"bike_id":"b9a4e0b9-6cf4-4088-b767-483682e78972","system_id":"levelo_inurba_marseille","lat":43.29529,"lon":5.385581,"is_reserved":false,"is_disabled":false,"rental_uris":{"android":"levelo://app?vid=b9a4e0b9-6cf4-4088-b767-483682e78972","ios":"levelo://app?vid=b9a4e0b9-6cf4-4088-b767-483682e78972"},"vehicle_type_id":"4","last_reported":1704334808,"current_range_meters":15200,"station_id":"ce4bgih2rcd13ifvqba0","pricing_plan_id":"free"},{"bike_id":"7c3a6aaf-7e79-4f39-9e69-12e3f8ab03ad","system_id":"levelo_inurba_marseille","lat":43.290779,"lon":5.371482,"is_reserved":false,"is_disabled":false,"rental_uris":{"android":"levelo://app?vid=7c3a6aaf-7e79-4f39-9e69-12e3f8ab03ad","ios":"levelo://app?vid=7c3a6aaf-7e79-4f39-9e69-12e3f8ab03ad"},"vehicle_type_id":"4","last_reported":1704334808,"current_range_meters":25600,"station_id":"ce4bh5p2rcd13ifvqe4g","pricing_plan_id":"free"},{"bike_id":"2b564386-0ea8-43b8-b809-42529dc6a7c0","system_id":"levelo_inurba_marseille","lat":43.302008,"lon":5.394694,"is_reserved":false,"is_disabled":false,"rental_uris":{"android":"levelo://app?vid=2b564386-0ea8-43b8-b809-42529dc6a7c0","ios":"levelo://app?vid=2b564386-0ea8-43b8-b809-42529dc6a7c0"},"vehicle_type_id":"4","last_reported":1704334808,"current_range_meters":30400,"station_id":"ce4bh0p2rcd13ifvqd70","pricing_plan_id":"free"},{"bike_id":"fd72e394-d9a3-4447-97d1-0c6f10a41ec4","system_id":"levelo_inurba_marseille","lat":43.290624,"lon":5.359245,"is_reserved":false,"is_disabled":false,"rental_uris":{"android":"levelo://app?vid=fd72e394-d9a3-4447-97d1-0c6f10a41ec4","ios":"levelo://app?vid=fd72e394-d9a3-4447-97d1-0c6f10a41ec4"},"vehicle_type_id":"4","last_reported":1704334808,"current_range_meters":30800,"station_id":"ce4bha92rcd13ifvqeg0","pricing_plan_id":"free"},{"bike_id":"ae43fb9a-9cb8-41c1-bbf1-9a142e37adf8","system_id":"levelo_inurba_marseille","lat":43.284538,"lon":5.358657,"is_reserved":false,"is_disabled":false,"rental_uris":{"android":"levelo://app?vid=ae43fb9a-9cb8-41c1-bbf1-9a142e37adf8","ios":"levelo://app?vid=ae43fb9a-9cb8-41c1-bbf1-9a142e37adf8"},"vehicle_type_id":"4","last_reported":1704334808,"current_range_meters":20800,"station_id":"ce4bhah2rcd13ifvqei0","pricing_plan_id":"free"},{"bike_id":"e70ff0b2-0c39-42a6-be6f-eb26215d1184","system_id":"levelo_inurba_marseille","lat":43.289468,"lon":5.363719,"is_reserved":false,"is_disabled":false,"rental_uris":{"android":"levelo://app?vid=e70ff0b2-0c39-42a6-be6f-eb26215d1184","ios":"levelo://app?vid=e70ff0b2-0c39-42a6-be6f-eb26215d1184"},"vehicle_type_id":"4","last_reported":1704334808,"current_range_meters":26400,"station_id":"ce4bhc92rcd13ifvqetg","pricing_plan_id":"free"},{"bike_id":"aba8ad64-7f46-4b15-bbe5-432a1730db4d","system_id":"levelo_inurba_marseille","lat":43.304823,"lon":5.397968,"is_reserved":false,"is_disabled":false,"rental_uris":{"android":"levelo://app?vid=aba8ad64-7f46-4b15-bbe5-432a1730db4d","ios":"levelo://app?vid=aba8ad64-7f46-4b15-bbe5-432a1730db4d"},"vehicle_type_id":"4","last_reported":1704334808,"current_range_meters":28800,"station_id":"","pricing_plan_id":"free"},{"bike_id":"8c5452e7-28bf-4088-9086-978f417e8dc0","system_id":"levelo_inurba_marseille","lat":43.290091,"lon":5.356079,"is_reserved":false,"is_disabled":false,"rental_uris":{"android":"levelo://app?vid=8c5452e7-28bf-4088-9086-978f417e8dc0","ios":"levelo://app?vid=8c5452e7-28bf-4088-9086-978f417e8dc0"},"vehicle_type_id":"4","last_reported":1704334808,"current_range_meters":29600,"station_id":"ce4bhb92rcd13ifvqen0","pricing_plan_id":"free"},{"bike_id":"437fda1a-75a8-4281-8e17-87c545b925fe","system_id":"levelo_inurba_marseille","lat":43.297888,"lon":5.393376,"is_reserved":false,"is_disabled":false,"rental_uris":{"android":"levelo://app?vid=437fda1a-75a8-4281-8e17-87c545b925fe","ios":"levelo://app?vid=437fda1a-75a8-4281-8e17-87c545b925fe"},"vehicle_type_id":"4","last_reported":1704334808,"current_range_meters":28400,"station_id":"chh1huq6cuj3fo74tm60","pricing_plan_id":"free"},{"bike_id":"b9f1870d-91b7-4991-8da2-fb88515c5d8e","system_id":"levelo_inurba_marseille","lat":43.330442,"lon":5.389148,"is_reserved":false,"is_disabled":false,"rental_uris":{"android":"levelo://app?vid=b9f1870d-91b7-4991-8da2-fb88515c5d8e","ios":"levelo://app?vid=b9f1870d-91b7-4991-8da2-fb88515c5d8e"},"vehicle_type_id":"4","last_reported":1704334808,"current_range_meters":16400,"station_id":"ce4bhr92rcd13ifvqhrg","pricing_plan_id":"free"},{"bike_id":"14c073a1-fb4a-4b61-b101-5cf0b938658c","system_id":"levelo_inurba_marseille","lat":43.330442,"lon":5.389148,"is_reserved":false,"is_disabled":false,"rental_uris":{"android":"levelo://app?vid=14c073a1-fb4a-4b61-b101-5cf0b938658c","ios":"levelo://app?vid=14c073a1-fb4a-4b61-b101-5cf0b938658c"},"vehicle_type_id":"4","last_reported":1704334808,"current_range_meters":20800,"station_id":"ce4bhr92rcd13ifvqhrg","pricing_plan_id":"free"},{"bike_id":"a4544299-4117-4ba4-98ad-2dcd1cebe1e8","system_id":"levelo_inurba_marseille","lat":43.330442,"lon":5.389148,"is_reserved":false,"is_disabled":false,"rental_uris":{"android":"levelo://app?vid=a4544299-4117-4ba4-98ad-2dcd1cebe1e8","ios":"levelo://app?vid=a4544299-4117-4ba4-98ad-2dcd1cebe1e8"},"vehicle_type_id":"4","last_reported":1704334808,"current_range_meters":22400,"station_id":"ce4bhr92rcd13ifvqhrg","pricing_plan_id":"free"},{"bike_id":"3537c72e-affb-4603-a0d4-44c57db301e5","system_id":"levelo_inurba_marseille","lat":43.330442,"lon":5.389148,"is_reserved":false,"is_disabled":false,"rental_uris":{"android":"levelo://app?vid=3537c72e-affb-4603-a0d4-44c57db301e5","ios":"levelo://app?vid=3537c72e-affb-4603-a0d4-44c57db301e5"},"vehicle_type_id":"4","last_reported":1704334808,"current_range_meters":28400,"station_id":"ce4bhr92rcd13ifvqhrg","pricing_plan_id":"free"},{"bike_id":"6f768a36-4f8f-44ba-8854-a2e486b07d47","system_id":"levelo_inurba_marseille","lat":43.330442,"lon":5.389148,"is_reserved":false,"is_disabled":false,"rental_uris":{"android":"levelo://app?vid=6f768a36-4f8f-44ba-8854-a2e486b07d47","ios":"levelo://app?vid=6f768a36-4f8f-44ba-8854-a2e486b07d47"},"vehicle_type_id":"4","last_reported":1704334808,"current_range_meters":30000,"station_id":"ce4bhr92rcd13ifvqhrg","pricing_plan_id":"free"},{"bike_id":"a023d84b-11ca-49dd-9d6c-50372e788579","system_id":"levelo_inurba_marseille","lat":43.330442,"lon":5.389148,"is_reserved":false,"is_disabled":false,"rental_uris":{"android":"levelo://app?vid=a023d84b-11ca-49dd-9d6c-50372e788579","ios":"levelo://app?vid=a023d84b-11ca-49dd-9d6c-50372e788579"},"vehicle_type_id":"4","last_reported":1704334808,"current_range_meters":17200,"station_id":"ce4bhr92rcd13ifvqhrg","pricing_plan_id":"free"},{"bike_id":"a45508dc-3e20-4dc2-a3f2-c48092cac22d","system_id":"levelo_inurba_marseille","lat":43.330442,"lon":5.389148,"is_reserved":false,"is_disabled":false,"rental_uris":{"android":"levelo://app?vid=a45508dc-3e20-4dc2-a3f2-c48092cac22d","ios":"levelo://app?vid=a45508dc-3e20-4dc2-a3f2-c48092cac22d"},"vehicle_type_id":"4","last_reported":1704334808,"current_range_meters":31200,"station_id":"ce4bhr92rcd13ifvqhrg","pricing_plan_id":"free"},{"bike_id":"b4dc5f58-d698-47e4-9d04-a65a1aac924a","system_id":"levelo_inurba_marseille","lat":43.330442,"lon":5.389148,"is_reserved":false,"is_disabled":false,"rental_uris":{"android":"levelo://app?vid=b4dc5f58-d698-47e4-9d04-a65a1aac924a","ios":"levelo://app?vid=b4dc5f58-d698-47e4-9d04-a65a1aac924a"},"vehicle_type_id":"4","last_reported":1704334808,"current_range_meters":11200,"station_id":"ce4bhr92rcd13ifvqhrg","pricing_plan_id":"free"},{"bike_id":"1cb16ff6-ef3b-4f9a-abd5-07a1ab43f2c9","system_id":"levelo_inurba_marseille","lat":43.289741,"lon":5.378306,"is_reserved":false,"is_disabled":false,"rental_uris":{"android":"levelo://app?vid=1cb16ff6-ef3b-4f9a-abd5-07a1ab43f2c9","ios":"levelo://app?vid=1cb16ff6-ef3b-4f9a-abd5-07a1ab43f2c9"},"vehicle_type_id":"4","last_reported":1704334808,"current_range_meters":15200,"station_id":"ce4bh9p2rcd13ifvqed0","pricing_plan_id":"free"},{"bike_id":"3e2f2edd-b93e-4bf2-be71-a5f91a327f6f","system_id":"levelo_inurba_marseille","lat":43.28856,"lon":5.358371,"is_reserved":false,"is_disabled":false,"rental_uris":{"android":"levelo://app?vid=3e2f2edd-b93e-4bf2-be71-a5f91a327f6f","ios":"levelo://app?vid=3e2f2edd-b93e-4bf2-be71-a5f91a327f6f"},"vehicle_type_id":"4","last_reported":1704334808,"current_range_meters":30800,"station_id":"ce4bhb12rcd13ifvqem0","pricing_plan_id":"free"},{"bike_id":"08968a33-7295-4ecc-a651-1914cee3d3bd","system_id":"levelo_inurba_marseille","lat":43.28856,"lon":5.358371,"is_reserved":false,"is_disabled":false,"rental_uris":{"android":"levelo://app?vid=08968a33-7295-4ecc-a651-1914cee3d3bd","ios":"levelo://app?vid=08968a33-7295-4ecc-a651-1914cee3d3bd"},"vehicle_type_id":"4","last_reported":1704334808,"current_range_meters":10000,"station_id":"ce4bhb12rcd13ifvqem0","pricing_plan_id":"free"},{"bike_id":"546be231-bd5e-4c94-bb4b-37b9749766a2","system_id":"levelo_inurba_marseille","lat":43.28856,"lon":5.358371,"is_reserved":false,"is_disabled":false,"rental_uris":{"android":"levelo://app?vid=546be231-bd5e-4c94-bb4b-37b9749766a2","ios":"levelo://app?vid=546be231-bd5e-4c94-bb4b-37b9749766a2"},"vehicle_type_id":"4","last_reported":1704334808,"current_range_meters":4800,"station_id":"ce4bhb12rcd13ifvqem0","pricing_plan_id":"free"},{"bike_id":"1e16a714-6cd7-4cab-a8bf-3d460d19a2a2","system_id":"levelo_inurba_marseille","lat":43.28856,"lon":5.358371,"is_reserved":false,"is_disabled":false,"rental_uris":{"android":"levelo://app?vid=1e16a714-6cd7-4cab-a8bf-3d460d19a2a2","ios":"levelo://app?vid=1e16a714-6cd7-4cab-a8bf-3d460d19a2a2"},"vehicle_type_id":"4","last_reported":1704334808,"current_range_meters":7200,"station_id":"ce4bhb12rcd13ifvqem0","pricing_plan_id":"free"},{"bike_id":"7ffcba47-8b18-4ee8-bafb-9d8995a2af2f","system_id":"levelo_inurba_marseille","lat":43.28856,"lon":5.358371,"is_reserved":false,"is_disabled":false,"rental_uris":{"android":"levelo://app?vid=7ffcba47-8b18-4ee8-bafb-9d8995a2af2f","ios":"levelo://app?vid=7ffcba47-8b18-4ee8-bafb-9d8995a2af2f"},"vehicle_type_id":"4","last_reported":1704334808,"current_range_meters":22800,"station_id":"ce4bhb12rcd13ifvqem0","pricing_plan_id":"free"},{"bike_id":"9e7579e0-e5da-493f-be8f-e0c499661c27","system_id":"levelo_inurba_marseille","lat":43.30941,"lon":5.40133,"is_reserved":false,"is_disabled":false,"rental_uris":{"android":"levelo://app?vid=9e7579e0-e5da-493f-be8f-e0c499661c27","ios":"levelo://app?vid=9e7579e0-e5da-493f-be8f-e0c499661c27"},"vehicle_type_id":"4","last_reported":1704334808,"current_range_meters":31200,"station_id":"ce4bgvp2rcd13ifvqct0","pricing_plan_id":"free"},{"bike_id":"56eea705-8312-497c-a7a5-2d086e47098a","system_id":"levelo_inurba_marseille","lat":43.312609,"lon":5.401662,"is_reserved":false,"is_disabled":false,"rental_uris":{"android":"levelo://app?vid=56eea705-8312-497c-a7a5-2d086e47098a","ios":"levelo://app?vid=56eea705-8312-497c-a7a5-2d086e47098a"},"vehicle_type_id":"4","last_reported":1704334808,"current_range_meters":19600,"station_id":"ce4bh092rcd13ifvqd30","pricing_plan_id":"free"},{"bike_id":"2c0d1c7a-52d6-45c8-b950-66774576aada","system_id":"levelo_inurba_marseille","lat":43.33742,"lon":5.374425,"is_reserved":false,"is_disabled":false,"rental_uris":{"android":"levelo://app?vid=2c0d1c7a-52d6-45c8-b950-66774576aada","ios":"levelo://app?vid=2c0d1c7a-52d6-45c8-b950-66774576aada"},"vehicle_type_id":"4","last_reported":1704334808,"current_range_meters":26800,"station_id":"","pricing_plan_id":"free"},{"bike_id":"57ed76f0-7a5c-4de1-bd74-1460e9e1c4f0","system_id":"levelo_inurba_marseille","lat":43.312609,"lon":5.401662,"is_reserved":false,"is_disabled":false,"rental_uris":{"android":"levelo://app?vid=57ed76f0-7a5c-4de1-bd74-1460e9e1c4f0","ios":"levelo://app?vid=57ed76f0-7a5c-4de1-bd74-1460e9e1c4f0"},"vehicle_type_id":"4","last_reported":1704334808,"current_range_meters":20000,"station_id":"ce4bh092rcd13ifvqd30","pricing_plan_id":"free"},{"bike_id":"b7180edd-d7ed-4d04-934c-e87155df52c2","system_id":"levelo_inurba_marseille","lat":43.31275,"lon":5.401721,"is_reserved":false,"is_disabled":false,"rental_uris":{"android":"levelo://app?vid=b7180edd-d7ed-4d04-934c-e87155df52c2","ios":"levelo://app?vid=b7180edd-d7ed-4d04-934c-e87155df52c2"},"vehicle_type_id":"4","last_reported":1704334808,"current_range_meters":8800,"station_id":"ce4bh092rcd13ifvqd30","pricing_plan_id":"free"},{"bike_id":"96452889-6cac-4a60-a3fe-2d79ebba7e61","system_id":"levelo_inurba_marseille","lat":43.309297,"lon":5.401398,"is_reserved":false,"is_disabled":false,"rental_uris":{"android":"levelo://app?vid=96452889-6cac-4a60-a3fe-2d79ebba7e61","ios":"levelo://app?vid=96452889-6cac-4a60-a3fe-2d79ebba7e61"},"vehicle_type_id":"4","last_reported":1704334808,"current_range_meters":28400,"station_id":"ce4bgvp2rcd13ifvqct0","pricing_plan_id":"free"},{"bike_id":"c5caf7f9-c216-44e5-986a-2c63510276b1","system_id":"levelo_inurba_marseille","lat":43.309397,"lon":5.40143,"is_reserved":false,"is_disabled":false,"rental_uris":{"android":"levelo://app?vid=c5caf7f9-c216-44e5-986a-2c63510276b1","ios":"levelo://app?vid=c5caf7f9-c216-44e5-986a-2c63510276b1"},"vehicle_type_id":"4","last_reported":1704334808,"current_range_meters":30000,"station_id":"ce4bgvp2rcd13ifvqct0","pricing_plan_id":"free"},{"bike_id":"d38380d4-2511-45f7-909b-8364c736765a","system_id":"levelo_inurba_marseille","lat":43.312777,"lon":5.401738,"is_reserved":false,"is_disabled":false,"rental_uris":{"android":"levelo://app?vid=d38380d4-2511-45f7-909b-8364c736765a","ios":"levelo://app?vid=d38380d4-2511-45f7-909b-8364c736765a"},"vehicle_type_id":"4","last_reported":1704334808,"current_range_meters":0,"station_id":"ce4bh092rcd13ifvqd30","pricing_plan_id":"free"},{"bike_id":"c473dc02-8994-4174-a9e4-3a30dad995ff","system_id":"levelo_inurba_marseille","lat":43.33749,"lon":5.374369,"is_reserved":false,"is_disabled":false,"rental_uris":{"android":"levelo://app?vid=c473dc02-8994-4174-a9e4-3a30dad995ff","ios":"levelo://app?vid=c473dc02-8994-4174-a9e4-3a30dad995ff"},"vehicle_type_id":"4","last_reported":1704334808,"current_range_meters":28800,"station_id":"","pricing_plan_id":"free"},{"bike_id":"07a62988-8af8-43fb-aab2-9c0091f3d562","system_id":"levelo_inurba_marseille","lat":43.309371,"lon":5.401449,"is_reserved":false,"is_disabled":false,"rental_uris":{"android":"levelo://app?vid=07a62988-8af8-43fb-aab2-9c0091f3d562","ios":"levelo://app?vid=07a62988-8af8-43fb-aab2-9c0091f3d562"},"vehicle_type_id":"4","last_reported":1704334808,"current_range_meters":16400,"station_id":"ce4bgvp2rcd13ifvqct0","pricing_plan_id":"free"},{"bike_id":"e0179918-445e-4cbe-b3fa-576a3d6075b5","system_id":"levelo_inurba_marseille","lat":43.337531,"lon":5.374365,"is_reserved":false,"is_disabled":false,"rental_uris":{"android":"levelo://app?vid=e0179918-445e-4cbe-b3fa-576a3d6075b5","ios":"levelo://app?vid=e0179918-445e-4cbe-b3fa-576a3d6075b5"},"vehicle_type_id":"4","last_reported":1704334808,"current_range_meters":30000,"station_id":"","pricing_plan_id":"free"},{"bike_id":"52871362-c090-4071-8ce3-d836699413cc","system_id":"levelo_inurba_marseille","lat":43.30642,"lon":5.401031,"is_reserved":false,"is_disabled":false,"rental_uris":{"android":"levelo://app?vid=52871362-c090-4071-8ce3-d836699413cc","ios":"levelo://app?vid=52871362-c090-4071-8ce3-d836699413cc"},"vehicle_type_id":"4","last_reported":1704334808,"current_range_meters":25600,"station_id":"ce4bh112rcd13ifvqda0","pricing_plan_id":"free"},{"bike_id":"0a851432-4b4c-4b5a-9ca4-138c17953932","system_id":"levelo_inurba_marseille","lat":43.30928,"lon":5.401557,"is_reserved":false,"is_disabled":false,"rental_uris":{"android":"levelo://app?vid=0a851432-4b4c-4b5a-9ca4-138c17953932","ios":"levelo://app?vid=0a851432-4b4c-4b5a-9ca4-138c17953932"},"vehicle_type_id":"4","last_reported":1704334808,"current_range_meters":31200,"station_id":"ce4bgvp2rcd13ifvqct0","pricing_plan_id":"free"},{"bike_id":"4638b56e-a45a-4226-add7-99c10e4fd17c","system_id":"levelo_inurba_marseille","lat":43.306412,"lon":5.401035,"is_reserved":false,"is_disabled":false,"rental_uris":{"android":"levelo://app?vid=4638b56e-a45a-4226-add7-99c10e4fd17c","ios":"levelo://app?vid=4638b56e-a45a-4226-add7-99c10e4fd17c"},"vehicle_type_id":"4","last_reported":1704334808,"current_range_meters":29200,"station_id":"ce4bh112rcd13ifvqda0","pricing_plan_id":"free"},{"bike_id":"25e0d57a-c269-4098-9be4-2dbd16f9566a","system_id":"levelo_inurba_marseille","lat":43.306412,"lon":5.401035,"is_reserved":false,"is_disabled":false,"rental_uris":{"android":"levelo://app?vid=25e0d57a-c269-4098-9be4-2dbd16f9566a","ios":"levelo://app?vid=25e0d57a-c269-4098-9be4-2dbd16f9566a"},"vehicle_type_id":"4","last_reported":1704334808,"current_range_meters":15600,"station_id":"ce4bh112rcd13ifvqda0","pricing_plan_id":"free"},{"bike_id":"9ad3dbe8-4071-48c0-8270-46da6f555f3d","system_id":"levelo_inurba_marseille","lat":43.309371,"lon":5.401449,"is_reserved":false,"is_disabled":false,"rental_uris":{"android":"levelo://app?vid=9ad3dbe8-4071-48c0-8270-46da6f555f3d","ios":"levelo://app?vid=9ad3dbe8-4071-48c0-8270-46da6f555f3d"},"vehicle_type_id":"4","last_reported":1704334808,"current_range_meters":29600,"station_id":"ce4bgvp2rcd13ifvqct0","pricing_plan_id":"free"},{"bike_id":"ec78f4db-0fc1-444b-96e9-7fed66980ed1","system_id":"levelo_inurba_marseille","lat":43.301117,"lon":5.398795,"is_reserved":false,"is_disabled":false,"rental_uris":{"android":"levelo://app?vid=ec78f4db-0fc1-444b-96e9-7fed66980ed1","ios":"levelo://app?vid=ec78f4db-0fc1-444b-96e9-7fed66980ed1"},"vehicle_type_id":"4","last_reported":1704334808,"current_range_meters":21200,"station_id":"ce4bh0h2rcd13ifvqd40","pricing_plan_id":"free"},{"bike_id":"e1ac0197-6dd4-4076-855c-c73057a2eb75","system_id":"levelo_inurba_marseille","lat":43.28727,"lon":5.36078,"is_reserved":false,"is_disabled":false,"rental_uris":{"android":"levelo://app?vid=e1ac0197-6dd4-4076-855c-c73057a2eb75","ios":"levelo://app?vid=e1ac0197-6dd4-4076-855c-c73057a2eb75"},"vehicle_type_id":"4","last_reported":1704334808,"current_range_meters":24000,"station_id":"cki0cbj6b192h4jlfktg","pricing_plan_id":"free"},{"bike_id":"ee747d99-7ab0-4558-8ea7-76fae17e5a54","system_id":"levelo_inurba_marseille","lat":43.28727,"lon":5.36078,"is_reserved":false,"is_disabled":false,"rental_uris":{"android":"levelo://app?vid=ee747d99-7ab0-4558-8ea7-76fae17e5a54","ios":"levelo://app?vid=ee747d99-7ab0-4558-8ea7-76fae17e5a54"},"vehicle_type_id":"4","last_reported":1704334808,"current_range_meters":24800,"station_id":"cki0cbj6b192h4jlfktg","pricing_plan_id":"free"},{"bike_id":"1fae5872-4781-4be3-a7e3-08510609eb2a","system_id":"levelo_inurba_marseille","lat":43.28727,"lon":5.36078,"is_reserved":false,"is_disabled":false,"rental_uris":{"android":"levelo://app?vid=1fae5872-4781-4be3-a7e3-08510609eb2a","ios":"levelo://app?vid=1fae5872-4781-4be3-a7e3-08510609eb2a"},"vehicle_type_id":"4","last_reported":1704334808,"current_range_meters":28000,"station_id":"cki0cbj6b192h4jlfktg","pricing_plan_id":"free"},{"bike_id":"f963ecae-ccdf-4b8b-8e48-49346eba778a","system_id":"levelo_inurba_marseille","lat":43.28727,"lon":5.36078,"is_reserved":false,"is_disabled":false,"rental_uris":{"android":"levelo://app?vid=f963ecae-ccdf-4b8b-8e48-49346eba778a","ios":"levelo://app?vid=f963ecae-ccdf-4b8b-8e48-49346eba778a"},"vehicle_type_id":"4","last_reported":1704334808,"current_range_meters":31600,"station_id":"cki0cbj6b192h4jlfktg","pricing_plan_id":"free"},{"bike_id":"9d7ac887-3e46-415a-bf3d-425f9b4accdd","system_id":"levelo_inurba_marseille","lat":43.286961,"lon":5.373785,"is_reserved":false,"is_disabled":false,"rental_uris":{"android":"levelo://app?vid=9d7ac887-3e46-415a-bf3d-425f9b4accdd","ios":"levelo://app?vid=9d7ac887-3e46-415a-bf3d-425f9b4accdd"},"vehicle_type_id":"4","last_reported":1704334808,"current_range_meters":28000,"station_id":"ce4bh3p2rcd13ifvqdq0","pricing_plan_id":"free"},{"bike_id":"4f39cad0-02eb-4002-96f5-411611ebf40c","system_id":"levelo_inurba_marseille","lat":43.298681,"lon":5.397225,"is_reserved":false,"is_disabled":false,"rental_uris":{"android":"levelo://app?vid=4f39cad0-02eb-4002-96f5-411611ebf40c","ios":"levelo://app?vid=4f39cad0-02eb-4002-96f5-411611ebf40c"},"vehicle_type_id":"4","last_reported":1704334808,"current_range_meters":30800,"station_id":"ce4bh0h2rcd13ifvqd50","pricing_plan_id":"free"},{"bike_id":"f5c8aec4-28a6-49d0-9d70-d7e06ff5eff1","system_id":"levelo_inurba_marseille","lat":43.295153,"lon":5.394067,"is_reserved":false,"is_disabled":false,"rental_uris":{"android":"levelo://app?vid=f5c8aec4-28a6-49d0-9d70-d7e06ff5eff1","ios":"levelo://app?vid=f5c8aec4-28a6-49d0-9d70-d7e06ff5eff1"},"vehicle_type_id":"4","last_reported":1704334808,"current_range_meters":0,"station_id":"ce4bh292rcd13ifvqdf0","pricing_plan_id":"free"},{"bike_id":"e1bc3e7b-559a-4d0c-80ab-d3c59c8be8cc","system_id":"levelo_inurba_marseille","lat":43.30242,"lon":5.40042,"is_reserved":false,"is_disabled":false,"rental_uris":{"android":"levelo://app?vid=e1bc3e7b-559a-4d0c-80ab-d3c59c8be8cc","ios":"levelo://app?vid=e1bc3e7b-559a-4d0c-80ab-d3c59c8be8cc"},"vehicle_type_id":"4","last_reported":1704334808,"current_range_meters":30000,"station_id":"ce4bgvh2rcd13ifvqcs0","pricing_plan_id":"free"},{"bike_id":"d359b952-4438-4a34-85cc-2409251cfa11","system_id":"levelo_inurba_marseille","lat":43.302759,"lon":5.400793,"is_reserved":false,"is_disabled":false,"rental_uris":{"android":"levelo://app?vid=d359b952-4438-4a34-85cc-2409251cfa11","ios":"levelo://app?vid=d359b952-4438-4a34-85cc-2409251cfa11"},"vehicle_type_id":"4","last_reported":1704334808,"current_range_meters":12400,"station_id":"ce4bgvh2rcd13ifvqcs0","pricing_plan_id":"free"},{"bike_id":"0df2e40d-3891-4432-9692-20439ae7cd56","system_id":"levelo_inurba_marseille","lat":43.290336,"lon":5.386425,"is_reserved":false,"is_disabled":false,"rental_uris":{"android":"levelo://app?vid=0df2e40d-3891-4432-9692-20439ae7cd56","ios":"levelo://app?vid=0df2e40d-3891-4432-9692-20439ae7cd56"},"vehicle_type_id":"4","last_reported":1704334808,"current_range_meters":20800,"station_id":"ce4bh4p2rcd13ifvqe0g","pricing_plan_id":"free"},{"bike_id":"2ff320d3-1f53-4106-966c-7158e5fb57f9","system_id":"levelo_inurba_marseille","lat":43.302759,"lon":5.400793,"is_reserved":false,"is_disabled":false,"rental_uris":{"android":"levelo://app?vid=2ff320d3-1f53-4106-966c-7158e5fb57f9","ios":"levelo://app?vid=2ff320d3-1f53-4106-966c-7158e5fb57f9"},"vehicle_type_id":"4","last_reported":1704334808,"current_range_meters":31200,"station_id":"ce4bgvh2rcd13ifvqcs0","pricing_plan_id":"free"},{"bike_id":"80a03787-f847-4eda-afc3-2a0c665eb77a","system_id":"levelo_inurba_marseille","lat":43.302759,"lon":5.400793,"is_reserved":false,"is_disabled":false,"rental_uris":{"android":"levelo://app?vid=80a03787-f847-4eda-afc3-2a0c665eb77a","ios":"levelo://app?vid=80a03787-f847-4eda-afc3-2a0c665eb77a"},"vehicle_type_id":"4","last_reported":1704334808,"current_range_meters":16800,"station_id":"ce4bgvh2rcd13ifvqcs0","pricing_plan_id":"free"},{"bike_id":"7025271f-a498-499f-a8fd-db6b5f8879f2","system_id":"levelo_inurba_marseille","lat":43.302759,"lon":5.400793,"is_reserved":false,"is_disabled":false,"rental_uris":{"android":"levelo://app?vid=7025271f-a498-499f-a8fd-db6b5f8879f2","ios":"levelo://app?vid=7025271f-a498-499f-a8fd-db6b5f8879f2"},"vehicle_type_id":"4","last_reported":1704334808,"current_range_meters":31600,"station_id":"ce4bgvh2rcd13ifvqcs0","pricing_plan_id":"free"},{"bike_id":"074e9269-a2d6-416b-a83d-b6a439c7f74f","system_id":"levelo_inurba_marseille","lat":43.287184,"lon":5.37937,"is_reserved":false,"is_disabled":false,"rental_uris":{"android":"levelo://app?vid=074e9269-a2d6-416b-a83d-b6a439c7f74f","ios":"levelo://app?vid=074e9269-a2d6-416b-a83d-b6a439c7f74f"},"vehicle_type_id":"4","last_reported":1704334808,"current_range_meters":26400,"station_id":"ce4bh9p2rcd13ifvqec0","pricing_plan_id":"free"},{"bike_id":"96735db8-87e5-4216-a163-f36568a4a110","system_id":"levelo_inurba_marseille","lat":43.291994,"lon":5.392907,"is_reserved":false,"is_disabled":false,"rental_uris":{"android":"levelo://app?vid=96735db8-87e5-4216-a163-f36568a4a110","ios":"levelo://app?vid=96735db8-87e5-4216-a163-f36568a4a110"},"vehicle_type_id":"4","last_reported":1704334808,"current_range_meters":30000,"station_id":"ce4bh192rcd13ifvqdd0","pricing_plan_id":"free"},{"bike_id":"54448abf-002f-4ca6-9e7b-8329af0d32c5","system_id":"levelo_inurba_marseille","lat":43.291994,"lon":5.392907,"is_reserved":false,"is_disabled":false,"rental_uris":{"android":"levelo://app?vid=54448abf-002f-4ca6-9e7b-8329af0d32c5","ios":"levelo://app?vid=54448abf-002f-4ca6-9e7b-8329af0d32c5"},"vehicle_type_id":"4","last_reported":1704334808,"current_range_meters":29600,"station_id":"ce4bh192rcd13ifvqdd0","pricing_plan_id":"free"},{"bike_id":"34ec17a6-d185-4369-bfe4-bf05322ff164","system_id":"levelo_inurba_marseille","lat":43.284538,"lon":5.358657,"is_reserved":false,"is_disabled":false,"rental_uris":{"android":"levelo://app?vid=34ec17a6-d185-4369-bfe4-bf05322ff164","ios":"levelo://app?vid=34ec17a6-d185-4369-bfe4-bf05322ff164"},"vehicle_type_id":"4","last_reported":1704334808,"current_range_meters":15600,"station_id":"ce4bhah2rcd13ifvqei0","pricing_plan_id":"free"},{"bike_id":"88afa295-32a3-4b25-89ad-670682989bfd","system_id":"levelo_inurba_marseille","lat":43.284538,"lon":5.358657,"is_reserved":false,"is_disabled":false,"rental_uris":{"android":"levelo://app?vid=88afa295-32a3-4b25-89ad-670682989bfd","ios":"levelo://app?vid=88afa295-32a3-4b25-89ad-670682989bfd"},"vehicle_type_id":"4","last_reported":1704334808,"current_range_meters":31600,"station_id":"ce4bhah2rcd13ifvqei0","pricing_plan_id":"free"},{"bike_id":"2e6e1b10-2a59-439b-b09f-1bec5be7d09b","system_id":"levelo_inurba_marseille","lat":43.284538,"lon":5.358657,"is_reserved":false,"is_disabled":false,"rental_uris":{"android":"levelo://app?vid=2e6e1b10-2a59-439b-b09f-1bec5be7d09b","ios":"levelo://app?vid=2e6e1b10-2a59-439b-b09f-1bec5be7d09b"},"vehicle_type_id":"4","last_reported":1704334808,"current_range_meters":16000,"station_id":"ce4bhah2rcd13ifvqei0","pricing_plan_id":"free"},{"bike_id":"6c8119c2-1ef3-4b9b-b519-f9b051faeebf","system_id":"levelo_inurba_marseille","lat":43.284538,"lon":5.358657,"is_reserved":false,"is_disabled":false,"rental_uris":{"android":"levelo://app?vid=6c8119c2-1ef3-4b9b-b519-f9b051faeebf","ios":"levelo://app?vid=6c8119c2-1ef3-4b9b-b519-f9b051faeebf"},"vehicle_type_id":"4","last_reported":1704334808,"current_range_meters":30000,"station_id":"ce4bhah2rcd13ifvqei0","pricing_plan_id":"free"},{"bike_id":"335a69f4-11fa-49c7-8911-ec2fc4700bb9","system_id":"levelo_inurba_marseille","lat":43.284538,"lon":5.358657,"is_reserved":false,"is_disabled":false,"rental_uris":{"android":"levelo://app?vid=335a69f4-11fa-49c7-8911-ec2fc4700bb9","ios":"levelo://app?vid=335a69f4-11fa-49c7-8911-ec2fc4700bb9"},"vehicle_type_id":"4","last_reported":1704334808,"current_range_meters":5600,"station_id":"ce4bhah2rcd13ifvqei0","pricing_plan_id":"free"},{"bike_id":"05b8b847-baeb-4634-a60f-27b27a5e241c","system_id":"levelo_inurba_marseille","lat":43.294314,"lon":5.397498,"is_reserved":false,"is_disabled":false,"rental_uris":{"android":"levelo://app?vid=05b8b847-baeb-4634-a60f-27b27a5e241c","ios":"levelo://app?vid=05b8b847-baeb-4634-a60f-27b27a5e241c"},"vehicle_type_id":"4","last_reported":1704334808,"current_range_meters":27200,"station_id":"ce4bh3h2rcd13ifvqdo0","pricing_plan_id":"free"},{"bike_id":"d29d2a0c-408b-44ca-b488-3805ec93667d","system_id":"levelo_inurba_marseille","lat":43.284534,"lon":5.358662,"is_reserved":false,"is_disabled":false,"rental_uris":{"android":"levelo://app?vid=d29d2a0c-408b-44ca-b488-3805ec93667d","ios":"levelo://app?vid=d29d2a0c-408b-44ca-b488-3805ec93667d"},"vehicle_type_id":"4","last_reported":1704334808,"current_range_meters":22400,"station_id":"ce4bhah2rcd13ifvqei0","pricing_plan_id":"free"},{"bike_id":"882bd401-922a-4184-a88e-edbe8ae0adc3","system_id":"levelo_inurba_marseille","lat":43.284534,"lon":5.358662,"is_reserved":false,"is_disabled":false,"rental_uris":{"android":"levelo://app?vid=882bd401-922a-4184-a88e-edbe8ae0adc3","ios":"levelo://app?vid=882bd401-922a-4184-a88e-edbe8ae0adc3"},"vehicle_type_id":"4","last_reported":1704334808,"current_range_meters":26000,"station_id":"ce4bhah2rcd13ifvqei0","pricing_plan_id":"free"},{"bike_id":"7121e51a-c415-4e36-9ae9-34ed7962b256","system_id":"levelo_inurba_marseille","lat":43.284534,"lon":5.358662,"is_reserved":false,"is_disabled":false,"rental_uris":{"android":"levelo://app?vid=7121e51a-c415-4e36-9ae9-34ed7962b256","ios":"levelo://app?vid=7121e51a-c415-4e36-9ae9-34ed7962b256"},"vehicle_type_id":"4","last_reported":1704334808,"current_range_meters":21200,"station_id":"ce4bhah2rcd13ifvqei0","pricing_plan_id":"free"},{"bike_id":"b2fe2e8a-055f-46d7-b87e-a055b7034467","system_id":"levelo_inurba_marseille","lat":43.283998,"lon":5.375062,"is_reserved":false,"is_disabled":false,"rental_uris":{"android":"levelo://app?vid=b2fe2e8a-055f-46d7-b87e-a055b7034467","ios":"levelo://app?vid=b2fe2e8a-055f-46d7-b87e-a055b7034467"},"vehicle_type_id":"4","last_reported":1704334808,"current_range_meters":25200,"station_id":"ce4bh412rcd13ifvqds0","pricing_plan_id":"free"},{"bike_id":"3f2d67b5-1b70-4dca-a662-d18b710194fe","system_id":"levelo_inurba_marseille","lat":43.29824,"lon":5.40186,"is_reserved":false,"is_disabled":false,"rental_uris":{"android":"levelo://app?vid=3f2d67b5-1b70-4dca-a662-d18b710194fe","ios":"levelo://app?vid=3f2d67b5-1b70-4dca-a662-d18b710194fe"},"vehicle_type_id":"4","last_reported":1704334808,"current_range_meters":14800,"station_id":"","pricing_plan_id":"free"},{"bike_id":"29fd97a6-0371-4831-890d-f5621d0b1793","system_id":"levelo_inurba_marseille","lat":43.283998,"lon":5.375062,"is_reserved":false,"is_disabled":false,"rental_uris":{"android":"levelo://app?vid=29fd97a6-0371-4831-890d-f5621d0b1793","ios":"levelo://app?vid=29fd97a6-0371-4831-890d-f5621d0b1793"},"vehicle_type_id":"4","last_reported":1704334808,"current_range_meters":27600,"station_id":"ce4bh412rcd13ifvqds0","pricing_plan_id":"free"},{"bike_id":"c1c9e1da-fbee-49d0-90a6-697aa1449fc9","system_id":"levelo_inurba_marseille","lat":43.286595,"lon":5.386795,"is_reserved":false,"is_disabled":false,"rental_uris":{"android":"levelo://app?vid=c1c9e1da-fbee-49d0-90a6-697aa1449fc9","ios":"levelo://app?vid=c1c9e1da-fbee-49d0-90a6-697aa1449fc9"},"vehicle_type_id":"4","last_reported":1704334808,"current_range_meters":30000,"station_id":"ce4bh492rcd13ifvqdug","pricing_plan_id":"free"},{"bike_id":"40659db2-aba4-4c52-a255-0c7586c28acc","system_id":"levelo_inurba_marseille","lat":43.31893,"lon":5.40742,"is_reserved":false,"is_disabled":false,"rental_uris":{"android":"levelo://app?vid=40659db2-aba4-4c52-a255-0c7586c28acc","ios":"levelo://app?vid=40659db2-aba4-4c52-a255-0c7586c28acc"},"vehicle_type_id":"4","last_reported":1704334808,"current_range_meters":30400,"station_id":"ce4bhq12rcd13ifvqhig","pricing_plan_id":"free"},{"bike_id":"35dbd01e-865d-4a73-944f-82ae17a1b1f9","system_id":"levelo_inurba_marseille","lat":43.323464,"lon":5.406297,"is_reserved":false,"is_disabled":false,"rental_uris":{"android":"levelo://app?vid=35dbd01e-865d-4a73-944f-82ae17a1b1f9","ios":"levelo://app?vid=35dbd01e-865d-4a73-944f-82ae17a1b1f9"},"vehicle_type_id":"4","last_reported":1704334808,"current_range_meters":24000,"station_id":"ce4bhq92rcd13ifvqhjg","pricing_plan_id":"free"},{"bike_id":"43ec9d4c-b344-4bbb-8c44-6cd9b856d382","system_id":"levelo_inurba_marseille","lat":43.33717,"lon":5.391857,"is_reserved":false,"is_disabled":false,"rental_uris":{"android":"levelo://app?vid=43ec9d4c-b344-4bbb-8c44-6cd9b856d382","ios":"levelo://app?vid=43ec9d4c-b344-4bbb-8c44-6cd9b856d382"},"vehicle_type_id":"4","last_reported":1704334808,"current_range_meters":26400,"station_id":"ce4bhr92rcd13ifvqhsg","pricing_plan_id":"free"},{"bike_id":"082792e7-54cb-43b3-95ca-69faa85d1d94","system_id":"levelo_inurba_marseille","lat":43.323464,"lon":5.406297,"is_reserved":false,"is_disabled":false,"rental_uris":{"android":"levelo://app?vid=082792e7-54cb-43b3-95ca-69faa85d1d94","ios":"levelo://app?vid=082792e7-54cb-43b3-95ca-69faa85d1d94"},"vehicle_type_id":"4","last_reported":1704334808,"current_range_meters":30800,"station_id":"ce4bhq92rcd13ifvqhjg","pricing_plan_id":"free"},{"bike_id":"5e57c7c1-bfc5-49c6-9e57-613a538e8d1e","system_id":"levelo_inurba_marseille","lat":43.323464,"lon":5.406297,"is_reserved":false,"is_disabled":false,"rental_uris":{"android":"levelo://app?vid=5e57c7c1-bfc5-49c6-9e57-613a538e8d1e","ios":"levelo://app?vid=5e57c7c1-bfc5-49c6-9e57-613a538e8d1e"},"vehicle_type_id":"4","last_reported":1704334808,"current_range_meters":25600,"station_id":"ce4bhq92rcd13ifvqhjg","pricing_plan_id":"free"},{"bike_id":"2556f8a3-f1f0-4cdc-9edd-a7f3cfcea9a9","system_id":"levelo_inurba_marseille","lat":43.323464,"lon":5.406297,"is_reserved":false,"is_disabled":false,"rental_uris":{"android":"levelo://app?vid=2556f8a3-f1f0-4cdc-9edd-a7f3cfcea9a9","ios":"levelo://app?vid=2556f8a3-f1f0-4cdc-9edd-a7f3cfcea9a9"},"vehicle_type_id":"4","last_reported":1704334808,"current_range_meters":24400,"station_id":"ce4bhq92rcd13ifvqhjg","pricing_plan_id":"free"},{"bike_id":"65db4aa8-5732-4715-953c-0158f0555c99","system_id":"levelo_inurba_marseille","lat":43.297946,"lon":5.404063,"is_reserved":false,"is_disabled":false,"rental_uris":{"android":"levelo://app?vid=65db4aa8-5732-4715-953c-0158f0555c99","ios":"levelo://app?vid=65db4aa8-5732-4715-953c-0158f0555c99"},"vehicle_type_id":"4","last_reported":1704334808,"current_range_meters":28800,"station_id":"ce4bh112rcd13ifvqd90","pricing_plan_id":"free"},{"bike_id":"d9ea88ac-21b4-4114-aa96-0fbddbc63fc6","system_id":"levelo_inurba_marseille","lat":43.288494,"lon":5.393125,"is_reserved":false,"is_disabled":false,"rental_uris":{"android":"levelo://app?vid=d9ea88ac-21b4-4114-aa96-0fbddbc63fc6","ios":"levelo://app?vid=d9ea88ac-21b4-4114-aa96-0fbddbc63fc6"},"vehicle_type_id":"4","last_reported":1704334808,"current_range_meters":22400,"station_id":"ce4bh2p2rcd13ifvqdi0","pricing_plan_id":"free"},{"bike_id":"888e1804-055c-4aea-95bc-93a73f116354","system_id":"levelo_inurba_marseille","lat":43.284219,"lon":5.3497,"is_reserved":false,"is_disabled":false,"rental_uris":{"android":"levelo://app?vid=888e1804-055c-4aea-95bc-93a73f116354","ios":"levelo://app?vid=888e1804-055c-4aea-95bc-93a73f116354"},"vehicle_type_id":"4","last_reported":1704334808,"current_range_meters":30400,"station_id":"ce4bhbh2rcd13ifvqepg","pricing_plan_id":"free"},{"bike_id":"4cc32faf-c266-4535-bdff-c42098dbefc9","system_id":"levelo_inurba_marseille","lat":43.321648,"lon":5.407939,"is_reserved":false,"is_disabled":false,"rental_uris":{"android":"levelo://app?vid=4cc32faf-c266-4535-bdff-c42098dbefc9","ios":"levelo://app?vid=4cc32faf-c266-4535-bdff-c42098dbefc9"},"vehicle_type_id":"4","last_reported":1704334808,"current_range_meters":17200,"station_id":"","pricing_plan_id":"free"},{"bike_id":"a34a416d-36de-45a6-bcc4-14a190a5ea99","system_id":"levelo_inurba_marseille","lat":43.284217,"lon":5.349697,"is_reserved":false,"is_disabled":false,"rental_uris":{"android":"levelo://app?vid=a34a416d-36de-45a6-bcc4-14a190a5ea99","ios":"levelo://app?vid=a34a416d-36de-45a6-bcc4-14a190a5ea99"},"vehicle_type_id":"4","last_reported":1704334808,"current_range_meters":5600,"station_id":"ce4bhbh2rcd13ifvqepg","pricing_plan_id":"free"},{"bike_id":"0cfc5d5d-5364-4b67-be59-9fd222e92637","system_id":"levelo_inurba_marseille","lat":43.289363,"lon":5.396322,"is_reserved":false,"is_disabled":false,"rental_uris":{"android":"levelo://app?vid=0cfc5d5d-5364-4b67-be59-9fd222e92637","ios":"levelo://app?vid=0cfc5d5d-5364-4b67-be59-9fd222e92637"},"vehicle_type_id":"4","last_reported":1704334808,"current_range_meters":26400,"station_id":"ce4bh3h2rcd13ifvqdn0","pricing_plan_id":"free"},{"bike_id":"f7be149a-e1c3-46e5-9837-421d400631f2","system_id":"levelo_inurba_marseille","lat":43.292724,"lon":5.401131,"is_reserved":false,"is_disabled":false,"rental_uris":{"android":"levelo://app?vid=f7be149a-e1c3-46e5-9837-421d400631f2","ios":"levelo://app?vid=f7be149a-e1c3-46e5-9837-421d400631f2"},"vehicle_type_id":"4","last_reported":1704334808,"current_range_meters":26800,"station_id":"ce4bh312rcd13ifvqdk0","pricing_plan_id":"free"},{"bike_id":"59e9c861-4538-413b-b990-baf404440911","system_id":"levelo_inurba_marseille","lat":43.282699,"lon":5.350664,"is_reserved":false,"is_disabled":false,"rental_uris":{"android":"levelo://app?vid=59e9c861-4538-413b-b990-baf404440911","ios":"levelo://app?vid=59e9c861-4538-413b-b990-baf404440911"},"vehicle_type_id":"4","last_reported":1704334808,"current_range_meters":25600,"station_id":"ce4bhbp2rcd13ifvqerg","pricing_plan_id":"free"},{"bike_id":"79837741-56a5-43d5-82bd-fc00e6332b2a","system_id":"levelo_inurba_marseille","lat":43.282701,"lon":5.350644,"is_reserved":false,"is_disabled":false,"rental_uris":{"android":"levelo://app?vid=79837741-56a5-43d5-82bd-fc00e6332b2a","ios":"levelo://app?vid=79837741-56a5-43d5-82bd-fc00e6332b2a"},"vehicle_type_id":"4","last_reported":1704334808,"current_range_meters":11200,"station_id":"ce4bhbp2rcd13ifvqerg","pricing_plan_id":"free"},{"bike_id":"d3ac3657-04c4-4aaf-a57b-f670a94b258d","system_id":"levelo_inurba_marseille","lat":43.282698,"lon":5.350626,"is_reserved":false,"is_disabled":false,"rental_uris":{"android":"levelo://app?vid=d3ac3657-04c4-4aaf-a57b-f670a94b258d","ios":"levelo://app?vid=d3ac3657-04c4-4aaf-a57b-f670a94b258d"},"vehicle_type_id":"4","last_reported":1704334808,"current_range_meters":18400,"station_id":"ce4bhbp2rcd13ifvqerg","pricing_plan_id":"free"},{"bike_id":"0d65f886-703e-4cc8-9cfe-97077ed735c9","system_id":"levelo_inurba_marseille","lat":43.282744,"lon":5.350533,"is_reserved":false,"is_disabled":false,"rental_uris":{"android":"levelo://app?vid=0d65f886-703e-4cc8-9cfe-97077ed735c9","ios":"levelo://app?vid=0d65f886-703e-4cc8-9cfe-97077ed735c9"},"vehicle_type_id":"4","last_reported":1704334808,"current_range_meters":24800,"station_id":"ce4bhbp2rcd13ifvqerg","pricing_plan_id":"free"},{"bike_id":"fe934f54-0c59-486f-9cb5-6169b78b7007","system_id":"levelo_inurba_marseille","lat":43.28039,"lon":5.369297,"is_reserved":false,"is_disabled":false,"rental_uris":{"android":"levelo://app?vid=fe934f54-0c59-486f-9cb5-6169b78b7007","ios":"levelo://app?vid=fe934f54-0c59-486f-9cb5-6169b78b7007"},"vehicle_type_id":"4","last_reported":1704334808,"current_range_meters":29200,"station_id":"ce4bha12rcd13ifvqef0","pricing_plan_id":"free"},{"bike_id":"3b207d8c-7d10-4ce3-8bb1-5bcc943e7018","system_id":"levelo_inurba_marseille","lat":43.280382,"lon":5.369291,"is_reserved":false,"is_disabled":false,"rental_uris":{"android":"levelo://app?vid=3b207d8c-7d10-4ce3-8bb1-5bcc943e7018","ios":"levelo://app?vid=3b207d8c-7d10-4ce3-8bb1-5bcc943e7018"},"vehicle_type_id":"4","last_reported":1704334808,"current_range_meters":31600,"station_id":"ce4bha12rcd13ifvqef0","pricing_plan_id":"free"},{"bike_id":"b0d71ed9-2e4a-4896-80b1-f614c14a0d2d","system_id":"levelo_inurba_marseille","lat":43.28039,"lon":5.369297,"is_reserved":false,"is_disabled":false,"rental_uris":{"android":"levelo://app?vid=b0d71ed9-2e4a-4896-80b1-f614c14a0d2d","ios":"levelo://app?vid=b0d71ed9-2e4a-4896-80b1-f614c14a0d2d"},"vehicle_type_id":"4","last_reported":1704334808,"current_range_meters":30400,"station_id":"ce4bha12rcd13ifvqef0","pricing_plan_id":"free"},{"bike_id":"075ec188-24e0-48c7-bf1c-350c61527bb3","system_id":"levelo_inurba_marseille","lat":43.280382,"lon":5.369291,"is_reserved":false,"is_disabled":false,"rental_uris":{"android":"levelo://app?vid=075ec188-24e0-48c7-bf1c-350c61527bb3","ios":"levelo://app?vid=075ec188-24e0-48c7-bf1c-350c61527bb3"},"vehicle_type_id":"4","last_reported":1704334808,"current_range_meters":9600,"station_id":"ce4bha12rcd13ifvqef0","pricing_plan_id":"free"},{"bike_id":"ca8910e0-3d77-4389-b3d6-e271926a2518","system_id":"levelo_inurba_marseille","lat":43.28039,"lon":5.369297,"is_reserved":false,"is_disabled":false,"rental_uris":{"android":"levelo://app?vid=ca8910e0-3d77-4389-b3d6-e271926a2518","ios":"levelo://app?vid=ca8910e0-3d77-4389-b3d6-e271926a2518"},"vehicle_type_id":"4","last_reported":1704334808,"current_range_meters":28400,"station_id":"ce4bha12rcd13ifvqef0","pricing_plan_id":"free"},{"bike_id":"6254bdab-07b9-439b-8746-e31872d56418","system_id":"levelo_inurba_marseille","lat":43.280382,"lon":5.369291,"is_reserved":false,"is_disabled":false,"rental_uris":{"android":"levelo://app?vid=6254bdab-07b9-439b-8746-e31872d56418","ios":"levelo://app?vid=6254bdab-07b9-439b-8746-e31872d56418"},"vehicle_type_id":"4","last_reported":1704334808,"current_range_meters":0,"station_id":"ce4bha12rcd13ifvqef0","pricing_plan_id":"free"},{"bike_id":"507cc011-b0f1-407e-a4ca-21f10d36b9b3","system_id":"levelo_inurba_marseille","lat":43.281044,"lon":5.378308,"is_reserved":false,"is_disabled":false,"rental_uris":{"android":"levelo://app?vid=507cc011-b0f1-407e-a4ca-21f10d36b9b3","ios":"levelo://app?vid=507cc011-b0f1-407e-a4ca-21f10d36b9b3"},"vehicle_type_id":"4","last_reported":1704334808,"current_range_meters":26800,"station_id":"ce4bha12rcd13ifvqee0","pricing_plan_id":"free"},{"bike_id":"fad611ac-ed2b-4dfe-83b6-1ddd7f66f0cd","system_id":"levelo_inurba_marseille","lat":43.296263,"lon":5.40601,"is_reserved":false,"is_disabled":false,"rental_uris":{"android":"levelo://app?vid=fad611ac-ed2b-4dfe-83b6-1ddd7f66f0cd","ios":"levelo://app?vid=fad611ac-ed2b-4dfe-83b6-1ddd7f66f0cd"},"vehicle_type_id":"4","last_reported":1704334808,"current_range_meters":29600,"station_id":"ce4bh0h2rcd13ifvqd60","pricing_plan_id":"free"},{"bike_id":"fd5ac47f-4b90-4716-a1fa-b4b10cfac6b5","system_id":"levelo_inurba_marseille","lat":43.284462,"lon":5.392121,"is_reserved":false,"is_disabled":false,"rental_uris":{"android":"levelo://app?vid=fd5ac47f-4b90-4716-a1fa-b4b10cfac6b5","ios":"levelo://app?vid=fd5ac47f-4b90-4716-a1fa-b4b10cfac6b5"},"vehicle_type_id":"4","last_reported":1704334808,"current_range_meters":24000,"station_id":"ce4bhoh2rcd13ifvqh5g","pricing_plan_id":"free"},{"bike_id":"60bdf1b9-50bd-4680-b536-abe5e2740024","system_id":"levelo_inurba_marseille","lat":43.28573,"lon":5.394992,"is_reserved":false,"is_disabled":false,"rental_uris":{"android":"levelo://app?vid=60bdf1b9-50bd-4680-b536-abe5e2740024","ios":"levelo://app?vid=60bdf1b9-50bd-4680-b536-abe5e2740024"},"vehicle_type_id":"4","last_reported":1704334808,"current_range_meters":23200,"station_id":"ce4bh292rcd13ifvqdg0","pricing_plan_id":"free"},{"bike_id":"a7c83247-f085-42c0-9a46-a48991a33818","system_id":"levelo_inurba_marseille","lat":43.3042,"lon":5.41278,"is_reserved":false,"is_disabled":false,"rental_uris":{"android":"levelo://app?vid=a7c83247-f085-42c0-9a46-a48991a33818","ios":"levelo://app?vid=a7c83247-f085-42c0-9a46-a48991a33818"},"vehicle_type_id":"4","last_reported":1704334808,"current_range_meters":13600,"station_id":"ce4bhop2rcd13ifvqh8g","pricing_plan_id":"free"},{"bike_id":"ac9b89ac-7c2d-48fe-8ea9-970e85035ca7","system_id":"levelo_inurba_marseille","lat":43.279087,"lon":5.380114,"is_reserved":false,"is_disabled":false,"rental_uris":{"android":"levelo://app?vid=ac9b89ac-7c2d-48fe-8ea9-970e85035ca7","ios":"levelo://app?vid=ac9b89ac-7c2d-48fe-8ea9-970e85035ca7"},"vehicle_type_id":"4","last_reported":1704334808,"current_range_meters":25200,"station_id":"ce4bhf92rcd13ifvqf50","pricing_plan_id":"free"},{"bike_id":"9a814592-a047-47d2-b94a-9e434a6fc9ec","system_id":"levelo_inurba_marseille","lat":43.287154,"lon":5.399979,"is_reserved":false,"is_disabled":false,"rental_uris":{"android":"levelo://app?vid=9a814592-a047-47d2-b94a-9e434a6fc9ec","ios":"levelo://app?vid=9a814592-a047-47d2-b94a-9e434a6fc9ec"},"vehicle_type_id":"4","last_reported":1704334808,"current_range_meters":31200,"station_id":"ce4bho92rcd13ifvqh3g","pricing_plan_id":"free"},{"bike_id":"13f55e44-e293-4ad5-b33b-80f95ef88e0f","system_id":"levelo_inurba_marseille","lat":43.287154,"lon":5.399979,"is_reserved":false,"is_disabled":false,"rental_uris":{"android":"levelo://app?vid=13f55e44-e293-4ad5-b33b-80f95ef88e0f","ios":"levelo://app?vid=13f55e44-e293-4ad5-b33b-80f95ef88e0f"},"vehicle_type_id":"4","last_reported":1704334808,"current_range_meters":31200,"station_id":"ce4bho92rcd13ifvqh3g","pricing_plan_id":"free"},{"bike_id":"2bfc39f7-b10d-492e-9fb7-2bf496d6af21","system_id":"levelo_inurba_marseille","lat":43.287154,"lon":5.399979,"is_reserved":false,"is_disabled":false,"rental_uris":{"android":"levelo://app?vid=2bfc39f7-b10d-492e-9fb7-2bf496d6af21","ios":"levelo://app?vid=2bfc39f7-b10d-492e-9fb7-2bf496d6af21"},"vehicle_type_id":"4","last_reported":1704334808,"current_range_meters":30000,"station_id":"ce4bho92rcd13ifvqh3g","pricing_plan_id":"free"},{"bike_id":"0bd4bfcf-cc32-47b6-b127-0708bb74e684","system_id":"levelo_inurba_marseille","lat":43.28694,"lon":5.39978,"is_reserved":false,"is_disabled":false,"rental_uris":{"android":"levelo://app?vid=0bd4bfcf-cc32-47b6-b127-0708bb74e684","ios":"levelo://app?vid=0bd4bfcf-cc32-47b6-b127-0708bb74e684"},"vehicle_type_id":"4","last_reported":1704334808,"current_range_meters":28400,"station_id":"ce4bho92rcd13ifvqh3g","pricing_plan_id":"free"},{"bike_id":"5333d429-c492-4141-833e-e25831bd6000","system_id":"levelo_inurba_marseille","lat":43.279087,"lon":5.380114,"is_reserved":false,"is_disabled":false,"rental_uris":{"android":"levelo://app?vid=5333d429-c492-4141-833e-e25831bd6000","ios":"levelo://app?vid=5333d429-c492-4141-833e-e25831bd6000"},"vehicle_type_id":"4","last_reported":1704334808,"current_range_meters":25200,"station_id":"ce4bhf92rcd13ifvqf50","pricing_plan_id":"free"},{"bike_id":"1d7d0b44-395f-4e21-af9d-8af1ed86a5aa","system_id":"levelo_inurba_marseille","lat":43.299579,"lon":5.413255,"is_reserved":false,"is_disabled":false,"rental_uris":{"android":"levelo://app?vid=1d7d0b44-395f-4e21-af9d-8af1ed86a5aa","ios":"levelo://app?vid=1d7d0b44-395f-4e21-af9d-8af1ed86a5aa"},"vehicle_type_id":"4","last_reported":1704334808,"current_range_meters":26000,"station_id":"ce4bhp12rcd13ifvqh9g","pricing_plan_id":"free"},{"bike_id":"71eff567-aadf-4812-9210-bd8bec7d97ab","system_id":"levelo_inurba_marseille","lat":43.320045,"lon":5.415048,"is_reserved":false,"is_disabled":false,"rental_uris":{"android":"levelo://app?vid=71eff567-aadf-4812-9210-bd8bec7d97ab","ios":"levelo://app?vid=71eff567-aadf-4812-9210-bd8bec7d97ab"},"vehicle_type_id":"4","last_reported":1704334808,"current_range_meters":30800,"station_id":"ce4bhq92rcd13ifvqhkg","pricing_plan_id":"free"},{"bike_id":"182596c9-eb23-49ea-96a1-87b55d4d5788","system_id":"levelo_inurba_marseille","lat":43.29254,"lon":5.408983,"is_reserved":false,"is_disabled":false,"rental_uris":{"android":"levelo://app?vid=182596c9-eb23-49ea-96a1-87b55d4d5788","ios":"levelo://app?vid=182596c9-eb23-49ea-96a1-87b55d4d5788"},"vehicle_type_id":"4","last_reported":1704334808,"current_range_meters":25200,"station_id":"ce4bh192rcd13ifvqdc0","pricing_plan_id":"free"},{"bike_id":"410927ff-b9f5-401b-92ff-ca6dd7022bb0","system_id":"levelo_inurba_marseille","lat":43.325233,"lon":5.414318,"is_reserved":false,"is_disabled":false,"rental_uris":{"android":"levelo://app?vid=410927ff-b9f5-401b-92ff-ca6dd7022bb0","ios":"levelo://app?vid=410927ff-b9f5-401b-92ff-ca6dd7022bb0"},"vehicle_type_id":"4","last_reported":1704334808,"current_range_meters":28400,"station_id":"ce4bhq12rcd13ifvqhhg","pricing_plan_id":"free"},{"bike_id":"8d39a160-b926-4739-94b7-83f12ae62eb6","system_id":"levelo_inurba_marseille","lat":43.292571,"lon":5.409107,"is_reserved":false,"is_disabled":false,"rental_uris":{"android":"levelo://app?vid=8d39a160-b926-4739-94b7-83f12ae62eb6","ios":"levelo://app?vid=8d39a160-b926-4739-94b7-83f12ae62eb6"},"vehicle_type_id":"4","last_reported":1704334808,"current_range_meters":16800,"station_id":"ce4bh192rcd13ifvqdc0","pricing_plan_id":"free"},{"bike_id":"31da54c8-1862-488b-80a3-e3e984c4a1a0","system_id":"levelo_inurba_marseille","lat":43.292569,"lon":5.409107,"is_reserved":false,"is_disabled":false,"rental_uris":{"android":"levelo://app?vid=31da54c8-1862-488b-80a3-e3e984c4a1a0","ios":"levelo://app?vid=31da54c8-1862-488b-80a3-e3e984c4a1a0"},"vehicle_type_id":"4","last_reported":1704334808,"current_range_meters":19600,"station_id":"ce4bh192rcd13ifvqdc0","pricing_plan_id":"free"},{"bike_id":"daed1a10-5684-4e7b-ac05-a38a9363c91a","system_id":"levelo_inurba_marseille","lat":43.27618,"lon":5.361009,"is_reserved":false,"is_disabled":false,"rental_uris":{"android":"levelo://app?vid=daed1a10-5684-4e7b-ac05-a38a9363c91a","ios":"levelo://app?vid=daed1a10-5684-4e7b-ac05-a38a9363c91a"},"vehicle_type_id":"4","last_reported":1704334808,"current_range_meters":10800,"station_id":"ce4bgj92rcd13ifvqbe0","pricing_plan_id":"free"},{"bike_id":"d3f25bcc-da64-44bb-8495-bf854b2f447f","system_id":"levelo_inurba_marseille","lat":43.324468,"lon":5.416443,"is_reserved":false,"is_disabled":false,"rental_uris":{"android":"levelo://app?vid=d3f25bcc-da64-44bb-8495-bf854b2f447f","ios":"levelo://app?vid=d3f25bcc-da64-44bb-8495-bf854b2f447f"},"vehicle_type_id":"4","last_reported":1704334808,"current_range_meters":19600,"station_id":"","pricing_plan_id":"free"},{"bike_id":"cce89fc2-8980-4e8a-91b4-3d474529ae07","system_id":"levelo_inurba_marseille","lat":43.280784,"lon":5.396622,"is_reserved":false,"is_disabled":false,"rental_uris":{"android":"levelo://app?vid=cce89fc2-8980-4e8a-91b4-3d474529ae07","ios":"levelo://app?vid=cce89fc2-8980-4e8a-91b4-3d474529ae07"},"vehicle_type_id":"4","last_reported":1704334808,"current_range_meters":16000,"station_id":"ce4bho12rcd13ifvqh2g","pricing_plan_id":"free"},{"bike_id":"878989f4-64e5-45eb-97fd-e2c865789826","system_id":"levelo_inurba_marseille","lat":43.280784,"lon":5.396622,"is_reserved":false,"is_disabled":false,"rental_uris":{"android":"levelo://app?vid=878989f4-64e5-45eb-97fd-e2c865789826","ios":"levelo://app?vid=878989f4-64e5-45eb-97fd-e2c865789826"},"vehicle_type_id":"4","last_reported":1704334808,"current_range_meters":29600,"station_id":"ce4bho12rcd13ifvqh2g","pricing_plan_id":"free"},{"bike_id":"ac382b67-00dc-468e-b0db-fb3fd65f489a","system_id":"levelo_inurba_marseille","lat":43.30357,"lon":5.41879,"is_reserved":false,"is_disabled":false,"rental_uris":{"android":"levelo://app?vid=ac382b67-00dc-468e-b0db-fb3fd65f489a","ios":"levelo://app?vid=ac382b67-00dc-468e-b0db-fb3fd65f489a"},"vehicle_type_id":"4","last_reported":1704334808,"current_range_meters":24000,"station_id":"ce4bhop2rcd13ifvqh7g","pricing_plan_id":"free"},{"bike_id":"16fdafdb-1e54-4f30-9a7e-f62c10d6f7e5","system_id":"levelo_inurba_marseille","lat":43.303837,"lon":5.418724,"is_reserved":false,"is_disabled":false,"rental_uris":{"android":"levelo://app?vid=16fdafdb-1e54-4f30-9a7e-f62c10d6f7e5","ios":"levelo://app?vid=16fdafdb-1e54-4f30-9a7e-f62c10d6f7e5"},"vehicle_type_id":"4","last_reported":1704334808,"current_range_meters":31600,"station_id":"ce4bhop2rcd13ifvqh7g","pricing_plan_id":"free"},{"bike_id":"33a4f573-af15-4386-bb07-ca076a055225","system_id":"levelo_inurba_marseille","lat":43.303837,"lon":5.418724,"is_reserved":false,"is_disabled":false,"rental_uris":{"android":"levelo://app?vid=33a4f573-af15-4386-bb07-ca076a055225","ios":"levelo://app?vid=33a4f573-af15-4386-bb07-ca076a055225"},"vehicle_type_id":"4","last_reported":1704334808,"current_range_meters":20000,"station_id":"ce4bhop2rcd13ifvqh7g","pricing_plan_id":"free"},{"bike_id":"1563fd25-44d7-4146-8752-daae4c2a4efa","system_id":"levelo_inurba_marseille","lat":43.278401,"lon":5.392152,"is_reserved":false,"is_disabled":false,"rental_uris":{"android":"levelo://app?vid=1563fd25-44d7-4146-8752-daae4c2a4efa","ios":"levelo://app?vid=1563fd25-44d7-4146-8752-daae4c2a4efa"},"vehicle_type_id":"4","last_reported":1704334808,"current_range_meters":26800,"station_id":"ce4bhjp2rcd13ifvqga0","pricing_plan_id":"free"},{"bike_id":"f45cfe6c-a41e-433b-bf03-cc60508fd616","system_id":"levelo_inurba_marseille","lat":43.336032,"lon":5.410284,"is_reserved":false,"is_disabled":false,"rental_uris":{"android":"levelo://app?vid=f45cfe6c-a41e-433b-bf03-cc60508fd616","ios":"levelo://app?vid=f45cfe6c-a41e-433b-bf03-cc60508fd616"},"vehicle_type_id":"4","last_reported":1704334808,"current_range_meters":9200,"station_id":"ce4bhqh2rcd13ifvqhmg","pricing_plan_id":"free"},{"bike_id":"e6a5e0a9-d0fc-4e5c-a3f3-b40061716bc2","system_id":"levelo_inurba_marseille","lat":43.275625,"lon":5.384392,"is_reserved":false,"is_disabled":false,"rental_uris":{"android":"levelo://app?vid=e6a5e0a9-d0fc-4e5c-a3f3-b40061716bc2","ios":"levelo://app?vid=e6a5e0a9-d0fc-4e5c-a3f3-b40061716bc2"},"vehicle_type_id":"4","last_reported":1704334808,"current_range_meters":31200,"station_id":"ce4bhh92rcd13ifvqfi0","pricing_plan_id":"free"},{"bike_id":"959aac2e-1ed3-4778-9498-4d13c3e646c7","system_id":"levelo_inurba_marseille","lat":43.336134,"lon":5.410341,"is_reserved":false,"is_disabled":false,"rental_uris":{"android":"levelo://app?vid=959aac2e-1ed3-4778-9498-4d13c3e646c7","ios":"levelo://app?vid=959aac2e-1ed3-4778-9498-4d13c3e646c7"},"vehicle_type_id":"4","last_reported":1704334808,"current_range_meters":25200,"station_id":"ce4bhqh2rcd13ifvqhmg","pricing_plan_id":"free"},{"bike_id":"d682dc1a-c124-4647-b348-bd2d055b569e","system_id":"levelo_inurba_marseille","lat":43.336134,"lon":5.410341,"is_reserved":false,"is_disabled":false,"rental_uris":{"android":"levelo://app?vid=d682dc1a-c124-4647-b348-bd2d055b569e","ios":"levelo://app?vid=d682dc1a-c124-4647-b348-bd2d055b569e"},"vehicle_type_id":"4","last_reported":1704334808,"current_range_meters":30400,"station_id":"ce4bhqh2rcd13ifvqhmg","pricing_plan_id":"free"},{"bike_id":"20832136-1247-4fb2-a6b1-acf0507e0287","system_id":"levelo_inurba_marseille","lat":43.336148,"lon":5.410349,"is_reserved":false,"is_disabled":false,"rental_uris":{"android":"levelo://app?vid=20832136-1247-4fb2-a6b1-acf0507e0287","ios":"levelo://app?vid=20832136-1247-4fb2-a6b1-acf0507e0287"},"vehicle_type_id":"4","last_reported":1704334808,"current_range_meters":31600,"station_id":"ce4bhqh2rcd13ifvqhmg","pricing_plan_id":"free"},{"bike_id":"5b485b26-7a0b-4f0c-abbb-f411f65533fd","system_id":"levelo_inurba_marseille","lat":43.336148,"lon":5.410349,"is_reserved":false,"is_disabled":false,"rental_uris":{"android":"levelo://app?vid=5b485b26-7a0b-4f0c-abbb-f411f65533fd","ios":"levelo://app?vid=5b485b26-7a0b-4f0c-abbb-f411f65533fd"},"vehicle_type_id":"4","last_reported":1704334808,"current_range_meters":1200,"station_id":"ce4bhqh2rcd13ifvqhmg","pricing_plan_id":"free"},{"bike_id":"2adc39e4-adca-4267-9b58-11106d541d95","system_id":"levelo_inurba_marseille","lat":43.336134,"lon":5.410341,"is_reserved":false,"is_disabled":false,"rental_uris":{"android":"levelo://app?vid=2adc39e4-adca-4267-9b58-11106d541d95","ios":"levelo://app?vid=2adc39e4-adca-4267-9b58-11106d541d95"},