{"last_updated":1778273102,"ttl":60,"version":"2.2","data":{"bikes":[{"bike_id":"fc5274ba-a8a1-4024-b071-5e08396efe04","system_id":"levelo_inurba_marseille","lat":43.31215,"lon":5.36812,"is_reserved":false,"is_disabled":false,"rental_uris":{"android":"levelo://app?vid=fc5274ba-a8a1-4024-b071-5e08396efe04","ios":"levelo://app?vid=fc5274ba-a8a1-4024-b071-5e08396efe04"},"vehicle_type_id":"4","last_reported":1778273103,"current_range_meters":2800,"station_id":"ce4bgl92rcd13ifvqbq0","pricing_plan_id":"cebpf4jnsgd1na2vs0mg"},{"bike_id":"554b6fa3-7276-4539-90b0-77c26ba6fd5b","system_id":"levelo_inurba_marseille","lat":43.30885,"lon":5.39632,"is_reserved":false,"is_disabled":false,"rental_uris":{"android":"levelo://app?vid=554b6fa3-7276-4539-90b0-77c26ba6fd5b","ios":"levelo://app?vid=554b6fa3-7276-4539-90b0-77c26ba6fd5b"},"vehicle_type_id":"4","last_reported":1778273103,"current_range_meters":2800,"station_id":"ce4bh012rcd13ifvqcv0","pricing_plan_id":"cebpf4jnsgd1na2vs0mg"},{"bike_id":"cb31c41b-e1b1-4a85-9715-17bfd8896e0d","system_id":"levelo_inurba_marseille","lat":43.27196,"lon":5.40982,"is_reserved":false,"is_disabled":true,"rental_uris":{"android":"levelo://app?vid=cb31c41b-e1b1-4a85-9715-17bfd8896e0d","ios":"levelo://app?vid=cb31c41b-e1b1-4a85-9715-17bfd8896e0d"},"vehicle_type_id":"4","last_reported":1778273103,"current_range_meters":2800,"station_id":"ce4bhl12rcd13ifvqgf0","pricing_plan_id":"cebpf4jnsgd1na2vs0mg"},{"bike_id":"fd21a914-87ce-4797-b59d-c89581bcda04","system_id":"levelo_inurba_marseille","lat":43.30621,"lon":5.43019,"is_reserved":false,"is_disabled":false,"rental_uris":{"android":"levelo://app?vid=fd21a914-87ce-4797-b59d-c89581bcda04","ios":"levelo://app?vid=fd21a914-87ce-4797-b59d-c89581bcda04"},"vehicle_type_id":"4","last_reported":1778273103,"current_range_meters":2800,"station_id":"","pricing_plan_id":"cebpf4jnsgd1na2vs0mg"},{"bike_id":"07b3c926-91ea-45b4-94c4-c9a68f131993","system_id":"levelo_inurba_marseille","lat":43.29558,"lon":5.37508,"is_reserved":false,"is_disabled":false,"rental_uris":{"android":"levelo://app?vid=07b3c926-91ea-45b4-94c4-c9a68f131993","ios":"levelo://app?vid=07b3c926-91ea-45b4-94c4-c9a68f131993"},"vehicle_type_id":"4","last_reported":1778273103,"current_range_meters":2800,"station_id":"ce4bgh92rcd13ifvqb50","pricing_plan_id":"cebpf4jnsgd1na2vs0mg"},{"bike_id":"15798730-c697-44ec-8b3b-189ffa390ad1","system_id":"levelo_inurba_marseille","lat":43.31666,"lon":5.40375,"is_reserved":false,"is_disabled":false,"rental_uris":{"android":"levelo://app?vid=15798730-c697-44ec-8b3b-189ffa390ad1","ios":"levelo://app?vid=15798730-c697-44ec-8b3b-189ffa390ad1"},"vehicle_type_id":"4","last_reported":1778273103,"current_range_meters":2800,"station_id":"","pricing_plan_id":"cebpf4jnsgd1na2vs0mg"},{"bike_id":"bfad805c-3d85-4d2c-87d5-9476b9c4f251","system_id":"levelo_inurba_marseille","lat":43.29981,"lon":5.38505,"is_reserved":false,"is_disabled":true,"rental_uris":{"android":"levelo://app?vid=bfad805c-3d85-4d2c-87d5-9476b9c4f251","ios":"levelo://app?vid=bfad805c-3d85-4d2c-87d5-9476b9c4f251"},"vehicle_type_id":"4","last_reported":1778273103,"current_range_meters":2800,"station_id":"ce4bgj92rcd13ifvqbd0","pricing_plan_id":"cebpf4jnsgd1na2vs0mg"},{"bike_id":"112af1ac-5352-4af3-ae29-6abe51d17fdc","system_id":"levelo_inurba_marseille","lat":43.31093,"lon":5.38572,"is_reserved":false,"is_disabled":false,"rental_uris":{"android":"levelo://app?vid=112af1ac-5352-4af3-ae29-6abe51d17fdc","ios":"levelo://app?vid=112af1ac-5352-4af3-ae29-6abe51d17fdc"},"vehicle_type_id":"4","last_reported":1778273103,"current_range_meters":2800,"station_id":"","pricing_plan_id":"cebpf4jnsgd1na2vs0mg"},{"bike_id":"249e467e-cd07-4f2c-8bc4-d9a788062608","system_id":"levelo_inurba_marseille","lat":43.29301,"lon":5.37167,"is_reserved":false,"is_disabled":false,"rental_uris":{"android":"levelo://app?vid=249e467e-cd07-4f2c-8bc4-d9a788062608","ios":"levelo://app?vid=249e467e-cd07-4f2c-8bc4-d9a788062608"},"vehicle_type_id":"4","last_reported":1778273103,"current_range_meters":2800,"station_id":"ce4bgh92rcd13ifvqb40","pricing_plan_id":"cebpf4jnsgd1na2vs0mg"},{"bike_id":"caaea7e3-859e-4aeb-93b9-51331a41fe08","system_id":"levelo_inurba_marseille","lat":43.26843,"lon":5.40674,"is_reserved":false,"is_disabled":false,"rental_uris":{"android":"levelo://app?vid=caaea7e3-859e-4aeb-93b9-51331a41fe08","ios":"levelo://app?vid=caaea7e3-859e-4aeb-93b9-51331a41fe08"},"vehicle_type_id":"4","last_reported":1778273103,"current_range_meters":2800,"station_id":"","pricing_plan_id":"cebpf4jnsgd1na2vs0mg"},{"bike_id":"e8d7d69e-698a-4103-8a4b-f50bf44458b1","system_id":"levelo_inurba_marseille","lat":43.28416,"lon":5.37514,"is_reserved":false,"is_disabled":false,"rental_uris":{"android":"levelo://app?vid=e8d7d69e-698a-4103-8a4b-f50bf44458b1","ios":"levelo://app?vid=e8d7d69e-698a-4103-8a4b-f50bf44458b1"},"vehicle_type_id":"4","last_reported":1778273103,"current_range_meters":3200,"station_id":"ce4bh412rcd13ifvqds0","pricing_plan_id":"cebpf4jnsgd1na2vs0mg"},{"bike_id":"e5cb5ad4-b1b9-42fe-99d3-56794e9b8a58","system_id":"levelo_inurba_marseille","lat":43.25495,"lon":5.37649,"is_reserved":false,"is_disabled":false,"rental_uris":{"android":"levelo://app?vid=e5cb5ad4-b1b9-42fe-99d3-56794e9b8a58","ios":"levelo://app?vid=e5cb5ad4-b1b9-42fe-99d3-56794e9b8a58"},"vehicle_type_id":"4","last_reported":1778273103,"current_range_meters":3200,"station_id":"ce4bhh12rcd13ifvqff0","pricing_plan_id":"cebpf4jnsgd1na2vs0mg"},{"bike_id":"abf7ac8f-7bde-48a6-ac65-f746d6d3287d","system_id":"levelo_inurba_marseille","lat":43.27063,"lon":5.38749,"is_reserved":false,"is_disabled":false,"rental_uris":{"android":"levelo://app?vid=abf7ac8f-7bde-48a6-ac65-f746d6d3287d","ios":"levelo://app?vid=abf7ac8f-7bde-48a6-ac65-f746d6d3287d"},"vehicle_type_id":"4","last_reported":1778273103,"current_range_meters":3200,"station_id":"","pricing_plan_id":"cebpf4jnsgd1na2vs0mg"},{"bike_id":"b5668d4b-3344-4040-8830-5fbdb8dd1859","system_id":"levelo_inurba_marseille","lat":43.27184,"lon":5.39093,"is_reserved":false,"is_disabled":false,"rental_uris":{"android":"levelo://app?vid=b5668d4b-3344-4040-8830-5fbdb8dd1859","ios":"levelo://app?vid=b5668d4b-3344-4040-8830-5fbdb8dd1859"},"vehicle_type_id":"4","last_reported":1778273103,"current_range_meters":3200,"station_id":"","pricing_plan_id":"cebpf4jnsgd1na2vs0mg"},{"bike_id":"f902d35c-df71-4f64-8f4f-6029daca6db2","system_id":"levelo_inurba_marseille","lat":43.29181,"lon":5.37416,"is_reserved":false,"is_disabled":false,"rental_uris":{"android":"levelo://app?vid=f902d35c-df71-4f64-8f4f-6029daca6db2","ios":"levelo://app?vid=f902d35c-df71-4f64-8f4f-6029daca6db2"},"vehicle_type_id":"4","last_reported":1778273103,"current_range_meters":3200,"station_id":"","pricing_plan_id":"cebpf4jnsgd1na2vs0mg"},{"bike_id":"4def4baa-9377-4c6e-937b-0e1be7ea195b","system_id":"levelo_inurba_marseille","lat":43.30373,"lon":5.38582,"is_reserved":false,"is_disabled":false,"rental_uris":{"android":"levelo://app?vid=4def4baa-9377-4c6e-937b-0e1be7ea195b","ios":"levelo://app?vid=4def4baa-9377-4c6e-937b-0e1be7ea195b"},"vehicle_type_id":"4","last_reported":1778273103,"current_range_meters":3200,"station_id":"","pricing_plan_id":"cebpf4jnsgd1na2vs0mg"},{"bike_id":"642b74f5-7d90-40b8-952b-485c34c44d7c","system_id":"levelo_inurba_marseille","lat":43.29532,"lon":5.39406,"is_reserved":false,"is_disabled":false,"rental_uris":{"android":"levelo://app?vid=642b74f5-7d90-40b8-952b-485c34c44d7c","ios":"levelo://app?vid=642b74f5-7d90-40b8-952b-485c34c44d7c"},"vehicle_type_id":"4","last_reported":1778273103,"current_range_meters":3200,"station_id":"ce4bh292rcd13ifvqdf0","pricing_plan_id":"cebpf4jnsgd1na2vs0mg"},{"bike_id":"da0359eb-771b-4da3-8076-d03c95d36ca9","system_id":"levelo_inurba_marseille","lat":43.26889,"lon":5.3688,"is_reserved":false,"is_disabled":false,"rental_uris":{"android":"levelo://app?vid=da0359eb-771b-4da3-8076-d03c95d36ca9","ios":"levelo://app?vid=da0359eb-771b-4da3-8076-d03c95d36ca9"},"vehicle_type_id":"4","last_reported":1778273103,"current_range_meters":3200,"station_id":"","pricing_plan_id":"cebpf4jnsgd1na2vs0mg"},{"bike_id":"8092cdff-94c6-41a3-892c-47b089d25121","system_id":"levelo_inurba_marseille","lat":43.31282,"lon":5.41683,"is_reserved":false,"is_disabled":false,"rental_uris":{"android":"levelo://app?vid=8092cdff-94c6-41a3-892c-47b089d25121","ios":"levelo://app?vid=8092cdff-94c6-41a3-892c-47b089d25121"},"vehicle_type_id":"4","last_reported":1778273103,"current_range_meters":3200,"station_id":"","pricing_plan_id":"cebpf4jnsgd1na2vs0mg"},{"bike_id":"1ea95c18-3540-4e0d-a20b-fa39efbd9d6f","system_id":"levelo_inurba_marseille","lat":43.3251,"lon":5.38318,"is_reserved":false,"is_disabled":false,"rental_uris":{"android":"levelo://app?vid=1ea95c18-3540-4e0d-a20b-fa39efbd9d6f","ios":"levelo://app?vid=1ea95c18-3540-4e0d-a20b-fa39efbd9d6f"},"vehicle_type_id":"4","last_reported":1778273103,"current_range_meters":3600,"station_id":"st_d4asgbiv49dc73anf9m0","pricing_plan_id":"cebpf4jnsgd1na2vs0mg"},{"bike_id":"abb1fe8b-e05d-424d-b9a4-150661a231be","system_id":"levelo_inurba_marseille","lat":43.29023,"lon":5.38643,"is_reserved":false,"is_disabled":false,"rental_uris":{"android":"levelo://app?vid=abb1fe8b-e05d-424d-b9a4-150661a231be","ios":"levelo://app?vid=abb1fe8b-e05d-424d-b9a4-150661a231be"},"vehicle_type_id":"4","last_reported":1778273103,"current_range_meters":3600,"station_id":"ce4bh4p2rcd13ifvqe0g","pricing_plan_id":"cebpf4jnsgd1na2vs0mg"},{"bike_id":"5d4345e1-7e38-440a-b4b5-ef58575a187f","system_id":"levelo_inurba_marseille","lat":43.31047,"lon":5.37152,"is_reserved":false,"is_disabled":false,"rental_uris":{"android":"levelo://app?vid=5d4345e1-7e38-440a-b4b5-ef58575a187f","ios":"levelo://app?vid=5d4345e1-7e38-440a-b4b5-ef58575a187f"},"vehicle_type_id":"4","last_reported":1778273103,"current_range_meters":3600,"station_id":"st_d4kl2rp97mjs73e7tdfg","pricing_plan_id":"cebpf4jnsgd1na2vs0mg"},{"bike_id":"68042ed3-2899-44e5-be96-db2ed15455e6","system_id":"levelo_inurba_marseille","lat":43.27954,"lon":5.41027,"is_reserved":false,"is_disabled":false,"rental_uris":{"android":"levelo://app?vid=68042ed3-2899-44e5-be96-db2ed15455e6","ios":"levelo://app?vid=68042ed3-2899-44e5-be96-db2ed15455e6"},"vehicle_type_id":"4","last_reported":1778273103,"current_range_meters":3600,"station_id":"ce4bhnp2rcd13ifvqh0g","pricing_plan_id":"cebpf4jnsgd1na2vs0mg"},{"bike_id":"8a159931-83c3-4a29-b055-aff1c4667fef","system_id":"levelo_inurba_marseille","lat":43.33036,"lon":5.39042,"is_reserved":false,"is_disabled":false,"rental_uris":{"android":"levelo://app?vid=8a159931-83c3-4a29-b055-aff1c4667fef","ios":"levelo://app?vid=8a159931-83c3-4a29-b055-aff1c4667fef"},"vehicle_type_id":"4","last_reported":1778273103,"current_range_meters":3600,"station_id":"ce4bhr92rcd13ifvqhrg","pricing_plan_id":"cebpf4jnsgd1na2vs0mg"},{"bike_id":"d1965583-dcb5-4292-81a2-e52d5f84ef92","system_id":"levelo_inurba_marseille","lat":43.27391,"lon":5.36248,"is_reserved":false,"is_disabled":true,"rental_uris":{"android":"levelo://app?vid=d1965583-dcb5-4292-81a2-e52d5f84ef92","ios":"levelo://app?vid=d1965583-dcb5-4292-81a2-e52d5f84ef92"},"vehicle_type_id":"4","last_reported":1778273103,"current_range_meters":3600,"station_id":"ce4bhbh2rcd13ifvqeo0","pricing_plan_id":"cebpf4jnsgd1na2vs0mg"},{"bike_id":"9c98ee12-bcf5-4849-9f6e-2d72d58f327b","system_id":"levelo_inurba_marseille","lat":43.23052,"lon":5.35488,"is_reserved":false,"is_disabled":true,"rental_uris":{"android":"levelo://app?vid=9c98ee12-bcf5-4849-9f6e-2d72d58f327b","ios":"levelo://app?vid=9c98ee12-bcf5-4849-9f6e-2d72d58f327b"},"vehicle_type_id":"4","last_reported":1778273103,"current_range_meters":3600,"station_id":"cpo3342slgdg3j2ifvpg","pricing_plan_id":"cebpf4jnsgd1na2vs0mg"},{"bike_id":"4bad3751-7c40-4d62-ad3f-3511c8af294c","system_id":"levelo_inurba_marseille","lat":43.30882,"lon":5.39609,"is_reserved":false,"is_disabled":false,"rental_uris":{"android":"levelo://app?vid=4bad3751-7c40-4d62-ad3f-3511c8af294c","ios":"levelo://app?vid=4bad3751-7c40-4d62-ad3f-3511c8af294c"},"vehicle_type_id":"4","last_reported":1778273103,"current_range_meters":3600,"station_id":"ce4bh012rcd13ifvqcv0","pricing_plan_id":"cebpf4jnsgd1na2vs0mg"},{"bike_id":"7a79ee88-d745-42a7-a142-03781f666b89","system_id":"levelo_inurba_marseille","lat":43.323429,"lon":5.384886,"is_reserved":false,"is_disabled":false,"rental_uris":{"android":"levelo://app?vid=7a79ee88-d745-42a7-a142-03781f666b89","ios":"levelo://app?vid=7a79ee88-d745-42a7-a142-03781f666b89"},"vehicle_type_id":"4","last_reported":1778273103,"current_range_meters":3600,"station_id":"st_d45171o9ee8s73djdqug","pricing_plan_id":"cebpf4jnsgd1na2vs0mg"},{"bike_id":"2d4f8005-9215-48f0-aa13-44c564aee8c5","system_id":"levelo_inurba_marseille","lat":43.272,"lon":5.39161,"is_reserved":false,"is_disabled":false,"rental_uris":{"android":"levelo://app?vid=2d4f8005-9215-48f0-aa13-44c564aee8c5","ios":"levelo://app?vid=2d4f8005-9215-48f0-aa13-44c564aee8c5"},"vehicle_type_id":"4","last_reported":1778273103,"current_range_meters":3600,"station_id":"ce4bhhp2rcd13ifvqfm0","pricing_plan_id":"cebpf4jnsgd1na2vs0mg"},{"bike_id":"b7747a29-4ab9-4600-99c2-c1555eceffb1","system_id":"levelo_inurba_marseille","lat":43.30914,"lon":5.38278,"is_reserved":false,"is_disabled":false,"rental_uris":{"android":"levelo://app?vid=b7747a29-4ab9-4600-99c2-c1555eceffb1","ios":"levelo://app?vid=b7747a29-4ab9-4600-99c2-c1555eceffb1"},"vehicle_type_id":"4","last_reported":1778273103,"current_range_meters":3600,"station_id":"","pricing_plan_id":"cebpf4jnsgd1na2vs0mg"},{"bike_id":"52a8b298-385e-421b-bad3-a0adadf4af7e","system_id":"levelo_inurba_marseille","lat":43.27307,"lon":5.39072,"is_reserved":false,"is_disabled":false,"rental_uris":{"android":"levelo://app?vid=52a8b298-385e-421b-bad3-a0adadf4af7e","ios":"levelo://app?vid=52a8b298-385e-421b-bad3-a0adadf4af7e"},"vehicle_type_id":"4","last_reported":1778273103,"current_range_meters":3600,"station_id":"ce4bhgp2rcd13ifvqfe0","pricing_plan_id":"cebpf4jnsgd1na2vs0mg"},{"bike_id":"c21715f7-94af-4eec-9ebd-466e92890cb6","system_id":"levelo_inurba_marseille","lat":43.26558,"lon":5.390463,"is_reserved":false,"is_disabled":false,"rental_uris":{"android":"levelo://app?vid=c21715f7-94af-4eec-9ebd-466e92890cb6","ios":"levelo://app?vid=c21715f7-94af-4eec-9ebd-466e92890cb6"},"vehicle_type_id":"4","last_reported":1778273103,"current_range_meters":3600,"station_id":"ce4bhe12rcd13ifvqf30","pricing_plan_id":"cebpf4jnsgd1na2vs0mg"},{"bike_id":"f8430446-7d85-46a8-8125-34f5eb0c4b59","system_id":"levelo_inurba_marseille","lat":43.24851,"lon":5.37426,"is_reserved":false,"is_disabled":false,"rental_uris":{"android":"levelo://app?vid=f8430446-7d85-46a8-8125-34f5eb0c4b59","ios":"levelo://app?vid=f8430446-7d85-46a8-8125-34f5eb0c4b59"},"vehicle_type_id":"4","last_reported":1778273103,"current_range_meters":4000,"station_id":"","pricing_plan_id":"cebpf4jnsgd1na2vs0mg"},{"bike_id":"34be596a-bf82-477b-a07e-6719d261a47e","system_id":"levelo_inurba_marseille","lat":43.25097,"lon":5.39509,"is_reserved":false,"is_disabled":false,"rental_uris":{"android":"levelo://app?vid=34be596a-bf82-477b-a07e-6719d261a47e","ios":"levelo://app?vid=34be596a-bf82-477b-a07e-6719d261a47e"},"vehicle_type_id":"4","last_reported":1778273103,"current_range_meters":4000,"station_id":"ce4bhm12rcd13ifvqgkg","pricing_plan_id":"cebpf4jnsgd1na2vs0mg"},{"bike_id":"a6e522e7-ce32-4d34-9777-be93405ad60b","system_id":"levelo_inurba_marseille","lat":43.32506,"lon":5.38314,"is_reserved":false,"is_disabled":false,"rental_uris":{"android":"levelo://app?vid=a6e522e7-ce32-4d34-9777-be93405ad60b","ios":"levelo://app?vid=a6e522e7-ce32-4d34-9777-be93405ad60b"},"vehicle_type_id":"4","last_reported":1778273103,"current_range_meters":4000,"station_id":"st_d4asgbiv49dc73anf9m0","pricing_plan_id":"cebpf4jnsgd1na2vs0mg"},{"bike_id":"64984bc3-db7c-4394-a739-9540c39fe4ed","system_id":"levelo_inurba_marseille","lat":43.28954,"lon":5.35931,"is_reserved":false,"is_disabled":true,"rental_uris":{"android":"levelo://app?vid=64984bc3-db7c-4394-a739-9540c39fe4ed","ios":"levelo://app?vid=64984bc3-db7c-4394-a739-9540c39fe4ed"},"vehicle_type_id":"4","last_reported":1778273103,"current_range_meters":4000,"station_id":"","pricing_plan_id":"cebpf4jnsgd1na2vs0mg"},{"bike_id":"6246a765-b778-462f-b922-b84d59bc552c","system_id":"levelo_inurba_marseille","lat":43.244321,"lon":5.371599,"is_reserved":false,"is_disabled":false,"rental_uris":{"android":"levelo://app?vid=6246a765-b778-462f-b922-b84d59bc552c","ios":"levelo://app?vid=6246a765-b778-462f-b922-b84d59bc552c"},"vehicle_type_id":"4","last_reported":1778273103,"current_range_meters":4000,"station_id":"ce4bhhh2rcd13ifvqfk0","pricing_plan_id":"cebpf4jnsgd1na2vs0mg"},{"bike_id":"d44cc199-235c-403d-ae58-3d4a17f3de38","system_id":"levelo_inurba_marseille","lat":43.27672,"lon":5.38881,"is_reserved":false,"is_disabled":false,"rental_uris":{"android":"levelo://app?vid=d44cc199-235c-403d-ae58-3d4a17f3de38","ios":"levelo://app?vid=d44cc199-235c-403d-ae58-3d4a17f3de38"},"vehicle_type_id":"4","last_reported":1778273103,"current_range_meters":4000,"station_id":"ce4bhi12rcd13ifvqfo0","pricing_plan_id":"cebpf4jnsgd1na2vs0mg"},{"bike_id":"c8cfc10f-ea34-4155-ac7f-9b531f0b9b22","system_id":"levelo_inurba_marseille","lat":43.26394,"lon":5.4228,"is_reserved":false,"is_disabled":false,"rental_uris":{"android":"levelo://app?vid=c8cfc10f-ea34-4155-ac7f-9b531f0b9b22","ios":"levelo://app?vid=c8cfc10f-ea34-4155-ac7f-9b531f0b9b22"},"vehicle_type_id":"4","last_reported":1778273103,"current_range_meters":4000,"station_id":"","pricing_plan_id":"cebpf4jnsgd1na2vs0mg"},{"bike_id":"8cd38efa-d08a-454a-b907-b2a17c95ddcb","system_id":"levelo_inurba_marseille","lat":43.30211,"lon":5.3659,"is_reserved":false,"is_disabled":false,"rental_uris":{"android":"levelo://app?vid=8cd38efa-d08a-454a-b907-b2a17c95ddcb","ios":"levelo://app?vid=8cd38efa-d08a-454a-b907-b2a17c95ddcb"},"vehicle_type_id":"4","last_reported":1778273103,"current_range_meters":4400,"station_id":"ce4bgrh2rcd13ifvqc8g","pricing_plan_id":"cebpf4jnsgd1na2vs0mg"},{"bike_id":"35eecacd-8717-4dc7-ab5f-028d4ac43e21","system_id":"levelo_inurba_marseille","lat":43.28433,"lon":5.34971,"is_reserved":false,"is_disabled":true,"rental_uris":{"android":"levelo://app?vid=35eecacd-8717-4dc7-ab5f-028d4ac43e21","ios":"levelo://app?vid=35eecacd-8717-4dc7-ab5f-028d4ac43e21"},"vehicle_type_id":"4","last_reported":1778273103,"current_range_meters":4400,"station_id":"ce4bhbh2rcd13ifvqepg","pricing_plan_id":"cebpf4jnsgd1na2vs0mg"},{"bike_id":"a6c92a23-857a-42e9-b822-95035aaa7d37","system_id":"levelo_inurba_marseille","lat":43.31889,"lon":5.36814,"is_reserved":false,"is_disabled":false,"rental_uris":{"android":"levelo://app?vid=a6c92a23-857a-42e9-b822-95035aaa7d37","ios":"levelo://app?vid=a6c92a23-857a-42e9-b822-95035aaa7d37"},"vehicle_type_id":"4","last_reported":1778273103,"current_range_meters":4400,"station_id":"st_d6o2h0d0559c73evc1b0","pricing_plan_id":"cebpf4jnsgd1na2vs0mg"},{"bike_id":"78603c2e-11b9-4397-9e69-0d2887e5cdd7","system_id":"levelo_inurba_marseille","lat":43.33154,"lon":5.37688,"is_reserved":false,"is_disabled":false,"rental_uris":{"android":"levelo://app?vid=78603c2e-11b9-4397-9e69-0d2887e5cdd7","ios":"levelo://app?vid=78603c2e-11b9-4397-9e69-0d2887e5cdd7"},"vehicle_type_id":"4","last_reported":1778273103,"current_range_meters":4400,"station_id":"st_d46cu089ee8s73dldbu0","pricing_plan_id":"cebpf4jnsgd1na2vs0mg"},{"bike_id":"78df139b-7ece-40c9-97a8-bcf0eed69b17","system_id":"levelo_inurba_marseille","lat":43.29898,"lon":5.43663,"is_reserved":false,"is_disabled":false,"rental_uris":{"android":"levelo://app?vid=78df139b-7ece-40c9-97a8-bcf0eed69b17","ios":"levelo://app?vid=78df139b-7ece-40c9-97a8-bcf0eed69b17"},"vehicle_type_id":"4","last_reported":1778273103,"current_range_meters":4400,"station_id":"ce4bhpp2rcd13ifvqhfg","pricing_plan_id":"cebpf4jnsgd1na2vs0mg"},{"bike_id":"7ebded6a-b44e-4b27-9624-d27cf666a3c2","system_id":"levelo_inurba_marseille","lat":43.26178,"lon":5.37044,"is_reserved":false,"is_disabled":false,"rental_uris":{"android":"levelo://app?vid=7ebded6a-b44e-4b27-9624-d27cf666a3c2","ios":"levelo://app?vid=7ebded6a-b44e-4b27-9624-d27cf666a3c2"},"vehicle_type_id":"4","last_reported":1778273103,"current_range_meters":4400,"station_id":"","pricing_plan_id":"cebpf4jnsgd1na2vs0mg"},{"bike_id":"eb2d00c4-5eee-4f74-8af9-14e5029fda21","system_id":"levelo_inurba_marseille","lat":43.30257,"lon":5.38055,"is_reserved":false,"is_disabled":true,"rental_uris":{"android":"levelo://app?vid=eb2d00c4-5eee-4f74-8af9-14e5029fda21","ios":"levelo://app?vid=eb2d00c4-5eee-4f74-8af9-14e5029fda21"},"vehicle_type_id":"4","last_reported":1778273103,"current_range_meters":4400,"station_id":"","pricing_plan_id":"cebpf4jnsgd1na2vs0mg"},{"bike_id":"8d410676-d39c-4ad0-80a6-19831c64da18","system_id":"levelo_inurba_marseille","lat":43.24627,"lon":5.38899,"is_reserved":false,"is_disabled":false,"rental_uris":{"android":"levelo://app?vid=8d410676-d39c-4ad0-80a6-19831c64da18","ios":"levelo://app?vid=8d410676-d39c-4ad0-80a6-19831c64da18"},"vehicle_type_id":"4","last_reported":1778273103,"current_range_meters":4400,"station_id":"ce4bhg12rcd13ifvqf60","pricing_plan_id":"cebpf4jnsgd1na2vs0mg"},{"bike_id":"f9a11dbb-1df1-4c63-8494-54fe9fac78cb","system_id":"levelo_inurba_marseille","lat":43.2808,"lon":5.34798,"is_reserved":false,"is_disabled":false,"rental_uris":{"android":"levelo://app?vid=f9a11dbb-1df1-4c63-8494-54fe9fac78cb","ios":"levelo://app?vid=f9a11dbb-1df1-4c63-8494-54fe9fac78cb"},"vehicle_type_id":"4","last_reported":1778273103,"current_range_meters":4400,"station_id":"","pricing_plan_id":"cebpf4jnsgd1na2vs0mg"},{"bike_id":"8a863427-84b9-4db9-955e-145c1c0e63b3","system_id":"levelo_inurba_marseille","lat":43.27683,"lon":5.38876,"is_reserved":false,"is_disabled":false,"rental_uris":{"android":"levelo://app?vid=8a863427-84b9-4db9-955e-145c1c0e63b3","ios":"levelo://app?vid=8a863427-84b9-4db9-955e-145c1c0e63b3"},"vehicle_type_id":"4","last_reported":1778273103,"current_range_meters":4400,"station_id":"ce4bhi12rcd13ifvqfo0","pricing_plan_id":"cebpf4jnsgd1na2vs0mg"},{"bike_id":"acda420d-c0c2-4021-b9df-ca6acbade99f","system_id":"levelo_inurba_marseille","lat":43.28932,"lon":5.39629,"is_reserved":false,"is_disabled":true,"rental_uris":{"android":"levelo://app?vid=acda420d-c0c2-4021-b9df-ca6acbade99f","ios":"levelo://app?vid=acda420d-c0c2-4021-b9df-ca6acbade99f"},"vehicle_type_id":"4","last_reported":1778273103,"current_range_meters":4400,"station_id":"ce4bh3h2rcd13ifvqdn0","pricing_plan_id":"cebpf4jnsgd1na2vs0mg"},{"bike_id":"eeb04d14-cdbb-4890-b1e2-bf47c2dd880e","system_id":"levelo_inurba_marseille","lat":43.2884,"lon":5.39321,"is_reserved":false,"is_disabled":false,"rental_uris":{"android":"levelo://app?vid=eeb04d14-cdbb-4890-b1e2-bf47c2dd880e","ios":"levelo://app?vid=eeb04d14-cdbb-4890-b1e2-bf47c2dd880e"},"vehicle_type_id":"4","last_reported":1778273103,"current_range_meters":4400,"station_id":"ce4bh2p2rcd13ifvqdi0","pricing_plan_id":"cebpf4jnsgd1na2vs0mg"},{"bike_id":"1ddc1113-73b7-4315-8e19-72e8d59e47ee","system_id":"levelo_inurba_marseille","lat":43.30119,"lon":5.38429,"is_reserved":false,"is_disabled":false,"rental_uris":{"android":"levelo://app?vid=1ddc1113-73b7-4315-8e19-72e8d59e47ee","ios":"levelo://app?vid=1ddc1113-73b7-4315-8e19-72e8d59e47ee"},"vehicle_type_id":"4","last_reported":1778273103,"current_range_meters":4400,"station_id":"","pricing_plan_id":"cebpf4jnsgd1na2vs0mg"},{"bike_id":"26808864-edd9-48ef-b4f9-6a35d8d7c7ef","system_id":"levelo_inurba_marseille","lat":43.23965,"lon":5.36631,"is_reserved":false,"is_disabled":true,"rental_uris":{"android":"levelo://app?vid=26808864-edd9-48ef-b4f9-6a35d8d7c7ef","ios":"levelo://app?vid=26808864-edd9-48ef-b4f9-6a35d8d7c7ef"},"vehicle_type_id":"4","last_reported":1778273103,"current_range_meters":4400,"station_id":"ce4bhi12rcd13ifvqfp0","pricing_plan_id":"cebpf4jnsgd1na2vs0mg"},{"bike_id":"756d5b7c-7767-4b46-a4f7-9c50ddf81634","system_id":"levelo_inurba_marseille","lat":43.29968,"lon":5.384953,"is_reserved":false,"is_disabled":false,"rental_uris":{"android":"levelo://app?vid=756d5b7c-7767-4b46-a4f7-9c50ddf81634","ios":"levelo://app?vid=756d5b7c-7767-4b46-a4f7-9c50ddf81634"},"vehicle_type_id":"4","last_reported":1778273103,"current_range_meters":4400,"station_id":"ce4bgj92rcd13ifvqbd0","pricing_plan_id":"cebpf4jnsgd1na2vs0mg"},{"bike_id":"22540de7-8630-43e4-a5f4-94906185db58","system_id":"levelo_inurba_marseille","lat":43.2864,"lon":5.35089,"is_reserved":false,"is_disabled":true,"rental_uris":{"android":"levelo://app?vid=22540de7-8630-43e4-a5f4-94906185db58","ios":"levelo://app?vid=22540de7-8630-43e4-a5f4-94906185db58"},"vehicle_type_id":"4","last_reported":1778273103,"current_range_meters":4400,"station_id":"ce4bhch2rcd13ifvqeug","pricing_plan_id":"cebpf4jnsgd1na2vs0mg"},{"bike_id":"ae15c2d1-b79c-472a-aa23-dbd2b063bdad","system_id":"levelo_inurba_marseille","lat":43.25294,"lon":5.39284,"is_reserved":false,"is_disabled":false,"rental_uris":{"android":"levelo://app?vid=ae15c2d1-b79c-472a-aa23-dbd2b063bdad","ios":"levelo://app?vid=ae15c2d1-b79c-472a-aa23-dbd2b063bdad"},"vehicle_type_id":"4","last_reported":1778273103,"current_range_meters":4400,"station_id":"","pricing_plan_id":"cebpf4jnsgd1na2vs0mg"},{"bike_id":"7ac272f1-93d7-437e-a7ad-9515e3c575bb","system_id":"levelo_inurba_marseille","lat":43.29295,"lon":5.35786,"is_reserved":false,"is_disabled":false,"rental_uris":{"android":"levelo://app?vid=7ac272f1-93d7-437e-a7ad-9515e3c575bb","ios":"levelo://app?vid=7ac272f1-93d7-437e-a7ad-9515e3c575bb"},"vehicle_type_id":"4","last_reported":1778273103,"current_range_meters":4400,"station_id":"","pricing_plan_id":"cebpf4jnsgd1na2vs0mg"},{"bike_id":"e1a4bc9c-2b17-4cd4-ae3a-8bba25124636","system_id":"levelo_inurba_marseille","lat":43.29625,"lon":5.37153,"is_reserved":false,"is_disabled":false,"rental_uris":{"android":"levelo://app?vid=e1a4bc9c-2b17-4cd4-ae3a-8bba25124636","ios":"levelo://app?vid=e1a4bc9c-2b17-4cd4-ae3a-8bba25124636"},"vehicle_type_id":"4","last_reported":1778273103,"current_range_meters":4400,"station_id":"ce4bgnh2rcd13ifvqc0g","pricing_plan_id":"cebpf4jnsgd1na2vs0mg"},{"bike_id":"fdb3eb75-e9f8-45ee-ac06-846003caea46","system_id":"levelo_inurba_marseille","lat":43.29526,"lon":5.39398,"is_reserved":false,"is_disabled":false,"rental_uris":{"android":"levelo://app?vid=fdb3eb75-e9f8-45ee-ac06-846003caea46","ios":"levelo://app?vid=fdb3eb75-e9f8-45ee-ac06-846003caea46"},"vehicle_type_id":"4","last_reported":1778273103,"current_range_meters":4400,"station_id":"ce4bh292rcd13ifvqdf0","pricing_plan_id":"cebpf4jnsgd1na2vs0mg"},{"bike_id":"79528d5b-05a7-48e7-9ccf-eb3dcf2a91b1","system_id":"levelo_inurba_marseille","lat":43.26185,"lon":5.37455,"is_reserved":false,"is_disabled":true,"rental_uris":{"android":"levelo://app?vid=79528d5b-05a7-48e7-9ccf-eb3dcf2a91b1","ios":"levelo://app?vid=79528d5b-05a7-48e7-9ccf-eb3dcf2a91b1"},"vehicle_type_id":"4","last_reported":1778273103,"current_range_meters":4800,"station_id":"ce4bhgp2rcd13ifvqfc0","pricing_plan_id":"cebpf4jnsgd1na2vs0mg"},{"bike_id":"87b795a1-ce25-4a5d-93cc-8b4172781bb7","system_id":"levelo_inurba_marseille","lat":43.28866,"lon":5.42519,"is_reserved":false,"is_disabled":false,"rental_uris":{"android":"levelo://app?vid=87b795a1-ce25-4a5d-93cc-8b4172781bb7","ios":"levelo://app?vid=87b795a1-ce25-4a5d-93cc-8b4172781bb7"},"vehicle_type_id":"4","last_reported":1778273103,"current_range_meters":4800,"station_id":"st_d3b462108ojc7389ooeg","pricing_plan_id":"cebpf4jnsgd1na2vs0mg"},{"bike_id":"be4270c6-aac0-474c-8ec5-e008fdfb68dd","system_id":"levelo_inurba_marseille","lat":43.24649,"lon":5.38884,"is_reserved":false,"is_disabled":false,"rental_uris":{"android":"levelo://app?vid=be4270c6-aac0-474c-8ec5-e008fdfb68dd","ios":"levelo://app?vid=be4270c6-aac0-474c-8ec5-e008fdfb68dd"},"vehicle_type_id":"4","last_reported":1778273103,"current_range_meters":4800,"station_id":"ce4bhg12rcd13ifvqf60","pricing_plan_id":"cebpf4jnsgd1na2vs0mg"},{"bike_id":"aea1a9e6-2a9b-4cba-bf25-1488f9d8a686","system_id":"levelo_inurba_marseille","lat":43.32502,"lon":5.38295,"is_reserved":false,"is_disabled":false,"rental_uris":{"android":"levelo://app?vid=aea1a9e6-2a9b-4cba-bf25-1488f9d8a686","ios":"levelo://app?vid=aea1a9e6-2a9b-4cba-bf25-1488f9d8a686"},"vehicle_type_id":"4","last_reported":1778273103,"current_range_meters":4800,"station_id":"st_d4asgbiv49dc73anf9m0","pricing_plan_id":"cebpf4jnsgd1na2vs0mg"},{"bike_id":"3c448e94-09fa-4e14-bfed-9eae4cc96d57","system_id":"levelo_inurba_marseille","lat":43.31434,"lon":5.37389,"is_reserved":false,"is_disabled":false,"rental_uris":{"android":"levelo://app?vid=3c448e94-09fa-4e14-bfed-9eae4cc96d57","ios":"levelo://app?vid=3c448e94-09fa-4e14-bfed-9eae4cc96d57"},"vehicle_type_id":"4","last_reported":1778273103,"current_range_meters":4800,"station_id":"","pricing_plan_id":"cebpf4jnsgd1na2vs0mg"},{"bike_id":"79a19373-22a0-4ce0-b42b-1e3723f89e81","system_id":"levelo_inurba_marseille","lat":43.30362,"lon":5.42463,"is_reserved":false,"is_disabled":false,"rental_uris":{"android":"levelo://app?vid=79a19373-22a0-4ce0-b42b-1e3723f89e81","ios":"levelo://app?vid=79a19373-22a0-4ce0-b42b-1e3723f89e81"},"vehicle_type_id":"4","last_reported":1778273103,"current_range_meters":4800,"station_id":"ce4bhoh2rcd13ifvqh6g","pricing_plan_id":"cebpf4jnsgd1na2vs0mg"},{"bike_id":"262961ba-b551-4847-9288-bf145c2178d8","system_id":"levelo_inurba_marseille","lat":43.24182,"lon":5.3973,"is_reserved":false,"is_disabled":false,"rental_uris":{"android":"levelo://app?vid=262961ba-b551-4847-9288-bf145c2178d8","ios":"levelo://app?vid=262961ba-b551-4847-9288-bf145c2178d8"},"vehicle_type_id":"4","last_reported":1778273103,"current_range_meters":4800,"station_id":"ce4bhn12rcd13ifvqgpg","pricing_plan_id":"cebpf4jnsgd1na2vs0mg"},{"bike_id":"78bfcf6a-8002-47c3-bd0a-fd7693c617bf","system_id":"levelo_inurba_marseille","lat":43.26572,"lon":5.3904,"is_reserved":false,"is_disabled":false,"rental_uris":{"android":"levelo://app?vid=78bfcf6a-8002-47c3-bd0a-fd7693c617bf","ios":"levelo://app?vid=78bfcf6a-8002-47c3-bd0a-fd7693c617bf"},"vehicle_type_id":"4","last_reported":1778273103,"current_range_meters":4800,"station_id":"ce4bhe12rcd13ifvqf30","pricing_plan_id":"cebpf4jnsgd1na2vs0mg"},{"bike_id":"1aa9eb6b-bb15-4f07-bbae-d1f55f5875cc","system_id":"levelo_inurba_marseille","lat":43.29976,"lon":5.37175,"is_reserved":false,"is_disabled":false,"rental_uris":{"android":"levelo://app?vid=1aa9eb6b-bb15-4f07-bbae-d1f55f5875cc","ios":"levelo://app?vid=1aa9eb6b-bb15-4f07-bbae-d1f55f5875cc"},"vehicle_type_id":"4","last_reported":1778273103,"current_range_meters":4800,"station_id":"ce4bgr92rcd13ifvqc7g","pricing_plan_id":"cebpf4jnsgd1na2vs0mg"},{"bike_id":"9d19633a-09dc-421b-9646-d96c48669e07","system_id":"levelo_inurba_marseille","lat":43.24178,"lon":5.39717,"is_reserved":false,"is_disabled":false,"rental_uris":{"android":"levelo://app?vid=9d19633a-09dc-421b-9646-d96c48669e07","ios":"levelo://app?vid=9d19633a-09dc-421b-9646-d96c48669e07"},"vehicle_type_id":"4","last_reported":1778273103,"current_range_meters":4800,"station_id":"ce4bhn12rcd13ifvqgpg","pricing_plan_id":"cebpf4jnsgd1na2vs0mg"},{"bike_id":"96af8225-7e4d-4679-bb9c-8f4e9200abdc","system_id":"levelo_inurba_marseille","lat":43.28609,"lon":5.3987,"is_reserved":false,"is_disabled":false,"rental_uris":{"android":"levelo://app?vid=96af8225-7e4d-4679-bb9c-8f4e9200abdc","ios":"levelo://app?vid=96af8225-7e4d-4679-bb9c-8f4e9200abdc"},"vehicle_type_id":"4","last_reported":1778273103,"current_range_meters":4800,"station_id":"st_d4a7ka997mjs738ck50g","pricing_plan_id":"cebpf4jnsgd1na2vs0mg"},{"bike_id":"601984ab-7546-4bb8-ac20-314dd308700f","system_id":"levelo_inurba_marseille","lat":43.28409,"lon":5.37517,"is_reserved":false,"is_disabled":false,"rental_uris":{"android":"levelo://app?vid=601984ab-7546-4bb8-ac20-314dd308700f","ios":"levelo://app?vid=601984ab-7546-4bb8-ac20-314dd308700f"},"vehicle_type_id":"4","last_reported":1778273103,"current_range_meters":4800,"station_id":"ce4bh412rcd13ifvqds0","pricing_plan_id":"cebpf4jnsgd1na2vs0mg"},{"bike_id":"1af929a3-d7ae-4793-9014-9bb652d08d01","system_id":"levelo_inurba_marseille","lat":43.31175,"lon":5.38702,"is_reserved":false,"is_disabled":false,"rental_uris":{"android":"levelo://app?vid=1af929a3-d7ae-4793-9014-9bb652d08d01","ios":"levelo://app?vid=1af929a3-d7ae-4793-9014-9bb652d08d01"},"vehicle_type_id":"4","last_reported":1778273103,"current_range_meters":4800,"station_id":"ce4bgv12rcd13ifvqcp0","pricing_plan_id":"cebpf4jnsgd1na2vs0mg"},{"bike_id":"4ccd5da0-a12e-44e8-96b2-2000ba97563f","system_id":"levelo_inurba_marseille","lat":43.295949,"lon":5.386119,"is_reserved":false,"is_disabled":false,"rental_uris":{"android":"levelo://app?vid=4ccd5da0-a12e-44e8-96b2-2000ba97563f","ios":"levelo://app?vid=4ccd5da0-a12e-44e8-96b2-2000ba97563f"},"vehicle_type_id":"4","last_reported":1778273103,"current_range_meters":4800,"station_id":"ce4bh292rcd13ifvqdf0","pricing_plan_id":"cebpf4jnsgd1na2vs0mg"},{"bike_id":"d29fcc99-ea09-486d-9541-3278f80f2d05","system_id":"levelo_inurba_marseille","lat":43.28868,"lon":5.42514,"is_reserved":false,"is_disabled":false,"rental_uris":{"android":"levelo://app?vid=d29fcc99-ea09-486d-9541-3278f80f2d05","ios":"levelo://app?vid=d29fcc99-ea09-486d-9541-3278f80f2d05"},"vehicle_type_id":"4","last_reported":1778273103,"current_range_meters":4800,"station_id":"st_d3b462108ojc7389ooeg","pricing_plan_id":"cebpf4jnsgd1na2vs0mg"},{"bike_id":"139fafbd-1b7e-43be-b9c7-de867d9ec84e","system_id":"levelo_inurba_marseille","lat":43.23199,"lon":5.39971,"is_reserved":false,"is_disabled":false,"rental_uris":{"android":"levelo://app?vid=139fafbd-1b7e-43be-b9c7-de867d9ec84e","ios":"levelo://app?vid=139fafbd-1b7e-43be-b9c7-de867d9ec84e"},"vehicle_type_id":"4","last_reported":1778273103,"current_range_meters":4800,"station_id":"ce4bhn12rcd13ifvqgqg","pricing_plan_id":"cebpf4jnsgd1na2vs0mg"},{"bike_id":"74554dcd-7251-4ce2-ab05-9023df6c8413","system_id":"levelo_inurba_marseille","lat":43.28869,"lon":5.42526,"is_reserved":false,"is_disabled":false,"rental_uris":{"android":"levelo://app?vid=74554dcd-7251-4ce2-ab05-9023df6c8413","ios":"levelo://app?vid=74554dcd-7251-4ce2-ab05-9023df6c8413"},"vehicle_type_id":"4","last_reported":1778273103,"current_range_meters":5600,"station_id":"st_d3b462108ojc7389ooeg","pricing_plan_id":"cebpf4jnsgd1na2vs0mg"},{"bike_id":"55bedc64-17a5-4afa-ad4c-272f0417b352","system_id":"levelo_inurba_marseille","lat":43.28883,"lon":5.42526,"is_reserved":false,"is_disabled":false,"rental_uris":{"android":"levelo://app?vid=55bedc64-17a5-4afa-ad4c-272f0417b352","ios":"levelo://app?vid=55bedc64-17a5-4afa-ad4c-272f0417b352"},"vehicle_type_id":"4","last_reported":1778273103,"current_range_meters":5600,"station_id":"st_d3b462108ojc7389ooeg","pricing_plan_id":"cebpf4jnsgd1na2vs0mg"},{"bike_id":"43b9c369-eec7-4801-b65c-0c3b3c87bd4f","system_id":"levelo_inurba_marseille","lat":43.33547,"lon":5.37467,"is_reserved":false,"is_disabled":false,"rental_uris":{"android":"levelo://app?vid=43b9c369-eec7-4801-b65c-0c3b3c87bd4f","ios":"levelo://app?vid=43b9c369-eec7-4801-b65c-0c3b3c87bd4f"},"vehicle_type_id":"4","last_reported":1778273103,"current_range_meters":5600,"station_id":"st_d46tts09ee8s73dlu43g","pricing_plan_id":"cebpf4jnsgd1na2vs0mg"},{"bike_id":"29c47587-f18b-42f0-8cfc-38dfdf722184","system_id":"levelo_inurba_marseille","lat":43.29953,"lon":5.38252,"is_reserved":false,"is_disabled":false,"rental_uris":{"android":"levelo://app?vid=29c47587-f18b-42f0-8cfc-38dfdf722184","ios":"levelo://app?vid=29c47587-f18b-42f0-8cfc-38dfdf722184"},"vehicle_type_id":"4","last_reported":1778273103,"current_range_meters":5600,"station_id":"","pricing_plan_id":"cebpf4jnsgd1na2vs0mg"},{"bike_id":"c59e1bd6-ece3-4e94-9308-3c08876ef280","system_id":"levelo_inurba_marseille","lat":43.26507,"lon":5.38946,"is_reserved":false,"is_disabled":false,"rental_uris":{"android":"levelo://app?vid=c59e1bd6-ece3-4e94-9308-3c08876ef280","ios":"levelo://app?vid=c59e1bd6-ece3-4e94-9308-3c08876ef280"},"vehicle_type_id":"4","last_reported":1778273103,"current_range_meters":5600,"station_id":"","pricing_plan_id":"cebpf4jnsgd1na2vs0mg"},{"bike_id":"0da4e297-632d-4596-b2f8-61beaff0fbb5","system_id":"levelo_inurba_marseille","lat":43.29588,"lon":5.38101,"is_reserved":false,"is_disabled":false,"rental_uris":{"android":"levelo://app?vid=0da4e297-632d-4596-b2f8-61beaff0fbb5","ios":"levelo://app?vid=0da4e297-632d-4596-b2f8-61beaff0fbb5"},"vehicle_type_id":"4","last_reported":1778273103,"current_range_meters":5600,"station_id":"ce4bgl12rcd13ifvqbo0","pricing_plan_id":"cebpf4jnsgd1na2vs0mg"},{"bike_id":"9fc3ad02-9e4b-415c-b794-e4b6e4c1e878","system_id":"levelo_inurba_marseille","lat":43.29846,"lon":5.36278,"is_reserved":false,"is_disabled":false,"rental_uris":{"android":"levelo://app?vid=9fc3ad02-9e4b-415c-b794-e4b6e4c1e878","ios":"levelo://app?vid=9fc3ad02-9e4b-415c-b794-e4b6e4c1e878"},"vehicle_type_id":"4","last_reported":1778273103,"current_range_meters":5600,"station_id":"ce4bgpp2rcd13ifvqc3g","pricing_plan_id":"cebpf4jnsgd1na2vs0mg"},{"bike_id":"cad8673d-663b-4a28-a1ef-68715a1377a7","system_id":"levelo_inurba_marseille","lat":43.299773,"lon":5.371813,"is_reserved":false,"is_disabled":false,"rental_uris":{"android":"levelo://app?vid=cad8673d-663b-4a28-a1ef-68715a1377a7","ios":"levelo://app?vid=cad8673d-663b-4a28-a1ef-68715a1377a7"},"vehicle_type_id":"4","last_reported":1778273103,"current_range_meters":5600,"station_id":"ce4bgr92rcd13ifvqc7g","pricing_plan_id":"cebpf4jnsgd1na2vs0mg"},{"bike_id":"4125fd02-174e-4112-a7f0-b89d558864b9","system_id":"levelo_inurba_marseille","lat":43.25561,"lon":5.3824,"is_reserved":false,"is_disabled":true,"rental_uris":{"android":"levelo://app?vid=4125fd02-174e-4112-a7f0-b89d558864b9","ios":"levelo://app?vid=4125fd02-174e-4112-a7f0-b89d558864b9"},"vehicle_type_id":"4","last_reported":1778273103,"current_range_meters":5600,"station_id":"ce4bhih2rcd13ifvqfs0","pricing_plan_id":"cebpf4jnsgd1na2vs0mg"},{"bike_id":"0be0ac8c-df9f-47ed-89af-0ca4b350e9f9","system_id":"levelo_inurba_marseille","lat":43.25118,"lon":5.40319,"is_reserved":false,"is_disabled":false,"rental_uris":{"android":"levelo://app?vid=0be0ac8c-df9f-47ed-89af-0ca4b350e9f9","ios":"levelo://app?vid=0be0ac8c-df9f-47ed-89af-0ca4b350e9f9"},"vehicle_type_id":"4","last_reported":1778273103,"current_range_meters":5600,"station_id":"ce4bhlh2rcd13ifvqgig","pricing_plan_id":"cebpf4jnsgd1na2vs0mg"},{"bike_id":"4292e8ce-e1a6-4a8f-a403-35f7f77e0e07","system_id":"levelo_inurba_marseille","lat":43.28402,"lon":5.37498,"is_reserved":false,"is_disabled":false,"rental_uris":{"android":"levelo://app?vid=4292e8ce-e1a6-4a8f-a403-35f7f77e0e07","ios":"levelo://app?vid=4292e8ce-e1a6-4a8f-a403-35f7f77e0e07"},"vehicle_type_id":"4","last_reported":1778273103,"current_range_meters":5600,"station_id":"ce4bh412rcd13ifvqds0","pricing_plan_id":"cebpf4jnsgd1na2vs0mg"},{"bike_id":"758c8ce9-535b-4800-93d7-846bd85146e6","system_id":"levelo_inurba_marseille","lat":43.24947,"lon":5.40494,"is_reserved":false,"is_disabled":false,"rental_uris":{"android":"levelo://app?vid=758c8ce9-535b-4800-93d7-846bd85146e6","ios":"levelo://app?vid=758c8ce9-535b-4800-93d7-846bd85146e6"},"vehicle_type_id":"4","last_reported":1778273103,"current_range_meters":5600,"station_id":"st_d2ngiaodas8pm72gd1h0","pricing_plan_id":"cebpf4jnsgd1na2vs0mg"},{"bike_id":"5a7eaf8d-4931-47c6-9dbc-044311c78588","system_id":"levelo_inurba_marseille","lat":43.21741,"lon":5.3462,"is_reserved":false,"is_disabled":false,"rental_uris":{"android":"levelo://app?vid=5a7eaf8d-4931-47c6-9dbc-044311c78588","ios":"levelo://app?vid=5a7eaf8d-4931-47c6-9dbc-044311c78588"},"vehicle_type_id":"4","last_reported":1778273103,"current_range_meters":5600,"station_id":"st_cvj6r9ubvosntc0bgbag","pricing_plan_id":"cebpf4jnsgd1na2vs0mg"},{"bike_id":"8576c9e8-20ea-40d5-9760-e2f8685ea7e7","system_id":"levelo_inurba_marseille","lat":43.29247,"lon":5.38451,"is_reserved":false,"is_disabled":false,"rental_uris":{"android":"levelo://app?vid=8576c9e8-20ea-40d5-9760-e2f8685ea7e7","ios":"levelo://app?vid=8576c9e8-20ea-40d5-9760-e2f8685ea7e7"},"vehicle_type_id":"4","last_reported":1778273103,"current_range_meters":5600,"station_id":"ce4bh692rcd13ifvqea0","pricing_plan_id":"cebpf4jnsgd1na2vs0mg"},{"bike_id":"1709f6c4-df38-4392-a22b-79877bea9f71","system_id":"levelo_inurba_marseille","lat":43.26269,"lon":5.39143,"is_reserved":false,"is_disabled":false,"rental_uris":{"android":"levelo://app?vid=1709f6c4-df38-4392-a22b-79877bea9f71","ios":"levelo://app?vid=1709f6c4-df38-4392-a22b-79877bea9f71"},"vehicle_type_id":"4","last_reported":1778273103,"current_range_meters":6000,"station_id":"","pricing_plan_id":"cebpf4jnsgd1na2vs0mg"},{"bike_id":"ac5248c1-4fa9-4b63-9686-5ac601b0f9b1","system_id":"levelo_inurba_marseille","lat":43.29914,"lon":5.37827,"is_reserved":false,"is_disabled":false,"rental_uris":{"android":"levelo://app?vid=ac5248c1-4fa9-4b63-9686-5ac601b0f9b1","ios":"levelo://app?vid=ac5248c1-4fa9-4b63-9686-5ac601b0f9b1"},"vehicle_type_id":"4","last_reported":1778273103,"current_range_meters":6000,"station_id":"","pricing_plan_id":"cebpf4jnsgd1na2vs0mg"},{"bike_id":"f9765471-797c-4251-b388-a11b5bbe30f0","system_id":"levelo_inurba_marseille","lat":43.33538,"lon":5.37456,"is_reserved":false,"is_disabled":false,"rental_uris":{"android":"levelo://app?vid=f9765471-797c-4251-b388-a11b5bbe30f0","ios":"levelo://app?vid=f9765471-797c-4251-b388-a11b5bbe30f0"},"vehicle_type_id":"4","last_reported":1778273103,"current_range_meters":6000,"station_id":"st_d46tts09ee8s73dlu43g","pricing_plan_id":"cebpf4jnsgd1na2vs0mg"},{"bike_id":"c8ac96d0-ef16-4c8c-a940-b886f6e1a598","system_id":"levelo_inurba_marseille","lat":43.29002,"lon":5.38633,"is_reserved":false,"is_disabled":false,"rental_uris":{"android":"levelo://app?vid=c8ac96d0-ef16-4c8c-a940-b886f6e1a598","ios":"levelo://app?vid=c8ac96d0-ef16-4c8c-a940-b886f6e1a598"},"vehicle_type_id":"4","last_reported":1778273103,"current_range_meters":6000,"station_id":"ce4bh4p2rcd13ifvqe0g","pricing_plan_id":"cebpf4jnsgd1na2vs0mg"},{"bike_id":"ff4d1d92-3c09-4393-bd19-a95497791c85","system_id":"levelo_inurba_marseille","lat":43.26594,"lon":5.3903,"is_reserved":false,"is_disabled":false,"rental_uris":{"android":"levelo://app?vid=ff4d1d92-3c09-4393-bd19-a95497791c85","ios":"levelo://app?vid=ff4d1d92-3c09-4393-bd19-a95497791c85"},"vehicle_type_id":"4","last_reported":1778273103,"current_range_meters":6000,"station_id":"ce4bhe12rcd13ifvqf30","pricing_plan_id":"cebpf4jnsgd1na2vs0mg"},{"bike_id":"eab674d1-701b-43cf-bd74-f434260c82b5","system_id":"levelo_inurba_marseille","lat":43.29225,"lon":5.39317,"is_reserved":false,"is_disabled":false,"rental_uris":{"android":"levelo://app?vid=eab674d1-701b-43cf-bd74-f434260c82b5","ios":"levelo://app?vid=eab674d1-701b-43cf-bd74-f434260c82b5"},"vehicle_type_id":"4","last_reported":1778273103,"current_range_meters":6000,"station_id":"ce4bh192rcd13ifvqdd0","pricing_plan_id":"cebpf4jnsgd1na2vs0mg"},{"bike_id":"3056c84a-f614-437e-b41b-b1adbc616cfd","system_id":"levelo_inurba_marseille","lat":43.3188,"lon":5.36832,"is_reserved":false,"is_disabled":false,"rental_uris":{"android":"levelo://app?vid=3056c84a-f614-437e-b41b-b1adbc616cfd","ios":"levelo://app?vid=3056c84a-f614-437e-b41b-b1adbc616cfd"},"vehicle_type_id":"4","last_reported":1778273103,"current_range_meters":6000,"station_id":"st_d6o2h0d0559c73evc1b0","pricing_plan_id":"cebpf4jnsgd1na2vs0mg"},{"bike_id":"e744fd51-d53a-4993-92a1-3a6752e7a33c","system_id":"levelo_inurba_marseille","lat":43.32119,"lon":5.36781,"is_reserved":false,"is_disabled":false,"rental_uris":{"android":"levelo://app?vid=e744fd51-d53a-4993-92a1-3a6752e7a33c","ios":"levelo://app?vid=e744fd51-d53a-4993-92a1-3a6752e7a33c"},"vehicle_type_id":"4","last_reported":1778273103,"current_range_meters":6000,"station_id":"ce4bhrh2rcd13ifvqhug","pricing_plan_id":"cebpf4jnsgd1na2vs0mg"},{"bike_id":"0e807c71-7062-4df1-96ce-ab29da57740b","system_id":"levelo_inurba_marseille","lat":43.27054,"lon":5.40258,"is_reserved":false,"is_disabled":false,"rental_uris":{"android":"levelo://app?vid=0e807c71-7062-4df1-96ce-ab29da57740b","ios":"levelo://app?vid=0e807c71-7062-4df1-96ce-ab29da57740b"},"vehicle_type_id":"4","last_reported":1778273103,"current_range_meters":6000,"station_id":"ce4bhk92rcd13ifvqgc0","pricing_plan_id":"cebpf4jnsgd1na2vs0mg"},{"bike_id":"940c94d8-ff98-4e0f-9908-14dde4b31f90","system_id":"levelo_inurba_marseille","lat":43.30802,"lon":5.38143,"is_reserved":false,"is_disabled":false,"rental_uris":{"android":"levelo://app?vid=940c94d8-ff98-4e0f-9908-14dde4b31f90","ios":"levelo://app?vid=940c94d8-ff98-4e0f-9908-14dde4b31f90"},"vehicle_type_id":"4","last_reported":1778273103,"current_range_meters":6000,"station_id":"ce4bgt12rcd13ifvqce0","pricing_plan_id":"cebpf4jnsgd1na2vs0mg"},{"bike_id":"1a4fa4b1-8940-43a5-91ef-f44a5b312a97","system_id":"levelo_inurba_marseille","lat":43.24663,"lon":5.38162,"is_reserved":false,"is_disabled":false,"rental_uris":{"android":"levelo://app?vid=1a4fa4b1-8940-43a5-91ef-f44a5b312a97","ios":"levelo://app?vid=1a4fa4b1-8940-43a5-91ef-f44a5b312a97"},"vehicle_type_id":"4","last_reported":1778273103,"current_range_meters":6000,"station_id":"ce4bhih2rcd13ifvqfr0","pricing_plan_id":"cebpf4jnsgd1na2vs0mg"},{"bike_id":"d2122880-2b17-4bac-801c-d71e561d0002","system_id":"levelo_inurba_marseille","lat":43.2919,"lon":5.39318,"is_reserved":false,"is_disabled":false,"rental_uris":{"android":"levelo://app?vid=d2122880-2b17-4bac-801c-d71e561d0002","ios":"levelo://app?vid=d2122880-2b17-4bac-801c-d71e561d0002"},"vehicle_type_id":"4","last_reported":1778273103,"current_range_meters":6000,"station_id":"ce4bh192rcd13ifvqdd0","pricing_plan_id":"cebpf4jnsgd1na2vs0mg"},{"bike_id":"ff05d164-7643-4b9c-b238-09a75ed38f56","system_id":"levelo_inurba_marseille","lat":43.30955,"lon":5.39038,"is_reserved":false,"is_disabled":false,"rental_uris":{"android":"levelo://app?vid=ff05d164-7643-4b9c-b238-09a75ed38f56","ios":"levelo://app?vid=ff05d164-7643-4b9c-b238-09a75ed38f56"},"vehicle_type_id":"4","last_reported":1778273103,"current_range_meters":6000,"station_id":"ce4bgup2rcd13ifvqco0","pricing_plan_id":"cebpf4jnsgd1na2vs0mg"},{"bike_id":"b6a4dc28-27d2-42eb-86d9-74838b28af57","system_id":"levelo_inurba_marseille","lat":43.29847,"lon":5.3628,"is_reserved":false,"is_disabled":false,"rental_uris":{"android":"levelo://app?vid=b6a4dc28-27d2-42eb-86d9-74838b28af57","ios":"levelo://app?vid=b6a4dc28-27d2-42eb-86d9-74838b28af57"},"vehicle_type_id":"4","last_reported":1778273103,"current_range_meters":6000,"station_id":"ce4bgpp2rcd13ifvqc3g","pricing_plan_id":"cebpf4jnsgd1na2vs0mg"},{"bike_id":"6bfa191a-3e4e-4e30-87bf-b88d6c6d0131","system_id":"levelo_inurba_marseille","lat":43.28852,"lon":5.39302,"is_reserved":false,"is_disabled":false,"rental_uris":{"android":"levelo://app?vid=6bfa191a-3e4e-4e30-87bf-b88d6c6d0131","ios":"levelo://app?vid=6bfa191a-3e4e-4e30-87bf-b88d6c6d0131"},"vehicle_type_id":"4","last_reported":1778273103,"current_range_meters":6000,"station_id":"ce4bh2p2rcd13ifvqdi0","pricing_plan_id":"cebpf4jnsgd1na2vs0mg"},{"bike_id":"43c18618-18a2-472d-8053-4a20357c815a","system_id":"levelo_inurba_marseille","lat":43.29286,"lon":5.38453,"is_reserved":false,"is_disabled":false,"rental_uris":{"android":"levelo://app?vid=43c18618-18a2-472d-8053-4a20357c815a","ios":"levelo://app?vid=43c18618-18a2-472d-8053-4a20357c815a"},"vehicle_type_id":"4","last_reported":1778273103,"current_range_meters":6000,"station_id":"ce4bh692rcd13ifvqea0","pricing_plan_id":"cebpf4jnsgd1na2vs0mg"},{"bike_id":"271e283d-2f8c-4648-a622-26b7eba777d8","system_id":"levelo_inurba_marseille","lat":43.24819,"lon":5.37446,"is_reserved":false,"is_disabled":false,"rental_uris":{"android":"levelo://app?vid=271e283d-2f8c-4648-a622-26b7eba777d8","ios":"levelo://app?vid=271e283d-2f8c-4648-a622-26b7eba777d8"},"vehicle_type_id":"4","last_reported":1778273103,"current_range_meters":6400,"station_id":"ce4bhgh2rcd13ifvqfb0","pricing_plan_id":"cebpf4jnsgd1na2vs0mg"},{"bike_id":"5f06a8a1-2ff5-4ac3-a16d-8044e5eff3c8","system_id":"levelo_inurba_marseille","lat":43.23433,"lon":5.35914,"is_reserved":false,"is_disabled":false,"rental_uris":{"android":"levelo://app?vid=5f06a8a1-2ff5-4ac3-a16d-8044e5eff3c8","ios":"levelo://app?vid=5f06a8a1-2ff5-4ac3-a16d-8044e5eff3c8"},"vehicle_type_id":"4","last_reported":1778273103,"current_range_meters":6400,"station_id":"","pricing_plan_id":"cebpf4jnsgd1na2vs0mg"},{"bike_id":"a46bc289-ee30-43b9-a582-f84154664881","system_id":"levelo_inurba_marseille","lat":43.2999,"lon":5.38484,"is_reserved":false,"is_disabled":false,"rental_uris":{"android":"levelo://app?vid=a46bc289-ee30-43b9-a582-f84154664881","ios":"levelo://app?vid=a46bc289-ee30-43b9-a582-f84154664881"},"vehicle_type_id":"4","last_reported":1778273103,"current_range_meters":6400,"station_id":"ce4bgj92rcd13ifvqbd0","pricing_plan_id":"cebpf4jnsgd1na2vs0mg"},{"bike_id":"4c44dfd4-b62c-430c-b892-42093798fc0e","system_id":"levelo_inurba_marseille","lat":43.30599,"lon":5.37185,"is_reserved":false,"is_disabled":false,"rental_uris":{"android":"levelo://app?vid=4c44dfd4-b62c-430c-b892-42093798fc0e","ios":"levelo://app?vid=4c44dfd4-b62c-430c-b892-42093798fc0e"},"vehicle_type_id":"4","last_reported":1778273103,"current_range_meters":6400,"station_id":"ce4bgqh2rcd13ifvqc4g","pricing_plan_id":"cebpf4jnsgd1na2vs0mg"},{"bike_id":"b5222300-2948-4a44-97d7-1d2453cfc7ea","system_id":"levelo_inurba_marseille","lat":43.24404,"lon":5.37037,"is_reserved":false,"is_disabled":false,"rental_uris":{"android":"levelo://app?vid=b5222300-2948-4a44-97d7-1d2453cfc7ea","ios":"levelo://app?vid=b5222300-2948-4a44-97d7-1d2453cfc7ea"},"vehicle_type_id":"4","last_reported":1778273103,"current_range_meters":6400,"station_id":"ce4bhhh2rcd13ifvqfk0","pricing_plan_id":"cebpf4jnsgd1na2vs0mg"},{"bike_id":"28591a20-c550-4108-9263-49d1bdca52ed","system_id":"levelo_inurba_marseille","lat":43.2848,"lon":5.48389,"is_reserved":false,"is_disabled":false,"rental_uris":{"android":"levelo://app?vid=28591a20-c550-4108-9263-49d1bdca52ed","ios":"levelo://app?vid=28591a20-c550-4108-9263-49d1bdca52ed"},"vehicle_type_id":"4","last_reported":1778273103,"current_range_meters":6400,"station_id":"","pricing_plan_id":"cebpf4jnsgd1na2vs0mg"},{"bike_id":"a255b30f-b6e9-429d-b213-87c5bd0764ae","system_id":"levelo_inurba_marseille","lat":43.29532,"lon":5.38546,"is_reserved":false,"is_disabled":false,"rental_uris":{"android":"levelo://app?vid=a255b30f-b6e9-429d-b213-87c5bd0764ae","ios":"levelo://app?vid=a255b30f-b6e9-429d-b213-87c5bd0764ae"},"vehicle_type_id":"4","last_reported":1778273103,"current_range_meters":6400,"station_id":"ce4bgih2rcd13ifvqba0","pricing_plan_id":"cebpf4jnsgd1na2vs0mg"},{"bike_id":"e9fa160a-fbee-404d-83aa-78b51c85f1e3","system_id":"levelo_inurba_marseille","lat":43.30591,"lon":5.37173,"is_reserved":false,"is_disabled":false,"rental_uris":{"android":"levelo://app?vid=e9fa160a-fbee-404d-83aa-78b51c85f1e3","ios":"levelo://app?vid=e9fa160a-fbee-404d-83aa-78b51c85f1e3"},"vehicle_type_id":"4","last_reported":1778273103,"current_range_meters":6400,"station_id":"ce4bgqh2rcd13ifvqc4g","pricing_plan_id":"cebpf4jnsgd1na2vs0mg"},{"bike_id":"06ab7e03-6cc1-4519-8625-3652421fe315","system_id":"levelo_inurba_marseille","lat":43.33141,"lon":5.37703,"is_reserved":false,"is_disabled":false,"rental_uris":{"android":"levelo://app?vid=06ab7e03-6cc1-4519-8625-3652421fe315","ios":"levelo://app?vid=06ab7e03-6cc1-4519-8625-3652421fe315"},"vehicle_type_id":"4","last_reported":1778273103,"current_range_meters":6400,"station_id":"st_d46cu089ee8s73dldbu0","pricing_plan_id":"cebpf4jnsgd1na2vs0mg"},{"bike_id":"caca3e91-5004-4bef-861b-cb7aa145d33e","system_id":"levelo_inurba_marseille","lat":43.29168,"lon":5.37163,"is_reserved":false,"is_disabled":false,"rental_uris":{"android":"levelo://app?vid=caca3e91-5004-4bef-861b-cb7aa145d33e","ios":"levelo://app?vid=caca3e91-5004-4bef-861b-cb7aa145d33e"},"vehicle_type_id":"4","last_reported":1778273103,"current_range_meters":6400,"station_id":"ce4bha92rcd13ifvqeh0","pricing_plan_id":"cebpf4jnsgd1na2vs0mg"},{"bike_id":"9a3140d6-e3fa-492e-8460-9c6f22636700","system_id":"levelo_inurba_marseille","lat":43.31394,"lon":5.39946,"is_reserved":false,"is_disabled":false,"rental_uris":{"android":"levelo://app?vid=9a3140d6-e3fa-492e-8460-9c6f22636700","ios":"levelo://app?vid=9a3140d6-e3fa-492e-8460-9c6f22636700"},"vehicle_type_id":"4","last_reported":1778273103,"current_range_meters":6400,"station_id":"","pricing_plan_id":"cebpf4jnsgd1na2vs0mg"},{"bike_id":"1ca4d7ab-71c4-439a-8be7-3d0aa6a6e1a2","system_id":"levelo_inurba_marseille","lat":43.288472,"lon":5.393088,"is_reserved":false,"is_disabled":false,"rental_uris":{"android":"levelo://app?vid=1ca4d7ab-71c4-439a-8be7-3d0aa6a6e1a2","ios":"levelo://app?vid=1ca4d7ab-71c4-439a-8be7-3d0aa6a6e1a2"},"vehicle_type_id":"4","last_reported":1778273103,"current_range_meters":6400,"station_id":"ce4bh2p2rcd13ifvqdi0","pricing_plan_id":"cebpf4jnsgd1na2vs0mg"},{"bike_id":"d911b5ba-e225-4a8c-ba07-39adddee3398","system_id":"levelo_inurba_marseille","lat":43.290321,"lon":5.386515,"is_reserved":false,"is_disabled":false,"rental_uris":{"android":"levelo://app?vid=d911b5ba-e225-4a8c-ba07-39adddee3398","ios":"levelo://app?vid=d911b5ba-e225-4a8c-ba07-39adddee3398"},"vehicle_type_id":"4","last_reported":1778273103,"current_range_meters":6400,"station_id":"ce4bh4p2rcd13ifvqe0g","pricing_plan_id":"cebpf4jnsgd1na2vs0mg"},{"bike_id":"9e39db6f-fef7-4f91-b07b-7578e759feaa","system_id":"levelo_inurba_marseille","lat":43.31716,"lon":5.43708,"is_reserved":false,"is_disabled":false,"rental_uris":{"android":"levelo://app?vid=9e39db6f-fef7-4f91-b07b-7578e759feaa","ios":"levelo://app?vid=9e39db6f-fef7-4f91-b07b-7578e759feaa"},"vehicle_type_id":"4","last_reported":1778273103,"current_range_meters":6400,"station_id":"ce4bhp92rcd13ifvqhcg","pricing_plan_id":"cebpf4jnsgd1na2vs0mg"},{"bike_id":"95e9141d-f28d-44f8-bf07-7f1be2285664","system_id":"levelo_inurba_marseille","lat":43.29531,"lon":5.38552,"is_reserved":false,"is_disabled":false,"rental_uris":{"android":"levelo://app?vid=95e9141d-f28d-44f8-bf07-7f1be2285664","ios":"levelo://app?vid=95e9141d-f28d-44f8-bf07-7f1be2285664"},"vehicle_type_id":"4","last_reported":1778273103,"current_range_meters":6400,"station_id":"ce4bgih2rcd13ifvqba0","pricing_plan_id":"cebpf4jnsgd1na2vs0mg"},{"bike_id":"7d6e83f9-235f-4895-aea5-62b0c5201dff","system_id":"levelo_inurba_marseille","lat":43.29882,"lon":5.37481,"is_reserved":false,"is_disabled":false,"rental_uris":{"android":"levelo://app?vid=7d6e83f9-235f-4895-aea5-62b0c5201dff","ios":"levelo://app?vid=7d6e83f9-235f-4895-aea5-62b0c5201dff"},"vehicle_type_id":"4","last_reported":1778273103,"current_range_meters":6400,"station_id":"ce4bgjh2rcd13ifvqbg0","pricing_plan_id":"cebpf4jnsgd1na2vs0mg"},{"bike_id":"8cd9cdae-ca50-4160-9401-a463368603f2","system_id":"levelo_inurba_marseille","lat":43.31326,"lon":5.39706,"is_reserved":false,"is_disabled":false,"rental_uris":{"android":"levelo://app?vid=8cd9cdae-ca50-4160-9401-a463368603f2","ios":"levelo://app?vid=8cd9cdae-ca50-4160-9401-a463368603f2"},"vehicle_type_id":"4","last_reported":1778273103,"current_range_meters":6400,"station_id":"ce4bgvp2rcd13ifvqcu0","pricing_plan_id":"cebpf4jnsgd1na2vs0mg"},{"bike_id":"732c0c1a-7580-499b-b696-db1b4d6a345c","system_id":"levelo_inurba_marseille","lat":43.3151,"lon":5.3727,"is_reserved":false,"is_disabled":false,"rental_uris":{"android":"levelo://app?vid=732c0c1a-7580-499b-b696-db1b4d6a345c","ios":"levelo://app?vid=732c0c1a-7580-499b-b696-db1b4d6a345c"},"vehicle_type_id":"4","last_reported":1778273103,"current_range_meters":6400,"station_id":"ce4bgt12rcd13ifvqcd0","pricing_plan_id":"cebpf4jnsgd1na2vs0mg"},{"bike_id":"c81f80a9-bccf-42c4-90d3-496a1498aeb7","system_id":"levelo_inurba_marseille","lat":43.2604,"lon":5.37551,"is_reserved":false,"is_disabled":true,"rental_uris":{"android":"levelo://app?vid=c81f80a9-bccf-42c4-90d3-496a1498aeb7","ios":"levelo://app?vid=c81f80a9-bccf-42c4-90d3-496a1498aeb7"},"vehicle_type_id":"4","last_reported":1778273103,"current_range_meters":6400,"station_id":"ce4bhgh2rcd13ifvqfa0","pricing_plan_id":"cebpf4jnsgd1na2vs0mg"},{"bike_id":"8bd3ae88-471d-4238-9dfc-c1af1fca006a","system_id":"levelo_inurba_marseille","lat":43.29262,"lon":5.38433,"is_reserved":false,"is_disabled":true,"rental_uris":{"android":"levelo://app?vid=8bd3ae88-471d-4238-9dfc-c1af1fca006a","ios":"levelo://app?vid=8bd3ae88-471d-4238-9dfc-c1af1fca006a"},"vehicle_type_id":"4","last_reported":1778273103,"current_range_meters":6400,"station_id":"ce4bh692rcd13ifvqea0","pricing_plan_id":"cebpf4jnsgd1na2vs0mg"},{"bike_id":"c8e7cc73-0f54-4a06-af4d-0fc5105b4b7c","system_id":"levelo_inurba_marseille","lat":43.29295,"lon":5.38427,"is_reserved":false,"is_disabled":false,"rental_uris":{"android":"levelo://app?vid=c8e7cc73-0f54-4a06-af4d-0fc5105b4b7c","ios":"levelo://app?vid=c8e7cc73-0f54-4a06-af4d-0fc5105b4b7c"},"vehicle_type_id":"4","last_reported":1778273103,"current_range_meters":6400,"station_id":"ce4bh692rcd13ifvqea0","pricing_plan_id":"cebpf4jnsgd1na2vs0mg"},{"bike_id":"48a3f40b-b41c-45ee-82b8-00b871da13dc","system_id":"levelo_inurba_marseille","lat":43.26562,"lon":5.40326,"is_reserved":false,"is_disabled":false,"rental_uris":{"android":"levelo://app?vid=48a3f40b-b41c-45ee-82b8-00b871da13dc","ios":"levelo://app?vid=48a3f40b-b41c-45ee-82b8-00b871da13dc"},"vehicle_type_id":"4","last_reported":1778273103,"current_range_meters":6800,"station_id":"ce4bhmp2rcd13ifvqgng","pricing_plan_id":"cebpf4jnsgd1na2vs0mg"},{"bike_id":"f986817d-6392-43f8-9ac4-27c0873d810e","system_id":"levelo_inurba_marseille","lat":43.24802,"lon":5.37454,"is_reserved":false,"is_disabled":false,"rental_uris":{"android":"levelo://app?vid=f986817d-6392-43f8-9ac4-27c0873d810e","ios":"levelo://app?vid=f986817d-6392-43f8-9ac4-27c0873d810e"},"vehicle_type_id":"4","last_reported":1778273103,"current_range_meters":6800,"station_id":"ce4bhgh2rcd13ifvqfb0","pricing_plan_id":"cebpf4jnsgd1na2vs0mg"},{"bike_id":"9c4ebe7a-bf12-4ebb-9cb9-6f7ebb7c936d","system_id":"levelo_inurba_marseille","lat":43.284374,"lon":5.392104,"is_reserved":false,"is_disabled":false,"rental_uris":{"android":"levelo://app?vid=9c4ebe7a-bf12-4ebb-9cb9-6f7ebb7c936d","ios":"levelo://app?vid=9c4ebe7a-bf12-4ebb-9cb9-6f7ebb7c936d"},"vehicle_type_id":"4","last_reported":1778273103,"current_range_meters":6800,"station_id":"ce4bhoh2rcd13ifvqh5g","pricing_plan_id":"cebpf4jnsgd1na2vs0mg"},{"bike_id":"1150fb32-904d-4dc7-adef-4e1ab4566254","system_id":"levelo_inurba_marseille","lat":43.255075,"lon":5.376503,"is_reserved":false,"is_disabled":false,"rental_uris":{"android":"levelo://app?vid=1150fb32-904d-4dc7-adef-4e1ab4566254","ios":"levelo://app?vid=1150fb32-904d-4dc7-adef-4e1ab4566254"},"vehicle_type_id":"4","last_reported":1778273103,"current_range_meters":6800,"station_id":"ce4bhh12rcd13ifvqff0","pricing_plan_id":"cebpf4jnsgd1na2vs0mg"},{"bike_id":"68606159-741d-4109-b8bb-4063c837c318","system_id":"levelo_inurba_marseille","lat":43.265394,"lon":5.372973,"is_reserved":false,"is_disabled":false,"rental_uris":{"android":"levelo://app?vid=68606159-741d-4109-b8bb-4063c837c318","ios":"levelo://app?vid=68606159-741d-4109-b8bb-4063c837c318"},"vehicle_type_id":"4","last_reported":1778273103,"current_range_meters":6800,"station_id":"ce4bhg12rcd13ifvqf70","pricing_plan_id":"cebpf4jnsgd1na2vs0mg"},{"bike_id":"32db518c-1937-4bc7-b1de-c10db8d36f2d","system_id":"levelo_inurba_marseille","lat":43.21742,"lon":5.34606,"is_reserved":false,"is_disabled":false,"rental_uris":{"android":"levelo://app?vid=32db518c-1937-4bc7-b1de-c10db8d36f2d","ios":"levelo://app?vid=32db518c-1937-4bc7-b1de-c10db8d36f2d"},"vehicle_type_id":"4","last_reported":1778273103,"current_range_meters":6800,"station_id":"st_cvj6r9ubvosntc0bgbag","pricing_plan_id":"cebpf4jnsgd1na2vs0mg"},{"bike_id":"e84a663b-feb3-4e68-ae50-be27e6b7d8af","system_id":"levelo_inurba_marseille","lat":43.29609,"lon":5.38092,"is_reserved":false,"is_disabled":false,"rental_uris":{"android":"levelo://app?vid=e84a663b-feb3-4e68-ae50-be27e6b7d8af","ios":"levelo://app?vid=e84a663b-feb3-4e68-ae50-be27e6b7d8af"},"vehicle_type_id":"4","last_reported":1778273103,"current_range_meters":6800,"station_id":"ce4bgl12rcd13ifvqbo0","pricing_plan_id":"cebpf4jnsgd1na2vs0mg"},{"bike_id":"e952950d-b480-4143-a38c-baa818b9cb65","system_id":"levelo_inurba_marseille","lat":43.29369,"lon":5.37841,"is_reserved":false,"is_disabled":false,"rental_uris":{"android":"levelo://app?vid=e952950d-b480-4143-a38c-baa818b9cb65","ios":"levelo://app?vid=e952950d-b480-4143-a38c-baa818b9cb65"},"vehicle_type_id":"4","last_reported":1778273103,"current_range_meters":6800,"station_id":"ce4bgjh2rcd13ifvqbf0","pricing_plan_id":"cebpf4jnsgd1na2vs0mg"},{"bike_id":"b2e8d3e4-5ad8-4b8a-a750-7f2de3f01737","system_id":"levelo_inurba_marseille","lat":43.30123,"lon":5.39855,"is_reserved":false,"is_disabled":false,"rental_uris":{"android":"levelo://app?vid=b2e8d3e4-5ad8-4b8a-a750-7f2de3f01737","ios":"levelo://app?vid=b2e8d3e4-5ad8-4b8a-a750-7f2de3f01737"},"vehicle_type_id":"4","last_reported":1778273103,"current_range_meters":6800,"station_id":"ce4bh0h2rcd13ifvqd40","pricing_plan_id":"cebpf4jnsgd1na2vs0mg"},{"bike_id":"4b65741e-5ed9-4da8-8620-3a00f88659d6","system_id":"levelo_inurba_marseille","lat":43.2848,"lon":5.48392,"is_reserved":false,"is_disabled":false,"rental_uris":{"android":"levelo://app?vid=4b65741e-5ed9-4da8-8620-3a00f88659d6","ios":"levelo://app?vid=4b65741e-5ed9-4da8-8620-3a00f88659d6"},"vehicle_type_id":"4","last_reported":1778273103,"current_range_meters":6800,"station_id":"","pricing_plan_id":"cebpf4jnsgd1na2vs0mg"},{"bike_id":"41e09a29-bc98-4c8d-8179-b4a7f97453af","system_id":"levelo_inurba_marseille","lat":43.32944,"lon":5.42736,"is_reserved":false,"is_disabled":false,"rental_uris":{"android":"levelo://app?vid=41e09a29-bc98-4c8d-8179-b4a7f97453af","ios":"levelo://app?vid=41e09a29-bc98-4c8d-8179-b4a7f97453af"},"vehicle_type_id":"4","last_reported":1778273103,"current_range_meters":6800,"station_id":"","pricing_plan_id":"cebpf4jnsgd1na2vs0mg"},{"bike_id":"35bfac90-6c38-4bb1-8066-12fc0a74e1d9","system_id":"levelo_inurba_marseille","lat":43.29953,"lon":5.385,"is_reserved":false,"is_disabled":false,"rental_uris":{"android":"levelo://app?vid=35bfac90-6c38-4bb1-8066-12fc0a74e1d9","ios":"levelo://app?vid=35bfac90-6c38-4bb1-8066-12fc0a74e1d9"},"vehicle_type_id":"4","last_reported":1778273103,"current_range_meters":6800,"station_id":"ce4bgj92rcd13ifvqbd0","pricing_plan_id":"cebpf4jnsgd1na2vs0mg"},{"bike_id":"37998d8c-8065-4b38-b75b-e58f03489059","system_id":"levelo_inurba_marseille","lat":43.29753,"lon":5.37103,"is_reserved":false,"is_disabled":true,"rental_uris":{"android":"levelo://app?vid=37998d8c-8065-4b38-b75b-e58f03489059","ios":"levelo://app?vid=37998d8c-8065-4b38-b75b-e58f03489059"},"vehicle_type_id":"4","last_reported":1778273103,"current_range_meters":6800,"station_id":"ce4bgop2rcd13ifvqc1g","pricing_plan_id":"cebpf4jnsgd1na2vs0mg"},{"bike_id":"c42d80d2-573d-44e1-85a6-76c647aa7599","system_id":"levelo_inurba_marseille","lat":43.30161,"lon":5.39359,"is_reserved":false,"is_disabled":false,"rental_uris":{"android":"levelo://app?vid=c42d80d2-573d-44e1-85a6-76c647aa7599","ios":"levelo://app?vid=c42d80d2-573d-44e1-85a6-76c647aa7599"},"vehicle_type_id":"4","last_reported":1778273103,"current_range_meters":6800,"station_id":"","pricing_plan_id":"cebpf4jnsgd1na2vs0mg"},{"bike_id":"446a901d-bbac-4d0d-abe3-676e1901d57c","system_id":"levelo_inurba_marseille","lat":43.29258,"lon":5.38429,"is_reserved":false,"is_disabled":false,"rental_uris":{"android":"levelo://app?vid=446a901d-bbac-4d0d-abe3-676e1901d57c","ios":"levelo://app?vid=446a901d-bbac-4d0d-abe3-676e1901d57c"},"vehicle_type_id":"4","last_reported":1778273103,"current_range_meters":6800,"station_id":"ce4bh692rcd13ifvqea0","pricing_plan_id":"cebpf4jnsgd1na2vs0mg"},{"bike_id":"a35ae0e4-76a9-41eb-9a5e-26ec5e80290c","system_id":"levelo_inurba_marseille","lat":43.28722,"lon":5.36089,"is_reserved":false,"is_disabled":true,"rental_uris":{"android":"levelo://app?vid=a35ae0e4-76a9-41eb-9a5e-26ec5e80290c","ios":"levelo://app?vid=a35ae0e4-76a9-41eb-9a5e-26ec5e80290c"},"vehicle_type_id":"4","last_reported":1778273103,"current_range_meters":6800,"station_id":"cki0cbj6b192h4jlfktg","pricing_plan_id":"cebpf4jnsgd1na2vs0mg"},{"bike_id":"a7ddc0dc-1bbc-441d-b85d-28cf6c7c1022","system_id":"levelo_inurba_marseille","lat":43.30794,"lon":5.38147,"is_reserved":false,"is_disabled":false,"rental_uris":{"android":"levelo://app?vid=a7ddc0dc-1bbc-441d-b85d-28cf6c7c1022","ios":"levelo://app?vid=a7ddc0dc-1bbc-441d-b85d-28cf6c7c1022"},"vehicle_type_id":"4","last_reported":1778273103,"current_range_meters":6800,"station_id":"ce4bgt12rcd13ifvqce0","pricing_plan_id":"cebpf4jnsgd1na2vs0mg"},{"bike_id":"c7034f40-9035-4bc2-aa41-8e26363b30b2","system_id":"levelo_inurba_marseille","lat":43.29591,"lon":5.3813,"is_reserved":false,"is_disabled":false,"rental_uris":{"android":"levelo://app?vid=c7034f40-9035-4bc2-aa41-8e26363b30b2","ios":"levelo://app?vid=c7034f40-9035-4bc2-aa41-8e26363b30b2"},"vehicle_type_id":"4","last_reported":1778273103,"current_range_meters":6800,"station_id":"ce4bgl12rcd13ifvqbo0","pricing_plan_id":"cebpf4jnsgd1na2vs0mg"},{"bike_id":"00f07616-d550-4224-bad4-4b031ab0edc8","system_id":"levelo_inurba_marseille","lat":43.24737,"lon":5.40096,"is_reserved":false,"is_disabled":false,"rental_uris":{"android":"levelo://app?vid=00f07616-d550-4224-bad4-4b031ab0edc8","ios":"levelo://app?vid=00f07616-d550-4224-bad4-4b031ab0edc8"},"vehicle_type_id":"4","last_reported":1778273103,"current_range_meters":6800,"station_id":"","pricing_plan_id":"cebpf4jnsgd1na2vs0mg"},{"bike_id":"347e765c-cbc7-4548-a801-cb1066b51431","system_id":"levelo_inurba_marseille","lat":43.29269,"lon":5.38444,"is_reserved":false,"is_disabled":false,"rental_uris":{"android":"levelo://app?vid=347e765c-cbc7-4548-a801-cb1066b51431","ios":"levelo://app?vid=347e765c-cbc7-4548-a801-cb1066b51431"},"vehicle_type_id":"4","last_reported":1778273103,"current_range_meters":6800,"station_id":"ce4bh692rcd13ifvqea0","pricing_plan_id":"cebpf4jnsgd1na2vs0mg"},{"bike_id":"bca3cc54-74f9-43c9-a887-c9b7c1895a13","system_id":"levelo_inurba_marseille","lat":43.28029,"lon":5.36942,"is_reserved":false,"is_disabled":false,"rental_uris":{"android":"levelo://app?vid=bca3cc54-74f9-43c9-a887-c9b7c1895a13","ios":"levelo://app?vid=bca3cc54-74f9-43c9-a887-c9b7c1895a13"},"vehicle_type_id":"4","last_reported":1778273103,"current_range_meters":6800,"station_id":"ce4bha12rcd13ifvqef0","pricing_plan_id":"cebpf4jnsgd1na2vs0mg"},{"bike_id":"02077614-5ba2-451f-8591-4684d31d5e4f","system_id":"levelo_inurba_marseille","lat":43.302777,"lon":5.377031,"is_reserved":false,"is_disabled":false,"rental_uris":{"android":"levelo://app?vid=02077614-5ba2-451f-8591-4684d31d5e4f","ios":"levelo://app?vid=02077614-5ba2-451f-8591-4684d31d5e4f"},"vehicle_type_id":"4","last_reported":1778273103,"current_range_meters":6800,"station_id":"ce4bguh2rcd13ifvqcj0","pricing_plan_id":"cebpf4jnsgd1na2vs0mg"},{"bike_id":"3529ab88-c139-4f1b-9bd8-eff637a56844","system_id":"levelo_inurba_marseille","lat":43.25406,"lon":5.4146,"is_reserved":false,"is_disabled":false,"rental_uris":{"android":"levelo://app?vid=3529ab88-c139-4f1b-9bd8-eff637a56844","ios":"levelo://app?vid=3529ab88-c139-4f1b-9bd8-eff637a56844"},"vehicle_type_id":"4","last_reported":1778273103,"current_range_meters":6800,"station_id":"","pricing_plan_id":"cebpf4jnsgd1na2vs0mg"},{"bike_id":"621ef308-33a9-4a52-9e82-b4966d1a8f8d","system_id":"levelo_inurba_marseille","lat":43.28729,"lon":5.39989,"is_reserved":false,"is_disabled":true,"rental_uris":{"android":"levelo://app?vid=621ef308-33a9-4a52-9e82-b4966d1a8f8d","ios":"levelo://app?vid=621ef308-33a9-4a52-9e82-b4966d1a8f8d"},"vehicle_type_id":"4","last_reported":1778273103,"current_range_meters":6800,"station_id":"ce4bho92rcd13ifvqh3g","pricing_plan_id":"cebpf4jnsgd1na2vs0mg"},{"bike_id":"839dd660-f7f5-4436-a4be-05214ace9f90","system_id":"levelo_inurba_marseille","lat":43.25863,"lon":5.39902,"is_reserved":false,"is_disabled":false,"rental_uris":{"android":"levelo://app?vid=839dd660-f7f5-4436-a4be-05214ace9f90","ios":"levelo://app?vid=839dd660-f7f5-4436-a4be-05214ace9f90"},"vehicle_type_id":"4","last_reported":1778273103,"current_range_meters":6800,"station_id":"ce4bhl92rcd13ifvqghg","pricing_plan_id":"cebpf4jnsgd1na2vs0mg"},{"bike_id":"f266382d-70a9-41c0-b6bb-b98241250716","system_id":"levelo_inurba_marseille","lat":43.31503,"lon":5.37313,"is_reserved":false,"is_disabled":false,"rental_uris":{"android":"levelo://app?vid=f266382d-70a9-41c0-b6bb-b98241250716","ios":"levelo://app?vid=f266382d-70a9-41c0-b6bb-b98241250716"},"vehicle_type_id":"4","last_reported":1778273103,"current_range_meters":6800,"station_id":"ce4bgt12rcd13ifvqcd0","pricing_plan_id":"cebpf4jnsgd1na2vs0mg"},{"bike_id":"72f15b4a-e8ec-4904-896e-9a8c6b3019d9","system_id":"levelo_inurba_marseille","lat":43.24063,"lon":5.37761,"is_reserved":false,"is_disabled":false,"rental_uris":{"android":"levelo://app?vid=72f15b4a-e8ec-4904-896e-9a8c6b3019d9","ios":"levelo://app?vid=72f15b4a-e8ec-4904-896e-9a8c6b3019d9"},"vehicle_type_id":"4","last_reported":1778273103,"current_range_meters":6800,"station_id":"ce4bhnp2rcd13ifvqgvg","pricing_plan_id":"cebpf4jnsgd1na2vs0mg"},{"bike_id":"0b3524bb-a961-497f-8e3b-aa912a3df5ef","system_id":"levelo_inurba_marseille","lat":43.2812,"lon":5.37826,"is_reserved":false,"is_disabled":false,"rental_uris":{"android":"levelo://app?vid=0b3524bb-a961-497f-8e3b-aa912a3df5ef","ios":"levelo://app?vid=0b3524bb-a961-497f-8e3b-aa912a3df5ef"},"vehicle_type_id":"4","last_reported":1778273103,"current_range_meters":6800,"station_id":"ce4bha12rcd13ifvqee0","pricing_plan_id":"cebpf4jnsgd1na2vs0mg"},{"bike_id":"05ea95a4-cd67-4fc1-a218-6926df79c21d","system_id":"levelo_inurba_marseille","lat":43.31084,"lon":5.37823,"is_reserved":false,"is_disabled":false,"rental_uris":{"android":"levelo://app?vid=05ea95a4-cd67-4fc1-a218-6926df79c21d","ios":"levelo://app?vid=05ea95a4-cd67-4fc1-a218-6926df79c21d"},"vehicle_type_id":"4","last_reported":1778273103,"current_range_meters":7200,"station_id":"","pricing_plan_id":"cebpf4jnsgd1na2vs0mg"},{"bike_id":"8ce2f59a-c064-48f7-99d1-c1f6d8b2f7e2","system_id":"levelo_inurba_marseille","lat":43.29484,"lon":5.43297,"is_reserved":false,"is_disabled":false,"rental_uris":{"android":"levelo://app?vid=8ce2f59a-c064-48f7-99d1-c1f6d8b2f7e2","ios":"levelo://app?vid=8ce2f59a-c064-48f7-99d1-c1f6d8b2f7e2"},"vehicle_type_id":"4","last_reported":1778273103,"current_range_meters":7200,"station_id":"st_d3j5ugp08ojc73fj9d10","pricing_plan_id":"cebpf4jnsgd1na2vs0mg"},{"bike_id":"7c56137a-05b5-47d0-b192-873a2f490371","system_id":"levelo_inurba_marseille","lat":43.24389,"lon":5.3705,"is_reserved":false,"is_disabled":false,"rental_uris":{"android":"levelo://app?vid=7c56137a-05b5-47d0-b192-873a2f490371","ios":"levelo://app?vid=7c56137a-05b5-47d0-b192-873a2f490371"},"vehicle_type_id":"4","last_reported":1778273103,"current_range_meters":7200,"station_id":"ce4bhhh2rcd13ifvqfk0","pricing_plan_id":"cebpf4jnsgd1na2vs0mg"},{"bike_id":"2a178200-522d-46f5-b03c-10668d6f50fc","system_id":"levelo_inurba_marseille","lat":43.29513,"lon":5.38534,"is_reserved":false,"is_disabled":false,"rental_uris":{"android":"levelo://app?vid=2a178200-522d-46f5-b03c-10668d6f50fc","ios":"levelo://app?vid=2a178200-522d-46f5-b03c-10668d6f50fc"},"vehicle_type_id":"4","last_reported":1778273103,"current_range_meters":7200,"station_id":"ce4bgih2rcd13ifvqba0","pricing_plan_id":"cebpf4jnsgd1na2vs0mg"},{"bike_id":"82f907ec-863d-443b-9a33-e018df21131b","system_id":"levelo_inurba_marseille","lat":43.27912,"lon":5.38729,"is_reserved":false,"is_disabled":false,"rental_uris":{"android":"levelo://app?vid=82f907ec-863d-443b-9a33-e018df21131b","ios":"levelo://app?vid=82f907ec-863d-443b-9a33-e018df21131b"},"vehicle_type_id":"4","last_reported":1778273103,"current_range_meters":7200,"station_id":"ce4bhg12rcd13ifvqf80","pricing_plan_id":"cebpf4jnsgd1na2vs0mg"},{"bike_id":"025be5e0-0c74-454f-99f9-781faca9cdbe","system_id":"levelo_inurba_marseille","lat":43.2977,"lon":5.38091,"is_reserved":false,"is_disabled":true,"rental_uris":{"android":"levelo://app?vid=025be5e0-0c74-454f-99f9-781faca9cdbe","ios":"levelo://app?vid=025be5e0-0c74-454f-99f9-781faca9cdbe"},"vehicle_type_id":"4","last_reported":1778273103,"current_range_meters":7200,"station_id":"ce4bgip2rcd13ifvqbb0","pricing_plan_id":"cebpf4jnsgd1na2vs0mg"},{"bike_id":"ce6d5dbc-0b80-4f3a-abfd-d46149cf65d1","system_id":"levelo_inurba_marseille","lat":43.29928,"lon":5.37473,"is_reserved":false,"is_disabled":false,"rental_uris":{"android":"levelo://app?vid=ce6d5dbc-0b80-4f3a-abfd-d46149cf65d1","ios":"levelo://app?vid=ce6d5dbc-0b80-4f3a-abfd-d46149cf65d1"},"vehicle_type_id":"4","last_reported":1778273103,"current_range_meters":7200,"station_id":"ce4bgjh2rcd13ifvqbg0","pricing_plan_id":"cebpf4jnsgd1na2vs0mg"},{"bike_id":"ccdb8a1d-76c7-4877-986b-ea14a8eac55c","system_id":"levelo_inurba_marseille","lat":43.28611,"lon":5.39888,"is_reserved":false,"is_disabled":false,"rental_uris":{"android":"levelo://app?vid=ccdb8a1d-76c7-4877-986b-ea14a8eac55c","ios":"levelo://app?vid=ccdb8a1d-76c7-4877-986b-ea14a8eac55c"},"vehicle_type_id":"4","last_reported":1778273103,"current_range_meters":7200,"station_id":"st_d4a7ka997mjs738ck50g","pricing_plan_id":"cebpf4jnsgd1na2vs0mg"},{"bike_id":"99c04982-8fab-434a-8221-78503ec8f8b8","system_id":"levelo_inurba_marseille","lat":43.290382,"lon":5.399629,"is_reserved":false,"is_disabled":false,"rental_uris":{"android":"levelo://app?vid=99c04982-8fab-434a-8221-78503ec8f8b8","ios":"levelo://app?vid=99c04982-8fab-434a-8221-78503ec8f8b8"},"vehicle_type_id":"4","last_reported":1778273103,"current_range_meters":7200,"station_id":"ce4bh392rcd13ifvqdm0","pricing_plan_id":"cebpf4jnsgd1na2vs0mg"},{"bike_id":"7b416787-800a-4e18-b782-4ef145ce6930","system_id":"levelo_inurba_marseille","lat":43.27962,"lon":5.38692,"is_reserved":false,"is_disabled":false,"rental_uris":{"android":"levelo://app?vid=7b416787-800a-4e18-b782-4ef145ce6930","ios":"levelo://app?vid=7b416787-800a-4e18-b782-4ef145ce6930"},"vehicle_type_id":"4","last_reported":1778273103,"current_range_meters":7200,"station_id":"ce4bhg12rcd13ifvqf80","pricing_plan_id":"cebpf4jnsgd1na2vs0mg"},{"bike_id":"fe33cc1b-973a-4526-9664-2fa5496a4cb0","system_id":"levelo_inurba_marseille","lat":43.29574,"lon":5.40681,"is_reserved":false,"is_disabled":false,"rental_uris":{"android":"levelo://app?vid=fe33cc1b-973a-4526-9664-2fa5496a4cb0","ios":"levelo://app?vid=fe33cc1b-973a-4526-9664-2fa5496a4cb0"},"vehicle_type_id":"4","last_reported":1778273103,"current_range_meters":7200,"station_id":"","pricing_plan_id":"cebpf4jnsgd1na2vs0mg"},{"bike_id":"ecf1d3d6-971a-4df4-992f-b42f45f9a447","system_id":"levelo_inurba_marseille","lat":43.29173,"lon":5.37149,"is_reserved":false,"is_disabled":false,"rental_uris":{"android":"levelo://app?vid=ecf1d3d6-971a-4df4-992f-b42f45f9a447","ios":"levelo://app?vid=ecf1d3d6-971a-4df4-992f-b42f45f9a447"},"vehicle_type_id":"4","last_reported":1778273103,"current_range_meters":7200,"station_id":"ce4bha92rcd13ifvqeh0","pricing_plan_id":"cebpf4jnsgd1na2vs0mg"},{"bike_id":"fa833790-fea7-4b87-ab01-22a9071ab066","system_id":"levelo_inurba_marseille","lat":43.28477,"lon":5.48397,"is_reserved":false,"is_disabled":false,"rental_uris":{"android":"levelo://app?vid=fa833790-fea7-4b87-ab01-22a9071ab066","ios":"levelo://app?vid=fa833790-fea7-4b87-ab01-22a9071ab066"},"vehicle_type_id":"4","last_reported":1778273103,"current_range_meters":7200,"station_id":"st_d3svhcjqgbts73a3dn0g","pricing_plan_id":"cebpf4jnsgd1na2vs0mg"},{"bike_id":"95489a07-b280-4aea-935b-70fc8cc33653","system_id":"levelo_inurba_marseille","lat":43.21771,"lon":5.34603,"is_reserved":false,"is_disabled":true,"rental_uris":{"android":"levelo://app?vid=95489a07-b280-4aea-935b-70fc8cc33653","ios":"levelo://app?vid=95489a07-b280-4aea-935b-70fc8cc33653"},"vehicle_type_id":"4","last_reported":1778273103,"current_range_meters":7200,"station_id":"st_cvj6r9ubvosntc0bgbag","pricing_plan_id":"cebpf4jnsgd1na2vs0mg"},{"bike_id":"5fc85a70-cd51-491b-a363-a46b0850da15","system_id":"levelo_inurba_marseille","lat":43.32923,"lon":5.36697,"is_reserved":false,"is_disabled":false,"rental_uris":{"android":"levelo://app?vid=5fc85a70-cd51-491b-a363-a46b0850da15","ios":"levelo://app?vid=5fc85a70-cd51-491b-a363-a46b0850da15"},"vehicle_type_id":"4","last_reported":1778273103,"current_range_meters":7200,"station_id":"","pricing_plan_id":"cebpf4jnsgd1na2vs0mg"},{"bike_id":"4f34aa66-765c-4de8-b1ae-bf72c9a444b9","system_id":"levelo_inurba_marseille","lat":43.309387,"lon":5.401466,"is_reserved":false,"is_disabled":false,"rental_uris":{"android":"levelo://app?vid=4f34aa66-765c-4de8-b1ae-bf72c9a444b9","ios":"levelo://app?vid=4f34aa66-765c-4de8-b1ae-bf72c9a444b9"},"vehicle_type_id":"4","last_reported":1778273103,"current_range_meters":7200,"station_id":"ce4bgvp2rcd13ifvqct0","pricing_plan_id":"cebpf4jnsgd1na2vs0mg"},{"bike_id":"b0cfe3b4-4b53-4b57-8dae-15b2967eb192","system_id":"levelo_inurba_marseille","lat":43.2511,"lon":5.40328,"is_reserved":false,"is_disabled":false,"rental_uris":{"android":"levelo://app?vid=b0cfe3b4-4b53-4b57-8dae-15b2967eb192","ios":"levelo://app?vid=b0cfe3b4-4b53-4b57-8dae-15b2967eb192"},"vehicle_type_id":"4","last_reported":1778273103,"current_range_meters":7200,"station_id":"ce4bhlh2rcd13ifvqgig","pricing_plan_id":"cebpf4jnsgd1na2vs0mg"},{"bike_id":"3aa4dc04-e81d-4a2c-b2ce-74e5b5d6e347","system_id":"levelo_inurba_marseille","lat":43.23197,"lon":5.39971,"is_reserved":false,"is_disabled":false,"rental_uris":{"android":"levelo://app?vid=3aa4dc04-e81d-4a2c-b2ce-74e5b5d6e347","ios":"levelo://app?vid=3aa4dc04-e81d-4a2c-b2ce-74e5b5d6e347"},"vehicle_type_id":"4","last_reported":1778273103,"current_range_meters":7200,"station_id":"ce4bhn12rcd13ifvqgqg","pricing_plan_id":"cebpf4jnsgd1na2vs0mg"},{"bike_id":"5b17b337-4e55-486b-b310-212b10614e57","system_id":"levelo_inurba_marseille","lat":43.32366,"lon":5.36729,"is_reserved":false,"is_disabled":false,"rental_uris":{"android":"levelo://app?vid=5b17b337-4e55-486b-b310-212b10614e57","ios":"levelo://app?vid=5b17b337-4e55-486b-b310-212b10614e57"},"vehicle_type_id":"4","last_reported":1778273103,"current_range_meters":7200,"station_id":"ce4bhsh2rcd13ifvqi2g","pricing_plan_id":"cebpf4jnsgd1na2vs0mg"},{"bike_id":"b5622673-ca18-43ad-8c54-f6790dd6d5ec","system_id":"levelo_inurba_marseille","lat":43.30689,"lon":5.37045,"is_reserved":false,"is_disabled":false,"rental_uris":{"android":"levelo://app?vid=b5622673-ca18-43ad-8c54-f6790dd6d5ec","ios":"levelo://app?vid=b5622673-ca18-43ad-8c54-f6790dd6d5ec"},"vehicle_type_id":"4","last_reported":1778273103,"current_range_meters":7200,"station_id":"","pricing_plan_id":"cebpf4jnsgd1na2vs0mg"},{"bike_id":"c85011df-66ba-4b9a-85bc-3a3757394497","system_id":"levelo_inurba_marseille","lat":43.27379,"lon":5.39061,"is_reserved":false,"is_disabled":false,"rental_uris":{"android":"levelo://app?vid=c85011df-66ba-4b9a-85bc-3a3757394497","ios":"levelo://app?vid=c85011df-66ba-4b9a-85bc-3a3757394497"},"vehicle_type_id":"4","last_reported":1778273103,"current_range_meters":7200,"station_id":"","pricing_plan_id":"cebpf4jnsgd1na2vs0mg"},{"bike_id":"4adab041-9f44-4793-9f5f-5a30aefef920","system_id":"levelo_inurba_marseille","lat":43.28615,"lon":5.39877,"is_reserved":false,"is_disabled":false,"rental_uris":{"android":"levelo://app?vid=4adab041-9f44-4793-9f5f-5a30aefef920","ios":"levelo://app?vid=4adab041-9f44-4793-9f5f-5a30aefef920"},"vehicle_type_id":"4","last_reported":1778273103,"current_range_meters":7200,"station_id":"st_d4a7ka997mjs738ck50g","pricing_plan_id":"cebpf4jnsgd1na2vs0mg"},{"bike_id":"a1519436-19c1-429e-984e-3339bca9e7af","system_id":"levelo_inurba_marseille","lat":43.29031,"lon":5.38633,"is_reserved":false,"is_disabled":false,"rental_uris":{"android":"levelo://app?vid=a1519436-19c1-429e-984e-3339bca9e7af","ios":"levelo://app?vid=a1519436-19c1-429e-984e-3339bca9e7af"},"vehicle_type_id":"4","last_reported":1778273103,"current_range_meters":7200,"station_id":"ce4bh4p2rcd13ifvqe0g","pricing_plan_id":"cebpf4jnsgd1na2vs0mg"},{"bike_id":"fece06f2-fb92-44a2-8971-5495d796af6d","system_id":"levelo_inurba_marseille","lat":43.29289,"lon":5.40123,"is_reserved":false,"is_disabled":false,"rental_uris":{"android":"levelo://app?vid=fece06f2-fb92-44a2-8971-5495d796af6d","ios":"levelo://app?vid=fece06f2-fb92-44a2-8971-5495d796af6d"},"vehicle_type_id":"4","last_reported":1778273103,"current_range_meters":7200,"station_id":"ce4bh312rcd13ifvqdk0","pricing_plan_id":"cebpf4jnsgd1na2vs0mg"},{"bike_id":"cbc65248-03cc-4144-a0cb-baf3e5a8f89e","system_id":"levelo_inurba_marseille","lat":43.29882,"lon":5.39741,"is_reserved":false,"is_disabled":false,"rental_uris":{"android":"levelo://app?vid=cbc65248-03cc-4144-a0cb-baf3e5a8f89e","ios":"levelo://app?vid=cbc65248-03cc-4144-a0cb-baf3e5a8f89e"},"vehicle_type_id":"4","last_reported":1778273103,"current_range_meters":7200,"station_id":"ce4bh0h2rcd13ifvqd50","pricing_plan_id":"cebpf4jnsgd1na2vs0mg"},{"bike_id":"2eff6c3c-b3c7-4f79-9177-294eb1d510e0","system_id":"levelo_inurba_marseille","lat":43.21191,"lon":5.35026,"is_reserved":false,"is_disabled":false,"rental_uris":{"android":"levelo://app?vid=2eff6c3c-b3c7-4f79-9177-294eb1d510e0","ios":"levelo://app?vid=2eff6c3c-b3c7-4f79-9177-294eb1d510e0"},"vehicle_type_id":"4","last_reported":1778273103,"current_range_meters":7200,"station_id":"","pricing_plan_id":"cebpf4jnsgd1na2vs0mg"},{"bike_id":"feecb4be-b14f-4f21-b0cd-b401783be40f","system_id":"levelo_inurba_marseille","lat":43.27952,"lon":5.41037,"is_reserved":false,"is_disabled":false,"rental_uris":{"android":"levelo://app?vid=feecb4be-b14f-4f21-b0cd-b401783be40f","ios":"levelo://app?vid=feecb4be-b14f-4f21-b0cd-b401783be40f"},"vehicle_type_id":"4","last_reported":1778273103,"current_range_meters":7200,"station_id":"ce4bhnp2rcd13ifvqh0g","pricing_plan_id":"cebpf4jnsgd1na2vs0mg"},{"bike_id":"338578b3-d500-4475-89bc-43f6d832f4c5","system_id":"levelo_inurba_marseille","lat":43.248064,"lon":5.374581,"is_reserved":false,"is_disabled":false,"rental_uris":{"android":"levelo://app?vid=338578b3-d500-4475-89bc-43f6d832f4c5","ios":"levelo://app?vid=338578b3-d500-4475-89bc-43f6d832f4c5"},"vehicle_type_id":"4","last_reported":1778273103,"current_range_meters":8000,"station_id":"ce4bhgh2rcd13ifvqfb0","pricing_plan_id":"cebpf4jnsgd1na2vs0mg"},{"bike_id":"90540672-ad4d-4c6f-b897-335e0701a263","system_id":"levelo_inurba_marseille","lat":43.304576,"lon":5.393261,"is_reserved":false,"is_disabled":false,"rental_uris":{"android":"levelo://app?vid=90540672-ad4d-4c6f-b897-335e0701a263","ios":"levelo://app?vid=90540672-ad4d-4c6f-b897-335e0701a263"},"vehicle_type_id":"4","last_reported":1778273103,"current_range_meters":8000,"station_id":"ce4bgup2rcd13ifvqco0","pricing_plan_id":"cebpf4jnsgd1na2vs0mg"},{"bike_id":"8704e86d-6662-4401-b236-f886e415587e","system_id":"levelo_inurba_marseille","lat":43.29973,"lon":5.38488,"is_reserved":false,"is_disabled":false,"rental_uris":{"android":"levelo://app?vid=8704e86d-6662-4401-b236-f886e415587e","ios":"levelo://app?vid=8704e86d-6662-4401-b236-f886e415587e"},"vehicle_type_id":"4","last_reported":1778273103,"current_range_meters":8000,"station_id":"ce4bgj92rcd13ifvqbd0","pricing_plan_id":"cebpf4jnsgd1na2vs0mg"},{"bike_id":"320e4a76-3ce3-4be8-81ac-e4b92fadfb7c","system_id":"levelo_inurba_marseille","lat":43.29348,"lon":5.37846,"is_reserved":false,"is_disabled":false,"rental_uris":{"android":"levelo://app?vid=320e4a76-3ce3-4be8-81ac-e4b92fadfb7c","ios":"levelo://app?vid=320e4a76-3ce3-4be8-81ac-e4b92fadfb7c"},"vehicle_type_id":"4","last_reported":1778273103,"current_range_meters":8000,"station_id":"ce4bgjh2rcd13ifvqbf0","pricing_plan_id":"cebpf4jnsgd1na2vs0mg"},{"bike_id":"30464968-f617-451f-925d-ff2ceed6949b","system_id":"levelo_inurba_marseille","lat":43.31274,"lon":5.40169,"is_reserved":false,"is_disabled":false,"rental_uris":{"android":"levelo://app?vid=30464968-f617-451f-925d-ff2ceed6949b","ios":"levelo://app?vid=30464968-f617-451f-925d-ff2ceed6949b"},"vehicle_type_id":"4","last_reported":1778273103,"current_range_meters":8000,"station_id":"ce4bh092rcd13ifvqd30","pricing_plan_id":"cebpf4jnsgd1na2vs0mg"},{"bike_id":"7249cabf-d18b-4a69-b210-7b37505a67d5","system_id":"levelo_inurba_marseille","lat":43.28692,"lon":5.3866,"is_reserved":false,"is_disabled":false,"rental_uris":{"android":"levelo://app?vid=7249cabf-d18b-4a69-b210-7b37505a67d5","ios":"levelo://app?vid=7249cabf-d18b-4a69-b210-7b37505a67d5"},"vehicle_type_id":"4","last_reported":1778273103,"current_range_meters":8000,"station_id":"ce4bh492rcd13ifvqdug","pricing_plan_id":"cebpf4jnsgd1na2vs0mg"},{"bike_id":"f652416c-215e-4532-8e08-31a291343e8e","system_id":"levelo_inurba_marseille","lat":43.28556,"lon":5.38382,"is_reserved":false,"is_disabled":false,"rental_uris":{"android":"levelo://app?vid=f652416c-215e-4532-8e08-31a291343e8e","ios":"levelo://app?vid=f652416c-215e-4532-8e08-31a291343e8e"},"vehicle_type_id":"4","last_reported":1778273103,"current_range_meters":8000,"station_id":"","pricing_plan_id":"cebpf4jnsgd1na2vs0mg"},{"bike_id":"89c7237b-c678-4fba-a9b7-0825b89a0cde","system_id":"levelo_inurba_marseille","lat":43.29533,"lon":5.3853,"is_reserved":false,"is_disabled":false,"rental_uris":{"android":"levelo://app?vid=89c7237b-c678-4fba-a9b7-0825b89a0cde","ios":"levelo://app?vid=89c7237b-c678-4fba-a9b7-0825b89a0cde"},"vehicle_type_id":"4","last_reported":1778273103,"current_range_meters":8000,"station_id":"ce4bgih2rcd13ifvqba0","pricing_plan_id":"cebpf4jnsgd1na2vs0mg"},{"bike_id":"c90e6cae-dbe6-402b-9a31-659b3311ab55","system_id":"levelo_inurba_marseille","lat":43.28113,"lon":5.3786,"is_reserved":false,"is_disabled":false,"rental_uris":{"android":"levelo://app?vid=c90e6cae-dbe6-402b-9a31-659b3311ab55","ios":"levelo://app?vid=c90e6cae-dbe6-402b-9a31-659b3311ab55"},"vehicle_type_id":"4","last_reported":1778273103,"current_range_meters":8000,"station_id":"ce4bha12rcd13ifvqee0","pricing_plan_id":"cebpf4jnsgd1na2vs0mg"},{"bike_id":"6052b460-2ae9-4384-970a-feb21203acee","system_id":"levelo_inurba_marseille","lat":43.29928,"lon":5.37465,"is_reserved":false,"is_disabled":false,"rental_uris":{"android":"levelo://app?vid=6052b460-2ae9-4384-970a-feb21203acee","ios":"levelo://app?vid=6052b460-2ae9-4384-970a-feb21203acee"},"vehicle_type_id":"4","last_reported":1778273103,"current_range_meters":8000,"station_id":"ce4bgjh2rcd13ifvqbg0","pricing_plan_id":"cebpf4jnsgd1na2vs0mg"},{"bike_id":"56ad5b7b-5791-44a5-88a7-8285a39d9467","system_id":"levelo_inurba_marseille","lat":43.29257,"lon":5.38445,"is_reserved":false,"is_disabled":false,"rental_uris":{"android":"levelo://app?vid=56ad5b7b-5791-44a5-88a7-8285a39d9467","ios":"levelo://app?vid=56ad5b7b-5791-44a5-88a7-8285a39d9467"},"vehicle_type_id":"4","last_reported":1778273103,"current_range_meters":8000,"station_id":"","pricing_plan_id":"cebpf4jnsgd1na2vs0mg"},{"bike_id":"9ca31ed2-3d47-470b-b470-a268f22f5c6b","system_id":"levelo_inurba_marseille","lat":43.28864,"lon":5.42518,"is_reserved":false,"is_disabled":false,"rental_uris":{"android":"levelo://app?vid=9ca31ed2-3d47-470b-b470-a268f22f5c6b","ios":"levelo://app?vid=9ca31ed2-3d47-470b-b470-a268f22f5c6b"},"vehicle_type_id":"4","last_reported":1778273103,"current_range_meters":8000,"station_id":"st_d3b462108ojc7389ooeg","pricing_plan_id":"cebpf4jnsgd1na2vs0mg"},{"bike_id":"8bc8b868-be3c-444e-9108-77707340478e","system_id":"levelo_inurba_marseille","lat":43.29265,"lon":5.38459,"is_reserved":false,"is_disabled":false,"rental_uris":{"android":"levelo://app?vid=8bc8b868-be3c-444e-9108-77707340478e","ios":"levelo://app?vid=8bc8b868-be3c-444e-9108-77707340478e"},"vehicle_type_id":"4","last_reported":1778273103,"current_range_meters":8000,"station_id":"ce4bh692rcd13ifvqea0","pricing_plan_id":"cebpf4jnsgd1na2vs0mg"},{"bike_id":"4ee78646-fefd-4446-9cad-30077bd1d04f","system_id":"levelo_inurba_marseille","lat":43.30269,"lon":5.40113,"is_reserved":false,"is_disabled":true,"rental_uris":{"android":"levelo://app?vid=4ee78646-fefd-4446-9cad-30077bd1d04f","ios":"levelo://app?vid=4ee78646-fefd-4446-9cad-30077bd1d04f"},"vehicle_type_id":"4","last_reported":1778273103,"current_range_meters":8000,"station_id":"ce4bgvh2rcd13ifvqcs0","pricing_plan_id":"cebpf4jnsgd1na2vs0mg"},{"bike_id":"8fa2b6da-487b-4502-be9f-e31c4de519c2","system_id":"levelo_inurba_marseille","lat":43.29596,"lon":5.36734,"is_reserved":false,"is_disabled":false,"rental_uris":{"android":"levelo://app?vid=8fa2b6da-487b-4502-be9f-e31c4de519c2","ios":"levelo://app?vid=8fa2b6da-487b-4502-be9f-e31c4de519c2"},"vehicle_type_id":"4","last_reported":1778273103,"current_range_meters":8000,"station_id":"ce4bgph2rcd13ifvqc2g","pricing_plan_id":"cebpf4jnsgd1na2vs0mg"},{"bike_id":"fcfc9f76-6a6d-4fa2-9540-41c165d72bc8","system_id":"levelo_inurba_marseille","lat":43.31698,"lon":5.40476,"is_reserved":false,"is_disabled":false,"rental_uris":{"android":"levelo://app?vid=fcfc9f76-6a6d-4fa2-9540-41c165d72bc8","ios":"levelo://app?vid=fcfc9f76-6a6d-4fa2-9540-41c165d72bc8"},"vehicle_type_id":"4","last_reported":1778273103,"current_range_meters":8000,"station_id":"ce4bh012rcd13ifvqd00","pricing_plan_id":"cebpf4jnsgd1na2vs0mg"},{"bike_id":"f1341701-ce72-4914-bad3-31e4950fc2b5","system_id":"levelo_inurba_marseille","lat":43.29031,"lon":5.38151,"is_reserved":false,"is_disabled":true,"rental_uris":{"android":"levelo://app?vid=f1341701-ce72-4914-bad3-31e4950fc2b5","ios":"levelo://app?vid=f1341701-ce72-4914-bad3-31e4950fc2b5"},"vehicle_type_id":"4","last_reported":1778273103,"current_range_meters":8000,"station_id":"ce4bh4p2rcd13ifvqe1g","pricing_plan_id":"cebpf4jnsgd1na2vs0mg"},{"bike_id":"ba1a84df-99bc-4f91-b102-9b8b01f50ffc","system_id":"levelo_inurba_marseille","lat":43.31927,"lon":5.3681,"is_reserved":false,"is_disabled":false,"rental_uris":{"android":"levelo://app?vid=ba1a84df-99bc-4f91-b102-9b8b01f50ffc","ios":"levelo://app?vid=ba1a84df-99bc-4f91-b102-9b8b01f50ffc"},"vehicle_type_id":"4","last_reported":1778273103,"current_range_meters":8400,"station_id":"st_d6o2h0d0559c73evc1b0","pricing_plan_id":"cebpf4jnsgd1na2vs0mg"},{"bike_id":"e83fc71d-2947-41e1-b388-992bca16d160","system_id":"levelo_inurba_marseille","lat":43.29262,"lon":5.3844,"is_reserved":false,"is_disabled":false,"rental_uris":{"android":"levelo://app?vid=e83fc71d-2947-41e1-b388-992bca16d160","ios":"levelo://app?vid=e83fc71d-2947-41e1-b388-992bca16d160"},"vehicle_type_id":"4","last_reported":1778273103,"current_range_meters":8400,"station_id":"ce4bh692rcd13ifvqea0","pricing_plan_id":"cebpf4jnsgd1na2vs0mg"},{"bike_id":"0a6c38d4-1e0f-45e0-9aba-29b1d9d56d92","system_id":"levelo_inurba_marseille","lat":43.29531,"lon":5.3855,"is_reserved":false,"is_disabled":false,"rental_uris":{"android":"levelo://app?vid=0a6c38d4-1e0f-45e0-9aba-29b1d9d56d92","ios":"levelo://app?vid=0a6c38d4-1e0f-45e0-9aba-29b1d9d56d92"},"vehicle_type_id":"4","last_reported":1778273103,"current_range_meters":8400,"station_id":"ce4bgih2rcd13ifvqba0","pricing_plan_id":"cebpf4jnsgd1na2vs0mg"},{"bike_id":"8fdbe986-716a-4dce-a50d-3af695e9688c","system_id":"levelo_inurba_marseille","lat":43.33563,"lon":5.37473,"is_reserved":false,"is_disabled":false,"rental_uris":{"android":"levelo://app?vid=8fdbe986-716a-4dce-a50d-3af695e9688c","ios":"levelo://app?vid=8fdbe986-716a-4dce-a50d-3af695e9688c"},"vehicle_type_id":"4","last_reported":1778273103,"current_range_meters":8400,"station_id":"st_d46tts09ee8s73dlu43g","pricing_plan_id":"cebpf4jnsgd1na2vs0mg"},{"bike_id":"240f83cd-e330-45fb-9f58-4a13270cfff0","system_id":"levelo_inurba_marseille","lat":43.28201,"lon":5.42612,"is_reserved":false,"is_disabled":false,"rental_uris":{"android":"levelo://app?vid=240f83cd-e330-45fb-9f58-4a13270cfff0","ios":"levelo://app?vid=240f83cd-e330-45fb-9f58-4a13270cfff0"},"vehicle_type_id":"4","last_reported":1778273103,"current_range_meters":8400,"station_id":"","pricing_plan_id":"cebpf4jnsgd1na2vs0mg"},{"bike_id":"df2cd19f-1048-40e9-9629-2b7a3b719a72","system_id":"levelo_inurba_marseille","lat":43.26955,"lon":5.38638,"is_reserved":false,"is_disabled":false,"rental_uris":{"android":"levelo://app?vid=df2cd19f-1048-40e9-9629-2b7a3b719a72","ios":"levelo://app?vid=df2cd19f-1048-40e9-9629-2b7a3b719a72"},"vehicle_type_id":"4","last_reported":1778273103,"current_range_meters":8400,"station_id":"ce4bhh92rcd13ifvqfh0","pricing_plan_id":"cebpf4jnsgd1na2vs0mg"},{"bike_id":"09f03c71-3135-488b-aa1b-16f1834011a9","system_id":"levelo_inurba_marseille","lat":43.29198,"lon":5.35677,"is_reserved":false,"is_disabled":false,"rental_uris":{"android":"levelo://app?vid=09f03c71-3135-488b-aa1b-16f1834011a9","ios":"levelo://app?vid=09f03c71-3135-488b-aa1b-16f1834011a9"},"vehicle_type_id":"4","last_reported":1778273103,"current_range_meters":8400,"station_id":"","pricing_plan_id":"cebpf4jnsgd1na2vs0mg"},{"bike_id":"e9603e54-ff6b-4fae-9e9b-b17dd395cbe4","system_id":"levelo_inurba_marseille","lat":43.26366,"lon":5.39891,"is_reserved":false,"is_disabled":false,"rental_uris":{"android":"levelo://app?vid=e9603e54-ff6b-4fae-9e9b-b17dd395cbe4","ios":"levelo://app?vid=e9603e54-ff6b-4fae-9e9b-b17dd395cbe4"},"vehicle_type_id":"4","last_reported":1778273103,"current_range_meters":8400,"station_id":"","pricing_plan_id":"cebpf4jnsgd1na2vs0mg"},{"bike_id":"7a69b0f7-0103-48d1-a56f-a16801cc8b24","system_id":"levelo_inurba_marseille","lat":43.29991,"lon":5.38501,"is_reserved":false,"is_disabled":false,"rental_uris":{"android":"levelo://app?vid=7a69b0f7-0103-48d1-a56f-a16801cc8b24","ios":"levelo://app?vid=7a69b0f7-0103-48d1-a56f-a16801cc8b24"},"vehicle_type_id":"4","last_reported":1778273103,"current_range_meters":8400,"station_id":"ce4bgj92rcd13ifvqbd0","pricing_plan_id":"cebpf4jnsgd1na2vs0mg"},{"bike_id":"fe719e21-ec18-4bb4-81a4-fa2c0ee31e9b","system_id":"levelo_inurba_marseille","lat":43.30823,"lon":5.38152,"is_reserved":false,"is_disabled":false,"rental_uris":{"android":"levelo://app?vid=fe719e21-ec18-4bb4-81a4-fa2c0ee31e9b","ios":"levelo://app?vid=fe719e21-ec18-4bb4-81a4-fa2c0ee31e9b"},"vehicle_type_id":"4","last_reported":1778273103,"current_range_meters":8400,"station_id":"ce4bgt12rcd13ifvqce0","pricing_plan_id":"cebpf4jnsgd1na2vs0mg"},{"bike_id":"a2e4747e-6da9-4793-ba3f-57eee4d89866","system_id":"levelo_inurba_marseille","lat":43.30977,"lon":5.39034,"is_reserved":false,"is_disabled":false,"rental_uris":{"android":"levelo://app?vid=a2e4747e-6da9-4793-ba3f-57eee4d89866","ios":"levelo://app?vid=a2e4747e-6da9-4793-ba3f-57eee4d89866"},"vehicle_type_id":"4","last_reported":1778273103,"current_range_meters":8400,"station_id":"ce4bgup2rcd13ifvqco0","pricing_plan_id":"cebpf4jnsgd1na2vs0mg"},{"bike_id":"9bab0edf-ec8d-417b-879a-09472d29680b","system_id":"levelo_inurba_marseille","lat":43.266825,"lon":5.382769,"is_reserved":false,"is_disabled":false,"rental_uris":{"android":"levelo://app?vid=9bab0edf-ec8d-417b-879a-09472d29680b","ios":"levelo://app?vid=9bab0edf-ec8d-417b-879a-09472d29680b"},"vehicle_type_id":"4","last_reported":1778273103,"current_range_meters":8400,"station_id":"ce4bhg92rcd13ifvqf90","pricing_plan_id":"cebpf4jnsgd1na2vs0mg"},{"bike_id":"bcbab6c5-fe21-49d3-97bd-e41572cfde41","system_id":"levelo_inurba_marseille","lat":43.29271,"lon":5.38439,"is_reserved":false,"is_disabled":false,"rental_uris":{"android":"levelo://app?vid=bcbab6c5-fe21-49d3-97bd-e41572cfde41","ios":"levelo://app?vid=bcbab6c5-fe21-49d3-97bd-e41572cfde41"},"vehicle_type_id":"4","last_reported":1778273103,"current_range_meters":8400,"station_id":"ce4bh692rcd13ifvqea0","pricing_plan_id":"cebpf4jnsgd1na2vs0mg"},{"bike_id":"9d6e5803-f86e-480f-8608-b1264f61154e","system_id":"levelo_inurba_marseille","lat":43.32098,"lon":5.36812,"is_reserved":false,"is_disabled":false,"rental_uris":{"android":"levelo://app?vid=9d6e5803-f86e-480f-8608-b1264f61154e","ios":"levelo://app?vid=9d6e5803-f86e-480f-8608-b1264f61154e"},"vehicle_type_id":"4","last_reported":1778273103,"current_range_meters":8400,"station_id":"ce4bhrh2rcd13ifvqhug","pricing_plan_id":"cebpf4jnsgd1na2vs0mg"},{"bike_id":"a871c23b-f3f1-45b2-94f2-d5907303a6a6","system_id":"levelo_inurba_marseille","lat":43.29241,"lon":5.39311,"is_reserved":false,"is_disabled":false,"rental_uris":{"android":"levelo://app?vid=a871c23b-f3f1-45b2-94f2-d5907303a6a6","ios":"levelo://app?vid=a871c23b-f3f1-45b2-94f2-d5907303a6a6"},"vehicle_type_id":"4","last_reported":1778273103,"current_range_meters":8400,"station_id":"ce4bh192rcd13ifvqdd0","pricing_plan_id":"cebpf4jnsgd1na2vs0mg"},{"bike_id":"4d6231a1-2957-4c63-812f-7ae5414ff65a","system_id":"levelo_inurba_marseille","lat":43.29248,"lon":5.38418,"is_reserved":false,"is_disabled":false,"rental_uris":{"android":"levelo://app?vid=4d6231a1-2957-4c63-812f-7ae5414ff65a","ios":"levelo://app?vid=4d6231a1-2957-4c63-812f-7ae5414ff65a"},"vehicle_type_id":"4","last_reported":1778273103,"current_range_meters":8400,"station_id":"ce4bh692rcd13ifvqea0","pricing_plan_id":"cebpf4jnsgd1na2vs0mg"},{"bike_id":"ad983d68-b7a7-4c2a-9106-07f177081a07","system_id":"levelo_inurba_marseille","lat":43.28713,"lon":5.37409,"is_reserved":false,"is_disabled":false,"rental_uris":{"android":"levelo://app?vid=ad983d68-b7a7-4c2a-9106-07f177081a07","ios":"levelo://app?vid=ad983d68-b7a7-4c2a-9106-07f177081a07"},"vehicle_type_id":"4","last_reported":1778273103,"current_range_meters":8400,"station_id":"ce4bh3p2rcd13ifvqdq0","pricing_plan_id":"cebpf4jnsgd1na2vs0mg"},{"bike_id":"4e4fd847-cef8-4234-913f-bc6149603b88","system_id":"levelo_inurba_marseille","lat":43.29261,"lon":5.38443,"is_reserved":false,"is_disabled":false,"rental_uris":{"android":"levelo://app?vid=4e4fd847-cef8-4234-913f-bc6149603b88","ios":"levelo://app?vid=4e4fd847-cef8-4234-913f-bc6149603b88"},"vehicle_type_id":"4","last_reported":1778273103,"current_range_meters":8400,"station_id":"","pricing_plan_id":"cebpf4jnsgd1na2vs0mg"},{"bike_id":"bdd7e5e6-a507-4b27-9760-4ad4469a7c6c","system_id":"levelo_inurba_marseille","lat":43.299253,"lon":5.374698,"is_reserved":false,"is_disabled":false,"rental_uris":{"android":"levelo://app?vid=bdd7e5e6-a507-4b27-9760-4ad4469a7c6c","ios":"levelo://app?vid=bdd7e5e6-a507-4b27-9760-4ad4469a7c6c"},"vehicle_type_id":"4","last_reported":1778273103,"current_range_meters":8400,"station_id":"ce4bgjh2rcd13ifvqbg0","pricing_plan_id":"cebpf4jnsgd1na2vs0mg"},{"bike_id":"1261a57e-b9db-4e44-b05c-c17513cf7550","system_id":"levelo_inurba_marseille","lat":43.270688,"lon":5.422857,"is_reserved":false,"is_disabled":false,"rental_uris":{"android":"levelo://app?vid=1261a57e-b9db-4e44-b05c-c17513cf7550","ios":"levelo://app?vid=1261a57e-b9db-4e44-b05c-c17513cf7550"},"vehicle_type_id":"4","last_reported":1778273103,"current_range_meters":8400,"station_id":"ce4bhk92rcd13ifvqgb0","pricing_plan_id":"cebpf4jnsgd1na2vs0mg"},{"bike_id":"e8461b56-9af7-4d44-a288-92e063783260","system_id":"levelo_inurba_marseille","lat":43.26223,"lon":5.40444,"is_reserved":false,"is_disabled":false,"rental_uris":{"android":"levelo://app?vid=e8461b56-9af7-4d44-a288-92e063783260","ios":"levelo://app?vid=e8461b56-9af7-4d44-a288-92e063783260"},"vehicle_type_id":"4","last_reported":1778273103,"current_range_meters":8400,"station_id":"ce4bhmh2rcd13ifvqgmg","pricing_plan_id":"cebpf4jnsgd1na2vs0mg"},{"bike_id":"83b8a08a-716e-43f1-81bd-dee98c2831c3","system_id":"levelo_inurba_marseille","lat":43.29267,"lon":5.38455,"is_reserved":false,"is_disabled":false,"rental_uris":{"android":"levelo://app?vid=83b8a08a-716e-43f1-81bd-dee98c2831c3","ios":"levelo://app?vid=83b8a08a-716e-43f1-81bd-dee98c2831c3"},"vehicle_type_id":"4","last_reported":1778273103,"current_range_meters":8400,"station_id":"ce4bh692rcd13ifvqea0","pricing_plan_id":"cebpf4jnsgd1na2vs0mg"},{"bike_id":"48f460bf-a506-4ac0-8337-530ebbfaf540","system_id":"levelo_inurba_marseille","lat":43.31152,"lon":5.38706,"is_reserved":false,"is_disabled":false,"rental_uris":{"android":"levelo://app?vid=48f460bf-a506-4ac0-8337-530ebbfaf540","ios":"levelo://app?vid=48f460bf-a506-4ac0-8337-530ebbfaf540"},