{"last_updated":1722161267,"ttl":30,"version":"2.2","data":{"bikes":[{"bike_id":"bbe25474-5571-419f-9d4e-8cd02ba31564","system_id":"levelo_inurba_marseille","lat":43.313391,"lon":5.36706,"is_reserved":false,"is_disabled":false,"rental_uris":{"android":"levelo://app?vid=bbe25474-5571-419f-9d4e-8cd02ba31564","ios":"levelo://app?vid=bbe25474-5571-419f-9d4e-8cd02ba31564"},"vehicle_type_id":"4","last_reported":1722161268,"current_range_meters":31200,"station_id":"ce4bgr92rcd13ifvqc6g","pricing_plan_id":"cebpf4jnsgd1na2vs0mg"},{"bike_id":"271d998f-f5b1-4208-8808-9b16fce68b7d","system_id":"levelo_inurba_marseille","lat":43.312239,"lon":5.368562,"is_reserved":false,"is_disabled":false,"rental_uris":{"android":"levelo://app?vid=271d998f-f5b1-4208-8808-9b16fce68b7d","ios":"levelo://app?vid=271d998f-f5b1-4208-8808-9b16fce68b7d"},"vehicle_type_id":"4","last_reported":1722161268,"current_range_meters":28400,"station_id":"ce4bgl92rcd13ifvqbq0","pricing_plan_id":"cebpf4jnsgd1na2vs0mg"},{"bike_id":"bfdb1514-9e24-498f-8ad0-7358cba68a2c","system_id":"levelo_inurba_marseille","lat":43.309076,"lon":5.368465,"is_reserved":false,"is_disabled":false,"rental_uris":{"android":"levelo://app?vid=bfdb1514-9e24-498f-8ad0-7358cba68a2c","ios":"levelo://app?vid=bfdb1514-9e24-498f-8ad0-7358cba68a2c"},"vehicle_type_id":"4","last_reported":1722161268,"current_range_meters":26000,"station_id":"ce4bgn92rcd13ifvqbvg","pricing_plan_id":"cebpf4jnsgd1na2vs0mg"},{"bike_id":"978a0795-7438-4c64-9a6a-b1e426d188d6","system_id":"levelo_inurba_marseille","lat":43.31752,"lon":5.36874,"is_reserved":false,"is_disabled":false,"rental_uris":{"android":"levelo://app?vid=978a0795-7438-4c64-9a6a-b1e426d188d6","ios":"levelo://app?vid=978a0795-7438-4c64-9a6a-b1e426d188d6"},"vehicle_type_id":"4","last_reported":1722161268,"current_range_meters":3200,"station_id":"","pricing_plan_id":"cebpf4jnsgd1na2vs0mg"},{"bike_id":"2a14b3da-7439-4090-bc36-3fa78b2bfa97","system_id":"levelo_inurba_marseille","lat":43.309039,"lon":5.371797,"is_reserved":false,"is_disabled":false,"rental_uris":{"android":"levelo://app?vid=2a14b3da-7439-4090-bc36-3fa78b2bfa97","ios":"levelo://app?vid=2a14b3da-7439-4090-bc36-3fa78b2bfa97"},"vehicle_type_id":"4","last_reported":1722161268,"current_range_meters":26000,"station_id":"ce4bguh2rcd13ifvqckg","pricing_plan_id":"cebpf4jnsgd1na2vs0mg"},{"bike_id":"159dbf3f-cb3e-4128-a02f-30ea02633734","system_id":"levelo_inurba_marseille","lat":43.309838,"lon":5.37322,"is_reserved":false,"is_disabled":false,"rental_uris":{"android":"levelo://app?vid=159dbf3f-cb3e-4128-a02f-30ea02633734","ios":"levelo://app?vid=159dbf3f-cb3e-4128-a02f-30ea02633734"},"vehicle_type_id":"4","last_reported":1722161268,"current_range_meters":16400,"station_id":"","pricing_plan_id":"cebpf4jnsgd1na2vs0mg"},{"bike_id":"2d8fd02b-c68d-484f-9c6a-4923d2a9fd5b","system_id":"levelo_inurba_marseille","lat":43.316705,"lon":5.375202,"is_reserved":false,"is_disabled":false,"rental_uris":{"android":"levelo://app?vid=2d8fd02b-c68d-484f-9c6a-4923d2a9fd5b","ios":"levelo://app?vid=2d8fd02b-c68d-484f-9c6a-4923d2a9fd5b"},"vehicle_type_id":"4","last_reported":1722161268,"current_range_meters":28000,"station_id":"","pricing_plan_id":"cebpf4jnsgd1na2vs0mg"},{"bike_id":"e31b7490-3e3e-448d-983c-d14bde2bf611","system_id":"levelo_inurba_marseille","lat":43.30706,"lon":5.37307,"is_reserved":false,"is_disabled":false,"rental_uris":{"android":"levelo://app?vid=e31b7490-3e3e-448d-983c-d14bde2bf611","ios":"levelo://app?vid=e31b7490-3e3e-448d-983c-d14bde2bf611"},"vehicle_type_id":"4","last_reported":1722161268,"current_range_meters":3600,"station_id":"","pricing_plan_id":"cebpf4jnsgd1na2vs0mg"},{"bike_id":"d5ce2e72-1df1-411a-bf6b-52edde4e4497","system_id":"levelo_inurba_marseille","lat":43.305712,"lon":5.365641,"is_reserved":false,"is_disabled":false,"rental_uris":{"android":"levelo://app?vid=d5ce2e72-1df1-411a-bf6b-52edde4e4497","ios":"levelo://app?vid=d5ce2e72-1df1-411a-bf6b-52edde4e4497"},"vehicle_type_id":"4","last_reported":1722161268,"current_range_meters":20000,"station_id":"ce4bgs12rcd13ifvqcag","pricing_plan_id":"cebpf4jnsgd1na2vs0mg"},{"bike_id":"46e78784-47e8-4d75-b8b6-6655fec58558","system_id":"levelo_inurba_marseille","lat":43.305712,"lon":5.365641,"is_reserved":false,"is_disabled":false,"rental_uris":{"android":"levelo://app?vid=46e78784-47e8-4d75-b8b6-6655fec58558","ios":"levelo://app?vid=46e78784-47e8-4d75-b8b6-6655fec58558"},"vehicle_type_id":"4","last_reported":1722161268,"current_range_meters":12400,"station_id":"ce4bgs12rcd13ifvqcag","pricing_plan_id":"cebpf4jnsgd1na2vs0mg"},{"bike_id":"bbf4b190-6826-4a00-9910-1f4b49f020e7","system_id":"levelo_inurba_marseille","lat":43.305712,"lon":5.365641,"is_reserved":false,"is_disabled":false,"rental_uris":{"android":"levelo://app?vid=bbf4b190-6826-4a00-9910-1f4b49f020e7","ios":"levelo://app?vid=bbf4b190-6826-4a00-9910-1f4b49f020e7"},"vehicle_type_id":"4","last_reported":1722161268,"current_range_meters":26000,"station_id":"ce4bgs12rcd13ifvqcag","pricing_plan_id":"cebpf4jnsgd1na2vs0mg"},{"bike_id":"c426baee-d9f9-457b-97d1-7004f085a3dc","system_id":"levelo_inurba_marseille","lat":43.3055,"lon":5.36531,"is_reserved":false,"is_disabled":false,"rental_uris":{"android":"levelo://app?vid=c426baee-d9f9-457b-97d1-7004f085a3dc","ios":"levelo://app?vid=c426baee-d9f9-457b-97d1-7004f085a3dc"},"vehicle_type_id":"4","last_reported":1722161268,"current_range_meters":28800,"station_id":"ce4bgs12rcd13ifvqcag","pricing_plan_id":"cebpf4jnsgd1na2vs0mg"},{"bike_id":"a663552c-4a0a-4ecb-8c98-e69c4829e43d","system_id":"levelo_inurba_marseille","lat":43.30547,"lon":5.36531,"is_reserved":false,"is_disabled":false,"rental_uris":{"android":"levelo://app?vid=a663552c-4a0a-4ecb-8c98-e69c4829e43d","ios":"levelo://app?vid=a663552c-4a0a-4ecb-8c98-e69c4829e43d"},"vehicle_type_id":"4","last_reported":1722161268,"current_range_meters":31200,"station_id":"ce4bgs12rcd13ifvqcag","pricing_plan_id":"cebpf4jnsgd1na2vs0mg"},{"bike_id":"3edeed49-ba71-4d0d-891e-3955a2879edd","system_id":"levelo_inurba_marseille","lat":43.305714,"lon":5.365633,"is_reserved":false,"is_disabled":false,"rental_uris":{"android":"levelo://app?vid=3edeed49-ba71-4d0d-891e-3955a2879edd","ios":"levelo://app?vid=3edeed49-ba71-4d0d-891e-3955a2879edd"},"vehicle_type_id":"4","last_reported":1722161268,"current_range_meters":26000,"station_id":"ce4bgs12rcd13ifvqcag","pricing_plan_id":"cebpf4jnsgd1na2vs0mg"},{"bike_id":"6ce56965-0077-4423-bb69-53208b5ea3fc","system_id":"levelo_inurba_marseille","lat":43.30544,"lon":5.36524,"is_reserved":false,"is_disabled":false,"rental_uris":{"android":"levelo://app?vid=6ce56965-0077-4423-bb69-53208b5ea3fc","ios":"levelo://app?vid=6ce56965-0077-4423-bb69-53208b5ea3fc"},"vehicle_type_id":"4","last_reported":1722161268,"current_range_meters":400,"station_id":"ce4bgs12rcd13ifvqcag","pricing_plan_id":"cebpf4jnsgd1na2vs0mg"},{"bike_id":"19d9e753-cae5-4542-a030-e188985601c9","system_id":"levelo_inurba_marseille","lat":43.311131,"lon":5.377651,"is_reserved":false,"is_disabled":false,"rental_uris":{"android":"levelo://app?vid=19d9e753-cae5-4542-a030-e188985601c9","ios":"levelo://app?vid=19d9e753-cae5-4542-a030-e188985601c9"},"vehicle_type_id":"4","last_reported":1722161268,"current_range_meters":3600,"station_id":"ce4bgt92rcd13ifvqcg0","pricing_plan_id":"cebpf4jnsgd1na2vs0mg"},{"bike_id":"13691a0d-d510-4192-8901-1fbf8f231fea","system_id":"levelo_inurba_marseille","lat":43.311125,"lon":5.377624,"is_reserved":false,"is_disabled":false,"rental_uris":{"android":"levelo://app?vid=13691a0d-d510-4192-8901-1fbf8f231fea","ios":"levelo://app?vid=13691a0d-d510-4192-8901-1fbf8f231fea"},"vehicle_type_id":"4","last_reported":1722161268,"current_range_meters":400,"station_id":"ce4bgt92rcd13ifvqcg0","pricing_plan_id":"cebpf4jnsgd1na2vs0mg"},{"bike_id":"b1918706-88f3-4586-83a7-4f9911880f52","system_id":"levelo_inurba_marseille","lat":43.311125,"lon":5.377624,"is_reserved":false,"is_disabled":false,"rental_uris":{"android":"levelo://app?vid=b1918706-88f3-4586-83a7-4f9911880f52","ios":"levelo://app?vid=b1918706-88f3-4586-83a7-4f9911880f52"},"vehicle_type_id":"4","last_reported":1722161268,"current_range_meters":25600,"station_id":"ce4bgt92rcd13ifvqcg0","pricing_plan_id":"cebpf4jnsgd1na2vs0mg"},{"bike_id":"0c9fadff-01d0-4ecb-a97b-2c893e8b9fda","system_id":"levelo_inurba_marseille","lat":43.317075,"lon":5.377367,"is_reserved":false,"is_disabled":false,"rental_uris":{"android":"levelo://app?vid=0c9fadff-01d0-4ecb-a97b-2c893e8b9fda","ios":"levelo://app?vid=0c9fadff-01d0-4ecb-a97b-2c893e8b9fda"},"vehicle_type_id":"4","last_reported":1722161268,"current_range_meters":16000,"station_id":"ce4bgth2rcd13ifvqch0","pricing_plan_id":"cebpf4jnsgd1na2vs0mg"},{"bike_id":"860d37f3-1fb4-4fec-a949-6d6437a511d0","system_id":"levelo_inurba_marseille","lat":43.317075,"lon":5.377367,"is_reserved":false,"is_disabled":false,"rental_uris":{"android":"levelo://app?vid=860d37f3-1fb4-4fec-a949-6d6437a511d0","ios":"levelo://app?vid=860d37f3-1fb4-4fec-a949-6d6437a511d0"},"vehicle_type_id":"4","last_reported":1722161268,"current_range_meters":28800,"station_id":"ce4bgth2rcd13ifvqch0","pricing_plan_id":"cebpf4jnsgd1na2vs0mg"},{"bike_id":"335ac510-43da-4036-be34-daeb21912855","system_id":"levelo_inurba_marseille","lat":43.317075,"lon":5.377367,"is_reserved":false,"is_disabled":false,"rental_uris":{"android":"levelo://app?vid=335ac510-43da-4036-be34-daeb21912855","ios":"levelo://app?vid=335ac510-43da-4036-be34-daeb21912855"},"vehicle_type_id":"4","last_reported":1722161268,"current_range_meters":5600,"station_id":"ce4bgth2rcd13ifvqch0","pricing_plan_id":"cebpf4jnsgd1na2vs0mg"},{"bike_id":"1911d356-3f14-4819-8104-7730ab762002","system_id":"levelo_inurba_marseille","lat":43.317075,"lon":5.377367,"is_reserved":false,"is_disabled":false,"rental_uris":{"android":"levelo://app?vid=1911d356-3f14-4819-8104-7730ab762002","ios":"levelo://app?vid=1911d356-3f14-4819-8104-7730ab762002"},"vehicle_type_id":"4","last_reported":1722161268,"current_range_meters":9200,"station_id":"ce4bgth2rcd13ifvqch0","pricing_plan_id":"cebpf4jnsgd1na2vs0mg"},{"bike_id":"758c32af-f175-47ee-abc0-ca267043b1d6","system_id":"levelo_inurba_marseille","lat":43.317075,"lon":5.377367,"is_reserved":false,"is_disabled":false,"rental_uris":{"android":"levelo://app?vid=758c32af-f175-47ee-abc0-ca267043b1d6","ios":"levelo://app?vid=758c32af-f175-47ee-abc0-ca267043b1d6"},"vehicle_type_id":"4","last_reported":1722161268,"current_range_meters":32000,"station_id":"ce4bgth2rcd13ifvqch0","pricing_plan_id":"cebpf4jnsgd1na2vs0mg"},{"bike_id":"ce2623d7-e957-4a2a-b583-e059331a4f65","system_id":"levelo_inurba_marseille","lat":43.317075,"lon":5.377367,"is_reserved":false,"is_disabled":false,"rental_uris":{"android":"levelo://app?vid=ce2623d7-e957-4a2a-b583-e059331a4f65","ios":"levelo://app?vid=ce2623d7-e957-4a2a-b583-e059331a4f65"},"vehicle_type_id":"4","last_reported":1722161268,"current_range_meters":28000,"station_id":"ce4bgth2rcd13ifvqch0","pricing_plan_id":"cebpf4jnsgd1na2vs0mg"},{"bike_id":"cf6d9d36-a9ce-4c51-a442-965e86d42c84","system_id":"levelo_inurba_marseille","lat":43.31568,"lon":5.380267,"is_reserved":false,"is_disabled":false,"rental_uris":{"android":"levelo://app?vid=cf6d9d36-a9ce-4c51-a442-965e86d42c84","ios":"levelo://app?vid=cf6d9d36-a9ce-4c51-a442-965e86d42c84"},"vehicle_type_id":"4","last_reported":1722161268,"current_range_meters":8800,"station_id":"ce4bhsp2rcd13ifvqi50","pricing_plan_id":"cebpf4jnsgd1na2vs0mg"},{"bike_id":"9d6e790a-3160-4ce3-862a-5cce3f954fc4","system_id":"levelo_inurba_marseille","lat":43.301939,"lon":5.366286,"is_reserved":false,"is_disabled":false,"rental_uris":{"android":"levelo://app?vid=9d6e790a-3160-4ce3-862a-5cce3f954fc4","ios":"levelo://app?vid=9d6e790a-3160-4ce3-862a-5cce3f954fc4"},"vehicle_type_id":"4","last_reported":1722161268,"current_range_meters":10000,"station_id":"ce4bgrh2rcd13ifvqc8g","pricing_plan_id":"cebpf4jnsgd1na2vs0mg"},{"bike_id":"62b96e2a-ee35-4a6e-8166-908ffe3bf56e","system_id":"levelo_inurba_marseille","lat":43.301939,"lon":5.366286,"is_reserved":false,"is_disabled":false,"rental_uris":{"android":"levelo://app?vid=62b96e2a-ee35-4a6e-8166-908ffe3bf56e","ios":"levelo://app?vid=62b96e2a-ee35-4a6e-8166-908ffe3bf56e"},"vehicle_type_id":"4","last_reported":1722161268,"current_range_meters":28800,"station_id":"ce4bgrh2rcd13ifvqc8g","pricing_plan_id":"cebpf4jnsgd1na2vs0mg"},{"bike_id":"426d57c6-c879-41f3-842e-ed7db2cdac5d","system_id":"levelo_inurba_marseille","lat":43.301939,"lon":5.366286,"is_reserved":false,"is_disabled":false,"rental_uris":{"android":"levelo://app?vid=426d57c6-c879-41f3-842e-ed7db2cdac5d","ios":"levelo://app?vid=426d57c6-c879-41f3-842e-ed7db2cdac5d"},"vehicle_type_id":"4","last_reported":1722161268,"current_range_meters":11600,"station_id":"ce4bgrh2rcd13ifvqc8g","pricing_plan_id":"cebpf4jnsgd1na2vs0mg"},{"bike_id":"37e29a7f-3973-4f32-8bcd-bb7bba9e00ba","system_id":"levelo_inurba_marseille","lat":43.308012,"lon":5.381511,"is_reserved":false,"is_disabled":false,"rental_uris":{"android":"levelo://app?vid=37e29a7f-3973-4f32-8bcd-bb7bba9e00ba","ios":"levelo://app?vid=37e29a7f-3973-4f32-8bcd-bb7bba9e00ba"},"vehicle_type_id":"4","last_reported":1722161268,"current_range_meters":17200,"station_id":"ce4bgt12rcd13ifvqce0","pricing_plan_id":"cebpf4jnsgd1na2vs0mg"},{"bike_id":"49784d1d-d56f-4414-88bb-a49fdb46aa87","system_id":"levelo_inurba_marseille","lat":43.304606,"lon":5.379026,"is_reserved":false,"is_disabled":false,"rental_uris":{"android":"levelo://app?vid=49784d1d-d56f-4414-88bb-a49fdb46aa87","ios":"levelo://app?vid=49784d1d-d56f-4414-88bb-a49fdb46aa87"},"vehicle_type_id":"4","last_reported":1722161268,"current_range_meters":23200,"station_id":"ce4bgup2rcd13ifvqcn0","pricing_plan_id":"cebpf4jnsgd1na2vs0mg"},{"bike_id":"e5a1b393-8ae6-4ad0-b5de-dd137098478e","system_id":"levelo_inurba_marseille","lat":43.30457,"lon":5.37903,"is_reserved":false,"is_disabled":false,"rental_uris":{"android":"levelo://app?vid=e5a1b393-8ae6-4ad0-b5de-dd137098478e","ios":"levelo://app?vid=e5a1b393-8ae6-4ad0-b5de-dd137098478e"},"vehicle_type_id":"4","last_reported":1722161268,"current_range_meters":18000,"station_id":"ce4bgup2rcd13ifvqcn0","pricing_plan_id":"cebpf4jnsgd1na2vs0mg"},{"bike_id":"a9bb2acc-40ee-4783-9004-e4537b5713af","system_id":"levelo_inurba_marseille","lat":43.32481,"lon":5.36565,"is_reserved":false,"is_disabled":false,"rental_uris":{"android":"levelo://app?vid=a9bb2acc-40ee-4783-9004-e4537b5713af","ios":"levelo://app?vid=a9bb2acc-40ee-4783-9004-e4537b5713af"},"vehicle_type_id":"4","last_reported":1722161268,"current_range_meters":28000,"station_id":"ce4bhs12rcd13ifvqhvg","pricing_plan_id":"cebpf4jnsgd1na2vs0mg"},{"bike_id":"74622a59-7c72-416d-b909-98817b7d08b2","system_id":"levelo_inurba_marseille","lat":43.324771,"lon":5.36557,"is_reserved":false,"is_disabled":false,"rental_uris":{"android":"levelo://app?vid=74622a59-7c72-416d-b909-98817b7d08b2","ios":"levelo://app?vid=74622a59-7c72-416d-b909-98817b7d08b2"},"vehicle_type_id":"4","last_reported":1722161268,"current_range_meters":14400,"station_id":"ce4bhs12rcd13ifvqhvg","pricing_plan_id":"cebpf4jnsgd1na2vs0mg"},{"bike_id":"7fc59e34-6f40-4e8f-8e9c-e8bea02bf36c","system_id":"levelo_inurba_marseille","lat":43.324771,"lon":5.36557,"is_reserved":false,"is_disabled":false,"rental_uris":{"android":"levelo://app?vid=7fc59e34-6f40-4e8f-8e9c-e8bea02bf36c","ios":"levelo://app?vid=7fc59e34-6f40-4e8f-8e9c-e8bea02bf36c"},"vehicle_type_id":"4","last_reported":1722161268,"current_range_meters":30000,"station_id":"ce4bhs12rcd13ifvqhvg","pricing_plan_id":"cebpf4jnsgd1na2vs0mg"},{"bike_id":"1c05e2d9-edb4-4bb7-acee-a96302ac63eb","system_id":"levelo_inurba_marseille","lat":43.324771,"lon":5.36557,"is_reserved":false,"is_disabled":false,"rental_uris":{"android":"levelo://app?vid=1c05e2d9-edb4-4bb7-acee-a96302ac63eb","ios":"levelo://app?vid=1c05e2d9-edb4-4bb7-acee-a96302ac63eb"},"vehicle_type_id":"4","last_reported":1722161268,"current_range_meters":30400,"station_id":"ce4bhs12rcd13ifvqhvg","pricing_plan_id":"cebpf4jnsgd1na2vs0mg"},{"bike_id":"48a4d778-6b37-43c7-95f5-4e690b928260","system_id":"levelo_inurba_marseille","lat":43.32486,"lon":5.36572,"is_reserved":false,"is_disabled":false,"rental_uris":{"android":"levelo://app?vid=48a4d778-6b37-43c7-95f5-4e690b928260","ios":"levelo://app?vid=48a4d778-6b37-43c7-95f5-4e690b928260"},"vehicle_type_id":"4","last_reported":1722161268,"current_range_meters":28800,"station_id":"ce4bhs12rcd13ifvqhvg","pricing_plan_id":"cebpf4jnsgd1na2vs0mg"},{"bike_id":"2f63918a-6371-49db-8c2f-5a5eeefbb1f9","system_id":"levelo_inurba_marseille","lat":43.32489,"lon":5.36567,"is_reserved":false,"is_disabled":false,"rental_uris":{"android":"levelo://app?vid=2f63918a-6371-49db-8c2f-5a5eeefbb1f9","ios":"levelo://app?vid=2f63918a-6371-49db-8c2f-5a5eeefbb1f9"},"vehicle_type_id":"4","last_reported":1722161268,"current_range_meters":16400,"station_id":"ce4bhs12rcd13ifvqhvg","pricing_plan_id":"cebpf4jnsgd1na2vs0mg"},{"bike_id":"010f27ad-f0d6-4ee6-8aa7-176267c49d25","system_id":"levelo_inurba_marseille","lat":43.310804,"lon":5.38359,"is_reserved":false,"is_disabled":false,"rental_uris":{"android":"levelo://app?vid=010f27ad-f0d6-4ee6-8aa7-176267c49d25","ios":"levelo://app?vid=010f27ad-f0d6-4ee6-8aa7-176267c49d25"},"vehicle_type_id":"4","last_reported":1722161268,"current_range_meters":10800,"station_id":"ce4bgv92rcd13ifvqcr0","pricing_plan_id":"cebpf4jnsgd1na2vs0mg"},{"bike_id":"44b0db94-b1a2-432e-89be-8cede120d828","system_id":"levelo_inurba_marseille","lat":43.310804,"lon":5.38359,"is_reserved":false,"is_disabled":false,"rental_uris":{"android":"levelo://app?vid=44b0db94-b1a2-432e-89be-8cede120d828","ios":"levelo://app?vid=44b0db94-b1a2-432e-89be-8cede120d828"},"vehicle_type_id":"4","last_reported":1722161268,"current_range_meters":8400,"station_id":"ce4bgv92rcd13ifvqcr0","pricing_plan_id":"cebpf4jnsgd1na2vs0mg"},{"bike_id":"3498bef9-dc04-4ae1-9e4e-e0c2bfa68f1f","system_id":"levelo_inurba_marseille","lat":43.310804,"lon":5.38359,"is_reserved":false,"is_disabled":false,"rental_uris":{"android":"levelo://app?vid=3498bef9-dc04-4ae1-9e4e-e0c2bfa68f1f","ios":"levelo://app?vid=3498bef9-dc04-4ae1-9e4e-e0c2bfa68f1f"},"vehicle_type_id":"4","last_reported":1722161268,"current_range_meters":20000,"station_id":"ce4bgv92rcd13ifvqcr0","pricing_plan_id":"cebpf4jnsgd1na2vs0mg"},{"bike_id":"ab85d8d5-40c4-43ec-9bbe-0e2b4ebffb5a","system_id":"levelo_inurba_marseille","lat":43.302784,"lon":5.377158,"is_reserved":false,"is_disabled":false,"rental_uris":{"android":"levelo://app?vid=ab85d8d5-40c4-43ec-9bbe-0e2b4ebffb5a","ios":"levelo://app?vid=ab85d8d5-40c4-43ec-9bbe-0e2b4ebffb5a"},"vehicle_type_id":"4","last_reported":1722161268,"current_range_meters":14000,"station_id":"ce4bguh2rcd13ifvqcj0","pricing_plan_id":"cebpf4jnsgd1na2vs0mg"},{"bike_id":"49a56ba3-3601-4fa1-9e53-729cc1624a14","system_id":"levelo_inurba_marseille","lat":43.301429,"lon":5.37413,"is_reserved":false,"is_disabled":false,"rental_uris":{"android":"levelo://app?vid=49a56ba3-3601-4fa1-9e53-729cc1624a14","ios":"levelo://app?vid=49a56ba3-3601-4fa1-9e53-729cc1624a14"},"vehicle_type_id":"4","last_reported":1722161268,"current_range_meters":26400,"station_id":"ce4bgs92rcd13ifvqcc0","pricing_plan_id":"cebpf4jnsgd1na2vs0mg"},{"bike_id":"1c4555f4-f4d0-4b31-9fdf-0032a11f0fe4","system_id":"levelo_inurba_marseille","lat":43.322907,"lon":5.37739,"is_reserved":false,"is_disabled":false,"rental_uris":{"android":"levelo://app?vid=1c4555f4-f4d0-4b31-9fdf-0032a11f0fe4","ios":"levelo://app?vid=1c4555f4-f4d0-4b31-9fdf-0032a11f0fe4"},"vehicle_type_id":"4","last_reported":1722161268,"current_range_meters":12000,"station_id":"","pricing_plan_id":"cebpf4jnsgd1na2vs0mg"},{"bike_id":"64efb8ba-933f-47fc-b58f-b13d857f90b0","system_id":"levelo_inurba_marseille","lat":43.316111,"lon":5.383868,"is_reserved":false,"is_disabled":false,"rental_uris":{"android":"levelo://app?vid=64efb8ba-933f-47fc-b58f-b13d857f90b0","ios":"levelo://app?vid=64efb8ba-933f-47fc-b58f-b13d857f90b0"},"vehicle_type_id":"4","last_reported":1722161268,"current_range_meters":28800,"station_id":"","pricing_plan_id":"cebpf4jnsgd1na2vs0mg"},{"bike_id":"2e48d301-b6ed-4102-b03f-f73a2381baaa","system_id":"levelo_inurba_marseille","lat":43.319935,"lon":5.381699,"is_reserved":false,"is_disabled":false,"rental_uris":{"android":"levelo://app?vid=2e48d301-b6ed-4102-b03f-f73a2381baaa","ios":"levelo://app?vid=2e48d301-b6ed-4102-b03f-f73a2381baaa"},"vehicle_type_id":"4","last_reported":1722161268,"current_range_meters":31600,"station_id":"ce4bhr12rcd13ifvqhpg","pricing_plan_id":"cebpf4jnsgd1na2vs0mg"},{"bike_id":"4394ee0f-0d24-4ae0-84d4-2e365291ad6c","system_id":"levelo_inurba_marseille","lat":43.319935,"lon":5.381699,"is_reserved":false,"is_disabled":false,"rental_uris":{"android":"levelo://app?vid=4394ee0f-0d24-4ae0-84d4-2e365291ad6c","ios":"levelo://app?vid=4394ee0f-0d24-4ae0-84d4-2e365291ad6c"},"vehicle_type_id":"4","last_reported":1722161268,"current_range_meters":27600,"station_id":"ce4bhr12rcd13ifvqhpg","pricing_plan_id":"cebpf4jnsgd1na2vs0mg"},{"bike_id":"e49c4a25-1818-43e9-b8bf-7713e32fdbb5","system_id":"levelo_inurba_marseille","lat":43.313571,"lon":5.384829,"is_reserved":false,"is_disabled":false,"rental_uris":{"android":"levelo://app?vid=e49c4a25-1818-43e9-b8bf-7713e32fdbb5","ios":"levelo://app?vid=e49c4a25-1818-43e9-b8bf-7713e32fdbb5"},"vehicle_type_id":"4","last_reported":1722161268,"current_range_meters":12800,"station_id":"ce4bgt92rcd13ifvqcf0","pricing_plan_id":"cebpf4jnsgd1na2vs0mg"},{"bike_id":"f112fe8e-074a-460f-8de3-80c12074d4d3","system_id":"levelo_inurba_marseille","lat":43.299385,"lon":5.365545,"is_reserved":false,"is_disabled":false,"rental_uris":{"android":"levelo://app?vid=f112fe8e-074a-460f-8de3-80c12074d4d3","ios":"levelo://app?vid=f112fe8e-074a-460f-8de3-80c12074d4d3"},"vehicle_type_id":"4","last_reported":1722161268,"current_range_meters":25200,"station_id":"","pricing_plan_id":"cebpf4jnsgd1na2vs0mg"},{"bike_id":"0004125c-9f75-42d7-ac98-2aa01460aa6b","system_id":"levelo_inurba_marseille","lat":43.299222,"lon":5.365554,"is_reserved":false,"is_disabled":false,"rental_uris":{"android":"levelo://app?vid=0004125c-9f75-42d7-ac98-2aa01460aa6b","ios":"levelo://app?vid=0004125c-9f75-42d7-ac98-2aa01460aa6b"},"vehicle_type_id":"4","last_reported":1722161268,"current_range_meters":0,"station_id":"ce4bgm92rcd13ifvqbr0","pricing_plan_id":"cebpf4jnsgd1na2vs0mg"},{"bike_id":"7fd55b52-1460-4ee2-be34-0c13e2d2599f","system_id":"levelo_inurba_marseille","lat":43.305364,"lon":5.384119,"is_reserved":false,"is_disabled":false,"rental_uris":{"android":"levelo://app?vid=7fd55b52-1460-4ee2-be34-0c13e2d2599f","ios":"levelo://app?vid=7fd55b52-1460-4ee2-be34-0c13e2d2599f"},"vehicle_type_id":"4","last_reported":1722161268,"current_range_meters":21600,"station_id":"ce4bgg92rcd13ifvqb30","pricing_plan_id":"cebpf4jnsgd1na2vs0mg"},{"bike_id":"c1904782-dc3f-4e0d-840d-fb4fbbc8fc1d","system_id":"levelo_inurba_marseille","lat":43.305364,"lon":5.384119,"is_reserved":false,"is_disabled":false,"rental_uris":{"android":"levelo://app?vid=c1904782-dc3f-4e0d-840d-fb4fbbc8fc1d","ios":"levelo://app?vid=c1904782-dc3f-4e0d-840d-fb4fbbc8fc1d"},"vehicle_type_id":"4","last_reported":1722161268,"current_range_meters":26800,"station_id":"ce4bgg92rcd13ifvqb30","pricing_plan_id":"cebpf4jnsgd1na2vs0mg"},{"bike_id":"2b75ef06-4fc4-4a40-8beb-e923bcd37cc8","system_id":"levelo_inurba_marseille","lat":43.29851,"lon":5.36279,"is_reserved":false,"is_disabled":false,"rental_uris":{"android":"levelo://app?vid=2b75ef06-4fc4-4a40-8beb-e923bcd37cc8","ios":"levelo://app?vid=2b75ef06-4fc4-4a40-8beb-e923bcd37cc8"},"vehicle_type_id":"4","last_reported":1722161268,"current_range_meters":24400,"station_id":"ce4bgpp2rcd13ifvqc3g","pricing_plan_id":"cebpf4jnsgd1na2vs0mg"},{"bike_id":"80d98659-6b64-4f78-9623-0c18af7a8830","system_id":"levelo_inurba_marseille","lat":43.298433,"lon":5.362774,"is_reserved":false,"is_disabled":false,"rental_uris":{"android":"levelo://app?vid=80d98659-6b64-4f78-9623-0c18af7a8830","ios":"levelo://app?vid=80d98659-6b64-4f78-9623-0c18af7a8830"},"vehicle_type_id":"4","last_reported":1722161268,"current_range_meters":26800,"station_id":"ce4bgpp2rcd13ifvqc3g","pricing_plan_id":"cebpf4jnsgd1na2vs0mg"},{"bike_id":"7998343b-88f0-48b4-a866-0f739711d0ef","system_id":"levelo_inurba_marseille","lat":43.298433,"lon":5.362774,"is_reserved":false,"is_disabled":false,"rental_uris":{"android":"levelo://app?vid=7998343b-88f0-48b4-a866-0f739711d0ef","ios":"levelo://app?vid=7998343b-88f0-48b4-a866-0f739711d0ef"},"vehicle_type_id":"4","last_reported":1722161268,"current_range_meters":15600,"station_id":"ce4bgpp2rcd13ifvqc3g","pricing_plan_id":"cebpf4jnsgd1na2vs0mg"},{"bike_id":"09c22e75-b7c8-454b-bebb-caada8680147","system_id":"levelo_inurba_marseille","lat":43.298433,"lon":5.362774,"is_reserved":false,"is_disabled":false,"rental_uris":{"android":"levelo://app?vid=09c22e75-b7c8-454b-bebb-caada8680147","ios":"levelo://app?vid=09c22e75-b7c8-454b-bebb-caada8680147"},"vehicle_type_id":"4","last_reported":1722161268,"current_range_meters":23600,"station_id":"ce4bgpp2rcd13ifvqc3g","pricing_plan_id":"cebpf4jnsgd1na2vs0mg"},{"bike_id":"2678c3b3-e989-4347-90e8-14da09b31c52","system_id":"levelo_inurba_marseille","lat":43.298433,"lon":5.362774,"is_reserved":false,"is_disabled":false,"rental_uris":{"android":"levelo://app?vid=2678c3b3-e989-4347-90e8-14da09b31c52","ios":"levelo://app?vid=2678c3b3-e989-4347-90e8-14da09b31c52"},"vehicle_type_id":"4","last_reported":1722161268,"current_range_meters":25600,"station_id":"ce4bgpp2rcd13ifvqc3g","pricing_plan_id":"cebpf4jnsgd1na2vs0mg"},{"bike_id":"1ffa28f5-860c-46fb-9487-8d41c13cc342","system_id":"levelo_inurba_marseille","lat":43.298433,"lon":5.362774,"is_reserved":false,"is_disabled":false,"rental_uris":{"android":"levelo://app?vid=1ffa28f5-860c-46fb-9487-8d41c13cc342","ios":"levelo://app?vid=1ffa28f5-860c-46fb-9487-8d41c13cc342"},"vehicle_type_id":"4","last_reported":1722161268,"current_range_meters":27600,"station_id":"ce4bgpp2rcd13ifvqc3g","pricing_plan_id":"cebpf4jnsgd1na2vs0mg"},{"bike_id":"6b8f164a-ebdd-4834-8605-186a27900baa","system_id":"levelo_inurba_marseille","lat":43.29923,"lon":5.37469,"is_reserved":false,"is_disabled":false,"rental_uris":{"android":"levelo://app?vid=6b8f164a-ebdd-4834-8605-186a27900baa","ios":"levelo://app?vid=6b8f164a-ebdd-4834-8605-186a27900baa"},"vehicle_type_id":"4","last_reported":1722161268,"current_range_meters":25200,"station_id":"ce4bgjh2rcd13ifvqbg0","pricing_plan_id":"cebpf4jnsgd1na2vs0mg"},{"bike_id":"f31d7380-ada5-4a03-84d3-776a79f3228d","system_id":"levelo_inurba_marseille","lat":43.30152,"lon":5.38081,"is_reserved":false,"is_disabled":false,"rental_uris":{"android":"levelo://app?vid=f31d7380-ada5-4a03-84d3-776a79f3228d","ios":"levelo://app?vid=f31d7380-ada5-4a03-84d3-776a79f3228d"},"vehicle_type_id":"4","last_reported":1722161268,"current_range_meters":2000,"station_id":"","pricing_plan_id":"cebpf4jnsgd1na2vs0mg"},{"bike_id":"11894579-8207-4074-ab81-18bd583c4a15","system_id":"levelo_inurba_marseille","lat":43.30148,"lon":5.38077,"is_reserved":false,"is_disabled":false,"rental_uris":{"android":"levelo://app?vid=11894579-8207-4074-ab81-18bd583c4a15","ios":"levelo://app?vid=11894579-8207-4074-ab81-18bd583c4a15"},"vehicle_type_id":"4","last_reported":1722161268,"current_range_meters":26400,"station_id":"","pricing_plan_id":"cebpf4jnsgd1na2vs0mg"},{"bike_id":"677a684d-882c-402e-a860-3e838b20027f","system_id":"levelo_inurba_marseille","lat":43.297794,"lon":5.370888,"is_reserved":false,"is_disabled":false,"rental_uris":{"android":"levelo://app?vid=677a684d-882c-402e-a860-3e838b20027f","ios":"levelo://app?vid=677a684d-882c-402e-a860-3e838b20027f"},"vehicle_type_id":"4","last_reported":1722161268,"current_range_meters":8000,"station_id":"ce4bgop2rcd13ifvqc1g","pricing_plan_id":"cebpf4jnsgd1na2vs0mg"},{"bike_id":"1d5f741b-4df4-456a-8246-a209216abb79","system_id":"levelo_inurba_marseille","lat":43.297774,"lon":5.370875,"is_reserved":false,"is_disabled":false,"rental_uris":{"android":"levelo://app?vid=1d5f741b-4df4-456a-8246-a209216abb79","ios":"levelo://app?vid=1d5f741b-4df4-456a-8246-a209216abb79"},"vehicle_type_id":"4","last_reported":1722161268,"current_range_meters":14000,"station_id":"ce4bgop2rcd13ifvqc1g","pricing_plan_id":"cebpf4jnsgd1na2vs0mg"},{"bike_id":"e8d09dd4-5664-4426-8e62-1a0aa864dcb6","system_id":"levelo_inurba_marseille","lat":43.297774,"lon":5.370875,"is_reserved":false,"is_disabled":false,"rental_uris":{"android":"levelo://app?vid=e8d09dd4-5664-4426-8e62-1a0aa864dcb6","ios":"levelo://app?vid=e8d09dd4-5664-4426-8e62-1a0aa864dcb6"},"vehicle_type_id":"4","last_reported":1722161268,"current_range_meters":18400,"station_id":"ce4bgop2rcd13ifvqc1g","pricing_plan_id":"cebpf4jnsgd1na2vs0mg"},{"bike_id":"191bdd4c-ac05-4655-ac64-c325b8c92419","system_id":"levelo_inurba_marseille","lat":43.297794,"lon":5.370888,"is_reserved":false,"is_disabled":false,"rental_uris":{"android":"levelo://app?vid=191bdd4c-ac05-4655-ac64-c325b8c92419","ios":"levelo://app?vid=191bdd4c-ac05-4655-ac64-c325b8c92419"},"vehicle_type_id":"4","last_reported":1722161268,"current_range_meters":19600,"station_id":"ce4bgop2rcd13ifvqc1g","pricing_plan_id":"cebpf4jnsgd1na2vs0mg"},{"bike_id":"e18933e8-99df-4e49-925f-076b7aa22582","system_id":"levelo_inurba_marseille","lat":43.297774,"lon":5.370875,"is_reserved":false,"is_disabled":false,"rental_uris":{"android":"levelo://app?vid=e18933e8-99df-4e49-925f-076b7aa22582","ios":"levelo://app?vid=e18933e8-99df-4e49-925f-076b7aa22582"},"vehicle_type_id":"4","last_reported":1722161268,"current_range_meters":27600,"station_id":"ce4bgop2rcd13ifvqc1g","pricing_plan_id":"cebpf4jnsgd1na2vs0mg"},{"bike_id":"8ad7d1f0-36ba-4891-8a86-274947aa917f","system_id":"levelo_inurba_marseille","lat":43.322872,"lon":5.382756,"is_reserved":false,"is_disabled":false,"rental_uris":{"android":"levelo://app?vid=8ad7d1f0-36ba-4891-8a86-274947aa917f","ios":"levelo://app?vid=8ad7d1f0-36ba-4891-8a86-274947aa917f"},"vehicle_type_id":"4","last_reported":1722161268,"current_range_meters":25200,"station_id":"ce4bhr12rcd13ifvqhqg","pricing_plan_id":"cebpf4jnsgd1na2vs0mg"},{"bike_id":"dce303a6-cd2a-46cc-8179-0244c896ff46","system_id":"levelo_inurba_marseille","lat":43.322872,"lon":5.382756,"is_reserved":false,"is_disabled":false,"rental_uris":{"android":"levelo://app?vid=dce303a6-cd2a-46cc-8179-0244c896ff46","ios":"levelo://app?vid=dce303a6-cd2a-46cc-8179-0244c896ff46"},"vehicle_type_id":"4","last_reported":1722161268,"current_range_meters":26400,"station_id":"ce4bhr12rcd13ifvqhqg","pricing_plan_id":"cebpf4jnsgd1na2vs0mg"},{"bike_id":"c5ac709a-d442-4f25-9950-8cc1867dfa82","system_id":"levelo_inurba_marseille","lat":43.322872,"lon":5.382756,"is_reserved":false,"is_disabled":false,"rental_uris":{"android":"levelo://app?vid=c5ac709a-d442-4f25-9950-8cc1867dfa82","ios":"levelo://app?vid=c5ac709a-d442-4f25-9950-8cc1867dfa82"},"vehicle_type_id":"4","last_reported":1722161268,"current_range_meters":29600,"station_id":"ce4bhr12rcd13ifvqhqg","pricing_plan_id":"cebpf4jnsgd1na2vs0mg"},{"bike_id":"22e41778-51bb-4239-91a8-cf2d50ed1db8","system_id":"levelo_inurba_marseille","lat":43.319,"lon":5.38646,"is_reserved":false,"is_disabled":false,"rental_uris":{"android":"levelo://app?vid=22e41778-51bb-4239-91a8-cf2d50ed1db8","ios":"levelo://app?vid=22e41778-51bb-4239-91a8-cf2d50ed1db8"},"vehicle_type_id":"4","last_reported":1722161268,"current_range_meters":28800,"station_id":"","pricing_plan_id":"cebpf4jnsgd1na2vs0mg"},{"bike_id":"8def5f96-a0d2-4156-a331-935f4301273e","system_id":"levelo_inurba_marseille","lat":43.2968,"lon":5.37291,"is_reserved":false,"is_disabled":false,"rental_uris":{"android":"levelo://app?vid=8def5f96-a0d2-4156-a331-935f4301273e","ios":"levelo://app?vid=8def5f96-a0d2-4156-a331-935f4301273e"},"vehicle_type_id":"4","last_reported":1722161268,"current_range_meters":27200,"station_id":"ce4bgk12rcd13ifvqbj0","pricing_plan_id":"cebpf4jnsgd1na2vs0mg"},{"bike_id":"319ce1ff-2c99-44a9-8aff-37fc433a6177","system_id":"levelo_inurba_marseille","lat":43.2968,"lon":5.37291,"is_reserved":false,"is_disabled":false,"rental_uris":{"android":"levelo://app?vid=319ce1ff-2c99-44a9-8aff-37fc433a6177","ios":"levelo://app?vid=319ce1ff-2c99-44a9-8aff-37fc433a6177"},"vehicle_type_id":"4","last_reported":1722161268,"current_range_meters":30800,"station_id":"ce4bgk12rcd13ifvqbj0","pricing_plan_id":"cebpf4jnsgd1na2vs0mg"},{"bike_id":"77ebd6f7-0e15-4246-8feb-b1d720ac899a","system_id":"levelo_inurba_marseille","lat":43.30059,"lon":5.38222,"is_reserved":false,"is_disabled":false,"rental_uris":{"android":"levelo://app?vid=77ebd6f7-0e15-4246-8feb-b1d720ac899a","ios":"levelo://app?vid=77ebd6f7-0e15-4246-8feb-b1d720ac899a"},"vehicle_type_id":"4","last_reported":1722161268,"current_range_meters":15600,"station_id":"","pricing_plan_id":"cebpf4jnsgd1na2vs0mg"},{"bike_id":"27024896-f21c-4043-bdf6-455e7c34910f","system_id":"levelo_inurba_marseille","lat":43.296131,"lon":5.370791,"is_reserved":false,"is_disabled":false,"rental_uris":{"android":"levelo://app?vid=27024896-f21c-4043-bdf6-455e7c34910f","ios":"levelo://app?vid=27024896-f21c-4043-bdf6-455e7c34910f"},"vehicle_type_id":"4","last_reported":1722161268,"current_range_meters":18000,"station_id":"ce4bgnh2rcd13ifvqc0g","pricing_plan_id":"cebpf4jnsgd1na2vs0mg"},{"bike_id":"37818085-b447-4fed-822a-b0daa9b07722","system_id":"levelo_inurba_marseille","lat":43.29573,"lon":5.367355,"is_reserved":false,"is_disabled":false,"rental_uris":{"android":"levelo://app?vid=37818085-b447-4fed-822a-b0daa9b07722","ios":"levelo://app?vid=37818085-b447-4fed-822a-b0daa9b07722"},"vehicle_type_id":"4","last_reported":1722161268,"current_range_meters":3200,"station_id":"ce4bgph2rcd13ifvqc2g","pricing_plan_id":"cebpf4jnsgd1na2vs0mg"},{"bike_id":"36d32025-f484-422b-8564-a9b164e0eff2","system_id":"levelo_inurba_marseille","lat":43.316195,"lon":5.389782,"is_reserved":false,"is_disabled":false,"rental_uris":{"android":"levelo://app?vid=36d32025-f484-422b-8564-a9b164e0eff2","ios":"levelo://app?vid=36d32025-f484-422b-8564-a9b164e0eff2"},"vehicle_type_id":"4","last_reported":1722161268,"current_range_meters":12000,"station_id":"","pricing_plan_id":"cebpf4jnsgd1na2vs0mg"},{"bike_id":"b9cc9356-f947-479b-bdb3-97ac6159e519","system_id":"levelo_inurba_marseille","lat":43.296921,"lon":5.376579,"is_reserved":false,"is_disabled":false,"rental_uris":{"android":"levelo://app?vid=b9cc9356-f947-479b-bdb3-97ac6159e519","ios":"levelo://app?vid=b9cc9356-f947-479b-bdb3-97ac6159e519"},"vehicle_type_id":"4","last_reported":1722161268,"current_range_meters":31200,"station_id":"ce4bgkh2rcd13ifvqbl0","pricing_plan_id":"cebpf4jnsgd1na2vs0mg"},{"bike_id":"ade024a8-b806-4c65-a0fe-6885f65cca88","system_id":"levelo_inurba_marseille","lat":43.317565,"lon":5.390092,"is_reserved":false,"is_disabled":false,"rental_uris":{"android":"levelo://app?vid=ade024a8-b806-4c65-a0fe-6885f65cca88","ios":"levelo://app?vid=ade024a8-b806-4c65-a0fe-6885f65cca88"},"vehicle_type_id":"4","last_reported":1722161268,"current_range_meters":6000,"station_id":"","pricing_plan_id":"cebpf4jnsgd1na2vs0mg"},{"bike_id":"4496c404-3c32-4a6a-a8d4-fe28ae420eb9","system_id":"levelo_inurba_marseille","lat":43.317557,"lon":5.390173,"is_reserved":false,"is_disabled":false,"rental_uris":{"android":"levelo://app?vid=4496c404-3c32-4a6a-a8d4-fe28ae420eb9","ios":"levelo://app?vid=4496c404-3c32-4a6a-a8d4-fe28ae420eb9"},"vehicle_type_id":"4","last_reported":1722161268,"current_range_meters":31200,"station_id":"ce4bhqp2rcd13ifvqhng","pricing_plan_id":"cebpf4jnsgd1na2vs0mg"},{"bike_id":"cdfa7de9-1825-472d-8f0f-cb213cd110f3","system_id":"levelo_inurba_marseille","lat":43.317557,"lon":5.390173,"is_reserved":false,"is_disabled":false,"rental_uris":{"android":"levelo://app?vid=cdfa7de9-1825-472d-8f0f-cb213cd110f3","ios":"levelo://app?vid=cdfa7de9-1825-472d-8f0f-cb213cd110f3"},"vehicle_type_id":"4","last_reported":1722161268,"current_range_meters":31200,"station_id":"ce4bhqp2rcd13ifvqhng","pricing_plan_id":"cebpf4jnsgd1na2vs0mg"},{"bike_id":"d6a4a827-9200-4d1e-ae9a-30506e3a0fa6","system_id":"levelo_inurba_marseille","lat":43.317564,"lon":5.390239,"is_reserved":false,"is_disabled":false,"rental_uris":{"android":"levelo://app?vid=d6a4a827-9200-4d1e-ae9a-30506e3a0fa6","ios":"levelo://app?vid=d6a4a827-9200-4d1e-ae9a-30506e3a0fa6"},"vehicle_type_id":"4","last_reported":1722161268,"current_range_meters":18400,"station_id":"ce4bhqp2rcd13ifvqhng","pricing_plan_id":"cebpf4jnsgd1na2vs0mg"},{"bike_id":"81b0589a-055b-448d-99e3-772034eb86df","system_id":"levelo_inurba_marseille","lat":43.304274,"lon":5.388873,"is_reserved":false,"is_disabled":false,"rental_uris":{"android":"levelo://app?vid=81b0589a-055b-448d-99e3-772034eb86df","ios":"levelo://app?vid=81b0589a-055b-448d-99e3-772034eb86df"},"vehicle_type_id":"4","last_reported":1722161268,"current_range_meters":22400,"station_id":"ce4bgk12rcd13ifvqbi0","pricing_plan_id":"cebpf4jnsgd1na2vs0mg"},{"bike_id":"11a51e1a-dd7c-4133-88e0-c7b38995a0b6","system_id":"levelo_inurba_marseille","lat":43.295748,"lon":5.37522,"is_reserved":false,"is_disabled":false,"rental_uris":{"android":"levelo://app?vid=11a51e1a-dd7c-4133-88e0-c7b38995a0b6","ios":"levelo://app?vid=11a51e1a-dd7c-4133-88e0-c7b38995a0b6"},"vehicle_type_id":"4","last_reported":1722161268,"current_range_meters":0,"station_id":"ce4bgh92rcd13ifvqb50","pricing_plan_id":"cebpf4jnsgd1na2vs0mg"},{"bike_id":"32968332-1c9b-46cb-b296-9271691b6900","system_id":"levelo_inurba_marseille","lat":43.299707,"lon":5.384859,"is_reserved":false,"is_disabled":false,"rental_uris":{"android":"levelo://app?vid=32968332-1c9b-46cb-b296-9271691b6900","ios":"levelo://app?vid=32968332-1c9b-46cb-b296-9271691b6900"},"vehicle_type_id":"4","last_reported":1722161268,"current_range_meters":24400,"station_id":"ce4bgj92rcd13ifvqbd0","pricing_plan_id":"cebpf4jnsgd1na2vs0mg"},{"bike_id":"d2daaa41-2547-4602-912b-17e9aa804791","system_id":"levelo_inurba_marseille","lat":43.299707,"lon":5.384859,"is_reserved":false,"is_disabled":false,"rental_uris":{"android":"levelo://app?vid=d2daaa41-2547-4602-912b-17e9aa804791","ios":"levelo://app?vid=d2daaa41-2547-4602-912b-17e9aa804791"},"vehicle_type_id":"4","last_reported":1722161268,"current_range_meters":22000,"station_id":"ce4bgj92rcd13ifvqbd0","pricing_plan_id":"cebpf4jnsgd1na2vs0mg"},{"bike_id":"5dc3dfef-1b12-4855-974d-1c1c169518f8","system_id":"levelo_inurba_marseille","lat":43.299717,"lon":5.384845,"is_reserved":false,"is_disabled":false,"rental_uris":{"android":"levelo://app?vid=5dc3dfef-1b12-4855-974d-1c1c169518f8","ios":"levelo://app?vid=5dc3dfef-1b12-4855-974d-1c1c169518f8"},"vehicle_type_id":"4","last_reported":1722161268,"current_range_meters":30000,"station_id":"ce4bgj92rcd13ifvqbd0","pricing_plan_id":"cebpf4jnsgd1na2vs0mg"},{"bike_id":"2ced9c5d-15d9-45e2-b595-6fa37c833d7e","system_id":"levelo_inurba_marseille","lat":43.295279,"lon":5.375048,"is_reserved":false,"is_disabled":false,"rental_uris":{"android":"levelo://app?vid=2ced9c5d-15d9-45e2-b595-6fa37c833d7e","ios":"levelo://app?vid=2ced9c5d-15d9-45e2-b595-6fa37c833d7e"},"vehicle_type_id":"4","last_reported":1722161268,"current_range_meters":21600,"station_id":"ce4bgkp2rcd13ifvqbmg","pricing_plan_id":"cebpf4jnsgd1na2vs0mg"},{"bike_id":"51932966-afa4-487d-a456-2015974c5079","system_id":"levelo_inurba_marseille","lat":43.299724,"lon":5.384848,"is_reserved":false,"is_disabled":false,"rental_uris":{"android":"levelo://app?vid=51932966-afa4-487d-a456-2015974c5079","ios":"levelo://app?vid=51932966-afa4-487d-a456-2015974c5079"},"vehicle_type_id":"4","last_reported":1722161268,"current_range_meters":800,"station_id":"ce4bgj92rcd13ifvqbd0","pricing_plan_id":"cebpf4jnsgd1na2vs0mg"},{"bike_id":"64ef34b4-39be-421d-a1a1-a6860d0b77c5","system_id":"levelo_inurba_marseille","lat":43.299717,"lon":5.384845,"is_reserved":false,"is_disabled":false,"rental_uris":{"android":"levelo://app?vid=64ef34b4-39be-421d-a1a1-a6860d0b77c5","ios":"levelo://app?vid=64ef34b4-39be-421d-a1a1-a6860d0b77c5"},"vehicle_type_id":"4","last_reported":1722161268,"current_range_meters":0,"station_id":"ce4bgj92rcd13ifvqbd0","pricing_plan_id":"cebpf4jnsgd1na2vs0mg"},{"bike_id":"a5b1ccd1-46b7-4c4e-acb9-4e5aa9834362","system_id":"levelo_inurba_marseille","lat":43.299717,"lon":5.384845,"is_reserved":false,"is_disabled":false,"rental_uris":{"android":"levelo://app?vid=a5b1ccd1-46b7-4c4e-acb9-4e5aa9834362","ios":"levelo://app?vid=a5b1ccd1-46b7-4c4e-acb9-4e5aa9834362"},"vehicle_type_id":"4","last_reported":1722161268,"current_range_meters":8000,"station_id":"ce4bgj92rcd13ifvqbd0","pricing_plan_id":"cebpf4jnsgd1na2vs0mg"},{"bike_id":"e15e0c7b-cce4-42f2-bc94-ae3d1a471a15","system_id":"levelo_inurba_marseille","lat":43.323396,"lon":5.389009,"is_reserved":false,"is_disabled":false,"rental_uris":{"android":"levelo://app?vid=e15e0c7b-cce4-42f2-bc94-ae3d1a471a15","ios":"levelo://app?vid=e15e0c7b-cce4-42f2-bc94-ae3d1a471a15"},"vehicle_type_id":"4","last_reported":1722161268,"current_range_meters":4800,"station_id":"ce4bhqp2rcd13ifvqhog","pricing_plan_id":"cebpf4jnsgd1na2vs0mg"},{"bike_id":"6a60a62a-575f-4518-830c-e8e47c8b46dd","system_id":"levelo_inurba_marseille","lat":43.32367,"lon":5.388836,"is_reserved":false,"is_disabled":false,"rental_uris":{"android":"levelo://app?vid=6a60a62a-575f-4518-830c-e8e47c8b46dd","ios":"levelo://app?vid=6a60a62a-575f-4518-830c-e8e47c8b46dd"},"vehicle_type_id":"4","last_reported":1722161268,"current_range_meters":0,"station_id":"ce4bhqp2rcd13ifvqhog","pricing_plan_id":"cebpf4jnsgd1na2vs0mg"},{"bike_id":"8a85e68b-c274-4603-b0b0-66cb64a76282","system_id":"levelo_inurba_marseille","lat":43.32361,"lon":5.38898,"is_reserved":false,"is_disabled":false,"rental_uris":{"android":"levelo://app?vid=8a85e68b-c274-4603-b0b0-66cb64a76282","ios":"levelo://app?vid=8a85e68b-c274-4603-b0b0-66cb64a76282"},"vehicle_type_id":"4","last_reported":1722161268,"current_range_meters":29600,"station_id":"ce4bhqp2rcd13ifvqhog","pricing_plan_id":"cebpf4jnsgd1na2vs0mg"},{"bike_id":"f0ad6f0a-a17b-4bee-9196-57c4c5a47783","system_id":"levelo_inurba_marseille","lat":43.29527,"lon":5.37852,"is_reserved":false,"is_disabled":false,"rental_uris":{"android":"levelo://app?vid=f0ad6f0a-a17b-4bee-9196-57c4c5a47783","ios":"levelo://app?vid=f0ad6f0a-a17b-4bee-9196-57c4c5a47783"},"vehicle_type_id":"4","last_reported":1722161268,"current_range_meters":7200,"station_id":"","pricing_plan_id":"cebpf4jnsgd1na2vs0mg"},{"bike_id":"fff9ce80-e3a6-4300-a750-f133cdb858c3","system_id":"levelo_inurba_marseille","lat":43.29351,"lon":5.37132,"is_reserved":false,"is_disabled":false,"rental_uris":{"android":"levelo://app?vid=fff9ce80-e3a6-4300-a750-f133cdb858c3","ios":"levelo://app?vid=fff9ce80-e3a6-4300-a750-f133cdb858c3"},"vehicle_type_id":"4","last_reported":1722161268,"current_range_meters":11200,"station_id":"","pricing_plan_id":"cebpf4jnsgd1na2vs0mg"},{"bike_id":"b2629a57-9a23-4d04-8287-c267a0e32cb2","system_id":"levelo_inurba_marseille","lat":43.29602,"lon":5.381084,"is_reserved":false,"is_disabled":false,"rental_uris":{"android":"levelo://app?vid=b2629a57-9a23-4d04-8287-c267a0e32cb2","ios":"levelo://app?vid=b2629a57-9a23-4d04-8287-c267a0e32cb2"},"vehicle_type_id":"4","last_reported":1722161268,"current_range_meters":6800,"station_id":"ce4bgl12rcd13ifvqbo0","pricing_plan_id":"cebpf4jnsgd1na2vs0mg"},{"bike_id":"149ad317-2977-4c2d-b9af-065d2c29d5b4","system_id":"levelo_inurba_marseille","lat":43.29935,"lon":5.38674,"is_reserved":false,"is_disabled":false,"rental_uris":{"android":"levelo://app?vid=149ad317-2977-4c2d-b9af-065d2c29d5b4","ios":"levelo://app?vid=149ad317-2977-4c2d-b9af-065d2c29d5b4"},"vehicle_type_id":"4","last_reported":1722161268,"current_range_meters":5200,"station_id":"","pricing_plan_id":"cebpf4jnsgd1na2vs0mg"},{"bike_id":"f3a607b5-14ef-4c27-89de-53fa8a0a069e","system_id":"levelo_inurba_marseille","lat":43.29279,"lon":5.36849,"is_reserved":false,"is_disabled":false,"rental_uris":{"android":"levelo://app?vid=f3a607b5-14ef-4c27-89de-53fa8a0a069e","ios":"levelo://app?vid=f3a607b5-14ef-4c27-89de-53fa8a0a069e"},"vehicle_type_id":"4","last_reported":1722161268,"current_range_meters":18800,"station_id":"ce4bhbp2rcd13ifvqesg","pricing_plan_id":"cebpf4jnsgd1na2vs0mg"},{"bike_id":"a6fd7e85-c2b2-46b2-92a9-7134ce6ac501","system_id":"levelo_inurba_marseille","lat":43.29277,"lon":5.3684,"is_reserved":false,"is_disabled":false,"rental_uris":{"android":"levelo://app?vid=a6fd7e85-c2b2-46b2-92a9-7134ce6ac501","ios":"levelo://app?vid=a6fd7e85-c2b2-46b2-92a9-7134ce6ac501"},"vehicle_type_id":"4","last_reported":1722161268,"current_range_meters":30400,"station_id":"ce4bhbp2rcd13ifvqesg","pricing_plan_id":"cebpf4jnsgd1na2vs0mg"},{"bike_id":"d22ab683-fbd8-43a9-8882-433a1140fff9","system_id":"levelo_inurba_marseille","lat":43.292749,"lon":5.368402,"is_reserved":false,"is_disabled":false,"rental_uris":{"android":"levelo://app?vid=d22ab683-fbd8-43a9-8882-433a1140fff9","ios":"levelo://app?vid=d22ab683-fbd8-43a9-8882-433a1140fff9"},"vehicle_type_id":"4","last_reported":1722161268,"current_range_meters":18800,"station_id":"ce4bhbp2rcd13ifvqesg","pricing_plan_id":"cebpf4jnsgd1na2vs0mg"},{"bike_id":"e70a8d43-b3ac-498c-8bfb-0f2e160a89ff","system_id":"levelo_inurba_marseille","lat":43.293009,"lon":5.374584,"is_reserved":false,"is_disabled":false,"rental_uris":{"android":"levelo://app?vid=e70a8d43-b3ac-498c-8bfb-0f2e160a89ff","ios":"levelo://app?vid=e70a8d43-b3ac-498c-8bfb-0f2e160a89ff"},"vehicle_type_id":"4","last_reported":1722161268,"current_range_meters":17200,"station_id":"ce4bgi12rcd13ifvqb70","pricing_plan_id":"cebpf4jnsgd1na2vs0mg"},{"bike_id":"6088c5a3-b285-4bf6-86d0-1443025626a8","system_id":"levelo_inurba_marseille","lat":43.293009,"lon":5.374584,"is_reserved":false,"is_disabled":false,"rental_uris":{"android":"levelo://app?vid=6088c5a3-b285-4bf6-86d0-1443025626a8","ios":"levelo://app?vid=6088c5a3-b285-4bf6-86d0-1443025626a8"},"vehicle_type_id":"4","last_reported":1722161268,"current_range_meters":20800,"station_id":"ce4bgi12rcd13ifvqb70","pricing_plan_id":"cebpf4jnsgd1na2vs0mg"},{"bike_id":"3230c1c9-e383-442e-b271-31073d12db04","system_id":"levelo_inurba_marseille","lat":43.292311,"lon":5.360731,"is_reserved":false,"is_disabled":false,"rental_uris":{"android":"levelo://app?vid=3230c1c9-e383-442e-b271-31073d12db04","ios":"levelo://app?vid=3230c1c9-e383-442e-b271-31073d12db04"},"vehicle_type_id":"4","last_reported":1722161268,"current_range_meters":25200,"station_id":"ce4bhbh2rcd13ifvqeqg","pricing_plan_id":"cebpf4jnsgd1na2vs0mg"},{"bike_id":"1b431bf8-1bcb-4659-b199-f4dea62f2c40","system_id":"levelo_inurba_marseille","lat":43.292311,"lon":5.360731,"is_reserved":false,"is_disabled":false,"rental_uris":{"android":"levelo://app?vid=1b431bf8-1bcb-4659-b199-f4dea62f2c40","ios":"levelo://app?vid=1b431bf8-1bcb-4659-b199-f4dea62f2c40"},"vehicle_type_id":"4","last_reported":1722161268,"current_range_meters":29200,"station_id":"ce4bhbh2rcd13ifvqeqg","pricing_plan_id":"cebpf4jnsgd1na2vs0mg"},{"bike_id":"f4348f4e-5598-4b83-8aa3-b886d1a2ff43","system_id":"levelo_inurba_marseille","lat":43.29262,"lon":5.37617,"is_reserved":false,"is_disabled":false,"rental_uris":{"android":"levelo://app?vid=f4348f4e-5598-4b83-8aa3-b886d1a2ff43","ios":"levelo://app?vid=f4348f4e-5598-4b83-8aa3-b886d1a2ff43"},"vehicle_type_id":"4","last_reported":1722161268,"current_range_meters":28800,"station_id":"ce4bgi12rcd13ifvqb80","pricing_plan_id":"cebpf4jnsgd1na2vs0mg"},{"bike_id":"628ac304-f65b-4a2e-9652-c512b3fbac97","system_id":"levelo_inurba_marseille","lat":43.291675,"lon":5.371583,"is_reserved":false,"is_disabled":false,"rental_uris":{"android":"levelo://app?vid=628ac304-f65b-4a2e-9652-c512b3fbac97","ios":"levelo://app?vid=628ac304-f65b-4a2e-9652-c512b3fbac97"},"vehicle_type_id":"4","last_reported":1722161268,"current_range_meters":27600,"station_id":"ce4bha92rcd13ifvqeh0","pricing_plan_id":"cebpf4jnsgd1na2vs0mg"},{"bike_id":"b27a82ad-a505-4b11-a89a-ee05cc727eaa","system_id":"levelo_inurba_marseille","lat":43.313286,"lon":5.396816,"is_reserved":false,"is_disabled":false,"rental_uris":{"android":"levelo://app?vid=b27a82ad-a505-4b11-a89a-ee05cc727eaa","ios":"levelo://app?vid=b27a82ad-a505-4b11-a89a-ee05cc727eaa"},"vehicle_type_id":"4","last_reported":1722161268,"current_range_meters":1200,"station_id":"ce4bgvp2rcd13ifvqcu0","pricing_plan_id":"cebpf4jnsgd1na2vs0mg"},{"bike_id":"cecd89d4-5d33-4972-b3d2-c4be54a2feaa","system_id":"levelo_inurba_marseille","lat":43.291471,"lon":5.358835,"is_reserved":false,"is_disabled":false,"rental_uris":{"android":"levelo://app?vid=cecd89d4-5d33-4972-b3d2-c4be54a2feaa","ios":"levelo://app?vid=cecd89d4-5d33-4972-b3d2-c4be54a2feaa"},"vehicle_type_id":"4","last_reported":1722161268,"current_range_meters":1600,"station_id":"","pricing_plan_id":"cebpf4jnsgd1na2vs0mg"},{"bike_id":"fd886a27-40cb-4f2a-b7ec-94558d02638a","system_id":"levelo_inurba_marseille","lat":43.290779,"lon":5.371482,"is_reserved":false,"is_disabled":false,"rental_uris":{"android":"levelo://app?vid=fd886a27-40cb-4f2a-b7ec-94558d02638a","ios":"levelo://app?vid=fd886a27-40cb-4f2a-b7ec-94558d02638a"},"vehicle_type_id":"4","last_reported":1722161268,"current_range_meters":14800,"station_id":"ce4bh5p2rcd13ifvqe4g","pricing_plan_id":"cebpf4jnsgd1na2vs0mg"},{"bike_id":"86c2a224-3697-44cf-a36e-668c452a69a8","system_id":"levelo_inurba_marseille","lat":43.290779,"lon":5.371482,"is_reserved":false,"is_disabled":false,"rental_uris":{"android":"levelo://app?vid=86c2a224-3697-44cf-a36e-668c452a69a8","ios":"levelo://app?vid=86c2a224-3697-44cf-a36e-668c452a69a8"},"vehicle_type_id":"4","last_reported":1722161268,"current_range_meters":22000,"station_id":"ce4bh5p2rcd13ifvqe4g","pricing_plan_id":"cebpf4jnsgd1na2vs0mg"},{"bike_id":"61aac8c5-33d2-4a3c-8eba-04b02d4e8a50","system_id":"levelo_inurba_marseille","lat":43.30213,"lon":5.39449,"is_reserved":false,"is_disabled":false,"rental_uris":{"android":"levelo://app?vid=61aac8c5-33d2-4a3c-8eba-04b02d4e8a50","ios":"levelo://app?vid=61aac8c5-33d2-4a3c-8eba-04b02d4e8a50"},"vehicle_type_id":"4","last_reported":1722161268,"current_range_meters":27200,"station_id":"ce4bh0p2rcd13ifvqd70","pricing_plan_id":"cebpf4jnsgd1na2vs0mg"},{"bike_id":"1315d8ca-c9a1-4060-97ff-bb1bc209bb09","system_id":"levelo_inurba_marseille","lat":43.290523,"lon":5.375543,"is_reserved":false,"is_disabled":false,"rental_uris":{"android":"levelo://app?vid=1315d8ca-c9a1-4060-97ff-bb1bc209bb09","ios":"levelo://app?vid=1315d8ca-c9a1-4060-97ff-bb1bc209bb09"},"vehicle_type_id":"4","last_reported":1722161268,"current_range_meters":13600,"station_id":"ce4bh692rcd13ifvqe90","pricing_plan_id":"cebpf4jnsgd1na2vs0mg"},{"bike_id":"51305610-32cb-4cf4-addf-f88127765b36","system_id":"levelo_inurba_marseille","lat":43.294162,"lon":5.386292,"is_reserved":false,"is_disabled":false,"rental_uris":{"android":"levelo://app?vid=51305610-32cb-4cf4-addf-f88127765b36","ios":"levelo://app?vid=51305610-32cb-4cf4-addf-f88127765b36"},"vehicle_type_id":"4","last_reported":1722161268,"current_range_meters":0,"station_id":"ce4bh2h2rcd13ifvqdh0","pricing_plan_id":"cebpf4jnsgd1na2vs0mg"},{"bike_id":"f948d870-9d25-4cb7-b3d1-8004352e2591","system_id":"levelo_inurba_marseille","lat":43.289347,"lon":5.36638,"is_reserved":false,"is_disabled":false,"rental_uris":{"android":"levelo://app?vid=f948d870-9d25-4cb7-b3d1-8004352e2591","ios":"levelo://app?vid=f948d870-9d25-4cb7-b3d1-8004352e2591"},"vehicle_type_id":"4","last_reported":1722161268,"current_range_meters":0,"station_id":"ce4bhap2rcd13ifvqek0","pricing_plan_id":"cebpf4jnsgd1na2vs0mg"},{"bike_id":"91669465-240e-44f5-844c-834fb0d5668a","system_id":"levelo_inurba_marseille","lat":43.292642,"lon":5.384254,"is_reserved":false,"is_disabled":false,"rental_uris":{"android":"levelo://app?vid=91669465-240e-44f5-844c-834fb0d5668a","ios":"levelo://app?vid=91669465-240e-44f5-844c-834fb0d5668a"},"vehicle_type_id":"4","last_reported":1722161268,"current_range_meters":6800,"station_id":"ce4bh692rcd13ifvqea0","pricing_plan_id":"cebpf4jnsgd1na2vs0mg"},{"bike_id":"0d23ff15-ea24-4086-bce3-039ac6d200d2","system_id":"levelo_inurba_marseille","lat":43.292642,"lon":5.384254,"is_reserved":false,"is_disabled":false,"rental_uris":{"android":"levelo://app?vid=0d23ff15-ea24-4086-bce3-039ac6d200d2","ios":"levelo://app?vid=0d23ff15-ea24-4086-bce3-039ac6d200d2"},"vehicle_type_id":"4","last_reported":1722161268,"current_range_meters":5600,"station_id":"ce4bh692rcd13ifvqea0","pricing_plan_id":"cebpf4jnsgd1na2vs0mg"},{"bike_id":"9b6b7d97-6d54-408c-9add-81dbda296201","system_id":"levelo_inurba_marseille","lat":43.3042,"lon":5.39744,"is_reserved":false,"is_disabled":false,"rental_uris":{"android":"levelo://app?vid=9b6b7d97-6d54-408c-9add-81dbda296201","ios":"levelo://app?vid=9b6b7d97-6d54-408c-9add-81dbda296201"},"vehicle_type_id":"4","last_reported":1722161268,"current_range_meters":16400,"station_id":"ce4bh092rcd13ifvqd20","pricing_plan_id":"cebpf4jnsgd1na2vs0mg"},{"bike_id":"0d4cd013-51d3-4186-92df-32f92d9d2337","system_id":"levelo_inurba_marseille","lat":43.29009,"lon":5.35609,"is_reserved":false,"is_disabled":false,"rental_uris":{"android":"levelo://app?vid=0d4cd013-51d3-4186-92df-32f92d9d2337","ios":"levelo://app?vid=0d4cd013-51d3-4186-92df-32f92d9d2337"},"vehicle_type_id":"4","last_reported":1722161268,"current_range_meters":8800,"station_id":"ce4bhb92rcd13ifvqen0","pricing_plan_id":"cebpf4jnsgd1na2vs0mg"},{"bike_id":"4775fe6b-01b5-44d5-b858-988e750ed3a8","system_id":"levelo_inurba_marseille","lat":43.290104,"lon":5.356111,"is_reserved":false,"is_disabled":false,"rental_uris":{"android":"levelo://app?vid=4775fe6b-01b5-44d5-b858-988e750ed3a8","ios":"levelo://app?vid=4775fe6b-01b5-44d5-b858-988e750ed3a8"},"vehicle_type_id":"4","last_reported":1722161268,"current_range_meters":26000,"station_id":"ce4bhb92rcd13ifvqen0","pricing_plan_id":"cebpf4jnsgd1na2vs0mg"},{"bike_id":"b295bae0-edc7-4c95-a67c-325effda7a19","system_id":"levelo_inurba_marseille","lat":43.29023,"lon":5.35497,"is_reserved":false,"is_disabled":false,"rental_uris":{"android":"levelo://app?vid=b295bae0-edc7-4c95-a67c-325effda7a19","ios":"levelo://app?vid=b295bae0-edc7-4c95-a67c-325effda7a19"},"vehicle_type_id":"4","last_reported":1722161268,"current_range_meters":3600,"station_id":"","pricing_plan_id":"cebpf4jnsgd1na2vs0mg"},{"bike_id":"c0f929e3-db66-4cee-9725-28cec2c5d925","system_id":"levelo_inurba_marseille","lat":43.330442,"lon":5.389148,"is_reserved":false,"is_disabled":false,"rental_uris":{"android":"levelo://app?vid=c0f929e3-db66-4cee-9725-28cec2c5d925","ios":"levelo://app?vid=c0f929e3-db66-4cee-9725-28cec2c5d925"},"vehicle_type_id":"4","last_reported":1722161268,"current_range_meters":31200,"station_id":"ce4bhr92rcd13ifvqhrg","pricing_plan_id":"cebpf4jnsgd1na2vs0mg"},{"bike_id":"828a0e02-1d28-4a34-9442-cab090f76cb9","system_id":"levelo_inurba_marseille","lat":43.330442,"lon":5.389148,"is_reserved":false,"is_disabled":false,"rental_uris":{"android":"levelo://app?vid=828a0e02-1d28-4a34-9442-cab090f76cb9","ios":"levelo://app?vid=828a0e02-1d28-4a34-9442-cab090f76cb9"},"vehicle_type_id":"4","last_reported":1722161268,"current_range_meters":29200,"station_id":"ce4bhr92rcd13ifvqhrg","pricing_plan_id":"cebpf4jnsgd1na2vs0mg"},{"bike_id":"4bf291e3-3759-4c73-a5db-f99ef7278c19","system_id":"levelo_inurba_marseille","lat":43.330442,"lon":5.389148,"is_reserved":false,"is_disabled":false,"rental_uris":{"android":"levelo://app?vid=4bf291e3-3759-4c73-a5db-f99ef7278c19","ios":"levelo://app?vid=4bf291e3-3759-4c73-a5db-f99ef7278c19"},"vehicle_type_id":"4","last_reported":1722161268,"current_range_meters":10800,"station_id":"ce4bhr92rcd13ifvqhrg","pricing_plan_id":"cebpf4jnsgd1na2vs0mg"},{"bike_id":"f0df78a5-b50c-4261-85df-bdca09e11023","system_id":"levelo_inurba_marseille","lat":43.330442,"lon":5.389148,"is_reserved":false,"is_disabled":false,"rental_uris":{"android":"levelo://app?vid=f0df78a5-b50c-4261-85df-bdca09e11023","ios":"levelo://app?vid=f0df78a5-b50c-4261-85df-bdca09e11023"},"vehicle_type_id":"4","last_reported":1722161268,"current_range_meters":14400,"station_id":"ce4bhr92rcd13ifvqhrg","pricing_plan_id":"cebpf4jnsgd1na2vs0mg"},{"bike_id":"909fb947-55c0-4649-acac-596dbb4e1468","system_id":"levelo_inurba_marseille","lat":43.330442,"lon":5.389148,"is_reserved":false,"is_disabled":false,"rental_uris":{"android":"levelo://app?vid=909fb947-55c0-4649-acac-596dbb4e1468","ios":"levelo://app?vid=909fb947-55c0-4649-acac-596dbb4e1468"},"vehicle_type_id":"4","last_reported":1722161268,"current_range_meters":31200,"station_id":"ce4bhr92rcd13ifvqhrg","pricing_plan_id":"cebpf4jnsgd1na2vs0mg"},{"bike_id":"e10c41d8-6908-42d4-ab91-7f26ca7cd2e2","system_id":"levelo_inurba_marseille","lat":43.31075,"lon":5.40097,"is_reserved":false,"is_disabled":false,"rental_uris":{"android":"levelo://app?vid=e10c41d8-6908-42d4-ab91-7f26ca7cd2e2","ios":"levelo://app?vid=e10c41d8-6908-42d4-ab91-7f26ca7cd2e2"},"vehicle_type_id":"4","last_reported":1722161268,"current_range_meters":0,"station_id":"","pricing_plan_id":"cebpf4jnsgd1na2vs0mg"},{"bike_id":"aa034102-c001-4630-9d2c-1efd795c915d","system_id":"levelo_inurba_marseille","lat":43.28856,"lon":5.358371,"is_reserved":false,"is_disabled":false,"rental_uris":{"android":"levelo://app?vid=aa034102-c001-4630-9d2c-1efd795c915d","ios":"levelo://app?vid=aa034102-c001-4630-9d2c-1efd795c915d"},"vehicle_type_id":"4","last_reported":1722161268,"current_range_meters":7600,"station_id":"ce4bhb12rcd13ifvqem0","pricing_plan_id":"cebpf4jnsgd1na2vs0mg"},{"bike_id":"6ff48f3c-927a-470d-a08e-7714539082f0","system_id":"levelo_inurba_marseille","lat":43.33736,"lon":5.3746,"is_reserved":false,"is_disabled":false,"rental_uris":{"android":"levelo://app?vid=6ff48f3c-927a-470d-a08e-7714539082f0","ios":"levelo://app?vid=6ff48f3c-927a-470d-a08e-7714539082f0"},"vehicle_type_id":"4","last_reported":1722161268,"current_range_meters":0,"station_id":"","pricing_plan_id":"cebpf4jnsgd1na2vs0mg"},{"bike_id":"20a7bf81-31fd-4cb5-b454-68d5314a31b8","system_id":"levelo_inurba_marseille","lat":43.337372,"lon":5.37468,"is_reserved":false,"is_disabled":false,"rental_uris":{"android":"levelo://app?vid=20a7bf81-31fd-4cb5-b454-68d5314a31b8","ios":"levelo://app?vid=20a7bf81-31fd-4cb5-b454-68d5314a31b8"},"vehicle_type_id":"4","last_reported":1722161268,"current_range_meters":28000,"station_id":"","pricing_plan_id":"cebpf4jnsgd1na2vs0mg"},{"bike_id":"3e79250c-7764-488c-b465-61fd16d31170","system_id":"levelo_inurba_marseille","lat":43.33736,"lon":5.37477,"is_reserved":false,"is_disabled":false,"rental_uris":{"android":"levelo://app?vid=3e79250c-7764-488c-b465-61fd16d31170","ios":"levelo://app?vid=3e79250c-7764-488c-b465-61fd16d31170"},"vehicle_type_id":"4","last_reported":1722161268,"current_range_meters":26000,"station_id":"","pricing_plan_id":"cebpf4jnsgd1na2vs0mg"},{"bike_id":"2470742a-edb7-4d4d-925a-56790081bae8","system_id":"levelo_inurba_marseille","lat":43.312609,"lon":5.401662,"is_reserved":false,"is_disabled":false,"rental_uris":{"android":"levelo://app?vid=2470742a-edb7-4d4d-925a-56790081bae8","ios":"levelo://app?vid=2470742a-edb7-4d4d-925a-56790081bae8"},"vehicle_type_id":"4","last_reported":1722161268,"current_range_meters":31200,"station_id":"ce4bh092rcd13ifvqd30","pricing_plan_id":"cebpf4jnsgd1na2vs0mg"},{"bike_id":"34a1c03f-ee7d-4a50-a0bc-d7b96ec173e2","system_id":"levelo_inurba_marseille","lat":43.309371,"lon":5.401449,"is_reserved":false,"is_disabled":false,"rental_uris":{"android":"levelo://app?vid=34a1c03f-ee7d-4a50-a0bc-d7b96ec173e2","ios":"levelo://app?vid=34a1c03f-ee7d-4a50-a0bc-d7b96ec173e2"},"vehicle_type_id":"4","last_reported":1722161268,"current_range_meters":26400,"station_id":"ce4bgvp2rcd13ifvqct0","pricing_plan_id":"cebpf4jnsgd1na2vs0mg"},{"bike_id":"e92bf1d5-b1ca-44cd-9b31-a0496082825d","system_id":"levelo_inurba_marseille","lat":43.33733,"lon":5.37507,"is_reserved":false,"is_disabled":false,"rental_uris":{"android":"levelo://app?vid=e92bf1d5-b1ca-44cd-9b31-a0496082825d","ios":"levelo://app?vid=e92bf1d5-b1ca-44cd-9b31-a0496082825d"},"vehicle_type_id":"4","last_reported":1722161268,"current_range_meters":26000,"station_id":"","pricing_plan_id":"cebpf4jnsgd1na2vs0mg"},{"bike_id":"0aa226e6-2195-431b-bdc4-34bf44420451","system_id":"levelo_inurba_marseille","lat":43.337467,"lon":5.374397,"is_reserved":false,"is_disabled":false,"rental_uris":{"android":"levelo://app?vid=0aa226e6-2195-431b-bdc4-34bf44420451","ios":"levelo://app?vid=0aa226e6-2195-431b-bdc4-34bf44420451"},"vehicle_type_id":"4","last_reported":1722161268,"current_range_meters":24000,"station_id":"","pricing_plan_id":"cebpf4jnsgd1na2vs0mg"},{"bike_id":"5222acb7-a064-4809-82de-0b9ded7857ee","system_id":"levelo_inurba_marseille","lat":43.312609,"lon":5.401662,"is_reserved":false,"is_disabled":false,"rental_uris":{"android":"levelo://app?vid=5222acb7-a064-4809-82de-0b9ded7857ee","ios":"levelo://app?vid=5222acb7-a064-4809-82de-0b9ded7857ee"},"vehicle_type_id":"4","last_reported":1722161268,"current_range_meters":27600,"station_id":"ce4bh092rcd13ifvqd30","pricing_plan_id":"cebpf4jnsgd1na2vs0mg"},{"bike_id":"f8e8dd66-c7d6-4bd0-91ac-ef4274ae24f3","system_id":"levelo_inurba_marseille","lat":43.337434,"lon":5.374687,"is_reserved":false,"is_disabled":false,"rental_uris":{"android":"levelo://app?vid=f8e8dd66-c7d6-4bd0-91ac-ef4274ae24f3","ios":"levelo://app?vid=f8e8dd66-c7d6-4bd0-91ac-ef4274ae24f3"},"vehicle_type_id":"4","last_reported":1722161268,"current_range_meters":16800,"station_id":"","pricing_plan_id":"cebpf4jnsgd1na2vs0mg"},{"bike_id":"4b8edffc-c3ec-4850-9801-f91ff76d6d88","system_id":"levelo_inurba_marseille","lat":43.312756,"lon":5.401754,"is_reserved":false,"is_disabled":false,"rental_uris":{"android":"levelo://app?vid=4b8edffc-c3ec-4850-9801-f91ff76d6d88","ios":"levelo://app?vid=4b8edffc-c3ec-4850-9801-f91ff76d6d88"},"vehicle_type_id":"4","last_reported":1722161268,"current_range_meters":24000,"station_id":"ce4bh092rcd13ifvqd30","pricing_plan_id":"cebpf4jnsgd1na2vs0mg"},{"bike_id":"6a8f0b0d-cfd7-434c-8254-d80e8bddc702","system_id":"levelo_inurba_marseille","lat":43.312609,"lon":5.401662,"is_reserved":false,"is_disabled":false,"rental_uris":{"android":"levelo://app?vid=6a8f0b0d-cfd7-434c-8254-d80e8bddc702","ios":"levelo://app?vid=6a8f0b0d-cfd7-434c-8254-d80e8bddc702"},"vehicle_type_id":"4","last_reported":1722161268,"current_range_meters":30800,"station_id":"ce4bh092rcd13ifvqd30","pricing_plan_id":"cebpf4jnsgd1na2vs0mg"},{"bike_id":"28ff567c-281c-4a43-913e-e1206badf942","system_id":"levelo_inurba_marseille","lat":43.337474,"lon":5.374665,"is_reserved":false,"is_disabled":false,"rental_uris":{"android":"levelo://app?vid=28ff567c-281c-4a43-913e-e1206badf942","ios":"levelo://app?vid=28ff567c-281c-4a43-913e-e1206badf942"},"vehicle_type_id":"4","last_reported":1722161268,"current_range_meters":20000,"station_id":"","pricing_plan_id":"cebpf4jnsgd1na2vs0mg"},{"bike_id":"f0338c4f-2f14-449f-abf8-25e44f36ca55","system_id":"levelo_inurba_marseille","lat":43.337503,"lon":5.374507,"is_reserved":false,"is_disabled":false,"rental_uris":{"android":"levelo://app?vid=f0338c4f-2f14-449f-abf8-25e44f36ca55","ios":"levelo://app?vid=f0338c4f-2f14-449f-abf8-25e44f36ca55"},"vehicle_type_id":"4","last_reported":1722161268,"current_range_meters":26400,"station_id":"","pricing_plan_id":"cebpf4jnsgd1na2vs0mg"},{"bike_id":"6cf0c176-f7c0-4e29-a014-f3a3b29e1d2a","system_id":"levelo_inurba_marseille","lat":43.337528,"lon":5.374439,"is_reserved":false,"is_disabled":false,"rental_uris":{"android":"levelo://app?vid=6cf0c176-f7c0-4e29-a014-f3a3b29e1d2a","ios":"levelo://app?vid=6cf0c176-f7c0-4e29-a014-f3a3b29e1d2a"},"vehicle_type_id":"4","last_reported":1722161268,"current_range_meters":24800,"station_id":"","pricing_plan_id":"cebpf4jnsgd1na2vs0mg"},{"bike_id":"ce2a281f-6b17-464e-8289-d463ea4cfa07","system_id":"levelo_inurba_marseille","lat":43.337553,"lon":5.374554,"is_reserved":false,"is_disabled":false,"rental_uris":{"android":"levelo://app?vid=ce2a281f-6b17-464e-8289-d463ea4cfa07","ios":"levelo://app?vid=ce2a281f-6b17-464e-8289-d463ea4cfa07"},"vehicle_type_id":"4","last_reported":1722161268,"current_range_meters":26800,"station_id":"","pricing_plan_id":"cebpf4jnsgd1na2vs0mg"},{"bike_id":"41b42059-f9fd-42ca-97f4-2a832726c95b","system_id":"levelo_inurba_marseille","lat":43.30642,"lon":5.401031,"is_reserved":false,"is_disabled":false,"rental_uris":{"android":"levelo://app?vid=41b42059-f9fd-42ca-97f4-2a832726c95b","ios":"levelo://app?vid=41b42059-f9fd-42ca-97f4-2a832726c95b"},"vehicle_type_id":"4","last_reported":1722161268,"current_range_meters":26800,"station_id":"ce4bh112rcd13ifvqda0","pricing_plan_id":"cebpf4jnsgd1na2vs0mg"},{"bike_id":"3504dad8-9166-4b25-9316-b84b34180a91","system_id":"levelo_inurba_marseille","lat":43.30642,"lon":5.401031,"is_reserved":false,"is_disabled":false,"rental_uris":{"android":"levelo://app?vid=3504dad8-9166-4b25-9316-b84b34180a91","ios":"levelo://app?vid=3504dad8-9166-4b25-9316-b84b34180a91"},"vehicle_type_id":"4","last_reported":1722161268,"current_range_meters":4400,"station_id":"ce4bh112rcd13ifvqda0","pricing_plan_id":"cebpf4jnsgd1na2vs0mg"},{"bike_id":"c9befc5c-ae2f-40fd-bece-4f2688995db4","system_id":"levelo_inurba_marseille","lat":43.306412,"lon":5.401035,"is_reserved":false,"is_disabled":false,"rental_uris":{"android":"levelo://app?vid=c9befc5c-ae2f-40fd-bece-4f2688995db4","ios":"levelo://app?vid=c9befc5c-ae2f-40fd-bece-4f2688995db4"},"vehicle_type_id":"4","last_reported":1722161268,"current_range_meters":4000,"station_id":"ce4bh112rcd13ifvqda0","pricing_plan_id":"cebpf4jnsgd1na2vs0mg"},{"bike_id":"d3bbe3c5-d2f5-496a-9af8-a6708d230935","system_id":"levelo_inurba_marseille","lat":43.28727,"lon":5.36078,"is_reserved":false,"is_disabled":false,"rental_uris":{"android":"levelo://app?vid=d3bbe3c5-d2f5-496a-9af8-a6708d230935","ios":"levelo://app?vid=d3bbe3c5-d2f5-496a-9af8-a6708d230935"},"vehicle_type_id":"4","last_reported":1722161268,"current_range_meters":23600,"station_id":"cki0cbj6b192h4jlfktg","pricing_plan_id":"cebpf4jnsgd1na2vs0mg"},{"bike_id":"41404500-a0e7-4f99-99e1-e4c321c4397b","system_id":"levelo_inurba_marseille","lat":43.286961,"lon":5.373785,"is_reserved":false,"is_disabled":false,"rental_uris":{"android":"levelo://app?vid=41404500-a0e7-4f99-99e1-e4c321c4397b","ios":"levelo://app?vid=41404500-a0e7-4f99-99e1-e4c321c4397b"},"vehicle_type_id":"4","last_reported":1722161268,"current_range_meters":14400,"station_id":"ce4bh3p2rcd13ifvqdq0","pricing_plan_id":"cebpf4jnsgd1na2vs0mg"},{"bike_id":"1186f6b2-9371-4044-bfe4-5644b832a29e","system_id":"levelo_inurba_marseille","lat":43.286593,"lon":5.363346,"is_reserved":false,"is_disabled":false,"rental_uris":{"android":"levelo://app?vid=1186f6b2-9371-4044-bfe4-5644b832a29e","ios":"levelo://app?vid=1186f6b2-9371-4044-bfe4-5644b832a29e"},"vehicle_type_id":"4","last_reported":1722161268,"current_range_meters":13600,"station_id":"ce4bhah2rcd13ifvqej0","pricing_plan_id":"cebpf4jnsgd1na2vs0mg"},{"bike_id":"e92faef5-3d2d-47b2-8644-e219bc94667e","system_id":"levelo_inurba_marseille","lat":43.286961,"lon":5.373785,"is_reserved":false,"is_disabled":false,"rental_uris":{"android":"levelo://app?vid=e92faef5-3d2d-47b2-8644-e219bc94667e","ios":"levelo://app?vid=e92faef5-3d2d-47b2-8644-e219bc94667e"},"vehicle_type_id":"4","last_reported":1722161268,"current_range_meters":28000,"station_id":"ce4bh3p2rcd13ifvqdq0","pricing_plan_id":"cebpf4jnsgd1na2vs0mg"},{"bike_id":"d62ef0d5-59e0-4e7c-9765-67f1231efc01","system_id":"levelo_inurba_marseille","lat":43.286961,"lon":5.373785,"is_reserved":false,"is_disabled":false,"rental_uris":{"android":"levelo://app?vid=d62ef0d5-59e0-4e7c-9765-67f1231efc01","ios":"levelo://app?vid=d62ef0d5-59e0-4e7c-9765-67f1231efc01"},"vehicle_type_id":"4","last_reported":1722161268,"current_range_meters":21600,"station_id":"ce4bh3p2rcd13ifvqdq0","pricing_plan_id":"cebpf4jnsgd1na2vs0mg"},{"bike_id":"8c0a860c-90ab-4f02-b314-9206210e86d9","system_id":"levelo_inurba_marseille","lat":43.286961,"lon":5.373785,"is_reserved":false,"is_disabled":false,"rental_uris":{"android":"levelo://app?vid=8c0a860c-90ab-4f02-b314-9206210e86d9","ios":"levelo://app?vid=8c0a860c-90ab-4f02-b314-9206210e86d9"},"vehicle_type_id":"4","last_reported":1722161268,"current_range_meters":15200,"station_id":"ce4bh3p2rcd13ifvqdq0","pricing_plan_id":"cebpf4jnsgd1na2vs0mg"},{"bike_id":"f833d3dd-9236-41fb-835b-1a97918bbe90","system_id":"levelo_inurba_marseille","lat":43.29882,"lon":5.39759,"is_reserved":false,"is_disabled":false,"rental_uris":{"android":"levelo://app?vid=f833d3dd-9236-41fb-835b-1a97918bbe90","ios":"levelo://app?vid=f833d3dd-9236-41fb-835b-1a97918bbe90"},"vehicle_type_id":"4","last_reported":1722161268,"current_range_meters":28000,"station_id":"ce4bh0h2rcd13ifvqd50","pricing_plan_id":"cebpf4jnsgd1na2vs0mg"},{"bike_id":"e42646bf-6657-4e69-8738-005f9a2cec1f","system_id":"levelo_inurba_marseille","lat":43.302759,"lon":5.400793,"is_reserved":false,"is_disabled":false,"rental_uris":{"android":"levelo://app?vid=e42646bf-6657-4e69-8738-005f9a2cec1f","ios":"levelo://app?vid=e42646bf-6657-4e69-8738-005f9a2cec1f"},"vehicle_type_id":"4","last_reported":1722161268,"current_range_meters":24400,"station_id":"ce4bgvh2rcd13ifvqcs0","pricing_plan_id":"cebpf4jnsgd1na2vs0mg"},{"bike_id":"ea6e0f21-4c74-40a0-90c3-c8c29ebb7a06","system_id":"levelo_inurba_marseille","lat":43.302759,"lon":5.400793,"is_reserved":false,"is_disabled":false,"rental_uris":{"android":"levelo://app?vid=ea6e0f21-4c74-40a0-90c3-c8c29ebb7a06","ios":"levelo://app?vid=ea6e0f21-4c74-40a0-90c3-c8c29ebb7a06"},"vehicle_type_id":"4","last_reported":1722161268,"current_range_meters":15600,"station_id":"ce4bgvh2rcd13ifvqcs0","pricing_plan_id":"cebpf4jnsgd1na2vs0mg"},{"bike_id":"671c49e4-7526-42ca-a55b-0401263f9265","system_id":"levelo_inurba_marseille","lat":43.286039,"lon":5.370679,"is_reserved":false,"is_disabled":false,"rental_uris":{"android":"levelo://app?vid=671c49e4-7526-42ca-a55b-0401263f9265","ios":"levelo://app?vid=671c49e4-7526-42ca-a55b-0401263f9265"},"vehicle_type_id":"4","last_reported":1722161268,"current_range_meters":18400,"station_id":"ce4bht12rcd13ifvqi60","pricing_plan_id":"cebpf4jnsgd1na2vs0mg"},{"bike_id":"45394b2b-c9fa-44ae-80fd-5917d77d5cb1","system_id":"levelo_inurba_marseille","lat":43.286039,"lon":5.370679,"is_reserved":false,"is_disabled":false,"rental_uris":{"android":"levelo://app?vid=45394b2b-c9fa-44ae-80fd-5917d77d5cb1","ios":"levelo://app?vid=45394b2b-c9fa-44ae-80fd-5917d77d5cb1"},"vehicle_type_id":"4","last_reported":1722161268,"current_range_meters":1600,"station_id":"ce4bht12rcd13ifvqi60","pricing_plan_id":"cebpf4jnsgd1na2vs0mg"},{"bike_id":"d41c174a-7ae9-42ae-9b13-cbb92b9dfd01","system_id":"levelo_inurba_marseille","lat":43.302759,"lon":5.400793,"is_reserved":false,"is_disabled":false,"rental_uris":{"android":"levelo://app?vid=d41c174a-7ae9-42ae-9b13-cbb92b9dfd01","ios":"levelo://app?vid=d41c174a-7ae9-42ae-9b13-cbb92b9dfd01"},"vehicle_type_id":"4","last_reported":1722161268,"current_range_meters":13600,"station_id":"ce4bgvh2rcd13ifvqcs0","pricing_plan_id":"cebpf4jnsgd1na2vs0mg"},{"bike_id":"c8ff9d78-3446-46d7-a5a7-565a11819720","system_id":"levelo_inurba_marseille","lat":43.286039,"lon":5.370679,"is_reserved":false,"is_disabled":false,"rental_uris":{"android":"levelo://app?vid=c8ff9d78-3446-46d7-a5a7-565a11819720","ios":"levelo://app?vid=c8ff9d78-3446-46d7-a5a7-565a11819720"},"vehicle_type_id":"4","last_reported":1722161268,"current_range_meters":22800,"station_id":"ce4bht12rcd13ifvqi60","pricing_plan_id":"cebpf4jnsgd1na2vs0mg"},{"bike_id":"ed7f4592-f682-45c6-93ee-30e68ee5551e","system_id":"levelo_inurba_marseille","lat":43.286039,"lon":5.370679,"is_reserved":false,"is_disabled":false,"rental_uris":{"android":"levelo://app?vid=ed7f4592-f682-45c6-93ee-30e68ee5551e","ios":"levelo://app?vid=ed7f4592-f682-45c6-93ee-30e68ee5551e"},"vehicle_type_id":"4","last_reported":1722161268,"current_range_meters":19200,"station_id":"ce4bht12rcd13ifvqi60","pricing_plan_id":"cebpf4jnsgd1na2vs0mg"},{"bike_id":"1eb02d31-7882-4a83-9f6f-33edb8a28424","system_id":"levelo_inurba_marseille","lat":43.286039,"lon":5.370679,"is_reserved":false,"is_disabled":false,"rental_uris":{"android":"levelo://app?vid=1eb02d31-7882-4a83-9f6f-33edb8a28424","ios":"levelo://app?vid=1eb02d31-7882-4a83-9f6f-33edb8a28424"},"vehicle_type_id":"4","last_reported":1722161268,"current_range_meters":23600,"station_id":"ce4bht12rcd13ifvqi60","pricing_plan_id":"cebpf4jnsgd1na2vs0mg"},{"bike_id":"5a86748f-8d1b-4b18-a406-d0d298e34ed7","system_id":"levelo_inurba_marseille","lat":43.302759,"lon":5.400793,"is_reserved":false,"is_disabled":false,"rental_uris":{"android":"levelo://app?vid=5a86748f-8d1b-4b18-a406-d0d298e34ed7","ios":"levelo://app?vid=5a86748f-8d1b-4b18-a406-d0d298e34ed7"},"vehicle_type_id":"4","last_reported":1722161268,"current_range_meters":20000,"station_id":"ce4bgvh2rcd13ifvqcs0","pricing_plan_id":"cebpf4jnsgd1na2vs0mg"},{"bike_id":"facf0a7e-8b86-4467-bff3-75083b887d6d","system_id":"levelo_inurba_marseille","lat":43.286039,"lon":5.370681,"is_reserved":false,"is_disabled":false,"rental_uris":{"android":"levelo://app?vid=facf0a7e-8b86-4467-bff3-75083b887d6d","ios":"levelo://app?vid=facf0a7e-8b86-4467-bff3-75083b887d6d"},"vehicle_type_id":"4","last_reported":1722161268,"current_range_meters":16400,"station_id":"ce4bht12rcd13ifvqi60","pricing_plan_id":"cebpf4jnsgd1na2vs0mg"},{"bike_id":"068f1085-482e-4625-9004-ec41abcf852c","system_id":"levelo_inurba_marseille","lat":43.316828,"lon":5.404723,"is_reserved":false,"is_disabled":false,"rental_uris":{"android":"levelo://app?vid=068f1085-482e-4625-9004-ec41abcf852c","ios":"levelo://app?vid=068f1085-482e-4625-9004-ec41abcf852c"},"vehicle_type_id":"4","last_reported":1722161268,"current_range_meters":28800,"station_id":"ce4bh012rcd13ifvqd00","pricing_plan_id":"cebpf4jnsgd1na2vs0mg"},{"bike_id":"15c8d375-06f9-4082-9269-0399c50cd9f9","system_id":"levelo_inurba_marseille","lat":43.316821,"lon":5.404737,"is_reserved":false,"is_disabled":false,"rental_uris":{"android":"levelo://app?vid=15c8d375-06f9-4082-9269-0399c50cd9f9","ios":"levelo://app?vid=15c8d375-06f9-4082-9269-0399c50cd9f9"},"vehicle_type_id":"4","last_reported":1722161268,"current_range_meters":0,"station_id":"ce4bh012rcd13ifvqd00","pricing_plan_id":"cebpf4jnsgd1na2vs0mg"},{"bike_id":"77d7b40f-9f3a-4407-b63a-e75bceffad82","system_id":"levelo_inurba_marseille","lat":43.316821,"lon":5.404737,"is_reserved":false,"is_disabled":false,"rental_uris":{"android":"levelo://app?vid=77d7b40f-9f3a-4407-b63a-e75bceffad82","ios":"levelo://app?vid=77d7b40f-9f3a-4407-b63a-e75bceffad82"},"vehicle_type_id":"4","last_reported":1722161268,"current_range_meters":800,"station_id":"ce4bh012rcd13ifvqd00","pricing_plan_id":"cebpf4jnsgd1na2vs0mg"},{"bike_id":"30097a14-7076-415e-9643-ba3ee29216f9","system_id":"levelo_inurba_marseille","lat":43.284538,"lon":5.358657,"is_reserved":false,"is_disabled":false,"rental_uris":{"android":"levelo://app?vid=30097a14-7076-415e-9643-ba3ee29216f9","ios":"levelo://app?vid=30097a14-7076-415e-9643-ba3ee29216f9"},"vehicle_type_id":"4","last_reported":1722161268,"current_range_meters":4400,"station_id":"ce4bhah2rcd13ifvqei0","pricing_plan_id":"cebpf4jnsgd1na2vs0mg"},{"bike_id":"745ceab4-4875-470d-9668-65b93e018e15","system_id":"levelo_inurba_marseille","lat":43.284534,"lon":5.358662,"is_reserved":false,"is_disabled":false,"rental_uris":{"android":"levelo://app?vid=745ceab4-4875-470d-9668-65b93e018e15","ios":"levelo://app?vid=745ceab4-4875-470d-9668-65b93e018e15"},"vehicle_type_id":"4","last_reported":1722161268,"current_range_meters":3200,"station_id":"ce4bhah2rcd13ifvqei0","pricing_plan_id":"cebpf4jnsgd1na2vs0mg"},{"bike_id":"ca383815-d2d8-495c-aac0-279a23b97eee","system_id":"levelo_inurba_marseille","lat":43.294314,"lon":5.397498,"is_reserved":false,"is_disabled":false,"rental_uris":{"android":"levelo://app?vid=ca383815-d2d8-495c-aac0-279a23b97eee","ios":"levelo://app?vid=ca383815-d2d8-495c-aac0-279a23b97eee"},"vehicle_type_id":"4","last_reported":1722161268,"current_range_meters":0,"station_id":"ce4bh3h2rcd13ifvqdo0","pricing_plan_id":"cebpf4jnsgd1na2vs0mg"},{"bike_id":"b63066a6-6d86-486a-8c47-dbe0e5405090","system_id":"levelo_inurba_marseille","lat":43.28618,"lon":5.35103,"is_reserved":false,"is_disabled":false,"rental_uris":{"android":"levelo://app?vid=b63066a6-6d86-486a-8c47-dbe0e5405090","ios":"levelo://app?vid=b63066a6-6d86-486a-8c47-dbe0e5405090"},"vehicle_type_id":"4","last_reported":1722161268,"current_range_meters":0,"station_id":"ce4bhch2rcd13ifvqeug","pricing_plan_id":"cebpf4jnsgd1na2vs0mg"},{"bike_id":"ed8a8d24-17e6-4149-a112-45617b3797d4","system_id":"levelo_inurba_marseille","lat":43.28618,"lon":5.35099,"is_reserved":false,"is_disabled":false,"rental_uris":{"android":"levelo://app?vid=ed8a8d24-17e6-4149-a112-45617b3797d4","ios":"levelo://app?vid=ed8a8d24-17e6-4149-a112-45617b3797d4"},"vehicle_type_id":"4","last_reported":1722161268,"current_range_meters":4800,"station_id":"ce4bhch2rcd13ifvqeug","pricing_plan_id":"cebpf4jnsgd1na2vs0mg"},{"bike_id":"1d523919-ec2c-40df-902d-ccab4729d7d3","system_id":"levelo_inurba_marseille","lat":43.285856,"lon":5.350771,"is_reserved":false,"is_disabled":false,"rental_uris":{"android":"levelo://app?vid=1d523919-ec2c-40df-902d-ccab4729d7d3","ios":"levelo://app?vid=1d523919-ec2c-40df-902d-ccab4729d7d3"},"vehicle_type_id":"4","last_reported":1722161268,"current_range_meters":13600,"station_id":"ce4bhch2rcd13ifvqeug","pricing_plan_id":"cebpf4jnsgd1na2vs0mg"},{"bike_id":"943038b2-155b-4afd-80ef-dfc00b20c94d","system_id":"levelo_inurba_marseille","lat":43.28614,"lon":5.35101,"is_reserved":false,"is_disabled":false,"rental_uris":{"android":"levelo://app?vid=943038b2-155b-4afd-80ef-dfc00b20c94d","ios":"levelo://app?vid=943038b2-155b-4afd-80ef-dfc00b20c94d"},"vehicle_type_id":"4","last_reported":1722161268,"current_range_meters":12400,"station_id":"ce4bhch2rcd13ifvqeug","pricing_plan_id":"cebpf4jnsgd1na2vs0mg"},{"bike_id":"f4b31af1-f64a-468a-8dcd-284d2023a22e","system_id":"levelo_inurba_marseille","lat":43.28613,"lon":5.35103,"is_reserved":false,"is_disabled":false,"rental_uris":{"android":"levelo://app?vid=f4b31af1-f64a-468a-8dcd-284d2023a22e","ios":"levelo://app?vid=f4b31af1-f64a-468a-8dcd-284d2023a22e"},"vehicle_type_id":"4","last_reported":1722161268,"current_range_meters":8000,"station_id":"ce4bhch2rcd13ifvqeug","pricing_plan_id":"cebpf4jnsgd1na2vs0mg"},{"bike_id":"44c393e7-56c5-46d6-8dda-d41618fc1b4e","system_id":"levelo_inurba_marseille","lat":43.285856,"lon":5.350771,"is_reserved":false,"is_disabled":false,"rental_uris":{"android":"levelo://app?vid=44c393e7-56c5-46d6-8dda-d41618fc1b4e","ios":"levelo://app?vid=44c393e7-56c5-46d6-8dda-d41618fc1b4e"},"vehicle_type_id":"4","last_reported":1722161268,"current_range_meters":30000,"station_id":"ce4bhch2rcd13ifvqeug","pricing_plan_id":"cebpf4jnsgd1na2vs0mg"},{"bike_id":"119fee12-bbe6-4197-988e-201ec46f0ab8","system_id":"levelo_inurba_marseille","lat":43.28671,"lon":5.38668,"is_reserved":false,"is_disabled":false,"rental_uris":{"android":"levelo://app?vid=119fee12-bbe6-4197-988e-201ec46f0ab8","ios":"levelo://app?vid=119fee12-bbe6-4197-988e-201ec46f0ab8"},"vehicle_type_id":"4","last_reported":1722161268,"current_range_meters":24000,"station_id":"ce4bh492rcd13ifvqdug","pricing_plan_id":"cebpf4jnsgd1na2vs0mg"},{"bike_id":"b6fad994-a7b8-4b1d-858c-55b8d0701828","system_id":"levelo_inurba_marseille","lat":43.319179,"lon":5.407725,"is_reserved":false,"is_disabled":false,"rental_uris":{"android":"levelo://app?vid=b6fad994-a7b8-4b1d-858c-55b8d0701828","ios":"levelo://app?vid=b6fad994-a7b8-4b1d-858c-55b8d0701828"},"vehicle_type_id":"4","last_reported":1722161268,"current_range_meters":19200,"station_id":"ce4bhq12rcd13ifvqhig","pricing_plan_id":"cebpf4jnsgd1na2vs0mg"},{"bike_id":"6d28b682-8c98-48dd-b70b-dd2af10c1a78","system_id":"levelo_inurba_marseille","lat":43.319179,"lon":5.407725,"is_reserved":false,"is_disabled":false,"rental_uris":{"android":"levelo://app?vid=6d28b682-8c98-48dd-b70b-dd2af10c1a78","ios":"levelo://app?vid=6d28b682-8c98-48dd-b70b-dd2af10c1a78"},"vehicle_type_id":"4","last_reported":1722161268,"current_range_meters":28000,"station_id":"ce4bhq12rcd13ifvqhig","pricing_plan_id":"cebpf4jnsgd1na2vs0mg"},{"bike_id":"dfc993be-216e-470c-a02a-8547c3a7f00b","system_id":"levelo_inurba_marseille","lat":43.319179,"lon":5.407725,"is_reserved":false,"is_disabled":false,"rental_uris":{"android":"levelo://app?vid=dfc993be-216e-470c-a02a-8547c3a7f00b","ios":"levelo://app?vid=dfc993be-216e-470c-a02a-8547c3a7f00b"},"vehicle_type_id":"4","last_reported":1722161268,"current_range_meters":31200,"station_id":"ce4bhq12rcd13ifvqhig","pricing_plan_id":"cebpf4jnsgd1na2vs0mg"},{"bike_id":"228c4b4e-bd25-4727-8075-759a3cf801c7","system_id":"levelo_inurba_marseille","lat":43.319179,"lon":5.407725,"is_reserved":false,"is_disabled":false,"rental_uris":{"android":"levelo://app?vid=228c4b4e-bd25-4727-8075-759a3cf801c7","ios":"levelo://app?vid=228c4b4e-bd25-4727-8075-759a3cf801c7"},"vehicle_type_id":"4","last_reported":1722161268,"current_range_meters":29200,"station_id":"ce4bhq12rcd13ifvqhig","pricing_plan_id":"cebpf4jnsgd1na2vs0mg"},{"bike_id":"fe5c2b27-b79d-47ad-9acd-0ce6a9f756c1","system_id":"levelo_inurba_marseille","lat":43.33717,"lon":5.391857,"is_reserved":false,"is_disabled":false,"rental_uris":{"android":"levelo://app?vid=fe5c2b27-b79d-47ad-9acd-0ce6a9f756c1","ios":"levelo://app?vid=fe5c2b27-b79d-47ad-9acd-0ce6a9f756c1"},"vehicle_type_id":"4","last_reported":1722161268,"current_range_meters":27200,"station_id":"ce4bhr92rcd13ifvqhsg","pricing_plan_id":"cebpf4jnsgd1na2vs0mg"},{"bike_id":"a750ba14-bb79-4daf-909f-6d7f063560f2","system_id":"levelo_inurba_marseille","lat":43.323464,"lon":5.406297,"is_reserved":false,"is_disabled":false,"rental_uris":{"android":"levelo://app?vid=a750ba14-bb79-4daf-909f-6d7f063560f2","ios":"levelo://app?vid=a750ba14-bb79-4daf-909f-6d7f063560f2"},"vehicle_type_id":"4","last_reported":1722161268,"current_range_meters":14400,"station_id":"ce4bhq92rcd13ifvqhjg","pricing_plan_id":"cebpf4jnsgd1na2vs0mg"},{"bike_id":"3439f520-7411-4a89-bbd2-a2c4b4d4923d","system_id":"levelo_inurba_marseille","lat":43.337168,"lon":5.391825,"is_reserved":false,"is_disabled":false,"rental_uris":{"android":"levelo://app?vid=3439f520-7411-4a89-bbd2-a2c4b4d4923d","ios":"levelo://app?vid=3439f520-7411-4a89-bbd2-a2c4b4d4923d"},"vehicle_type_id":"4","last_reported":1722161268,"current_range_meters":31200,"station_id":"ce4bhr92rcd13ifvqhsg","pricing_plan_id":"cebpf4jnsgd1na2vs0mg"},{"bike_id":"0b5d71cd-9849-4000-a489-b0b46962edad","system_id":"levelo_inurba_marseille","lat":43.323464,"lon":5.406297,"is_reserved":false,"is_disabled":false,"rental_uris":{"android":"levelo://app?vid=0b5d71cd-9849-4000-a489-b0b46962edad","ios":"levelo://app?vid=0b5d71cd-9849-4000-a489-b0b46962edad"},"vehicle_type_id":"4","last_reported":1722161268,"current_range_meters":30400,"station_id":"ce4bhq92rcd13ifvqhjg","pricing_plan_id":"cebpf4jnsgd1na2vs0mg"},{"bike_id":"1b853bc5-e49e-4e81-a558-66ae88b178f5","system_id":"levelo_inurba_marseille","lat":43.323464,"lon":5.406297,"is_reserved":false,"is_disabled":false,"rental_uris":{"android":"levelo://app?vid=1b853bc5-e49e-4e81-a558-66ae88b178f5","ios":"levelo://app?vid=1b853bc5-e49e-4e81-a558-66ae88b178f5"},"vehicle_type_id":"4","last_reported":1722161268,"current_range_meters":20400,"station_id":"ce4bhq92rcd13ifvqhjg","pricing_plan_id":"cebpf4jnsgd1na2vs0mg"},{"bike_id":"88384e0f-bff0-4030-aa91-c1b70b0f1c96","system_id":"levelo_inurba_marseille","lat":43.323464,"lon":5.406297,"is_reserved":false,"is_disabled":false,"rental_uris":{"android":"levelo://app?vid=88384e0f-bff0-4030-aa91-c1b70b0f1c96","ios":"levelo://app?vid=88384e0f-bff0-4030-aa91-c1b70b0f1c96"},"vehicle_type_id":"4","last_reported":1722161268,"current_range_meters":18400,"station_id":"ce4bhq92rcd13ifvqhjg","pricing_plan_id":"cebpf4jnsgd1na2vs0mg"},{"bike_id":"e9814d99-d1a3-4363-9963-378ca5e26107","system_id":"levelo_inurba_marseille","lat":43.32341,"lon":5.40622,"is_reserved":false,"is_disabled":false,"rental_uris":{"android":"levelo://app?vid=e9814d99-d1a3-4363-9963-378ca5e26107","ios":"levelo://app?vid=e9814d99-d1a3-4363-9963-378ca5e26107"},"vehicle_type_id":"4","last_reported":1722161268,"current_range_meters":400,"station_id":"ce4bhq92rcd13ifvqhjg","pricing_plan_id":"cebpf4jnsgd1na2vs0mg"},{"bike_id":"596e8956-a073-4d92-b5a9-b7930c278a05","system_id":"levelo_inurba_marseille","lat":43.337168,"lon":5.391825,"is_reserved":false,"is_disabled":false,"rental_uris":{"android":"levelo://app?vid=596e8956-a073-4d92-b5a9-b7930c278a05","ios":"levelo://app?vid=596e8956-a073-4d92-b5a9-b7930c278a05"},"vehicle_type_id":"4","last_reported":1722161268,"current_range_meters":29200,"station_id":"ce4bhr92rcd13ifvqhsg","pricing_plan_id":"cebpf4jnsgd1na2vs0mg"},{"bike_id":"0f1c922d-23b4-4a9f-96d6-c2e2525aa5d8","system_id":"levelo_inurba_marseille","lat":43.323464,"lon":5.406297,"is_reserved":false,"is_disabled":false,"rental_uris":{"android":"levelo://app?vid=0f1c922d-23b4-4a9f-96d6-c2e2525aa5d8","ios":"levelo://app?vid=0f1c922d-23b4-4a9f-96d6-c2e2525aa5d8"},"vehicle_type_id":"4","last_reported":1722161268,"current_range_meters":29200,"station_id":"ce4bhq92rcd13ifvqhjg","pricing_plan_id":"cebpf4jnsgd1na2vs0mg"},{"bike_id":"1d07b010-359d-49cd-b79f-afcb01fd8934","system_id":"levelo_inurba_marseille","lat":43.297946,"lon":5.404063,"is_reserved":false,"is_disabled":false,"rental_uris":{"android":"levelo://app?vid=1d07b010-359d-49cd-b79f-afcb01fd8934","ios":"levelo://app?vid=1d07b010-359d-49cd-b79f-afcb01fd8934"},"vehicle_type_id":"4","last_reported":1722161268,"current_range_meters":4800,"station_id":"ce4bh112rcd13ifvqd90","pricing_plan_id":"cebpf4jnsgd1na2vs0mg"},{"bike_id":"5bcccf47-68e2-4114-8dcb-586ed3ab51ab","system_id":"levelo_inurba_marseille","lat":43.284219,"lon":5.3497,"is_reserved":false,"is_disabled":false,"rental_uris":{"android":"levelo://app?vid=5bcccf47-68e2-4114-8dcb-586ed3ab51ab","ios":"levelo://app?vid=5bcccf47-68e2-4114-8dcb-586ed3ab51ab"},"vehicle_type_id":"4","last_reported":1722161268,"current_range_meters":10000,"station_id":"ce4bhbh2rcd13ifvqepg","pricing_plan_id":"cebpf4jnsgd1na2vs0mg"},{"bike_id":"e5c0d479-3048-46dd-9854-1f599cef54d8","system_id":"levelo_inurba_marseille","lat":43.284219,"lon":5.3497,"is_reserved":false,"is_disabled":false,"rental_uris":{"android":"levelo://app?vid=e5c0d479-3048-46dd-9854-1f599cef54d8","ios":"levelo://app?vid=e5c0d479-3048-46dd-9854-1f599cef54d8"},"vehicle_type_id":"4","last_reported":1722161268,"current_range_meters":31200,"station_id":"ce4bhbh2rcd13ifvqepg","pricing_plan_id":"cebpf4jnsgd1na2vs0mg"},{"bike_id":"fcc3f00e-2ee9-4eb1-ab3f-113f0460f136","system_id":"levelo_inurba_marseille","lat":43.284219,"lon":5.3497,"is_reserved":false,"is_disabled":false,"rental_uris":{"android":"levelo://app?vid=fcc3f00e-2ee9-4eb1-ab3f-113f0460f136","ios":"levelo://app?vid=fcc3f00e-2ee9-4eb1-ab3f-113f0460f136"},"vehicle_type_id":"4","last_reported":1722161268,"current_range_meters":1200,"station_id":"ce4bhbh2rcd13ifvqepg","pricing_plan_id":"cebpf4jnsgd1na2vs0mg"},{"bike_id":"4b64244f-f4ef-496b-a815-1801da2e8190","system_id":"levelo_inurba_marseille","lat":43.28423,"lon":5.34986,"is_reserved":false,"is_disabled":false,"rental_uris":{"android":"levelo://app?vid=4b64244f-f4ef-496b-a815-1801da2e8190","ios":"levelo://app?vid=4b64244f-f4ef-496b-a815-1801da2e8190"},"vehicle_type_id":"4","last_reported":1722161268,"current_range_meters":26400,"station_id":"ce4bhbh2rcd13ifvqepg","pricing_plan_id":"cebpf4jnsgd1na2vs0mg"},{"bike_id":"98235f87-4b6a-498c-9724-cf52915d30d3","system_id":"levelo_inurba_marseille","lat":43.284217,"lon":5.349697,"is_reserved":false,"is_disabled":false,"rental_uris":{"android":"levelo://app?vid=98235f87-4b6a-498c-9724-cf52915d30d3","ios":"levelo://app?vid=98235f87-4b6a-498c-9724-cf52915d30d3"},"vehicle_type_id":"4","last_reported":1722161268,"current_range_meters":4000,"station_id":"ce4bhbh2rcd13ifvqepg","pricing_plan_id":"cebpf4jnsgd1na2vs0mg"},{"bike_id":"286e2cd1-9912-4a1f-8197-09ac7f8495a0","system_id":"levelo_inurba_marseille","lat":43.284219,"lon":5.3497,"is_reserved":false,"is_disabled":false,"rental_uris":{"android":"levelo://app?vid=286e2cd1-9912-4a1f-8197-09ac7f8495a0","ios":"levelo://app?vid=286e2cd1-9912-4a1f-8197-09ac7f8495a0"},"vehicle_type_id":"4","last_reported":1722161268,"current_range_meters":16000,"station_id":"ce4bhbh2rcd13ifvqepg","pricing_plan_id":"cebpf4jnsgd1na2vs0mg"},{"bike_id":"7002c7f3-d737-47b1-ba14-e92661b02a2e","system_id":"levelo_inurba_marseille","lat":43.284219,"lon":5.3497,"is_reserved":false,"is_disabled":false,"rental_uris":{"android":"levelo://app?vid=7002c7f3-d737-47b1-ba14-e92661b02a2e","ios":"levelo://app?vid=7002c7f3-d737-47b1-ba14-e92661b02a2e"},"vehicle_type_id":"4","last_reported":1722161268,"current_range_meters":18000,"station_id":"ce4bhbh2rcd13ifvqepg","pricing_plan_id":"cebpf4jnsgd1na2vs0mg"},{"bike_id":"595893ca-341b-46e4-afb9-7d49bc8da4a5","system_id":"levelo_inurba_marseille","lat":43.284217,"lon":5.349697,"is_reserved":false,"is_disabled":false,"rental_uris":{"android":"levelo://app?vid=595893ca-341b-46e4-afb9-7d49bc8da4a5","ios":"levelo://app?vid=595893ca-341b-46e4-afb9-7d49bc8da4a5"},"vehicle_type_id":"4","last_reported":1722161268,"current_range_meters":25600,"station_id":"ce4bhbh2rcd13ifvqepg","pricing_plan_id":"cebpf4jnsgd1na2vs0mg"},{"bike_id":"bcd3ef99-88de-4609-941a-bd1ee59441b6","system_id":"levelo_inurba_marseille","lat":43.28419,"lon":5.3499,"is_reserved":false,"is_disabled":false,"rental_uris":{"android":"levelo://app?vid=bcd3ef99-88de-4609-941a-bd1ee59441b6","ios":"levelo://app?vid=bcd3ef99-88de-4609-941a-bd1ee59441b6"},"vehicle_type_id":"4","last_reported":1722161268,"current_range_meters":11200,"station_id":"ce4bhbh2rcd13ifvqepg","pricing_plan_id":"cebpf4jnsgd1na2vs0mg"},{"bike_id":"1cab26bf-9771-4a67-8fa6-441a4eee3ebd","system_id":"levelo_inurba_marseille","lat":43.284219,"lon":5.3497,"is_reserved":false,"is_disabled":false,"rental_uris":{"android":"levelo://app?vid=1cab26bf-9771-4a67-8fa6-441a4eee3ebd","ios":"levelo://app?vid=1cab26bf-9771-4a67-8fa6-441a4eee3ebd"},"vehicle_type_id":"4","last_reported":1722161268,"current_range_meters":14400,"station_id":"ce4bhbh2rcd13ifvqepg","pricing_plan_id":"cebpf4jnsgd1na2vs0mg"},{"bike_id":"91080e46-6f22-4e0b-97c9-ba9ba49a512a","system_id":"levelo_inurba_marseille","lat":43.284219,"lon":5.3497,"is_reserved":false,"is_disabled":false,"rental_uris":{"android":"levelo://app?vid=91080e46-6f22-4e0b-97c9-ba9ba49a512a","ios":"levelo://app?vid=91080e46-6f22-4e0b-97c9-ba9ba49a512a"},"vehicle_type_id":"4","last_reported":1722161268,"current_range_meters":19200,"station_id":"ce4bhbh2rcd13ifvqepg","pricing_plan_id":"cebpf4jnsgd1na2vs0mg"},{"bike_id":"915ce34c-76d6-45e2-963e-ea7e65af58ba","system_id":"levelo_inurba_marseille","lat":43.284219,"lon":5.3497,"is_reserved":false,"is_disabled":false,"rental_uris":{"android":"levelo://app?vid=915ce34c-76d6-45e2-963e-ea7e65af58ba","ios":"levelo://app?vid=915ce34c-76d6-45e2-963e-ea7e65af58ba"},"vehicle_type_id":"4","last_reported":1722161268,"current_range_meters":21600,"station_id":"ce4bhbh2rcd13ifvqepg","pricing_plan_id":"cebpf4jnsgd1na2vs0mg"},{"bike_id":"b02d9dfa-7e8f-44ab-9316-3ecf75cd7723","system_id":"levelo_inurba_marseille","lat":43.284217,"lon":5.349697,"is_reserved":false,"is_disabled":false,"rental_uris":{"android":"levelo://app?vid=b02d9dfa-7e8f-44ab-9316-3ecf75cd7723","ios":"levelo://app?vid=b02d9dfa-7e8f-44ab-9316-3ecf75cd7723"},"vehicle_type_id":"4","last_reported":1722161268,"current_range_meters":25600,"station_id":"ce4bhbh2rcd13ifvqepg","pricing_plan_id":"cebpf4jnsgd1na2vs0mg"},{"bike_id":"c79c3a3c-1798-416b-b08a-ce321ad222fe","system_id":"levelo_inurba_marseille","lat":43.284219,"lon":5.3497,"is_reserved":false,"is_disabled":false,"rental_uris":{"android":"levelo://app?vid=c79c3a3c-1798-416b-b08a-ce321ad222fe","ios":"levelo://app?vid=c79c3a3c-1798-416b-b08a-ce321ad222fe"},"vehicle_type_id":"4","last_reported":1722161268,"current_range_meters":2000,"station_id":"ce4bhbh2rcd13ifvqepg","pricing_plan_id":"cebpf4jnsgd1na2vs0mg"},{"bike_id":"005d000b-d732-4ef8-9707-20bd742e363a","system_id":"levelo_inurba_marseille","lat":43.28419,"lon":5.34981,"is_reserved":false,"is_disabled":false,"rental_uris":{"android":"levelo://app?vid=005d000b-d732-4ef8-9707-20bd742e363a","ios":"levelo://app?vid=005d000b-d732-4ef8-9707-20bd742e363a"},"vehicle_type_id":"4","last_reported":1722161268,"current_range_meters":26000,"station_id":"ce4bhbh2rcd13ifvqepg","pricing_plan_id":"cebpf4jnsgd1na2vs0mg"},{"bike_id":"b88e05d8-c3ea-4d3c-b1b6-186fb9c213e4","system_id":"levelo_inurba_marseille","lat":43.284219,"lon":5.3497,"is_reserved":false,"is_disabled":false,"rental_uris":{"android":"levelo://app?vid=b88e05d8-c3ea-4d3c-b1b6-186fb9c213e4","ios":"levelo://app?vid=b88e05d8-c3ea-4d3c-b1b6-186fb9c213e4"},"vehicle_type_id":"4","last_reported":1722161268,"current_range_meters":21600,"station_id":"ce4bhbh2rcd13ifvqepg","pricing_plan_id":"cebpf4jnsgd1na2vs0mg"},{"bike_id":"436f6a65-c7c0-46ce-abc3-49683121e043","system_id":"levelo_inurba_marseille","lat":43.284217,"lon":5.349697,"is_reserved":false,"is_disabled":false,"rental_uris":{"android":"levelo://app?vid=436f6a65-c7c0-46ce-abc3-49683121e043","ios":"levelo://app?vid=436f6a65-c7c0-46ce-abc3-49683121e043"},"vehicle_type_id":"4","last_reported":1722161268,"current_range_meters":16000,"station_id":"ce4bhbh2rcd13ifvqepg","pricing_plan_id":"cebpf4jnsgd1na2vs0mg"},{"bike_id":"9795018c-b75e-4797-b655-c036ff847c2e","system_id":"levelo_inurba_marseille","lat":43.2842,"lon":5.34976,"is_reserved":false,"is_disabled":false,"rental_uris":{"android":"levelo://app?vid=9795018c-b75e-4797-b655-c036ff847c2e","ios":"levelo://app?vid=9795018c-b75e-4797-b655-c036ff847c2e"},"vehicle_type_id":"4","last_reported":1722161268,"current_range_meters":31200,"station_id":"ce4bhbh2rcd13ifvqepg","pricing_plan_id":"cebpf4jnsgd1na2vs0mg"},{"bike_id":"cba103d5-484e-404e-8639-cd47817e3c4e","system_id":"levelo_inurba_marseille","lat":43.28419,"lon":5.34978,"is_reserved":false,"is_disabled":false,"rental_uris":{"android":"levelo://app?vid=cba103d5-484e-404e-8639-cd47817e3c4e","ios":"levelo://app?vid=cba103d5-484e-404e-8639-cd47817e3c4e"},"vehicle_type_id":"4","last_reported":1722161268,"current_range_meters":31200,"station_id":"ce4bhbh2rcd13ifvqepg","pricing_plan_id":"cebpf4jnsgd1na2vs0mg"},{"bike_id":"2deaaf99-cfd1-4095-ac2d-6ebe0f65c297","system_id":"levelo_inurba_marseille","lat":43.28415,"lon":5.34987,"is_reserved":false,"is_disabled":false,"rental_uris":{"android":"levelo://app?vid=2deaaf99-cfd1-4095-ac2d-6ebe0f65c297","ios":"levelo://app?vid=2deaaf99-cfd1-4095-ac2d-6ebe0f65c297"},"vehicle_type_id":"4","last_reported":1722161268,"current_range_meters":29200,"station_id":"ce4bhbh2rcd13ifvqepg","pricing_plan_id":"cebpf4jnsgd1na2vs0mg"},{"bike_id":"ba1e26ea-1c16-410d-89fb-701d3df4ccf3","system_id":"levelo_inurba_marseille","lat":43.28419,"lon":5.34973,"is_reserved":false,"is_disabled":false,"rental_uris":{"android":"levelo://app?vid=ba1e26ea-1c16-410d-89fb-701d3df4ccf3","ios":"levelo://app?vid=ba1e26ea-1c16-410d-89fb-701d3df4ccf3"},"vehicle_type_id":"4","last_reported":1722161268,"current_range_meters":30400,"station_id":"ce4bhbh2rcd13ifvqepg","pricing_plan_id":"cebpf4jnsgd1na2vs0mg"},{"bike_id":"06bd86d5-a9e6-4a16-b30c-33b3e03e7654","system_id":"levelo_inurba_marseille","lat":43.284219,"lon":5.3497,"is_reserved":false,"is_disabled":false,"rental_uris":{"android":"levelo://app?vid=06bd86d5-a9e6-4a16-b30c-33b3e03e7654","ios":"levelo://app?vid=06bd86d5-a9e6-4a16-b30c-33b3e03e7654"},"vehicle_type_id":"4","last_reported":1722161268,"current_range_meters":23600,"station_id":"ce4bhbh2rcd13ifvqepg","pricing_plan_id":"cebpf4jnsgd1na2vs0mg"},{"bike_id":"f8d1fcdd-3ac5-4f15-becb-8316d463c5ed","system_id":"levelo_inurba_marseille","lat":43.284217,"lon":5.349697,"is_reserved":false,"is_disabled":false,"rental_uris":{"android":"levelo://app?vid=f8d1fcdd-3ac5-4f15-becb-8316d463c5ed","ios":"levelo://app?vid=f8d1fcdd-3ac5-4f15-becb-8316d463c5ed"},"vehicle_type_id":"4","last_reported":1722161268,"current_range_meters":12400,"station_id":"ce4bhbh2rcd13ifvqepg","pricing_plan_id":"cebpf4jnsgd1na2vs0mg"},{"bike_id":"14ddf4d8-5d3a-4aca-80d3-bbcd673ba22b","system_id":"levelo_inurba_marseille","lat":43.28414,"lon":5.34985,"is_reserved":false,"is_disabled":false,"rental_uris":{"android":"levelo://app?vid=14ddf4d8-5d3a-4aca-80d3-bbcd673ba22b","ios":"levelo://app?vid=14ddf4d8-5d3a-4aca-80d3-bbcd673ba22b"},"vehicle_type_id":"4","last_reported":1722161268,"current_range_meters":12800,"station_id":"ce4bhbh2rcd13ifvqepg","pricing_plan_id":"cebpf4jnsgd1na2vs0mg"},{"bike_id":"22652bd1-43e7-4f3b-8639-5b94c3e0ceda","system_id":"levelo_inurba_marseille","lat":43.28415,"lon":5.34976,"is_reserved":false,"is_disabled":false,"rental_uris":{"android":"levelo://app?vid=22652bd1-43e7-4f3b-8639-5b94c3e0ceda","ios":"levelo://app?vid=22652bd1-43e7-4f3b-8639-5b94c3e0ceda"},"vehicle_type_id":"4","last_reported":1722161268,"current_range_meters":22400,"station_id":"ce4bhbh2rcd13ifvqepg","pricing_plan_id":"cebpf4jnsgd1na2vs0mg"},{"bike_id":"8686dc3f-5e38-4274-afa6-5680e45b877e","system_id":"levelo_inurba_marseille","lat":43.28408,"lon":5.34978,"is_reserved":false,"is_disabled":false,"rental_uris":{"android":"levelo://app?vid=8686dc3f-5e38-4274-afa6-5680e45b877e","ios":"levelo://app?vid=8686dc3f-5e38-4274-afa6-5680e45b877e"},"vehicle_type_id":"4","last_reported":1722161268,"current_range_meters":26400,"station_id":"ce4bhbh2rcd13ifvqepg","pricing_plan_id":"cebpf4jnsgd1na2vs0mg"},{"bike_id":"ff47ede3-ffa6-45b7-8b97-4e22fed8928a","system_id":"levelo_inurba_marseille","lat":43.28386,"lon":5.34992,"is_reserved":false,"is_disabled":false,"rental_uris":{"android":"levelo://app?vid=ff47ede3-ffa6-45b7-8b97-4e22fed8928a","ios":"levelo://app?vid=ff47ede3-ffa6-45b7-8b97-4e22fed8928a"},"vehicle_type_id":"4","last_reported":1722161268,"current_range_meters":23600,"station_id":"ce4bhbp2rcd13ifvqerg","pricing_plan_id":"cebpf4jnsgd1na2vs0mg"},{"bike_id":"81df5ad3-2e43-42be-896b-e4e803227c3d","system_id":"levelo_inurba_marseille","lat":43.292724,"lon":5.401131,"is_reserved":false,"is_disabled":false,"rental_uris":{"android":"levelo://app?vid=81df5ad3-2e43-42be-896b-e4e803227c3d","ios":"levelo://app?vid=81df5ad3-2e43-42be-896b-e4e803227c3d"},"vehicle_type_id":"4","last_reported":1722161268,"current_range_meters":10000,"station_id":"ce4bh312rcd13ifvqdk0","pricing_plan_id":"cebpf4jnsgd1na2vs0mg"},{"bike_id":"1f5d059c-73ac-4ca7-9e0d-b951e3df5e7c","system_id":"levelo_inurba_marseille","lat":43.292724,"lon":5.401131,"is_reserved":false,"is_disabled":false,"rental_uris":{"android":"levelo://app?vid=1f5d059c-73ac-4ca7-9e0d-b951e3df5e7c","ios":"levelo://app?vid=1f5d059c-73ac-4ca7-9e0d-b951e3df5e7c"},"vehicle_type_id":"4","last_reported":1722161268,"current_range_meters":26000,"station_id":"ce4bh312rcd13ifvqdk0","pricing_plan_id":"cebpf4jnsgd1na2vs0mg"},{"bike_id":"23316603-37b7-4ab5-8fd5-21c65bb3457f","system_id":"levelo_inurba_marseille","lat":43.282744,"lon":5.350533,"is_reserved":false,"is_disabled":false,"rental_uris":{"android":"levelo://app?vid=23316603-37b7-4ab5-8fd5-21c65bb3457f","ios":"levelo://app?vid=23316603-37b7-4ab5-8fd5-21c65bb3457f"},"vehicle_type_id":"4","last_reported":1722161268,"current_range_meters":30000,"station_id":"ce4bhbp2rcd13ifvqerg","pricing_plan_id":"cebpf4jnsgd1na2vs0mg"},{"bike_id":"6b397d80-3509-4145-bdfd-512e7d771749","system_id":"levelo_inurba_marseille","lat":43.28279,"lon":5.35059,"is_reserved":false,"is_disabled":false,"rental_uris":{"android":"levelo://app?vid=6b397d80-3509-4145-bdfd-512e7d771749","ios":"levelo://app?vid=6b397d80-3509-4145-bdfd-512e7d771749"},"vehicle_type_id":"4","last_reported":1722161268,"current_range_meters":30400,"station_id":"ce4bhbp2rcd13ifvqerg","pricing_plan_id":"cebpf4jnsgd1na2vs0mg"},