{"last_updated":1747167086,"ttl":60,"version":"2.2","data":{"bikes":[{"bike_id":"c0b9fd4f-e181-46ce-b0bf-f5119973334f","system_id":"levelo_inurba_marseille","lat":43.33771,"lon":5.37424,"is_reserved":false,"is_disabled":false,"rental_uris":{"android":"levelo://app?vid=c0b9fd4f-e181-46ce-b0bf-f5119973334f","ios":"levelo://app?vid=c0b9fd4f-e181-46ce-b0bf-f5119973334f"},"vehicle_type_id":"4","last_reported":1747167086,"current_range_meters":22400,"station_id":"","pricing_plan_id":"cebpf4jnsgd1na2vs0mg"},{"bike_id":"fc2577e7-1497-425b-9d4f-ab8d7dc843c6","system_id":"levelo_inurba_marseille","lat":43.33771,"lon":5.37485,"is_reserved":false,"is_disabled":true,"rental_uris":{"android":"levelo://app?vid=fc2577e7-1497-425b-9d4f-ab8d7dc843c6","ios":"levelo://app?vid=fc2577e7-1497-425b-9d4f-ab8d7dc843c6"},"vehicle_type_id":"4","last_reported":1747167086,"current_range_meters":0,"station_id":"","pricing_plan_id":"cebpf4jnsgd1na2vs0mg"},{"bike_id":"32ab2f6f-d857-4fc8-88fb-7ebfc19c0608","system_id":"levelo_inurba_marseille","lat":43.2685,"lon":5.41248,"is_reserved":false,"is_disabled":true,"rental_uris":{"android":"levelo://app?vid=32ab2f6f-d857-4fc8-88fb-7ebfc19c0608","ios":"levelo://app?vid=32ab2f6f-d857-4fc8-88fb-7ebfc19c0608"},"vehicle_type_id":"4","last_reported":1747167086,"current_range_meters":0,"station_id":"","pricing_plan_id":"cebpf4jnsgd1na2vs0mg"},{"bike_id":"0fedde00-40eb-40d2-8fc2-e61ecce46b7b","system_id":"levelo_inurba_marseille","lat":43.28306,"lon":5.43231,"is_reserved":false,"is_disabled":true,"rental_uris":{"android":"levelo://app?vid=0fedde00-40eb-40d2-8fc2-e61ecce46b7b","ios":"levelo://app?vid=0fedde00-40eb-40d2-8fc2-e61ecce46b7b"},"vehicle_type_id":"4","last_reported":1747167086,"current_range_meters":0,"station_id":"","pricing_plan_id":"cebpf4jnsgd1na2vs0mg"},{"bike_id":"727c4684-f63f-4c08-83b6-b043d1b81a1c","system_id":"levelo_inurba_marseille","lat":43.30002,"lon":5.4757,"is_reserved":false,"is_disabled":true,"rental_uris":{"android":"levelo://app?vid=727c4684-f63f-4c08-83b6-b043d1b81a1c","ios":"levelo://app?vid=727c4684-f63f-4c08-83b6-b043d1b81a1c"},"vehicle_type_id":"4","last_reported":1747167086,"current_range_meters":0,"station_id":"","pricing_plan_id":"cebpf4jnsgd1na2vs0mg"},{"bike_id":"d19ebaab-ef98-4efa-b952-7192b9b2f014","system_id":"levelo_inurba_marseille","lat":43.26133,"lon":5.39253,"is_reserved":false,"is_disabled":true,"rental_uris":{"android":"levelo://app?vid=d19ebaab-ef98-4efa-b952-7192b9b2f014","ios":"levelo://app?vid=d19ebaab-ef98-4efa-b952-7192b9b2f014"},"vehicle_type_id":"4","last_reported":1747167086,"current_range_meters":0,"station_id":"","pricing_plan_id":"cebpf4jnsgd1na2vs0mg"},{"bike_id":"792567c6-0442-4011-aff0-9c05e25deb48","system_id":"levelo_inurba_marseille","lat":43.28096,"lon":5.44175,"is_reserved":false,"is_disabled":true,"rental_uris":{"android":"levelo://app?vid=792567c6-0442-4011-aff0-9c05e25deb48","ios":"levelo://app?vid=792567c6-0442-4011-aff0-9c05e25deb48"},"vehicle_type_id":"4","last_reported":1747167086,"current_range_meters":0,"station_id":"","pricing_plan_id":"cebpf4jnsgd1na2vs0mg"},{"bike_id":"9f1f7015-a150-4df5-ae5c-8694eab7e11e","system_id":"levelo_inurba_marseille","lat":43.29231,"lon":5.36195,"is_reserved":false,"is_disabled":true,"rental_uris":{"android":"levelo://app?vid=9f1f7015-a150-4df5-ae5c-8694eab7e11e","ios":"levelo://app?vid=9f1f7015-a150-4df5-ae5c-8694eab7e11e"},"vehicle_type_id":"4","last_reported":1747167086,"current_range_meters":0,"station_id":"ce4bgj92rcd13ifvqbd0","pricing_plan_id":"cebpf4jnsgd1na2vs0mg"},{"bike_id":"9f1c0100-968a-4099-8d2f-43cd21f7da9a","system_id":"levelo_inurba_marseille","lat":43.3009,"lon":5.39075,"is_reserved":false,"is_disabled":true,"rental_uris":{"android":"levelo://app?vid=9f1c0100-968a-4099-8d2f-43cd21f7da9a","ios":"levelo://app?vid=9f1c0100-968a-4099-8d2f-43cd21f7da9a"},"vehicle_type_id":"4","last_reported":1747167086,"current_range_meters":0,"station_id":"ce4bh192rcd13ifvqdb0","pricing_plan_id":"cebpf4jnsgd1na2vs0mg"},{"bike_id":"7d648bb7-ab7e-409a-add7-d4a17f03de12","system_id":"levelo_inurba_marseille","lat":43.23134,"lon":5.43701,"is_reserved":false,"is_disabled":true,"rental_uris":{"android":"levelo://app?vid=7d648bb7-ab7e-409a-add7-d4a17f03de12","ios":"levelo://app?vid=7d648bb7-ab7e-409a-add7-d4a17f03de12"},"vehicle_type_id":"4","last_reported":1747167086,"current_range_meters":0,"station_id":"ce4bhmp2rcd13ifvqgog","pricing_plan_id":"cebpf4jnsgd1na2vs0mg"},{"bike_id":"986c18d8-74d7-4caf-9a65-ed5970f61353","system_id":"levelo_inurba_marseille","lat":43.21173,"lon":5.35089,"is_reserved":false,"is_disabled":true,"rental_uris":{"android":"levelo://app?vid=986c18d8-74d7-4caf-9a65-ed5970f61353","ios":"levelo://app?vid=986c18d8-74d7-4caf-9a65-ed5970f61353"},"vehicle_type_id":"4","last_reported":1747167086,"current_range_meters":0,"station_id":"st_cvj6sg6p6f1abm77japg","pricing_plan_id":"cebpf4jnsgd1na2vs0mg"},{"bike_id":"145774df-896e-445d-8e6b-8657ef2fd2fc","system_id":"levelo_inurba_marseille","lat":43.3093,"lon":5.40142,"is_reserved":false,"is_disabled":true,"rental_uris":{"android":"levelo://app?vid=145774df-896e-445d-8e6b-8657ef2fd2fc","ios":"levelo://app?vid=145774df-896e-445d-8e6b-8657ef2fd2fc"},"vehicle_type_id":"4","last_reported":1747167086,"current_range_meters":400,"station_id":"ce4bgvp2rcd13ifvqct0","pricing_plan_id":"cebpf4jnsgd1na2vs0mg"},{"bike_id":"49c47ed7-52af-4f8e-abc1-3485cf2c06af","system_id":"levelo_inurba_marseille","lat":43.22494,"lon":5.34784,"is_reserved":false,"is_disabled":true,"rental_uris":{"android":"levelo://app?vid=49c47ed7-52af-4f8e-abc1-3485cf2c06af","ios":"levelo://app?vid=49c47ed7-52af-4f8e-abc1-3485cf2c06af"},"vehicle_type_id":"4","last_reported":1747167086,"current_range_meters":400,"station_id":"st_cvj5dfep6f1abm77gieg","pricing_plan_id":"cebpf4jnsgd1na2vs0mg"},{"bike_id":"27a37a95-c27d-4d35-bd0c-69b1e0d1e004","system_id":"levelo_inurba_marseille","lat":43.305869,"lon":5.39359,"is_reserved":false,"is_disabled":true,"rental_uris":{"android":"levelo://app?vid=27a37a95-c27d-4d35-bd0c-69b1e0d1e004","ios":"levelo://app?vid=27a37a95-c27d-4d35-bd0c-69b1e0d1e004"},"vehicle_type_id":"4","last_reported":1747167086,"current_range_meters":800,"station_id":"ce4bh0p2rcd13ifvqd80","pricing_plan_id":"cebpf4jnsgd1na2vs0mg"},{"bike_id":"07819f5b-7077-4d01-9213-112f00b94dfe","system_id":"levelo_inurba_marseille","lat":43.305144,"lon":5.407712,"is_reserved":false,"is_disabled":true,"rental_uris":{"android":"levelo://app?vid=07819f5b-7077-4d01-9213-112f00b94dfe","ios":"levelo://app?vid=07819f5b-7077-4d01-9213-112f00b94dfe"},"vehicle_type_id":"4","last_reported":1747167086,"current_range_meters":1200,"station_id":"ce4bh092rcd13ifvqd20","pricing_plan_id":"cebpf4jnsgd1na2vs0mg"},{"bike_id":"5c7c4503-42c5-44bd-a7eb-b58a05d75148","system_id":"levelo_inurba_marseille","lat":43.30888,"lon":5.39638,"is_reserved":false,"is_disabled":true,"rental_uris":{"android":"levelo://app?vid=5c7c4503-42c5-44bd-a7eb-b58a05d75148","ios":"levelo://app?vid=5c7c4503-42c5-44bd-a7eb-b58a05d75148"},"vehicle_type_id":"4","last_reported":1747167086,"current_range_meters":1600,"station_id":"ce4bh012rcd13ifvqcv0","pricing_plan_id":"cebpf4jnsgd1na2vs0mg"},{"bike_id":"21d5ea0a-f8ab-40f8-b2e8-7d21611feee3","system_id":"levelo_inurba_marseille","lat":43.25087,"lon":5.39524,"is_reserved":false,"is_disabled":true,"rental_uris":{"android":"levelo://app?vid=21d5ea0a-f8ab-40f8-b2e8-7d21611feee3","ios":"levelo://app?vid=21d5ea0a-f8ab-40f8-b2e8-7d21611feee3"},"vehicle_type_id":"4","last_reported":1747167086,"current_range_meters":1600,"station_id":"ce4bhm12rcd13ifvqgkg","pricing_plan_id":"cebpf4jnsgd1na2vs0mg"},{"bike_id":"620aca01-023a-4f5d-bef6-00727a233420","system_id":"levelo_inurba_marseille","lat":43.29976,"lon":5.38489,"is_reserved":false,"is_disabled":true,"rental_uris":{"android":"levelo://app?vid=620aca01-023a-4f5d-bef6-00727a233420","ios":"levelo://app?vid=620aca01-023a-4f5d-bef6-00727a233420"},"vehicle_type_id":"4","last_reported":1747167086,"current_range_meters":2000,"station_id":"ce4bgj92rcd13ifvqbd0","pricing_plan_id":"cebpf4jnsgd1na2vs0mg"},{"bike_id":"552a8e6a-322b-4ee2-a2bc-9b6905f04ebe","system_id":"levelo_inurba_marseille","lat":43.3009,"lon":5.39082,"is_reserved":false,"is_disabled":true,"rental_uris":{"android":"levelo://app?vid=552a8e6a-322b-4ee2-a2bc-9b6905f04ebe","ios":"levelo://app?vid=552a8e6a-322b-4ee2-a2bc-9b6905f04ebe"},"vehicle_type_id":"4","last_reported":1747167086,"current_range_meters":2000,"station_id":"ce4bh192rcd13ifvqdb0","pricing_plan_id":"cebpf4jnsgd1na2vs0mg"},{"bike_id":"8aecad1a-6a65-4d9a-bc60-67a3daa52852","system_id":"levelo_inurba_marseille","lat":43.217473,"lon":5.346088,"is_reserved":false,"is_disabled":true,"rental_uris":{"android":"levelo://app?vid=8aecad1a-6a65-4d9a-bc60-67a3daa52852","ios":"levelo://app?vid=8aecad1a-6a65-4d9a-bc60-67a3daa52852"},"vehicle_type_id":"4","last_reported":1747167086,"current_range_meters":2000,"station_id":"st_cvj6r9ubvosntc0bgbag","pricing_plan_id":"cebpf4jnsgd1na2vs0mg"},{"bike_id":"c0774051-a710-4271-b280-4d44a0b68b8c","system_id":"levelo_inurba_marseille","lat":43.28937,"lon":5.36636,"is_reserved":false,"is_disabled":false,"rental_uris":{"android":"levelo://app?vid=c0774051-a710-4271-b280-4d44a0b68b8c","ios":"levelo://app?vid=c0774051-a710-4271-b280-4d44a0b68b8c"},"vehicle_type_id":"4","last_reported":1747167086,"current_range_meters":2800,"station_id":"","pricing_plan_id":"cebpf4jnsgd1na2vs0mg"},{"bike_id":"388e8245-f37d-4035-8342-45f000e14ae4","system_id":"levelo_inurba_marseille","lat":43.23754,"lon":5.36286,"is_reserved":false,"is_disabled":false,"rental_uris":{"android":"levelo://app?vid=388e8245-f37d-4035-8342-45f000e14ae4","ios":"levelo://app?vid=388e8245-f37d-4035-8342-45f000e14ae4"},"vehicle_type_id":"4","last_reported":1747167086,"current_range_meters":2800,"station_id":"","pricing_plan_id":"cebpf4jnsgd1na2vs0mg"},{"bike_id":"01ade1ce-29f1-41f6-85f3-3f5f0aaa2b0f","system_id":"levelo_inurba_marseille","lat":43.30214,"lon":5.39477,"is_reserved":false,"is_disabled":false,"rental_uris":{"android":"levelo://app?vid=01ade1ce-29f1-41f6-85f3-3f5f0aaa2b0f","ios":"levelo://app?vid=01ade1ce-29f1-41f6-85f3-3f5f0aaa2b0f"},"vehicle_type_id":"4","last_reported":1747167086,"current_range_meters":2800,"station_id":"ce4bh0p2rcd13ifvqd70","pricing_plan_id":"cebpf4jnsgd1na2vs0mg"},{"bike_id":"239ebaea-1b01-4f63-8a66-0c70802639b6","system_id":"levelo_inurba_marseille","lat":43.27577,"lon":5.3841,"is_reserved":false,"is_disabled":false,"rental_uris":{"android":"levelo://app?vid=239ebaea-1b01-4f63-8a66-0c70802639b6","ios":"levelo://app?vid=239ebaea-1b01-4f63-8a66-0c70802639b6"},"vehicle_type_id":"4","last_reported":1747167086,"current_range_meters":2800,"station_id":"ce4bhh92rcd13ifvqfi0","pricing_plan_id":"cebpf4jnsgd1na2vs0mg"},{"bike_id":"97fbce1b-1020-44d8-950b-a0c99f0606ff","system_id":"levelo_inurba_marseille","lat":43.25192,"lon":5.37582,"is_reserved":false,"is_disabled":false,"rental_uris":{"android":"levelo://app?vid=97fbce1b-1020-44d8-950b-a0c99f0606ff","ios":"levelo://app?vid=97fbce1b-1020-44d8-950b-a0c99f0606ff"},"vehicle_type_id":"4","last_reported":1747167086,"current_range_meters":3200,"station_id":"","pricing_plan_id":"cebpf4jnsgd1na2vs0mg"},{"bike_id":"d991382c-9312-4a59-b021-052b5426210e","system_id":"levelo_inurba_marseille","lat":43.2606,"lon":5.39396,"is_reserved":false,"is_disabled":false,"rental_uris":{"android":"levelo://app?vid=d991382c-9312-4a59-b021-052b5426210e","ios":"levelo://app?vid=d991382c-9312-4a59-b021-052b5426210e"},"vehicle_type_id":"4","last_reported":1747167086,"current_range_meters":3600,"station_id":"ce4bhh92rcd13ifvqfj0","pricing_plan_id":"cebpf4jnsgd1na2vs0mg"},{"bike_id":"4c7f1281-060a-44cb-a859-8bd513948078","system_id":"levelo_inurba_marseille","lat":43.30117,"lon":5.38345,"is_reserved":false,"is_disabled":false,"rental_uris":{"android":"levelo://app?vid=4c7f1281-060a-44cb-a859-8bd513948078","ios":"levelo://app?vid=4c7f1281-060a-44cb-a859-8bd513948078"},"vehicle_type_id":"4","last_reported":1747167086,"current_range_meters":4000,"station_id":"","pricing_plan_id":"cebpf4jnsgd1na2vs0mg"},{"bike_id":"4f2b063e-397a-48e8-b59f-02dd61ba6a66","system_id":"levelo_inurba_marseille","lat":43.292,"lon":5.39325,"is_reserved":false,"is_disabled":false,"rental_uris":{"android":"levelo://app?vid=4f2b063e-397a-48e8-b59f-02dd61ba6a66","ios":"levelo://app?vid=4f2b063e-397a-48e8-b59f-02dd61ba6a66"},"vehicle_type_id":"4","last_reported":1747167086,"current_range_meters":4400,"station_id":"ce4bh192rcd13ifvqdd0","pricing_plan_id":"cebpf4jnsgd1na2vs0mg"},{"bike_id":"6877d619-488c-4f7d-86ca-29f49de58b39","system_id":"levelo_inurba_marseille","lat":43.26681,"lon":5.38268,"is_reserved":false,"is_disabled":false,"rental_uris":{"android":"levelo://app?vid=6877d619-488c-4f7d-86ca-29f49de58b39","ios":"levelo://app?vid=6877d619-488c-4f7d-86ca-29f49de58b39"},"vehicle_type_id":"4","last_reported":1747167086,"current_range_meters":4400,"station_id":"ce4bhg92rcd13ifvqf90","pricing_plan_id":"cebpf4jnsgd1na2vs0mg"},{"bike_id":"bbad6cda-1c07-40de-8ae0-a47f37bbe165","system_id":"levelo_inurba_marseille","lat":43.27552,"lon":5.38443,"is_reserved":false,"is_disabled":false,"rental_uris":{"android":"levelo://app?vid=bbad6cda-1c07-40de-8ae0-a47f37bbe165","ios":"levelo://app?vid=bbad6cda-1c07-40de-8ae0-a47f37bbe165"},"vehicle_type_id":"4","last_reported":1747167086,"current_range_meters":4800,"station_id":"ce4bhh92rcd13ifvqfi0","pricing_plan_id":"cebpf4jnsgd1na2vs0mg"},{"bike_id":"2ec386c8-ebbb-4957-b4fc-1649a959c8b0","system_id":"levelo_inurba_marseille","lat":43.2979,"lon":5.39355,"is_reserved":false,"is_disabled":false,"rental_uris":{"android":"levelo://app?vid=2ec386c8-ebbb-4957-b4fc-1649a959c8b0","ios":"levelo://app?vid=2ec386c8-ebbb-4957-b4fc-1649a959c8b0"},"vehicle_type_id":"4","last_reported":1747167086,"current_range_meters":4800,"station_id":"chh1huq6cuj3fo74tm60","pricing_plan_id":"cebpf4jnsgd1na2vs0mg"},{"bike_id":"6a9ac61f-99a3-4a9e-8294-a945227e833e","system_id":"levelo_inurba_marseille","lat":43.31075,"lon":5.38365,"is_reserved":false,"is_disabled":false,"rental_uris":{"android":"levelo://app?vid=6a9ac61f-99a3-4a9e-8294-a945227e833e","ios":"levelo://app?vid=6a9ac61f-99a3-4a9e-8294-a945227e833e"},"vehicle_type_id":"4","last_reported":1747167086,"current_range_meters":5600,"station_id":"ce4bgv92rcd13ifvqcr0","pricing_plan_id":"cebpf4jnsgd1na2vs0mg"},{"bike_id":"2013e598-47ef-4f13-9102-d1a16644a070","system_id":"levelo_inurba_marseille","lat":43.26568,"lon":5.39006,"is_reserved":false,"is_disabled":false,"rental_uris":{"android":"levelo://app?vid=2013e598-47ef-4f13-9102-d1a16644a070","ios":"levelo://app?vid=2013e598-47ef-4f13-9102-d1a16644a070"},"vehicle_type_id":"4","last_reported":1747167086,"current_range_meters":5600,"station_id":"ce4bhe12rcd13ifvqf30","pricing_plan_id":"cebpf4jnsgd1na2vs0mg"},{"bike_id":"764a7013-3fc3-4d32-b171-097f58534232","system_id":"levelo_inurba_marseille","lat":43.28073,"lon":5.39647,"is_reserved":false,"is_disabled":false,"rental_uris":{"android":"levelo://app?vid=764a7013-3fc3-4d32-b171-097f58534232","ios":"levelo://app?vid=764a7013-3fc3-4d32-b171-097f58534232"},"vehicle_type_id":"4","last_reported":1747167086,"current_range_meters":5600,"station_id":"ce4bho12rcd13ifvqh2g","pricing_plan_id":"cebpf4jnsgd1na2vs0mg"},{"bike_id":"679a1652-9834-4e25-8720-e5f793f672e7","system_id":"levelo_inurba_marseille","lat":43.25084,"lon":5.39502,"is_reserved":false,"is_disabled":false,"rental_uris":{"android":"levelo://app?vid=679a1652-9834-4e25-8720-e5f793f672e7","ios":"levelo://app?vid=679a1652-9834-4e25-8720-e5f793f672e7"},"vehicle_type_id":"4","last_reported":1747167086,"current_range_meters":6000,"station_id":"ce4bhm12rcd13ifvqgkg","pricing_plan_id":"cebpf4jnsgd1na2vs0mg"},{"bike_id":"6f8dd7ef-13eb-4876-a227-f3db3ef6fe94","system_id":"levelo_inurba_marseille","lat":43.26799,"lon":5.40275,"is_reserved":false,"is_disabled":false,"rental_uris":{"android":"levelo://app?vid=6f8dd7ef-13eb-4876-a227-f3db3ef6fe94","ios":"levelo://app?vid=6f8dd7ef-13eb-4876-a227-f3db3ef6fe94"},"vehicle_type_id":"4","last_reported":1747167086,"current_range_meters":6400,"station_id":"ce501612rcd8frsf0b60","pricing_plan_id":"cebpf4jnsgd1na2vs0mg"},{"bike_id":"abe19c7b-dd48-4f23-ad5b-10c07cbeffa6","system_id":"levelo_inurba_marseille","lat":43.29603,"lon":5.37834,"is_reserved":false,"is_disabled":false,"rental_uris":{"android":"levelo://app?vid=abe19c7b-dd48-4f23-ad5b-10c07cbeffa6","ios":"levelo://app?vid=abe19c7b-dd48-4f23-ad5b-10c07cbeffa6"},"vehicle_type_id":"4","last_reported":1747167086,"current_range_meters":6800,"station_id":"","pricing_plan_id":"cebpf4jnsgd1na2vs0mg"},{"bike_id":"7d6dd9cd-48eb-49c4-b993-9bcb88b64f68","system_id":"levelo_inurba_marseille","lat":43.29419,"lon":5.38619,"is_reserved":false,"is_disabled":false,"rental_uris":{"android":"levelo://app?vid=7d6dd9cd-48eb-49c4-b993-9bcb88b64f68","ios":"levelo://app?vid=7d6dd9cd-48eb-49c4-b993-9bcb88b64f68"},"vehicle_type_id":"4","last_reported":1747167086,"current_range_meters":6800,"station_id":"ce4bh2h2rcd13ifvqdh0","pricing_plan_id":"cebpf4jnsgd1na2vs0mg"},{"bike_id":"4a7a989c-172d-4f21-a17f-a1e0e81980c4","system_id":"levelo_inurba_marseille","lat":43.2586,"lon":5.39915,"is_reserved":false,"is_disabled":false,"rental_uris":{"android":"levelo://app?vid=4a7a989c-172d-4f21-a17f-a1e0e81980c4","ios":"levelo://app?vid=4a7a989c-172d-4f21-a17f-a1e0e81980c4"},"vehicle_type_id":"4","last_reported":1747167086,"current_range_meters":6800,"station_id":"ce4bhl92rcd13ifvqghg","pricing_plan_id":"cebpf4jnsgd1na2vs0mg"},{"bike_id":"9dac9e54-17f2-4c74-bf1a-6af8ac228378","system_id":"levelo_inurba_marseille","lat":43.26232,"lon":5.40451,"is_reserved":false,"is_disabled":false,"rental_uris":{"android":"levelo://app?vid=9dac9e54-17f2-4c74-bf1a-6af8ac228378","ios":"levelo://app?vid=9dac9e54-17f2-4c74-bf1a-6af8ac228378"},"vehicle_type_id":"4","last_reported":1747167086,"current_range_meters":6800,"station_id":"ce4bhmh2rcd13ifvqgmg","pricing_plan_id":"cebpf4jnsgd1na2vs0mg"},{"bike_id":"605abf7c-85b6-4192-9f8c-08d252211bbd","system_id":"levelo_inurba_marseille","lat":43.30419,"lon":5.41275,"is_reserved":false,"is_disabled":false,"rental_uris":{"android":"levelo://app?vid=605abf7c-85b6-4192-9f8c-08d252211bbd","ios":"levelo://app?vid=605abf7c-85b6-4192-9f8c-08d252211bbd"},"vehicle_type_id":"4","last_reported":1747167086,"current_range_meters":6800,"station_id":"ce4bhop2rcd13ifvqh8g","pricing_plan_id":"cebpf4jnsgd1na2vs0mg"},{"bike_id":"e00c5e78-4fcd-4675-a0b2-3363516634e7","system_id":"levelo_inurba_marseille","lat":43.22926,"lon":5.3538,"is_reserved":false,"is_disabled":false,"rental_uris":{"android":"levelo://app?vid=e00c5e78-4fcd-4675-a0b2-3363516634e7","ios":"levelo://app?vid=e00c5e78-4fcd-4675-a0b2-3363516634e7"},"vehicle_type_id":"4","last_reported":1747167086,"current_range_meters":6800,"station_id":"cpo3532slgdg3j2ikp40","pricing_plan_id":"cebpf4jnsgd1na2vs0mg"},{"bike_id":"74ce7741-5813-4b25-8268-d773ddb37d17","system_id":"levelo_inurba_marseille","lat":43.30212,"lon":5.45391,"is_reserved":false,"is_disabled":false,"rental_uris":{"android":"levelo://app?vid=74ce7741-5813-4b25-8268-d773ddb37d17","ios":"levelo://app?vid=74ce7741-5813-4b25-8268-d773ddb37d17"},"vehicle_type_id":"4","last_reported":1747167086,"current_range_meters":7200,"station_id":"","pricing_plan_id":"cebpf4jnsgd1na2vs0mg"},{"bike_id":"b6158fa8-a577-4dd3-a6ba-f6a00ebc31e6","system_id":"levelo_inurba_marseille","lat":43.297083,"lon":5.36603,"is_reserved":false,"is_disabled":false,"rental_uris":{"android":"levelo://app?vid=b6158fa8-a577-4dd3-a6ba-f6a00ebc31e6","ios":"levelo://app?vid=b6158fa8-a577-4dd3-a6ba-f6a00ebc31e6"},"vehicle_type_id":"4","last_reported":1747167086,"current_range_meters":7200,"station_id":"ce4bgn12rcd13ifvqbt0","pricing_plan_id":"cebpf4jnsgd1na2vs0mg"},{"bike_id":"2961a935-16be-48c2-94c1-9ff3457eb17c","system_id":"levelo_inurba_marseille","lat":43.26044,"lon":5.39381,"is_reserved":false,"is_disabled":false,"rental_uris":{"android":"levelo://app?vid=2961a935-16be-48c2-94c1-9ff3457eb17c","ios":"levelo://app?vid=2961a935-16be-48c2-94c1-9ff3457eb17c"},"vehicle_type_id":"4","last_reported":1747167086,"current_range_meters":7200,"station_id":"ce4bhh92rcd13ifvqfj0","pricing_plan_id":"cebpf4jnsgd1na2vs0mg"},{"bike_id":"0858c3b1-c02e-4d35-833a-7e4b34b4c2a3","system_id":"levelo_inurba_marseille","lat":43.27804,"lon":5.40717,"is_reserved":false,"is_disabled":false,"rental_uris":{"android":"levelo://app?vid=0858c3b1-c02e-4d35-833a-7e4b34b4c2a3","ios":"levelo://app?vid=0858c3b1-c02e-4d35-833a-7e4b34b4c2a3"},"vehicle_type_id":"4","last_reported":1747167086,"current_range_meters":7200,"station_id":"ce4bhnh2rcd13ifvqgtg","pricing_plan_id":"cebpf4jnsgd1na2vs0mg"},{"bike_id":"9041e64a-8552-417a-8391-186c3cf5d367","system_id":"levelo_inurba_marseille","lat":43.28708,"lon":5.39986,"is_reserved":false,"is_disabled":false,"rental_uris":{"android":"levelo://app?vid=9041e64a-8552-417a-8391-186c3cf5d367","ios":"levelo://app?vid=9041e64a-8552-417a-8391-186c3cf5d367"},"vehicle_type_id":"4","last_reported":1747167086,"current_range_meters":7200,"station_id":"ce4bho92rcd13ifvqh3g","pricing_plan_id":"cebpf4jnsgd1na2vs0mg"},{"bike_id":"604622e8-4774-4183-b207-b413a1bbcee8","system_id":"levelo_inurba_marseille","lat":43.27612,"lon":5.36103,"is_reserved":false,"is_disabled":false,"rental_uris":{"android":"levelo://app?vid=604622e8-4774-4183-b207-b413a1bbcee8","ios":"levelo://app?vid=604622e8-4774-4183-b207-b413a1bbcee8"},"vehicle_type_id":"4","last_reported":1747167086,"current_range_meters":8000,"station_id":"","pricing_plan_id":"cebpf4jnsgd1na2vs0mg"},{"bike_id":"ddaa999c-b039-42a8-840e-d56af82334f9","system_id":"levelo_inurba_marseille","lat":43.29586,"lon":5.36738,"is_reserved":false,"is_disabled":false,"rental_uris":{"android":"levelo://app?vid=ddaa999c-b039-42a8-840e-d56af82334f9","ios":"levelo://app?vid=ddaa999c-b039-42a8-840e-d56af82334f9"},"vehicle_type_id":"4","last_reported":1747167086,"current_range_meters":8000,"station_id":"","pricing_plan_id":"cebpf4jnsgd1na2vs0mg"},{"bike_id":"e88c5f39-831b-4a4e-b2c5-23842b53b63f","system_id":"levelo_inurba_marseille","lat":43.30217,"lon":5.39462,"is_reserved":false,"is_disabled":false,"rental_uris":{"android":"levelo://app?vid=e88c5f39-831b-4a4e-b2c5-23842b53b63f","ios":"levelo://app?vid=e88c5f39-831b-4a4e-b2c5-23842b53b63f"},"vehicle_type_id":"4","last_reported":1747167086,"current_range_meters":8000,"station_id":"ce4bh0p2rcd13ifvqd70","pricing_plan_id":"cebpf4jnsgd1na2vs0mg"},{"bike_id":"e07f3d77-7e79-47f0-b9c9-22036f2e4738","system_id":"levelo_inurba_marseille","lat":43.23176,"lon":5.39982,"is_reserved":false,"is_disabled":false,"rental_uris":{"android":"levelo://app?vid=e07f3d77-7e79-47f0-b9c9-22036f2e4738","ios":"levelo://app?vid=e07f3d77-7e79-47f0-b9c9-22036f2e4738"},"vehicle_type_id":"4","last_reported":1747167086,"current_range_meters":8000,"station_id":"ce4bhn12rcd13ifvqgqg","pricing_plan_id":"cebpf4jnsgd1na2vs0mg"},{"bike_id":"924e307f-b03b-4da5-8750-7bf2acd6f4f0","system_id":"levelo_inurba_marseille","lat":43.284393,"lon":5.39212,"is_reserved":false,"is_disabled":false,"rental_uris":{"android":"levelo://app?vid=924e307f-b03b-4da5-8750-7bf2acd6f4f0","ios":"levelo://app?vid=924e307f-b03b-4da5-8750-7bf2acd6f4f0"},"vehicle_type_id":"4","last_reported":1747167086,"current_range_meters":8000,"station_id":"ce4bhoh2rcd13ifvqh5g","pricing_plan_id":"cebpf4jnsgd1na2vs0mg"},{"bike_id":"597e7865-b942-4532-81ea-d2c26c4cbf33","system_id":"levelo_inurba_marseille","lat":43.24082,"lon":5.37759,"is_reserved":false,"is_disabled":false,"rental_uris":{"android":"levelo://app?vid=597e7865-b942-4532-81ea-d2c26c4cbf33","ios":"levelo://app?vid=597e7865-b942-4532-81ea-d2c26c4cbf33"},"vehicle_type_id":"4","last_reported":1747167086,"current_range_meters":8400,"station_id":"ce4bhnp2rcd13ifvqgvg","pricing_plan_id":"cebpf4jnsgd1na2vs0mg"},{"bike_id":"51c79bd2-3986-4a41-98c1-47cb9a2b68bc","system_id":"levelo_inurba_marseille","lat":43.30787,"lon":5.37651,"is_reserved":false,"is_disabled":false,"rental_uris":{"android":"levelo://app?vid=51c79bd2-3986-4a41-98c1-47cb9a2b68bc","ios":"levelo://app?vid=51c79bd2-3986-4a41-98c1-47cb9a2b68bc"},"vehicle_type_id":"4","last_reported":1747167086,"current_range_meters":8800,"station_id":"ce4bgv92rcd13ifvqcq0","pricing_plan_id":"cebpf4jnsgd1na2vs0mg"},{"bike_id":"b3747efb-e1d9-45c1-90e5-37ed70dd8f3e","system_id":"levelo_inurba_marseille","lat":43.29034,"lon":5.39966,"is_reserved":false,"is_disabled":false,"rental_uris":{"android":"levelo://app?vid=b3747efb-e1d9-45c1-90e5-37ed70dd8f3e","ios":"levelo://app?vid=b3747efb-e1d9-45c1-90e5-37ed70dd8f3e"},"vehicle_type_id":"4","last_reported":1747167086,"current_range_meters":8800,"station_id":"ce4bh392rcd13ifvqdm0","pricing_plan_id":"cebpf4jnsgd1na2vs0mg"},{"bike_id":"d02c5d13-b788-49bb-af89-22769b4b7e31","system_id":"levelo_inurba_marseille","lat":43.292633,"lon":5.384415,"is_reserved":false,"is_disabled":false,"rental_uris":{"android":"levelo://app?vid=d02c5d13-b788-49bb-af89-22769b4b7e31","ios":"levelo://app?vid=d02c5d13-b788-49bb-af89-22769b4b7e31"},"vehicle_type_id":"4","last_reported":1747167086,"current_range_meters":8800,"station_id":"ce4bh692rcd13ifvqea0","pricing_plan_id":"cebpf4jnsgd1na2vs0mg"},{"bike_id":"23bfae5d-adbc-487a-a024-c8962e33e86d","system_id":"levelo_inurba_marseille","lat":43.24649,"lon":5.38908,"is_reserved":false,"is_disabled":false,"rental_uris":{"android":"levelo://app?vid=23bfae5d-adbc-487a-a024-c8962e33e86d","ios":"levelo://app?vid=23bfae5d-adbc-487a-a024-c8962e33e86d"},"vehicle_type_id":"4","last_reported":1747167086,"current_range_meters":8800,"station_id":"ce4bhg12rcd13ifvqf60","pricing_plan_id":"cebpf4jnsgd1na2vs0mg"},{"bike_id":"0e89a721-196d-4572-b905-e39e1dafff7a","system_id":"levelo_inurba_marseille","lat":43.32106,"lon":5.36774,"is_reserved":false,"is_disabled":false,"rental_uris":{"android":"levelo://app?vid=0e89a721-196d-4572-b905-e39e1dafff7a","ios":"levelo://app?vid=0e89a721-196d-4572-b905-e39e1dafff7a"},"vehicle_type_id":"4","last_reported":1747167086,"current_range_meters":8800,"station_id":"ce4bhrh2rcd13ifvqhug","pricing_plan_id":"cebpf4jnsgd1na2vs0mg"},{"bike_id":"b7874810-90a5-4e6e-94f3-46c180caef64","system_id":"levelo_inurba_marseille","lat":43.27909,"lon":5.38004,"is_reserved":false,"is_disabled":false,"rental_uris":{"android":"levelo://app?vid=b7874810-90a5-4e6e-94f3-46c180caef64","ios":"levelo://app?vid=b7874810-90a5-4e6e-94f3-46c180caef64"},"vehicle_type_id":"4","last_reported":1747167086,"current_range_meters":9200,"station_id":"ce4bhf92rcd13ifvqf50","pricing_plan_id":"cebpf4jnsgd1na2vs0mg"},{"bike_id":"66f26d03-8790-404c-ab80-02d5e992d416","system_id":"levelo_inurba_marseille","lat":43.29725,"lon":5.36624,"is_reserved":false,"is_disabled":false,"rental_uris":{"android":"levelo://app?vid=66f26d03-8790-404c-ab80-02d5e992d416","ios":"levelo://app?vid=66f26d03-8790-404c-ab80-02d5e992d416"},"vehicle_type_id":"4","last_reported":1747167086,"current_range_meters":9600,"station_id":"ce4bgn12rcd13ifvqbt0","pricing_plan_id":"cebpf4jnsgd1na2vs0mg"},{"bike_id":"7b3f0f2c-7f98-4a50-8209-ae23b5ca5bb2","system_id":"levelo_inurba_marseille","lat":43.29717,"lon":5.36613,"is_reserved":false,"is_disabled":false,"rental_uris":{"android":"levelo://app?vid=7b3f0f2c-7f98-4a50-8209-ae23b5ca5bb2","ios":"levelo://app?vid=7b3f0f2c-7f98-4a50-8209-ae23b5ca5bb2"},"vehicle_type_id":"4","last_reported":1747167086,"current_range_meters":9600,"station_id":"ce4bgn12rcd13ifvqbt0","pricing_plan_id":"cebpf4jnsgd1na2vs0mg"},{"bike_id":"07be8b0c-621e-4461-b589-86453d71f3ae","system_id":"levelo_inurba_marseille","lat":43.25863,"lon":5.39898,"is_reserved":false,"is_disabled":false,"rental_uris":{"android":"levelo://app?vid=07be8b0c-621e-4461-b589-86453d71f3ae","ios":"levelo://app?vid=07be8b0c-621e-4461-b589-86453d71f3ae"},"vehicle_type_id":"4","last_reported":1747167086,"current_range_meters":9600,"station_id":"ce4bhl92rcd13ifvqghg","pricing_plan_id":"cebpf4jnsgd1na2vs0mg"},{"bike_id":"127f6762-1f70-43ae-8938-79f5184b1ee2","system_id":"levelo_inurba_marseille","lat":43.24073,"lon":5.37755,"is_reserved":false,"is_disabled":false,"rental_uris":{"android":"levelo://app?vid=127f6762-1f70-43ae-8938-79f5184b1ee2","ios":"levelo://app?vid=127f6762-1f70-43ae-8938-79f5184b1ee2"},"vehicle_type_id":"4","last_reported":1747167086,"current_range_meters":9600,"station_id":"ce4bhnp2rcd13ifvqgvg","pricing_plan_id":"cebpf4jnsgd1na2vs0mg"},{"bike_id":"1466ea0a-656f-485b-939a-7c9e9c76ce64","system_id":"levelo_inurba_marseille","lat":43.31902,"lon":5.40713,"is_reserved":false,"is_disabled":false,"rental_uris":{"android":"levelo://app?vid=1466ea0a-656f-485b-939a-7c9e9c76ce64","ios":"levelo://app?vid=1466ea0a-656f-485b-939a-7c9e9c76ce64"},"vehicle_type_id":"4","last_reported":1747167086,"current_range_meters":9600,"station_id":"ce4bhq12rcd13ifvqhig","pricing_plan_id":"cebpf4jnsgd1na2vs0mg"},{"bike_id":"ff9a7e63-1dcf-430e-a0e4-241d464b87d5","system_id":"levelo_inurba_marseille","lat":43.30308,"lon":5.3921,"is_reserved":false,"is_disabled":false,"rental_uris":{"android":"levelo://app?vid=ff9a7e63-1dcf-430e-a0e4-241d464b87d5","ios":"levelo://app?vid=ff9a7e63-1dcf-430e-a0e4-241d464b87d5"},"vehicle_type_id":"4","last_reported":1747167086,"current_range_meters":10000,"station_id":"ce4bgkh2rcd13ifvqbk0","pricing_plan_id":"cebpf4jnsgd1na2vs0mg"},{"bike_id":"eda320a9-c748-41fe-8957-3c5ad95195ad","system_id":"levelo_inurba_marseille","lat":43.31062,"lon":5.3835,"is_reserved":false,"is_disabled":false,"rental_uris":{"android":"levelo://app?vid=eda320a9-c748-41fe-8957-3c5ad95195ad","ios":"levelo://app?vid=eda320a9-c748-41fe-8957-3c5ad95195ad"},"vehicle_type_id":"4","last_reported":1747167086,"current_range_meters":10000,"station_id":"ce4bgv92rcd13ifvqcr0","pricing_plan_id":"cebpf4jnsgd1na2vs0mg"},{"bike_id":"4561b452-b419-430f-be68-4060c7b2eaba","system_id":"levelo_inurba_marseille","lat":43.28847,"lon":5.39315,"is_reserved":false,"is_disabled":false,"rental_uris":{"android":"levelo://app?vid=4561b452-b419-430f-be68-4060c7b2eaba","ios":"levelo://app?vid=4561b452-b419-430f-be68-4060c7b2eaba"},"vehicle_type_id":"4","last_reported":1747167086,"current_range_meters":10000,"station_id":"ce4bh2p2rcd13ifvqdi0","pricing_plan_id":"cebpf4jnsgd1na2vs0mg"},{"bike_id":"84fcd75f-ef7b-4b9f-99c7-8d3e5243f1f6","system_id":"levelo_inurba_marseille","lat":43.2811,"lon":5.37834,"is_reserved":false,"is_disabled":false,"rental_uris":{"android":"levelo://app?vid=84fcd75f-ef7b-4b9f-99c7-8d3e5243f1f6","ios":"levelo://app?vid=84fcd75f-ef7b-4b9f-99c7-8d3e5243f1f6"},"vehicle_type_id":"4","last_reported":1747167086,"current_range_meters":10000,"station_id":"ce4bha12rcd13ifvqee0","pricing_plan_id":"cebpf4jnsgd1na2vs0mg"},{"bike_id":"54cd888b-3c4f-4246-9e80-c294f2a7fa5c","system_id":"levelo_inurba_marseille","lat":43.24095,"lon":5.37734,"is_reserved":false,"is_disabled":false,"rental_uris":{"android":"levelo://app?vid=54cd888b-3c4f-4246-9e80-c294f2a7fa5c","ios":"levelo://app?vid=54cd888b-3c4f-4246-9e80-c294f2a7fa5c"},"vehicle_type_id":"4","last_reported":1747167086,"current_range_meters":10000,"station_id":"ce4bhnp2rcd13ifvqgvg","pricing_plan_id":"cebpf4jnsgd1na2vs0mg"},{"bike_id":"a4cc5d03-eca3-417a-9499-7f5743bd2e43","system_id":"levelo_inurba_marseille","lat":43.28697,"lon":5.37403,"is_reserved":false,"is_disabled":false,"rental_uris":{"android":"levelo://app?vid=a4cc5d03-eca3-417a-9499-7f5743bd2e43","ios":"levelo://app?vid=a4cc5d03-eca3-417a-9499-7f5743bd2e43"},"vehicle_type_id":"4","last_reported":1747167086,"current_range_meters":10800,"station_id":"ce4bh3p2rcd13ifvqdq0","pricing_plan_id":"cebpf4jnsgd1na2vs0mg"},{"bike_id":"f4f686b9-96ac-4872-9628-82d1c833f2f8","system_id":"levelo_inurba_marseille","lat":43.24661,"lon":5.38165,"is_reserved":false,"is_disabled":false,"rental_uris":{"android":"levelo://app?vid=f4f686b9-96ac-4872-9628-82d1c833f2f8","ios":"levelo://app?vid=f4f686b9-96ac-4872-9628-82d1c833f2f8"},"vehicle_type_id":"4","last_reported":1747167086,"current_range_meters":10800,"station_id":"ce4bhih2rcd13ifvqfr0","pricing_plan_id":"cebpf4jnsgd1na2vs0mg"},{"bike_id":"0a860892-089a-4df7-85a4-8cd06d54afc7","system_id":"levelo_inurba_marseille","lat":43.26945,"lon":5.40243,"is_reserved":false,"is_disabled":false,"rental_uris":{"android":"levelo://app?vid=0a860892-089a-4df7-85a4-8cd06d54afc7","ios":"levelo://app?vid=0a860892-089a-4df7-85a4-8cd06d54afc7"},"vehicle_type_id":"4","last_reported":1747167086,"current_range_meters":10800,"station_id":"cjm6bp8fraef2m0cb0m0","pricing_plan_id":"cebpf4jnsgd1na2vs0mg"},{"bike_id":"bae0709b-c933-441a-ab47-3aad58f66d78","system_id":"levelo_inurba_marseille","lat":43.21759,"lon":5.34604,"is_reserved":false,"is_disabled":false,"rental_uris":{"android":"levelo://app?vid=bae0709b-c933-441a-ab47-3aad58f66d78","ios":"levelo://app?vid=bae0709b-c933-441a-ab47-3aad58f66d78"},"vehicle_type_id":"4","last_reported":1747167086,"current_range_meters":10800,"station_id":"st_cvj6r9ubvosntc0bgbag","pricing_plan_id":"cebpf4jnsgd1na2vs0mg"},{"bike_id":"7ef75eaf-e356-40d1-ad34-229df60be345","system_id":"levelo_inurba_marseille","lat":43.30249,"lon":5.40044,"is_reserved":false,"is_disabled":false,"rental_uris":{"android":"levelo://app?vid=7ef75eaf-e356-40d1-ad34-229df60be345","ios":"levelo://app?vid=7ef75eaf-e356-40d1-ad34-229df60be345"},"vehicle_type_id":"4","last_reported":1747167086,"current_range_meters":11200,"station_id":"ce4bgvh2rcd13ifvqcs0","pricing_plan_id":"cebpf4jnsgd1na2vs0mg"},{"bike_id":"c177bd42-5db3-4693-9477-530375794cb6","system_id":"levelo_inurba_marseille","lat":43.24623,"lon":5.38879,"is_reserved":false,"is_disabled":false,"rental_uris":{"android":"levelo://app?vid=c177bd42-5db3-4693-9477-530375794cb6","ios":"levelo://app?vid=c177bd42-5db3-4693-9477-530375794cb6"},"vehicle_type_id":"4","last_reported":1747167086,"current_range_meters":11200,"station_id":"ce4bhg12rcd13ifvqf60","pricing_plan_id":"cebpf4jnsgd1na2vs0mg"},{"bike_id":"e9101973-c941-4a38-9c83-45a1c33e13c4","system_id":"levelo_inurba_marseille","lat":43.245575,"lon":5.395152,"is_reserved":false,"is_disabled":false,"rental_uris":{"android":"levelo://app?vid=e9101973-c941-4a38-9c83-45a1c33e13c4","ios":"levelo://app?vid=e9101973-c941-4a38-9c83-45a1c33e13c4"},"vehicle_type_id":"4","last_reported":1747167086,"current_range_meters":11200,"station_id":"ce4bhlp2rcd13ifvqgjg","pricing_plan_id":"cebpf4jnsgd1na2vs0mg"},{"bike_id":"eb167b9d-0333-4e8f-8219-ae8937d06aab","system_id":"levelo_inurba_marseille","lat":43.33609,"lon":5.4102,"is_reserved":false,"is_disabled":false,"rental_uris":{"android":"levelo://app?vid=eb167b9d-0333-4e8f-8219-ae8937d06aab","ios":"levelo://app?vid=eb167b9d-0333-4e8f-8219-ae8937d06aab"},"vehicle_type_id":"4","last_reported":1747167086,"current_range_meters":11200,"station_id":"ce4bhqh2rcd13ifvqhmg","pricing_plan_id":"cebpf4jnsgd1na2vs0mg"},{"bike_id":"c012b351-7a0a-41bf-949f-2e38284e5387","system_id":"levelo_inurba_marseille","lat":43.32,"lon":5.38167,"is_reserved":false,"is_disabled":false,"rental_uris":{"android":"levelo://app?vid=c012b351-7a0a-41bf-949f-2e38284e5387","ios":"levelo://app?vid=c012b351-7a0a-41bf-949f-2e38284e5387"},"vehicle_type_id":"4","last_reported":1747167086,"current_range_meters":11200,"station_id":"ce4bhr12rcd13ifvqhpg","pricing_plan_id":"cebpf4jnsgd1na2vs0mg"},{"bike_id":"f8f1723d-98a8-4f57-b09b-e0626a73568c","system_id":"levelo_inurba_marseille","lat":43.27907,"lon":5.38005,"is_reserved":false,"is_disabled":false,"rental_uris":{"android":"levelo://app?vid=f8f1723d-98a8-4f57-b09b-e0626a73568c","ios":"levelo://app?vid=f8f1723d-98a8-4f57-b09b-e0626a73568c"},"vehicle_type_id":"4","last_reported":1747167086,"current_range_meters":11600,"station_id":"ce4bhf92rcd13ifvqf50","pricing_plan_id":"cebpf4jnsgd1na2vs0mg"},{"bike_id":"b87d33d0-29b7-4b08-87f5-dac02332ca1e","system_id":"levelo_inurba_marseille","lat":43.27958,"lon":5.38736,"is_reserved":false,"is_disabled":false,"rental_uris":{"android":"levelo://app?vid=b87d33d0-29b7-4b08-87f5-dac02332ca1e","ios":"levelo://app?vid=b87d33d0-29b7-4b08-87f5-dac02332ca1e"},"vehicle_type_id":"4","last_reported":1747167086,"current_range_meters":11600,"station_id":"ce4bhg12rcd13ifvqf80","pricing_plan_id":"cebpf4jnsgd1na2vs0mg"},{"bike_id":"83119d09-9efb-429c-b5b9-f2163d6f4389","system_id":"levelo_inurba_marseille","lat":43.31071,"lon":5.38354,"is_reserved":false,"is_disabled":false,"rental_uris":{"android":"levelo://app?vid=83119d09-9efb-429c-b5b9-f2163d6f4389","ios":"levelo://app?vid=83119d09-9efb-429c-b5b9-f2163d6f4389"},"vehicle_type_id":"4","last_reported":1747167086,"current_range_meters":12000,"station_id":"ce4bgv92rcd13ifvqcr0","pricing_plan_id":"cebpf4jnsgd1na2vs0mg"},{"bike_id":"de7315ad-9ff2-4762-ab3d-318c325f9ca2","system_id":"levelo_inurba_marseille","lat":43.29572,"lon":5.3997,"is_reserved":false,"is_disabled":false,"rental_uris":{"android":"levelo://app?vid=de7315ad-9ff2-4762-ab3d-318c325f9ca2","ios":"levelo://app?vid=de7315ad-9ff2-4762-ab3d-318c325f9ca2"},"vehicle_type_id":"4","last_reported":1747167086,"current_range_meters":12000,"station_id":"ce4bh312rcd13ifvqdj0","pricing_plan_id":"cebpf4jnsgd1na2vs0mg"},{"bike_id":"f992a421-1974-43d2-890b-13f18604b31c","system_id":"levelo_inurba_marseille","lat":43.24634,"lon":5.38911,"is_reserved":false,"is_disabled":false,"rental_uris":{"android":"levelo://app?vid=f992a421-1974-43d2-890b-13f18604b31c","ios":"levelo://app?vid=f992a421-1974-43d2-890b-13f18604b31c"},"vehicle_type_id":"4","last_reported":1747167086,"current_range_meters":12000,"station_id":"ce4bhg12rcd13ifvqf60","pricing_plan_id":"cebpf4jnsgd1na2vs0mg"},{"bike_id":"b963baec-e5a9-4eaf-b870-8993297b62d3","system_id":"levelo_inurba_marseille","lat":43.28438,"lon":5.39191,"is_reserved":false,"is_disabled":false,"rental_uris":{"android":"levelo://app?vid=b963baec-e5a9-4eaf-b870-8993297b62d3","ios":"levelo://app?vid=b963baec-e5a9-4eaf-b870-8993297b62d3"},"vehicle_type_id":"4","last_reported":1747167086,"current_range_meters":12000,"station_id":"ce4bhoh2rcd13ifvqh5g","pricing_plan_id":"cebpf4jnsgd1na2vs0mg"},{"bike_id":"d559a899-b1bd-4a71-a12e-4458bcd0cdbf","system_id":"levelo_inurba_marseille","lat":43.2306,"lon":5.355,"is_reserved":false,"is_disabled":false,"rental_uris":{"android":"levelo://app?vid=d559a899-b1bd-4a71-a12e-4458bcd0cdbf","ios":"levelo://app?vid=d559a899-b1bd-4a71-a12e-4458bcd0cdbf"},"vehicle_type_id":"4","last_reported":1747167086,"current_range_meters":12000,"station_id":"cpo3342slgdg3j2ifvpg","pricing_plan_id":"cebpf4jnsgd1na2vs0mg"},{"bike_id":"b588cd6d-ca6e-4d83-9d02-2a0b6be49a4a","system_id":"levelo_inurba_marseille","lat":43.2902,"lon":5.38136,"is_reserved":false,"is_disabled":false,"rental_uris":{"android":"levelo://app?vid=b588cd6d-ca6e-4d83-9d02-2a0b6be49a4a","ios":"levelo://app?vid=b588cd6d-ca6e-4d83-9d02-2a0b6be49a4a"},"vehicle_type_id":"4","last_reported":1747167086,"current_range_meters":12400,"station_id":"ce4bh4p2rcd13ifvqe1g","pricing_plan_id":"cebpf4jnsgd1na2vs0mg"},{"bike_id":"63582912-f314-437d-bdb9-8991ea5c92a6","system_id":"levelo_inurba_marseille","lat":43.24647,"lon":5.38896,"is_reserved":false,"is_disabled":false,"rental_uris":{"android":"levelo://app?vid=63582912-f314-437d-bdb9-8991ea5c92a6","ios":"levelo://app?vid=63582912-f314-437d-bdb9-8991ea5c92a6"},"vehicle_type_id":"4","last_reported":1747167086,"current_range_meters":12400,"station_id":"ce4bhg12rcd13ifvqf60","pricing_plan_id":"cebpf4jnsgd1na2vs0mg"},{"bike_id":"4ace1a42-82ce-45f5-9289-1f764418f5ab","system_id":"levelo_inurba_marseille","lat":43.2481,"lon":5.37458,"is_reserved":false,"is_disabled":false,"rental_uris":{"android":"levelo://app?vid=4ace1a42-82ce-45f5-9289-1f764418f5ab","ios":"levelo://app?vid=4ace1a42-82ce-45f5-9289-1f764418f5ab"},"vehicle_type_id":"4","last_reported":1747167086,"current_range_meters":12400,"station_id":"ce4bhgh2rcd13ifvqfb0","pricing_plan_id":"cebpf4jnsgd1na2vs0mg"},{"bike_id":"11e495cb-e2b0-4615-bc23-02982335ed54","system_id":"levelo_inurba_marseille","lat":43.25085,"lon":5.395,"is_reserved":false,"is_disabled":false,"rental_uris":{"android":"levelo://app?vid=11e495cb-e2b0-4615-bc23-02982335ed54","ios":"levelo://app?vid=11e495cb-e2b0-4615-bc23-02982335ed54"},"vehicle_type_id":"4","last_reported":1747167086,"current_range_meters":12400,"station_id":"ce4bhm12rcd13ifvqgkg","pricing_plan_id":"cebpf4jnsgd1na2vs0mg"},{"bike_id":"6788286c-febe-4582-9c0b-572bf26c1ecd","system_id":"levelo_inurba_marseille","lat":43.27938,"lon":5.41041,"is_reserved":false,"is_disabled":false,"rental_uris":{"android":"levelo://app?vid=6788286c-febe-4582-9c0b-572bf26c1ecd","ios":"levelo://app?vid=6788286c-febe-4582-9c0b-572bf26c1ecd"},"vehicle_type_id":"4","last_reported":1747167086,"current_range_meters":12400,"station_id":"ce4bhnp2rcd13ifvqh0g","pricing_plan_id":"cebpf4jnsgd1na2vs0mg"},{"bike_id":"33f4f50a-a92c-490d-9d8f-9adcfee9f422","system_id":"levelo_inurba_marseille","lat":43.31743,"lon":5.42416,"is_reserved":false,"is_disabled":false,"rental_uris":{"android":"levelo://app?vid=33f4f50a-a92c-490d-9d8f-9adcfee9f422","ios":"levelo://app?vid=33f4f50a-a92c-490d-9d8f-9adcfee9f422"},"vehicle_type_id":"4","last_reported":1747167086,"current_range_meters":12400,"station_id":"ce4bhp92rcd13ifvqhbg","pricing_plan_id":"cebpf4jnsgd1na2vs0mg"},{"bike_id":"29ca8818-f2ee-47ec-a332-2860bcc2fb2a","system_id":"levelo_inurba_marseille","lat":43.23186,"lon":5.35556,"is_reserved":false,"is_disabled":false,"rental_uris":{"android":"levelo://app?vid=29ca8818-f2ee-47ec-a332-2860bcc2fb2a","ios":"levelo://app?vid=29ca8818-f2ee-47ec-a332-2860bcc2fb2a"},"vehicle_type_id":"4","last_reported":1747167086,"current_range_meters":12400,"station_id":"ce4bhu92rcd13ifvqi70","pricing_plan_id":"cebpf4jnsgd1na2vs0mg"},{"bike_id":"d2c5ba48-07dc-41bd-b680-a80a8a8d6e79","system_id":"levelo_inurba_marseille","lat":43.25491,"lon":5.37649,"is_reserved":false,"is_disabled":false,"rental_uris":{"android":"levelo://app?vid=d2c5ba48-07dc-41bd-b680-a80a8a8d6e79","ios":"levelo://app?vid=d2c5ba48-07dc-41bd-b680-a80a8a8d6e79"},"vehicle_type_id":"4","last_reported":1747167086,"current_range_meters":12800,"station_id":"ce4bhh12rcd13ifvqff0","pricing_plan_id":"cebpf4jnsgd1na2vs0mg"},{"bike_id":"7d8a940b-fa41-48ed-bc64-d4da3160240b","system_id":"levelo_inurba_marseille","lat":43.30813,"lon":5.37908,"is_reserved":false,"is_disabled":false,"rental_uris":{"android":"levelo://app?vid=7d8a940b-fa41-48ed-bc64-d4da3160240b","ios":"levelo://app?vid=7d8a940b-fa41-48ed-bc64-d4da3160240b"},"vehicle_type_id":"4","last_reported":1747167086,"current_range_meters":13600,"station_id":"","pricing_plan_id":"cebpf4jnsgd1na2vs0mg"},{"bike_id":"065fb42d-3698-44af-b995-9a22c9844fe4","system_id":"levelo_inurba_marseille","lat":43.29785,"lon":5.37006,"is_reserved":false,"is_disabled":false,"rental_uris":{"android":"levelo://app?vid=065fb42d-3698-44af-b995-9a22c9844fe4","ios":"levelo://app?vid=065fb42d-3698-44af-b995-9a22c9844fe4"},"vehicle_type_id":"4","last_reported":1747167086,"current_range_meters":13600,"station_id":"","pricing_plan_id":"cebpf4jnsgd1na2vs0mg"},{"bike_id":"ffc6879f-a245-4d68-a699-afc6cc6c2490","system_id":"levelo_inurba_marseille","lat":43.3033,"lon":5.40433,"is_reserved":false,"is_disabled":false,"rental_uris":{"android":"levelo://app?vid=ffc6879f-a245-4d68-a699-afc6cc6c2490","ios":"levelo://app?vid=ffc6879f-a245-4d68-a699-afc6cc6c2490"},"vehicle_type_id":"4","last_reported":1747167086,"current_range_meters":13600,"station_id":"ce4bh012rcd13ifvqd10","pricing_plan_id":"cebpf4jnsgd1na2vs0mg"},{"bike_id":"c23a8a29-2cd2-4114-9ce7-b0d3998bc605","system_id":"levelo_inurba_marseille","lat":43.30424,"lon":5.39738,"is_reserved":false,"is_disabled":false,"rental_uris":{"android":"levelo://app?vid=c23a8a29-2cd2-4114-9ce7-b0d3998bc605","ios":"levelo://app?vid=c23a8a29-2cd2-4114-9ce7-b0d3998bc605"},"vehicle_type_id":"4","last_reported":1747167086,"current_range_meters":13600,"station_id":"ce4bh092rcd13ifvqd20","pricing_plan_id":"cebpf4jnsgd1na2vs0mg"},{"bike_id":"485f36f8-f5b5-4b39-aa91-9cd33c8f655c","system_id":"levelo_inurba_marseille","lat":43.30097,"lon":5.39086,"is_reserved":false,"is_disabled":false,"rental_uris":{"android":"levelo://app?vid=485f36f8-f5b5-4b39-aa91-9cd33c8f655c","ios":"levelo://app?vid=485f36f8-f5b5-4b39-aa91-9cd33c8f655c"},"vehicle_type_id":"4","last_reported":1747167086,"current_range_meters":13600,"station_id":"ce4bh192rcd13ifvqdb0","pricing_plan_id":"cebpf4jnsgd1na2vs0mg"},{"bike_id":"f6f851f2-f97b-46bd-8825-a1535387dd49","system_id":"levelo_inurba_marseille","lat":43.28411,"lon":5.37502,"is_reserved":false,"is_disabled":false,"rental_uris":{"android":"levelo://app?vid=f6f851f2-f97b-46bd-8825-a1535387dd49","ios":"levelo://app?vid=f6f851f2-f97b-46bd-8825-a1535387dd49"},"vehicle_type_id":"4","last_reported":1747167086,"current_range_meters":13600,"station_id":"ce4bh412rcd13ifvqds0","pricing_plan_id":"cebpf4jnsgd1na2vs0mg"},{"bike_id":"7a0d3db7-e6fa-4dcd-9346-4ca0cef0f399","system_id":"levelo_inurba_marseille","lat":43.26808,"lon":5.40277,"is_reserved":false,"is_disabled":false,"rental_uris":{"android":"levelo://app?vid=7a0d3db7-e6fa-4dcd-9346-4ca0cef0f399","ios":"levelo://app?vid=7a0d3db7-e6fa-4dcd-9346-4ca0cef0f399"},"vehicle_type_id":"4","last_reported":1747167086,"current_range_meters":13600,"station_id":"ce501612rcd8frsf0b60","pricing_plan_id":"cebpf4jnsgd1na2vs0mg"},{"bike_id":"382da604-28cd-407b-adb2-1bed2bb48c46","system_id":"levelo_inurba_marseille","lat":43.32185,"lon":5.38867,"is_reserved":false,"is_disabled":false,"rental_uris":{"android":"levelo://app?vid=382da604-28cd-407b-adb2-1bed2bb48c46","ios":"levelo://app?vid=382da604-28cd-407b-adb2-1bed2bb48c46"},"vehicle_type_id":"4","last_reported":1747167086,"current_range_meters":14000,"station_id":"","pricing_plan_id":"cebpf4jnsgd1na2vs0mg"},{"bike_id":"1a354086-86c3-4150-8db1-3c75daff3d75","system_id":"levelo_inurba_marseille","lat":43.29714,"lon":5.36622,"is_reserved":false,"is_disabled":false,"rental_uris":{"android":"levelo://app?vid=1a354086-86c3-4150-8db1-3c75daff3d75","ios":"levelo://app?vid=1a354086-86c3-4150-8db1-3c75daff3d75"},"vehicle_type_id":"4","last_reported":1747167086,"current_range_meters":14000,"station_id":"ce4bgn12rcd13ifvqbt0","pricing_plan_id":"cebpf4jnsgd1na2vs0mg"},{"bike_id":"e15dd958-cc90-41eb-8c8a-6663f7bccd99","system_id":"levelo_inurba_marseille","lat":43.31111,"lon":5.37776,"is_reserved":false,"is_disabled":false,"rental_uris":{"android":"levelo://app?vid=e15dd958-cc90-41eb-8c8a-6663f7bccd99","ios":"levelo://app?vid=e15dd958-cc90-41eb-8c8a-6663f7bccd99"},"vehicle_type_id":"4","last_reported":1747167086,"current_range_meters":14000,"station_id":"ce4bgt92rcd13ifvqcg0","pricing_plan_id":"cebpf4jnsgd1na2vs0mg"},{"bike_id":"ee95d7b1-23aa-4ba2-8604-c3c7e16b2172","system_id":"levelo_inurba_marseille","lat":43.289157,"lon":5.366658,"is_reserved":false,"is_disabled":false,"rental_uris":{"android":"levelo://app?vid=ee95d7b1-23aa-4ba2-8604-c3c7e16b2172","ios":"levelo://app?vid=ee95d7b1-23aa-4ba2-8604-c3c7e16b2172"},"vehicle_type_id":"4","last_reported":1747167086,"current_range_meters":14000,"station_id":"ce4bhap2rcd13ifvqek0","pricing_plan_id":"cebpf4jnsgd1na2vs0mg"},{"bike_id":"b0242bf4-b83b-4d62-aa3e-64266801fbe9","system_id":"levelo_inurba_marseille","lat":43.310828,"lon":5.424337,"is_reserved":false,"is_disabled":false,"rental_uris":{"android":"levelo://app?vid=b0242bf4-b83b-4d62-aa3e-64266801fbe9","ios":"levelo://app?vid=b0242bf4-b83b-4d62-aa3e-64266801fbe9"},"vehicle_type_id":"4","last_reported":1747167086,"current_range_meters":14000,"station_id":"ce4bhp92rcd13ifvqhag","pricing_plan_id":"cebpf4jnsgd1na2vs0mg"},{"bike_id":"6fbcf1fb-167a-4f7c-a653-b4a37a6e087c","system_id":"levelo_inurba_marseille","lat":43.2873,"lon":5.36079,"is_reserved":false,"is_disabled":false,"rental_uris":{"android":"levelo://app?vid=6fbcf1fb-167a-4f7c-a653-b4a37a6e087c","ios":"levelo://app?vid=6fbcf1fb-167a-4f7c-a653-b4a37a6e087c"},"vehicle_type_id":"4","last_reported":1747167086,"current_range_meters":14000,"station_id":"cki0cbj6b192h4jlfktg","pricing_plan_id":"cebpf4jnsgd1na2vs0mg"},{"bike_id":"4821750a-72fd-4a71-957e-987850a371e2","system_id":"levelo_inurba_marseille","lat":43.301247,"lon":5.47632,"is_reserved":false,"is_disabled":false,"rental_uris":{"android":"levelo://app?vid=4821750a-72fd-4a71-957e-987850a371e2","ios":"levelo://app?vid=4821750a-72fd-4a71-957e-987850a371e2"},"vehicle_type_id":"4","last_reported":1747167086,"current_range_meters":14400,"station_id":"","pricing_plan_id":"cebpf4jnsgd1na2vs0mg"},{"bike_id":"93eca9cf-6891-42c1-b960-771552088ac1","system_id":"levelo_inurba_marseille","lat":43.279733,"lon":5.387332,"is_reserved":false,"is_disabled":false,"rental_uris":{"android":"levelo://app?vid=93eca9cf-6891-42c1-b960-771552088ac1","ios":"levelo://app?vid=93eca9cf-6891-42c1-b960-771552088ac1"},"vehicle_type_id":"4","last_reported":1747167086,"current_range_meters":14400,"station_id":"ce4bhg12rcd13ifvqf80","pricing_plan_id":"cebpf4jnsgd1na2vs0mg"},{"bike_id":"5c8b9c5b-5c2a-483e-865d-ae36047d40b5","system_id":"levelo_inurba_marseille","lat":43.30023,"lon":5.4763,"is_reserved":false,"is_disabled":false,"rental_uris":{"android":"levelo://app?vid=5c8b9c5b-5c2a-483e-865d-ae36047d40b5","ios":"levelo://app?vid=5c8b9c5b-5c2a-483e-865d-ae36047d40b5"},"vehicle_type_id":"4","last_reported":1747167086,"current_range_meters":14800,"station_id":"","pricing_plan_id":"cebpf4jnsgd1na2vs0mg"},{"bike_id":"352b870d-d866-401d-b117-d33ba49d8e8f","system_id":"levelo_inurba_marseille","lat":43.30326,"lon":5.4043,"is_reserved":false,"is_disabled":false,"rental_uris":{"android":"levelo://app?vid=352b870d-d866-401d-b117-d33ba49d8e8f","ios":"levelo://app?vid=352b870d-d866-401d-b117-d33ba49d8e8f"},"vehicle_type_id":"4","last_reported":1747167086,"current_range_meters":14800,"station_id":"ce4bh012rcd13ifvqd10","pricing_plan_id":"cebpf4jnsgd1na2vs0mg"},{"bike_id":"ed970d43-45ea-48d2-8a3e-380054471e7f","system_id":"levelo_inurba_marseille","lat":43.29834,"lon":5.3971,"is_reserved":false,"is_disabled":false,"rental_uris":{"android":"levelo://app?vid=ed970d43-45ea-48d2-8a3e-380054471e7f","ios":"levelo://app?vid=ed970d43-45ea-48d2-8a3e-380054471e7f"},"vehicle_type_id":"4","last_reported":1747167086,"current_range_meters":14800,"station_id":"ce4bh0h2rcd13ifvqd50","pricing_plan_id":"cebpf4jnsgd1na2vs0mg"},{"bike_id":"678d5e50-e779-48a3-ad27-ff14e6baaad8","system_id":"levelo_inurba_marseille","lat":43.29191,"lon":5.39323,"is_reserved":false,"is_disabled":false,"rental_uris":{"android":"levelo://app?vid=678d5e50-e779-48a3-ad27-ff14e6baaad8","ios":"levelo://app?vid=678d5e50-e779-48a3-ad27-ff14e6baaad8"},"vehicle_type_id":"4","last_reported":1747167086,"current_range_meters":14800,"station_id":"ce4bh192rcd13ifvqdd0","pricing_plan_id":"cebpf4jnsgd1na2vs0mg"},{"bike_id":"d0defc80-2fab-4418-bff4-67ea2449baa8","system_id":"levelo_inurba_marseille","lat":43.28115,"lon":5.37836,"is_reserved":false,"is_disabled":false,"rental_uris":{"android":"levelo://app?vid=d0defc80-2fab-4418-bff4-67ea2449baa8","ios":"levelo://app?vid=d0defc80-2fab-4418-bff4-67ea2449baa8"},"vehicle_type_id":"4","last_reported":1747167086,"current_range_meters":14800,"station_id":"ce4bha12rcd13ifvqee0","pricing_plan_id":"cebpf4jnsgd1na2vs0mg"},{"bike_id":"7395c0f9-eb26-4cbc-9f9b-9c1edf7364f4","system_id":"levelo_inurba_marseille","lat":43.32965,"lon":5.40561,"is_reserved":false,"is_disabled":false,"rental_uris":{"android":"levelo://app?vid=7395c0f9-eb26-4cbc-9f9b-9c1edf7364f4","ios":"levelo://app?vid=7395c0f9-eb26-4cbc-9f9b-9c1edf7364f4"},"vehicle_type_id":"4","last_reported":1747167086,"current_range_meters":15200,"station_id":"","pricing_plan_id":"cebpf4jnsgd1na2vs0mg"},{"bike_id":"80e8d3fb-b5a0-453d-aa09-9b85882eb52a","system_id":"levelo_inurba_marseille","lat":43.28476,"lon":5.35881,"is_reserved":false,"is_disabled":false,"rental_uris":{"android":"levelo://app?vid=80e8d3fb-b5a0-453d-aa09-9b85882eb52a","ios":"levelo://app?vid=80e8d3fb-b5a0-453d-aa09-9b85882eb52a"},"vehicle_type_id":"4","last_reported":1747167086,"current_range_meters":15200,"station_id":"ce4bhah2rcd13ifvqei0","pricing_plan_id":"cebpf4jnsgd1na2vs0mg"},{"bike_id":"72687f59-c2f4-43eb-90d2-e2c3bf1dfe4b","system_id":"levelo_inurba_marseille","lat":43.289868,"lon":5.366262,"is_reserved":false,"is_disabled":false,"rental_uris":{"android":"levelo://app?vid=72687f59-c2f4-43eb-90d2-e2c3bf1dfe4b","ios":"levelo://app?vid=72687f59-c2f4-43eb-90d2-e2c3bf1dfe4b"},"vehicle_type_id":"4","last_reported":1747167086,"current_range_meters":16000,"station_id":"","pricing_plan_id":"cebpf4jnsgd1na2vs0mg"},{"bike_id":"f57e6f12-c038-4a7e-8f40-23ed2bed5616","system_id":"levelo_inurba_marseille","lat":43.30005,"lon":5.47581,"is_reserved":false,"is_disabled":false,"rental_uris":{"android":"levelo://app?vid=f57e6f12-c038-4a7e-8f40-23ed2bed5616","ios":"levelo://app?vid=f57e6f12-c038-4a7e-8f40-23ed2bed5616"},"vehicle_type_id":"4","last_reported":1747167086,"current_range_meters":16000,"station_id":"","pricing_plan_id":"cebpf4jnsgd1na2vs0mg"},{"bike_id":"42cfaabc-d4d4-405c-ab84-52ce3ce3032a","system_id":"levelo_inurba_marseille","lat":43.31732,"lon":5.43607,"is_reserved":false,"is_disabled":false,"rental_uris":{"android":"levelo://app?vid=42cfaabc-d4d4-405c-ab84-52ce3ce3032a","ios":"levelo://app?vid=42cfaabc-d4d4-405c-ab84-52ce3ce3032a"},"vehicle_type_id":"4","last_reported":1747167086,"current_range_meters":16000,"station_id":"","pricing_plan_id":"cebpf4jnsgd1na2vs0mg"},{"bike_id":"6c4f3fe3-6b84-4743-9622-add0a91d6bf5","system_id":"levelo_inurba_marseille","lat":43.29576,"lon":5.39963,"is_reserved":false,"is_disabled":false,"rental_uris":{"android":"levelo://app?vid=6c4f3fe3-6b84-4743-9622-add0a91d6bf5","ios":"levelo://app?vid=6c4f3fe3-6b84-4743-9622-add0a91d6bf5"},"vehicle_type_id":"4","last_reported":1747167086,"current_range_meters":16000,"station_id":"ce4bh312rcd13ifvqdj0","pricing_plan_id":"cebpf4jnsgd1na2vs0mg"},{"bike_id":"a8cba72b-4868-45e1-94d9-7f5a6b2e7486","system_id":"levelo_inurba_marseille","lat":43.26029,"lon":5.37549,"is_reserved":false,"is_disabled":false,"rental_uris":{"android":"levelo://app?vid=a8cba72b-4868-45e1-94d9-7f5a6b2e7486","ios":"levelo://app?vid=a8cba72b-4868-45e1-94d9-7f5a6b2e7486"},"vehicle_type_id":"4","last_reported":1747167086,"current_range_meters":16000,"station_id":"ce4bhgh2rcd13ifvqfa0","pricing_plan_id":"cebpf4jnsgd1na2vs0mg"},{"bike_id":"bd7f48b5-122d-4623-b8e5-1b0c5a029f53","system_id":"levelo_inurba_marseille","lat":43.31761,"lon":5.39012,"is_reserved":false,"is_disabled":false,"rental_uris":{"android":"levelo://app?vid=bd7f48b5-122d-4623-b8e5-1b0c5a029f53","ios":"levelo://app?vid=bd7f48b5-122d-4623-b8e5-1b0c5a029f53"},"vehicle_type_id":"4","last_reported":1747167086,"current_range_meters":16000,"station_id":"ce4bhqp2rcd13ifvqhng","pricing_plan_id":"cebpf4jnsgd1na2vs0mg"},{"bike_id":"9d76660f-c284-49a2-8765-48337aa51471","system_id":"levelo_inurba_marseille","lat":43.32127,"lon":5.36773,"is_reserved":false,"is_disabled":false,"rental_uris":{"android":"levelo://app?vid=9d76660f-c284-49a2-8765-48337aa51471","ios":"levelo://app?vid=9d76660f-c284-49a2-8765-48337aa51471"},"vehicle_type_id":"4","last_reported":1747167086,"current_range_meters":16000,"station_id":"ce4bhrh2rcd13ifvqhug","pricing_plan_id":"cebpf4jnsgd1na2vs0mg"},{"bike_id":"0c893fb7-8626-4706-85bf-f404b871dea5","system_id":"levelo_inurba_marseille","lat":43.281263,"lon":5.445875,"is_reserved":false,"is_disabled":false,"rental_uris":{"android":"levelo://app?vid=0c893fb7-8626-4706-85bf-f404b871dea5","ios":"levelo://app?vid=0c893fb7-8626-4706-85bf-f404b871dea5"},"vehicle_type_id":"4","last_reported":1747167086,"current_range_meters":16400,"station_id":"","pricing_plan_id":"cebpf4jnsgd1na2vs0mg"},{"bike_id":"ebbb3db5-66b4-4907-9a7b-ed749cb4c62b","system_id":"levelo_inurba_marseille","lat":43.31682,"lon":5.39033,"is_reserved":false,"is_disabled":false,"rental_uris":{"android":"levelo://app?vid=ebbb3db5-66b4-4907-9a7b-ed749cb4c62b","ios":"levelo://app?vid=ebbb3db5-66b4-4907-9a7b-ed749cb4c62b"},"vehicle_type_id":"4","last_reported":1747167086,"current_range_meters":16400,"station_id":"ce4bhqp2rcd13ifvqhng","pricing_plan_id":"cebpf4jnsgd1na2vs0mg"},{"bike_id":"1e297e0e-a907-489c-9a22-1dfb89bfb64f","system_id":"levelo_inurba_marseille","lat":43.29227,"lon":5.36418,"is_reserved":false,"is_disabled":false,"rental_uris":{"android":"levelo://app?vid=1e297e0e-a907-489c-9a22-1dfb89bfb64f","ios":"levelo://app?vid=1e297e0e-a907-489c-9a22-1dfb89bfb64f"},"vehicle_type_id":"4","last_reported":1747167086,"current_range_meters":16800,"station_id":"","pricing_plan_id":"cebpf4jnsgd1na2vs0mg"},{"bike_id":"42dd6315-b089-43b5-82ff-51a77215d409","system_id":"levelo_inurba_marseille","lat":43.308478,"lon":5.437129,"is_reserved":false,"is_disabled":false,"rental_uris":{"android":"levelo://app?vid=42dd6315-b089-43b5-82ff-51a77215d409","ios":"levelo://app?vid=42dd6315-b089-43b5-82ff-51a77215d409"},"vehicle_type_id":"4","last_reported":1747167086,"current_range_meters":16800,"station_id":"","pricing_plan_id":"cebpf4jnsgd1na2vs0mg"},{"bike_id":"d6d00e98-79ed-47b9-8cca-9561b92166dd","system_id":"levelo_inurba_marseille","lat":43.30304,"lon":5.386664,"is_reserved":false,"is_disabled":false,"rental_uris":{"android":"levelo://app?vid=d6d00e98-79ed-47b9-8cca-9561b92166dd","ios":"levelo://app?vid=d6d00e98-79ed-47b9-8cca-9561b92166dd"},"vehicle_type_id":"4","last_reported":1747167086,"current_range_meters":16800,"station_id":"ce4bghh2rcd13ifvqb60","pricing_plan_id":"cebpf4jnsgd1na2vs0mg"},{"bike_id":"49a5f454-00ee-4b17-84b8-175848e72351","system_id":"levelo_inurba_marseille","lat":43.306538,"lon":5.400932,"is_reserved":false,"is_disabled":false,"rental_uris":{"android":"levelo://app?vid=49a5f454-00ee-4b17-84b8-175848e72351","ios":"levelo://app?vid=49a5f454-00ee-4b17-84b8-175848e72351"},"vehicle_type_id":"4","last_reported":1747167086,"current_range_meters":16800,"station_id":"ce4bh112rcd13ifvqda0","pricing_plan_id":"cebpf4jnsgd1na2vs0mg"},{"bike_id":"cc22c8cb-d1a0-492b-be55-7c35fd3b519d","system_id":"levelo_inurba_marseille","lat":43.28346,"lon":5.38105,"is_reserved":false,"is_disabled":false,"rental_uris":{"android":"levelo://app?vid=cc22c8cb-d1a0-492b-be55-7c35fd3b519d","ios":"levelo://app?vid=cc22c8cb-d1a0-492b-be55-7c35fd3b519d"},"vehicle_type_id":"4","last_reported":1747167086,"current_range_meters":16800,"station_id":"ce4bh412rcd13ifvqdr0","pricing_plan_id":"cebpf4jnsgd1na2vs0mg"},{"bike_id":"009cffc1-feff-443d-98bb-f925c1c04f0a","system_id":"levelo_inurba_marseille","lat":43.27905,"lon":5.3801,"is_reserved":false,"is_disabled":false,"rental_uris":{"android":"levelo://app?vid=009cffc1-feff-443d-98bb-f925c1c04f0a","ios":"levelo://app?vid=009cffc1-feff-443d-98bb-f925c1c04f0a"},"vehicle_type_id":"4","last_reported":1747167086,"current_range_meters":16800,"station_id":"ce4bhf92rcd13ifvqf50","pricing_plan_id":"cebpf4jnsgd1na2vs0mg"},{"bike_id":"7725aa1e-b0b3-4e99-93ab-eefed6b422bc","system_id":"levelo_inurba_marseille","lat":43.32024,"lon":5.38297,"is_reserved":false,"is_disabled":false,"rental_uris":{"android":"levelo://app?vid=7725aa1e-b0b3-4e99-93ab-eefed6b422bc","ios":"levelo://app?vid=7725aa1e-b0b3-4e99-93ab-eefed6b422bc"},"vehicle_type_id":"4","last_reported":1747167086,"current_range_meters":17200,"station_id":"","pricing_plan_id":"cebpf4jnsgd1na2vs0mg"},{"bike_id":"140a4313-931b-4531-86c2-56a878302554","system_id":"levelo_inurba_marseille","lat":43.30926,"lon":5.40142,"is_reserved":false,"is_disabled":false,"rental_uris":{"android":"levelo://app?vid=140a4313-931b-4531-86c2-56a878302554","ios":"levelo://app?vid=140a4313-931b-4531-86c2-56a878302554"},"vehicle_type_id":"4","last_reported":1747167086,"current_range_meters":17200,"station_id":"ce4bgvp2rcd13ifvqct0","pricing_plan_id":"cebpf4jnsgd1na2vs0mg"},{"bike_id":"3c8f54b8-19b8-4042-8b6d-9cabeab6592a","system_id":"levelo_inurba_marseille","lat":43.29633,"lon":5.40594,"is_reserved":false,"is_disabled":false,"rental_uris":{"android":"levelo://app?vid=3c8f54b8-19b8-4042-8b6d-9cabeab6592a","ios":"levelo://app?vid=3c8f54b8-19b8-4042-8b6d-9cabeab6592a"},"vehicle_type_id":"4","last_reported":1747167086,"current_range_meters":17200,"station_id":"ce4bh0h2rcd13ifvqd60","pricing_plan_id":"cebpf4jnsgd1na2vs0mg"},{"bike_id":"fd88d147-63d6-42fe-b4c7-d414c7af1e62","system_id":"levelo_inurba_marseille","lat":43.29271,"lon":5.38433,"is_reserved":false,"is_disabled":false,"rental_uris":{"android":"levelo://app?vid=fd88d147-63d6-42fe-b4c7-d414c7af1e62","ios":"levelo://app?vid=fd88d147-63d6-42fe-b4c7-d414c7af1e62"},"vehicle_type_id":"4","last_reported":1747167086,"current_range_meters":17200,"station_id":"ce4bh692rcd13ifvqea0","pricing_plan_id":"cebpf4jnsgd1na2vs0mg"},{"bike_id":"ea84d14c-0c97-454c-a00e-a9ad2c3aae49","system_id":"levelo_inurba_marseille","lat":43.30785,"lon":5.37647,"is_reserved":false,"is_disabled":false,"rental_uris":{"android":"levelo://app?vid=ea84d14c-0c97-454c-a00e-a9ad2c3aae49","ios":"levelo://app?vid=ea84d14c-0c97-454c-a00e-a9ad2c3aae49"},"vehicle_type_id":"4","last_reported":1747167086,"current_range_meters":17600,"station_id":"ce4bgv92rcd13ifvqcq0","pricing_plan_id":"cebpf4jnsgd1na2vs0mg"},{"bike_id":"bd2b5a4c-e937-4cff-a5f6-59cf103d5392","system_id":"levelo_inurba_marseille","lat":43.30263,"lon":5.40077,"is_reserved":false,"is_disabled":false,"rental_uris":{"android":"levelo://app?vid=bd2b5a4c-e937-4cff-a5f6-59cf103d5392","ios":"levelo://app?vid=bd2b5a4c-e937-4cff-a5f6-59cf103d5392"},"vehicle_type_id":"4","last_reported":1747167086,"current_range_meters":17600,"station_id":"ce4bgvh2rcd13ifvqcs0","pricing_plan_id":"cebpf4jnsgd1na2vs0mg"},{"bike_id":"8d2cdeb1-17c1-4351-9440-803e64809bdf","system_id":"levelo_inurba_marseille","lat":43.28932,"lon":5.36626,"is_reserved":false,"is_disabled":false,"rental_uris":{"android":"levelo://app?vid=8d2cdeb1-17c1-4351-9440-803e64809bdf","ios":"levelo://app?vid=8d2cdeb1-17c1-4351-9440-803e64809bdf"},"vehicle_type_id":"4","last_reported":1747167086,"current_range_meters":17600,"station_id":"ce4bhap2rcd13ifvqek0","pricing_plan_id":"cebpf4jnsgd1na2vs0mg"},{"bike_id":"8d563e64-e76f-43b4-934f-0ef8b1e94d35","system_id":"levelo_inurba_marseille","lat":43.31869,"lon":5.3741,"is_reserved":false,"is_disabled":false,"rental_uris":{"android":"levelo://app?vid=8d563e64-e76f-43b4-934f-0ef8b1e94d35","ios":"levelo://app?vid=8d563e64-e76f-43b4-934f-0ef8b1e94d35"},"vehicle_type_id":"4","last_reported":1747167086,"current_range_meters":18000,"station_id":"","pricing_plan_id":"cebpf4jnsgd1na2vs0mg"},{"bike_id":"4b3fd23a-23a0-4ed3-bd35-2b81e0ebe5f7","system_id":"levelo_inurba_marseille","lat":43.301788,"lon":5.366097,"is_reserved":false,"is_disabled":false,"rental_uris":{"android":"levelo://app?vid=4b3fd23a-23a0-4ed3-bd35-2b81e0ebe5f7","ios":"levelo://app?vid=4b3fd23a-23a0-4ed3-bd35-2b81e0ebe5f7"},"vehicle_type_id":"4","last_reported":1747167086,"current_range_meters":18000,"station_id":"ce4bgrh2rcd13ifvqc8g","pricing_plan_id":"cebpf4jnsgd1na2vs0mg"},{"bike_id":"fa573365-ce20-446c-b6cd-d62759d4c464","system_id":"levelo_inurba_marseille","lat":43.286845,"lon":5.373776,"is_reserved":false,"is_disabled":false,"rental_uris":{"android":"levelo://app?vid=fa573365-ce20-446c-b6cd-d62759d4c464","ios":"levelo://app?vid=fa573365-ce20-446c-b6cd-d62759d4c464"},"vehicle_type_id":"4","last_reported":1747167086,"current_range_meters":18000,"station_id":"ce4bh3p2rcd13ifvqdq0","pricing_plan_id":"cebpf4jnsgd1na2vs0mg"},{"bike_id":"1e283348-10fd-4b1b-8624-2e774362988e","system_id":"levelo_inurba_marseille","lat":43.28158,"lon":5.42646,"is_reserved":false,"is_disabled":false,"rental_uris":{"android":"levelo://app?vid=1e283348-10fd-4b1b-8624-2e774362988e","ios":"levelo://app?vid=1e283348-10fd-4b1b-8624-2e774362988e"},"vehicle_type_id":"4","last_reported":1747167086,"current_range_meters":18000,"station_id":"ce4bhnh2rcd13ifvqgug","pricing_plan_id":"cebpf4jnsgd1na2vs0mg"},{"bike_id":"3315caf7-376f-4460-bd73-ddce057d5263","system_id":"levelo_inurba_marseille","lat":43.24078,"lon":5.37756,"is_reserved":false,"is_disabled":false,"rental_uris":{"android":"levelo://app?vid=3315caf7-376f-4460-bd73-ddce057d5263","ios":"levelo://app?vid=3315caf7-376f-4460-bd73-ddce057d5263"},"vehicle_type_id":"4","last_reported":1747167086,"current_range_meters":18000,"station_id":"ce4bhnp2rcd13ifvqgvg","pricing_plan_id":"cebpf4jnsgd1na2vs0mg"},{"bike_id":"8f1aa438-a5e8-4237-858e-055758fbfb70","system_id":"levelo_inurba_marseille","lat":43.28444,"lon":5.39187,"is_reserved":false,"is_disabled":false,"rental_uris":{"android":"levelo://app?vid=8f1aa438-a5e8-4237-858e-055758fbfb70","ios":"levelo://app?vid=8f1aa438-a5e8-4237-858e-055758fbfb70"},"vehicle_type_id":"4","last_reported":1747167086,"current_range_meters":18000,"station_id":"ce4bhoh2rcd13ifvqh5g","pricing_plan_id":"cebpf4jnsgd1na2vs0mg"},{"bike_id":"e1b7877d-b413-4fd3-b7e0-fbf47c737189","system_id":"levelo_inurba_marseille","lat":43.28439,"lon":5.3919,"is_reserved":false,"is_disabled":false,"rental_uris":{"android":"levelo://app?vid=e1b7877d-b413-4fd3-b7e0-fbf47c737189","ios":"levelo://app?vid=e1b7877d-b413-4fd3-b7e0-fbf47c737189"},"vehicle_type_id":"4","last_reported":1747167086,"current_range_meters":18000,"station_id":"ce4bhoh2rcd13ifvqh5g","pricing_plan_id":"cebpf4jnsgd1na2vs0mg"},{"bike_id":"b4777d59-fc56-46ae-8a48-c6f6a5536c77","system_id":"levelo_inurba_marseille","lat":43.30328,"lon":5.40431,"is_reserved":false,"is_disabled":false,"rental_uris":{"android":"levelo://app?vid=b4777d59-fc56-46ae-8a48-c6f6a5536c77","ios":"levelo://app?vid=b4777d59-fc56-46ae-8a48-c6f6a5536c77"},"vehicle_type_id":"4","last_reported":1747167086,"current_range_meters":18800,"station_id":"ce4bh012rcd13ifvqd10","pricing_plan_id":"cebpf4jnsgd1na2vs0mg"},{"bike_id":"65a2976c-8b04-429a-95dd-f42d445408eb","system_id":"levelo_inurba_marseille","lat":43.28941,"lon":5.39628,"is_reserved":false,"is_disabled":false,"rental_uris":{"android":"levelo://app?vid=65a2976c-8b04-429a-95dd-f42d445408eb","ios":"levelo://app?vid=65a2976c-8b04-429a-95dd-f42d445408eb"},"vehicle_type_id":"4","last_reported":1747167086,"current_range_meters":18800,"station_id":"ce4bh3h2rcd13ifvqdn0","pricing_plan_id":"cebpf4jnsgd1na2vs0mg"},{"bike_id":"c7d8cc86-f6c3-444e-beda-9b84189fa24c","system_id":"levelo_inurba_marseille","lat":43.29095,"lon":5.38162,"is_reserved":false,"is_disabled":false,"rental_uris":{"android":"levelo://app?vid=c7d8cc86-f6c3-444e-beda-9b84189fa24c","ios":"levelo://app?vid=c7d8cc86-f6c3-444e-beda-9b84189fa24c"},"vehicle_type_id":"4","last_reported":1747167086,"current_range_meters":18800,"station_id":"ce4bh512rcd13ifvqe2g","pricing_plan_id":"cebpf4jnsgd1na2vs0mg"},{"bike_id":"36663150-8fda-4e11-8694-0d9960968d53","system_id":"levelo_inurba_marseille","lat":43.2873,"lon":5.37932,"is_reserved":false,"is_disabled":false,"rental_uris":{"android":"levelo://app?vid=36663150-8fda-4e11-8694-0d9960968d53","ios":"levelo://app?vid=36663150-8fda-4e11-8694-0d9960968d53"},"vehicle_type_id":"4","last_reported":1747167086,"current_range_meters":18800,"station_id":"ce4bh9p2rcd13ifvqec0","pricing_plan_id":"cebpf4jnsgd1na2vs0mg"},{"bike_id":"10f98a35-89c5-4475-9c01-49b1c98311db","system_id":"levelo_inurba_marseille","lat":43.27577,"lon":5.38427,"is_reserved":false,"is_disabled":false,"rental_uris":{"android":"levelo://app?vid=10f98a35-89c5-4475-9c01-49b1c98311db","ios":"levelo://app?vid=10f98a35-89c5-4475-9c01-49b1c98311db"},"vehicle_type_id":"4","last_reported":1747167086,"current_range_meters":18800,"station_id":"ce4bhh92rcd13ifvqfi0","pricing_plan_id":"cebpf4jnsgd1na2vs0mg"},{"bike_id":"c5a6038e-e242-4c42-a6da-186787771b16","system_id":"levelo_inurba_marseille","lat":43.21775,"lon":5.34621,"is_reserved":false,"is_disabled":false,"rental_uris":{"android":"levelo://app?vid=c5a6038e-e242-4c42-a6da-186787771b16","ios":"levelo://app?vid=c5a6038e-e242-4c42-a6da-186787771b16"},"vehicle_type_id":"4","last_reported":1747167086,"current_range_meters":18800,"station_id":"st_cvj6r9ubvosntc0bgbag","pricing_plan_id":"cebpf4jnsgd1na2vs0mg"},{"bike_id":"1988970f-7d22-47a2-9149-77d1376129ee","system_id":"levelo_inurba_marseille","lat":43.30603,"lon":5.37225,"is_reserved":false,"is_disabled":false,"rental_uris":{"android":"levelo://app?vid=1988970f-7d22-47a2-9149-77d1376129ee","ios":"levelo://app?vid=1988970f-7d22-47a2-9149-77d1376129ee"},"vehicle_type_id":"4","last_reported":1747167086,"current_range_meters":19200,"station_id":"ce4bgqh2rcd13ifvqc4g","pricing_plan_id":"cebpf4jnsgd1na2vs0mg"},{"bike_id":"b48d1d90-14b3-4824-b3c8-dd35e28ab957","system_id":"levelo_inurba_marseille","lat":43.30797,"lon":5.38144,"is_reserved":false,"is_disabled":false,"rental_uris":{"android":"levelo://app?vid=b48d1d90-14b3-4824-b3c8-dd35e28ab957","ios":"levelo://app?vid=b48d1d90-14b3-4824-b3c8-dd35e28ab957"},"vehicle_type_id":"4","last_reported":1747167086,"current_range_meters":19200,"station_id":"ce4bgt12rcd13ifvqce0","pricing_plan_id":"cebpf4jnsgd1na2vs0mg"},{"bike_id":"1e5a16c4-8cd9-4f2b-80f2-30ecf38f4617","system_id":"levelo_inurba_marseille","lat":43.28993,"lon":5.37833,"is_reserved":false,"is_disabled":false,"rental_uris":{"android":"levelo://app?vid=1e5a16c4-8cd9-4f2b-80f2-30ecf38f4617","ios":"levelo://app?vid=1e5a16c4-8cd9-4f2b-80f2-30ecf38f4617"},"vehicle_type_id":"4","last_reported":1747167086,"current_range_meters":19200,"station_id":"ce4bh9p2rcd13ifvqed0","pricing_plan_id":"cebpf4jnsgd1na2vs0mg"},{"bike_id":"a3ecf696-99e3-4564-9db0-ea6d6a4f4c9b","system_id":"levelo_inurba_marseille","lat":43.28953,"lon":5.36397,"is_reserved":false,"is_disabled":false,"rental_uris":{"android":"levelo://app?vid=a3ecf696-99e3-4564-9db0-ea6d6a4f4c9b","ios":"levelo://app?vid=a3ecf696-99e3-4564-9db0-ea6d6a4f4c9b"},"vehicle_type_id":"4","last_reported":1747167086,"current_range_meters":19200,"station_id":"ce4bhc92rcd13ifvqetg","pricing_plan_id":"cebpf4jnsgd1na2vs0mg"},{"bike_id":"29ce2bff-29c9-4638-a93d-53611c79a41e","system_id":"levelo_inurba_marseille","lat":43.32364,"lon":5.38884,"is_reserved":false,"is_disabled":false,"rental_uris":{"android":"levelo://app?vid=29ce2bff-29c9-4638-a93d-53611c79a41e","ios":"levelo://app?vid=29ce2bff-29c9-4638-a93d-53611c79a41e"},"vehicle_type_id":"4","last_reported":1747167086,"current_range_meters":19200,"station_id":"ce4bhqp2rcd13ifvqhog","pricing_plan_id":"cebpf4jnsgd1na2vs0mg"},{"bike_id":"4fc49f79-fa67-4460-a03b-8373ee1b7092","system_id":"levelo_inurba_marseille","lat":43.26809,"lon":5.40271,"is_reserved":false,"is_disabled":false,"rental_uris":{"android":"levelo://app?vid=4fc49f79-fa67-4460-a03b-8373ee1b7092","ios":"levelo://app?vid=4fc49f79-fa67-4460-a03b-8373ee1b7092"},"vehicle_type_id":"4","last_reported":1747167086,"current_range_meters":19200,"station_id":"ce501612rcd8frsf0b60","pricing_plan_id":"cebpf4jnsgd1na2vs0mg"},{"bike_id":"48a85a1b-c960-4bd3-b956-4d39760c4266","system_id":"levelo_inurba_marseille","lat":43.29867,"lon":5.39729,"is_reserved":false,"is_disabled":false,"rental_uris":{"android":"levelo://app?vid=48a85a1b-c960-4bd3-b956-4d39760c4266","ios":"levelo://app?vid=48a85a1b-c960-4bd3-b956-4d39760c4266"},"vehicle_type_id":"4","last_reported":1747167086,"current_range_meters":19600,"station_id":"ce4bh0h2rcd13ifvqd50","pricing_plan_id":"cebpf4jnsgd1na2vs0mg"},{"bike_id":"e1f49d6b-4e4e-4113-9f4e-900e9b695e3d","system_id":"levelo_inurba_marseille","lat":43.30645,"lon":5.40091,"is_reserved":false,"is_disabled":false,"rental_uris":{"android":"levelo://app?vid=e1f49d6b-4e4e-4113-9f4e-900e9b695e3d","ios":"levelo://app?vid=e1f49d6b-4e4e-4113-9f4e-900e9b695e3d"},"vehicle_type_id":"4","last_reported":1747167086,"current_range_meters":19600,"station_id":"ce4bh112rcd13ifvqda0","pricing_plan_id":"cebpf4jnsgd1na2vs0mg"},{"bike_id":"743d0d38-9a78-4c3b-bda7-0ebf8bc2b883","system_id":"levelo_inurba_marseille","lat":43.29182,"lon":5.39314,"is_reserved":false,"is_disabled":false,"rental_uris":{"android":"levelo://app?vid=743d0d38-9a78-4c3b-bda7-0ebf8bc2b883","ios":"levelo://app?vid=743d0d38-9a78-4c3b-bda7-0ebf8bc2b883"},"vehicle_type_id":"4","last_reported":1747167086,"current_range_meters":19600,"station_id":"ce4bh192rcd13ifvqdd0","pricing_plan_id":"cebpf4jnsgd1na2vs0mg"},{"bike_id":"69cb7592-dd5b-4b18-8846-ed832eb1e1b1","system_id":"levelo_inurba_marseille","lat":43.2847,"lon":5.38408,"is_reserved":false,"is_disabled":false,"rental_uris":{"android":"levelo://app?vid=69cb7592-dd5b-4b18-8846-ed832eb1e1b1","ios":"levelo://app?vid=69cb7592-dd5b-4b18-8846-ed832eb1e1b1"},"vehicle_type_id":"4","last_reported":1747167086,"current_range_meters":19600,"station_id":"ce4bh512rcd13ifvqe3g","pricing_plan_id":"cebpf4jnsgd1na2vs0mg"},{"bike_id":"2dc7545b-e674-4f76-95f2-6e39b1c1afb5","system_id":"levelo_inurba_marseille","lat":43.28495,"lon":5.3852,"is_reserved":false,"is_disabled":false,"rental_uris":{"android":"levelo://app?vid=2dc7545b-e674-4f76-95f2-6e39b1c1afb5","ios":"levelo://app?vid=2dc7545b-e674-4f76-95f2-6e39b1c1afb5"},"vehicle_type_id":"4","last_reported":1747167086,"current_range_meters":19600,"station_id":"ce4bh8p2rcd13ifvqeb0","pricing_plan_id":"cebpf4jnsgd1na2vs0mg"},{"bike_id":"5647a91f-31a6-41fb-82bb-83893a94fc73","system_id":"levelo_inurba_marseille","lat":43.21199,"lon":5.35077,"is_reserved":false,"is_disabled":false,"rental_uris":{"android":"levelo://app?vid=5647a91f-31a6-41fb-82bb-83893a94fc73","ios":"levelo://app?vid=5647a91f-31a6-41fb-82bb-83893a94fc73"},"vehicle_type_id":"4","last_reported":1747167086,"current_range_meters":19600,"station_id":"st_cvj6sg6p6f1abm77japg","pricing_plan_id":"cebpf4jnsgd1na2vs0mg"},{"bike_id":"c77744cd-dd85-473a-952b-e9873b6afa4f","system_id":"levelo_inurba_marseille","lat":43.33224,"lon":5.40449,"is_reserved":false,"is_disabled":false,"rental_uris":{"android":"levelo://app?vid=c77744cd-dd85-473a-952b-e9873b6afa4f","ios":"levelo://app?vid=c77744cd-dd85-473a-952b-e9873b6afa4f"},"vehicle_type_id":"4","last_reported":1747167086,"current_range_meters":20000,"station_id":"","pricing_plan_id":"cebpf4jnsgd1na2vs0mg"},{"bike_id":"c9afbd99-1cc6-4d13-b13a-3b5cc9cd77ca","system_id":"levelo_inurba_marseille","lat":43.27977,"lon":5.38736,"is_reserved":false,"is_disabled":false,"rental_uris":{"android":"levelo://app?vid=c9afbd99-1cc6-4d13-b13a-3b5cc9cd77ca","ios":"levelo://app?vid=c9afbd99-1cc6-4d13-b13a-3b5cc9cd77ca"},"vehicle_type_id":"4","last_reported":1747167086,"current_range_meters":20000,"station_id":"ce4bhg12rcd13ifvqf80","pricing_plan_id":"cebpf4jnsgd1na2vs0mg"},{"bike_id":"74d92721-fd5a-4fcb-b2ba-9f1b02fe0e9f","system_id":"levelo_inurba_marseille","lat":43.26058,"lon":5.39404,"is_reserved":false,"is_disabled":false,"rental_uris":{"android":"levelo://app?vid=74d92721-fd5a-4fcb-b2ba-9f1b02fe0e9f","ios":"levelo://app?vid=74d92721-fd5a-4fcb-b2ba-9f1b02fe0e9f"},"vehicle_type_id":"4","last_reported":1747167086,"current_range_meters":20000,"station_id":"ce4bhh92rcd13ifvqfj0","pricing_plan_id":"cebpf4jnsgd1na2vs0mg"},{"bike_id":"0d479c96-7f55-45e2-b309-1f9f02fc7258","system_id":"levelo_inurba_marseille","lat":43.24393,"lon":5.37055,"is_reserved":false,"is_disabled":false,"rental_uris":{"android":"levelo://app?vid=0d479c96-7f55-45e2-b309-1f9f02fc7258","ios":"levelo://app?vid=0d479c96-7f55-45e2-b309-1f9f02fc7258"},"vehicle_type_id":"4","last_reported":1747167086,"current_range_meters":20000,"station_id":"ce4bhhh2rcd13ifvqfk0","pricing_plan_id":"cebpf4jnsgd1na2vs0mg"},{"bike_id":"e0dc7fd3-060b-4939-852d-4188d76e8eca","system_id":"levelo_inurba_marseille","lat":43.27998,"lon":5.40031,"is_reserved":false,"is_disabled":false,"rental_uris":{"android":"levelo://app?vid=e0dc7fd3-060b-4939-852d-4188d76e8eca","ios":"levelo://app?vid=e0dc7fd3-060b-4939-852d-4188d76e8eca"},"vehicle_type_id":"4","last_reported":1747167086,"current_range_meters":20000,"station_id":"ce4bho92rcd13ifvqh4g","pricing_plan_id":"cebpf4jnsgd1na2vs0mg"},{"bike_id":"41534364-62ff-4459-92c4-4f300a43681b","system_id":"levelo_inurba_marseille","lat":43.28434,"lon":5.3917,"is_reserved":false,"is_disabled":false,"rental_uris":{"android":"levelo://app?vid=41534364-62ff-4459-92c4-4f300a43681b","ios":"levelo://app?vid=41534364-62ff-4459-92c4-4f300a43681b"},"vehicle_type_id":"4","last_reported":1747167086,"current_range_meters":20000,"station_id":"ce4bhoh2rcd13ifvqh5g","pricing_plan_id":"cebpf4jnsgd1na2vs0mg"},{"bike_id":"592b1784-8212-416e-bcb3-d3a4a8b2b9fe","system_id":"levelo_inurba_marseille","lat":43.30143,"lon":5.38072,"is_reserved":false,"is_disabled":false,"rental_uris":{"android":"levelo://app?vid=592b1784-8212-416e-bcb3-d3a4a8b2b9fe","ios":"levelo://app?vid=592b1784-8212-416e-bcb3-d3a4a8b2b9fe"},"vehicle_type_id":"4","last_reported":1747167086,"current_range_meters":20400,"station_id":"ce4bgjp2rcd13ifvqbh0","pricing_plan_id":"cebpf4jnsgd1na2vs0mg"},{"bike_id":"0b9607ef-f196-4c2a-a63c-3384ebed5fb2","system_id":"levelo_inurba_marseille","lat":43.2987,"lon":5.39736,"is_reserved":false,"is_disabled":false,"rental_uris":{"android":"levelo://app?vid=0b9607ef-f196-4c2a-a63c-3384ebed5fb2","ios":"levelo://app?vid=0b9607ef-f196-4c2a-a63c-3384ebed5fb2"},"vehicle_type_id":"4","last_reported":1747167086,"current_range_meters":20400,"station_id":"ce4bh0h2rcd13ifvqd50","pricing_plan_id":"cebpf4jnsgd1na2vs0mg"},{"bike_id":"ac0112c9-313e-422c-910b-a3523b05b0c9","system_id":"levelo_inurba_marseille","lat":43.23052,"lon":5.35485,"is_reserved":false,"is_disabled":false,"rental_uris":{"android":"levelo://app?vid=ac0112c9-313e-422c-910b-a3523b05b0c9","ios":"levelo://app?vid=ac0112c9-313e-422c-910b-a3523b05b0c9"},"vehicle_type_id":"4","last_reported":1747167086,"current_range_meters":20400,"station_id":"cpo3342slgdg3j2ifvpg","pricing_plan_id":"cebpf4jnsgd1na2vs0mg"},{"bike_id":"efefba7d-9a8f-4252-9bb1-3f66c7f2fb60","system_id":"levelo_inurba_marseille","lat":43.28696,"lon":5.37407,"is_reserved":false,"is_disabled":false,"rental_uris":{"android":"levelo://app?vid=efefba7d-9a8f-4252-9bb1-3f66c7f2fb60","ios":"levelo://app?vid=efefba7d-9a8f-4252-9bb1-3f66c7f2fb60"},"vehicle_type_id":"4","last_reported":1747167086,"current_range_meters":20800,"station_id":"ce4bh3p2rcd13ifvqdq0","pricing_plan_id":"cebpf4jnsgd1na2vs0mg"},{"bike_id":"63d3980f-9f12-4370-9341-ca14c8276a39","system_id":"levelo_inurba_marseille","lat":43.28936,"lon":5.36632,"is_reserved":false,"is_disabled":false,"rental_uris":{"android":"levelo://app?vid=63d3980f-9f12-4370-9341-ca14c8276a39","ios":"levelo://app?vid=63d3980f-9f12-4370-9341-ca14c8276a39"},"vehicle_type_id":"4","last_reported":1747167086,"current_range_meters":20800,"station_id":"ce4bhap2rcd13ifvqek0","pricing_plan_id":"cebpf4jnsgd1na2vs0mg"},{"bike_id":"99a0df19-ff50-4181-a67e-7744b85befd8","system_id":"levelo_inurba_marseille","lat":43.28938,"lon":5.36633,"is_reserved":false,"is_disabled":false,"rental_uris":{"android":"levelo://app?vid=99a0df19-ff50-4181-a67e-7744b85befd8","ios":"levelo://app?vid=99a0df19-ff50-4181-a67e-7744b85befd8"},"vehicle_type_id":"4","last_reported":1747167086,"current_range_meters":20800,"station_id":"ce4bhap2rcd13ifvqek0","pricing_plan_id":"cebpf4jnsgd1na2vs0mg"},{"bike_id":"000c0b13-a9a2-4019-bac1-98362dbbca8f","system_id":"levelo_inurba_marseille","lat":43.24068,"lon":5.37763,"is_reserved":false,"is_disabled":false,"rental_uris":{"android":"levelo://app?vid=000c0b13-a9a2-4019-bac1-98362dbbca8f","ios":"levelo://app?vid=000c0b13-a9a2-4019-bac1-98362dbbca8f"},"vehicle_type_id":"4","last_reported":1747167086,"current_range_meters":20800,"station_id":"ce4bhnp2rcd13ifvqgvg","pricing_plan_id":"cebpf4jnsgd1na2vs0mg"},{"bike_id":"f0649364-0107-4d97-ae7e-c2cb5ebd23f0","system_id":"levelo_inurba_marseille","lat":43.21751,"lon":5.34601,"is_reserved":false,"is_disabled":false,"rental_uris":{"android":"levelo://app?vid=f0649364-0107-4d97-ae7e-c2cb5ebd23f0","ios":"levelo://app?vid=f0649364-0107-4d97-ae7e-c2cb5ebd23f0"},"vehicle_type_id":"4","last_reported":1747167086,"current_range_meters":20800,"station_id":"st_cvj6r9ubvosntc0bgbag","pricing_plan_id":"cebpf4jnsgd1na2vs0mg"},{"bike_id":"e409cd08-b9c4-4d62-aefb-05d029e2c480","system_id":"levelo_inurba_marseille","lat":43.306643,"lon":5.428309,"is_reserved":false,"is_disabled":false,"rental_uris":{"android":"levelo://app?vid=e409cd08-b9c4-4d62-aefb-05d029e2c480","ios":"levelo://app?vid=e409cd08-b9c4-4d62-aefb-05d029e2c480"},"vehicle_type_id":"4","last_reported":1747167086,"current_range_meters":21600,"station_id":"","pricing_plan_id":"cebpf4jnsgd1na2vs0mg"},{"bike_id":"664ff2dc-909d-4141-9a7b-443aeb00a837","system_id":"levelo_inurba_marseille","lat":43.29364,"lon":5.37867,"is_reserved":false,"is_disabled":false,"rental_uris":{"android":"levelo://app?vid=664ff2dc-909d-4141-9a7b-443aeb00a837","ios":"levelo://app?vid=664ff2dc-909d-4141-9a7b-443aeb00a837"},"vehicle_type_id":"4","last_reported":1747167086,"current_range_meters":21600,"station_id":"ce4bgjh2rcd13ifvqbf0","pricing_plan_id":"cebpf4jnsgd1na2vs0mg"},{"bike_id":"12c9679e-e5b0-46a9-b7f8-376e6ba0958c","system_id":"levelo_inurba_marseille","lat":43.301066,"lon":5.38784,"is_reserved":false,"is_disabled":false,"rental_uris":{"android":"levelo://app?vid=12c9679e-e5b0-46a9-b7f8-376e6ba0958c","ios":"levelo://app?vid=12c9679e-e5b0-46a9-b7f8-376e6ba0958c"},"vehicle_type_id":"4","last_reported":1747167086,"current_range_meters":21600,"station_id":"ce4bgk12rcd13ifvqbi0","pricing_plan_id":"cebpf4jnsgd1na2vs0mg"},{"bike_id":"a8ebf646-4599-4dd0-98fe-36810e7d7f0f","system_id":"levelo_inurba_marseille","lat":43.2904,"lon":5.39958,"is_reserved":false,"is_disabled":false,"rental_uris":{"android":"levelo://app?vid=a8ebf646-4599-4dd0-98fe-36810e7d7f0f","ios":"levelo://app?vid=a8ebf646-4599-4dd0-98fe-36810e7d7f0f"},"vehicle_type_id":"4","last_reported":1747167086,"current_range_meters":21600,"station_id":"ce4bh392rcd13ifvqdm0","pricing_plan_id":"cebpf4jnsgd1na2vs0mg"},{"bike_id":"797628a2-62bf-4c3b-96ff-dc24c05bf932","system_id":"levelo_inurba_marseille","lat":43.28381,"lon":5.38622,"is_reserved":false,"is_disabled":false,"rental_uris":{"android":"levelo://app?vid=797628a2-62bf-4c3b-96ff-dc24c05bf932","ios":"levelo://app?vid=797628a2-62bf-4c3b-96ff-dc24c05bf932"},"vehicle_type_id":"4","last_reported":1747167086,"current_range_meters":21600,"station_id":"ce4bh492rcd13ifvqdvg","pricing_plan_id":"cebpf4jnsgd1na2vs0mg"},{"bike_id":"e486d79c-adad-4f84-8422-f92282ad57ce","system_id":"levelo_inurba_marseille","lat":43.27507,"lon":5.42446,"is_reserved":false,"is_disabled":false,"rental_uris":{"android":"levelo://app?vid=e486d79c-adad-4f84-8422-f92282ad57ce","ios":"levelo://app?vid=e486d79c-adad-4f84-8422-f92282ad57ce"},"vehicle_type_id":"4","last_reported":1747167086,"current_range_meters":21600,"station_id":"ce4bhn92rcd13ifvqgrg","pricing_plan_id":"cebpf4jnsgd1na2vs0mg"},{"bike_id":"e46528c9-be4d-4b17-9919-22ec681c2159","system_id":"levelo_inurba_marseille","lat":43.29934,"lon":5.38518,"is_reserved":false,"is_disabled":false,"rental_uris":{"android":"levelo://app?vid=e46528c9-be4d-4b17-9919-22ec681c2159","ios":"levelo://app?vid=e46528c9-be4d-4b17-9919-22ec681c2159"},"vehicle_type_id":"4","last_reported":1747167086,"current_range_meters":22000,"station_id":"","pricing_plan_id":"cebpf4jnsgd1na2vs0mg"},{"bike_id":"3c556755-ac60-44d0-90a1-0f8ad7175b3f","system_id":"levelo_inurba_marseille","lat":43.287512,"lon":5.3609,"is_reserved":false,"is_disabled":false,"rental_uris":{"android":"levelo://app?vid=3c556755-ac60-44d0-90a1-0f8ad7175b3f","ios":"levelo://app?vid=3c556755-ac60-44d0-90a1-0f8ad7175b3f"},"vehicle_type_id":"4","last_reported":1747167086,"current_range_meters":22000,"station_id":"","pricing_plan_id":"cebpf4jnsgd1na2vs0mg"},{"bike_id":"c6ae5c84-8a16-49e8-ad29-a6774b3d8cce","system_id":"levelo_inurba_marseille","lat":43.30951,"lon":5.39034,"is_reserved":false,"is_disabled":false,"rental_uris":{"android":"levelo://app?vid=c6ae5c84-8a16-49e8-ad29-a6774b3d8cce","ios":"levelo://app?vid=c6ae5c84-8a16-49e8-ad29-a6774b3d8cce"},"vehicle_type_id":"4","last_reported":1747167086,"current_range_meters":22000,"station_id":"ce4bgup2rcd13ifvqco0","pricing_plan_id":"cebpf4jnsgd1na2vs0mg"},{"bike_id":"9abf956f-330a-4b60-b728-d986a0d4748e","system_id":"levelo_inurba_marseille","lat":43.30657,"lon":5.401,"is_reserved":false,"is_disabled":false,"rental_uris":{"android":"levelo://app?vid=9abf956f-330a-4b60-b728-d986a0d4748e","ios":"levelo://app?vid=9abf956f-330a-4b60-b728-d986a0d4748e"},"vehicle_type_id":"4","last_reported":1747167086,"current_range_meters":22000,"station_id":"ce4bh112rcd13ifvqda0","pricing_plan_id":"cebpf4jnsgd1na2vs0mg"},{"bike_id":"23635e74-8bd1-446b-8828-461966d206bb","system_id":"levelo_inurba_marseille","lat":43.28583,"lon":5.39491,"is_reserved":false,"is_disabled":false,"rental_uris":{"android":"levelo://app?vid=23635e74-8bd1-446b-8828-461966d206bb","ios":"levelo://app?vid=23635e74-8bd1-446b-8828-461966d206bb"},"vehicle_type_id":"4","last_reported":1747167086,"current_range_meters":22000,"station_id":"ce4bh292rcd13ifvqdg0","pricing_plan_id":"cebpf4jnsgd1na2vs0mg"},{"bike_id":"29767f94-5e1b-4e57-9862-7c31eaf64131","system_id":"levelo_inurba_marseille","lat":43.28716,"lon":5.37931,"is_reserved":false,"is_disabled":false,"rental_uris":{"android":"levelo://app?vid=29767f94-5e1b-4e57-9862-7c31eaf64131","ios":"levelo://app?vid=29767f94-5e1b-4e57-9862-7c31eaf64131"},"vehicle_type_id":"4","last_reported":1747167086,"current_range_meters":22000,"station_id":"ce4bh9p2rcd13ifvqec0","pricing_plan_id":"cebpf4jnsgd1na2vs0mg"},{"bike_id":"51dbade9-328e-46fc-a05a-af1ee5e114c3","system_id":"levelo_inurba_marseille","lat":43.28456,"lon":5.35891,"is_reserved":false,"is_disabled":false,"rental_uris":{"android":"levelo://app?vid=51dbade9-328e-46fc-a05a-af1ee5e114c3","ios":"levelo://app?vid=51dbade9-328e-46fc-a05a-af1ee5e114c3"},"vehicle_type_id":"4","last_reported":1747167086,"current_range_meters":22000,"station_id":"ce4bhah2rcd13ifvqei0","pricing_plan_id":"cebpf4jnsgd1na2vs0mg"},{"bike_id":"5e76ef94-dc70-41b5-8ad2-2eb77225e75a","system_id":"levelo_inurba_marseille","lat":43.28084,"lon":5.39651,"is_reserved":false,"is_disabled":false,"rental_uris":{"android":"levelo://app?vid=5e76ef94-dc70-41b5-8ad2-2eb77225e75a","ios":"levelo://app?vid=5e76ef94-dc70-41b5-8ad2-2eb77225e75a"},"vehicle_type_id":"4","last_reported":1747167086,"current_range_meters":22000,"station_id":"ce4bho12rcd13ifvqh2g","pricing_plan_id":"cebpf4jnsgd1na2vs0mg"},{"bike_id":"820db3ff-ae0b-4971-8fd3-3ae79dcc4334","system_id":"levelo_inurba_marseille","lat":43.27119,"lon":5.40012,"is_reserved":false,"is_disabled":false,"rental_uris":{"android":"levelo://app?vid=820db3ff-ae0b-4971-8fd3-3ae79dcc4334","ios":"levelo://app?vid=820db3ff-ae0b-4971-8fd3-3ae79dcc4334"},"vehicle_type_id":"4","last_reported":1747167086,"current_range_meters":22400,"station_id":"","pricing_plan_id":"cebpf4jnsgd1na2vs0mg"},{"bike_id":"9c733f54-eaba-4610-9bb0-2d570cca99da","system_id":"levelo_inurba_marseille","lat":43.30305,"lon":5.39209,"is_reserved":false,"is_disabled":false,"rental_uris":{"android":"levelo://app?vid=9c733f54-eaba-4610-9bb0-2d570cca99da","ios":"levelo://app?vid=9c733f54-eaba-4610-9bb0-2d570cca99da"},"vehicle_type_id":"4","last_reported":1747167086,"current_range_meters":22400,"station_id":"ce4bgkh2rcd13ifvqbk0","pricing_plan_id":"cebpf4jnsgd1na2vs0mg"},{"bike_id":"1a8bbed0-20d8-4d56-8520-13cdbb546168","system_id":"levelo_inurba_marseille","lat":43.31329,"lon":5.39695,"is_reserved":false,"is_disabled":false,"rental_uris":{"android":"levelo://app?vid=1a8bbed0-20d8-4d56-8520-13cdbb546168","ios":"levelo://app?vid=1a8bbed0-20d8-4d56-8520-13cdbb546168"},"vehicle_type_id":"4","last_reported":1747167086,"current_range_meters":22400,"station_id":"ce4bgvp2rcd13ifvqcu0","pricing_plan_id":"cebpf4jnsgd1na2vs0mg"},{"bike_id":"bcb56f74-6cc3-4a92-a101-67e95a26760b","system_id":"levelo_inurba_marseille","lat":43.30886,"lon":5.39647,"is_reserved":false,"is_disabled":false,"rental_uris":{"android":"levelo://app?vid=bcb56f74-6cc3-4a92-a101-67e95a26760b","ios":"levelo://app?vid=bcb56f74-6cc3-4a92-a101-67e95a26760b"},"vehicle_type_id":"4","last_reported":1747167086,"current_range_meters":22400,"station_id":"ce4bh012rcd13ifvqcv0","pricing_plan_id":"cebpf4jnsgd1na2vs0mg"},{"bike_id":"55a82d97-745b-41fd-8dda-f8ea9e4d2f06","system_id":"levelo_inurba_marseille","lat":43.30138,"lon":5.39851,"is_reserved":false,"is_disabled":false,"rental_uris":{"android":"levelo://app?vid=55a82d97-745b-41fd-8dda-f8ea9e4d2f06","ios":"levelo://app?vid=55a82d97-745b-41fd-8dda-f8ea9e4d2f06"},"vehicle_type_id":"4","last_reported":1747167086,"current_range_meters":22400,"station_id":"ce4bh0h2rcd13ifvqd40","pricing_plan_id":"cebpf4jnsgd1na2vs0mg"},{"bike_id":"8f09fb9e-e93a-4e28-a502-e4e52e8cbb78","system_id":"levelo_inurba_marseille","lat":43.29283,"lon":5.4011,"is_reserved":false,"is_disabled":false,"rental_uris":{"android":"levelo://app?vid=8f09fb9e-e93a-4e28-a502-e4e52e8cbb78","ios":"levelo://app?vid=8f09fb9e-e93a-4e28-a502-e4e52e8cbb78"},"vehicle_type_id":"4","last_reported":1747167086,"current_range_meters":22400,"station_id":"ce4bh312rcd13ifvqdk0","pricing_plan_id":"cebpf4jnsgd1na2vs0mg"},{"bike_id":"5b76d150-17fa-4da0-8bfb-472197ebf3b7","system_id":"levelo_inurba_marseille","lat":43.28921,"lon":5.36649,"is_reserved":false,"is_disabled":false,"rental_uris":{"android":"levelo://app?vid=5b76d150-17fa-4da0-8bfb-472197ebf3b7","ios":"levelo://app?vid=5b76d150-17fa-4da0-8bfb-472197ebf3b7"},"vehicle_type_id":"4","last_reported":1747167086,"current_range_meters":22400,"station_id":"ce4bhap2rcd13ifvqek0","pricing_plan_id":"cebpf4jnsgd1na2vs0mg"},{"bike_id":"cffc9f34-83c2-4106-8712-f739dc730c58","system_id":"levelo_inurba_marseille","lat":43.24388,"lon":5.37062,"is_reserved":false,"is_disabled":false,"rental_uris":{"android":"levelo://app?vid=cffc9f34-83c2-4106-8712-f739dc730c58","ios":"levelo://app?vid=cffc9f34-83c2-4106-8712-f739dc730c58"},"vehicle_type_id":"4","last_reported":1747167086,"current_range_meters":22400,"station_id":"ce4bhhh2rcd13ifvqfk0","pricing_plan_id":"cebpf4jnsgd1na2vs0mg"},{"bike_id":"644511a3-94a8-4d9e-a99e-a8a4681f0634","system_id":"levelo_inurba_marseille","lat":43.24181,"lon":5.39732,"is_reserved":false,"is_disabled":false,"rental_uris":{"android":"levelo://app?vid=644511a3-94a8-4d9e-a99e-a8a4681f0634","ios":"levelo://app?vid=644511a3-94a8-4d9e-a99e-a8a4681f0634"},"vehicle_type_id":"4","last_reported":1747167086,"current_range_meters":22400,"station_id":"ce4bhn12rcd13ifvqgpg","pricing_plan_id":"cebpf4jnsgd1na2vs0mg"},{"bike_id":"47be8f39-ca18-45de-8567-d2eeed38c189","system_id":"levelo_inurba_marseille","lat":43.29793,"lon":5.39343,"is_reserved":false,"is_disabled":false,"rental_uris":{"android":"levelo://app?vid=47be8f39-ca18-45de-8567-d2eeed38c189","ios":"levelo://app?vid=47be8f39-ca18-45de-8567-d2eeed38c189"},"vehicle_type_id":"4","last_reported":1747167086,"current_range_meters":22400,"station_id":"chh1huq6cuj3fo74tm60","pricing_plan_id":"cebpf4jnsgd1na2vs0mg"},{"bike_id":"9c06be39-3c5f-4d0a-95bb-2e900bc5596f","system_id":"levelo_inurba_marseille","lat":43.29543,"lon":5.38538,"is_reserved":false,"is_disabled":false,"rental_uris":{"android":"levelo://app?vid=9c06be39-3c5f-4d0a-95bb-2e900bc5596f","ios":"levelo://app?vid=9c06be39-3c5f-4d0a-95bb-2e900bc5596f"},"vehicle_type_id":"4","last_reported":1747167086,"current_range_meters":22800,"station_id":"ce4bgih2rcd13ifvqba0","pricing_plan_id":"cebpf4jnsgd1na2vs0mg"},{"bike_id":"bd0b68c4-8938-4c30-8115-72aba296af61","system_id":"levelo_inurba_marseille","lat":43.30211,"lon":5.3947,"is_reserved":false,"is_disabled":false,"rental_uris":{"android":"levelo://app?vid=bd0b68c4-8938-4c30-8115-72aba296af61","ios":"levelo://app?vid=bd0b68c4-8938-4c30-8115-72aba296af61"},"vehicle_type_id":"4","last_reported":1747167086,"current_range_meters":22800,"station_id":"ce4bh0p2rcd13ifvqd70","pricing_plan_id":"cebpf4jnsgd1na2vs0mg"},{"bike_id":"df256e8b-0f32-4ca0-a063-4d9f5238874e","system_id":"levelo_inurba_marseille","lat":43.24684,"lon":5.38167,"is_reserved":false,"is_disabled":false,"rental_uris":{"android":"levelo://app?vid=df256e8b-0f32-4ca0-a063-4d9f5238874e","ios":"levelo://app?vid=df256e8b-0f32-4ca0-a063-4d9f5238874e"},"vehicle_type_id":"4","last_reported":1747167086,"current_range_meters":22800,"station_id":"ce4bhih2rcd13ifvqfr0","pricing_plan_id":"cebpf4jnsgd1na2vs0mg"},{"bike_id":"4af5d4d0-00f7-4445-9b23-85e2211ad8e8","system_id":"levelo_inurba_marseille","lat":43.31756,"lon":5.39014,"is_reserved":false,"is_disabled":false,"rental_uris":{"android":"levelo://app?vid=4af5d4d0-00f7-4445-9b23-85e2211ad8e8","ios":"levelo://app?vid=4af5d4d0-00f7-4445-9b23-85e2211ad8e8"},"vehicle_type_id":"4","last_reported":1747167086,"current_range_meters":22800,"station_id":"ce4bhqp2rcd13ifvqhng","pricing_plan_id":"cebpf4jnsgd1na2vs0mg"},{"bike_id":"5afb1f3e-e240-48ee-8f94-39ce8192a7f1","system_id":"levelo_inurba_marseille","lat":43.32478,"lon":5.36559,"is_reserved":false,"is_disabled":false,"rental_uris":{"android":"levelo://app?vid=5afb1f3e-e240-48ee-8f94-39ce8192a7f1","ios":"levelo://app?vid=5afb1f3e-e240-48ee-8f94-39ce8192a7f1"},"vehicle_type_id":"4","last_reported":1747167086,"current_range_meters":22800,"station_id":"ce4bhs12rcd13ifvqhvg","pricing_plan_id":"cebpf4jnsgd1na2vs0mg"},{"bike_id":"08a93b84-f9e2-4480-b23a-2ee7a592645e","system_id":"levelo_inurba_marseille","lat":43.21737,"lon":5.34614,"is_reserved":false,"is_disabled":false,"rental_uris":{"android":"levelo://app?vid=08a93b84-f9e2-4480-b23a-2ee7a592645e","ios":"levelo://app?vid=08a93b84-f9e2-4480-b23a-2ee7a592645e"},"vehicle_type_id":"4","last_reported":1747167086,"current_range_meters":22800,"station_id":"st_cvj6r9ubvosntc0bgbag","pricing_plan_id":"cebpf4jnsgd1na2vs0mg"},{"bike_id":"1d238f1f-607e-4ebd-9660-afc6d1b15a3a","system_id":"levelo_inurba_marseille","lat":43.29597,"lon":5.38099,"is_reserved":false,"is_disabled":false,"rental_uris":{"android":"levelo://app?vid=1d238f1f-607e-4ebd-9660-afc6d1b15a3a","ios":"levelo://app?vid=1d238f1f-607e-4ebd-9660-afc6d1b15a3a"},"vehicle_type_id":"4","last_reported":1747167086,"current_range_meters":23200,"station_id":"ce4bgl12rcd13ifvqbo0","pricing_plan_id":"cebpf4jnsgd1na2vs0mg"},{"bike_id":"b6df1ef4-d5f7-49cc-b6d6-45e21292bd56","system_id":"levelo_inurba_marseille","lat":43.30777,"lon":5.37652,"is_reserved":false,"is_disabled":false,"rental_uris":{"android":"levelo://app?vid=b6df1ef4-d5f7-49cc-b6d6-45e21292bd56","ios":"levelo://app?vid=b6df1ef4-d5f7-49cc-b6d6-45e21292bd56"},"vehicle_type_id":"4","last_reported":1747167086,"current_range_meters":23200,"station_id":"ce4bgv92rcd13ifvqcq0","pricing_plan_id":"cebpf4jnsgd1na2vs0mg"},{"bike_id":"6d0ce780-d5a2-4ed6-85b8-d9c235fd41d0","system_id":"levelo_inurba_marseille","lat":43.29204,"lon":5.39313,"is_reserved":false,"is_disabled":false,"rental_uris":{"android":"levelo://app?vid=6d0ce780-d5a2-4ed6-85b8-d9c235fd41d0","ios":"levelo://app?vid=6d0ce780-d5a2-4ed6-85b8-d9c235fd41d0"},"vehicle_type_id":"4","last_reported":1747167086,"current_range_meters":23200,"station_id":"ce4bh192rcd13ifvqdd0","pricing_plan_id":"cebpf4jnsgd1na2vs0mg"},{"bike_id":"b43e7970-49ac-41f1-9a78-deec10243f6a","system_id":"levelo_inurba_marseille","lat":43.29573,"lon":5.39966,"is_reserved":false,"is_disabled":false,"rental_uris":{"android":"levelo://app?vid=b43e7970-49ac-41f1-9a78-deec10243f6a","ios":"levelo://app?vid=b43e7970-49ac-41f1-9a78-deec10243f6a"},"vehicle_type_id":"4","last_reported":1747167086,"current_range_meters":23200,"station_id":"ce4bh312rcd13ifvqdj0","pricing_plan_id":"cebpf4jnsgd1na2vs0mg"},{"bike_id":"84cb6767-3eec-4008-94f2-cf384810ff36","system_id":"levelo_inurba_marseille","lat":43.28939,"lon":5.39626,"is_reserved":false,"is_disabled":false,"rental_uris":{"android":"levelo://app?vid=84cb6767-3eec-4008-94f2-cf384810ff36","ios":"levelo://app?vid=84cb6767-3eec-4008-94f2-cf384810ff36"},"vehicle_type_id":"4","last_reported":1747167086,"current_range_meters":23200,"station_id":"ce4bh3h2rcd13ifvqdn0","pricing_plan_id":"cebpf4jnsgd1na2vs0mg"},{"bike_id":"d8986884-20dc-4d81-b647-e94ce50bb841","system_id":"levelo_inurba_marseille","lat":43.28347,"lon":5.3811,"is_reserved":false,"is_disabled":false,"rental_uris":{"android":"levelo://app?vid=d8986884-20dc-4d81-b647-e94ce50bb841","ios":"levelo://app?vid=d8986884-20dc-4d81-b647-e94ce50bb841"},"vehicle_type_id":"4","last_reported":1747167086,"current_range_meters":23200,"station_id":"ce4bh412rcd13ifvqdr0","pricing_plan_id":"cebpf4jnsgd1na2vs0mg"},{"bike_id":"aaa0bc89-38f2-4fee-8f6b-705a772db6b6","system_id":"levelo_inurba_marseille","lat":43.33614,"lon":5.41025,"is_reserved":false,"is_disabled":false,"rental_uris":{"android":"levelo://app?vid=aaa0bc89-38f2-4fee-8f6b-705a772db6b6","ios":"levelo://app?vid=aaa0bc89-38f2-4fee-8f6b-705a772db6b6"},"vehicle_type_id":"4","last_reported":1747167086,"current_range_meters":23200,"station_id":"ce4bhqh2rcd13ifvqhmg","pricing_plan_id":"cebpf4jnsgd1na2vs0mg"},{"bike_id":"64824209-6cba-4c12-875a-1502c403c27a","system_id":"levelo_inurba_marseille","lat":43.21219,"lon":5.35091,"is_reserved":false,"is_disabled":false,"rental_uris":{"android":"levelo://app?vid=64824209-6cba-4c12-875a-1502c403c27a","ios":"levelo://app?vid=64824209-6cba-4c12-875a-1502c403c27a"},"vehicle_type_id":"4","last_reported":1747167086,"current_range_meters":23200,"station_id":"st_cvj6sg6p6f1abm77japg","pricing_plan_id":"cebpf4jnsgd1na2vs0mg"},{"bike_id":"1ea2f5c1-c00f-4b63-ac3e-d9a38e876a16","system_id":"levelo_inurba_marseille","lat":43.30439,"lon":5.36857,"is_reserved":false,"is_disabled":false,"rental_uris":{"android":"levelo://app?vid=1ea2f5c1-c00f-4b63-ac3e-d9a38e876a16","ios":"levelo://app?vid=1ea2f5c1-c00f-4b63-ac3e-d9a38e876a16"},"vehicle_type_id":"4","last_reported":1747167086,"current_range_meters":24000,"station_id":"","pricing_plan_id":"cebpf4jnsgd1na2vs0mg"},{"bike_id":"e9aa045c-dd51-4ddc-96de-6d21e9cf2b19","system_id":"levelo_inurba_marseille","lat":43.31179,"lon":5.38687,"is_reserved":false,"is_disabled":false,"rental_uris":{"android":"levelo://app?vid=e9aa045c-dd51-4ddc-96de-6d21e9cf2b19","ios":"levelo://app?vid=e9aa045c-dd51-4ddc-96de-6d21e9cf2b19"},"vehicle_type_id":"4","last_reported":1747167086,"current_range_meters":24000,"station_id":"ce4bgv12rcd13ifvqcp0","pricing_plan_id":"cebpf4jnsgd1na2vs0mg"},{"bike_id":"18390de1-74db-4a8b-b01f-d1b554da47c1","system_id":"levelo_inurba_marseille","lat":43.309288,"lon":5.401525,"is_reserved":false,"is_disabled":false,"rental_uris":{"android":"levelo://app?vid=18390de1-74db-4a8b-b01f-d1b554da47c1","ios":"levelo://app?vid=18390de1-74db-4a8b-b01f-d1b554da47c1"},"vehicle_type_id":"4","last_reported":1747167086,"current_range_meters":24000,"station_id":"ce4bgvp2rcd13ifvqct0","pricing_plan_id":"cebpf4jnsgd1na2vs0mg"},{"bike_id":"e7dcbeb4-0076-449a-8227-8ca1d6a8d38e","system_id":"levelo_inurba_marseille","lat":43.31328,"lon":5.39689,"is_reserved":false,"is_disabled":false,"rental_uris":{"android":"levelo://app?vid=e7dcbeb4-0076-449a-8227-8ca1d6a8d38e","ios":"levelo://app?vid=e7dcbeb4-0076-449a-8227-8ca1d6a8d38e"},"vehicle_type_id":"4","last_reported":1747167086,"current_range_meters":24000,"station_id":"ce4bgvp2rcd13ifvqcu0","pricing_plan_id":"cebpf4jnsgd1na2vs0mg"},{"bike_id":"bddf82a1-3fc6-4d4c-81f4-5f35b557ed7f","system_id":"levelo_inurba_marseille","lat":43.30136,"lon":5.39859,"is_reserved":false,"is_disabled":false,"rental_uris":{"android":"levelo://app?vid=bddf82a1-3fc6-4d4c-81f4-5f35b557ed7f","ios":"levelo://app?vid=bddf82a1-3fc6-4d4c-81f4-5f35b557ed7f"},"vehicle_type_id":"4","last_reported":1747167086,"current_range_meters":24000,"station_id":"ce4bh0h2rcd13ifvqd40","pricing_plan_id":"cebpf4jnsgd1na2vs0mg"},{"bike_id":"4413fce3-23e6-4113-92bf-f862327d7967","system_id":"levelo_inurba_marseille","lat":43.28348,"lon":5.381,"is_reserved":false,"is_disabled":false,"rental_uris":{"android":"levelo://app?vid=4413fce3-23e6-4113-92bf-f862327d7967","ios":"levelo://app?vid=4413fce3-23e6-4113-92bf-f862327d7967"},"vehicle_type_id":"4","last_reported":1747167086,"current_range_meters":24000,"station_id":"ce4bh412rcd13ifvqdr0","pricing_plan_id":"cebpf4jnsgd1na2vs0mg"},