{"last_updated":1734368977,"ttl":60,"version":"2.2","data":{"bikes":[{"bike_id":"42c22991-bbb2-4c12-ab0d-47d496460860","system_id":"levelo_inurba_marseille","lat":43.2763,"lon":5.36116,"is_reserved":false,"is_disabled":false,"rental_uris":{"android":"levelo://app?vid=42c22991-bbb2-4c12-ab0d-47d496460860","ios":"levelo://app?vid=42c22991-bbb2-4c12-ab0d-47d496460860"},"vehicle_type_id":"4","last_reported":1734368977,"current_range_meters":17200,"station_id":"ce4bgj92rcd13ifvqbe0","pricing_plan_id":"cebpf4jnsgd1na2vs0mg"},{"bike_id":"d2f4efdc-75b4-46e2-848c-2ed0eefaad5d","system_id":"levelo_inurba_marseille","lat":43.283386,"lon":5.39266,"is_reserved":false,"is_disabled":false,"rental_uris":{"android":"levelo://app?vid=d2f4efdc-75b4-46e2-848c-2ed0eefaad5d","ios":"levelo://app?vid=d2f4efdc-75b4-46e2-848c-2ed0eefaad5d"},"vehicle_type_id":"4","last_reported":1734368977,"current_range_meters":28800,"station_id":"","pricing_plan_id":"cebpf4jnsgd1na2vs0mg"},{"bike_id":"0023d6bb-4c05-499a-a536-0d1fe1bae8e5","system_id":"levelo_inurba_marseille","lat":43.29306,"lon":5.37461,"is_reserved":false,"is_disabled":false,"rental_uris":{"android":"levelo://app?vid=0023d6bb-4c05-499a-a536-0d1fe1bae8e5","ios":"levelo://app?vid=0023d6bb-4c05-499a-a536-0d1fe1bae8e5"},"vehicle_type_id":"4","last_reported":1734368977,"current_range_meters":8400,"station_id":"ce4bgi12rcd13ifvqb70","pricing_plan_id":"cebpf4jnsgd1na2vs0mg"},{"bike_id":"1ed6363d-ab29-4ab7-ba53-f6e96609d13e","system_id":"levelo_inurba_marseille","lat":43.27175,"lon":5.40993,"is_reserved":false,"is_disabled":false,"rental_uris":{"android":"levelo://app?vid=1ed6363d-ab29-4ab7-ba53-f6e96609d13e","ios":"levelo://app?vid=1ed6363d-ab29-4ab7-ba53-f6e96609d13e"},"vehicle_type_id":"4","last_reported":1734368977,"current_range_meters":19200,"station_id":"ce4bhl12rcd13ifvqgf0","pricing_plan_id":"cebpf4jnsgd1na2vs0mg"},{"bike_id":"e58c6c64-507a-403c-9284-4c450764020c","system_id":"levelo_inurba_marseille","lat":43.32345,"lon":5.40619,"is_reserved":false,"is_disabled":false,"rental_uris":{"android":"levelo://app?vid=e58c6c64-507a-403c-9284-4c450764020c","ios":"levelo://app?vid=e58c6c64-507a-403c-9284-4c450764020c"},"vehicle_type_id":"4","last_reported":1734368977,"current_range_meters":3200,"station_id":"ce4bhq92rcd13ifvqhjg","pricing_plan_id":"cebpf4jnsgd1na2vs0mg"},{"bike_id":"6a542b5e-aa6d-4c02-9462-27580e2b7e4b","system_id":"levelo_inurba_marseille","lat":43.2988,"lon":5.3974,"is_reserved":false,"is_disabled":false,"rental_uris":{"android":"levelo://app?vid=6a542b5e-aa6d-4c02-9462-27580e2b7e4b","ios":"levelo://app?vid=6a542b5e-aa6d-4c02-9462-27580e2b7e4b"},"vehicle_type_id":"4","last_reported":1734368977,"current_range_meters":38800,"station_id":"ce4bh0h2rcd13ifvqd50","pricing_plan_id":"cebpf4jnsgd1na2vs0mg"},{"bike_id":"ed8635a9-8a62-4be7-9d4b-a4dbff1f7c6d","system_id":"levelo_inurba_marseille","lat":43.28519,"lon":5.38023,"is_reserved":false,"is_disabled":true,"rental_uris":{"android":"levelo://app?vid=ed8635a9-8a62-4be7-9d4b-a4dbff1f7c6d","ios":"levelo://app?vid=ed8635a9-8a62-4be7-9d4b-a4dbff1f7c6d"},"vehicle_type_id":"4","last_reported":1734368977,"current_range_meters":24400,"station_id":"","pricing_plan_id":"cebpf4jnsgd1na2vs0mg"},{"bike_id":"f635c2d0-ddd0-4500-9137-3329a456ad5e","system_id":"levelo_inurba_marseille","lat":43.2694,"lon":5.40243,"is_reserved":false,"is_disabled":false,"rental_uris":{"android":"levelo://app?vid=f635c2d0-ddd0-4500-9137-3329a456ad5e","ios":"levelo://app?vid=f635c2d0-ddd0-4500-9137-3329a456ad5e"},"vehicle_type_id":"4","last_reported":1734368977,"current_range_meters":37600,"station_id":"cjm6bp8fraef2m0cb0m0","pricing_plan_id":"cebpf4jnsgd1na2vs0mg"},{"bike_id":"b1141b56-3e7b-49ed-8c3a-fdb8940f3e60","system_id":"levelo_inurba_marseille","lat":43.30015,"lon":5.37706,"is_reserved":false,"is_disabled":true,"rental_uris":{"android":"levelo://app?vid=b1141b56-3e7b-49ed-8c3a-fdb8940f3e60","ios":"levelo://app?vid=b1141b56-3e7b-49ed-8c3a-fdb8940f3e60"},"vehicle_type_id":"4","last_reported":1734368977,"current_range_meters":9600,"station_id":"","pricing_plan_id":"cebpf4jnsgd1na2vs0mg"},{"bike_id":"1a44d6c7-4ab0-468e-885d-abd5d129c4c1","system_id":"levelo_inurba_marseille","lat":43.27999,"lon":5.40008,"is_reserved":false,"is_disabled":false,"rental_uris":{"android":"levelo://app?vid=1a44d6c7-4ab0-468e-885d-abd5d129c4c1","ios":"levelo://app?vid=1a44d6c7-4ab0-468e-885d-abd5d129c4c1"},"vehicle_type_id":"4","last_reported":1734368977,"current_range_meters":16000,"station_id":"ce4bho92rcd13ifvqh4g","pricing_plan_id":"cebpf4jnsgd1na2vs0mg"},{"bike_id":"f2becf00-bec2-445b-8f2d-7eb79048b5c6","system_id":"levelo_inurba_marseille","lat":43.29879,"lon":5.39734,"is_reserved":false,"is_disabled":false,"rental_uris":{"android":"levelo://app?vid=f2becf00-bec2-445b-8f2d-7eb79048b5c6","ios":"levelo://app?vid=f2becf00-bec2-445b-8f2d-7eb79048b5c6"},"vehicle_type_id":"4","last_reported":1734368977,"current_range_meters":24000,"station_id":"ce4bh0h2rcd13ifvqd50","pricing_plan_id":"cebpf4jnsgd1na2vs0mg"},{"bike_id":"10086f5f-eb94-421a-8247-01c4a38e23de","system_id":"levelo_inurba_marseille","lat":43.26786,"lon":5.39928,"is_reserved":false,"is_disabled":true,"rental_uris":{"android":"levelo://app?vid=10086f5f-eb94-421a-8247-01c4a38e23de","ios":"levelo://app?vid=10086f5f-eb94-421a-8247-01c4a38e23de"},"vehicle_type_id":"4","last_reported":1734368977,"current_range_meters":0,"station_id":"","pricing_plan_id":"cebpf4jnsgd1na2vs0mg"},{"bike_id":"5a0471c3-d871-4c27-b65e-9e6e90f8779d","system_id":"levelo_inurba_marseille","lat":43.27071,"lon":5.40232,"is_reserved":false,"is_disabled":true,"rental_uris":{"android":"levelo://app?vid=5a0471c3-d871-4c27-b65e-9e6e90f8779d","ios":"levelo://app?vid=5a0471c3-d871-4c27-b65e-9e6e90f8779d"},"vehicle_type_id":"4","last_reported":1734368977,"current_range_meters":0,"station_id":"ce4bhk92rcd13ifvqgc0","pricing_plan_id":"cebpf4jnsgd1na2vs0mg"},{"bike_id":"19b63edb-b49d-48d7-a32f-d786a72a8236","system_id":"levelo_inurba_marseille","lat":43.28499,"lon":5.350771,"is_reserved":false,"is_disabled":false,"rental_uris":{"android":"levelo://app?vid=19b63edb-b49d-48d7-a32f-d786a72a8236","ios":"levelo://app?vid=19b63edb-b49d-48d7-a32f-d786a72a8236"},"vehicle_type_id":"4","last_reported":1734368977,"current_range_meters":32800,"station_id":"","pricing_plan_id":"cebpf4jnsgd1na2vs0mg"},{"bike_id":"b2ec34f9-a539-4054-94dd-2940a3d1cf8f","system_id":"levelo_inurba_marseille","lat":43.30535,"lon":5.36543,"is_reserved":false,"is_disabled":true,"rental_uris":{"android":"levelo://app?vid=b2ec34f9-a539-4054-94dd-2940a3d1cf8f","ios":"levelo://app?vid=b2ec34f9-a539-4054-94dd-2940a3d1cf8f"},"vehicle_type_id":"4","last_reported":1734368977,"current_range_meters":1200,"station_id":"ce4bgs12rcd13ifvqcag","pricing_plan_id":"cebpf4jnsgd1na2vs0mg"},{"bike_id":"287a49c8-ff18-4b55-92f6-d90d5a3f7a19","system_id":"levelo_inurba_marseille","lat":43.2407,"lon":5.37759,"is_reserved":false,"is_disabled":false,"rental_uris":{"android":"levelo://app?vid=287a49c8-ff18-4b55-92f6-d90d5a3f7a19","ios":"levelo://app?vid=287a49c8-ff18-4b55-92f6-d90d5a3f7a19"},"vehicle_type_id":"4","last_reported":1734368977,"current_range_meters":19600,"station_id":"ce4bhnp2rcd13ifvqgvg","pricing_plan_id":"cebpf4jnsgd1na2vs0mg"},{"bike_id":"b76ce2aa-8145-43b4-8273-284dc7c67302","system_id":"levelo_inurba_marseille","lat":43.29299,"lon":5.37457,"is_reserved":false,"is_disabled":false,"rental_uris":{"android":"levelo://app?vid=b76ce2aa-8145-43b4-8273-284dc7c67302","ios":"levelo://app?vid=b76ce2aa-8145-43b4-8273-284dc7c67302"},"vehicle_type_id":"4","last_reported":1734368977,"current_range_meters":16000,"station_id":"ce4bgi12rcd13ifvqb70","pricing_plan_id":"cebpf4jnsgd1na2vs0mg"},{"bike_id":"371f53d4-97c1-4517-98db-12fda4440840","system_id":"levelo_inurba_marseille","lat":43.29261,"lon":5.40918,"is_reserved":false,"is_disabled":true,"rental_uris":{"android":"levelo://app?vid=371f53d4-97c1-4517-98db-12fda4440840","ios":"levelo://app?vid=371f53d4-97c1-4517-98db-12fda4440840"},"vehicle_type_id":"4","last_reported":1734368977,"current_range_meters":0,"station_id":"ce4bh192rcd13ifvqdc0","pricing_plan_id":"cebpf4jnsgd1na2vs0mg"},{"bike_id":"dbd75cdf-5d47-4d70-914a-6f753c2221fb","system_id":"levelo_inurba_marseille","lat":43.29637,"lon":5.37286,"is_reserved":false,"is_disabled":false,"rental_uris":{"android":"levelo://app?vid=dbd75cdf-5d47-4d70-914a-6f753c2221fb","ios":"levelo://app?vid=dbd75cdf-5d47-4d70-914a-6f753c2221fb"},"vehicle_type_id":"4","last_reported":1734368977,"current_range_meters":34800,"station_id":"ce4bgk12rcd13ifvqbj0","pricing_plan_id":"cebpf4jnsgd1na2vs0mg"},{"bike_id":"9bcf0fb6-06a3-4951-bc23-10f9ee31f8a9","system_id":"levelo_inurba_marseille","lat":43.29625,"lon":5.37169,"is_reserved":false,"is_disabled":false,"rental_uris":{"android":"levelo://app?vid=9bcf0fb6-06a3-4951-bc23-10f9ee31f8a9","ios":"levelo://app?vid=9bcf0fb6-06a3-4951-bc23-10f9ee31f8a9"},"vehicle_type_id":"4","last_reported":1734368977,"current_range_meters":38800,"station_id":"ce4bgnh2rcd13ifvqc0g","pricing_plan_id":"cebpf4jnsgd1na2vs0mg"},{"bike_id":"fbf6652e-8feb-4911-b497-973d04134b6b","system_id":"levelo_inurba_marseille","lat":43.28571,"lon":5.39485,"is_reserved":false,"is_disabled":false,"rental_uris":{"android":"levelo://app?vid=fbf6652e-8feb-4911-b497-973d04134b6b","ios":"levelo://app?vid=fbf6652e-8feb-4911-b497-973d04134b6b"},"vehicle_type_id":"4","last_reported":1734368977,"current_range_meters":8400,"station_id":"ce4bh292rcd13ifvqdg0","pricing_plan_id":"cebpf4jnsgd1na2vs0mg"},{"bike_id":"a13f79de-cca7-4be9-974d-7ec618739279","system_id":"levelo_inurba_marseille","lat":43.30845,"lon":5.37217,"is_reserved":false,"is_disabled":false,"rental_uris":{"android":"levelo://app?vid=a13f79de-cca7-4be9-974d-7ec618739279","ios":"levelo://app?vid=a13f79de-cca7-4be9-974d-7ec618739279"},"vehicle_type_id":"4","last_reported":1734368977,"current_range_meters":14800,"station_id":"","pricing_plan_id":"cebpf4jnsgd1na2vs0mg"},{"bike_id":"9b0ef8c2-d802-4af7-85be-19ac6f7427b5","system_id":"levelo_inurba_marseille","lat":43.29883,"lon":5.38905,"is_reserved":false,"is_disabled":false,"rental_uris":{"android":"levelo://app?vid=9b0ef8c2-d802-4af7-85be-19ac6f7427b5","ios":"levelo://app?vid=9b0ef8c2-d802-4af7-85be-19ac6f7427b5"},"vehicle_type_id":"4","last_reported":1734368977,"current_range_meters":9200,"station_id":"ce4bh392rcd13ifvqdl0","pricing_plan_id":"cebpf4jnsgd1na2vs0mg"},{"bike_id":"282992ba-afb7-43c6-8bd4-9eaae354c973","system_id":"levelo_inurba_marseille","lat":43.29631,"lon":5.40588,"is_reserved":false,"is_disabled":false,"rental_uris":{"android":"levelo://app?vid=282992ba-afb7-43c6-8bd4-9eaae354c973","ios":"levelo://app?vid=282992ba-afb7-43c6-8bd4-9eaae354c973"},"vehicle_type_id":"4","last_reported":1734368977,"current_range_meters":18000,"station_id":"ce4bhqp2rcd13ifvqhng","pricing_plan_id":"cebpf4jnsgd1na2vs0mg"},{"bike_id":"a716bf4a-483b-4082-8d5e-a159c3e6bcca","system_id":"levelo_inurba_marseille","lat":43.29964,"lon":5.4132,"is_reserved":false,"is_disabled":true,"rental_uris":{"android":"levelo://app?vid=a716bf4a-483b-4082-8d5e-a159c3e6bcca","ios":"levelo://app?vid=a716bf4a-483b-4082-8d5e-a159c3e6bcca"},"vehicle_type_id":"4","last_reported":1734368977,"current_range_meters":33600,"station_id":"ce4bhp12rcd13ifvqh9g","pricing_plan_id":"cebpf4jnsgd1na2vs0mg"},{"bike_id":"2a5c658c-9ea7-4fbc-af23-ab7737142489","system_id":"levelo_inurba_marseille","lat":43.29571,"lon":5.39986,"is_reserved":false,"is_disabled":false,"rental_uris":{"android":"levelo://app?vid=2a5c658c-9ea7-4fbc-af23-ab7737142489","ios":"levelo://app?vid=2a5c658c-9ea7-4fbc-af23-ab7737142489"},"vehicle_type_id":"4","last_reported":1734368977,"current_range_meters":37600,"station_id":"ce4bh312rcd13ifvqdj0","pricing_plan_id":"cebpf4jnsgd1na2vs0mg"},{"bike_id":"75979f35-52fb-4ff9-aef4-c293842957ed","system_id":"levelo_inurba_marseille","lat":43.3254,"lon":5.41441,"is_reserved":false,"is_disabled":true,"rental_uris":{"android":"levelo://app?vid=75979f35-52fb-4ff9-aef4-c293842957ed","ios":"levelo://app?vid=75979f35-52fb-4ff9-aef4-c293842957ed"},"vehicle_type_id":"4","last_reported":1734368977,"current_range_meters":36800,"station_id":"ce4bhq12rcd13ifvqhhg","pricing_plan_id":"cebpf4jnsgd1na2vs0mg"},{"bike_id":"434843cf-9364-4dd4-8d3c-6f995f6c8fa3","system_id":"levelo_inurba_marseille","lat":43.23074,"lon":5.35513,"is_reserved":false,"is_disabled":false,"rental_uris":{"android":"levelo://app?vid=434843cf-9364-4dd4-8d3c-6f995f6c8fa3","ios":"levelo://app?vid=434843cf-9364-4dd4-8d3c-6f995f6c8fa3"},"vehicle_type_id":"4","last_reported":1734368977,"current_range_meters":27600,"station_id":"cpo3342slgdg3j2ifvpg","pricing_plan_id":"cebpf4jnsgd1na2vs0mg"},{"bike_id":"01dd261f-922b-4db8-a73b-009ae8f8ee61","system_id":"levelo_inurba_marseille","lat":43.30799,"lon":5.38008,"is_reserved":false,"is_disabled":false,"rental_uris":{"android":"levelo://app?vid=01dd261f-922b-4db8-a73b-009ae8f8ee61","ios":"levelo://app?vid=01dd261f-922b-4db8-a73b-009ae8f8ee61"},"vehicle_type_id":"4","last_reported":1734368977,"current_range_meters":11600,"station_id":"","pricing_plan_id":"cebpf4jnsgd1na2vs0mg"},{"bike_id":"cd132346-6958-4a6c-b87c-a5a1725dfbb3","system_id":"levelo_inurba_marseille","lat":43.30813,"lon":5.38174,"is_reserved":false,"is_disabled":false,"rental_uris":{"android":"levelo://app?vid=cd132346-6958-4a6c-b87c-a5a1725dfbb3","ios":"levelo://app?vid=cd132346-6958-4a6c-b87c-a5a1725dfbb3"},"vehicle_type_id":"4","last_reported":1734368977,"current_range_meters":8000,"station_id":"ce4bgt12rcd13ifvqce0","pricing_plan_id":"cebpf4jnsgd1na2vs0mg"},{"bike_id":"ba98bdce-aee7-48db-921f-e5b23de6229a","system_id":"levelo_inurba_marseille","lat":43.33792,"lon":5.42096,"is_reserved":false,"is_disabled":true,"rental_uris":{"android":"levelo://app?vid=ba98bdce-aee7-48db-921f-e5b23de6229a","ios":"levelo://app?vid=ba98bdce-aee7-48db-921f-e5b23de6229a"},"vehicle_type_id":"4","last_reported":1734368977,"current_range_meters":0,"station_id":"","pricing_plan_id":"cebpf4jnsgd1na2vs0mg"},{"bike_id":"dc3d71bb-e7fb-44be-9744-c5c2e707f55c","system_id":"levelo_inurba_marseille","lat":43.27914,"lon":5.39574,"is_reserved":false,"is_disabled":false,"rental_uris":{"android":"levelo://app?vid=dc3d71bb-e7fb-44be-9744-c5c2e707f55c","ios":"levelo://app?vid=dc3d71bb-e7fb-44be-9744-c5c2e707f55c"},"vehicle_type_id":"4","last_reported":1734368977,"current_range_meters":21600,"station_id":"ce4bhf92rcd13ifvqf40","pricing_plan_id":"cebpf4jnsgd1na2vs0mg"},{"bike_id":"e66dd0d5-1b82-49db-b934-25a5f9856a35","system_id":"levelo_inurba_marseille","lat":43.28727,"lon":5.36088,"is_reserved":false,"is_disabled":false,"rental_uris":{"android":"levelo://app?vid=e66dd0d5-1b82-49db-b934-25a5f9856a35","ios":"levelo://app?vid=e66dd0d5-1b82-49db-b934-25a5f9856a35"},"vehicle_type_id":"4","last_reported":1734368977,"current_range_meters":24000,"station_id":"cki0cbj6b192h4jlfktg","pricing_plan_id":"cebpf4jnsgd1na2vs0mg"},{"bike_id":"fc0ce192-81a2-4d58-a171-b521674a73ac","system_id":"levelo_inurba_marseille","lat":43.28943,"lon":5.36641,"is_reserved":false,"is_disabled":false,"rental_uris":{"android":"levelo://app?vid=fc0ce192-81a2-4d58-a171-b521674a73ac","ios":"levelo://app?vid=fc0ce192-81a2-4d58-a171-b521674a73ac"},"vehicle_type_id":"4","last_reported":1734368977,"current_range_meters":31200,"station_id":"ce4bh0p2rcd13ifvqd70","pricing_plan_id":"cebpf4jnsgd1na2vs0mg"},{"bike_id":"36e8641e-5f81-4f69-b100-9a65f1b8f496","system_id":"levelo_inurba_marseille","lat":43.28592,"lon":5.37171,"is_reserved":false,"is_disabled":false,"rental_uris":{"android":"levelo://app?vid=36e8641e-5f81-4f69-b100-9a65f1b8f496","ios":"levelo://app?vid=36e8641e-5f81-4f69-b100-9a65f1b8f496"},"vehicle_type_id":"4","last_reported":1734368977,"current_range_meters":2800,"station_id":"ce4bht12rcd13ifvqi60","pricing_plan_id":"cebpf4jnsgd1na2vs0mg"},{"bike_id":"c3e06171-606e-48df-8fdf-8daebe9ad97f","system_id":"levelo_inurba_marseille","lat":43.23187,"lon":5.39987,"is_reserved":false,"is_disabled":false,"rental_uris":{"android":"levelo://app?vid=c3e06171-606e-48df-8fdf-8daebe9ad97f","ios":"levelo://app?vid=c3e06171-606e-48df-8fdf-8daebe9ad97f"},"vehicle_type_id":"4","last_reported":1734368977,"current_range_meters":32000,"station_id":"ce4bhn12rcd13ifvqgqg","pricing_plan_id":"cebpf4jnsgd1na2vs0mg"},{"bike_id":"98de24e9-67b4-441e-84ba-73e6a9f21beb","system_id":"levelo_inurba_marseille","lat":43.33728,"lon":5.39186,"is_reserved":false,"is_disabled":false,"rental_uris":{"android":"levelo://app?vid=98de24e9-67b4-441e-84ba-73e6a9f21beb","ios":"levelo://app?vid=98de24e9-67b4-441e-84ba-73e6a9f21beb"},"vehicle_type_id":"4","last_reported":1734368977,"current_range_meters":38800,"station_id":"ce4bhr92rcd13ifvqhsg","pricing_plan_id":"cebpf4jnsgd1na2vs0mg"},{"bike_id":"cd84e5d7-e41c-4800-b5ee-6176bfdafa1c","system_id":"levelo_inurba_marseille","lat":43.28846,"lon":5.39308,"is_reserved":false,"is_disabled":false,"rental_uris":{"android":"levelo://app?vid=cd84e5d7-e41c-4800-b5ee-6176bfdafa1c","ios":"levelo://app?vid=cd84e5d7-e41c-4800-b5ee-6176bfdafa1c"},"vehicle_type_id":"4","last_reported":1734368977,"current_range_meters":6400,"station_id":"ce4bh2p2rcd13ifvqdi0","pricing_plan_id":"cebpf4jnsgd1na2vs0mg"},{"bike_id":"813a8697-efe6-4687-aaa1-af39d9228417","system_id":"levelo_inurba_marseille","lat":43.29288,"lon":5.36845,"is_reserved":false,"is_disabled":false,"rental_uris":{"android":"levelo://app?vid=813a8697-efe6-4687-aaa1-af39d9228417","ios":"levelo://app?vid=813a8697-efe6-4687-aaa1-af39d9228417"},"vehicle_type_id":"4","last_reported":1734368977,"current_range_meters":36000,"station_id":"ce4bhbp2rcd13ifvqesg","pricing_plan_id":"cebpf4jnsgd1na2vs0mg"},{"bike_id":"f90a56d8-6b58-4667-b1e0-9be9da1c9d3e","system_id":"levelo_inurba_marseille","lat":43.28933,"lon":5.37902,"is_reserved":false,"is_disabled":true,"rental_uris":{"android":"levelo://app?vid=f90a56d8-6b58-4667-b1e0-9be9da1c9d3e","ios":"levelo://app?vid=f90a56d8-6b58-4667-b1e0-9be9da1c9d3e"},"vehicle_type_id":"4","last_reported":1734368977,"current_range_meters":31200,"station_id":"","pricing_plan_id":"cebpf4jnsgd1na2vs0mg"},{"bike_id":"06feda71-3b9d-45d8-8432-7419632577d2","system_id":"levelo_inurba_marseille","lat":43.30542,"lon":5.36464,"is_reserved":false,"is_disabled":false,"rental_uris":{"android":"levelo://app?vid=06feda71-3b9d-45d8-8432-7419632577d2","ios":"levelo://app?vid=06feda71-3b9d-45d8-8432-7419632577d2"},"vehicle_type_id":"4","last_reported":1734368977,"current_range_meters":24000,"station_id":"","pricing_plan_id":"cebpf4jnsgd1na2vs0mg"},{"bike_id":"64cd57ba-49cd-4de6-81d5-f88575e43d13","system_id":"levelo_inurba_marseille","lat":43.33025,"lon":5.39044,"is_reserved":false,"is_disabled":false,"rental_uris":{"android":"levelo://app?vid=64cd57ba-49cd-4de6-81d5-f88575e43d13","ios":"levelo://app?vid=64cd57ba-49cd-4de6-81d5-f88575e43d13"},"vehicle_type_id":"4","last_reported":1734368977,"current_range_meters":30800,"station_id":"ce4bhr92rcd13ifvqhrg","pricing_plan_id":"cebpf4jnsgd1na2vs0mg"},{"bike_id":"e90a5c4c-74bf-492a-8732-ece9e8212ad7","system_id":"levelo_inurba_marseille","lat":43.3061,"lon":5.37226,"is_reserved":false,"is_disabled":false,"rental_uris":{"android":"levelo://app?vid=e90a5c4c-74bf-492a-8732-ece9e8212ad7","ios":"levelo://app?vid=e90a5c4c-74bf-492a-8732-ece9e8212ad7"},"vehicle_type_id":"4","last_reported":1734368977,"current_range_meters":38800,"station_id":"ce4bgqh2rcd13ifvqc4g","pricing_plan_id":"cebpf4jnsgd1na2vs0mg"},{"bike_id":"c3123191-8af3-4905-b6f5-28cd8730b742","system_id":"levelo_inurba_marseille","lat":43.31328,"lon":5.39685,"is_reserved":false,"is_disabled":false,"rental_uris":{"android":"levelo://app?vid=c3123191-8af3-4905-b6f5-28cd8730b742","ios":"levelo://app?vid=c3123191-8af3-4905-b6f5-28cd8730b742"},"vehicle_type_id":"4","last_reported":1734368977,"current_range_meters":30800,"station_id":"ce4bgvp2rcd13ifvqcu0","pricing_plan_id":"cebpf4jnsgd1na2vs0mg"},{"bike_id":"0854f93a-27ef-4312-bd8f-be30bba0059f","system_id":"levelo_inurba_marseille","lat":43.28603,"lon":5.35143,"is_reserved":false,"is_disabled":true,"rental_uris":{"android":"levelo://app?vid=0854f93a-27ef-4312-bd8f-be30bba0059f","ios":"levelo://app?vid=0854f93a-27ef-4312-bd8f-be30bba0059f"},"vehicle_type_id":"4","last_reported":1734368977,"current_range_meters":27600,"station_id":"","pricing_plan_id":"cebpf4jnsgd1na2vs0mg"},{"bike_id":"68c4edf6-dd34-44fd-a8e9-d6e99db7b005","system_id":"levelo_inurba_marseille","lat":43.27822,"lon":5.40714,"is_reserved":false,"is_disabled":false,"rental_uris":{"android":"levelo://app?vid=68c4edf6-dd34-44fd-a8e9-d6e99db7b005","ios":"levelo://app?vid=68c4edf6-dd34-44fd-a8e9-d6e99db7b005"},"vehicle_type_id":"4","last_reported":1734368977,"current_range_meters":36400,"station_id":"ce4bhnh2rcd13ifvqgtg","pricing_plan_id":"cebpf4jnsgd1na2vs0mg"},{"bike_id":"c4270ea9-5ce6-4111-8dc1-8ae345013bb1","system_id":"levelo_inurba_marseille","lat":43.27182,"lon":5.41001,"is_reserved":false,"is_disabled":false,"rental_uris":{"android":"levelo://app?vid=c4270ea9-5ce6-4111-8dc1-8ae345013bb1","ios":"levelo://app?vid=c4270ea9-5ce6-4111-8dc1-8ae345013bb1"},"vehicle_type_id":"4","last_reported":1734368977,"current_range_meters":16000,"station_id":"ce4bhl12rcd13ifvqgf0","pricing_plan_id":"cebpf4jnsgd1na2vs0mg"},{"bike_id":"c0a0c9e6-d71d-42e0-9b1f-2849721da8f4","system_id":"levelo_inurba_marseille","lat":43.27182,"lon":5.40993,"is_reserved":false,"is_disabled":false,"rental_uris":{"android":"levelo://app?vid=c0a0c9e6-d71d-42e0-9b1f-2849721da8f4","ios":"levelo://app?vid=c0a0c9e6-d71d-42e0-9b1f-2849721da8f4"},"vehicle_type_id":"4","last_reported":1734368977,"current_range_meters":24400,"station_id":"ce4bhl12rcd13ifvqgf0","pricing_plan_id":"cebpf4jnsgd1na2vs0mg"},{"bike_id":"f582b1f3-9912-4b3e-b1b9-0c81a53cad2c","system_id":"levelo_inurba_marseille","lat":43.302588,"lon":5.400762,"is_reserved":false,"is_disabled":false,"rental_uris":{"android":"levelo://app?vid=f582b1f3-9912-4b3e-b1b9-0c81a53cad2c","ios":"levelo://app?vid=f582b1f3-9912-4b3e-b1b9-0c81a53cad2c"},"vehicle_type_id":"4","last_reported":1734368977,"current_range_meters":38400,"station_id":"ce4bgvh2rcd13ifvqcs0","pricing_plan_id":"cebpf4jnsgd1na2vs0mg"},{"bike_id":"cab42822-df53-4abe-b813-8e5d59faa43e","system_id":"levelo_inurba_marseille","lat":43.31886,"lon":5.40738,"is_reserved":false,"is_disabled":false,"rental_uris":{"android":"levelo://app?vid=cab42822-df53-4abe-b813-8e5d59faa43e","ios":"levelo://app?vid=cab42822-df53-4abe-b813-8e5d59faa43e"},"vehicle_type_id":"4","last_reported":1734368977,"current_range_meters":18800,"station_id":"ce4bhq12rcd13ifvqhig","pricing_plan_id":"cebpf4jnsgd1na2vs0mg"},{"bike_id":"875d6eb1-5c9d-4cf1-ab0c-07b39b12252c","system_id":"levelo_inurba_marseille","lat":43.23207,"lon":5.35554,"is_reserved":false,"is_disabled":false,"rental_uris":{"android":"levelo://app?vid=875d6eb1-5c9d-4cf1-ab0c-07b39b12252c","ios":"levelo://app?vid=875d6eb1-5c9d-4cf1-ab0c-07b39b12252c"},"vehicle_type_id":"4","last_reported":1734368977,"current_range_meters":25600,"station_id":"ce4bhu92rcd13ifvqi70","pricing_plan_id":"cebpf4jnsgd1na2vs0mg"},{"bike_id":"3685a189-6ef7-4473-bd89-2c8d0ce7638f","system_id":"levelo_inurba_marseille","lat":43.2942,"lon":5.38624,"is_reserved":false,"is_disabled":false,"rental_uris":{"android":"levelo://app?vid=3685a189-6ef7-4473-bd89-2c8d0ce7638f","ios":"levelo://app?vid=3685a189-6ef7-4473-bd89-2c8d0ce7638f"},"vehicle_type_id":"4","last_reported":1734368977,"current_range_meters":19600,"station_id":"ce4bh2h2rcd13ifvqdh0","pricing_plan_id":"cebpf4jnsgd1na2vs0mg"},{"bike_id":"3fb6596b-b720-4e37-88d1-377c7a736425","system_id":"levelo_inurba_marseille","lat":43.23196,"lon":5.35557,"is_reserved":false,"is_disabled":false,"rental_uris":{"android":"levelo://app?vid=3fb6596b-b720-4e37-88d1-377c7a736425","ios":"levelo://app?vid=3fb6596b-b720-4e37-88d1-377c7a736425"},"vehicle_type_id":"4","last_reported":1734368977,"current_range_meters":38800,"station_id":"ce4bhu92rcd13ifvqi70","pricing_plan_id":"cebpf4jnsgd1na2vs0mg"},{"bike_id":"8914bb17-7251-4066-b905-d58eaff8838d","system_id":"levelo_inurba_marseille","lat":43.27181,"lon":5.40999,"is_reserved":false,"is_disabled":false,"rental_uris":{"android":"levelo://app?vid=8914bb17-7251-4066-b905-d58eaff8838d","ios":"levelo://app?vid=8914bb17-7251-4066-b905-d58eaff8838d"},"vehicle_type_id":"4","last_reported":1734368977,"current_range_meters":28800,"station_id":"ce4bhl12rcd13ifvqgf0","pricing_plan_id":"cebpf4jnsgd1na2vs0mg"},{"bike_id":"8ee62417-ba9c-4b61-84a5-5bd7e2cbee2e","system_id":"levelo_inurba_marseille","lat":43.337444,"lon":5.374475,"is_reserved":false,"is_disabled":true,"rental_uris":{"android":"levelo://app?vid=8ee62417-ba9c-4b61-84a5-5bd7e2cbee2e","ios":"levelo://app?vid=8ee62417-ba9c-4b61-84a5-5bd7e2cbee2e"},"vehicle_type_id":"4","last_reported":1734368977,"current_range_meters":0,"station_id":"","pricing_plan_id":"cebpf4jnsgd1na2vs0mg"},{"bike_id":"b317b7f1-475c-402d-927a-6611bdae8557","system_id":"levelo_inurba_marseille","lat":43.25726,"lon":5.41107,"is_reserved":false,"is_disabled":false,"rental_uris":{"android":"levelo://app?vid=b317b7f1-475c-402d-927a-6611bdae8557","ios":"levelo://app?vid=b317b7f1-475c-402d-927a-6611bdae8557"},"vehicle_type_id":"4","last_reported":1734368977,"current_range_meters":18800,"station_id":"ce4bhkp2rcd13ifvqgd0","pricing_plan_id":"cebpf4jnsgd1na2vs0mg"},{"bike_id":"d2294c64-af77-450b-b299-fc06315dbf1a","system_id":"levelo_inurba_marseille","lat":43.29308,"lon":5.37179,"is_reserved":false,"is_disabled":true,"rental_uris":{"android":"levelo://app?vid=d2294c64-af77-450b-b299-fc06315dbf1a","ios":"levelo://app?vid=d2294c64-af77-450b-b299-fc06315dbf1a"},"vehicle_type_id":"4","last_reported":1734368977,"current_range_meters":22400,"station_id":"ce4bgh92rcd13ifvqb40","pricing_plan_id":"cebpf4jnsgd1na2vs0mg"},{"bike_id":"056177a6-f3a6-40fa-80e0-574bf5840c95","system_id":"levelo_inurba_marseille","lat":43.28363,"lon":5.38668,"is_reserved":false,"is_disabled":true,"rental_uris":{"android":"levelo://app?vid=056177a6-f3a6-40fa-80e0-574bf5840c95","ios":"levelo://app?vid=056177a6-f3a6-40fa-80e0-574bf5840c95"},"vehicle_type_id":"4","last_reported":1734368977,"current_range_meters":28800,"station_id":"ce4bh492rcd13ifvqdvg","pricing_plan_id":"cebpf4jnsgd1na2vs0mg"},{"bike_id":"2a03e7a9-e623-43fe-99c0-8c16e6af2b40","system_id":"levelo_inurba_marseille","lat":43.26985,"lon":5.39868,"is_reserved":false,"is_disabled":false,"rental_uris":{"android":"levelo://app?vid=2a03e7a9-e623-43fe-99c0-8c16e6af2b40","ios":"levelo://app?vid=2a03e7a9-e623-43fe-99c0-8c16e6af2b40"},"vehicle_type_id":"4","last_reported":1734368977,"current_range_meters":16400,"station_id":"","pricing_plan_id":"cebpf4jnsgd1na2vs0mg"},{"bike_id":"46069cf7-c0a1-49a6-8f40-9257b8f05402","system_id":"levelo_inurba_marseille","lat":43.29579,"lon":5.39968,"is_reserved":false,"is_disabled":false,"rental_uris":{"android":"levelo://app?vid=46069cf7-c0a1-49a6-8f40-9257b8f05402","ios":"levelo://app?vid=46069cf7-c0a1-49a6-8f40-9257b8f05402"},"vehicle_type_id":"4","last_reported":1734368977,"current_range_meters":34000,"station_id":"ce4bh312rcd13ifvqdj0","pricing_plan_id":"cebpf4jnsgd1na2vs0mg"},{"bike_id":"aea883ba-eb3c-481c-bfe8-c1c93657658e","system_id":"levelo_inurba_marseille","lat":43.29266,"lon":5.3844,"is_reserved":false,"is_disabled":false,"rental_uris":{"android":"levelo://app?vid=aea883ba-eb3c-481c-bfe8-c1c93657658e","ios":"levelo://app?vid=aea883ba-eb3c-481c-bfe8-c1c93657658e"},"vehicle_type_id":"4","last_reported":1734368977,"current_range_meters":3600,"station_id":"ce4bh692rcd13ifvqea0","pricing_plan_id":"cebpf4jnsgd1na2vs0mg"},{"bike_id":"0e2e421d-cab6-4bab-ab43-0de2daec6dd5","system_id":"levelo_inurba_marseille","lat":43.278805,"lon":5.388003,"is_reserved":false,"is_disabled":true,"rental_uris":{"android":"levelo://app?vid=0e2e421d-cab6-4bab-ab43-0de2daec6dd5","ios":"levelo://app?vid=0e2e421d-cab6-4bab-ab43-0de2daec6dd5"},"vehicle_type_id":"4","last_reported":1734368977,"current_range_meters":0,"station_id":"","pricing_plan_id":"cebpf4jnsgd1na2vs0mg"},{"bike_id":"805252a1-2a8f-4a88-8909-0091477bf9cc","system_id":"levelo_inurba_marseille","lat":43.27419,"lon":5.39412,"is_reserved":false,"is_disabled":false,"rental_uris":{"android":"levelo://app?vid=805252a1-2a8f-4a88-8909-0091477bf9cc","ios":"levelo://app?vid=805252a1-2a8f-4a88-8909-0091477bf9cc"},"vehicle_type_id":"4","last_reported":1734368977,"current_range_meters":24400,"station_id":"ce4bhdp2rcd13ifvqf20","pricing_plan_id":"cebpf4jnsgd1na2vs0mg"},{"bike_id":"25c0c336-834d-421d-b66d-e51c42a0ba97","system_id":"levelo_inurba_marseille","lat":43.30721,"lon":5.3682,"is_reserved":false,"is_disabled":false,"rental_uris":{"android":"levelo://app?vid=25c0c336-834d-421d-b66d-e51c42a0ba97","ios":"levelo://app?vid=25c0c336-834d-421d-b66d-e51c42a0ba97"},"vehicle_type_id":"4","last_reported":1734368977,"current_range_meters":22800,"station_id":"","pricing_plan_id":"cebpf4jnsgd1na2vs0mg"},{"bike_id":"048041f3-0a08-4bb3-967a-efe1acd6593e","system_id":"levelo_inurba_marseille","lat":43.25506,"lon":5.37652,"is_reserved":false,"is_disabled":true,"rental_uris":{"android":"levelo://app?vid=048041f3-0a08-4bb3-967a-efe1acd6593e","ios":"levelo://app?vid=048041f3-0a08-4bb3-967a-efe1acd6593e"},"vehicle_type_id":"4","last_reported":1734368977,"current_range_meters":0,"station_id":"ce4bhh12rcd13ifvqff0","pricing_plan_id":"cebpf4jnsgd1na2vs0mg"},{"bike_id":"b4447e13-6d94-4737-8ae2-503f02590276","system_id":"levelo_inurba_marseille","lat":43.28713,"lon":5.37931,"is_reserved":false,"is_disabled":false,"rental_uris":{"android":"levelo://app?vid=b4447e13-6d94-4737-8ae2-503f02590276","ios":"levelo://app?vid=b4447e13-6d94-4737-8ae2-503f02590276"},"vehicle_type_id":"4","last_reported":1734368977,"current_range_meters":28800,"station_id":"ce4bh9p2rcd13ifvqec0","pricing_plan_id":"cebpf4jnsgd1na2vs0mg"},{"bike_id":"5ce2e0da-569f-4880-baec-26c3582bd0fa","system_id":"levelo_inurba_marseille","lat":43.27906,"lon":5.395868,"is_reserved":false,"is_disabled":false,"rental_uris":{"android":"levelo://app?vid=5ce2e0da-569f-4880-baec-26c3582bd0fa","ios":"levelo://app?vid=5ce2e0da-569f-4880-baec-26c3582bd0fa"},"vehicle_type_id":"4","last_reported":1734368977,"current_range_meters":8000,"station_id":"ce4bhf92rcd13ifvqf40","pricing_plan_id":"cebpf4jnsgd1na2vs0mg"},{"bike_id":"d77f7f37-ee44-44e8-8098-75f8cbb7f99a","system_id":"levelo_inurba_marseille","lat":43.27557,"lon":5.38433,"is_reserved":false,"is_disabled":false,"rental_uris":{"android":"levelo://app?vid=d77f7f37-ee44-44e8-8098-75f8cbb7f99a","ios":"levelo://app?vid=d77f7f37-ee44-44e8-8098-75f8cbb7f99a"},"vehicle_type_id":"4","last_reported":1734368977,"current_range_meters":19600,"station_id":"ce4bhh92rcd13ifvqfi0","pricing_plan_id":"cebpf4jnsgd1na2vs0mg"},{"bike_id":"584b569e-7298-4afe-b48b-612c38273697","system_id":"levelo_inurba_marseille","lat":43.31088,"lon":5.38348,"is_reserved":false,"is_disabled":true,"rental_uris":{"android":"levelo://app?vid=584b569e-7298-4afe-b48b-612c38273697","ios":"levelo://app?vid=584b569e-7298-4afe-b48b-612c38273697"},"vehicle_type_id":"4","last_reported":1734368977,"current_range_meters":0,"station_id":"ce4bgv92rcd13ifvqcr0","pricing_plan_id":"cebpf4jnsgd1na2vs0mg"},{"bike_id":"6fcca420-7b9a-4500-9580-675e569a2a96","system_id":"levelo_inurba_marseille","lat":43.26558,"lon":5.37289,"is_reserved":false,"is_disabled":false,"rental_uris":{"android":"levelo://app?vid=6fcca420-7b9a-4500-9580-675e569a2a96","ios":"levelo://app?vid=6fcca420-7b9a-4500-9580-675e569a2a96"},"vehicle_type_id":"4","last_reported":1734368977,"current_range_meters":26000,"station_id":"ce4bhg12rcd13ifvqf70","pricing_plan_id":"cebpf4jnsgd1na2vs0mg"},{"bike_id":"6a12eea6-8b66-4111-988f-7a2d95c10704","system_id":"levelo_inurba_marseille","lat":43.29912,"lon":5.37466,"is_reserved":false,"is_disabled":false,"rental_uris":{"android":"levelo://app?vid=6a12eea6-8b66-4111-988f-7a2d95c10704","ios":"levelo://app?vid=6a12eea6-8b66-4111-988f-7a2d95c10704"},"vehicle_type_id":"4","last_reported":1734368977,"current_range_meters":38800,"station_id":"ce4bgjh2rcd13ifvqbg0","pricing_plan_id":"cebpf4jnsgd1na2vs0mg"},{"bike_id":"11600c38-dc3d-4aea-88bc-c214298d70f1","system_id":"levelo_inurba_marseille","lat":43.28465,"lon":5.35886,"is_reserved":false,"is_disabled":false,"rental_uris":{"android":"levelo://app?vid=11600c38-dc3d-4aea-88bc-c214298d70f1","ios":"levelo://app?vid=11600c38-dc3d-4aea-88bc-c214298d70f1"},"vehicle_type_id":"4","last_reported":1734368977,"current_range_meters":38400,"station_id":"ce4bhah2rcd13ifvqei0","pricing_plan_id":"cebpf4jnsgd1na2vs0mg"},{"bike_id":"2b15d063-7a3f-4ab1-9a96-79820bd042f5","system_id":"levelo_inurba_marseille","lat":43.30247,"lon":5.40084,"is_reserved":false,"is_disabled":true,"rental_uris":{"android":"levelo://app?vid=2b15d063-7a3f-4ab1-9a96-79820bd042f5","ios":"levelo://app?vid=2b15d063-7a3f-4ab1-9a96-79820bd042f5"},"vehicle_type_id":"4","last_reported":1734368977,"current_range_meters":20800,"station_id":"ce4bgvh2rcd13ifvqcs0","pricing_plan_id":"cebpf4jnsgd1na2vs0mg"},{"bike_id":"bfe5e067-4070-40f8-8cac-6448828a3f77","system_id":"levelo_inurba_marseille","lat":43.29881,"lon":5.39724,"is_reserved":false,"is_disabled":false,"rental_uris":{"android":"levelo://app?vid=bfe5e067-4070-40f8-8cac-6448828a3f77","ios":"levelo://app?vid=bfe5e067-4070-40f8-8cac-6448828a3f77"},"vehicle_type_id":"4","last_reported":1734368977,"current_range_meters":20000,"station_id":"ce4bh0h2rcd13ifvqd50","pricing_plan_id":"cebpf4jnsgd1na2vs0mg"},{"bike_id":"8b4d6eb8-b754-4bc6-9f4c-42f21326bc0f","system_id":"levelo_inurba_marseille","lat":43.3054,"lon":5.36532,"is_reserved":false,"is_disabled":false,"rental_uris":{"android":"levelo://app?vid=8b4d6eb8-b754-4bc6-9f4c-42f21326bc0f","ios":"levelo://app?vid=8b4d6eb8-b754-4bc6-9f4c-42f21326bc0f"},"vehicle_type_id":"4","last_reported":1734368977,"current_range_meters":39200,"station_id":"ce4bgs12rcd13ifvqcag","pricing_plan_id":"cebpf4jnsgd1na2vs0mg"},{"bike_id":"54c11d0c-45a0-42d8-8ca0-d10a61cb44e5","system_id":"levelo_inurba_marseille","lat":43.2656,"lon":5.37293,"is_reserved":false,"is_disabled":false,"rental_uris":{"android":"levelo://app?vid=54c11d0c-45a0-42d8-8ca0-d10a61cb44e5","ios":"levelo://app?vid=54c11d0c-45a0-42d8-8ca0-d10a61cb44e5"},"vehicle_type_id":"4","last_reported":1734368977,"current_range_meters":34000,"station_id":"ce4bhg12rcd13ifvqf70","pricing_plan_id":"cebpf4jnsgd1na2vs0mg"},{"bike_id":"9d23ab61-6816-4439-a816-11e97cd3b48a","system_id":"levelo_inurba_marseille","lat":43.29592,"lon":5.36738,"is_reserved":false,"is_disabled":false,"rental_uris":{"android":"levelo://app?vid=9d23ab61-6816-4439-a816-11e97cd3b48a","ios":"levelo://app?vid=9d23ab61-6816-4439-a816-11e97cd3b48a"},"vehicle_type_id":"4","last_reported":1734368977,"current_range_meters":6400,"station_id":"ce4bgph2rcd13ifvqc2g","pricing_plan_id":"cebpf4jnsgd1na2vs0mg"},{"bike_id":"d61bae2c-3c02-42a0-b633-59a2a43bbcf5","system_id":"levelo_inurba_marseille","lat":43.2987,"lon":5.39735,"is_reserved":false,"is_disabled":false,"rental_uris":{"android":"levelo://app?vid=d61bae2c-3c02-42a0-b633-59a2a43bbcf5","ios":"levelo://app?vid=d61bae2c-3c02-42a0-b633-59a2a43bbcf5"},"vehicle_type_id":"4","last_reported":1734368977,"current_range_meters":17600,"station_id":"ce4bh0h2rcd13ifvqd50","pricing_plan_id":"cebpf4jnsgd1na2vs0mg"},{"bike_id":"627888a1-872c-449e-9e9f-240ffe4ba419","system_id":"levelo_inurba_marseille","lat":43.2767,"lon":5.38871,"is_reserved":false,"is_disabled":true,"rental_uris":{"android":"levelo://app?vid=627888a1-872c-449e-9e9f-240ffe4ba419","ios":"levelo://app?vid=627888a1-872c-449e-9e9f-240ffe4ba419"},"vehicle_type_id":"4","last_reported":1734368977,"current_range_meters":1600,"station_id":"ce4bhi12rcd13ifvqfo0","pricing_plan_id":"cebpf4jnsgd1na2vs0mg"},{"bike_id":"6bcea96b-2fd2-4aa6-b10c-d89cef8832d2","system_id":"levelo_inurba_marseille","lat":43.2926,"lon":5.40899,"is_reserved":false,"is_disabled":false,"rental_uris":{"android":"levelo://app?vid=6bcea96b-2fd2-4aa6-b10c-d89cef8832d2","ios":"levelo://app?vid=6bcea96b-2fd2-4aa6-b10c-d89cef8832d2"},"vehicle_type_id":"4","last_reported":1734368977,"current_range_meters":14000,"station_id":"ce4bh192rcd13ifvqdc0","pricing_plan_id":"cebpf4jnsgd1na2vs0mg"},{"bike_id":"76ec3642-6b04-4fa3-81b8-996f867e214d","system_id":"levelo_inurba_marseille","lat":43.24174,"lon":5.39706,"is_reserved":false,"is_disabled":true,"rental_uris":{"android":"levelo://app?vid=76ec3642-6b04-4fa3-81b8-996f867e214d","ios":"levelo://app?vid=76ec3642-6b04-4fa3-81b8-996f867e214d"},"vehicle_type_id":"4","last_reported":1734368977,"current_range_meters":17200,"station_id":"ce4bhn12rcd13ifvqgpg","pricing_plan_id":"cebpf4jnsgd1na2vs0mg"},{"bike_id":"b086f938-3dea-4025-a3c6-185d7dca2dfd","system_id":"levelo_inurba_marseille","lat":43.2961,"lon":5.37709,"is_reserved":false,"is_disabled":true,"rental_uris":{"android":"levelo://app?vid=b086f938-3dea-4025-a3c6-185d7dca2dfd","ios":"levelo://app?vid=b086f938-3dea-4025-a3c6-185d7dca2dfd"},"vehicle_type_id":"4","last_reported":1734368977,"current_range_meters":0,"station_id":"ce4bgi92rcd13ifvqb90","pricing_plan_id":"cebpf4jnsgd1na2vs0mg"},{"bike_id":"2c8e308d-99c4-4fb8-abfd-bbcf98d81ad0","system_id":"levelo_inurba_marseille","lat":43.2872,"lon":5.36093,"is_reserved":false,"is_disabled":false,"rental_uris":{"android":"levelo://app?vid=2c8e308d-99c4-4fb8-abfd-bbcf98d81ad0","ios":"levelo://app?vid=2c8e308d-99c4-4fb8-abfd-bbcf98d81ad0"},"vehicle_type_id":"4","last_reported":1734368977,"current_range_meters":37600,"station_id":"cki0cbj6b192h4jlfktg","pricing_plan_id":"cebpf4jnsgd1na2vs0mg"},{"bike_id":"58bdbdde-86f4-4dd4-8abf-58acf553569f","system_id":"levelo_inurba_marseille","lat":43.32104,"lon":5.36776,"is_reserved":false,"is_disabled":false,"rental_uris":{"android":"levelo://app?vid=58bdbdde-86f4-4dd4-8abf-58acf553569f","ios":"levelo://app?vid=58bdbdde-86f4-4dd4-8abf-58acf553569f"},"vehicle_type_id":"4","last_reported":1734368977,"current_range_meters":33600,"station_id":"ce4bhrh2rcd13ifvqhug","pricing_plan_id":"cebpf4jnsgd1na2vs0mg"},{"bike_id":"c23cd138-2a8f-4687-846c-ea5d55e0bd33","system_id":"levelo_inurba_marseille","lat":43.30139,"lon":5.39862,"is_reserved":false,"is_disabled":false,"rental_uris":{"android":"levelo://app?vid=c23cd138-2a8f-4687-846c-ea5d55e0bd33","ios":"levelo://app?vid=c23cd138-2a8f-4687-846c-ea5d55e0bd33"},"vehicle_type_id":"4","last_reported":1734368977,"current_range_meters":10000,"station_id":"ce4bh0h2rcd13ifvqd40","pricing_plan_id":"cebpf4jnsgd1na2vs0mg"},{"bike_id":"1ec40698-8856-4813-a9c0-1e877337acea","system_id":"levelo_inurba_marseille","lat":43.29023,"lon":5.38121,"is_reserved":false,"is_disabled":false,"rental_uris":{"android":"levelo://app?vid=1ec40698-8856-4813-a9c0-1e877337acea","ios":"levelo://app?vid=1ec40698-8856-4813-a9c0-1e877337acea"},"vehicle_type_id":"4","last_reported":1734368977,"current_range_meters":26800,"station_id":"ce4bh4p2rcd13ifvqe1g","pricing_plan_id":"cebpf4jnsgd1na2vs0mg"},{"bike_id":"1de19e07-480d-410b-9f3c-a31722188b0c","system_id":"levelo_inurba_marseille","lat":43.30138,"lon":5.38059,"is_reserved":false,"is_disabled":false,"rental_uris":{"android":"levelo://app?vid=1de19e07-480d-410b-9f3c-a31722188b0c","ios":"levelo://app?vid=1de19e07-480d-410b-9f3c-a31722188b0c"},"vehicle_type_id":"4","last_reported":1734368977,"current_range_meters":20800,"station_id":"ce4bgjp2rcd13ifvqbh0","pricing_plan_id":"cebpf4jnsgd1na2vs0mg"},{"bike_id":"76161a88-001a-4fcb-8463-f6d3d4fa201a","system_id":"levelo_inurba_marseille","lat":43.26845,"lon":5.39644,"is_reserved":false,"is_disabled":false,"rental_uris":{"android":"levelo://app?vid=76161a88-001a-4fcb-8463-f6d3d4fa201a","ios":"levelo://app?vid=76161a88-001a-4fcb-8463-f6d3d4fa201a"},"vehicle_type_id":"4","last_reported":1734368977,"current_range_meters":10000,"station_id":"","pricing_plan_id":"cebpf4jnsgd1na2vs0mg"},{"bike_id":"730a6134-88d8-47e4-be24-a87eaceaba81","system_id":"levelo_inurba_marseille","lat":43.27918,"lon":5.39577,"is_reserved":false,"is_disabled":false,"rental_uris":{"android":"levelo://app?vid=730a6134-88d8-47e4-be24-a87eaceaba81","ios":"levelo://app?vid=730a6134-88d8-47e4-be24-a87eaceaba81"},"vehicle_type_id":"4","last_reported":1734368977,"current_range_meters":38800,"station_id":"ce4bhf92rcd13ifvqf40","pricing_plan_id":"cebpf4jnsgd1na2vs0mg"},{"bike_id":"bb1c0ef0-184d-4b17-9016-88e561b3d27b","system_id":"levelo_inurba_marseille","lat":43.28615,"lon":5.35099,"is_reserved":false,"is_disabled":true,"rental_uris":{"android":"levelo://app?vid=bb1c0ef0-184d-4b17-9016-88e561b3d27b","ios":"levelo://app?vid=bb1c0ef0-184d-4b17-9016-88e561b3d27b"},"vehicle_type_id":"4","last_reported":1734368977,"current_range_meters":26000,"station_id":"ce4bhch2rcd13ifvqeug","pricing_plan_id":"cebpf4jnsgd1na2vs0mg"},{"bike_id":"860b0bfe-6784-4905-a3ca-52795ca0286f","system_id":"levelo_inurba_marseille","lat":43.28429,"lon":5.34989,"is_reserved":false,"is_disabled":false,"rental_uris":{"android":"levelo://app?vid=860b0bfe-6784-4905-a3ca-52795ca0286f","ios":"levelo://app?vid=860b0bfe-6784-4905-a3ca-52795ca0286f"},"vehicle_type_id":"4","last_reported":1734368977,"current_range_meters":3600,"station_id":"ce4bhbh2rcd13ifvqepg","pricing_plan_id":"cebpf4jnsgd1na2vs0mg"},{"bike_id":"44861a73-1a94-4497-ad37-285de7daa1ae","system_id":"levelo_inurba_marseille","lat":43.280405,"lon":5.369415,"is_reserved":false,"is_disabled":false,"rental_uris":{"android":"levelo://app?vid=44861a73-1a94-4497-ad37-285de7daa1ae","ios":"levelo://app?vid=44861a73-1a94-4497-ad37-285de7daa1ae"},"vehicle_type_id":"4","last_reported":1734368977,"current_range_meters":16400,"station_id":"ce4bha12rcd13ifvqef0","pricing_plan_id":"cebpf4jnsgd1na2vs0mg"},{"bike_id":"c5595fd0-fc8e-462b-8984-5c1c92ed35f5","system_id":"levelo_inurba_marseille","lat":43.29549,"lon":5.42282,"is_reserved":false,"is_disabled":true,"rental_uris":{"android":"levelo://app?vid=c5595fd0-fc8e-462b-8984-5c1c92ed35f5","ios":"levelo://app?vid=c5595fd0-fc8e-462b-8984-5c1c92ed35f5"},"vehicle_type_id":"4","last_reported":1734368977,"current_range_meters":0,"station_id":"ce4bhph2rcd13ifvqhdg","pricing_plan_id":"cebpf4jnsgd1na2vs0mg"},{"bike_id":"ebaa68e4-3d1b-47af-9a69-6f7f2246f6e7","system_id":"levelo_inurba_marseille","lat":43.24673,"lon":5.3817,"is_reserved":false,"is_disabled":true,"rental_uris":{"android":"levelo://app?vid=ebaa68e4-3d1b-47af-9a69-6f7f2246f6e7","ios":"levelo://app?vid=ebaa68e4-3d1b-47af-9a69-6f7f2246f6e7"},"vehicle_type_id":"4","last_reported":1734368977,"current_range_meters":38800,"station_id":"ce4bhih2rcd13ifvqfr0","pricing_plan_id":"cebpf4jnsgd1na2vs0mg"},{"bike_id":"16ff838f-1cdb-4ddb-b5eb-dde2105d633a","system_id":"levelo_inurba_marseille","lat":43.26558,"lon":5.37281,"is_reserved":false,"is_disabled":false,"rental_uris":{"android":"levelo://app?vid=16ff838f-1cdb-4ddb-b5eb-dde2105d633a","ios":"levelo://app?vid=16ff838f-1cdb-4ddb-b5eb-dde2105d633a"},"vehicle_type_id":"4","last_reported":1734368977,"current_range_meters":30000,"station_id":"ce4bhg12rcd13ifvqf70","pricing_plan_id":"cebpf4jnsgd1na2vs0mg"},{"bike_id":"8e7c3683-99a9-4188-89c4-858575c3d04c","system_id":"levelo_inurba_marseille","lat":43.2766,"lon":5.38906,"is_reserved":false,"is_disabled":true,"rental_uris":{"android":"levelo://app?vid=8e7c3683-99a9-4188-89c4-858575c3d04c","ios":"levelo://app?vid=8e7c3683-99a9-4188-89c4-858575c3d04c"},"vehicle_type_id":"4","last_reported":1734368977,"current_range_meters":34800,"station_id":"ce4bhi12rcd13ifvqfo0","pricing_plan_id":"cebpf4jnsgd1na2vs0mg"},{"bike_id":"bf71b712-b0b1-401f-88fb-1f03f0ed5192","system_id":"levelo_inurba_marseille","lat":43.28445,"lon":5.39188,"is_reserved":false,"is_disabled":false,"rental_uris":{"android":"levelo://app?vid=bf71b712-b0b1-401f-88fb-1f03f0ed5192","ios":"levelo://app?vid=bf71b712-b0b1-401f-88fb-1f03f0ed5192"},"vehicle_type_id":"4","last_reported":1734368977,"current_range_meters":38800,"station_id":"ce4bhoh2rcd13ifvqh5g","pricing_plan_id":"cebpf4jnsgd1na2vs0mg"},{"bike_id":"b2a6d57f-5052-4d3c-9a8b-5166108f0a2a","system_id":"levelo_inurba_marseille","lat":43.25878,"lon":5.39898,"is_reserved":false,"is_disabled":false,"rental_uris":{"android":"levelo://app?vid=b2a6d57f-5052-4d3c-9a8b-5166108f0a2a","ios":"levelo://app?vid=b2a6d57f-5052-4d3c-9a8b-5166108f0a2a"},"vehicle_type_id":"4","last_reported":1734368977,"current_range_meters":9200,"station_id":"ce4bhl92rcd13ifvqghg","pricing_plan_id":"cebpf4jnsgd1na2vs0mg"},{"bike_id":"4577e3e8-7ec6-4361-8738-81257af38076","system_id":"levelo_inurba_marseille","lat":43.28428,"lon":5.34986,"is_reserved":false,"is_disabled":false,"rental_uris":{"android":"levelo://app?vid=4577e3e8-7ec6-4361-8738-81257af38076","ios":"levelo://app?vid=4577e3e8-7ec6-4361-8738-81257af38076"},"vehicle_type_id":"4","last_reported":1734368977,"current_range_meters":38800,"station_id":"ce4bhbh2rcd13ifvqepg","pricing_plan_id":"cebpf4jnsgd1na2vs0mg"},{"bike_id":"e1044ade-7e9f-4f30-ba9e-4edc27147674","system_id":"levelo_inurba_marseille","lat":43.2903,"lon":5.38649,"is_reserved":false,"is_disabled":false,"rental_uris":{"android":"levelo://app?vid=e1044ade-7e9f-4f30-ba9e-4edc27147674","ios":"levelo://app?vid=e1044ade-7e9f-4f30-ba9e-4edc27147674"},"vehicle_type_id":"4","last_reported":1734368977,"current_range_meters":22800,"station_id":"ce4bh4p2rcd13ifvqe0g","pricing_plan_id":"cebpf4jnsgd1na2vs0mg"},{"bike_id":"621491f6-ccb0-4336-9455-1c394e692f77","system_id":"levelo_inurba_marseille","lat":43.330289,"lon":5.390337,"is_reserved":false,"is_disabled":false,"rental_uris":{"android":"levelo://app?vid=621491f6-ccb0-4336-9455-1c394e692f77","ios":"levelo://app?vid=621491f6-ccb0-4336-9455-1c394e692f77"},"vehicle_type_id":"4","last_reported":1734368977,"current_range_meters":38800,"station_id":"ce4bhr92rcd13ifvqhrg","pricing_plan_id":"cebpf4jnsgd1na2vs0mg"},{"bike_id":"df3c5b33-0731-4d28-883c-1a4af4ad0ec4","system_id":"levelo_inurba_marseille","lat":43.26211,"lon":5.37444,"is_reserved":false,"is_disabled":false,"rental_uris":{"android":"levelo://app?vid=df3c5b33-0731-4d28-883c-1a4af4ad0ec4","ios":"levelo://app?vid=df3c5b33-0731-4d28-883c-1a4af4ad0ec4"},"vehicle_type_id":"4","last_reported":1734368977,"current_range_meters":24800,"station_id":"ce4bhgp2rcd13ifvqfc0","pricing_plan_id":"cebpf4jnsgd1na2vs0mg"},{"bike_id":"fce89ad1-8179-44ba-bc08-912eb64808ee","system_id":"levelo_inurba_marseille","lat":43.28077,"lon":5.39657,"is_reserved":false,"is_disabled":false,"rental_uris":{"android":"levelo://app?vid=fce89ad1-8179-44ba-bc08-912eb64808ee","ios":"levelo://app?vid=fce89ad1-8179-44ba-bc08-912eb64808ee"},"vehicle_type_id":"4","last_reported":1734368977,"current_range_meters":18800,"station_id":"ce4bho12rcd13ifvqh2g","pricing_plan_id":"cebpf4jnsgd1na2vs0mg"},{"bike_id":"6512e093-a716-4355-a981-ab463327399c","system_id":"levelo_inurba_marseille","lat":43.27818,"lon":5.40726,"is_reserved":false,"is_disabled":false,"rental_uris":{"android":"levelo://app?vid=6512e093-a716-4355-a981-ab463327399c","ios":"levelo://app?vid=6512e093-a716-4355-a981-ab463327399c"},"vehicle_type_id":"4","last_reported":1734368977,"current_range_meters":24000,"station_id":"ce4bhnh2rcd13ifvqgtg","pricing_plan_id":"cebpf4jnsgd1na2vs0mg"},{"bike_id":"6afe920d-4000-429a-84e5-416689c1fee2","system_id":"levelo_inurba_marseille","lat":43.288579,"lon":5.358574,"is_reserved":false,"is_disabled":false,"rental_uris":{"android":"levelo://app?vid=6afe920d-4000-429a-84e5-416689c1fee2","ios":"levelo://app?vid=6afe920d-4000-429a-84e5-416689c1fee2"},"vehicle_type_id":"4","last_reported":1734368977,"current_range_meters":25200,"station_id":"ce4bhb12rcd13ifvqem0","pricing_plan_id":"cebpf4jnsgd1na2vs0mg"},{"bike_id":"e14b8748-e4dd-4eba-9e7f-1675e71e7a55","system_id":"levelo_inurba_marseille","lat":43.268,"lon":5.40265,"is_reserved":false,"is_disabled":false,"rental_uris":{"android":"levelo://app?vid=e14b8748-e4dd-4eba-9e7f-1675e71e7a55","ios":"levelo://app?vid=e14b8748-e4dd-4eba-9e7f-1675e71e7a55"},"vehicle_type_id":"4","last_reported":1734368977,"current_range_meters":38000,"station_id":"ce501612rcd8frsf0b60","pricing_plan_id":"cebpf4jnsgd1na2vs0mg"},{"bike_id":"7278ce4b-3019-49cb-9a5c-4e01394a4fa1","system_id":"levelo_inurba_marseille","lat":43.30887,"lon":5.39661,"is_reserved":false,"is_disabled":true,"rental_uris":{"android":"levelo://app?vid=7278ce4b-3019-49cb-9a5c-4e01394a4fa1","ios":"levelo://app?vid=7278ce4b-3019-49cb-9a5c-4e01394a4fa1"},"vehicle_type_id":"4","last_reported":1734368977,"current_range_meters":400,"station_id":"ce4bh012rcd13ifvqcv0","pricing_plan_id":"cebpf4jnsgd1na2vs0mg"},{"bike_id":"859a14a4-abe8-42e6-ac87-8fc73c54b13f","system_id":"levelo_inurba_marseille","lat":43.28832,"lon":5.39331,"is_reserved":false,"is_disabled":false,"rental_uris":{"android":"levelo://app?vid=859a14a4-abe8-42e6-ac87-8fc73c54b13f","ios":"levelo://app?vid=859a14a4-abe8-42e6-ac87-8fc73c54b13f"},"vehicle_type_id":"4","last_reported":1734368977,"current_range_meters":38800,"station_id":"ce4bh2p2rcd13ifvqdi0","pricing_plan_id":"cebpf4jnsgd1na2vs0mg"},{"bike_id":"b0cab9b6-23fd-4cb2-981d-063ff269942c","system_id":"levelo_inurba_marseille","lat":43.28625,"lon":5.35106,"is_reserved":false,"is_disabled":false,"rental_uris":{"android":"levelo://app?vid=b0cab9b6-23fd-4cb2-981d-063ff269942c","ios":"levelo://app?vid=b0cab9b6-23fd-4cb2-981d-063ff269942c"},"vehicle_type_id":"4","last_reported":1734368977,"current_range_meters":28000,"station_id":"ce4bhch2rcd13ifvqeug","pricing_plan_id":"cebpf4jnsgd1na2vs0mg"},{"bike_id":"17fd1c3b-23af-4fb5-9435-033e2a988571","system_id":"levelo_inurba_marseille","lat":43.30991,"lon":5.40138,"is_reserved":false,"is_disabled":true,"rental_uris":{"android":"levelo://app?vid=17fd1c3b-23af-4fb5-9435-033e2a988571","ios":"levelo://app?vid=17fd1c3b-23af-4fb5-9435-033e2a988571"},"vehicle_type_id":"4","last_reported":1734368977,"current_range_meters":36800,"station_id":"","pricing_plan_id":"cebpf4jnsgd1na2vs0mg"},{"bike_id":"e83e5c9d-9939-48d4-92d3-e61517f35eb5","system_id":"levelo_inurba_marseille","lat":43.29227,"lon":5.36069,"is_reserved":false,"is_disabled":true,"rental_uris":{"android":"levelo://app?vid=e83e5c9d-9939-48d4-92d3-e61517f35eb5","ios":"levelo://app?vid=e83e5c9d-9939-48d4-92d3-e61517f35eb5"},"vehicle_type_id":"4","last_reported":1734368977,"current_range_meters":2000,"station_id":"ce4bhbh2rcd13ifvqeqg","pricing_plan_id":"cebpf4jnsgd1na2vs0mg"},{"bike_id":"679d31d4-e8f0-4997-ab5e-24dd875b6989","system_id":"levelo_inurba_marseille","lat":43.246505,"lon":5.38902,"is_reserved":false,"is_disabled":false,"rental_uris":{"android":"levelo://app?vid=679d31d4-e8f0-4997-ab5e-24dd875b6989","ios":"levelo://app?vid=679d31d4-e8f0-4997-ab5e-24dd875b6989"},"vehicle_type_id":"4","last_reported":1734368977,"current_range_meters":33600,"station_id":"ce4bhg12rcd13ifvqf60","pricing_plan_id":"cebpf4jnsgd1na2vs0mg"},{"bike_id":"d7c1cf73-5ea5-4c2f-a402-88978e03c60a","system_id":"levelo_inurba_marseille","lat":43.29481,"lon":5.36227,"is_reserved":false,"is_disabled":false,"rental_uris":{"android":"levelo://app?vid=d7c1cf73-5ea5-4c2f-a402-88978e03c60a","ios":"levelo://app?vid=d7c1cf73-5ea5-4c2f-a402-88978e03c60a"},"vehicle_type_id":"4","last_reported":1734368977,"current_range_meters":6400,"station_id":"","pricing_plan_id":"cebpf4jnsgd1na2vs0mg"},{"bike_id":"3ae80103-8e35-4100-9ada-0ce3cf2efd16","system_id":"levelo_inurba_marseille","lat":43.32485,"lon":5.36575,"is_reserved":false,"is_disabled":false,"rental_uris":{"android":"levelo://app?vid=3ae80103-8e35-4100-9ada-0ce3cf2efd16","ios":"levelo://app?vid=3ae80103-8e35-4100-9ada-0ce3cf2efd16"},"vehicle_type_id":"4","last_reported":1734368977,"current_range_meters":18000,"station_id":"ce4bhs12rcd13ifvqhvg","pricing_plan_id":"cebpf4jnsgd1na2vs0mg"},{"bike_id":"cb0073eb-ba20-4508-bc66-713f6e7eae00","system_id":"levelo_inurba_marseille","lat":43.26547,"lon":5.39006,"is_reserved":false,"is_disabled":false,"rental_uris":{"android":"levelo://app?vid=cb0073eb-ba20-4508-bc66-713f6e7eae00","ios":"levelo://app?vid=cb0073eb-ba20-4508-bc66-713f6e7eae00"},"vehicle_type_id":"4","last_reported":1734368977,"current_range_meters":20800,"station_id":"ce4bhe12rcd13ifvqf30","pricing_plan_id":"cebpf4jnsgd1na2vs0mg"},{"bike_id":"a13c7649-ba4b-4b6b-a5bf-e448d881d995","system_id":"levelo_inurba_marseille","lat":43.29374,"lon":5.37869,"is_reserved":false,"is_disabled":false,"rental_uris":{"android":"levelo://app?vid=a13c7649-ba4b-4b6b-a5bf-e448d881d995","ios":"levelo://app?vid=a13c7649-ba4b-4b6b-a5bf-e448d881d995"},"vehicle_type_id":"4","last_reported":1734368977,"current_range_meters":3200,"station_id":"ce4bgjh2rcd13ifvqbf0","pricing_plan_id":"cebpf4jnsgd1na2vs0mg"},{"bike_id":"dd61c0e2-e3a0-4f10-b24a-cd8e3099b7ef","system_id":"levelo_inurba_marseille","lat":43.29221,"lon":5.36068,"is_reserved":false,"is_disabled":false,"rental_uris":{"android":"levelo://app?vid=dd61c0e2-e3a0-4f10-b24a-cd8e3099b7ef","ios":"levelo://app?vid=dd61c0e2-e3a0-4f10-b24a-cd8e3099b7ef"},"vehicle_type_id":"4","last_reported":1734368977,"current_range_meters":32000,"station_id":"ce4bhbh2rcd13ifvqeqg","pricing_plan_id":"cebpf4jnsgd1na2vs0mg"},{"bike_id":"01972dcb-5194-4c11-855e-693a28551e27","system_id":"levelo_inurba_marseille","lat":43.29702,"lon":5.36605,"is_reserved":false,"is_disabled":false,"rental_uris":{"android":"levelo://app?vid=01972dcb-5194-4c11-855e-693a28551e27","ios":"levelo://app?vid=01972dcb-5194-4c11-855e-693a28551e27"},"vehicle_type_id":"4","last_reported":1734368977,"current_range_meters":39200,"station_id":"ce4bgn12rcd13ifvqbt0","pricing_plan_id":"cebpf4jnsgd1na2vs0mg"},{"bike_id":"d705ef2b-d72b-417f-b321-d9710b5a9281","system_id":"levelo_inurba_marseille","lat":43.24656,"lon":5.38892,"is_reserved":false,"is_disabled":false,"rental_uris":{"android":"levelo://app?vid=d705ef2b-d72b-417f-b321-d9710b5a9281","ios":"levelo://app?vid=d705ef2b-d72b-417f-b321-d9710b5a9281"},"vehicle_type_id":"4","last_reported":1734368977,"current_range_meters":16000,"station_id":"ce4bhg12rcd13ifvqf60","pricing_plan_id":"cebpf4jnsgd1na2vs0mg"},{"bike_id":"d2a45f7f-86b4-4207-a84a-4507d700d1e3","system_id":"levelo_inurba_marseille","lat":43.317409,"lon":5.390083,"is_reserved":false,"is_disabled":false,"rental_uris":{"android":"levelo://app?vid=d2a45f7f-86b4-4207-a84a-4507d700d1e3","ios":"levelo://app?vid=d2a45f7f-86b4-4207-a84a-4507d700d1e3"},"vehicle_type_id":"4","last_reported":1734368977,"current_range_meters":38800,"station_id":"ce4bhqp2rcd13ifvqhng","pricing_plan_id":"cebpf4jnsgd1na2vs0mg"},{"bike_id":"b080cd93-ae1d-416c-aff0-33280d88921a","system_id":"levelo_inurba_marseille","lat":43.26499,"lon":5.39511,"is_reserved":false,"is_disabled":false,"rental_uris":{"android":"levelo://app?vid=b080cd93-ae1d-416c-aff0-33280d88921a","ios":"levelo://app?vid=b080cd93-ae1d-416c-aff0-33280d88921a"},"vehicle_type_id":"4","last_reported":1734368977,"current_range_meters":35600,"station_id":"ce4bhi12rcd13ifvqfq0","pricing_plan_id":"cebpf4jnsgd1na2vs0mg"},{"bike_id":"818655c2-9e4a-485a-b6f8-75b9611689aa","system_id":"levelo_inurba_marseille","lat":43.29281,"lon":5.40117,"is_reserved":false,"is_disabled":false,"rental_uris":{"android":"levelo://app?vid=818655c2-9e4a-485a-b6f8-75b9611689aa","ios":"levelo://app?vid=818655c2-9e4a-485a-b6f8-75b9611689aa"},"vehicle_type_id":"4","last_reported":1734368977,"current_range_meters":39200,"station_id":"ce4bh312rcd13ifvqdk0","pricing_plan_id":"cebpf4jnsgd1na2vs0mg"},{"bike_id":"64f7a83e-b4af-41c6-9acd-3e77cd26e6f7","system_id":"levelo_inurba_marseille","lat":43.24078,"lon":5.37755,"is_reserved":false,"is_disabled":false,"rental_uris":{"android":"levelo://app?vid=64f7a83e-b4af-41c6-9acd-3e77cd26e6f7","ios":"levelo://app?vid=64f7a83e-b4af-41c6-9acd-3e77cd26e6f7"},"vehicle_type_id":"4","last_reported":1734368977,"current_range_meters":37600,"station_id":"ce4bhnp2rcd13ifvqgvg","pricing_plan_id":"cebpf4jnsgd1na2vs0mg"},{"bike_id":"012bf7e8-caab-4a76-ac9e-eb37f258f686","system_id":"levelo_inurba_marseille","lat":43.24395,"lon":5.37043,"is_reserved":false,"is_disabled":false,"rental_uris":{"android":"levelo://app?vid=012bf7e8-caab-4a76-ac9e-eb37f258f686","ios":"levelo://app?vid=012bf7e8-caab-4a76-ac9e-eb37f258f686"},"vehicle_type_id":"4","last_reported":1734368977,"current_range_meters":38800,"station_id":"ce4bhhh2rcd13ifvqfk0","pricing_plan_id":"cebpf4jnsgd1na2vs0mg"},{"bike_id":"048ede08-1dd8-40d1-8404-3b85f61fc0d5","system_id":"levelo_inurba_marseille","lat":43.29556,"lon":5.4229,"is_reserved":false,"is_disabled":false,"rental_uris":{"android":"levelo://app?vid=048ede08-1dd8-40d1-8404-3b85f61fc0d5","ios":"levelo://app?vid=048ede08-1dd8-40d1-8404-3b85f61fc0d5"},"vehicle_type_id":"4","last_reported":1734368977,"current_range_meters":3200,"station_id":"ce4bhph2rcd13ifvqhdg","pricing_plan_id":"cebpf4jnsgd1na2vs0mg"},{"bike_id":"26e4e797-93f6-434c-9aa3-e5da0aef2594","system_id":"levelo_inurba_marseille","lat":43.301,"lon":5.39075,"is_reserved":false,"is_disabled":false,"rental_uris":{"android":"levelo://app?vid=26e4e797-93f6-434c-9aa3-e5da0aef2594","ios":"levelo://app?vid=26e4e797-93f6-434c-9aa3-e5da0aef2594"},"vehicle_type_id":"4","last_reported":1734368977,"current_range_meters":39200,"station_id":"ce4bh192rcd13ifvqdb0","pricing_plan_id":"cebpf4jnsgd1na2vs0mg"},{"bike_id":"a3ae6ee4-d060-4597-a716-f8c3846f7f84","system_id":"levelo_inurba_marseille","lat":43.28285,"lon":5.35061,"is_reserved":false,"is_disabled":false,"rental_uris":{"android":"levelo://app?vid=a3ae6ee4-d060-4597-a716-f8c3846f7f84","ios":"levelo://app?vid=a3ae6ee4-d060-4597-a716-f8c3846f7f84"},"vehicle_type_id":"4","last_reported":1734368977,"current_range_meters":38800,"station_id":"ce4bhbp2rcd13ifvqerg","pricing_plan_id":"cebpf4jnsgd1na2vs0mg"},{"bike_id":"074e9dc8-f6cf-4bd7-b43d-e16a09d8bc72","system_id":"levelo_inurba_marseille","lat":43.26514,"lon":5.39547,"is_reserved":false,"is_disabled":false,"rental_uris":{"android":"levelo://app?vid=074e9dc8-f6cf-4bd7-b43d-e16a09d8bc72","ios":"levelo://app?vid=074e9dc8-f6cf-4bd7-b43d-e16a09d8bc72"},"vehicle_type_id":"4","last_reported":1734368977,"current_range_meters":38400,"station_id":"ce4bhi12rcd13ifvqfq0","pricing_plan_id":"cebpf4jnsgd1na2vs0mg"},{"bike_id":"d73245ea-485d-4efc-a5b4-3992c07541e8","system_id":"levelo_inurba_marseille","lat":43.330285,"lon":5.390345,"is_reserved":false,"is_disabled":false,"rental_uris":{"android":"levelo://app?vid=d73245ea-485d-4efc-a5b4-3992c07541e8","ios":"levelo://app?vid=d73245ea-485d-4efc-a5b4-3992c07541e8"},"vehicle_type_id":"4","last_reported":1734368977,"current_range_meters":2800,"station_id":"ce4bhr92rcd13ifvqhrg","pricing_plan_id":"cebpf4jnsgd1na2vs0mg"},{"bike_id":"403c1fe0-6db0-43ab-acb4-ce56e4fab5d6","system_id":"levelo_inurba_marseille","lat":43.23198,"lon":5.35537,"is_reserved":false,"is_disabled":false,"rental_uris":{"android":"levelo://app?vid=403c1fe0-6db0-43ab-acb4-ce56e4fab5d6","ios":"levelo://app?vid=403c1fe0-6db0-43ab-acb4-ce56e4fab5d6"},"vehicle_type_id":"4","last_reported":1734368977,"current_range_meters":35600,"station_id":"ce4bhu92rcd13ifvqi70","pricing_plan_id":"cebpf4jnsgd1na2vs0mg"},{"bike_id":"53e42023-e252-4b7f-a9eb-a99e355c181f","system_id":"levelo_inurba_marseille","lat":43.28724,"lon":5.36097,"is_reserved":false,"is_disabled":false,"rental_uris":{"android":"levelo://app?vid=53e42023-e252-4b7f-a9eb-a99e355c181f","ios":"levelo://app?vid=53e42023-e252-4b7f-a9eb-a99e355c181f"},"vehicle_type_id":"4","last_reported":1734368977,"current_range_meters":36800,"station_id":"cki0cbj6b192h4jlfktg","pricing_plan_id":"cebpf4jnsgd1na2vs0mg"},{"bike_id":"0ee20815-8f34-4941-8cad-65fb17591ff3","system_id":"levelo_inurba_marseille","lat":43.30419,"lon":5.41292,"is_reserved":false,"is_disabled":false,"rental_uris":{"android":"levelo://app?vid=0ee20815-8f34-4941-8cad-65fb17591ff3","ios":"levelo://app?vid=0ee20815-8f34-4941-8cad-65fb17591ff3"},"vehicle_type_id":"4","last_reported":1734368977,"current_range_meters":17600,"station_id":"ce4bhop2rcd13ifvqh8g","pricing_plan_id":"cebpf4jnsgd1na2vs0mg"},{"bike_id":"93c5eb91-3fba-4bf2-b5c1-03c9a75bad92","system_id":"levelo_inurba_marseille","lat":43.25086,"lon":5.39525,"is_reserved":false,"is_disabled":false,"rental_uris":{"android":"levelo://app?vid=93c5eb91-3fba-4bf2-b5c1-03c9a75bad92","ios":"levelo://app?vid=93c5eb91-3fba-4bf2-b5c1-03c9a75bad92"},"vehicle_type_id":"4","last_reported":1734368977,"current_range_meters":8800,"station_id":"ce4bhm12rcd13ifvqgkg","pricing_plan_id":"cebpf4jnsgd1na2vs0mg"},{"bike_id":"ee5a19c7-3945-4345-9bc6-93f750933a0e","system_id":"levelo_inurba_marseille","lat":43.31373,"lon":5.38492,"is_reserved":false,"is_disabled":false,"rental_uris":{"android":"levelo://app?vid=ee5a19c7-3945-4345-9bc6-93f750933a0e","ios":"levelo://app?vid=ee5a19c7-3945-4345-9bc6-93f750933a0e"},"vehicle_type_id":"4","last_reported":1734368977,"current_range_meters":16800,"station_id":"ce4bgt92rcd13ifvqcf0","pricing_plan_id":"cebpf4jnsgd1na2vs0mg"},{"bike_id":"01bc48da-1446-4ddc-b096-d121374e5c31","system_id":"levelo_inurba_marseille","lat":43.27952,"lon":5.38727,"is_reserved":false,"is_disabled":true,"rental_uris":{"android":"levelo://app?vid=01bc48da-1446-4ddc-b096-d121374e5c31","ios":"levelo://app?vid=01bc48da-1446-4ddc-b096-d121374e5c31"},"vehicle_type_id":"4","last_reported":1734368977,"current_range_meters":0,"station_id":"ce4bhg12rcd13ifvqf80","pricing_plan_id":"cebpf4jnsgd1na2vs0mg"},{"bike_id":"7c40477e-8318-4db5-b5dd-8b5e77068398","system_id":"levelo_inurba_marseille","lat":43.24654,"lon":5.38897,"is_reserved":false,"is_disabled":false,"rental_uris":{"android":"levelo://app?vid=7c40477e-8318-4db5-b5dd-8b5e77068398","ios":"levelo://app?vid=7c40477e-8318-4db5-b5dd-8b5e77068398"},"vehicle_type_id":"4","last_reported":1734368977,"current_range_meters":4800,"station_id":"ce4bhg12rcd13ifvqf60","pricing_plan_id":"cebpf4jnsgd1na2vs0mg"},{"bike_id":"48ad5c9c-e769-4d33-974f-31ac7dadf709","system_id":"levelo_inurba_marseille","lat":43.29964,"lon":5.38493,"is_reserved":false,"is_disabled":false,"rental_uris":{"android":"levelo://app?vid=48ad5c9c-e769-4d33-974f-31ac7dadf709","ios":"levelo://app?vid=48ad5c9c-e769-4d33-974f-31ac7dadf709"},"vehicle_type_id":"4","last_reported":1734368977,"current_range_meters":400,"station_id":"ce4bgj92rcd13ifvqbd0","pricing_plan_id":"cebpf4jnsgd1na2vs0mg"},{"bike_id":"ad3e51cb-df7c-4ce4-b243-f609a121c657","system_id":"levelo_inurba_marseille","lat":43.24169,"lon":5.36402,"is_reserved":false,"is_disabled":false,"rental_uris":{"android":"levelo://app?vid=ad3e51cb-df7c-4ce4-b243-f609a121c657","ios":"levelo://app?vid=ad3e51cb-df7c-4ce4-b243-f609a121c657"},"vehicle_type_id":"4","last_reported":1734368977,"current_range_meters":20400,"station_id":"cpo36qri1sfpv3e86is0","pricing_plan_id":"cebpf4jnsgd1na2vs0mg"},{"bike_id":"db80823b-e8eb-42a9-8267-22295003d0eb","system_id":"levelo_inurba_marseille","lat":43.28838,"lon":5.39314,"is_reserved":false,"is_disabled":false,"rental_uris":{"android":"levelo://app?vid=db80823b-e8eb-42a9-8267-22295003d0eb","ios":"levelo://app?vid=db80823b-e8eb-42a9-8267-22295003d0eb"},"vehicle_type_id":"4","last_reported":1734368977,"current_range_meters":29600,"station_id":"ce4bh2p2rcd13ifvqdi0","pricing_plan_id":"cebpf4jnsgd1na2vs0mg"},{"bike_id":"6c2f8196-548c-49d5-bcb1-35ab07679de5","system_id":"levelo_inurba_marseille","lat":43.31757,"lon":5.39001,"is_reserved":false,"is_disabled":false,"rental_uris":{"android":"levelo://app?vid=6c2f8196-548c-49d5-bcb1-35ab07679de5","ios":"levelo://app?vid=6c2f8196-548c-49d5-bcb1-35ab07679de5"},"vehicle_type_id":"4","last_reported":1734368977,"current_range_meters":35200,"station_id":"ce4bhqp2rcd13ifvqhng","pricing_plan_id":"cebpf4jnsgd1na2vs0mg"},{"bike_id":"c59837dc-8d74-4db1-b183-a5034d718c43","system_id":"levelo_inurba_marseille","lat":43.25678,"lon":5.39991,"is_reserved":false,"is_disabled":true,"rental_uris":{"android":"levelo://app?vid=c59837dc-8d74-4db1-b183-a5034d718c43","ios":"levelo://app?vid=c59837dc-8d74-4db1-b183-a5034d718c43"},"vehicle_type_id":"4","last_reported":1734368977,"current_range_meters":800,"station_id":"","pricing_plan_id":"cebpf4jnsgd1na2vs0mg"},{"bike_id":"ba3f42e3-cd58-4396-8367-161560e00f86","system_id":"levelo_inurba_marseille","lat":43.25865,"lon":5.39899,"is_reserved":false,"is_disabled":false,"rental_uris":{"android":"levelo://app?vid=ba3f42e3-cd58-4396-8367-161560e00f86","ios":"levelo://app?vid=ba3f42e3-cd58-4396-8367-161560e00f86"},"vehicle_type_id":"4","last_reported":1734368977,"current_range_meters":38800,"station_id":"ce4bhl92rcd13ifvqghg","pricing_plan_id":"cebpf4jnsgd1na2vs0mg"},{"bike_id":"81391304-b451-4119-80ac-f61ef4862eb2","system_id":"levelo_inurba_marseille","lat":43.337444,"lon":5.374475,"is_reserved":false,"is_disabled":true,"rental_uris":{"android":"levelo://app?vid=81391304-b451-4119-80ac-f61ef4862eb2","ios":"levelo://app?vid=81391304-b451-4119-80ac-f61ef4862eb2"},"vehicle_type_id":"4","last_reported":1734368977,"current_range_meters":0,"station_id":"","pricing_plan_id":"cebpf4jnsgd1na2vs0mg"},{"bike_id":"4df995cc-c345-4604-99fa-5c6fa694df27","system_id":"levelo_inurba_marseille","lat":43.29793,"lon":5.38098,"is_reserved":false,"is_disabled":false,"rental_uris":{"android":"levelo://app?vid=4df995cc-c345-4604-99fa-5c6fa694df27","ios":"levelo://app?vid=4df995cc-c345-4604-99fa-5c6fa694df27"},"vehicle_type_id":"4","last_reported":1734368977,"current_range_meters":19200,"station_id":"ce4bgip2rcd13ifvqbb0","pricing_plan_id":"cebpf4jnsgd1na2vs0mg"},{"bike_id":"d8ae6b7c-c981-4c70-a21c-bb13552f8641","system_id":"levelo_inurba_marseille","lat":43.3121,"lon":5.37187,"is_reserved":false,"is_disabled":false,"rental_uris":{"android":"levelo://app?vid=d8ae6b7c-c981-4c70-a21c-bb13552f8641","ios":"levelo://app?vid=d8ae6b7c-c981-4c70-a21c-bb13552f8641"},"vehicle_type_id":"4","last_reported":1734368977,"current_range_meters":28000,"station_id":"","pricing_plan_id":"cebpf4jnsgd1na2vs0mg"},{"bike_id":"15f71a9f-864d-48de-9d20-f621cbff105e","system_id":"levelo_inurba_marseille","lat":43.26806,"lon":5.4027,"is_reserved":false,"is_disabled":false,"rental_uris":{"android":"levelo://app?vid=15f71a9f-864d-48de-9d20-f621cbff105e","ios":"levelo://app?vid=15f71a9f-864d-48de-9d20-f621cbff105e"},"vehicle_type_id":"4","last_reported":1734368977,"current_range_meters":36800,"station_id":"ce501612rcd8frsf0b60","pricing_plan_id":"cebpf4jnsgd1na2vs0mg"},{"bike_id":"17f01b12-4f47-41bf-bc3c-647df4c39a51","system_id":"levelo_inurba_marseille","lat":43.30665,"lon":5.40097,"is_reserved":false,"is_disabled":false,"rental_uris":{"android":"levelo://app?vid=17f01b12-4f47-41bf-bc3c-647df4c39a51","ios":"levelo://app?vid=17f01b12-4f47-41bf-bc3c-647df4c39a51"},"vehicle_type_id":"4","last_reported":1734368977,"current_range_meters":16400,"station_id":"ce4bh112rcd13ifvqda0","pricing_plan_id":"cebpf4jnsgd1na2vs0mg"},{"bike_id":"72b8a19f-950c-483a-bd81-5a134afcbaea","system_id":"levelo_inurba_marseille","lat":43.3373,"lon":5.39187,"is_reserved":false,"is_disabled":false,"rental_uris":{"android":"levelo://app?vid=72b8a19f-950c-483a-bd81-5a134afcbaea","ios":"levelo://app?vid=72b8a19f-950c-483a-bd81-5a134afcbaea"},"vehicle_type_id":"4","last_reported":1734368977,"current_range_meters":38800,"station_id":"ce4bhr92rcd13ifvqhsg","pricing_plan_id":"cebpf4jnsgd1na2vs0mg"},{"bike_id":"44f96960-c68d-4b2c-b71c-c5d3e07c8dca","system_id":"levelo_inurba_marseille","lat":43.290974,"lon":5.381244,"is_reserved":false,"is_disabled":false,"rental_uris":{"android":"levelo://app?vid=44f96960-c68d-4b2c-b71c-c5d3e07c8dca","ios":"levelo://app?vid=44f96960-c68d-4b2c-b71c-c5d3e07c8dca"},"vehicle_type_id":"4","last_reported":1734368977,"current_range_meters":20800,"station_id":"ce4bh512rcd13ifvqe2g","pricing_plan_id":"cebpf4jnsgd1na2vs0mg"},{"bike_id":"455ff894-0f8d-49d6-99e8-c94f68fdd6e4","system_id":"levelo_inurba_marseille","lat":43.28999,"lon":5.35612,"is_reserved":false,"is_disabled":false,"rental_uris":{"android":"levelo://app?vid=455ff894-0f8d-49d6-99e8-c94f68fdd6e4","ios":"levelo://app?vid=455ff894-0f8d-49d6-99e8-c94f68fdd6e4"},"vehicle_type_id":"4","last_reported":1734368977,"current_range_meters":38400,"station_id":"ce4bhb92rcd13ifvqen0","pricing_plan_id":"cebpf4jnsgd1na2vs0mg"},{"bike_id":"cbb4b5f9-0f68-4d0d-a383-0e7daa478ce9","system_id":"levelo_inurba_marseille","lat":43.28674,"lon":5.36355,"is_reserved":false,"is_disabled":false,"rental_uris":{"android":"levelo://app?vid=cbb4b5f9-0f68-4d0d-a383-0e7daa478ce9","ios":"levelo://app?vid=cbb4b5f9-0f68-4d0d-a383-0e7daa478ce9"},"vehicle_type_id":"4","last_reported":1734368977,"current_range_meters":37600,"station_id":"ce4bhah2rcd13ifvqej0","pricing_plan_id":"cebpf4jnsgd1na2vs0mg"},{"bike_id":"7265c973-6b3a-4501-9796-23699afd7d62","system_id":"levelo_inurba_marseille","lat":43.3042,"lon":5.39746,"is_reserved":false,"is_disabled":true,"rental_uris":{"android":"levelo://app?vid=7265c973-6b3a-4501-9796-23699afd7d62","ios":"levelo://app?vid=7265c973-6b3a-4501-9796-23699afd7d62"},"vehicle_type_id":"4","last_reported":1734368977,"current_range_meters":400,"station_id":"ce4bh092rcd13ifvqd20","pricing_plan_id":"cebpf4jnsgd1na2vs0mg"},{"bike_id":"1591dede-887b-41d4-b3a1-452ef5328a4f","system_id":"levelo_inurba_marseille","lat":43.29565,"lon":5.42283,"is_reserved":false,"is_disabled":false,"rental_uris":{"android":"levelo://app?vid=1591dede-887b-41d4-b3a1-452ef5328a4f","ios":"levelo://app?vid=1591dede-887b-41d4-b3a1-452ef5328a4f"},"vehicle_type_id":"4","last_reported":1734368977,"current_range_meters":39200,"station_id":"ce4bhph2rcd13ifvqhdg","pricing_plan_id":"cebpf4jnsgd1na2vs0mg"},{"bike_id":"6d508ea7-1740-47db-a8c4-e7c1f75d5945","system_id":"levelo_inurba_marseille","lat":43.26945,"lon":5.38628,"is_reserved":false,"is_disabled":true,"rental_uris":{"android":"levelo://app?vid=6d508ea7-1740-47db-a8c4-e7c1f75d5945","ios":"levelo://app?vid=6d508ea7-1740-47db-a8c4-e7c1f75d5945"},"vehicle_type_id":"4","last_reported":1734368977,"current_range_meters":0,"station_id":"ce4bhh92rcd13ifvqfh0","pricing_plan_id":"cebpf4jnsgd1na2vs0mg"},{"bike_id":"83847b59-4e95-4b65-8724-c7049dbfa1d4","system_id":"levelo_inurba_marseille","lat":43.31276,"lon":5.40166,"is_reserved":false,"is_disabled":false,"rental_uris":{"android":"levelo://app?vid=83847b59-4e95-4b65-8724-c7049dbfa1d4","ios":"levelo://app?vid=83847b59-4e95-4b65-8724-c7049dbfa1d4"},"vehicle_type_id":"4","last_reported":1734368977,"current_range_meters":31200,"station_id":"ce4bh092rcd13ifvqd30","pricing_plan_id":"cebpf4jnsgd1na2vs0mg"},{"bike_id":"15aef3a8-c197-412c-aaba-f18c85807968","system_id":"levelo_inurba_marseille","lat":43.30142,"lon":5.38057,"is_reserved":false,"is_disabled":false,"rental_uris":{"android":"levelo://app?vid=15aef3a8-c197-412c-aaba-f18c85807968","ios":"levelo://app?vid=15aef3a8-c197-412c-aaba-f18c85807968"},"vehicle_type_id":"4","last_reported":1734368977,"current_range_meters":37600,"station_id":"ce4bgjp2rcd13ifvqbh0","pricing_plan_id":"cebpf4jnsgd1na2vs0mg"},{"bike_id":"c2a20664-1dab-4fe3-aa68-b7976e345e03","system_id":"levelo_inurba_marseille","lat":43.27956,"lon":5.38744,"is_reserved":false,"is_disabled":false,"rental_uris":{"android":"levelo://app?vid=c2a20664-1dab-4fe3-aa68-b7976e345e03","ios":"levelo://app?vid=c2a20664-1dab-4fe3-aa68-b7976e345e03"},"vehicle_type_id":"4","last_reported":1734368977,"current_range_meters":36800,"station_id":"ce4bhg12rcd13ifvqf80","pricing_plan_id":"cebpf4jnsgd1na2vs0mg"},{"bike_id":"dc29da33-6bba-4ec1-8aff-5e63b5dd4a23","system_id":"levelo_inurba_marseille","lat":43.24647,"lon":5.38917,"is_reserved":false,"is_disabled":false,"rental_uris":{"android":"levelo://app?vid=dc29da33-6bba-4ec1-8aff-5e63b5dd4a23","ios":"levelo://app?vid=dc29da33-6bba-4ec1-8aff-5e63b5dd4a23"},"vehicle_type_id":"4","last_reported":1734368977,"current_range_meters":18000,"station_id":"ce4bhg12rcd13ifvqf60","pricing_plan_id":"cebpf4jnsgd1na2vs0mg"},{"bike_id":"26579991-0e4b-445a-93aa-31ab44d1afae","system_id":"levelo_inurba_marseille","lat":43.33604,"lon":5.40976,"is_reserved":false,"is_disabled":true,"rental_uris":{"android":"levelo://app?vid=26579991-0e4b-445a-93aa-31ab44d1afae","ios":"levelo://app?vid=26579991-0e4b-445a-93aa-31ab44d1afae"},"vehicle_type_id":"4","last_reported":1734368977,"current_range_meters":38000,"station_id":"ce4bhqh2rcd13ifvqhmg","pricing_plan_id":"cebpf4jnsgd1na2vs0mg"},{"bike_id":"c1f2f608-52c4-4bfc-9fa5-8849aa0a4af5","system_id":"levelo_inurba_marseille","lat":43.27818,"lon":5.40711,"is_reserved":false,"is_disabled":false,"rental_uris":{"android":"levelo://app?vid=c1f2f608-52c4-4bfc-9fa5-8849aa0a4af5","ios":"levelo://app?vid=c1f2f608-52c4-4bfc-9fa5-8849aa0a4af5"},"vehicle_type_id":"4","last_reported":1734368977,"current_range_meters":37600,"station_id":"ce4bhnh2rcd13ifvqgtg","pricing_plan_id":"cebpf4jnsgd1na2vs0mg"},{"bike_id":"f98df9a5-eef6-4549-adbb-88b76f0823c3","system_id":"levelo_inurba_marseille","lat":43.29198,"lon":5.35804,"is_reserved":false,"is_disabled":false,"rental_uris":{"android":"levelo://app?vid=f98df9a5-eef6-4549-adbb-88b76f0823c3","ios":"levelo://app?vid=f98df9a5-eef6-4549-adbb-88b76f0823c3"},"vehicle_type_id":"4","last_reported":1734368977,"current_range_meters":26800,"station_id":"ce4bhb12rcd13ifvqel0","pricing_plan_id":"cebpf4jnsgd1na2vs0mg"},{"bike_id":"dee21283-4521-4c1a-b53d-9510ded6ec60","system_id":"levelo_inurba_marseille","lat":43.23974,"lon":5.36633,"is_reserved":false,"is_disabled":false,"rental_uris":{"android":"levelo://app?vid=dee21283-4521-4c1a-b53d-9510ded6ec60","ios":"levelo://app?vid=dee21283-4521-4c1a-b53d-9510ded6ec60"},"vehicle_type_id":"4","last_reported":1734368977,"current_range_meters":38800,"station_id":"ce4bhi12rcd13ifvqfp0","pricing_plan_id":"cebpf4jnsgd1na2vs0mg"},{"bike_id":"f3b200a5-6a23-406b-a9ec-5ae4da8a9a05","system_id":"levelo_inurba_marseille","lat":43.30098,"lon":5.39082,"is_reserved":false,"is_disabled":false,"rental_uris":{"android":"levelo://app?vid=f3b200a5-6a23-406b-a9ec-5ae4da8a9a05","ios":"levelo://app?vid=f3b200a5-6a23-406b-a9ec-5ae4da8a9a05"},"vehicle_type_id":"4","last_reported":1734368977,"current_range_meters":29600,"station_id":"ce4bh192rcd13ifvqdb0","pricing_plan_id":"cebpf4jnsgd1na2vs0mg"},{"bike_id":"d73e2f90-cb05-4208-9e7d-881ba02830d2","system_id":"levelo_inurba_marseille","lat":43.29558,"lon":5.42292,"is_reserved":false,"is_disabled":false,"rental_uris":{"android":"levelo://app?vid=d73e2f90-cb05-4208-9e7d-881ba02830d2","ios":"levelo://app?vid=d73e2f90-cb05-4208-9e7d-881ba02830d2"},"vehicle_type_id":"4","last_reported":1734368977,"current_range_meters":19600,"station_id":"ce4bhph2rcd13ifvqhdg","pricing_plan_id":"cebpf4jnsgd1na2vs0mg"},{"bike_id":"e6ee4bb2-6f45-4a12-bd0d-9861c46e29dc","system_id":"levelo_inurba_marseille","lat":43.27809,"lon":5.40716,"is_reserved":false,"is_disabled":false,"rental_uris":{"android":"levelo://app?vid=e6ee4bb2-6f45-4a12-bd0d-9861c46e29dc","ios":"levelo://app?vid=e6ee4bb2-6f45-4a12-bd0d-9861c46e29dc"},"vehicle_type_id":"4","last_reported":1734368977,"current_range_meters":28800,"station_id":"ce4bhnh2rcd13ifvqgtg","pricing_plan_id":"cebpf4jnsgd1na2vs0mg"},{"bike_id":"dae97950-0374-4423-9db2-8c0655b9beb5","system_id":"levelo_inurba_marseille","lat":43.31345,"lon":5.36781,"is_reserved":false,"is_disabled":false,"rental_uris":{"android":"levelo://app?vid=dae97950-0374-4423-9db2-8c0655b9beb5","ios":"levelo://app?vid=dae97950-0374-4423-9db2-8c0655b9beb5"},"vehicle_type_id":"4","last_reported":1734368977,"current_range_meters":10800,"station_id":"ce4bgr92rcd13ifvqc6g","pricing_plan_id":"cebpf4jnsgd1na2vs0mg"},{"bike_id":"0498c26d-805e-423c-bc34-f88af545e1b7","system_id":"levelo_inurba_marseille","lat":43.27557,"lon":5.3841,"is_reserved":false,"is_disabled":false,"rental_uris":{"android":"levelo://app?vid=0498c26d-805e-423c-bc34-f88af545e1b7","ios":"levelo://app?vid=0498c26d-805e-423c-bc34-f88af545e1b7"},"vehicle_type_id":"4","last_reported":1734368977,"current_range_meters":9600,"station_id":"ce4bhh92rcd13ifvqfi0","pricing_plan_id":"cebpf4jnsgd1na2vs0mg"},{"bike_id":"026f0ae5-8686-448f-bb9f-701b34a7ac3d","system_id":"levelo_inurba_marseille","lat":43.31071,"lon":5.38344,"is_reserved":false,"is_disabled":false,"rental_uris":{"android":"levelo://app?vid=026f0ae5-8686-448f-bb9f-701b34a7ac3d","ios":"levelo://app?vid=026f0ae5-8686-448f-bb9f-701b34a7ac3d"},"vehicle_type_id":"4","last_reported":1734368977,"current_range_meters":38800,"station_id":"ce4bgv92rcd13ifvqcr0","pricing_plan_id":"cebpf4jnsgd1na2vs0mg"},{"bike_id":"d7698378-b37b-44fb-9725-2525a3d72ae3","system_id":"levelo_inurba_marseille","lat":43.26506,"lon":5.39539,"is_reserved":false,"is_disabled":true,"rental_uris":{"android":"levelo://app?vid=d7698378-b37b-44fb-9725-2525a3d72ae3","ios":"levelo://app?vid=d7698378-b37b-44fb-9725-2525a3d72ae3"},"vehicle_type_id":"4","last_reported":1734368977,"current_range_meters":4000,"station_id":"ce4bhi12rcd13ifvqfq0","pricing_plan_id":"cebpf4jnsgd1na2vs0mg"},{"bike_id":"7f5dc927-c1bf-4ee7-88cd-da897c6b8dde","system_id":"levelo_inurba_marseille","lat":43.30571,"lon":5.36771,"is_reserved":false,"is_disabled":false,"rental_uris":{"android":"levelo://app?vid=7f5dc927-c1bf-4ee7-88cd-da897c6b8dde","ios":"levelo://app?vid=7f5dc927-c1bf-4ee7-88cd-da897c6b8dde"},"vehicle_type_id":"4","last_reported":1734368977,"current_range_meters":36000,"station_id":"ce4bgrp2rcd13ifvqc9g","pricing_plan_id":"cebpf4jnsgd1na2vs0mg"},{"bike_id":"3c4cfa80-caff-42e4-b530-3c27bd3d8583","system_id":"levelo_inurba_marseille","lat":43.28109,"lon":5.37702,"is_reserved":false,"is_disabled":false,"rental_uris":{"android":"levelo://app?vid=3c4cfa80-caff-42e4-b530-3c27bd3d8583","ios":"levelo://app?vid=3c4cfa80-caff-42e4-b530-3c27bd3d8583"},"vehicle_type_id":"4","last_reported":1734368977,"current_range_meters":26800,"station_id":"","pricing_plan_id":"cebpf4jnsgd1na2vs0mg"},{"bike_id":"5118704b-334f-48b2-877f-9f20521e377a","system_id":"levelo_inurba_marseille","lat":43.31175,"lon":5.3872,"is_reserved":false,"is_disabled":true,"rental_uris":{"android":"levelo://app?vid=5118704b-334f-48b2-877f-9f20521e377a","ios":"levelo://app?vid=5118704b-334f-48b2-877f-9f20521e377a"},"vehicle_type_id":"4","last_reported":1734368977,"current_range_meters":0,"station_id":"ce4bgv12rcd13ifvqcp0","pricing_plan_id":"cebpf4jnsgd1na2vs0mg"},{"bike_id":"c39b3f33-4c8b-41f7-b2f1-d64c26b0e4bd","system_id":"levelo_inurba_marseille","lat":43.28482,"lon":5.43849,"is_reserved":false,"is_disabled":true,"rental_uris":{"android":"levelo://app?vid=c39b3f33-4c8b-41f7-b2f1-d64c26b0e4bd","ios":"levelo://app?vid=c39b3f33-4c8b-41f7-b2f1-d64c26b0e4bd"},"vehicle_type_id":"4","last_reported":1734368977,"current_range_meters":0,"station_id":"","pricing_plan_id":"cebpf4jnsgd1na2vs0mg"},{"bike_id":"efc64cab-2ae2-4029-8589-a0acf02a271a","system_id":"levelo_inurba_marseille","lat":43.32337,"lon":5.40621,"is_reserved":false,"is_disabled":false,"rental_uris":{"android":"levelo://app?vid=efc64cab-2ae2-4029-8589-a0acf02a271a","ios":"levelo://app?vid=efc64cab-2ae2-4029-8589-a0acf02a271a"},"vehicle_type_id":"4","last_reported":1734368977,"current_range_meters":24000,"station_id":"ce4bhq92rcd13ifvqhjg","pricing_plan_id":"cebpf4jnsgd1na2vs0mg"},{"bike_id":"f4420437-f888-4a35-94aa-ef10a7d130f6","system_id":"levelo_inurba_marseille","lat":43.30139,"lon":5.39873,"is_reserved":false,"is_disabled":true,"rental_uris":{"android":"levelo://app?vid=f4420437-f888-4a35-94aa-ef10a7d130f6","ios":"levelo://app?vid=f4420437-f888-4a35-94aa-ef10a7d130f6"},"vehicle_type_id":"4","last_reported":1734368977,"current_range_meters":0,"station_id":"ce4bh0h2rcd13ifvqd40","pricing_plan_id":"cebpf4jnsgd1na2vs0mg"},{"bike_id":"5ffc39a5-7a4a-499e-9e1b-f06fcbe47d21","system_id":"levelo_inurba_marseille","lat":43.25718,"lon":5.41121,"is_reserved":false,"is_disabled":false,"rental_uris":{"android":"levelo://app?vid=5ffc39a5-7a4a-499e-9e1b-f06fcbe47d21","ios":"levelo://app?vid=5ffc39a5-7a4a-499e-9e1b-f06fcbe47d21"},"vehicle_type_id":"4","last_reported":1734368977,"current_range_meters":38800,"station_id":"ce4bhkp2rcd13ifvqgd0","pricing_plan_id":"cebpf4jnsgd1na2vs0mg"},{"bike_id":"232ae6c1-4156-48fa-b885-131e0552ef9d","system_id":"levelo_inurba_marseille","lat":43.31761,"lon":5.39002,"is_reserved":false,"is_disabled":false,"rental_uris":{"android":"levelo://app?vid=232ae6c1-4156-48fa-b885-131e0552ef9d","ios":"levelo://app?vid=232ae6c1-4156-48fa-b885-131e0552ef9d"},"vehicle_type_id":"4","last_reported":1734368977,"current_range_meters":11200,"station_id":"ce4bhqp2rcd13ifvqhng","pricing_plan_id":"cebpf4jnsgd1na2vs0mg"},{"bike_id":"ee31b251-55d0-4339-9395-4c2b4c707fd0","system_id":"levelo_inurba_marseille","lat":43.25716,"lon":5.41107,"is_reserved":false,"is_disabled":false,"rental_uris":{"android":"levelo://app?vid=ee31b251-55d0-4339-9395-4c2b4c707fd0","ios":"levelo://app?vid=ee31b251-55d0-4339-9395-4c2b4c707fd0"},"vehicle_type_id":"4","last_reported":1734368977,"current_range_meters":17200,"station_id":"ce4bhkp2rcd13ifvqgd0","pricing_plan_id":"cebpf4jnsgd1na2vs0mg"},{"bike_id":"01855138-f013-45a3-9d99-3819c8120925","system_id":"levelo_inurba_marseille","lat":43.23194,"lon":5.35547,"is_reserved":false,"is_disabled":false,"rental_uris":{"android":"levelo://app?vid=01855138-f013-45a3-9d99-3819c8120925","ios":"levelo://app?vid=01855138-f013-45a3-9d99-3819c8120925"},"vehicle_type_id":"4","last_reported":1734368977,"current_range_meters":39200,"station_id":"ce4bhu92rcd13ifvqi70","pricing_plan_id":"cebpf4jnsgd1na2vs0mg"},{"bike_id":"abb55a17-f36f-440e-8fea-a75937ab54c0","system_id":"levelo_inurba_marseille","lat":43.302141,"lon":5.394753,"is_reserved":false,"is_disabled":true,"rental_uris":{"android":"levelo://app?vid=abb55a17-f36f-440e-8fea-a75937ab54c0","ios":"levelo://app?vid=abb55a17-f36f-440e-8fea-a75937ab54c0"},"vehicle_type_id":"4","last_reported":1734368977,"current_range_meters":0,"station_id":"ce4bh0p2rcd13ifvqd70","pricing_plan_id":"cebpf4jnsgd1na2vs0mg"},{"bike_id":"3ac363dd-ac40-4eff-81a0-c3b72746b35c","system_id":"levelo_inurba_marseille","lat":43.337444,"lon":5.374475,"is_reserved":false,"is_disabled":true,"rental_uris":{"android":"levelo://app?vid=3ac363dd-ac40-4eff-81a0-c3b72746b35c","ios":"levelo://app?vid=3ac363dd-ac40-4eff-81a0-c3b72746b35c"},"vehicle_type_id":"4","last_reported":1734368977,"current_range_meters":0,"station_id":"","pricing_plan_id":"cebpf4jnsgd1na2vs0mg"},{"bike_id":"e7710428-ab62-4ba2-aa0a-18c4368ff8dc","system_id":"levelo_inurba_marseille","lat":43.29822,"lon":5.4009,"is_reserved":false,"is_disabled":false,"rental_uris":{"android":"levelo://app?vid=e7710428-ab62-4ba2-aa0a-18c4368ff8dc","ios":"levelo://app?vid=e7710428-ab62-4ba2-aa0a-18c4368ff8dc"},"vehicle_type_id":"4","last_reported":1734368977,"current_range_meters":28800,"station_id":"","pricing_plan_id":"cebpf4jnsgd1na2vs0mg"},{"bike_id":"7cbe543d-1ea1-43d8-b87e-222a759b3e4b","system_id":"levelo_inurba_marseille","lat":43.29422,"lon":5.38623,"is_reserved":false,"is_disabled":false,"rental_uris":{"android":"levelo://app?vid=7cbe543d-1ea1-43d8-b87e-222a759b3e4b","ios":"levelo://app?vid=7cbe543d-1ea1-43d8-b87e-222a759b3e4b"},"vehicle_type_id":"4","last_reported":1734368977,"current_range_meters":16400,"station_id":"ce4bh2h2rcd13ifvqdh0","pricing_plan_id":"cebpf4jnsgd1na2vs0mg"},{"bike_id":"ebe8339f-8e6a-4193-b30d-0f1c3face0a8","system_id":"levelo_inurba_marseille","lat":43.27561,"lon":5.3843,"is_reserved":false,"is_disabled":false,"rental_uris":{"android":"levelo://app?vid=ebe8339f-8e6a-4193-b30d-0f1c3face0a8","ios":"levelo://app?vid=ebe8339f-8e6a-4193-b30d-0f1c3face0a8"},"vehicle_type_id":"4","last_reported":1734368977,"current_range_meters":9600,"station_id":"ce4bhh92rcd13ifvqfi0","pricing_plan_id":"cebpf4jnsgd1na2vs0mg"},{"bike_id":"8d3fd4c6-860f-44be-8c7b-6d0f1c2d85a5","system_id":"levelo_inurba_marseille","lat":43.29795,"lon":5.38091,"is_reserved":false,"is_disabled":false,"rental_uris":{"android":"levelo://app?vid=8d3fd4c6-860f-44be-8c7b-6d0f1c2d85a5","ios":"levelo://app?vid=8d3fd4c6-860f-44be-8c7b-6d0f1c2d85a5"},"vehicle_type_id":"4","last_reported":1734368977,"current_range_meters":4400,"station_id":"ce4bgip2rcd13ifvqbb0","pricing_plan_id":"cebpf4jnsgd1na2vs0mg"},{"bike_id":"b320f5b3-bb98-4e90-81b3-01675554a8fc","system_id":"levelo_inurba_marseille","lat":43.26942,"lon":5.40253,"is_reserved":false,"is_disabled":false,"rental_uris":{"android":"levelo://app?vid=b320f5b3-bb98-4e90-81b3-01675554a8fc","ios":"levelo://app?vid=b320f5b3-bb98-4e90-81b3-01675554a8fc"},"vehicle_type_id":"4","last_reported":1734368977,"current_range_meters":16000,"station_id":"cjm6bp8fraef2m0cb0m0","pricing_plan_id":"cebpf4jnsgd1na2vs0mg"},{"bike_id":"a86894a9-1678-4576-bb4c-c34ec8af1e24","system_id":"levelo_inurba_marseille","lat":43.29609,"lon":5.37712,"is_reserved":false,"is_disabled":false,"rental_uris":{"android":"levelo://app?vid=a86894a9-1678-4576-bb4c-c34ec8af1e24","ios":"levelo://app?vid=a86894a9-1678-4576-bb4c-c34ec8af1e24"},"vehicle_type_id":"4","last_reported":1734368977,"current_range_meters":28400,"station_id":"ce4bgi92rcd13ifvqb90","pricing_plan_id":"cebpf4jnsgd1na2vs0mg"},{"bike_id":"01ae3b92-9173-4be7-9935-c5b867759b74","system_id":"levelo_inurba_marseille","lat":43.23188,"lon":5.35556,"is_reserved":false,"is_disabled":false,"rental_uris":{"android":"levelo://app?vid=01ae3b92-9173-4be7-9935-c5b867759b74","ios":"levelo://app?vid=01ae3b92-9173-4be7-9935-c5b867759b74"},"vehicle_type_id":"4","last_reported":1734368977,"current_range_meters":6400,"station_id":"ce4bhu92rcd13ifvqi70","pricing_plan_id":"cebpf4jnsgd1na2vs0mg"},{"bike_id":"6e2420b6-cff9-4ba0-8d32-4a14131ccfa9","system_id":"levelo_inurba_marseille","lat":43.26501,"lon":5.39541,"is_reserved":false,"is_disabled":false,"rental_uris":{"android":"levelo://app?vid=6e2420b6-cff9-4ba0-8d32-4a14131ccfa9","ios":"levelo://app?vid=6e2420b6-cff9-4ba0-8d32-4a14131ccfa9"},"vehicle_type_id":"4","last_reported":1734368977,"current_range_meters":8800,"station_id":"ce4bhi12rcd13ifvqfq0","pricing_plan_id":"cebpf4jnsgd1na2vs0mg"},{"bike_id":"fb491dce-b886-4c27-8ec5-04a90ce3bb68","system_id":"levelo_inurba_marseille","lat":43.27836,"lon":5.39199,"is_reserved":false,"is_disabled":true,"rental_uris":{"android":"levelo://app?vid=fb491dce-b886-4c27-8ec5-04a90ce3bb68","ios":"levelo://app?vid=fb491dce-b886-4c27-8ec5-04a90ce3bb68"},"vehicle_type_id":"4","last_reported":1734368977,"current_range_meters":0,"station_id":"ce4bhjp2rcd13ifvqga0","pricing_plan_id":"cebpf4jnsgd1na2vs0mg"},{"bike_id":"95cdb95c-998d-491d-8b0d-022da6848f23","system_id":"levelo_inurba_marseille","lat":43.27819,"lon":5.4071,"is_reserved":false,"is_disabled":false,"rental_uris":{"android":"levelo://app?vid=95cdb95c-998d-491d-8b0d-022da6848f23","ios":"levelo://app?vid=95cdb95c-998d-491d-8b0d-022da6848f23"},"vehicle_type_id":"4","last_reported":1734368977,"current_range_meters":38400,"station_id":"ce4bhnh2rcd13ifvqgtg","pricing_plan_id":"cebpf4jnsgd1na2vs0mg"},{"bike_id":"984c4783-f3c1-41c0-beb2-f45215bdb81b","system_id":"levelo_inurba_marseille","lat":43.2509,"lon":5.39518,"is_reserved":false,"is_disabled":false,"rental_uris":{"android":"levelo://app?vid=984c4783-f3c1-41c0-beb2-f45215bdb81b","ios":"levelo://app?vid=984c4783-f3c1-41c0-beb2-f45215bdb81b"},"vehicle_type_id":"4","last_reported":1734368977,"current_range_meters":19200,"station_id":"ce4bhm12rcd13ifvqgkg","pricing_plan_id":"cebpf4jnsgd1na2vs0mg"},{"bike_id":"f2dbe04d-3e5f-44b4-ab8b-a385590306a9","system_id":"levelo_inurba_marseille","lat":43.29416,"lon":5.38618,"is_reserved":false,"is_disabled":true,"rental_uris":{"android":"levelo://app?vid=f2dbe04d-3e5f-44b4-ab8b-a385590306a9","ios":"levelo://app?vid=f2dbe04d-3e5f-44b4-ab8b-a385590306a9"},"vehicle_type_id":"4","last_reported":1734368977,"current_range_meters":1200,"station_id":"ce4bh2h2rcd13ifvqdh0","pricing_plan_id":"cebpf4jnsgd1na2vs0mg"},{"bike_id":"51d298e4-3829-43d4-a4e8-d55f97934770","system_id":"levelo_inurba_marseille","lat":43.28711,"lon":5.37402,"is_reserved":false,"is_disabled":false,"rental_uris":{"android":"levelo://app?vid=51d298e4-3829-43d4-a4e8-d55f97934770","ios":"levelo://app?vid=51d298e4-3829-43d4-a4e8-d55f97934770"},"vehicle_type_id":"4","last_reported":1734368977,"current_range_meters":19200,"station_id":"ce4bh3p2rcd13ifvqdq0","pricing_plan_id":"cebpf4jnsgd1na2vs0mg"},{"bike_id":"1106dda1-b5c0-4a2f-bd2a-cda9021f3625","system_id":"levelo_inurba_marseille","lat":43.28572,"lon":5.39491,"is_reserved":false,"is_disabled":false,"rental_uris":{"android":"levelo://app?vid=1106dda1-b5c0-4a2f-bd2a-cda9021f3625","ios":"levelo://app?vid=1106dda1-b5c0-4a2f-bd2a-cda9021f3625"},"vehicle_type_id":"4","last_reported":1734368977,"current_range_meters":30000,"station_id":"ce4bh292rcd13ifvqdg0","pricing_plan_id":"cebpf4jnsgd1na2vs0mg"},{"bike_id":"b5947085-db4c-4f79-92b8-0dc6b042b9ac","system_id":"levelo_inurba_marseille","lat":43.29577,"lon":5.39973,"is_reserved":false,"is_disabled":false,"rental_uris":{"android":"levelo://app?vid=b5947085-db4c-4f79-92b8-0dc6b042b9ac","ios":"levelo://app?vid=b5947085-db4c-4f79-92b8-0dc6b042b9ac"},"vehicle_type_id":"4","last_reported":1734368977,"current_range_meters":18000,"station_id":"ce4bh312rcd13ifvqdj0","pricing_plan_id":"cebpf4jnsgd1na2vs0mg"},{"bike_id":"ae9101da-db7d-4786-af14-880a370243ea","system_id":"levelo_inurba_marseille","lat":43.23184,"lon":5.35546,"is_reserved":false,"is_disabled":false,"rental_uris":{"android":"levelo://app?vid=ae9101da-db7d-4786-af14-880a370243ea","ios":"levelo://app?vid=ae9101da-db7d-4786-af14-880a370243ea"},"vehicle_type_id":"4","last_reported":1734368977,"current_range_meters":9600,"station_id":"ce4bhu92rcd13ifvqi70","pricing_plan_id":"cebpf4jnsgd1na2vs0mg"},{"bike_id":"1e926599-53d8-4166-ba63-1add69354e53","system_id":"levelo_inurba_marseille","lat":43.26056,"lon":5.39397,"is_reserved":false,"is_disabled":false,"rental_uris":{"android":"levelo://app?vid=1e926599-53d8-4166-ba63-1add69354e53","ios":"levelo://app?vid=1e926599-53d8-4166-ba63-1add69354e53"},"vehicle_type_id":"4","last_reported":1734368977,"current_range_meters":31200,"station_id":"ce4bhh92rcd13ifvqfj0","pricing_plan_id":"cebpf4jnsgd1na2vs0mg"},{"bike_id":"75d10a3c-db5c-4cb9-91c6-006dfe588d3d","system_id":"levelo_inurba_marseille","lat":43.27943,"lon":5.41043,"is_reserved":false,"is_disabled":false,"rental_uris":{"android":"levelo://app?vid=75d10a3c-db5c-4cb9-91c6-006dfe588d3d","ios":"levelo://app?vid=75d10a3c-db5c-4cb9-91c6-006dfe588d3d"},"vehicle_type_id":"4","last_reported":1734368977,"current_range_meters":36800,"station_id":"ce4bhnp2rcd13ifvqh0g","pricing_plan_id":"cebpf4jnsgd1na2vs0mg"},{"bike_id":"b21f3b6d-615f-4d96-a792-424d7672b967","system_id":"levelo_inurba_marseille","lat":43.27171,"lon":5.40991,"is_reserved":false,"is_disabled":false,"rental_uris":{"android":"levelo://app?vid=b21f3b6d-615f-4d96-a792-424d7672b967","ios":"levelo://app?vid=b21f3b6d-615f-4d96-a792-424d7672b967"},"vehicle_type_id":"4","last_reported":1734368977,"current_range_meters":33600,"station_id":"ce4bhl12rcd13ifvqgf0","pricing_plan_id":"cebpf4jnsgd1na2vs0mg"},{"bike_id":"8b1e537e-c37b-4236-b3bc-e3f0ad4819b3","system_id":"levelo_inurba_marseille","lat":43.30891,"lon":5.37175,"is_reserved":false,"is_disabled":true,"rental_uris":{"android":"levelo://app?vid=8b1e537e-c37b-4236-b3bc-e3f0ad4819b3","ios":"levelo://app?vid=8b1e537e-c37b-4236-b3bc-e3f0ad4819b3"},"vehicle_type_id":"4","last_reported":1734368977,"current_range_meters":14400,"station_id":"ce4bguh2rcd13ifvqckg","pricing_plan_id":"cebpf4jnsgd1na2vs0mg"},{"bike_id":"3f112068-7e18-4ec7-b507-e98f7debf8b3","system_id":"levelo_inurba_marseille","lat":43.26062,"lon":5.39399,"is_reserved":false,"is_disabled":false,"rental_uris":{"android":"levelo://app?vid=3f112068-7e18-4ec7-b507-e98f7debf8b3","ios":"levelo://app?vid=3f112068-7e18-4ec7-b507-e98f7debf8b3"},"vehicle_type_id":"4","last_reported":1734368977,"current_range_meters":17600,"station_id":"ce4bhh92rcd13ifvqfj0","pricing_plan_id":"cebpf4jnsgd1na2vs0mg"},{"bike_id":"2fee8056-aabd-4fee-bf41-004c2168c1ba","system_id":"levelo_inurba_marseille","lat":43.289968,"lon":5.399061,"is_reserved":false,"is_disabled":false,"rental_uris":{"android":"levelo://app?vid=2fee8056-aabd-4fee-bf41-004c2168c1ba","ios":"levelo://app?vid=2fee8056-aabd-4fee-bf41-004c2168c1ba"},"vehicle_type_id":"4","last_reported":1734368977,"current_range_meters":20000,"station_id":"ce4bh392rcd13ifvqdm0","pricing_plan_id":"cebpf4jnsgd1na2vs0mg"},{"bike_id":"c53acec9-e800-4f68-ac87-b8f10185200e","system_id":"levelo_inurba_marseille","lat":43.27319,"lon":5.39084,"is_reserved":false,"is_disabled":false,"rental_uris":{"android":"levelo://app?vid=c53acec9-e800-4f68-ac87-b8f10185200e","ios":"levelo://app?vid=c53acec9-e800-4f68-ac87-b8f10185200e"},"vehicle_type_id":"4","last_reported":1734368977,"current_range_meters":24000,"station_id":"ce4bhgp2rcd13ifvqfe0","pricing_plan_id":"cebpf4jnsgd1na2vs0mg"},{"bike_id":"0994e96d-5c60-4b41-bd11-b27a37bf2cbb","system_id":"levelo_inurba_marseille","lat":43.30597,"lon":5.3802,"is_reserved":false,"is_disabled":false,"rental_uris":{"android":"levelo://app?vid=0994e96d-5c60-4b41-bd11-b27a37bf2cbb","ios":"levelo://app?vid=0994e96d-5c60-4b41-bd11-b27a37bf2cbb"},"vehicle_type_id":"4","last_reported":1734368977,"current_range_meters":37600,"station_id":"","pricing_plan_id":"cebpf4jnsgd1na2vs0mg"},{"bike_id":"f115e37f-f867-455d-ae1c-5be6790a05e5","system_id":"levelo_inurba_marseille","lat":43.29855,"lon":5.362815,"is_reserved":false,"is_disabled":false,"rental_uris":{"android":"levelo://app?vid=f115e37f-f867-455d-ae1c-5be6790a05e5","ios":"levelo://app?vid=f115e37f-f867-455d-ae1c-5be6790a05e5"},"vehicle_type_id":"4","last_reported":1734368977,"current_range_meters":25600,"station_id":"ce4bgpp2rcd13ifvqc3g","pricing_plan_id":"cebpf4jnsgd1na2vs0mg"},{"bike_id":"941d5143-d707-488a-bb66-f4ef5f7f9e0e","system_id":"levelo_inurba_marseille","lat":43.24203,"lon":5.36391,"is_reserved":false,"is_disabled":false,"rental_uris":{"android":"levelo://app?vid=941d5143-d707-488a-bb66-f4ef5f7f9e0e","ios":"levelo://app?vid=941d5143-d707-488a-bb66-f4ef5f7f9e0e"},"vehicle_type_id":"4","last_reported":1734368977,"current_range_meters":19200,"station_id":"cpo36qri1sfpv3e86is0","pricing_plan_id":"cebpf4jnsgd1na2vs0mg"},{"bike_id":"8ca4a0c2-0966-4a61-8772-f80c447420e3","system_id":"levelo_inurba_marseille","lat":43.28077,"lon":5.3966,"is_reserved":false,"is_disabled":false,"rental_uris":{"android":"levelo://app?vid=8ca4a0c2-0966-4a61-8772-f80c447420e3","ios":"levelo://app?vid=8ca4a0c2-0966-4a61-8772-f80c447420e3"},"vehicle_type_id":"4","last_reported":1734368977,"current_range_meters":11200,"station_id":"ce4bho12rcd13ifvqh2g","pricing_plan_id":"cebpf4jnsgd1na2vs0mg"},{"bike_id":"b5595497-b006-4272-81b8-7aaaa712a6e8","system_id":"levelo_inurba_marseille","lat":43.27176,"lon":5.4099,"is_reserved":false,"is_disabled":false,"rental_uris":{"android":"levelo://app?vid=b5595497-b006-4272-81b8-7aaaa712a6e8","ios":"levelo://app?vid=b5595497-b006-4272-81b8-7aaaa712a6e8"},"vehicle_type_id":"4","last_reported":1734368977,"current_range_meters":22800,"station_id":"ce4bhl12rcd13ifvqgf0","pricing_plan_id":"cebpf4jnsgd1na2vs0mg"},{"bike_id":"3ad4d0c8-c47b-438b-98ed-bedf13539bf2","system_id":"levelo_inurba_marseille","lat":43.24075,"lon":5.37732,"is_reserved":false,"is_disabled":false,"rental_uris":{"android":"levelo://app?vid=3ad4d0c8-c47b-438b-98ed-bedf13539bf2","ios":"levelo://app?vid=3ad4d0c8-c47b-438b-98ed-bedf13539bf2"},"vehicle_type_id":"4","last_reported":1734368977,"current_range_meters":17200,"station_id":"ce4bhnp2rcd13ifvqgvg","pricing_plan_id":"cebpf4jnsgd1na2vs0mg"},{"bike_id":"03b464f8-d338-4c7e-9472-8b54c3b920bc","system_id":"levelo_inurba_marseille","lat":43.30643,"lon":5.40084,"is_reserved":false,"is_disabled":false,"rental_uris":{"android":"levelo://app?vid=03b464f8-d338-4c7e-9472-8b54c3b920bc","ios":"levelo://app?vid=03b464f8-d338-4c7e-9472-8b54c3b920bc"},"vehicle_type_id":"4","last_reported":1734368977,"current_range_meters":26800,"station_id":"ce4bh112rcd13ifvqda0","pricing_plan_id":"cebpf4jnsgd1na2vs0mg"},{"bike_id":"9f5b199f-4b82-432c-8e46-3dfa3d095678","system_id":"levelo_inurba_marseille","lat":43.30878,"lon":5.36799,"is_reserved":false,"is_disabled":true,"rental_uris":{"android":"levelo://app?vid=9f5b199f-4b82-432c-8e46-3dfa3d095678","ios":"levelo://app?vid=9f5b199f-4b82-432c-8e46-3dfa3d095678"},"vehicle_type_id":"4","last_reported":1734368977,"current_range_meters":0,"station_id":"","pricing_plan_id":"cebpf4jnsgd1na2vs0mg"},{"bike_id":"b07a8b37-0fd5-42e3-9fd1-3e9633bb528c","system_id":"levelo_inurba_marseille","lat":43.2973,"lon":5.3661,"is_reserved":false,"is_disabled":false,"rental_uris":{"android":"levelo://app?vid=b07a8b37-0fd5-42e3-9fd1-3e9633bb528c","ios":"levelo://app?vid=b07a8b37-0fd5-42e3-9fd1-3e9633bb528c"},"vehicle_type_id":"4","last_reported":1734368977,"current_range_meters":29600,"station_id":"ce4bgn12rcd13ifvqbt0","pricing_plan_id":"cebpf4jnsgd1na2vs0mg"},{"bike_id":"3b0de37e-a149-4ebf-a218-7ee6c773f7da","system_id":"levelo_inurba_marseille","lat":43.27912,"lon":5.39593,"is_reserved":false,"is_disabled":false,"rental_uris":{"android":"levelo://app?vid=3b0de37e-a149-4ebf-a218-7ee6c773f7da","ios":"levelo://app?vid=3b0de37e-a149-4ebf-a218-7ee6c773f7da"},"vehicle_type_id":"4","last_reported":1734368977,"current_range_meters":36000,"station_id":"ce4bhf92rcd13ifvqf40","pricing_plan_id":"cebpf4jnsgd1na2vs0mg"},{"bike_id":"ee9dc6c8-6b04-4192-9520-fe618508ae0e","system_id":"levelo_inurba_marseille","lat":43.25579,"lon":5.38232,"is_reserved":false,"is_disabled":false,"rental_uris":{"android":"levelo://app?vid=ee9dc6c8-6b04-4192-9520-fe618508ae0e","ios":"levelo://app?vid=ee9dc6c8-6b04-4192-9520-fe618508ae0e"},"vehicle_type_id":"4","last_reported":1734368977,"current_range_meters":33600,"station_id":"ce4bhih2rcd13ifvqfs0","pricing_plan_id":"cebpf4jnsgd1na2vs0mg"},{"bike_id":"83478db7-66b6-43c8-b3a0-35276d6011cc","system_id":"levelo_inurba_marseille","lat":43.26785,"lon":5.39414,"is_reserved":false,"is_disabled":true,"rental_uris":{"android":"levelo://app?vid=83478db7-66b6-43c8-b3a0-35276d6011cc","ios":"levelo://app?vid=83478db7-66b6-43c8-b3a0-35276d6011cc"},"vehicle_type_id":"4","last_reported":1734368977,"current_range_meters":0,"station_id":"ce4bhh12rcd13ifvqfg0","pricing_plan_id":"cebpf4jnsgd1na2vs0mg"},{"bike_id":"7f10da17-c389-4823-a160-953d5bdac068","system_id":"levelo_inurba_marseille","lat":43.269553,"lon":5.386266,"is_reserved":false,"is_disabled":false,"rental_uris":{"android":"levelo://app?vid=7f10da17-c389-4823-a160-953d5bdac068","ios":"levelo://app?vid=7f10da17-c389-4823-a160-953d5bdac068"},"vehicle_type_id":"4","last_reported":1734368977,"current_range_meters":22000,"station_id":"ce4bhh92rcd13ifvqfh0","pricing_plan_id":"cebpf4jnsgd1na2vs0mg"},{"bike_id":"0d43a38c-f371-43ae-8456-a3c5b267d525","system_id":"levelo_inurba_marseille","lat":43.29515,"lon":5.37503,"is_reserved":false,"is_disabled":false,"rental_uris":{"android":"levelo://app?vid=0d43a38c-f371-43ae-8456-a3c5b267d525","ios":"levelo://app?vid=0d43a38c-f371-43ae-8456-a3c5b267d525"},"vehicle_type_id":"4","last_reported":1734368977,"current_range_meters":9600,"station_id":"ce4bgkp2rcd13ifvqbmg","pricing_plan_id":"cebpf4jnsgd1na2vs0mg"},{"bike_id":"e515c817-786a-4bdc-9e23-e4d9f49e157b","system_id":"levelo_inurba_marseille","lat":43.25865,"lon":5.39901,"is_reserved":false,"is_disabled":false,"rental_uris":{"android":"levelo://app?vid=e515c817-786a-4bdc-9e23-e4d9f49e157b","ios":"levelo://app?vid=e515c817-786a-4bdc-9e23-e4d9f49e157b"},"vehicle_type_id":"4","last_reported":1734368977,"current_range_meters":8000,"station_id":"ce4bhl92rcd13ifvqghg","pricing_plan_id":"cebpf4jnsgd1na2vs0mg"},{"bike_id":"46221ce0-25be-4679-a275-07a9783e70c8","system_id":"levelo_inurba_marseille","lat":43.3236,"lon":5.36761,"is_reserved":false,"is_disabled":false,"rental_uris":{"android":"levelo://app?vid=46221ce0-25be-4679-a275-07a9783e70c8","ios":"levelo://app?vid=46221ce0-25be-4679-a275-07a9783e70c8"},"vehicle_type_id":"4","last_reported":1734368977,"current_range_meters":28400,"station_id":"ce4bhsh2rcd13ifvqi2g","pricing_plan_id":"cebpf4jnsgd1na2vs0mg"},