{"last_updated":1739321139,"ttl":60,"version":"2.2","data":{"bikes":[{"bike_id":"5cda301b-bce8-41d3-abea-2e981f99524e","system_id":"levelo_inurba_marseille","lat":43.29858,"lon":5.36277,"is_reserved":false,"is_disabled":false,"rental_uris":{"android":"levelo://app?vid=5cda301b-bce8-41d3-abea-2e981f99524e","ios":"levelo://app?vid=5cda301b-bce8-41d3-abea-2e981f99524e"},"vehicle_type_id":"4","last_reported":1739321139,"current_range_meters":22800,"station_id":"ce4bgpp2rcd13ifvqc3g","pricing_plan_id":"cebpf4jnsgd1na2vs0mg"},{"bike_id":"24690963-879b-481e-9c9d-021e22b0aefc","system_id":"levelo_inurba_marseille","lat":43.298771,"lon":5.397279,"is_reserved":false,"is_disabled":false,"rental_uris":{"android":"levelo://app?vid=24690963-879b-481e-9c9d-021e22b0aefc","ios":"levelo://app?vid=24690963-879b-481e-9c9d-021e22b0aefc"},"vehicle_type_id":"4","last_reported":1739321139,"current_range_meters":38800,"station_id":"ce4bh0h2rcd13ifvqd50","pricing_plan_id":"cebpf4jnsgd1na2vs0mg"},{"bike_id":"af82c687-d595-4b0a-919c-198b47efbc0c","system_id":"levelo_inurba_marseille","lat":43.28607,"lon":5.35112,"is_reserved":false,"is_disabled":false,"rental_uris":{"android":"levelo://app?vid=af82c687-d595-4b0a-919c-198b47efbc0c","ios":"levelo://app?vid=af82c687-d595-4b0a-919c-198b47efbc0c"},"vehicle_type_id":"4","last_reported":1739321139,"current_range_meters":22400,"station_id":"ce4bhch2rcd13ifvqeug","pricing_plan_id":"cebpf4jnsgd1na2vs0mg"},{"bike_id":"a173b609-6f6c-45fd-922e-a3a0e329e57c","system_id":"levelo_inurba_marseille","lat":43.24063,"lon":5.3776,"is_reserved":false,"is_disabled":false,"rental_uris":{"android":"levelo://app?vid=a173b609-6f6c-45fd-922e-a3a0e329e57c","ios":"levelo://app?vid=a173b609-6f6c-45fd-922e-a3a0e329e57c"},"vehicle_type_id":"4","last_reported":1739321139,"current_range_meters":13600,"station_id":"ce4bhnp2rcd13ifvqgvg","pricing_plan_id":"cebpf4jnsgd1na2vs0mg"},{"bike_id":"77fc8b4c-94e7-413f-ba24-49239e361f9a","system_id":"levelo_inurba_marseille","lat":43.28431,"lon":5.37546,"is_reserved":false,"is_disabled":false,"rental_uris":{"android":"levelo://app?vid=77fc8b4c-94e7-413f-ba24-49239e361f9a","ios":"levelo://app?vid=77fc8b4c-94e7-413f-ba24-49239e361f9a"},"vehicle_type_id":"4","last_reported":1739321139,"current_range_meters":28800,"station_id":"ce4bh412rcd13ifvqds0","pricing_plan_id":"cebpf4jnsgd1na2vs0mg"},{"bike_id":"39831059-630b-44a6-b460-3394c2f589e9","system_id":"levelo_inurba_marseille","lat":43.31372,"lon":5.38497,"is_reserved":false,"is_disabled":false,"rental_uris":{"android":"levelo://app?vid=39831059-630b-44a6-b460-3394c2f589e9","ios":"levelo://app?vid=39831059-630b-44a6-b460-3394c2f589e9"},"vehicle_type_id":"4","last_reported":1739321139,"current_range_meters":38800,"station_id":"ce4bgt92rcd13ifvqcf0","pricing_plan_id":"cebpf4jnsgd1na2vs0mg"},{"bike_id":"66d18785-c7e3-431b-b36b-90f0b93c010c","system_id":"levelo_inurba_marseille","lat":43.28932,"lon":5.36637,"is_reserved":false,"is_disabled":false,"rental_uris":{"android":"levelo://app?vid=66d18785-c7e3-431b-b36b-90f0b93c010c","ios":"levelo://app?vid=66d18785-c7e3-431b-b36b-90f0b93c010c"},"vehicle_type_id":"4","last_reported":1739321139,"current_range_meters":38800,"station_id":"ce4bhap2rcd13ifvqek0","pricing_plan_id":"cebpf4jnsgd1na2vs0mg"},{"bike_id":"6130b7d0-9d1c-4e40-ba1c-bbc3906a1291","system_id":"levelo_inurba_marseille","lat":43.26775,"lon":5.39416,"is_reserved":false,"is_disabled":false,"rental_uris":{"android":"levelo://app?vid=6130b7d0-9d1c-4e40-ba1c-bbc3906a1291","ios":"levelo://app?vid=6130b7d0-9d1c-4e40-ba1c-bbc3906a1291"},"vehicle_type_id":"4","last_reported":1739321139,"current_range_meters":36400,"station_id":"ce4bhh12rcd13ifvqfg0","pricing_plan_id":"cebpf4jnsgd1na2vs0mg"},{"bike_id":"20ff866e-f247-480a-bcfa-812e984a844d","system_id":"levelo_inurba_marseille","lat":43.28723,"lon":5.36092,"is_reserved":false,"is_disabled":false,"rental_uris":{"android":"levelo://app?vid=20ff866e-f247-480a-bcfa-812e984a844d","ios":"levelo://app?vid=20ff866e-f247-480a-bcfa-812e984a844d"},"vehicle_type_id":"4","last_reported":1739321139,"current_range_meters":38800,"station_id":"cki0cbj6b192h4jlfktg","pricing_plan_id":"cebpf4jnsgd1na2vs0mg"},{"bike_id":"f6ef4f9a-c914-4d4b-a06e-00485b64285e","system_id":"levelo_inurba_marseille","lat":43.32487,"lon":5.365743,"is_reserved":false,"is_disabled":false,"rental_uris":{"android":"levelo://app?vid=f6ef4f9a-c914-4d4b-a06e-00485b64285e","ios":"levelo://app?vid=f6ef4f9a-c914-4d4b-a06e-00485b64285e"},"vehicle_type_id":"4","last_reported":1739321139,"current_range_meters":38800,"station_id":"ce4bhs12rcd13ifvqhvg","pricing_plan_id":"cebpf4jnsgd1na2vs0mg"},{"bike_id":"d6d097de-e030-454f-9e60-3adcd149909a","system_id":"levelo_inurba_marseille","lat":43.28695,"lon":5.37406,"is_reserved":false,"is_disabled":false,"rental_uris":{"android":"levelo://app?vid=d6d097de-e030-454f-9e60-3adcd149909a","ios":"levelo://app?vid=d6d097de-e030-454f-9e60-3adcd149909a"},"vehicle_type_id":"4","last_reported":1739321139,"current_range_meters":32400,"station_id":"ce4bh3p2rcd13ifvqdq0","pricing_plan_id":"cebpf4jnsgd1na2vs0mg"},{"bike_id":"69226ee4-0193-40b8-90c6-6d84ea7e1c1a","system_id":"levelo_inurba_marseille","lat":43.30473,"lon":5.37893,"is_reserved":false,"is_disabled":false,"rental_uris":{"android":"levelo://app?vid=69226ee4-0193-40b8-90c6-6d84ea7e1c1a","ios":"levelo://app?vid=69226ee4-0193-40b8-90c6-6d84ea7e1c1a"},"vehicle_type_id":"4","last_reported":1739321139,"current_range_meters":38400,"station_id":"ce4bgup2rcd13ifvqcn0","pricing_plan_id":"cebpf4jnsgd1na2vs0mg"},{"bike_id":"88a0caba-d6c7-4fe5-9e2c-eb52dbc6be6f","system_id":"levelo_inurba_marseille","lat":43.31194,"lon":5.36894,"is_reserved":false,"is_disabled":false,"rental_uris":{"android":"levelo://app?vid=88a0caba-d6c7-4fe5-9e2c-eb52dbc6be6f","ios":"levelo://app?vid=88a0caba-d6c7-4fe5-9e2c-eb52dbc6be6f"},"vehicle_type_id":"4","last_reported":1739321139,"current_range_meters":38800,"station_id":"ce4bgl92rcd13ifvqbq0","pricing_plan_id":"cebpf4jnsgd1na2vs0mg"},{"bike_id":"ad89c51a-911e-43ce-bab8-1696006e2fea","system_id":"levelo_inurba_marseille","lat":43.29866,"lon":5.39728,"is_reserved":false,"is_disabled":false,"rental_uris":{"android":"levelo://app?vid=ad89c51a-911e-43ce-bab8-1696006e2fea","ios":"levelo://app?vid=ad89c51a-911e-43ce-bab8-1696006e2fea"},"vehicle_type_id":"4","last_reported":1739321139,"current_range_meters":24000,"station_id":"ce4bh0h2rcd13ifvqd50","pricing_plan_id":"cebpf4jnsgd1na2vs0mg"},{"bike_id":"0497d784-c056-45f5-a997-c997e3fb1a75","system_id":"levelo_inurba_marseille","lat":43.31694,"lon":5.40474,"is_reserved":false,"is_disabled":true,"rental_uris":{"android":"levelo://app?vid=0497d784-c056-45f5-a997-c997e3fb1a75","ios":"levelo://app?vid=0497d784-c056-45f5-a997-c997e3fb1a75"},"vehicle_type_id":"4","last_reported":1739321139,"current_range_meters":37600,"station_id":"ce4bh012rcd13ifvqd00","pricing_plan_id":"cebpf4jnsgd1na2vs0mg"},{"bike_id":"9e4564f0-0519-46c9-beea-73f529a3ce6a","system_id":"levelo_inurba_marseille","lat":43.24796,"lon":5.3746,"is_reserved":false,"is_disabled":false,"rental_uris":{"android":"levelo://app?vid=9e4564f0-0519-46c9-beea-73f529a3ce6a","ios":"levelo://app?vid=9e4564f0-0519-46c9-beea-73f529a3ce6a"},"vehicle_type_id":"4","last_reported":1739321139,"current_range_meters":30400,"station_id":"ce4bhgh2rcd13ifvqfb0","pricing_plan_id":"cebpf4jnsgd1na2vs0mg"},{"bike_id":"e8b98b7c-5d68-4a57-8bb7-0cc04267f30a","system_id":"levelo_inurba_marseille","lat":43.28,"lon":5.39997,"is_reserved":false,"is_disabled":false,"rental_uris":{"android":"levelo://app?vid=e8b98b7c-5d68-4a57-8bb7-0cc04267f30a","ios":"levelo://app?vid=e8b98b7c-5d68-4a57-8bb7-0cc04267f30a"},"vehicle_type_id":"4","last_reported":1739321139,"current_range_meters":26000,"station_id":"ce4bho92rcd13ifvqh4g","pricing_plan_id":"cebpf4jnsgd1na2vs0mg"},{"bike_id":"a94d2018-f678-4713-bf2d-5da0b28f3e59","system_id":"levelo_inurba_marseille","lat":43.2974,"lon":5.37133,"is_reserved":false,"is_disabled":false,"rental_uris":{"android":"levelo://app?vid=a94d2018-f678-4713-bf2d-5da0b28f3e59","ios":"levelo://app?vid=a94d2018-f678-4713-bf2d-5da0b28f3e59"},"vehicle_type_id":"4","last_reported":1739321139,"current_range_meters":36000,"station_id":"","pricing_plan_id":"cebpf4jnsgd1na2vs0mg"},{"bike_id":"bff5b580-15a6-41a6-b534-6c0a7f94aaf7","system_id":"levelo_inurba_marseille","lat":43.31885,"lon":5.40727,"is_reserved":false,"is_disabled":false,"rental_uris":{"android":"levelo://app?vid=bff5b580-15a6-41a6-b534-6c0a7f94aaf7","ios":"levelo://app?vid=bff5b580-15a6-41a6-b534-6c0a7f94aaf7"},"vehicle_type_id":"4","last_reported":1739321139,"current_range_meters":24800,"station_id":"ce4bhq12rcd13ifvqhig","pricing_plan_id":"cebpf4jnsgd1na2vs0mg"},{"bike_id":"3df3041b-27b7-4def-8d60-99d6191bfdce","system_id":"levelo_inurba_marseille","lat":43.27496,"lon":5.42447,"is_reserved":false,"is_disabled":false,"rental_uris":{"android":"levelo://app?vid=3df3041b-27b7-4def-8d60-99d6191bfdce","ios":"levelo://app?vid=3df3041b-27b7-4def-8d60-99d6191bfdce"},"vehicle_type_id":"4","last_reported":1739321139,"current_range_meters":38800,"station_id":"ce4bhn92rcd13ifvqgrg","pricing_plan_id":"cebpf4jnsgd1na2vs0mg"},{"bike_id":"3557e281-7344-4c56-b643-42ea2f500ef3","system_id":"levelo_inurba_marseille","lat":43.2794,"lon":5.41666,"is_reserved":false,"is_disabled":false,"rental_uris":{"android":"levelo://app?vid=3557e281-7344-4c56-b643-42ea2f500ef3","ios":"levelo://app?vid=3557e281-7344-4c56-b643-42ea2f500ef3"},"vehicle_type_id":"4","last_reported":1739321139,"current_range_meters":24800,"station_id":"","pricing_plan_id":"cebpf4jnsgd1na2vs0mg"},{"bike_id":"b00cd1fe-6986-4a4a-9e4b-6dd0afa33530","system_id":"levelo_inurba_marseille","lat":43.2971,"lon":5.36611,"is_reserved":false,"is_disabled":false,"rental_uris":{"android":"levelo://app?vid=b00cd1fe-6986-4a4a-9e4b-6dd0afa33530","ios":"levelo://app?vid=b00cd1fe-6986-4a4a-9e4b-6dd0afa33530"},"vehicle_type_id":"4","last_reported":1739321139,"current_range_meters":39200,"station_id":"ce4bgn12rcd13ifvqbt0","pricing_plan_id":"cebpf4jnsgd1na2vs0mg"},{"bike_id":"8258c8e4-7775-45b7-a1f1-6659658d08a6","system_id":"levelo_inurba_marseille","lat":43.26555,"lon":5.37291,"is_reserved":false,"is_disabled":false,"rental_uris":{"android":"levelo://app?vid=8258c8e4-7775-45b7-a1f1-6659658d08a6","ios":"levelo://app?vid=8258c8e4-7775-45b7-a1f1-6659658d08a6"},"vehicle_type_id":"4","last_reported":1739321139,"current_range_meters":38800,"station_id":"ce4bhg12rcd13ifvqf70","pricing_plan_id":"cebpf4jnsgd1na2vs0mg"},{"bike_id":"03e763eb-2ea5-4191-8380-138ad06f19b1","system_id":"levelo_inurba_marseille","lat":43.32479,"lon":5.36554,"is_reserved":false,"is_disabled":false,"rental_uris":{"android":"levelo://app?vid=03e763eb-2ea5-4191-8380-138ad06f19b1","ios":"levelo://app?vid=03e763eb-2ea5-4191-8380-138ad06f19b1"},"vehicle_type_id":"4","last_reported":1739321139,"current_range_meters":28400,"station_id":"ce4bhs12rcd13ifvqhvg","pricing_plan_id":"cebpf4jnsgd1na2vs0mg"},{"bike_id":"8b2076c3-56f1-4a0e-8fbd-198b775c0e78","system_id":"levelo_inurba_marseille","lat":43.2847,"lon":5.35874,"is_reserved":false,"is_disabled":false,"rental_uris":{"android":"levelo://app?vid=8b2076c3-56f1-4a0e-8fbd-198b775c0e78","ios":"levelo://app?vid=8b2076c3-56f1-4a0e-8fbd-198b775c0e78"},"vehicle_type_id":"4","last_reported":1739321139,"current_range_meters":10000,"station_id":"ce4bhah2rcd13ifvqei0","pricing_plan_id":"cebpf4jnsgd1na2vs0mg"},{"bike_id":"26c79ef5-6f5f-49d9-b4aa-17fb6a7df4bb","system_id":"levelo_inurba_marseille","lat":43.29846,"lon":5.36281,"is_reserved":false,"is_disabled":false,"rental_uris":{"android":"levelo://app?vid=26c79ef5-6f5f-49d9-b4aa-17fb6a7df4bb","ios":"levelo://app?vid=26c79ef5-6f5f-49d9-b4aa-17fb6a7df4bb"},"vehicle_type_id":"4","last_reported":1739321139,"current_range_meters":38800,"station_id":"ce4bgpp2rcd13ifvqc3g","pricing_plan_id":"cebpf4jnsgd1na2vs0mg"},{"bike_id":"39e55a90-fe76-4904-bf9c-9841fe168f13","system_id":"levelo_inurba_marseille","lat":43.337331,"lon":5.391805,"is_reserved":false,"is_disabled":false,"rental_uris":{"android":"levelo://app?vid=39e55a90-fe76-4904-bf9c-9841fe168f13","ios":"levelo://app?vid=39e55a90-fe76-4904-bf9c-9841fe168f13"},"vehicle_type_id":"4","last_reported":1739321139,"current_range_meters":38800,"station_id":"ce4bhr92rcd13ifvqhsg","pricing_plan_id":"cebpf4jnsgd1na2vs0mg"},{"bike_id":"d33b545b-f249-4f4a-8f23-2d4f7877c9e7","system_id":"levelo_inurba_marseille","lat":43.2783,"lon":5.39213,"is_reserved":false,"is_disabled":false,"rental_uris":{"android":"levelo://app?vid=d33b545b-f249-4f4a-8f23-2d4f7877c9e7","ios":"levelo://app?vid=d33b545b-f249-4f4a-8f23-2d4f7877c9e7"},"vehicle_type_id":"4","last_reported":1739321139,"current_range_meters":30800,"station_id":"ce4bhjp2rcd13ifvqga0","pricing_plan_id":"cebpf4jnsgd1na2vs0mg"},{"bike_id":"f798cbc4-a869-471f-bce8-f64397eebe81","system_id":"levelo_inurba_marseille","lat":43.239494,"lon":5.366343,"is_reserved":false,"is_disabled":false,"rental_uris":{"android":"levelo://app?vid=f798cbc4-a869-471f-bce8-f64397eebe81","ios":"levelo://app?vid=f798cbc4-a869-471f-bce8-f64397eebe81"},"vehicle_type_id":"4","last_reported":1739321139,"current_range_meters":20000,"station_id":"ce4bhi12rcd13ifvqfp0","pricing_plan_id":"cebpf4jnsgd1na2vs0mg"},{"bike_id":"aa12f343-72f4-483e-a293-73fd3d081759","system_id":"levelo_inurba_marseille","lat":43.29226,"lon":5.36044,"is_reserved":false,"is_disabled":false,"rental_uris":{"android":"levelo://app?vid=aa12f343-72f4-483e-a293-73fd3d081759","ios":"levelo://app?vid=aa12f343-72f4-483e-a293-73fd3d081759"},"vehicle_type_id":"4","last_reported":1739321139,"current_range_meters":34800,"station_id":"ce4bhbh2rcd13ifvqeqg","pricing_plan_id":"cebpf4jnsgd1na2vs0mg"},{"bike_id":"28413155-a714-4c6f-956c-f41cd00ef255","system_id":"levelo_inurba_marseille","lat":43.30426,"lon":5.39753,"is_reserved":false,"is_disabled":false,"rental_uris":{"android":"levelo://app?vid=28413155-a714-4c6f-956c-f41cd00ef255","ios":"levelo://app?vid=28413155-a714-4c6f-956c-f41cd00ef255"},"vehicle_type_id":"4","last_reported":1739321139,"current_range_meters":38800,"station_id":"ce4bh092rcd13ifvqd20","pricing_plan_id":"cebpf4jnsgd1na2vs0mg"},{"bike_id":"30e15755-4421-4ffd-b252-ccac53c81cda","system_id":"levelo_inurba_marseille","lat":43.27906,"lon":5.38011,"is_reserved":false,"is_disabled":false,"rental_uris":{"android":"levelo://app?vid=30e15755-4421-4ffd-b252-ccac53c81cda","ios":"levelo://app?vid=30e15755-4421-4ffd-b252-ccac53c81cda"},"vehicle_type_id":"4","last_reported":1739321139,"current_range_meters":28400,"station_id":"ce4bhf92rcd13ifvqf50","pricing_plan_id":"cebpf4jnsgd1na2vs0mg"},{"bike_id":"8f5a82c4-04f7-4b4f-9966-ab1d2a76827e","system_id":"levelo_inurba_marseille","lat":43.29882,"lon":5.38914,"is_reserved":false,"is_disabled":false,"rental_uris":{"android":"levelo://app?vid=8f5a82c4-04f7-4b4f-9966-ab1d2a76827e","ios":"levelo://app?vid=8f5a82c4-04f7-4b4f-9966-ab1d2a76827e"},"vehicle_type_id":"4","last_reported":1739321139,"current_range_meters":38800,"station_id":"ce4bh392rcd13ifvqdl0","pricing_plan_id":"cebpf4jnsgd1na2vs0mg"},{"bike_id":"4c983eb9-0181-4f94-9f85-22e23aa30ce0","system_id":"levelo_inurba_marseille","lat":43.30402,"lon":5.39768,"is_reserved":false,"is_disabled":false,"rental_uris":{"android":"levelo://app?vid=4c983eb9-0181-4f94-9f85-22e23aa30ce0","ios":"levelo://app?vid=4c983eb9-0181-4f94-9f85-22e23aa30ce0"},"vehicle_type_id":"4","last_reported":1739321139,"current_range_meters":36400,"station_id":"ce4bh092rcd13ifvqd20","pricing_plan_id":"cebpf4jnsgd1na2vs0mg"},{"bike_id":"b88f0c68-6b8d-4762-8f70-25e55d435333","system_id":"levelo_inurba_marseille","lat":43.30883,"lon":5.39648,"is_reserved":false,"is_disabled":false,"rental_uris":{"android":"levelo://app?vid=b88f0c68-6b8d-4762-8f70-25e55d435333","ios":"levelo://app?vid=b88f0c68-6b8d-4762-8f70-25e55d435333"},"vehicle_type_id":"4","last_reported":1739321139,"current_range_meters":34000,"station_id":"ce4bh012rcd13ifvqcv0","pricing_plan_id":"cebpf4jnsgd1na2vs0mg"},{"bike_id":"bf8cd02e-ccdc-4523-894a-3fce83d782e3","system_id":"levelo_inurba_marseille","lat":43.33729,"lon":5.39185,"is_reserved":false,"is_disabled":false,"rental_uris":{"android":"levelo://app?vid=bf8cd02e-ccdc-4523-894a-3fce83d782e3","ios":"levelo://app?vid=bf8cd02e-ccdc-4523-894a-3fce83d782e3"},"vehicle_type_id":"4","last_reported":1739321139,"current_range_meters":38800,"station_id":"ce4bhr92rcd13ifvqhsg","pricing_plan_id":"cebpf4jnsgd1na2vs0mg"},{"bike_id":"b737ae82-c86e-4ede-80b2-31fc6f755e14","system_id":"levelo_inurba_marseille","lat":43.29535,"lon":5.38543,"is_reserved":false,"is_disabled":true,"rental_uris":{"android":"levelo://app?vid=b737ae82-c86e-4ede-80b2-31fc6f755e14","ios":"levelo://app?vid=b737ae82-c86e-4ede-80b2-31fc6f755e14"},"vehicle_type_id":"4","last_reported":1739321139,"current_range_meters":38800,"station_id":"ce4bgih2rcd13ifvqba0","pricing_plan_id":"cebpf4jnsgd1na2vs0mg"},{"bike_id":"bf8e0073-3935-4e32-86d0-9614b299b0c3","system_id":"levelo_inurba_marseille","lat":43.30636,"lon":5.40079,"is_reserved":false,"is_disabled":false,"rental_uris":{"android":"levelo://app?vid=bf8e0073-3935-4e32-86d0-9614b299b0c3","ios":"levelo://app?vid=bf8e0073-3935-4e32-86d0-9614b299b0c3"},"vehicle_type_id":"4","last_reported":1739321139,"current_range_meters":38800,"station_id":"ce4bh112rcd13ifvqda0","pricing_plan_id":"cebpf4jnsgd1na2vs0mg"},{"bike_id":"4baa1943-377b-43a0-a8e8-389a2e584c67","system_id":"levelo_inurba_marseille","lat":43.287323,"lon":5.361039,"is_reserved":false,"is_disabled":true,"rental_uris":{"android":"levelo://app?vid=4baa1943-377b-43a0-a8e8-389a2e584c67","ios":"levelo://app?vid=4baa1943-377b-43a0-a8e8-389a2e584c67"},"vehicle_type_id":"4","last_reported":1739321139,"current_range_meters":36400,"station_id":"cki0cbj6b192h4jlfktg","pricing_plan_id":"cebpf4jnsgd1na2vs0mg"},{"bike_id":"76a51d0e-a847-4eb0-8e4f-b83663f8788c","system_id":"levelo_inurba_marseille","lat":43.30884,"lon":5.39635,"is_reserved":false,"is_disabled":false,"rental_uris":{"android":"levelo://app?vid=76a51d0e-a847-4eb0-8e4f-b83663f8788c","ios":"levelo://app?vid=76a51d0e-a847-4eb0-8e4f-b83663f8788c"},"vehicle_type_id":"4","last_reported":1739321139,"current_range_meters":12400,"station_id":"ce4bh012rcd13ifvqcv0","pricing_plan_id":"cebpf4jnsgd1na2vs0mg"},{"bike_id":"7363b34c-f4e3-4a4d-a370-ef3739411451","system_id":"levelo_inurba_marseille","lat":43.26798,"lon":5.40268,"is_reserved":false,"is_disabled":false,"rental_uris":{"android":"levelo://app?vid=7363b34c-f4e3-4a4d-a370-ef3739411451","ios":"levelo://app?vid=7363b34c-f4e3-4a4d-a370-ef3739411451"},"vehicle_type_id":"4","last_reported":1739321139,"current_range_meters":38000,"station_id":"ce501612rcd8frsf0b60","pricing_plan_id":"cebpf4jnsgd1na2vs0mg"},{"bike_id":"1d3ffab5-d8ca-4796-bb7d-044457287d56","system_id":"levelo_inurba_marseille","lat":43.29246,"lon":5.40906,"is_reserved":false,"is_disabled":false,"rental_uris":{"android":"levelo://app?vid=1d3ffab5-d8ca-4796-bb7d-044457287d56","ios":"levelo://app?vid=1d3ffab5-d8ca-4796-bb7d-044457287d56"},"vehicle_type_id":"4","last_reported":1739321139,"current_range_meters":32000,"station_id":"ce4bh192rcd13ifvqdc0","pricing_plan_id":"cebpf4jnsgd1na2vs0mg"},{"bike_id":"c179f179-1614-4d6a-9586-627695823c73","system_id":"levelo_inurba_marseille","lat":43.26786,"lon":5.40272,"is_reserved":false,"is_disabled":false,"rental_uris":{"android":"levelo://app?vid=c179f179-1614-4d6a-9586-627695823c73","ios":"levelo://app?vid=c179f179-1614-4d6a-9586-627695823c73"},"vehicle_type_id":"4","last_reported":1739321139,"current_range_meters":28000,"station_id":"ce501612rcd8frsf0b60","pricing_plan_id":"cebpf4jnsgd1na2vs0mg"},{"bike_id":"c573048d-b0bb-4a11-b456-07d3f804372d","system_id":"levelo_inurba_marseille","lat":43.288517,"lon":5.393187,"is_reserved":false,"is_disabled":false,"rental_uris":{"android":"levelo://app?vid=c573048d-b0bb-4a11-b456-07d3f804372d","ios":"levelo://app?vid=c573048d-b0bb-4a11-b456-07d3f804372d"},"vehicle_type_id":"4","last_reported":1739321139,"current_range_meters":31200,"station_id":"ce4bh2p2rcd13ifvqdi0","pricing_plan_id":"cebpf4jnsgd1na2vs0mg"},{"bike_id":"542c162a-2c01-4221-88ba-bc0cf2c81047","system_id":"levelo_inurba_marseille","lat":43.26786,"lon":5.40244,"is_reserved":false,"is_disabled":false,"rental_uris":{"android":"levelo://app?vid=542c162a-2c01-4221-88ba-bc0cf2c81047","ios":"levelo://app?vid=542c162a-2c01-4221-88ba-bc0cf2c81047"},"vehicle_type_id":"4","last_reported":1739321139,"current_range_meters":39200,"station_id":"ce501612rcd8frsf0b60","pricing_plan_id":"cebpf4jnsgd1na2vs0mg"},{"bike_id":"79cff555-ee16-43e9-910f-1f8191a63c6b","system_id":"levelo_inurba_marseille","lat":43.24653,"lon":5.38893,"is_reserved":false,"is_disabled":false,"rental_uris":{"android":"levelo://app?vid=79cff555-ee16-43e9-910f-1f8191a63c6b","ios":"levelo://app?vid=79cff555-ee16-43e9-910f-1f8191a63c6b"},"vehicle_type_id":"4","last_reported":1739321139,"current_range_meters":38000,"station_id":"ce4bhg12rcd13ifvqf60","pricing_plan_id":"cebpf4jnsgd1na2vs0mg"},{"bike_id":"87f29faa-759a-425a-824e-ac3220e83fd2","system_id":"levelo_inurba_marseille","lat":43.307745,"lon":5.376608,"is_reserved":false,"is_disabled":false,"rental_uris":{"android":"levelo://app?vid=87f29faa-759a-425a-824e-ac3220e83fd2","ios":"levelo://app?vid=87f29faa-759a-425a-824e-ac3220e83fd2"},"vehicle_type_id":"4","last_reported":1739321139,"current_range_meters":38800,"station_id":"ce4bgv92rcd13ifvqcq0","pricing_plan_id":"cebpf4jnsgd1na2vs0mg"},{"bike_id":"ef4f5546-df19-4426-ac1a-7b3b1d46fb12","system_id":"levelo_inurba_marseille","lat":43.29928,"lon":5.36558,"is_reserved":false,"is_disabled":false,"rental_uris":{"android":"levelo://app?vid=ef4f5546-df19-4426-ac1a-7b3b1d46fb12","ios":"levelo://app?vid=ef4f5546-df19-4426-ac1a-7b3b1d46fb12"},"vehicle_type_id":"4","last_reported":1739321139,"current_range_meters":10000,"station_id":"ce4bgm92rcd13ifvqbr0","pricing_plan_id":"cebpf4jnsgd1na2vs0mg"},{"bike_id":"e72583ac-0842-4a86-8c9f-49c0d823f1e9","system_id":"levelo_inurba_marseille","lat":43.29635,"lon":5.40596,"is_reserved":false,"is_disabled":false,"rental_uris":{"android":"levelo://app?vid=e72583ac-0842-4a86-8c9f-49c0d823f1e9","ios":"levelo://app?vid=e72583ac-0842-4a86-8c9f-49c0d823f1e9"},"vehicle_type_id":"4","last_reported":1739321139,"current_range_meters":9600,"station_id":"ce4bh0h2rcd13ifvqd60","pricing_plan_id":"cebpf4jnsgd1na2vs0mg"},{"bike_id":"1add35ea-4fc7-486b-99a6-cfb5eca5d89c","system_id":"levelo_inurba_marseille","lat":43.30198,"lon":5.39439,"is_reserved":false,"is_disabled":false,"rental_uris":{"android":"levelo://app?vid=1add35ea-4fc7-486b-99a6-cfb5eca5d89c","ios":"levelo://app?vid=1add35ea-4fc7-486b-99a6-cfb5eca5d89c"},"vehicle_type_id":"4","last_reported":1739321139,"current_range_meters":30800,"station_id":"ce4bh0p2rcd13ifvqd70","pricing_plan_id":"cebpf4jnsgd1na2vs0mg"},{"bike_id":"8dc60ba6-d690-49b8-8adf-a6261b5bfebb","system_id":"levelo_inurba_marseille","lat":43.24388,"lon":5.37047,"is_reserved":false,"is_disabled":false,"rental_uris":{"android":"levelo://app?vid=8dc60ba6-d690-49b8-8adf-a6261b5bfebb","ios":"levelo://app?vid=8dc60ba6-d690-49b8-8adf-a6261b5bfebb"},"vehicle_type_id":"4","last_reported":1739321139,"current_range_meters":30800,"station_id":"ce4bhhh2rcd13ifvqfk0","pricing_plan_id":"cebpf4jnsgd1na2vs0mg"},{"bike_id":"022bfa62-7cd3-460d-bff2-01870edd9da6","system_id":"levelo_inurba_marseille","lat":43.28728,"lon":5.36083,"is_reserved":false,"is_disabled":false,"rental_uris":{"android":"levelo://app?vid=022bfa62-7cd3-460d-bff2-01870edd9da6","ios":"levelo://app?vid=022bfa62-7cd3-460d-bff2-01870edd9da6"},"vehicle_type_id":"4","last_reported":1739321139,"current_range_meters":36000,"station_id":"cki0cbj6b192h4jlfktg","pricing_plan_id":"cebpf4jnsgd1na2vs0mg"},{"bike_id":"8a7bd441-3f99-4d50-b32c-2e4ef736875e","system_id":"levelo_inurba_marseille","lat":43.24989,"lon":5.38946,"is_reserved":false,"is_disabled":false,"rental_uris":{"android":"levelo://app?vid=8a7bd441-3f99-4d50-b32c-2e4ef736875e","ios":"levelo://app?vid=8a7bd441-3f99-4d50-b32c-2e4ef736875e"},"vehicle_type_id":"4","last_reported":1739321139,"current_range_meters":36000,"station_id":"ce4bhgp2rcd13ifvqfd0","pricing_plan_id":"cebpf4jnsgd1na2vs0mg"},{"bike_id":"d6e53530-3cc7-4db9-8a0d-93dc58983b28","system_id":"levelo_inurba_marseille","lat":43.2972,"lon":5.3661,"is_reserved":false,"is_disabled":false,"rental_uris":{"android":"levelo://app?vid=d6e53530-3cc7-4db9-8a0d-93dc58983b28","ios":"levelo://app?vid=d6e53530-3cc7-4db9-8a0d-93dc58983b28"},"vehicle_type_id":"4","last_reported":1739321139,"current_range_meters":39200,"station_id":"ce4bgn12rcd13ifvqbt0","pricing_plan_id":"cebpf4jnsgd1na2vs0mg"},{"bike_id":"8d9024d1-e65d-448c-be5d-fcc051bd95bc","system_id":"levelo_inurba_marseille","lat":43.301441,"lon":5.387677,"is_reserved":false,"is_disabled":false,"rental_uris":{"android":"levelo://app?vid=8d9024d1-e65d-448c-be5d-fcc051bd95bc","ios":"levelo://app?vid=8d9024d1-e65d-448c-be5d-fcc051bd95bc"},"vehicle_type_id":"4","last_reported":1739321139,"current_range_meters":38800,"station_id":"ce4bghh2rcd13ifvqb60","pricing_plan_id":"cebpf4jnsgd1na2vs0mg"},{"bike_id":"2ccaebba-3560-415e-816d-dd75899cbbd4","system_id":"levelo_inurba_marseille","lat":43.2556,"lon":5.38239,"is_reserved":false,"is_disabled":true,"rental_uris":{"android":"levelo://app?vid=2ccaebba-3560-415e-816d-dd75899cbbd4","ios":"levelo://app?vid=2ccaebba-3560-415e-816d-dd75899cbbd4"},"vehicle_type_id":"4","last_reported":1739321139,"current_range_meters":1200,"station_id":"ce4bhih2rcd13ifvqfs0","pricing_plan_id":"cebpf4jnsgd1na2vs0mg"},{"bike_id":"e169a236-33c1-4557-8a4d-0eca73ad1806","system_id":"levelo_inurba_marseille","lat":43.279954,"lon":5.400189,"is_reserved":false,"is_disabled":false,"rental_uris":{"android":"levelo://app?vid=e169a236-33c1-4557-8a4d-0eca73ad1806","ios":"levelo://app?vid=e169a236-33c1-4557-8a4d-0eca73ad1806"},"vehicle_type_id":"4","last_reported":1739321139,"current_range_meters":24400,"station_id":"ce4bho92rcd13ifvqh4g","pricing_plan_id":"cebpf4jnsgd1na2vs0mg"},{"bike_id":"6bef5661-98f3-427d-9fe9-ace76ea423c3","system_id":"levelo_inurba_marseille","lat":43.290051,"lon":5.356176,"is_reserved":false,"is_disabled":false,"rental_uris":{"android":"levelo://app?vid=6bef5661-98f3-427d-9fe9-ace76ea423c3","ios":"levelo://app?vid=6bef5661-98f3-427d-9fe9-ace76ea423c3"},"vehicle_type_id":"4","last_reported":1739321139,"current_range_meters":36400,"station_id":"","pricing_plan_id":"cebpf4jnsgd1na2vs0mg"},{"bike_id":"4ee0464e-e9f1-4c9d-b3f3-275397ffd141","system_id":"levelo_inurba_marseille","lat":43.25568,"lon":5.38246,"is_reserved":false,"is_disabled":false,"rental_uris":{"android":"levelo://app?vid=4ee0464e-e9f1-4c9d-b3f3-275397ffd141","ios":"levelo://app?vid=4ee0464e-e9f1-4c9d-b3f3-275397ffd141"},"vehicle_type_id":"4","last_reported":1739321139,"current_range_meters":37600,"station_id":"ce4bhih2rcd13ifvqfs0","pricing_plan_id":"cebpf4jnsgd1na2vs0mg"},{"bike_id":"f96d9290-7566-4c01-a4f3-765d931e8a38","system_id":"levelo_inurba_marseille","lat":43.29765,"lon":5.38136,"is_reserved":false,"is_disabled":false,"rental_uris":{"android":"levelo://app?vid=f96d9290-7566-4c01-a4f3-765d931e8a38","ios":"levelo://app?vid=f96d9290-7566-4c01-a4f3-765d931e8a38"},"vehicle_type_id":"4","last_reported":1739321139,"current_range_meters":27600,"station_id":"ce4bgip2rcd13ifvqbb0","pricing_plan_id":"cebpf4jnsgd1na2vs0mg"},{"bike_id":"ab27ba9e-3fb3-41b1-a802-4cdc50ceeacd","system_id":"levelo_inurba_marseille","lat":43.32329,"lon":5.40647,"is_reserved":false,"is_disabled":false,"rental_uris":{"android":"levelo://app?vid=ab27ba9e-3fb3-41b1-a802-4cdc50ceeacd","ios":"levelo://app?vid=ab27ba9e-3fb3-41b1-a802-4cdc50ceeacd"},"vehicle_type_id":"4","last_reported":1739321139,"current_range_meters":39200,"station_id":"ce4bhq92rcd13ifvqhjg","pricing_plan_id":"cebpf4jnsgd1na2vs0mg"},{"bike_id":"76ebc75d-2fe5-45e0-9f44-dea2f5f86814","system_id":"levelo_inurba_marseille","lat":43.24397,"lon":5.37047,"is_reserved":false,"is_disabled":false,"rental_uris":{"android":"levelo://app?vid=76ebc75d-2fe5-45e0-9f44-dea2f5f86814","ios":"levelo://app?vid=76ebc75d-2fe5-45e0-9f44-dea2f5f86814"},"vehicle_type_id":"4","last_reported":1739321139,"current_range_meters":30400,"station_id":"ce4bhhh2rcd13ifvqfk0","pricing_plan_id":"cebpf4jnsgd1na2vs0mg"},{"bike_id":"c30dfd55-b891-4456-a6ce-f5e9d05e4a09","system_id":"levelo_inurba_marseille","lat":43.28621,"lon":5.35098,"is_reserved":false,"is_disabled":false,"rental_uris":{"android":"levelo://app?vid=c30dfd55-b891-4456-a6ce-f5e9d05e4a09","ios":"levelo://app?vid=c30dfd55-b891-4456-a6ce-f5e9d05e4a09"},"vehicle_type_id":"4","last_reported":1739321139,"current_range_meters":16000,"station_id":"ce4bhch2rcd13ifvqeug","pricing_plan_id":"cebpf4jnsgd1na2vs0mg"},{"bike_id":"76305925-afef-4e0d-9960-6de968abbadf","system_id":"levelo_inurba_marseille","lat":43.24806,"lon":5.37456,"is_reserved":false,"is_disabled":false,"rental_uris":{"android":"levelo://app?vid=76305925-afef-4e0d-9960-6de968abbadf","ios":"levelo://app?vid=76305925-afef-4e0d-9960-6de968abbadf"},"vehicle_type_id":"4","last_reported":1739321139,"current_range_meters":36400,"station_id":"ce4bhgh2rcd13ifvqfb0","pricing_plan_id":"cebpf4jnsgd1na2vs0mg"},{"bike_id":"1fb1a03a-258b-416a-92dc-66b98dcbe7d9","system_id":"levelo_inurba_marseille","lat":43.33736,"lon":5.39192,"is_reserved":false,"is_disabled":false,"rental_uris":{"android":"levelo://app?vid=1fb1a03a-258b-416a-92dc-66b98dcbe7d9","ios":"levelo://app?vid=1fb1a03a-258b-416a-92dc-66b98dcbe7d9"},"vehicle_type_id":"4","last_reported":1739321139,"current_range_meters":38800,"station_id":"ce4bhr92rcd13ifvqhsg","pricing_plan_id":"cebpf4jnsgd1na2vs0mg"},{"bike_id":"0dbd0d81-4da6-4a7b-a928-c122921cd867","system_id":"levelo_inurba_marseille","lat":43.28925,"lon":5.38391,"is_reserved":false,"is_disabled":false,"rental_uris":{"android":"levelo://app?vid=0dbd0d81-4da6-4a7b-a928-c122921cd867","ios":"levelo://app?vid=0dbd0d81-4da6-4a7b-a928-c122921cd867"},"vehicle_type_id":"4","last_reported":1739321139,"current_range_meters":38800,"station_id":"ce4bh612rcd13ifvqe6g","pricing_plan_id":"cebpf4jnsgd1na2vs0mg"},{"bike_id":"51ab7186-5043-4bed-baca-73708608a302","system_id":"levelo_inurba_marseille","lat":43.29584,"lon":5.37026,"is_reserved":false,"is_disabled":true,"rental_uris":{"android":"levelo://app?vid=51ab7186-5043-4bed-baca-73708608a302","ios":"levelo://app?vid=51ab7186-5043-4bed-baca-73708608a302"},"vehicle_type_id":"4","last_reported":1739321139,"current_range_meters":4800,"station_id":"","pricing_plan_id":"cebpf4jnsgd1na2vs0mg"},{"bike_id":"8b4ddd67-c436-4356-bc23-7d25e0639b1d","system_id":"levelo_inurba_marseille","lat":43.30189,"lon":5.36625,"is_reserved":false,"is_disabled":false,"rental_uris":{"android":"levelo://app?vid=8b4ddd67-c436-4356-bc23-7d25e0639b1d","ios":"levelo://app?vid=8b4ddd67-c436-4356-bc23-7d25e0639b1d"},"vehicle_type_id":"4","last_reported":1739321139,"current_range_meters":38000,"station_id":"ce4bgrh2rcd13ifvqc8g","pricing_plan_id":"cebpf4jnsgd1na2vs0mg"},{"bike_id":"0e044507-a48e-46b2-974e-f875ee3d4847","system_id":"levelo_inurba_marseille","lat":43.28933,"lon":5.36659,"is_reserved":false,"is_disabled":false,"rental_uris":{"android":"levelo://app?vid=0e044507-a48e-46b2-974e-f875ee3d4847","ios":"levelo://app?vid=0e044507-a48e-46b2-974e-f875ee3d4847"},"vehicle_type_id":"4","last_reported":1739321139,"current_range_meters":38800,"station_id":"ce4bhap2rcd13ifvqek0","pricing_plan_id":"cebpf4jnsgd1na2vs0mg"},{"bike_id":"9e0da475-f4d0-486f-9093-7cc7c8f765be","system_id":"levelo_inurba_marseille","lat":43.28332,"lon":5.38094,"is_reserved":false,"is_disabled":false,"rental_uris":{"android":"levelo://app?vid=9e0da475-f4d0-486f-9093-7cc7c8f765be","ios":"levelo://app?vid=9e0da475-f4d0-486f-9093-7cc7c8f765be"},"vehicle_type_id":"4","last_reported":1739321139,"current_range_meters":22400,"station_id":"ce4bh412rcd13ifvqdr0","pricing_plan_id":"cebpf4jnsgd1na2vs0mg"},{"bike_id":"20a48ecc-be84-4a19-af41-d4d79c7ee9f1","system_id":"levelo_inurba_marseille","lat":43.29545,"lon":5.39045,"is_reserved":false,"is_disabled":false,"rental_uris":{"android":"levelo://app?vid=20a48ecc-be84-4a19-af41-d4d79c7ee9f1","ios":"levelo://app?vid=20a48ecc-be84-4a19-af41-d4d79c7ee9f1"},"vehicle_type_id":"4","last_reported":1739321139,"current_range_meters":32000,"station_id":"ce4bh3p2rcd13ifvqdp0","pricing_plan_id":"cebpf4jnsgd1na2vs0mg"},{"bike_id":"2553c908-dc12-427f-abef-c594d033e197","system_id":"levelo_inurba_marseille","lat":43.2952,"lon":5.39043,"is_reserved":false,"is_disabled":false,"rental_uris":{"android":"levelo://app?vid=2553c908-dc12-427f-abef-c594d033e197","ios":"levelo://app?vid=2553c908-dc12-427f-abef-c594d033e197"},"vehicle_type_id":"4","last_reported":1739321139,"current_range_meters":39200,"station_id":"ce4bh3p2rcd13ifvqdp0","pricing_plan_id":"cebpf4jnsgd1na2vs0mg"},{"bike_id":"a9b142c9-8146-4cd2-9929-de6fa12b9ff4","system_id":"levelo_inurba_marseille","lat":43.2981,"lon":5.40406,"is_reserved":false,"is_disabled":false,"rental_uris":{"android":"levelo://app?vid=a9b142c9-8146-4cd2-9929-de6fa12b9ff4","ios":"levelo://app?vid=a9b142c9-8146-4cd2-9929-de6fa12b9ff4"},"vehicle_type_id":"4","last_reported":1739321139,"current_range_meters":38800,"station_id":"ce4bh112rcd13ifvqd90","pricing_plan_id":"cebpf4jnsgd1na2vs0mg"},{"bike_id":"3022a390-1c44-4221-b627-b981bb6953c7","system_id":"levelo_inurba_marseille","lat":43.27994,"lon":5.40026,"is_reserved":false,"is_disabled":false,"rental_uris":{"android":"levelo://app?vid=3022a390-1c44-4221-b627-b981bb6953c7","ios":"levelo://app?vid=3022a390-1c44-4221-b627-b981bb6953c7"},"vehicle_type_id":"4","last_reported":1739321139,"current_range_meters":27600,"station_id":"ce4bho92rcd13ifvqh4g","pricing_plan_id":"cebpf4jnsgd1na2vs0mg"},{"bike_id":"291fe8e6-cbc6-4c85-a250-38d0ef387efe","system_id":"levelo_inurba_marseille","lat":43.2846,"lon":5.39154,"is_reserved":false,"is_disabled":false,"rental_uris":{"android":"levelo://app?vid=291fe8e6-cbc6-4c85-a250-38d0ef387efe","ios":"levelo://app?vid=291fe8e6-cbc6-4c85-a250-38d0ef387efe"},"vehicle_type_id":"4","last_reported":1739321139,"current_range_meters":20400,"station_id":"ce4bhoh2rcd13ifvqh5g","pricing_plan_id":"cebpf4jnsgd1na2vs0mg"},{"bike_id":"f9fcd84c-9a0b-4471-a4a8-56349dc37728","system_id":"levelo_inurba_marseille","lat":43.27322,"lon":5.39068,"is_reserved":false,"is_disabled":false,"rental_uris":{"android":"levelo://app?vid=f9fcd84c-9a0b-4471-a4a8-56349dc37728","ios":"levelo://app?vid=f9fcd84c-9a0b-4471-a4a8-56349dc37728"},"vehicle_type_id":"4","last_reported":1739321139,"current_range_meters":28000,"station_id":"ce4bhgp2rcd13ifvqfe0","pricing_plan_id":"cebpf4jnsgd1na2vs0mg"},{"bike_id":"57609933-d583-4bb0-97be-c4dee91bfc59","system_id":"levelo_inurba_marseille","lat":43.2466,"lon":5.38191,"is_reserved":false,"is_disabled":false,"rental_uris":{"android":"levelo://app?vid=57609933-d583-4bb0-97be-c4dee91bfc59","ios":"levelo://app?vid=57609933-d583-4bb0-97be-c4dee91bfc59"},"vehicle_type_id":"4","last_reported":1739321139,"current_range_meters":20800,"station_id":"ce4bhih2rcd13ifvqfr0","pricing_plan_id":"cebpf4jnsgd1na2vs0mg"},{"bike_id":"27fbf9b5-5531-49cc-82af-fba32b3dee77","system_id":"levelo_inurba_marseille","lat":43.30129,"lon":5.39889,"is_reserved":false,"is_disabled":false,"rental_uris":{"android":"levelo://app?vid=27fbf9b5-5531-49cc-82af-fba32b3dee77","ios":"levelo://app?vid=27fbf9b5-5531-49cc-82af-fba32b3dee77"},"vehicle_type_id":"4","last_reported":1739321139,"current_range_meters":36800,"station_id":"ce4bh0h2rcd13ifvqd40","pricing_plan_id":"cebpf4jnsgd1na2vs0mg"},{"bike_id":"de77abfa-6f74-40e9-8131-b7884eda37eb","system_id":"levelo_inurba_marseille","lat":43.29919,"lon":5.39414,"is_reserved":false,"is_disabled":false,"rental_uris":{"android":"levelo://app?vid=de77abfa-6f74-40e9-8131-b7884eda37eb","ios":"levelo://app?vid=de77abfa-6f74-40e9-8131-b7884eda37eb"},"vehicle_type_id":"4","last_reported":1739321139,"current_range_meters":27600,"station_id":"","pricing_plan_id":"cebpf4jnsgd1na2vs0mg"},{"bike_id":"73e22411-53b5-4cd8-85c6-eb2465766898","system_id":"levelo_inurba_marseille","lat":43.284643,"lon":5.358784,"is_reserved":false,"is_disabled":false,"rental_uris":{"android":"levelo://app?vid=73e22411-53b5-4cd8-85c6-eb2465766898","ios":"levelo://app?vid=73e22411-53b5-4cd8-85c6-eb2465766898"},"vehicle_type_id":"4","last_reported":1739321139,"current_range_meters":8400,"station_id":"ce4bhah2rcd13ifvqei0","pricing_plan_id":"cebpf4jnsgd1na2vs0mg"},{"bike_id":"aa081435-b5f9-4834-b16c-7f35c836b33a","system_id":"levelo_inurba_marseille","lat":43.30152,"lon":5.37407,"is_reserved":false,"is_disabled":false,"rental_uris":{"android":"levelo://app?vid=aa081435-b5f9-4834-b16c-7f35c836b33a","ios":"levelo://app?vid=aa081435-b5f9-4834-b16c-7f35c836b33a"},"vehicle_type_id":"4","last_reported":1739321139,"current_range_meters":38400,"station_id":"ce4bgs92rcd13ifvqcc0","pricing_plan_id":"cebpf4jnsgd1na2vs0mg"},{"bike_id":"ee079ffa-4416-4a91-bc98-3bd665acea3b","system_id":"levelo_inurba_marseille","lat":43.33732,"lon":5.39185,"is_reserved":false,"is_disabled":false,"rental_uris":{"android":"levelo://app?vid=ee079ffa-4416-4a91-bc98-3bd665acea3b","ios":"levelo://app?vid=ee079ffa-4416-4a91-bc98-3bd665acea3b"},"vehicle_type_id":"4","last_reported":1739321139,"current_range_meters":38800,"station_id":"ce4bhr92rcd13ifvqhsg","pricing_plan_id":"cebpf4jnsgd1na2vs0mg"},{"bike_id":"1fa82dc6-47d4-4356-bbca-393bf4461726","system_id":"levelo_inurba_marseille","lat":43.23963,"lon":5.36621,"is_reserved":false,"is_disabled":false,"rental_uris":{"android":"levelo://app?vid=1fa82dc6-47d4-4356-bbca-393bf4461726","ios":"levelo://app?vid=1fa82dc6-47d4-4356-bbca-393bf4461726"},"vehicle_type_id":"4","last_reported":1739321139,"current_range_meters":18000,"station_id":"ce4bhi12rcd13ifvqfp0","pricing_plan_id":"cebpf4jnsgd1na2vs0mg"},{"bike_id":"8f27805b-e45e-482f-800b-3745204b0141","system_id":"levelo_inurba_marseille","lat":43.24686,"lon":5.38143,"is_reserved":false,"is_disabled":false,"rental_uris":{"android":"levelo://app?vid=8f27805b-e45e-482f-800b-3745204b0141","ios":"levelo://app?vid=8f27805b-e45e-482f-800b-3745204b0141"},"vehicle_type_id":"4","last_reported":1739321139,"current_range_meters":26000,"station_id":"ce4bhih2rcd13ifvqfr0","pricing_plan_id":"cebpf4jnsgd1na2vs0mg"},{"bike_id":"d5bf6350-350b-4b09-b572-0248f18304ff","system_id":"levelo_inurba_marseille","lat":43.297919,"lon":5.371035,"is_reserved":false,"is_disabled":false,"rental_uris":{"android":"levelo://app?vid=d5bf6350-350b-4b09-b572-0248f18304ff","ios":"levelo://app?vid=d5bf6350-350b-4b09-b572-0248f18304ff"},"vehicle_type_id":"4","last_reported":1739321139,"current_range_meters":38800,"station_id":"ce4bgop2rcd13ifvqc1g","pricing_plan_id":"cebpf4jnsgd1na2vs0mg"},{"bike_id":"bcb645d7-c598-4777-888d-2e2637a0a4f2","system_id":"levelo_inurba_marseille","lat":43.27918,"lon":5.37999,"is_reserved":false,"is_disabled":false,"rental_uris":{"android":"levelo://app?vid=bcb645d7-c598-4777-888d-2e2637a0a4f2","ios":"levelo://app?vid=bcb645d7-c598-4777-888d-2e2637a0a4f2"},"vehicle_type_id":"4","last_reported":1739321139,"current_range_meters":32000,"station_id":"ce4bhf92rcd13ifvqf50","pricing_plan_id":"cebpf4jnsgd1na2vs0mg"},{"bike_id":"43d9c899-b698-4010-980b-b17004dc2d7c","system_id":"levelo_inurba_marseille","lat":43.29981,"lon":5.37187,"is_reserved":false,"is_disabled":false,"rental_uris":{"android":"levelo://app?vid=43d9c899-b698-4010-980b-b17004dc2d7c","ios":"levelo://app?vid=43d9c899-b698-4010-980b-b17004dc2d7c"},"vehicle_type_id":"4","last_reported":1739321139,"current_range_meters":39200,"station_id":"ce4bgr92rcd13ifvqc7g","pricing_plan_id":"cebpf4jnsgd1na2vs0mg"},{"bike_id":"b1a9018a-650a-458d-86b0-1a5ce3a9dd24","system_id":"levelo_inurba_marseille","lat":43.279948,"lon":5.416568,"is_reserved":false,"is_disabled":false,"rental_uris":{"android":"levelo://app?vid=b1a9018a-650a-458d-86b0-1a5ce3a9dd24","ios":"levelo://app?vid=b1a9018a-650a-458d-86b0-1a5ce3a9dd24"},"vehicle_type_id":"4","last_reported":1739321139,"current_range_meters":36800,"station_id":"ce4bho12rcd13ifvqh1g","pricing_plan_id":"cebpf4jnsgd1na2vs0mg"},{"bike_id":"a482309b-d55d-462a-b150-da75ad76b03d","system_id":"levelo_inurba_marseille","lat":43.28837,"lon":5.39282,"is_reserved":false,"is_disabled":false,"rental_uris":{"android":"levelo://app?vid=a482309b-d55d-462a-b150-da75ad76b03d","ios":"levelo://app?vid=a482309b-d55d-462a-b150-da75ad76b03d"},"vehicle_type_id":"4","last_reported":1739321139,"current_range_meters":36000,"station_id":"ce4bh2p2rcd13ifvqdi0","pricing_plan_id":"cebpf4jnsgd1na2vs0mg"},{"bike_id":"47e0f5df-3ffc-443a-8e3a-326299068a40","system_id":"levelo_inurba_marseille","lat":43.280016,"lon":5.400101,"is_reserved":false,"is_disabled":false,"rental_uris":{"android":"levelo://app?vid=47e0f5df-3ffc-443a-8e3a-326299068a40","ios":"levelo://app?vid=47e0f5df-3ffc-443a-8e3a-326299068a40"},"vehicle_type_id":"4","last_reported":1739321139,"current_range_meters":24400,"station_id":"ce4bho92rcd13ifvqh4g","pricing_plan_id":"cebpf4jnsgd1na2vs0mg"},{"bike_id":"496fa2ad-a547-4095-b8b9-a29f1a78ab4b","system_id":"levelo_inurba_marseille","lat":43.27836,"lon":5.40721,"is_reserved":false,"is_disabled":true,"rental_uris":{"android":"levelo://app?vid=496fa2ad-a547-4095-b8b9-a29f1a78ab4b","ios":"levelo://app?vid=496fa2ad-a547-4095-b8b9-a29f1a78ab4b"},"vehicle_type_id":"4","last_reported":1739321139,"current_range_meters":35200,"station_id":"ce4bhnh2rcd13ifvqgtg","pricing_plan_id":"cebpf4jnsgd1na2vs0mg"},{"bike_id":"13471ccf-c2b7-4153-8571-1eff677f39ef","system_id":"levelo_inurba_marseille","lat":43.294436,"lon":5.397468,"is_reserved":false,"is_disabled":false,"rental_uris":{"android":"levelo://app?vid=13471ccf-c2b7-4153-8571-1eff677f39ef","ios":"levelo://app?vid=13471ccf-c2b7-4153-8571-1eff677f39ef"},"vehicle_type_id":"4","last_reported":1739321139,"current_range_meters":30000,"station_id":"ce4bh3h2rcd13ifvqdo0","pricing_plan_id":"cebpf4jnsgd1na2vs0mg"},{"bike_id":"3db29e58-0383-464f-82dd-fb2e9d4db242","system_id":"levelo_inurba_marseille","lat":43.28101,"lon":5.37854,"is_reserved":false,"is_disabled":false,"rental_uris":{"android":"levelo://app?vid=3db29e58-0383-464f-82dd-fb2e9d4db242","ios":"levelo://app?vid=3db29e58-0383-464f-82dd-fb2e9d4db242"},"vehicle_type_id":"4","last_reported":1739321139,"current_range_meters":30800,"station_id":"ce4bha12rcd13ifvqee0","pricing_plan_id":"cebpf4jnsgd1na2vs0mg"},{"bike_id":"05f6ac8f-0127-4e39-bd11-d53a74225ef8","system_id":"levelo_inurba_marseille","lat":43.27874,"lon":5.40597,"is_reserved":false,"is_disabled":true,"rental_uris":{"android":"levelo://app?vid=05f6ac8f-0127-4e39-bd11-d53a74225ef8","ios":"levelo://app?vid=05f6ac8f-0127-4e39-bd11-d53a74225ef8"},"vehicle_type_id":"4","last_reported":1739321139,"current_range_meters":0,"station_id":"","pricing_plan_id":"cebpf4jnsgd1na2vs0mg"},{"bike_id":"d340f923-6944-4974-a989-68f8c77eed2b","system_id":"levelo_inurba_marseille","lat":43.25121,"lon":5.40353,"is_reserved":false,"is_disabled":false,"rental_uris":{"android":"levelo://app?vid=d340f923-6944-4974-a989-68f8c77eed2b","ios":"levelo://app?vid=d340f923-6944-4974-a989-68f8c77eed2b"},"vehicle_type_id":"4","last_reported":1739321139,"current_range_meters":27600,"station_id":"ce4bhlh2rcd13ifvqgig","pricing_plan_id":"cebpf4jnsgd1na2vs0mg"},{"bike_id":"5e251f3a-b20d-4413-bffe-e10c72520158","system_id":"levelo_inurba_marseille","lat":43.27062,"lon":5.42293,"is_reserved":false,"is_disabled":false,"rental_uris":{"android":"levelo://app?vid=5e251f3a-b20d-4413-bffe-e10c72520158","ios":"levelo://app?vid=5e251f3a-b20d-4413-bffe-e10c72520158"},"vehicle_type_id":"4","last_reported":1739321139,"current_range_meters":36000,"station_id":"ce4bhk92rcd13ifvqgb0","pricing_plan_id":"cebpf4jnsgd1na2vs0mg"},{"bike_id":"3aeb5cdf-f333-43fd-9c06-e99bd36b32d2","system_id":"levelo_inurba_marseille","lat":43.29947,"lon":5.4131,"is_reserved":false,"is_disabled":false,"rental_uris":{"android":"levelo://app?vid=3aeb5cdf-f333-43fd-9c06-e99bd36b32d2","ios":"levelo://app?vid=3aeb5cdf-f333-43fd-9c06-e99bd36b32d2"},"vehicle_type_id":"4","last_reported":1739321139,"current_range_meters":36400,"station_id":"ce4bhp12rcd13ifvqh9g","pricing_plan_id":"cebpf4jnsgd1na2vs0mg"},{"bike_id":"aadaf4bd-d503-4fa8-8fba-48c219f7a5ca","system_id":"levelo_inurba_marseille","lat":43.2557,"lon":5.38247,"is_reserved":false,"is_disabled":false,"rental_uris":{"android":"levelo://app?vid=aadaf4bd-d503-4fa8-8fba-48c219f7a5ca","ios":"levelo://app?vid=aadaf4bd-d503-4fa8-8fba-48c219f7a5ca"},"vehicle_type_id":"4","last_reported":1739321139,"current_range_meters":8000,"station_id":"ce4bhih2rcd13ifvqfs0","pricing_plan_id":"cebpf4jnsgd1na2vs0mg"},{"bike_id":"90f13af0-9da4-4d02-82ad-8b2ef0f8ca45","system_id":"levelo_inurba_marseille","lat":43.31999,"lon":5.38145,"is_reserved":false,"is_disabled":false,"rental_uris":{"android":"levelo://app?vid=90f13af0-9da4-4d02-82ad-8b2ef0f8ca45","ios":"levelo://app?vid=90f13af0-9da4-4d02-82ad-8b2ef0f8ca45"},"vehicle_type_id":"4","last_reported":1739321139,"current_range_meters":38800,"station_id":"ce4bhr12rcd13ifvqhpg","pricing_plan_id":"cebpf4jnsgd1na2vs0mg"},{"bike_id":"3d01ee57-be5d-4165-815d-c5b06c8be331","system_id":"levelo_inurba_marseille","lat":43.25005,"lon":5.38938,"is_reserved":false,"is_disabled":false,"rental_uris":{"android":"levelo://app?vid=3d01ee57-be5d-4165-815d-c5b06c8be331","ios":"levelo://app?vid=3d01ee57-be5d-4165-815d-c5b06c8be331"},"vehicle_type_id":"4","last_reported":1739321139,"current_range_meters":38800,"station_id":"ce4bhgp2rcd13ifvqfd0","pricing_plan_id":"cebpf4jnsgd1na2vs0mg"},{"bike_id":"ac61e543-8c2c-417c-bfb2-f5d63157c922","system_id":"levelo_inurba_marseille","lat":43.326603,"lon":5.409917,"is_reserved":false,"is_disabled":false,"rental_uris":{"android":"levelo://app?vid=ac61e543-8c2c-417c-bfb2-f5d63157c922","ios":"levelo://app?vid=ac61e543-8c2c-417c-bfb2-f5d63157c922"},"vehicle_type_id":"4","last_reported":1739321139,"current_range_meters":38400,"station_id":"ce4bhpp2rcd13ifvqhgg","pricing_plan_id":"cebpf4jnsgd1na2vs0mg"},{"bike_id":"51620b26-19de-4403-be68-cecc23178a04","system_id":"levelo_inurba_marseille","lat":43.30911,"lon":5.372,"is_reserved":false,"is_disabled":false,"rental_uris":{"android":"levelo://app?vid=51620b26-19de-4403-be68-cecc23178a04","ios":"levelo://app?vid=51620b26-19de-4403-be68-cecc23178a04"},"vehicle_type_id":"4","last_reported":1739321139,"current_range_meters":34000,"station_id":"ce4bguh2rcd13ifvqckg","pricing_plan_id":"cebpf4jnsgd1na2vs0mg"},{"bike_id":"721f5fb6-7349-49b7-a109-77ff84c72bdd","system_id":"levelo_inurba_marseille","lat":43.30207,"lon":5.39461,"is_reserved":false,"is_disabled":false,"rental_uris":{"android":"levelo://app?vid=721f5fb6-7349-49b7-a109-77ff84c72bdd","ios":"levelo://app?vid=721f5fb6-7349-49b7-a109-77ff84c72bdd"},"vehicle_type_id":"4","last_reported":1739321139,"current_range_meters":38800,"station_id":"ce4bh0p2rcd13ifvqd70","pricing_plan_id":"cebpf4jnsgd1na2vs0mg"},{"bike_id":"a89cb6fd-5271-408f-9ac0-f40ad210763d","system_id":"levelo_inurba_marseille","lat":43.289234,"lon":5.383975,"is_reserved":false,"is_disabled":false,"rental_uris":{"android":"levelo://app?vid=a89cb6fd-5271-408f-9ac0-f40ad210763d","ios":"levelo://app?vid=a89cb6fd-5271-408f-9ac0-f40ad210763d"},"vehicle_type_id":"4","last_reported":1739321139,"current_range_meters":38800,"station_id":"ce4bh612rcd13ifvqe6g","pricing_plan_id":"cebpf4jnsgd1na2vs0mg"},{"bike_id":"76ed4e97-7fa9-4836-bcd3-e52753ef31b4","system_id":"levelo_inurba_marseille","lat":43.29843,"lon":5.36279,"is_reserved":false,"is_disabled":false,"rental_uris":{"android":"levelo://app?vid=76ed4e97-7fa9-4836-bcd3-e52753ef31b4","ios":"levelo://app?vid=76ed4e97-7fa9-4836-bcd3-e52753ef31b4"},"vehicle_type_id":"4","last_reported":1739321139,"current_range_meters":38800,"station_id":"ce4bgpp2rcd13ifvqc3g","pricing_plan_id":"cebpf4jnsgd1na2vs0mg"},{"bike_id":"fd7cd6eb-8023-4160-9061-39fa556cf25c","system_id":"levelo_inurba_marseille","lat":43.30331,"lon":5.40435,"is_reserved":false,"is_disabled":true,"rental_uris":{"android":"levelo://app?vid=fd7cd6eb-8023-4160-9061-39fa556cf25c","ios":"levelo://app?vid=fd7cd6eb-8023-4160-9061-39fa556cf25c"},"vehicle_type_id":"4","last_reported":1739321139,"current_range_meters":27200,"station_id":"ce4bh012rcd13ifvqd10","pricing_plan_id":"cebpf4jnsgd1na2vs0mg"},{"bike_id":"ee71251f-4f8b-439b-8130-6633e407107f","system_id":"levelo_inurba_marseille","lat":43.320552,"lon":5.415384,"is_reserved":false,"is_disabled":false,"rental_uris":{"android":"levelo://app?vid=ee71251f-4f8b-439b-8130-6633e407107f","ios":"levelo://app?vid=ee71251f-4f8b-439b-8130-6633e407107f"},"vehicle_type_id":"4","last_reported":1739321139,"current_range_meters":37600,"station_id":"ce4bhq92rcd13ifvqhkg","pricing_plan_id":"cebpf4jnsgd1na2vs0mg"},{"bike_id":"d32849cf-4c14-4032-9063-172d06d3f04f","system_id":"levelo_inurba_marseille","lat":43.231937,"lon":5.355524,"is_reserved":false,"is_disabled":false,"rental_uris":{"android":"levelo://app?vid=d32849cf-4c14-4032-9063-172d06d3f04f","ios":"levelo://app?vid=d32849cf-4c14-4032-9063-172d06d3f04f"},"vehicle_type_id":"4","last_reported":1739321139,"current_range_meters":33200,"station_id":"ce4bhu92rcd13ifvqi70","pricing_plan_id":"cebpf4jnsgd1na2vs0mg"},{"bike_id":"a4eaaa69-6c5f-4bbb-8db1-625e149d651e","system_id":"levelo_inurba_marseille","lat":43.29514,"lon":5.39055,"is_reserved":false,"is_disabled":false,"rental_uris":{"android":"levelo://app?vid=a4eaaa69-6c5f-4bbb-8db1-625e149d651e","ios":"levelo://app?vid=a4eaaa69-6c5f-4bbb-8db1-625e149d651e"},"vehicle_type_id":"4","last_reported":1739321139,"current_range_meters":39200,"station_id":"ce4bh3p2rcd13ifvqdp0","pricing_plan_id":"cebpf4jnsgd1na2vs0mg"},{"bike_id":"4bb4af83-e61e-4f75-9787-d8bfa4ce6d16","system_id":"levelo_inurba_marseille","lat":43.30953,"lon":5.39034,"is_reserved":false,"is_disabled":false,"rental_uris":{"android":"levelo://app?vid=4bb4af83-e61e-4f75-9787-d8bfa4ce6d16","ios":"levelo://app?vid=4bb4af83-e61e-4f75-9787-d8bfa4ce6d16"},"vehicle_type_id":"4","last_reported":1739321139,"current_range_meters":30000,"station_id":"ce4bgup2rcd13ifvqco0","pricing_plan_id":"cebpf4jnsgd1na2vs0mg"},{"bike_id":"172f1cf8-91a8-4ae5-bd29-db168c06efd6","system_id":"levelo_inurba_marseille","lat":43.28714,"lon":5.361,"is_reserved":false,"is_disabled":false,"rental_uris":{"android":"levelo://app?vid=172f1cf8-91a8-4ae5-bd29-db168c06efd6","ios":"levelo://app?vid=172f1cf8-91a8-4ae5-bd29-db168c06efd6"},"vehicle_type_id":"4","last_reported":1739321139,"current_range_meters":38800,"station_id":"cki0cbj6b192h4jlfktg","pricing_plan_id":"cebpf4jnsgd1na2vs0mg"},{"bike_id":"09a31e22-31a3-4a8b-a8f3-c6b84a9cc357","system_id":"levelo_inurba_marseille","lat":43.27549,"lon":5.38444,"is_reserved":false,"is_disabled":false,"rental_uris":{"android":"levelo://app?vid=09a31e22-31a3-4a8b-a8f3-c6b84a9cc357","ios":"levelo://app?vid=09a31e22-31a3-4a8b-a8f3-c6b84a9cc357"},"vehicle_type_id":"4","last_reported":1739321139,"current_range_meters":25600,"station_id":"ce4bhh92rcd13ifvqfi0","pricing_plan_id":"cebpf4jnsgd1na2vs0mg"},{"bike_id":"b7cfafc0-fba3-47fa-8c3d-d96c6bee1f7a","system_id":"levelo_inurba_marseille","lat":43.24384,"lon":5.37055,"is_reserved":false,"is_disabled":false,"rental_uris":{"android":"levelo://app?vid=b7cfafc0-fba3-47fa-8c3d-d96c6bee1f7a","ios":"levelo://app?vid=b7cfafc0-fba3-47fa-8c3d-d96c6bee1f7a"},"vehicle_type_id":"4","last_reported":1739321139,"current_range_meters":32000,"station_id":"ce4bhhh2rcd13ifvqfk0","pricing_plan_id":"cebpf4jnsgd1na2vs0mg"},{"bike_id":"9ba133ba-7b58-4607-8737-7fb5bce66e58","system_id":"levelo_inurba_marseille","lat":43.24393,"lon":5.37048,"is_reserved":false,"is_disabled":false,"rental_uris":{"android":"levelo://app?vid=9ba133ba-7b58-4607-8737-7fb5bce66e58","ios":"levelo://app?vid=9ba133ba-7b58-4607-8737-7fb5bce66e58"},"vehicle_type_id":"4","last_reported":1739321139,"current_range_meters":38800,"station_id":"ce4bhhh2rcd13ifvqfk0","pricing_plan_id":"cebpf4jnsgd1na2vs0mg"},{"bike_id":"d0a2e3b7-3dff-44d4-bafe-c1b4d812c1fc","system_id":"levelo_inurba_marseille","lat":43.28078,"lon":5.39655,"is_reserved":false,"is_disabled":false,"rental_uris":{"android":"levelo://app?vid=d0a2e3b7-3dff-44d4-bafe-c1b4d812c1fc","ios":"levelo://app?vid=d0a2e3b7-3dff-44d4-bafe-c1b4d812c1fc"},"vehicle_type_id":"4","last_reported":1739321139,"current_range_meters":23200,"station_id":"ce4bho12rcd13ifvqh2g","pricing_plan_id":"cebpf4jnsgd1na2vs0mg"},{"bike_id":"f6e41f32-e235-432e-b657-0d4bc89c9b05","system_id":"levelo_inurba_marseille","lat":43.265593,"lon":5.372833,"is_reserved":false,"is_disabled":false,"rental_uris":{"android":"levelo://app?vid=f6e41f32-e235-432e-b657-0d4bc89c9b05","ios":"levelo://app?vid=f6e41f32-e235-432e-b657-0d4bc89c9b05"},"vehicle_type_id":"4","last_reported":1739321139,"current_range_meters":36800,"station_id":"ce4bhg12rcd13ifvqf70","pricing_plan_id":"cebpf4jnsgd1na2vs0mg"},{"bike_id":"890d9710-d39f-4ac8-b682-d39d1a34596e","system_id":"levelo_inurba_marseille","lat":43.29515,"lon":5.39043,"is_reserved":false,"is_disabled":false,"rental_uris":{"android":"levelo://app?vid=890d9710-d39f-4ac8-b682-d39d1a34596e","ios":"levelo://app?vid=890d9710-d39f-4ac8-b682-d39d1a34596e"},"vehicle_type_id":"4","last_reported":1739321139,"current_range_meters":36000,"station_id":"ce4bh3p2rcd13ifvqdp0","pricing_plan_id":"cebpf4jnsgd1na2vs0mg"},{"bike_id":"8a458595-4d2b-414d-b3f0-202dcd5ab661","system_id":"levelo_inurba_marseille","lat":43.30566,"lon":5.39358,"is_reserved":false,"is_disabled":false,"rental_uris":{"android":"levelo://app?vid=8a458595-4d2b-414d-b3f0-202dcd5ab661","ios":"levelo://app?vid=8a458595-4d2b-414d-b3f0-202dcd5ab661"},"vehicle_type_id":"4","last_reported":1739321139,"current_range_meters":6800,"station_id":"ce4bh0p2rcd13ifvqd80","pricing_plan_id":"cebpf4jnsgd1na2vs0mg"},{"bike_id":"14b2070b-6ddc-42e3-b1e8-9c0cbc081f72","system_id":"levelo_inurba_marseille","lat":43.33727,"lon":5.39198,"is_reserved":false,"is_disabled":false,"rental_uris":{"android":"levelo://app?vid=14b2070b-6ddc-42e3-b1e8-9c0cbc081f72","ios":"levelo://app?vid=14b2070b-6ddc-42e3-b1e8-9c0cbc081f72"},"vehicle_type_id":"4","last_reported":1739321139,"current_range_meters":38800,"station_id":"ce4bhr92rcd13ifvqhsg","pricing_plan_id":"cebpf4jnsgd1na2vs0mg"},{"bike_id":"a4ffd37d-e603-4662-a8c5-11a265291ed9","system_id":"levelo_inurba_marseille","lat":43.28921,"lon":5.3641,"is_reserved":false,"is_disabled":false,"rental_uris":{"android":"levelo://app?vid=a4ffd37d-e603-4662-a8c5-11a265291ed9","ios":"levelo://app?vid=a4ffd37d-e603-4662-a8c5-11a265291ed9"},"vehicle_type_id":"4","last_reported":1739321139,"current_range_meters":31200,"station_id":"ce4bhc92rcd13ifvqetg","pricing_plan_id":"cebpf4jnsgd1na2vs0mg"},{"bike_id":"3ad78980-d954-4439-b88d-56e0dcfe7b89","system_id":"levelo_inurba_marseille","lat":43.239636,"lon":5.366367,"is_reserved":false,"is_disabled":false,"rental_uris":{"android":"levelo://app?vid=3ad78980-d954-4439-b88d-56e0dcfe7b89","ios":"levelo://app?vid=3ad78980-d954-4439-b88d-56e0dcfe7b89"},"vehicle_type_id":"4","last_reported":1739321139,"current_range_meters":8400,"station_id":"ce4bhi12rcd13ifvqfp0","pricing_plan_id":"cebpf4jnsgd1na2vs0mg"},{"bike_id":"383eab20-f39c-48b0-ac98-8e554f1282a2","system_id":"levelo_inurba_marseille","lat":43.30898,"lon":5.39652,"is_reserved":false,"is_disabled":false,"rental_uris":{"android":"levelo://app?vid=383eab20-f39c-48b0-ac98-8e554f1282a2","ios":"levelo://app?vid=383eab20-f39c-48b0-ac98-8e554f1282a2"},"vehicle_type_id":"4","last_reported":1739321139,"current_range_meters":28800,"station_id":"ce4bh012rcd13ifvqcv0","pricing_plan_id":"cebpf4jnsgd1na2vs0mg"},{"bike_id":"46db1648-ba2a-4dfb-a6c4-3b2d857c956e","system_id":"levelo_inurba_marseille","lat":43.29525,"lon":5.39037,"is_reserved":false,"is_disabled":false,"rental_uris":{"android":"levelo://app?vid=46db1648-ba2a-4dfb-a6c4-3b2d857c956e","ios":"levelo://app?vid=46db1648-ba2a-4dfb-a6c4-3b2d857c956e"},"vehicle_type_id":"4","last_reported":1739321139,"current_range_meters":22800,"station_id":"ce4bh3p2rcd13ifvqdp0","pricing_plan_id":"cebpf4jnsgd1na2vs0mg"},{"bike_id":"72dcdbd8-6454-45d9-a70f-b140c9e866d2","system_id":"levelo_inurba_marseille","lat":43.29896,"lon":5.43644,"is_reserved":false,"is_disabled":false,"rental_uris":{"android":"levelo://app?vid=72dcdbd8-6454-45d9-a70f-b140c9e866d2","ios":"levelo://app?vid=72dcdbd8-6454-45d9-a70f-b140c9e866d2"},"vehicle_type_id":"4","last_reported":1739321139,"current_range_meters":39200,"station_id":"ce4bhpp2rcd13ifvqhfg","pricing_plan_id":"cebpf4jnsgd1na2vs0mg"},{"bike_id":"652123cb-3721-44be-8710-a2f825a76e71","system_id":"levelo_inurba_marseille","lat":43.23191,"lon":5.39989,"is_reserved":false,"is_disabled":false,"rental_uris":{"android":"levelo://app?vid=652123cb-3721-44be-8710-a2f825a76e71","ios":"levelo://app?vid=652123cb-3721-44be-8710-a2f825a76e71"},"vehicle_type_id":"4","last_reported":1739321139,"current_range_meters":6800,"station_id":"ce4bhn12rcd13ifvqgqg","pricing_plan_id":"cebpf4jnsgd1na2vs0mg"},{"bike_id":"aac8cc9e-7907-4652-996a-70eec2eebf42","system_id":"levelo_inurba_marseille","lat":43.269337,"lon":5.38911,"is_reserved":false,"is_disabled":false,"rental_uris":{"android":"levelo://app?vid=aac8cc9e-7907-4652-996a-70eec2eebf42","ios":"levelo://app?vid=aac8cc9e-7907-4652-996a-70eec2eebf42"},"vehicle_type_id":"4","last_reported":1739321139,"current_range_meters":38400,"station_id":"ce4bhhh2rcd13ifvqfl0","pricing_plan_id":"cebpf4jnsgd1na2vs0mg"},{"bike_id":"8b3dba3f-5de8-455b-8ad7-d817a08bdb0c","system_id":"levelo_inurba_marseille","lat":43.30892,"lon":5.37183,"is_reserved":false,"is_disabled":false,"rental_uris":{"android":"levelo://app?vid=8b3dba3f-5de8-455b-8ad7-d817a08bdb0c","ios":"levelo://app?vid=8b3dba3f-5de8-455b-8ad7-d817a08bdb0c"},"vehicle_type_id":"4","last_reported":1739321139,"current_range_meters":38400,"station_id":"ce4bguh2rcd13ifvqckg","pricing_plan_id":"cebpf4jnsgd1na2vs0mg"},{"bike_id":"fb2c916d-110b-4178-ae54-20a447d0a865","system_id":"levelo_inurba_marseille","lat":43.31367,"lon":5.38497,"is_reserved":false,"is_disabled":false,"rental_uris":{"android":"levelo://app?vid=fb2c916d-110b-4178-ae54-20a447d0a865","ios":"levelo://app?vid=fb2c916d-110b-4178-ae54-20a447d0a865"},"vehicle_type_id":"4","last_reported":1739321139,"current_range_meters":38800,"station_id":"ce4bgt92rcd13ifvqcf0","pricing_plan_id":"cebpf4jnsgd1na2vs0mg"},{"bike_id":"cf160fcf-310b-47d6-bb39-6582c88867e6","system_id":"levelo_inurba_marseille","lat":43.27828,"lon":5.39207,"is_reserved":false,"is_disabled":false,"rental_uris":{"android":"levelo://app?vid=cf160fcf-310b-47d6-bb39-6582c88867e6","ios":"levelo://app?vid=cf160fcf-310b-47d6-bb39-6582c88867e6"},"vehicle_type_id":"4","last_reported":1739321139,"current_range_meters":28800,"station_id":"ce4bhjp2rcd13ifvqga0","pricing_plan_id":"cebpf4jnsgd1na2vs0mg"},{"bike_id":"201b14f4-65c7-45ff-8010-fe136e6675ac","system_id":"levelo_inurba_marseille","lat":43.24166,"lon":5.39715,"is_reserved":false,"is_disabled":false,"rental_uris":{"android":"levelo://app?vid=201b14f4-65c7-45ff-8010-fe136e6675ac","ios":"levelo://app?vid=201b14f4-65c7-45ff-8010-fe136e6675ac"},"vehicle_type_id":"4","last_reported":1739321139,"current_range_meters":23200,"station_id":"ce4bhn12rcd13ifvqgpg","pricing_plan_id":"cebpf4jnsgd1na2vs0mg"},{"bike_id":"e3791e92-0e4b-451e-92a2-d4fab2f0ee48","system_id":"levelo_inurba_marseille","lat":43.31678,"lon":5.37762,"is_reserved":false,"is_disabled":false,"rental_uris":{"android":"levelo://app?vid=e3791e92-0e4b-451e-92a2-d4fab2f0ee48","ios":"levelo://app?vid=e3791e92-0e4b-451e-92a2-d4fab2f0ee48"},"vehicle_type_id":"4","last_reported":1739321139,"current_range_meters":38800,"station_id":"ce4bgth2rcd13ifvqch0","pricing_plan_id":"cebpf4jnsgd1na2vs0mg"},{"bike_id":"9207b0f3-9707-4707-b4f6-b2339a5ec8ff","system_id":"levelo_inurba_marseille","lat":43.28149,"lon":5.42623,"is_reserved":false,"is_disabled":false,"rental_uris":{"android":"levelo://app?vid=9207b0f3-9707-4707-b4f6-b2339a5ec8ff","ios":"levelo://app?vid=9207b0f3-9707-4707-b4f6-b2339a5ec8ff"},"vehicle_type_id":"4","last_reported":1739321139,"current_range_meters":37600,"station_id":"ce4bhnh2rcd13ifvqgug","pricing_plan_id":"cebpf4jnsgd1na2vs0mg"},{"bike_id":"2550662b-5c2a-41ed-9f77-e5c02053bdf1","system_id":"levelo_inurba_marseille","lat":43.28409,"lon":5.37526,"is_reserved":false,"is_disabled":false,"rental_uris":{"android":"levelo://app?vid=2550662b-5c2a-41ed-9f77-e5c02053bdf1","ios":"levelo://app?vid=2550662b-5c2a-41ed-9f77-e5c02053bdf1"},"vehicle_type_id":"4","last_reported":1739321139,"current_range_meters":34000,"station_id":"ce4bh412rcd13ifvqds0","pricing_plan_id":"cebpf4jnsgd1na2vs0mg"},{"bike_id":"80af509e-2c60-42b8-a7fc-6aebf1bb06c1","system_id":"levelo_inurba_marseille","lat":43.25732,"lon":5.41102,"is_reserved":false,"is_disabled":false,"rental_uris":{"android":"levelo://app?vid=80af509e-2c60-42b8-a7fc-6aebf1bb06c1","ios":"levelo://app?vid=80af509e-2c60-42b8-a7fc-6aebf1bb06c1"},"vehicle_type_id":"4","last_reported":1739321139,"current_range_meters":33200,"station_id":"ce4bhkp2rcd13ifvqgd0","pricing_plan_id":"cebpf4jnsgd1na2vs0mg"},{"bike_id":"7c71ad91-930b-4856-a3a6-b776fe0ad731","system_id":"levelo_inurba_marseille","lat":43.29709,"lon":5.36606,"is_reserved":false,"is_disabled":false,"rental_uris":{"android":"levelo://app?vid=7c71ad91-930b-4856-a3a6-b776fe0ad731","ios":"levelo://app?vid=7c71ad91-930b-4856-a3a6-b776fe0ad731"},"vehicle_type_id":"4","last_reported":1739321139,"current_range_meters":39200,"station_id":"ce4bgn12rcd13ifvqbt0","pricing_plan_id":"cebpf4jnsgd1na2vs0mg"},{"bike_id":"ddbfc913-16cf-4d9f-a892-35d08e1e6767","system_id":"levelo_inurba_marseille","lat":43.295879,"lon":5.367431,"is_reserved":false,"is_disabled":false,"rental_uris":{"android":"levelo://app?vid=ddbfc913-16cf-4d9f-a892-35d08e1e6767","ios":"levelo://app?vid=ddbfc913-16cf-4d9f-a892-35d08e1e6767"},"vehicle_type_id":"4","last_reported":1739321139,"current_range_meters":13600,"station_id":"ce4bgph2rcd13ifvqc2g","pricing_plan_id":"cebpf4jnsgd1na2vs0mg"},{"bike_id":"0a77f424-9d7d-4010-bd33-1687a2ffd57e","system_id":"levelo_inurba_marseille","lat":43.24802,"lon":5.37455,"is_reserved":false,"is_disabled":false,"rental_uris":{"android":"levelo://app?vid=0a77f424-9d7d-4010-bd33-1687a2ffd57e","ios":"levelo://app?vid=0a77f424-9d7d-4010-bd33-1687a2ffd57e"},"vehicle_type_id":"4","last_reported":1739321139,"current_range_meters":12400,"station_id":"ce4bhgh2rcd13ifvqfb0","pricing_plan_id":"cebpf4jnsgd1na2vs0mg"},{"bike_id":"15c8d317-fbc9-41d6-8e07-f6f8c9ef394a","system_id":"levelo_inurba_marseille","lat":43.28456,"lon":5.38406,"is_reserved":false,"is_disabled":false,"rental_uris":{"android":"levelo://app?vid=15c8d317-fbc9-41d6-8e07-f6f8c9ef394a","ios":"levelo://app?vid=15c8d317-fbc9-41d6-8e07-f6f8c9ef394a"},"vehicle_type_id":"4","last_reported":1739321139,"current_range_meters":38800,"station_id":"ce4bh512rcd13ifvqe3g","pricing_plan_id":"cebpf4jnsgd1na2vs0mg"},{"bike_id":"43889192-859a-4673-8b4e-651ca48fb58d","system_id":"levelo_inurba_marseille","lat":43.30224,"lon":5.40069,"is_reserved":false,"is_disabled":false,"rental_uris":{"android":"levelo://app?vid=43889192-859a-4673-8b4e-651ca48fb58d","ios":"levelo://app?vid=43889192-859a-4673-8b4e-651ca48fb58d"},"vehicle_type_id":"4","last_reported":1739321139,"current_range_meters":36400,"station_id":"ce4bgvh2rcd13ifvqcs0","pricing_plan_id":"cebpf4jnsgd1na2vs0mg"},{"bike_id":"c2250f20-2283-4e17-b7ce-382f2f740aa1","system_id":"levelo_inurba_marseille","lat":43.24803,"lon":5.3746,"is_reserved":false,"is_disabled":false,"rental_uris":{"android":"levelo://app?vid=c2250f20-2283-4e17-b7ce-382f2f740aa1","ios":"levelo://app?vid=c2250f20-2283-4e17-b7ce-382f2f740aa1"},"vehicle_type_id":"4","last_reported":1739321139,"current_range_meters":39200,"station_id":"ce4bhgh2rcd13ifvqfb0","pricing_plan_id":"cebpf4jnsgd1na2vs0mg"},{"bike_id":"2ba57bae-d489-49e7-95d5-93a9bbd24d80","system_id":"levelo_inurba_marseille","lat":43.29582,"lon":5.38134,"is_reserved":false,"is_disabled":false,"rental_uris":{"android":"levelo://app?vid=2ba57bae-d489-49e7-95d5-93a9bbd24d80","ios":"levelo://app?vid=2ba57bae-d489-49e7-95d5-93a9bbd24d80"},"vehicle_type_id":"4","last_reported":1739321139,"current_range_meters":35200,"station_id":"ce4bgl12rcd13ifvqbo0","pricing_plan_id":"cebpf4jnsgd1na2vs0mg"},{"bike_id":"a7553041-8337-41cf-859f-54b65f7556fc","system_id":"levelo_inurba_marseille","lat":43.268,"lon":5.40239,"is_reserved":false,"is_disabled":false,"rental_uris":{"android":"levelo://app?vid=a7553041-8337-41cf-859f-54b65f7556fc","ios":"levelo://app?vid=a7553041-8337-41cf-859f-54b65f7556fc"},"vehicle_type_id":"4","last_reported":1739321139,"current_range_meters":27200,"station_id":"ce501612rcd8frsf0b60","pricing_plan_id":"cebpf4jnsgd1na2vs0mg"},{"bike_id":"d42ce623-68c9-4e3f-bc1f-bff3c11777b1","system_id":"levelo_inurba_marseille","lat":43.29256,"lon":5.409,"is_reserved":false,"is_disabled":false,"rental_uris":{"android":"levelo://app?vid=d42ce623-68c9-4e3f-bc1f-bff3c11777b1","ios":"levelo://app?vid=d42ce623-68c9-4e3f-bc1f-bff3c11777b1"},"vehicle_type_id":"4","last_reported":1739321139,"current_range_meters":37600,"station_id":"ce4bh192rcd13ifvqdc0","pricing_plan_id":"cebpf4jnsgd1na2vs0mg"},{"bike_id":"a5c8d6b9-db75-471f-9015-10144bb13020","system_id":"levelo_inurba_marseille","lat":43.25725,"lon":5.41119,"is_reserved":false,"is_disabled":false,"rental_uris":{"android":"levelo://app?vid=a5c8d6b9-db75-471f-9015-10144bb13020","ios":"levelo://app?vid=a5c8d6b9-db75-471f-9015-10144bb13020"},"vehicle_type_id":"4","last_reported":1739321139,"current_range_meters":38400,"station_id":"ce4bhkp2rcd13ifvqgd0","pricing_plan_id":"cebpf4jnsgd1na2vs0mg"},{"bike_id":"baf358ae-086d-4010-83ca-6eb774131dfe","system_id":"levelo_inurba_marseille","lat":43.290298,"lon":5.386368,"is_reserved":false,"is_disabled":false,"rental_uris":{"android":"levelo://app?vid=baf358ae-086d-4010-83ca-6eb774131dfe","ios":"levelo://app?vid=baf358ae-086d-4010-83ca-6eb774131dfe"},"vehicle_type_id":"4","last_reported":1739321139,"current_range_meters":7200,"station_id":"ce4bh4p2rcd13ifvqe0g","pricing_plan_id":"cebpf4jnsgd1na2vs0mg"},{"bike_id":"8aaacf93-7a76-463b-82dc-340e7efb76fd","system_id":"levelo_inurba_marseille","lat":43.29808,"lon":5.40402,"is_reserved":false,"is_disabled":false,"rental_uris":{"android":"levelo://app?vid=8aaacf93-7a76-463b-82dc-340e7efb76fd","ios":"levelo://app?vid=8aaacf93-7a76-463b-82dc-340e7efb76fd"},"vehicle_type_id":"4","last_reported":1739321139,"current_range_meters":38800,"station_id":"ce4bh112rcd13ifvqd90","pricing_plan_id":"cebpf4jnsgd1na2vs0mg"},{"bike_id":"f85fd452-5bde-4296-ab83-dac7111c9b77","system_id":"levelo_inurba_marseille","lat":43.32509,"lon":5.41548,"is_reserved":false,"is_disabled":false,"rental_uris":{"android":"levelo://app?vid=f85fd452-5bde-4296-ab83-dac7111c9b77","ios":"levelo://app?vid=f85fd452-5bde-4296-ab83-dac7111c9b77"},"vehicle_type_id":"4","last_reported":1739321139,"current_range_meters":37600,"station_id":"","pricing_plan_id":"cebpf4jnsgd1na2vs0mg"},{"bike_id":"feb3e2f3-9d72-4c1f-a6c4-e04f79121ad4","system_id":"levelo_inurba_marseille","lat":43.29503,"lon":5.39416,"is_reserved":false,"is_disabled":false,"rental_uris":{"android":"levelo://app?vid=feb3e2f3-9d72-4c1f-a6c4-e04f79121ad4","ios":"levelo://app?vid=feb3e2f3-9d72-4c1f-a6c4-e04f79121ad4"},"vehicle_type_id":"4","last_reported":1739321139,"current_range_meters":8400,"station_id":"ce4bh292rcd13ifvqdf0","pricing_plan_id":"cebpf4jnsgd1na2vs0mg"},{"bike_id":"30b76049-e41b-4adb-862f-755fe2524e05","system_id":"levelo_inurba_marseille","lat":43.288513,"lon":5.393247,"is_reserved":false,"is_disabled":false,"rental_uris":{"android":"levelo://app?vid=30b76049-e41b-4adb-862f-755fe2524e05","ios":"levelo://app?vid=30b76049-e41b-4adb-862f-755fe2524e05"},"vehicle_type_id":"4","last_reported":1739321139,"current_range_meters":38400,"station_id":"","pricing_plan_id":"cebpf4jnsgd1na2vs0mg"},{"bike_id":"635543fe-6114-4369-91d2-b63a5133d0a1","system_id":"levelo_inurba_marseille","lat":43.2795,"lon":5.41046,"is_reserved":false,"is_disabled":false,"rental_uris":{"android":"levelo://app?vid=635543fe-6114-4369-91d2-b63a5133d0a1","ios":"levelo://app?vid=635543fe-6114-4369-91d2-b63a5133d0a1"},"vehicle_type_id":"4","last_reported":1739321139,"current_range_meters":8400,"station_id":"ce4bhnp2rcd13ifvqh0g","pricing_plan_id":"cebpf4jnsgd1na2vs0mg"},{"bike_id":"6bb8211a-c1de-47cc-bea2-284fbf4f5864","system_id":"levelo_inurba_marseille","lat":43.29271,"lon":5.38415,"is_reserved":false,"is_disabled":false,"rental_uris":{"android":"levelo://app?vid=6bb8211a-c1de-47cc-bea2-284fbf4f5864","ios":"levelo://app?vid=6bb8211a-c1de-47cc-bea2-284fbf4f5864"},"vehicle_type_id":"4","last_reported":1739321139,"current_range_meters":28400,"station_id":"ce4bh692rcd13ifvqea0","pricing_plan_id":"cebpf4jnsgd1na2vs0mg"},{"bike_id":"b287473a-74ee-4278-927d-e008af99acd8","system_id":"levelo_inurba_marseille","lat":43.29909,"lon":5.36527,"is_reserved":false,"is_disabled":false,"rental_uris":{"android":"levelo://app?vid=b287473a-74ee-4278-927d-e008af99acd8","ios":"levelo://app?vid=b287473a-74ee-4278-927d-e008af99acd8"},"vehicle_type_id":"4","last_reported":1739321139,"current_range_meters":22800,"station_id":"ce4bgm92rcd13ifvqbr0","pricing_plan_id":"cebpf4jnsgd1na2vs0mg"},{"bike_id":"fcbc761f-abb6-45d3-b5e7-3973a580b96f","system_id":"levelo_inurba_marseille","lat":43.28458,"lon":5.3587,"is_reserved":false,"is_disabled":false,"rental_uris":{"android":"levelo://app?vid=fcbc761f-abb6-45d3-b5e7-3973a580b96f","ios":"levelo://app?vid=fcbc761f-abb6-45d3-b5e7-3973a580b96f"},"vehicle_type_id":"4","last_reported":1739321139,"current_range_meters":24000,"station_id":"ce4bhah2rcd13ifvqei0","pricing_plan_id":"cebpf4jnsgd1na2vs0mg"},{"bike_id":"861aed4c-893e-4b16-ad69-4dfb51ba3a05","system_id":"levelo_inurba_marseille","lat":43.28726,"lon":5.36092,"is_reserved":false,"is_disabled":false,"rental_uris":{"android":"levelo://app?vid=861aed4c-893e-4b16-ad69-4dfb51ba3a05","ios":"levelo://app?vid=861aed4c-893e-4b16-ad69-4dfb51ba3a05"},"vehicle_type_id":"4","last_reported":1739321139,"current_range_meters":29600,"station_id":"cki0cbj6b192h4jlfktg","pricing_plan_id":"cebpf4jnsgd1na2vs0mg"},{"bike_id":"64387a61-7414-453e-8131-28fa15536541","system_id":"levelo_inurba_marseille","lat":43.258664,"lon":5.399014,"is_reserved":false,"is_disabled":false,"rental_uris":{"android":"levelo://app?vid=64387a61-7414-453e-8131-28fa15536541","ios":"levelo://app?vid=64387a61-7414-453e-8131-28fa15536541"},"vehicle_type_id":"4","last_reported":1739321139,"current_range_meters":8400,"station_id":"ce4bhl92rcd13ifvqghg","pricing_plan_id":"cebpf4jnsgd1na2vs0mg"},{"bike_id":"f485fec6-0351-42cc-97ed-a02c33d6e154","system_id":"levelo_inurba_marseille","lat":43.2619,"lon":5.37922,"is_reserved":false,"is_disabled":false,"rental_uris":{"android":"levelo://app?vid=f485fec6-0351-42cc-97ed-a02c33d6e154","ios":"levelo://app?vid=f485fec6-0351-42cc-97ed-a02c33d6e154"},"vehicle_type_id":"4","last_reported":1739321139,"current_range_meters":38400,"station_id":"ce4bhjp2rcd13ifvqg90","pricing_plan_id":"cebpf4jnsgd1na2vs0mg"},{"bike_id":"1d2000e3-6e82-4c8d-9a0a-5d8181e36eb3","system_id":"levelo_inurba_marseille","lat":43.25018,"lon":5.38919,"is_reserved":false,"is_disabled":false,"rental_uris":{"android":"levelo://app?vid=1d2000e3-6e82-4c8d-9a0a-5d8181e36eb3","ios":"levelo://app?vid=1d2000e3-6e82-4c8d-9a0a-5d8181e36eb3"},"vehicle_type_id":"4","last_reported":1739321139,"current_range_meters":38000,"station_id":"ce4bhgp2rcd13ifvqfd0","pricing_plan_id":"cebpf4jnsgd1na2vs0mg"},{"bike_id":"ad1132e5-698d-42b0-a3e6-6ac75510d87b","system_id":"levelo_inurba_marseille","lat":43.28868,"lon":5.35828,"is_reserved":false,"is_disabled":false,"rental_uris":{"android":"levelo://app?vid=ad1132e5-698d-42b0-a3e6-6ac75510d87b","ios":"levelo://app?vid=ad1132e5-698d-42b0-a3e6-6ac75510d87b"},"vehicle_type_id":"4","last_reported":1739321139,"current_range_meters":28400,"station_id":"ce4bhb12rcd13ifvqem0","pricing_plan_id":"cebpf4jnsgd1na2vs0mg"},{"bike_id":"a69e567e-3774-43da-9871-c9cd59263ec8","system_id":"levelo_inurba_marseille","lat":43.288488,"lon":5.393233,"is_reserved":false,"is_disabled":true,"rental_uris":{"android":"levelo://app?vid=a69e567e-3774-43da-9871-c9cd59263ec8","ios":"levelo://app?vid=a69e567e-3774-43da-9871-c9cd59263ec8"},"vehicle_type_id":"4","last_reported":1739321139,"current_range_meters":32400,"station_id":"ce4bh2p2rcd13ifvqdi0","pricing_plan_id":"cebpf4jnsgd1na2vs0mg"},{"bike_id":"c38fb035-efa3-4aa0-bdd4-9215cbbf93bb","system_id":"levelo_inurba_marseille","lat":43.30591,"lon":5.37178,"is_reserved":false,"is_disabled":false,"rental_uris":{"android":"levelo://app?vid=c38fb035-efa3-4aa0-bdd4-9215cbbf93bb","ios":"levelo://app?vid=c38fb035-efa3-4aa0-bdd4-9215cbbf93bb"},"vehicle_type_id":"4","last_reported":1739321139,"current_range_meters":38800,"station_id":"ce4bgqh2rcd13ifvqc4g","pricing_plan_id":"cebpf4jnsgd1na2vs0mg"},{"bike_id":"799c55c2-1e76-4409-82fe-e1417f2eccf3","system_id":"levelo_inurba_marseille","lat":43.31374,"lon":5.38486,"is_reserved":false,"is_disabled":false,"rental_uris":{"android":"levelo://app?vid=799c55c2-1e76-4409-82fe-e1417f2eccf3","ios":"levelo://app?vid=799c55c2-1e76-4409-82fe-e1417f2eccf3"},"vehicle_type_id":"4","last_reported":1739321139,"current_range_meters":38800,"station_id":"ce4bgt92rcd13ifvqcf0","pricing_plan_id":"cebpf4jnsgd1na2vs0mg"},{"bike_id":"450437f7-f152-4a04-b325-03f3ed3d779b","system_id":"levelo_inurba_marseille","lat":43.23188,"lon":5.39989,"is_reserved":false,"is_disabled":false,"rental_uris":{"android":"levelo://app?vid=450437f7-f152-4a04-b325-03f3ed3d779b","ios":"levelo://app?vid=450437f7-f152-4a04-b325-03f3ed3d779b"},"vehicle_type_id":"4","last_reported":1739321139,"current_range_meters":28400,"station_id":"ce4bhn12rcd13ifvqgqg","pricing_plan_id":"cebpf4jnsgd1na2vs0mg"},{"bike_id":"21b0c502-fd63-49e2-994e-aea282d5bf53","system_id":"levelo_inurba_marseille","lat":43.28736,"lon":5.39992,"is_reserved":false,"is_disabled":false,"rental_uris":{"android":"levelo://app?vid=21b0c502-fd63-49e2-994e-aea282d5bf53","ios":"levelo://app?vid=21b0c502-fd63-49e2-994e-aea282d5bf53"},"vehicle_type_id":"4","last_reported":1739321139,"current_range_meters":13600,"station_id":"ce4bho92rcd13ifvqh3g","pricing_plan_id":"cebpf4jnsgd1na2vs0mg"},{"bike_id":"4894643c-7cbc-44b9-8d75-69292261da04","system_id":"levelo_inurba_marseille","lat":43.29036,"lon":5.39968,"is_reserved":false,"is_disabled":true,"rental_uris":{"android":"levelo://app?vid=4894643c-7cbc-44b9-8d75-69292261da04","ios":"levelo://app?vid=4894643c-7cbc-44b9-8d75-69292261da04"},"vehicle_type_id":"4","last_reported":1739321139,"current_range_meters":38800,"station_id":"ce4bh392rcd13ifvqdm0","pricing_plan_id":"cebpf4jnsgd1na2vs0mg"},{"bike_id":"8f958795-1d0e-4a72-96cf-46fac3cf00bf","system_id":"levelo_inurba_marseille","lat":43.25515,"lon":5.39427,"is_reserved":false,"is_disabled":false,"rental_uris":{"android":"levelo://app?vid=8f958795-1d0e-4a72-96cf-46fac3cf00bf","ios":"levelo://app?vid=8f958795-1d0e-4a72-96cf-46fac3cf00bf"},"vehicle_type_id":"4","last_reported":1739321139,"current_range_meters":25600,"station_id":"","pricing_plan_id":"cebpf4jnsgd1na2vs0mg"},{"bike_id":"da3cce48-300e-4c15-b1e5-3b3c17a5c1a4","system_id":"levelo_inurba_marseille","lat":43.29562,"lon":5.39981,"is_reserved":false,"is_disabled":false,"rental_uris":{"android":"levelo://app?vid=da3cce48-300e-4c15-b1e5-3b3c17a5c1a4","ios":"levelo://app?vid=da3cce48-300e-4c15-b1e5-3b3c17a5c1a4"},"vehicle_type_id":"4","last_reported":1739321139,"current_range_meters":37600,"station_id":"ce4bh312rcd13ifvqdj0","pricing_plan_id":"cebpf4jnsgd1na2vs0mg"},{"bike_id":"7d53cd04-03c8-428a-b4fb-0e771333a4f5","system_id":"levelo_inurba_marseille","lat":43.248064,"lon":5.374529,"is_reserved":false,"is_disabled":false,"rental_uris":{"android":"levelo://app?vid=7d53cd04-03c8-428a-b4fb-0e771333a4f5","ios":"levelo://app?vid=7d53cd04-03c8-428a-b4fb-0e771333a4f5"},"vehicle_type_id":"4","last_reported":1739321139,"current_range_meters":38800,"station_id":"ce4bhgh2rcd13ifvqfb0","pricing_plan_id":"cebpf4jnsgd1na2vs0mg"},{"bike_id":"04d4b8ab-1d4d-44ab-9d49-e10f569c0553","system_id":"levelo_inurba_marseille","lat":43.29839,"lon":5.36274,"is_reserved":false,"is_disabled":false,"rental_uris":{"android":"levelo://app?vid=04d4b8ab-1d4d-44ab-9d49-e10f569c0553","ios":"levelo://app?vid=04d4b8ab-1d4d-44ab-9d49-e10f569c0553"},"vehicle_type_id":"4","last_reported":1739321139,"current_range_meters":36800,"station_id":"ce4bgpp2rcd13ifvqc3g","pricing_plan_id":"cebpf4jnsgd1na2vs0mg"},{"bike_id":"1aa20f28-8d10-4408-8fc5-fd6e535e6f55","system_id":"levelo_inurba_marseille","lat":43.3079,"lon":5.4355,"is_reserved":false,"is_disabled":false,"rental_uris":{"android":"levelo://app?vid=1aa20f28-8d10-4408-8fc5-fd6e535e6f55","ios":"levelo://app?vid=1aa20f28-8d10-4408-8fc5-fd6e535e6f55"},"vehicle_type_id":"4","last_reported":1739321139,"current_range_meters":38800,"station_id":"ce4bhph2rcd13ifvqheg","pricing_plan_id":"cebpf4jnsgd1na2vs0mg"},{"bike_id":"31ef7217-bcfe-43ce-b994-2ac5b1fe87c2","system_id":"levelo_inurba_marseille","lat":43.25729,"lon":5.41107,"is_reserved":false,"is_disabled":true,"rental_uris":{"android":"levelo://app?vid=31ef7217-bcfe-43ce-b994-2ac5b1fe87c2","ios":"levelo://app?vid=31ef7217-bcfe-43ce-b994-2ac5b1fe87c2"},"vehicle_type_id":"4","last_reported":1739321139,"current_range_meters":38000,"station_id":"ce4bhkp2rcd13ifvqgd0","pricing_plan_id":"cebpf4jnsgd1na2vs0mg"},{"bike_id":"90037e4a-a934-46fa-8514-6ab0532a1c0b","system_id":"levelo_inurba_marseille","lat":43.27925,"lon":5.41178,"is_reserved":false,"is_disabled":false,"rental_uris":{"android":"levelo://app?vid=90037e4a-a934-46fa-8514-6ab0532a1c0b","ios":"levelo://app?vid=90037e4a-a934-46fa-8514-6ab0532a1c0b"},"vehicle_type_id":"4","last_reported":1739321139,"current_range_meters":38000,"station_id":"","pricing_plan_id":"cebpf4jnsgd1na2vs0mg"},{"bike_id":"efbc2d24-a630-407b-a70e-aa5f9f781e8b","system_id":"levelo_inurba_marseille","lat":43.32051,"lon":5.41578,"is_reserved":false,"is_disabled":false,"rental_uris":{"android":"levelo://app?vid=efbc2d24-a630-407b-a70e-aa5f9f781e8b","ios":"levelo://app?vid=efbc2d24-a630-407b-a70e-aa5f9f781e8b"},"vehicle_type_id":"4","last_reported":1739321139,"current_range_meters":37600,"station_id":"ce4bhq92rcd13ifvqhkg","pricing_plan_id":"cebpf4jnsgd1na2vs0mg"},{"bike_id":"c4813b27-4250-43ea-8be5-ccd7321d2af3","system_id":"levelo_inurba_marseille","lat":43.282208,"lon":5.369898,"is_reserved":false,"is_disabled":false,"rental_uris":{"android":"levelo://app?vid=c4813b27-4250-43ea-8be5-ccd7321d2af3","ios":"levelo://app?vid=c4813b27-4250-43ea-8be5-ccd7321d2af3"},"vehicle_type_id":"4","last_reported":1739321139,"current_range_meters":19600,"station_id":"","pricing_plan_id":"cebpf4jnsgd1na2vs0mg"},{"bike_id":"7f7dd517-7cf5-41d9-92b7-ff4d18b1b1c0","system_id":"levelo_inurba_marseille","lat":43.24069,"lon":5.37762,"is_reserved":false,"is_disabled":false,"rental_uris":{"android":"levelo://app?vid=7f7dd517-7cf5-41d9-92b7-ff4d18b1b1c0","ios":"levelo://app?vid=7f7dd517-7cf5-41d9-92b7-ff4d18b1b1c0"},"vehicle_type_id":"4","last_reported":1739321139,"current_range_meters":15200,"station_id":"ce4bhnp2rcd13ifvqgvg","pricing_plan_id":"cebpf4jnsgd1na2vs0mg"},{"bike_id":"336a8004-bc8a-4425-9029-c2c7e82e23ba","system_id":"levelo_inurba_marseille","lat":43.28708,"lon":5.37377,"is_reserved":false,"is_disabled":false,"rental_uris":{"android":"levelo://app?vid=336a8004-bc8a-4425-9029-c2c7e82e23ba","ios":"levelo://app?vid=336a8004-bc8a-4425-9029-c2c7e82e23ba"},"vehicle_type_id":"4","last_reported":1739321139,"current_range_meters":37600,"station_id":"ce4bh3p2rcd13ifvqdq0","pricing_plan_id":"cebpf4jnsgd1na2vs0mg"},{"bike_id":"42f49824-5dbd-4245-b0ef-e9b83256b3c9","system_id":"levelo_inurba_marseille","lat":43.279571,"lon":5.410419,"is_reserved":false,"is_disabled":true,"rental_uris":{"android":"levelo://app?vid=42f49824-5dbd-4245-b0ef-e9b83256b3c9","ios":"levelo://app?vid=42f49824-5dbd-4245-b0ef-e9b83256b3c9"},"vehicle_type_id":"4","last_reported":1739321139,"current_range_meters":21600,"station_id":"ce4bhnp2rcd13ifvqh0g","pricing_plan_id":"cebpf4jnsgd1na2vs0mg"},{"bike_id":"f527f611-e339-4077-8eb3-88e771ccab1a","system_id":"levelo_inurba_marseille","lat":43.307958,"lon":5.38162,"is_reserved":false,"is_disabled":false,"rental_uris":{"android":"levelo://app?vid=f527f611-e339-4077-8eb3-88e771ccab1a","ios":"levelo://app?vid=f527f611-e339-4077-8eb3-88e771ccab1a"},"vehicle_type_id":"4","last_reported":1739321139,"current_range_meters":4400,"station_id":"ce4bgt12rcd13ifvqce0","pricing_plan_id":"cebpf4jnsgd1na2vs0mg"},{"bike_id":"36ff92ad-ebc1-4fd8-8dd7-e924b8bea389","system_id":"levelo_inurba_marseille","lat":43.30489,"lon":5.37882,"is_reserved":false,"is_disabled":true,"rental_uris":{"android":"levelo://app?vid=36ff92ad-ebc1-4fd8-8dd7-e924b8bea389","ios":"levelo://app?vid=36ff92ad-ebc1-4fd8-8dd7-e924b8bea389"},"vehicle_type_id":"4","last_reported":1739321139,"current_range_meters":20000,"station_id":"ce4bho92rcd13ifvqh3g","pricing_plan_id":"cebpf4jnsgd1na2vs0mg"},{"bike_id":"89989227-1c97-4085-ad79-5fb53c2c0083","system_id":"levelo_inurba_marseille","lat":43.28944,"lon":5.39622,"is_reserved":false,"is_disabled":false,"rental_uris":{"android":"levelo://app?vid=89989227-1c97-4085-ad79-5fb53c2c0083","ios":"levelo://app?vid=89989227-1c97-4085-ad79-5fb53c2c0083"},"vehicle_type_id":"4","last_reported":1739321139,"current_range_meters":38400,"station_id":"ce4bh3h2rcd13ifvqdn0","pricing_plan_id":"cebpf4jnsgd1na2vs0mg"},{"bike_id":"c6e9e330-1aab-422c-8245-ce8d62525fd3","system_id":"levelo_inurba_marseille","lat":43.28917,"lon":5.38386,"is_reserved":false,"is_disabled":false,"rental_uris":{"android":"levelo://app?vid=c6e9e330-1aab-422c-8245-ce8d62525fd3","ios":"levelo://app?vid=c6e9e330-1aab-422c-8245-ce8d62525fd3"},"vehicle_type_id":"4","last_reported":1739321139,"current_range_meters":38800,"station_id":"ce4bh612rcd13ifvqe6g","pricing_plan_id":"cebpf4jnsgd1na2vs0mg"},{"bike_id":"84d7bb12-e4ae-4f43-9da9-f0fd5e7e3cf0","system_id":"levelo_inurba_marseille","lat":43.2998,"lon":5.38498,"is_reserved":false,"is_disabled":false,"rental_uris":{"android":"levelo://app?vid=84d7bb12-e4ae-4f43-9da9-f0fd5e7e3cf0","ios":"levelo://app?vid=84d7bb12-e4ae-4f43-9da9-f0fd5e7e3cf0"},"vehicle_type_id":"4","last_reported":1739321139,"current_range_meters":18000,"station_id":"ce4bgj92rcd13ifvqbd0","pricing_plan_id":"cebpf4jnsgd1na2vs0mg"},{"bike_id":"3fe74fa0-7e2d-4997-b43d-14f090e78b72","system_id":"levelo_inurba_marseille","lat":43.31172,"lon":5.38718,"is_reserved":false,"is_disabled":false,"rental_uris":{"android":"levelo://app?vid=3fe74fa0-7e2d-4997-b43d-14f090e78b72","ios":"levelo://app?vid=3fe74fa0-7e2d-4997-b43d-14f090e78b72"},"vehicle_type_id":"4","last_reported":1739321139,"current_range_meters":27600,"station_id":"ce4bgv12rcd13ifvqcp0","pricing_plan_id":"cebpf4jnsgd1na2vs0mg"},{"bike_id":"ec51a9f1-f61f-485d-bb7d-c6488e79e667","system_id":"levelo_inurba_marseille","lat":43.28877,"lon":5.36438,"is_reserved":false,"is_disabled":false,"rental_uris":{"android":"levelo://app?vid=ec51a9f1-f61f-485d-bb7d-c6488e79e667","ios":"levelo://app?vid=ec51a9f1-f61f-485d-bb7d-c6488e79e667"},"vehicle_type_id":"4","last_reported":1739321139,"current_range_meters":12800,"station_id":"","pricing_plan_id":"cebpf4jnsgd1na2vs0mg"},{"bike_id":"260c9b34-4667-48ca-978a-f657f4740738","system_id":"levelo_inurba_marseille","lat":43.28154,"lon":5.426541,"is_reserved":false,"is_disabled":false,"rental_uris":{"android":"levelo://app?vid=260c9b34-4667-48ca-978a-f657f4740738","ios":"levelo://app?vid=260c9b34-4667-48ca-978a-f657f4740738"},"vehicle_type_id":"4","last_reported":1739321139,"current_range_meters":11200,"station_id":"ce4bhnh2rcd13ifvqgug","pricing_plan_id":"cebpf4jnsgd1na2vs0mg"},{"bike_id":"30c0885a-ee3f-424b-8753-d2f0c1a6c3c4","system_id":"levelo_inurba_marseille","lat":43.31707,"lon":5.37786,"is_reserved":false,"is_disabled":false,"rental_uris":{"android":"levelo://app?vid=30c0885a-ee3f-424b-8753-d2f0c1a6c3c4","ios":"levelo://app?vid=30c0885a-ee3f-424b-8753-d2f0c1a6c3c4"},"vehicle_type_id":"4","last_reported":1739321139,"current_range_meters":39200,"station_id":"ce4bgth2rcd13ifvqch0","pricing_plan_id":"cebpf4jnsgd1na2vs0mg"},{"bike_id":"1b3abb85-501c-42ea-b1e4-3e793d718815","system_id":"levelo_inurba_marseille","lat":43.30158,"lon":5.39897,"is_reserved":false,"is_disabled":false,"rental_uris":{"android":"levelo://app?vid=1b3abb85-501c-42ea-b1e4-3e793d718815","ios":"levelo://app?vid=1b3abb85-501c-42ea-b1e4-3e793d718815"},"vehicle_type_id":"4","last_reported":1739321139,"current_range_meters":22000,"station_id":"ce4bh0h2rcd13ifvqd40","pricing_plan_id":"cebpf4jnsgd1na2vs0mg"},{"bike_id":"c302a417-cf1e-421f-a1f9-6f52c2dcd81e","system_id":"levelo_inurba_marseille","lat":43.3064,"lon":5.37338,"is_reserved":false,"is_disabled":false,"rental_uris":{"android":"levelo://app?vid=c302a417-cf1e-421f-a1f9-6f52c2dcd81e","ios":"levelo://app?vid=c302a417-cf1e-421f-a1f9-6f52c2dcd81e"},"vehicle_type_id":"4","last_reported":1739321139,"current_range_meters":37600,"station_id":"","pricing_plan_id":"cebpf4jnsgd1na2vs0mg"},{"bike_id":"bc992cde-f8bf-4786-a4be-324661e4add3","system_id":"levelo_inurba_marseille","lat":43.28088,"lon":5.37888,"is_reserved":false,"is_disabled":false,"rental_uris":{"android":"levelo://app?vid=bc992cde-f8bf-4786-a4be-324661e4add3","ios":"levelo://app?vid=bc992cde-f8bf-4786-a4be-324661e4add3"},"vehicle_type_id":"4","last_reported":1739321139,"current_range_meters":36800,"station_id":"ce4bha12rcd13ifvqee0","pricing_plan_id":"cebpf4jnsgd1na2vs0mg"},{"bike_id":"6164e2a4-a4f3-4822-a53e-f14ecefa128d","system_id":"levelo_inurba_marseille","lat":43.24686,"lon":5.38146,"is_reserved":false,"is_disabled":false,"rental_uris":{"android":"levelo://app?vid=6164e2a4-a4f3-4822-a53e-f14ecefa128d","ios":"levelo://app?vid=6164e2a4-a4f3-4822-a53e-f14ecefa128d"},"vehicle_type_id":"4","last_reported":1739321139,"current_range_meters":10000,"station_id":"ce4bhih2rcd13ifvqfr0","pricing_plan_id":"cebpf4jnsgd1na2vs0mg"},{"bike_id":"1ec14052-2d33-4aa1-9ab8-58cc71db74d1","system_id":"levelo_inurba_marseille","lat":43.24159,"lon":5.36401,"is_reserved":false,"is_disabled":false,"rental_uris":{"android":"levelo://app?vid=1ec14052-2d33-4aa1-9ab8-58cc71db74d1","ios":"levelo://app?vid=1ec14052-2d33-4aa1-9ab8-58cc71db74d1"},"vehicle_type_id":"4","last_reported":1739321139,"current_range_meters":11600,"station_id":"cpo36qri1sfpv3e86is0","pricing_plan_id":"cebpf4jnsgd1na2vs0mg"},{"bike_id":"cc9863f8-1a05-4208-b84e-7b349cd299f2","system_id":"levelo_inurba_marseille","lat":43.26783,"lon":5.39425,"is_reserved":false,"is_disabled":false,"rental_uris":{"android":"levelo://app?vid=cc9863f8-1a05-4208-b84e-7b349cd299f2","ios":"levelo://app?vid=cc9863f8-1a05-4208-b84e-7b349cd299f2"},"vehicle_type_id":"4","last_reported":1739321139,"current_range_meters":27600,"station_id":"ce4bhh12rcd13ifvqfg0","pricing_plan_id":"cebpf4jnsgd1na2vs0mg"},{"bike_id":"b3b45130-4456-4f49-a726-9923bcb61db7","system_id":"levelo_inurba_marseille","lat":43.26932,"lon":5.38666,"is_reserved":false,"is_disabled":false,"rental_uris":{"android":"levelo://app?vid=b3b45130-4456-4f49-a726-9923bcb61db7","ios":"levelo://app?vid=b3b45130-4456-4f49-a726-9923bcb61db7"},"vehicle_type_id":"4","last_reported":1739321139,"current_range_meters":39200,"station_id":"ce4bhh92rcd13ifvqfh0","pricing_plan_id":"cebpf4jnsgd1na2vs0mg"},{"bike_id":"48ff1adf-3b7c-409e-b8e1-d9c9704f851d","system_id":"levelo_inurba_marseille","lat":43.28418,"lon":5.37527,"is_reserved":false,"is_disabled":false,"rental_uris":{"android":"levelo://app?vid=48ff1adf-3b7c-409e-b8e1-d9c9704f851d","ios":"levelo://app?vid=48ff1adf-3b7c-409e-b8e1-d9c9704f851d"},"vehicle_type_id":"4","last_reported":1739321139,"current_range_meters":16800,"station_id":"ce4bh412rcd13ifvqds0","pricing_plan_id":"cebpf4jnsgd1na2vs0mg"},{"bike_id":"a8fc6373-236b-4c06-9d3b-2a6dce076200","system_id":"levelo_inurba_marseille","lat":43.33602,"lon":5.41004,"is_reserved":false,"is_disabled":false,"rental_uris":{"android":"levelo://app?vid=a8fc6373-236b-4c06-9d3b-2a6dce076200","ios":"levelo://app?vid=a8fc6373-236b-4c06-9d3b-2a6dce076200"},"vehicle_type_id":"4","last_reported":1739321139,"current_range_meters":12800,"station_id":"ce4bhqh2rcd13ifvqhmg","pricing_plan_id":"cebpf4jnsgd1na2vs0mg"},{"bike_id":"e859d2f4-21a5-41bf-aa12-2604d8d6afc4","system_id":"levelo_inurba_marseille","lat":43.29975,"lon":5.3851,"is_reserved":false,"is_disabled":false,"rental_uris":{"android":"levelo://app?vid=e859d2f4-21a5-41bf-aa12-2604d8d6afc4","ios":"levelo://app?vid=e859d2f4-21a5-41bf-aa12-2604d8d6afc4"},"vehicle_type_id":"4","last_reported":1739321139,"current_range_meters":28000,"station_id":"ce4bgj92rcd13ifvqbd0","pricing_plan_id":"cebpf4jnsgd1na2vs0mg"},{"bike_id":"fc855d4e-cf92-48ad-b751-57eb2469a89a","system_id":"levelo_inurba_marseille","lat":43.324807,"lon":5.365661,"is_reserved":false,"is_disabled":false,"rental_uris":{"android":"levelo://app?vid=fc855d4e-cf92-48ad-b751-57eb2469a89a","ios":"levelo://app?vid=fc855d4e-cf92-48ad-b751-57eb2469a89a"},"vehicle_type_id":"4","last_reported":1739321139,"current_range_meters":38800,"station_id":"ce4bhs12rcd13ifvqhvg","pricing_plan_id":"cebpf4jnsgd1na2vs0mg"},{"bike_id":"79df8d93-a019-4f4d-ad9b-607d770a7910","system_id":"levelo_inurba_marseille","lat":43.29386,"lon":5.38904,"is_reserved":false,"is_disabled":false,"rental_uris":{"android":"levelo://app?vid=79df8d93-a019-4f4d-ad9b-607d770a7910","ios":"levelo://app?vid=79df8d93-a019-4f4d-ad9b-607d770a7910"},"vehicle_type_id":"4","last_reported":1739321139,"current_range_meters":24400,"station_id":"","pricing_plan_id":"cebpf4jnsgd1na2vs0mg"},{"bike_id":"fbb98623-bd6f-4427-9463-8f7fc3b3bd20","system_id":"levelo_inurba_marseille","lat":43.28028,"lon":5.36928,"is_reserved":false,"is_disabled":false,"rental_uris":{"android":"levelo://app?vid=fbb98623-bd6f-4427-9463-8f7fc3b3bd20","ios":"levelo://app?vid=fbb98623-bd6f-4427-9463-8f7fc3b3bd20"},"vehicle_type_id":"4","last_reported":1739321139,"current_range_meters":26800,"station_id":"ce4bha12rcd13ifvqef0","pricing_plan_id":"cebpf4jnsgd1na2vs0mg"},{"bike_id":"10a8a33b-62d6-4137-a5b2-ed208638ca88","system_id":"levelo_inurba_marseille","lat":43.29717,"lon":5.36612,"is_reserved":false,"is_disabled":false,"rental_uris":{"android":"levelo://app?vid=10a8a33b-62d6-4137-a5b2-ed208638ca88","ios":"levelo://app?vid=10a8a33b-62d6-4137-a5b2-ed208638ca88"},"vehicle_type_id":"4","last_reported":1739321139,"current_range_meters":39200,"station_id":"ce4bgn12rcd13ifvqbt0","pricing_plan_id":"cebpf4jnsgd1na2vs0mg"},{"bike_id":"ad795876-c2a2-448f-b4ea-65cb85d1df8a","system_id":"levelo_inurba_marseille","lat":43.289476,"lon":5.366342,"is_reserved":false,"is_disabled":false,"rental_uris":{"android":"levelo://app?vid=ad795876-c2a2-448f-b4ea-65cb85d1df8a","ios":"levelo://app?vid=ad795876-c2a2-448f-b4ea-65cb85d1df8a"},"vehicle_type_id":"4","last_reported":1739321139,"current_range_meters":37600,"station_id":"ce4bhap2rcd13ifvqek0","pricing_plan_id":"cebpf4jnsgd1na2vs0mg"},{"bike_id":"edf99232-73e2-43a9-8757-ece396e4e4d6","system_id":"levelo_inurba_marseille","lat":43.28966,"lon":5.36574,"is_reserved":false,"is_disabled":false,"rental_uris":{"android":"levelo://app?vid=edf99232-73e2-43a9-8757-ece396e4e4d6","ios":"levelo://app?vid=edf99232-73e2-43a9-8757-ece396e4e4d6"},"vehicle_type_id":"4","last_reported":1739321139,"current_range_meters":38400,"station_id":"","pricing_plan_id":"cebpf4jnsgd1na2vs0mg"},{"bike_id":"29c3ac46-78a2-45ae-8d8f-cdd8abdf7857","system_id":"levelo_inurba_marseille","lat":43.284562,"lon":5.358859,"is_reserved":false,"is_disabled":false,"rental_uris":{"android":"levelo://app?vid=29c3ac46-78a2-45ae-8d8f-cdd8abdf7857","ios":"levelo://app?vid=29c3ac46-78a2-45ae-8d8f-cdd8abdf7857"},"vehicle_type_id":"4","last_reported":1739321139,"current_range_meters":38800,"station_id":"ce4bhah2rcd13ifvqei0","pricing_plan_id":"cebpf4jnsgd1na2vs0mg"},{"bike_id":"3072c860-6a06-4429-8629-72daeba313c2","system_id":"levelo_inurba_marseille","lat":43.29885,"lon":5.39749,"is_reserved":false,"is_disabled":false,"rental_uris":{"android":"levelo://app?vid=3072c860-6a06-4429-8629-72daeba313c2","ios":"levelo://app?vid=3072c860-6a06-4429-8629-72daeba313c2"},"vehicle_type_id":"4","last_reported":1739321139,"current_range_meters":39200,"station_id":"ce4bh0h2rcd13ifvqd50","pricing_plan_id":"cebpf4jnsgd1na2vs0mg"},{"bike_id":"4e688f18-4785-4ca6-93a6-27bd8811c86f","system_id":"levelo_inurba_marseille","lat":43.28654,"lon":5.38669,"is_reserved":false,"is_disabled":false,"rental_uris":{"android":"levelo://app?vid=4e688f18-4785-4ca6-93a6-27bd8811c86f","ios":"levelo://app?vid=4e688f18-4785-4ca6-93a6-27bd8811c86f"},"vehicle_type_id":"4","last_reported":1739321139,"current_range_meters":38800,"station_id":"ce4bh492rcd13ifvqdug","pricing_plan_id":"cebpf4jnsgd1na2vs0mg"},{"bike_id":"e74edd37-0ec7-4f56-b77f-e7249fd01314","system_id":"levelo_inurba_marseille","lat":43.305626,"lon":5.365138,"is_reserved":false,"is_disabled":false,"rental_uris":{"android":"levelo://app?vid=e74edd37-0ec7-4f56-b77f-e7249fd01314","ios":"levelo://app?vid=e74edd37-0ec7-4f56-b77f-e7249fd01314"},"vehicle_type_id":"4","last_reported":1739321139,"current_range_meters":10800,"station_id":"ce4bgs12rcd13ifvqcag","pricing_plan_id":"cebpf4jnsgd1na2vs0mg"},{"bike_id":"ea825ccc-4862-4dce-aa23-071f2b90643e","system_id":"levelo_inurba_marseille","lat":43.27998,"lon":5.41644,"is_reserved":false,"is_disabled":false,"rental_uris":{"android":"levelo://app?vid=ea825ccc-4862-4dce-aa23-071f2b90643e","ios":"levelo://app?vid=ea825ccc-4862-4dce-aa23-071f2b90643e"},"vehicle_type_id":"4","last_reported":1739321139,"current_range_meters":38800,"station_id":"ce4bho12rcd13ifvqh1g","pricing_plan_id":"cebpf4jnsgd1na2vs0mg"},{"bike_id":"4594b7e8-d14d-4409-9cc2-cb9b6a731a93","system_id":"levelo_inurba_marseille","lat":43.29559,"lon":5.39967,"is_reserved":false,"is_disabled":false,"rental_uris":{"android":"levelo://app?vid=4594b7e8-d14d-4409-9cc2-cb9b6a731a93","ios":"levelo://app?vid=4594b7e8-d14d-4409-9cc2-cb9b6a731a93"},"vehicle_type_id":"4","last_reported":1739321139,"current_range_meters":28400,"station_id":"ce4bh312rcd13ifvqdj0","pricing_plan_id":"cebpf4jnsgd1na2vs0mg"},{"bike_id":"ca63d75f-d551-49cb-bec7-e060cadddd73","system_id":"levelo_inurba_marseille","lat":43.28055,"lon":5.44178,"is_reserved":false,"is_disabled":false,"rental_uris":{"android":"levelo://app?vid=ca63d75f-d551-49cb-bec7-e060cadddd73","ios":"levelo://app?vid=ca63d75f-d551-49cb-bec7-e060cadddd73"},"vehicle_type_id":"4","last_reported":1739321139,"current_range_meters":12000,"station_id":"","pricing_plan_id":"cebpf4jnsgd1na2vs0mg"},{"bike_id":"f7ae9a97-641a-4598-bcd7-5d3ae922b145","system_id":"levelo_inurba_marseille","lat":43.30415,"lon":5.39747,"is_reserved":false,"is_disabled":false,"rental_uris":{"android":"levelo://app?vid=f7ae9a97-641a-4598-bcd7-5d3ae922b145","ios":"levelo://app?vid=f7ae9a97-641a-4598-bcd7-5d3ae922b145"},"vehicle_type_id":"4","last_reported":1739321139,"current_range_meters":39200,"station_id":"ce4bh092rcd13ifvqd20","pricing_plan_id":"cebpf4jnsgd1na2vs0mg"},{"bike_id":"36ec0d9a-1bf5-4c23-96f6-19f00c6c3f19","system_id":"levelo_inurba_marseille","lat":43.30936,"lon":5.40144,"is_reserved":false,"is_disabled":false,"rental_uris":{"android":"levelo://app?vid=36ec0d9a-1bf5-4c23-96f6-19f00c6c3f19","ios":"levelo://app?vid=36ec0d9a-1bf5-4c23-96f6-19f00c6c3f19"},"vehicle_type_id":"4","last_reported":1739321139,"current_range_meters":28400,"station_id":"ce4bgvp2rcd13ifvqct0","pricing_plan_id":"cebpf4jnsgd1na2vs0mg"},{"bike_id":"dd7e4e2f-f2db-4c41-9b95-8e20b6da1267","system_id":"levelo_inurba_marseille","lat":43.32483,"lon":5.36577,"is_reserved":false,"is_disabled":false,"rental_uris":{"android":"levelo://app?vid=dd7e4e2f-f2db-4c41-9b95-8e20b6da1267","ios":"levelo://app?vid=dd7e4e2f-f2db-4c41-9b95-8e20b6da1267"},"vehicle_type_id":"4","last_reported":1739321139,"current_range_meters":15200,"station_id":"ce4bhs12rcd13ifvqhvg","pricing_plan_id":"cebpf4jnsgd1na2vs0mg"},{"bike_id":"d06b3b54-dc24-493e-97db-e54b37ab5416","system_id":"levelo_inurba_marseille","lat":43.30517,"lon":5.36554,"is_reserved":false,"is_disabled":false,"rental_uris":{"android":"levelo://app?vid=d06b3b54-dc24-493e-97db-e54b37ab5416","ios":"levelo://app?vid=d06b3b54-dc24-493e-97db-e54b37ab5416"},"vehicle_type_id":"4","last_reported":1739321139,"current_range_meters":28400,"station_id":"","pricing_plan_id":"cebpf4jnsgd1na2vs0mg"},{"bike_id":"91f8274d-f215-4cef-97ab-b8259e58eb3d","system_id":"levelo_inurba_marseille","lat":43.30409,"lon":5.39748,"is_reserved":false,"is_disabled":false,"rental_uris":{"android":"levelo://app?vid=91f8274d-f215-4cef-97ab-b8259e58eb3d","ios":"levelo://app?vid=91f8274d-f215-4cef-97ab-b8259e58eb3d"},"vehicle_type_id":"4","last_reported":1739321139,"current_range_meters":38800,"station_id":"ce4bh092rcd13ifvqd20","pricing_plan_id":"cebpf4jnsgd1na2vs0mg"},{"bike_id":"eeccec07-6fc8-428c-b8c5-b899ccf614fa","system_id":"levelo_inurba_marseille","lat":43.28074,"lon":5.39661,"is_reserved":false,"is_disabled":false,"rental_uris":{"android":"levelo://app?vid=eeccec07-6fc8-428c-b8c5-b899ccf614fa","ios":"levelo://app?vid=eeccec07-6fc8-428c-b8c5-b899ccf614fa"},"vehicle_type_id":"4","last_reported":1739321139,"current_range_meters":24800,"station_id":"ce4bho12rcd13ifvqh2g","pricing_plan_id":"cebpf4jnsgd1na2vs0mg"},{"bike_id":"bfd9b987-0e5a-4817-a42e-d3882e56d854","system_id":"levelo_inurba_marseille","lat":43.29934,"lon":5.37492,"is_reserved":false,"is_disabled":false,"rental_uris":{"android":"levelo://app?vid=bfd9b987-0e5a-4817-a42e-d3882e56d854","ios":"levelo://app?vid=bfd9b987-0e5a-4817-a42e-d3882e56d854"},"vehicle_type_id":"4","last_reported":1739321139,"current_range_meters":38800,"station_id":"ce4bgjh2rcd13ifvqbg0","pricing_plan_id":"cebpf4jnsgd1na2vs0mg"},{"bike_id":"a162f376-a84a-4a32-bde0-b6fcca3fe7f0","system_id":"levelo_inurba_marseille","lat":43.29871,"lon":5.38891,"is_reserved":false,"is_disabled":false,"rental_uris":{"android":"levelo://app?vid=a162f376-a84a-4a32-bde0-b6fcca3fe7f0","ios":"levelo://app?vid=a162f376-a84a-4a32-bde0-b6fcca3fe7f0"},"vehicle_type_id":"4","last_reported":1739321139,"current_range_meters":34800,"station_id":"ce4bh392rcd13ifvqdl0","pricing_plan_id":"cebpf4jnsgd1na2vs0mg"},{"bike_id":"118acaa8-c377-4759-a8f9-c3303973ef34","system_id":"levelo_inurba_marseille","lat":43.29881,"lon":5.38897,"is_reserved":false,"is_disabled":false,"rental_uris":{"android":"levelo://app?vid=118acaa8-c377-4759-a8f9-c3303973ef34","ios":"levelo://app?vid=118acaa8-c377-4759-a8f9-c3303973ef34"},"vehicle_type_id":"4","last_reported":1739321139,"current_range_meters":22000,"station_id":"ce4bh392rcd13ifvqdl0","pricing_plan_id":"cebpf4jnsgd1na2vs0mg"},{"bike_id":"44860f8c-298d-457c-82f6-0ccd9b1c385a","system_id":"levelo_inurba_marseille","lat":43.30661,"lon":5.40082,"is_reserved":false,"is_disabled":false,"rental_uris":{"android":"levelo://app?vid=44860f8c-298d-457c-82f6-0ccd9b1c385a","ios":"levelo://app?vid=44860f8c-298d-457c-82f6-0ccd9b1c385a"},"vehicle_type_id":"4","last_reported":1739321139,"current_range_meters":8800,"station_id":"ce4bh112rcd13ifvqda0","pricing_plan_id":"cebpf4jnsgd1na2vs0mg"},{"bike_id":"fe13a370-c3c1-4b94-b07d-037e05cb1b29","system_id":"levelo_inurba_marseille","lat":43.310702,"lon":5.383602,"is_reserved":false,"is_disabled":false,"rental_uris":{"android":"levelo://app?vid=fe13a370-c3c1-4b94-b07d-037e05cb1b29","ios":"levelo://app?vid=fe13a370-c3c1-4b94-b07d-037e05cb1b29"},"vehicle_type_id":"4","last_reported":1739321139,"current_range_meters":38800,"station_id":"ce4bgv92rcd13ifvqcr0","pricing_plan_id":"cebpf4jnsgd1na2vs0mg"},