{"last_updated":1727248168,"ttl":60,"version":"2.2","data":{"bikes":[{"bike_id":"3ece1c85-3698-4ad1-ad02-0c512fc8f312","system_id":"levelo_inurba_marseille","lat":43.29032,"lon":5.37556,"is_reserved":false,"is_disabled":false,"rental_uris":{"android":"levelo://app?vid=3ece1c85-3698-4ad1-ad02-0c512fc8f312","ios":"levelo://app?vid=3ece1c85-3698-4ad1-ad02-0c512fc8f312"},"vehicle_type_id":"4","last_reported":1727248168,"current_range_meters":37600,"station_id":"ce4bh692rcd13ifvqe90","pricing_plan_id":"cebpf4jnsgd1na2vs0mg"},{"bike_id":"c85c3ac1-ec61-453b-a260-9f3875c4a0d0","system_id":"levelo_inurba_marseille","lat":43.2794,"lon":5.4105,"is_reserved":false,"is_disabled":false,"rental_uris":{"android":"levelo://app?vid=c85c3ac1-ec61-453b-a260-9f3875c4a0d0","ios":"levelo://app?vid=c85c3ac1-ec61-453b-a260-9f3875c4a0d0"},"vehicle_type_id":"4","last_reported":1727248168,"current_range_meters":27200,"station_id":"ce4bhnp2rcd13ifvqh0g","pricing_plan_id":"cebpf4jnsgd1na2vs0mg"},{"bike_id":"c84bec2f-3d45-490d-9e77-f03ed32b27f9","system_id":"levelo_inurba_marseille","lat":43.337444,"lon":5.374475,"is_reserved":false,"is_disabled":false,"rental_uris":{"android":"levelo://app?vid=c84bec2f-3d45-490d-9e77-f03ed32b27f9","ios":"levelo://app?vid=c84bec2f-3d45-490d-9e77-f03ed32b27f9"},"vehicle_type_id":"4","last_reported":1727248168,"current_range_meters":38000,"station_id":"","pricing_plan_id":"cebpf4jnsgd1na2vs0mg"},{"bike_id":"f7a338af-1395-4aab-9a8f-5f637cc6b9d3","system_id":"levelo_inurba_marseille","lat":43.30916,"lon":5.36844,"is_reserved":false,"is_disabled":false,"rental_uris":{"android":"levelo://app?vid=f7a338af-1395-4aab-9a8f-5f637cc6b9d3","ios":"levelo://app?vid=f7a338af-1395-4aab-9a8f-5f637cc6b9d3"},"vehicle_type_id":"4","last_reported":1727248168,"current_range_meters":22400,"station_id":"ce4bgn92rcd13ifvqbvg","pricing_plan_id":"cebpf4jnsgd1na2vs0mg"},{"bike_id":"9de15766-f6e5-4718-b239-efcc3a94df68","system_id":"levelo_inurba_marseille","lat":43.30161,"lon":5.38088,"is_reserved":false,"is_disabled":false,"rental_uris":{"android":"levelo://app?vid=9de15766-f6e5-4718-b239-efcc3a94df68","ios":"levelo://app?vid=9de15766-f6e5-4718-b239-efcc3a94df68"},"vehicle_type_id":"4","last_reported":1727248168,"current_range_meters":8400,"station_id":"ce4bgjp2rcd13ifvqbh0","pricing_plan_id":"cebpf4jnsgd1na2vs0mg"},{"bike_id":"39b3e7e6-178b-4ac9-ab7c-6ff778b3ad2e","system_id":"levelo_inurba_marseille","lat":43.27497,"lon":5.42451,"is_reserved":false,"is_disabled":false,"rental_uris":{"android":"levelo://app?vid=39b3e7e6-178b-4ac9-ab7c-6ff778b3ad2e","ios":"levelo://app?vid=39b3e7e6-178b-4ac9-ab7c-6ff778b3ad2e"},"vehicle_type_id":"4","last_reported":1727248168,"current_range_meters":35200,"station_id":"ce4bhn92rcd13ifvqgrg","pricing_plan_id":"cebpf4jnsgd1na2vs0mg"},{"bike_id":"3c374343-aa99-421a-8521-b9bd189598db","system_id":"levelo_inurba_marseille","lat":43.28272,"lon":5.35065,"is_reserved":false,"is_disabled":false,"rental_uris":{"android":"levelo://app?vid=3c374343-aa99-421a-8521-b9bd189598db","ios":"levelo://app?vid=3c374343-aa99-421a-8521-b9bd189598db"},"vehicle_type_id":"4","last_reported":1727248168,"current_range_meters":36400,"station_id":"ce4bhbp2rcd13ifvqerg","pricing_plan_id":"cebpf4jnsgd1na2vs0mg"},{"bike_id":"0d4b5458-b225-48a0-afcc-d519ae9c6167","system_id":"levelo_inurba_marseille","lat":43.32662,"lon":5.40985,"is_reserved":false,"is_disabled":false,"rental_uris":{"android":"levelo://app?vid=0d4b5458-b225-48a0-afcc-d519ae9c6167","ios":"levelo://app?vid=0d4b5458-b225-48a0-afcc-d519ae9c6167"},"vehicle_type_id":"4","last_reported":1727248168,"current_range_meters":37600,"station_id":"ce4bhpp2rcd13ifvqhgg","pricing_plan_id":"cebpf4jnsgd1na2vs0mg"},{"bike_id":"c6cd9b70-3b14-42a0-9ee3-01408936a20e","system_id":"levelo_inurba_marseille","lat":43.27778,"lon":5.40766,"is_reserved":false,"is_disabled":false,"rental_uris":{"android":"levelo://app?vid=c6cd9b70-3b14-42a0-9ee3-01408936a20e","ios":"levelo://app?vid=c6cd9b70-3b14-42a0-9ee3-01408936a20e"},"vehicle_type_id":"4","last_reported":1727248168,"current_range_meters":16000,"station_id":"","pricing_plan_id":"cebpf4jnsgd1na2vs0mg"},{"bike_id":"dec73f4f-b681-4818-a068-daca63f0a22d","system_id":"levelo_inurba_marseille","lat":43.22931,"lon":5.35369,"is_reserved":false,"is_disabled":false,"rental_uris":{"android":"levelo://app?vid=dec73f4f-b681-4818-a068-daca63f0a22d","ios":"levelo://app?vid=dec73f4f-b681-4818-a068-daca63f0a22d"},"vehicle_type_id":"4","last_reported":1727248168,"current_range_meters":38800,"station_id":"cpo3532slgdg3j2ikp40","pricing_plan_id":"cebpf4jnsgd1na2vs0mg"},{"bike_id":"9926f8d4-52ff-41d7-995b-39e4b6d4cdc0","system_id":"levelo_inurba_marseille","lat":43.32482,"lon":5.36572,"is_reserved":false,"is_disabled":false,"rental_uris":{"android":"levelo://app?vid=9926f8d4-52ff-41d7-995b-39e4b6d4cdc0","ios":"levelo://app?vid=9926f8d4-52ff-41d7-995b-39e4b6d4cdc0"},"vehicle_type_id":"4","last_reported":1727248168,"current_range_meters":38800,"station_id":"ce4bhs12rcd13ifvqhvg","pricing_plan_id":"cebpf4jnsgd1na2vs0mg"},{"bike_id":"881645e5-f4c7-4b41-b4c9-d93404411ab1","system_id":"levelo_inurba_marseille","lat":43.26566,"lon":5.3901,"is_reserved":false,"is_disabled":false,"rental_uris":{"android":"levelo://app?vid=881645e5-f4c7-4b41-b4c9-d93404411ab1","ios":"levelo://app?vid=881645e5-f4c7-4b41-b4c9-d93404411ab1"},"vehicle_type_id":"4","last_reported":1727248168,"current_range_meters":38400,"station_id":"ce4bhe12rcd13ifvqf30","pricing_plan_id":"cebpf4jnsgd1na2vs0mg"},{"bike_id":"08248fef-1a11-4ca6-9a29-f4bae5d2a2d2","system_id":"levelo_inurba_marseille","lat":43.24068,"lon":5.37735,"is_reserved":false,"is_disabled":false,"rental_uris":{"android":"levelo://app?vid=08248fef-1a11-4ca6-9a29-f4bae5d2a2d2","ios":"levelo://app?vid=08248fef-1a11-4ca6-9a29-f4bae5d2a2d2"},"vehicle_type_id":"4","last_reported":1727248168,"current_range_meters":22000,"station_id":"ce4bhnp2rcd13ifvqgvg","pricing_plan_id":"cebpf4jnsgd1na2vs0mg"},{"bike_id":"bb12d251-5d23-49a2-a2a5-87d7ed7ece91","system_id":"levelo_inurba_marseille","lat":43.31354,"lon":5.36707,"is_reserved":false,"is_disabled":false,"rental_uris":{"android":"levelo://app?vid=bb12d251-5d23-49a2-a2a5-87d7ed7ece91","ios":"levelo://app?vid=bb12d251-5d23-49a2-a2a5-87d7ed7ece91"},"vehicle_type_id":"4","last_reported":1727248168,"current_range_meters":38400,"station_id":"ce4bgr92rcd13ifvqc6g","pricing_plan_id":"cebpf4jnsgd1na2vs0mg"},{"bike_id":"ace5fd0f-acec-4ab5-b75b-8aa836650221","system_id":"levelo_inurba_marseille","lat":43.24072,"lon":5.37764,"is_reserved":false,"is_disabled":false,"rental_uris":{"android":"levelo://app?vid=ace5fd0f-acec-4ab5-b75b-8aa836650221","ios":"levelo://app?vid=ace5fd0f-acec-4ab5-b75b-8aa836650221"},"vehicle_type_id":"4","last_reported":1727248168,"current_range_meters":34000,"station_id":"ce4bhnp2rcd13ifvqgvg","pricing_plan_id":"cebpf4jnsgd1na2vs0mg"},{"bike_id":"dbcc7263-7663-40c8-bd52-81c359319048","system_id":"levelo_inurba_marseille","lat":43.28931,"lon":5.36643,"is_reserved":false,"is_disabled":false,"rental_uris":{"android":"levelo://app?vid=dbcc7263-7663-40c8-bd52-81c359319048","ios":"levelo://app?vid=dbcc7263-7663-40c8-bd52-81c359319048"},"vehicle_type_id":"4","last_reported":1727248168,"current_range_meters":27200,"station_id":"ce4bhap2rcd13ifvqek0","pricing_plan_id":"cebpf4jnsgd1na2vs0mg"},{"bike_id":"a1bd249b-a95f-436b-8f20-d77f7c950ec2","system_id":"levelo_inurba_marseille","lat":43.30483,"lon":5.37904,"is_reserved":false,"is_disabled":false,"rental_uris":{"android":"levelo://app?vid=a1bd249b-a95f-436b-8f20-d77f7c950ec2","ios":"levelo://app?vid=a1bd249b-a95f-436b-8f20-d77f7c950ec2"},"vehicle_type_id":"4","last_reported":1727248168,"current_range_meters":30400,"station_id":"ce4bgup2rcd13ifvqcn0","pricing_plan_id":"cebpf4jnsgd1na2vs0mg"},{"bike_id":"cb63d342-63b2-41e3-8455-4366ca08c9e6","system_id":"levelo_inurba_marseille","lat":43.31362,"lon":5.367,"is_reserved":false,"is_disabled":false,"rental_uris":{"android":"levelo://app?vid=cb63d342-63b2-41e3-8455-4366ca08c9e6","ios":"levelo://app?vid=cb63d342-63b2-41e3-8455-4366ca08c9e6"},"vehicle_type_id":"4","last_reported":1727248168,"current_range_meters":33600,"station_id":"ce4bgr92rcd13ifvqc6g","pricing_plan_id":"cebpf4jnsgd1na2vs0mg"},{"bike_id":"46fa38ec-b4b2-4d33-aeab-fdf60dc4a5d6","system_id":"levelo_inurba_marseille","lat":43.30534,"lon":5.36555,"is_reserved":false,"is_disabled":false,"rental_uris":{"android":"levelo://app?vid=46fa38ec-b4b2-4d33-aeab-fdf60dc4a5d6","ios":"levelo://app?vid=46fa38ec-b4b2-4d33-aeab-fdf60dc4a5d6"},"vehicle_type_id":"4","last_reported":1727248168,"current_range_meters":28400,"station_id":"ce4bgs12rcd13ifvqcag","pricing_plan_id":"cebpf4jnsgd1na2vs0mg"},{"bike_id":"e518e134-712b-4b3e-b936-2d180d506fdc","system_id":"levelo_inurba_marseille","lat":43.337444,"lon":5.374475,"is_reserved":false,"is_disabled":false,"rental_uris":{"android":"levelo://app?vid=e518e134-712b-4b3e-b936-2d180d506fdc","ios":"levelo://app?vid=e518e134-712b-4b3e-b936-2d180d506fdc"},"vehicle_type_id":"4","last_reported":1727248168,"current_range_meters":38800,"station_id":"","pricing_plan_id":"cebpf4jnsgd1na2vs0mg"},{"bike_id":"d4cf6aea-8938-4748-896d-adca184b256f","system_id":"levelo_inurba_marseille","lat":43.30466,"lon":5.37912,"is_reserved":false,"is_disabled":false,"rental_uris":{"android":"levelo://app?vid=d4cf6aea-8938-4748-896d-adca184b256f","ios":"levelo://app?vid=d4cf6aea-8938-4748-896d-adca184b256f"},"vehicle_type_id":"4","last_reported":1727248168,"current_range_meters":39200,"station_id":"ce4bgup2rcd13ifvqcn0","pricing_plan_id":"cebpf4jnsgd1na2vs0mg"},{"bike_id":"517cbf5f-1fe7-43b5-8680-42e3118b10a6","system_id":"levelo_inurba_marseille","lat":43.33611,"lon":5.41029,"is_reserved":false,"is_disabled":false,"rental_uris":{"android":"levelo://app?vid=517cbf5f-1fe7-43b5-8680-42e3118b10a6","ios":"levelo://app?vid=517cbf5f-1fe7-43b5-8680-42e3118b10a6"},"vehicle_type_id":"4","last_reported":1727248168,"current_range_meters":38000,"station_id":"ce4bhqh2rcd13ifvqhmg","pricing_plan_id":"cebpf4jnsgd1na2vs0mg"},{"bike_id":"7737b815-6daf-41f0-8354-4b28ba75917f","system_id":"levelo_inurba_marseille","lat":43.301963,"lon":5.398272,"is_reserved":false,"is_disabled":false,"rental_uris":{"android":"levelo://app?vid=7737b815-6daf-41f0-8354-4b28ba75917f","ios":"levelo://app?vid=7737b815-6daf-41f0-8354-4b28ba75917f"},"vehicle_type_id":"4","last_reported":1727248168,"current_range_meters":18800,"station_id":"ce4bgvp2rcd13ifvqct0","pricing_plan_id":"cebpf4jnsgd1na2vs0mg"},{"bike_id":"b8d0ef95-6f66-4b45-a83c-7092471dbcda","system_id":"levelo_inurba_marseille","lat":43.26686,"lon":5.38271,"is_reserved":false,"is_disabled":false,"rental_uris":{"android":"levelo://app?vid=b8d0ef95-6f66-4b45-a83c-7092471dbcda","ios":"levelo://app?vid=b8d0ef95-6f66-4b45-a83c-7092471dbcda"},"vehicle_type_id":"4","last_reported":1727248168,"current_range_meters":25600,"station_id":"ce4bhg92rcd13ifvqf90","pricing_plan_id":"cebpf4jnsgd1na2vs0mg"},{"bike_id":"efd48c0e-c735-48ad-bc8d-40b1425ab3e2","system_id":"levelo_inurba_marseille","lat":43.24072,"lon":5.37764,"is_reserved":false,"is_disabled":false,"rental_uris":{"android":"levelo://app?vid=efd48c0e-c735-48ad-bc8d-40b1425ab3e2","ios":"levelo://app?vid=efd48c0e-c735-48ad-bc8d-40b1425ab3e2"},"vehicle_type_id":"4","last_reported":1727248168,"current_range_meters":8000,"station_id":"ce4bhnp2rcd13ifvqgvg","pricing_plan_id":"cebpf4jnsgd1na2vs0mg"},{"bike_id":"aad3ee72-1078-47ce-9595-73daf55f5fad","system_id":"levelo_inurba_marseille","lat":43.26032,"lon":5.37547,"is_reserved":false,"is_disabled":false,"rental_uris":{"android":"levelo://app?vid=aad3ee72-1078-47ce-9595-73daf55f5fad","ios":"levelo://app?vid=aad3ee72-1078-47ce-9595-73daf55f5fad"},"vehicle_type_id":"4","last_reported":1727248168,"current_range_meters":38000,"station_id":"ce4bhgh2rcd13ifvqfa0","pricing_plan_id":"cebpf4jnsgd1na2vs0mg"},{"bike_id":"3b195df4-d71b-45c6-b4ee-0701cb9345da","system_id":"levelo_inurba_marseille","lat":43.30161,"lon":5.37422,"is_reserved":false,"is_disabled":false,"rental_uris":{"android":"levelo://app?vid=3b195df4-d71b-45c6-b4ee-0701cb9345da","ios":"levelo://app?vid=3b195df4-d71b-45c6-b4ee-0701cb9345da"},"vehicle_type_id":"4","last_reported":1727248168,"current_range_meters":26800,"station_id":"ce4bgs92rcd13ifvqcc0","pricing_plan_id":"cebpf4jnsgd1na2vs0mg"},{"bike_id":"f57f9a2b-463a-495e-b929-b7d110fc5488","system_id":"levelo_inurba_marseille","lat":43.2984,"lon":5.36265,"is_reserved":false,"is_disabled":false,"rental_uris":{"android":"levelo://app?vid=f57f9a2b-463a-495e-b929-b7d110fc5488","ios":"levelo://app?vid=f57f9a2b-463a-495e-b929-b7d110fc5488"},"vehicle_type_id":"4","last_reported":1727248168,"current_range_meters":12400,"station_id":"ce4bgpp2rcd13ifvqc3g","pricing_plan_id":"cebpf4jnsgd1na2vs0mg"},{"bike_id":"9e8a6286-2aa6-4c4f-837d-ef22b57ca874","system_id":"levelo_inurba_marseille","lat":43.24079,"lon":5.37746,"is_reserved":false,"is_disabled":false,"rental_uris":{"android":"levelo://app?vid=9e8a6286-2aa6-4c4f-837d-ef22b57ca874","ios":"levelo://app?vid=9e8a6286-2aa6-4c4f-837d-ef22b57ca874"},"vehicle_type_id":"4","last_reported":1727248168,"current_range_meters":23200,"station_id":"ce4bhnp2rcd13ifvqgvg","pricing_plan_id":"cebpf4jnsgd1na2vs0mg"},{"bike_id":"ab2acc54-6d78-4c46-b9fd-3d516ff6d860","system_id":"levelo_inurba_marseille","lat":43.24077,"lon":5.37759,"is_reserved":false,"is_disabled":false,"rental_uris":{"android":"levelo://app?vid=ab2acc54-6d78-4c46-b9fd-3d516ff6d860","ios":"levelo://app?vid=ab2acc54-6d78-4c46-b9fd-3d516ff6d860"},"vehicle_type_id":"4","last_reported":1727248168,"current_range_meters":28800,"station_id":"ce4bhnp2rcd13ifvqgvg","pricing_plan_id":"cebpf4jnsgd1na2vs0mg"},{"bike_id":"86b6dccf-ea7c-412a-a291-bf2084731947","system_id":"levelo_inurba_marseille","lat":43.27372,"lon":5.36256,"is_reserved":false,"is_disabled":false,"rental_uris":{"android":"levelo://app?vid=86b6dccf-ea7c-412a-a291-bf2084731947","ios":"levelo://app?vid=86b6dccf-ea7c-412a-a291-bf2084731947"},"vehicle_type_id":"4","last_reported":1727248168,"current_range_meters":38000,"station_id":"ce4bhbh2rcd13ifvqeo0","pricing_plan_id":"cebpf4jnsgd1na2vs0mg"},{"bike_id":"f8c704cc-636c-4268-80af-5309e4b09904","system_id":"levelo_inurba_marseille","lat":43.24188,"lon":5.39718,"is_reserved":false,"is_disabled":false,"rental_uris":{"android":"levelo://app?vid=f8c704cc-636c-4268-80af-5309e4b09904","ios":"levelo://app?vid=f8c704cc-636c-4268-80af-5309e4b09904"},"vehicle_type_id":"4","last_reported":1727248168,"current_range_meters":34000,"station_id":"ce4bhn12rcd13ifvqgpg","pricing_plan_id":"cebpf4jnsgd1na2vs0mg"},{"bike_id":"8db4eeae-90dc-450b-8149-34b6ce69b1f8","system_id":"levelo_inurba_marseille","lat":43.23183,"lon":5.39988,"is_reserved":false,"is_disabled":false,"rental_uris":{"android":"levelo://app?vid=8db4eeae-90dc-450b-8149-34b6ce69b1f8","ios":"levelo://app?vid=8db4eeae-90dc-450b-8149-34b6ce69b1f8"},"vehicle_type_id":"4","last_reported":1727248168,"current_range_meters":28000,"station_id":"ce4bhn12rcd13ifvqgqg","pricing_plan_id":"cebpf4jnsgd1na2vs0mg"},{"bike_id":"f5a147e4-366f-422d-bda1-b29b8185d1dd","system_id":"levelo_inurba_marseille","lat":43.29567,"lon":5.37505,"is_reserved":false,"is_disabled":false,"rental_uris":{"android":"levelo://app?vid=f5a147e4-366f-422d-bda1-b29b8185d1dd","ios":"levelo://app?vid=f5a147e4-366f-422d-bda1-b29b8185d1dd"},"vehicle_type_id":"4","last_reported":1727248168,"current_range_meters":13600,"station_id":"ce4bgh92rcd13ifvqb50","pricing_plan_id":"cebpf4jnsgd1na2vs0mg"},{"bike_id":"d0f7e891-626f-4a6a-a80d-04fe26abcc45","system_id":"levelo_inurba_marseille","lat":43.27493,"lon":5.4246,"is_reserved":false,"is_disabled":false,"rental_uris":{"android":"levelo://app?vid=d0f7e891-626f-4a6a-a80d-04fe26abcc45","ios":"levelo://app?vid=d0f7e891-626f-4a6a-a80d-04fe26abcc45"},"vehicle_type_id":"4","last_reported":1727248168,"current_range_meters":5600,"station_id":"ce4bhn92rcd13ifvqgrg","pricing_plan_id":"cebpf4jnsgd1na2vs0mg"},{"bike_id":"9f2c03f5-19a3-49d4-90fc-92657b0c22a1","system_id":"levelo_inurba_marseille","lat":43.31342,"lon":5.3672,"is_reserved":false,"is_disabled":false,"rental_uris":{"android":"levelo://app?vid=9f2c03f5-19a3-49d4-90fc-92657b0c22a1","ios":"levelo://app?vid=9f2c03f5-19a3-49d4-90fc-92657b0c22a1"},"vehicle_type_id":"4","last_reported":1727248168,"current_range_meters":4800,"station_id":"ce4bgr92rcd13ifvqc6g","pricing_plan_id":"cebpf4jnsgd1na2vs0mg"},{"bike_id":"8868b073-6d41-41a6-8f4c-e99c4a0515a9","system_id":"levelo_inurba_marseille","lat":43.30468,"lon":5.37912,"is_reserved":false,"is_disabled":false,"rental_uris":{"android":"levelo://app?vid=8868b073-6d41-41a6-8f4c-e99c4a0515a9","ios":"levelo://app?vid=8868b073-6d41-41a6-8f4c-e99c4a0515a9"},"vehicle_type_id":"4","last_reported":1727248168,"current_range_meters":36400,"station_id":"ce4bgup2rcd13ifvqcn0","pricing_plan_id":"cebpf4jnsgd1na2vs0mg"},{"bike_id":"7a8458d5-44ac-4f2e-abef-3f01eb31f7ca","system_id":"levelo_inurba_marseille","lat":43.337444,"lon":5.374475,"is_reserved":false,"is_disabled":false,"rental_uris":{"android":"levelo://app?vid=7a8458d5-44ac-4f2e-abef-3f01eb31f7ca","ios":"levelo://app?vid=7a8458d5-44ac-4f2e-abef-3f01eb31f7ca"},"vehicle_type_id":"4","last_reported":1727248168,"current_range_meters":26800,"station_id":"","pricing_plan_id":"cebpf4jnsgd1na2vs0mg"},{"bike_id":"f053eec1-5c92-467a-97cd-189e8ce40be1","system_id":"levelo_inurba_marseille","lat":43.337444,"lon":5.374475,"is_reserved":false,"is_disabled":false,"rental_uris":{"android":"levelo://app?vid=f053eec1-5c92-467a-97cd-189e8ce40be1","ios":"levelo://app?vid=f053eec1-5c92-467a-97cd-189e8ce40be1"},"vehicle_type_id":"4","last_reported":1727248168,"current_range_meters":38400,"station_id":"","pricing_plan_id":"cebpf4jnsgd1na2vs0mg"},{"bike_id":"f56f6b65-32e7-4720-b28e-f256a8d37b7f","system_id":"levelo_inurba_marseille","lat":43.30464,"lon":5.37913,"is_reserved":false,"is_disabled":false,"rental_uris":{"android":"levelo://app?vid=f56f6b65-32e7-4720-b28e-f256a8d37b7f","ios":"levelo://app?vid=f56f6b65-32e7-4720-b28e-f256a8d37b7f"},"vehicle_type_id":"4","last_reported":1727248168,"current_range_meters":18000,"station_id":"ce4bgup2rcd13ifvqcn0","pricing_plan_id":"cebpf4jnsgd1na2vs0mg"},{"bike_id":"a5bed6c7-0181-4d5a-bf16-c9aae083ea7a","system_id":"levelo_inurba_marseille","lat":43.27559,"lon":5.4239,"is_reserved":false,"is_disabled":false,"rental_uris":{"android":"levelo://app?vid=a5bed6c7-0181-4d5a-bf16-c9aae083ea7a","ios":"levelo://app?vid=a5bed6c7-0181-4d5a-bf16-c9aae083ea7a"},"vehicle_type_id":"4","last_reported":1727248168,"current_range_meters":28400,"station_id":"","pricing_plan_id":"cebpf4jnsgd1na2vs0mg"},{"bike_id":"0b1e4c37-3578-47d3-9fbc-3d280b331de0","system_id":"levelo_inurba_marseille","lat":43.3375,"lon":5.374312,"is_reserved":false,"is_disabled":false,"rental_uris":{"android":"levelo://app?vid=0b1e4c37-3578-47d3-9fbc-3d280b331de0","ios":"levelo://app?vid=0b1e4c37-3578-47d3-9fbc-3d280b331de0"},"vehicle_type_id":"4","last_reported":1727248168,"current_range_meters":38000,"station_id":"","pricing_plan_id":"cebpf4jnsgd1na2vs0mg"},{"bike_id":"15300eb9-9609-4833-bf7c-718f7db799de","system_id":"levelo_inurba_marseille","lat":43.25942,"lon":5.40904,"is_reserved":false,"is_disabled":false,"rental_uris":{"android":"levelo://app?vid=15300eb9-9609-4833-bf7c-718f7db799de","ios":"levelo://app?vid=15300eb9-9609-4833-bf7c-718f7db799de"},"vehicle_type_id":"4","last_reported":1727248168,"current_range_meters":23200,"station_id":"ce4bhm92rcd13ifvqglg","pricing_plan_id":"cebpf4jnsgd1na2vs0mg"},{"bike_id":"79426253-97d3-4469-87d5-d4debe947c03","system_id":"levelo_inurba_marseille","lat":43.24075,"lon":5.37759,"is_reserved":false,"is_disabled":false,"rental_uris":{"android":"levelo://app?vid=79426253-97d3-4469-87d5-d4debe947c03","ios":"levelo://app?vid=79426253-97d3-4469-87d5-d4debe947c03"},"vehicle_type_id":"4","last_reported":1727248168,"current_range_meters":29600,"station_id":"ce4bhnp2rcd13ifvqgvg","pricing_plan_id":"cebpf4jnsgd1na2vs0mg"},{"bike_id":"c9caa42e-e8a7-4b6e-b172-795704959513","system_id":"levelo_inurba_marseille","lat":43.30918,"lon":5.36842,"is_reserved":false,"is_disabled":false,"rental_uris":{"android":"levelo://app?vid=c9caa42e-e8a7-4b6e-b172-795704959513","ios":"levelo://app?vid=c9caa42e-e8a7-4b6e-b172-795704959513"},"vehicle_type_id":"4","last_reported":1727248168,"current_range_meters":32400,"station_id":"ce4bgn92rcd13ifvqbvg","pricing_plan_id":"cebpf4jnsgd1na2vs0mg"},{"bike_id":"74e096f5-e3b0-4463-9b7e-74efcb7eeefe","system_id":"levelo_inurba_marseille","lat":43.26686,"lon":5.38276,"is_reserved":false,"is_disabled":false,"rental_uris":{"android":"levelo://app?vid=74e096f5-e3b0-4463-9b7e-74efcb7eeefe","ios":"levelo://app?vid=74e096f5-e3b0-4463-9b7e-74efcb7eeefe"},"vehicle_type_id":"4","last_reported":1727248168,"current_range_meters":28400,"station_id":"ce4bhg92rcd13ifvqf90","pricing_plan_id":"cebpf4jnsgd1na2vs0mg"},{"bike_id":"5facc2a0-16aa-4cd0-b8ad-e1cb1039bff9","system_id":"levelo_inurba_marseille","lat":43.30154,"lon":5.38078,"is_reserved":false,"is_disabled":false,"rental_uris":{"android":"levelo://app?vid=5facc2a0-16aa-4cd0-b8ad-e1cb1039bff9","ios":"levelo://app?vid=5facc2a0-16aa-4cd0-b8ad-e1cb1039bff9"},"vehicle_type_id":"4","last_reported":1727248168,"current_range_meters":7200,"station_id":"ce4bgjp2rcd13ifvqbh0","pricing_plan_id":"cebpf4jnsgd1na2vs0mg"},{"bike_id":"cefb6643-fc89-4b04-b95f-6cff2759399c","system_id":"levelo_inurba_marseille","lat":43.32287,"lon":5.38282,"is_reserved":false,"is_disabled":false,"rental_uris":{"android":"levelo://app?vid=cefb6643-fc89-4b04-b95f-6cff2759399c","ios":"levelo://app?vid=cefb6643-fc89-4b04-b95f-6cff2759399c"},"vehicle_type_id":"4","last_reported":1727248168,"current_range_meters":39200,"station_id":"ce4bhr12rcd13ifvqhqg","pricing_plan_id":"cebpf4jnsgd1na2vs0mg"},{"bike_id":"6795e26b-2184-4694-9560-3fd53f2ced85","system_id":"levelo_inurba_marseille","lat":43.29075,"lon":5.37177,"is_reserved":false,"is_disabled":false,"rental_uris":{"android":"levelo://app?vid=6795e26b-2184-4694-9560-3fd53f2ced85","ios":"levelo://app?vid=6795e26b-2184-4694-9560-3fd53f2ced85"},"vehicle_type_id":"4","last_reported":1727248168,"current_range_meters":29600,"station_id":"ce4bh5p2rcd13ifvqe4g","pricing_plan_id":"cebpf4jnsgd1na2vs0mg"},{"bike_id":"b1951137-0319-4711-ab68-245e2b6b93d3","system_id":"levelo_inurba_marseille","lat":43.313561,"lon":5.367261,"is_reserved":false,"is_disabled":false,"rental_uris":{"android":"levelo://app?vid=b1951137-0319-4711-ab68-245e2b6b93d3","ios":"levelo://app?vid=b1951137-0319-4711-ab68-245e2b6b93d3"},"vehicle_type_id":"4","last_reported":1727248168,"current_range_meters":34800,"station_id":"ce4bgr92rcd13ifvqc6g","pricing_plan_id":"cebpf4jnsgd1na2vs0mg"},{"bike_id":"c616d233-ea67-4895-8880-51b610224d27","system_id":"levelo_inurba_marseille","lat":43.30539,"lon":5.36559,"is_reserved":false,"is_disabled":false,"rental_uris":{"android":"levelo://app?vid=c616d233-ea67-4895-8880-51b610224d27","ios":"levelo://app?vid=c616d233-ea67-4895-8880-51b610224d27"},"vehicle_type_id":"4","last_reported":1727248168,"current_range_meters":16400,"station_id":"ce4bgs12rcd13ifvqcag","pricing_plan_id":"cebpf4jnsgd1na2vs0mg"},{"bike_id":"1b12f2c6-5e70-41f9-bbf2-a23e755c5ff6","system_id":"levelo_inurba_marseille","lat":43.308415,"lon":5.381008,"is_reserved":false,"is_disabled":false,"rental_uris":{"android":"levelo://app?vid=1b12f2c6-5e70-41f9-bbf2-a23e755c5ff6","ios":"levelo://app?vid=1b12f2c6-5e70-41f9-bbf2-a23e755c5ff6"},"vehicle_type_id":"4","last_reported":1727248168,"current_range_meters":38000,"station_id":"ce4bgt12rcd13ifvqce0","pricing_plan_id":"cebpf4jnsgd1na2vs0mg"},{"bike_id":"25c2da3d-9bb6-48b8-8579-2ff6744c67cb","system_id":"levelo_inurba_marseille","lat":43.23153,"lon":5.43711,"is_reserved":false,"is_disabled":false,"rental_uris":{"android":"levelo://app?vid=25c2da3d-9bb6-48b8-8579-2ff6744c67cb","ios":"levelo://app?vid=25c2da3d-9bb6-48b8-8579-2ff6744c67cb"},"vehicle_type_id":"4","last_reported":1727248168,"current_range_meters":37600,"station_id":"ce4bhmp2rcd13ifvqgog","pricing_plan_id":"cebpf4jnsgd1na2vs0mg"},{"bike_id":"f9420dd4-b5b5-47e0-83a0-d60f9cbd0812","system_id":"levelo_inurba_marseille","lat":43.24074,"lon":5.37761,"is_reserved":false,"is_disabled":false,"rental_uris":{"android":"levelo://app?vid=f9420dd4-b5b5-47e0-83a0-d60f9cbd0812","ios":"levelo://app?vid=f9420dd4-b5b5-47e0-83a0-d60f9cbd0812"},"vehicle_type_id":"4","last_reported":1727248168,"current_range_meters":39200,"station_id":"ce4bhnp2rcd13ifvqgvg","pricing_plan_id":"cebpf4jnsgd1na2vs0mg"},{"bike_id":"f8701f40-f79e-46c4-b059-badc9e339852","system_id":"levelo_inurba_marseille","lat":43.30952,"lon":5.3904,"is_reserved":false,"is_disabled":false,"rental_uris":{"android":"levelo://app?vid=f8701f40-f79e-46c4-b059-badc9e339852","ios":"levelo://app?vid=f8701f40-f79e-46c4-b059-badc9e339852"},"vehicle_type_id":"4","last_reported":1727248168,"current_range_meters":38800,"station_id":"ce4bgup2rcd13ifvqco0","pricing_plan_id":"cebpf4jnsgd1na2vs0mg"},{"bike_id":"b65bf8bc-b583-46e2-a16d-43ae0566d740","system_id":"levelo_inurba_marseille","lat":43.28741,"lon":5.38911,"is_reserved":false,"is_disabled":false,"rental_uris":{"android":"levelo://app?vid=b65bf8bc-b583-46e2-a16d-43ae0566d740","ios":"levelo://app?vid=b65bf8bc-b583-46e2-a16d-43ae0566d740"},"vehicle_type_id":"4","last_reported":1727248168,"current_range_meters":19600,"station_id":"ce4bguh2rcd13ifvqcj0","pricing_plan_id":"cebpf4jnsgd1na2vs0mg"},{"bike_id":"c6c3f62e-5e3a-4509-9808-f8fcd97b6599","system_id":"levelo_inurba_marseille","lat":43.29911,"lon":5.38141,"is_reserved":false,"is_disabled":false,"rental_uris":{"android":"levelo://app?vid=c6c3f62e-5e3a-4509-9808-f8fcd97b6599","ios":"levelo://app?vid=c6c3f62e-5e3a-4509-9808-f8fcd97b6599"},"vehicle_type_id":"4","last_reported":1727248168,"current_range_meters":32800,"station_id":"ce4bgj12rcd13ifvqbc0","pricing_plan_id":"cebpf4jnsgd1na2vs0mg"},{"bike_id":"79a05bb1-ccec-47f0-8ebd-1f95854549f8","system_id":"levelo_inurba_marseille","lat":43.31285,"lon":5.38042,"is_reserved":false,"is_disabled":false,"rental_uris":{"android":"levelo://app?vid=79a05bb1-ccec-47f0-8ebd-1f95854549f8","ios":"levelo://app?vid=79a05bb1-ccec-47f0-8ebd-1f95854549f8"},"vehicle_type_id":"4","last_reported":1727248168,"current_range_meters":12400,"station_id":"","pricing_plan_id":"cebpf4jnsgd1na2vs0mg"},{"bike_id":"82a46f4c-338e-4f2c-bb15-b73bebda5189","system_id":"levelo_inurba_marseille","lat":43.23154,"lon":5.4371,"is_reserved":false,"is_disabled":false,"rental_uris":{"android":"levelo://app?vid=82a46f4c-338e-4f2c-bb15-b73bebda5189","ios":"levelo://app?vid=82a46f4c-338e-4f2c-bb15-b73bebda5189"},"vehicle_type_id":"4","last_reported":1727248168,"current_range_meters":38000,"station_id":"ce4bhmp2rcd13ifvqgog","pricing_plan_id":"cebpf4jnsgd1na2vs0mg"},{"bike_id":"6419058d-436b-4718-9738-0e7ce2073752","system_id":"levelo_inurba_marseille","lat":43.29557,"lon":5.42296,"is_reserved":false,"is_disabled":false,"rental_uris":{"android":"levelo://app?vid=6419058d-436b-4718-9738-0e7ce2073752","ios":"levelo://app?vid=6419058d-436b-4718-9738-0e7ce2073752"},"vehicle_type_id":"4","last_reported":1727248168,"current_range_meters":14000,"station_id":"ce4bhph2rcd13ifvqhdg","pricing_plan_id":"cebpf4jnsgd1na2vs0mg"},{"bike_id":"4597e502-6acb-4eb7-b5da-61d127d731f6","system_id":"levelo_inurba_marseille","lat":43.30153,"lon":5.3807,"is_reserved":false,"is_disabled":false,"rental_uris":{"android":"levelo://app?vid=4597e502-6acb-4eb7-b5da-61d127d731f6","ios":"levelo://app?vid=4597e502-6acb-4eb7-b5da-61d127d731f6"},"vehicle_type_id":"4","last_reported":1727248168,"current_range_meters":34000,"station_id":"ce4bgjp2rcd13ifvqbh0","pricing_plan_id":"cebpf4jnsgd1na2vs0mg"},{"bike_id":"8820d487-6cfa-43a0-8239-f9aa392b1f0f","system_id":"levelo_inurba_marseille","lat":43.29729,"lon":5.37692,"is_reserved":false,"is_disabled":false,"rental_uris":{"android":"levelo://app?vid=8820d487-6cfa-43a0-8239-f9aa392b1f0f","ios":"levelo://app?vid=8820d487-6cfa-43a0-8239-f9aa392b1f0f"},"vehicle_type_id":"4","last_reported":1727248168,"current_range_meters":38000,"station_id":"ce4bgkh2rcd13ifvqbl0","pricing_plan_id":"cebpf4jnsgd1na2vs0mg"},{"bike_id":"0eb30c5c-721a-4a18-a52e-30d0ce392a2b","system_id":"levelo_inurba_marseille","lat":43.24388,"lon":5.37055,"is_reserved":false,"is_disabled":false,"rental_uris":{"android":"levelo://app?vid=0eb30c5c-721a-4a18-a52e-30d0ce392a2b","ios":"levelo://app?vid=0eb30c5c-721a-4a18-a52e-30d0ce392a2b"},"vehicle_type_id":"4","last_reported":1727248168,"current_range_meters":23200,"station_id":"ce4bhhh2rcd13ifvqfk0","pricing_plan_id":"cebpf4jnsgd1na2vs0mg"},{"bike_id":"002fd636-8001-4bf8-b167-803f1745b123","system_id":"levelo_inurba_marseille","lat":43.25944,"lon":5.40898,"is_reserved":false,"is_disabled":false,"rental_uris":{"android":"levelo://app?vid=002fd636-8001-4bf8-b167-803f1745b123","ios":"levelo://app?vid=002fd636-8001-4bf8-b167-803f1745b123"},"vehicle_type_id":"4","last_reported":1727248168,"current_range_meters":24800,"station_id":"ce4bhm92rcd13ifvqglg","pricing_plan_id":"cebpf4jnsgd1na2vs0mg"},{"bike_id":"796cb342-ddc2-46b9-af55-e1044983438d","system_id":"levelo_inurba_marseille","lat":43.30315,"lon":5.36911,"is_reserved":false,"is_disabled":false,"rental_uris":{"android":"levelo://app?vid=796cb342-ddc2-46b9-af55-e1044983438d","ios":"levelo://app?vid=796cb342-ddc2-46b9-af55-e1044983438d"},"vehicle_type_id":"4","last_reported":1727248168,"current_range_meters":36800,"station_id":"ce4bgqh2rcd13ifvqc5g","pricing_plan_id":"cebpf4jnsgd1na2vs0mg"},{"bike_id":"de6a92b9-d1bd-41c7-855f-bab2bbdacd22","system_id":"levelo_inurba_marseille","lat":43.31347,"lon":5.36712,"is_reserved":false,"is_disabled":false,"rental_uris":{"android":"levelo://app?vid=de6a92b9-d1bd-41c7-855f-bab2bbdacd22","ios":"levelo://app?vid=de6a92b9-d1bd-41c7-855f-bab2bbdacd22"},"vehicle_type_id":"4","last_reported":1727248168,"current_range_meters":22000,"station_id":"ce4bgr92rcd13ifvqc6g","pricing_plan_id":"cebpf4jnsgd1na2vs0mg"},{"bike_id":"3fb94ac6-1872-4a49-be5f-fc77bf5b3901","system_id":"levelo_inurba_marseille","lat":43.30903,"lon":5.36835,"is_reserved":false,"is_disabled":false,"rental_uris":{"android":"levelo://app?vid=3fb94ac6-1872-4a49-be5f-fc77bf5b3901","ios":"levelo://app?vid=3fb94ac6-1872-4a49-be5f-fc77bf5b3901"},"vehicle_type_id":"4","last_reported":1727248168,"current_range_meters":35600,"station_id":"ce4bgn92rcd13ifvqbvg","pricing_plan_id":"cebpf4jnsgd1na2vs0mg"},{"bike_id":"afe1147d-19a3-4ef5-af6d-d81518b52f2d","system_id":"levelo_inurba_marseille","lat":43.312056,"lon":5.368293,"is_reserved":false,"is_disabled":false,"rental_uris":{"android":"levelo://app?vid=afe1147d-19a3-4ef5-af6d-d81518b52f2d","ios":"levelo://app?vid=afe1147d-19a3-4ef5-af6d-d81518b52f2d"},"vehicle_type_id":"4","last_reported":1727248168,"current_range_meters":27600,"station_id":"ce4bgl92rcd13ifvqbq0","pricing_plan_id":"cebpf4jnsgd1na2vs0mg"},{"bike_id":"ffb97514-2c6c-43a9-850b-1f869fc0c44e","system_id":"levelo_inurba_marseille","lat":43.23189,"lon":5.35546,"is_reserved":false,"is_disabled":false,"rental_uris":{"android":"levelo://app?vid=ffb97514-2c6c-43a9-850b-1f869fc0c44e","ios":"levelo://app?vid=ffb97514-2c6c-43a9-850b-1f869fc0c44e"},"vehicle_type_id":"4","last_reported":1727248168,"current_range_meters":36400,"station_id":"ce4bhu92rcd13ifvqi70","pricing_plan_id":"cebpf4jnsgd1na2vs0mg"},{"bike_id":"ecb70881-b110-48a8-b751-24b4690d4031","system_id":"levelo_inurba_marseille","lat":43.23186,"lon":5.39987,"is_reserved":false,"is_disabled":false,"rental_uris":{"android":"levelo://app?vid=ecb70881-b110-48a8-b751-24b4690d4031","ios":"levelo://app?vid=ecb70881-b110-48a8-b751-24b4690d4031"},"vehicle_type_id":"4","last_reported":1727248168,"current_range_meters":8400,"station_id":"ce4bhn12rcd13ifvqgqg","pricing_plan_id":"cebpf4jnsgd1na2vs0mg"},{"bike_id":"d8a8068d-65ed-4f41-b2cf-23a1db74680a","system_id":"levelo_inurba_marseille","lat":43.31349,"lon":5.36713,"is_reserved":false,"is_disabled":false,"rental_uris":{"android":"levelo://app?vid=d8a8068d-65ed-4f41-b2cf-23a1db74680a","ios":"levelo://app?vid=d8a8068d-65ed-4f41-b2cf-23a1db74680a"},"vehicle_type_id":"4","last_reported":1727248168,"current_range_meters":28000,"station_id":"ce4bgr92rcd13ifvqc6g","pricing_plan_id":"cebpf4jnsgd1na2vs0mg"},{"bike_id":"fad29254-39f9-4a49-9777-cbc08cc0c63d","system_id":"levelo_inurba_marseille","lat":43.30477,"lon":5.37913,"is_reserved":false,"is_disabled":false,"rental_uris":{"android":"levelo://app?vid=fad29254-39f9-4a49-9777-cbc08cc0c63d","ios":"levelo://app?vid=fad29254-39f9-4a49-9777-cbc08cc0c63d"},"vehicle_type_id":"4","last_reported":1727248168,"current_range_meters":6400,"station_id":"ce4bgup2rcd13ifvqcn0","pricing_plan_id":"cebpf4jnsgd1na2vs0mg"},{"bike_id":"25bd7405-be80-4a77-a761-8a1efed52652","system_id":"levelo_inurba_marseille","lat":43.299,"lon":5.43655,"is_reserved":false,"is_disabled":false,"rental_uris":{"android":"levelo://app?vid=25bd7405-be80-4a77-a761-8a1efed52652","ios":"levelo://app?vid=25bd7405-be80-4a77-a761-8a1efed52652"},"vehicle_type_id":"4","last_reported":1727248168,"current_range_meters":38800,"station_id":"ce4bhpp2rcd13ifvqhfg","pricing_plan_id":"cebpf4jnsgd1na2vs0mg"},{"bike_id":"47ab5fec-ba93-48dd-81fc-bc5186e180ec","system_id":"levelo_inurba_marseille","lat":43.30462,"lon":5.37896,"is_reserved":false,"is_disabled":false,"rental_uris":{"android":"levelo://app?vid=47ab5fec-ba93-48dd-81fc-bc5186e180ec","ios":"levelo://app?vid=47ab5fec-ba93-48dd-81fc-bc5186e180ec"},"vehicle_type_id":"4","last_reported":1727248168,"current_range_meters":28000,"station_id":"ce4bgup2rcd13ifvqcn0","pricing_plan_id":"cebpf4jnsgd1na2vs0mg"},{"bike_id":"bbd31db5-c137-4320-95f9-7cb19235dc07","system_id":"levelo_inurba_marseille","lat":43.30802,"lon":5.43529,"is_reserved":false,"is_disabled":false,"rental_uris":{"android":"levelo://app?vid=bbd31db5-c137-4320-95f9-7cb19235dc07","ios":"levelo://app?vid=bbd31db5-c137-4320-95f9-7cb19235dc07"},"vehicle_type_id":"4","last_reported":1727248168,"current_range_meters":38800,"station_id":"ce4bhph2rcd13ifvqheg","pricing_plan_id":"cebpf4jnsgd1na2vs0mg"},{"bike_id":"5f5215b8-a74e-490d-acf4-116c426a9b8e","system_id":"levelo_inurba_marseille","lat":43.24081,"lon":5.37744,"is_reserved":false,"is_disabled":false,"rental_uris":{"android":"levelo://app?vid=5f5215b8-a74e-490d-acf4-116c426a9b8e","ios":"levelo://app?vid=5f5215b8-a74e-490d-acf4-116c426a9b8e"},"vehicle_type_id":"4","last_reported":1727248168,"current_range_meters":30000,"station_id":"ce4bhnp2rcd13ifvqgvg","pricing_plan_id":"cebpf4jnsgd1na2vs0mg"},{"bike_id":"f6275728-f078-4fe3-a4cc-467a5a2ab004","system_id":"levelo_inurba_marseille","lat":43.31467,"lon":5.36951,"is_reserved":false,"is_disabled":false,"rental_uris":{"android":"levelo://app?vid=f6275728-f078-4fe3-a4cc-467a5a2ab004","ios":"levelo://app?vid=f6275728-f078-4fe3-a4cc-467a5a2ab004"},"vehicle_type_id":"4","last_reported":1727248168,"current_range_meters":36000,"station_id":"","pricing_plan_id":"cebpf4jnsgd1na2vs0mg"},{"bike_id":"8a1a2ea2-951c-4ed9-9e9d-c8eb3a23cf0a","system_id":"levelo_inurba_marseille","lat":43.283386,"lon":5.38105,"is_reserved":false,"is_disabled":false,"rental_uris":{"android":"levelo://app?vid=8a1a2ea2-951c-4ed9-9e9d-c8eb3a23cf0a","ios":"levelo://app?vid=8a1a2ea2-951c-4ed9-9e9d-c8eb3a23cf0a"},"vehicle_type_id":"4","last_reported":1727248168,"current_range_meters":30000,"station_id":"ce4bh412rcd13ifvqdr0","pricing_plan_id":"cebpf4jnsgd1na2vs0mg"},{"bike_id":"0728f0ed-31f2-4606-8bb7-4a823154a64b","system_id":"levelo_inurba_marseille","lat":43.30549,"lon":5.36709,"is_reserved":false,"is_disabled":false,"rental_uris":{"android":"levelo://app?vid=0728f0ed-31f2-4606-8bb7-4a823154a64b","ios":"levelo://app?vid=0728f0ed-31f2-4606-8bb7-4a823154a64b"},"vehicle_type_id":"4","last_reported":1727248168,"current_range_meters":32400,"station_id":"ce4bgrp2rcd13ifvqc9g","pricing_plan_id":"cebpf4jnsgd1na2vs0mg"},{"bike_id":"eaaea575-8fb4-4af0-9089-02f0b3335b5f","system_id":"levelo_inurba_marseille","lat":43.25584,"lon":5.38231,"is_reserved":false,"is_disabled":false,"rental_uris":{"android":"levelo://app?vid=eaaea575-8fb4-4af0-9089-02f0b3335b5f","ios":"levelo://app?vid=eaaea575-8fb4-4af0-9089-02f0b3335b5f"},"vehicle_type_id":"4","last_reported":1727248168,"current_range_meters":18000,"station_id":"ce4bhih2rcd13ifvqfs0","pricing_plan_id":"cebpf4jnsgd1na2vs0mg"},{"bike_id":"c6dbed4a-1eed-4020-a0fd-cebad7fb2623","system_id":"levelo_inurba_marseille","lat":43.29361,"lon":5.401436,"is_reserved":false,"is_disabled":false,"rental_uris":{"android":"levelo://app?vid=c6dbed4a-1eed-4020-a0fd-cebad7fb2623","ios":"levelo://app?vid=c6dbed4a-1eed-4020-a0fd-cebad7fb2623"},"vehicle_type_id":"4","last_reported":1727248168,"current_range_meters":32800,"station_id":"ce4bh092rcd13ifvqd30","pricing_plan_id":"cebpf4jnsgd1na2vs0mg"},{"bike_id":"66cd78a4-e204-41d5-9b07-a98aca92c8d8","system_id":"levelo_inurba_marseille","lat":43.29042,"lon":5.3996,"is_reserved":false,"is_disabled":false,"rental_uris":{"android":"levelo://app?vid=66cd78a4-e204-41d5-9b07-a98aca92c8d8","ios":"levelo://app?vid=66cd78a4-e204-41d5-9b07-a98aca92c8d8"},"vehicle_type_id":"4","last_reported":1727248168,"current_range_meters":36000,"station_id":"ce4bh392rcd13ifvqdm0","pricing_plan_id":"cebpf4jnsgd1na2vs0mg"},{"bike_id":"e55f3079-c3e1-4916-a059-dce3a1010b9a","system_id":"levelo_inurba_marseille","lat":43.3135,"lon":5.36714,"is_reserved":false,"is_disabled":false,"rental_uris":{"android":"levelo://app?vid=e55f3079-c3e1-4916-a059-dce3a1010b9a","ios":"levelo://app?vid=e55f3079-c3e1-4916-a059-dce3a1010b9a"},"vehicle_type_id":"4","last_reported":1727248168,"current_range_meters":20400,"station_id":"ce4bgr92rcd13ifvqc6g","pricing_plan_id":"cebpf4jnsgd1na2vs0mg"},{"bike_id":"f50ace1f-d4b8-4e4a-bf1c-cc7e7ed0c729","system_id":"levelo_inurba_marseille","lat":43.32535,"lon":5.41434,"is_reserved":false,"is_disabled":false,"rental_uris":{"android":"levelo://app?vid=f50ace1f-d4b8-4e4a-bf1c-cc7e7ed0c729","ios":"levelo://app?vid=f50ace1f-d4b8-4e4a-bf1c-cc7e7ed0c729"},"vehicle_type_id":"4","last_reported":1727248168,"current_range_meters":8000,"station_id":"ce4bhq12rcd13ifvqhhg","pricing_plan_id":"cebpf4jnsgd1na2vs0mg"},{"bike_id":"2e01ffdd-6397-4929-8889-077a10353aec","system_id":"levelo_inurba_marseille","lat":43.24082,"lon":5.37753,"is_reserved":false,"is_disabled":false,"rental_uris":{"android":"levelo://app?vid=2e01ffdd-6397-4929-8889-077a10353aec","ios":"levelo://app?vid=2e01ffdd-6397-4929-8889-077a10353aec"},"vehicle_type_id":"4","last_reported":1727248168,"current_range_meters":36800,"station_id":"ce4bhnp2rcd13ifvqgvg","pricing_plan_id":"cebpf4jnsgd1na2vs0mg"},{"bike_id":"2540fdd7-deef-48c2-b032-a2125087406b","system_id":"levelo_inurba_marseille","lat":43.29026,"lon":5.38131,"is_reserved":false,"is_disabled":false,"rental_uris":{"android":"levelo://app?vid=2540fdd7-deef-48c2-b032-a2125087406b","ios":"levelo://app?vid=2540fdd7-deef-48c2-b032-a2125087406b"},"vehicle_type_id":"4","last_reported":1727248168,"current_range_meters":25600,"station_id":"ce4bh4p2rcd13ifvqe1g","pricing_plan_id":"cebpf4jnsgd1na2vs0mg"},{"bike_id":"f4f9f7b1-0483-4614-a717-c97a58bb909c","system_id":"levelo_inurba_marseille","lat":43.31494,"lon":5.37301,"is_reserved":false,"is_disabled":false,"rental_uris":{"android":"levelo://app?vid=f4f9f7b1-0483-4614-a717-c97a58bb909c","ios":"levelo://app?vid=f4f9f7b1-0483-4614-a717-c97a58bb909c"},"vehicle_type_id":"4","last_reported":1727248168,"current_range_meters":38800,"station_id":"ce4bgt12rcd13ifvqcd0","pricing_plan_id":"cebpf4jnsgd1na2vs0mg"},{"bike_id":"1802deb5-1c46-4f67-afa3-157e0fdc0220","system_id":"levelo_inurba_marseille","lat":43.2782,"lon":5.40718,"is_reserved":false,"is_disabled":false,"rental_uris":{"android":"levelo://app?vid=1802deb5-1c46-4f67-afa3-157e0fdc0220","ios":"levelo://app?vid=1802deb5-1c46-4f67-afa3-157e0fdc0220"},"vehicle_type_id":"4","last_reported":1727248168,"current_range_meters":25200,"station_id":"ce4bhnh2rcd13ifvqgtg","pricing_plan_id":"cebpf4jnsgd1na2vs0mg"},{"bike_id":"dd242317-41e5-44f2-bc98-6bc74d7c5925","system_id":"levelo_inurba_marseille","lat":43.23154,"lon":5.43704,"is_reserved":false,"is_disabled":false,"rental_uris":{"android":"levelo://app?vid=dd242317-41e5-44f2-bc98-6bc74d7c5925","ios":"levelo://app?vid=dd242317-41e5-44f2-bc98-6bc74d7c5925"},"vehicle_type_id":"4","last_reported":1727248168,"current_range_meters":22000,"station_id":"ce4bhmp2rcd13ifvqgog","pricing_plan_id":"cebpf4jnsgd1na2vs0mg"},{"bike_id":"2fb0fc57-8a81-4d2e-a35d-ac88f05ffb63","system_id":"levelo_inurba_marseille","lat":43.33604,"lon":5.41026,"is_reserved":false,"is_disabled":false,"rental_uris":{"android":"levelo://app?vid=2fb0fc57-8a81-4d2e-a35d-ac88f05ffb63","ios":"levelo://app?vid=2fb0fc57-8a81-4d2e-a35d-ac88f05ffb63"},"vehicle_type_id":"4","last_reported":1727248168,"current_range_meters":8800,"station_id":"ce4bhqh2rcd13ifvqhmg","pricing_plan_id":"cebpf4jnsgd1na2vs0mg"},{"bike_id":"6b05d1b6-58bb-4caa-86c1-fd0559805b4c","system_id":"levelo_inurba_marseille","lat":43.25501,"lon":5.37648,"is_reserved":false,"is_disabled":false,"rental_uris":{"android":"levelo://app?vid=6b05d1b6-58bb-4caa-86c1-fd0559805b4c","ios":"levelo://app?vid=6b05d1b6-58bb-4caa-86c1-fd0559805b4c"},"vehicle_type_id":"4","last_reported":1727248168,"current_range_meters":12000,"station_id":"ce4bhh12rcd13ifvqff0","pricing_plan_id":"cebpf4jnsgd1na2vs0mg"},{"bike_id":"7d1c5f24-b2c4-4b39-a45e-5cd31c748af9","system_id":"levelo_inurba_marseille","lat":43.32482,"lon":5.36565,"is_reserved":false,"is_disabled":false,"rental_uris":{"android":"levelo://app?vid=7d1c5f24-b2c4-4b39-a45e-5cd31c748af9","ios":"levelo://app?vid=7d1c5f24-b2c4-4b39-a45e-5cd31c748af9"},"vehicle_type_id":"4","last_reported":1727248168,"current_range_meters":35600,"station_id":"ce4bhs12rcd13ifvqhvg","pricing_plan_id":"cebpf4jnsgd1na2vs0mg"},{"bike_id":"8cef93a6-945f-4a23-a763-377159437272","system_id":"levelo_inurba_marseille","lat":43.30244,"lon":5.38427,"is_reserved":false,"is_disabled":false,"rental_uris":{"android":"levelo://app?vid=8cef93a6-945f-4a23-a763-377159437272","ios":"levelo://app?vid=8cef93a6-945f-4a23-a763-377159437272"},"vehicle_type_id":"4","last_reported":1727248168,"current_range_meters":33600,"station_id":"ce4bgup2rcd13ifvqcn0","pricing_plan_id":"cebpf4jnsgd1na2vs0mg"},{"bike_id":"5267d9f6-df56-44d5-97ac-1abcb12f05cd","system_id":"levelo_inurba_marseille","lat":43.31531,"lon":5.38036,"is_reserved":false,"is_disabled":false,"rental_uris":{"android":"levelo://app?vid=5267d9f6-df56-44d5-97ac-1abcb12f05cd","ios":"levelo://app?vid=5267d9f6-df56-44d5-97ac-1abcb12f05cd"},"vehicle_type_id":"4","last_reported":1727248168,"current_range_meters":26800,"station_id":"ce4bhsp2rcd13ifvqi50","pricing_plan_id":"cebpf4jnsgd1na2vs0mg"},{"bike_id":"c2972a83-2c62-47a7-850e-d4b0291d2993","system_id":"levelo_inurba_marseille","lat":43.28348,"lon":5.38102,"is_reserved":false,"is_disabled":false,"rental_uris":{"android":"levelo://app?vid=c2972a83-2c62-47a7-850e-d4b0291d2993","ios":"levelo://app?vid=c2972a83-2c62-47a7-850e-d4b0291d2993"},"vehicle_type_id":"4","last_reported":1727248168,"current_range_meters":38000,"station_id":"ce4bh412rcd13ifvqdr0","pricing_plan_id":"cebpf4jnsgd1na2vs0mg"},{"bike_id":"27daae29-2876-4b3c-862a-220758b1a12b","system_id":"levelo_inurba_marseille","lat":43.26033,"lon":5.37545,"is_reserved":false,"is_disabled":false,"rental_uris":{"android":"levelo://app?vid=27daae29-2876-4b3c-862a-220758b1a12b","ios":"levelo://app?vid=27daae29-2876-4b3c-862a-220758b1a12b"},"vehicle_type_id":"4","last_reported":1727248168,"current_range_meters":37600,"station_id":"ce4bhgh2rcd13ifvqfa0","pricing_plan_id":"cebpf4jnsgd1na2vs0mg"},{"bike_id":"b7eadcf9-fceb-4bd9-8b72-db3ef2c96ce6","system_id":"levelo_inurba_marseille","lat":43.24087,"lon":5.37751,"is_reserved":false,"is_disabled":false,"rental_uris":{"android":"levelo://app?vid=b7eadcf9-fceb-4bd9-8b72-db3ef2c96ce6","ios":"levelo://app?vid=b7eadcf9-fceb-4bd9-8b72-db3ef2c96ce6"},"vehicle_type_id":"4","last_reported":1727248168,"current_range_meters":27600,"station_id":"ce4bhnp2rcd13ifvqgvg","pricing_plan_id":"cebpf4jnsgd1na2vs0mg"},{"bike_id":"397e60cd-518e-45d9-b777-841ba7141791","system_id":"levelo_inurba_marseille","lat":43.31331,"lon":5.40222,"is_reserved":false,"is_disabled":false,"rental_uris":{"android":"levelo://app?vid=397e60cd-518e-45d9-b777-841ba7141791","ios":"levelo://app?vid=397e60cd-518e-45d9-b777-841ba7141791"},"vehicle_type_id":"4","last_reported":1727248168,"current_range_meters":26800,"station_id":"","pricing_plan_id":"cebpf4jnsgd1na2vs0mg"},{"bike_id":"57757cf2-b971-443b-97a6-6c791a375948","system_id":"levelo_inurba_marseille","lat":43.28251,"lon":5.4302,"is_reserved":false,"is_disabled":false,"rental_uris":{"android":"levelo://app?vid=57757cf2-b971-443b-97a6-6c791a375948","ios":"levelo://app?vid=57757cf2-b971-443b-97a6-6c791a375948"},"vehicle_type_id":"4","last_reported":1727248168,"current_range_meters":24400,"station_id":"","pricing_plan_id":"cebpf4jnsgd1na2vs0mg"},{"bike_id":"8396b9d4-9398-4805-9041-0c159077f677","system_id":"levelo_inurba_marseille","lat":43.26214,"lon":5.37439,"is_reserved":false,"is_disabled":false,"rental_uris":{"android":"levelo://app?vid=8396b9d4-9398-4805-9041-0c159077f677","ios":"levelo://app?vid=8396b9d4-9398-4805-9041-0c159077f677"},"vehicle_type_id":"4","last_reported":1727248168,"current_range_meters":38400,"station_id":"ce4bhgp2rcd13ifvqfc0","pricing_plan_id":"cebpf4jnsgd1na2vs0mg"},{"bike_id":"361eaa0e-a99b-4fb6-854a-0d4baef269ba","system_id":"levelo_inurba_marseille","lat":43.24074,"lon":5.37756,"is_reserved":false,"is_disabled":false,"rental_uris":{"android":"levelo://app?vid=361eaa0e-a99b-4fb6-854a-0d4baef269ba","ios":"levelo://app?vid=361eaa0e-a99b-4fb6-854a-0d4baef269ba"},"vehicle_type_id":"4","last_reported":1727248168,"current_range_meters":34800,"station_id":"ce4bhnp2rcd13ifvqgvg","pricing_plan_id":"cebpf4jnsgd1na2vs0mg"},{"bike_id":"1f655e29-2838-4be4-9d59-d3da21fe6810","system_id":"levelo_inurba_marseille","lat":43.31353,"lon":5.3671,"is_reserved":false,"is_disabled":false,"rental_uris":{"android":"levelo://app?vid=1f655e29-2838-4be4-9d59-d3da21fe6810","ios":"levelo://app?vid=1f655e29-2838-4be4-9d59-d3da21fe6810"},"vehicle_type_id":"4","last_reported":1727248168,"current_range_meters":40000,"station_id":"ce4bgr92rcd13ifvqc6g","pricing_plan_id":"cebpf4jnsgd1na2vs0mg"},{"bike_id":"73e7f655-b2b9-4127-a50c-dc2251f994d0","system_id":"levelo_inurba_marseille","lat":43.28765,"lon":5.39694,"is_reserved":false,"is_disabled":false,"rental_uris":{"android":"levelo://app?vid=73e7f655-b2b9-4127-a50c-dc2251f994d0","ios":"levelo://app?vid=73e7f655-b2b9-4127-a50c-dc2251f994d0"},"vehicle_type_id":"4","last_reported":1727248168,"current_range_meters":36400,"station_id":"","pricing_plan_id":"cebpf4jnsgd1na2vs0mg"},{"bike_id":"1004d956-cea1-4e6d-9524-27344f3e8b11","system_id":"levelo_inurba_marseille","lat":43.31349,"lon":5.367237,"is_reserved":false,"is_disabled":false,"rental_uris":{"android":"levelo://app?vid=1004d956-cea1-4e6d-9524-27344f3e8b11","ios":"levelo://app?vid=1004d956-cea1-4e6d-9524-27344f3e8b11"},"vehicle_type_id":"4","last_reported":1727248168,"current_range_meters":12400,"station_id":"ce4bgr92rcd13ifvqc6g","pricing_plan_id":"cebpf4jnsgd1na2vs0mg"},{"bike_id":"1d676881-5880-4049-bf15-d63a02fd54ca","system_id":"levelo_inurba_marseille","lat":43.2669,"lon":5.38276,"is_reserved":false,"is_disabled":false,"rental_uris":{"android":"levelo://app?vid=1d676881-5880-4049-bf15-d63a02fd54ca","ios":"levelo://app?vid=1d676881-5880-4049-bf15-d63a02fd54ca"},"vehicle_type_id":"4","last_reported":1727248168,"current_range_meters":25200,"station_id":"ce4bhg92rcd13ifvqf90","pricing_plan_id":"cebpf4jnsgd1na2vs0mg"},{"bike_id":"1153b238-59ef-4f75-96c8-22b43d0387e3","system_id":"levelo_inurba_marseille","lat":43.29633,"lon":5.40603,"is_reserved":false,"is_disabled":false,"rental_uris":{"android":"levelo://app?vid=1153b238-59ef-4f75-96c8-22b43d0387e3","ios":"levelo://app?vid=1153b238-59ef-4f75-96c8-22b43d0387e3"},"vehicle_type_id":"4","last_reported":1727248168,"current_range_meters":32400,"station_id":"ce4bh0h2rcd13ifvqd60","pricing_plan_id":"cebpf4jnsgd1na2vs0mg"},{"bike_id":"e40022a0-a9bf-4b50-ac86-90881ae1e1ef","system_id":"levelo_inurba_marseille","lat":43.29313,"lon":5.37184,"is_reserved":false,"is_disabled":false,"rental_uris":{"android":"levelo://app?vid=e40022a0-a9bf-4b50-ac86-90881ae1e1ef","ios":"levelo://app?vid=e40022a0-a9bf-4b50-ac86-90881ae1e1ef"},"vehicle_type_id":"4","last_reported":1727248168,"current_range_meters":36400,"station_id":"ce4bgh92rcd13ifvqb40","pricing_plan_id":"cebpf4jnsgd1na2vs0mg"},{"bike_id":"106a9564-fb31-4dd5-ae47-72782c3e325e","system_id":"levelo_inurba_marseille","lat":43.30153,"lon":5.38082,"is_reserved":false,"is_disabled":false,"rental_uris":{"android":"levelo://app?vid=106a9564-fb31-4dd5-ae47-72782c3e325e","ios":"levelo://app?vid=106a9564-fb31-4dd5-ae47-72782c3e325e"},"vehicle_type_id":"4","last_reported":1727248168,"current_range_meters":30800,"station_id":"ce4bgjp2rcd13ifvqbh0","pricing_plan_id":"cebpf4jnsgd1na2vs0mg"},{"bike_id":"c4420aa8-2491-4076-8aab-1dbd4cfdc419","system_id":"levelo_inurba_marseille","lat":43.3136,"lon":5.36715,"is_reserved":false,"is_disabled":false,"rental_uris":{"android":"levelo://app?vid=c4420aa8-2491-4076-8aab-1dbd4cfdc419","ios":"levelo://app?vid=c4420aa8-2491-4076-8aab-1dbd4cfdc419"},"vehicle_type_id":"4","last_reported":1727248168,"current_range_meters":36000,"station_id":"ce4bgr92rcd13ifvqc6g","pricing_plan_id":"cebpf4jnsgd1na2vs0mg"},{"bike_id":"b219bd9e-1b0a-4956-9e88-9fbe4e039fad","system_id":"levelo_inurba_marseille","lat":43.2707,"lon":5.42284,"is_reserved":false,"is_disabled":false,"rental_uris":{"android":"levelo://app?vid=b219bd9e-1b0a-4956-9e88-9fbe4e039fad","ios":"levelo://app?vid=b219bd9e-1b0a-4956-9e88-9fbe4e039fad"},"vehicle_type_id":"4","last_reported":1727248168,"current_range_meters":8400,"station_id":"ce4bhk92rcd13ifvqgb0","pricing_plan_id":"cebpf4jnsgd1na2vs0mg"},{"bike_id":"52ce0abc-7029-4165-9a55-85d40afd340f","system_id":"levelo_inurba_marseille","lat":43.29074,"lon":5.37174,"is_reserved":false,"is_disabled":false,"rental_uris":{"android":"levelo://app?vid=52ce0abc-7029-4165-9a55-85d40afd340f","ios":"levelo://app?vid=52ce0abc-7029-4165-9a55-85d40afd340f"},"vehicle_type_id":"4","last_reported":1727248168,"current_range_meters":20800,"station_id":"ce4bh5p2rcd13ifvqe4g","pricing_plan_id":"cebpf4jnsgd1na2vs0mg"},{"bike_id":"85dde36e-19c7-4630-93c3-b5f8536bd9bd","system_id":"levelo_inurba_marseille","lat":43.24086,"lon":5.37736,"is_reserved":false,"is_disabled":false,"rental_uris":{"android":"levelo://app?vid=85dde36e-19c7-4630-93c3-b5f8536bd9bd","ios":"levelo://app?vid=85dde36e-19c7-4630-93c3-b5f8536bd9bd"},"vehicle_type_id":"4","last_reported":1727248168,"current_range_meters":4000,"station_id":"ce4bhnp2rcd13ifvqgvg","pricing_plan_id":"cebpf4jnsgd1na2vs0mg"},{"bike_id":"9fd8e932-0bbe-45a7-a9ac-3aa157bc97f4","system_id":"levelo_inurba_marseille","lat":43.27374,"lon":5.36259,"is_reserved":false,"is_disabled":false,"rental_uris":{"android":"levelo://app?vid=9fd8e932-0bbe-45a7-a9ac-3aa157bc97f4","ios":"levelo://app?vid=9fd8e932-0bbe-45a7-a9ac-3aa157bc97f4"},"vehicle_type_id":"4","last_reported":1727248168,"current_range_meters":38800,"station_id":"ce4bhbh2rcd13ifvqeo0","pricing_plan_id":"cebpf4jnsgd1na2vs0mg"},{"bike_id":"d2b29a3f-a9f9-4e26-bd8f-3dbbdf2f5a97","system_id":"levelo_inurba_marseille","lat":43.30543,"lon":5.36563,"is_reserved":false,"is_disabled":false,"rental_uris":{"android":"levelo://app?vid=d2b29a3f-a9f9-4e26-bd8f-3dbbdf2f5a97","ios":"levelo://app?vid=d2b29a3f-a9f9-4e26-bd8f-3dbbdf2f5a97"},"vehicle_type_id":"4","last_reported":1727248168,"current_range_meters":36400,"station_id":"ce4bgs12rcd13ifvqcag","pricing_plan_id":"cebpf4jnsgd1na2vs0mg"},{"bike_id":"ab8a776f-7a05-4324-9e26-529ce9006afc","system_id":"levelo_inurba_marseille","lat":43.29268,"lon":5.36845,"is_reserved":false,"is_disabled":false,"rental_uris":{"android":"levelo://app?vid=ab8a776f-7a05-4324-9e26-529ce9006afc","ios":"levelo://app?vid=ab8a776f-7a05-4324-9e26-529ce9006afc"},"vehicle_type_id":"4","last_reported":1727248168,"current_range_meters":38800,"station_id":"ce4bhbp2rcd13ifvqesg","pricing_plan_id":"cebpf4jnsgd1na2vs0mg"},{"bike_id":"10a437b8-b58e-40b1-b0b7-6372b1519414","system_id":"levelo_inurba_marseille","lat":43.303166,"lon":5.368971,"is_reserved":false,"is_disabled":false,"rental_uris":{"android":"levelo://app?vid=10a437b8-b58e-40b1-b0b7-6372b1519414","ios":"levelo://app?vid=10a437b8-b58e-40b1-b0b7-6372b1519414"},"vehicle_type_id":"4","last_reported":1727248168,"current_range_meters":25600,"station_id":"ce4bgqh2rcd13ifvqc5g","pricing_plan_id":"cebpf4jnsgd1na2vs0mg"},{"bike_id":"7c2e9032-f569-48b0-87d6-baa812669069","system_id":"levelo_inurba_marseille","lat":43.30554,"lon":5.36526,"is_reserved":false,"is_disabled":false,"rental_uris":{"android":"levelo://app?vid=7c2e9032-f569-48b0-87d6-baa812669069","ios":"levelo://app?vid=7c2e9032-f569-48b0-87d6-baa812669069"},"vehicle_type_id":"4","last_reported":1727248168,"current_range_meters":25200,"station_id":"","pricing_plan_id":"cebpf4jnsgd1na2vs0mg"},{"bike_id":"d25f67f0-5770-4767-833c-9c57de11b1fa","system_id":"levelo_inurba_marseille","lat":43.30154,"lon":5.38071,"is_reserved":false,"is_disabled":false,"rental_uris":{"android":"levelo://app?vid=d25f67f0-5770-4767-833c-9c57de11b1fa","ios":"levelo://app?vid=d25f67f0-5770-4767-833c-9c57de11b1fa"},"vehicle_type_id":"4","last_reported":1727248168,"current_range_meters":35600,"station_id":"ce4bgjp2rcd13ifvqbh0","pricing_plan_id":"cebpf4jnsgd1na2vs0mg"},{"bike_id":"74e059c3-7187-493a-8ce2-9e9bb5cc544b","system_id":"levelo_inurba_marseille","lat":43.30154,"lon":5.38079,"is_reserved":false,"is_disabled":false,"rental_uris":{"android":"levelo://app?vid=74e059c3-7187-493a-8ce2-9e9bb5cc544b","ios":"levelo://app?vid=74e059c3-7187-493a-8ce2-9e9bb5cc544b"},"vehicle_type_id":"4","last_reported":1727248168,"current_range_meters":7200,"station_id":"ce4bgjp2rcd13ifvqbh0","pricing_plan_id":"cebpf4jnsgd1na2vs0mg"},{"bike_id":"5c42ac10-3ef2-4602-9e64-b59973d6b47e","system_id":"levelo_inurba_marseille","lat":43.27809,"lon":5.40713,"is_reserved":false,"is_disabled":false,"rental_uris":{"android":"levelo://app?vid=5c42ac10-3ef2-4602-9e64-b59973d6b47e","ios":"levelo://app?vid=5c42ac10-3ef2-4602-9e64-b59973d6b47e"},"vehicle_type_id":"4","last_reported":1727248168,"current_range_meters":28000,"station_id":"ce4bhnh2rcd13ifvqgtg","pricing_plan_id":"cebpf4jnsgd1na2vs0mg"},{"bike_id":"0a4710f5-a2ae-4573-9abc-f5634b0a0e7d","system_id":"levelo_inurba_marseille","lat":43.313453,"lon":5.36725,"is_reserved":false,"is_disabled":false,"rental_uris":{"android":"levelo://app?vid=0a4710f5-a2ae-4573-9abc-f5634b0a0e7d","ios":"levelo://app?vid=0a4710f5-a2ae-4573-9abc-f5634b0a0e7d"},"vehicle_type_id":"4","last_reported":1727248168,"current_range_meters":38800,"station_id":"ce4bgr92rcd13ifvqc6g","pricing_plan_id":"cebpf4jnsgd1na2vs0mg"},{"bike_id":"69821ebc-0dfd-418d-b8ce-9e2a1cbb4f94","system_id":"levelo_inurba_marseille","lat":43.27999,"lon":5.41662,"is_reserved":false,"is_disabled":false,"rental_uris":{"android":"levelo://app?vid=69821ebc-0dfd-418d-b8ce-9e2a1cbb4f94","ios":"levelo://app?vid=69821ebc-0dfd-418d-b8ce-9e2a1cbb4f94"},"vehicle_type_id":"4","last_reported":1727248168,"current_range_meters":22000,"station_id":"ce4bho12rcd13ifvqh1g","pricing_plan_id":"cebpf4jnsgd1na2vs0mg"},{"bike_id":"ae471f21-1f8b-40a4-9395-e3124494b4b8","system_id":"levelo_inurba_marseille","lat":43.31497,"lon":5.37309,"is_reserved":false,"is_disabled":false,"rental_uris":{"android":"levelo://app?vid=ae471f21-1f8b-40a4-9395-e3124494b4b8","ios":"levelo://app?vid=ae471f21-1f8b-40a4-9395-e3124494b4b8"},"vehicle_type_id":"4","last_reported":1727248168,"current_range_meters":38800,"station_id":"ce4bgt12rcd13ifvqcd0","pricing_plan_id":"cebpf4jnsgd1na2vs0mg"},{"bike_id":"4df3f7e3-2ffb-41b4-8826-748394786ae8","system_id":"levelo_inurba_marseille","lat":43.29276,"lon":5.36843,"is_reserved":false,"is_disabled":false,"rental_uris":{"android":"levelo://app?vid=4df3f7e3-2ffb-41b4-8826-748394786ae8","ios":"levelo://app?vid=4df3f7e3-2ffb-41b4-8826-748394786ae8"},"vehicle_type_id":"4","last_reported":1727248168,"current_range_meters":10800,"station_id":"ce4bhbp2rcd13ifvqesg","pricing_plan_id":"cebpf4jnsgd1na2vs0mg"},{"bike_id":"8282acf3-1e10-4e7a-9e2e-d47e811adce2","system_id":"levelo_inurba_marseille","lat":43.25503,"lon":5.37652,"is_reserved":false,"is_disabled":false,"rental_uris":{"android":"levelo://app?vid=8282acf3-1e10-4e7a-9e2e-d47e811adce2","ios":"levelo://app?vid=8282acf3-1e10-4e7a-9e2e-d47e811adce2"},"vehicle_type_id":"4","last_reported":1727248168,"current_range_meters":38000,"station_id":"ce4bhh12rcd13ifvqff0","pricing_plan_id":"cebpf4jnsgd1na2vs0mg"},{"bike_id":"bcbe5373-d942-4bbd-a708-00530fcf5e2f","system_id":"levelo_inurba_marseille","lat":43.23153,"lon":5.43711,"is_reserved":false,"is_disabled":false,"rental_uris":{"android":"levelo://app?vid=bcbe5373-d942-4bbd-a708-00530fcf5e2f","ios":"levelo://app?vid=bcbe5373-d942-4bbd-a708-00530fcf5e2f"},"vehicle_type_id":"4","last_reported":1727248168,"current_range_meters":6400,"station_id":"ce4bhmp2rcd13ifvqgog","pricing_plan_id":"cebpf4jnsgd1na2vs0mg"},{"bike_id":"ebec7cd5-5fed-46ce-abdb-3cd659f607ac","system_id":"levelo_inurba_marseille","lat":43.29552,"lon":5.42282,"is_reserved":false,"is_disabled":false,"rental_uris":{"android":"levelo://app?vid=ebec7cd5-5fed-46ce-abdb-3cd659f607ac","ios":"levelo://app?vid=ebec7cd5-5fed-46ce-abdb-3cd659f607ac"},"vehicle_type_id":"4","last_reported":1727248168,"current_range_meters":34800,"station_id":"ce4bhph2rcd13ifvqhdg","pricing_plan_id":"cebpf4jnsgd1na2vs0mg"},{"bike_id":"66933eb4-3af8-4c33-a5a2-f1b70b2dcc35","system_id":"levelo_inurba_marseille","lat":43.26788,"lon":5.39408,"is_reserved":false,"is_disabled":false,"rental_uris":{"android":"levelo://app?vid=66933eb4-3af8-4c33-a5a2-f1b70b2dcc35","ios":"levelo://app?vid=66933eb4-3af8-4c33-a5a2-f1b70b2dcc35"},"vehicle_type_id":"4","last_reported":1727248168,"current_range_meters":27200,"station_id":"ce4bhh12rcd13ifvqfg0","pricing_plan_id":"cebpf4jnsgd1na2vs0mg"},{"bike_id":"ba77e10f-2479-41fa-a24b-ef5243e57251","system_id":"levelo_inurba_marseille","lat":43.292979,"lon":5.401734,"is_reserved":false,"is_disabled":false,"rental_uris":{"android":"levelo://app?vid=ba77e10f-2479-41fa-a24b-ef5243e57251","ios":"levelo://app?vid=ba77e10f-2479-41fa-a24b-ef5243e57251"},"vehicle_type_id":"4","last_reported":1727248168,"current_range_meters":30800,"station_id":"ce4bh312rcd13ifvqdk0","pricing_plan_id":"cebpf4jnsgd1na2vs0mg"},{"bike_id":"584dc729-0cb1-4902-8a6c-23dc123e7906","system_id":"levelo_inurba_marseille","lat":43.22924,"lon":5.35377,"is_reserved":false,"is_disabled":false,"rental_uris":{"android":"levelo://app?vid=584dc729-0cb1-4902-8a6c-23dc123e7906","ios":"levelo://app?vid=584dc729-0cb1-4902-8a6c-23dc123e7906"},"vehicle_type_id":"4","last_reported":1727248168,"current_range_meters":22400,"station_id":"cpo3532slgdg3j2ikp40","pricing_plan_id":"cebpf4jnsgd1na2vs0mg"},{"bike_id":"df5b38d2-64cb-4df0-856f-ea9bd22c082c","system_id":"levelo_inurba_marseille","lat":43.23192,"lon":5.35545,"is_reserved":false,"is_disabled":false,"rental_uris":{"android":"levelo://app?vid=df5b38d2-64cb-4df0-856f-ea9bd22c082c","ios":"levelo://app?vid=df5b38d2-64cb-4df0-856f-ea9bd22c082c"},"vehicle_type_id":"4","last_reported":1727248168,"current_range_meters":8400,"station_id":"ce4bhu92rcd13ifvqi70","pricing_plan_id":"cebpf4jnsgd1na2vs0mg"},{"bike_id":"707528d8-0988-4632-94dc-544d37620d76","system_id":"levelo_inurba_marseille","lat":43.33601,"lon":5.41021,"is_reserved":false,"is_disabled":false,"rental_uris":{"android":"levelo://app?vid=707528d8-0988-4632-94dc-544d37620d76","ios":"levelo://app?vid=707528d8-0988-4632-94dc-544d37620d76"},"vehicle_type_id":"4","last_reported":1727248168,"current_range_meters":39200,"station_id":"ce4bhqh2rcd13ifvqhmg","pricing_plan_id":"cebpf4jnsgd1na2vs0mg"},{"bike_id":"46369a02-7f02-47d2-ba1b-104d3914dff3","system_id":"levelo_inurba_marseille","lat":43.2465,"lon":5.38892,"is_reserved":false,"is_disabled":false,"rental_uris":{"android":"levelo://app?vid=46369a02-7f02-47d2-ba1b-104d3914dff3","ios":"levelo://app?vid=46369a02-7f02-47d2-ba1b-104d3914dff3"},"vehicle_type_id":"4","last_reported":1727248168,"current_range_meters":37600,"station_id":"ce4bhg12rcd13ifvqf60","pricing_plan_id":"cebpf4jnsgd1na2vs0mg"},{"bike_id":"752c36e5-5b1f-41f1-845d-c09a02895ccf","system_id":"levelo_inurba_marseille","lat":43.28341,"lon":5.38095,"is_reserved":false,"is_disabled":false,"rental_uris":{"android":"levelo://app?vid=752c36e5-5b1f-41f1-845d-c09a02895ccf","ios":"levelo://app?vid=752c36e5-5b1f-41f1-845d-c09a02895ccf"},"vehicle_type_id":"4","last_reported":1727248168,"current_range_meters":18000,"station_id":"ce4bh412rcd13ifvqdr0","pricing_plan_id":"cebpf4jnsgd1na2vs0mg"},{"bike_id":"cb1adf5d-f2d0-4b7f-b2cd-ff3a0afadda5","system_id":"levelo_inurba_marseille","lat":43.27498,"lon":5.42448,"is_reserved":false,"is_disabled":false,"rental_uris":{"android":"levelo://app?vid=cb1adf5d-f2d0-4b7f-b2cd-ff3a0afadda5","ios":"levelo://app?vid=cb1adf5d-f2d0-4b7f-b2cd-ff3a0afadda5"},"vehicle_type_id":"4","last_reported":1727248168,"current_range_meters":9200,"station_id":"ce4bhn92rcd13ifvqgrg","pricing_plan_id":"cebpf4jnsgd1na2vs0mg"},{"bike_id":"60e5e884-dc96-4dfe-969a-d2edc8aada7b","system_id":"levelo_inurba_marseille","lat":43.33777,"lon":5.37432,"is_reserved":false,"is_disabled":false,"rental_uris":{"android":"levelo://app?vid=60e5e884-dc96-4dfe-969a-d2edc8aada7b","ios":"levelo://app?vid=60e5e884-dc96-4dfe-969a-d2edc8aada7b"},"vehicle_type_id":"4","last_reported":1727248168,"current_range_meters":25200,"station_id":"","pricing_plan_id":"cebpf4jnsgd1na2vs0mg"},{"bike_id":"e4422fe0-1cad-4055-b116-2a1219106465","system_id":"levelo_inurba_marseille","lat":43.297028,"lon":5.366211,"is_reserved":false,"is_disabled":false,"rental_uris":{"android":"levelo://app?vid=e4422fe0-1cad-4055-b116-2a1219106465","ios":"levelo://app?vid=e4422fe0-1cad-4055-b116-2a1219106465"},"vehicle_type_id":"4","last_reported":1727248168,"current_range_meters":23200,"station_id":"ce4bgn12rcd13ifvqbt0","pricing_plan_id":"cebpf4jnsgd1na2vs0mg"},{"bike_id":"bca81bcc-db8f-4252-98dd-a19370662d96","system_id":"levelo_inurba_marseille","lat":43.30136,"lon":5.37401,"is_reserved":false,"is_disabled":false,"rental_uris":{"android":"levelo://app?vid=bca81bcc-db8f-4252-98dd-a19370662d96","ios":"levelo://app?vid=bca81bcc-db8f-4252-98dd-a19370662d96"},"vehicle_type_id":"4","last_reported":1727248168,"current_range_meters":21600,"station_id":"ce4bgs92rcd13ifvqcc0","pricing_plan_id":"cebpf4jnsgd1na2vs0mg"},{"bike_id":"4cdcc24b-9fa8-408d-82fd-4b382c2146be","system_id":"levelo_inurba_marseille","lat":43.24182,"lon":5.39719,"is_reserved":false,"is_disabled":false,"rental_uris":{"android":"levelo://app?vid=4cdcc24b-9fa8-408d-82fd-4b382c2146be","ios":"levelo://app?vid=4cdcc24b-9fa8-408d-82fd-4b382c2146be"},"vehicle_type_id":"4","last_reported":1727248168,"current_range_meters":27600,"station_id":"ce4bhn12rcd13ifvqgpg","pricing_plan_id":"cebpf4jnsgd1na2vs0mg"},{"bike_id":"afb362a3-340b-4aef-9fbb-5a655e0b49b2","system_id":"levelo_inurba_marseille","lat":43.299195,"lon":5.37472,"is_reserved":false,"is_disabled":false,"rental_uris":{"android":"levelo://app?vid=afb362a3-340b-4aef-9fbb-5a655e0b49b2","ios":"levelo://app?vid=afb362a3-340b-4aef-9fbb-5a655e0b49b2"},"vehicle_type_id":"4","last_reported":1727248168,"current_range_meters":27200,"station_id":"ce4bgjh2rcd13ifvqbg0","pricing_plan_id":"cebpf4jnsgd1na2vs0mg"},{"bike_id":"27431c98-bcee-4fbc-9005-ef4fd6a106b8","system_id":"levelo_inurba_marseille","lat":43.23184,"lon":5.39979,"is_reserved":false,"is_disabled":false,"rental_uris":{"android":"levelo://app?vid=27431c98-bcee-4fbc-9005-ef4fd6a106b8","ios":"levelo://app?vid=27431c98-bcee-4fbc-9005-ef4fd6a106b8"},"vehicle_type_id":"4","last_reported":1727248168,"current_range_meters":12000,"station_id":"ce4bhn12rcd13ifvqgqg","pricing_plan_id":"cebpf4jnsgd1na2vs0mg"},{"bike_id":"f1bddba5-3de2-4996-80f2-28e6def469bb","system_id":"levelo_inurba_marseille","lat":43.30535,"lon":5.36707,"is_reserved":false,"is_disabled":false,"rental_uris":{"android":"levelo://app?vid=f1bddba5-3de2-4996-80f2-28e6def469bb","ios":"levelo://app?vid=f1bddba5-3de2-4996-80f2-28e6def469bb"},"vehicle_type_id":"4","last_reported":1727248168,"current_range_meters":30800,"station_id":"ce4bgrp2rcd13ifvqc9g","pricing_plan_id":"cebpf4jnsgd1na2vs0mg"},{"bike_id":"4046441d-7d7f-4f0a-a97d-2cd75670b4be","system_id":"levelo_inurba_marseille","lat":43.30313,"lon":5.36904,"is_reserved":false,"is_disabled":false,"rental_uris":{"android":"levelo://app?vid=4046441d-7d7f-4f0a-a97d-2cd75670b4be","ios":"levelo://app?vid=4046441d-7d7f-4f0a-a97d-2cd75670b4be"},"vehicle_type_id":"4","last_reported":1727248168,"current_range_meters":8400,"station_id":"ce4bgqh2rcd13ifvqc5g","pricing_plan_id":"cebpf4jnsgd1na2vs0mg"},{"bike_id":"fe98bb91-500f-45b4-9e01-089fceb956c3","system_id":"levelo_inurba_marseille","lat":43.29042,"lon":5.39958,"is_reserved":false,"is_disabled":false,"rental_uris":{"android":"levelo://app?vid=fe98bb91-500f-45b4-9e01-089fceb956c3","ios":"levelo://app?vid=fe98bb91-500f-45b4-9e01-089fceb956c3"},"vehicle_type_id":"4","last_reported":1727248168,"current_range_meters":37600,"station_id":"ce4bh392rcd13ifvqdm0","pricing_plan_id":"cebpf4jnsgd1na2vs0mg"},{"bike_id":"72db74d2-2c4f-4a12-a06e-67002269c7dd","system_id":"levelo_inurba_marseille","lat":43.30469,"lon":5.37888,"is_reserved":false,"is_disabled":false,"rental_uris":{"android":"levelo://app?vid=72db74d2-2c4f-4a12-a06e-67002269c7dd","ios":"levelo://app?vid=72db74d2-2c4f-4a12-a06e-67002269c7dd"},"vehicle_type_id":"4","last_reported":1727248168,"current_range_meters":37600,"station_id":"ce4bgup2rcd13ifvqcn0","pricing_plan_id":"cebpf4jnsgd1na2vs0mg"},{"bike_id":"dcd126e0-9c30-46b7-a44f-678c75f333be","system_id":"levelo_inurba_marseille","lat":43.24077,"lon":5.37748,"is_reserved":false,"is_disabled":false,"rental_uris":{"android":"levelo://app?vid=dcd126e0-9c30-46b7-a44f-678c75f333be","ios":"levelo://app?vid=dcd126e0-9c30-46b7-a44f-678c75f333be"},"vehicle_type_id":"4","last_reported":1727248168,"current_range_meters":37600,"station_id":"ce4bhnp2rcd13ifvqgvg","pricing_plan_id":"cebpf4jnsgd1na2vs0mg"},{"bike_id":"79569569-7b56-4de0-9487-cfc59180b410","system_id":"levelo_inurba_marseille","lat":43.2991,"lon":5.38141,"is_reserved":false,"is_disabled":false,"rental_uris":{"android":"levelo://app?vid=79569569-7b56-4de0-9487-cfc59180b410","ios":"levelo://app?vid=79569569-7b56-4de0-9487-cfc59180b410"},"vehicle_type_id":"4","last_reported":1727248168,"current_range_meters":28000,"station_id":"ce4bgj12rcd13ifvqbc0","pricing_plan_id":"cebpf4jnsgd1na2vs0mg"},{"bike_id":"16fe8e72-79c9-42b0-8e39-a88778e60cd9","system_id":"levelo_inurba_marseille","lat":43.32031,"lon":5.41538,"is_reserved":false,"is_disabled":false,"rental_uris":{"android":"levelo://app?vid=16fe8e72-79c9-42b0-8e39-a88778e60cd9","ios":"levelo://app?vid=16fe8e72-79c9-42b0-8e39-a88778e60cd9"},"vehicle_type_id":"4","last_reported":1727248168,"current_range_meters":2000,"station_id":"ce4bhq92rcd13ifvqhkg","pricing_plan_id":"cebpf4jnsgd1na2vs0mg"},{"bike_id":"ad9e6ef0-4a19-4a93-88ed-c66cad530a0a","system_id":"levelo_inurba_marseille","lat":43.32548,"lon":5.41438,"is_reserved":false,"is_disabled":false,"rental_uris":{"android":"levelo://app?vid=ad9e6ef0-4a19-4a93-88ed-c66cad530a0a","ios":"levelo://app?vid=ad9e6ef0-4a19-4a93-88ed-c66cad530a0a"},"vehicle_type_id":"4","last_reported":1727248168,"current_range_meters":39200,"station_id":"ce4bhq12rcd13ifvqhhg","pricing_plan_id":"cebpf4jnsgd1na2vs0mg"},{"bike_id":"3ddc1fc9-4fe8-4c82-b6c6-96c8768afd76","system_id":"levelo_inurba_marseille","lat":43.32468,"lon":5.365551,"is_reserved":false,"is_disabled":false,"rental_uris":{"android":"levelo://app?vid=3ddc1fc9-4fe8-4c82-b6c6-96c8768afd76","ios":"levelo://app?vid=3ddc1fc9-4fe8-4c82-b6c6-96c8768afd76"},"vehicle_type_id":"4","last_reported":1727248168,"current_range_meters":26800,"station_id":"ce4bgrp2rcd13ifvqc9g","pricing_plan_id":"cebpf4jnsgd1na2vs0mg"},{"bike_id":"e1edbdbb-c698-45e7-8dda-225f17c4a2c8","system_id":"levelo_inurba_marseille","lat":43.28404,"lon":5.37506,"is_reserved":false,"is_disabled":false,"rental_uris":{"android":"levelo://app?vid=e1edbdbb-c698-45e7-8dda-225f17c4a2c8","ios":"levelo://app?vid=e1edbdbb-c698-45e7-8dda-225f17c4a2c8"},"vehicle_type_id":"4","last_reported":1727248168,"current_range_meters":27600,"station_id":"ce4bh412rcd13ifvqds0","pricing_plan_id":"cebpf4jnsgd1na2vs0mg"},{"bike_id":"1274b247-fec9-43e7-b337-0b053285a2d8","system_id":"levelo_inurba_marseille","lat":43.29851,"lon":5.36286,"is_reserved":false,"is_disabled":false,"rental_uris":{"android":"levelo://app?vid=1274b247-fec9-43e7-b337-0b053285a2d8","ios":"levelo://app?vid=1274b247-fec9-43e7-b337-0b053285a2d8"},"vehicle_type_id":"4","last_reported":1727248168,"current_range_meters":38800,"station_id":"ce4bgpp2rcd13ifvqc3g","pricing_plan_id":"cebpf4jnsgd1na2vs0mg"},{"bike_id":"fd6b2286-61c6-41b0-899b-63aa95ee7bfa","system_id":"levelo_inurba_marseille","lat":43.30152,"lon":5.37426,"is_reserved":false,"is_disabled":false,"rental_uris":{"android":"levelo://app?vid=fd6b2286-61c6-41b0-899b-63aa95ee7bfa","ios":"levelo://app?vid=fd6b2286-61c6-41b0-899b-63aa95ee7bfa"},"vehicle_type_id":"4","last_reported":1727248168,"current_range_meters":29600,"station_id":"ce4bgs92rcd13ifvqcc0","pricing_plan_id":"cebpf4jnsgd1na2vs0mg"},{"bike_id":"4d446767-93e4-48cb-9434-009d3007e870","system_id":"levelo_inurba_marseille","lat":43.2894,"lon":5.3663,"is_reserved":false,"is_disabled":false,"rental_uris":{"android":"levelo://app?vid=4d446767-93e4-48cb-9434-009d3007e870","ios":"levelo://app?vid=4d446767-93e4-48cb-9434-009d3007e870"},"vehicle_type_id":"4","last_reported":1727248168,"current_range_meters":32000,"station_id":"ce4bhap2rcd13ifvqek0","pricing_plan_id":"cebpf4jnsgd1na2vs0mg"},{"bike_id":"a1d82605-350d-4120-889c-7761b40719ec","system_id":"levelo_inurba_marseille","lat":43.32106,"lon":5.36785,"is_reserved":false,"is_disabled":false,"rental_uris":{"android":"levelo://app?vid=a1d82605-350d-4120-889c-7761b40719ec","ios":"levelo://app?vid=a1d82605-350d-4120-889c-7761b40719ec"},"vehicle_type_id":"4","last_reported":1727248168,"current_range_meters":20800,"station_id":"ce4bhrh2rcd13ifvqhug","pricing_plan_id":"cebpf4jnsgd1na2vs0mg"},{"bike_id":"45c962d2-6a7e-406f-a364-432c7532adb1","system_id":"levelo_inurba_marseille","lat":43.26684,"lon":5.38272,"is_reserved":false,"is_disabled":false,"rental_uris":{"android":"levelo://app?vid=45c962d2-6a7e-406f-a364-432c7532adb1","ios":"levelo://app?vid=45c962d2-6a7e-406f-a364-432c7532adb1"},"vehicle_type_id":"4","last_reported":1727248168,"current_range_meters":4800,"station_id":"ce4bhg92rcd13ifvqf90","pricing_plan_id":"cebpf4jnsgd1na2vs0mg"},{"bike_id":"293853c7-264e-4734-92b2-6533b6406ff3","system_id":"levelo_inurba_marseille","lat":43.29037,"lon":5.39965,"is_reserved":false,"is_disabled":false,"rental_uris":{"android":"levelo://app?vid=293853c7-264e-4734-92b2-6533b6406ff3","ios":"levelo://app?vid=293853c7-264e-4734-92b2-6533b6406ff3"},"vehicle_type_id":"4","last_reported":1727248168,"current_range_meters":32000,"station_id":"ce4bh392rcd13ifvqdm0","pricing_plan_id":"cebpf4jnsgd1na2vs0mg"},{"bike_id":"d635ae88-379e-472c-bb19-2ee49fe4cacd","system_id":"levelo_inurba_marseille","lat":43.26682,"lon":5.38268,"is_reserved":false,"is_disabled":false,"rental_uris":{"android":"levelo://app?vid=d635ae88-379e-472c-bb19-2ee49fe4cacd","ios":"levelo://app?vid=d635ae88-379e-472c-bb19-2ee49fe4cacd"},"vehicle_type_id":"4","last_reported":1727248168,"current_range_meters":38800,"station_id":"ce4bhg92rcd13ifvqf90","pricing_plan_id":"cebpf4jnsgd1na2vs0mg"},{"bike_id":"8fb232c5-d21b-4052-928e-b0f8d765da85","system_id":"levelo_inurba_marseille","lat":43.301496,"lon":5.380662,"is_reserved":false,"is_disabled":false,"rental_uris":{"android":"levelo://app?vid=8fb232c5-d21b-4052-928e-b0f8d765da85","ios":"levelo://app?vid=8fb232c5-d21b-4052-928e-b0f8d765da85"},"vehicle_type_id":"4","last_reported":1727248168,"current_range_meters":36800,"station_id":"ce4bgjp2rcd13ifvqbh0","pricing_plan_id":"cebpf4jnsgd1na2vs0mg"},{"bike_id":"1166f6b1-5b87-4bc1-b21d-c61655b2fee0","system_id":"levelo_inurba_marseille","lat":43.29466,"lon":5.3805,"is_reserved":false,"is_disabled":false,"rental_uris":{"android":"levelo://app?vid=1166f6b1-5b87-4bc1-b21d-c61655b2fee0","ios":"levelo://app?vid=1166f6b1-5b87-4bc1-b21d-c61655b2fee0"},"vehicle_type_id":"4","last_reported":1727248168,"current_range_meters":35600,"station_id":"","pricing_plan_id":"cebpf4jnsgd1na2vs0mg"},{"bike_id":"d29f3eb0-2292-4707-aa60-f9784be6f8f0","system_id":"levelo_inurba_marseille","lat":43.30468,"lon":5.37898,"is_reserved":false,"is_disabled":false,"rental_uris":{"android":"levelo://app?vid=d29f3eb0-2292-4707-aa60-f9784be6f8f0","ios":"levelo://app?vid=d29f3eb0-2292-4707-aa60-f9784be6f8f0"},"vehicle_type_id":"4","last_reported":1727248168,"current_range_meters":39200,"station_id":"ce4bgup2rcd13ifvqcn0","pricing_plan_id":"cebpf4jnsgd1na2vs0mg"},{"bike_id":"4d0d4da6-8077-4217-a5d8-7fe49130d4fc","system_id":"levelo_inurba_marseille","lat":43.2958,"lon":5.374967,"is_reserved":false,"is_disabled":false,"rental_uris":{"android":"levelo://app?vid=4d0d4da6-8077-4217-a5d8-7fe49130d4fc","ios":"levelo://app?vid=4d0d4da6-8077-4217-a5d8-7fe49130d4fc"},"vehicle_type_id":"4","last_reported":1727248168,"current_range_meters":38400,"station_id":"ce4bgh92rcd13ifvqb50","pricing_plan_id":"cebpf4jnsgd1na2vs0mg"},{"bike_id":"5dc754fa-1d19-4d44-b993-96caa13d475c","system_id":"levelo_inurba_marseille","lat":43.29,"lon":5.35615,"is_reserved":false,"is_disabled":false,"rental_uris":{"android":"levelo://app?vid=5dc754fa-1d19-4d44-b993-96caa13d475c","ios":"levelo://app?vid=5dc754fa-1d19-4d44-b993-96caa13d475c"},"vehicle_type_id":"4","last_reported":1727248168,"current_range_meters":38000,"station_id":"ce4bhb92rcd13ifvqen0","pricing_plan_id":"cebpf4jnsgd1na2vs0mg"},{"bike_id":"cc5e4489-c80e-4262-8ba2-1c8318e9e19b","system_id":"levelo_inurba_marseille","lat":43.2904,"lon":5.3995,"is_reserved":false,"is_disabled":false,"rental_uris":{"android":"levelo://app?vid=cc5e4489-c80e-4262-8ba2-1c8318e9e19b","ios":"levelo://app?vid=cc5e4489-c80e-4262-8ba2-1c8318e9e19b"},"vehicle_type_id":"4","last_reported":1727248168,"current_range_meters":33600,"station_id":"ce4bh392rcd13ifvqdm0","pricing_plan_id":"cebpf4jnsgd1na2vs0mg"},{"bike_id":"a9b5ef82-4273-45d0-b93e-a999e67c47fd","system_id":"levelo_inurba_marseille","lat":43.30156,"lon":5.38079,"is_reserved":false,"is_disabled":false,"rental_uris":{"android":"levelo://app?vid=a9b5ef82-4273-45d0-b93e-a999e67c47fd","ios":"levelo://app?vid=a9b5ef82-4273-45d0-b93e-a999e67c47fd"},"vehicle_type_id":"4","last_reported":1727248168,"current_range_meters":38400,"station_id":"ce4bgjp2rcd13ifvqbh0","pricing_plan_id":"cebpf4jnsgd1na2vs0mg"},{"bike_id":"558a4148-098e-431f-b6b5-3a312dd49581","system_id":"levelo_inurba_marseille","lat":43.29194,"lon":5.39326,"is_reserved":false,"is_disabled":false,"rental_uris":{"android":"levelo://app?vid=558a4148-098e-431f-b6b5-3a312dd49581","ios":"levelo://app?vid=558a4148-098e-431f-b6b5-3a312dd49581"},"vehicle_type_id":"4","last_reported":1727248168,"current_range_meters":8000,"station_id":"ce4bh192rcd13ifvqdd0","pricing_plan_id":"cebpf4jnsgd1na2vs0mg"},{"bike_id":"965060d6-b2fd-4407-a1a6-17bbf740ce1d","system_id":"levelo_inurba_marseille","lat":43.299682,"lon":5.384859,"is_reserved":false,"is_disabled":false,"rental_uris":{"android":"levelo://app?vid=965060d6-b2fd-4407-a1a6-17bbf740ce1d","ios":"levelo://app?vid=965060d6-b2fd-4407-a1a6-17bbf740ce1d"},"vehicle_type_id":"4","last_reported":1727248168,"current_range_meters":8400,"station_id":"ce4bgj92rcd13ifvqbd0","pricing_plan_id":"cebpf4jnsgd1na2vs0mg"},{"bike_id":"971728ae-b16c-439d-816f-eec38b5330df","system_id":"levelo_inurba_marseille","lat":43.24085,"lon":5.37746,"is_reserved":false,"is_disabled":false,"rental_uris":{"android":"levelo://app?vid=971728ae-b16c-439d-816f-eec38b5330df","ios":"levelo://app?vid=971728ae-b16c-439d-816f-eec38b5330df"},"vehicle_type_id":"4","last_reported":1727248168,"current_range_meters":24800,"station_id":"ce4bhnp2rcd13ifvqgvg","pricing_plan_id":"cebpf4jnsgd1na2vs0mg"},{"bike_id":"5d22d37c-c8d4-4feb-8685-bf150cafbdc6","system_id":"levelo_inurba_marseille","lat":43.2407,"lon":5.37757,"is_reserved":false,"is_disabled":false,"rental_uris":{"android":"levelo://app?vid=5d22d37c-c8d4-4feb-8685-bf150cafbdc6","ios":"levelo://app?vid=5d22d37c-c8d4-4feb-8685-bf150cafbdc6"},"vehicle_type_id":"4","last_reported":1727248168,"current_range_meters":18800,"station_id":"ce4bhnp2rcd13ifvqgvg","pricing_plan_id":"cebpf4jnsgd1na2vs0mg"},{"bike_id":"a2bb5360-f57b-4646-9d94-94a5829aa2c9","system_id":"levelo_inurba_marseille","lat":43.286406,"lon":5.394216,"is_reserved":false,"is_disabled":false,"rental_uris":{"android":"levelo://app?vid=a2bb5360-f57b-4646-9d94-94a5829aa2c9","ios":"levelo://app?vid=a2bb5360-f57b-4646-9d94-94a5829aa2c9"},"vehicle_type_id":"4","last_reported":1727248168,"current_range_meters":26000,"station_id":"ce4bho12rcd13ifvqh2g","pricing_plan_id":"cebpf4jnsgd1na2vs0mg"},{"bike_id":"9d669928-70c4-4f73-a6f5-ceed2e87e7a7","system_id":"levelo_inurba_marseille","lat":43.30279,"lon":5.37707,"is_reserved":false,"is_disabled":false,"rental_uris":{"android":"levelo://app?vid=9d669928-70c4-4f73-a6f5-ceed2e87e7a7","ios":"levelo://app?vid=9d669928-70c4-4f73-a6f5-ceed2e87e7a7"},"vehicle_type_id":"4","last_reported":1727248168,"current_range_meters":14800,"station_id":"ce4bguh2rcd13ifvqcj0","pricing_plan_id":"cebpf4jnsgd1na2vs0mg"},{"bike_id":"17701005-77c3-4e4f-a0b4-b2ece630517d","system_id":"levelo_inurba_marseille","lat":43.23957,"lon":5.36626,"is_reserved":false,"is_disabled":false,"rental_uris":{"android":"levelo://app?vid=17701005-77c3-4e4f-a0b4-b2ece630517d","ios":"levelo://app?vid=17701005-77c3-4e4f-a0b4-b2ece630517d"},"vehicle_type_id":"4","last_reported":1727248168,"current_range_meters":37600,"station_id":"ce4bhi12rcd13ifvqfp0","pricing_plan_id":"cebpf4jnsgd1na2vs0mg"},{"bike_id":"e5b5a518-90ff-42e8-9546-944cd9c4abde","system_id":"levelo_inurba_marseille","lat":43.28354,"lon":5.38642,"is_reserved":false,"is_disabled":false,"rental_uris":{"android":"levelo://app?vid=e5b5a518-90ff-42e8-9546-944cd9c4abde","ios":"levelo://app?vid=e5b5a518-90ff-42e8-9546-944cd9c4abde"},"vehicle_type_id":"4","last_reported":1727248168,"current_range_meters":24400,"station_id":"ce4bh492rcd13ifvqdvg","pricing_plan_id":"cebpf4jnsgd1na2vs0mg"},{"bike_id":"20b02bf8-7c07-47cd-bbba-31b992e68154","system_id":"levelo_inurba_marseille","lat":43.30163,"lon":5.38083,"is_reserved":false,"is_disabled":false,"rental_uris":{"android":"levelo://app?vid=20b02bf8-7c07-47cd-bbba-31b992e68154","ios":"levelo://app?vid=20b02bf8-7c07-47cd-bbba-31b992e68154"},"vehicle_type_id":"4","last_reported":1727248168,"current_range_meters":38000,"station_id":"ce4bgjp2rcd13ifvqbh0","pricing_plan_id":"cebpf4jnsgd1na2vs0mg"},{"bike_id":"778731f7-47c1-44a1-aa54-fde700589853","system_id":"levelo_inurba_marseille","lat":43.27497,"lon":5.42449,"is_reserved":false,"is_disabled":false,"rental_uris":{"android":"levelo://app?vid=778731f7-47c1-44a1-aa54-fde700589853","ios":"levelo://app?vid=778731f7-47c1-44a1-aa54-fde700589853"},"vehicle_type_id":"4","last_reported":1727248168,"current_range_meters":30400,"station_id":"ce4bhn92rcd13ifvqgrg","pricing_plan_id":"cebpf4jnsgd1na2vs0mg"},{"bike_id":"6d2ace27-581b-4911-927f-71cca3b713c7","system_id":"levelo_inurba_marseille","lat":43.28975,"lon":5.37833,"is_reserved":false,"is_disabled":false,"rental_uris":{"android":"levelo://app?vid=6d2ace27-581b-4911-927f-71cca3b713c7","ios":"levelo://app?vid=6d2ace27-581b-4911-927f-71cca3b713c7"},"vehicle_type_id":"4","last_reported":1727248168,"current_range_meters":27200,"station_id":"ce4bh9p2rcd13ifvqed0","pricing_plan_id":"cebpf4jnsgd1na2vs0mg"},{"bike_id":"99d2bc06-1525-4bf7-b18c-bd3b7f1e5bfb","system_id":"levelo_inurba_marseille","lat":43.29042,"lon":5.39967,"is_reserved":false,"is_disabled":false,"rental_uris":{"android":"levelo://app?vid=99d2bc06-1525-4bf7-b18c-bd3b7f1e5bfb","ios":"levelo://app?vid=99d2bc06-1525-4bf7-b18c-bd3b7f1e5bfb"},"vehicle_type_id":"4","last_reported":1727248168,"current_range_meters":16400,"station_id":"ce4bh392rcd13ifvqdm0","pricing_plan_id":"cebpf4jnsgd1na2vs0mg"},{"bike_id":"446967e6-5e29-4614-86b5-cf8ba87a8277","system_id":"levelo_inurba_marseille","lat":43.28385,"lon":5.38646,"is_reserved":false,"is_disabled":false,"rental_uris":{"android":"levelo://app?vid=446967e6-5e29-4614-86b5-cf8ba87a8277","ios":"levelo://app?vid=446967e6-5e29-4614-86b5-cf8ba87a8277"},"vehicle_type_id":"4","last_reported":1727248168,"current_range_meters":21600,"station_id":"ce4bh492rcd13ifvqdvg","pricing_plan_id":"cebpf4jnsgd1na2vs0mg"},{"bike_id":"805b73b5-3092-469c-a807-90eca85ddb93","system_id":"levelo_inurba_marseille","lat":43.246521,"lon":5.388945,"is_reserved":false,"is_disabled":false,"rental_uris":{"android":"levelo://app?vid=805b73b5-3092-469c-a807-90eca85ddb93","ios":"levelo://app?vid=805b73b5-3092-469c-a807-90eca85ddb93"},"vehicle_type_id":"4","last_reported":1727248168,"current_range_meters":30400,"station_id":"ce4bhg12rcd13ifvqf60","pricing_plan_id":"cebpf4jnsgd1na2vs0mg"},{"bike_id":"a1a846a2-9a5b-47db-b5fa-dfc2bd0af4cf","system_id":"levelo_inurba_marseille","lat":43.3361,"lon":5.41028,"is_reserved":false,"is_disabled":false,"rental_uris":{"android":"levelo://app?vid=a1a846a2-9a5b-47db-b5fa-dfc2bd0af4cf","ios":"levelo://app?vid=a1a846a2-9a5b-47db-b5fa-dfc2bd0af4cf"},"vehicle_type_id":"4","last_reported":1727248168,"current_range_meters":12000,"station_id":"ce4bhqh2rcd13ifvqhmg","pricing_plan_id":"cebpf4jnsgd1na2vs0mg"},{"bike_id":"7e9e8414-11aa-4516-a0ba-b99da07411a2","system_id":"levelo_inurba_marseille","lat":43.2408,"lon":5.3776,"is_reserved":false,"is_disabled":false,"rental_uris":{"android":"levelo://app?vid=7e9e8414-11aa-4516-a0ba-b99da07411a2","ios":"levelo://app?vid=7e9e8414-11aa-4516-a0ba-b99da07411a2"},"vehicle_type_id":"4","last_reported":1727248168,"current_range_meters":17200,"station_id":"ce4bhnp2rcd13ifvqgvg","pricing_plan_id":"cebpf4jnsgd1na2vs0mg"},{"bike_id":"ffe3f3be-fbab-432a-b383-bbac6c6aab79","system_id":"levelo_inurba_marseille","lat":43.33734,"lon":5.3918,"is_reserved":false,"is_disabled":false,"rental_uris":{"android":"levelo://app?vid=ffe3f3be-fbab-432a-b383-bbac6c6aab79","ios":"levelo://app?vid=ffe3f3be-fbab-432a-b383-bbac6c6aab79"},"vehicle_type_id":"4","last_reported":1727248168,"current_range_meters":35200,"station_id":"ce4bhr92rcd13ifvqhsg","pricing_plan_id":"cebpf4jnsgd1na2vs0mg"},{"bike_id":"d5aa1add-115d-4e1a-b824-66ecde93a367","system_id":"levelo_inurba_marseille","lat":43.24077,"lon":5.37747,"is_reserved":false,"is_disabled":false,"rental_uris":{"android":"levelo://app?vid=d5aa1add-115d-4e1a-b824-66ecde93a367","ios":"levelo://app?vid=d5aa1add-115d-4e1a-b824-66ecde93a367"},"vehicle_type_id":"4","last_reported":1727248168,"current_range_meters":8800,"station_id":"ce4bhnp2rcd13ifvqgvg","pricing_plan_id":"cebpf4jnsgd1na2vs0mg"},{"bike_id":"5aa05a57-d014-4c37-8c67-d2b5705209eb","system_id":"levelo_inurba_marseille","lat":43.24081,"lon":5.37754,"is_reserved":false,"is_disabled":false,"rental_uris":{"android":"levelo://app?vid=5aa05a57-d014-4c37-8c67-d2b5705209eb","ios":"levelo://app?vid=5aa05a57-d014-4c37-8c67-d2b5705209eb"},"vehicle_type_id":"4","last_reported":1727248168,"current_range_meters":37600,"station_id":"ce4bhnp2rcd13ifvqgvg","pricing_plan_id":"cebpf4jnsgd1na2vs0mg"},{"bike_id":"eec3eb1f-631d-43e1-8834-dea90b68d531","system_id":"levelo_inurba_marseille","lat":43.27494,"lon":5.42453,"is_reserved":false,"is_disabled":false,"rental_uris":{"android":"levelo://app?vid=eec3eb1f-631d-43e1-8834-dea90b68d531","ios":"levelo://app?vid=eec3eb1f-631d-43e1-8834-dea90b68d531"},"vehicle_type_id":"4","last_reported":1727248168,"current_range_meters":17200,"station_id":"ce4bhn92rcd13ifvqgrg","pricing_plan_id":"cebpf4jnsgd1na2vs0mg"},{"bike_id":"443846fb-f944-465d-b555-6ec61625da4f","system_id":"levelo_inurba_marseille","lat":43.337444,"lon":5.374475,"is_reserved":false,"is_disabled":false,"rental_uris":{"android":"levelo://app?vid=443846fb-f944-465d-b555-6ec61625da4f","ios":"levelo://app?vid=443846fb-f944-465d-b555-6ec61625da4f"},"vehicle_type_id":"4","last_reported":1727248168,"current_range_meters":38400,"station_id":"","pricing_plan_id":"cebpf4jnsgd1na2vs0mg"},{"bike_id":"4c43b43f-be17-43d2-95e0-fab0c099fe37","system_id":"levelo_inurba_marseille","lat":43.23161,"lon":5.43699,"is_reserved":false,"is_disabled":false,"rental_uris":{"android":"levelo://app?vid=4c43b43f-be17-43d2-95e0-fab0c099fe37","ios":"levelo://app?vid=4c43b43f-be17-43d2-95e0-fab0c099fe37"},"vehicle_type_id":"4","last_reported":1727248168,"current_range_meters":38000,"station_id":"ce4bhmp2rcd13ifvqgog","pricing_plan_id":"cebpf4jnsgd1na2vs0mg"},{"bike_id":"f13b5842-2560-4fa6-9369-5b46c10fc959","system_id":"levelo_inurba_marseille","lat":43.29901,"lon":5.38142,"is_reserved":false,"is_disabled":false,"rental_uris":{"android":"levelo://app?vid=f13b5842-2560-4fa6-9369-5b46c10fc959","ios":"levelo://app?vid=f13b5842-2560-4fa6-9369-5b46c10fc959"},"vehicle_type_id":"4","last_reported":1727248168,"current_range_meters":37600,"station_id":"ce4bgj12rcd13ifvqbc0","pricing_plan_id":"cebpf4jnsgd1na2vs0mg"},{"bike_id":"a7bca3df-0344-4204-86d7-b742d4769839","system_id":"levelo_inurba_marseille","lat":43.30863,"lon":5.3685,"is_reserved":false,"is_disabled":false,"rental_uris":{"android":"levelo://app?vid=a7bca3df-0344-4204-86d7-b742d4769839","ios":"levelo://app?vid=a7bca3df-0344-4204-86d7-b742d4769839"},"vehicle_type_id":"4","last_reported":1727248168,"current_range_meters":28800,"station_id":"ce4bgn92rcd13ifvqbvg","pricing_plan_id":"cebpf4jnsgd1na2vs0mg"},{"bike_id":"a5f55373-698d-437b-8ca1-cf29ecbe349b","system_id":"levelo_inurba_marseille","lat":43.27498,"lon":5.42453,"is_reserved":false,"is_disabled":false,"rental_uris":{"android":"levelo://app?vid=a5f55373-698d-437b-8ca1-cf29ecbe349b","ios":"levelo://app?vid=a5f55373-698d-437b-8ca1-cf29ecbe349b"},"vehicle_type_id":"4","last_reported":1727248168,"current_range_meters":32000,"station_id":"ce4bhn92rcd13ifvqgrg","pricing_plan_id":"cebpf4jnsgd1na2vs0mg"},{"bike_id":"7a8a0800-f777-46b2-8e82-362f8ebbd9e6","system_id":"levelo_inurba_marseille","lat":43.3239,"lon":5.38366,"is_reserved":false,"is_disabled":false,"rental_uris":{"android":"levelo://app?vid=7a8a0800-f777-46b2-8e82-362f8ebbd9e6","ios":"levelo://app?vid=7a8a0800-f777-46b2-8e82-362f8ebbd9e6"},"vehicle_type_id":"4","last_reported":1727248168,"current_range_meters":28000,"station_id":"","pricing_plan_id":"cebpf4jnsgd1na2vs0mg"},{"bike_id":"eeb1ed36-5445-4830-b3dc-4129e5d79b08","system_id":"levelo_inurba_marseille","lat":43.29378,"lon":5.37862,"is_reserved":false,"is_disabled":false,"rental_uris":{"android":"levelo://app?vid=eeb1ed36-5445-4830-b3dc-4129e5d79b08","ios":"levelo://app?vid=eeb1ed36-5445-4830-b3dc-4129e5d79b08"},"vehicle_type_id":"4","last_reported":1727248168,"current_range_meters":3600,"station_id":"ce4bgjh2rcd13ifvqbf0","pricing_plan_id":"cebpf4jnsgd1na2vs0mg"},{"bike_id":"7827170f-fe53-4f76-acc5-1f9d10e67145","system_id":"levelo_inurba_marseille","lat":43.22932,"lon":5.35375,"is_reserved":false,"is_disabled":false,"rental_uris":{"android":"levelo://app?vid=7827170f-fe53-4f76-acc5-1f9d10e67145","ios":"levelo://app?vid=7827170f-fe53-4f76-acc5-1f9d10e67145"},"vehicle_type_id":"4","last_reported":1727248168,"current_range_meters":38400,"station_id":"cpo3532slgdg3j2ikp40","pricing_plan_id":"cebpf4jnsgd1na2vs0mg"},{"bike_id":"d831a0c8-0bcd-4449-91a5-836df1a52d4b","system_id":"levelo_inurba_marseille","lat":43.307183,"lon":5.37276,"is_reserved":false,"is_disabled":false,"rental_uris":{"android":"levelo://app?vid=d831a0c8-0bcd-4449-91a5-836df1a52d4b","ios":"levelo://app?vid=d831a0c8-0bcd-4449-91a5-836df1a52d4b"},"vehicle_type_id":"4","last_reported":1727248168,"current_range_meters":11200,"station_id":"","pricing_plan_id":"cebpf4jnsgd1na2vs0mg"},{"bike_id":"37ea3e6e-16e9-42b3-b4f9-836c84a7a894","system_id":"levelo_inurba_marseille","lat":43.23187,"lon":5.39988,"is_reserved":false,"is_disabled":false,"rental_uris":{"android":"levelo://app?vid=37ea3e6e-16e9-42b3-b4f9-836c84a7a894","ios":"levelo://app?vid=37ea3e6e-16e9-42b3-b4f9-836c84a7a894"},"vehicle_type_id":"4","last_reported":1727248168,"current_range_meters":28000,"station_id":"ce4bhn12rcd13ifvqgqg","pricing_plan_id":"cebpf4jnsgd1na2vs0mg"},{"bike_id":"337d797f-5bad-4e42-a3a9-741eceae0aa0","system_id":"levelo_inurba_marseille","lat":43.33719,"lon":5.39178,"is_reserved":false,"is_disabled":false,"rental_uris":{"android":"levelo://app?vid=337d797f-5bad-4e42-a3a9-741eceae0aa0","ios":"levelo://app?vid=337d797f-5bad-4e42-a3a9-741eceae0aa0"},"vehicle_type_id":"4","last_reported":1727248168,"current_range_meters":38800,"station_id":"ce4bhr92rcd13ifvqhsg","pricing_plan_id":"cebpf4jnsgd1na2vs0mg"},{"bike_id":"c429e26a-1acd-4e91-9809-a448ccb99898","system_id":"levelo_inurba_marseille","lat":43.28124,"lon":5.40594,"is_reserved":false,"is_disabled":false,"rental_uris":{"android":"levelo://app?vid=c429e26a-1acd-4e91-9809-a448ccb99898","ios":"levelo://app?vid=c429e26a-1acd-4e91-9809-a448ccb99898"},"vehicle_type_id":"4","last_reported":1727248168,"current_range_meters":36400,"station_id":"","pricing_plan_id":"cebpf4jnsgd1na2vs0mg"},{"bike_id":"7d13bfe6-cac1-417a-a866-11f3f6431dbc","system_id":"levelo_inurba_marseille","lat":43.28852,"lon":5.37129,"is_reserved":false,"is_disabled":false,"rental_uris":{"android":"levelo://app?vid=7d13bfe6-cac1-417a-a866-11f3f6431dbc","ios":"levelo://app?vid=7d13bfe6-cac1-417a-a866-11f3f6431dbc"},"vehicle_type_id":"4","last_reported":1727248168,"current_range_meters":27600,"station_id":"ce4bht12rcd13ifvqi60","pricing_plan_id":"cebpf4jnsgd1na2vs0mg"},{"bike_id":"4a4bfd88-bdfc-4802-b3a8-e798e4274727","system_id":"levelo_inurba_marseille","lat":43.322894,"lon":5.382599,"is_reserved":false,"is_disabled":false,"rental_uris":{"android":"levelo://app?vid=4a4bfd88-bdfc-4802-b3a8-e798e4274727","ios":"levelo://app?vid=4a4bfd88-bdfc-4802-b3a8-e798e4274727"},"vehicle_type_id":"4","last_reported":1727248168,"current_range_meters":29600,"station_id":"ce4bhr12rcd13ifvqhqg","pricing_plan_id":"cebpf4jnsgd1na2vs0mg"},{"bike_id":"c45a7f0a-4a63-4e52-83c7-4e6e6e3fd40c","system_id":"levelo_inurba_marseille","lat":43.2985,"lon":5.36282,"is_reserved":false,"is_disabled":false,"rental_uris":{"android":"levelo://app?vid=c45a7f0a-4a63-4e52-83c7-4e6e6e3fd40c","ios":"levelo://app?vid=c45a7f0a-4a63-4e52-83c7-4e6e6e3fd40c"},"vehicle_type_id":"4","last_reported":1727248168,"current_range_meters":18800,"station_id":"ce4bgpp2rcd13ifvqc3g","pricing_plan_id":"cebpf4jnsgd1na2vs0mg"},{"bike_id":"86898526-a4d9-47cf-b306-df317b0d9e78","system_id":"levelo_inurba_marseille","lat":43.23193,"lon":5.35554,"is_reserved":false,"is_disabled":false,"rental_uris":{"android":"levelo://app?vid=86898526-a4d9-47cf-b306-df317b0d9e78","ios":"levelo://app?vid=86898526-a4d9-47cf-b306-df317b0d9e78"},"vehicle_type_id":"4","last_reported":1727248168,"current_range_meters":19200,"station_id":"ce4bhu92rcd13ifvqi70","pricing_plan_id":"cebpf4jnsgd1na2vs0mg"},{"bike_id":"6d96f985-9c01-48a6-84cc-38d4437fa126","system_id":"levelo_inurba_marseille","lat":43.23162,"lon":5.43699,"is_reserved":false,"is_disabled":false,"rental_uris":{"android":"levelo://app?vid=6d96f985-9c01-48a6-84cc-38d4437fa126","ios":"levelo://app?vid=6d96f985-9c01-48a6-84cc-38d4437fa126"},"vehicle_type_id":"4","last_reported":1727248168,"current_range_meters":14400,"station_id":"ce4bhmp2rcd13ifvqgog","pricing_plan_id":"cebpf4jnsgd1na2vs0mg"},{"bike_id":"6e26fd40-fb44-40d1-afbb-79f17e933784","system_id":"levelo_inurba_marseille","lat":43.30958,"lon":5.39048,"is_reserved":false,"is_disabled":false,"rental_uris":{"android":"levelo://app?vid=6e26fd40-fb44-40d1-afbb-79f17e933784","ios":"levelo://app?vid=6e26fd40-fb44-40d1-afbb-79f17e933784"},"vehicle_type_id":"4","last_reported":1727248168,"current_range_meters":34800,"station_id":"ce4bgup2rcd13ifvqco0","pricing_plan_id":"cebpf4jnsgd1na2vs0mg"},{"bike_id":"088e77ea-c6dc-49e4-97ac-06fc9ccf17d3","system_id":"levelo_inurba_marseille","lat":43.33607,"lon":5.41033,"is_reserved":false,"is_disabled":false,"rental_uris":{"android":"levelo://app?vid=088e77ea-c6dc-49e4-97ac-06fc9ccf17d3","ios":"levelo://app?vid=088e77ea-c6dc-49e4-97ac-06fc9ccf17d3"},"vehicle_type_id":"4","last_reported":1727248168,"current_range_meters":30800,"station_id":"ce4bhqh2rcd13ifvqhmg","pricing_plan_id":"cebpf4jnsgd1na2vs0mg"},{"bike_id":"83ba5108-5b0a-4d30-bc54-2eaa9d223d59","system_id":"levelo_inurba_marseille","lat":43.30463,"lon":5.37902,"is_reserved":false,"is_disabled":false,"rental_uris":{"android":"levelo://app?vid=83ba5108-5b0a-4d30-bc54-2eaa9d223d59","ios":"levelo://app?vid=83ba5108-5b0a-4d30-bc54-2eaa9d223d59"},"vehicle_type_id":"4","last_reported":1727248168,"current_range_meters":27600,"station_id":"ce4bgup2rcd13ifvqcn0","pricing_plan_id":"cebpf4jnsgd1na2vs0mg"},{"bike_id":"95b59248-193a-47df-9847-7d547353f860","system_id":"levelo_inurba_marseille","lat":43.3047,"lon":5.37915,"is_reserved":false,"is_disabled":false,"rental_uris":{"android":"levelo://app?vid=95b59248-193a-47df-9847-7d547353f860","ios":"levelo://app?vid=95b59248-193a-47df-9847-7d547353f860"},"vehicle_type_id":"4","last_reported":1727248168,"current_range_meters":35200,"station_id":"ce4bgup2rcd13ifvqcn0","pricing_plan_id":"cebpf4jnsgd1na2vs0mg"},{"bike_id":"a75a7a82-b383-49ec-a2cc-d6ad20e46f8d","system_id":"levelo_inurba_marseille","lat":43.30801,"lon":5.43522,"is_reserved":false,"is_disabled":false,"rental_uris":{"android":"levelo://app?vid=a75a7a82-b383-49ec-a2cc-d6ad20e46f8d","ios":"levelo://app?vid=a75a7a82-b383-49ec-a2cc-d6ad20e46f8d"},"vehicle_type_id":"4","last_reported":1727248168,"current_range_meters":37600,"station_id":"ce4bhph2rcd13ifvqheg","pricing_plan_id":"cebpf4jnsgd1na2vs0mg"},{"bike_id":"9ac9d415-314c-47c9-83c9-409ec35ee620","system_id":"levelo_inurba_marseille","lat":43.24077,"lon":5.3776,"is_reserved":false,"is_disabled":false,"rental_uris":{"android":"levelo://app?vid=9ac9d415-314c-47c9-83c9-409ec35ee620","ios":"levelo://app?vid=9ac9d415-314c-47c9-83c9-409ec35ee620"},"vehicle_type_id":"4","last_reported":1727248168,"current_range_meters":38400,"station_id":"ce4bhnp2rcd13ifvqgvg","pricing_plan_id":"cebpf4jnsgd1na2vs0mg"},{"bike_id":"0fa02f19-62ea-444b-908b-23c26cd28fb0","system_id":"levelo_inurba_marseille","lat":43.30142,"lon":5.37413,"is_reserved":false,"is_disabled":false,"rental_uris":{"android":"levelo://app?vid=0fa02f19-62ea-444b-908b-23c26cd28fb0","ios":"levelo://app?vid=0fa02f19-62ea-444b-908b-23c26cd28fb0"},"vehicle_type_id":"4","last_reported":1727248168,"current_range_meters":28000,"station_id":"ce4bgs92rcd13ifvqcc0","pricing_plan_id":"cebpf4jnsgd1na2vs0mg"},{"bike_id":"a457d92a-695b-454c-9de4-5838024264af","system_id":"levelo_inurba_marseille","lat":43.28476,"lon":5.39863,"is_reserved":false,"is_disabled":false,"rental_uris":{"android":"levelo://app?vid=a457d92a-695b-454c-9de4-5838024264af","ios":"levelo://app?vid=a457d92a-695b-454c-9de4-5838024264af"},"vehicle_type_id":"4","last_reported":1727248168,"current_range_meters":37600,"station_id":"ce4bhhh2rcd13ifvqfl0","pricing_plan_id":"cebpf4jnsgd1na2vs0mg"},{"bike_id":"369b1beb-2cbc-4e0f-a5a8-aa67ec72f487","system_id":"levelo_inurba_marseille","lat":43.27423,"lon":5.3941,"is_reserved":false,"is_disabled":false,"rental_uris":{"android":"levelo://app?vid=369b1beb-2cbc-4e0f-a5a8-aa67ec72f487","ios":"levelo://app?vid=369b1beb-2cbc-4e0f-a5a8-aa67ec72f487"},"vehicle_type_id":"4","last_reported":1727248168,"current_range_meters":8800,"station_id":"ce4bhdp2rcd13ifvqf20","pricing_plan_id":"cebpf4jnsgd1na2vs0mg"},{"bike_id":"d9e526aa-7af6-44d6-9fe4-de89008e8879","system_id":"levelo_inurba_marseille","lat":43.28948,"lon":5.36402,"is_reserved":false,"is_disabled":false,"rental_uris":{"android":"levelo://app?vid=d9e526aa-7af6-44d6-9fe4-de89008e8879","ios":"levelo://app?vid=d9e526aa-7af6-44d6-9fe4-de89008e8879"},"vehicle_type_id":"4","last_reported":1727248168,"current_range_meters":35200,"station_id":"ce4bhc92rcd13ifvqetg","pricing_plan_id":"cebpf4jnsgd1na2vs0mg"},{"bike_id":"42550025-67db-4121-a821-98bc0072167e","system_id":"levelo_inurba_marseille","lat":43.30268,"lon":5.38419,"is_reserved":false,"is_disabled":false,"rental_uris":{"android":"levelo://app?vid=42550025-67db-4121-a821-98bc0072167e","ios":"levelo://app?vid=42550025-67db-4121-a821-98bc0072167e"},"vehicle_type_id":"4","last_reported":1727248168,"current_range_meters":19600,"station_id":"ce4bguh2rcd13ifvqcj0","pricing_plan_id":"cebpf4jnsgd1na2vs0mg"},{"bike_id":"5e787303-50e2-4b6f-ac85-c0e6d3015235","system_id":"levelo_inurba_marseille","lat":43.29899,"lon":5.4366,"is_reserved":false,"is_disabled":false,"rental_uris":{"android":"levelo://app?vid=5e787303-50e2-4b6f-ac85-c0e6d3015235","ios":"levelo://app?vid=5e787303-50e2-4b6f-ac85-c0e6d3015235"},"vehicle_type_id":"4","last_reported":1727248168,"current_range_meters":38000,"station_id":"ce4bhpp2rcd13ifvqhfg","pricing_plan_id":"cebpf4jnsgd1na2vs0mg"},{"bike_id":"ede37da0-431f-462e-af97-45c71435ab2a","system_id":"levelo_inurba_marseille","lat":43.24181,"lon":5.39716,"is_reserved":false,"is_disabled":false,"rental_uris":{"android":"levelo://app?vid=ede37da0-431f-462e-af97-45c71435ab2a","ios":"levelo://app?vid=ede37da0-431f-462e-af97-45c71435ab2a"},"vehicle_type_id":"4","last_reported":1727248168,"current_range_meters":22000,"station_id":"ce4bhn12rcd13ifvqgpg","pricing_plan_id":"cebpf4jnsgd1na2vs0mg"},{"bike_id":"5f382580-7123-4ed7-9363-794ed4ff431e","system_id":"levelo_inurba_marseille","lat":43.304657,"lon":5.37906,"is_reserved":false,"is_disabled":false,"rental_uris":{"android":"levelo://app?vid=5f382580-7123-4ed7-9363-794ed4ff431e","ios":"levelo://app?vid=5f382580-7123-4ed7-9363-794ed4ff431e"},"vehicle_type_id":"4","last_reported":1727248168,"current_range_meters":39200,"station_id":"ce4bgup2rcd13ifvqcn0","pricing_plan_id":"cebpf4jnsgd1na2vs0mg"},{"bike_id":"7e4ac136-a5e1-4bb6-95e3-1ac7c58dfb31","system_id":"levelo_inurba_marseille","lat":43.30952,"lon":5.39039,"is_reserved":false,"is_disabled":false,"rental_uris":{"android":"levelo://app?vid=7e4ac136-a5e1-4bb6-95e3-1ac7c58dfb31","ios":"levelo://app?vid=7e4ac136-a5e1-4bb6-95e3-1ac7c58dfb31"},"vehicle_type_id":"4","last_reported":1727248168,"current_range_meters":34800,"station_id":"ce4bgup2rcd13ifvqco0","pricing_plan_id":"cebpf4jnsgd1na2vs0mg"},{"bike_id":"eded2c3d-555a-4278-8c69-4bf8c363d29a","system_id":"levelo_inurba_marseille","lat":43.29526,"lon":5.37499,"is_reserved":false,"is_disabled":false,"rental_uris":{"android":"levelo://app?vid=eded2c3d-555a-4278-8c69-4bf8c363d29a","ios":"levelo://app?vid=eded2c3d-555a-4278-8c69-4bf8c363d29a"},"vehicle_type_id":"4","last_reported":1727248168,"current_range_meters":38400,"station_id":"ce4bgkp2rcd13ifvqbmg","pricing_plan_id":"cebpf4jnsgd1na2vs0mg"},{"bike_id":"5a424b04-e0fc-4717-afab-aacb064c7c38","system_id":"levelo_inurba_marseille","lat":43.3015,"lon":5.38079,"is_reserved":false,"is_disabled":false,"rental_uris":{"android":"levelo://app?vid=5a424b04-e0fc-4717-afab-aacb064c7c38","ios":"levelo://app?vid=5a424b04-e0fc-4717-afab-aacb064c7c38"},"vehicle_type_id":"4","last_reported":1727248168,"current_range_meters":38000,"station_id":"ce4bgjp2rcd13ifvqbh0","pricing_plan_id":"cebpf4jnsgd1na2vs0mg"},