{"last_updated":1747661104,"ttl":60,"version":"2.2","data":{"bikes":[{"bike_id":"7734afa6-78b3-4ebc-812a-2e6ce32354eb","system_id":"levelo_inurba_marseille","lat":43.27977,"lon":5.38741,"is_reserved":false,"is_disabled":false,"rental_uris":{"android":"levelo://app?vid=7734afa6-78b3-4ebc-812a-2e6ce32354eb","ios":"levelo://app?vid=7734afa6-78b3-4ebc-812a-2e6ce32354eb"},"vehicle_type_id":"4","last_reported":1747661104,"current_range_meters":2800,"station_id":"ce4bhg12rcd13ifvqf80","pricing_plan_id":"cebpf4jnsgd1na2vs0mg"},{"bike_id":"cec54d7e-d056-4712-8cdd-16bb55f34b6f","system_id":"levelo_inurba_marseille","lat":43.27211,"lon":5.39219,"is_reserved":false,"is_disabled":false,"rental_uris":{"android":"levelo://app?vid=cec54d7e-d056-4712-8cdd-16bb55f34b6f","ios":"levelo://app?vid=cec54d7e-d056-4712-8cdd-16bb55f34b6f"},"vehicle_type_id":"4","last_reported":1747661104,"current_range_meters":3200,"station_id":"ce4bhhp2rcd13ifvqfm0","pricing_plan_id":"cebpf4jnsgd1na2vs0mg"},{"bike_id":"8e3c1e6a-6b14-4e73-94e9-63687cc30dfa","system_id":"levelo_inurba_marseille","lat":43.28269,"lon":5.35057,"is_reserved":false,"is_disabled":false,"rental_uris":{"android":"levelo://app?vid=8e3c1e6a-6b14-4e73-94e9-63687cc30dfa","ios":"levelo://app?vid=8e3c1e6a-6b14-4e73-94e9-63687cc30dfa"},"vehicle_type_id":"4","last_reported":1747661104,"current_range_meters":3200,"station_id":"ce4bhbp2rcd13ifvqerg","pricing_plan_id":"cebpf4jnsgd1na2vs0mg"},{"bike_id":"236b6fdb-be79-4803-8cc0-f848b85382db","system_id":"levelo_inurba_marseille","lat":43.29375,"lon":5.37839,"is_reserved":false,"is_disabled":false,"rental_uris":{"android":"levelo://app?vid=236b6fdb-be79-4803-8cc0-f848b85382db","ios":"levelo://app?vid=236b6fdb-be79-4803-8cc0-f848b85382db"},"vehicle_type_id":"4","last_reported":1747661104,"current_range_meters":3200,"station_id":"ce4bgjh2rcd13ifvqbf0","pricing_plan_id":"cebpf4jnsgd1na2vs0mg"},{"bike_id":"b913be9d-6cb6-4776-bb2a-55ee4407f99f","system_id":"levelo_inurba_marseille","lat":43.29034,"lon":5.38648,"is_reserved":false,"is_disabled":false,"rental_uris":{"android":"levelo://app?vid=b913be9d-6cb6-4776-bb2a-55ee4407f99f","ios":"levelo://app?vid=b913be9d-6cb6-4776-bb2a-55ee4407f99f"},"vehicle_type_id":"4","last_reported":1747661104,"current_range_meters":3200,"station_id":"ce4bh4p2rcd13ifvqe0g","pricing_plan_id":"cebpf4jnsgd1na2vs0mg"},{"bike_id":"c0db4030-ef30-480b-a735-af5435a471ed","system_id":"levelo_inurba_marseille","lat":43.27754,"lon":5.4271,"is_reserved":false,"is_disabled":false,"rental_uris":{"android":"levelo://app?vid=c0db4030-ef30-480b-a735-af5435a471ed","ios":"levelo://app?vid=c0db4030-ef30-480b-a735-af5435a471ed"},"vehicle_type_id":"4","last_reported":1747661104,"current_range_meters":3600,"station_id":"","pricing_plan_id":"cebpf4jnsgd1na2vs0mg"},{"bike_id":"57fc05c6-20fb-46f3-8d3c-17cd06e85533","system_id":"levelo_inurba_marseille","lat":43.25866,"lon":5.39899,"is_reserved":false,"is_disabled":false,"rental_uris":{"android":"levelo://app?vid=57fc05c6-20fb-46f3-8d3c-17cd06e85533","ios":"levelo://app?vid=57fc05c6-20fb-46f3-8d3c-17cd06e85533"},"vehicle_type_id":"4","last_reported":1747661104,"current_range_meters":4000,"station_id":"ce4bhl92rcd13ifvqghg","pricing_plan_id":"cebpf4jnsgd1na2vs0mg"},{"bike_id":"d2d53636-698a-4546-82e1-602231c69aeb","system_id":"levelo_inurba_marseille","lat":43.29281,"lon":5.38439,"is_reserved":false,"is_disabled":false,"rental_uris":{"android":"levelo://app?vid=d2d53636-698a-4546-82e1-602231c69aeb","ios":"levelo://app?vid=d2d53636-698a-4546-82e1-602231c69aeb"},"vehicle_type_id":"4","last_reported":1747661104,"current_range_meters":4000,"station_id":"ce4bh692rcd13ifvqea0","pricing_plan_id":"cebpf4jnsgd1na2vs0mg"},{"bike_id":"af123cd5-748f-45ad-8266-8c9ac1edae13","system_id":"levelo_inurba_marseille","lat":43.25729,"lon":5.41144,"is_reserved":false,"is_disabled":false,"rental_uris":{"android":"levelo://app?vid=af123cd5-748f-45ad-8266-8c9ac1edae13","ios":"levelo://app?vid=af123cd5-748f-45ad-8266-8c9ac1edae13"},"vehicle_type_id":"4","last_reported":1747661104,"current_range_meters":4000,"station_id":"ce4bhkp2rcd13ifvqgd0","pricing_plan_id":"cebpf4jnsgd1na2vs0mg"},{"bike_id":"d0658014-ae79-4072-ab98-5fe628ae2900","system_id":"levelo_inurba_marseille","lat":43.27379,"lon":5.36254,"is_reserved":false,"is_disabled":false,"rental_uris":{"android":"levelo://app?vid=d0658014-ae79-4072-ab98-5fe628ae2900","ios":"levelo://app?vid=d0658014-ae79-4072-ab98-5fe628ae2900"},"vehicle_type_id":"4","last_reported":1747661104,"current_range_meters":4000,"station_id":"ce4bhbh2rcd13ifvqeo0","pricing_plan_id":"cebpf4jnsgd1na2vs0mg"},{"bike_id":"437e4313-86f3-474d-81c2-923d9fa58af5","system_id":"levelo_inurba_marseille","lat":43.30173,"lon":5.36605,"is_reserved":false,"is_disabled":false,"rental_uris":{"android":"levelo://app?vid=437e4313-86f3-474d-81c2-923d9fa58af5","ios":"levelo://app?vid=437e4313-86f3-474d-81c2-923d9fa58af5"},"vehicle_type_id":"4","last_reported":1747661104,"current_range_meters":3600,"station_id":"ce4bgrh2rcd13ifvqc8g","pricing_plan_id":"cebpf4jnsgd1na2vs0mg"},{"bike_id":"40513aed-7be2-4501-aa67-fe1129806284","system_id":"levelo_inurba_marseille","lat":43.26195,"lon":5.37447,"is_reserved":false,"is_disabled":false,"rental_uris":{"android":"levelo://app?vid=40513aed-7be2-4501-aa67-fe1129806284","ios":"levelo://app?vid=40513aed-7be2-4501-aa67-fe1129806284"},"vehicle_type_id":"4","last_reported":1747661104,"current_range_meters":4000,"station_id":"ce4bhgp2rcd13ifvqfc0","pricing_plan_id":"cebpf4jnsgd1na2vs0mg"},{"bike_id":"ae7190ea-2b44-41bf-be14-02c16bda8a19","system_id":"levelo_inurba_marseille","lat":43.27685,"lon":5.38852,"is_reserved":false,"is_disabled":false,"rental_uris":{"android":"levelo://app?vid=ae7190ea-2b44-41bf-be14-02c16bda8a19","ios":"levelo://app?vid=ae7190ea-2b44-41bf-be14-02c16bda8a19"},"vehicle_type_id":"4","last_reported":1747661104,"current_range_meters":4400,"station_id":"ce4bhi12rcd13ifvqfo0","pricing_plan_id":"cebpf4jnsgd1na2vs0mg"},{"bike_id":"54f50431-2d1c-4e8a-ae33-cd755206b69f","system_id":"levelo_inurba_marseille","lat":43.29795,"lon":5.39344,"is_reserved":false,"is_disabled":false,"rental_uris":{"android":"levelo://app?vid=54f50431-2d1c-4e8a-ae33-cd755206b69f","ios":"levelo://app?vid=54f50431-2d1c-4e8a-ae33-cd755206b69f"},"vehicle_type_id":"4","last_reported":1747661104,"current_range_meters":4800,"station_id":"chh1huq6cuj3fo74tm60","pricing_plan_id":"cebpf4jnsgd1na2vs0mg"},{"bike_id":"14603e41-b2dd-4757-a53c-2e366aa4f983","system_id":"levelo_inurba_marseille","lat":43.27003,"lon":5.42829,"is_reserved":false,"is_disabled":false,"rental_uris":{"android":"levelo://app?vid=14603e41-b2dd-4757-a53c-2e366aa4f983","ios":"levelo://app?vid=14603e41-b2dd-4757-a53c-2e366aa4f983"},"vehicle_type_id":"4","last_reported":1747661104,"current_range_meters":4800,"station_id":"","pricing_plan_id":"cebpf4jnsgd1na2vs0mg"},{"bike_id":"0fb02880-5c6e-4026-9e4a-07529c572b44","system_id":"levelo_inurba_marseille","lat":43.254875,"lon":5.373901,"is_reserved":false,"is_disabled":false,"rental_uris":{"android":"levelo://app?vid=0fb02880-5c6e-4026-9e4a-07529c572b44","ios":"levelo://app?vid=0fb02880-5c6e-4026-9e4a-07529c572b44"},"vehicle_type_id":"4","last_reported":1747661104,"current_range_meters":5600,"station_id":"","pricing_plan_id":"cebpf4jnsgd1na2vs0mg"},{"bike_id":"0c9b5e98-ea35-49c7-8593-7e9888542d33","system_id":"levelo_inurba_marseille","lat":43.30122,"lon":5.39861,"is_reserved":false,"is_disabled":false,"rental_uris":{"android":"levelo://app?vid=0c9b5e98-ea35-49c7-8593-7e9888542d33","ios":"levelo://app?vid=0c9b5e98-ea35-49c7-8593-7e9888542d33"},"vehicle_type_id":"4","last_reported":1747661104,"current_range_meters":5600,"station_id":"ce4bh0h2rcd13ifvqd40","pricing_plan_id":"cebpf4jnsgd1na2vs0mg"},{"bike_id":"0a80dab0-019f-412e-9426-7c721bdddfca","system_id":"levelo_inurba_marseille","lat":43.24652,"lon":5.38202,"is_reserved":false,"is_disabled":false,"rental_uris":{"android":"levelo://app?vid=0a80dab0-019f-412e-9426-7c721bdddfca","ios":"levelo://app?vid=0a80dab0-019f-412e-9426-7c721bdddfca"},"vehicle_type_id":"4","last_reported":1747661104,"current_range_meters":5600,"station_id":"ce4bhih2rcd13ifvqfr0","pricing_plan_id":"cebpf4jnsgd1na2vs0mg"},{"bike_id":"ee66305f-ed1b-4e6a-8acd-0336e0c52601","system_id":"levelo_inurba_marseille","lat":43.29917,"lon":5.37469,"is_reserved":false,"is_disabled":false,"rental_uris":{"android":"levelo://app?vid=ee66305f-ed1b-4e6a-8acd-0336e0c52601","ios":"levelo://app?vid=ee66305f-ed1b-4e6a-8acd-0336e0c52601"},"vehicle_type_id":"4","last_reported":1747661104,"current_range_meters":4800,"station_id":"ce4bgjh2rcd13ifvqbg0","pricing_plan_id":"cebpf4jnsgd1na2vs0mg"},{"bike_id":"978614f8-b3f5-4aa0-8b7c-d162896926b9","system_id":"levelo_inurba_marseille","lat":43.29895,"lon":5.43671,"is_reserved":false,"is_disabled":false,"rental_uris":{"android":"levelo://app?vid=978614f8-b3f5-4aa0-8b7c-d162896926b9","ios":"levelo://app?vid=978614f8-b3f5-4aa0-8b7c-d162896926b9"},"vehicle_type_id":"4","last_reported":1747661104,"current_range_meters":4800,"station_id":"ce4bhpp2rcd13ifvqhfg","pricing_plan_id":"cebpf4jnsgd1na2vs0mg"},{"bike_id":"ff29ee27-78c1-4e89-a7ca-25cd4a412c65","system_id":"levelo_inurba_marseille","lat":43.275671,"lon":5.384201,"is_reserved":false,"is_disabled":false,"rental_uris":{"android":"levelo://app?vid=ff29ee27-78c1-4e89-a7ca-25cd4a412c65","ios":"levelo://app?vid=ff29ee27-78c1-4e89-a7ca-25cd4a412c65"},"vehicle_type_id":"4","last_reported":1747661104,"current_range_meters":5600,"station_id":"ce4bhh92rcd13ifvqfi0","pricing_plan_id":"cebpf4jnsgd1na2vs0mg"},{"bike_id":"7cd7083b-f77f-4b16-a00e-f23331419c8d","system_id":"levelo_inurba_marseille","lat":43.271815,"lon":5.409972,"is_reserved":false,"is_disabled":false,"rental_uris":{"android":"levelo://app?vid=7cd7083b-f77f-4b16-a00e-f23331419c8d","ios":"levelo://app?vid=7cd7083b-f77f-4b16-a00e-f23331419c8d"},"vehicle_type_id":"4","last_reported":1747661104,"current_range_meters":5600,"station_id":"ce4bhl12rcd13ifvqgf0","pricing_plan_id":"cebpf4jnsgd1na2vs0mg"},{"bike_id":"22d4ab39-ea36-4d83-aa17-902f7eff0303","system_id":"levelo_inurba_marseille","lat":43.31176,"lon":5.38709,"is_reserved":false,"is_disabled":false,"rental_uris":{"android":"levelo://app?vid=22d4ab39-ea36-4d83-aa17-902f7eff0303","ios":"levelo://app?vid=22d4ab39-ea36-4d83-aa17-902f7eff0303"},"vehicle_type_id":"4","last_reported":1747661104,"current_range_meters":5600,"station_id":"ce4bgv12rcd13ifvqcp0","pricing_plan_id":"cebpf4jnsgd1na2vs0mg"},{"bike_id":"0552e7f5-65e9-4147-bbe2-5c6025ab769e","system_id":"levelo_inurba_marseille","lat":43.23157,"lon":5.43712,"is_reserved":false,"is_disabled":false,"rental_uris":{"android":"levelo://app?vid=0552e7f5-65e9-4147-bbe2-5c6025ab769e","ios":"levelo://app?vid=0552e7f5-65e9-4147-bbe2-5c6025ab769e"},"vehicle_type_id":"4","last_reported":1747661104,"current_range_meters":6000,"station_id":"ce4bhmp2rcd13ifvqgog","pricing_plan_id":"cebpf4jnsgd1na2vs0mg"},{"bike_id":"93adb21e-0831-48f3-8e4e-6045d2a8de73","system_id":"levelo_inurba_marseille","lat":43.246828,"lon":5.381527,"is_reserved":false,"is_disabled":false,"rental_uris":{"android":"levelo://app?vid=93adb21e-0831-48f3-8e4e-6045d2a8de73","ios":"levelo://app?vid=93adb21e-0831-48f3-8e4e-6045d2a8de73"},"vehicle_type_id":"4","last_reported":1747661104,"current_range_meters":6000,"station_id":"ce4bhih2rcd13ifvqfr0","pricing_plan_id":"cebpf4jnsgd1na2vs0mg"},{"bike_id":"2eab994d-a378-4391-894b-b62d11a34041","system_id":"levelo_inurba_marseille","lat":43.2315,"lon":5.43705,"is_reserved":false,"is_disabled":true,"rental_uris":{"android":"levelo://app?vid=2eab994d-a378-4391-894b-b62d11a34041","ios":"levelo://app?vid=2eab994d-a378-4391-894b-b62d11a34041"},"vehicle_type_id":"4","last_reported":1747661104,"current_range_meters":6000,"station_id":"ce4bhmp2rcd13ifvqgog","pricing_plan_id":"cebpf4jnsgd1na2vs0mg"},{"bike_id":"0a7d020c-bb77-4162-b71d-78b4134f2b3d","system_id":"levelo_inurba_marseille","lat":43.29263,"lon":5.40902,"is_reserved":false,"is_disabled":false,"rental_uris":{"android":"levelo://app?vid=0a7d020c-bb77-4162-b71d-78b4134f2b3d","ios":"levelo://app?vid=0a7d020c-bb77-4162-b71d-78b4134f2b3d"},"vehicle_type_id":"4","last_reported":1747661104,"current_range_meters":6000,"station_id":"ce4bh192rcd13ifvqdc0","pricing_plan_id":"cebpf4jnsgd1na2vs0mg"},{"bike_id":"1c5f7dfc-8485-4423-8a2b-63929f3c865f","system_id":"levelo_inurba_marseille","lat":43.28715,"lon":5.37926,"is_reserved":false,"is_disabled":false,"rental_uris":{"android":"levelo://app?vid=1c5f7dfc-8485-4423-8a2b-63929f3c865f","ios":"levelo://app?vid=1c5f7dfc-8485-4423-8a2b-63929f3c865f"},"vehicle_type_id":"4","last_reported":1747661104,"current_range_meters":6400,"station_id":"ce4bh9p2rcd13ifvqec0","pricing_plan_id":"cebpf4jnsgd1na2vs0mg"},{"bike_id":"57d868ee-ea14-4118-8093-254181b25d01","system_id":"levelo_inurba_marseille","lat":43.27374,"lon":5.36259,"is_reserved":false,"is_disabled":false,"rental_uris":{"android":"levelo://app?vid=57d868ee-ea14-4118-8093-254181b25d01","ios":"levelo://app?vid=57d868ee-ea14-4118-8093-254181b25d01"},"vehicle_type_id":"4","last_reported":1747661104,"current_range_meters":6400,"station_id":"ce4bhbh2rcd13ifvqeo0","pricing_plan_id":"cebpf4jnsgd1na2vs0mg"},{"bike_id":"d3689089-9164-4c4e-b6b2-504ace76e12f","system_id":"levelo_inurba_marseille","lat":43.30887,"lon":5.39646,"is_reserved":false,"is_disabled":false,"rental_uris":{"android":"levelo://app?vid=d3689089-9164-4c4e-b6b2-504ace76e12f","ios":"levelo://app?vid=d3689089-9164-4c4e-b6b2-504ace76e12f"},"vehicle_type_id":"4","last_reported":1747661104,"current_range_meters":6400,"station_id":"ce4bh012rcd13ifvqcv0","pricing_plan_id":"cebpf4jnsgd1na2vs0mg"},{"bike_id":"027e1fb9-8ab2-4245-a791-27e9dcd17185","system_id":"levelo_inurba_marseille","lat":43.29553,"lon":5.42291,"is_reserved":false,"is_disabled":false,"rental_uris":{"android":"levelo://app?vid=027e1fb9-8ab2-4245-a791-27e9dcd17185","ios":"levelo://app?vid=027e1fb9-8ab2-4245-a791-27e9dcd17185"},"vehicle_type_id":"4","last_reported":1747661104,"current_range_meters":6400,"station_id":"ce4bhph2rcd13ifvqhdg","pricing_plan_id":"cebpf4jnsgd1na2vs0mg"},{"bike_id":"c7669333-cec8-499b-bcc7-a9592caa9fca","system_id":"levelo_inurba_marseille","lat":43.27973,"lon":5.38739,"is_reserved":false,"is_disabled":false,"rental_uris":{"android":"levelo://app?vid=c7669333-cec8-499b-bcc7-a9592caa9fca","ios":"levelo://app?vid=c7669333-cec8-499b-bcc7-a9592caa9fca"},"vehicle_type_id":"4","last_reported":1747661104,"current_range_meters":6400,"station_id":"ce4bhg12rcd13ifvqf80","pricing_plan_id":"cebpf4jnsgd1na2vs0mg"},{"bike_id":"ddf71d11-ced3-459e-8090-230d5190759a","system_id":"levelo_inurba_marseille","lat":43.259412,"lon":5.408984,"is_reserved":false,"is_disabled":false,"rental_uris":{"android":"levelo://app?vid=ddf71d11-ced3-459e-8090-230d5190759a","ios":"levelo://app?vid=ddf71d11-ced3-459e-8090-230d5190759a"},"vehicle_type_id":"4","last_reported":1747661104,"current_range_meters":6800,"station_id":"ce4bhm92rcd13ifvqglg","pricing_plan_id":"cebpf4jnsgd1na2vs0mg"},{"bike_id":"3dfcd1ad-7f58-4fce-9af4-94edb91155a5","system_id":"levelo_inurba_marseille","lat":43.25719,"lon":5.41101,"is_reserved":false,"is_disabled":false,"rental_uris":{"android":"levelo://app?vid=3dfcd1ad-7f58-4fce-9af4-94edb91155a5","ios":"levelo://app?vid=3dfcd1ad-7f58-4fce-9af4-94edb91155a5"},"vehicle_type_id":"4","last_reported":1747661104,"current_range_meters":6800,"station_id":"ce4bhkp2rcd13ifvqgd0","pricing_plan_id":"cebpf4jnsgd1na2vs0mg"},{"bike_id":"9d2fd260-accb-4169-b46a-79fa91fbece8","system_id":"levelo_inurba_marseille","lat":43.30899,"lon":5.3685,"is_reserved":false,"is_disabled":true,"rental_uris":{"android":"levelo://app?vid=9d2fd260-accb-4169-b46a-79fa91fbece8","ios":"levelo://app?vid=9d2fd260-accb-4169-b46a-79fa91fbece8"},"vehicle_type_id":"4","last_reported":1747661104,"current_range_meters":6800,"station_id":"ce4bgn92rcd13ifvqbvg","pricing_plan_id":"cebpf4jnsgd1na2vs0mg"},{"bike_id":"56772301-5074-4312-af35-948c58729329","system_id":"levelo_inurba_marseille","lat":43.31174,"lon":5.38713,"is_reserved":false,"is_disabled":false,"rental_uris":{"android":"levelo://app?vid=56772301-5074-4312-af35-948c58729329","ios":"levelo://app?vid=56772301-5074-4312-af35-948c58729329"},"vehicle_type_id":"4","last_reported":1747661104,"current_range_meters":6800,"station_id":"","pricing_plan_id":"cebpf4jnsgd1na2vs0mg"},{"bike_id":"7c2f31a5-29a4-4b38-92a3-a37e6e9acbd5","system_id":"levelo_inurba_marseille","lat":43.25726,"lon":5.41101,"is_reserved":false,"is_disabled":false,"rental_uris":{"android":"levelo://app?vid=7c2f31a5-29a4-4b38-92a3-a37e6e9acbd5","ios":"levelo://app?vid=7c2f31a5-29a4-4b38-92a3-a37e6e9acbd5"},"vehicle_type_id":"4","last_reported":1747661104,"current_range_meters":7200,"station_id":"ce4bhkp2rcd13ifvqgd0","pricing_plan_id":"cebpf4jnsgd1na2vs0mg"},{"bike_id":"9e9bf122-002d-4b2b-80cf-72cefc9e6351","system_id":"levelo_inurba_marseille","lat":43.25943,"lon":5.40922,"is_reserved":false,"is_disabled":false,"rental_uris":{"android":"levelo://app?vid=9e9bf122-002d-4b2b-80cf-72cefc9e6351","ios":"levelo://app?vid=9e9bf122-002d-4b2b-80cf-72cefc9e6351"},"vehicle_type_id":"4","last_reported":1747661104,"current_range_meters":7200,"station_id":"ce4bhm92rcd13ifvqglg","pricing_plan_id":"cebpf4jnsgd1na2vs0mg"},{"bike_id":"2e2f7bc9-08be-4e11-8ff3-653be6f03b55","system_id":"levelo_inurba_marseille","lat":43.25865,"lon":5.39892,"is_reserved":false,"is_disabled":false,"rental_uris":{"android":"levelo://app?vid=2e2f7bc9-08be-4e11-8ff3-653be6f03b55","ios":"levelo://app?vid=2e2f7bc9-08be-4e11-8ff3-653be6f03b55"},"vehicle_type_id":"4","last_reported":1747661104,"current_range_meters":7200,"station_id":"ce4bhl92rcd13ifvqghg","pricing_plan_id":"cebpf4jnsgd1na2vs0mg"},{"bike_id":"d986aca6-b416-4398-b072-921a151f4697","system_id":"levelo_inurba_marseille","lat":43.258685,"lon":5.399014,"is_reserved":false,"is_disabled":false,"rental_uris":{"android":"levelo://app?vid=d986aca6-b416-4398-b072-921a151f4697","ios":"levelo://app?vid=d986aca6-b416-4398-b072-921a151f4697"},"vehicle_type_id":"4","last_reported":1747661104,"current_range_meters":6800,"station_id":"ce4bhjp2rcd13ifvqga0","pricing_plan_id":"cebpf4jnsgd1na2vs0mg"},{"bike_id":"2e68e997-6311-4229-a825-25836df505ad","system_id":"levelo_inurba_marseille","lat":43.30532,"lon":5.36544,"is_reserved":false,"is_disabled":false,"rental_uris":{"android":"levelo://app?vid=2e68e997-6311-4229-a825-25836df505ad","ios":"levelo://app?vid=2e68e997-6311-4229-a825-25836df505ad"},"vehicle_type_id":"4","last_reported":1747661104,"current_range_meters":7200,"station_id":"ce4bgs12rcd13ifvqcag","pricing_plan_id":"cebpf4jnsgd1na2vs0mg"},{"bike_id":"138efd0e-f712-4d55-a504-261022078e91","system_id":"levelo_inurba_marseille","lat":43.25729,"lon":5.41114,"is_reserved":false,"is_disabled":false,"rental_uris":{"android":"levelo://app?vid=138efd0e-f712-4d55-a504-261022078e91","ios":"levelo://app?vid=138efd0e-f712-4d55-a504-261022078e91"},"vehicle_type_id":"4","last_reported":1747661104,"current_range_meters":8000,"station_id":"ce4bhkp2rcd13ifvqgd0","pricing_plan_id":"cebpf4jnsgd1na2vs0mg"},{"bike_id":"cde7e66e-ce29-42a6-9356-65ed12e539a7","system_id":"levelo_inurba_marseille","lat":43.27376,"lon":5.36248,"is_reserved":false,"is_disabled":false,"rental_uris":{"android":"levelo://app?vid=cde7e66e-ce29-42a6-9356-65ed12e539a7","ios":"levelo://app?vid=cde7e66e-ce29-42a6-9356-65ed12e539a7"},"vehicle_type_id":"4","last_reported":1747661104,"current_range_meters":8000,"station_id":"ce4bhbh2rcd13ifvqeo0","pricing_plan_id":"cebpf4jnsgd1na2vs0mg"},{"bike_id":"fabe6c80-2ea0-4be6-a66f-7cfbd6003bfb","system_id":"levelo_inurba_marseille","lat":43.2455,"lon":5.39521,"is_reserved":false,"is_disabled":false,"rental_uris":{"android":"levelo://app?vid=fabe6c80-2ea0-4be6-a66f-7cfbd6003bfb","ios":"levelo://app?vid=fabe6c80-2ea0-4be6-a66f-7cfbd6003bfb"},"vehicle_type_id":"4","last_reported":1747661104,"current_range_meters":7200,"station_id":"ce4bhlp2rcd13ifvqgjg","pricing_plan_id":"cebpf4jnsgd1na2vs0mg"},{"bike_id":"6c79893e-9e47-4a29-8b6a-4c9588796b78","system_id":"levelo_inurba_marseille","lat":43.29377,"lon":5.3784,"is_reserved":false,"is_disabled":false,"rental_uris":{"android":"levelo://app?vid=6c79893e-9e47-4a29-8b6a-4c9588796b78","ios":"levelo://app?vid=6c79893e-9e47-4a29-8b6a-4c9588796b78"},"vehicle_type_id":"4","last_reported":1747661104,"current_range_meters":8000,"station_id":"ce4bgjh2rcd13ifvqbf0","pricing_plan_id":"cebpf4jnsgd1na2vs0mg"},{"bike_id":"496bbd09-265c-476d-b538-d4e37143cd57","system_id":"levelo_inurba_marseille","lat":43.27816,"lon":5.40715,"is_reserved":false,"is_disabled":false,"rental_uris":{"android":"levelo://app?vid=496bbd09-265c-476d-b538-d4e37143cd57","ios":"levelo://app?vid=496bbd09-265c-476d-b538-d4e37143cd57"},"vehicle_type_id":"4","last_reported":1747661104,"current_range_meters":8000,"station_id":"ce4bhnh2rcd13ifvqgtg","pricing_plan_id":"cebpf4jnsgd1na2vs0mg"},{"bike_id":"0e4be12c-830a-4cbe-bc0c-dbe3be483ab7","system_id":"levelo_inurba_marseille","lat":43.32083,"lon":5.36792,"is_reserved":false,"is_disabled":false,"rental_uris":{"android":"levelo://app?vid=0e4be12c-830a-4cbe-bc0c-dbe3be483ab7","ios":"levelo://app?vid=0e4be12c-830a-4cbe-bc0c-dbe3be483ab7"},"vehicle_type_id":"4","last_reported":1747661104,"current_range_meters":8000,"station_id":"ce4bhrh2rcd13ifvqhug","pricing_plan_id":"cebpf4jnsgd1na2vs0mg"},{"bike_id":"6e59230c-f422-4d87-b62f-d9a698e205c2","system_id":"levelo_inurba_marseille","lat":43.29537,"lon":5.39396,"is_reserved":false,"is_disabled":false,"rental_uris":{"android":"levelo://app?vid=6e59230c-f422-4d87-b62f-d9a698e205c2","ios":"levelo://app?vid=6e59230c-f422-4d87-b62f-d9a698e205c2"},"vehicle_type_id":"4","last_reported":1747661104,"current_range_meters":8000,"station_id":"ce4bh292rcd13ifvqdf0","pricing_plan_id":"cebpf4jnsgd1na2vs0mg"},{"bike_id":"4106f574-ab9b-40b2-b34e-1758475aa72b","system_id":"levelo_inurba_marseille","lat":43.31363,"lon":5.36727,"is_reserved":false,"is_disabled":false,"rental_uris":{"android":"levelo://app?vid=4106f574-ab9b-40b2-b34e-1758475aa72b","ios":"levelo://app?vid=4106f574-ab9b-40b2-b34e-1758475aa72b"},"vehicle_type_id":"4","last_reported":1747661104,"current_range_meters":8000,"station_id":"ce4bgr92rcd13ifvqc6g","pricing_plan_id":"cebpf4jnsgd1na2vs0mg"},{"bike_id":"f3054a51-43aa-40a4-bc1d-60359d36ee7a","system_id":"levelo_inurba_marseille","lat":43.29781,"lon":5.3712,"is_reserved":false,"is_disabled":false,"rental_uris":{"android":"levelo://app?vid=f3054a51-43aa-40a4-bc1d-60359d36ee7a","ios":"levelo://app?vid=f3054a51-43aa-40a4-bc1d-60359d36ee7a"},"vehicle_type_id":"4","last_reported":1747661104,"current_range_meters":8400,"station_id":"ce4bgop2rcd13ifvqc1g","pricing_plan_id":"cebpf4jnsgd1na2vs0mg"},{"bike_id":"cee238b9-97ef-4b89-8946-fc4ad2398a41","system_id":"levelo_inurba_marseille","lat":43.30546,"lon":5.36538,"is_reserved":false,"is_disabled":false,"rental_uris":{"android":"levelo://app?vid=cee238b9-97ef-4b89-8946-fc4ad2398a41","ios":"levelo://app?vid=cee238b9-97ef-4b89-8946-fc4ad2398a41"},"vehicle_type_id":"4","last_reported":1747661104,"current_range_meters":8400,"station_id":"ce4bgs12rcd13ifvqcag","pricing_plan_id":"cebpf4jnsgd1na2vs0mg"},{"bike_id":"92239cf2-48db-4e53-bec0-b1a90058e322","system_id":"levelo_inurba_marseille","lat":43.23191,"lon":5.39985,"is_reserved":false,"is_disabled":false,"rental_uris":{"android":"levelo://app?vid=92239cf2-48db-4e53-bec0-b1a90058e322","ios":"levelo://app?vid=92239cf2-48db-4e53-bec0-b1a90058e322"},"vehicle_type_id":"4","last_reported":1747661104,"current_range_meters":8400,"station_id":"ce4bhn12rcd13ifvqgqg","pricing_plan_id":"cebpf4jnsgd1na2vs0mg"},{"bike_id":"2a68295c-fe41-47a1-a14d-dcb8da9215fb","system_id":"levelo_inurba_marseille","lat":43.29899,"lon":5.38133,"is_reserved":false,"is_disabled":false,"rental_uris":{"android":"levelo://app?vid=2a68295c-fe41-47a1-a14d-dcb8da9215fb","ios":"levelo://app?vid=2a68295c-fe41-47a1-a14d-dcb8da9215fb"},"vehicle_type_id":"4","last_reported":1747661104,"current_range_meters":8800,"station_id":"ce4bgj12rcd13ifvqbc0","pricing_plan_id":"cebpf4jnsgd1na2vs0mg"},{"bike_id":"97b70cf9-8044-48ed-93a1-0d759ff32bc0","system_id":"levelo_inurba_marseille","lat":43.26566,"lon":5.37287,"is_reserved":false,"is_disabled":false,"rental_uris":{"android":"levelo://app?vid=97b70cf9-8044-48ed-93a1-0d759ff32bc0","ios":"levelo://app?vid=97b70cf9-8044-48ed-93a1-0d759ff32bc0"},"vehicle_type_id":"4","last_reported":1747661104,"current_range_meters":8800,"station_id":"ce4bhg12rcd13ifvqf70","pricing_plan_id":"cebpf4jnsgd1na2vs0mg"},{"bike_id":"d9090cda-5b81-447f-829a-dd86382e9b77","system_id":"levelo_inurba_marseille","lat":43.27373,"lon":5.36262,"is_reserved":false,"is_disabled":false,"rental_uris":{"android":"levelo://app?vid=d9090cda-5b81-447f-829a-dd86382e9b77","ios":"levelo://app?vid=d9090cda-5b81-447f-829a-dd86382e9b77"},"vehicle_type_id":"4","last_reported":1747661104,"current_range_meters":8800,"station_id":"ce4bhbh2rcd13ifvqeo0","pricing_plan_id":"cebpf4jnsgd1na2vs0mg"},{"bike_id":"727c7c2f-a942-45f5-ad61-b6cd445720f3","system_id":"levelo_inurba_marseille","lat":43.26214,"lon":5.37438,"is_reserved":false,"is_disabled":false,"rental_uris":{"android":"levelo://app?vid=727c7c2f-a942-45f5-ad61-b6cd445720f3","ios":"levelo://app?vid=727c7c2f-a942-45f5-ad61-b6cd445720f3"},"vehicle_type_id":"4","last_reported":1747661104,"current_range_meters":8800,"station_id":"ce4bhgp2rcd13ifvqfc0","pricing_plan_id":"cebpf4jnsgd1na2vs0mg"},{"bike_id":"8a38b7e6-ed76-4b8e-8cde-6eb98eb10997","system_id":"levelo_inurba_marseille","lat":43.28277,"lon":5.35056,"is_reserved":false,"is_disabled":false,"rental_uris":{"android":"levelo://app?vid=8a38b7e6-ed76-4b8e-8cde-6eb98eb10997","ios":"levelo://app?vid=8a38b7e6-ed76-4b8e-8cde-6eb98eb10997"},"vehicle_type_id":"4","last_reported":1747661104,"current_range_meters":8800,"station_id":"ce4bhbp2rcd13ifvqerg","pricing_plan_id":"cebpf4jnsgd1na2vs0mg"},{"bike_id":"3746d67d-d3ae-4b2a-a42d-3c92f3dc55e8","system_id":"levelo_inurba_marseille","lat":43.281,"lon":5.378281,"is_reserved":false,"is_disabled":false,"rental_uris":{"android":"levelo://app?vid=3746d67d-d3ae-4b2a-a42d-3c92f3dc55e8","ios":"levelo://app?vid=3746d67d-d3ae-4b2a-a42d-3c92f3dc55e8"},"vehicle_type_id":"4","last_reported":1747661104,"current_range_meters":8800,"station_id":"ce4bha12rcd13ifvqee0","pricing_plan_id":"cebpf4jnsgd1na2vs0mg"},{"bike_id":"66e3cc7f-c39b-49ab-937c-c2b2180bcc81","system_id":"levelo_inurba_marseille","lat":43.30139,"lon":5.37424,"is_reserved":false,"is_disabled":false,"rental_uris":{"android":"levelo://app?vid=66e3cc7f-c39b-49ab-937c-c2b2180bcc81","ios":"levelo://app?vid=66e3cc7f-c39b-49ab-937c-c2b2180bcc81"},"vehicle_type_id":"4","last_reported":1747661104,"current_range_meters":9200,"station_id":"ce4bgs92rcd13ifvqcc0","pricing_plan_id":"cebpf4jnsgd1na2vs0mg"},{"bike_id":"10060988-3632-4061-8c28-f32a68cdc17c","system_id":"levelo_inurba_marseille","lat":43.24669,"lon":5.38149,"is_reserved":false,"is_disabled":false,"rental_uris":{"android":"levelo://app?vid=10060988-3632-4061-8c28-f32a68cdc17c","ios":"levelo://app?vid=10060988-3632-4061-8c28-f32a68cdc17c"},"vehicle_type_id":"4","last_reported":1747661104,"current_range_meters":9200,"station_id":"ce4bhih2rcd13ifvqfr0","pricing_plan_id":"cebpf4jnsgd1na2vs0mg"},{"bike_id":"cfea6a2f-a6d2-4b54-aed6-eadb3d4fe1fa","system_id":"levelo_inurba_marseille","lat":43.30149,"lon":5.37427,"is_reserved":false,"is_disabled":false,"rental_uris":{"android":"levelo://app?vid=cfea6a2f-a6d2-4b54-aed6-eadb3d4fe1fa","ios":"levelo://app?vid=cfea6a2f-a6d2-4b54-aed6-eadb3d4fe1fa"},"vehicle_type_id":"4","last_reported":1747661104,"current_range_meters":9200,"station_id":"ce4bgs92rcd13ifvqcc0","pricing_plan_id":"cebpf4jnsgd1na2vs0mg"},{"bike_id":"b2548f10-ca19-4715-8ec4-ba2ad9caa0ec","system_id":"levelo_inurba_marseille","lat":43.27182,"lon":5.40981,"is_reserved":false,"is_disabled":false,"rental_uris":{"android":"levelo://app?vid=b2548f10-ca19-4715-8ec4-ba2ad9caa0ec","ios":"levelo://app?vid=b2548f10-ca19-4715-8ec4-ba2ad9caa0ec"},"vehicle_type_id":"4","last_reported":1747661104,"current_range_meters":9200,"station_id":"ce4bhl12rcd13ifvqgf0","pricing_plan_id":"cebpf4jnsgd1na2vs0mg"},{"bike_id":"814e2930-a412-47af-849d-26da2abc07f6","system_id":"levelo_inurba_marseille","lat":43.27817,"lon":5.40718,"is_reserved":false,"is_disabled":true,"rental_uris":{"android":"levelo://app?vid=814e2930-a412-47af-849d-26da2abc07f6","ios":"levelo://app?vid=814e2930-a412-47af-849d-26da2abc07f6"},"vehicle_type_id":"4","last_reported":1747661104,"current_range_meters":9200,"station_id":"ce4bhnh2rcd13ifvqgtg","pricing_plan_id":"cebpf4jnsgd1na2vs0mg"},{"bike_id":"69e12e2a-a8a5-4396-b80a-f4ab44d9a031","system_id":"levelo_inurba_marseille","lat":43.27812,"lon":5.40731,"is_reserved":false,"is_disabled":false,"rental_uris":{"android":"levelo://app?vid=69e12e2a-a8a5-4396-b80a-f4ab44d9a031","ios":"levelo://app?vid=69e12e2a-a8a5-4396-b80a-f4ab44d9a031"},"vehicle_type_id":"4","last_reported":1747661104,"current_range_meters":9600,"station_id":"ce4bhnh2rcd13ifvqgtg","pricing_plan_id":"cebpf4jnsgd1na2vs0mg"},{"bike_id":"06e452b4-00bd-4194-8cf0-97e51cbae02e","system_id":"levelo_inurba_marseille","lat":43.23191,"lon":5.39991,"is_reserved":false,"is_disabled":false,"rental_uris":{"android":"levelo://app?vid=06e452b4-00bd-4194-8cf0-97e51cbae02e","ios":"levelo://app?vid=06e452b4-00bd-4194-8cf0-97e51cbae02e"},"vehicle_type_id":"4","last_reported":1747661104,"current_range_meters":9600,"station_id":"ce4bhn12rcd13ifvqgqg","pricing_plan_id":"cebpf4jnsgd1na2vs0mg"},{"bike_id":"79703b61-4f59-4128-9bcd-e1def9c49c3a","system_id":"levelo_inurba_marseille","lat":43.28155,"lon":5.42644,"is_reserved":false,"is_disabled":false,"rental_uris":{"android":"levelo://app?vid=79703b61-4f59-4128-9bcd-e1def9c49c3a","ios":"levelo://app?vid=79703b61-4f59-4128-9bcd-e1def9c49c3a"},"vehicle_type_id":"4","last_reported":1747661104,"current_range_meters":9600,"station_id":"ce4bhnh2rcd13ifvqgug","pricing_plan_id":"cebpf4jnsgd1na2vs0mg"},{"bike_id":"1251f3e6-f78a-418d-9e0a-7474b2b1d8ac","system_id":"levelo_inurba_marseille","lat":43.25944,"lon":5.40993,"is_reserved":false,"is_disabled":false,"rental_uris":{"android":"levelo://app?vid=1251f3e6-f78a-418d-9e0a-7474b2b1d8ac","ios":"levelo://app?vid=1251f3e6-f78a-418d-9e0a-7474b2b1d8ac"},"vehicle_type_id":"4","last_reported":1747661104,"current_range_meters":9600,"station_id":"","pricing_plan_id":"cebpf4jnsgd1na2vs0mg"},{"bike_id":"1ad2d3f5-34d2-42cc-9d32-220613222032","system_id":"levelo_inurba_marseille","lat":43.31223,"lon":5.36854,"is_reserved":false,"is_disabled":false,"rental_uris":{"android":"levelo://app?vid=1ad2d3f5-34d2-42cc-9d32-220613222032","ios":"levelo://app?vid=1ad2d3f5-34d2-42cc-9d32-220613222032"},"vehicle_type_id":"4","last_reported":1747661104,"current_range_meters":9600,"station_id":"ce4bgl92rcd13ifvqbq0","pricing_plan_id":"cebpf4jnsgd1na2vs0mg"},{"bike_id":"12c4d802-2c6a-4c71-888e-000ffe312a3f","system_id":"levelo_inurba_marseille","lat":43.32357,"lon":5.36731,"is_reserved":false,"is_disabled":false,"rental_uris":{"android":"levelo://app?vid=12c4d802-2c6a-4c71-888e-000ffe312a3f","ios":"levelo://app?vid=12c4d802-2c6a-4c71-888e-000ffe312a3f"},"vehicle_type_id":"4","last_reported":1747661104,"current_range_meters":9600,"station_id":"ce4bhsh2rcd13ifvqi2g","pricing_plan_id":"cebpf4jnsgd1na2vs0mg"},{"bike_id":"faf131ab-4341-4f76-bd17-85aaf1a23e25","system_id":"levelo_inurba_marseille","lat":43.2717,"lon":5.41003,"is_reserved":false,"is_disabled":false,"rental_uris":{"android":"levelo://app?vid=faf131ab-4341-4f76-bd17-85aaf1a23e25","ios":"levelo://app?vid=faf131ab-4341-4f76-bd17-85aaf1a23e25"},"vehicle_type_id":"4","last_reported":1747661104,"current_range_meters":9600,"station_id":"ce4bhl12rcd13ifvqgf0","pricing_plan_id":"cebpf4jnsgd1na2vs0mg"},{"bike_id":"07dcef56-8909-4d5f-b34f-6e2988e9a08a","system_id":"levelo_inurba_marseille","lat":43.30422,"lon":5.39753,"is_reserved":false,"is_disabled":false,"rental_uris":{"android":"levelo://app?vid=07dcef56-8909-4d5f-b34f-6e2988e9a08a","ios":"levelo://app?vid=07dcef56-8909-4d5f-b34f-6e2988e9a08a"},"vehicle_type_id":"4","last_reported":1747661104,"current_range_meters":9600,"station_id":"ce4bh092rcd13ifvqd20","pricing_plan_id":"cebpf4jnsgd1na2vs0mg"},{"bike_id":"c7f931bd-ce6d-42cf-bb58-15bd56c54e27","system_id":"levelo_inurba_marseille","lat":43.31388,"lon":5.3673,"is_reserved":false,"is_disabled":false,"rental_uris":{"android":"levelo://app?vid=c7f931bd-ce6d-42cf-bb58-15bd56c54e27","ios":"levelo://app?vid=c7f931bd-ce6d-42cf-bb58-15bd56c54e27"},"vehicle_type_id":"4","last_reported":1747661104,"current_range_meters":10000,"station_id":"ce4bgr92rcd13ifvqc6g","pricing_plan_id":"cebpf4jnsgd1na2vs0mg"},{"bike_id":"d233ed6c-21ce-435c-adcc-f392b8338a44","system_id":"levelo_inurba_marseille","lat":43.30602,"lon":5.37234,"is_reserved":false,"is_disabled":false,"rental_uris":{"android":"levelo://app?vid=d233ed6c-21ce-435c-adcc-f392b8338a44","ios":"levelo://app?vid=d233ed6c-21ce-435c-adcc-f392b8338a44"},"vehicle_type_id":"4","last_reported":1747661104,"current_range_meters":10000,"station_id":"ce4bgqh2rcd13ifvqc4g","pricing_plan_id":"cebpf4jnsgd1na2vs0mg"},{"bike_id":"57d49cee-197d-434e-8012-8c8b17132997","system_id":"levelo_inurba_marseille","lat":43.32338,"lon":5.40621,"is_reserved":false,"is_disabled":false,"rental_uris":{"android":"levelo://app?vid=57d49cee-197d-434e-8012-8c8b17132997","ios":"levelo://app?vid=57d49cee-197d-434e-8012-8c8b17132997"},"vehicle_type_id":"4","last_reported":1747661104,"current_range_meters":10000,"station_id":"ce4bhq92rcd13ifvqhjg","pricing_plan_id":"cebpf4jnsgd1na2vs0mg"},{"bike_id":"572c97ee-0da0-4be5-a2ce-28eff65f3ef1","system_id":"levelo_inurba_marseille","lat":43.33756,"lon":5.37465,"is_reserved":false,"is_disabled":false,"rental_uris":{"android":"levelo://app?vid=572c97ee-0da0-4be5-a2ce-28eff65f3ef1","ios":"levelo://app?vid=572c97ee-0da0-4be5-a2ce-28eff65f3ef1"},"vehicle_type_id":"4","last_reported":1747661104,"current_range_meters":10000,"station_id":"","pricing_plan_id":"cebpf4jnsgd1na2vs0mg"},{"bike_id":"0186c09f-ba67-45cc-a3fb-f5ba22f88035","system_id":"levelo_inurba_marseille","lat":43.2842,"lon":5.34982,"is_reserved":false,"is_disabled":false,"rental_uris":{"android":"levelo://app?vid=0186c09f-ba67-45cc-a3fb-f5ba22f88035","ios":"levelo://app?vid=0186c09f-ba67-45cc-a3fb-f5ba22f88035"},"vehicle_type_id":"4","last_reported":1747661104,"current_range_meters":10800,"station_id":"ce4bhbh2rcd13ifvqepg","pricing_plan_id":"cebpf4jnsgd1na2vs0mg"},{"bike_id":"9273046a-a0d1-4556-afe8-4a3c1db6b2d6","system_id":"levelo_inurba_marseille","lat":43.26942,"lon":5.40251,"is_reserved":false,"is_disabled":false,"rental_uris":{"android":"levelo://app?vid=9273046a-a0d1-4556-afe8-4a3c1db6b2d6","ios":"levelo://app?vid=9273046a-a0d1-4556-afe8-4a3c1db6b2d6"},"vehicle_type_id":"4","last_reported":1747661104,"current_range_meters":10000,"station_id":"cjm6bp8fraef2m0cb0m0","pricing_plan_id":"cebpf4jnsgd1na2vs0mg"},{"bike_id":"b2d8cb22-bb08-445b-9edd-971005f2f520","system_id":"levelo_inurba_marseille","lat":43.305416,"lon":5.366935,"is_reserved":false,"is_disabled":false,"rental_uris":{"android":"levelo://app?vid=b2d8cb22-bb08-445b-9edd-971005f2f520","ios":"levelo://app?vid=b2d8cb22-bb08-445b-9edd-971005f2f520"},"vehicle_type_id":"4","last_reported":1747661104,"current_range_meters":10000,"station_id":"ce4bgrp2rcd13ifvqc9g","pricing_plan_id":"cebpf4jnsgd1na2vs0mg"},{"bike_id":"201476c2-6270-46bd-a5f5-e47f4ad7efa4","system_id":"levelo_inurba_marseille","lat":43.2316,"lon":5.43722,"is_reserved":false,"is_disabled":false,"rental_uris":{"android":"levelo://app?vid=201476c2-6270-46bd-a5f5-e47f4ad7efa4","ios":"levelo://app?vid=201476c2-6270-46bd-a5f5-e47f4ad7efa4"},"vehicle_type_id":"4","last_reported":1747661104,"current_range_meters":10000,"station_id":"ce4bhmp2rcd13ifvqgog","pricing_plan_id":"cebpf4jnsgd1na2vs0mg"},{"bike_id":"a3e8f3cc-53ef-4ed3-8ac6-92b1e2e12018","system_id":"levelo_inurba_marseille","lat":43.30309,"lon":5.36907,"is_reserved":false,"is_disabled":false,"rental_uris":{"android":"levelo://app?vid=a3e8f3cc-53ef-4ed3-8ac6-92b1e2e12018","ios":"levelo://app?vid=a3e8f3cc-53ef-4ed3-8ac6-92b1e2e12018"},"vehicle_type_id":"4","last_reported":1747661104,"current_range_meters":10000,"station_id":"ce4bgqh2rcd13ifvqc5g","pricing_plan_id":"cebpf4jnsgd1na2vs0mg"},{"bike_id":"af8dfb26-c73b-43ac-b638-5db81288c9fb","system_id":"levelo_inurba_marseille","lat":43.313746,"lon":5.384897,"is_reserved":false,"is_disabled":false,"rental_uris":{"android":"levelo://app?vid=af8dfb26-c73b-43ac-b638-5db81288c9fb","ios":"levelo://app?vid=af8dfb26-c73b-43ac-b638-5db81288c9fb"},"vehicle_type_id":"4","last_reported":1747661104,"current_range_meters":10000,"station_id":"ce4bgt92rcd13ifvqcf0","pricing_plan_id":"cebpf4jnsgd1na2vs0mg"},{"bike_id":"dbf8222a-eea0-42f0-80c2-a4791ac4ed58","system_id":"levelo_inurba_marseille","lat":43.25003,"lon":5.38923,"is_reserved":false,"is_disabled":false,"rental_uris":{"android":"levelo://app?vid=dbf8222a-eea0-42f0-80c2-a4791ac4ed58","ios":"levelo://app?vid=dbf8222a-eea0-42f0-80c2-a4791ac4ed58"},"vehicle_type_id":"4","last_reported":1747661104,"current_range_meters":10800,"station_id":"ce4bhgp2rcd13ifvqfd0","pricing_plan_id":"cebpf4jnsgd1na2vs0mg"},{"bike_id":"4df75d2f-af0e-457b-a2f3-4ab5ff5b325b","system_id":"levelo_inurba_marseille","lat":43.27496,"lon":5.42454,"is_reserved":false,"is_disabled":false,"rental_uris":{"android":"levelo://app?vid=4df75d2f-af0e-457b-a2f3-4ab5ff5b325b","ios":"levelo://app?vid=4df75d2f-af0e-457b-a2f3-4ab5ff5b325b"},"vehicle_type_id":"4","last_reported":1747661104,"current_range_meters":10800,"station_id":"ce4bhn92rcd13ifvqgrg","pricing_plan_id":"cebpf4jnsgd1na2vs0mg"},{"bike_id":"e2483e33-e22f-4969-8812-f7cdcc75c59a","system_id":"levelo_inurba_marseille","lat":43.32356,"lon":5.3676,"is_reserved":false,"is_disabled":false,"rental_uris":{"android":"levelo://app?vid=e2483e33-e22f-4969-8812-f7cdcc75c59a","ios":"levelo://app?vid=e2483e33-e22f-4969-8812-f7cdcc75c59a"},"vehicle_type_id":"4","last_reported":1747661104,"current_range_meters":10800,"station_id":"ce4bhsh2rcd13ifvqi2g","pricing_plan_id":"cebpf4jnsgd1na2vs0mg"},{"bike_id":"db7cfd92-e550-4c14-b538-aaa706e0fd09","system_id":"levelo_inurba_marseille","lat":43.29968,"lon":5.38497,"is_reserved":false,"is_disabled":false,"rental_uris":{"android":"levelo://app?vid=db7cfd92-e550-4c14-b538-aaa706e0fd09","ios":"levelo://app?vid=db7cfd92-e550-4c14-b538-aaa706e0fd09"},"vehicle_type_id":"4","last_reported":1747661104,"current_range_meters":10800,"station_id":"ce4bgj92rcd13ifvqbd0","pricing_plan_id":"cebpf4jnsgd1na2vs0mg"},{"bike_id":"2df28901-da48-49ab-9be2-e7a7d2f1d7b0","system_id":"levelo_inurba_marseille","lat":43.29956,"lon":5.41332,"is_reserved":false,"is_disabled":false,"rental_uris":{"android":"levelo://app?vid=2df28901-da48-49ab-9be2-e7a7d2f1d7b0","ios":"levelo://app?vid=2df28901-da48-49ab-9be2-e7a7d2f1d7b0"},"vehicle_type_id":"4","last_reported":1747661104,"current_range_meters":10800,"station_id":"ce4bhp12rcd13ifvqh9g","pricing_plan_id":"cebpf4jnsgd1na2vs0mg"},{"bike_id":"2d80332d-3472-463d-978a-71a6bca3ad7d","system_id":"levelo_inurba_marseille","lat":43.26214,"lon":5.374375,"is_reserved":false,"is_disabled":false,"rental_uris":{"android":"levelo://app?vid=2d80332d-3472-463d-978a-71a6bca3ad7d","ios":"levelo://app?vid=2d80332d-3472-463d-978a-71a6bca3ad7d"},"vehicle_type_id":"4","last_reported":1747661104,"current_range_meters":10800,"station_id":"ce4bhgp2rcd13ifvqfc0","pricing_plan_id":"cebpf4jnsgd1na2vs0mg"},{"bike_id":"f9730b2e-3c97-42d8-b5ec-e41a66a1aa2f","system_id":"levelo_inurba_marseille","lat":43.2858,"lon":5.39498,"is_reserved":false,"is_disabled":false,"rental_uris":{"android":"levelo://app?vid=f9730b2e-3c97-42d8-b5ec-e41a66a1aa2f","ios":"levelo://app?vid=f9730b2e-3c97-42d8-b5ec-e41a66a1aa2f"},"vehicle_type_id":"4","last_reported":1747661104,"current_range_meters":11200,"station_id":"ce4bh292rcd13ifvqdg0","pricing_plan_id":"cebpf4jnsgd1na2vs0mg"},{"bike_id":"aba237c4-2b28-4e33-baaa-5fde8911bcfc","system_id":"levelo_inurba_marseille","lat":43.27187,"lon":5.41002,"is_reserved":false,"is_disabled":false,"rental_uris":{"android":"levelo://app?vid=aba237c4-2b28-4e33-baaa-5fde8911bcfc","ios":"levelo://app?vid=aba237c4-2b28-4e33-baaa-5fde8911bcfc"},"vehicle_type_id":"4","last_reported":1747661104,"current_range_meters":11200,"station_id":"ce4bhl12rcd13ifvqgf0","pricing_plan_id":"cebpf4jnsgd1na2vs0mg"},{"bike_id":"1304491c-9598-4f85-b166-545686317b13","system_id":"levelo_inurba_marseille","lat":43.23153,"lon":5.43711,"is_reserved":false,"is_disabled":false,"rental_uris":{"android":"levelo://app?vid=1304491c-9598-4f85-b166-545686317b13","ios":"levelo://app?vid=1304491c-9598-4f85-b166-545686317b13"},"vehicle_type_id":"4","last_reported":1747661104,"current_range_meters":11200,"station_id":"ce4bhmp2rcd13ifvqgog","pricing_plan_id":"cebpf4jnsgd1na2vs0mg"},{"bike_id":"bcbdbd69-7be8-42f8-a855-a4358565de8f","system_id":"levelo_inurba_marseille","lat":43.27775,"lon":5.41381,"is_reserved":false,"is_disabled":false,"rental_uris":{"android":"levelo://app?vid=bcbdbd69-7be8-42f8-a855-a4358565de8f","ios":"levelo://app?vid=bcbdbd69-7be8-42f8-a855-a4358565de8f"},"vehicle_type_id":"4","last_reported":1747661104,"current_range_meters":11200,"station_id":"","pricing_plan_id":"cebpf4jnsgd1na2vs0mg"},{"bike_id":"44b59ed1-239f-46fe-9da0-822684d4ad02","system_id":"levelo_inurba_marseille","lat":43.27214,"lon":5.39181,"is_reserved":false,"is_disabled":false,"rental_uris":{"android":"levelo://app?vid=44b59ed1-239f-46fe-9da0-822684d4ad02","ios":"levelo://app?vid=44b59ed1-239f-46fe-9da0-822684d4ad02"},"vehicle_type_id":"4","last_reported":1747661104,"current_range_meters":11200,"station_id":"ce4bhhp2rcd13ifvqfm0","pricing_plan_id":"cebpf4jnsgd1na2vs0mg"},{"bike_id":"a0ef91e8-eab4-4e92-9764-f8b59bed148c","system_id":"levelo_inurba_marseille","lat":43.31383,"lon":5.3847,"is_reserved":false,"is_disabled":false,"rental_uris":{"android":"levelo://app?vid=a0ef91e8-eab4-4e92-9764-f8b59bed148c","ios":"levelo://app?vid=a0ef91e8-eab4-4e92-9764-f8b59bed148c"},"vehicle_type_id":"4","last_reported":1747661104,"current_range_meters":11200,"station_id":"ce4bgt92rcd13ifvqcf0","pricing_plan_id":"cebpf4jnsgd1na2vs0mg"},{"bike_id":"f66dfcee-67b5-430d-a8e8-092bd8896576","system_id":"levelo_inurba_marseille","lat":43.29873,"lon":5.39738,"is_reserved":false,"is_disabled":false,"rental_uris":{"android":"levelo://app?vid=f66dfcee-67b5-430d-a8e8-092bd8896576","ios":"levelo://app?vid=f66dfcee-67b5-430d-a8e8-092bd8896576"},"vehicle_type_id":"4","last_reported":1747661104,"current_range_meters":11200,"station_id":"ce4bh0h2rcd13ifvqd50","pricing_plan_id":"cebpf4jnsgd1na2vs0mg"},{"bike_id":"fd34a208-42f4-471e-ab89-ed6d499f6bd0","system_id":"levelo_inurba_marseille","lat":43.301346,"lon":5.39873,"is_reserved":false,"is_disabled":false,"rental_uris":{"android":"levelo://app?vid=fd34a208-42f4-471e-ab89-ed6d499f6bd0","ios":"levelo://app?vid=fd34a208-42f4-471e-ab89-ed6d499f6bd0"},"vehicle_type_id":"4","last_reported":1747661104,"current_range_meters":17200,"station_id":"ce4bh0h2rcd13ifvqd40","pricing_plan_id":"cebpf4jnsgd1na2vs0mg"},{"bike_id":"5102e673-8cd2-41b2-b937-d62391ef07c0","system_id":"levelo_inurba_marseille","lat":43.28928,"lon":5.38391,"is_reserved":false,"is_disabled":false,"rental_uris":{"android":"levelo://app?vid=5102e673-8cd2-41b2-b937-d62391ef07c0","ios":"levelo://app?vid=5102e673-8cd2-41b2-b937-d62391ef07c0"},"vehicle_type_id":"4","last_reported":1747661104,"current_range_meters":11200,"station_id":"ce4bh612rcd13ifvqe6g","pricing_plan_id":"cebpf4jnsgd1na2vs0mg"},{"bike_id":"a7821492-20a8-4ac8-b942-1b06e83bcd75","system_id":"levelo_inurba_marseille","lat":43.3054,"lon":5.3655,"is_reserved":false,"is_disabled":false,"rental_uris":{"android":"levelo://app?vid=a7821492-20a8-4ac8-b942-1b06e83bcd75","ios":"levelo://app?vid=a7821492-20a8-4ac8-b942-1b06e83bcd75"},"vehicle_type_id":"4","last_reported":1747661104,"current_range_meters":11600,"station_id":"ce4bgs12rcd13ifvqcag","pricing_plan_id":"cebpf4jnsgd1na2vs0mg"},{"bike_id":"4d345803-3a7b-4df4-85b3-866add29f38e","system_id":"levelo_inurba_marseille","lat":43.29722,"lon":5.36618,"is_reserved":false,"is_disabled":false,"rental_uris":{"android":"levelo://app?vid=4d345803-3a7b-4df4-85b3-866add29f38e","ios":"levelo://app?vid=4d345803-3a7b-4df4-85b3-866add29f38e"},"vehicle_type_id":"4","last_reported":1747661104,"current_range_meters":11600,"station_id":"ce4bgn12rcd13ifvqbt0","pricing_plan_id":"cebpf4jnsgd1na2vs0mg"},{"bike_id":"6c0481be-1d38-46a6-983f-2cb6a293456d","system_id":"levelo_inurba_marseille","lat":43.30162,"lon":5.37424,"is_reserved":false,"is_disabled":false,"rental_uris":{"android":"levelo://app?vid=6c0481be-1d38-46a6-983f-2cb6a293456d","ios":"levelo://app?vid=6c0481be-1d38-46a6-983f-2cb6a293456d"},"vehicle_type_id":"4","last_reported":1747661104,"current_range_meters":12000,"station_id":"ce4bgs92rcd13ifvqcc0","pricing_plan_id":"cebpf4jnsgd1na2vs0mg"},{"bike_id":"f5d6825c-fcb2-4e6b-a56d-d1cbdbb9e2ca","system_id":"levelo_inurba_marseille","lat":43.33604,"lon":5.41033,"is_reserved":false,"is_disabled":false,"rental_uris":{"android":"levelo://app?vid=f5d6825c-fcb2-4e6b-a56d-d1cbdbb9e2ca","ios":"levelo://app?vid=f5d6825c-fcb2-4e6b-a56d-d1cbdbb9e2ca"},"vehicle_type_id":"4","last_reported":1747661104,"current_range_meters":11600,"station_id":"ce4bhqh2rcd13ifvqhmg","pricing_plan_id":"cebpf4jnsgd1na2vs0mg"},{"bike_id":"34634a05-f3bf-47b8-9fe3-aa3061eac03f","system_id":"levelo_inurba_marseille","lat":43.2927,"lon":5.37631,"is_reserved":false,"is_disabled":false,"rental_uris":{"android":"levelo://app?vid=34634a05-f3bf-47b8-9fe3-aa3061eac03f","ios":"levelo://app?vid=34634a05-f3bf-47b8-9fe3-aa3061eac03f"},"vehicle_type_id":"4","last_reported":1747661104,"current_range_meters":12000,"station_id":"ce4bgi12rcd13ifvqb80","pricing_plan_id":"cebpf4jnsgd1na2vs0mg"},{"bike_id":"da02c547-6414-4425-b05a-de14e85b8f38","system_id":"levelo_inurba_marseille","lat":43.337444,"lon":5.374475,"is_reserved":false,"is_disabled":false,"rental_uris":{"android":"levelo://app?vid=da02c547-6414-4425-b05a-de14e85b8f38","ios":"levelo://app?vid=da02c547-6414-4425-b05a-de14e85b8f38"},"vehicle_type_id":"4","last_reported":1747661104,"current_range_meters":12000,"station_id":"","pricing_plan_id":"cebpf4jnsgd1na2vs0mg"},{"bike_id":"88584204-9fbe-4d8d-8920-5f44c2d1670f","system_id":"levelo_inurba_marseille","lat":43.29307,"lon":5.37162,"is_reserved":false,"is_disabled":false,"rental_uris":{"android":"levelo://app?vid=88584204-9fbe-4d8d-8920-5f44c2d1670f","ios":"levelo://app?vid=88584204-9fbe-4d8d-8920-5f44c2d1670f"},"vehicle_type_id":"4","last_reported":1747661104,"current_range_meters":12000,"station_id":"ce4bgh92rcd13ifvqb40","pricing_plan_id":"cebpf4jnsgd1na2vs0mg"},{"bike_id":"cff8ff58-047a-4e45-89da-68f5f4acd81e","system_id":"levelo_inurba_marseille","lat":43.31278,"lon":5.36842,"is_reserved":false,"is_disabled":false,"rental_uris":{"android":"levelo://app?vid=cff8ff58-047a-4e45-89da-68f5f4acd81e","ios":"levelo://app?vid=cff8ff58-047a-4e45-89da-68f5f4acd81e"},"vehicle_type_id":"4","last_reported":1747661104,"current_range_meters":12400,"station_id":"","pricing_plan_id":"cebpf4jnsgd1na2vs0mg"},{"bike_id":"50c04dbe-90dc-40e1-a8aa-31d37c63845c","system_id":"levelo_inurba_marseille","lat":43.279104,"lon":5.395735,"is_reserved":false,"is_disabled":false,"rental_uris":{"android":"levelo://app?vid=50c04dbe-90dc-40e1-a8aa-31d37c63845c","ios":"levelo://app?vid=50c04dbe-90dc-40e1-a8aa-31d37c63845c"},"vehicle_type_id":"4","last_reported":1747661104,"current_range_meters":12800,"station_id":"ce4bhh12rcd13ifvqff0","pricing_plan_id":"cebpf4jnsgd1na2vs0mg"},{"bike_id":"f4ba9c6e-bcad-41c7-8d4e-bca01364d190","system_id":"levelo_inurba_marseille","lat":43.25932,"lon":5.40906,"is_reserved":false,"is_disabled":false,"rental_uris":{"android":"levelo://app?vid=f4ba9c6e-bcad-41c7-8d4e-bca01364d190","ios":"levelo://app?vid=f4ba9c6e-bcad-41c7-8d4e-bca01364d190"},"vehicle_type_id":"4","last_reported":1747661104,"current_range_meters":12800,"station_id":"ce4bhm92rcd13ifvqglg","pricing_plan_id":"cebpf4jnsgd1na2vs0mg"},{"bike_id":"35b2569e-023f-46db-a161-253eb626563b","system_id":"levelo_inurba_marseille","lat":43.28568,"lon":5.39487,"is_reserved":false,"is_disabled":false,"rental_uris":{"android":"levelo://app?vid=35b2569e-023f-46db-a161-253eb626563b","ios":"levelo://app?vid=35b2569e-023f-46db-a161-253eb626563b"},"vehicle_type_id":"4","last_reported":1747661104,"current_range_meters":12800,"station_id":"ce4bh292rcd13ifvqdg0","pricing_plan_id":"cebpf4jnsgd1na2vs0mg"},{"bike_id":"dd716423-e959-4fcf-ad4b-a11c97766549","system_id":"levelo_inurba_marseille","lat":43.27176,"lon":5.40988,"is_reserved":false,"is_disabled":false,"rental_uris":{"android":"levelo://app?vid=dd716423-e959-4fcf-ad4b-a11c97766549","ios":"levelo://app?vid=dd716423-e959-4fcf-ad4b-a11c97766549"},"vehicle_type_id":"4","last_reported":1747661104,"current_range_meters":12800,"station_id":"ce4bhl12rcd13ifvqgf0","pricing_plan_id":"cebpf4jnsgd1na2vs0mg"},{"bike_id":"f0be192c-ae4f-446a-8b5a-34019ce7051f","system_id":"levelo_inurba_marseille","lat":43.298467,"lon":5.362631,"is_reserved":false,"is_disabled":false,"rental_uris":{"android":"levelo://app?vid=f0be192c-ae4f-446a-8b5a-34019ce7051f","ios":"levelo://app?vid=f0be192c-ae4f-446a-8b5a-34019ce7051f"},"vehicle_type_id":"4","last_reported":1747661104,"current_range_meters":12800,"station_id":"ce4bgpp2rcd13ifvqc3g","pricing_plan_id":"cebpf4jnsgd1na2vs0mg"},{"bike_id":"c4afd970-ec2b-4398-80c9-52703f0046c4","system_id":"levelo_inurba_marseille","lat":43.29277,"lon":5.36842,"is_reserved":false,"is_disabled":false,"rental_uris":{"android":"levelo://app?vid=c4afd970-ec2b-4398-80c9-52703f0046c4","ios":"levelo://app?vid=c4afd970-ec2b-4398-80c9-52703f0046c4"},"vehicle_type_id":"4","last_reported":1747661104,"current_range_meters":14000,"station_id":"ce4bhbp2rcd13ifvqesg","pricing_plan_id":"cebpf4jnsgd1na2vs0mg"},{"bike_id":"a486c409-50e3-4319-942b-256cc6c595ab","system_id":"levelo_inurba_marseille","lat":43.31242,"lon":5.36895,"is_reserved":false,"is_disabled":false,"rental_uris":{"android":"levelo://app?vid=a486c409-50e3-4319-942b-256cc6c595ab","ios":"levelo://app?vid=a486c409-50e3-4319-942b-256cc6c595ab"},"vehicle_type_id":"4","last_reported":1747661104,"current_range_meters":13600,"station_id":"ce4bgl92rcd13ifvqbq0","pricing_plan_id":"cebpf4jnsgd1na2vs0mg"},{"bike_id":"4d84e95c-d2af-4324-b46f-888d9bc5478f","system_id":"levelo_inurba_marseille","lat":43.31244,"lon":5.36892,"is_reserved":false,"is_disabled":false,"rental_uris":{"android":"levelo://app?vid=4d84e95c-d2af-4324-b46f-888d9bc5478f","ios":"levelo://app?vid=4d84e95c-d2af-4324-b46f-888d9bc5478f"},"vehicle_type_id":"4","last_reported":1747661104,"current_range_meters":13600,"station_id":"ce4bgl92rcd13ifvqbq0","pricing_plan_id":"cebpf4jnsgd1na2vs0mg"},{"bike_id":"f10a0e20-a2f8-494e-84d0-f3bc5087ddc6","system_id":"levelo_inurba_marseille","lat":43.29029,"lon":5.3814,"is_reserved":false,"is_disabled":false,"rental_uris":{"android":"levelo://app?vid=f10a0e20-a2f8-494e-84d0-f3bc5087ddc6","ios":"levelo://app?vid=f10a0e20-a2f8-494e-84d0-f3bc5087ddc6"},"vehicle_type_id":"4","last_reported":1747661104,"current_range_meters":13600,"station_id":"ce4bh4p2rcd13ifvqe1g","pricing_plan_id":"cebpf4jnsgd1na2vs0mg"},{"bike_id":"d68e1a75-0df4-467b-93a3-50f20892f12d","system_id":"levelo_inurba_marseille","lat":43.25497,"lon":5.37648,"is_reserved":false,"is_disabled":false,"rental_uris":{"android":"levelo://app?vid=d68e1a75-0df4-467b-93a3-50f20892f12d","ios":"levelo://app?vid=d68e1a75-0df4-467b-93a3-50f20892f12d"},"vehicle_type_id":"4","last_reported":1747661104,"current_range_meters":13600,"station_id":"ce4bhh12rcd13ifvqff0","pricing_plan_id":"cebpf4jnsgd1na2vs0mg"},{"bike_id":"5db2aa0f-2efe-4571-8981-b1488e63e2b9","system_id":"levelo_inurba_marseille","lat":43.23159,"lon":5.43714,"is_reserved":false,"is_disabled":false,"rental_uris":{"android":"levelo://app?vid=5db2aa0f-2efe-4571-8981-b1488e63e2b9","ios":"levelo://app?vid=5db2aa0f-2efe-4571-8981-b1488e63e2b9"},"vehicle_type_id":"4","last_reported":1747661104,"current_range_meters":13600,"station_id":"ce4bhmp2rcd13ifvqgog","pricing_plan_id":"cebpf4jnsgd1na2vs0mg"},{"bike_id":"ce0098ff-57ba-46ae-af56-4b628536eb66","system_id":"levelo_inurba_marseille","lat":43.23186,"lon":5.39986,"is_reserved":false,"is_disabled":false,"rental_uris":{"android":"levelo://app?vid=ce0098ff-57ba-46ae-af56-4b628536eb66","ios":"levelo://app?vid=ce0098ff-57ba-46ae-af56-4b628536eb66"},"vehicle_type_id":"4","last_reported":1747661104,"current_range_meters":13600,"station_id":"ce4bhn12rcd13ifvqgqg","pricing_plan_id":"cebpf4jnsgd1na2vs0mg"},{"bike_id":"06ae0283-6c09-4833-b3f7-52809cbb1ba0","system_id":"levelo_inurba_marseille","lat":43.28568,"lon":5.39511,"is_reserved":false,"is_disabled":false,"rental_uris":{"android":"levelo://app?vid=06ae0283-6c09-4833-b3f7-52809cbb1ba0","ios":"levelo://app?vid=06ae0283-6c09-4833-b3f7-52809cbb1ba0"},"vehicle_type_id":"4","last_reported":1747661104,"current_range_meters":14000,"station_id":"ce4bh292rcd13ifvqdg0","pricing_plan_id":"cebpf4jnsgd1na2vs0mg"},{"bike_id":"0bea6123-d88d-43a1-85b7-34809b98460f","system_id":"levelo_inurba_marseille","lat":43.27403,"lon":5.42367,"is_reserved":false,"is_disabled":false,"rental_uris":{"android":"levelo://app?vid=0bea6123-d88d-43a1-85b7-34809b98460f","ios":"levelo://app?vid=0bea6123-d88d-43a1-85b7-34809b98460f"},"vehicle_type_id":"4","last_reported":1747661104,"current_range_meters":14000,"station_id":"","pricing_plan_id":"cebpf4jnsgd1na2vs0mg"},{"bike_id":"31975e60-1a03-4cd2-ad2c-ea8cf03a56f2","system_id":"levelo_inurba_marseille","lat":43.26791,"lon":5.39418,"is_reserved":false,"is_disabled":false,"rental_uris":{"android":"levelo://app?vid=31975e60-1a03-4cd2-ad2c-ea8cf03a56f2","ios":"levelo://app?vid=31975e60-1a03-4cd2-ad2c-ea8cf03a56f2"},"vehicle_type_id":"4","last_reported":1747661104,"current_range_meters":14000,"station_id":"ce4bhh12rcd13ifvqfg0","pricing_plan_id":"cebpf4jnsgd1na2vs0mg"},{"bike_id":"7d1d8b75-bef4-4028-8fdd-e351be2a2708","system_id":"levelo_inurba_marseille","lat":43.27498,"lon":5.42448,"is_reserved":false,"is_disabled":false,"rental_uris":{"android":"levelo://app?vid=7d1d8b75-bef4-4028-8fdd-e351be2a2708","ios":"levelo://app?vid=7d1d8b75-bef4-4028-8fdd-e351be2a2708"},"vehicle_type_id":"4","last_reported":1747661104,"current_range_meters":14000,"station_id":"ce4bhn92rcd13ifvqgrg","pricing_plan_id":"cebpf4jnsgd1na2vs0mg"},{"bike_id":"bffbaf88-357a-4e87-a68c-a9a27a6e01e6","system_id":"levelo_inurba_marseille","lat":43.262301,"lon":5.421224,"is_reserved":false,"is_disabled":false,"rental_uris":{"android":"levelo://app?vid=bffbaf88-357a-4e87-a68c-a9a27a6e01e6","ios":"levelo://app?vid=bffbaf88-357a-4e87-a68c-a9a27a6e01e6"},"vehicle_type_id":"4","last_reported":1747661104,"current_range_meters":14000,"station_id":"","pricing_plan_id":"cebpf4jnsgd1na2vs0mg"},{"bike_id":"fca86a55-22f2-4b7a-b972-9f8946fa6983","system_id":"levelo_inurba_marseille","lat":43.30308,"lon":5.39187,"is_reserved":false,"is_disabled":true,"rental_uris":{"android":"levelo://app?vid=fca86a55-22f2-4b7a-b972-9f8946fa6983","ios":"levelo://app?vid=fca86a55-22f2-4b7a-b972-9f8946fa6983"},"vehicle_type_id":"4","last_reported":1747661104,"current_range_meters":14000,"station_id":"ce4bgkh2rcd13ifvqbk0","pricing_plan_id":"cebpf4jnsgd1na2vs0mg"},{"bike_id":"d39cae16-34b5-4b82-8fc6-cac28c889070","system_id":"levelo_inurba_marseille","lat":43.29479,"lon":5.3868,"is_reserved":false,"is_disabled":true,"rental_uris":{"android":"levelo://app?vid=d39cae16-34b5-4b82-8fc6-cac28c889070","ios":"levelo://app?vid=d39cae16-34b5-4b82-8fc6-cac28c889070"},"vehicle_type_id":"4","last_reported":1747661104,"current_range_meters":14000,"station_id":"","pricing_plan_id":"cebpf4jnsgd1na2vs0mg"},{"bike_id":"94bdc35b-713b-4ae7-9fdb-b1e4bed922c2","system_id":"levelo_inurba_marseille","lat":43.274955,"lon":5.424499,"is_reserved":false,"is_disabled":false,"rental_uris":{"android":"levelo://app?vid=94bdc35b-713b-4ae7-9fdb-b1e4bed922c2","ios":"levelo://app?vid=94bdc35b-713b-4ae7-9fdb-b1e4bed922c2"},"vehicle_type_id":"4","last_reported":1747661104,"current_range_meters":14000,"station_id":"ce4bhn92rcd13ifvqgrg","pricing_plan_id":"cebpf4jnsgd1na2vs0mg"},{"bike_id":"38b5c13c-ecfe-476a-abb0-33b1528de2bb","system_id":"levelo_inurba_marseille","lat":43.29971,"lon":5.41317,"is_reserved":false,"is_disabled":false,"rental_uris":{"android":"levelo://app?vid=38b5c13c-ecfe-476a-abb0-33b1528de2bb","ios":"levelo://app?vid=38b5c13c-ecfe-476a-abb0-33b1528de2bb"},"vehicle_type_id":"4","last_reported":1747661104,"current_range_meters":14000,"station_id":"ce4bhp12rcd13ifvqh9g","pricing_plan_id":"cebpf4jnsgd1na2vs0mg"},{"bike_id":"f6bbb572-4d3e-46d5-8e67-abf74be074ff","system_id":"levelo_inurba_marseille","lat":43.25143,"lon":5.40333,"is_reserved":false,"is_disabled":false,"rental_uris":{"android":"levelo://app?vid=f6bbb572-4d3e-46d5-8e67-abf74be074ff","ios":"levelo://app?vid=f6bbb572-4d3e-46d5-8e67-abf74be074ff"},"vehicle_type_id":"4","last_reported":1747661104,"current_range_meters":14000,"station_id":"ce4bhlh2rcd13ifvqgig","pricing_plan_id":"cebpf4jnsgd1na2vs0mg"},{"bike_id":"147f0919-b4f4-4da5-a06b-5f70c1438bc0","system_id":"levelo_inurba_marseille","lat":43.25927,"lon":5.40902,"is_reserved":false,"is_disabled":false,"rental_uris":{"android":"levelo://app?vid=147f0919-b4f4-4da5-a06b-5f70c1438bc0","ios":"levelo://app?vid=147f0919-b4f4-4da5-a06b-5f70c1438bc0"},"vehicle_type_id":"4","last_reported":1747661104,"current_range_meters":14400,"station_id":"ce4bhm92rcd13ifvqglg","pricing_plan_id":"cebpf4jnsgd1na2vs0mg"},{"bike_id":"9b0a9e58-48c1-4800-88b1-e86859e043e6","system_id":"levelo_inurba_marseille","lat":43.29829,"lon":5.36265,"is_reserved":false,"is_disabled":false,"rental_uris":{"android":"levelo://app?vid=9b0a9e58-48c1-4800-88b1-e86859e043e6","ios":"levelo://app?vid=9b0a9e58-48c1-4800-88b1-e86859e043e6"},"vehicle_type_id":"4","last_reported":1747661104,"current_range_meters":14400,"station_id":"ce4bgpp2rcd13ifvqc3g","pricing_plan_id":"cebpf4jnsgd1na2vs0mg"},{"bike_id":"08129706-0840-4cc7-a7e9-4dbc2d7407ba","system_id":"levelo_inurba_marseille","lat":43.23203,"lon":5.39987,"is_reserved":false,"is_disabled":false,"rental_uris":{"android":"levelo://app?vid=08129706-0840-4cc7-a7e9-4dbc2d7407ba","ios":"levelo://app?vid=08129706-0840-4cc7-a7e9-4dbc2d7407ba"},"vehicle_type_id":"4","last_reported":1747661104,"current_range_meters":14400,"station_id":"ce4bhn12rcd13ifvqgqg","pricing_plan_id":"cebpf4jnsgd1na2vs0mg"},{"bike_id":"90b1dd11-0e1d-4d15-bb16-17a1a9b70e92","system_id":"levelo_inurba_marseille","lat":43.29305,"lon":5.36863,"is_reserved":false,"is_disabled":false,"rental_uris":{"android":"levelo://app?vid=90b1dd11-0e1d-4d15-bb16-17a1a9b70e92","ios":"levelo://app?vid=90b1dd11-0e1d-4d15-bb16-17a1a9b70e92"},"vehicle_type_id":"4","last_reported":1747661104,"current_range_meters":14400,"station_id":"ce4bhbp2rcd13ifvqesg","pricing_plan_id":"cebpf4jnsgd1na2vs0mg"},{"bike_id":"73ba25f2-cafc-442d-854b-b26a6ddaf853","system_id":"levelo_inurba_marseille","lat":43.26963,"lon":5.38651,"is_reserved":false,"is_disabled":false,"rental_uris":{"android":"levelo://app?vid=73ba25f2-cafc-442d-854b-b26a6ddaf853","ios":"levelo://app?vid=73ba25f2-cafc-442d-854b-b26a6ddaf853"},"vehicle_type_id":"4","last_reported":1747661104,"current_range_meters":14400,"station_id":"ce4bhh92rcd13ifvqfh0","pricing_plan_id":"cebpf4jnsgd1na2vs0mg"},{"bike_id":"7aa2ee5f-32be-4e3a-aa01-57d0359ba7a9","system_id":"levelo_inurba_marseille","lat":43.231741,"lon":5.399881,"is_reserved":false,"is_disabled":false,"rental_uris":{"android":"levelo://app?vid=7aa2ee5f-32be-4e3a-aa01-57d0359ba7a9","ios":"levelo://app?vid=7aa2ee5f-32be-4e3a-aa01-57d0359ba7a9"},"vehicle_type_id":"4","last_reported":1747661104,"current_range_meters":14800,"station_id":"","pricing_plan_id":"cebpf4jnsgd1na2vs0mg"},{"bike_id":"cc14136d-d51b-4efc-b3a3-78a3fa9a32ab","system_id":"levelo_inurba_marseille","lat":43.311734,"lon":5.387153,"is_reserved":false,"is_disabled":false,"rental_uris":{"android":"levelo://app?vid=cc14136d-d51b-4efc-b3a3-78a3fa9a32ab","ios":"levelo://app?vid=cc14136d-d51b-4efc-b3a3-78a3fa9a32ab"},"vehicle_type_id":"4","last_reported":1747661104,"current_range_meters":14800,"station_id":"ce4bgv12rcd13ifvqcp0","pricing_plan_id":"cebpf4jnsgd1na2vs0mg"},{"bike_id":"050b0fd2-977b-4835-bbd8-94a0fa62ed3a","system_id":"levelo_inurba_marseille","lat":43.279156,"lon":5.395773,"is_reserved":false,"is_disabled":false,"rental_uris":{"android":"levelo://app?vid=050b0fd2-977b-4835-bbd8-94a0fa62ed3a","ios":"levelo://app?vid=050b0fd2-977b-4835-bbd8-94a0fa62ed3a"},"vehicle_type_id":"4","last_reported":1747661104,"current_range_meters":15200,"station_id":"ce4bhf92rcd13ifvqf40","pricing_plan_id":"cebpf4jnsgd1na2vs0mg"},{"bike_id":"47e833c7-b34c-476b-bfe7-81bdb4db04e4","system_id":"levelo_inurba_marseille","lat":43.25939,"lon":5.40884,"is_reserved":false,"is_disabled":false,"rental_uris":{"android":"levelo://app?vid=47e833c7-b34c-476b-bfe7-81bdb4db04e4","ios":"levelo://app?vid=47e833c7-b34c-476b-bfe7-81bdb4db04e4"},"vehicle_type_id":"4","last_reported":1747661104,"current_range_meters":15200,"station_id":"ce4bhm92rcd13ifvqglg","pricing_plan_id":"cebpf4jnsgd1na2vs0mg"},{"bike_id":"56b0ed36-22a3-4ab7-9131-57c87683a9a9","system_id":"levelo_inurba_marseille","lat":43.25001,"lon":5.38936,"is_reserved":false,"is_disabled":false,"rental_uris":{"android":"levelo://app?vid=56b0ed36-22a3-4ab7-9131-57c87683a9a9","ios":"levelo://app?vid=56b0ed36-22a3-4ab7-9131-57c87683a9a9"},"vehicle_type_id":"4","last_reported":1747661104,"current_range_meters":15200,"station_id":"ce4bhgp2rcd13ifvqfd0","pricing_plan_id":"cebpf4jnsgd1na2vs0mg"},{"bike_id":"93990334-3992-4495-9a5c-06796af2c954","system_id":"levelo_inurba_marseille","lat":43.29,"lon":5.35603,"is_reserved":false,"is_disabled":false,"rental_uris":{"android":"levelo://app?vid=93990334-3992-4495-9a5c-06796af2c954","ios":"levelo://app?vid=93990334-3992-4495-9a5c-06796af2c954"},"vehicle_type_id":"4","last_reported":1747661104,"current_range_meters":15200,"station_id":"ce4bhb92rcd13ifvqen0","pricing_plan_id":"cebpf4jnsgd1na2vs0mg"},{"bike_id":"bca1a87f-6e8d-4173-bcb8-e595485b4fb2","system_id":"levelo_inurba_marseille","lat":43.24076,"lon":5.37777,"is_reserved":false,"is_disabled":false,"rental_uris":{"android":"levelo://app?vid=bca1a87f-6e8d-4173-bcb8-e595485b4fb2","ios":"levelo://app?vid=bca1a87f-6e8d-4173-bcb8-e595485b4fb2"},"vehicle_type_id":"4","last_reported":1747661104,"current_range_meters":16000,"station_id":"ce4bhnp2rcd13ifvqgvg","pricing_plan_id":"cebpf4jnsgd1na2vs0mg"},{"bike_id":"21028741-0ce1-429a-bdf5-a65881192ad6","system_id":"levelo_inurba_marseille","lat":43.30331,"lon":5.4043,"is_reserved":false,"is_disabled":false,"rental_uris":{"android":"levelo://app?vid=21028741-0ce1-429a-bdf5-a65881192ad6","ios":"levelo://app?vid=21028741-0ce1-429a-bdf5-a65881192ad6"},"vehicle_type_id":"4","last_reported":1747661104,"current_range_meters":16000,"station_id":"ce4bh012rcd13ifvqd10","pricing_plan_id":"cebpf4jnsgd1na2vs0mg"},{"bike_id":"a29d28d6-c3f8-4ce7-a26d-6a24837c628c","system_id":"levelo_inurba_marseille","lat":43.30937,"lon":5.36857,"is_reserved":false,"is_disabled":false,"rental_uris":{"android":"levelo://app?vid=a29d28d6-c3f8-4ce7-a26d-6a24837c628c","ios":"levelo://app?vid=a29d28d6-c3f8-4ce7-a26d-6a24837c628c"},"vehicle_type_id":"4","last_reported":1747661104,"current_range_meters":16000,"station_id":"ce4bgn92rcd13ifvqbvg","pricing_plan_id":"cebpf4jnsgd1na2vs0mg"},{"bike_id":"2b242c3d-b7e9-4f68-9034-9c6427a3626c","system_id":"levelo_inurba_marseille","lat":43.23964,"lon":5.36635,"is_reserved":false,"is_disabled":false,"rental_uris":{"android":"levelo://app?vid=2b242c3d-b7e9-4f68-9034-9c6427a3626c","ios":"levelo://app?vid=2b242c3d-b7e9-4f68-9034-9c6427a3626c"},"vehicle_type_id":"4","last_reported":1747661104,"current_range_meters":16400,"station_id":"ce4bhi12rcd13ifvqfp0","pricing_plan_id":"cebpf4jnsgd1na2vs0mg"},{"bike_id":"58edc354-c183-4da4-b527-1ba0f2d395e0","system_id":"levelo_inurba_marseille","lat":43.27666,"lon":5.35772,"is_reserved":false,"is_disabled":false,"rental_uris":{"android":"levelo://app?vid=58edc354-c183-4da4-b527-1ba0f2d395e0","ios":"levelo://app?vid=58edc354-c183-4da4-b527-1ba0f2d395e0"},"vehicle_type_id":"4","last_reported":1747661104,"current_range_meters":16400,"station_id":"","pricing_plan_id":"cebpf4jnsgd1na2vs0mg"},{"bike_id":"e8162579-a5ad-485f-ad83-fec8a2ebe7e1","system_id":"levelo_inurba_marseille","lat":43.26826,"lon":5.39099,"is_reserved":false,"is_disabled":false,"rental_uris":{"android":"levelo://app?vid=e8162579-a5ad-485f-ad83-fec8a2ebe7e1","ios":"levelo://app?vid=e8162579-a5ad-485f-ad83-fec8a2ebe7e1"},"vehicle_type_id":"4","last_reported":1747661104,"current_range_meters":16400,"station_id":"","pricing_plan_id":"cebpf4jnsgd1na2vs0mg"},{"bike_id":"1844f55d-0b4f-4ef0-bf3a-b0b9b8d26988","system_id":"levelo_inurba_marseille","lat":43.32468,"lon":5.36605,"is_reserved":false,"is_disabled":false,"rental_uris":{"android":"levelo://app?vid=1844f55d-0b4f-4ef0-bf3a-b0b9b8d26988","ios":"levelo://app?vid=1844f55d-0b4f-4ef0-bf3a-b0b9b8d26988"},"vehicle_type_id":"4","last_reported":1747661104,"current_range_meters":16400,"station_id":"ce4bhs12rcd13ifvqhvg","pricing_plan_id":"cebpf4jnsgd1na2vs0mg"},{"bike_id":"2e9b61d5-222f-4492-a78b-258409c69bfa","system_id":"levelo_inurba_marseille","lat":43.3255,"lon":5.41427,"is_reserved":false,"is_disabled":false,"rental_uris":{"android":"levelo://app?vid=2e9b61d5-222f-4492-a78b-258409c69bfa","ios":"levelo://app?vid=2e9b61d5-222f-4492-a78b-258409c69bfa"},"vehicle_type_id":"4","last_reported":1747661104,"current_range_meters":16400,"station_id":"ce4bhq12rcd13ifvqhhg","pricing_plan_id":"cebpf4jnsgd1na2vs0mg"},{"bike_id":"98804e99-9bed-4363-a5ff-1489de79ae3d","system_id":"levelo_inurba_marseille","lat":43.28154,"lon":5.42639,"is_reserved":false,"is_disabled":true,"rental_uris":{"android":"levelo://app?vid=98804e99-9bed-4363-a5ff-1489de79ae3d","ios":"levelo://app?vid=98804e99-9bed-4363-a5ff-1489de79ae3d"},"vehicle_type_id":"4","last_reported":1747661104,"current_range_meters":16400,"station_id":"ce4bhnh2rcd13ifvqgug","pricing_plan_id":"cebpf4jnsgd1na2vs0mg"},{"bike_id":"28f45564-465a-406a-9f7f-ac04ecf5329b","system_id":"levelo_inurba_marseille","lat":43.32482,"lon":5.36576,"is_reserved":false,"is_disabled":false,"rental_uris":{"android":"levelo://app?vid=28f45564-465a-406a-9f7f-ac04ecf5329b","ios":"levelo://app?vid=28f45564-465a-406a-9f7f-ac04ecf5329b"},"vehicle_type_id":"4","last_reported":1747661104,"current_range_meters":16400,"station_id":"ce4bhs12rcd13ifvqhvg","pricing_plan_id":"cebpf4jnsgd1na2vs0mg"},{"bike_id":"2d38604a-0662-4568-b9d8-de4d6697f522","system_id":"levelo_inurba_marseille","lat":43.29589,"lon":5.36742,"is_reserved":false,"is_disabled":false,"rental_uris":{"android":"levelo://app?vid=2d38604a-0662-4568-b9d8-de4d6697f522","ios":"levelo://app?vid=2d38604a-0662-4568-b9d8-de4d6697f522"},"vehicle_type_id":"4","last_reported":1747661104,"current_range_meters":16400,"station_id":"ce4bgph2rcd13ifvqc2g","pricing_plan_id":"cebpf4jnsgd1na2vs0mg"},{"bike_id":"2c6cb985-1230-422e-955a-1f56fe14a193","system_id":"levelo_inurba_marseille","lat":43.25786,"lon":5.39362,"is_reserved":false,"is_disabled":false,"rental_uris":{"android":"levelo://app?vid=2c6cb985-1230-422e-955a-1f56fe14a193","ios":"levelo://app?vid=2c6cb985-1230-422e-955a-1f56fe14a193"},"vehicle_type_id":"4","last_reported":1747661104,"current_range_meters":16400,"station_id":"ce4bhip2rcd13ifvqft0","pricing_plan_id":"cebpf4jnsgd1na2vs0mg"},{"bike_id":"3f79a2ec-2ff1-44a9-abae-c826b54c8967","system_id":"levelo_inurba_marseille","lat":43.309649,"lon":5.390516,"is_reserved":false,"is_disabled":false,"rental_uris":{"android":"levelo://app?vid=3f79a2ec-2ff1-44a9-abae-c826b54c8967","ios":"levelo://app?vid=3f79a2ec-2ff1-44a9-abae-c826b54c8967"},"vehicle_type_id":"4","last_reported":1747661104,"current_range_meters":16000,"station_id":"ce4bgup2rcd13ifvqco0","pricing_plan_id":"cebpf4jnsgd1na2vs0mg"},{"bike_id":"0f5c92df-9eb3-43f2-ab31-5fe4585d1334","system_id":"levelo_inurba_marseille","lat":43.338,"lon":5.37438,"is_reserved":false,"is_disabled":false,"rental_uris":{"android":"levelo://app?vid=0f5c92df-9eb3-43f2-ab31-5fe4585d1334","ios":"levelo://app?vid=0f5c92df-9eb3-43f2-ab31-5fe4585d1334"},"vehicle_type_id":"4","last_reported":1747661104,"current_range_meters":16800,"station_id":"","pricing_plan_id":"cebpf4jnsgd1na2vs0mg"},{"bike_id":"e2e3a6f6-0f08-4185-b27b-75bc9500a96d","system_id":"levelo_inurba_marseille","lat":43.2119,"lon":5.35088,"is_reserved":false,"is_disabled":false,"rental_uris":{"android":"levelo://app?vid=e2e3a6f6-0f08-4185-b27b-75bc9500a96d","ios":"levelo://app?vid=e2e3a6f6-0f08-4185-b27b-75bc9500a96d"},"vehicle_type_id":"4","last_reported":1747661104,"current_range_meters":16800,"station_id":"st_cvj6sg6p6f1abm77japg","pricing_plan_id":"cebpf4jnsgd1na2vs0mg"},{"bike_id":"a9df3068-bb4b-43a3-9ce5-b9fa2576cca3","system_id":"levelo_inurba_marseille","lat":43.29592,"lon":5.36741,"is_reserved":false,"is_disabled":false,"rental_uris":{"android":"levelo://app?vid=a9df3068-bb4b-43a3-9ce5-b9fa2576cca3","ios":"levelo://app?vid=a9df3068-bb4b-43a3-9ce5-b9fa2576cca3"},"vehicle_type_id":"4","last_reported":1747661104,"current_range_meters":16800,"station_id":"ce4bgph2rcd13ifvqc2g","pricing_plan_id":"cebpf4jnsgd1na2vs0mg"},{"bike_id":"a5fbda63-723d-4a0f-968f-b97363a065d3","system_id":"levelo_inurba_marseille","lat":43.28275,"lon":5.35067,"is_reserved":false,"is_disabled":false,"rental_uris":{"android":"levelo://app?vid=a5fbda63-723d-4a0f-968f-b97363a065d3","ios":"levelo://app?vid=a5fbda63-723d-4a0f-968f-b97363a065d3"},"vehicle_type_id":"4","last_reported":1747661104,"current_range_meters":16800,"station_id":"ce4bhbp2rcd13ifvqerg","pricing_plan_id":"cebpf4jnsgd1na2vs0mg"},{"bike_id":"53882ed9-e061-4498-98dc-917b66609f40","system_id":"levelo_inurba_marseille","lat":43.25919,"lon":5.40959,"is_reserved":false,"is_disabled":false,"rental_uris":{"android":"levelo://app?vid=53882ed9-e061-4498-98dc-917b66609f40","ios":"levelo://app?vid=53882ed9-e061-4498-98dc-917b66609f40"},"vehicle_type_id":"4","last_reported":1747661104,"current_range_meters":16800,"station_id":"ce4bhm92rcd13ifvqglg","pricing_plan_id":"cebpf4jnsgd1na2vs0mg"},{"bike_id":"105adcdf-1f31-47c2-9244-dc468599f592","system_id":"levelo_inurba_marseille","lat":43.28039,"lon":5.36955,"is_reserved":false,"is_disabled":false,"rental_uris":{"android":"levelo://app?vid=105adcdf-1f31-47c2-9244-dc468599f592","ios":"levelo://app?vid=105adcdf-1f31-47c2-9244-dc468599f592"},"vehicle_type_id":"4","last_reported":1747661104,"current_range_meters":16800,"station_id":"ce4bha12rcd13ifvqef0","pricing_plan_id":"cebpf4jnsgd1na2vs0mg"},{"bike_id":"a1b3e0a7-9c8a-4a59-9a24-ee07af0902a7","system_id":"levelo_inurba_marseille","lat":43.24388,"lon":5.37051,"is_reserved":false,"is_disabled":false,"rental_uris":{"android":"levelo://app?vid=a1b3e0a7-9c8a-4a59-9a24-ee07af0902a7","ios":"levelo://app?vid=a1b3e0a7-9c8a-4a59-9a24-ee07af0902a7"},"vehicle_type_id":"4","last_reported":1747661104,"current_range_meters":16800,"station_id":"ce4bhhh2rcd13ifvqfk0","pricing_plan_id":"cebpf4jnsgd1na2vs0mg"},{"bike_id":"c3c11b11-8507-45b4-bd48-1e3bdd46fbbe","system_id":"levelo_inurba_marseille","lat":43.2319,"lon":5.3997,"is_reserved":false,"is_disabled":false,"rental_uris":{"android":"levelo://app?vid=c3c11b11-8507-45b4-bd48-1e3bdd46fbbe","ios":"levelo://app?vid=c3c11b11-8507-45b4-bd48-1e3bdd46fbbe"},"vehicle_type_id":"4","last_reported":1747661104,"current_range_meters":16800,"station_id":"ce4bhn12rcd13ifvqgqg","pricing_plan_id":"cebpf4jnsgd1na2vs0mg"},{"bike_id":"b2be9fc7-623b-4d53-be0c-5b215674073c","system_id":"levelo_inurba_marseille","lat":43.27496,"lon":5.4245,"is_reserved":false,"is_disabled":false,"rental_uris":{"android":"levelo://app?vid=b2be9fc7-623b-4d53-be0c-5b215674073c","ios":"levelo://app?vid=b2be9fc7-623b-4d53-be0c-5b215674073c"},"vehicle_type_id":"4","last_reported":1747661104,"current_range_meters":17200,"station_id":"ce4bhn92rcd13ifvqgrg","pricing_plan_id":"cebpf4jnsgd1na2vs0mg"},{"bike_id":"c98f6681-7202-43d2-9a47-777a1d754737","system_id":"levelo_inurba_marseille","lat":43.26216,"lon":5.37442,"is_reserved":false,"is_disabled":false,"rental_uris":{"android":"levelo://app?vid=c98f6681-7202-43d2-9a47-777a1d754737","ios":"levelo://app?vid=c98f6681-7202-43d2-9a47-777a1d754737"},"vehicle_type_id":"4","last_reported":1747661104,"current_range_meters":17200,"station_id":"ce4bhgp2rcd13ifvqfc0","pricing_plan_id":"cebpf4jnsgd1na2vs0mg"},{"bike_id":"9c8038dc-1156-4130-8a24-62a9599816af","system_id":"levelo_inurba_marseille","lat":43.32355,"lon":5.36768,"is_reserved":false,"is_disabled":false,"rental_uris":{"android":"levelo://app?vid=9c8038dc-1156-4130-8a24-62a9599816af","ios":"levelo://app?vid=9c8038dc-1156-4130-8a24-62a9599816af"},"vehicle_type_id":"4","last_reported":1747661104,"current_range_meters":17200,"station_id":"ce4bhsh2rcd13ifvqi2g","pricing_plan_id":"cebpf4jnsgd1na2vs0mg"},{"bike_id":"f5d903da-1fe6-42de-b785-2dd7a92d6da0","system_id":"levelo_inurba_marseille","lat":43.28276,"lon":5.35059,"is_reserved":false,"is_disabled":false,"rental_uris":{"android":"levelo://app?vid=f5d903da-1fe6-42de-b785-2dd7a92d6da0","ios":"levelo://app?vid=f5d903da-1fe6-42de-b785-2dd7a92d6da0"},"vehicle_type_id":"4","last_reported":1747661104,"current_range_meters":17200,"station_id":"ce4bhbp2rcd13ifvqerg","pricing_plan_id":"cebpf4jnsgd1na2vs0mg"},{"bike_id":"d25ff01b-f337-4ffd-a3af-af3590f9fcc4","system_id":"levelo_inurba_marseille","lat":43.25721,"lon":5.41113,"is_reserved":false,"is_disabled":false,"rental_uris":{"android":"levelo://app?vid=d25ff01b-f337-4ffd-a3af-af3590f9fcc4","ios":"levelo://app?vid=d25ff01b-f337-4ffd-a3af-af3590f9fcc4"},"vehicle_type_id":"4","last_reported":1747661104,"current_range_meters":17200,"station_id":"ce4bhkp2rcd13ifvqgd0","pricing_plan_id":"cebpf4jnsgd1na2vs0mg"},{"bike_id":"5d5f956a-e2f3-462a-8c59-0bb56c5299e9","system_id":"levelo_inurba_marseille","lat":43.31076,"lon":5.38357,"is_reserved":false,"is_disabled":false,"rental_uris":{"android":"levelo://app?vid=5d5f956a-e2f3-462a-8c59-0bb56c5299e9","ios":"levelo://app?vid=5d5f956a-e2f3-462a-8c59-0bb56c5299e9"},"vehicle_type_id":"4","last_reported":1747661104,"current_range_meters":17200,"station_id":"ce4bgv92rcd13ifvqcr0","pricing_plan_id":"cebpf4jnsgd1na2vs0mg"},{"bike_id":"b4092363-ce05-481e-b8a5-74f257327df5","system_id":"levelo_inurba_marseille","lat":43.250869,"lon":5.395242,"is_reserved":false,"is_disabled":false,"rental_uris":{"android":"levelo://app?vid=b4092363-ce05-481e-b8a5-74f257327df5","ios":"levelo://app?vid=b4092363-ce05-481e-b8a5-74f257327df5"},"vehicle_type_id":"4","last_reported":1747661104,"current_range_meters":17200,"station_id":"ce4bhm12rcd13ifvqgkg","pricing_plan_id":"cebpf4jnsgd1na2vs0mg"},{"bike_id":"3552fbf2-b43a-446f-93f5-d695fc251b73","system_id":"levelo_inurba_marseille","lat":43.25172,"lon":5.37526,"is_reserved":false,"is_disabled":false,"rental_uris":{"android":"levelo://app?vid=3552fbf2-b43a-446f-93f5-d695fc251b73","ios":"levelo://app?vid=3552fbf2-b43a-446f-93f5-d695fc251b73"},"vehicle_type_id":"4","last_reported":1747661104,"current_range_meters":17200,"station_id":"","pricing_plan_id":"cebpf4jnsgd1na2vs0mg"},{"bike_id":"d9285b05-e880-46ec-8789-22501953a79c","system_id":"levelo_inurba_marseille","lat":43.28938,"lon":5.38412,"is_reserved":false,"is_disabled":false,"rental_uris":{"android":"levelo://app?vid=d9285b05-e880-46ec-8789-22501953a79c","ios":"levelo://app?vid=d9285b05-e880-46ec-8789-22501953a79c"},"vehicle_type_id":"4","last_reported":1747661104,"current_range_meters":17200,"station_id":"ce4bh612rcd13ifvqe6g","pricing_plan_id":"cebpf4jnsgd1na2vs0mg"},{"bike_id":"2aeb232e-3dde-436f-b6fb-53c84b1edd4c","system_id":"levelo_inurba_marseille","lat":43.30888,"lon":5.37191,"is_reserved":false,"is_disabled":false,"rental_uris":{"android":"levelo://app?vid=2aeb232e-3dde-436f-b6fb-53c84b1edd4c","ios":"levelo://app?vid=2aeb232e-3dde-436f-b6fb-53c84b1edd4c"},"vehicle_type_id":"4","last_reported":1747661104,"current_range_meters":18000,"station_id":"ce4bguh2rcd13ifvqckg","pricing_plan_id":"cebpf4jnsgd1na2vs0mg"},{"bike_id":"a77299a9-0afc-4000-817b-f97ca1eaadca","system_id":"levelo_inurba_marseille","lat":43.288597,"lon":5.459497,"is_reserved":false,"is_disabled":false,"rental_uris":{"android":"levelo://app?vid=a77299a9-0afc-4000-817b-f97ca1eaadca","ios":"levelo://app?vid=a77299a9-0afc-4000-817b-f97ca1eaadca"},"vehicle_type_id":"4","last_reported":1747661104,"current_range_meters":17600,"station_id":"","pricing_plan_id":"cebpf4jnsgd1na2vs0mg"},{"bike_id":"366d72c8-1851-4eb6-b189-b0e565c04321","system_id":"levelo_inurba_marseille","lat":43.29272,"lon":5.37622,"is_reserved":false,"is_disabled":false,"rental_uris":{"android":"levelo://app?vid=366d72c8-1851-4eb6-b189-b0e565c04321","ios":"levelo://app?vid=366d72c8-1851-4eb6-b189-b0e565c04321"},"vehicle_type_id":"4","last_reported":1747661104,"current_range_meters":17600,"station_id":"ce4bgi12rcd13ifvqb80","pricing_plan_id":"cebpf4jnsgd1na2vs0mg"},{"bike_id":"901d18ec-442b-4311-be09-c99faa5dda47","system_id":"levelo_inurba_marseille","lat":43.29992,"lon":5.37178,"is_reserved":false,"is_disabled":true,"rental_uris":{"android":"levelo://app?vid=901d18ec-442b-4311-be09-c99faa5dda47","ios":"levelo://app?vid=901d18ec-442b-4311-be09-c99faa5dda47"},"vehicle_type_id":"4","last_reported":1747661104,"current_range_meters":17600,"station_id":"ce4bgr92rcd13ifvqc7g","pricing_plan_id":"cebpf4jnsgd1na2vs0mg"},{"bike_id":"6d088b05-4cfb-43c5-beb2-de4de4930d6b","system_id":"levelo_inurba_marseille","lat":43.30219,"lon":5.39486,"is_reserved":false,"is_disabled":false,"rental_uris":{"android":"levelo://app?vid=6d088b05-4cfb-43c5-beb2-de4de4930d6b","ios":"levelo://app?vid=6d088b05-4cfb-43c5-beb2-de4de4930d6b"},"vehicle_type_id":"4","last_reported":1747661104,"current_range_meters":17600,"station_id":"ce4bh0p2rcd13ifvqd70","pricing_plan_id":"cebpf4jnsgd1na2vs0mg"},{"bike_id":"496021db-b509-4e1f-98a0-90a64b05261c","system_id":"levelo_inurba_marseille","lat":43.28412,"lon":5.34994,"is_reserved":false,"is_disabled":false,"rental_uris":{"android":"levelo://app?vid=496021db-b509-4e1f-98a0-90a64b05261c","ios":"levelo://app?vid=496021db-b509-4e1f-98a0-90a64b05261c"},"vehicle_type_id":"4","last_reported":1747661104,"current_range_meters":17600,"station_id":"ce4bhbh2rcd13ifvqepg","pricing_plan_id":"cebpf4jnsgd1na2vs0mg"},{"bike_id":"6386b301-5c5b-41dc-9be6-064d845d26a2","system_id":"levelo_inurba_marseille","lat":43.2863,"lon":5.40654,"is_reserved":false,"is_disabled":false,"rental_uris":{"android":"levelo://app?vid=6386b301-5c5b-41dc-9be6-064d845d26a2","ios":"levelo://app?vid=6386b301-5c5b-41dc-9be6-064d845d26a2"},"vehicle_type_id":"4","last_reported":1747661104,"current_range_meters":17600,"station_id":"","pricing_plan_id":"cebpf4jnsgd1na2vs0mg"},{"bike_id":"8675cc91-343d-4f04-a5ab-d440461b07f3","system_id":"levelo_inurba_marseille","lat":43.25937,"lon":5.4091,"is_reserved":false,"is_disabled":false,"rental_uris":{"android":"levelo://app?vid=8675cc91-343d-4f04-a5ab-d440461b07f3","ios":"levelo://app?vid=8675cc91-343d-4f04-a5ab-d440461b07f3"},"vehicle_type_id":"4","last_reported":1747661104,"current_range_meters":18000,"station_id":"ce4bhm92rcd13ifvqglg","pricing_plan_id":"cebpf4jnsgd1na2vs0mg"},{"bike_id":"3f7fe803-6821-4217-89f8-fc9b77e464f6","system_id":"levelo_inurba_marseille","lat":43.31353,"lon":5.36782,"is_reserved":false,"is_disabled":false,"rental_uris":{"android":"levelo://app?vid=3f7fe803-6821-4217-89f8-fc9b77e464f6","ios":"levelo://app?vid=3f7fe803-6821-4217-89f8-fc9b77e464f6"},"vehicle_type_id":"4","last_reported":1747661104,"current_range_meters":18000,"station_id":"","pricing_plan_id":"cebpf4jnsgd1na2vs0mg"},{"bike_id":"917426e7-c84f-4fe7-b38f-75766cf35e34","system_id":"levelo_inurba_marseille","lat":43.24999,"lon":5.3893,"is_reserved":false,"is_disabled":false,"rental_uris":{"android":"levelo://app?vid=917426e7-c84f-4fe7-b38f-75766cf35e34","ios":"levelo://app?vid=917426e7-c84f-4fe7-b38f-75766cf35e34"},"vehicle_type_id":"4","last_reported":1747661104,"current_range_meters":18000,"station_id":"ce4bhgp2rcd13ifvqfd0","pricing_plan_id":"cebpf4jnsgd1na2vs0mg"},{"bike_id":"0c75e290-2f49-4428-9202-02a35670787a","system_id":"levelo_inurba_marseille","lat":43.23188,"lon":5.39968,"is_reserved":false,"is_disabled":false,"rental_uris":{"android":"levelo://app?vid=0c75e290-2f49-4428-9202-02a35670787a","ios":"levelo://app?vid=0c75e290-2f49-4428-9202-02a35670787a"},"vehicle_type_id":"4","last_reported":1747661104,"current_range_meters":18000,"station_id":"ce4bhn12rcd13ifvqgqg","pricing_plan_id":"cebpf4jnsgd1na2vs0mg"},{"bike_id":"ce71217b-5f85-45ef-87f3-15c6b4c2da4b","system_id":"levelo_inurba_marseille","lat":43.27512,"lon":5.42459,"is_reserved":false,"is_disabled":false,"rental_uris":{"android":"levelo://app?vid=ce71217b-5f85-45ef-87f3-15c6b4c2da4b","ios":"levelo://app?vid=ce71217b-5f85-45ef-87f3-15c6b4c2da4b"},"vehicle_type_id":"4","last_reported":1747661104,"current_range_meters":18000,"station_id":"ce4bhn92rcd13ifvqgrg","pricing_plan_id":"cebpf4jnsgd1na2vs0mg"},{"bike_id":"85d0eee4-7023-4816-8341-7b198d182543","system_id":"levelo_inurba_marseille","lat":43.25928,"lon":5.40903,"is_reserved":false,"is_disabled":false,"rental_uris":{"android":"levelo://app?vid=85d0eee4-7023-4816-8341-7b198d182543","ios":"levelo://app?vid=85d0eee4-7023-4816-8341-7b198d182543"},"vehicle_type_id":"4","last_reported":1747661104,"current_range_meters":18000,"station_id":"ce4bhm92rcd13ifvqglg","pricing_plan_id":"cebpf4jnsgd1na2vs0mg"},{"bike_id":"da2d473c-13f1-4407-a5a9-c039f0276a5c","system_id":"levelo_inurba_marseille","lat":43.28409,"lon":5.34986,"is_reserved":false,"is_disabled":false,"rental_uris":{"android":"levelo://app?vid=da2d473c-13f1-4407-a5a9-c039f0276a5c","ios":"levelo://app?vid=da2d473c-13f1-4407-a5a9-c039f0276a5c"},"vehicle_type_id":"4","last_reported":1747661104,"current_range_meters":18000,"station_id":"ce4bhbh2rcd13ifvqepg","pricing_plan_id":"cebpf4jnsgd1na2vs0mg"},{"bike_id":"d9c353d4-5249-49d5-99a0-d98ad152bcfe","system_id":"levelo_inurba_marseille","lat":43.25871,"lon":5.39893,"is_reserved":false,"is_disabled":false,"rental_uris":{"android":"levelo://app?vid=d9c353d4-5249-49d5-99a0-d98ad152bcfe","ios":"levelo://app?vid=d9c353d4-5249-49d5-99a0-d98ad152bcfe"},"vehicle_type_id":"4","last_reported":1747661104,"current_range_meters":18000,"station_id":"ce4bhl92rcd13ifvqghg","pricing_plan_id":"cebpf4jnsgd1na2vs0mg"},{"bike_id":"e1ee36d4-83f8-4dd8-b7e6-01c1122dc44f","system_id":"levelo_inurba_marseille","lat":43.28613,"lon":5.37056,"is_reserved":false,"is_disabled":false,"rental_uris":{"android":"levelo://app?vid=e1ee36d4-83f8-4dd8-b7e6-01c1122dc44f","ios":"levelo://app?vid=e1ee36d4-83f8-4dd8-b7e6-01c1122dc44f"},"vehicle_type_id":"4","last_reported":1747661104,"current_range_meters":18000,"station_id":"ce4bht12rcd13ifvqi60","pricing_plan_id":"cebpf4jnsgd1na2vs0mg"},{"bike_id":"74caece3-0366-45d1-ad29-c4f1a1a87b31","system_id":"levelo_inurba_marseille","lat":43.21772,"lon":5.34605,"is_reserved":false,"is_disabled":false,"rental_uris":{"android":"levelo://app?vid=74caece3-0366-45d1-ad29-c4f1a1a87b31","ios":"levelo://app?vid=74caece3-0366-45d1-ad29-c4f1a1a87b31"},"vehicle_type_id":"4","last_reported":1747661104,"current_range_meters":18800,"station_id":"st_cvj6r9ubvosntc0bgbag","pricing_plan_id":"cebpf4jnsgd1na2vs0mg"},{"bike_id":"dc61c065-6ed1-487e-9ecf-5a93a8f61ca7","system_id":"levelo_inurba_marseille","lat":43.231822,"lon":5.399822,"is_reserved":false,"is_disabled":false,"rental_uris":{"android":"levelo://app?vid=dc61c065-6ed1-487e-9ecf-5a93a8f61ca7","ios":"levelo://app?vid=dc61c065-6ed1-487e-9ecf-5a93a8f61ca7"},"vehicle_type_id":"4","last_reported":1747661104,"current_range_meters":18800,"station_id":"ce4bhn12rcd13ifvqgqg","pricing_plan_id":"cebpf4jnsgd1na2vs0mg"},{"bike_id":"c7965830-d944-44ad-9c1a-f96bbd90d6ea","system_id":"levelo_inurba_marseille","lat":43.29798,"lon":5.38089,"is_reserved":false,"is_disabled":false,"rental_uris":{"android":"levelo://app?vid=c7965830-d944-44ad-9c1a-f96bbd90d6ea","ios":"levelo://app?vid=c7965830-d944-44ad-9c1a-f96bbd90d6ea"},"vehicle_type_id":"4","last_reported":1747661104,"current_range_meters":18800,"station_id":"ce4bgip2rcd13ifvqbb0","pricing_plan_id":"cebpf4jnsgd1na2vs0mg"},{"bike_id":"23cb2d1c-2ce6-4a86-92a1-817addf26bca","system_id":"levelo_inurba_marseille","lat":43.26481,"lon":5.39551,"is_reserved":false,"is_disabled":false,"rental_uris":{"android":"levelo://app?vid=23cb2d1c-2ce6-4a86-92a1-817addf26bca","ios":"levelo://app?vid=23cb2d1c-2ce6-4a86-92a1-817addf26bca"},"vehicle_type_id":"4","last_reported":1747661104,"current_range_meters":18800,"station_id":"ce4bhi12rcd13ifvqfq0","pricing_plan_id":"cebpf4jnsgd1na2vs0mg"},{"bike_id":"b54285fd-f53d-465c-9cd7-a8ae5effa6a0","system_id":"levelo_inurba_marseille","lat":43.303153,"lon":5.404449,"is_reserved":false,"is_disabled":false,"rental_uris":{"android":"levelo://app?vid=b54285fd-f53d-465c-9cd7-a8ae5effa6a0","ios":"levelo://app?vid=b54285fd-f53d-465c-9cd7-a8ae5effa6a0"},"vehicle_type_id":"4","last_reported":1747661104,"current_range_meters":18800,"station_id":"ce4bh012rcd13ifvqd10","pricing_plan_id":"cebpf4jnsgd1na2vs0mg"},{"bike_id":"44adb9db-ee83-4504-a40e-694c2000f5bc","system_id":"levelo_inurba_marseille","lat":43.21192,"lon":5.35075,"is_reserved":false,"is_disabled":false,"rental_uris":{"android":"levelo://app?vid=44adb9db-ee83-4504-a40e-694c2000f5bc","ios":"levelo://app?vid=44adb9db-ee83-4504-a40e-694c2000f5bc"},"vehicle_type_id":"4","last_reported":1747661104,"current_range_meters":18800,"station_id":"st_cvj6sg6p6f1abm77japg","pricing_plan_id":"cebpf4jnsgd1na2vs0mg"},{"bike_id":"8003f1f1-aabc-4a95-af5a-f8124d5a7728","system_id":"levelo_inurba_marseille","lat":43.23188,"lon":5.39978,"is_reserved":false,"is_disabled":false,"rental_uris":{"android":"levelo://app?vid=8003f1f1-aabc-4a95-af5a-f8124d5a7728","ios":"levelo://app?vid=8003f1f1-aabc-4a95-af5a-f8124d5a7728"},"vehicle_type_id":"4","last_reported":1747661104,"current_range_meters":19200,"station_id":"ce4bhn12rcd13ifvqgqg","pricing_plan_id":"cebpf4jnsgd1na2vs0mg"},{"bike_id":"800b18d5-afe7-4aab-9e9d-52557b959315","system_id":"levelo_inurba_marseille","lat":43.2985,"lon":5.36281,"is_reserved":false,"is_disabled":false,"rental_uris":{"android":"levelo://app?vid=800b18d5-afe7-4aab-9e9d-52557b959315","ios":"levelo://app?vid=800b18d5-afe7-4aab-9e9d-52557b959315"},"vehicle_type_id":"4","last_reported":1747661104,"current_range_meters":19200,"station_id":"ce4bgpp2rcd13ifvqc3g","pricing_plan_id":"cebpf4jnsgd1na2vs0mg"},{"bike_id":"da47498f-4571-48b7-baef-356237345b0d","system_id":"levelo_inurba_marseille","lat":43.25934,"lon":5.40918,"is_reserved":false,"is_disabled":false,"rental_uris":{"android":"levelo://app?vid=da47498f-4571-48b7-baef-356237345b0d","ios":"levelo://app?vid=da47498f-4571-48b7-baef-356237345b0d"},"vehicle_type_id":"4","last_reported":1747661104,"current_range_meters":19200,"station_id":"ce4bhm92rcd13ifvqglg","pricing_plan_id":"cebpf4jnsgd1na2vs0mg"},{"bike_id":"e55d1e4d-bb07-47a3-a287-4cc0026e1fcc","system_id":"levelo_inurba_marseille","lat":43.30554,"lon":5.36524,"is_reserved":false,"is_disabled":false,"rental_uris":{"android":"levelo://app?vid=e55d1e4d-bb07-47a3-a287-4cc0026e1fcc","ios":"levelo://app?vid=e55d1e4d-bb07-47a3-a287-4cc0026e1fcc"},"vehicle_type_id":"4","last_reported":1747661104,"current_range_meters":19200,"station_id":"ce4bgs12rcd13ifvqcag","pricing_plan_id":"cebpf4jnsgd1na2vs0mg"},{"bike_id":"46dedc2f-120b-4832-ba6f-5793ec84d02c","system_id":"levelo_inurba_marseille","lat":43.27052,"lon":5.40262,"is_reserved":false,"is_disabled":false,"rental_uris":{"android":"levelo://app?vid=46dedc2f-120b-4832-ba6f-5793ec84d02c","ios":"levelo://app?vid=46dedc2f-120b-4832-ba6f-5793ec84d02c"},"vehicle_type_id":"4","last_reported":1747661104,"current_range_meters":19200,"station_id":"ce4bhk92rcd13ifvqgc0","pricing_plan_id":"cebpf4jnsgd1na2vs0mg"},{"bike_id":"156d4575-1c30-41c4-8563-754efffdd7e2","system_id":"levelo_inurba_marseille","lat":43.23968,"lon":5.36639,"is_reserved":false,"is_disabled":false,"rental_uris":{"android":"levelo://app?vid=156d4575-1c30-41c4-8563-754efffdd7e2","ios":"levelo://app?vid=156d4575-1c30-41c4-8563-754efffdd7e2"},"vehicle_type_id":"4","last_reported":1747661104,"current_range_meters":19200,"station_id":"ce4bhi12rcd13ifvqfp0","pricing_plan_id":"cebpf4jnsgd1na2vs0mg"},{"bike_id":"92b16a92-7138-40d0-b0d3-b8b212c68329","system_id":"levelo_inurba_marseille","lat":43.292378,"lon":5.374947,"is_reserved":false,"is_disabled":false,"rental_uris":{"android":"levelo://app?vid=92b16a92-7138-40d0-b0d3-b8b212c68329","ios":"levelo://app?vid=92b16a92-7138-40d0-b0d3-b8b212c68329"},"vehicle_type_id":"4","last_reported":1747661104,"current_range_meters":19200,"station_id":"","pricing_plan_id":"cebpf4jnsgd1na2vs0mg"},{"bike_id":"52cd8468-5e21-4141-ac30-cf4a8a0dce31","system_id":"levelo_inurba_marseille","lat":43.270546,"lon":5.402715,"is_reserved":false,"is_disabled":false,"rental_uris":{"android":"levelo://app?vid=52cd8468-5e21-4141-ac30-cf4a8a0dce31","ios":"levelo://app?vid=52cd8468-5e21-4141-ac30-cf4a8a0dce31"},"vehicle_type_id":"4","last_reported":1747661104,"current_range_meters":19600,"station_id":"ce4bhk92rcd13ifvqgc0","pricing_plan_id":"cebpf4jnsgd1na2vs0mg"},{"bike_id":"73d0ec71-87c4-4d3b-80f4-ed2500e34cf8","system_id":"levelo_inurba_marseille","lat":43.27584,"lon":5.38434,"is_reserved":false,"is_disabled":false,"rental_uris":{"android":"levelo://app?vid=73d0ec71-87c4-4d3b-80f4-ed2500e34cf8","ios":"levelo://app?vid=73d0ec71-87c4-4d3b-80f4-ed2500e34cf8"},"vehicle_type_id":"4","last_reported":1747661104,"current_range_meters":19600,"station_id":"ce4bhh92rcd13ifvqfi0","pricing_plan_id":"cebpf4jnsgd1na2vs0mg"},{"bike_id":"827bb004-52d4-4c0d-80cd-d3d3d6108f76","system_id":"levelo_inurba_marseille","lat":43.29634,"lon":5.40597,"is_reserved":false,"is_disabled":false,"rental_uris":{"android":"levelo://app?vid=827bb004-52d4-4c0d-80cd-d3d3d6108f76","ios":"levelo://app?vid=827bb004-52d4-4c0d-80cd-d3d3d6108f76"},"vehicle_type_id":"4","last_reported":1747661104,"current_range_meters":19600,"station_id":"ce4bh0h2rcd13ifvqd60","pricing_plan_id":"cebpf4jnsgd1na2vs0mg"},{"bike_id":"bbae9470-c4e6-406c-8e2e-0ffe5e843b63","system_id":"levelo_inurba_marseille","lat":43.21757,"lon":5.34602,"is_reserved":false,"is_disabled":false,"rental_uris":{"android":"levelo://app?vid=bbae9470-c4e6-406c-8e2e-0ffe5e843b63","ios":"levelo://app?vid=bbae9470-c4e6-406c-8e2e-0ffe5e843b63"},"vehicle_type_id":"4","last_reported":1747661104,"current_range_meters":19600,"station_id":"st_cvj6r9ubvosntc0bgbag","pricing_plan_id":"cebpf4jnsgd1na2vs0mg"},{"bike_id":"a0569be4-f469-4b6e-bf35-6b6464f39998","system_id":"levelo_inurba_marseille","lat":43.28984,"lon":5.37829,"is_reserved":false,"is_disabled":false,"rental_uris":{"android":"levelo://app?vid=a0569be4-f469-4b6e-bf35-6b6464f39998","ios":"levelo://app?vid=a0569be4-f469-4b6e-bf35-6b6464f39998"},"vehicle_type_id":"4","last_reported":1747661104,"current_range_meters":19200,"station_id":"ce4bh9p2rcd13ifvqed0","pricing_plan_id":"cebpf4jnsgd1na2vs0mg"},{"bike_id":"906fe159-989f-40af-8692-9d1d39f4da90","system_id":"levelo_inurba_marseille","lat":43.29851,"lon":5.36266,"is_reserved":false,"is_disabled":false,"rental_uris":{"android":"levelo://app?vid=906fe159-989f-40af-8692-9d1d39f4da90","ios":"levelo://app?vid=906fe159-989f-40af-8692-9d1d39f4da90"},"vehicle_type_id":"4","last_reported":1747661104,"current_range_meters":19600,"station_id":"ce4bgpp2rcd13ifvqc3g","pricing_plan_id":"cebpf4jnsgd1na2vs0mg"},{"bike_id":"225f3cea-db27-4174-a5ef-9d9d69f7434c","system_id":"levelo_inurba_marseille","lat":43.298416,"lon":5.362671,"is_reserved":false,"is_disabled":false,"rental_uris":{"android":"levelo://app?vid=225f3cea-db27-4174-a5ef-9d9d69f7434c","ios":"levelo://app?vid=225f3cea-db27-4174-a5ef-9d9d69f7434c"},"vehicle_type_id":"4","last_reported":1747661104,"current_range_meters":19600,"station_id":"ce4bgpp2rcd13ifvqc3g","pricing_plan_id":"cebpf4jnsgd1na2vs0mg"},{"bike_id":"f9f4eec4-2433-46d0-83bd-83520d42c880","system_id":"levelo_inurba_marseille","lat":43.2804,"lon":5.36958,"is_reserved":false,"is_disabled":false,"rental_uris":{"android":"levelo://app?vid=f9f4eec4-2433-46d0-83bd-83520d42c880","ios":"levelo://app?vid=f9f4eec4-2433-46d0-83bd-83520d42c880"},"vehicle_type_id":"4","last_reported":1747661104,"current_range_meters":20000,"station_id":"ce4bha12rcd13ifvqef0","pricing_plan_id":"cebpf4jnsgd1na2vs0mg"},{"bike_id":"b58ea393-ffc8-48b5-9c74-00d303747133","system_id":"levelo_inurba_marseille","lat":43.27076,"lon":5.42278,"is_reserved":false,"is_disabled":false,"rental_uris":{"android":"levelo://app?vid=b58ea393-ffc8-48b5-9c74-00d303747133","ios":"levelo://app?vid=b58ea393-ffc8-48b5-9c74-00d303747133"},"vehicle_type_id":"4","last_reported":1747661104,"current_range_meters":20000,"station_id":"ce4bhk92rcd13ifvqgb0","pricing_plan_id":"cebpf4jnsgd1na2vs0mg"},{"bike_id":"2a970de0-c1c9-469a-ab82-138a3fd977f3","system_id":"levelo_inurba_marseille","lat":43.29029,"lon":5.38643,"is_reserved":false,"is_disabled":true,"rental_uris":{"android":"levelo://app?vid=2a970de0-c1c9-469a-ab82-138a3fd977f3","ios":"levelo://app?vid=2a970de0-c1c9-469a-ab82-138a3fd977f3"},"vehicle_type_id":"4","last_reported":1747661104,"current_range_meters":20000,"station_id":"ce4bh4p2rcd13ifvqe0g","pricing_plan_id":"cebpf4jnsgd1na2vs0mg"},{"bike_id":"704ea015-f11e-4ad9-8dcb-3aa820a9c231","system_id":"levelo_inurba_marseille","lat":43.30551,"lon":5.36522,"is_reserved":false,"is_disabled":false,"rental_uris":{"android":"levelo://app?vid=704ea015-f11e-4ad9-8dcb-3aa820a9c231","ios":"levelo://app?vid=704ea015-f11e-4ad9-8dcb-3aa820a9c231"},"vehicle_type_id":"4","last_reported":1747661104,"current_range_meters":20000,"station_id":"ce4bgs12rcd13ifvqcag","pricing_plan_id":"cebpf4jnsgd1na2vs0mg"},{"bike_id":"26447213-84c7-4bfc-ae37-46e8d752370f","system_id":"levelo_inurba_marseille","lat":43.30439,"lon":5.38887,"is_reserved":false,"is_disabled":false,"rental_uris":{"android":"levelo://app?vid=26447213-84c7-4bfc-ae37-46e8d752370f","ios":"levelo://app?vid=26447213-84c7-4bfc-ae37-46e8d752370f"},"vehicle_type_id":"4","last_reported":1747661104,"current_range_meters":19600,"station_id":"ce4bgk12rcd13ifvqbi0","pricing_plan_id":"cebpf4jnsgd1na2vs0mg"},{"bike_id":"ff9c0139-8417-45ce-9cbf-96d67e627027","system_id":"levelo_inurba_marseille","lat":43.27506,"lon":5.42453,"is_reserved":false,"is_disabled":false,"rental_uris":{"android":"levelo://app?vid=ff9c0139-8417-45ce-9cbf-96d67e627027","ios":"levelo://app?vid=ff9c0139-8417-45ce-9cbf-96d67e627027"},"vehicle_type_id":"4","last_reported":1747661104,"current_range_meters":20000,"station_id":"ce4bhn92rcd13ifvqgrg","pricing_plan_id":"cebpf4jnsgd1na2vs0mg"},{"bike_id":"3a4d4d5c-85a5-447c-a965-2c9423f6fd09","system_id":"levelo_inurba_marseille","lat":43.217551,"lon":5.345916,"is_reserved":false,"is_disabled":false,"rental_uris":{"android":"levelo://app?vid=3a4d4d5c-85a5-447c-a965-2c9423f6fd09","ios":"levelo://app?vid=3a4d4d5c-85a5-447c-a965-2c9423f6fd09"},"vehicle_type_id":"4","last_reported":1747661104,"current_range_meters":20000,"station_id":"st_cvj6r9ubvosntc0bgbag","pricing_plan_id":"cebpf4jnsgd1na2vs0mg"},{"bike_id":"97a86dc9-cdbb-4884-892e-ffc3c535da38","system_id":"levelo_inurba_marseille","lat":43.2408,"lon":5.38157,"is_reserved":false,"is_disabled":false,"rental_uris":{"android":"levelo://app?vid=97a86dc9-cdbb-4884-892e-ffc3c535da38","ios":"levelo://app?vid=97a86dc9-cdbb-4884-892e-ffc3c535da38"},"vehicle_type_id":"4","last_reported":1747661104,"current_range_meters":20400,"station_id":"","pricing_plan_id":"cebpf4jnsgd1na2vs0mg"},{"bike_id":"54ae924e-e1f1-4a35-ab74-f2cb3be323ac","system_id":"levelo_inurba_marseille","lat":43.26957,"lon":5.38633,"is_reserved":false,"is_disabled":false,"rental_uris":{"android":"levelo://app?vid=54ae924e-e1f1-4a35-ab74-f2cb3be323ac","ios":"levelo://app?vid=54ae924e-e1f1-4a35-ab74-f2cb3be323ac"},"vehicle_type_id":"4","last_reported":1747661104,"current_range_meters":20400,"station_id":"ce4bhh92rcd13ifvqfh0","pricing_plan_id":"cebpf4jnsgd1na2vs0mg"},{"bike_id":"c7fa045b-8abd-4bd8-ac58-69864d07dca7","system_id":"levelo_inurba_marseille","lat":43.32122,"lon":5.36807,"is_reserved":false,"is_disabled":false,"rental_uris":{"android":"levelo://app?vid=c7fa045b-8abd-4bd8-ac58-69864d07dca7","ios":"levelo://app?vid=c7fa045b-8abd-4bd8-ac58-69864d07dca7"},"vehicle_type_id":"4","last_reported":1747661104,"current_range_meters":20400,"station_id":"ce4bhrh2rcd13ifvqhug","pricing_plan_id":"cebpf4jnsgd1na2vs0mg"},{"bike_id":"7d52b157-8ff4-4066-aecc-511ac1607d32","system_id":"levelo_inurba_marseille","lat":43.280358,"lon":5.36976,"is_reserved":false,"is_disabled":false,"rental_uris":{"android":"levelo://app?vid=7d52b157-8ff4-4066-aecc-511ac1607d32","ios":"levelo://app?vid=7d52b157-8ff4-4066-aecc-511ac1607d32"},"vehicle_type_id":"4","last_reported":1747661104,"current_range_meters":20400,"station_id":"ce4bha12rcd13ifvqef0","pricing_plan_id":"cebpf4jnsgd1na2vs0mg"},{"bike_id":"0c4e0589-6527-4600-baeb-b72cf0a8362e","system_id":"levelo_inurba_marseille","lat":43.33028,"lon":5.39041,"is_reserved":false,"is_disabled":false,"rental_uris":{"android":"levelo://app?vid=0c4e0589-6527-4600-baeb-b72cf0a8362e","ios":"levelo://app?vid=0c4e0589-6527-4600-baeb-b72cf0a8362e"},"vehicle_type_id":"4","last_reported":1747661104,"current_range_meters":20000,"station_id":"ce4bhr92rcd13ifvqhrg","pricing_plan_id":"cebpf4jnsgd1na2vs0mg"},{"bike_id":"5794c55a-dd0d-4912-a5b9-47cf926fbd1b","system_id":"levelo_inurba_marseille","lat":43.281433,"lon":5.351772,"is_reserved":false,"is_disabled":false,"rental_uris":{"android":"levelo://app?vid=5794c55a-dd0d-4912-a5b9-47cf926fbd1b","ios":"levelo://app?vid=5794c55a-dd0d-4912-a5b9-47cf926fbd1b"},"vehicle_type_id":"4","last_reported":1747661104,"current_range_meters":20400,"station_id":"ce4bhbp2rcd13ifvqerg","pricing_plan_id":"cebpf4jnsgd1na2vs0mg"},{"bike_id":"08bcabff-8a6c-472d-8539-05bb1153b186","system_id":"levelo_inurba_marseille","lat":43.231799,"lon":5.399863,"is_reserved":false,"is_disabled":false,"rental_uris":{"android":"levelo://app?vid=08bcabff-8a6c-472d-8539-05bb1153b186","ios":"levelo://app?vid=08bcabff-8a6c-472d-8539-05bb1153b186"},"vehicle_type_id":"4","last_reported":1747661104,"current_range_meters":20800,"station_id":"ce4bhn12rcd13ifvqgqg","pricing_plan_id":"cebpf4jnsgd1na2vs0mg"},{"bike_id":"df7bd044-fc86-4fc6-88ab-ca488d935166","system_id":"levelo_inurba_marseille","lat":43.30419,"lon":5.41283,"is_reserved":false,"is_disabled":false,"rental_uris":{"android":"levelo://app?vid=df7bd044-fc86-4fc6-88ab-ca488d935166","ios":"levelo://app?vid=df7bd044-fc86-4fc6-88ab-ca488d935166"},"vehicle_type_id":"4","last_reported":1747661104,"current_range_meters":20800,"station_id":"ce4bhop2rcd13ifvqh8g","pricing_plan_id":"cebpf4jnsgd1na2vs0mg"},{"bike_id":"127d2b3d-86d4-440a-9313-d75b00e95fd3","system_id":"levelo_inurba_marseille","lat":43.2718,"lon":5.41004,"is_reserved":false,"is_disabled":false,"rental_uris":{"android":"levelo://app?vid=127d2b3d-86d4-440a-9313-d75b00e95fd3","ios":"levelo://app?vid=127d2b3d-86d4-440a-9313-d75b00e95fd3"},"vehicle_type_id":"4","last_reported":1747661104,"current_range_meters":20800,"station_id":"ce4bhl12rcd13ifvqgf0","pricing_plan_id":"cebpf4jnsgd1na2vs0mg"},{"bike_id":"5765434c-77b5-41b5-8b14-b978e4d6dd10","system_id":"levelo_inurba_marseille","lat":43.21194,"lon":5.35071,"is_reserved":false,"is_disabled":false,"rental_uris":{"android":"levelo://app?vid=5765434c-77b5-41b5-8b14-b978e4d6dd10","ios":"levelo://app?vid=5765434c-77b5-41b5-8b14-b978e4d6dd10"},