{"last_updated":1727305715,"ttl":60,"version":"2.2","data":{"bikes":[{"bike_id":"46697b42-d14c-4af2-9394-a4acc4156442","system_id":"levelo_inurba_marseille","lat":43.28571,"lon":5.395,"is_reserved":false,"is_disabled":false,"rental_uris":{"android":"levelo://app?vid=46697b42-d14c-4af2-9394-a4acc4156442","ios":"levelo://app?vid=46697b42-d14c-4af2-9394-a4acc4156442"},"vehicle_type_id":"4","last_reported":1727305716,"current_range_meters":24400,"station_id":"ce4bh292rcd13ifvqdg0","pricing_plan_id":"cebpf4jnsgd1na2vs0mg"},{"bike_id":"c36fda85-951a-4b1f-b0af-a9786a66c63e","system_id":"levelo_inurba_marseille","lat":43.31273,"lon":5.40162,"is_reserved":false,"is_disabled":false,"rental_uris":{"android":"levelo://app?vid=c36fda85-951a-4b1f-b0af-a9786a66c63e","ios":"levelo://app?vid=c36fda85-951a-4b1f-b0af-a9786a66c63e"},"vehicle_type_id":"4","last_reported":1727305716,"current_range_meters":39200,"station_id":"ce4bh092rcd13ifvqd30","pricing_plan_id":"cebpf4jnsgd1na2vs0mg"},{"bike_id":"3c7f3bda-f84a-4a0b-98d0-fbf6bcdc394c","system_id":"levelo_inurba_marseille","lat":43.30646,"lon":5.40093,"is_reserved":false,"is_disabled":false,"rental_uris":{"android":"levelo://app?vid=3c7f3bda-f84a-4a0b-98d0-fbf6bcdc394c","ios":"levelo://app?vid=3c7f3bda-f84a-4a0b-98d0-fbf6bcdc394c"},"vehicle_type_id":"4","last_reported":1727305716,"current_range_meters":36800,"station_id":"ce4bh112rcd13ifvqda0","pricing_plan_id":"cebpf4jnsgd1na2vs0mg"},{"bike_id":"00016f13-b63c-43ff-ab5f-39da0fc9f78a","system_id":"levelo_inurba_marseille","lat":43.28455,"lon":5.35863,"is_reserved":false,"is_disabled":false,"rental_uris":{"android":"levelo://app?vid=00016f13-b63c-43ff-ab5f-39da0fc9f78a","ios":"levelo://app?vid=00016f13-b63c-43ff-ab5f-39da0fc9f78a"},"vehicle_type_id":"4","last_reported":1727305716,"current_range_meters":32000,"station_id":"ce4bhah2rcd13ifvqei0","pricing_plan_id":"cebpf4jnsgd1na2vs0mg"},{"bike_id":"b23afdd4-2489-41c0-b1ad-5711f3898380","system_id":"levelo_inurba_marseille","lat":43.30951,"lon":5.39042,"is_reserved":false,"is_disabled":false,"rental_uris":{"android":"levelo://app?vid=b23afdd4-2489-41c0-b1ad-5711f3898380","ios":"levelo://app?vid=b23afdd4-2489-41c0-b1ad-5711f3898380"},"vehicle_type_id":"4","last_reported":1727305716,"current_range_meters":38800,"station_id":"ce4bgup2rcd13ifvqco0","pricing_plan_id":"cebpf4jnsgd1na2vs0mg"},{"bike_id":"bd46753b-4c9a-4376-83bc-9b183a6fcfcc","system_id":"levelo_inurba_marseille","lat":43.26207,"lon":5.37928,"is_reserved":false,"is_disabled":false,"rental_uris":{"android":"levelo://app?vid=bd46753b-4c9a-4376-83bc-9b183a6fcfcc","ios":"levelo://app?vid=bd46753b-4c9a-4376-83bc-9b183a6fcfcc"},"vehicle_type_id":"4","last_reported":1727305716,"current_range_meters":38800,"station_id":"ce4bhjp2rcd13ifvqg90","pricing_plan_id":"cebpf4jnsgd1na2vs0mg"},{"bike_id":"5d48984e-baf8-4188-9a24-86b384dd2876","system_id":"levelo_inurba_marseille","lat":43.30642,"lon":5.40077,"is_reserved":false,"is_disabled":false,"rental_uris":{"android":"levelo://app?vid=5d48984e-baf8-4188-9a24-86b384dd2876","ios":"levelo://app?vid=5d48984e-baf8-4188-9a24-86b384dd2876"},"vehicle_type_id":"4","last_reported":1727305716,"current_range_meters":26000,"station_id":"ce4bh112rcd13ifvqda0","pricing_plan_id":"cebpf4jnsgd1na2vs0mg"},{"bike_id":"311c0952-3a11-42d5-9cb0-6f3ee043b4f3","system_id":"levelo_inurba_marseille","lat":43.2808,"lon":5.39652,"is_reserved":false,"is_disabled":false,"rental_uris":{"android":"levelo://app?vid=311c0952-3a11-42d5-9cb0-6f3ee043b4f3","ios":"levelo://app?vid=311c0952-3a11-42d5-9cb0-6f3ee043b4f3"},"vehicle_type_id":"4","last_reported":1727305716,"current_range_meters":23200,"station_id":"ce4bho12rcd13ifvqh2g","pricing_plan_id":"cebpf4jnsgd1na2vs0mg"},{"bike_id":"d3ce0e04-dccf-4e83-9200-edab7a080f39","system_id":"levelo_inurba_marseille","lat":43.31325,"lon":5.39715,"is_reserved":false,"is_disabled":false,"rental_uris":{"android":"levelo://app?vid=d3ce0e04-dccf-4e83-9200-edab7a080f39","ios":"levelo://app?vid=d3ce0e04-dccf-4e83-9200-edab7a080f39"},"vehicle_type_id":"4","last_reported":1727305716,"current_range_meters":16800,"station_id":"ce4bgvp2rcd13ifvqcu0","pricing_plan_id":"cebpf4jnsgd1na2vs0mg"},{"bike_id":"45eba069-19b2-45c4-a67b-478acc0442e0","system_id":"levelo_inurba_marseille","lat":43.32665,"lon":5.40989,"is_reserved":false,"is_disabled":false,"rental_uris":{"android":"levelo://app?vid=45eba069-19b2-45c4-a67b-478acc0442e0","ios":"levelo://app?vid=45eba069-19b2-45c4-a67b-478acc0442e0"},"vehicle_type_id":"4","last_reported":1727305716,"current_range_meters":39200,"station_id":"ce4bhpp2rcd13ifvqhgg","pricing_plan_id":"cebpf4jnsgd1na2vs0mg"},{"bike_id":"0caf68fe-9464-43a8-a8c7-db8a706f9ec7","system_id":"levelo_inurba_marseille","lat":43.28571,"lon":5.39502,"is_reserved":false,"is_disabled":false,"rental_uris":{"android":"levelo://app?vid=0caf68fe-9464-43a8-a8c7-db8a706f9ec7","ios":"levelo://app?vid=0caf68fe-9464-43a8-a8c7-db8a706f9ec7"},"vehicle_type_id":"4","last_reported":1727305716,"current_range_meters":21600,"station_id":"ce4bh292rcd13ifvqdg0","pricing_plan_id":"cebpf4jnsgd1na2vs0mg"},{"bike_id":"4e970e14-412f-46b5-83dd-1847cb8a1288","system_id":"levelo_inurba_marseille","lat":43.2926,"lon":5.40914,"is_reserved":false,"is_disabled":false,"rental_uris":{"android":"levelo://app?vid=4e970e14-412f-46b5-83dd-1847cb8a1288","ios":"levelo://app?vid=4e970e14-412f-46b5-83dd-1847cb8a1288"},"vehicle_type_id":"4","last_reported":1727305716,"current_range_meters":30400,"station_id":"ce4bh192rcd13ifvqdc0","pricing_plan_id":"cebpf4jnsgd1na2vs0mg"},{"bike_id":"0d83f1ec-dd45-47b0-ad52-c8baecf6585d","system_id":"levelo_inurba_marseille","lat":43.30783,"lon":5.37653,"is_reserved":false,"is_disabled":false,"rental_uris":{"android":"levelo://app?vid=0d83f1ec-dd45-47b0-ad52-c8baecf6585d","ios":"levelo://app?vid=0d83f1ec-dd45-47b0-ad52-c8baecf6585d"},"vehicle_type_id":"4","last_reported":1727305716,"current_range_meters":20000,"station_id":"ce4bgv92rcd13ifvqcq0","pricing_plan_id":"cebpf4jnsgd1na2vs0mg"},{"bike_id":"98373285-3173-4bbe-8e57-f713c79568b2","system_id":"levelo_inurba_marseille","lat":43.317156,"lon":5.436972,"is_reserved":false,"is_disabled":false,"rental_uris":{"android":"levelo://app?vid=98373285-3173-4bbe-8e57-f713c79568b2","ios":"levelo://app?vid=98373285-3173-4bbe-8e57-f713c79568b2"},"vehicle_type_id":"4","last_reported":1727305716,"current_range_meters":30000,"station_id":"ce4bhp92rcd13ifvqhcg","pricing_plan_id":"cebpf4jnsgd1na2vs0mg"},{"bike_id":"9fa4f99d-a411-4ef4-b6c8-d9fd7e40a915","system_id":"levelo_inurba_marseille","lat":43.23192,"lon":5.35545,"is_reserved":false,"is_disabled":false,"rental_uris":{"android":"levelo://app?vid=9fa4f99d-a411-4ef4-b6c8-d9fd7e40a915","ios":"levelo://app?vid=9fa4f99d-a411-4ef4-b6c8-d9fd7e40a915"},"vehicle_type_id":"4","last_reported":1727305716,"current_range_meters":29600,"station_id":"ce4bhu92rcd13ifvqi70","pricing_plan_id":"cebpf4jnsgd1na2vs0mg"},{"bike_id":"facdfe8a-4e2f-4981-927f-d43ef2b5470e","system_id":"levelo_inurba_marseille","lat":43.31222,"lon":5.36855,"is_reserved":false,"is_disabled":false,"rental_uris":{"android":"levelo://app?vid=facdfe8a-4e2f-4981-927f-d43ef2b5470e","ios":"levelo://app?vid=facdfe8a-4e2f-4981-927f-d43ef2b5470e"},"vehicle_type_id":"4","last_reported":1727305716,"current_range_meters":38000,"station_id":"ce4bgl92rcd13ifvqbq0","pricing_plan_id":"cebpf4jnsgd1na2vs0mg"},{"bike_id":"a9ba3092-17c4-421d-b796-dec734f23b44","system_id":"levelo_inurba_marseille","lat":43.30959,"lon":5.39055,"is_reserved":false,"is_disabled":false,"rental_uris":{"android":"levelo://app?vid=a9ba3092-17c4-421d-b796-dec734f23b44","ios":"levelo://app?vid=a9ba3092-17c4-421d-b796-dec734f23b44"},"vehicle_type_id":"4","last_reported":1727305716,"current_range_meters":39200,"station_id":"ce4bgup2rcd13ifvqco0","pricing_plan_id":"cebpf4jnsgd1na2vs0mg"},{"bike_id":"bdf247ae-bc02-4762-979a-3a1ad75c6085","system_id":"levelo_inurba_marseille","lat":43.30801,"lon":5.43526,"is_reserved":false,"is_disabled":false,"rental_uris":{"android":"levelo://app?vid=bdf247ae-bc02-4762-979a-3a1ad75c6085","ios":"levelo://app?vid=bdf247ae-bc02-4762-979a-3a1ad75c6085"},"vehicle_type_id":"4","last_reported":1727305716,"current_range_meters":8000,"station_id":"ce4bhph2rcd13ifvqheg","pricing_plan_id":"cebpf4jnsgd1na2vs0mg"},{"bike_id":"271a01c9-c794-449b-b61c-0d6394359f0b","system_id":"levelo_inurba_marseille","lat":43.25729,"lon":5.38498,"is_reserved":false,"is_disabled":false,"rental_uris":{"android":"levelo://app?vid=271a01c9-c794-449b-b61c-0d6394359f0b","ios":"levelo://app?vid=271a01c9-c794-449b-b61c-0d6394359f0b"},"vehicle_type_id":"4","last_reported":1727305716,"current_range_meters":22400,"station_id":"","pricing_plan_id":"cebpf4jnsgd1na2vs0mg"},{"bike_id":"3fa6b996-85c3-4fb6-898b-e56a0b115858","system_id":"levelo_inurba_marseille","lat":43.3089,"lon":5.39622,"is_reserved":false,"is_disabled":false,"rental_uris":{"android":"levelo://app?vid=3fa6b996-85c3-4fb6-898b-e56a0b115858","ios":"levelo://app?vid=3fa6b996-85c3-4fb6-898b-e56a0b115858"},"vehicle_type_id":"4","last_reported":1727305716,"current_range_meters":39200,"station_id":"ce4bh012rcd13ifvqcv0","pricing_plan_id":"cebpf4jnsgd1na2vs0mg"},{"bike_id":"7ab90e8e-1ae4-49b9-9229-0f0fa890c009","system_id":"levelo_inurba_marseille","lat":43.29913,"lon":5.37476,"is_reserved":false,"is_disabled":false,"rental_uris":{"android":"levelo://app?vid=7ab90e8e-1ae4-49b9-9229-0f0fa890c009","ios":"levelo://app?vid=7ab90e8e-1ae4-49b9-9229-0f0fa890c009"},"vehicle_type_id":"4","last_reported":1727305716,"current_range_meters":38000,"station_id":"ce4bgjh2rcd13ifvqbg0","pricing_plan_id":"cebpf4jnsgd1na2vs0mg"},{"bike_id":"ae646c1c-c445-467a-b639-897ac861350e","system_id":"levelo_inurba_marseille","lat":43.2799,"lon":5.41657,"is_reserved":false,"is_disabled":false,"rental_uris":{"android":"levelo://app?vid=ae646c1c-c445-467a-b639-897ac861350e","ios":"levelo://app?vid=ae646c1c-c445-467a-b639-897ac861350e"},"vehicle_type_id":"4","last_reported":1727305716,"current_range_meters":9200,"station_id":"ce4bho12rcd13ifvqh1g","pricing_plan_id":"cebpf4jnsgd1na2vs0mg"},{"bike_id":"cf90c1c6-7296-4f21-ba68-eb1cd7295b1e","system_id":"levelo_inurba_marseille","lat":43.28081,"lon":5.39657,"is_reserved":false,"is_disabled":false,"rental_uris":{"android":"levelo://app?vid=cf90c1c6-7296-4f21-ba68-eb1cd7295b1e","ios":"levelo://app?vid=cf90c1c6-7296-4f21-ba68-eb1cd7295b1e"},"vehicle_type_id":"4","last_reported":1727305716,"current_range_meters":24800,"station_id":"ce4bho12rcd13ifvqh2g","pricing_plan_id":"cebpf4jnsgd1na2vs0mg"},{"bike_id":"d78e8186-8a55-4825-9b66-b89602fef6e7","system_id":"levelo_inurba_marseille","lat":43.27943,"lon":5.41054,"is_reserved":false,"is_disabled":false,"rental_uris":{"android":"levelo://app?vid=d78e8186-8a55-4825-9b66-b89602fef6e7","ios":"levelo://app?vid=d78e8186-8a55-4825-9b66-b89602fef6e7"},"vehicle_type_id":"4","last_reported":1727305716,"current_range_meters":38800,"station_id":"ce4bhnp2rcd13ifvqh0g","pricing_plan_id":"cebpf4jnsgd1na2vs0mg"},{"bike_id":"e2ec03ab-eeb8-427c-9f3c-cc625a6d0d1e","system_id":"levelo_inurba_marseille","lat":43.32486,"lon":5.36554,"is_reserved":false,"is_disabled":false,"rental_uris":{"android":"levelo://app?vid=e2ec03ab-eeb8-427c-9f3c-cc625a6d0d1e","ios":"levelo://app?vid=e2ec03ab-eeb8-427c-9f3c-cc625a6d0d1e"},"vehicle_type_id":"4","last_reported":1727305716,"current_range_meters":24400,"station_id":"ce4bhs12rcd13ifvqhvg","pricing_plan_id":"cebpf4jnsgd1na2vs0mg"},{"bike_id":"8f8dacb8-6dcb-4759-a64f-b83f5109a5b9","system_id":"levelo_inurba_marseille","lat":43.30784,"lon":5.3765,"is_reserved":false,"is_disabled":false,"rental_uris":{"android":"levelo://app?vid=8f8dacb8-6dcb-4759-a64f-b83f5109a5b9","ios":"levelo://app?vid=8f8dacb8-6dcb-4759-a64f-b83f5109a5b9"},"vehicle_type_id":"4","last_reported":1727305716,"current_range_meters":37600,"station_id":"ce4bgv92rcd13ifvqcq0","pricing_plan_id":"cebpf4jnsgd1na2vs0mg"},{"bike_id":"7737b815-6daf-41f0-8354-4b28ba75917f","system_id":"levelo_inurba_marseille","lat":43.30198,"lon":5.39826,"is_reserved":false,"is_disabled":false,"rental_uris":{"android":"levelo://app?vid=7737b815-6daf-41f0-8354-4b28ba75917f","ios":"levelo://app?vid=7737b815-6daf-41f0-8354-4b28ba75917f"},"vehicle_type_id":"4","last_reported":1727305716,"current_range_meters":15200,"station_id":"ce4bgvp2rcd13ifvqct0","pricing_plan_id":"cebpf4jnsgd1na2vs0mg"},{"bike_id":"952dab7a-0a86-46bf-9253-024894e735ca","system_id":"levelo_inurba_marseille","lat":43.2842,"lon":5.37512,"is_reserved":false,"is_disabled":false,"rental_uris":{"android":"levelo://app?vid=952dab7a-0a86-46bf-9253-024894e735ca","ios":"levelo://app?vid=952dab7a-0a86-46bf-9253-024894e735ca"},"vehicle_type_id":"4","last_reported":1727305716,"current_range_meters":11200,"station_id":"ce4bh412rcd13ifvqds0","pricing_plan_id":"cebpf4jnsgd1na2vs0mg"},{"bike_id":"55a7076d-21c1-4a1b-8d06-1ae9e159c4f6","system_id":"levelo_inurba_marseille","lat":43.31277,"lon":5.40166,"is_reserved":false,"is_disabled":false,"rental_uris":{"android":"levelo://app?vid=55a7076d-21c1-4a1b-8d06-1ae9e159c4f6","ios":"levelo://app?vid=55a7076d-21c1-4a1b-8d06-1ae9e159c4f6"},"vehicle_type_id":"4","last_reported":1727305716,"current_range_meters":39200,"station_id":"ce4bh092rcd13ifvqd30","pricing_plan_id":"cebpf4jnsgd1na2vs0mg"},{"bike_id":"31946d34-60b7-463e-826f-2dcb5c711da4","system_id":"levelo_inurba_marseille","lat":43.28572,"lon":5.39502,"is_reserved":false,"is_disabled":false,"rental_uris":{"android":"levelo://app?vid=31946d34-60b7-463e-826f-2dcb5c711da4","ios":"levelo://app?vid=31946d34-60b7-463e-826f-2dcb5c711da4"},"vehicle_type_id":"4","last_reported":1727305716,"current_range_meters":22400,"station_id":"ce4bh292rcd13ifvqdg0","pricing_plan_id":"cebpf4jnsgd1na2vs0mg"},{"bike_id":"73955810-b304-4bc7-b896-d1aee1d9f290","system_id":"levelo_inurba_marseille","lat":43.26029,"lon":5.37548,"is_reserved":false,"is_disabled":false,"rental_uris":{"android":"levelo://app?vid=73955810-b304-4bc7-b896-d1aee1d9f290","ios":"levelo://app?vid=73955810-b304-4bc7-b896-d1aee1d9f290"},"vehicle_type_id":"4","last_reported":1727305716,"current_range_meters":38000,"station_id":"ce4bhgh2rcd13ifvqfa0","pricing_plan_id":"cebpf4jnsgd1na2vs0mg"},{"bike_id":"a6ceaa53-b040-4bed-a5a4-04e99e38d93e","system_id":"levelo_inurba_marseille","lat":43.25719,"lon":5.41117,"is_reserved":false,"is_disabled":false,"rental_uris":{"android":"levelo://app?vid=a6ceaa53-b040-4bed-a5a4-04e99e38d93e","ios":"levelo://app?vid=a6ceaa53-b040-4bed-a5a4-04e99e38d93e"},"vehicle_type_id":"4","last_reported":1727305716,"current_range_meters":14000,"station_id":"ce4bhkp2rcd13ifvqgd0","pricing_plan_id":"cebpf4jnsgd1na2vs0mg"},{"bike_id":"50c5315e-fcc7-49c6-9aca-599d410c7ddd","system_id":"levelo_inurba_marseille","lat":43.28107,"lon":5.37837,"is_reserved":false,"is_disabled":false,"rental_uris":{"android":"levelo://app?vid=50c5315e-fcc7-49c6-9aca-599d410c7ddd","ios":"levelo://app?vid=50c5315e-fcc7-49c6-9aca-599d410c7ddd"},"vehicle_type_id":"4","last_reported":1727305716,"current_range_meters":37600,"station_id":"ce4bha12rcd13ifvqee0","pricing_plan_id":"cebpf4jnsgd1na2vs0mg"},{"bike_id":"982703ca-3146-40ee-9452-8a7ba3357c2c","system_id":"levelo_inurba_marseille","lat":43.300028,"lon":5.389102,"is_reserved":false,"is_disabled":false,"rental_uris":{"android":"levelo://app?vid=982703ca-3146-40ee-9452-8a7ba3357c2c","ios":"levelo://app?vid=982703ca-3146-40ee-9452-8a7ba3357c2c"},"vehicle_type_id":"4","last_reported":1727305716,"current_range_meters":34800,"station_id":"ce4bh392rcd13ifvqdl0","pricing_plan_id":"cebpf4jnsgd1na2vs0mg"},{"bike_id":"67ea5e6a-7b71-4b5f-a92b-e6708a512df0","system_id":"levelo_inurba_marseille","lat":43.33016,"lon":5.39047,"is_reserved":false,"is_disabled":false,"rental_uris":{"android":"levelo://app?vid=67ea5e6a-7b71-4b5f-a92b-e6708a512df0","ios":"levelo://app?vid=67ea5e6a-7b71-4b5f-a92b-e6708a512df0"},"vehicle_type_id":"4","last_reported":1727305716,"current_range_meters":33200,"station_id":"ce4bhr92rcd13ifvqhrg","pricing_plan_id":"cebpf4jnsgd1na2vs0mg"},{"bike_id":"dab37bf3-4a86-4251-b6a1-c4d272e4ea4d","system_id":"levelo_inurba_marseille","lat":43.33603,"lon":5.41037,"is_reserved":false,"is_disabled":false,"rental_uris":{"android":"levelo://app?vid=dab37bf3-4a86-4251-b6a1-c4d272e4ea4d","ios":"levelo://app?vid=dab37bf3-4a86-4251-b6a1-c4d272e4ea4d"},"vehicle_type_id":"4","last_reported":1727305716,"current_range_meters":38800,"station_id":"ce4bhqh2rcd13ifvqhmg","pricing_plan_id":"cebpf4jnsgd1na2vs0mg"},{"bike_id":"ede609f3-73c9-48c0-9297-561a9b09ac98","system_id":"levelo_inurba_marseille","lat":43.30655,"lon":5.40101,"is_reserved":false,"is_disabled":false,"rental_uris":{"android":"levelo://app?vid=ede609f3-73c9-48c0-9297-561a9b09ac98","ios":"levelo://app?vid=ede609f3-73c9-48c0-9297-561a9b09ac98"},"vehicle_type_id":"4","last_reported":1727305716,"current_range_meters":39200,"station_id":"ce4bh112rcd13ifvqda0","pricing_plan_id":"cebpf4jnsgd1na2vs0mg"},{"bike_id":"73080e67-26a7-4363-adda-dc2bcb8ae03f","system_id":"levelo_inurba_marseille","lat":43.2874,"lon":5.38919,"is_reserved":false,"is_disabled":false,"rental_uris":{"android":"levelo://app?vid=73080e67-26a7-4363-adda-dc2bcb8ae03f","ios":"levelo://app?vid=73080e67-26a7-4363-adda-dc2bcb8ae03f"},"vehicle_type_id":"4","last_reported":1727305716,"current_range_meters":20000,"station_id":"ce4bhg12rcd13ifvqf80","pricing_plan_id":"cebpf4jnsgd1na2vs0mg"},{"bike_id":"823494d0-99f0-4a70-8cb1-a3100041268e","system_id":"levelo_inurba_marseille","lat":43.28674,"lon":5.38654,"is_reserved":false,"is_disabled":false,"rental_uris":{"android":"levelo://app?vid=823494d0-99f0-4a70-8cb1-a3100041268e","ios":"levelo://app?vid=823494d0-99f0-4a70-8cb1-a3100041268e"},"vehicle_type_id":"4","last_reported":1727305716,"current_range_meters":34000,"station_id":"ce4bh492rcd13ifvqdug","pricing_plan_id":"cebpf4jnsgd1na2vs0mg"},{"bike_id":"7a8458d5-44ac-4f2e-abef-3f01eb31f7ca","system_id":"levelo_inurba_marseille","lat":43.337444,"lon":5.374475,"is_reserved":false,"is_disabled":false,"rental_uris":{"android":"levelo://app?vid=7a8458d5-44ac-4f2e-abef-3f01eb31f7ca","ios":"levelo://app?vid=7a8458d5-44ac-4f2e-abef-3f01eb31f7ca"},"vehicle_type_id":"4","last_reported":1727305716,"current_range_meters":24000,"station_id":"","pricing_plan_id":"cebpf4jnsgd1na2vs0mg"},{"bike_id":"41b9a237-ad2d-4e20-9ddd-a0e26c3d5a88","system_id":"levelo_inurba_marseille","lat":43.31184,"lon":5.38712,"is_reserved":false,"is_disabled":false,"rental_uris":{"android":"levelo://app?vid=41b9a237-ad2d-4e20-9ddd-a0e26c3d5a88","ios":"levelo://app?vid=41b9a237-ad2d-4e20-9ddd-a0e26c3d5a88"},"vehicle_type_id":"4","last_reported":1727305716,"current_range_meters":24800,"station_id":"ce4bgv12rcd13ifvqcp0","pricing_plan_id":"cebpf4jnsgd1na2vs0mg"},{"bike_id":"518e4ab3-62f5-49d0-8c11-c0007f16dd7e","system_id":"levelo_inurba_marseille","lat":43.28406,"lon":5.3752,"is_reserved":false,"is_disabled":false,"rental_uris":{"android":"levelo://app?vid=518e4ab3-62f5-49d0-8c11-c0007f16dd7e","ios":"levelo://app?vid=518e4ab3-62f5-49d0-8c11-c0007f16dd7e"},"vehicle_type_id":"4","last_reported":1727305716,"current_range_meters":21600,"station_id":"ce4bh412rcd13ifvqds0","pricing_plan_id":"cebpf4jnsgd1na2vs0mg"},{"bike_id":"bc7b20e5-a993-47f5-9a90-fd91582ae732","system_id":"levelo_inurba_marseille","lat":43.27831,"lon":5.39211,"is_reserved":false,"is_disabled":false,"rental_uris":{"android":"levelo://app?vid=bc7b20e5-a993-47f5-9a90-fd91582ae732","ios":"levelo://app?vid=bc7b20e5-a993-47f5-9a90-fd91582ae732"},"vehicle_type_id":"4","last_reported":1727305716,"current_range_meters":14800,"station_id":"ce4bhjp2rcd13ifvqga0","pricing_plan_id":"cebpf4jnsgd1na2vs0mg"},{"bike_id":"59233330-600d-4e2b-84c8-7ab9dfe26a1f","system_id":"levelo_inurba_marseille","lat":43.2465,"lon":5.38904,"is_reserved":false,"is_disabled":false,"rental_uris":{"android":"levelo://app?vid=59233330-600d-4e2b-84c8-7ab9dfe26a1f","ios":"levelo://app?vid=59233330-600d-4e2b-84c8-7ab9dfe26a1f"},"vehicle_type_id":"4","last_reported":1727305716,"current_range_meters":28400,"station_id":"ce4bhg12rcd13ifvqf60","pricing_plan_id":"cebpf4jnsgd1na2vs0mg"},{"bike_id":"42a4848c-9eb7-46a1-aff9-fbf41c27a777","system_id":"levelo_inurba_marseille","lat":43.28451,"lon":5.35885,"is_reserved":false,"is_disabled":false,"rental_uris":{"android":"levelo://app?vid=42a4848c-9eb7-46a1-aff9-fbf41c27a777","ios":"levelo://app?vid=42a4848c-9eb7-46a1-aff9-fbf41c27a777"},"vehicle_type_id":"4","last_reported":1727305716,"current_range_meters":2000,"station_id":"ce4bhah2rcd13ifvqei0","pricing_plan_id":"cebpf4jnsgd1na2vs0mg"},{"bike_id":"13ed2806-0100-4d07-a2d5-d6e3f0fa1a81","system_id":"levelo_inurba_marseille","lat":43.31495,"lon":5.37309,"is_reserved":false,"is_disabled":false,"rental_uris":{"android":"levelo://app?vid=13ed2806-0100-4d07-a2d5-d6e3f0fa1a81","ios":"levelo://app?vid=13ed2806-0100-4d07-a2d5-d6e3f0fa1a81"},"vehicle_type_id":"4","last_reported":1727305716,"current_range_meters":30800,"station_id":"ce4bgt12rcd13ifvqcd0","pricing_plan_id":"cebpf4jnsgd1na2vs0mg"},{"bike_id":"7e88f0d3-56a1-427f-83c7-1a73ca8b9647","system_id":"levelo_inurba_marseille","lat":43.31275,"lon":5.40169,"is_reserved":false,"is_disabled":false,"rental_uris":{"android":"levelo://app?vid=7e88f0d3-56a1-427f-83c7-1a73ca8b9647","ios":"levelo://app?vid=7e88f0d3-56a1-427f-83c7-1a73ca8b9647"},"vehicle_type_id":"4","last_reported":1727305716,"current_range_meters":38800,"station_id":"ce4bh092rcd13ifvqd30","pricing_plan_id":"cebpf4jnsgd1na2vs0mg"},{"bike_id":"ed9d69a6-a921-4251-b073-fdfe53c8cdc2","system_id":"levelo_inurba_marseille","lat":43.24079,"lon":5.37761,"is_reserved":false,"is_disabled":false,"rental_uris":{"android":"levelo://app?vid=ed9d69a6-a921-4251-b073-fdfe53c8cdc2","ios":"levelo://app?vid=ed9d69a6-a921-4251-b073-fdfe53c8cdc2"},"vehicle_type_id":"4","last_reported":1727305716,"current_range_meters":38000,"station_id":"ce4bhnp2rcd13ifvqgvg","pricing_plan_id":"cebpf4jnsgd1na2vs0mg"},{"bike_id":"64923289-9af6-43c3-b827-82741e0af2f5","system_id":"levelo_inurba_marseille","lat":43.28451,"lon":5.35883,"is_reserved":false,"is_disabled":false,"rental_uris":{"android":"levelo://app?vid=64923289-9af6-43c3-b827-82741e0af2f5","ios":"levelo://app?vid=64923289-9af6-43c3-b827-82741e0af2f5"},"vehicle_type_id":"4","last_reported":1727305716,"current_range_meters":5600,"station_id":"ce4bhah2rcd13ifvqei0","pricing_plan_id":"cebpf4jnsgd1na2vs0mg"},{"bike_id":"87eecdcc-d94f-4a18-a818-f5320cd125bb","system_id":"levelo_inurba_marseille","lat":43.28575,"lon":5.39493,"is_reserved":false,"is_disabled":false,"rental_uris":{"android":"levelo://app?vid=87eecdcc-d94f-4a18-a818-f5320cd125bb","ios":"levelo://app?vid=87eecdcc-d94f-4a18-a818-f5320cd125bb"},"vehicle_type_id":"4","last_reported":1727305716,"current_range_meters":38800,"station_id":"ce4bh292rcd13ifvqdg0","pricing_plan_id":"cebpf4jnsgd1na2vs0mg"},{"bike_id":"4b700f89-5ec1-4bb5-af8d-fd327e353fe9","system_id":"levelo_inurba_marseille","lat":43.28698,"lon":5.37389,"is_reserved":false,"is_disabled":false,"rental_uris":{"android":"levelo://app?vid=4b700f89-5ec1-4bb5-af8d-fd327e353fe9","ios":"levelo://app?vid=4b700f89-5ec1-4bb5-af8d-fd327e353fe9"},"vehicle_type_id":"4","last_reported":1727305716,"current_range_meters":30800,"station_id":"ce4bh3p2rcd13ifvqdq0","pricing_plan_id":"cebpf4jnsgd1na2vs0mg"},{"bike_id":"b0812fda-3828-40ca-a655-6df71889b353","system_id":"levelo_inurba_marseille","lat":43.28082,"lon":5.39656,"is_reserved":false,"is_disabled":false,"rental_uris":{"android":"levelo://app?vid=b0812fda-3828-40ca-a655-6df71889b353","ios":"levelo://app?vid=b0812fda-3828-40ca-a655-6df71889b353"},"vehicle_type_id":"4","last_reported":1727305716,"current_range_meters":39200,"station_id":"ce4bho12rcd13ifvqh2g","pricing_plan_id":"cebpf4jnsgd1na2vs0mg"},{"bike_id":"7de5ca1e-fa2c-427e-813a-699af6c1acc2","system_id":"levelo_inurba_marseille","lat":43.31083,"lon":5.42433,"is_reserved":false,"is_disabled":false,"rental_uris":{"android":"levelo://app?vid=7de5ca1e-fa2c-427e-813a-699af6c1acc2","ios":"levelo://app?vid=7de5ca1e-fa2c-427e-813a-699af6c1acc2"},"vehicle_type_id":"4","last_reported":1727305716,"current_range_meters":30000,"station_id":"ce4bhp92rcd13ifvqhag","pricing_plan_id":"cebpf4jnsgd1na2vs0mg"},{"bike_id":"9245460e-c7a0-43cd-952a-5816cabbfeae","system_id":"levelo_inurba_marseille","lat":43.28844,"lon":5.35853,"is_reserved":false,"is_disabled":false,"rental_uris":{"android":"levelo://app?vid=9245460e-c7a0-43cd-952a-5816cabbfeae","ios":"levelo://app?vid=9245460e-c7a0-43cd-952a-5816cabbfeae"},"vehicle_type_id":"4","last_reported":1727305716,"current_range_meters":15200,"station_id":"ce4bhb12rcd13ifvqem0","pricing_plan_id":"cebpf4jnsgd1na2vs0mg"},{"bike_id":"e0321300-37ad-4bce-a17c-4bf73cb9114f","system_id":"levelo_inurba_marseille","lat":43.29899,"lon":5.43658,"is_reserved":false,"is_disabled":false,"rental_uris":{"android":"levelo://app?vid=e0321300-37ad-4bce-a17c-4bf73cb9114f","ios":"levelo://app?vid=e0321300-37ad-4bce-a17c-4bf73cb9114f"},"vehicle_type_id":"4","last_reported":1727305716,"current_range_meters":37600,"station_id":"ce4bhpp2rcd13ifvqhfg","pricing_plan_id":"cebpf4jnsgd1na2vs0mg"},{"bike_id":"638c037b-db48-4b92-8f00-9eaf2d207cc7","system_id":"levelo_inurba_marseille","lat":43.26063,"lon":5.39398,"is_reserved":false,"is_disabled":false,"rental_uris":{"android":"levelo://app?vid=638c037b-db48-4b92-8f00-9eaf2d207cc7","ios":"levelo://app?vid=638c037b-db48-4b92-8f00-9eaf2d207cc7"},"vehicle_type_id":"4","last_reported":1727305716,"current_range_meters":33600,"station_id":"ce4bhh92rcd13ifvqfj0","pricing_plan_id":"cebpf4jnsgd1na2vs0mg"},{"bike_id":"52fbdfdd-a0fb-41a5-ac85-c694294ce5a1","system_id":"levelo_inurba_marseille","lat":43.30645,"lon":5.40078,"is_reserved":false,"is_disabled":false,"rental_uris":{"android":"levelo://app?vid=52fbdfdd-a0fb-41a5-ac85-c694294ce5a1","ios":"levelo://app?vid=52fbdfdd-a0fb-41a5-ac85-c694294ce5a1"},"vehicle_type_id":"4","last_reported":1727305716,"current_range_meters":38800,"station_id":"ce4bh112rcd13ifvqda0","pricing_plan_id":"cebpf4jnsgd1na2vs0mg"},{"bike_id":"93d25828-64d4-499c-9876-3c79c2c53649","system_id":"levelo_inurba_marseille","lat":43.29034,"lon":5.38131,"is_reserved":false,"is_disabled":false,"rental_uris":{"android":"levelo://app?vid=93d25828-64d4-499c-9876-3c79c2c53649","ios":"levelo://app?vid=93d25828-64d4-499c-9876-3c79c2c53649"},"vehicle_type_id":"4","last_reported":1727305716,"current_range_meters":38000,"station_id":"ce4bh4p2rcd13ifvqe1g","pricing_plan_id":"cebpf4jnsgd1na2vs0mg"},{"bike_id":"4991581a-cdd4-44d6-b7c8-c4d667499188","system_id":"levelo_inurba_marseille","lat":43.30807,"lon":5.38143,"is_reserved":false,"is_disabled":false,"rental_uris":{"android":"levelo://app?vid=4991581a-cdd4-44d6-b7c8-c4d667499188","ios":"levelo://app?vid=4991581a-cdd4-44d6-b7c8-c4d667499188"},"vehicle_type_id":"4","last_reported":1727305716,"current_range_meters":12000,"station_id":"ce4bgt12rcd13ifvqce0","pricing_plan_id":"cebpf4jnsgd1na2vs0mg"},{"bike_id":"9ec608d3-4df6-4ca1-add3-2d74d872cbe2","system_id":"levelo_inurba_marseille","lat":43.29442,"lon":5.39749,"is_reserved":false,"is_disabled":false,"rental_uris":{"android":"levelo://app?vid=9ec608d3-4df6-4ca1-add3-2d74d872cbe2","ios":"levelo://app?vid=9ec608d3-4df6-4ca1-add3-2d74d872cbe2"},"vehicle_type_id":"4","last_reported":1727305716,"current_range_meters":34000,"station_id":"ce4bh3h2rcd13ifvqdo0","pricing_plan_id":"cebpf4jnsgd1na2vs0mg"},{"bike_id":"79a05bb1-ccec-47f0-8ebd-1f95854549f8","system_id":"levelo_inurba_marseille","lat":43.31285,"lon":5.38042,"is_reserved":false,"is_disabled":false,"rental_uris":{"android":"levelo://app?vid=79a05bb1-ccec-47f0-8ebd-1f95854549f8","ios":"levelo://app?vid=79a05bb1-ccec-47f0-8ebd-1f95854549f8"},"vehicle_type_id":"4","last_reported":1727305716,"current_range_meters":9200,"station_id":"","pricing_plan_id":"cebpf4jnsgd1na2vs0mg"},{"bike_id":"21b4c04d-9a25-4091-985b-adaead17ba0f","system_id":"levelo_inurba_marseille","lat":43.30251,"lon":5.40083,"is_reserved":false,"is_disabled":false,"rental_uris":{"android":"levelo://app?vid=21b4c04d-9a25-4091-985b-adaead17ba0f","ios":"levelo://app?vid=21b4c04d-9a25-4091-985b-adaead17ba0f"},"vehicle_type_id":"4","last_reported":1727305716,"current_range_meters":39200,"station_id":"ce4bgvh2rcd13ifvqcs0","pricing_plan_id":"cebpf4jnsgd1na2vs0mg"},{"bike_id":"302a26fd-c6ce-4ec6-a0e9-8953ac854718","system_id":"levelo_inurba_marseille","lat":43.30248,"lon":5.40075,"is_reserved":false,"is_disabled":false,"rental_uris":{"android":"levelo://app?vid=302a26fd-c6ce-4ec6-a0e9-8953ac854718","ios":"levelo://app?vid=302a26fd-c6ce-4ec6-a0e9-8953ac854718"},"vehicle_type_id":"4","last_reported":1727305716,"current_range_meters":39200,"station_id":"ce4bgvh2rcd13ifvqcs0","pricing_plan_id":"cebpf4jnsgd1na2vs0mg"},{"bike_id":"4087045f-7fda-4a35-aaf1-4d40a483cdcf","system_id":"levelo_inurba_marseille","lat":43.30133,"lon":5.39869,"is_reserved":false,"is_disabled":false,"rental_uris":{"android":"levelo://app?vid=4087045f-7fda-4a35-aaf1-4d40a483cdcf","ios":"levelo://app?vid=4087045f-7fda-4a35-aaf1-4d40a483cdcf"},"vehicle_type_id":"4","last_reported":1727305716,"current_range_meters":39200,"station_id":"ce4bh0h2rcd13ifvqd40","pricing_plan_id":"cebpf4jnsgd1na2vs0mg"},{"bike_id":"79bcd95b-c98a-4a88-8c23-cb2457601db8","system_id":"levelo_inurba_marseille","lat":43.30961,"lon":5.39031,"is_reserved":false,"is_disabled":false,"rental_uris":{"android":"levelo://app?vid=79bcd95b-c98a-4a88-8c23-cb2457601db8","ios":"levelo://app?vid=79bcd95b-c98a-4a88-8c23-cb2457601db8"},"vehicle_type_id":"4","last_reported":1727305716,"current_range_meters":38400,"station_id":"ce4bgup2rcd13ifvqco0","pricing_plan_id":"cebpf4jnsgd1na2vs0mg"},{"bike_id":"d312ddd4-1b08-4dff-b093-776f1f63c34e","system_id":"levelo_inurba_marseille","lat":43.23192,"lon":5.39989,"is_reserved":false,"is_disabled":false,"rental_uris":{"android":"levelo://app?vid=d312ddd4-1b08-4dff-b093-776f1f63c34e","ios":"levelo://app?vid=d312ddd4-1b08-4dff-b093-776f1f63c34e"},"vehicle_type_id":"4","last_reported":1727305716,"current_range_meters":22800,"station_id":"ce4bhn12rcd13ifvqgqg","pricing_plan_id":"cebpf4jnsgd1na2vs0mg"},{"bike_id":"47998a02-7ecf-44f5-89bb-f5f37d1d5fd1","system_id":"levelo_inurba_marseille","lat":43.28675,"lon":5.38677,"is_reserved":false,"is_disabled":false,"rental_uris":{"android":"levelo://app?vid=47998a02-7ecf-44f5-89bb-f5f37d1d5fd1","ios":"levelo://app?vid=47998a02-7ecf-44f5-89bb-f5f37d1d5fd1"},"vehicle_type_id":"4","last_reported":1727305716,"current_range_meters":32400,"station_id":"ce4bh492rcd13ifvqdug","pricing_plan_id":"cebpf4jnsgd1na2vs0mg"},{"bike_id":"8495f46c-5e36-48ec-8428-111b147aa47a","system_id":"levelo_inurba_marseille","lat":43.28423,"lon":5.375123,"is_reserved":false,"is_disabled":false,"rental_uris":{"android":"levelo://app?vid=8495f46c-5e36-48ec-8428-111b147aa47a","ios":"levelo://app?vid=8495f46c-5e36-48ec-8428-111b147aa47a"},"vehicle_type_id":"4","last_reported":1727305716,"current_range_meters":8400,"station_id":"ce4bh412rcd13ifvqds0","pricing_plan_id":"cebpf4jnsgd1na2vs0mg"},{"bike_id":"1759d5b7-6786-44db-8c79-c4b09fc6ec40","system_id":"levelo_inurba_marseille","lat":43.30931,"lon":5.40146,"is_reserved":false,"is_disabled":false,"rental_uris":{"android":"levelo://app?vid=1759d5b7-6786-44db-8c79-c4b09fc6ec40","ios":"levelo://app?vid=1759d5b7-6786-44db-8c79-c4b09fc6ec40"},"vehicle_type_id":"4","last_reported":1727305716,"current_range_meters":14000,"station_id":"ce4bgvp2rcd13ifvqct0","pricing_plan_id":"cebpf4jnsgd1na2vs0mg"},{"bike_id":"3c6ac0ef-b181-42f0-94b5-ae2c28993ce5","system_id":"levelo_inurba_marseille","lat":43.26572,"lon":5.39005,"is_reserved":false,"is_disabled":false,"rental_uris":{"android":"levelo://app?vid=3c6ac0ef-b181-42f0-94b5-ae2c28993ce5","ios":"levelo://app?vid=3c6ac0ef-b181-42f0-94b5-ae2c28993ce5"},"vehicle_type_id":"4","last_reported":1727305716,"current_range_meters":32800,"station_id":"ce4bhe12rcd13ifvqf30","pricing_plan_id":"cebpf4jnsgd1na2vs0mg"},{"bike_id":"610a1f5d-0ad5-4876-824e-24ee8b3af756","system_id":"levelo_inurba_marseille","lat":43.23969,"lon":5.36629,"is_reserved":false,"is_disabled":false,"rental_uris":{"android":"levelo://app?vid=610a1f5d-0ad5-4876-824e-24ee8b3af756","ios":"levelo://app?vid=610a1f5d-0ad5-4876-824e-24ee8b3af756"},"vehicle_type_id":"4","last_reported":1727305716,"current_range_meters":38800,"station_id":"ce4bhi12rcd13ifvqfp0","pricing_plan_id":"cebpf4jnsgd1na2vs0mg"},{"bike_id":"8f5130c0-b468-42e5-9eaa-eba14b292a2c","system_id":"levelo_inurba_marseille","lat":43.30251,"lon":5.40054,"is_reserved":false,"is_disabled":false,"rental_uris":{"android":"levelo://app?vid=8f5130c0-b468-42e5-9eaa-eba14b292a2c","ios":"levelo://app?vid=8f5130c0-b468-42e5-9eaa-eba14b292a2c"},"vehicle_type_id":"4","last_reported":1727305716,"current_range_meters":39200,"station_id":"ce4bgvh2rcd13ifvqcs0","pricing_plan_id":"cebpf4jnsgd1na2vs0mg"},{"bike_id":"c911365b-5031-452c-8625-e51e7e1486a3","system_id":"levelo_inurba_marseille","lat":43.27204,"lon":5.39029,"is_reserved":false,"is_disabled":false,"rental_uris":{"android":"levelo://app?vid=c911365b-5031-452c-8625-e51e7e1486a3","ios":"levelo://app?vid=c911365b-5031-452c-8625-e51e7e1486a3"},"vehicle_type_id":"4","last_reported":1727305716,"current_range_meters":37600,"station_id":"","pricing_plan_id":"cebpf4jnsgd1na2vs0mg"},{"bike_id":"ccdf2e4a-ab19-45c2-a765-42e1119859e3","system_id":"levelo_inurba_marseille","lat":43.28703,"lon":5.3998,"is_reserved":false,"is_disabled":false,"rental_uris":{"android":"levelo://app?vid=ccdf2e4a-ab19-45c2-a765-42e1119859e3","ios":"levelo://app?vid=ccdf2e4a-ab19-45c2-a765-42e1119859e3"},"vehicle_type_id":"4","last_reported":1727305716,"current_range_meters":17200,"station_id":"ce4bho92rcd13ifvqh3g","pricing_plan_id":"cebpf4jnsgd1na2vs0mg"},{"bike_id":"59275bc6-d288-4f6b-b5f6-3e196197889e","system_id":"levelo_inurba_marseille","lat":43.32005,"lon":5.38155,"is_reserved":false,"is_disabled":false,"rental_uris":{"android":"levelo://app?vid=59275bc6-d288-4f6b-b5f6-3e196197889e","ios":"levelo://app?vid=59275bc6-d288-4f6b-b5f6-3e196197889e"},"vehicle_type_id":"4","last_reported":1727305716,"current_range_meters":38800,"station_id":"ce4bhr12rcd13ifvqhpg","pricing_plan_id":"cebpf4jnsgd1na2vs0mg"},{"bike_id":"32d0d433-3bf7-46d4-aab4-82d8765802dc","system_id":"levelo_inurba_marseille","lat":43.3169,"lon":5.40475,"is_reserved":false,"is_disabled":false,"rental_uris":{"android":"levelo://app?vid=32d0d433-3bf7-46d4-aab4-82d8765802dc","ios":"levelo://app?vid=32d0d433-3bf7-46d4-aab4-82d8765802dc"},"vehicle_type_id":"4","last_reported":1727305716,"current_range_meters":6400,"station_id":"ce4bh012rcd13ifvqd00","pricing_plan_id":"cebpf4jnsgd1na2vs0mg"},{"bike_id":"c017f362-9664-45c4-b19b-7118d6bf47c1","system_id":"levelo_inurba_marseille","lat":43.28154,"lon":5.42658,"is_reserved":false,"is_disabled":false,"rental_uris":{"android":"levelo://app?vid=c017f362-9664-45c4-b19b-7118d6bf47c1","ios":"levelo://app?vid=c017f362-9664-45c4-b19b-7118d6bf47c1"},"vehicle_type_id":"4","last_reported":1727305716,"current_range_meters":9200,"station_id":"ce4bhnh2rcd13ifvqgug","pricing_plan_id":"cebpf4jnsgd1na2vs0mg"},{"bike_id":"abb1da47-bf56-425f-bddd-b875994c1112","system_id":"levelo_inurba_marseille","lat":43.31762,"lon":5.39014,"is_reserved":false,"is_disabled":false,"rental_uris":{"android":"levelo://app?vid=abb1da47-bf56-425f-bddd-b875994c1112","ios":"levelo://app?vid=abb1da47-bf56-425f-bddd-b875994c1112"},"vehicle_type_id":"4","last_reported":1727305716,"current_range_meters":35600,"station_id":"ce4bhqp2rcd13ifvqhng","pricing_plan_id":"cebpf4jnsgd1na2vs0mg"},{"bike_id":"b8e7c327-01cf-46f6-8623-3971b5830cd6","system_id":"levelo_inurba_marseille","lat":43.28465,"lon":5.38429,"is_reserved":false,"is_disabled":false,"rental_uris":{"android":"levelo://app?vid=b8e7c327-01cf-46f6-8623-3971b5830cd6","ios":"levelo://app?vid=b8e7c327-01cf-46f6-8623-3971b5830cd6"},"vehicle_type_id":"4","last_reported":1727305716,"current_range_meters":22800,"station_id":"ce4bh512rcd13ifvqe3g","pricing_plan_id":"cebpf4jnsgd1na2vs0mg"},{"bike_id":"63744131-e298-4c0b-81e7-987738355832","system_id":"levelo_inurba_marseille","lat":43.2792,"lon":5.39583,"is_reserved":false,"is_disabled":false,"rental_uris":{"android":"levelo://app?vid=63744131-e298-4c0b-81e7-987738355832","ios":"levelo://app?vid=63744131-e298-4c0b-81e7-987738355832"},"vehicle_type_id":"4","last_reported":1727305716,"current_range_meters":10800,"station_id":"ce4bhf92rcd13ifvqf40","pricing_plan_id":"cebpf4jnsgd1na2vs0mg"},{"bike_id":"65063097-6998-460f-ac17-9ddd6188ee3b","system_id":"levelo_inurba_marseille","lat":43.31068,"lon":5.38338,"is_reserved":false,"is_disabled":false,"rental_uris":{"android":"levelo://app?vid=65063097-6998-460f-ac17-9ddd6188ee3b","ios":"levelo://app?vid=65063097-6998-460f-ac17-9ddd6188ee3b"},"vehicle_type_id":"4","last_reported":1727305716,"current_range_meters":38400,"station_id":"ce4bgv92rcd13ifvqcr0","pricing_plan_id":"cebpf4jnsgd1na2vs0mg"},{"bike_id":"99f8ad48-51db-4466-be29-2d7cf85a553b","system_id":"levelo_inurba_marseille","lat":43.31368,"lon":5.38499,"is_reserved":false,"is_disabled":false,"rental_uris":{"android":"levelo://app?vid=99f8ad48-51db-4466-be29-2d7cf85a553b","ios":"levelo://app?vid=99f8ad48-51db-4466-be29-2d7cf85a553b"},"vehicle_type_id":"4","last_reported":1727305716,"current_range_meters":38800,"station_id":"ce4bgt92rcd13ifvqcf0","pricing_plan_id":"cebpf4jnsgd1na2vs0mg"},{"bike_id":"01c541f6-d851-4c8e-abbf-f0520681b5b4","system_id":"levelo_inurba_marseille","lat":43.24547,"lon":5.39519,"is_reserved":false,"is_disabled":false,"rental_uris":{"android":"levelo://app?vid=01c541f6-d851-4c8e-abbf-f0520681b5b4","ios":"levelo://app?vid=01c541f6-d851-4c8e-abbf-f0520681b5b4"},"vehicle_type_id":"4","last_reported":1727305716,"current_range_meters":38800,"station_id":"ce4bhlp2rcd13ifvqgjg","pricing_plan_id":"cebpf4jnsgd1na2vs0mg"},{"bike_id":"5e7b69c8-7c4b-47b0-aa51-3913cd106ec8","system_id":"levelo_inurba_marseille","lat":43.29788,"lon":5.39335,"is_reserved":false,"is_disabled":false,"rental_uris":{"android":"levelo://app?vid=5e7b69c8-7c4b-47b0-aa51-3913cd106ec8","ios":"levelo://app?vid=5e7b69c8-7c4b-47b0-aa51-3913cd106ec8"},"vehicle_type_id":"4","last_reported":1727305716,"current_range_meters":38800,"station_id":"chh1huq6cuj3fo74tm60","pricing_plan_id":"cebpf4jnsgd1na2vs0mg"},{"bike_id":"0ed61cb4-e911-4b18-937c-4ea0664db6da","system_id":"levelo_inurba_marseille","lat":43.28416,"lon":5.375128,"is_reserved":false,"is_disabled":false,"rental_uris":{"android":"levelo://app?vid=0ed61cb4-e911-4b18-937c-4ea0664db6da","ios":"levelo://app?vid=0ed61cb4-e911-4b18-937c-4ea0664db6da"},"vehicle_type_id":"4","last_reported":1727305716,"current_range_meters":10000,"station_id":"ce4bh412rcd13ifvqds0","pricing_plan_id":"cebpf4jnsgd1na2vs0mg"},{"bike_id":"59110eaf-d528-474b-9446-365ef418fedb","system_id":"levelo_inurba_marseille","lat":43.29275,"lon":5.40123,"is_reserved":false,"is_disabled":false,"rental_uris":{"android":"levelo://app?vid=59110eaf-d528-474b-9446-365ef418fedb","ios":"levelo://app?vid=59110eaf-d528-474b-9446-365ef418fedb"},"vehicle_type_id":"4","last_reported":1727305716,"current_range_meters":38800,"station_id":"ce4bh312rcd13ifvqdk0","pricing_plan_id":"cebpf4jnsgd1na2vs0mg"},{"bike_id":"0f4af939-a5d3-4019-8f99-f4920ced632e","system_id":"levelo_inurba_marseille","lat":43.31887,"lon":5.40731,"is_reserved":false,"is_disabled":false,"rental_uris":{"android":"levelo://app?vid=0f4af939-a5d3-4019-8f99-f4920ced632e","ios":"levelo://app?vid=0f4af939-a5d3-4019-8f99-f4920ced632e"},"vehicle_type_id":"4","last_reported":1727305716,"current_range_meters":24000,"station_id":"ce4bhq12rcd13ifvqhig","pricing_plan_id":"cebpf4jnsgd1na2vs0mg"},{"bike_id":"38674e62-e768-405d-9590-89d89d7b7b0f","system_id":"levelo_inurba_marseille","lat":43.26065,"lon":5.394,"is_reserved":false,"is_disabled":false,"rental_uris":{"android":"levelo://app?vid=38674e62-e768-405d-9590-89d89d7b7b0f","ios":"levelo://app?vid=38674e62-e768-405d-9590-89d89d7b7b0f"},"vehicle_type_id":"4","last_reported":1727305716,"current_range_meters":38800,"station_id":"ce4bhh92rcd13ifvqfj0","pricing_plan_id":"cebpf4jnsgd1na2vs0mg"},{"bike_id":"6aeee1aa-489a-4cb7-9bbf-57c495c2e7ff","system_id":"levelo_inurba_marseille","lat":43.32363,"lon":5.38886,"is_reserved":false,"is_disabled":false,"rental_uris":{"android":"levelo://app?vid=6aeee1aa-489a-4cb7-9bbf-57c495c2e7ff","ios":"levelo://app?vid=6aeee1aa-489a-4cb7-9bbf-57c495c2e7ff"},"vehicle_type_id":"4","last_reported":1727305716,"current_range_meters":31200,"station_id":"ce4bhqp2rcd13ifvqhog","pricing_plan_id":"cebpf4jnsgd1na2vs0mg"},{"bike_id":"9df2bede-fbe1-4c5f-85da-3d7007b4d93f","system_id":"levelo_inurba_marseille","lat":43.30892,"lon":5.39641,"is_reserved":false,"is_disabled":false,"rental_uris":{"android":"levelo://app?vid=9df2bede-fbe1-4c5f-85da-3d7007b4d93f","ios":"levelo://app?vid=9df2bede-fbe1-4c5f-85da-3d7007b4d93f"},"vehicle_type_id":"4","last_reported":1727305716,"current_range_meters":28400,"station_id":"ce4bh012rcd13ifvqcv0","pricing_plan_id":"cebpf4jnsgd1na2vs0mg"},{"bike_id":"6ff2343d-b29d-484d-b89d-073d663c29ac","system_id":"levelo_inurba_marseille","lat":43.31372,"lon":5.385,"is_reserved":false,"is_disabled":false,"rental_uris":{"android":"levelo://app?vid=6ff2343d-b29d-484d-b89d-073d663c29ac","ios":"levelo://app?vid=6ff2343d-b29d-484d-b89d-073d663c29ac"},"vehicle_type_id":"4","last_reported":1727305716,"current_range_meters":38800,"station_id":"ce4bgt92rcd13ifvqcf0","pricing_plan_id":"cebpf4jnsgd1na2vs0mg"},{"bike_id":"a3f7c797-2788-4cea-aa51-2735e90fcd90","system_id":"levelo_inurba_marseille","lat":43.30801,"lon":5.43521,"is_reserved":false,"is_disabled":false,"rental_uris":{"android":"levelo://app?vid=a3f7c797-2788-4cea-aa51-2735e90fcd90","ios":"levelo://app?vid=a3f7c797-2788-4cea-aa51-2735e90fcd90"},"vehicle_type_id":"4","last_reported":1727305716,"current_range_meters":38400,"station_id":"ce4bhph2rcd13ifvqheg","pricing_plan_id":"cebpf4jnsgd1na2vs0mg"},{"bike_id":"b8265e77-c510-430c-9b27-d54ecb0610d0","system_id":"levelo_inurba_marseille","lat":43.25081,"lon":5.39519,"is_reserved":false,"is_disabled":false,"rental_uris":{"android":"levelo://app?vid=b8265e77-c510-430c-9b27-d54ecb0610d0","ios":"levelo://app?vid=b8265e77-c510-430c-9b27-d54ecb0610d0"},"vehicle_type_id":"4","last_reported":1727305716,"current_range_meters":24400,"station_id":"ce4bhm12rcd13ifvqgkg","pricing_plan_id":"cebpf4jnsgd1na2vs0mg"},{"bike_id":"586a8930-7eba-42a0-89c7-a133731028c4","system_id":"levelo_inurba_marseille","lat":43.25119,"lon":5.40312,"is_reserved":false,"is_disabled":false,"rental_uris":{"android":"levelo://app?vid=586a8930-7eba-42a0-89c7-a133731028c4","ios":"levelo://app?vid=586a8930-7eba-42a0-89c7-a133731028c4"},"vehicle_type_id":"4","last_reported":1727305716,"current_range_meters":14800,"station_id":"ce4bhlh2rcd13ifvqgig","pricing_plan_id":"cebpf4jnsgd1na2vs0mg"},{"bike_id":"518a126e-e19e-409a-98cb-1a0bb0ba79e5","system_id":"levelo_inurba_marseille","lat":43.28618,"lon":5.35101,"is_reserved":false,"is_disabled":false,"rental_uris":{"android":"levelo://app?vid=518a126e-e19e-409a-98cb-1a0bb0ba79e5","ios":"levelo://app?vid=518a126e-e19e-409a-98cb-1a0bb0ba79e5"},"vehicle_type_id":"4","last_reported":1727305716,"current_range_meters":20400,"station_id":"ce4bhch2rcd13ifvqeug","pricing_plan_id":"cebpf4jnsgd1na2vs0mg"},{"bike_id":"5c93b95c-0549-41f0-a4a9-6211e260d1dc","system_id":"levelo_inurba_marseille","lat":43.31893,"lon":5.40734,"is_reserved":false,"is_disabled":false,"rental_uris":{"android":"levelo://app?vid=5c93b95c-0549-41f0-a4a9-6211e260d1dc","ios":"levelo://app?vid=5c93b95c-0549-41f0-a4a9-6211e260d1dc"},"vehicle_type_id":"4","last_reported":1727305716,"current_range_meters":38400,"station_id":"ce4bhq12rcd13ifvqhig","pricing_plan_id":"cebpf4jnsgd1na2vs0mg"},{"bike_id":"031c2443-9ee1-436c-9b5c-61dfa2758075","system_id":"levelo_inurba_marseille","lat":43.30783,"lon":5.3765,"is_reserved":false,"is_disabled":false,"rental_uris":{"android":"levelo://app?vid=031c2443-9ee1-436c-9b5c-61dfa2758075","ios":"levelo://app?vid=031c2443-9ee1-436c-9b5c-61dfa2758075"},"vehicle_type_id":"4","last_reported":1727305716,"current_range_meters":7200,"station_id":"ce4bgv92rcd13ifvqcq0","pricing_plan_id":"cebpf4jnsgd1na2vs0mg"},{"bike_id":"920b7059-efc6-4750-96fa-124c71e8a324","system_id":"levelo_inurba_marseille","lat":43.28705,"lon":5.37388,"is_reserved":false,"is_disabled":false,"rental_uris":{"android":"levelo://app?vid=920b7059-efc6-4750-96fa-124c71e8a324","ios":"levelo://app?vid=920b7059-efc6-4750-96fa-124c71e8a324"},"vehicle_type_id":"4","last_reported":1727305716,"current_range_meters":39200,"station_id":"ce4bh3p2rcd13ifvqdq0","pricing_plan_id":"cebpf4jnsgd1na2vs0mg"},{"bike_id":"19309ef8-ba58-45a5-8f62-d42eb4958490","system_id":"levelo_inurba_marseille","lat":43.30937,"lon":5.4013,"is_reserved":false,"is_disabled":false,"rental_uris":{"android":"levelo://app?vid=19309ef8-ba58-45a5-8f62-d42eb4958490","ios":"levelo://app?vid=19309ef8-ba58-45a5-8f62-d42eb4958490"},"vehicle_type_id":"4","last_reported":1727305716,"current_range_meters":32000,"station_id":"ce4bgvp2rcd13ifvqct0","pricing_plan_id":"cebpf4jnsgd1na2vs0mg"},{"bike_id":"b73604d8-6ef2-407f-b87c-3dd4d6b35012","system_id":"levelo_inurba_marseille","lat":43.30933,"lon":5.40132,"is_reserved":false,"is_disabled":false,"rental_uris":{"android":"levelo://app?vid=b73604d8-6ef2-407f-b87c-3dd4d6b35012","ios":"levelo://app?vid=b73604d8-6ef2-407f-b87c-3dd4d6b35012"},"vehicle_type_id":"4","last_reported":1727305716,"current_range_meters":36800,"station_id":"ce4bgvp2rcd13ifvqct0","pricing_plan_id":"cebpf4jnsgd1na2vs0mg"},{"bike_id":"f15fd042-8eed-43d8-828e-ffd3cc371dfe","system_id":"levelo_inurba_marseille","lat":43.30938,"lon":5.40149,"is_reserved":false,"is_disabled":false,"rental_uris":{"android":"levelo://app?vid=f15fd042-8eed-43d8-828e-ffd3cc371dfe","ios":"levelo://app?vid=f15fd042-8eed-43d8-828e-ffd3cc371dfe"},"vehicle_type_id":"4","last_reported":1727305716,"current_range_meters":17600,"station_id":"ce4bgvp2rcd13ifvqct0","pricing_plan_id":"cebpf4jnsgd1na2vs0mg"},{"bike_id":"6954fd7e-728c-4dac-9e64-3fa4e20ee438","system_id":"levelo_inurba_marseille","lat":43.33727,"lon":5.39183,"is_reserved":false,"is_disabled":false,"rental_uris":{"android":"levelo://app?vid=6954fd7e-728c-4dac-9e64-3fa4e20ee438","ios":"levelo://app?vid=6954fd7e-728c-4dac-9e64-3fa4e20ee438"},"vehicle_type_id":"4","last_reported":1727305716,"current_range_meters":38000,"station_id":"ce4bhr92rcd13ifvqhsg","pricing_plan_id":"cebpf4jnsgd1na2vs0mg"},{"bike_id":"3b73bd9a-dacc-4a46-ab2f-b0abdca28657","system_id":"levelo_inurba_marseille","lat":43.28283,"lon":5.35078,"is_reserved":false,"is_disabled":false,"rental_uris":{"android":"levelo://app?vid=3b73bd9a-dacc-4a46-ab2f-b0abdca28657","ios":"levelo://app?vid=3b73bd9a-dacc-4a46-ab2f-b0abdca28657"},"vehicle_type_id":"4","last_reported":1727305716,"current_range_meters":36400,"station_id":"ce4bhbp2rcd13ifvqerg","pricing_plan_id":"cebpf4jnsgd1na2vs0mg"},{"bike_id":"eab5a9e2-402e-41da-921c-d31391bad40e","system_id":"levelo_inurba_marseille","lat":43.24663,"lon":5.38168,"is_reserved":false,"is_disabled":false,"rental_uris":{"android":"levelo://app?vid=eab5a9e2-402e-41da-921c-d31391bad40e","ios":"levelo://app?vid=eab5a9e2-402e-41da-921c-d31391bad40e"},"vehicle_type_id":"4","last_reported":1727305716,"current_range_meters":14400,"station_id":"ce4bhih2rcd13ifvqfr0","pricing_plan_id":"cebpf4jnsgd1na2vs0mg"},{"bike_id":"be506afa-be30-42a2-bf72-9b7b1bf787bd","system_id":"levelo_inurba_marseille","lat":43.31276,"lon":5.40169,"is_reserved":false,"is_disabled":false,"rental_uris":{"android":"levelo://app?vid=be506afa-be30-42a2-bf72-9b7b1bf787bd","ios":"levelo://app?vid=be506afa-be30-42a2-bf72-9b7b1bf787bd"},"vehicle_type_id":"4","last_reported":1727305716,"current_range_meters":38800,"station_id":"ce4bh092rcd13ifvqd30","pricing_plan_id":"cebpf4jnsgd1na2vs0mg"},{"bike_id":"c807fc21-2661-4700-a2b3-08e14219e61d","system_id":"levelo_inurba_marseille","lat":43.30792,"lon":5.3765,"is_reserved":false,"is_disabled":false,"rental_uris":{"android":"levelo://app?vid=c807fc21-2661-4700-a2b3-08e14219e61d","ios":"levelo://app?vid=c807fc21-2661-4700-a2b3-08e14219e61d"},"vehicle_type_id":"4","last_reported":1727305716,"current_range_meters":33200,"station_id":"ce4bgv92rcd13ifvqcq0","pricing_plan_id":"cebpf4jnsgd1na2vs0mg"},{"bike_id":"7bd1f9cd-8b82-486c-8e77-f4da96f27ef9","system_id":"levelo_inurba_marseille","lat":43.24665,"lon":5.38163,"is_reserved":false,"is_disabled":false,"rental_uris":{"android":"levelo://app?vid=7bd1f9cd-8b82-486c-8e77-f4da96f27ef9","ios":"levelo://app?vid=7bd1f9cd-8b82-486c-8e77-f4da96f27ef9"},"vehicle_type_id":"4","last_reported":1727305716,"current_range_meters":36000,"station_id":"ce4bhih2rcd13ifvqfr0","pricing_plan_id":"cebpf4jnsgd1na2vs0mg"},{"bike_id":"d0d07880-62b3-4c52-b862-412a7e5558bd","system_id":"levelo_inurba_marseille","lat":43.2799,"lon":5.41657,"is_reserved":false,"is_disabled":false,"rental_uris":{"android":"levelo://app?vid=d0d07880-62b3-4c52-b862-412a7e5558bd","ios":"levelo://app?vid=d0d07880-62b3-4c52-b862-412a7e5558bd"},"vehicle_type_id":"4","last_reported":1727305716,"current_range_meters":20000,"station_id":"ce4bho12rcd13ifvqh1g","pricing_plan_id":"cebpf4jnsgd1na2vs0mg"},{"bike_id":"cba95091-7984-4b96-9b49-853952a62f5f","system_id":"levelo_inurba_marseille","lat":43.28452,"lon":5.35897,"is_reserved":false,"is_disabled":false,"rental_uris":{"android":"levelo://app?vid=cba95091-7984-4b96-9b49-853952a62f5f","ios":"levelo://app?vid=cba95091-7984-4b96-9b49-853952a62f5f"},"vehicle_type_id":"4","last_reported":1727305716,"current_range_meters":30000,"station_id":"ce4bhah2rcd13ifvqei0","pricing_plan_id":"cebpf4jnsgd1na2vs0mg"},{"bike_id":"89685f51-8676-45f9-b167-709e27038cfa","system_id":"levelo_inurba_marseille","lat":43.27831,"lon":5.39203,"is_reserved":false,"is_disabled":false,"rental_uris":{"android":"levelo://app?vid=89685f51-8676-45f9-b167-709e27038cfa","ios":"levelo://app?vid=89685f51-8676-45f9-b167-709e27038cfa"},"vehicle_type_id":"4","last_reported":1727305716,"current_range_meters":30000,"station_id":"ce4bhjp2rcd13ifvqga0","pricing_plan_id":"cebpf4jnsgd1na2vs0mg"},{"bike_id":"cf36a53a-3509-423f-8075-777dbf5a32a1","system_id":"levelo_inurba_marseille","lat":43.22941,"lon":5.35381,"is_reserved":false,"is_disabled":false,"rental_uris":{"android":"levelo://app?vid=cf36a53a-3509-423f-8075-777dbf5a32a1","ios":"levelo://app?vid=cf36a53a-3509-423f-8075-777dbf5a32a1"},"vehicle_type_id":"4","last_reported":1727305716,"current_range_meters":28000,"station_id":"cpo3532slgdg3j2ikp40","pricing_plan_id":"cebpf4jnsgd1na2vs0mg"},{"bike_id":"a75d11e4-5000-41f8-9ff2-fbd2a76366d5","system_id":"levelo_inurba_marseille","lat":43.33951,"lon":5.42069,"is_reserved":false,"is_disabled":false,"rental_uris":{"android":"levelo://app?vid=a75d11e4-5000-41f8-9ff2-fbd2a76366d5","ios":"levelo://app?vid=a75d11e4-5000-41f8-9ff2-fbd2a76366d5"},"vehicle_type_id":"4","last_reported":1727305716,"current_range_meters":17600,"station_id":"","pricing_plan_id":"cebpf4jnsgd1na2vs0mg"},{"bike_id":"3dee0047-4e2c-490b-9230-09a4c8d3bf08","system_id":"levelo_inurba_marseille","lat":43.28461,"lon":5.35889,"is_reserved":false,"is_disabled":false,"rental_uris":{"android":"levelo://app?vid=3dee0047-4e2c-490b-9230-09a4c8d3bf08","ios":"levelo://app?vid=3dee0047-4e2c-490b-9230-09a4c8d3bf08"},"vehicle_type_id":"4","last_reported":1727305716,"current_range_meters":33200,"station_id":"ce4bhah2rcd13ifvqei0","pricing_plan_id":"cebpf4jnsgd1na2vs0mg"},{"bike_id":"7253cdbb-9a01-48ae-a749-6e9c4d41124e","system_id":"levelo_inurba_marseille","lat":43.29907,"lon":5.381425,"is_reserved":false,"is_disabled":false,"rental_uris":{"android":"levelo://app?vid=7253cdbb-9a01-48ae-a749-6e9c4d41124e","ios":"levelo://app?vid=7253cdbb-9a01-48ae-a749-6e9c4d41124e"},"vehicle_type_id":"4","last_reported":1727305716,"current_range_meters":36400,"station_id":"ce4bgj12rcd13ifvqbc0","pricing_plan_id":"cebpf4jnsgd1na2vs0mg"},{"bike_id":"ea49d9e8-8e06-4151-b49f-455334378a83","system_id":"levelo_inurba_marseille","lat":43.25725,"lon":5.41108,"is_reserved":false,"is_disabled":false,"rental_uris":{"android":"levelo://app?vid=ea49d9e8-8e06-4151-b49f-455334378a83","ios":"levelo://app?vid=ea49d9e8-8e06-4151-b49f-455334378a83"},"vehicle_type_id":"4","last_reported":1727305716,"current_range_meters":6800,"station_id":"ce4bhkp2rcd13ifvqgd0","pricing_plan_id":"cebpf4jnsgd1na2vs0mg"},{"bike_id":"2f2c48a7-330b-44c3-b52f-a01c344118c9","system_id":"levelo_inurba_marseille","lat":43.3229,"lon":5.38267,"is_reserved":false,"is_disabled":false,"rental_uris":{"android":"levelo://app?vid=2f2c48a7-330b-44c3-b52f-a01c344118c9","ios":"levelo://app?vid=2f2c48a7-330b-44c3-b52f-a01c344118c9"},"vehicle_type_id":"4","last_reported":1727305716,"current_range_meters":19200,"station_id":"ce4bhr12rcd13ifvqhqg","pricing_plan_id":"cebpf4jnsgd1na2vs0mg"},{"bike_id":"858ca720-3eaf-4793-8994-cd32470e7cc9","system_id":"levelo_inurba_marseille","lat":43.28699,"lon":5.37386,"is_reserved":false,"is_disabled":false,"rental_uris":{"android":"levelo://app?vid=858ca720-3eaf-4793-8994-cd32470e7cc9","ios":"levelo://app?vid=858ca720-3eaf-4793-8994-cd32470e7cc9"},"vehicle_type_id":"4","last_reported":1727305716,"current_range_meters":38000,"station_id":"ce4bh3p2rcd13ifvqdq0","pricing_plan_id":"cebpf4jnsgd1na2vs0mg"},{"bike_id":"c377dc08-f020-40b9-ba08-9a9aa9a08213","system_id":"levelo_inurba_marseille","lat":43.23184,"lon":5.3999,"is_reserved":false,"is_disabled":false,"rental_uris":{"android":"levelo://app?vid=c377dc08-f020-40b9-ba08-9a9aa9a08213","ios":"levelo://app?vid=c377dc08-f020-40b9-ba08-9a9aa9a08213"},"vehicle_type_id":"4","last_reported":1727305716,"current_range_meters":18000,"station_id":"ce4bhn12rcd13ifvqgqg","pricing_plan_id":"cebpf4jnsgd1na2vs0mg"},{"bike_id":"362d6825-6219-416f-b86d-6c9c61d5f4f6","system_id":"levelo_inurba_marseille","lat":43.28413,"lon":5.37517,"is_reserved":false,"is_disabled":false,"rental_uris":{"android":"levelo://app?vid=362d6825-6219-416f-b86d-6c9c61d5f4f6","ios":"levelo://app?vid=362d6825-6219-416f-b86d-6c9c61d5f4f6"},"vehicle_type_id":"4","last_reported":1727305716,"current_range_meters":30000,"station_id":"ce4bh412rcd13ifvqds0","pricing_plan_id":"cebpf4jnsgd1na2vs0mg"},{"bike_id":"e5bd0fa9-5f87-41bf-b1c3-9068bc1e13e2","system_id":"levelo_inurba_marseille","lat":43.32367,"lon":5.38877,"is_reserved":false,"is_disabled":false,"rental_uris":{"android":"levelo://app?vid=e5bd0fa9-5f87-41bf-b1c3-9068bc1e13e2","ios":"levelo://app?vid=e5bd0fa9-5f87-41bf-b1c3-9068bc1e13e2"},"vehicle_type_id":"4","last_reported":1727305716,"current_range_meters":19600,"station_id":"ce4bhqp2rcd13ifvqhog","pricing_plan_id":"cebpf4jnsgd1na2vs0mg"},{"bike_id":"8fb1aede-6cd4-4030-8f61-8691fe51cbc3","system_id":"levelo_inurba_marseille","lat":43.28716,"lon":5.39979,"is_reserved":false,"is_disabled":false,"rental_uris":{"android":"levelo://app?vid=8fb1aede-6cd4-4030-8f61-8691fe51cbc3","ios":"levelo://app?vid=8fb1aede-6cd4-4030-8f61-8691fe51cbc3"},"vehicle_type_id":"4","last_reported":1727305716,"current_range_meters":35200,"station_id":"ce4bho92rcd13ifvqh3g","pricing_plan_id":"cebpf4jnsgd1na2vs0mg"},{"bike_id":"7b21299c-e7c0-4e88-af11-8f1c67c4e632","system_id":"levelo_inurba_marseille","lat":43.26564,"lon":5.39002,"is_reserved":false,"is_disabled":false,"rental_uris":{"android":"levelo://app?vid=7b21299c-e7c0-4e88-af11-8f1c67c4e632","ios":"levelo://app?vid=7b21299c-e7c0-4e88-af11-8f1c67c4e632"},"vehicle_type_id":"4","last_reported":1727305716,"current_range_meters":38800,"station_id":"ce4bhe12rcd13ifvqf30","pricing_plan_id":"cebpf4jnsgd1na2vs0mg"},{"bike_id":"16d7ccce-0e49-414a-829d-4cc48f8810c4","system_id":"levelo_inurba_marseille","lat":43.29876,"lon":5.39726,"is_reserved":false,"is_disabled":false,"rental_uris":{"android":"levelo://app?vid=16d7ccce-0e49-414a-829d-4cc48f8810c4","ios":"levelo://app?vid=16d7ccce-0e49-414a-829d-4cc48f8810c4"},"vehicle_type_id":"4","last_reported":1727305716,"current_range_meters":14000,"station_id":"ce4bh0h2rcd13ifvqd50","pricing_plan_id":"cebpf4jnsgd1na2vs0mg"},{"bike_id":"a45e9f79-9d87-4ae1-bb1b-a1720214dd8e","system_id":"levelo_inurba_marseille","lat":43.31336,"lon":5.39696,"is_reserved":false,"is_disabled":false,"rental_uris":{"android":"levelo://app?vid=a45e9f79-9d87-4ae1-bb1b-a1720214dd8e","ios":"levelo://app?vid=a45e9f79-9d87-4ae1-bb1b-a1720214dd8e"},"vehicle_type_id":"4","last_reported":1727305716,"current_range_meters":38800,"station_id":"ce4bgvp2rcd13ifvqcu0","pricing_plan_id":"cebpf4jnsgd1na2vs0mg"},{"bike_id":"4a7354c9-d928-4809-ac6e-ead620115dd1","system_id":"levelo_inurba_marseille","lat":43.28104,"lon":5.37853,"is_reserved":false,"is_disabled":false,"rental_uris":{"android":"levelo://app?vid=4a7354c9-d928-4809-ac6e-ead620115dd1","ios":"levelo://app?vid=4a7354c9-d928-4809-ac6e-ead620115dd1"},"vehicle_type_id":"4","last_reported":1727305716,"current_range_meters":35200,"station_id":"ce4bha12rcd13ifvqee0","pricing_plan_id":"cebpf4jnsgd1na2vs0mg"},{"bike_id":"d43c85ca-4c93-4962-8e62-f8d251e36364","system_id":"levelo_inurba_marseille","lat":43.28153,"lon":5.42642,"is_reserved":false,"is_disabled":false,"rental_uris":{"android":"levelo://app?vid=d43c85ca-4c93-4962-8e62-f8d251e36364","ios":"levelo://app?vid=d43c85ca-4c93-4962-8e62-f8d251e36364"},"vehicle_type_id":"4","last_reported":1727305716,"current_range_meters":36800,"station_id":"ce4bhnh2rcd13ifvqgug","pricing_plan_id":"cebpf4jnsgd1na2vs0mg"},{"bike_id":"579ca450-e0c2-45fa-b5c3-22c592624e30","system_id":"levelo_inurba_marseille","lat":43.33025,"lon":5.39042,"is_reserved":false,"is_disabled":false,"rental_uris":{"android":"levelo://app?vid=579ca450-e0c2-45fa-b5c3-22c592624e30","ios":"levelo://app?vid=579ca450-e0c2-45fa-b5c3-22c592624e30"},"vehicle_type_id":"4","last_reported":1727305716,"current_range_meters":10000,"station_id":"ce4bhr92rcd13ifvqhrg","pricing_plan_id":"cebpf4jnsgd1na2vs0mg"},{"bike_id":"b860d883-c194-47c2-a427-633aacf2d83d","system_id":"levelo_inurba_marseille","lat":43.33605,"lon":5.41025,"is_reserved":false,"is_disabled":false,"rental_uris":{"android":"levelo://app?vid=b860d883-c194-47c2-a427-633aacf2d83d","ios":"levelo://app?vid=b860d883-c194-47c2-a427-633aacf2d83d"},"vehicle_type_id":"4","last_reported":1727305716,"current_range_meters":26000,"station_id":"ce4bhqh2rcd13ifvqhmg","pricing_plan_id":"cebpf4jnsgd1na2vs0mg"},{"bike_id":"88061be9-b616-4f59-8fe8-0b00c19c7768","system_id":"levelo_inurba_marseille","lat":43.31171,"lon":5.38717,"is_reserved":false,"is_disabled":false,"rental_uris":{"android":"levelo://app?vid=88061be9-b616-4f59-8fe8-0b00c19c7768","ios":"levelo://app?vid=88061be9-b616-4f59-8fe8-0b00c19c7768"},"vehicle_type_id":"4","last_reported":1727305716,"current_range_meters":16000,"station_id":"ce4bgv12rcd13ifvqcp0","pricing_plan_id":"cebpf4jnsgd1na2vs0mg"},{"bike_id":"838b7ed9-122a-4efd-93ea-a19699642734","system_id":"levelo_inurba_marseille","lat":43.30935,"lon":5.40144,"is_reserved":false,"is_disabled":false,"rental_uris":{"android":"levelo://app?vid=838b7ed9-122a-4efd-93ea-a19699642734","ios":"levelo://app?vid=838b7ed9-122a-4efd-93ea-a19699642734"},"vehicle_type_id":"4","last_reported":1727305716,"current_range_meters":33600,"station_id":"ce4bgvp2rcd13ifvqct0","pricing_plan_id":"cebpf4jnsgd1na2vs0mg"},{"bike_id":"f2ef5102-6b9b-41a6-9e50-e7b3a0230a29","system_id":"levelo_inurba_marseille","lat":43.2846,"lon":5.35884,"is_reserved":false,"is_disabled":false,"rental_uris":{"android":"levelo://app?vid=f2ef5102-6b9b-41a6-9e50-e7b3a0230a29","ios":"levelo://app?vid=f2ef5102-6b9b-41a6-9e50-e7b3a0230a29"},"vehicle_type_id":"4","last_reported":1727305716,"current_range_meters":3600,"station_id":"ce4bhah2rcd13ifvqei0","pricing_plan_id":"cebpf4jnsgd1na2vs0mg"},{"bike_id":"646d6d59-5a43-443a-9395-b60f0d095a6d","system_id":"levelo_inurba_marseille","lat":43.27813,"lon":5.40715,"is_reserved":false,"is_disabled":false,"rental_uris":{"android":"levelo://app?vid=646d6d59-5a43-443a-9395-b60f0d095a6d","ios":"levelo://app?vid=646d6d59-5a43-443a-9395-b60f0d095a6d"},"vehicle_type_id":"4","last_reported":1727305716,"current_range_meters":38800,"station_id":"ce4bhnh2rcd13ifvqgtg","pricing_plan_id":"cebpf4jnsgd1na2vs0mg"},{"bike_id":"55c359bc-6984-4ce2-b430-cc466c90589d","system_id":"levelo_inurba_marseille","lat":43.25874,"lon":5.39905,"is_reserved":false,"is_disabled":false,"rental_uris":{"android":"levelo://app?vid=55c359bc-6984-4ce2-b430-cc466c90589d","ios":"levelo://app?vid=55c359bc-6984-4ce2-b430-cc466c90589d"},"vehicle_type_id":"4","last_reported":1727305716,"current_range_meters":16800,"station_id":"ce4bhl92rcd13ifvqghg","pricing_plan_id":"cebpf4jnsgd1na2vs0mg"},{"bike_id":"c2bdf32c-f616-4cec-8d5e-330373c3c441","system_id":"levelo_inurba_marseille","lat":43.2439,"lon":5.37054,"is_reserved":false,"is_disabled":false,"rental_uris":{"android":"levelo://app?vid=c2bdf32c-f616-4cec-8d5e-330373c3c441","ios":"levelo://app?vid=c2bdf32c-f616-4cec-8d5e-330373c3c441"},"vehicle_type_id":"4","last_reported":1727305716,"current_range_meters":39200,"station_id":"ce4bhhh2rcd13ifvqfk0","pricing_plan_id":"cebpf4jnsgd1na2vs0mg"},{"bike_id":"82625ba3-6e8c-4ba9-9ab8-9a0261ad03b3","system_id":"levelo_inurba_marseille","lat":43.27818,"lon":5.40711,"is_reserved":false,"is_disabled":false,"rental_uris":{"android":"levelo://app?vid=82625ba3-6e8c-4ba9-9ab8-9a0261ad03b3","ios":"levelo://app?vid=82625ba3-6e8c-4ba9-9ab8-9a0261ad03b3"},"vehicle_type_id":"4","last_reported":1727305716,"current_range_meters":30000,"station_id":"ce4bhnh2rcd13ifvqgtg","pricing_plan_id":"cebpf4jnsgd1na2vs0mg"},{"bike_id":"d20b87a8-1ff0-4fbb-9a79-5be841e624b8","system_id":"levelo_inurba_marseille","lat":43.27981,"lon":5.41653,"is_reserved":false,"is_disabled":false,"rental_uris":{"android":"levelo://app?vid=d20b87a8-1ff0-4fbb-9a79-5be841e624b8","ios":"levelo://app?vid=d20b87a8-1ff0-4fbb-9a79-5be841e624b8"},"vehicle_type_id":"4","last_reported":1727305716,"current_range_meters":38800,"station_id":"ce4bho12rcd13ifvqh1g","pricing_plan_id":"cebpf4jnsgd1na2vs0mg"},{"bike_id":"8d3ecac4-8e0f-45f1-b81a-9b3dacb760a4","system_id":"levelo_inurba_marseille","lat":43.31169,"lon":5.38718,"is_reserved":false,"is_disabled":false,"rental_uris":{"android":"levelo://app?vid=8d3ecac4-8e0f-45f1-b81a-9b3dacb760a4","ios":"levelo://app?vid=8d3ecac4-8e0f-45f1-b81a-9b3dacb760a4"},"vehicle_type_id":"4","last_reported":1727305716,"current_range_meters":39200,"station_id":"ce4bgv12rcd13ifvqcp0","pricing_plan_id":"cebpf4jnsgd1na2vs0mg"},{"bike_id":"85201958-2cff-4946-b7a5-17d3b92c419f","system_id":"levelo_inurba_marseille","lat":43.28713,"lon":5.39984,"is_reserved":false,"is_disabled":false,"rental_uris":{"android":"levelo://app?vid=85201958-2cff-4946-b7a5-17d3b92c419f","ios":"levelo://app?vid=85201958-2cff-4946-b7a5-17d3b92c419f"},"vehicle_type_id":"4","last_reported":1727305716,"current_range_meters":39200,"station_id":"ce4bho92rcd13ifvqh3g","pricing_plan_id":"cebpf4jnsgd1na2vs0mg"},{"bike_id":"553ffebd-ccf7-4a7c-86b4-9395eafe055b","system_id":"levelo_inurba_marseille","lat":43.31332,"lon":5.39694,"is_reserved":false,"is_disabled":false,"rental_uris":{"android":"levelo://app?vid=553ffebd-ccf7-4a7c-86b4-9395eafe055b","ios":"levelo://app?vid=553ffebd-ccf7-4a7c-86b4-9395eafe055b"},"vehicle_type_id":"4","last_reported":1727305716,"current_range_meters":38000,"station_id":"ce4bgvp2rcd13ifvqcu0","pricing_plan_id":"cebpf4jnsgd1na2vs0mg"},{"bike_id":"4c052241-7207-453c-8fc3-c245f39c8eba","system_id":"levelo_inurba_marseille","lat":43.27944,"lon":5.41049,"is_reserved":false,"is_disabled":false,"rental_uris":{"android":"levelo://app?vid=4c052241-7207-453c-8fc3-c245f39c8eba","ios":"levelo://app?vid=4c052241-7207-453c-8fc3-c245f39c8eba"},"vehicle_type_id":"4","last_reported":1727305716,"current_range_meters":2800,"station_id":"ce4bhnp2rcd13ifvqh0g","pricing_plan_id":"cebpf4jnsgd1na2vs0mg"},{"bike_id":"1371df0c-93a5-4990-9c23-c5814631bbe6","system_id":"levelo_inurba_marseille","lat":43.28618,"lon":5.35104,"is_reserved":false,"is_disabled":false,"rental_uris":{"android":"levelo://app?vid=1371df0c-93a5-4990-9c23-c5814631bbe6","ios":"levelo://app?vid=1371df0c-93a5-4990-9c23-c5814631bbe6"},"vehicle_type_id":"4","last_reported":1727305716,"current_range_meters":16800,"station_id":"ce4bhch2rcd13ifvqeug","pricing_plan_id":"cebpf4jnsgd1na2vs0mg"},{"bike_id":"d44a9fac-a6fe-46e5-a283-fd4e9c81d330","system_id":"levelo_inurba_marseille","lat":43.24388,"lon":5.37064,"is_reserved":false,"is_disabled":false,"rental_uris":{"android":"levelo://app?vid=d44a9fac-a6fe-46e5-a283-fd4e9c81d330","ios":"levelo://app?vid=d44a9fac-a6fe-46e5-a283-fd4e9c81d330"},"vehicle_type_id":"4","last_reported":1727305716,"current_range_meters":22000,"station_id":"ce4bhhh2rcd13ifvqfk0","pricing_plan_id":"cebpf4jnsgd1na2vs0mg"},{"bike_id":"ef471c70-730d-48db-abc8-82231a4c8557","system_id":"levelo_inurba_marseille","lat":43.27953,"lon":5.41042,"is_reserved":false,"is_disabled":false,"rental_uris":{"android":"levelo://app?vid=ef471c70-730d-48db-abc8-82231a4c8557","ios":"levelo://app?vid=ef471c70-730d-48db-abc8-82231a4c8557"},"vehicle_type_id":"4","last_reported":1727305716,"current_range_meters":38400,"station_id":"ce4bhnp2rcd13ifvqh0g","pricing_plan_id":"cebpf4jnsgd1na2vs0mg"},{"bike_id":"2bd3d11a-7f53-463a-a618-f5f3e37ad1fd","system_id":"levelo_inurba_marseille","lat":43.30956,"lon":5.39046,"is_reserved":false,"is_disabled":false,"rental_uris":{"android":"levelo://app?vid=2bd3d11a-7f53-463a-a618-f5f3e37ad1fd","ios":"levelo://app?vid=2bd3d11a-7f53-463a-a618-f5f3e37ad1fd"},"vehicle_type_id":"4","last_reported":1727305716,"current_range_meters":32800,"station_id":"ce4bgup2rcd13ifvqco0","pricing_plan_id":"cebpf4jnsgd1na2vs0mg"},{"bike_id":"4b4e58c4-fe08-40f7-98d2-9b02b6da0dcf","system_id":"levelo_inurba_marseille","lat":43.30888,"lon":5.37185,"is_reserved":false,"is_disabled":false,"rental_uris":{"android":"levelo://app?vid=4b4e58c4-fe08-40f7-98d2-9b02b6da0dcf","ios":"levelo://app?vid=4b4e58c4-fe08-40f7-98d2-9b02b6da0dcf"},"vehicle_type_id":"4","last_reported":1727305716,"current_range_meters":36400,"station_id":"ce4bguh2rcd13ifvqckg","pricing_plan_id":"cebpf4jnsgd1na2vs0mg"},{"bike_id":"e9a8dbaf-57f8-49f9-b8b9-f8977d9d8a8f","system_id":"levelo_inurba_marseille","lat":43.32487,"lon":5.36564,"is_reserved":false,"is_disabled":false,"rental_uris":{"android":"levelo://app?vid=e9a8dbaf-57f8-49f9-b8b9-f8977d9d8a8f","ios":"levelo://app?vid=e9a8dbaf-57f8-49f9-b8b9-f8977d9d8a8f"},"vehicle_type_id":"4","last_reported":1727305716,"current_range_meters":11600,"station_id":"ce4bhs12rcd13ifvqhvg","pricing_plan_id":"cebpf4jnsgd1na2vs0mg"},{"bike_id":"7a62c00b-740d-48b8-b6d8-0dd22da065e0","system_id":"levelo_inurba_marseille","lat":43.27919,"lon":5.39581,"is_reserved":false,"is_disabled":false,"rental_uris":{"android":"levelo://app?vid=7a62c00b-740d-48b8-b6d8-0dd22da065e0","ios":"levelo://app?vid=7a62c00b-740d-48b8-b6d8-0dd22da065e0"},"vehicle_type_id":"4","last_reported":1727305716,"current_range_meters":38800,"station_id":"ce4bhf92rcd13ifvqf40","pricing_plan_id":"cebpf4jnsgd1na2vs0mg"},{"bike_id":"d623ab27-b506-4169-838c-f433f5815396","system_id":"levelo_inurba_marseille","lat":43.25865,"lon":5.39892,"is_reserved":false,"is_disabled":false,"rental_uris":{"android":"levelo://app?vid=d623ab27-b506-4169-838c-f433f5815396","ios":"levelo://app?vid=d623ab27-b506-4169-838c-f433f5815396"},"vehicle_type_id":"4","last_reported":1727305716,"current_range_meters":19600,"station_id":"ce4bhl92rcd13ifvqghg","pricing_plan_id":"cebpf4jnsgd1na2vs0mg"},{"bike_id":"a780aadc-9a62-4786-9004-8da841f3c6dd","system_id":"levelo_inurba_marseille","lat":43.25118,"lon":5.40323,"is_reserved":false,"is_disabled":false,"rental_uris":{"android":"levelo://app?vid=a780aadc-9a62-4786-9004-8da841f3c6dd","ios":"levelo://app?vid=a780aadc-9a62-4786-9004-8da841f3c6dd"},"vehicle_type_id":"4","last_reported":1727305716,"current_range_meters":12400,"station_id":"ce4bhlh2rcd13ifvqgig","pricing_plan_id":"cebpf4jnsgd1na2vs0mg"},{"bike_id":"d14d52e5-75cc-4a1f-90ea-cce4ddff11b1","system_id":"levelo_inurba_marseille","lat":43.31186,"lon":5.3871,"is_reserved":false,"is_disabled":false,"rental_uris":{"android":"levelo://app?vid=d14d52e5-75cc-4a1f-90ea-cce4ddff11b1","ios":"levelo://app?vid=d14d52e5-75cc-4a1f-90ea-cce4ddff11b1"},"vehicle_type_id":"4","last_reported":1727305716,"current_range_meters":38800,"station_id":"ce4bgv12rcd13ifvqcp0","pricing_plan_id":"cebpf4jnsgd1na2vs0mg"},{"bike_id":"6c335da8-07df-43e1-a668-04092bf6675e","system_id":"levelo_inurba_marseille","lat":43.29254,"lon":5.40918,"is_reserved":false,"is_disabled":false,"rental_uris":{"android":"levelo://app?vid=6c335da8-07df-43e1-a668-04092bf6675e","ios":"levelo://app?vid=6c335da8-07df-43e1-a668-04092bf6675e"},"vehicle_type_id":"4","last_reported":1727305716,"current_range_meters":24400,"station_id":"ce4bh192rcd13ifvqdc0","pricing_plan_id":"cebpf4jnsgd1na2vs0mg"},{"bike_id":"b10fb30b-3e5a-4b1b-a265-336e3e5742a3","system_id":"levelo_inurba_marseille","lat":43.28103,"lon":5.37844,"is_reserved":false,"is_disabled":false,"rental_uris":{"android":"levelo://app?vid=b10fb30b-3e5a-4b1b-a265-336e3e5742a3","ios":"levelo://app?vid=b10fb30b-3e5a-4b1b-a265-336e3e5742a3"},"vehicle_type_id":"4","last_reported":1727305716,"current_range_meters":31200,"station_id":"ce4bha12rcd13ifvqee0","pricing_plan_id":"cebpf4jnsgd1na2vs0mg"},{"bike_id":"a1e9bad9-395e-4713-bfb8-a7896c4afc46","system_id":"levelo_inurba_marseille","lat":43.30934,"lon":5.40136,"is_reserved":false,"is_disabled":false,"rental_uris":{"android":"levelo://app?vid=a1e9bad9-395e-4713-bfb8-a7896c4afc46","ios":"levelo://app?vid=a1e9bad9-395e-4713-bfb8-a7896c4afc46"},"vehicle_type_id":"4","last_reported":1727305716,"current_range_meters":34800,"station_id":"ce4bgvp2rcd13ifvqct0","pricing_plan_id":"cebpf4jnsgd1na2vs0mg"},{"bike_id":"47ba0401-8be6-4c89-8eef-6bff009d65b5","system_id":"levelo_inurba_marseille","lat":43.3229,"lon":5.3826,"is_reserved":false,"is_disabled":false,"rental_uris":{"android":"levelo://app?vid=47ba0401-8be6-4c89-8eef-6bff009d65b5","ios":"levelo://app?vid=47ba0401-8be6-4c89-8eef-6bff009d65b5"},"vehicle_type_id":"4","last_reported":1727305716,"current_range_meters":14000,"station_id":"ce4bhr12rcd13ifvqhqg","pricing_plan_id":"cebpf4jnsgd1na2vs0mg"},{"bike_id":"6e835b2f-2956-4ae6-af81-2b38c35a3f6d","system_id":"levelo_inurba_marseille","lat":43.29877,"lon":5.3974,"is_reserved":false,"is_disabled":false,"rental_uris":{"android":"levelo://app?vid=6e835b2f-2956-4ae6-af81-2b38c35a3f6d","ios":"levelo://app?vid=6e835b2f-2956-4ae6-af81-2b38c35a3f6d"},"vehicle_type_id":"4","last_reported":1727305716,"current_range_meters":25600,"station_id":"ce4bh0h2rcd13ifvqd50","pricing_plan_id":"cebpf4jnsgd1na2vs0mg"},{"bike_id":"64a56750-bb84-4478-9eb0-b6ec75f8dbb6","system_id":"levelo_inurba_marseille","lat":43.2844,"lon":5.39174,"is_reserved":false,"is_disabled":false,"rental_uris":{"android":"levelo://app?vid=64a56750-bb84-4478-9eb0-b6ec75f8dbb6","ios":"levelo://app?vid=64a56750-bb84-4478-9eb0-b6ec75f8dbb6"},"vehicle_type_id":"4","last_reported":1727305716,"current_range_meters":8400,"station_id":"ce4bhoh2rcd13ifvqh5g","pricing_plan_id":"cebpf4jnsgd1na2vs0mg"},{"bike_id":"0391e3a2-fd40-4d68-a5c4-49e601d853ff","system_id":"levelo_inurba_marseille","lat":43.27913,"lon":5.38011,"is_reserved":false,"is_disabled":false,"rental_uris":{"android":"levelo://app?vid=0391e3a2-fd40-4d68-a5c4-49e601d853ff","ios":"levelo://app?vid=0391e3a2-fd40-4d68-a5c4-49e601d853ff"},"vehicle_type_id":"4","last_reported":1727305716,"current_range_meters":34800,"station_id":"ce4bhf92rcd13ifvqf50","pricing_plan_id":"cebpf4jnsgd1na2vs0mg"},{"bike_id":"39e273a7-c825-4c1c-9322-372fdfceb5a5","system_id":"levelo_inurba_marseille","lat":43.30139,"lon":5.3742,"is_reserved":false,"is_disabled":false,"rental_uris":{"android":"levelo://app?vid=39e273a7-c825-4c1c-9322-372fdfceb5a5","ios":"levelo://app?vid=39e273a7-c825-4c1c-9322-372fdfceb5a5"},"vehicle_type_id":"4","last_reported":1727305716,"current_range_meters":31200,"station_id":"ce4bgs92rcd13ifvqcc0","pricing_plan_id":"cebpf4jnsgd1na2vs0mg"},{"bike_id":"5f6c79fc-4a32-4034-b731-a210b1c8c48d","system_id":"levelo_inurba_marseille","lat":43.30478,"lon":5.3661,"is_reserved":false,"is_disabled":false,"rental_uris":{"android":"levelo://app?vid=5f6c79fc-4a32-4034-b731-a210b1c8c48d","ios":"levelo://app?vid=5f6c79fc-4a32-4034-b731-a210b1c8c48d"},"vehicle_type_id":"4","last_reported":1727305716,"current_range_meters":9600,"station_id":"ce4bgrp2rcd13ifvqc9g","pricing_plan_id":"cebpf4jnsgd1na2vs0mg"},{"bike_id":"f9cb7584-63c2-4fdf-8dc4-cedac79188e6","system_id":"levelo_inurba_marseille","lat":43.29442,"lon":5.39746,"is_reserved":false,"is_disabled":false,"rental_uris":{"android":"levelo://app?vid=f9cb7584-63c2-4fdf-8dc4-cedac79188e6","ios":"levelo://app?vid=f9cb7584-63c2-4fdf-8dc4-cedac79188e6"},"vehicle_type_id":"4","last_reported":1727305716,"current_range_meters":26000,"station_id":"ce4bh3h2rcd13ifvqdo0","pricing_plan_id":"cebpf4jnsgd1na2vs0mg"},{"bike_id":"7db342e0-c2fb-4138-b2b3-fd0ba4ad915b","system_id":"levelo_inurba_marseille","lat":43.28676,"lon":5.38654,"is_reserved":false,"is_disabled":false,"rental_uris":{"android":"levelo://app?vid=7db342e0-c2fb-4138-b2b3-fd0ba4ad915b","ios":"levelo://app?vid=7db342e0-c2fb-4138-b2b3-fd0ba4ad915b"},"vehicle_type_id":"4","last_reported":1727305716,"current_range_meters":38800,"station_id":"ce4bh492rcd13ifvqdug","pricing_plan_id":"cebpf4jnsgd1na2vs0mg"},{"bike_id":"c8cc1637-84af-4fc9-bf2f-00249323d1c2","system_id":"levelo_inurba_marseille","lat":43.29885,"lon":5.39736,"is_reserved":false,"is_disabled":false,"rental_uris":{"android":"levelo://app?vid=c8cc1637-84af-4fc9-bf2f-00249323d1c2","ios":"levelo://app?vid=c8cc1637-84af-4fc9-bf2f-00249323d1c2"},"vehicle_type_id":"4","last_reported":1727305716,"current_range_meters":19200,"station_id":"ce4bh0h2rcd13ifvqd50","pricing_plan_id":"cebpf4jnsgd1na2vs0mg"},{"bike_id":"9e08bfa9-5ef9-4f15-91a9-ca566f5d5e73","system_id":"levelo_inurba_marseille","lat":43.32002,"lon":5.38165,"is_reserved":false,"is_disabled":false,"rental_uris":{"android":"levelo://app?vid=9e08bfa9-5ef9-4f15-91a9-ca566f5d5e73","ios":"levelo://app?vid=9e08bfa9-5ef9-4f15-91a9-ca566f5d5e73"},"vehicle_type_id":"4","last_reported":1727305716,"current_range_meters":24800,"station_id":"ce4bhr12rcd13ifvqhpg","pricing_plan_id":"cebpf4jnsgd1na2vs0mg"},{"bike_id":"c27924ed-3e2d-4a2f-b7eb-9231d7388dc7","system_id":"levelo_inurba_marseille","lat":43.28109,"lon":5.3785,"is_reserved":false,"is_disabled":false,"rental_uris":{"android":"levelo://app?vid=c27924ed-3e2d-4a2f-b7eb-9231d7388dc7","ios":"levelo://app?vid=c27924ed-3e2d-4a2f-b7eb-9231d7388dc7"},"vehicle_type_id":"4","last_reported":1727305716,"current_range_meters":28400,"station_id":"ce4bha12rcd13ifvqee0","pricing_plan_id":"cebpf4jnsgd1na2vs0mg"},{"bike_id":"3dbd4749-a24c-43cd-9def-67297f866862","system_id":"levelo_inurba_marseille","lat":43.32366,"lon":5.38878,"is_reserved":false,"is_disabled":false,"rental_uris":{"android":"levelo://app?vid=3dbd4749-a24c-43cd-9def-67297f866862","ios":"levelo://app?vid=3dbd4749-a24c-43cd-9def-67297f866862"},"vehicle_type_id":"4","last_reported":1727305716,"current_range_meters":12800,"station_id":"ce4bhqp2rcd13ifvqhog","pricing_plan_id":"cebpf4jnsgd1na2vs0mg"},{"bike_id":"18a052cd-2557-4072-ba19-24c6149d8795","system_id":"levelo_inurba_marseille","lat":43.32481,"lon":5.36561,"is_reserved":false,"is_disabled":false,"rental_uris":{"android":"levelo://app?vid=18a052cd-2557-4072-ba19-24c6149d8795","ios":"levelo://app?vid=18a052cd-2557-4072-ba19-24c6149d8795"},"vehicle_type_id":"4","last_reported":1727305716,"current_range_meters":39200,"station_id":"ce4bhs12rcd13ifvqhvg","pricing_plan_id":"cebpf4jnsgd1na2vs0mg"},{"bike_id":"db85b503-e3f8-43d8-b4d0-f8b5cb935663","system_id":"levelo_inurba_marseille","lat":43.28616,"lon":5.35107,"is_reserved":false,"is_disabled":false,"rental_uris":{"android":"levelo://app?vid=db85b503-e3f8-43d8-b4d0-f8b5cb935663","ios":"levelo://app?vid=db85b503-e3f8-43d8-b4d0-f8b5cb935663"},"vehicle_type_id":"4","last_reported":1727305716,"current_range_meters":32000,"station_id":"ce4bhch2rcd13ifvqeug","pricing_plan_id":"cebpf4jnsgd1na2vs0mg"},{"bike_id":"b89f3c75-62ef-439a-891a-3e5717a4b61a","system_id":"levelo_inurba_marseille","lat":43.27932,"lon":5.37949,"is_reserved":false,"is_disabled":false,"rental_uris":{"android":"levelo://app?vid=b89f3c75-62ef-439a-891a-3e5717a4b61a","ios":"levelo://app?vid=b89f3c75-62ef-439a-891a-3e5717a4b61a"},"vehicle_type_id":"4","last_reported":1727305716,"current_range_meters":25600,"station_id":"","pricing_plan_id":"cebpf4jnsgd1na2vs0mg"},{"bike_id":"7823eef2-38a6-4e33-823d-6328e877baad","system_id":"levelo_inurba_marseille","lat":43.30326,"lon":5.40439,"is_reserved":false,"is_disabled":false,"rental_uris":{"android":"levelo://app?vid=7823eef2-38a6-4e33-823d-6328e877baad","ios":"levelo://app?vid=7823eef2-38a6-4e33-823d-6328e877baad"},"vehicle_type_id":"4","last_reported":1727305716,"current_range_meters":8400,"station_id":"ce4bh012rcd13ifvqd10","pricing_plan_id":"cebpf4jnsgd1na2vs0mg"},{"bike_id":"e298d003-1456-4a5e-823d-55caf6e3f2a5","system_id":"levelo_inurba_marseille","lat":43.28671,"lon":5.36344,"is_reserved":false,"is_disabled":false,"rental_uris":{"android":"levelo://app?vid=e298d003-1456-4a5e-823d-55caf6e3f2a5","ios":"levelo://app?vid=e298d003-1456-4a5e-823d-55caf6e3f2a5"},"vehicle_type_id":"4","last_reported":1727305716,"current_range_meters":39200,"station_id":"ce4bhah2rcd13ifvqej0","pricing_plan_id":"cebpf4jnsgd1na2vs0mg"},{"bike_id":"fff44a24-b261-4a8e-9444-b74b51b1896f","system_id":"levelo_inurba_marseille","lat":43.3089,"lon":5.37187,"is_reserved":false,"is_disabled":false,"rental_uris":{"android":"levelo://app?vid=fff44a24-b261-4a8e-9444-b74b51b1896f","ios":"levelo://app?vid=fff44a24-b261-4a8e-9444-b74b51b1896f"},"vehicle_type_id":"4","last_reported":1727305716,"current_range_meters":38000,"station_id":"ce4bguh2rcd13ifvqckg","pricing_plan_id":"cebpf4jnsgd1na2vs0mg"},{"bike_id":"35d3fc74-fe6d-4fdc-9fc2-d877ab207e83","system_id":"levelo_inurba_marseille","lat":43.31077,"lon":5.38352,"is_reserved":false,"is_disabled":false,"rental_uris":{"android":"levelo://app?vid=35d3fc74-fe6d-4fdc-9fc2-d877ab207e83","ios":"levelo://app?vid=35d3fc74-fe6d-4fdc-9fc2-d877ab207e83"},"vehicle_type_id":"4","last_reported":1727305716,"current_range_meters":22400,"station_id":"ce4bgv92rcd13ifvqcr0","pricing_plan_id":"cebpf4jnsgd1na2vs0mg"},{"bike_id":"984e4b2b-e7cd-48d1-8ec5-21a3e1c8f7a5","system_id":"levelo_inurba_marseille","lat":43.2846,"lon":5.35898,"is_reserved":false,"is_disabled":false,"rental_uris":{"android":"levelo://app?vid=984e4b2b-e7cd-48d1-8ec5-21a3e1c8f7a5","ios":"levelo://app?vid=984e4b2b-e7cd-48d1-8ec5-21a3e1c8f7a5"},"vehicle_type_id":"4","last_reported":1727305716,"current_range_meters":36400,"station_id":"ce4bhah2rcd13ifvqei0","pricing_plan_id":"cebpf4jnsgd1na2vs0mg"},{"bike_id":"e7538fd8-10d9-40e4-aff9-8eb2f36b73c6","system_id":"levelo_inurba_marseille","lat":43.32487,"lon":5.3656,"is_reserved":false,"is_disabled":false,"rental_uris":{"android":"levelo://app?vid=e7538fd8-10d9-40e4-aff9-8eb2f36b73c6","ios":"levelo://app?vid=e7538fd8-10d9-40e4-aff9-8eb2f36b73c6"},"vehicle_type_id":"4","last_reported":1727305716,"current_range_meters":30800,"station_id":"ce4bhs12rcd13ifvqhvg","pricing_plan_id":"cebpf4jnsgd1na2vs0mg"},{"bike_id":"73fc106b-60d8-4a00-b094-2b20e47def43","system_id":"levelo_inurba_marseille","lat":43.31078,"lon":5.3836,"is_reserved":false,"is_disabled":false,"rental_uris":{"android":"levelo://app?vid=73fc106b-60d8-4a00-b094-2b20e47def43","ios":"levelo://app?vid=73fc106b-60d8-4a00-b094-2b20e47def43"},"vehicle_type_id":"4","last_reported":1727305716,"current_range_meters":32800,"station_id":"ce4bgv92rcd13ifvqcr0","pricing_plan_id":"cebpf4jnsgd1na2vs0mg"},{"bike_id":"ff2f4b55-b80f-45bb-8f2a-174dcea7dc1d","system_id":"levelo_inurba_marseille","lat":43.23963,"lon":5.36624,"is_reserved":false,"is_disabled":false,"rental_uris":{"android":"levelo://app?vid=ff2f4b55-b80f-45bb-8f2a-174dcea7dc1d","ios":"levelo://app?vid=ff2f4b55-b80f-45bb-8f2a-174dcea7dc1d"},"vehicle_type_id":"4","last_reported":1727305716,"current_range_meters":38800,"station_id":"ce4bhi12rcd13ifvqfp0","pricing_plan_id":"cebpf4jnsgd1na2vs0mg"},{"bike_id":"57970dc6-2fc2-4a4a-ad6f-bca0af7bf8ec","system_id":"levelo_inurba_marseille","lat":43.24675,"lon":5.38166,"is_reserved":false,"is_disabled":false,"rental_uris":{"android":"levelo://app?vid=57970dc6-2fc2-4a4a-ad6f-bca0af7bf8ec","ios":"levelo://app?vid=57970dc6-2fc2-4a4a-ad6f-bca0af7bf8ec"},"vehicle_type_id":"4","last_reported":1727305716,"current_range_meters":9200,"station_id":"ce4bhih2rcd13ifvqfr0","pricing_plan_id":"cebpf4jnsgd1na2vs0mg"},{"bike_id":"e9ed528a-2936-4cbb-94e8-2da8a57f982d","system_id":"levelo_inurba_marseille","lat":43.26935,"lon":5.38922,"is_reserved":false,"is_disabled":false,"rental_uris":{"android":"levelo://app?vid=e9ed528a-2936-4cbb-94e8-2da8a57f982d","ios":"levelo://app?vid=e9ed528a-2936-4cbb-94e8-2da8a57f982d"},"vehicle_type_id":"4","last_reported":1727305716,"current_range_meters":38800,"station_id":"ce4bhhh2rcd13ifvqfl0","pricing_plan_id":"cebpf4jnsgd1na2vs0mg"},{"bike_id":"6dd7a628-1809-4a0a-8970-b097202fbafd","system_id":"levelo_inurba_marseille","lat":43.30637,"lon":5.40081,"is_reserved":false,"is_disabled":false,"rental_uris":{"android":"levelo://app?vid=6dd7a628-1809-4a0a-8970-b097202fbafd","ios":"levelo://app?vid=6dd7a628-1809-4a0a-8970-b097202fbafd"},"vehicle_type_id":"4","last_reported":1727305716,"current_range_meters":28400,"station_id":"ce4bh112rcd13ifvqda0","pricing_plan_id":"cebpf4jnsgd1na2vs0mg"},{"bike_id":"82c9f397-8288-4fd7-a789-4c8e7876e073","system_id":"levelo_inurba_marseille","lat":43.29271,"lon":5.36849,"is_reserved":false,"is_disabled":false,"rental_uris":{"android":"levelo://app?vid=82c9f397-8288-4fd7-a789-4c8e7876e073","ios":"levelo://app?vid=82c9f397-8288-4fd7-a789-4c8e7876e073"},"vehicle_type_id":"4","last_reported":1727305716,"current_range_meters":28400,"station_id":"ce4bhbp2rcd13ifvqesg","pricing_plan_id":"cebpf4jnsgd1na2vs0mg"},{"bike_id":"88a5c6eb-3c78-499b-b132-594fb6a10d64","system_id":"levelo_inurba_marseille","lat":43.24388,"lon":5.37056,"is_reserved":false,"is_disabled":false,"rental_uris":{"android":"levelo://app?vid=88a5c6eb-3c78-499b-b132-594fb6a10d64","ios":"levelo://app?vid=88a5c6eb-3c78-499b-b132-594fb6a10d64"},"vehicle_type_id":"4","last_reported":1727305716,"current_range_meters":38800,"station_id":"ce4bhhh2rcd13ifvqfk0","pricing_plan_id":"cebpf4jnsgd1na2vs0mg"},{"bike_id":"8f7337c9-a5b8-40bb-bd09-46f955380f7f","system_id":"levelo_inurba_marseille","lat":43.30799,"lon":5.43525,"is_reserved":false,"is_disabled":false,"rental_uris":{"android":"levelo://app?vid=8f7337c9-a5b8-40bb-bd09-46f955380f7f","ios":"levelo://app?vid=8f7337c9-a5b8-40bb-bd09-46f955380f7f"},"vehicle_type_id":"4","last_reported":1727305716,"current_range_meters":38800,"station_id":"ce4bhph2rcd13ifvqheg","pricing_plan_id":"cebpf4jnsgd1na2vs0mg"},{"bike_id":"c3be56fd-94af-4761-9c42-4ce060421866","system_id":"levelo_inurba_marseille","lat":43.27834,"lon":5.39205,"is_reserved":false,"is_disabled":false,"rental_uris":{"android":"levelo://app?vid=c3be56fd-94af-4761-9c42-4ce060421866","ios":"levelo://app?vid=c3be56fd-94af-4761-9c42-4ce060421866"},"vehicle_type_id":"4","last_reported":1727305716,"current_range_meters":11600,"station_id":"ce4bhjp2rcd13ifvqga0","pricing_plan_id":"cebpf4jnsgd1na2vs0mg"},{"bike_id":"d104426f-46ae-4ff3-9c6e-bf00c4b91e70","system_id":"levelo_inurba_marseille","lat":43.28723,"lon":5.37928,"is_reserved":false,"is_disabled":false,"rental_uris":{"android":"levelo://app?vid=d104426f-46ae-4ff3-9c6e-bf00c4b91e70","ios":"levelo://app?vid=d104426f-46ae-4ff3-9c6e-bf00c4b91e70"},"vehicle_type_id":"4","last_reported":1727305716,"current_range_meters":31200,"station_id":"ce4bh9p2rcd13ifvqec0","pricing_plan_id":"cebpf4jnsgd1na2vs0mg"},{"bike_id":"771e08c6-53df-4f67-a3fc-0d782bb85315","system_id":"levelo_inurba_marseille","lat":43.23961,"lon":5.36632,"is_reserved":false,"is_disabled":false,"rental_uris":{"android":"levelo://app?vid=771e08c6-53df-4f67-a3fc-0d782bb85315","ios":"levelo://app?vid=771e08c6-53df-4f67-a3fc-0d782bb85315"},"vehicle_type_id":"4","last_reported":1727305716,"current_range_meters":11200,"station_id":"ce4bhi12rcd13ifvqfp0","pricing_plan_id":"cebpf4jnsgd1na2vs0mg"},{"bike_id":"f56e08ee-227a-4481-84ce-6f391e127161","system_id":"levelo_inurba_marseille","lat":43.2828,"lon":5.35068,"is_reserved":false,"is_disabled":false,"rental_uris":{"android":"levelo://app?vid=f56e08ee-227a-4481-84ce-6f391e127161","ios":"levelo://app?vid=f56e08ee-227a-4481-84ce-6f391e127161"},"vehicle_type_id":"4","last_reported":1727305716,"current_range_meters":32000,"station_id":"ce4bhbp2rcd13ifvqerg","pricing_plan_id":"cebpf4jnsgd1na2vs0mg"},{"bike_id":"164c5150-fd82-49d7-aff9-b769aa561f0f","system_id":"levelo_inurba_marseille","lat":43.31993,"lon":5.3815,"is_reserved":false,"is_disabled":false,"rental_uris":{"android":"levelo://app?vid=164c5150-fd82-49d7-aff9-b769aa561f0f","ios":"levelo://app?vid=164c5150-fd82-49d7-aff9-b769aa561f0f"},"vehicle_type_id":"4","last_reported":1727305716,"current_range_meters":28400,"station_id":"ce4bhr12rcd13ifvqhpg","pricing_plan_id":"cebpf4jnsgd1na2vs0mg"},{"bike_id":"666cfbb3-1b46-4df5-a347-94d4c62ca70f","system_id":"levelo_inurba_marseille","lat":43.24077,"lon":5.37759,"is_reserved":false,"is_disabled":false,"rental_uris":{"android":"levelo://app?vid=666cfbb3-1b46-4df5-a347-94d4c62ca70f","ios":"levelo://app?vid=666cfbb3-1b46-4df5-a347-94d4c62ca70f"},"vehicle_type_id":"4","last_reported":1727305716,"current_range_meters":8800,"station_id":"ce4bhnp2rcd13ifvqgvg","pricing_plan_id":"cebpf4jnsgd1na2vs0mg"},{"bike_id":"8598cbda-f90e-419c-a57d-7d4830f335c4","system_id":"levelo_inurba_marseille","lat":43.31082,"lon":5.4243,"is_reserved":false,"is_disabled":false,"rental_uris":{"android":"levelo://app?vid=8598cbda-f90e-419c-a57d-7d4830f335c4","ios":"levelo://app?vid=8598cbda-f90e-419c-a57d-7d4830f335c4"},"vehicle_type_id":"4","last_reported":1727305716,"current_range_meters":32800,"station_id":"ce4bhp92rcd13ifvqhag","pricing_plan_id":"cebpf4jnsgd1na2vs0mg"},{"bike_id":"5ece6534-697d-4101-8fbb-94c5df553a2d","system_id":"levelo_inurba_marseille","lat":43.24079,"lon":5.37758,"is_reserved":false,"is_disabled":false,"rental_uris":{"android":"levelo://app?vid=5ece6534-697d-4101-8fbb-94c5df553a2d","ios":"levelo://app?vid=5ece6534-697d-4101-8fbb-94c5df553a2d"},"vehicle_type_id":"4","last_reported":1727305716,"current_range_meters":36400,"station_id":"ce4bhnp2rcd13ifvqgvg","pricing_plan_id":"cebpf4jnsgd1na2vs0mg"},{"bike_id":"108bc23d-93d9-41e3-bcd7-38d82e354b14","system_id":"levelo_inurba_marseille","lat":43.28457,"lon":5.359,"is_reserved":false,"is_disabled":false,"rental_uris":{"android":"levelo://app?vid=108bc23d-93d9-41e3-bcd7-38d82e354b14","ios":"levelo://app?vid=108bc23d-93d9-41e3-bcd7-38d82e354b14"},"vehicle_type_id":"4","last_reported":1727305716,"current_range_meters":32400,"station_id":"ce4bhah2rcd13ifvqei0","pricing_plan_id":"cebpf4jnsgd1na2vs0mg"},{"bike_id":"a7bca3df-0344-4204-86d7-b742d4769839","system_id":"levelo_inurba_marseille","lat":43.30863,"lon":5.3685,"is_reserved":false,"is_disabled":false,"rental_uris":{"android":"levelo://app?vid=a7bca3df-0344-4204-86d7-b742d4769839","ios":"levelo://app?vid=a7bca3df-0344-4204-86d7-b742d4769839"},"vehicle_type_id":"4","last_reported":1727305716,"current_range_meters":25600,"station_id":"ce4bgn92rcd13ifvqbvg","pricing_plan_id":"cebpf4jnsgd1na2vs0mg"},{"bike_id":"95ac2f31-14c0-4d4a-9ad7-33c2aa1a759f","system_id":"levelo_inurba_marseille","lat":43.31169,"lon":5.38711,"is_reserved":false,"is_disabled":false,"rental_uris":{"android":"levelo://app?vid=95ac2f31-14c0-4d4a-9ad7-33c2aa1a759f","ios":"levelo://app?vid=95ac2f31-14c0-4d4a-9ad7-33c2aa1a759f"},"vehicle_type_id":"4","last_reported":1727305716,"current_range_meters":39200,"station_id":"ce4bgv12rcd13ifvqcp0","pricing_plan_id":"cebpf4jnsgd1na2vs0mg"},{"bike_id":"ef81d436-ef9d-42e5-aec9-3f8928e1037d","system_id":"levelo_inurba_marseille","lat":43.30194,"lon":5.3662,"is_reserved":false,"is_disabled":false,"rental_uris":{"android":"levelo://app?vid=ef81d436-ef9d-42e5-aec9-3f8928e1037d","ios":"levelo://app?vid=ef81d436-ef9d-42e5-aec9-3f8928e1037d"},"vehicle_type_id":"4","last_reported":1727305716,"current_range_meters":33600,"station_id":"ce4bgrh2rcd13ifvqc8g","pricing_plan_id":"cebpf4jnsgd1na2vs0mg"},{"bike_id":"3b95d26e-f06e-49bf-b839-e0adcd439c46","system_id":"levelo_inurba_marseille","lat":43.23188,"lon":5.39987,"is_reserved":false,"is_disabled":false,"rental_uris":{"android":"levelo://app?vid=3b95d26e-f06e-49bf-b839-e0adcd439c46","ios":"levelo://app?vid=3b95d26e-f06e-49bf-b839-e0adcd439c46"},"vehicle_type_id":"4","last_reported":1727305716,"current_range_meters":38800,"station_id":"ce4bhn12rcd13ifvqgqg","pricing_plan_id":"cebpf4jnsgd1na2vs0mg"},{"bike_id":"6b02a430-6999-45f5-bfbd-e6b5dff29730","system_id":"levelo_inurba_marseille","lat":43.28268,"lon":5.35055,"is_reserved":false,"is_disabled":false,"rental_uris":{"android":"levelo://app?vid=6b02a430-6999-45f5-bfbd-e6b5dff29730","ios":"levelo://app?vid=6b02a430-6999-45f5-bfbd-e6b5dff29730"},"vehicle_type_id":"4","last_reported":1727305716,"current_range_meters":24400,"station_id":"ce4bhbp2rcd13ifvqerg","pricing_plan_id":"cebpf4jnsgd1na2vs0mg"},{"bike_id":"7827170f-fe53-4f76-acc5-1f9d10e67145","system_id":"levelo_inurba_marseille","lat":43.2293,"lon":5.35375,"is_reserved":false,"is_disabled":false,"rental_uris":{"android":"levelo://app?vid=7827170f-fe53-4f76-acc5-1f9d10e67145","ios":"levelo://app?vid=7827170f-fe53-4f76-acc5-1f9d10e67145"},"vehicle_type_id":"4","last_reported":1727305716,"current_range_meters":36400,"station_id":"cpo3532slgdg3j2ikp40","pricing_plan_id":"cebpf4jnsgd1na2vs0mg"},{"bike_id":"32f060ea-ac4a-47fc-88f2-d291836ee092","system_id":"levelo_inurba_marseille","lat":43.30592,"lon":5.39361,"is_reserved":false,"is_disabled":false,"rental_uris":{"android":"levelo://app?vid=32f060ea-ac4a-47fc-88f2-d291836ee092","ios":"levelo://app?vid=32f060ea-ac4a-47fc-88f2-d291836ee092"},"vehicle_type_id":"4","last_reported":1727305716,"current_range_meters":25600,"station_id":"ce4bh0p2rcd13ifvqd80","pricing_plan_id":"cebpf4jnsgd1na2vs0mg"},{"bike_id":"ed5f0f27-c5ae-4b32-b269-acbb0091e787","system_id":"levelo_inurba_marseille","lat":43.295685,"lon":5.399676,"is_reserved":false,"is_disabled":false,"rental_uris":{"android":"levelo://app?vid=ed5f0f27-c5ae-4b32-b269-acbb0091e787","ios":"levelo://app?vid=ed5f0f27-c5ae-4b32-b269-acbb0091e787"},"vehicle_type_id":"4","last_reported":1727305716,"current_range_meters":14800,"station_id":"ce4bh0p2rcd13ifvqd80","pricing_plan_id":"cebpf4jnsgd1na2vs0mg"},{"bike_id":"5a0944d4-9480-47d6-abf9-8fe9928b3c09","system_id":"levelo_inurba_marseille","lat":43.29631,"lon":5.40601,"is_reserved":false,"is_disabled":false,"rental_uris":{"android":"levelo://app?vid=5a0944d4-9480-47d6-abf9-8fe9928b3c09","ios":"levelo://app?vid=5a0944d4-9480-47d6-abf9-8fe9928b3c09"},"vehicle_type_id":"4","last_reported":1727305716,"current_range_meters":22000,"station_id":"ce4bh0h2rcd13ifvqd60","pricing_plan_id":"cebpf4jnsgd1na2vs0mg"},{"bike_id":"640de8e7-1178-4ffc-9101-e11ee4831e54","system_id":"levelo_inurba_marseille","lat":43.29577,"lon":5.39972,"is_reserved":false,"is_disabled":false,"rental_uris":{"android":"levelo://app?vid=640de8e7-1178-4ffc-9101-e11ee4831e54","ios":"levelo://app?vid=640de8e7-1178-4ffc-9101-e11ee4831e54"},"vehicle_type_id":"4","last_reported":1727305716,"current_range_meters":12400,"station_id":"ce4bh312rcd13ifvqdj0","pricing_plan_id":"cebpf4jnsgd1na2vs0mg"},{"bike_id":"efe72307-1c49-4f78-9657-cef15519b507","system_id":"levelo_inurba_marseille","lat":43.30143,"lon":5.39875,"is_reserved":false,"is_disabled":false,"rental_uris":{"android":"levelo://app?vid=efe72307-1c49-4f78-9657-cef15519b507","ios":"levelo://app?vid=efe72307-1c49-4f78-9657-cef15519b507"},"vehicle_type_id":"4","last_reported":1727305716,"current_range_meters":40000,"station_id":"ce4bh0h2rcd13ifvqd40","pricing_plan_id":"cebpf4jnsgd1na2vs0mg"},{"bike_id":"0f56a0f8-2995-448e-a3f5-4953d2415d16","system_id":"levelo_inurba_marseille","lat":43.24543,"lon":5.39523,"is_reserved":false,"is_disabled":false,"rental_uris":{"android":"levelo://app?vid=0f56a0f8-2995-448e-a3f5-4953d2415d16","ios":"levelo://app?vid=0f56a0f8-2995-448e-a3f5-4953d2415d16"},"vehicle_type_id":"4","last_reported":1727305716,"current_range_meters":38800,"station_id":"ce4bhlp2rcd13ifvqgjg","pricing_plan_id":"cebpf4jnsgd1na2vs0mg"},{"bike_id":"4a4bfd88-bdfc-4802-b3a8-e798e4274727","system_id":"levelo_inurba_marseille","lat":43.3229,"lon":5.3826,"is_reserved":false,"is_disabled":false,"rental_uris":{"android":"levelo://app?vid=4a4bfd88-bdfc-4802-b3a8-e798e4274727","ios":"levelo://app?vid=4a4bfd88-bdfc-4802-b3a8-e798e4274727"},"vehicle_type_id":"4","last_reported":1727305716,"current_range_meters":26800,"station_id":"ce4bhr12rcd13ifvqhqg","pricing_plan_id":"cebpf4jnsgd1na2vs0mg"},{"bike_id":"96122eda-4029-4501-9a80-f246f05e0b29","system_id":"levelo_inurba_marseille","lat":43.26943,"lon":5.40249,"is_reserved":false,"is_disabled":false,"rental_uris":{"android":"levelo://app?vid=96122eda-4029-4501-9a80-f246f05e0b29","ios":"levelo://app?vid=96122eda-4029-4501-9a80-f246f05e0b29"},"vehicle_type_id":"4","last_reported":1727305716,"current_range_meters":34800,"station_id":"cjm6bp8fraef2m0cb0m0","pricing_plan_id":"cebpf4jnsgd1na2vs0mg"},{"bike_id":"e586da73-8ab1-4b03-9430-20b6d808e3a0","system_id":"levelo_inurba_marseille","lat":43.287058,"lon":5.373855,"is_reserved":false,"is_disabled":false,"rental_uris":{"android":"levelo://app?vid=e586da73-8ab1-4b03-9430-20b6d808e3a0","ios":"levelo://app?vid=e586da73-8ab1-4b03-9430-20b6d808e3a0"},"vehicle_type_id":"4","last_reported":1727305716,"current_range_meters":27600,"station_id":"ce4bh3p2rcd13ifvqdq0","pricing_plan_id":"cebpf4jnsgd1na2vs0mg"},{"bike_id":"e249731e-3c4f-448d-b21b-59d083732596","system_id":"levelo_inurba_marseille","lat":43.29873,"lon":5.39727,"is_reserved":false,"is_disabled":false,"rental_uris":{"android":"levelo://app?vid=e249731e-3c4f-448d-b21b-59d083732596","ios":"levelo://app?vid=e249731e-3c4f-448d-b21b-59d083732596"},"vehicle_type_id":"4","last_reported":1727305716,"current_range_meters":22800,"station_id":"ce4bh0h2rcd13ifvqd50","pricing_plan_id":"cebpf4jnsgd1na2vs0mg"},{"bike_id":"de8ff9a9-709a-4424-83ed-039925aabde2","system_id":"levelo_inurba_marseille","lat":43.24071,"lon":5.37763,"is_reserved":false,"is_disabled":false,"rental_uris":{"android":"levelo://app?vid=de8ff9a9-709a-4424-83ed-039925aabde2","ios":"levelo://app?vid=de8ff9a9-709a-4424-83ed-039925aabde2"},"vehicle_type_id":"4","last_reported":1727305716,"current_range_meters":16800,"station_id":"ce4bhnp2rcd13ifvqgvg","pricing_plan_id":"cebpf4jnsgd1na2vs0mg"},{"bike_id":"4660de8f-6b1d-4ec7-86e9-b37d4a58ce76","system_id":"levelo_inurba_marseille","lat":43.32291,"lon":5.38263,"is_reserved":false,"is_disabled":false,"rental_uris":{"android":"levelo://app?vid=4660de8f-6b1d-4ec7-86e9-b37d4a58ce76","ios":"levelo://app?vid=4660de8f-6b1d-4ec7-86e9-b37d4a58ce76"},"vehicle_type_id":"4","last_reported":1727305716,"current_range_meters":36400,"station_id":"ce4bhr12rcd13ifvqhqg","pricing_plan_id":"cebpf4jnsgd1na2vs0mg"},{"bike_id":"883c07b5-0a75-489d-906d-16f5b0d514a5","system_id":"levelo_inurba_marseille","lat":43.28072,"lon":5.39653,"is_reserved":false,"is_disabled":false,"rental_uris":{"android":"levelo://app?vid=883c07b5-0a75-489d-906d-16f5b0d514a5","ios":"levelo://app?vid=883c07b5-0a75-489d-906d-16f5b0d514a5"},"vehicle_type_id":"4","last_reported":1727305716,"current_range_meters":37600,"station_id":"ce4bho12rcd13ifvqh2g","pricing_plan_id":"cebpf4jnsgd1na2vs0mg"},{"bike_id":"a06b3623-fd85-4b01-9ede-d409216e8dd9","system_id":"levelo_inurba_marseille","lat":43.30125,"lon":5.3986,"is_reserved":false,"is_disabled":false,"rental_uris":{"android":"levelo://app?vid=a06b3623-fd85-4b01-9ede-d409216e8dd9","ios":"levelo://app?vid=a06b3623-fd85-4b01-9ede-d409216e8dd9"},"vehicle_type_id":"4","last_reported":1727305716,"current_range_meters":39200,"station_id":"ce4bh0h2rcd13ifvqd40","pricing_plan_id":"cebpf4jnsgd1na2vs0mg"},{"bike_id":"40a97e65-49eb-4992-91e1-1b5670e657d7","system_id":"levelo_inurba_marseille","lat":43.30138,"lon":5.39883,"is_reserved":false,"is_disabled":false,"rental_uris":{"android":"levelo://app?vid=40a97e65-49eb-4992-91e1-1b5670e657d7","ios":"levelo://app?vid=40a97e65-49eb-4992-91e1-1b5670e657d7"},"vehicle_type_id":"4","last_reported":1727305716,"current_range_meters":28000,"station_id":"ce4bh0h2rcd13ifvqd40","pricing_plan_id":"cebpf4jnsgd1na2vs0mg"},{"bike_id":"4fc0ef81-a692-4f7c-9d38-77b16cc04b2c","system_id":"levelo_inurba_marseille","lat":43.31755,"lon":5.39021,"is_reserved":false,"is_disabled":false,"rental_uris":{"android":"levelo://app?vid=4fc0ef81-a692-4f7c-9d38-77b16cc04b2c","ios":"levelo://app?vid=4fc0ef81-a692-4f7c-9d38-77b16cc04b2c"},"vehicle_type_id":"4","last_reported":1727305716,"current_range_meters":35200,"station_id":"ce4bhqp2rcd13ifvqhng","pricing_plan_id":"cebpf4jnsgd1na2vs0mg"},{"bike_id":"6d32ef58-74d1-400f-80b3-2e537483836d","system_id":"levelo_inurba_marseille","lat":43.29571,"lon":5.39964,"is_reserved":false,"is_disabled":false,"rental_uris":{"android":"levelo://app?vid=6d32ef58-74d1-400f-80b3-2e537483836d","ios":"levelo://app?vid=6d32ef58-74d1-400f-80b3-2e537483836d"},"vehicle_type_id":"4","last_reported":1727305716,"current_range_meters":38000,"station_id":"ce4bh312rcd13ifvqdj0","pricing_plan_id":"cebpf4jnsgd1na2vs0mg"},{"bike_id":"98e022d5-04ba-4478-afd9-31e626239962","system_id":"levelo_inurba_marseille","lat":43.3112,"lon":5.37765,"is_reserved":false,"is_disabled":false,"rental_uris":{"android":"levelo://app?vid=98e022d5-04ba-4478-afd9-31e626239962","ios":"levelo://app?vid=98e022d5-04ba-4478-afd9-31e626239962"},"vehicle_type_id":"4","last_reported":1727305716,"current_range_meters":17200,"station_id":"ce4bgt92rcd13ifvqcg0","pricing_plan_id":"cebpf4jnsgd1na2vs0mg"},{"bike_id":"eda8bcde-5e1d-4538-802b-7a2e14d9f52d","system_id":"levelo_inurba_marseille","lat":43.22928,"lon":5.35374,"is_reserved":false,"is_disabled":false,"rental_uris":{"android":"levelo://app?vid=eda8bcde-5e1d-4538-802b-7a2e14d9f52d","ios":"levelo://app?vid=eda8bcde-5e1d-4538-802b-7a2e14d9f52d"},"vehicle_type_id":"4","last_reported":1727305716,"current_range_meters":24800,"station_id":"cpo3532slgdg3j2ikp40","pricing_plan_id":"cebpf4jnsgd1na2vs0mg"},{"bike_id":"51f4d75c-79c5-47e9-8fcd-05825786ca23","system_id":"levelo_inurba_marseille","lat":43.23182,"lon":5.39985,"is_reserved":false,"is_disabled":false,"rental_uris":{"android":"levelo://app?vid=51f4d75c-79c5-47e9-8fcd-05825786ca23","ios":"levelo://app?vid=51f4d75c-79c5-47e9-8fcd-05825786ca23"},"vehicle_type_id":"4","last_reported":1727305716,"current_range_meters":39200,"station_id":"ce4bhn12rcd13ifvqgqg","pricing_plan_id":"cebpf4jnsgd1na2vs0mg"},{"bike_id":"0ad919ab-1322-4d0f-881a-adecb6f07a4f","system_id":"levelo_inurba_marseille","lat":43.29447,"lon":5.39751,"is_reserved":false,"is_disabled":false,"rental_uris":{"android":"levelo://app?vid=0ad919ab-1322-4d0f-881a-adecb6f07a4f","ios":"levelo://app?vid=0ad919ab-1322-4d0f-881a-adecb6f07a4f"},"vehicle_type_id":"4","last_reported":1727305716,"current_range_meters":24800,"station_id":"ce4bh3h2rcd13ifvqdo0","pricing_plan_id":"cebpf4jnsgd1na2vs0mg"},{"bike_id":"f9e61f83-3225-4ed4-8b82-b6c21c2d2e4a","system_id":"levelo_inurba_marseille","lat":43.26062,"lon":5.37508,"is_reserved":false,"is_disabled":false,"rental_uris":{"android":"levelo://app?vid=f9e61f83-3225-4ed4-8b82-b6c21c2d2e4a","ios":"levelo://app?vid=f9e61f83-3225-4ed4-8b82-b6c21c2d2e4a"},"vehicle_type_id":"4","last_reported":1727305716,"current_range_meters":36000,"station_id":"ce4bhgh2rcd13ifvqfa0","pricing_plan_id":"cebpf4jnsgd1na2vs0mg"},