{"last_updated":1684181210,"ttl":30,"version":"2.2","data":{"bikes":[{"bike_id":"8843cd7e-04e3-45a1-b5d4-f9eae2dd4414","system_id":"levelo_inurba_marseille","lat":43.314811,"lon":5.373103,"is_reserved":false,"is_disabled":false,"rental_uris":{"android":"levelo://app?vid=8843cd7e-04e3-45a1-b5d4-f9eae2dd4414","ios":"levelo://app?vid=8843cd7e-04e3-45a1-b5d4-f9eae2dd4414"},"vehicle_type_id":"4","last_reported":1684181210,"current_range_meters":9200,"station_id":"ce4bgt12rcd13ifvqcd0","pricing_plan_id":"free"},{"bike_id":"50db875c-c5f2-4da6-9c6f-3dc23cd60008","system_id":"levelo_inurba_marseille","lat":43.314811,"lon":5.373104,"is_reserved":false,"is_disabled":false,"rental_uris":{"android":"levelo://app?vid=50db875c-c5f2-4da6-9c6f-3dc23cd60008","ios":"levelo://app?vid=50db875c-c5f2-4da6-9c6f-3dc23cd60008"},"vehicle_type_id":"4","last_reported":1684181210,"current_range_meters":0,"station_id":"ce4bgt12rcd13ifvqcd0","pricing_plan_id":"free"},{"bike_id":"2b305f79-2771-4503-886a-4c5d0f21ab0e","system_id":"levelo_inurba_marseille","lat":43.314811,"lon":5.373104,"is_reserved":false,"is_disabled":false,"rental_uris":{"android":"levelo://app?vid=2b305f79-2771-4503-886a-4c5d0f21ab0e","ios":"levelo://app?vid=2b305f79-2771-4503-886a-4c5d0f21ab0e"},"vehicle_type_id":"4","last_reported":1684181210,"current_range_meters":8000,"station_id":"ce4bgt12rcd13ifvqcd0","pricing_plan_id":"free"},{"bike_id":"7cafc855-f1e7-4113-b7ed-233c883611d4","system_id":"levelo_inurba_marseille","lat":43.314811,"lon":5.373103,"is_reserved":false,"is_disabled":false,"rental_uris":{"android":"levelo://app?vid=7cafc855-f1e7-4113-b7ed-233c883611d4","ios":"levelo://app?vid=7cafc855-f1e7-4113-b7ed-233c883611d4"},"vehicle_type_id":"4","last_reported":1684181210,"current_range_meters":26000,"station_id":"ce4bgt12rcd13ifvqcd0","pricing_plan_id":"free"},{"bike_id":"ef751f89-9ffb-462e-b79d-0dd2fbbe0a27","system_id":"levelo_inurba_marseille","lat":43.314811,"lon":5.373104,"is_reserved":false,"is_disabled":false,"rental_uris":{"android":"levelo://app?vid=ef751f89-9ffb-462e-b79d-0dd2fbbe0a27","ios":"levelo://app?vid=ef751f89-9ffb-462e-b79d-0dd2fbbe0a27"},"vehicle_type_id":"4","last_reported":1684181210,"current_range_meters":10400,"station_id":"ce4bgt12rcd13ifvqcd0","pricing_plan_id":"free"},{"bike_id":"a8d7ad91-77b6-45e9-8c45-afc5e23a64b4","system_id":"levelo_inurba_marseille","lat":43.308614,"lon":5.372098,"is_reserved":false,"is_disabled":false,"rental_uris":{"android":"levelo://app?vid=a8d7ad91-77b6-45e9-8c45-afc5e23a64b4","ios":"levelo://app?vid=a8d7ad91-77b6-45e9-8c45-afc5e23a64b4"},"vehicle_type_id":"4","last_reported":1684181210,"current_range_meters":2800,"station_id":"ce4bguh2rcd13ifvqckg","pricing_plan_id":"free"},{"bike_id":"2f11cd2c-4d01-4456-b483-9c5ecce10f33","system_id":"levelo_inurba_marseille","lat":43.30885,"lon":5.37207,"is_reserved":false,"is_disabled":false,"rental_uris":{"android":"levelo://app?vid=2f11cd2c-4d01-4456-b483-9c5ecce10f33","ios":"levelo://app?vid=2f11cd2c-4d01-4456-b483-9c5ecce10f33"},"vehicle_type_id":"4","last_reported":1684181210,"current_range_meters":0,"station_id":"","pricing_plan_id":"free"},{"bike_id":"f560fd9d-9152-48da-b6b7-132a7a4e1e57","system_id":"levelo_inurba_marseille","lat":43.30588,"lon":5.36563,"is_reserved":false,"is_disabled":false,"rental_uris":{"android":"levelo://app?vid=f560fd9d-9152-48da-b6b7-132a7a4e1e57","ios":"levelo://app?vid=f560fd9d-9152-48da-b6b7-132a7a4e1e57"},"vehicle_type_id":"4","last_reported":1684181210,"current_range_meters":6000,"station_id":"","pricing_plan_id":"free"},{"bike_id":"bec22b0e-396e-45aa-a529-720cffd2e5f1","system_id":"levelo_inurba_marseille","lat":43.305989,"lon":5.37225,"is_reserved":false,"is_disabled":false,"rental_uris":{"android":"levelo://app?vid=bec22b0e-396e-45aa-a529-720cffd2e5f1","ios":"levelo://app?vid=bec22b0e-396e-45aa-a529-720cffd2e5f1"},"vehicle_type_id":"4","last_reported":1684181210,"current_range_meters":9600,"station_id":"ce4bgqh2rcd13ifvqc4g","pricing_plan_id":"free"},{"bike_id":"6c5ccd46-8bdd-4773-a1fb-2a9d30394ab0","system_id":"levelo_inurba_marseille","lat":43.305989,"lon":5.37225,"is_reserved":false,"is_disabled":false,"rental_uris":{"android":"levelo://app?vid=6c5ccd46-8bdd-4773-a1fb-2a9d30394ab0","ios":"levelo://app?vid=6c5ccd46-8bdd-4773-a1fb-2a9d30394ab0"},"vehicle_type_id":"4","last_reported":1684181210,"current_range_meters":1600,"station_id":"ce4bgqh2rcd13ifvqc4g","pricing_plan_id":"free"},{"bike_id":"7fe0f161-39e0-4dfb-84cd-2ce3032115c5","system_id":"levelo_inurba_marseille","lat":43.315293,"lon":5.380349,"is_reserved":false,"is_disabled":false,"rental_uris":{"android":"levelo://app?vid=7fe0f161-39e0-4dfb-84cd-2ce3032115c5","ios":"levelo://app?vid=7fe0f161-39e0-4dfb-84cd-2ce3032115c5"},"vehicle_type_id":"4","last_reported":1684181210,"current_range_meters":25200,"station_id":"ce4bhsp2rcd13ifvqi50","pricing_plan_id":"free"},{"bike_id":"7f400d3f-adb8-45a3-99e5-4253315e7c58","system_id":"levelo_inurba_marseille","lat":43.315289,"lon":5.380349,"is_reserved":false,"is_disabled":false,"rental_uris":{"android":"levelo://app?vid=7f400d3f-adb8-45a3-99e5-4253315e7c58","ios":"levelo://app?vid=7f400d3f-adb8-45a3-99e5-4253315e7c58"},"vehicle_type_id":"4","last_reported":1684181210,"current_range_meters":28400,"station_id":"ce4bhsp2rcd13ifvqi50","pricing_plan_id":"free"},{"bike_id":"1122582c-f0c4-46cd-9c26-99113451f015","system_id":"levelo_inurba_marseille","lat":43.315289,"lon":5.380349,"is_reserved":false,"is_disabled":false,"rental_uris":{"android":"levelo://app?vid=1122582c-f0c4-46cd-9c26-99113451f015","ios":"levelo://app?vid=1122582c-f0c4-46cd-9c26-99113451f015"},"vehicle_type_id":"4","last_reported":1684181210,"current_range_meters":23600,"station_id":"ce4bhsp2rcd13ifvqi50","pricing_plan_id":"free"},{"bike_id":"445c95fc-b94a-4950-b24b-2d77f26609bc","system_id":"levelo_inurba_marseille","lat":43.315293,"lon":5.380349,"is_reserved":false,"is_disabled":false,"rental_uris":{"android":"levelo://app?vid=445c95fc-b94a-4950-b24b-2d77f26609bc","ios":"levelo://app?vid=445c95fc-b94a-4950-b24b-2d77f26609bc"},"vehicle_type_id":"4","last_reported":1684181210,"current_range_meters":29200,"station_id":"ce4bhsp2rcd13ifvqi50","pricing_plan_id":"free"},{"bike_id":"574d2137-c429-4b9d-bc0f-f9ab6e9894bf","system_id":"levelo_inurba_marseille","lat":43.308012,"lon":5.381511,"is_reserved":false,"is_disabled":false,"rental_uris":{"android":"levelo://app?vid=574d2137-c429-4b9d-bc0f-f9ab6e9894bf","ios":"levelo://app?vid=574d2137-c429-4b9d-bc0f-f9ab6e9894bf"},"vehicle_type_id":"4","last_reported":1684181210,"current_range_meters":23600,"station_id":"ce4bgt12rcd13ifvqce0","pricing_plan_id":"free"},{"bike_id":"9771e459-821a-47d8-9dc0-3685b9f76f0b","system_id":"levelo_inurba_marseille","lat":43.308012,"lon":5.381511,"is_reserved":false,"is_disabled":false,"rental_uris":{"android":"levelo://app?vid=9771e459-821a-47d8-9dc0-3685b9f76f0b","ios":"levelo://app?vid=9771e459-821a-47d8-9dc0-3685b9f76f0b"},"vehicle_type_id":"4","last_reported":1684181210,"current_range_meters":18400,"station_id":"ce4bgt12rcd13ifvqce0","pricing_plan_id":"free"},{"bike_id":"0d8d0a36-d29a-4ed2-a448-41594a0aaba5","system_id":"levelo_inurba_marseille","lat":43.304606,"lon":5.379026,"is_reserved":false,"is_disabled":false,"rental_uris":{"android":"levelo://app?vid=0d8d0a36-d29a-4ed2-a448-41594a0aaba5","ios":"levelo://app?vid=0d8d0a36-d29a-4ed2-a448-41594a0aaba5"},"vehicle_type_id":"4","last_reported":1684181210,"current_range_meters":4400,"station_id":"ce4bgup2rcd13ifvqcn0","pricing_plan_id":"free"},{"bike_id":"77356d28-3dad-4b14-a737-190bd3b8267a","system_id":"levelo_inurba_marseille","lat":43.31995,"lon":5.38142,"is_reserved":false,"is_disabled":false,"rental_uris":{"android":"levelo://app?vid=77356d28-3dad-4b14-a737-190bd3b8267a","ios":"levelo://app?vid=77356d28-3dad-4b14-a737-190bd3b8267a"},"vehicle_type_id":"4","last_reported":1684181210,"current_range_meters":19200,"station_id":"ce4bhr12rcd13ifvqhpg","pricing_plan_id":"free"},{"bike_id":"83e634e6-beb2-44b5-844b-b43276431dbc","system_id":"levelo_inurba_marseille","lat":43.31995,"lon":5.38152,"is_reserved":false,"is_disabled":false,"rental_uris":{"android":"levelo://app?vid=83e634e6-beb2-44b5-844b-b43276431dbc","ios":"levelo://app?vid=83e634e6-beb2-44b5-844b-b43276431dbc"},"vehicle_type_id":"4","last_reported":1684181210,"current_range_meters":4400,"station_id":"ce4bhr12rcd13ifvqhpg","pricing_plan_id":"free"},{"bike_id":"ac2832dc-d468-4d5e-b78f-ebe0d25212f3","system_id":"levelo_inurba_marseille","lat":43.313571,"lon":5.384829,"is_reserved":false,"is_disabled":false,"rental_uris":{"android":"levelo://app?vid=ac2832dc-d468-4d5e-b78f-ebe0d25212f3","ios":"levelo://app?vid=ac2832dc-d468-4d5e-b78f-ebe0d25212f3"},"vehicle_type_id":"4","last_reported":1684181210,"current_range_meters":26400,"station_id":"ce4bgt92rcd13ifvqcf0","pricing_plan_id":"free"},{"bike_id":"ac2cf184-11a7-4d3c-a0fa-a9b16ab41d1b","system_id":"levelo_inurba_marseille","lat":43.298433,"lon":5.362774,"is_reserved":false,"is_disabled":false,"rental_uris":{"android":"levelo://app?vid=ac2cf184-11a7-4d3c-a0fa-a9b16ab41d1b","ios":"levelo://app?vid=ac2cf184-11a7-4d3c-a0fa-a9b16ab41d1b"},"vehicle_type_id":"4","last_reported":1684181210,"current_range_meters":31200,"station_id":"ce4bgpp2rcd13ifvqc3g","pricing_plan_id":"free"},{"bike_id":"ad3b7d32-39e0-410f-be8c-55324116ce2c","system_id":"levelo_inurba_marseille","lat":43.298433,"lon":5.362774,"is_reserved":false,"is_disabled":false,"rental_uris":{"android":"levelo://app?vid=ad3b7d32-39e0-410f-be8c-55324116ce2c","ios":"levelo://app?vid=ad3b7d32-39e0-410f-be8c-55324116ce2c"},"vehicle_type_id":"4","last_reported":1684181210,"current_range_meters":7600,"station_id":"ce4bgpp2rcd13ifvqc3g","pricing_plan_id":"free"},{"bike_id":"c71a0e07-3fe0-4502-88ec-3f1f95b529c3","system_id":"levelo_inurba_marseille","lat":43.298433,"lon":5.362774,"is_reserved":false,"is_disabled":false,"rental_uris":{"android":"levelo://app?vid=c71a0e07-3fe0-4502-88ec-3f1f95b529c3","ios":"levelo://app?vid=c71a0e07-3fe0-4502-88ec-3f1f95b529c3"},"vehicle_type_id":"4","last_reported":1684181210,"current_range_meters":2400,"station_id":"ce4bgpp2rcd13ifvqc3g","pricing_plan_id":"free"},{"bike_id":"987babfe-1bff-4d24-8ee7-15902190ac34","system_id":"levelo_inurba_marseille","lat":43.298433,"lon":5.362774,"is_reserved":false,"is_disabled":false,"rental_uris":{"android":"levelo://app?vid=987babfe-1bff-4d24-8ee7-15902190ac34","ios":"levelo://app?vid=987babfe-1bff-4d24-8ee7-15902190ac34"},"vehicle_type_id":"4","last_reported":1684181210,"current_range_meters":25600,"station_id":"ce4bgpp2rcd13ifvqc3g","pricing_plan_id":"free"},{"bike_id":"2d10a793-644c-46c5-99a6-9b9cfc4bb6fe","system_id":"levelo_inurba_marseille","lat":43.298433,"lon":5.362774,"is_reserved":false,"is_disabled":false,"rental_uris":{"android":"levelo://app?vid=2d10a793-644c-46c5-99a6-9b9cfc4bb6fe","ios":"levelo://app?vid=2d10a793-644c-46c5-99a6-9b9cfc4bb6fe"},"vehicle_type_id":"4","last_reported":1684181210,"current_range_meters":30400,"station_id":"ce4bgpp2rcd13ifvqc3g","pricing_plan_id":"free"},{"bike_id":"e9230023-feb2-4293-ac65-b7da3f0b20e5","system_id":"levelo_inurba_marseille","lat":43.311722,"lon":5.387247,"is_reserved":false,"is_disabled":false,"rental_uris":{"android":"levelo://app?vid=e9230023-feb2-4293-ac65-b7da3f0b20e5","ios":"levelo://app?vid=e9230023-feb2-4293-ac65-b7da3f0b20e5"},"vehicle_type_id":"4","last_reported":1684181210,"current_range_meters":28000,"station_id":"ce4bgv12rcd13ifvqcp0","pricing_plan_id":"free"},{"bike_id":"5f0856b4-3ea9-4134-a8d1-3669ef7a5f73","system_id":"levelo_inurba_marseille","lat":43.29915,"lon":5.3747,"is_reserved":false,"is_disabled":false,"rental_uris":{"android":"levelo://app?vid=5f0856b4-3ea9-4134-a8d1-3669ef7a5f73","ios":"levelo://app?vid=5f0856b4-3ea9-4134-a8d1-3669ef7a5f73"},"vehicle_type_id":"4","last_reported":1684181210,"current_range_meters":6000,"station_id":"ce4bgjh2rcd13ifvqbg0","pricing_plan_id":"free"},{"bike_id":"5a954b97-b9b6-4e5f-8f76-6d318459fec1","system_id":"levelo_inurba_marseille","lat":43.311722,"lon":5.387247,"is_reserved":false,"is_disabled":false,"rental_uris":{"android":"levelo://app?vid=5a954b97-b9b6-4e5f-8f76-6d318459fec1","ios":"levelo://app?vid=5a954b97-b9b6-4e5f-8f76-6d318459fec1"},"vehicle_type_id":"4","last_reported":1684181210,"current_range_meters":26400,"station_id":"ce4bgv12rcd13ifvqcp0","pricing_plan_id":"free"},{"bike_id":"be840c93-0dae-4113-b065-6e63692db62c","system_id":"levelo_inurba_marseille","lat":43.32755,"lon":5.36689,"is_reserved":false,"is_disabled":false,"rental_uris":{"android":"levelo://app?vid=be840c93-0dae-4113-b065-6e63692db62c","ios":"levelo://app?vid=be840c93-0dae-4113-b065-6e63692db62c"},"vehicle_type_id":"4","last_reported":1684181210,"current_range_meters":2400,"station_id":"","pricing_plan_id":"free"},{"bike_id":"223a3942-eae0-44ef-a497-aa5c208469bf","system_id":"levelo_inurba_marseille","lat":43.3282,"lon":5.36692,"is_reserved":false,"is_disabled":false,"rental_uris":{"android":"levelo://app?vid=223a3942-eae0-44ef-a497-aa5c208469bf","ios":"levelo://app?vid=223a3942-eae0-44ef-a497-aa5c208469bf"},"vehicle_type_id":"4","last_reported":1684181210,"current_range_meters":15200,"station_id":"ce4bhs92rcd13ifvqi0g","pricing_plan_id":"free"},{"bike_id":"e7f2b6eb-fd3e-4f84-a542-cc68dc37093a","system_id":"levelo_inurba_marseille","lat":43.32829,"lon":5.36692,"is_reserved":false,"is_disabled":false,"rental_uris":{"android":"levelo://app?vid=e7f2b6eb-fd3e-4f84-a542-cc68dc37093a","ios":"levelo://app?vid=e7f2b6eb-fd3e-4f84-a542-cc68dc37093a"},"vehicle_type_id":"4","last_reported":1684181210,"current_range_meters":20400,"station_id":"ce4bhs92rcd13ifvqi0g","pricing_plan_id":"free"},{"bike_id":"f7f5e7cd-f784-4de0-9ab3-dfe3cf921004","system_id":"levelo_inurba_marseille","lat":43.32833,"lon":5.36691,"is_reserved":false,"is_disabled":false,"rental_uris":{"android":"levelo://app?vid=f7f5e7cd-f784-4de0-9ab3-dfe3cf921004","ios":"levelo://app?vid=f7f5e7cd-f784-4de0-9ab3-dfe3cf921004"},"vehicle_type_id":"4","last_reported":1684181210,"current_range_meters":4800,"station_id":"ce4bhs92rcd13ifvqi0g","pricing_plan_id":"free"},{"bike_id":"2e3b9d51-8c66-4a9a-8612-ff9a723ae0cb","system_id":"levelo_inurba_marseille","lat":43.29713,"lon":5.36654,"is_reserved":false,"is_disabled":false,"rental_uris":{"android":"levelo://app?vid=2e3b9d51-8c66-4a9a-8612-ff9a723ae0cb","ios":"levelo://app?vid=2e3b9d51-8c66-4a9a-8612-ff9a723ae0cb"},"vehicle_type_id":"4","last_reported":1684181210,"current_range_meters":0,"station_id":"","pricing_plan_id":"free"},{"bike_id":"93e9ff74-0e8c-4677-9eaf-6b297a31e7b0","system_id":"levelo_inurba_marseille","lat":43.29711,"lon":5.36601,"is_reserved":false,"is_disabled":false,"rental_uris":{"android":"levelo://app?vid=93e9ff74-0e8c-4677-9eaf-6b297a31e7b0","ios":"levelo://app?vid=93e9ff74-0e8c-4677-9eaf-6b297a31e7b0"},"vehicle_type_id":"4","last_reported":1684181210,"current_range_meters":11600,"station_id":"ce4bgn12rcd13ifvqbt0","pricing_plan_id":"free"},{"bike_id":"02e62067-7927-49ee-a88c-ecdaeabd2780","system_id":"levelo_inurba_marseille","lat":43.29573,"lon":5.367355,"is_reserved":false,"is_disabled":false,"rental_uris":{"android":"levelo://app?vid=02e62067-7927-49ee-a88c-ecdaeabd2780","ios":"levelo://app?vid=02e62067-7927-49ee-a88c-ecdaeabd2780"},"vehicle_type_id":"4","last_reported":1684181210,"current_range_meters":18800,"station_id":"ce4bgph2rcd13ifvqc2g","pricing_plan_id":"free"},{"bike_id":"f1955986-e05f-4908-8a21-72e0fc608d01","system_id":"levelo_inurba_marseille","lat":43.296921,"lon":5.376579,"is_reserved":false,"is_disabled":false,"rental_uris":{"android":"levelo://app?vid=f1955986-e05f-4908-8a21-72e0fc608d01","ios":"levelo://app?vid=f1955986-e05f-4908-8a21-72e0fc608d01"},"vehicle_type_id":"4","last_reported":1684181210,"current_range_meters":5200,"station_id":"ce4bgkh2rcd13ifvqbl0","pricing_plan_id":"free"},{"bike_id":"688b205f-d40d-4efd-b476-1e3a9ea40d34","system_id":"levelo_inurba_marseille","lat":43.299028,"lon":5.381509,"is_reserved":false,"is_disabled":false,"rental_uris":{"android":"levelo://app?vid=688b205f-d40d-4efd-b476-1e3a9ea40d34","ios":"levelo://app?vid=688b205f-d40d-4efd-b476-1e3a9ea40d34"},"vehicle_type_id":"4","last_reported":1684181210,"current_range_meters":12800,"station_id":"ce4bgj12rcd13ifvqbc0","pricing_plan_id":"free"},{"bike_id":"a7355f43-ae3a-43df-8c1b-a6c20f3779a1","system_id":"levelo_inurba_marseille","lat":43.309589,"lon":5.390258,"is_reserved":false,"is_disabled":false,"rental_uris":{"android":"levelo://app?vid=a7355f43-ae3a-43df-8c1b-a6c20f3779a1","ios":"levelo://app?vid=a7355f43-ae3a-43df-8c1b-a6c20f3779a1"},"vehicle_type_id":"4","last_reported":1684181210,"current_range_meters":0,"station_id":"ce4bgup2rcd13ifvqco0","pricing_plan_id":"free"},{"bike_id":"e1b8bcc4-8762-4b50-b4b8-04f35c87687e","system_id":"levelo_inurba_marseille","lat":43.299028,"lon":5.381509,"is_reserved":false,"is_disabled":false,"rental_uris":{"android":"levelo://app?vid=e1b8bcc4-8762-4b50-b4b8-04f35c87687e","ios":"levelo://app?vid=e1b8bcc4-8762-4b50-b4b8-04f35c87687e"},"vehicle_type_id":"4","last_reported":1684181210,"current_range_meters":8400,"station_id":"ce4bgj12rcd13ifvqbc0","pricing_plan_id":"free"},{"bike_id":"7d232b6c-ade1-4f84-852f-9ece1a04e9b4","system_id":"levelo_inurba_marseille","lat":43.317557,"lon":5.390173,"is_reserved":false,"is_disabled":false,"rental_uris":{"android":"levelo://app?vid=7d232b6c-ade1-4f84-852f-9ece1a04e9b4","ios":"levelo://app?vid=7d232b6c-ade1-4f84-852f-9ece1a04e9b4"},"vehicle_type_id":"4","last_reported":1684181210,"current_range_meters":800,"station_id":"ce4bhqp2rcd13ifvqhng","pricing_plan_id":"free"},{"bike_id":"cf4cf2a7-f6d5-4bad-a1b9-b1b00f4cc020","system_id":"levelo_inurba_marseille","lat":43.317557,"lon":5.390173,"is_reserved":false,"is_disabled":false,"rental_uris":{"android":"levelo://app?vid=cf4cf2a7-f6d5-4bad-a1b9-b1b00f4cc020","ios":"levelo://app?vid=cf4cf2a7-f6d5-4bad-a1b9-b1b00f4cc020"},"vehicle_type_id":"4","last_reported":1684181210,"current_range_meters":31200,"station_id":"ce4bhqp2rcd13ifvqhng","pricing_plan_id":"free"},{"bike_id":"44e74a91-a6e8-4fde-8748-2e47402ee350","system_id":"levelo_inurba_marseille","lat":43.317557,"lon":5.390173,"is_reserved":false,"is_disabled":false,"rental_uris":{"android":"levelo://app?vid=44e74a91-a6e8-4fde-8748-2e47402ee350","ios":"levelo://app?vid=44e74a91-a6e8-4fde-8748-2e47402ee350"},"vehicle_type_id":"4","last_reported":1684181210,"current_range_meters":30800,"station_id":"ce4bhqp2rcd13ifvqhng","pricing_plan_id":"free"},{"bike_id":"7ff6d02f-eb57-4401-a16e-a4890a923b71","system_id":"levelo_inurba_marseille","lat":43.317557,"lon":5.390173,"is_reserved":false,"is_disabled":false,"rental_uris":{"android":"levelo://app?vid=7ff6d02f-eb57-4401-a16e-a4890a923b71","ios":"levelo://app?vid=7ff6d02f-eb57-4401-a16e-a4890a923b71"},"vehicle_type_id":"4","last_reported":1684181210,"current_range_meters":8800,"station_id":"ce4bhqp2rcd13ifvqhng","pricing_plan_id":"free"},{"bike_id":"d95b3f13-50ef-42ae-ad2e-deda61922ad4","system_id":"levelo_inurba_marseille","lat":43.298037,"lon":5.381066,"is_reserved":false,"is_disabled":false,"rental_uris":{"android":"levelo://app?vid=d95b3f13-50ef-42ae-ad2e-deda61922ad4","ios":"levelo://app?vid=d95b3f13-50ef-42ae-ad2e-deda61922ad4"},"vehicle_type_id":"4","last_reported":1684181210,"current_range_meters":7600,"station_id":"ce4bgip2rcd13ifvqbb0","pricing_plan_id":"free"},{"bike_id":"be65f766-3020-482f-ac84-8f7ff95befa4","system_id":"levelo_inurba_marseille","lat":43.296263,"lon":5.377094,"is_reserved":false,"is_disabled":false,"rental_uris":{"android":"levelo://app?vid=be65f766-3020-482f-ac84-8f7ff95befa4","ios":"levelo://app?vid=be65f766-3020-482f-ac84-8f7ff95befa4"},"vehicle_type_id":"4","last_reported":1684181210,"current_range_meters":28400,"station_id":"ce4bgi92rcd13ifvqb90","pricing_plan_id":"free"},{"bike_id":"c85c9f78-bd64-4177-94c1-94ff1ac8ad80","system_id":"levelo_inurba_marseille","lat":43.299717,"lon":5.384845,"is_reserved":false,"is_disabled":false,"rental_uris":{"android":"levelo://app?vid=c85c9f78-bd64-4177-94c1-94ff1ac8ad80","ios":"levelo://app?vid=c85c9f78-bd64-4177-94c1-94ff1ac8ad80"},"vehicle_type_id":"4","last_reported":1684181210,"current_range_meters":26800,"station_id":"ce4bgj92rcd13ifvqbd0","pricing_plan_id":"free"},{"bike_id":"baf32d1b-cf98-4aee-986d-06fec28babfe","system_id":"levelo_inurba_marseille","lat":43.299724,"lon":5.384848,"is_reserved":false,"is_disabled":false,"rental_uris":{"android":"levelo://app?vid=baf32d1b-cf98-4aee-986d-06fec28babfe","ios":"levelo://app?vid=baf32d1b-cf98-4aee-986d-06fec28babfe"},"vehicle_type_id":"4","last_reported":1684181210,"current_range_meters":0,"station_id":"ce4bgj92rcd13ifvqbd0","pricing_plan_id":"free"},{"bike_id":"00740c31-57b4-42ac-8cf5-b7bbb87c342d","system_id":"levelo_inurba_marseille","lat":43.299717,"lon":5.384845,"is_reserved":false,"is_disabled":false,"rental_uris":{"android":"levelo://app?vid=00740c31-57b4-42ac-8cf5-b7bbb87c342d","ios":"levelo://app?vid=00740c31-57b4-42ac-8cf5-b7bbb87c342d"},"vehicle_type_id":"4","last_reported":1684181210,"current_range_meters":18000,"station_id":"ce4bgj92rcd13ifvqbd0","pricing_plan_id":"free"},{"bike_id":"984505f6-2b6d-44ef-bdf4-809a5065f103","system_id":"levelo_inurba_marseille","lat":43.293249,"lon":5.371578,"is_reserved":false,"is_disabled":false,"rental_uris":{"android":"levelo://app?vid=984505f6-2b6d-44ef-bdf4-809a5065f103","ios":"levelo://app?vid=984505f6-2b6d-44ef-bdf4-809a5065f103"},"vehicle_type_id":"4","last_reported":1684181210,"current_range_meters":3200,"station_id":"ce4bgh92rcd13ifvqb40","pricing_plan_id":"free"},{"bike_id":"5a09d5d9-cf75-4fd0-8215-8ed6a2ada486","system_id":"levelo_inurba_marseille","lat":43.32359,"lon":5.38871,"is_reserved":false,"is_disabled":false,"rental_uris":{"android":"levelo://app?vid=5a09d5d9-cf75-4fd0-8215-8ed6a2ada486","ios":"levelo://app?vid=5a09d5d9-cf75-4fd0-8215-8ed6a2ada486"},"vehicle_type_id":"4","last_reported":1684181210,"current_range_meters":10000,"station_id":"ce4bhqp2rcd13ifvqhog","pricing_plan_id":"free"},{"bike_id":"1dfa9dcc-ad43-4366-80ee-5c7f154611fc","system_id":"levelo_inurba_marseille","lat":43.32364,"lon":5.38878,"is_reserved":false,"is_disabled":false,"rental_uris":{"android":"levelo://app?vid=1dfa9dcc-ad43-4366-80ee-5c7f154611fc","ios":"levelo://app?vid=1dfa9dcc-ad43-4366-80ee-5c7f154611fc"},"vehicle_type_id":"4","last_reported":1684181210,"current_range_meters":25200,"station_id":"ce4bhqp2rcd13ifvqhog","pricing_plan_id":"free"},{"bike_id":"368dad79-014b-46e3-b946-93453ee151a4","system_id":"levelo_inurba_marseille","lat":43.32364,"lon":5.38879,"is_reserved":false,"is_disabled":false,"rental_uris":{"android":"levelo://app?vid=368dad79-014b-46e3-b946-93453ee151a4","ios":"levelo://app?vid=368dad79-014b-46e3-b946-93453ee151a4"},"vehicle_type_id":"4","last_reported":1684181210,"current_range_meters":0,"station_id":"ce4bhqp2rcd13ifvqhog","pricing_plan_id":"free"},{"bike_id":"57788115-387d-40a2-a807-a902fa910e3a","system_id":"levelo_inurba_marseille","lat":43.32363,"lon":5.38881,"is_reserved":false,"is_disabled":false,"rental_uris":{"android":"levelo://app?vid=57788115-387d-40a2-a807-a902fa910e3a","ios":"levelo://app?vid=57788115-387d-40a2-a807-a902fa910e3a"},"vehicle_type_id":"4","last_reported":1684181210,"current_range_meters":12800,"station_id":"ce4bhqp2rcd13ifvqhog","pricing_plan_id":"free"},{"bike_id":"8c83af73-e52b-455d-a488-2dcd7b769ae0","system_id":"levelo_inurba_marseille","lat":43.32366,"lon":5.38881,"is_reserved":false,"is_disabled":false,"rental_uris":{"android":"levelo://app?vid=8c83af73-e52b-455d-a488-2dcd7b769ae0","ios":"levelo://app?vid=8c83af73-e52b-455d-a488-2dcd7b769ae0"},"vehicle_type_id":"4","last_reported":1684181210,"current_range_meters":7200,"station_id":"ce4bhqp2rcd13ifvqhog","pricing_plan_id":"free"},{"bike_id":"b598aa41-f21a-44ab-bfa6-d8292decfa6d","system_id":"levelo_inurba_marseille","lat":43.32362,"lon":5.38887,"is_reserved":false,"is_disabled":false,"rental_uris":{"android":"levelo://app?vid=b598aa41-f21a-44ab-bfa6-d8292decfa6d","ios":"levelo://app?vid=b598aa41-f21a-44ab-bfa6-d8292decfa6d"},"vehicle_type_id":"4","last_reported":1684181210,"current_range_meters":0,"station_id":"","pricing_plan_id":"free"},{"bike_id":"cc25496d-8593-433d-a9e2-a643a228371f","system_id":"levelo_inurba_marseille","lat":43.32367,"lon":5.38884,"is_reserved":false,"is_disabled":false,"rental_uris":{"android":"levelo://app?vid=cc25496d-8593-433d-a9e2-a643a228371f","ios":"levelo://app?vid=cc25496d-8593-433d-a9e2-a643a228371f"},"vehicle_type_id":"4","last_reported":1684181210,"current_range_meters":30400,"station_id":"ce4bhqp2rcd13ifvqhog","pricing_plan_id":"free"},{"bike_id":"1a705e8e-b254-4ef5-ac1a-3b23d1742151","system_id":"levelo_inurba_marseille","lat":43.32369,"lon":5.38887,"is_reserved":false,"is_disabled":false,"rental_uris":{"android":"levelo://app?vid=1a705e8e-b254-4ef5-ac1a-3b23d1742151","ios":"levelo://app?vid=1a705e8e-b254-4ef5-ac1a-3b23d1742151"},"vehicle_type_id":"4","last_reported":1684181210,"current_range_meters":27200,"station_id":"","pricing_plan_id":"free"},{"bike_id":"9621c2b1-6fdd-413b-8e00-d4ca62119446","system_id":"levelo_inurba_marseille","lat":43.292749,"lon":5.368402,"is_reserved":false,"is_disabled":false,"rental_uris":{"android":"levelo://app?vid=9621c2b1-6fdd-413b-8e00-d4ca62119446","ios":"levelo://app?vid=9621c2b1-6fdd-413b-8e00-d4ca62119446"},"vehicle_type_id":"4","last_reported":1684181210,"current_range_meters":13200,"station_id":"ce4bhbp2rcd13ifvqesg","pricing_plan_id":"free"},{"bike_id":"1db4129a-eb5b-48b7-9249-ea9e16472017","system_id":"levelo_inurba_marseille","lat":43.293249,"lon":5.371578,"is_reserved":false,"is_disabled":false,"rental_uris":{"android":"levelo://app?vid=1db4129a-eb5b-48b7-9249-ea9e16472017","ios":"levelo://app?vid=1db4129a-eb5b-48b7-9249-ea9e16472017"},"vehicle_type_id":"4","last_reported":1684181210,"current_range_meters":16000,"station_id":"ce4bgh92rcd13ifvqb40","pricing_plan_id":"free"},{"bike_id":"fe99866c-5886-47ea-8108-029cf4169c67","system_id":"levelo_inurba_marseille","lat":43.293249,"lon":5.371578,"is_reserved":false,"is_disabled":false,"rental_uris":{"android":"levelo://app?vid=fe99866c-5886-47ea-8108-029cf4169c67","ios":"levelo://app?vid=fe99866c-5886-47ea-8108-029cf4169c67"},"vehicle_type_id":"4","last_reported":1684181210,"current_range_meters":18000,"station_id":"ce4bgh92rcd13ifvqb40","pricing_plan_id":"free"},{"bike_id":"df02bbd5-ccfe-4a37-a446-f922ba7148ad","system_id":"levelo_inurba_marseille","lat":43.293249,"lon":5.371578,"is_reserved":false,"is_disabled":false,"rental_uris":{"android":"levelo://app?vid=df02bbd5-ccfe-4a37-a446-f922ba7148ad","ios":"levelo://app?vid=df02bbd5-ccfe-4a37-a446-f922ba7148ad"},"vehicle_type_id":"4","last_reported":1684181210,"current_range_meters":7200,"station_id":"ce4bgh92rcd13ifvqb40","pricing_plan_id":"free"},{"bike_id":"06843648-aafd-4aba-9f7b-dba9337d09a3","system_id":"levelo_inurba_marseille","lat":43.293249,"lon":5.371578,"is_reserved":false,"is_disabled":false,"rental_uris":{"android":"levelo://app?vid=06843648-aafd-4aba-9f7b-dba9337d09a3","ios":"levelo://app?vid=06843648-aafd-4aba-9f7b-dba9337d09a3"},"vehicle_type_id":"4","last_reported":1684181210,"current_range_meters":28400,"station_id":"ce4bgh92rcd13ifvqb40","pricing_plan_id":"free"},{"bike_id":"56c48c5b-c82c-4cbb-81b4-97a23add6012","system_id":"levelo_inurba_marseille","lat":43.298764,"lon":5.388973,"is_reserved":false,"is_disabled":false,"rental_uris":{"android":"levelo://app?vid=56c48c5b-c82c-4cbb-81b4-97a23add6012","ios":"levelo://app?vid=56c48c5b-c82c-4cbb-81b4-97a23add6012"},"vehicle_type_id":"4","last_reported":1684181210,"current_range_meters":10000,"station_id":"ce4bh392rcd13ifvqdl0","pricing_plan_id":"free"},{"bike_id":"f6afd98c-3574-4cc6-b28e-cb0f56eedf70","system_id":"levelo_inurba_marseille","lat":43.293009,"lon":5.374584,"is_reserved":false,"is_disabled":false,"rental_uris":{"android":"levelo://app?vid=f6afd98c-3574-4cc6-b28e-cb0f56eedf70","ios":"levelo://app?vid=f6afd98c-3574-4cc6-b28e-cb0f56eedf70"},"vehicle_type_id":"4","last_reported":1684181210,"current_range_meters":18400,"station_id":"ce4bgi12rcd13ifvqb70","pricing_plan_id":"free"},{"bike_id":"9de71b00-d7af-44bd-9b1b-90142e360594","system_id":"levelo_inurba_marseille","lat":43.293009,"lon":5.374584,"is_reserved":false,"is_disabled":false,"rental_uris":{"android":"levelo://app?vid=9de71b00-d7af-44bd-9b1b-90142e360594","ios":"levelo://app?vid=9de71b00-d7af-44bd-9b1b-90142e360594"},"vehicle_type_id":"4","last_reported":1684181210,"current_range_meters":29600,"station_id":"ce4bgi12rcd13ifvqb70","pricing_plan_id":"free"},{"bike_id":"bdae18a7-2a1c-4795-8d93-73481674a315","system_id":"levelo_inurba_marseille","lat":43.2936,"lon":5.37835,"is_reserved":false,"is_disabled":false,"rental_uris":{"android":"levelo://app?vid=bdae18a7-2a1c-4795-8d93-73481674a315","ios":"levelo://app?vid=bdae18a7-2a1c-4795-8d93-73481674a315"},"vehicle_type_id":"4","last_reported":1684181210,"current_range_meters":26000,"station_id":"ce4bgjh2rcd13ifvqbf0","pricing_plan_id":"free"},{"bike_id":"453a632c-0aab-4169-ab3b-1c8a8f0bfbc1","system_id":"levelo_inurba_marseille","lat":43.29222,"lon":5.36048,"is_reserved":false,"is_disabled":false,"rental_uris":{"android":"levelo://app?vid=453a632c-0aab-4169-ab3b-1c8a8f0bfbc1","ios":"levelo://app?vid=453a632c-0aab-4169-ab3b-1c8a8f0bfbc1"},"vehicle_type_id":"4","last_reported":1684181210,"current_range_meters":22800,"station_id":"","pricing_plan_id":"free"},{"bike_id":"32dca039-7310-45bf-aa88-4e44ee638e69","system_id":"levelo_inurba_marseille","lat":43.300852,"lon":5.390859,"is_reserved":false,"is_disabled":false,"rental_uris":{"android":"levelo://app?vid=32dca039-7310-45bf-aa88-4e44ee638e69","ios":"levelo://app?vid=32dca039-7310-45bf-aa88-4e44ee638e69"},"vehicle_type_id":"4","last_reported":1684181210,"current_range_meters":800,"station_id":"ce4bh192rcd13ifvqdb0","pricing_plan_id":"free"},{"bike_id":"c48c3773-c3d5-4b30-93da-c1ee91e7d65a","system_id":"levelo_inurba_marseille","lat":43.292663,"lon":5.376389,"is_reserved":false,"is_disabled":false,"rental_uris":{"android":"levelo://app?vid=c48c3773-c3d5-4b30-93da-c1ee91e7d65a","ios":"levelo://app?vid=c48c3773-c3d5-4b30-93da-c1ee91e7d65a"},"vehicle_type_id":"4","last_reported":1684181210,"current_range_meters":13600,"station_id":"ce4bgi12rcd13ifvqb80","pricing_plan_id":"free"},{"bike_id":"63b1daa1-c537-4360-b69a-795e8571367a","system_id":"levelo_inurba_marseille","lat":43.291671,"lon":5.371575,"is_reserved":false,"is_disabled":false,"rental_uris":{"android":"levelo://app?vid=63b1daa1-c537-4360-b69a-795e8571367a","ios":"levelo://app?vid=63b1daa1-c537-4360-b69a-795e8571367a"},"vehicle_type_id":"4","last_reported":1684181210,"current_range_meters":10800,"station_id":"ce4bha92rcd13ifvqeh0","pricing_plan_id":"free"},{"bike_id":"47a85c20-b211-4db3-bf39-41aea6d463db","system_id":"levelo_inurba_marseille","lat":43.31321,"lon":5.39679,"is_reserved":false,"is_disabled":false,"rental_uris":{"android":"levelo://app?vid=47a85c20-b211-4db3-bf39-41aea6d463db","ios":"levelo://app?vid=47a85c20-b211-4db3-bf39-41aea6d463db"},"vehicle_type_id":"4","last_reported":1684181210,"current_range_meters":4400,"station_id":"ce4bgvp2rcd13ifvqcu0","pricing_plan_id":"free"},{"bike_id":"8cec4b6e-4f8c-409f-8354-db91ca933785","system_id":"levelo_inurba_marseille","lat":43.309038,"lon":5.396546,"is_reserved":false,"is_disabled":false,"rental_uris":{"android":"levelo://app?vid=8cec4b6e-4f8c-409f-8354-db91ca933785","ios":"levelo://app?vid=8cec4b6e-4f8c-409f-8354-db91ca933785"},"vehicle_type_id":"4","last_reported":1684181210,"current_range_meters":8800,"station_id":"ce4bh012rcd13ifvqcv0","pricing_plan_id":"free"},{"bike_id":"945a7229-f7de-4ecb-ad16-394f39ce166e","system_id":"levelo_inurba_marseille","lat":43.309038,"lon":5.396546,"is_reserved":false,"is_disabled":false,"rental_uris":{"android":"levelo://app?vid=945a7229-f7de-4ecb-ad16-394f39ce166e","ios":"levelo://app?vid=945a7229-f7de-4ecb-ad16-394f39ce166e"},"vehicle_type_id":"4","last_reported":1684181210,"current_range_meters":0,"station_id":"ce4bh012rcd13ifvqcv0","pricing_plan_id":"free"},{"bike_id":"e284ada4-469b-403a-8c9f-7388febaac16","system_id":"levelo_inurba_marseille","lat":43.31329,"lon":5.39683,"is_reserved":false,"is_disabled":false,"rental_uris":{"android":"levelo://app?vid=e284ada4-469b-403a-8c9f-7388febaac16","ios":"levelo://app?vid=e284ada4-469b-403a-8c9f-7388febaac16"},"vehicle_type_id":"4","last_reported":1684181210,"current_range_meters":0,"station_id":"ce4bgvp2rcd13ifvqcu0","pricing_plan_id":"free"},{"bike_id":"5bb394b4-a5ac-4e3b-a34c-f7d07a2ba07b","system_id":"levelo_inurba_marseille","lat":43.309038,"lon":5.396546,"is_reserved":false,"is_disabled":false,"rental_uris":{"android":"levelo://app?vid=5bb394b4-a5ac-4e3b-a34c-f7d07a2ba07b","ios":"levelo://app?vid=5bb394b4-a5ac-4e3b-a34c-f7d07a2ba07b"},"vehicle_type_id":"4","last_reported":1684181210,"current_range_meters":5200,"station_id":"ce4bh012rcd13ifvqcv0","pricing_plan_id":"free"},{"bike_id":"6825e468-bd2a-4601-8b1e-b07d648dc187","system_id":"levelo_inurba_marseille","lat":43.309038,"lon":5.396546,"is_reserved":false,"is_disabled":false,"rental_uris":{"android":"levelo://app?vid=6825e468-bd2a-4601-8b1e-b07d648dc187","ios":"levelo://app?vid=6825e468-bd2a-4601-8b1e-b07d648dc187"},"vehicle_type_id":"4","last_reported":1684181210,"current_range_meters":20400,"station_id":"ce4bh012rcd13ifvqcv0","pricing_plan_id":"free"},{"bike_id":"b65dc5a9-b161-4858-bd32-8682daa54c2c","system_id":"levelo_inurba_marseille","lat":43.309038,"lon":5.396546,"is_reserved":false,"is_disabled":false,"rental_uris":{"android":"levelo://app?vid=b65dc5a9-b161-4858-bd32-8682daa54c2c","ios":"levelo://app?vid=b65dc5a9-b161-4858-bd32-8682daa54c2c"},"vehicle_type_id":"4","last_reported":1684181210,"current_range_meters":19200,"station_id":"ce4bh012rcd13ifvqcv0","pricing_plan_id":"free"},{"bike_id":"b87c8218-cf38-4062-939e-9c970baed3fd","system_id":"levelo_inurba_marseille","lat":43.313372,"lon":5.396902,"is_reserved":false,"is_disabled":false,"rental_uris":{"android":"levelo://app?vid=b87c8218-cf38-4062-939e-9c970baed3fd","ios":"levelo://app?vid=b87c8218-cf38-4062-939e-9c970baed3fd"},"vehicle_type_id":"4","last_reported":1684181210,"current_range_meters":0,"station_id":"ce4bgvp2rcd13ifvqcu0","pricing_plan_id":"free"},{"bike_id":"f732d9a4-2e98-4ae2-ad41-ac892c11ff42","system_id":"levelo_inurba_marseille","lat":43.31327,"lon":5.39692,"is_reserved":false,"is_disabled":false,"rental_uris":{"android":"levelo://app?vid=f732d9a4-2e98-4ae2-ad41-ac892c11ff42","ios":"levelo://app?vid=f732d9a4-2e98-4ae2-ad41-ac892c11ff42"},"vehicle_type_id":"4","last_reported":1684181210,"current_range_meters":12000,"station_id":"ce4bgvp2rcd13ifvqcu0","pricing_plan_id":"free"},{"bike_id":"3bbf8571-c3ca-4f06-baee-bc5cd88e056a","system_id":"levelo_inurba_marseille","lat":43.3133,"lon":5.39694,"is_reserved":false,"is_disabled":false,"rental_uris":{"android":"levelo://app?vid=3bbf8571-c3ca-4f06-baee-bc5cd88e056a","ios":"levelo://app?vid=3bbf8571-c3ca-4f06-baee-bc5cd88e056a"},"vehicle_type_id":"4","last_reported":1684181210,"current_range_meters":9600,"station_id":"ce4bgvp2rcd13ifvqcu0","pricing_plan_id":"free"},{"bike_id":"eb0359cb-6e17-4d84-b9fc-ff0c56f14f1f","system_id":"levelo_inurba_marseille","lat":43.309038,"lon":5.396546,"is_reserved":false,"is_disabled":false,"rental_uris":{"android":"levelo://app?vid=eb0359cb-6e17-4d84-b9fc-ff0c56f14f1f","ios":"levelo://app?vid=eb0359cb-6e17-4d84-b9fc-ff0c56f14f1f"},"vehicle_type_id":"4","last_reported":1684181210,"current_range_meters":10000,"station_id":"ce4bh012rcd13ifvqcv0","pricing_plan_id":"free"},{"bike_id":"8c331635-570f-4fea-a291-134922223915","system_id":"levelo_inurba_marseille","lat":43.313291,"lon":5.396838,"is_reserved":false,"is_disabled":false,"rental_uris":{"android":"levelo://app?vid=8c331635-570f-4fea-a291-134922223915","ios":"levelo://app?vid=8c331635-570f-4fea-a291-134922223915"},"vehicle_type_id":"4","last_reported":1684181210,"current_range_meters":7200,"station_id":"ce4bgvp2rcd13ifvqcu0","pricing_plan_id":"free"},{"bike_id":"aff46fc3-fe79-4dde-a350-f4f9502815ad","system_id":"levelo_inurba_marseille","lat":43.309038,"lon":5.396546,"is_reserved":false,"is_disabled":false,"rental_uris":{"android":"levelo://app?vid=aff46fc3-fe79-4dde-a350-f4f9502815ad","ios":"levelo://app?vid=aff46fc3-fe79-4dde-a350-f4f9502815ad"},"vehicle_type_id":"4","last_reported":1684181210,"current_range_meters":800,"station_id":"ce4bh012rcd13ifvqcv0","pricing_plan_id":"free"},{"bike_id":"d1e3cb8b-55f8-40b0-a409-b74d193856ea","system_id":"levelo_inurba_marseille","lat":43.31323,"lon":5.39697,"is_reserved":false,"is_disabled":false,"rental_uris":{"android":"levelo://app?vid=d1e3cb8b-55f8-40b0-a409-b74d193856ea","ios":"levelo://app?vid=d1e3cb8b-55f8-40b0-a409-b74d193856ea"},"vehicle_type_id":"4","last_reported":1684181210,"current_range_meters":20800,"station_id":"ce4bgvp2rcd13ifvqcu0","pricing_plan_id":"free"},{"bike_id":"52ac4585-c689-4bbd-b451-ea4231d99aae","system_id":"levelo_inurba_marseille","lat":43.31326,"lon":5.39699,"is_reserved":false,"is_disabled":false,"rental_uris":{"android":"levelo://app?vid=52ac4585-c689-4bbd-b451-ea4231d99aae","ios":"levelo://app?vid=52ac4585-c689-4bbd-b451-ea4231d99aae"},"vehicle_type_id":"4","last_reported":1684181210,"current_range_meters":15200,"station_id":"ce4bgvp2rcd13ifvqcu0","pricing_plan_id":"free"},{"bike_id":"6d2bb92d-58a4-4619-9e46-f46813fb14a3","system_id":"levelo_inurba_marseille","lat":43.31323,"lon":5.397,"is_reserved":false,"is_disabled":false,"rental_uris":{"android":"levelo://app?vid=6d2bb92d-58a4-4619-9e46-f46813fb14a3","ios":"levelo://app?vid=6d2bb92d-58a4-4619-9e46-f46813fb14a3"},"vehicle_type_id":"4","last_reported":1684181210,"current_range_meters":11600,"station_id":"ce4bgvp2rcd13ifvqcu0","pricing_plan_id":"free"},{"bike_id":"536f814f-4b19-4750-a500-28ac8e4536e4","system_id":"levelo_inurba_marseille","lat":43.31321,"lon":5.39701,"is_reserved":false,"is_disabled":false,"rental_uris":{"android":"levelo://app?vid=536f814f-4b19-4750-a500-28ac8e4536e4","ios":"levelo://app?vid=536f814f-4b19-4750-a500-28ac8e4536e4"},"vehicle_type_id":"4","last_reported":1684181210,"current_range_meters":2400,"station_id":"ce4bgvp2rcd13ifvqcu0","pricing_plan_id":"free"},{"bike_id":"19fef844-16c3-4332-80b1-7b2c90ede161","system_id":"levelo_inurba_marseille","lat":43.309038,"lon":5.396546,"is_reserved":false,"is_disabled":false,"rental_uris":{"android":"levelo://app?vid=19fef844-16c3-4332-80b1-7b2c90ede161","ios":"levelo://app?vid=19fef844-16c3-4332-80b1-7b2c90ede161"},"vehicle_type_id":"4","last_reported":1684181210,"current_range_meters":4400,"station_id":"ce4bh012rcd13ifvqcv0","pricing_plan_id":"free"},{"bike_id":"acd1c982-a181-4c89-94c8-19bad1ee8422","system_id":"levelo_inurba_marseille","lat":43.309038,"lon":5.396546,"is_reserved":false,"is_disabled":false,"rental_uris":{"android":"levelo://app?vid=acd1c982-a181-4c89-94c8-19bad1ee8422","ios":"levelo://app?vid=acd1c982-a181-4c89-94c8-19bad1ee8422"},"vehicle_type_id":"4","last_reported":1684181210,"current_range_meters":0,"station_id":"ce4bh012rcd13ifvqcv0","pricing_plan_id":"free"},{"bike_id":"97e70b12-e5de-4d8a-998e-f5aae8d87c92","system_id":"levelo_inurba_marseille","lat":43.29529,"lon":5.38534,"is_reserved":false,"is_disabled":false,"rental_uris":{"android":"levelo://app?vid=97e70b12-e5de-4d8a-998e-f5aae8d87c92","ios":"levelo://app?vid=97e70b12-e5de-4d8a-998e-f5aae8d87c92"},"vehicle_type_id":"4","last_reported":1684181210,"current_range_meters":0,"station_id":"ce4bgih2rcd13ifvqba0","pricing_plan_id":"free"},{"bike_id":"504339d4-eb54-4ae1-b6f9-dd62dd2ac331","system_id":"levelo_inurba_marseille","lat":43.29529,"lon":5.385581,"is_reserved":false,"is_disabled":false,"rental_uris":{"android":"levelo://app?vid=504339d4-eb54-4ae1-b6f9-dd62dd2ac331","ios":"levelo://app?vid=504339d4-eb54-4ae1-b6f9-dd62dd2ac331"},"vehicle_type_id":"4","last_reported":1684181210,"current_range_meters":5600,"station_id":"ce4bgih2rcd13ifvqba0","pricing_plan_id":"free"},{"bike_id":"a5ecfa49-ad5f-4f5a-9ebc-c447c561257a","system_id":"levelo_inurba_marseille","lat":43.29597,"lon":5.38661,"is_reserved":false,"is_disabled":false,"rental_uris":{"android":"levelo://app?vid=a5ecfa49-ad5f-4f5a-9ebc-c447c561257a","ios":"levelo://app?vid=a5ecfa49-ad5f-4f5a-9ebc-c447c561257a"},"vehicle_type_id":"4","last_reported":1684181210,"current_range_meters":17600,"station_id":"","pricing_plan_id":"free"},{"bike_id":"99ae06cd-bad4-49da-bb06-c53b08021cec","system_id":"levelo_inurba_marseille","lat":43.29529,"lon":5.385581,"is_reserved":false,"is_disabled":false,"rental_uris":{"android":"levelo://app?vid=99ae06cd-bad4-49da-bb06-c53b08021cec","ios":"levelo://app?vid=99ae06cd-bad4-49da-bb06-c53b08021cec"},"vehicle_type_id":"4","last_reported":1684181210,"current_range_meters":0,"station_id":"ce4bgih2rcd13ifvqba0","pricing_plan_id":"free"},{"bike_id":"05587bb6-4437-44a3-8f3e-d3d8490478ea","system_id":"levelo_inurba_marseille","lat":43.294162,"lon":5.386292,"is_reserved":false,"is_disabled":false,"rental_uris":{"android":"levelo://app?vid=05587bb6-4437-44a3-8f3e-d3d8490478ea","ios":"levelo://app?vid=05587bb6-4437-44a3-8f3e-d3d8490478ea"},"vehicle_type_id":"4","last_reported":1684181210,"current_range_meters":400,"station_id":"ce4bh2h2rcd13ifvqdh0","pricing_plan_id":"free"},{"bike_id":"afca707a-2a39-4583-8f52-8cdf756651d3","system_id":"levelo_inurba_marseille","lat":43.294139,"lon":5.38621,"is_reserved":false,"is_disabled":false,"rental_uris":{"android":"levelo://app?vid=afca707a-2a39-4583-8f52-8cdf756651d3","ios":"levelo://app?vid=afca707a-2a39-4583-8f52-8cdf756651d3"},"vehicle_type_id":"4","last_reported":1684181210,"current_range_meters":8400,"station_id":"ce4bh0h2rcd13ifvqd60","pricing_plan_id":"free"},{"bike_id":"9c75c03a-0124-49d3-ac06-ad74368acad8","system_id":"levelo_inurba_marseille","lat":43.289184,"lon":5.366408,"is_reserved":false,"is_disabled":false,"rental_uris":{"android":"levelo://app?vid=9c75c03a-0124-49d3-ac06-ad74368acad8","ios":"levelo://app?vid=9c75c03a-0124-49d3-ac06-ad74368acad8"},"vehicle_type_id":"4","last_reported":1684181210,"current_range_meters":3600,"station_id":"ce4bhap2rcd13ifvqek0","pricing_plan_id":"free"},{"bike_id":"26590f43-dcfa-4683-935a-13ee4a2cf22a","system_id":"levelo_inurba_marseille","lat":43.289468,"lon":5.363719,"is_reserved":false,"is_disabled":false,"rental_uris":{"android":"levelo://app?vid=26590f43-dcfa-4683-935a-13ee4a2cf22a","ios":"levelo://app?vid=26590f43-dcfa-4683-935a-13ee4a2cf22a"},"vehicle_type_id":"4","last_reported":1684181210,"current_range_meters":24000,"station_id":"ce4bhc92rcd13ifvqetg","pricing_plan_id":"free"},{"bike_id":"ec21460b-4cd6-4b03-87a3-f7757bff4950","system_id":"levelo_inurba_marseille","lat":43.289184,"lon":5.366408,"is_reserved":false,"is_disabled":false,"rental_uris":{"android":"levelo://app?vid=ec21460b-4cd6-4b03-87a3-f7757bff4950","ios":"levelo://app?vid=ec21460b-4cd6-4b03-87a3-f7757bff4950"},"vehicle_type_id":"4","last_reported":1684181210,"current_range_meters":19200,"station_id":"ce4bhap2rcd13ifvqek0","pricing_plan_id":"free"},{"bike_id":"e34e6164-43ee-45a4-aec8-6d6d9d61b2cd","system_id":"levelo_inurba_marseille","lat":43.292642,"lon":5.384254,"is_reserved":false,"is_disabled":false,"rental_uris":{"android":"levelo://app?vid=e34e6164-43ee-45a4-aec8-6d6d9d61b2cd","ios":"levelo://app?vid=e34e6164-43ee-45a4-aec8-6d6d9d61b2cd"},"vehicle_type_id":"4","last_reported":1684181210,"current_range_meters":13200,"station_id":"ce4bh692rcd13ifvqea0","pricing_plan_id":"free"},{"bike_id":"feb0829c-bb6f-475f-9be4-f42203e15252","system_id":"levelo_inurba_marseille","lat":43.292644,"lon":5.384257,"is_reserved":false,"is_disabled":false,"rental_uris":{"android":"levelo://app?vid=feb0829c-bb6f-475f-9be4-f42203e15252","ios":"levelo://app?vid=feb0829c-bb6f-475f-9be4-f42203e15252"},"vehicle_type_id":"4","last_reported":1684181210,"current_range_meters":6400,"station_id":"ce4bh692rcd13ifvqea0","pricing_plan_id":"free"},{"bike_id":"8c579071-9709-4056-aa8e-739f34474865","system_id":"levelo_inurba_marseille","lat":43.292644,"lon":5.384257,"is_reserved":false,"is_disabled":false,"rental_uris":{"android":"levelo://app?vid=8c579071-9709-4056-aa8e-739f34474865","ios":"levelo://app?vid=8c579071-9709-4056-aa8e-739f34474865"},"vehicle_type_id":"4","last_reported":1684181210,"current_range_meters":31200,"station_id":"ce4bh692rcd13ifvqea0","pricing_plan_id":"free"},{"bike_id":"6ed7fb94-9b2c-494a-a45c-f94076a8074b","system_id":"levelo_inurba_marseille","lat":43.292644,"lon":5.384257,"is_reserved":false,"is_disabled":false,"rental_uris":{"android":"levelo://app?vid=6ed7fb94-9b2c-494a-a45c-f94076a8074b","ios":"levelo://app?vid=6ed7fb94-9b2c-494a-a45c-f94076a8074b"},"vehicle_type_id":"4","last_reported":1684181210,"current_range_meters":26000,"station_id":"ce4bh692rcd13ifvqea0","pricing_plan_id":"free"},{"bike_id":"dc811be1-f27e-44b8-a981-b26decf78c4c","system_id":"levelo_inurba_marseille","lat":43.33039,"lon":5.38916,"is_reserved":false,"is_disabled":false,"rental_uris":{"android":"levelo://app?vid=dc811be1-f27e-44b8-a981-b26decf78c4c","ios":"levelo://app?vid=dc811be1-f27e-44b8-a981-b26decf78c4c"},"vehicle_type_id":"4","last_reported":1684181210,"current_range_meters":31200,"station_id":"ce4bhr92rcd13ifvqhrg","pricing_plan_id":"free"},{"bike_id":"030b9231-c3b2-411e-ae6d-e65516608c7a","system_id":"levelo_inurba_marseille","lat":43.33041,"lon":5.38916,"is_reserved":false,"is_disabled":false,"rental_uris":{"android":"levelo://app?vid=030b9231-c3b2-411e-ae6d-e65516608c7a","ios":"levelo://app?vid=030b9231-c3b2-411e-ae6d-e65516608c7a"},"vehicle_type_id":"4","last_reported":1684181210,"current_range_meters":19600,"station_id":"ce4bhr92rcd13ifvqhrg","pricing_plan_id":"free"},{"bike_id":"8fed593d-e041-48a5-97b4-87fa0bd07169","system_id":"levelo_inurba_marseille","lat":43.33043,"lon":5.38916,"is_reserved":false,"is_disabled":false,"rental_uris":{"android":"levelo://app?vid=8fed593d-e041-48a5-97b4-87fa0bd07169","ios":"levelo://app?vid=8fed593d-e041-48a5-97b4-87fa0bd07169"},"vehicle_type_id":"4","last_reported":1684181210,"current_range_meters":28400,"station_id":"ce4bhr92rcd13ifvqhrg","pricing_plan_id":"free"},{"bike_id":"a0d2163e-1f3c-45fb-ac7a-b360ff538a92","system_id":"levelo_inurba_marseille","lat":43.330419,"lon":5.38918,"is_reserved":false,"is_disabled":false,"rental_uris":{"android":"levelo://app?vid=a0d2163e-1f3c-45fb-ac7a-b360ff538a92","ios":"levelo://app?vid=a0d2163e-1f3c-45fb-ac7a-b360ff538a92"},"vehicle_type_id":"4","last_reported":1684181210,"current_range_meters":31200,"station_id":"ce4bhr92rcd13ifvqhrg","pricing_plan_id":"free"},{"bike_id":"7caaf9c3-313c-46f8-9371-f28dca77d2c2","system_id":"levelo_inurba_marseille","lat":43.33037,"lon":5.38927,"is_reserved":false,"is_disabled":false,"rental_uris":{"android":"levelo://app?vid=7caaf9c3-313c-46f8-9371-f28dca77d2c2","ios":"levelo://app?vid=7caaf9c3-313c-46f8-9371-f28dca77d2c2"},"vehicle_type_id":"4","last_reported":1684181210,"current_range_meters":1200,"station_id":"ce4bhr92rcd13ifvqhrg","pricing_plan_id":"free"},{"bike_id":"7c9f71ef-b77f-4c03-9f45-a7decfddcc77","system_id":"levelo_inurba_marseille","lat":43.33042,"lon":5.38923,"is_reserved":false,"is_disabled":false,"rental_uris":{"android":"levelo://app?vid=7c9f71ef-b77f-4c03-9f45-a7decfddcc77","ios":"levelo://app?vid=7c9f71ef-b77f-4c03-9f45-a7decfddcc77"},"vehicle_type_id":"4","last_reported":1684181210,"current_range_meters":30000,"station_id":"ce4bhr92rcd13ifvqhrg","pricing_plan_id":"free"},{"bike_id":"d1207b2e-3cb5-421b-ba98-79f633aa28c4","system_id":"levelo_inurba_marseille","lat":43.33049,"lon":5.38916,"is_reserved":false,"is_disabled":false,"rental_uris":{"android":"levelo://app?vid=d1207b2e-3cb5-421b-ba98-79f633aa28c4","ios":"levelo://app?vid=d1207b2e-3cb5-421b-ba98-79f633aa28c4"},"vehicle_type_id":"4","last_reported":1684181210,"current_range_meters":28400,"station_id":"ce4bhr92rcd13ifvqhrg","pricing_plan_id":"free"},{"bike_id":"ff80f65b-2b1e-4aea-a21d-dde4e0c26c13","system_id":"levelo_inurba_marseille","lat":43.290995,"lon":5.381361,"is_reserved":false,"is_disabled":false,"rental_uris":{"android":"levelo://app?vid=ff80f65b-2b1e-4aea-a21d-dde4e0c26c13","ios":"levelo://app?vid=ff80f65b-2b1e-4aea-a21d-dde4e0c26c13"},"vehicle_type_id":"4","last_reported":1684181210,"current_range_meters":2000,"station_id":"ce4bh512rcd13ifvqe2g","pricing_plan_id":"free"},{"bike_id":"66c89740-f84f-40e4-8ea5-e4228d14d84a","system_id":"levelo_inurba_marseille","lat":43.290995,"lon":5.381361,"is_reserved":false,"is_disabled":false,"rental_uris":{"android":"levelo://app?vid=66c89740-f84f-40e4-8ea5-e4228d14d84a","ios":"levelo://app?vid=66c89740-f84f-40e4-8ea5-e4228d14d84a"},"vehicle_type_id":"4","last_reported":1684181210,"current_range_meters":26400,"station_id":"ce4bh512rcd13ifvqe2g","pricing_plan_id":"free"},{"bike_id":"fcd3fe5f-a0c5-44e6-afb4-44026894a1e9","system_id":"levelo_inurba_marseille","lat":43.290974,"lon":5.381315,"is_reserved":false,"is_disabled":false,"rental_uris":{"android":"levelo://app?vid=fcd3fe5f-a0c5-44e6-afb4-44026894a1e9","ios":"levelo://app?vid=fcd3fe5f-a0c5-44e6-afb4-44026894a1e9"},"vehicle_type_id":"4","last_reported":1684181210,"current_range_meters":12400,"station_id":"","pricing_plan_id":"free"},{"bike_id":"64828839-76b5-4c64-b4eb-d0123573055a","system_id":"levelo_inurba_marseille","lat":43.289743,"lon":5.378304,"is_reserved":false,"is_disabled":false,"rental_uris":{"android":"levelo://app?vid=64828839-76b5-4c64-b4eb-d0123573055a","ios":"levelo://app?vid=64828839-76b5-4c64-b4eb-d0123573055a"},"vehicle_type_id":"4","last_reported":1684181210,"current_range_meters":400,"station_id":"ce4bh9p2rcd13ifvqed0","pricing_plan_id":"free"},{"bike_id":"cb44108f-856c-4b7d-bbd4-cccb4f34a85c","system_id":"levelo_inurba_marseille","lat":43.295169,"lon":5.390426,"is_reserved":false,"is_disabled":false,"rental_uris":{"android":"levelo://app?vid=cb44108f-856c-4b7d-bbd4-cccb4f34a85c","ios":"levelo://app?vid=cb44108f-856c-4b7d-bbd4-cccb4f34a85c"},"vehicle_type_id":"4","last_reported":1684181210,"current_range_meters":800,"station_id":"ce4bh3p2rcd13ifvqdp0","pricing_plan_id":"free"},{"bike_id":"53cebd48-f495-44eb-b056-4474e0d08ed7","system_id":"levelo_inurba_marseille","lat":43.29015,"lon":5.3814,"is_reserved":false,"is_disabled":false,"rental_uris":{"android":"levelo://app?vid=53cebd48-f495-44eb-b056-4474e0d08ed7","ios":"levelo://app?vid=53cebd48-f495-44eb-b056-4474e0d08ed7"},"vehicle_type_id":"4","last_reported":1684181210,"current_range_meters":0,"station_id":"ce4bh4p2rcd13ifvqe1g","pricing_plan_id":"free"},{"bike_id":"b50f926e-0d92-49d5-8ab1-a6ead8e80ac0","system_id":"levelo_inurba_marseille","lat":43.28856,"lon":5.35853,"is_reserved":false,"is_disabled":false,"rental_uris":{"android":"levelo://app?vid=b50f926e-0d92-49d5-8ab1-a6ead8e80ac0","ios":"levelo://app?vid=b50f926e-0d92-49d5-8ab1-a6ead8e80ac0"},"vehicle_type_id":"4","last_reported":1684181210,"current_range_meters":400,"station_id":"ce4bhb12rcd13ifvqem0","pricing_plan_id":"free"},{"bike_id":"a644ae46-7eab-4ece-b842-a78fc03eaa6b","system_id":"levelo_inurba_marseille","lat":43.337328,"lon":5.374538,"is_reserved":false,"is_disabled":false,"rental_uris":{"android":"levelo://app?vid=a644ae46-7eab-4ece-b842-a78fc03eaa6b","ios":"levelo://app?vid=a644ae46-7eab-4ece-b842-a78fc03eaa6b"},"vehicle_type_id":"4","last_reported":1684181210,"current_range_meters":22400,"station_id":"ce4bhah2rcd13ifvqei0","pricing_plan_id":"free"},{"bike_id":"0aaf129a-7f4a-4b0c-837f-833be83b7a49","system_id":"levelo_inurba_marseille","lat":43.337436,"lon":5.374627,"is_reserved":false,"is_disabled":false,"rental_uris":{"android":"levelo://app?vid=0aaf129a-7f4a-4b0c-837f-833be83b7a49","ios":"levelo://app?vid=0aaf129a-7f4a-4b0c-837f-833be83b7a49"},"vehicle_type_id":"4","last_reported":1684181210,"current_range_meters":22800,"station_id":"ce4bhnp2rcd13ifvqgvg","pricing_plan_id":"free"},{"bike_id":"e76dbf32-115d-472e-8e1f-40fff4c31414","system_id":"levelo_inurba_marseille","lat":43.33751,"lon":5.37468,"is_reserved":false,"is_disabled":false,"rental_uris":{"android":"levelo://app?vid=e76dbf32-115d-472e-8e1f-40fff4c31414","ios":"levelo://app?vid=e76dbf32-115d-472e-8e1f-40fff4c31414"},"vehicle_type_id":"4","last_reported":1684181210,"current_range_meters":25600,"station_id":"","pricing_plan_id":"free"},{"bike_id":"bf969a29-a67a-4214-b689-0a41adc783f7","system_id":"levelo_inurba_marseille","lat":43.337493,"lon":5.374807,"is_reserved":false,"is_disabled":false,"rental_uris":{"android":"levelo://app?vid=bf969a29-a67a-4214-b689-0a41adc783f7","ios":"levelo://app?vid=bf969a29-a67a-4214-b689-0a41adc783f7"},"vehicle_type_id":"4","last_reported":1684181210,"current_range_meters":29600,"station_id":"","pricing_plan_id":"free"},{"bike_id":"757ccc8b-c0f0-43bc-9389-dca280934b31","system_id":"levelo_inurba_marseille","lat":43.30642,"lon":5.401031,"is_reserved":false,"is_disabled":false,"rental_uris":{"android":"levelo://app?vid=757ccc8b-c0f0-43bc-9389-dca280934b31","ios":"levelo://app?vid=757ccc8b-c0f0-43bc-9389-dca280934b31"},"vehicle_type_id":"4","last_reported":1684181210,"current_range_meters":6800,"station_id":"ce4bh112rcd13ifvqda0","pricing_plan_id":"free"},{"bike_id":"813d4a8b-9ad8-4d3a-8b70-7af3f4d37c5c","system_id":"levelo_inurba_marseille","lat":43.33765,"lon":5.37435,"is_reserved":false,"is_disabled":false,"rental_uris":{"android":"levelo://app?vid=813d4a8b-9ad8-4d3a-8b70-7af3f4d37c5c","ios":"levelo://app?vid=813d4a8b-9ad8-4d3a-8b70-7af3f4d37c5c"},"vehicle_type_id":"4","last_reported":1684181210,"current_range_meters":28800,"station_id":"ce4rr2p2rcd13i802rgg","pricing_plan_id":"free"},{"bike_id":"18667d68-899a-4218-a180-1d6b89c2bae6","system_id":"levelo_inurba_marseille","lat":43.30642,"lon":5.401031,"is_reserved":false,"is_disabled":false,"rental_uris":{"android":"levelo://app?vid=18667d68-899a-4218-a180-1d6b89c2bae6","ios":"levelo://app?vid=18667d68-899a-4218-a180-1d6b89c2bae6"},"vehicle_type_id":"4","last_reported":1684181210,"current_range_meters":20000,"station_id":"ce4bh112rcd13ifvqda0","pricing_plan_id":"free"},{"bike_id":"53f48844-1540-4a98-aaa9-e8d8fbc3fa72","system_id":"levelo_inurba_marseille","lat":43.30642,"lon":5.401031,"is_reserved":false,"is_disabled":false,"rental_uris":{"android":"levelo://app?vid=53f48844-1540-4a98-aaa9-e8d8fbc3fa72","ios":"levelo://app?vid=53f48844-1540-4a98-aaa9-e8d8fbc3fa72"},"vehicle_type_id":"4","last_reported":1684181210,"current_range_meters":24400,"station_id":"ce4bh112rcd13ifvqda0","pricing_plan_id":"free"},{"bike_id":"751d26f5-57ad-439f-aa32-9562984ab0db","system_id":"levelo_inurba_marseille","lat":43.30642,"lon":5.401031,"is_reserved":false,"is_disabled":false,"rental_uris":{"android":"levelo://app?vid=751d26f5-57ad-439f-aa32-9562984ab0db","ios":"levelo://app?vid=751d26f5-57ad-439f-aa32-9562984ab0db"},"vehicle_type_id":"4","last_reported":1684181210,"current_range_meters":2400,"station_id":"ce4bh112rcd13ifvqda0","pricing_plan_id":"free"},{"bike_id":"e3868811-efd8-433e-83e6-6a9a136ad5ee","system_id":"levelo_inurba_marseille","lat":43.301117,"lon":5.398795,"is_reserved":false,"is_disabled":false,"rental_uris":{"android":"levelo://app?vid=e3868811-efd8-433e-83e6-6a9a136ad5ee","ios":"levelo://app?vid=e3868811-efd8-433e-83e6-6a9a136ad5ee"},"vehicle_type_id":"4","last_reported":1684181210,"current_range_meters":8800,"station_id":"ce4bh0h2rcd13ifvqd40","pricing_plan_id":"free"},{"bike_id":"615ca6c4-65cb-4b8f-87b6-8e6e436c5b1f","system_id":"levelo_inurba_marseille","lat":43.301117,"lon":5.398795,"is_reserved":false,"is_disabled":false,"rental_uris":{"android":"levelo://app?vid=615ca6c4-65cb-4b8f-87b6-8e6e436c5b1f","ios":"levelo://app?vid=615ca6c4-65cb-4b8f-87b6-8e6e436c5b1f"},"vehicle_type_id":"4","last_reported":1684181210,"current_range_meters":2800,"station_id":"ce4bh0h2rcd13ifvqd40","pricing_plan_id":"free"},{"bike_id":"c428c559-7f01-4beb-87e6-64eb4d3dcc87","system_id":"levelo_inurba_marseille","lat":43.298681,"lon":5.397225,"is_reserved":false,"is_disabled":false,"rental_uris":{"android":"levelo://app?vid=c428c559-7f01-4beb-87e6-64eb4d3dcc87","ios":"levelo://app?vid=c428c559-7f01-4beb-87e6-64eb4d3dcc87"},"vehicle_type_id":"4","last_reported":1684181210,"current_range_meters":19600,"station_id":"ce4bh0h2rcd13ifvqd50","pricing_plan_id":"free"},{"bike_id":"3e021ad4-c0e7-4dd9-8b4c-9f20e805531a","system_id":"levelo_inurba_marseille","lat":43.298681,"lon":5.397225,"is_reserved":false,"is_disabled":false,"rental_uris":{"android":"levelo://app?vid=3e021ad4-c0e7-4dd9-8b4c-9f20e805531a","ios":"levelo://app?vid=3e021ad4-c0e7-4dd9-8b4c-9f20e805531a"},"vehicle_type_id":"4","last_reported":1684181210,"current_range_meters":3600,"station_id":"ce4bh0h2rcd13ifvqd50","pricing_plan_id":"free"},{"bike_id":"f4f9158e-2480-45ae-a4ff-48a0306434f1","system_id":"levelo_inurba_marseille","lat":43.295196,"lon":5.39397,"is_reserved":false,"is_disabled":false,"rental_uris":{"android":"levelo://app?vid=f4f9158e-2480-45ae-a4ff-48a0306434f1","ios":"levelo://app?vid=f4f9158e-2480-45ae-a4ff-48a0306434f1"},"vehicle_type_id":"4","last_reported":1684181210,"current_range_meters":28400,"station_id":"ce4bh292rcd13ifvqdf0","pricing_plan_id":"free"},{"bike_id":"e2818edc-4c89-4b9f-92e1-db069f3f6a89","system_id":"levelo_inurba_marseille","lat":43.298681,"lon":5.397225,"is_reserved":false,"is_disabled":false,"rental_uris":{"android":"levelo://app?vid=e2818edc-4c89-4b9f-92e1-db069f3f6a89","ios":"levelo://app?vid=e2818edc-4c89-4b9f-92e1-db069f3f6a89"},"vehicle_type_id":"4","last_reported":1684181210,"current_range_meters":10400,"station_id":"ce4bh0h2rcd13ifvqd50","pricing_plan_id":"free"},{"bike_id":"da7311f0-50f9-45c7-9cda-84447bc44ae4","system_id":"levelo_inurba_marseille","lat":43.298681,"lon":5.397225,"is_reserved":false,"is_disabled":false,"rental_uris":{"android":"levelo://app?vid=da7311f0-50f9-45c7-9cda-84447bc44ae4","ios":"levelo://app?vid=da7311f0-50f9-45c7-9cda-84447bc44ae4"},"vehicle_type_id":"4","last_reported":1684181210,"current_range_meters":20000,"station_id":"ce4bh0h2rcd13ifvqd50","pricing_plan_id":"free"},{"bike_id":"de576ebb-dddf-44bb-bffc-bf22d4afe3f9","system_id":"levelo_inurba_marseille","lat":43.298681,"lon":5.397225,"is_reserved":false,"is_disabled":false,"rental_uris":{"android":"levelo://app?vid=de576ebb-dddf-44bb-bffc-bf22d4afe3f9","ios":"levelo://app?vid=de576ebb-dddf-44bb-bffc-bf22d4afe3f9"},"vehicle_type_id":"4","last_reported":1684181210,"current_range_meters":8000,"station_id":"ce4bh0h2rcd13ifvqd50","pricing_plan_id":"free"},{"bike_id":"1ba60ae9-dbc6-458c-8e6b-235bedf4b102","system_id":"levelo_inurba_marseille","lat":43.298681,"lon":5.397225,"is_reserved":false,"is_disabled":false,"rental_uris":{"android":"levelo://app?vid=1ba60ae9-dbc6-458c-8e6b-235bedf4b102","ios":"levelo://app?vid=1ba60ae9-dbc6-458c-8e6b-235bedf4b102"},"vehicle_type_id":"4","last_reported":1684181210,"current_range_meters":4000,"station_id":"ce4bh0h2rcd13ifvqd50","pricing_plan_id":"free"},{"bike_id":"b9cad181-6f93-4687-8cfc-2807ff743c71","system_id":"levelo_inurba_marseille","lat":43.286593,"lon":5.363346,"is_reserved":false,"is_disabled":false,"rental_uris":{"android":"levelo://app?vid=b9cad181-6f93-4687-8cfc-2807ff743c71","ios":"levelo://app?vid=b9cad181-6f93-4687-8cfc-2807ff743c71"},"vehicle_type_id":"4","last_reported":1684181210,"current_range_meters":8400,"station_id":"ce4bhah2rcd13ifvqej0","pricing_plan_id":"free"},{"bike_id":"ef4d4385-d924-459c-9f32-87cafb724cec","system_id":"levelo_inurba_marseille","lat":43.298681,"lon":5.397225,"is_reserved":false,"is_disabled":false,"rental_uris":{"android":"levelo://app?vid=ef4d4385-d924-459c-9f32-87cafb724cec","ios":"levelo://app?vid=ef4d4385-d924-459c-9f32-87cafb724cec"},"vehicle_type_id":"4","last_reported":1684181210,"current_range_meters":27600,"station_id":"ce4bh0h2rcd13ifvqd50","pricing_plan_id":"free"},{"bike_id":"d32d3d76-cd04-4c1e-9b0e-5b5af0f227b6","system_id":"levelo_inurba_marseille","lat":43.295194,"lon":5.39397,"is_reserved":false,"is_disabled":false,"rental_uris":{"android":"levelo://app?vid=d32d3d76-cd04-4c1e-9b0e-5b5af0f227b6","ios":"levelo://app?vid=d32d3d76-cd04-4c1e-9b0e-5b5af0f227b6"},"vehicle_type_id":"4","last_reported":1684181210,"current_range_meters":22800,"station_id":"ce4bh292rcd13ifvqdf0","pricing_plan_id":"free"},{"bike_id":"a893aa3a-8a11-4732-9ef1-47e10478da44","system_id":"levelo_inurba_marseille","lat":43.295194,"lon":5.39397,"is_reserved":false,"is_disabled":false,"rental_uris":{"android":"levelo://app?vid=a893aa3a-8a11-4732-9ef1-47e10478da44","ios":"levelo://app?vid=a893aa3a-8a11-4732-9ef1-47e10478da44"},"vehicle_type_id":"4","last_reported":1684181210,"current_range_meters":15600,"station_id":"ce4bh292rcd13ifvqdf0","pricing_plan_id":"free"},{"bike_id":"875ba58c-306f-46d9-81d6-69e5712bb426","system_id":"levelo_inurba_marseille","lat":43.295194,"lon":5.39397,"is_reserved":false,"is_disabled":false,"rental_uris":{"android":"levelo://app?vid=875ba58c-306f-46d9-81d6-69e5712bb426","ios":"levelo://app?vid=875ba58c-306f-46d9-81d6-69e5712bb426"},"vehicle_type_id":"4","last_reported":1684181210,"current_range_meters":8400,"station_id":"ce4bh292rcd13ifvqdf0","pricing_plan_id":"free"},{"bike_id":"590173a9-6fb4-47cc-b8c3-a3d3029b974b","system_id":"levelo_inurba_marseille","lat":43.295194,"lon":5.39397,"is_reserved":false,"is_disabled":false,"rental_uris":{"android":"levelo://app?vid=590173a9-6fb4-47cc-b8c3-a3d3029b974b","ios":"levelo://app?vid=590173a9-6fb4-47cc-b8c3-a3d3029b974b"},"vehicle_type_id":"4","last_reported":1684181210,"current_range_meters":22000,"station_id":"ce4bh292rcd13ifvqdf0","pricing_plan_id":"free"},{"bike_id":"ae28b5f1-5a14-4ac0-919a-f7af664062dd","system_id":"levelo_inurba_marseille","lat":43.295196,"lon":5.39397,"is_reserved":false,"is_disabled":false,"rental_uris":{"android":"levelo://app?vid=ae28b5f1-5a14-4ac0-919a-f7af664062dd","ios":"levelo://app?vid=ae28b5f1-5a14-4ac0-919a-f7af664062dd"},"vehicle_type_id":"4","last_reported":1684181210,"current_range_meters":23200,"station_id":"ce4bh292rcd13ifvqdf0","pricing_plan_id":"free"},{"bike_id":"6d4bc18a-c6f1-4019-a672-6826f4f37fbc","system_id":"levelo_inurba_marseille","lat":43.290336,"lon":5.386425,"is_reserved":false,"is_disabled":false,"rental_uris":{"android":"levelo://app?vid=6d4bc18a-c6f1-4019-a672-6826f4f37fbc","ios":"levelo://app?vid=6d4bc18a-c6f1-4019-a672-6826f4f37fbc"},"vehicle_type_id":"4","last_reported":1684181210,"current_range_meters":4000,"station_id":"ce4bh4p2rcd13ifvqe0g","pricing_plan_id":"free"},{"bike_id":"d7713585-46da-4941-94ca-093503e02051","system_id":"levelo_inurba_marseille","lat":43.29026,"lon":5.38637,"is_reserved":false,"is_disabled":false,"rental_uris":{"android":"levelo://app?vid=d7713585-46da-4941-94ca-093503e02051","ios":"levelo://app?vid=d7713585-46da-4941-94ca-093503e02051"},"vehicle_type_id":"4","last_reported":1684181210,"current_range_meters":31200,"station_id":"","pricing_plan_id":"free"},{"bike_id":"aa63693b-4deb-4e6d-8ea5-284927b6e055","system_id":"levelo_inurba_marseille","lat":43.302759,"lon":5.400793,"is_reserved":false,"is_disabled":false,"rental_uris":{"android":"levelo://app?vid=aa63693b-4deb-4e6d-8ea5-284927b6e055","ios":"levelo://app?vid=aa63693b-4deb-4e6d-8ea5-284927b6e055"},"vehicle_type_id":"4","last_reported":1684181210,"current_range_meters":31200,"station_id":"ce4bgvh2rcd13ifvqcs0","pricing_plan_id":"free"},{"bike_id":"be0275ce-f12e-4860-8283-35b491f9fdb9","system_id":"levelo_inurba_marseille","lat":43.290336,"lon":5.386425,"is_reserved":false,"is_disabled":false,"rental_uris":{"android":"levelo://app?vid=be0275ce-f12e-4860-8283-35b491f9fdb9","ios":"levelo://app?vid=be0275ce-f12e-4860-8283-35b491f9fdb9"},"vehicle_type_id":"4","last_reported":1684181210,"current_range_meters":400,"station_id":"ce4bh4p2rcd13ifvqe0g","pricing_plan_id":"free"},{"bike_id":"19c10a87-75b0-4637-8d3f-de96ddb941ef","system_id":"levelo_inurba_marseille","lat":43.287184,"lon":5.37937,"is_reserved":false,"is_disabled":false,"rental_uris":{"android":"levelo://app?vid=19c10a87-75b0-4637-8d3f-de96ddb941ef","ios":"levelo://app?vid=19c10a87-75b0-4637-8d3f-de96ddb941ef"},"vehicle_type_id":"4","last_reported":1684181210,"current_range_meters":27600,"station_id":"ce4bh9p2rcd13ifvqec0","pricing_plan_id":"free"},{"bike_id":"61711388-1420-4628-8de5-54fc724adc75","system_id":"levelo_inurba_marseille","lat":43.287184,"lon":5.37937,"is_reserved":false,"is_disabled":false,"rental_uris":{"android":"levelo://app?vid=61711388-1420-4628-8de5-54fc724adc75","ios":"levelo://app?vid=61711388-1420-4628-8de5-54fc724adc75"},"vehicle_type_id":"4","last_reported":1684181210,"current_range_meters":19600,"station_id":"ce4bh9p2rcd13ifvqec0","pricing_plan_id":"free"},{"bike_id":"fde899de-0f2b-47bd-8eb7-dae066e40b1e","system_id":"levelo_inurba_marseille","lat":43.287185,"lon":5.379373,"is_reserved":false,"is_disabled":false,"rental_uris":{"android":"levelo://app?vid=fde899de-0f2b-47bd-8eb7-dae066e40b1e","ios":"levelo://app?vid=fde899de-0f2b-47bd-8eb7-dae066e40b1e"},"vehicle_type_id":"4","last_reported":1684181210,"current_range_meters":27600,"station_id":"ce4bh9p2rcd13ifvqec0","pricing_plan_id":"free"},{"bike_id":"33e7f1b7-b523-4ef3-b6d9-04e6a726ea72","system_id":"levelo_inurba_marseille","lat":43.287185,"lon":5.379373,"is_reserved":false,"is_disabled":false,"rental_uris":{"android":"levelo://app?vid=33e7f1b7-b523-4ef3-b6d9-04e6a726ea72","ios":"levelo://app?vid=33e7f1b7-b523-4ef3-b6d9-04e6a726ea72"},"vehicle_type_id":"4","last_reported":1684181210,"current_range_meters":7200,"station_id":"ce4bh9p2rcd13ifvqec0","pricing_plan_id":"free"},{"bike_id":"e1521b20-58e9-490b-8406-dedc8f9e94f9","system_id":"levelo_inurba_marseille","lat":43.287185,"lon":5.379373,"is_reserved":false,"is_disabled":false,"rental_uris":{"android":"levelo://app?vid=e1521b20-58e9-490b-8406-dedc8f9e94f9","ios":"levelo://app?vid=e1521b20-58e9-490b-8406-dedc8f9e94f9"},"vehicle_type_id":"4","last_reported":1684181210,"current_range_meters":4000,"station_id":"ce4bh9p2rcd13ifvqec0","pricing_plan_id":"free"},{"bike_id":"70cd5c5c-9ca7-49b4-ae44-e0ce806bffe2","system_id":"levelo_inurba_marseille","lat":43.316447,"lon":5.404321,"is_reserved":false,"is_disabled":false,"rental_uris":{"android":"levelo://app?vid=70cd5c5c-9ca7-49b4-ae44-e0ce806bffe2","ios":"levelo://app?vid=70cd5c5c-9ca7-49b4-ae44-e0ce806bffe2"},"vehicle_type_id":"4","last_reported":1684181210,"current_range_meters":4800,"station_id":"","pricing_plan_id":"free"},{"bike_id":"403985ce-7977-4e08-bb4c-21fbd91014eb","system_id":"levelo_inurba_marseille","lat":43.316517,"lon":5.404375,"is_reserved":false,"is_disabled":false,"rental_uris":{"android":"levelo://app?vid=403985ce-7977-4e08-bb4c-21fbd91014eb","ios":"levelo://app?vid=403985ce-7977-4e08-bb4c-21fbd91014eb"},"vehicle_type_id":"4","last_reported":1684181210,"current_range_meters":30000,"station_id":"ce4bh012rcd13ifvqd00","pricing_plan_id":"free"},{"bike_id":"aa47347f-8e42-4bf6-bbd0-1a5ad05633ba","system_id":"levelo_inurba_marseille","lat":43.316517,"lon":5.404375,"is_reserved":false,"is_disabled":false,"rental_uris":{"android":"levelo://app?vid=aa47347f-8e42-4bf6-bbd0-1a5ad05633ba","ios":"levelo://app?vid=aa47347f-8e42-4bf6-bbd0-1a5ad05633ba"},"vehicle_type_id":"4","last_reported":1684181210,"current_range_meters":8000,"station_id":"ce4bh012rcd13ifvqd00","pricing_plan_id":"free"},{"bike_id":"4d7f8431-4c30-4515-9852-8c47ea4a8322","system_id":"levelo_inurba_marseille","lat":43.291994,"lon":5.392907,"is_reserved":false,"is_disabled":false,"rental_uris":{"android":"levelo://app?vid=4d7f8431-4c30-4515-9852-8c47ea4a8322","ios":"levelo://app?vid=4d7f8431-4c30-4515-9852-8c47ea4a8322"},"vehicle_type_id":"4","last_reported":1684181210,"current_range_meters":5200,"station_id":"ce4bh192rcd13ifvqdd0","pricing_plan_id":"free"},{"bike_id":"4a1dc33a-1cc7-483d-955e-7f0ed75ff79a","system_id":"levelo_inurba_marseille","lat":43.291994,"lon":5.392907,"is_reserved":false,"is_disabled":false,"rental_uris":{"android":"levelo://app?vid=4a1dc33a-1cc7-483d-955e-7f0ed75ff79a","ios":"levelo://app?vid=4a1dc33a-1cc7-483d-955e-7f0ed75ff79a"},"vehicle_type_id":"4","last_reported":1684181210,"current_range_meters":30800,"station_id":"ce4bh192rcd13ifvqdd0","pricing_plan_id":"free"},{"bike_id":"91d10efa-f5c0-468c-8c23-dd728787f52c","system_id":"levelo_inurba_marseille","lat":43.291994,"lon":5.392907,"is_reserved":false,"is_disabled":false,"rental_uris":{"android":"levelo://app?vid=91d10efa-f5c0-468c-8c23-dd728787f52c","ios":"levelo://app?vid=91d10efa-f5c0-468c-8c23-dd728787f52c"},"vehicle_type_id":"4","last_reported":1684181210,"current_range_meters":30000,"station_id":"ce4bh192rcd13ifvqdd0","pricing_plan_id":"free"},{"bike_id":"1a1fedfb-bc1b-4438-8983-b7abc439a0a2","system_id":"levelo_inurba_marseille","lat":43.284534,"lon":5.358662,"is_reserved":false,"is_disabled":false,"rental_uris":{"android":"levelo://app?vid=1a1fedfb-bc1b-4438-8983-b7abc439a0a2","ios":"levelo://app?vid=1a1fedfb-bc1b-4438-8983-b7abc439a0a2"},"vehicle_type_id":"4","last_reported":1684181210,"current_range_meters":2800,"station_id":"ce4bhah2rcd13ifvqei0","pricing_plan_id":"free"},{"bike_id":"f284ab26-209f-4e96-affb-4da1015d0eff","system_id":"levelo_inurba_marseille","lat":43.284534,"lon":5.358662,"is_reserved":false,"is_disabled":false,"rental_uris":{"android":"levelo://app?vid=f284ab26-209f-4e96-affb-4da1015d0eff","ios":"levelo://app?vid=f284ab26-209f-4e96-affb-4da1015d0eff"},"vehicle_type_id":"4","last_reported":1684181210,"current_range_meters":19200,"station_id":"ce4bhah2rcd13ifvqei0","pricing_plan_id":"free"},{"bike_id":"ab71db90-45eb-45c9-b4e0-ae6149c1fd53","system_id":"levelo_inurba_marseille","lat":43.284534,"lon":5.358662,"is_reserved":false,"is_disabled":false,"rental_uris":{"android":"levelo://app?vid=ab71db90-45eb-45c9-b4e0-ae6149c1fd53","ios":"levelo://app?vid=ab71db90-45eb-45c9-b4e0-ae6149c1fd53"},"vehicle_type_id":"4","last_reported":1684181210,"current_range_meters":4000,"station_id":"ce4bhah2rcd13ifvqei0","pricing_plan_id":"free"},{"bike_id":"42007403-c963-4369-8d3f-6f07d3069a78","system_id":"levelo_inurba_marseille","lat":43.284534,"lon":5.358662,"is_reserved":false,"is_disabled":false,"rental_uris":{"android":"levelo://app?vid=42007403-c963-4369-8d3f-6f07d3069a78","ios":"levelo://app?vid=42007403-c963-4369-8d3f-6f07d3069a78"},"vehicle_type_id":"4","last_reported":1684181210,"current_range_meters":15600,"station_id":"ce4bhah2rcd13ifvqei0","pricing_plan_id":"free"},{"bike_id":"f5db6993-8753-42ea-a5cf-414f4b2bfce5","system_id":"levelo_inurba_marseille","lat":43.284534,"lon":5.358662,"is_reserved":false,"is_disabled":false,"rental_uris":{"android":"levelo://app?vid=f5db6993-8753-42ea-a5cf-414f4b2bfce5","ios":"levelo://app?vid=f5db6993-8753-42ea-a5cf-414f4b2bfce5"},"vehicle_type_id":"4","last_reported":1684181210,"current_range_meters":19200,"station_id":"ce4bhah2rcd13ifvqei0","pricing_plan_id":"free"},{"bike_id":"ccb9128c-8228-4e69-9b3f-7f67f557f281","system_id":"levelo_inurba_marseille","lat":43.284534,"lon":5.358662,"is_reserved":false,"is_disabled":false,"rental_uris":{"android":"levelo://app?vid=ccb9128c-8228-4e69-9b3f-7f67f557f281","ios":"levelo://app?vid=ccb9128c-8228-4e69-9b3f-7f67f557f281"},"vehicle_type_id":"4","last_reported":1684181210,"current_range_meters":15600,"station_id":"ce4bhah2rcd13ifvqei0","pricing_plan_id":"free"},{"bike_id":"2cf4b41e-bedc-4825-a7da-3cbde0c261d8","system_id":"levelo_inurba_marseille","lat":43.284534,"lon":5.358662,"is_reserved":false,"is_disabled":false,"rental_uris":{"android":"levelo://app?vid=2cf4b41e-bedc-4825-a7da-3cbde0c261d8","ios":"levelo://app?vid=2cf4b41e-bedc-4825-a7da-3cbde0c261d8"},"vehicle_type_id":"4","last_reported":1684181210,"current_range_meters":26800,"station_id":"ce4bhah2rcd13ifvqei0","pricing_plan_id":"free"},{"bike_id":"84a6cafb-20e0-4a3a-8cbc-b5459a59de3d","system_id":"levelo_inurba_marseille","lat":43.284534,"lon":5.358662,"is_reserved":false,"is_disabled":false,"rental_uris":{"android":"levelo://app?vid=84a6cafb-20e0-4a3a-8cbc-b5459a59de3d","ios":"levelo://app?vid=84a6cafb-20e0-4a3a-8cbc-b5459a59de3d"},"vehicle_type_id":"4","last_reported":1684181210,"current_range_meters":26800,"station_id":"ce4bhah2rcd13ifvqei0","pricing_plan_id":"free"},{"bike_id":"14225d95-0809-4d1c-932b-6940116a5a01","system_id":"levelo_inurba_marseille","lat":43.284534,"lon":5.358662,"is_reserved":false,"is_disabled":false,"rental_uris":{"android":"levelo://app?vid=14225d95-0809-4d1c-932b-6940116a5a01","ios":"levelo://app?vid=14225d95-0809-4d1c-932b-6940116a5a01"},"vehicle_type_id":"4","last_reported":1684181210,"current_range_meters":8000,"station_id":"ce4bhah2rcd13ifvqei0","pricing_plan_id":"free"},{"bike_id":"69ffbfe8-0090-4d0d-949d-2f9c75be4925","system_id":"levelo_inurba_marseille","lat":43.284534,"lon":5.358662,"is_reserved":false,"is_disabled":false,"rental_uris":{"android":"levelo://app?vid=69ffbfe8-0090-4d0d-949d-2f9c75be4925","ios":"levelo://app?vid=69ffbfe8-0090-4d0d-949d-2f9c75be4925"},"vehicle_type_id":"4","last_reported":1684181210,"current_range_meters":7600,"station_id":"ce4bhah2rcd13ifvqei0","pricing_plan_id":"free"},{"bike_id":"5a64992d-4f81-4576-9167-4fdf51d97a63","system_id":"levelo_inurba_marseille","lat":43.28619,"lon":5.35103,"is_reserved":false,"is_disabled":false,"rental_uris":{"android":"levelo://app?vid=5a64992d-4f81-4576-9167-4fdf51d97a63","ios":"levelo://app?vid=5a64992d-4f81-4576-9167-4fdf51d97a63"},"vehicle_type_id":"4","last_reported":1684181210,"current_range_meters":30000,"station_id":"","pricing_plan_id":"free"},{"bike_id":"98eadbde-d5ff-4b7d-a2f2-f073c9242783","system_id":"levelo_inurba_marseille","lat":43.28619,"lon":5.35094,"is_reserved":false,"is_disabled":false,"rental_uris":{"android":"levelo://app?vid=98eadbde-d5ff-4b7d-a2f2-f073c9242783","ios":"levelo://app?vid=98eadbde-d5ff-4b7d-a2f2-f073c9242783"},"vehicle_type_id":"4","last_reported":1684181210,"current_range_meters":24800,"station_id":"","pricing_plan_id":"free"},{"bike_id":"bbd7436b-1f5c-4d85-a8ea-79bcb268f93e","system_id":"levelo_inurba_marseille","lat":43.285856,"lon":5.350771,"is_reserved":false,"is_disabled":false,"rental_uris":{"android":"levelo://app?vid=bbd7436b-1f5c-4d85-a8ea-79bcb268f93e","ios":"levelo://app?vid=bbd7436b-1f5c-4d85-a8ea-79bcb268f93e"},"vehicle_type_id":"4","last_reported":1684181210,"current_range_meters":31200,"station_id":"ce4bhch2rcd13ifvqeug","pricing_plan_id":"free"},{"bike_id":"3a242261-0216-45db-a1b0-f80d4648ccbb","system_id":"levelo_inurba_marseille","lat":43.28618,"lon":5.35094,"is_reserved":false,"is_disabled":false,"rental_uris":{"android":"levelo://app?vid=3a242261-0216-45db-a1b0-f80d4648ccbb","ios":"levelo://app?vid=3a242261-0216-45db-a1b0-f80d4648ccbb"},"vehicle_type_id":"4","last_reported":1684181210,"current_range_meters":27200,"station_id":"","pricing_plan_id":"free"},{"bike_id":"28bfd4b4-deeb-41fa-902d-d824483a1341","system_id":"levelo_inurba_marseille","lat":43.28615,"lon":5.35101,"is_reserved":false,"is_disabled":false,"rental_uris":{"android":"levelo://app?vid=28bfd4b4-deeb-41fa-902d-d824483a1341","ios":"levelo://app?vid=28bfd4b4-deeb-41fa-902d-d824483a1341"},"vehicle_type_id":"4","last_reported":1684181210,"current_range_meters":29200,"station_id":"","pricing_plan_id":"free"},{"bike_id":"8dd6de62-8b81-4c0f-99aa-5b6ffc0f7c6f","system_id":"levelo_inurba_marseille","lat":43.286151,"lon":5.351006,"is_reserved":false,"is_disabled":false,"rental_uris":{"android":"levelo://app?vid=8dd6de62-8b81-4c0f-99aa-5b6ffc0f7c6f","ios":"levelo://app?vid=8dd6de62-8b81-4c0f-99aa-5b6ffc0f7c6f"},"vehicle_type_id":"4","last_reported":1684181210,"current_range_meters":9600,"station_id":"ce4bhbp2rcd13ifvqerg","pricing_plan_id":"free"},{"bike_id":"bba7301f-0db3-4383-9c18-8aa016fc37d5","system_id":"levelo_inurba_marseille","lat":43.28614,"lon":5.35098,"is_reserved":false,"is_disabled":false,"rental_uris":{"android":"levelo://app?vid=bba7301f-0db3-4383-9c18-8aa016fc37d5","ios":"levelo://app?vid=bba7301f-0db3-4383-9c18-8aa016fc37d5"},"vehicle_type_id":"4","last_reported":1684181210,"current_range_meters":30400,"station_id":"","pricing_plan_id":"free"},{"bike_id":"5110c4ba-4653-4a8b-a5ae-20f4280c9edd","system_id":"levelo_inurba_marseille","lat":43.28614,"lon":5.35097,"is_reserved":false,"is_disabled":false,"rental_uris":{"android":"levelo://app?vid=5110c4ba-4653-4a8b-a5ae-20f4280c9edd","ios":"levelo://app?vid=5110c4ba-4653-4a8b-a5ae-20f4280c9edd"},"vehicle_type_id":"4","last_reported":1684181210,"current_range_meters":1200,"station_id":"","pricing_plan_id":"free"},{"bike_id":"3c34687f-2d3a-4ab9-ad4a-f37f3ffd4f2d","system_id":"levelo_inurba_marseille","lat":43.28613,"lon":5.35094,"is_reserved":false,"is_disabled":false,"rental_uris":{"android":"levelo://app?vid=3c34687f-2d3a-4ab9-ad4a-f37f3ffd4f2d","ios":"levelo://app?vid=3c34687f-2d3a-4ab9-ad4a-f37f3ffd4f2d"},"vehicle_type_id":"4","last_reported":1684181210,"current_range_meters":25600,"station_id":"","pricing_plan_id":"free"},{"bike_id":"2b665aec-e325-45fd-bbae-d3c8aca91a22","system_id":"levelo_inurba_marseille","lat":43.28609,"lon":5.35097,"is_reserved":false,"is_disabled":false,"rental_uris":{"android":"levelo://app?vid=2b665aec-e325-45fd-bbae-d3c8aca91a22","ios":"levelo://app?vid=2b665aec-e325-45fd-bbae-d3c8aca91a22"},"vehicle_type_id":"4","last_reported":1684181210,"current_range_meters":20400,"station_id":"","pricing_plan_id":"free"},{"bike_id":"39dc1974-2937-4f9f-a25f-a1a526d60231","system_id":"levelo_inurba_marseille","lat":43.296143,"lon":5.40008,"is_reserved":false,"is_disabled":false,"rental_uris":{"android":"levelo://app?vid=39dc1974-2937-4f9f-a25f-a1a526d60231","ios":"levelo://app?vid=39dc1974-2937-4f9f-a25f-a1a526d60231"},"vehicle_type_id":"4","last_reported":1684181210,"current_range_meters":12400,"station_id":"","pricing_plan_id":"free"},{"bike_id":"de258736-4135-43a3-b0cb-4ec4540e2118","system_id":"levelo_inurba_marseille","lat":43.286595,"lon":5.386795,"is_reserved":false,"is_disabled":false,"rental_uris":{"android":"levelo://app?vid=de258736-4135-43a3-b0cb-4ec4540e2118","ios":"levelo://app?vid=de258736-4135-43a3-b0cb-4ec4540e2118"},"vehicle_type_id":"4","last_reported":1684181210,"current_range_meters":18400,"station_id":"ce4bh492rcd13ifvqdug","pricing_plan_id":"free"},{"bike_id":"0bcf236e-fe3a-490b-afce-31ff5aa9015c","system_id":"levelo_inurba_marseille","lat":43.286595,"lon":5.386795,"is_reserved":false,"is_disabled":false,"rental_uris":{"android":"levelo://app?vid=0bcf236e-fe3a-490b-afce-31ff5aa9015c","ios":"levelo://app?vid=0bcf236e-fe3a-490b-afce-31ff5aa9015c"},"vehicle_type_id":"4","last_reported":1684181210,"current_range_meters":17200,"station_id":"ce4bh492rcd13ifvqdug","pricing_plan_id":"free"},{"bike_id":"17e7dc15-428d-4c23-86d8-98285bd02285","system_id":"levelo_inurba_marseille","lat":43.286595,"lon":5.386795,"is_reserved":false,"is_disabled":false,"rental_uris":{"android":"levelo://app?vid=17e7dc15-428d-4c23-86d8-98285bd02285","ios":"levelo://app?vid=17e7dc15-428d-4c23-86d8-98285bd02285"},"vehicle_type_id":"4","last_reported":1684181210,"current_range_meters":16000,"station_id":"ce4bh492rcd13ifvqdug","pricing_plan_id":"free"},{"bike_id":"f25ec869-fd80-4a2c-9b9c-ed0c4fe9b282","system_id":"levelo_inurba_marseille","lat":43.288868,"lon":5.392903,"is_reserved":false,"is_disabled":false,"rental_uris":{"android":"levelo://app?vid=f25ec869-fd80-4a2c-9b9c-ed0c4fe9b282","ios":"levelo://app?vid=f25ec869-fd80-4a2c-9b9c-ed0c4fe9b282"},"vehicle_type_id":"4","last_reported":1684181210,"current_range_meters":4000,"station_id":"ce4bh2p2rcd13ifvqdi0","pricing_plan_id":"free"},{"bike_id":"fa472c99-f4cf-47e3-9ce8-da1c4074cf69","system_id":"levelo_inurba_marseille","lat":43.32336,"lon":5.4062,"is_reserved":false,"is_disabled":false,"rental_uris":{"android":"levelo://app?vid=fa472c99-f4cf-47e3-9ce8-da1c4074cf69","ios":"levelo://app?vid=fa472c99-f4cf-47e3-9ce8-da1c4074cf69"},"vehicle_type_id":"4","last_reported":1684181210,"current_range_meters":12400,"station_id":"ce4bhq92rcd13ifvqhjg","pricing_plan_id":"free"},{"bike_id":"7c2566a0-db64-4f8d-8530-1ada6bf1bd13","system_id":"levelo_inurba_marseille","lat":43.32336,"lon":5.4062,"is_reserved":false,"is_disabled":false,"rental_uris":{"android":"levelo://app?vid=7c2566a0-db64-4f8d-8530-1ada6bf1bd13","ios":"levelo://app?vid=7c2566a0-db64-4f8d-8530-1ada6bf1bd13"},"vehicle_type_id":"4","last_reported":1684181210,"current_range_meters":6800,"station_id":"ce4bhq92rcd13ifvqhjg","pricing_plan_id":"free"},{"bike_id":"696b598f-70db-4ab9-8719-41e755525fe3","system_id":"levelo_inurba_marseille","lat":43.3372,"lon":5.39194,"is_reserved":false,"is_disabled":false,"rental_uris":{"android":"levelo://app?vid=696b598f-70db-4ab9-8719-41e755525fe3","ios":"levelo://app?vid=696b598f-70db-4ab9-8719-41e755525fe3"},"vehicle_type_id":"4","last_reported":1684181210,"current_range_meters":400,"station_id":"ce4bhr92rcd13ifvqhsg","pricing_plan_id":"free"},{"bike_id":"c15944e9-642a-4b95-a67d-a05b3ea36ff0","system_id":"levelo_inurba_marseille","lat":43.284787,"lon":5.384116,"is_reserved":false,"is_disabled":false,"rental_uris":{"android":"levelo://app?vid=c15944e9-642a-4b95-a67d-a05b3ea36ff0","ios":"levelo://app?vid=c15944e9-642a-4b95-a67d-a05b3ea36ff0"},"vehicle_type_id":"4","last_reported":1684181210,"current_range_meters":29200,"station_id":"ce4bh512rcd13ifvqe3g","pricing_plan_id":"free"},{"bike_id":"d30b7153-8b06-462b-b4b5-4b64c20f5497","system_id":"levelo_inurba_marseille","lat":43.284793,"lon":5.384119,"is_reserved":false,"is_disabled":false,"rental_uris":{"android":"levelo://app?vid=d30b7153-8b06-462b-b4b5-4b64c20f5497","ios":"levelo://app?vid=d30b7153-8b06-462b-b4b5-4b64c20f5497"},"vehicle_type_id":"4","last_reported":1684181210,"current_range_meters":28400,"station_id":"ce4bh512rcd13ifvqe3g","pricing_plan_id":"free"},{"bike_id":"88d306d1-53fe-4aad-b0d1-63a94504ce21","system_id":"levelo_inurba_marseille","lat":43.284793,"lon":5.384119,"is_reserved":false,"is_disabled":false,"rental_uris":{"android":"levelo://app?vid=88d306d1-53fe-4aad-b0d1-63a94504ce21","ios":"levelo://app?vid=88d306d1-53fe-4aad-b0d1-63a94504ce21"},"vehicle_type_id":"4","last_reported":1684181210,"current_range_meters":27600,"station_id":"ce4bh512rcd13ifvqe3g","pricing_plan_id":"free"},{"bike_id":"3fe91a58-5cb8-4fc5-b1c0-fcd89c9efb0b","system_id":"levelo_inurba_marseille","lat":43.283494,"lon":5.380945,"is_reserved":false,"is_disabled":false,"rental_uris":{"android":"levelo://app?vid=3fe91a58-5cb8-4fc5-b1c0-fcd89c9efb0b","ios":"levelo://app?vid=3fe91a58-5cb8-4fc5-b1c0-fcd89c9efb0b"},"vehicle_type_id":"4","last_reported":1684181210,"current_range_meters":4800,"station_id":"ce4bh412rcd13ifvqdr0","pricing_plan_id":"free"},{"bike_id":"745c47b5-5ff6-4b45-980d-bb78aed144db","system_id":"levelo_inurba_marseille","lat":43.283494,"lon":5.380945,"is_reserved":false,"is_disabled":false,"rental_uris":{"android":"levelo://app?vid=745c47b5-5ff6-4b45-980d-bb78aed144db","ios":"levelo://app?vid=745c47b5-5ff6-4b45-980d-bb78aed144db"},"vehicle_type_id":"4","last_reported":1684181210,"current_range_meters":23200,"station_id":"ce4bh412rcd13ifvqdr0","pricing_plan_id":"free"},{"bike_id":"ce1250a4-8e94-4778-bd7b-c785aba9d986","system_id":"levelo_inurba_marseille","lat":43.283494,"lon":5.380945,"is_reserved":false,"is_disabled":false,"rental_uris":{"android":"levelo://app?vid=ce1250a4-8e94-4778-bd7b-c785aba9d986","ios":"levelo://app?vid=ce1250a4-8e94-4778-bd7b-c785aba9d986"},"vehicle_type_id":"4","last_reported":1684181210,"current_range_meters":10000,"station_id":"ce4bh412rcd13ifvqdr0","pricing_plan_id":"free"},{"bike_id":"f03f0090-2415-4841-9756-b9fcd5c9ac30","system_id":"levelo_inurba_marseille","lat":43.283498,"lon":5.380948,"is_reserved":false,"is_disabled":false,"rental_uris":{"android":"levelo://app?vid=f03f0090-2415-4841-9756-b9fcd5c9ac30","ios":"levelo://app?vid=f03f0090-2415-4841-9756-b9fcd5c9ac30"},"vehicle_type_id":"4","last_reported":1684181210,"current_range_meters":24000,"station_id":"ce4bh412rcd13ifvqdr0","pricing_plan_id":"free"},{"bike_id":"212112ab-29ab-4454-8ed7-214892cda783","system_id":"levelo_inurba_marseille","lat":43.283469,"lon":5.381075,"is_reserved":false,"is_disabled":false,"rental_uris":{"android":"levelo://app?vid=212112ab-29ab-4454-8ed7-214892cda783","ios":"levelo://app?vid=212112ab-29ab-4454-8ed7-214892cda783"},"vehicle_type_id":"4","last_reported":1684181210,"current_range_meters":16400,"station_id":"","pricing_plan_id":"free"},{"bike_id":"67eb2624-d352-4767-8a4a-0c0ac7062f77","system_id":"levelo_inurba_marseille","lat":43.283498,"lon":5.380948,"is_reserved":false,"is_disabled":false,"rental_uris":{"android":"levelo://app?vid=67eb2624-d352-4767-8a4a-0c0ac7062f77","ios":"levelo://app?vid=67eb2624-d352-4767-8a4a-0c0ac7062f77"},"vehicle_type_id":"4","last_reported":1684181210,"current_range_meters":19600,"station_id":"ce4bh412rcd13ifvqdr0","pricing_plan_id":"free"},{"bike_id":"62eb235e-5f9c-4982-a521-06ac25edfd39","system_id":"levelo_inurba_marseille","lat":43.28427,"lon":5.34991,"is_reserved":false,"is_disabled":false,"rental_uris":{"android":"levelo://app?vid=62eb235e-5f9c-4982-a521-06ac25edfd39","ios":"levelo://app?vid=62eb235e-5f9c-4982-a521-06ac25edfd39"},"vehicle_type_id":"4","last_reported":1684181210,"current_range_meters":20000,"station_id":"ce4bhbh2rcd13ifvqepg","pricing_plan_id":"free"},{"bike_id":"25d3f0c2-a677-47ae-8627-c6a36dd0e124","system_id":"levelo_inurba_marseille","lat":43.284219,"lon":5.3497,"is_reserved":false,"is_disabled":false,"rental_uris":{"android":"levelo://app?vid=25d3f0c2-a677-47ae-8627-c6a36dd0e124","ios":"levelo://app?vid=25d3f0c2-a677-47ae-8627-c6a36dd0e124"},"vehicle_type_id":"4","last_reported":1684181210,"current_range_meters":28400,"station_id":"ce4bhbh2rcd13ifvqepg","pricing_plan_id":"free"},{"bike_id":"9e669dce-c083-4c21-bca9-c56f1097660d","system_id":"levelo_inurba_marseille","lat":43.28424,"lon":5.34995,"is_reserved":false,"is_disabled":false,"rental_uris":{"android":"levelo://app?vid=9e669dce-c083-4c21-bca9-c56f1097660d","ios":"levelo://app?vid=9e669dce-c083-4c21-bca9-c56f1097660d"},"vehicle_type_id":"4","last_reported":1684181210,"current_range_meters":28400,"station_id":"ce4bhbh2rcd13ifvqepg","pricing_plan_id":"free"},{"bike_id":"858374cb-cfee-4f68-a770-bd6e01270211","system_id":"levelo_inurba_marseille","lat":43.284219,"lon":5.3497,"is_reserved":false,"is_disabled":false,"rental_uris":{"android":"levelo://app?vid=858374cb-cfee-4f68-a770-bd6e01270211","ios":"levelo://app?vid=858374cb-cfee-4f68-a770-bd6e01270211"},"vehicle_type_id":"4","last_reported":1684181210,"current_range_meters":30000,"station_id":"ce4bhbh2rcd13ifvqepg","pricing_plan_id":"free"},{"bike_id":"422e969b-de68-4e39-b3ca-0164d4efd97f","system_id":"levelo_inurba_marseille","lat":43.284219,"lon":5.3497,"is_reserved":false,"is_disabled":false,"rental_uris":{"android":"levelo://app?vid=422e969b-de68-4e39-b3ca-0164d4efd97f","ios":"levelo://app?vid=422e969b-de68-4e39-b3ca-0164d4efd97f"},"vehicle_type_id":"4","last_reported":1684181210,"current_range_meters":30000,"station_id":"ce4bhbh2rcd13ifvqepg","pricing_plan_id":"free"},{"bike_id":"72cbb59e-93ed-48a8-9b5c-762f32e3ae96","system_id":"levelo_inurba_marseille","lat":43.284219,"lon":5.3497,"is_reserved":false,"is_disabled":false,"rental_uris":{"android":"levelo://app?vid=72cbb59e-93ed-48a8-9b5c-762f32e3ae96","ios":"levelo://app?vid=72cbb59e-93ed-48a8-9b5c-762f32e3ae96"},"vehicle_type_id":"4","last_reported":1684181210,"current_range_meters":31200,"station_id":"ce4bhbh2rcd13ifvqepg","pricing_plan_id":"free"},{"bike_id":"4f4af6fe-dc18-4dca-b938-c12f44d9f3ae","system_id":"levelo_inurba_marseille","lat":43.284219,"lon":5.3497,"is_reserved":false,"is_disabled":false,"rental_uris":{"android":"levelo://app?vid=4f4af6fe-dc18-4dca-b938-c12f44d9f3ae","ios":"levelo://app?vid=4f4af6fe-dc18-4dca-b938-c12f44d9f3ae"},"vehicle_type_id":"4","last_reported":1684181210,"current_range_meters":17600,"station_id":"ce4bhbh2rcd13ifvqepg","pricing_plan_id":"free"},{"bike_id":"b557dae2-3d4d-44b6-a788-6ef45dc42c42","system_id":"levelo_inurba_marseille","lat":43.284219,"lon":5.3497,"is_reserved":false,"is_disabled":false,"rental_uris":{"android":"levelo://app?vid=b557dae2-3d4d-44b6-a788-6ef45dc42c42","ios":"levelo://app?vid=b557dae2-3d4d-44b6-a788-6ef45dc42c42"},"vehicle_type_id":"4","last_reported":1684181210,"current_range_meters":16800,"station_id":"ce4bhbh2rcd13ifvqepg","pricing_plan_id":"free"},{"bike_id":"bbb0c2bc-de98-45ab-816b-b14b9e0389f1","system_id":"levelo_inurba_marseille","lat":43.28422,"lon":5.34978,"is_reserved":false,"is_disabled":false,"rental_uris":{"android":"levelo://app?vid=bbb0c2bc-de98-45ab-816b-b14b9e0389f1","ios":"levelo://app?vid=bbb0c2bc-de98-45ab-816b-b14b9e0389f1"},"vehicle_type_id":"4","last_reported":1684181210,"current_range_meters":19600,"station_id":"ce4bhbh2rcd13ifvqepg","pricing_plan_id":"free"},{"bike_id":"2d5de33f-8a72-4225-aa5b-0b90e4e03758","system_id":"levelo_inurba_marseille","lat":43.284217,"lon":5.349697,"is_reserved":false,"is_disabled":false,"rental_uris":{"android":"levelo://app?vid=2d5de33f-8a72-4225-aa5b-0b90e4e03758","ios":"levelo://app?vid=2d5de33f-8a72-4225-aa5b-0b90e4e03758"},"vehicle_type_id":"4","last_reported":1684181210,"current_range_meters":31200,"station_id":"ce4bhbh2rcd13ifvqepg","pricing_plan_id":"free"},{"bike_id":"df7de2f6-a6f6-4c34-96f2-f1a8e36d1aea","system_id":"levelo_inurba_marseille","lat":43.284219,"lon":5.3497,"is_reserved":false,"is_disabled":false,"rental_uris":{"android":"levelo://app?vid=df7de2f6-a6f6-4c34-96f2-f1a8e36d1aea","ios":"levelo://app?vid=df7de2f6-a6f6-4c34-96f2-f1a8e36d1aea"},"vehicle_type_id":"4","last_reported":1684181210,"current_range_meters":31200,"station_id":"ce4bhbh2rcd13ifvqepg","pricing_plan_id":"free"},{"bike_id":"c07c3e35-d52d-4b10-9a22-49a78bfbbfb8","system_id":"levelo_inurba_marseille","lat":43.284217,"lon":5.349697,"is_reserved":false,"is_disabled":false,"rental_uris":{"android":"levelo://app?vid=c07c3e35-d52d-4b10-9a22-49a78bfbbfb8","ios":"levelo://app?vid=c07c3e35-d52d-4b10-9a22-49a78bfbbfb8"},"vehicle_type_id":"4","last_reported":1684181210,"current_range_meters":28800,"station_id":"ce4bhbh2rcd13ifvqepg","pricing_plan_id":"free"},{"bike_id":"9651c931-8a89-43a6-88ac-6d02385f536e","system_id":"levelo_inurba_marseille","lat":43.28416,"lon":5.34991,"is_reserved":false,"is_disabled":false,"rental_uris":{"android":"levelo://app?vid=9651c931-8a89-43a6-88ac-6d02385f536e","ios":"levelo://app?vid=9651c931-8a89-43a6-88ac-6d02385f536e"},"vehicle_type_id":"4","last_reported":1684181210,"current_range_meters":0,"station_id":"ce4bhbh2rcd13ifvqepg","pricing_plan_id":"free"},{"bike_id":"e50ecd6f-e855-496f-8a8e-f94ead1768c9","system_id":"levelo_inurba_marseille","lat":43.284217,"lon":5.349697,"is_reserved":false,"is_disabled":false,"rental_uris":{"android":"levelo://app?vid=e50ecd6f-e855-496f-8a8e-f94ead1768c9","ios":"levelo://app?vid=e50ecd6f-e855-496f-8a8e-f94ead1768c9"},"vehicle_type_id":"4","last_reported":1684181210,"current_range_meters":20800,"station_id":"ce4bhbh2rcd13ifvqepg","pricing_plan_id":"free"},{"bike_id":"b3c5cdf8-ed54-40f2-bd35-edcd7fcdf94c","system_id":"levelo_inurba_marseille","lat":43.284219,"lon":5.3497,"is_reserved":false,"is_disabled":false,"rental_uris":{"android":"levelo://app?vid=b3c5cdf8-ed54-40f2-bd35-edcd7fcdf94c","ios":"levelo://app?vid=b3c5cdf8-ed54-40f2-bd35-edcd7fcdf94c"},"vehicle_type_id":"4","last_reported":1684181210,"current_range_meters":1200,"station_id":"ce4bhbh2rcd13ifvqepg","pricing_plan_id":"free"},{"bike_id":"4308e5dd-65b5-4891-bed5-2457cf84e029","system_id":"levelo_inurba_marseille","lat":43.284217,"lon":5.349697,"is_reserved":false,"is_disabled":false,"rental_uris":{"android":"levelo://app?vid=4308e5dd-65b5-4891-bed5-2457cf84e029","ios":"levelo://app?vid=4308e5dd-65b5-4891-bed5-2457cf84e029"},"vehicle_type_id":"4","last_reported":1684181210,"current_range_meters":22800,"station_id":"ce4bhbh2rcd13ifvqepg","pricing_plan_id":"free"},{"bike_id":"8b7bb9fd-73fb-41be-868a-86b4fd445df3","system_id":"levelo_inurba_marseille","lat":43.284217,"lon":5.349697,"is_reserved":false,"is_disabled":false,"rental_uris":{"android":"levelo://app?vid=8b7bb9fd-73fb-41be-868a-86b4fd445df3","ios":"levelo://app?vid=8b7bb9fd-73fb-41be-868a-86b4fd445df3"},"vehicle_type_id":"4","last_reported":1684181210,"current_range_meters":31200,"station_id":"ce4bhbh2rcd13ifvqepg","pricing_plan_id":"free"},{"bike_id":"a1e668d0-8824-45fb-b9ba-207c0d07a5df","system_id":"levelo_inurba_marseille","lat":43.28415,"lon":5.34973,"is_reserved":false,"is_disabled":false,"rental_uris":{"android":"levelo://app?vid=a1e668d0-8824-45fb-b9ba-207c0d07a5df","ios":"levelo://app?vid=a1e668d0-8824-45fb-b9ba-207c0d07a5df"},"vehicle_type_id":"4","last_reported":1684181210,"current_range_meters":23600,"station_id":"ce4bhbh2rcd13ifvqepg","pricing_plan_id":"free"},{"bike_id":"77647b68-be27-42db-a73d-4db643761592","system_id":"levelo_inurba_marseille","lat":43.280382,"lon":5.369291,"is_reserved":false,"is_disabled":false,"rental_uris":{"android":"levelo://app?vid=77647b68-be27-42db-a73d-4db643761592","ios":"levelo://app?vid=77647b68-be27-42db-a73d-4db643761592"},"vehicle_type_id":"4","last_reported":1684181210,"current_range_meters":2000,"station_id":"ce4bha12rcd13ifvqef0","pricing_plan_id":"free"},{"bike_id":"e19b7032-1000-4d43-b3a5-bf4eb0c95a84","system_id":"levelo_inurba_marseille","lat":43.28039,"lon":5.369297,"is_reserved":false,"is_disabled":false,"rental_uris":{"android":"levelo://app?vid=e19b7032-1000-4d43-b3a5-bf4eb0c95a84","ios":"levelo://app?vid=e19b7032-1000-4d43-b3a5-bf4eb0c95a84"},"vehicle_type_id":"4","last_reported":1684181210,"current_range_meters":25600,"station_id":"ce4bha12rcd13ifvqef0","pricing_plan_id":"free"},{"bike_id":"8ad4500f-4799-4f38-94d4-36fc782ad132","system_id":"levelo_inurba_marseille","lat":43.280382,"lon":5.369291,"is_reserved":false,"is_disabled":false,"rental_uris":{"android":"levelo://app?vid=8ad4500f-4799-4f38-94d4-36fc782ad132","ios":"levelo://app?vid=8ad4500f-4799-4f38-94d4-36fc782ad132"},"vehicle_type_id":"4","last_reported":1684181210,"current_range_meters":31200,"station_id":"ce4bha12rcd13ifvqef0","pricing_plan_id":"free"},{"bike_id":"4bd34bbe-e1c9-446b-90d3-3e82a8cb3876","system_id":"levelo_inurba_marseille","lat":43.28039,"lon":5.369297,"is_reserved":false,"is_disabled":false,"rental_uris":{"android":"levelo://app?vid=4bd34bbe-e1c9-446b-90d3-3e82a8cb3876","ios":"levelo://app?vid=4bd34bbe-e1c9-446b-90d3-3e82a8cb3876"},"vehicle_type_id":"4","last_reported":1684181210,"current_range_meters":10400,"station_id":"ce4bha12rcd13ifvqef0","pricing_plan_id":"free"},{"bike_id":"1f0ddf90-2e10-4041-be36-26b04f0f8a69","system_id":"levelo_inurba_marseille","lat":43.28039,"lon":5.369297,"is_reserved":false,"is_disabled":false,"rental_uris":{"android":"levelo://app?vid=1f0ddf90-2e10-4041-be36-26b04f0f8a69","ios":"levelo://app?vid=1f0ddf90-2e10-4041-be36-26b04f0f8a69"},"vehicle_type_id":"4","last_reported":1684181210,"current_range_meters":0,"station_id":"ce4bha12rcd13ifvqef0","pricing_plan_id":"free"},{"bike_id":"0017a9a7-fdc9-4d39-b704-43764c645c1b","system_id":"levelo_inurba_marseille","lat":43.28039,"lon":5.369297,"is_reserved":false,"is_disabled":false,"rental_uris":{"android":"levelo://app?vid=0017a9a7-fdc9-4d39-b704-43764c645c1b","ios":"levelo://app?vid=0017a9a7-fdc9-4d39-b704-43764c645c1b"},"vehicle_type_id":"4","last_reported":1684181210,"current_range_meters":10400,"station_id":"ce4bha12rcd13ifvqef0","pricing_plan_id":"free"},{"bike_id":"19ae72dc-ffd7-452e-8e23-6a1cc31f40bf","system_id":"levelo_inurba_marseille","lat":43.280382,"lon":5.369291,"is_reserved":false,"is_disabled":false,"rental_uris":{"android":"levelo://app?vid=19ae72dc-ffd7-452e-8e23-6a1cc31f40bf","ios":"levelo://app?vid=19ae72dc-ffd7-452e-8e23-6a1cc31f40bf"},"vehicle_type_id":"4","last_reported":1684181210,"current_range_meters":31200,"station_id":"ce4bha12rcd13ifvqef0","pricing_plan_id":"free"},{"bike_id":"893fba0a-5e03-42d2-8541-f82645dda73d","system_id":"levelo_inurba_marseille","lat":43.281044,"lon":5.378308,"is_reserved":false,"is_disabled":false,"rental_uris":{"android":"levelo://app?vid=893fba0a-5e03-42d2-8541-f82645dda73d","ios":"levelo://app?vid=893fba0a-5e03-42d2-8541-f82645dda73d"},"vehicle_type_id":"4","last_reported":1684181210,"current_range_meters":20400,"station_id":"ce4bha12rcd13ifvqee0","pricing_plan_id":"free"},{"bike_id":"bd60de5f-a063-4c1c-be0e-9349b0474e1a","system_id":"levelo_inurba_marseille","lat":43.28104,"lon":5.37829,"is_reserved":false,"is_disabled":false,"rental_uris":{"android":"levelo://app?vid=bd60de5f-a063-4c1c-be0e-9349b0474e1a","ios":"levelo://app?vid=bd60de5f-a063-4c1c-be0e-9349b0474e1a"},"vehicle_type_id":"4","last_reported":1684181210,"current_range_meters":26400,"station_id":"ce4bha12rcd13ifvqee0","pricing_plan_id":"free"},{"bike_id":"b333fa2e-bf06-443d-8669-b648fa4c47c9","system_id":"levelo_inurba_marseille","lat":43.281044,"lon":5.378308,"is_reserved":false,"is_disabled":false,"rental_uris":{"android":"levelo://app?vid=b333fa2e-bf06-443d-8669-b648fa4c47c9","ios":"levelo://app?vid=b333fa2e-bf06-443d-8669-b648fa4c47c9"},"vehicle_type_id":"4","last_reported":1684181210,"current_range_meters":9200,"station_id":"ce4bha12rcd13ifvqee0","pricing_plan_id":"free"},{"bike_id":"f4613f85-1898-42d9-8317-5640baa307eb","system_id":"levelo_inurba_marseille","lat":43.28103,"lon":5.37831,"is_reserved":false,"is_disabled":false,"rental_uris":{"android":"levelo://app?vid=f4613f85-1898-42d9-8317-5640baa307eb","ios":"levelo://app?vid=f4613f85-1898-42d9-8317-5640baa307eb"},"vehicle_type_id":"4","last_reported":1684181210,"current_range_meters":23600,"station_id":"ce4bha12rcd13ifvqee0","pricing_plan_id":"free"},{"bike_id":"d83d1909-4281-46bf-bde3-655e0157612f","system_id":"levelo_inurba_marseille","lat":43.281044,"lon":5.378308,"is_reserved":false,"is_disabled":false,"rental_uris":{"android":"levelo://app?vid=d83d1909-4281-46bf-bde3-655e0157612f","ios":"levelo://app?vid=d83d1909-4281-46bf-bde3-655e0157612f"},"vehicle_type_id":"4","last_reported":1684181210,"current_range_meters":16400,"station_id":"ce4bha12rcd13ifvqee0","pricing_plan_id":"free"},{"bike_id":"3b3f7107-68fe-4c98-816f-4d3de7194330","system_id":"levelo_inurba_marseille","lat":43.281044,"lon":5.378308,"is_reserved":false,"is_disabled":false,"rental_uris":{"android":"levelo://app?vid=3b3f7107-68fe-4c98-816f-4d3de7194330","ios":"levelo://app?vid=3b3f7107-68fe-4c98-816f-4d3de7194330"},"vehicle_type_id":"4","last_reported":1684181210,"current_range_meters":25200,"station_id":"ce4bha12rcd13ifvqee0","pricing_plan_id":"free"},{"bike_id":"7188573f-d82f-4c27-ae6a-6375a830c6cf","system_id":"levelo_inurba_marseille","lat":43.281044,"lon":5.378308,"is_reserved":false,"is_disabled":false,"rental_uris":{"android":"levelo://app?vid=7188573f-d82f-4c27-ae6a-6375a830c6cf","ios":"levelo://app?vid=7188573f-d82f-4c27-ae6a-6375a830c6cf"},"vehicle_type_id":"4","last_reported":1684181210,"current_range_meters":800,"station_id":"ce4bha12rcd13ifvqee0","pricing_plan_id":"free"},{"bike_id":"6ef35e43-e0c5-42aa-bb90-be6b3e0ae80f","system_id":"levelo_inurba_marseille","lat":43.296263,"lon":5.40601,"is_reserved":false,"is_disabled":false,"rental_uris":{"android":"levelo://app?vid=6ef35e43-e0c5-42aa-bb90-be6b3e0ae80f","ios":"levelo://app?vid=6ef35e43-e0c5-42aa-bb90-be6b3e0ae80f"},"vehicle_type_id":"4","last_reported":1684181210,"current_range_meters":4000,"station_id":"ce4bh0h2rcd13ifvqd60","pricing_plan_id":"free"},{"bike_id":"11683954-306e-4377-942c-2711f2a14d63","system_id":"levelo_inurba_marseille","lat":43.296263,"lon":5.40601,"is_reserved":false,"is_disabled":false,"rental_uris":{"android":"levelo://app?vid=11683954-306e-4377-942c-2711f2a14d63","ios":"levelo://app?vid=11683954-306e-4377-942c-2711f2a14d63"},"vehicle_type_id":"4","last_reported":1684181210,"current_range_meters":24800,"station_id":"ce4bh0h2rcd13ifvqd60","pricing_plan_id":"free"},