{"last_updated":1748639314,"ttl":60,"version":"2.2","data":{"bikes":[{"bike_id":"adf6b7d0-861d-445c-ad64-85846e7d5218","system_id":"levelo_inurba_marseille","lat":43.26548,"lon":5.3729,"is_reserved":false,"is_disabled":false,"rental_uris":{"android":"levelo://app?vid=adf6b7d0-861d-445c-ad64-85846e7d5218","ios":"levelo://app?vid=adf6b7d0-861d-445c-ad64-85846e7d5218"},"vehicle_type_id":"4","last_reported":1748639314,"current_range_meters":2800,"station_id":"ce4bhg12rcd13ifvqf70","pricing_plan_id":"cebpf4jnsgd1na2vs0mg"},{"bike_id":"40a912ab-67dd-4166-9c9d-6a93fe699630","system_id":"levelo_inurba_marseille","lat":43.28668,"lon":5.3867,"is_reserved":false,"is_disabled":false,"rental_uris":{"android":"levelo://app?vid=40a912ab-67dd-4166-9c9d-6a93fe699630","ios":"levelo://app?vid=40a912ab-67dd-4166-9c9d-6a93fe699630"},"vehicle_type_id":"4","last_reported":1748639314,"current_range_meters":2800,"station_id":"ce4bh492rcd13ifvqdug","pricing_plan_id":"cebpf4jnsgd1na2vs0mg"},{"bike_id":"291182fd-d3e2-40e9-9ce3-f98691675246","system_id":"levelo_inurba_marseille","lat":43.21746,"lon":5.34619,"is_reserved":false,"is_disabled":true,"rental_uris":{"android":"levelo://app?vid=291182fd-d3e2-40e9-9ce3-f98691675246","ios":"levelo://app?vid=291182fd-d3e2-40e9-9ce3-f98691675246"},"vehicle_type_id":"4","last_reported":1748639314,"current_range_meters":2800,"station_id":"st_cvj6r9ubvosntc0bgbag","pricing_plan_id":"cebpf4jnsgd1na2vs0mg"},{"bike_id":"679e8cf0-7933-4f30-aa46-538d1cbe4624","system_id":"levelo_inurba_marseille","lat":43.30133,"lon":5.38776,"is_reserved":false,"is_disabled":false,"rental_uris":{"android":"levelo://app?vid=679e8cf0-7933-4f30-aa46-538d1cbe4624","ios":"levelo://app?vid=679e8cf0-7933-4f30-aa46-538d1cbe4624"},"vehicle_type_id":"4","last_reported":1748639314,"current_range_meters":2800,"station_id":"ce4bghh2rcd13ifvqb60","pricing_plan_id":"cebpf4jnsgd1na2vs0mg"},{"bike_id":"8f8db83b-93a4-4fb2-b181-50b98bfbfc20","system_id":"levelo_inurba_marseille","lat":43.27918,"lon":5.39589,"is_reserved":false,"is_disabled":false,"rental_uris":{"android":"levelo://app?vid=8f8db83b-93a4-4fb2-b181-50b98bfbfc20","ios":"levelo://app?vid=8f8db83b-93a4-4fb2-b181-50b98bfbfc20"},"vehicle_type_id":"4","last_reported":1748639314,"current_range_meters":2800,"station_id":"ce4bhf92rcd13ifvqf40","pricing_plan_id":"cebpf4jnsgd1na2vs0mg"},{"bike_id":"baf031d8-8f1c-489b-82cc-7480adad684b","system_id":"levelo_inurba_marseille","lat":43.27968,"lon":5.41052,"is_reserved":false,"is_disabled":false,"rental_uris":{"android":"levelo://app?vid=baf031d8-8f1c-489b-82cc-7480adad684b","ios":"levelo://app?vid=baf031d8-8f1c-489b-82cc-7480adad684b"},"vehicle_type_id":"4","last_reported":1748639314,"current_range_meters":3600,"station_id":"ce4bhnp2rcd13ifvqh0g","pricing_plan_id":"cebpf4jnsgd1na2vs0mg"},{"bike_id":"ea0191c4-8dc8-4682-b350-87bac166e441","system_id":"levelo_inurba_marseille","lat":43.30815,"lon":5.38145,"is_reserved":false,"is_disabled":true,"rental_uris":{"android":"levelo://app?vid=ea0191c4-8dc8-4682-b350-87bac166e441","ios":"levelo://app?vid=ea0191c4-8dc8-4682-b350-87bac166e441"},"vehicle_type_id":"4","last_reported":1748639314,"current_range_meters":3600,"station_id":"ce4bgt12rcd13ifvqce0","pricing_plan_id":"cebpf4jnsgd1na2vs0mg"},{"bike_id":"784a945d-80c2-45aa-b87c-e407e4d2ae86","system_id":"levelo_inurba_marseille","lat":43.27063,"lon":5.40259,"is_reserved":false,"is_disabled":true,"rental_uris":{"android":"levelo://app?vid=784a945d-80c2-45aa-b87c-e407e4d2ae86","ios":"levelo://app?vid=784a945d-80c2-45aa-b87c-e407e4d2ae86"},"vehicle_type_id":"4","last_reported":1748639314,"current_range_meters":3600,"station_id":"ce4bhk92rcd13ifvqgc0","pricing_plan_id":"cebpf4jnsgd1na2vs0mg"},{"bike_id":"697d924a-ea53-411b-88e3-ed7542c4178d","system_id":"levelo_inurba_marseille","lat":43.337788,"lon":5.374825,"is_reserved":false,"is_disabled":false,"rental_uris":{"android":"levelo://app?vid=697d924a-ea53-411b-88e3-ed7542c4178d","ios":"levelo://app?vid=697d924a-ea53-411b-88e3-ed7542c4178d"},"vehicle_type_id":"4","last_reported":1748639314,"current_range_meters":3600,"station_id":"","pricing_plan_id":"cebpf4jnsgd1na2vs0mg"},{"bike_id":"93222ebe-437b-49ba-b05e-139fa3159770","system_id":"levelo_inurba_marseille","lat":43.22891,"lon":5.35354,"is_reserved":false,"is_disabled":false,"rental_uris":{"android":"levelo://app?vid=93222ebe-437b-49ba-b05e-139fa3159770","ios":"levelo://app?vid=93222ebe-437b-49ba-b05e-139fa3159770"},"vehicle_type_id":"4","last_reported":1748639314,"current_range_meters":3600,"station_id":"cpo3532slgdg3j2ikp40","pricing_plan_id":"cebpf4jnsgd1na2vs0mg"},{"bike_id":"5ecdc42c-d8ed-400b-8881-e9901a78449d","system_id":"levelo_inurba_marseille","lat":43.27998,"lon":5.40015,"is_reserved":false,"is_disabled":false,"rental_uris":{"android":"levelo://app?vid=5ecdc42c-d8ed-400b-8881-e9901a78449d","ios":"levelo://app?vid=5ecdc42c-d8ed-400b-8881-e9901a78449d"},"vehicle_type_id":"4","last_reported":1748639314,"current_range_meters":3600,"station_id":"ce4bho92rcd13ifvqh4g","pricing_plan_id":"cebpf4jnsgd1na2vs0mg"},{"bike_id":"542b6fd8-67fc-48f9-b833-8619303e8f46","system_id":"levelo_inurba_marseille","lat":43.29918,"lon":5.38145,"is_reserved":false,"is_disabled":false,"rental_uris":{"android":"levelo://app?vid=542b6fd8-67fc-48f9-b833-8619303e8f46","ios":"levelo://app?vid=542b6fd8-67fc-48f9-b833-8619303e8f46"},"vehicle_type_id":"4","last_reported":1748639314,"current_range_meters":4000,"station_id":"ce4bgj12rcd13ifvqbc0","pricing_plan_id":"cebpf4jnsgd1na2vs0mg"},{"bike_id":"c905e8da-4c96-4812-b3f1-3a0f774a9990","system_id":"levelo_inurba_marseille","lat":43.26221,"lon":5.37442,"is_reserved":false,"is_disabled":false,"rental_uris":{"android":"levelo://app?vid=c905e8da-4c96-4812-b3f1-3a0f774a9990","ios":"levelo://app?vid=c905e8da-4c96-4812-b3f1-3a0f774a9990"},"vehicle_type_id":"4","last_reported":1748639314,"current_range_meters":4000,"station_id":"ce4bhgp2rcd13ifvqfc0","pricing_plan_id":"cebpf4jnsgd1na2vs0mg"},{"bike_id":"f387fd33-15fe-45c7-8f76-4b3462b7a48c","system_id":"levelo_inurba_marseille","lat":43.21416,"lon":5.34515,"is_reserved":false,"is_disabled":false,"rental_uris":{"android":"levelo://app?vid=f387fd33-15fe-45c7-8f76-4b3462b7a48c","ios":"levelo://app?vid=f387fd33-15fe-45c7-8f76-4b3462b7a48c"},"vehicle_type_id":"4","last_reported":1748639314,"current_range_meters":4000,"station_id":"","pricing_plan_id":"cebpf4jnsgd1na2vs0mg"},{"bike_id":"121990ee-eebe-4650-b81a-0d555e681676","system_id":"levelo_inurba_marseille","lat":43.29201,"lon":5.39317,"is_reserved":false,"is_disabled":false,"rental_uris":{"android":"levelo://app?vid=121990ee-eebe-4650-b81a-0d555e681676","ios":"levelo://app?vid=121990ee-eebe-4650-b81a-0d555e681676"},"vehicle_type_id":"4","last_reported":1748639314,"current_range_meters":4000,"station_id":"ce4bh192rcd13ifvqdd0","pricing_plan_id":"cebpf4jnsgd1na2vs0mg"},{"bike_id":"e5a39061-e6fb-42a0-87cb-150b4ea27347","system_id":"levelo_inurba_marseille","lat":43.2927,"lon":5.38433,"is_reserved":false,"is_disabled":false,"rental_uris":{"android":"levelo://app?vid=e5a39061-e6fb-42a0-87cb-150b4ea27347","ios":"levelo://app?vid=e5a39061-e6fb-42a0-87cb-150b4ea27347"},"vehicle_type_id":"4","last_reported":1748639314,"current_range_meters":4000,"station_id":"ce4bh692rcd13ifvqea0","pricing_plan_id":"cebpf4jnsgd1na2vs0mg"},{"bike_id":"22d2387d-ab0d-4e02-aa80-8d828ac5ad05","system_id":"levelo_inurba_marseille","lat":43.255468,"lon":5.382195,"is_reserved":false,"is_disabled":false,"rental_uris":{"android":"levelo://app?vid=22d2387d-ab0d-4e02-aa80-8d828ac5ad05","ios":"levelo://app?vid=22d2387d-ab0d-4e02-aa80-8d828ac5ad05"},"vehicle_type_id":"4","last_reported":1748639314,"current_range_meters":4000,"station_id":"ce4bhih2rcd13ifvqfs0","pricing_plan_id":"cebpf4jnsgd1na2vs0mg"},{"bike_id":"83f58932-5e4f-4759-9290-dfe976998719","system_id":"levelo_inurba_marseille","lat":43.231913,"lon":5.355524,"is_reserved":false,"is_disabled":true,"rental_uris":{"android":"levelo://app?vid=83f58932-5e4f-4759-9290-dfe976998719","ios":"levelo://app?vid=83f58932-5e4f-4759-9290-dfe976998719"},"vehicle_type_id":"4","last_reported":1748639314,"current_range_meters":4000,"station_id":"ce4bhr12rcd13ifvqhqg","pricing_plan_id":"cebpf4jnsgd1na2vs0mg"},{"bike_id":"22f5aae2-d15f-4462-8244-e7aecc43ce24","system_id":"levelo_inurba_marseille","lat":43.29854,"lon":5.36291,"is_reserved":false,"is_disabled":false,"rental_uris":{"android":"levelo://app?vid=22f5aae2-d15f-4462-8244-e7aecc43ce24","ios":"levelo://app?vid=22f5aae2-d15f-4462-8244-e7aecc43ce24"},"vehicle_type_id":"4","last_reported":1748639314,"current_range_meters":4800,"station_id":"","pricing_plan_id":"cebpf4jnsgd1na2vs0mg"},{"bike_id":"7adaa11d-cb5d-4ec7-8a98-6f806228adba","system_id":"levelo_inurba_marseille","lat":43.30936,"lon":5.40143,"is_reserved":false,"is_disabled":false,"rental_uris":{"android":"levelo://app?vid=7adaa11d-cb5d-4ec7-8a98-6f806228adba","ios":"levelo://app?vid=7adaa11d-cb5d-4ec7-8a98-6f806228adba"},"vehicle_type_id":"4","last_reported":1748639314,"current_range_meters":4000,"station_id":"ce4bgvp2rcd13ifvqct0","pricing_plan_id":"cebpf4jnsgd1na2vs0mg"},{"bike_id":"c2c9fcb8-e941-4640-ae8c-3c946867823e","system_id":"levelo_inurba_marseille","lat":43.29268,"lon":5.36848,"is_reserved":false,"is_disabled":false,"rental_uris":{"android":"levelo://app?vid=c2c9fcb8-e941-4640-ae8c-3c946867823e","ios":"levelo://app?vid=c2c9fcb8-e941-4640-ae8c-3c946867823e"},"vehicle_type_id":"4","last_reported":1748639314,"current_range_meters":4400,"station_id":"","pricing_plan_id":"cebpf4jnsgd1na2vs0mg"},{"bike_id":"e9f5956b-8273-4ccb-bff3-e3602705b398","system_id":"levelo_inurba_marseille","lat":43.2603,"lon":5.37546,"is_reserved":false,"is_disabled":false,"rental_uris":{"android":"levelo://app?vid=e9f5956b-8273-4ccb-bff3-e3602705b398","ios":"levelo://app?vid=e9f5956b-8273-4ccb-bff3-e3602705b398"},"vehicle_type_id":"4","last_reported":1748639314,"current_range_meters":4000,"station_id":"ce4bhgh2rcd13ifvqfa0","pricing_plan_id":"cebpf4jnsgd1na2vs0mg"},{"bike_id":"6764819e-6a14-4342-a636-bc0492e416f3","system_id":"levelo_inurba_marseille","lat":43.29973,"lon":5.38495,"is_reserved":false,"is_disabled":false,"rental_uris":{"android":"levelo://app?vid=6764819e-6a14-4342-a636-bc0492e416f3","ios":"levelo://app?vid=6764819e-6a14-4342-a636-bc0492e416f3"},"vehicle_type_id":"4","last_reported":1748639314,"current_range_meters":4000,"station_id":"ce4bgj92rcd13ifvqbd0","pricing_plan_id":"cebpf4jnsgd1na2vs0mg"},{"bike_id":"af8e1be6-6618-4336-9916-bd4accf3991d","system_id":"levelo_inurba_marseille","lat":43.28421,"lon":5.37504,"is_reserved":false,"is_disabled":false,"rental_uris":{"android":"levelo://app?vid=af8e1be6-6618-4336-9916-bd4accf3991d","ios":"levelo://app?vid=af8e1be6-6618-4336-9916-bd4accf3991d"},"vehicle_type_id":"4","last_reported":1748639314,"current_range_meters":4400,"station_id":"ce4bh412rcd13ifvqds0","pricing_plan_id":"cebpf4jnsgd1na2vs0mg"},{"bike_id":"9a3e8474-2e74-4a00-8ec2-4f67020a2256","system_id":"levelo_inurba_marseille","lat":43.27991,"lon":5.38754,"is_reserved":false,"is_disabled":true,"rental_uris":{"android":"levelo://app?vid=9a3e8474-2e74-4a00-8ec2-4f67020a2256","ios":"levelo://app?vid=9a3e8474-2e74-4a00-8ec2-4f67020a2256"},"vehicle_type_id":"4","last_reported":1748639314,"current_range_meters":4400,"station_id":"ce4bhg12rcd13ifvqf80","pricing_plan_id":"cebpf4jnsgd1na2vs0mg"},{"bike_id":"abcf9a2a-3fb7-4759-9620-79c83a9c76e1","system_id":"levelo_inurba_marseille","lat":43.28274,"lon":5.35079,"is_reserved":false,"is_disabled":false,"rental_uris":{"android":"levelo://app?vid=abcf9a2a-3fb7-4759-9620-79c83a9c76e1","ios":"levelo://app?vid=abcf9a2a-3fb7-4759-9620-79c83a9c76e1"},"vehicle_type_id":"4","last_reported":1748639314,"current_range_meters":4400,"station_id":"ce4bhbp2rcd13ifvqerg","pricing_plan_id":"cebpf4jnsgd1na2vs0mg"},{"bike_id":"dec0a9ef-b594-4648-ab79-486f399ec901","system_id":"levelo_inurba_marseille","lat":43.296,"lon":5.38101,"is_reserved":false,"is_disabled":false,"rental_uris":{"android":"levelo://app?vid=dec0a9ef-b594-4648-ab79-486f399ec901","ios":"levelo://app?vid=dec0a9ef-b594-4648-ab79-486f399ec901"},"vehicle_type_id":"4","last_reported":1748639314,"current_range_meters":4800,"station_id":"ce4bgl12rcd13ifvqbo0","pricing_plan_id":"cebpf4jnsgd1na2vs0mg"},{"bike_id":"9498d8c8-3cdd-4f18-a8d2-bc8b0b2fa877","system_id":"levelo_inurba_marseille","lat":43.30298,"lon":5.39205,"is_reserved":false,"is_disabled":false,"rental_uris":{"android":"levelo://app?vid=9498d8c8-3cdd-4f18-a8d2-bc8b0b2fa877","ios":"levelo://app?vid=9498d8c8-3cdd-4f18-a8d2-bc8b0b2fa877"},"vehicle_type_id":"4","last_reported":1748639314,"current_range_meters":5600,"station_id":"ce4bgkh2rcd13ifvqbk0","pricing_plan_id":"cebpf4jnsgd1na2vs0mg"},{"bike_id":"0487cbea-1c38-4d38-a7f4-83b5db69caf6","system_id":"levelo_inurba_marseille","lat":43.26578,"lon":5.37319,"is_reserved":false,"is_disabled":false,"rental_uris":{"android":"levelo://app?vid=0487cbea-1c38-4d38-a7f4-83b5db69caf6","ios":"levelo://app?vid=0487cbea-1c38-4d38-a7f4-83b5db69caf6"},"vehicle_type_id":"4","last_reported":1748639314,"current_range_meters":5600,"station_id":"ce4bhg12rcd13ifvqf70","pricing_plan_id":"cebpf4jnsgd1na2vs0mg"},{"bike_id":"9fe349be-294c-4d85-a77d-02cbf6ec2a10","system_id":"levelo_inurba_marseille","lat":43.29722,"lon":5.37692,"is_reserved":false,"is_disabled":false,"rental_uris":{"android":"levelo://app?vid=9fe349be-294c-4d85-a77d-02cbf6ec2a10","ios":"levelo://app?vid=9fe349be-294c-4d85-a77d-02cbf6ec2a10"},"vehicle_type_id":"4","last_reported":1748639314,"current_range_meters":5600,"station_id":"ce4bgkh2rcd13ifvqbl0","pricing_plan_id":"cebpf4jnsgd1na2vs0mg"},{"bike_id":"f55573bf-ea21-41ae-b016-9f65985f12d0","system_id":"levelo_inurba_marseille","lat":43.28344,"lon":5.38099,"is_reserved":false,"is_disabled":false,"rental_uris":{"android":"levelo://app?vid=f55573bf-ea21-41ae-b016-9f65985f12d0","ios":"levelo://app?vid=f55573bf-ea21-41ae-b016-9f65985f12d0"},"vehicle_type_id":"4","last_reported":1748639314,"current_range_meters":4800,"station_id":"ce4bh412rcd13ifvqdr0","pricing_plan_id":"cebpf4jnsgd1na2vs0mg"},{"bike_id":"299bc464-0062-40b9-b8fd-94e53cb49a69","system_id":"levelo_inurba_marseille","lat":43.29641,"lon":5.36229,"is_reserved":false,"is_disabled":false,"rental_uris":{"android":"levelo://app?vid=299bc464-0062-40b9-b8fd-94e53cb49a69","ios":"levelo://app?vid=299bc464-0062-40b9-b8fd-94e53cb49a69"},"vehicle_type_id":"4","last_reported":1748639314,"current_range_meters":5600,"station_id":"","pricing_plan_id":"cebpf4jnsgd1na2vs0mg"},{"bike_id":"a59797f2-7052-4070-9583-6cadb44cc4e5","system_id":"levelo_inurba_marseille","lat":43.29628,"lon":5.37979,"is_reserved":false,"is_disabled":false,"rental_uris":{"android":"levelo://app?vid=a59797f2-7052-4070-9583-6cadb44cc4e5","ios":"levelo://app?vid=a59797f2-7052-4070-9583-6cadb44cc4e5"},"vehicle_type_id":"4","last_reported":1748639314,"current_range_meters":6000,"station_id":"","pricing_plan_id":"cebpf4jnsgd1na2vs0mg"},{"bike_id":"c3302591-7333-4206-b714-57ceb59be2da","system_id":"levelo_inurba_marseille","lat":43.29972,"lon":5.37177,"is_reserved":false,"is_disabled":false,"rental_uris":{"android":"levelo://app?vid=c3302591-7333-4206-b714-57ceb59be2da","ios":"levelo://app?vid=c3302591-7333-4206-b714-57ceb59be2da"},"vehicle_type_id":"4","last_reported":1748639314,"current_range_meters":5600,"station_id":"ce4bgr92rcd13ifvqc7g","pricing_plan_id":"cebpf4jnsgd1na2vs0mg"},{"bike_id":"d6a10717-f459-4fd7-a950-cb4ec4044f72","system_id":"levelo_inurba_marseille","lat":43.24825,"lon":5.40389,"is_reserved":false,"is_disabled":false,"rental_uris":{"android":"levelo://app?vid=d6a10717-f459-4fd7-a950-cb4ec4044f72","ios":"levelo://app?vid=d6a10717-f459-4fd7-a950-cb4ec4044f72"},"vehicle_type_id":"4","last_reported":1748639314,"current_range_meters":5600,"station_id":"","pricing_plan_id":"cebpf4jnsgd1na2vs0mg"},{"bike_id":"daa4fe86-0f61-482f-b421-85d55122756a","system_id":"levelo_inurba_marseille","lat":43.27564,"lon":5.38413,"is_reserved":false,"is_disabled":false,"rental_uris":{"android":"levelo://app?vid=daa4fe86-0f61-482f-b421-85d55122756a","ios":"levelo://app?vid=daa4fe86-0f61-482f-b421-85d55122756a"},"vehicle_type_id":"4","last_reported":1748639314,"current_range_meters":6000,"station_id":"ce4bhh92rcd13ifvqfi0","pricing_plan_id":"cebpf4jnsgd1na2vs0mg"},{"bike_id":"bbb2d7fa-4fea-45cc-92c7-b1f8fb614697","system_id":"levelo_inurba_marseille","lat":43.265556,"lon":5.372885,"is_reserved":false,"is_disabled":false,"rental_uris":{"android":"levelo://app?vid=bbb2d7fa-4fea-45cc-92c7-b1f8fb614697","ios":"levelo://app?vid=bbb2d7fa-4fea-45cc-92c7-b1f8fb614697"},"vehicle_type_id":"4","last_reported":1748639314,"current_range_meters":6000,"station_id":"ce4bhg12rcd13ifvqf70","pricing_plan_id":"cebpf4jnsgd1na2vs0mg"},{"bike_id":"2981ae6d-848a-44c5-987d-c104168410fb","system_id":"levelo_inurba_marseille","lat":43.241746,"lon":5.363923,"is_reserved":false,"is_disabled":true,"rental_uris":{"android":"levelo://app?vid=2981ae6d-848a-44c5-987d-c104168410fb","ios":"levelo://app?vid=2981ae6d-848a-44c5-987d-c104168410fb"},"vehicle_type_id":"4","last_reported":1748639314,"current_range_meters":6400,"station_id":"cpo36qri1sfpv3e86is0","pricing_plan_id":"cebpf4jnsgd1na2vs0mg"},{"bike_id":"36240f0a-66a2-43ec-8330-1f3a9d08cc7e","system_id":"levelo_inurba_marseille","lat":43.239044,"lon":5.362566,"is_reserved":false,"is_disabled":false,"rental_uris":{"android":"levelo://app?vid=36240f0a-66a2-43ec-8330-1f3a9d08cc7e","ios":"levelo://app?vid=36240f0a-66a2-43ec-8330-1f3a9d08cc7e"},"vehicle_type_id":"4","last_reported":1748639314,"current_range_meters":6400,"station_id":"","pricing_plan_id":"cebpf4jnsgd1na2vs0mg"},{"bike_id":"b52a3df2-025a-4bfd-8da0-c020402ea3cc","system_id":"levelo_inurba_marseille","lat":43.2659,"lon":5.38988,"is_reserved":false,"is_disabled":false,"rental_uris":{"android":"levelo://app?vid=b52a3df2-025a-4bfd-8da0-c020402ea3cc","ios":"levelo://app?vid=b52a3df2-025a-4bfd-8da0-c020402ea3cc"},"vehicle_type_id":"4","last_reported":1748639314,"current_range_meters":6400,"station_id":"ce4bhe12rcd13ifvqf30","pricing_plan_id":"cebpf4jnsgd1na2vs0mg"},{"bike_id":"55080048-1445-433c-8653-9f436d843131","system_id":"levelo_inurba_marseille","lat":43.285027,"lon":5.36894,"is_reserved":false,"is_disabled":false,"rental_uris":{"android":"levelo://app?vid=55080048-1445-433c-8653-9f436d843131","ios":"levelo://app?vid=55080048-1445-433c-8653-9f436d843131"},"vehicle_type_id":"4","last_reported":1748639314,"current_range_meters":6800,"station_id":"","pricing_plan_id":"cebpf4jnsgd1na2vs0mg"},{"bike_id":"51cacac3-d9df-4100-95a6-17b3cf180b4a","system_id":"levelo_inurba_marseille","lat":43.29867,"lon":5.39731,"is_reserved":false,"is_disabled":false,"rental_uris":{"android":"levelo://app?vid=51cacac3-d9df-4100-95a6-17b3cf180b4a","ios":"levelo://app?vid=51cacac3-d9df-4100-95a6-17b3cf180b4a"},"vehicle_type_id":"4","last_reported":1748639314,"current_range_meters":6800,"station_id":"ce4bh0h2rcd13ifvqd50","pricing_plan_id":"cebpf4jnsgd1na2vs0mg"},{"bike_id":"279c369f-c492-4693-948f-89666180ff3e","system_id":"levelo_inurba_marseille","lat":43.25495,"lon":5.37654,"is_reserved":false,"is_disabled":false,"rental_uris":{"android":"levelo://app?vid=279c369f-c492-4693-948f-89666180ff3e","ios":"levelo://app?vid=279c369f-c492-4693-948f-89666180ff3e"},"vehicle_type_id":"4","last_reported":1748639314,"current_range_meters":6800,"station_id":"ce4bhh12rcd13ifvqff0","pricing_plan_id":"cebpf4jnsgd1na2vs0mg"},{"bike_id":"a69c5064-55ac-40fa-a02e-700ee3dac888","system_id":"levelo_inurba_marseille","lat":43.26553,"lon":5.40324,"is_reserved":false,"is_disabled":false,"rental_uris":{"android":"levelo://app?vid=a69c5064-55ac-40fa-a02e-700ee3dac888","ios":"levelo://app?vid=a69c5064-55ac-40fa-a02e-700ee3dac888"},"vehicle_type_id":"4","last_reported":1748639314,"current_range_meters":6800,"station_id":"","pricing_plan_id":"cebpf4jnsgd1na2vs0mg"},{"bike_id":"1df01b7e-7c97-4647-8d04-748e7e3d2935","system_id":"levelo_inurba_marseille","lat":43.26571,"lon":5.39003,"is_reserved":false,"is_disabled":false,"rental_uris":{"android":"levelo://app?vid=1df01b7e-7c97-4647-8d04-748e7e3d2935","ios":"levelo://app?vid=1df01b7e-7c97-4647-8d04-748e7e3d2935"},"vehicle_type_id":"4","last_reported":1748639314,"current_range_meters":6800,"station_id":"ce4bhe12rcd13ifvqf30","pricing_plan_id":"cebpf4jnsgd1na2vs0mg"},{"bike_id":"92b7c0b9-d3e9-4a41-bdfb-bae803f4d20d","system_id":"levelo_inurba_marseille","lat":43.29277,"lon":5.38428,"is_reserved":false,"is_disabled":false,"rental_uris":{"android":"levelo://app?vid=92b7c0b9-d3e9-4a41-bdfb-bae803f4d20d","ios":"levelo://app?vid=92b7c0b9-d3e9-4a41-bdfb-bae803f4d20d"},"vehicle_type_id":"4","last_reported":1748639314,"current_range_meters":5600,"station_id":"ce4bh692rcd13ifvqea0","pricing_plan_id":"cebpf4jnsgd1na2vs0mg"},{"bike_id":"3d4773db-bf37-45ee-b26e-b0c5e5127bd8","system_id":"levelo_inurba_marseille","lat":43.28703,"lon":5.39984,"is_reserved":false,"is_disabled":false,"rental_uris":{"android":"levelo://app?vid=3d4773db-bf37-45ee-b26e-b0c5e5127bd8","ios":"levelo://app?vid=3d4773db-bf37-45ee-b26e-b0c5e5127bd8"},"vehicle_type_id":"4","last_reported":1748639314,"current_range_meters":6800,"station_id":"ce4bho92rcd13ifvqh3g","pricing_plan_id":"cebpf4jnsgd1na2vs0mg"},{"bike_id":"a426f99b-d34a-41bf-bbda-59f7dfd6939b","system_id":"levelo_inurba_marseille","lat":43.255796,"lon":5.382262,"is_reserved":false,"is_disabled":false,"rental_uris":{"android":"levelo://app?vid=a426f99b-d34a-41bf-bbda-59f7dfd6939b","ios":"levelo://app?vid=a426f99b-d34a-41bf-bbda-59f7dfd6939b"},"vehicle_type_id":"4","last_reported":1748639314,"current_range_meters":7200,"station_id":"ce501612rcd8frsf0b60","pricing_plan_id":"cebpf4jnsgd1na2vs0mg"},{"bike_id":"194e2b76-314c-40f5-8c9e-a40d26ed2d77","system_id":"levelo_inurba_marseille","lat":43.23197,"lon":5.35547,"is_reserved":false,"is_disabled":false,"rental_uris":{"android":"levelo://app?vid=194e2b76-314c-40f5-8c9e-a40d26ed2d77","ios":"levelo://app?vid=194e2b76-314c-40f5-8c9e-a40d26ed2d77"},"vehicle_type_id":"4","last_reported":1748639314,"current_range_meters":8000,"station_id":"ce4bhu92rcd13ifvqi70","pricing_plan_id":"cebpf4jnsgd1na2vs0mg"},{"bike_id":"cc0c456a-d2d1-4754-b0ea-55c47b577b63","system_id":"levelo_inurba_marseille","lat":43.29415,"lon":5.38617,"is_reserved":false,"is_disabled":false,"rental_uris":{"android":"levelo://app?vid=cc0c456a-d2d1-4754-b0ea-55c47b577b63","ios":"levelo://app?vid=cc0c456a-d2d1-4754-b0ea-55c47b577b63"},"vehicle_type_id":"4","last_reported":1748639314,"current_range_meters":7200,"station_id":"ce4bh2h2rcd13ifvqdh0","pricing_plan_id":"cebpf4jnsgd1na2vs0mg"},{"bike_id":"88f577d8-de13-4212-bd77-a62bb0a75400","system_id":"levelo_inurba_marseille","lat":43.24661,"lon":5.3815,"is_reserved":false,"is_disabled":false,"rental_uris":{"android":"levelo://app?vid=88f577d8-de13-4212-bd77-a62bb0a75400","ios":"levelo://app?vid=88f577d8-de13-4212-bd77-a62bb0a75400"},"vehicle_type_id":"4","last_reported":1748639314,"current_range_meters":7200,"station_id":"ce4bhih2rcd13ifvqfr0","pricing_plan_id":"cebpf4jnsgd1na2vs0mg"},{"bike_id":"fd9bab92-c328-47ab-af2a-db231b1eb4a4","system_id":"levelo_inurba_marseille","lat":43.2927,"lon":5.38452,"is_reserved":false,"is_disabled":false,"rental_uris":{"android":"levelo://app?vid=fd9bab92-c328-47ab-af2a-db231b1eb4a4","ios":"levelo://app?vid=fd9bab92-c328-47ab-af2a-db231b1eb4a4"},"vehicle_type_id":"4","last_reported":1748639314,"current_range_meters":7200,"station_id":"ce4bh692rcd13ifvqea0","pricing_plan_id":"cebpf4jnsgd1na2vs0mg"},{"bike_id":"00f77637-c960-45d0-b516-a2f6a0285858","system_id":"levelo_inurba_marseille","lat":43.297347,"lon":5.385432,"is_reserved":false,"is_disabled":false,"rental_uris":{"android":"levelo://app?vid=00f77637-c960-45d0-b516-a2f6a0285858","ios":"levelo://app?vid=00f77637-c960-45d0-b516-a2f6a0285858"},"vehicle_type_id":"4","last_reported":1748639314,"current_range_meters":7200,"station_id":"","pricing_plan_id":"cebpf4jnsgd1na2vs0mg"},{"bike_id":"8dfe85fe-4050-4535-bfaa-fc9ed656007c","system_id":"levelo_inurba_marseille","lat":43.29723,"lon":5.37706,"is_reserved":false,"is_disabled":false,"rental_uris":{"android":"levelo://app?vid=8dfe85fe-4050-4535-bfaa-fc9ed656007c","ios":"levelo://app?vid=8dfe85fe-4050-4535-bfaa-fc9ed656007c"},"vehicle_type_id":"4","last_reported":1748639314,"current_range_meters":7200,"station_id":"ce4bgkh2rcd13ifvqbl0","pricing_plan_id":"cebpf4jnsgd1na2vs0mg"},{"bike_id":"f5733814-9732-4748-bcc9-3b2fac8e1564","system_id":"levelo_inurba_marseille","lat":43.31256,"lon":5.37829,"is_reserved":false,"is_disabled":true,"rental_uris":{"android":"levelo://app?vid=f5733814-9732-4748-bcc9-3b2fac8e1564","ios":"levelo://app?vid=f5733814-9732-4748-bcc9-3b2fac8e1564"},"vehicle_type_id":"4","last_reported":1748639314,"current_range_meters":7200,"station_id":"","pricing_plan_id":"cebpf4jnsgd1na2vs0mg"},{"bike_id":"407e5a45-16ab-470f-bd11-310fec85bedc","system_id":"levelo_inurba_marseille","lat":43.26547,"lon":5.37287,"is_reserved":false,"is_disabled":false,"rental_uris":{"android":"levelo://app?vid=407e5a45-16ab-470f-bd11-310fec85bedc","ios":"levelo://app?vid=407e5a45-16ab-470f-bd11-310fec85bedc"},"vehicle_type_id":"4","last_reported":1748639314,"current_range_meters":7200,"station_id":"ce4bhg12rcd13ifvqf70","pricing_plan_id":"cebpf4jnsgd1na2vs0mg"},{"bike_id":"15053d73-806d-434c-924a-c125dafc6af8","system_id":"levelo_inurba_marseille","lat":43.296197,"lon":5.37152,"is_reserved":false,"is_disabled":false,"rental_uris":{"android":"levelo://app?vid=15053d73-806d-434c-924a-c125dafc6af8","ios":"levelo://app?vid=15053d73-806d-434c-924a-c125dafc6af8"},"vehicle_type_id":"4","last_reported":1748639314,"current_range_meters":7200,"station_id":"ce4bgnh2rcd13ifvqc0g","pricing_plan_id":"cebpf4jnsgd1na2vs0mg"},{"bike_id":"76ca6d21-5d74-438a-9ade-51aff15d0654","system_id":"levelo_inurba_marseille","lat":43.2987,"lon":5.39736,"is_reserved":false,"is_disabled":false,"rental_uris":{"android":"levelo://app?vid=76ca6d21-5d74-438a-9ade-51aff15d0654","ios":"levelo://app?vid=76ca6d21-5d74-438a-9ade-51aff15d0654"},"vehicle_type_id":"4","last_reported":1748639314,"current_range_meters":8000,"station_id":"ce4bh0h2rcd13ifvqd50","pricing_plan_id":"cebpf4jnsgd1na2vs0mg"},{"bike_id":"dd7062c4-b791-450e-b509-818dfec6ed17","system_id":"levelo_inurba_marseille","lat":43.296207,"lon":5.3716,"is_reserved":false,"is_disabled":false,"rental_uris":{"android":"levelo://app?vid=dd7062c4-b791-450e-b509-818dfec6ed17","ios":"levelo://app?vid=dd7062c4-b791-450e-b509-818dfec6ed17"},"vehicle_type_id":"4","last_reported":1748639314,"current_range_meters":8000,"station_id":"ce4bgnh2rcd13ifvqc0g","pricing_plan_id":"cebpf4jnsgd1na2vs0mg"},{"bike_id":"da5921cd-e75b-4ce7-b109-06c28f720590","system_id":"levelo_inurba_marseille","lat":43.28739,"lon":5.36152,"is_reserved":false,"is_disabled":false,"rental_uris":{"android":"levelo://app?vid=da5921cd-e75b-4ce7-b109-06c28f720590","ios":"levelo://app?vid=da5921cd-e75b-4ce7-b109-06c28f720590"},"vehicle_type_id":"4","last_reported":1748639314,"current_range_meters":8000,"station_id":"","pricing_plan_id":"cebpf4jnsgd1na2vs0mg"},{"bike_id":"97c383a9-35fd-4379-9f90-721945a5c5e9","system_id":"levelo_inurba_marseille","lat":43.23075,"lon":5.3548,"is_reserved":false,"is_disabled":false,"rental_uris":{"android":"levelo://app?vid=97c383a9-35fd-4379-9f90-721945a5c5e9","ios":"levelo://app?vid=97c383a9-35fd-4379-9f90-721945a5c5e9"},"vehicle_type_id":"4","last_reported":1748639314,"current_range_meters":8000,"station_id":"cpo3342slgdg3j2ifvpg","pricing_plan_id":"cebpf4jnsgd1na2vs0mg"},{"bike_id":"446b01ec-d117-49a4-928c-61869c6f563e","system_id":"levelo_inurba_marseille","lat":43.27896,"lon":5.38009,"is_reserved":false,"is_disabled":true,"rental_uris":{"android":"levelo://app?vid=446b01ec-d117-49a4-928c-61869c6f563e","ios":"levelo://app?vid=446b01ec-d117-49a4-928c-61869c6f563e"},"vehicle_type_id":"4","last_reported":1748639314,"current_range_meters":8000,"station_id":"ce4bhf92rcd13ifvqf50","pricing_plan_id":"cebpf4jnsgd1na2vs0mg"},{"bike_id":"2ef72c2e-f973-4db9-9142-a3826081f5f0","system_id":"levelo_inurba_marseille","lat":43.286902,"lon":5.373992,"is_reserved":false,"is_disabled":false,"rental_uris":{"android":"levelo://app?vid=2ef72c2e-f973-4db9-9142-a3826081f5f0","ios":"levelo://app?vid=2ef72c2e-f973-4db9-9142-a3826081f5f0"},"vehicle_type_id":"4","last_reported":1748639314,"current_range_meters":8000,"station_id":"ce4bh9p2rcd13ifvqec0","pricing_plan_id":"cebpf4jnsgd1na2vs0mg"},{"bike_id":"b151cbb0-e6cc-42fe-b627-c9ec875f6cff","system_id":"levelo_inurba_marseille","lat":43.258607,"lon":5.398952,"is_reserved":false,"is_disabled":false,"rental_uris":{"android":"levelo://app?vid=b151cbb0-e6cc-42fe-b627-c9ec875f6cff","ios":"levelo://app?vid=b151cbb0-e6cc-42fe-b627-c9ec875f6cff"},"vehicle_type_id":"4","last_reported":1748639314,"current_range_meters":7200,"station_id":"ce4bhl92rcd13ifvqghg","pricing_plan_id":"cebpf4jnsgd1na2vs0mg"},{"bike_id":"ca47216b-bcac-48d4-b908-be13c18135cd","system_id":"levelo_inurba_marseille","lat":43.29272,"lon":5.40151,"is_reserved":false,"is_disabled":false,"rental_uris":{"android":"levelo://app?vid=ca47216b-bcac-48d4-b908-be13c18135cd","ios":"levelo://app?vid=ca47216b-bcac-48d4-b908-be13c18135cd"},"vehicle_type_id":"4","last_reported":1748639314,"current_range_meters":8000,"station_id":"ce4bh312rcd13ifvqdk0","pricing_plan_id":"cebpf4jnsgd1na2vs0mg"},{"bike_id":"6e6b68c4-ef8d-4b16-8959-a4de03ea4574","system_id":"levelo_inurba_marseille","lat":43.3108,"lon":5.3835,"is_reserved":false,"is_disabled":false,"rental_uris":{"android":"levelo://app?vid=6e6b68c4-ef8d-4b16-8959-a4de03ea4574","ios":"levelo://app?vid=6e6b68c4-ef8d-4b16-8959-a4de03ea4574"},"vehicle_type_id":"4","last_reported":1748639314,"current_range_meters":8000,"station_id":"ce4bgv92rcd13ifvqcr0","pricing_plan_id":"cebpf4jnsgd1na2vs0mg"},{"bike_id":"9cc3a65c-efca-464f-8bc7-db353587d1cf","system_id":"levelo_inurba_marseille","lat":43.31721,"lon":5.42394,"is_reserved":false,"is_disabled":false,"rental_uris":{"android":"levelo://app?vid=9cc3a65c-efca-464f-8bc7-db353587d1cf","ios":"levelo://app?vid=9cc3a65c-efca-464f-8bc7-db353587d1cf"},"vehicle_type_id":"4","last_reported":1748639314,"current_range_meters":8000,"station_id":"ce4bhp92rcd13ifvqhbg","pricing_plan_id":"cebpf4jnsgd1na2vs0mg"},{"bike_id":"24527a7f-1739-405b-83b7-fdf18a19550e","system_id":"levelo_inurba_marseille","lat":43.3171,"lon":5.37757,"is_reserved":false,"is_disabled":false,"rental_uris":{"android":"levelo://app?vid=24527a7f-1739-405b-83b7-fdf18a19550e","ios":"levelo://app?vid=24527a7f-1739-405b-83b7-fdf18a19550e"},"vehicle_type_id":"4","last_reported":1748639314,"current_range_meters":8400,"station_id":"ce4bgth2rcd13ifvqch0","pricing_plan_id":"cebpf4jnsgd1na2vs0mg"},{"bike_id":"544abdfa-b4d6-4c3e-8a04-4e2476db1de5","system_id":"levelo_inurba_marseille","lat":43.29878,"lon":5.3686,"is_reserved":false,"is_disabled":false,"rental_uris":{"android":"levelo://app?vid=544abdfa-b4d6-4c3e-8a04-4e2476db1de5","ios":"levelo://app?vid=544abdfa-b4d6-4c3e-8a04-4e2476db1de5"},"vehicle_type_id":"4","last_reported":1748639314,"current_range_meters":8400,"station_id":"","pricing_plan_id":"cebpf4jnsgd1na2vs0mg"},{"bike_id":"daa3573b-3729-4634-b963-efc7ff8d8e46","system_id":"levelo_inurba_marseille","lat":43.29535,"lon":5.38546,"is_reserved":false,"is_disabled":false,"rental_uris":{"android":"levelo://app?vid=daa3573b-3729-4634-b963-efc7ff8d8e46","ios":"levelo://app?vid=daa3573b-3729-4634-b963-efc7ff8d8e46"},"vehicle_type_id":"4","last_reported":1748639314,"current_range_meters":8400,"station_id":"ce4bgih2rcd13ifvqba0","pricing_plan_id":"cebpf4jnsgd1na2vs0mg"},{"bike_id":"e9cda520-c6f4-465d-ad7f-8c059b3dc45a","system_id":"levelo_inurba_marseille","lat":43.313967,"lon":5.383993,"is_reserved":false,"is_disabled":true,"rental_uris":{"android":"levelo://app?vid=e9cda520-c6f4-465d-ad7f-8c059b3dc45a","ios":"levelo://app?vid=e9cda520-c6f4-465d-ad7f-8c059b3dc45a"},"vehicle_type_id":"4","last_reported":1748639314,"current_range_meters":8400,"station_id":"","pricing_plan_id":"cebpf4jnsgd1na2vs0mg"},{"bike_id":"a31656a4-5217-4c2d-91ea-e636b7cf9b1f","system_id":"levelo_inurba_marseille","lat":43.28554,"lon":5.38435,"is_reserved":false,"is_disabled":false,"rental_uris":{"android":"levelo://app?vid=a31656a4-5217-4c2d-91ea-e636b7cf9b1f","ios":"levelo://app?vid=a31656a4-5217-4c2d-91ea-e636b7cf9b1f"},"vehicle_type_id":"4","last_reported":1748639314,"current_range_meters":8400,"station_id":"","pricing_plan_id":"cebpf4jnsgd1na2vs0mg"},{"bike_id":"391b84f7-909a-4809-ad28-cb52ffd8c9cb","system_id":"levelo_inurba_marseille","lat":43.305398,"lon":5.384232,"is_reserved":false,"is_disabled":false,"rental_uris":{"android":"levelo://app?vid=391b84f7-909a-4809-ad28-cb52ffd8c9cb","ios":"levelo://app?vid=391b84f7-909a-4809-ad28-cb52ffd8c9cb"},"vehicle_type_id":"4","last_reported":1748639314,"current_range_meters":8000,"station_id":"ce4bgg92rcd13ifvqb30","pricing_plan_id":"cebpf4jnsgd1na2vs0mg"},{"bike_id":"5f492578-1cd8-414f-b968-9fe5787e2baa","system_id":"levelo_inurba_marseille","lat":43.28147,"lon":5.42645,"is_reserved":false,"is_disabled":false,"rental_uris":{"android":"levelo://app?vid=5f492578-1cd8-414f-b968-9fe5787e2baa","ios":"levelo://app?vid=5f492578-1cd8-414f-b968-9fe5787e2baa"},"vehicle_type_id":"4","last_reported":1748639314,"current_range_meters":8800,"station_id":"ce4bhnh2rcd13ifvqgug","pricing_plan_id":"cebpf4jnsgd1na2vs0mg"},{"bike_id":"931154ef-2afa-4f73-8f63-ecae832c8a6c","system_id":"levelo_inurba_marseille","lat":43.29049,"lon":5.36879,"is_reserved":false,"is_disabled":false,"rental_uris":{"android":"levelo://app?vid=931154ef-2afa-4f73-8f63-ecae832c8a6c","ios":"levelo://app?vid=931154ef-2afa-4f73-8f63-ecae832c8a6c"},"vehicle_type_id":"4","last_reported":1748639314,"current_range_meters":8800,"station_id":"","pricing_plan_id":"cebpf4jnsgd1na2vs0mg"},{"bike_id":"d9f1f4d8-b422-476d-8100-627ece5eb5b8","system_id":"levelo_inurba_marseille","lat":43.2927,"lon":5.36856,"is_reserved":false,"is_disabled":false,"rental_uris":{"android":"levelo://app?vid=d9f1f4d8-b422-476d-8100-627ece5eb5b8","ios":"levelo://app?vid=d9f1f4d8-b422-476d-8100-627ece5eb5b8"},"vehicle_type_id":"4","last_reported":1748639314,"current_range_meters":8800,"station_id":"","pricing_plan_id":"cebpf4jnsgd1na2vs0mg"},{"bike_id":"5be7bb32-7f60-46e4-9e9b-c6c38975a52d","system_id":"levelo_inurba_marseille","lat":43.28294,"lon":5.36078,"is_reserved":false,"is_disabled":false,"rental_uris":{"android":"levelo://app?vid=5be7bb32-7f60-46e4-9e9b-c6c38975a52d","ios":"levelo://app?vid=5be7bb32-7f60-46e4-9e9b-c6c38975a52d"},"vehicle_type_id":"4","last_reported":1748639314,"current_range_meters":8800,"station_id":"","pricing_plan_id":"cebpf4jnsgd1na2vs0mg"},{"bike_id":"f7005840-3fcb-440d-a899-0476f19bf267","system_id":"levelo_inurba_marseille","lat":43.28166,"lon":5.42637,"is_reserved":false,"is_disabled":false,"rental_uris":{"android":"levelo://app?vid=f7005840-3fcb-440d-a899-0476f19bf267","ios":"levelo://app?vid=f7005840-3fcb-440d-a899-0476f19bf267"},"vehicle_type_id":"4","last_reported":1748639314,"current_range_meters":8800,"station_id":"ce4bhnh2rcd13ifvqgug","pricing_plan_id":"cebpf4jnsgd1na2vs0mg"},{"bike_id":"849e7314-5ad0-4184-a1da-4cf45c5457d3","system_id":"levelo_inurba_marseille","lat":43.263205,"lon":5.388746,"is_reserved":false,"is_disabled":false,"rental_uris":{"android":"levelo://app?vid=849e7314-5ad0-4184-a1da-4cf45c5457d3","ios":"levelo://app?vid=849e7314-5ad0-4184-a1da-4cf45c5457d3"},"vehicle_type_id":"4","last_reported":1748639314,"current_range_meters":8400,"station_id":"ce4bh492rcd13ifvqdvg","pricing_plan_id":"cebpf4jnsgd1na2vs0mg"},{"bike_id":"05f952e6-0379-4a56-b6a2-c29acb92d92b","system_id":"levelo_inurba_marseille","lat":43.27498,"lon":5.42448,"is_reserved":false,"is_disabled":false,"rental_uris":{"android":"levelo://app?vid=05f952e6-0379-4a56-b6a2-c29acb92d92b","ios":"levelo://app?vid=05f952e6-0379-4a56-b6a2-c29acb92d92b"},"vehicle_type_id":"4","last_reported":1748639314,"current_range_meters":8800,"station_id":"ce4bhn92rcd13ifvqgrg","pricing_plan_id":"cebpf4jnsgd1na2vs0mg"},{"bike_id":"cbb60bd8-6447-49c0-86de-84051e8d4501","system_id":"levelo_inurba_marseille","lat":43.24388,"lon":5.37058,"is_reserved":false,"is_disabled":false,"rental_uris":{"android":"levelo://app?vid=cbb60bd8-6447-49c0-86de-84051e8d4501","ios":"levelo://app?vid=cbb60bd8-6447-49c0-86de-84051e8d4501"},"vehicle_type_id":"4","last_reported":1748639314,"current_range_meters":8800,"station_id":"ce4bhhh2rcd13ifvqfk0","pricing_plan_id":"cebpf4jnsgd1na2vs0mg"},{"bike_id":"761456b4-55f6-45fc-84c3-eba736876aab","system_id":"levelo_inurba_marseille","lat":43.297001,"lon":5.376954,"is_reserved":false,"is_disabled":false,"rental_uris":{"android":"levelo://app?vid=761456b4-55f6-45fc-84c3-eba736876aab","ios":"levelo://app?vid=761456b4-55f6-45fc-84c3-eba736876aab"},"vehicle_type_id":"4","last_reported":1748639314,"current_range_meters":8800,"station_id":"ce4bgkh2rcd13ifvqbl0","pricing_plan_id":"cebpf4jnsgd1na2vs0mg"},{"bike_id":"cc5fc70e-7155-4888-909b-51f559f3e763","system_id":"levelo_inurba_marseille","lat":43.30422,"lon":5.41278,"is_reserved":false,"is_disabled":false,"rental_uris":{"android":"levelo://app?vid=cc5fc70e-7155-4888-909b-51f559f3e763","ios":"levelo://app?vid=cc5fc70e-7155-4888-909b-51f559f3e763"},"vehicle_type_id":"4","last_reported":1748639314,"current_range_meters":9200,"station_id":"ce4bhop2rcd13ifvqh8g","pricing_plan_id":"cebpf4jnsgd1na2vs0mg"},{"bike_id":"fbf62787-a3c6-4f23-83c5-9f8471a73f2d","system_id":"levelo_inurba_marseille","lat":43.26559,"lon":5.37278,"is_reserved":false,"is_disabled":false,"rental_uris":{"android":"levelo://app?vid=fbf62787-a3c6-4f23-83c5-9f8471a73f2d","ios":"levelo://app?vid=fbf62787-a3c6-4f23-83c5-9f8471a73f2d"},"vehicle_type_id":"4","last_reported":1748639314,"current_range_meters":9200,"station_id":"ce4bhg12rcd13ifvqf70","pricing_plan_id":"cebpf4jnsgd1na2vs0mg"},{"bike_id":"0280afc4-d6c7-45d5-9976-1c2b5d2fedd2","system_id":"levelo_inurba_marseille","lat":43.25107,"lon":5.40333,"is_reserved":false,"is_disabled":false,"rental_uris":{"android":"levelo://app?vid=0280afc4-d6c7-45d5-9976-1c2b5d2fedd2","ios":"levelo://app?vid=0280afc4-d6c7-45d5-9976-1c2b5d2fedd2"},"vehicle_type_id":"4","last_reported":1748639314,"current_range_meters":9200,"station_id":"ce4bhlh2rcd13ifvqgig","pricing_plan_id":"cebpf4jnsgd1na2vs0mg"},{"bike_id":"59a012bf-3c15-49d3-a318-deb57760dc42","system_id":"levelo_inurba_marseille","lat":43.28,"lon":5.40013,"is_reserved":false,"is_disabled":false,"rental_uris":{"android":"levelo://app?vid=59a012bf-3c15-49d3-a318-deb57760dc42","ios":"levelo://app?vid=59a012bf-3c15-49d3-a318-deb57760dc42"},"vehicle_type_id":"4","last_reported":1748639314,"current_range_meters":9200,"station_id":"ce4bho92rcd13ifvqh4g","pricing_plan_id":"cebpf4jnsgd1na2vs0mg"},{"bike_id":"d1b7f506-99eb-4bb5-96c7-b389f8b56435","system_id":"levelo_inurba_marseille","lat":43.31491,"lon":5.37311,"is_reserved":false,"is_disabled":false,"rental_uris":{"android":"levelo://app?vid=d1b7f506-99eb-4bb5-96c7-b389f8b56435","ios":"levelo://app?vid=d1b7f506-99eb-4bb5-96c7-b389f8b56435"},"vehicle_type_id":"4","last_reported":1748639314,"current_range_meters":12400,"station_id":"ce4bgt12rcd13ifvqcd0","pricing_plan_id":"cebpf4jnsgd1na2vs0mg"},{"bike_id":"845d484d-c9a1-4569-b825-1a324b828b4d","system_id":"levelo_inurba_marseille","lat":43.30953,"lon":5.39032,"is_reserved":false,"is_disabled":false,"rental_uris":{"android":"levelo://app?vid=845d484d-c9a1-4569-b825-1a324b828b4d","ios":"levelo://app?vid=845d484d-c9a1-4569-b825-1a324b828b4d"},"vehicle_type_id":"4","last_reported":1748639314,"current_range_meters":9200,"station_id":"ce4bgup2rcd13ifvqco0","pricing_plan_id":"cebpf4jnsgd1na2vs0mg"},{"bike_id":"fe0e0aab-c84d-4e36-a4c6-6bf7f57a8f05","system_id":"levelo_inurba_marseille","lat":43.26561,"lon":5.37298,"is_reserved":false,"is_disabled":false,"rental_uris":{"android":"levelo://app?vid=fe0e0aab-c84d-4e36-a4c6-6bf7f57a8f05","ios":"levelo://app?vid=fe0e0aab-c84d-4e36-a4c6-6bf7f57a8f05"},"vehicle_type_id":"4","last_reported":1748639314,"current_range_meters":9200,"station_id":"ce4bhg12rcd13ifvqf70","pricing_plan_id":"cebpf4jnsgd1na2vs0mg"},{"bike_id":"5d153e79-4d05-41a2-8153-575a0e715524","system_id":"levelo_inurba_marseille","lat":43.28699,"lon":5.3999,"is_reserved":false,"is_disabled":false,"rental_uris":{"android":"levelo://app?vid=5d153e79-4d05-41a2-8153-575a0e715524","ios":"levelo://app?vid=5d153e79-4d05-41a2-8153-575a0e715524"},"vehicle_type_id":"4","last_reported":1748639314,"current_range_meters":9200,"station_id":"ce4bho92rcd13ifvqh3g","pricing_plan_id":"cebpf4jnsgd1na2vs0mg"},{"bike_id":"8345fba8-f53d-4169-9265-3aeb7405da51","system_id":"levelo_inurba_marseille","lat":43.29794,"lon":5.37917,"is_reserved":false,"is_disabled":false,"rental_uris":{"android":"levelo://app?vid=8345fba8-f53d-4169-9265-3aeb7405da51","ios":"levelo://app?vid=8345fba8-f53d-4169-9265-3aeb7405da51"},"vehicle_type_id":"4","last_reported":1748639314,"current_range_meters":9600,"station_id":"","pricing_plan_id":"cebpf4jnsgd1na2vs0mg"},{"bike_id":"6d95016a-bab0-492a-ab92-6868483969f9","system_id":"levelo_inurba_marseille","lat":43.30791,"lon":5.3816,"is_reserved":false,"is_disabled":false,"rental_uris":{"android":"levelo://app?vid=6d95016a-bab0-492a-ab92-6868483969f9","ios":"levelo://app?vid=6d95016a-bab0-492a-ab92-6868483969f9"},"vehicle_type_id":"4","last_reported":1748639314,"current_range_meters":9600,"station_id":"ce4bgt12rcd13ifvqce0","pricing_plan_id":"cebpf4jnsgd1na2vs0mg"},{"bike_id":"a807c8dd-75ce-4f49-b322-50ddd08ec8d0","system_id":"levelo_inurba_marseille","lat":43.34745,"lon":5.37319,"is_reserved":false,"is_disabled":false,"rental_uris":{"android":"levelo://app?vid=a807c8dd-75ce-4f49-b322-50ddd08ec8d0","ios":"levelo://app?vid=a807c8dd-75ce-4f49-b322-50ddd08ec8d0"},"vehicle_type_id":"4","last_reported":1748639314,"current_range_meters":9600,"station_id":"","pricing_plan_id":"cebpf4jnsgd1na2vs0mg"},{"bike_id":"3d36103b-c043-47dc-a225-42e79dcf6cf6","system_id":"levelo_inurba_marseille","lat":43.32283,"lon":5.38273,"is_reserved":false,"is_disabled":false,"rental_uris":{"android":"levelo://app?vid=3d36103b-c043-47dc-a225-42e79dcf6cf6","ios":"levelo://app?vid=3d36103b-c043-47dc-a225-42e79dcf6cf6"},"vehicle_type_id":"4","last_reported":1748639314,"current_range_meters":9600,"station_id":"ce4bhr12rcd13ifvqhqg","pricing_plan_id":"cebpf4jnsgd1na2vs0mg"},{"bike_id":"3f364168-4056-4583-bfdc-c0b26db619cb","system_id":"levelo_inurba_marseille","lat":43.29533,"lon":5.38538,"is_reserved":false,"is_disabled":false,"rental_uris":{"android":"levelo://app?vid=3f364168-4056-4583-bfdc-c0b26db619cb","ios":"levelo://app?vid=3f364168-4056-4583-bfdc-c0b26db619cb"},"vehicle_type_id":"4","last_reported":1748639314,"current_range_meters":9600,"station_id":"ce4bgih2rcd13ifvqba0","pricing_plan_id":"cebpf4jnsgd1na2vs0mg"},{"bike_id":"df190317-fa34-4d5e-900d-96938699cccd","system_id":"levelo_inurba_marseille","lat":43.30622,"lon":5.40081,"is_reserved":false,"is_disabled":false,"rental_uris":{"android":"levelo://app?vid=df190317-fa34-4d5e-900d-96938699cccd","ios":"levelo://app?vid=df190317-fa34-4d5e-900d-96938699cccd"},"vehicle_type_id":"4","last_reported":1748639314,"current_range_meters":10000,"station_id":"ce4bh112rcd13ifvqda0","pricing_plan_id":"cebpf4jnsgd1na2vs0mg"},{"bike_id":"7243d7c8-02f5-4392-89cf-8c360e846d55","system_id":"levelo_inurba_marseille","lat":43.252744,"lon":5.378387,"is_reserved":false,"is_disabled":false,"rental_uris":{"android":"levelo://app?vid=7243d7c8-02f5-4392-89cf-8c360e846d55","ios":"levelo://app?vid=7243d7c8-02f5-4392-89cf-8c360e846d55"},"vehicle_type_id":"4","last_reported":1748639314,"current_range_meters":10000,"station_id":"","pricing_plan_id":"cebpf4jnsgd1na2vs0mg"},{"bike_id":"1d1a2241-b5a0-47a6-81cc-0c292ce3b22a","system_id":"levelo_inurba_marseille","lat":43.29276,"lon":5.36849,"is_reserved":false,"is_disabled":false,"rental_uris":{"android":"levelo://app?vid=1d1a2241-b5a0-47a6-81cc-0c292ce3b22a","ios":"levelo://app?vid=1d1a2241-b5a0-47a6-81cc-0c292ce3b22a"},"vehicle_type_id":"4","last_reported":1748639314,"current_range_meters":10000,"station_id":"ce4bhbp2rcd13ifvqesg","pricing_plan_id":"cebpf4jnsgd1na2vs0mg"},{"bike_id":"11d5a3c3-b5c3-45ee-9c59-63e06770cf8b","system_id":"levelo_inurba_marseille","lat":43.25112,"lon":5.40325,"is_reserved":false,"is_disabled":false,"rental_uris":{"android":"levelo://app?vid=11d5a3c3-b5c3-45ee-9c59-63e06770cf8b","ios":"levelo://app?vid=11d5a3c3-b5c3-45ee-9c59-63e06770cf8b"},"vehicle_type_id":"4","last_reported":1748639314,"current_range_meters":10000,"station_id":"ce4bhlh2rcd13ifvqgig","pricing_plan_id":"cebpf4jnsgd1na2vs0mg"},{"bike_id":"db0841b6-0a0a-4e05-a0e0-adf69ec60226","system_id":"levelo_inurba_marseille","lat":43.27962,"lon":5.38738,"is_reserved":false,"is_disabled":false,"rental_uris":{"android":"levelo://app?vid=db0841b6-0a0a-4e05-a0e0-adf69ec60226","ios":"levelo://app?vid=db0841b6-0a0a-4e05-a0e0-adf69ec60226"},"vehicle_type_id":"4","last_reported":1748639314,"current_range_meters":9600,"station_id":"ce4bhg12rcd13ifvqf80","pricing_plan_id":"cebpf4jnsgd1na2vs0mg"},{"bike_id":"909686eb-b91b-4351-99db-ba6bfc0f4fd2","system_id":"levelo_inurba_marseille","lat":43.29264,"lon":5.38418,"is_reserved":false,"is_disabled":false,"rental_uris":{"android":"levelo://app?vid=909686eb-b91b-4351-99db-ba6bfc0f4fd2","ios":"levelo://app?vid=909686eb-b91b-4351-99db-ba6bfc0f4fd2"},"vehicle_type_id":"4","last_reported":1748639314,"current_range_meters":10000,"station_id":"ce4bh692rcd13ifvqea0","pricing_plan_id":"cebpf4jnsgd1na2vs0mg"},{"bike_id":"ade80f1c-1963-4723-aaac-612c2803ccad","system_id":"levelo_inurba_marseille","lat":43.277173,"lon":5.389043,"is_reserved":false,"is_disabled":false,"rental_uris":{"android":"levelo://app?vid=ade80f1c-1963-4723-aaac-612c2803ccad","ios":"levelo://app?vid=ade80f1c-1963-4723-aaac-612c2803ccad"},"vehicle_type_id":"4","last_reported":1748639314,"current_range_meters":10000,"station_id":"ce4bhi12rcd13ifvqfo0","pricing_plan_id":"cebpf4jnsgd1na2vs0mg"},{"bike_id":"b9986bcd-d935-43b4-9761-6db0c42f4dd8","system_id":"levelo_inurba_marseille","lat":43.31701,"lon":5.4046,"is_reserved":false,"is_disabled":false,"rental_uris":{"android":"levelo://app?vid=b9986bcd-d935-43b4-9761-6db0c42f4dd8","ios":"levelo://app?vid=b9986bcd-d935-43b4-9761-6db0c42f4dd8"},"vehicle_type_id":"4","last_reported":1748639314,"current_range_meters":10000,"station_id":"ce4bh012rcd13ifvqd00","pricing_plan_id":"cebpf4jnsgd1na2vs0mg"},{"bike_id":"6eb7122a-aa2a-4943-a679-13fd96c7ef53","system_id":"levelo_inurba_marseille","lat":43.286957,"lon":5.373885,"is_reserved":false,"is_disabled":false,"rental_uris":{"android":"levelo://app?vid=6eb7122a-aa2a-4943-a679-13fd96c7ef53","ios":"levelo://app?vid=6eb7122a-aa2a-4943-a679-13fd96c7ef53"},"vehicle_type_id":"4","last_reported":1748639314,"current_range_meters":10000,"station_id":"ce4bh3p2rcd13ifvqdq0","pricing_plan_id":"cebpf4jnsgd1na2vs0mg"},{"bike_id":"e30757e1-f101-4442-b172-d191304e9b62","system_id":"levelo_inurba_marseille","lat":43.2784,"lon":5.39206,"is_reserved":false,"is_disabled":false,"rental_uris":{"android":"levelo://app?vid=e30757e1-f101-4442-b172-d191304e9b62","ios":"levelo://app?vid=e30757e1-f101-4442-b172-d191304e9b62"},"vehicle_type_id":"4","last_reported":1748639314,"current_range_meters":10800,"station_id":"ce4bhjp2rcd13ifvqga0","pricing_plan_id":"cebpf4jnsgd1na2vs0mg"},{"bike_id":"3b8a495f-5524-4580-a7b4-1e2f9337f23b","system_id":"levelo_inurba_marseille","lat":43.30316,"lon":5.36897,"is_reserved":false,"is_disabled":false,"rental_uris":{"android":"levelo://app?vid=3b8a495f-5524-4580-a7b4-1e2f9337f23b","ios":"levelo://app?vid=3b8a495f-5524-4580-a7b4-1e2f9337f23b"},"vehicle_type_id":"4","last_reported":1748639314,"current_range_meters":10000,"station_id":"ce4bgqh2rcd13ifvqc5g","pricing_plan_id":"cebpf4jnsgd1na2vs0mg"},{"bike_id":"ef581f4c-67e6-4fec-a59f-aa7c8e6c7dec","system_id":"levelo_inurba_marseille","lat":43.295347,"lon":5.385371,"is_reserved":false,"is_disabled":false,"rental_uris":{"android":"levelo://app?vid=ef581f4c-67e6-4fec-a59f-aa7c8e6c7dec","ios":"levelo://app?vid=ef581f4c-67e6-4fec-a59f-aa7c8e6c7dec"},"vehicle_type_id":"4","last_reported":1748639314,"current_range_meters":10800,"station_id":"ce4bgih2rcd13ifvqba0","pricing_plan_id":"cebpf4jnsgd1na2vs0mg"},{"bike_id":"c6913ce4-1fae-488a-854a-93017013dd0b","system_id":"levelo_inurba_marseille","lat":43.29999,"lon":5.3718,"is_reserved":false,"is_disabled":false,"rental_uris":{"android":"levelo://app?vid=c6913ce4-1fae-488a-854a-93017013dd0b","ios":"levelo://app?vid=c6913ce4-1fae-488a-854a-93017013dd0b"},"vehicle_type_id":"4","last_reported":1748639314,"current_range_meters":10800,"station_id":"ce4bgr92rcd13ifvqc7g","pricing_plan_id":"cebpf4jnsgd1na2vs0mg"},{"bike_id":"c5955212-23b9-47a9-8fed-0e2d976ea049","system_id":"levelo_inurba_marseille","lat":43.265518,"lon":5.372778,"is_reserved":false,"is_disabled":false,"rental_uris":{"android":"levelo://app?vid=c5955212-23b9-47a9-8fed-0e2d976ea049","ios":"levelo://app?vid=c5955212-23b9-47a9-8fed-0e2d976ea049"},"vehicle_type_id":"4","last_reported":1748639314,"current_range_meters":10800,"station_id":"ce4bhg12rcd13ifvqf70","pricing_plan_id":"cebpf4jnsgd1na2vs0mg"},{"bike_id":"e39fb636-c848-4b11-b04e-e552837a94cb","system_id":"levelo_inurba_marseille","lat":43.29274,"lon":5.38399,"is_reserved":false,"is_disabled":false,"rental_uris":{"android":"levelo://app?vid=e39fb636-c848-4b11-b04e-e552837a94cb","ios":"levelo://app?vid=e39fb636-c848-4b11-b04e-e552837a94cb"},"vehicle_type_id":"4","last_reported":1748639314,"current_range_meters":10800,"station_id":"ce4bh692rcd13ifvqea0","pricing_plan_id":"cebpf4jnsgd1na2vs0mg"},{"bike_id":"662af0d9-b4f1-4513-bbd2-fd65be6229e5","system_id":"levelo_inurba_marseille","lat":43.25935,"lon":5.40906,"is_reserved":false,"is_disabled":false,"rental_uris":{"android":"levelo://app?vid=662af0d9-b4f1-4513-bbd2-fd65be6229e5","ios":"levelo://app?vid=662af0d9-b4f1-4513-bbd2-fd65be6229e5"},"vehicle_type_id":"4","last_reported":1748639314,"current_range_meters":10800,"station_id":"ce4bhm92rcd13ifvqglg","pricing_plan_id":"cebpf4jnsgd1na2vs0mg"},{"bike_id":"8a815b41-c385-418b-8b34-a298e08e45cc","system_id":"levelo_inurba_marseille","lat":43.29936,"lon":5.36548,"is_reserved":false,"is_disabled":false,"rental_uris":{"android":"levelo://app?vid=8a815b41-c385-418b-8b34-a298e08e45cc","ios":"levelo://app?vid=8a815b41-c385-418b-8b34-a298e08e45cc"},"vehicle_type_id":"4","last_reported":1748639314,"current_range_meters":10800,"station_id":"ce4bgm92rcd13ifvqbr0","pricing_plan_id":"cebpf4jnsgd1na2vs0mg"},{"bike_id":"6cab2d10-7f2c-4dac-ba3d-4f103803cc6a","system_id":"levelo_inurba_marseille","lat":43.28923,"lon":5.384,"is_reserved":false,"is_disabled":false,"rental_uris":{"android":"levelo://app?vid=6cab2d10-7f2c-4dac-ba3d-4f103803cc6a","ios":"levelo://app?vid=6cab2d10-7f2c-4dac-ba3d-4f103803cc6a"},"vehicle_type_id":"4","last_reported":1748639314,"current_range_meters":10800,"station_id":"ce4bh612rcd13ifvqe6g","pricing_plan_id":"cebpf4jnsgd1na2vs0mg"},{"bike_id":"d42b65af-38ed-48b1-9f62-d79f47c848dd","system_id":"levelo_inurba_marseille","lat":43.24068,"lon":5.37762,"is_reserved":false,"is_disabled":false,"rental_uris":{"android":"levelo://app?vid=d42b65af-38ed-48b1-9f62-d79f47c848dd","ios":"levelo://app?vid=d42b65af-38ed-48b1-9f62-d79f47c848dd"},"vehicle_type_id":"4","last_reported":1748639314,"current_range_meters":10800,"station_id":"ce4bhnp2rcd13ifvqgvg","pricing_plan_id":"cebpf4jnsgd1na2vs0mg"},{"bike_id":"e2afc528-0d42-4754-99ce-0c4517307356","system_id":"levelo_inurba_marseille","lat":43.279654,"lon":5.387503,"is_reserved":false,"is_disabled":false,"rental_uris":{"android":"levelo://app?vid=e2afc528-0d42-4754-99ce-0c4517307356","ios":"levelo://app?vid=e2afc528-0d42-4754-99ce-0c4517307356"},"vehicle_type_id":"4","last_reported":1748639314,"current_range_meters":10800,"station_id":"ce4bhg12rcd13ifvqf80","pricing_plan_id":"cebpf4jnsgd1na2vs0mg"},{"bike_id":"be8dcf54-93bb-483e-8b17-f8e92b01aa60","system_id":"levelo_inurba_marseille","lat":43.29422,"lon":5.38624,"is_reserved":false,"is_disabled":false,"rental_uris":{"android":"levelo://app?vid=be8dcf54-93bb-483e-8b17-f8e92b01aa60","ios":"levelo://app?vid=be8dcf54-93bb-483e-8b17-f8e92b01aa60"},"vehicle_type_id":"4","last_reported":1748639314,"current_range_meters":10800,"station_id":"ce4bh2h2rcd13ifvqdh0","pricing_plan_id":"cebpf4jnsgd1na2vs0mg"},{"bike_id":"629f748f-f65f-4e99-b48d-59574a21e1dc","system_id":"levelo_inurba_marseille","lat":43.292115,"lon":5.360649,"is_reserved":false,"is_disabled":false,"rental_uris":{"android":"levelo://app?vid=629f748f-f65f-4e99-b48d-59574a21e1dc","ios":"levelo://app?vid=629f748f-f65f-4e99-b48d-59574a21e1dc"},"vehicle_type_id":"4","last_reported":1748639314,"current_range_meters":10800,"station_id":"ce4bhbh2rcd13ifvqeqg","pricing_plan_id":"cebpf4jnsgd1na2vs0mg"},{"bike_id":"036af8fe-93a3-4ca7-9ce2-db9b5b0dfbd1","system_id":"levelo_inurba_marseille","lat":43.31169,"lon":5.38698,"is_reserved":false,"is_disabled":false,"rental_uris":{"android":"levelo://app?vid=036af8fe-93a3-4ca7-9ce2-db9b5b0dfbd1","ios":"levelo://app?vid=036af8fe-93a3-4ca7-9ce2-db9b5b0dfbd1"},"vehicle_type_id":"4","last_reported":1748639314,"current_range_meters":11200,"station_id":"ce4bgv12rcd13ifvqcp0","pricing_plan_id":"cebpf4jnsgd1na2vs0mg"},{"bike_id":"d16f5222-3d1e-4d65-a992-1bc93f719178","system_id":"levelo_inurba_marseille","lat":43.30333,"lon":5.36586,"is_reserved":false,"is_disabled":false,"rental_uris":{"android":"levelo://app?vid=d16f5222-3d1e-4d65-a992-1bc93f719178","ios":"levelo://app?vid=d16f5222-3d1e-4d65-a992-1bc93f719178"},"vehicle_type_id":"4","last_reported":1748639314,"current_range_meters":11200,"station_id":"","pricing_plan_id":"cebpf4jnsgd1na2vs0mg"},{"bike_id":"224bd8e6-5aa6-43c3-9b35-d938c57a99b5","system_id":"levelo_inurba_marseille","lat":43.26555,"lon":5.37283,"is_reserved":false,"is_disabled":false,"rental_uris":{"android":"levelo://app?vid=224bd8e6-5aa6-43c3-9b35-d938c57a99b5","ios":"levelo://app?vid=224bd8e6-5aa6-43c3-9b35-d938c57a99b5"},"vehicle_type_id":"4","last_reported":1748639314,"current_range_meters":11200,"station_id":"ce4bhg12rcd13ifvqf70","pricing_plan_id":"cebpf4jnsgd1na2vs0mg"},{"bike_id":"56118c5b-a7b2-448d-9e9f-37905a3f02ee","system_id":"levelo_inurba_marseille","lat":43.29033,"lon":5.38638,"is_reserved":false,"is_disabled":false,"rental_uris":{"android":"levelo://app?vid=56118c5b-a7b2-448d-9e9f-37905a3f02ee","ios":"levelo://app?vid=56118c5b-a7b2-448d-9e9f-37905a3f02ee"},"vehicle_type_id":"4","last_reported":1748639314,"current_range_meters":11200,"station_id":"ce4bh4p2rcd13ifvqe0g","pricing_plan_id":"cebpf4jnsgd1na2vs0mg"},{"bike_id":"9ebf84e2-9ee2-4317-9f69-cf59a357ab45","system_id":"levelo_inurba_marseille","lat":43.30425,"lon":5.39749,"is_reserved":false,"is_disabled":false,"rental_uris":{"android":"levelo://app?vid=9ebf84e2-9ee2-4317-9f69-cf59a357ab45","ios":"levelo://app?vid=9ebf84e2-9ee2-4317-9f69-cf59a357ab45"},"vehicle_type_id":"4","last_reported":1748639314,"current_range_meters":11200,"station_id":"ce4bh092rcd13ifvqd20","pricing_plan_id":"cebpf4jnsgd1na2vs0mg"},{"bike_id":"ef4b8ede-1877-41db-b371-aa67fb983004","system_id":"levelo_inurba_marseille","lat":43.28104,"lon":5.37846,"is_reserved":false,"is_disabled":true,"rental_uris":{"android":"levelo://app?vid=ef4b8ede-1877-41db-b371-aa67fb983004","ios":"levelo://app?vid=ef4b8ede-1877-41db-b371-aa67fb983004"},"vehicle_type_id":"4","last_reported":1748639314,"current_range_meters":11200,"station_id":"ce4bha12rcd13ifvqee0","pricing_plan_id":"cebpf4jnsgd1na2vs0mg"},{"bike_id":"9ee87dbe-3990-4764-9a6b-2020fac42886","system_id":"levelo_inurba_marseille","lat":43.32119,"lon":5.367691,"is_reserved":false,"is_disabled":false,"rental_uris":{"android":"levelo://app?vid=9ee87dbe-3990-4764-9a6b-2020fac42886","ios":"levelo://app?vid=9ee87dbe-3990-4764-9a6b-2020fac42886"},"vehicle_type_id":"4","last_reported":1748639314,"current_range_meters":11200,"station_id":"ce4bhrh2rcd13ifvqhug","pricing_plan_id":"cebpf4jnsgd1na2vs0mg"},{"bike_id":"51398a16-f04d-4d7b-b0a4-84b3559a1d7a","system_id":"levelo_inurba_marseille","lat":43.29311,"lon":5.37146,"is_reserved":false,"is_disabled":false,"rental_uris":{"android":"levelo://app?vid=51398a16-f04d-4d7b-b0a4-84b3559a1d7a","ios":"levelo://app?vid=51398a16-f04d-4d7b-b0a4-84b3559a1d7a"},"vehicle_type_id":"4","last_reported":1748639314,"current_range_meters":10800,"station_id":"ce4bgh92rcd13ifvqb40","pricing_plan_id":"cebpf4jnsgd1na2vs0mg"},{"bike_id":"9fb4b1e2-5105-4f93-98dd-51bed5c61176","system_id":"levelo_inurba_marseille","lat":43.299768,"lon":5.384802,"is_reserved":false,"is_disabled":false,"rental_uris":{"android":"levelo://app?vid=9fb4b1e2-5105-4f93-98dd-51bed5c61176","ios":"levelo://app?vid=9fb4b1e2-5105-4f93-98dd-51bed5c61176"},"vehicle_type_id":"4","last_reported":1748639314,"current_range_meters":11600,"station_id":"ce4bgj92rcd13ifvqbd0","pricing_plan_id":"cebpf4jnsgd1na2vs0mg"},{"bike_id":"09615e18-e97a-4e00-a0b1-118d8530fc54","system_id":"levelo_inurba_marseille","lat":43.2941,"lon":5.38638,"is_reserved":false,"is_disabled":false,"rental_uris":{"android":"levelo://app?vid=09615e18-e97a-4e00-a0b1-118d8530fc54","ios":"levelo://app?vid=09615e18-e97a-4e00-a0b1-118d8530fc54"},"vehicle_type_id":"4","last_reported":1748639314,"current_range_meters":11600,"station_id":"ce4bh2h2rcd13ifvqdh0","pricing_plan_id":"cebpf4jnsgd1na2vs0mg"},{"bike_id":"a6cc9627-b3e3-4844-a9b9-44adde4a922b","system_id":"levelo_inurba_marseille","lat":43.294143,"lon":5.386217,"is_reserved":false,"is_disabled":false,"rental_uris":{"android":"levelo://app?vid=a6cc9627-b3e3-4844-a9b9-44adde4a922b","ios":"levelo://app?vid=a6cc9627-b3e3-4844-a9b9-44adde4a922b"},"vehicle_type_id":"4","last_reported":1748639314,"current_range_meters":11600,"station_id":"ce4bh2h2rcd13ifvqdh0","pricing_plan_id":"cebpf4jnsgd1na2vs0mg"},{"bike_id":"31bcbb93-a820-4754-b55f-1b969a195009","system_id":"levelo_inurba_marseille","lat":43.29551,"lon":5.3853,"is_reserved":false,"is_disabled":false,"rental_uris":{"android":"levelo://app?vid=31bcbb93-a820-4754-b55f-1b969a195009","ios":"levelo://app?vid=31bcbb93-a820-4754-b55f-1b969a195009"},"vehicle_type_id":"4","last_reported":1748639314,"current_range_meters":11600,"station_id":"ce4bgih2rcd13ifvqba0","pricing_plan_id":"cebpf4jnsgd1na2vs0mg"},{"bike_id":"f4ea999b-6ac9-4df7-a1a5-71b5640e6778","system_id":"levelo_inurba_marseille","lat":43.298,"lon":5.37104,"is_reserved":false,"is_disabled":false,"rental_uris":{"android":"levelo://app?vid=f4ea999b-6ac9-4df7-a1a5-71b5640e6778","ios":"levelo://app?vid=f4ea999b-6ac9-4df7-a1a5-71b5640e6778"},"vehicle_type_id":"4","last_reported":1748639314,"current_range_meters":11600,"station_id":"ce4bgop2rcd13ifvqc1g","pricing_plan_id":"cebpf4jnsgd1na2vs0mg"},{"bike_id":"e443b723-6c00-40aa-a103-7d4af76dea39","system_id":"levelo_inurba_marseille","lat":43.254949,"lon":5.376507,"is_reserved":false,"is_disabled":true,"rental_uris":{"android":"levelo://app?vid=e443b723-6c00-40aa-a103-7d4af76dea39","ios":"levelo://app?vid=e443b723-6c00-40aa-a103-7d4af76dea39"},"vehicle_type_id":"4","last_reported":1748639314,"current_range_meters":11600,"station_id":"ce4bhh12rcd13ifvqff0","pricing_plan_id":"cebpf4jnsgd1na2vs0mg"},{"bike_id":"93ae5175-0134-4dc5-965f-d75524d83337","system_id":"levelo_inurba_marseille","lat":43.29252,"lon":5.38447,"is_reserved":false,"is_disabled":false,"rental_uris":{"android":"levelo://app?vid=93ae5175-0134-4dc5-965f-d75524d83337","ios":"levelo://app?vid=93ae5175-0134-4dc5-965f-d75524d83337"},"vehicle_type_id":"4","last_reported":1748639314,"current_range_meters":11600,"station_id":"ce4bh692rcd13ifvqea0","pricing_plan_id":"cebpf4jnsgd1na2vs0mg"},{"bike_id":"8588c8cd-2f4b-429a-923c-fc0a25cd8d5a","system_id":"levelo_inurba_marseille","lat":43.28154,"lon":5.42643,"is_reserved":false,"is_disabled":false,"rental_uris":{"android":"levelo://app?vid=8588c8cd-2f4b-429a-923c-fc0a25cd8d5a","ios":"levelo://app?vid=8588c8cd-2f4b-429a-923c-fc0a25cd8d5a"},"vehicle_type_id":"4","last_reported":1748639314,"current_range_meters":11600,"station_id":"ce4bhnh2rcd13ifvqgug","pricing_plan_id":"cebpf4jnsgd1na2vs0mg"},{"bike_id":"bac667cf-137e-4ea7-b037-7ebd6a2ad77c","system_id":"levelo_inurba_marseille","lat":43.282572,"lon":5.3509,"is_reserved":false,"is_disabled":false,"rental_uris":{"android":"levelo://app?vid=bac667cf-137e-4ea7-b037-7ebd6a2ad77c","ios":"levelo://app?vid=bac667cf-137e-4ea7-b037-7ebd6a2ad77c"},"vehicle_type_id":"4","last_reported":1748639314,"current_range_meters":11600,"station_id":"ce4bhbp2rcd13ifvqerg","pricing_plan_id":"cebpf4jnsgd1na2vs0mg"},{"bike_id":"64a3d9b3-30f8-4a8c-b831-0d99a9fae7a2","system_id":"levelo_inurba_marseille","lat":43.31713,"lon":5.40479,"is_reserved":false,"is_disabled":false,"rental_uris":{"android":"levelo://app?vid=64a3d9b3-30f8-4a8c-b831-0d99a9fae7a2","ios":"levelo://app?vid=64a3d9b3-30f8-4a8c-b831-0d99a9fae7a2"},"vehicle_type_id":"4","last_reported":1748639314,"current_range_meters":11600,"station_id":"ce4bh012rcd13ifvqd00","pricing_plan_id":"cebpf4jnsgd1na2vs0mg"},{"bike_id":"0e248df4-dfcb-4884-916b-59c78039ce18","system_id":"levelo_inurba_marseille","lat":43.29085,"lon":5.38139,"is_reserved":false,"is_disabled":false,"rental_uris":{"android":"levelo://app?vid=0e248df4-dfcb-4884-916b-59c78039ce18","ios":"levelo://app?vid=0e248df4-dfcb-4884-916b-59c78039ce18"},"vehicle_type_id":"4","last_reported":1748639314,"current_range_meters":11600,"station_id":"ce4bh512rcd13ifvqe2g","pricing_plan_id":"cebpf4jnsgd1na2vs0mg"},{"bike_id":"4541bf57-8589-40d4-b496-7bdf16e25c4f","system_id":"levelo_inurba_marseille","lat":43.27832,"lon":5.39215,"is_reserved":false,"is_disabled":false,"rental_uris":{"android":"levelo://app?vid=4541bf57-8589-40d4-b496-7bdf16e25c4f","ios":"levelo://app?vid=4541bf57-8589-40d4-b496-7bdf16e25c4f"},"vehicle_type_id":"4","last_reported":1748639314,"current_range_meters":11600,"station_id":"ce4bhjp2rcd13ifvqga0","pricing_plan_id":"cebpf4jnsgd1na2vs0mg"},{"bike_id":"e7f62276-ddf8-41a9-8c04-845a41232497","system_id":"levelo_inurba_marseille","lat":43.29269,"lon":5.38439,"is_reserved":false,"is_disabled":false,"rental_uris":{"android":"levelo://app?vid=e7f62276-ddf8-41a9-8c04-845a41232497","ios":"levelo://app?vid=e7f62276-ddf8-41a9-8c04-845a41232497"},"vehicle_type_id":"4","last_reported":1748639314,"current_range_meters":12000,"station_id":"ce4bh692rcd13ifvqea0","pricing_plan_id":"cebpf4jnsgd1na2vs0mg"},{"bike_id":"19fe5b39-e786-4965-a85b-8d334b1be017","system_id":"levelo_inurba_marseille","lat":43.29539,"lon":5.39402,"is_reserved":false,"is_disabled":false,"rental_uris":{"android":"levelo://app?vid=19fe5b39-e786-4965-a85b-8d334b1be017","ios":"levelo://app?vid=19fe5b39-e786-4965-a85b-8d334b1be017"},"vehicle_type_id":"4","last_reported":1748639314,"current_range_meters":11600,"station_id":"ce4bh292rcd13ifvqdf0","pricing_plan_id":"cebpf4jnsgd1na2vs0mg"},{"bike_id":"237bedd6-639b-4da9-86cd-2a73d690c6f7","system_id":"levelo_inurba_marseille","lat":43.26017,"lon":5.37507,"is_reserved":false,"is_disabled":false,"rental_uris":{"android":"levelo://app?vid=237bedd6-639b-4da9-86cd-2a73d690c6f7","ios":"levelo://app?vid=237bedd6-639b-4da9-86cd-2a73d690c6f7"},"vehicle_type_id":"4","last_reported":1748639314,"current_range_meters":12000,"station_id":"ce4bhgh2rcd13ifvqfa0","pricing_plan_id":"cebpf4jnsgd1na2vs0mg"},{"bike_id":"df905850-832f-4688-ae1b-bff7e29b2c14","system_id":"levelo_inurba_marseille","lat":43.28448,"lon":5.3919,"is_reserved":false,"is_disabled":false,"rental_uris":{"android":"levelo://app?vid=df905850-832f-4688-ae1b-bff7e29b2c14","ios":"levelo://app?vid=df905850-832f-4688-ae1b-bff7e29b2c14"},"vehicle_type_id":"4","last_reported":1748639314,"current_range_meters":12400,"station_id":"ce4bhoh2rcd13ifvqh5g","pricing_plan_id":"cebpf4jnsgd1na2vs0mg"},{"bike_id":"c859a3d5-3801-4f4f-8b7d-dcca61499715","system_id":"levelo_inurba_marseille","lat":43.31365,"lon":5.38496,"is_reserved":false,"is_disabled":false,"rental_uris":{"android":"levelo://app?vid=c859a3d5-3801-4f4f-8b7d-dcca61499715","ios":"levelo://app?vid=c859a3d5-3801-4f4f-8b7d-dcca61499715"},"vehicle_type_id":"4","last_reported":1748639314,"current_range_meters":12400,"station_id":"ce4bgt92rcd13ifvqcf0","pricing_plan_id":"cebpf4jnsgd1na2vs0mg"},{"bike_id":"1c49914d-7190-4da4-bf5d-d3f5c894e72e","system_id":"levelo_inurba_marseille","lat":43.30805,"lon":5.43521,"is_reserved":false,"is_disabled":false,"rental_uris":{"android":"levelo://app?vid=1c49914d-7190-4da4-bf5d-d3f5c894e72e","ios":"levelo://app?vid=1c49914d-7190-4da4-bf5d-d3f5c894e72e"},"vehicle_type_id":"4","last_reported":1748639314,"current_range_meters":12400,"station_id":"ce4bhph2rcd13ifvqheg","pricing_plan_id":"cebpf4jnsgd1na2vs0mg"},{"bike_id":"a11a1ae5-116f-4ba4-9190-f3058e8da450","system_id":"levelo_inurba_marseille","lat":43.23198,"lon":5.39966,"is_reserved":false,"is_disabled":false,"rental_uris":{"android":"levelo://app?vid=a11a1ae5-116f-4ba4-9190-f3058e8da450","ios":"levelo://app?vid=a11a1ae5-116f-4ba4-9190-f3058e8da450"},"vehicle_type_id":"4","last_reported":1748639314,"current_range_meters":12000,"station_id":"ce4bhn12rcd13ifvqgqg","pricing_plan_id":"cebpf4jnsgd1na2vs0mg"},{"bike_id":"baa9ae91-cf2b-4902-bc78-4d8c41a40b35","system_id":"levelo_inurba_marseille","lat":43.26563,"lon":5.39004,"is_reserved":false,"is_disabled":false,"rental_uris":{"android":"levelo://app?vid=baa9ae91-cf2b-4902-bc78-4d8c41a40b35","ios":"levelo://app?vid=baa9ae91-cf2b-4902-bc78-4d8c41a40b35"},"vehicle_type_id":"4","last_reported":1748639314,"current_range_meters":12400,"station_id":"ce4bhe12rcd13ifvqf30","pricing_plan_id":"cebpf4jnsgd1na2vs0mg"},{"bike_id":"dd34afa2-f665-4263-85a8-7de7dbd3a196","system_id":"levelo_inurba_marseille","lat":43.2761,"lon":5.39701,"is_reserved":false,"is_disabled":false,"rental_uris":{"android":"levelo://app?vid=dd34afa2-f665-4263-85a8-7de7dbd3a196","ios":"levelo://app?vid=dd34afa2-f665-4263-85a8-7de7dbd3a196"},"vehicle_type_id":"4","last_reported":1748639314,"current_range_meters":12400,"station_id":"","pricing_plan_id":"cebpf4jnsgd1na2vs0mg"},{"bike_id":"b18036e4-cdbb-441f-a4f1-99c9cdbece34","system_id":"levelo_inurba_marseille","lat":43.294976,"lon":5.390808,"is_reserved":false,"is_disabled":false,"rental_uris":{"android":"levelo://app?vid=b18036e4-cdbb-441f-a4f1-99c9cdbece34","ios":"levelo://app?vid=b18036e4-cdbb-441f-a4f1-99c9cdbece34"},"vehicle_type_id":"4","last_reported":1748639314,"current_range_meters":12400,"station_id":"ce4bh3p2rcd13ifvqdp0","pricing_plan_id":"cebpf4jnsgd1na2vs0mg"},{"bike_id":"4616159a-9b26-4fe7-aa34-b1dd06999c29","system_id":"levelo_inurba_marseille","lat":43.29423,"lon":5.38623,"is_reserved":false,"is_disabled":false,"rental_uris":{"android":"levelo://app?vid=4616159a-9b26-4fe7-aa34-b1dd06999c29","ios":"levelo://app?vid=4616159a-9b26-4fe7-aa34-b1dd06999c29"},"vehicle_type_id":"4","last_reported":1748639314,"current_range_meters":12800,"station_id":"ce4bh2h2rcd13ifvqdh0","pricing_plan_id":"cebpf4jnsgd1na2vs0mg"},{"bike_id":"d87283bc-335e-4f1f-9492-4498125299e9","system_id":"levelo_inurba_marseille","lat":43.29422,"lon":5.38627,"is_reserved":false,"is_disabled":false,"rental_uris":{"android":"levelo://app?vid=d87283bc-335e-4f1f-9492-4498125299e9","ios":"levelo://app?vid=d87283bc-335e-4f1f-9492-4498125299e9"},"vehicle_type_id":"4","last_reported":1748639314,"current_range_meters":12800,"station_id":"ce4bh2h2rcd13ifvqdh0","pricing_plan_id":"cebpf4jnsgd1na2vs0mg"},{"bike_id":"1e3ddd15-f804-4100-aa0b-e5887d1989ea","system_id":"levelo_inurba_marseille","lat":43.27376,"lon":5.36257,"is_reserved":false,"is_disabled":false,"rental_uris":{"android":"levelo://app?vid=1e3ddd15-f804-4100-aa0b-e5887d1989ea","ios":"levelo://app?vid=1e3ddd15-f804-4100-aa0b-e5887d1989ea"},"vehicle_type_id":"4","last_reported":1748639314,"current_range_meters":12800,"station_id":"ce4bhbh2rcd13ifvqeo0","pricing_plan_id":"cebpf4jnsgd1na2vs0mg"},{"bike_id":"6d4a6026-abb0-4440-b58a-431b7699b16d","system_id":"levelo_inurba_marseille","lat":43.27917,"lon":5.39577,"is_reserved":false,"is_disabled":false,"rental_uris":{"android":"levelo://app?vid=6d4a6026-abb0-4440-b58a-431b7699b16d","ios":"levelo://app?vid=6d4a6026-abb0-4440-b58a-431b7699b16d"},"vehicle_type_id":"4","last_reported":1748639314,"current_range_meters":12800,"station_id":"ce4bhf92rcd13ifvqf40","pricing_plan_id":"cebpf4jnsgd1na2vs0mg"},{"bike_id":"990df701-79a7-41ec-b963-3693dc590a87","system_id":"levelo_inurba_marseille","lat":43.30184,"lon":5.37881,"is_reserved":false,"is_disabled":false,"rental_uris":{"android":"levelo://app?vid=990df701-79a7-41ec-b963-3693dc590a87","ios":"levelo://app?vid=990df701-79a7-41ec-b963-3693dc590a87"},"vehicle_type_id":"4","last_reported":1748639314,"current_range_meters":12800,"station_id":"","pricing_plan_id":"cebpf4jnsgd1na2vs0mg"},{"bike_id":"b22e3ea6-6d8c-418e-8f4f-41f0cab38774","system_id":"levelo_inurba_marseille","lat":43.29583,"lon":5.38103,"is_reserved":false,"is_disabled":false,"rental_uris":{"android":"levelo://app?vid=b22e3ea6-6d8c-418e-8f4f-41f0cab38774","ios":"levelo://app?vid=b22e3ea6-6d8c-418e-8f4f-41f0cab38774"},"vehicle_type_id":"4","last_reported":1748639314,"current_range_meters":13600,"station_id":"ce4bgl12rcd13ifvqbo0","pricing_plan_id":"cebpf4jnsgd1na2vs0mg"},{"bike_id":"fd73a619-5a34-4b37-af3f-6713aaa9e6c1","system_id":"levelo_inurba_marseille","lat":43.29426,"lon":5.38621,"is_reserved":false,"is_disabled":false,"rental_uris":{"android":"levelo://app?vid=fd73a619-5a34-4b37-af3f-6713aaa9e6c1","ios":"levelo://app?vid=fd73a619-5a34-4b37-af3f-6713aaa9e6c1"},"vehicle_type_id":"4","last_reported":1748639314,"current_range_meters":13600,"station_id":"ce4bh2h2rcd13ifvqdh0","pricing_plan_id":"cebpf4jnsgd1na2vs0mg"},{"bike_id":"41ddfa9a-ab1a-4379-9a7a-f21fa9bedc25","system_id":"levelo_inurba_marseille","lat":43.29415,"lon":5.38624,"is_reserved":false,"is_disabled":false,"rental_uris":{"android":"levelo://app?vid=41ddfa9a-ab1a-4379-9a7a-f21fa9bedc25","ios":"levelo://app?vid=41ddfa9a-ab1a-4379-9a7a-f21fa9bedc25"},"vehicle_type_id":"4","last_reported":1748639314,"current_range_meters":13600,"station_id":"ce4bh2h2rcd13ifvqdh0","pricing_plan_id":"cebpf4jnsgd1na2vs0mg"},{"bike_id":"d35cb32f-414d-4e7a-97a8-1414fb78e010","system_id":"levelo_inurba_marseille","lat":43.30334,"lon":5.4043,"is_reserved":false,"is_disabled":false,"rental_uris":{"android":"levelo://app?vid=d35cb32f-414d-4e7a-97a8-1414fb78e010","ios":"levelo://app?vid=d35cb32f-414d-4e7a-97a8-1414fb78e010"},"vehicle_type_id":"4","last_reported":1748639314,"current_range_meters":12800,"station_id":"ce4bh012rcd13ifvqd10","pricing_plan_id":"cebpf4jnsgd1na2vs0mg"},{"bike_id":"96554521-a156-468a-8f37-c6a7a91d4984","system_id":"levelo_inurba_marseille","lat":43.29277,"lon":5.38431,"is_reserved":false,"is_disabled":false,"rental_uris":{"android":"levelo://app?vid=96554521-a156-468a-8f37-c6a7a91d4984","ios":"levelo://app?vid=96554521-a156-468a-8f37-c6a7a91d4984"},"vehicle_type_id":"4","last_reported":1748639314,"current_range_meters":13600,"station_id":"ce4bh692rcd13ifvqea0","pricing_plan_id":"cebpf4jnsgd1na2vs0mg"},{"bike_id":"928cca2e-5a6d-48fb-b812-c2d89f7f5284","system_id":"levelo_inurba_marseille","lat":43.30559,"lon":5.36543,"is_reserved":false,"is_disabled":false,"rental_uris":{"android":"levelo://app?vid=928cca2e-5a6d-48fb-b812-c2d89f7f5284","ios":"levelo://app?vid=928cca2e-5a6d-48fb-b812-c2d89f7f5284"},"vehicle_type_id":"4","last_reported":1748639314,"current_range_meters":13600,"station_id":"ce4bgs12rcd13ifvqcag","pricing_plan_id":"cebpf4jnsgd1na2vs0mg"},{"bike_id":"c7d803a8-c832-4789-990f-9afbfabec7ba","system_id":"levelo_inurba_marseille","lat":43.27382,"lon":5.36259,"is_reserved":false,"is_disabled":false,"rental_uris":{"android":"levelo://app?vid=c7d803a8-c832-4789-990f-9afbfabec7ba","ios":"levelo://app?vid=c7d803a8-c832-4789-990f-9afbfabec7ba"},"vehicle_type_id":"4","last_reported":1748639314,"current_range_meters":13600,"station_id":"ce4bhbh2rcd13ifvqeo0","pricing_plan_id":"cebpf4jnsgd1na2vs0mg"},{"bike_id":"d6d1ada7-d095-4848-a9c7-71d520f6d868","system_id":"levelo_inurba_marseille","lat":43.299666,"lon":5.384894,"is_reserved":false,"is_disabled":false,"rental_uris":{"android":"levelo://app?vid=d6d1ada7-d095-4848-a9c7-71d520f6d868","ios":"levelo://app?vid=d6d1ada7-d095-4848-a9c7-71d520f6d868"},"vehicle_type_id":"4","last_reported":1748639314,"current_range_meters":13600,"station_id":"","pricing_plan_id":"cebpf4jnsgd1na2vs0mg"},{"bike_id":"afd00684-2901-4ae3-82f8-1e79ae0a4d94","system_id":"levelo_inurba_marseille","lat":43.25109,"lon":5.40323,"is_reserved":false,"is_disabled":false,"rental_uris":{"android":"levelo://app?vid=afd00684-2901-4ae3-82f8-1e79ae0a4d94","ios":"levelo://app?vid=afd00684-2901-4ae3-82f8-1e79ae0a4d94"},"vehicle_type_id":"4","last_reported":1748639314,"current_range_meters":13600,"station_id":"ce4bhlh2rcd13ifvqgig","pricing_plan_id":"cebpf4jnsgd1na2vs0mg"},{"bike_id":"2cb50db8-076b-42f3-ad61-f8d30aa489bc","system_id":"levelo_inurba_marseille","lat":43.30431,"lon":5.38891,"is_reserved":false,"is_disabled":false,"rental_uris":{"android":"levelo://app?vid=2cb50db8-076b-42f3-ad61-f8d30aa489bc","ios":"levelo://app?vid=2cb50db8-076b-42f3-ad61-f8d30aa489bc"},"vehicle_type_id":"4","last_reported":1748639314,"current_range_meters":13600,"station_id":"ce4bgk12rcd13ifvqbi0","pricing_plan_id":"cebpf4jnsgd1na2vs0mg"},{"bike_id":"ba3b589f-9f54-4133-9445-99da93e179d2","system_id":"levelo_inurba_marseille","lat":43.29555,"lon":5.38533,"is_reserved":false,"is_disabled":false,"rental_uris":{"android":"levelo://app?vid=ba3b589f-9f54-4133-9445-99da93e179d2","ios":"levelo://app?vid=ba3b589f-9f54-4133-9445-99da93e179d2"},"vehicle_type_id":"4","last_reported":1748639314,"current_range_meters":13600,"station_id":"ce4bgih2rcd13ifvqba0","pricing_plan_id":"cebpf4jnsgd1na2vs0mg"},{"bike_id":"cc8d8bc8-f428-474a-99b2-8ca176d500fb","system_id":"levelo_inurba_marseille","lat":43.29034,"lon":5.38644,"is_reserved":false,"is_disabled":false,"rental_uris":{"android":"levelo://app?vid=cc8d8bc8-f428-474a-99b2-8ca176d500fb","ios":"levelo://app?vid=cc8d8bc8-f428-474a-99b2-8ca176d500fb"},"vehicle_type_id":"4","last_reported":1748639314,"current_range_meters":14000,"station_id":"ce4bh4p2rcd13ifvqe0g","pricing_plan_id":"cebpf4jnsgd1na2vs0mg"},{"bike_id":"82b4e226-24ab-4e50-aaed-a2cf4d624cdc","system_id":"levelo_inurba_marseille","lat":43.29203,"lon":5.39319,"is_reserved":false,"is_disabled":false,"rental_uris":{"android":"levelo://app?vid=82b4e226-24ab-4e50-aaed-a2cf4d624cdc","ios":"levelo://app?vid=82b4e226-24ab-4e50-aaed-a2cf4d624cdc"},"vehicle_type_id":"4","last_reported":1748639314,"current_range_meters":14000,"station_id":"ce4bh192rcd13ifvqdd0","pricing_plan_id":"cebpf4jnsgd1na2vs0mg"},{"bike_id":"471c034b-5235-4a7f-9792-d208210affb2","system_id":"levelo_inurba_marseille","lat":43.3089,"lon":5.39644,"is_reserved":false,"is_disabled":true,"rental_uris":{"android":"levelo://app?vid=471c034b-5235-4a7f-9792-d208210affb2","ios":"levelo://app?vid=471c034b-5235-4a7f-9792-d208210affb2"},"vehicle_type_id":"4","last_reported":1748639314,"current_range_meters":14000,"station_id":"ce4bh012rcd13ifvqcv0","pricing_plan_id":"cebpf4jnsgd1na2vs0mg"},{"bike_id":"dcac3f7e-ac89-4f51-9065-db434d572e88","system_id":"levelo_inurba_marseille","lat":43.295343,"lon":5.385462,"is_reserved":false,"is_disabled":false,"rental_uris":{"android":"levelo://app?vid=dcac3f7e-ac89-4f51-9065-db434d572e88","ios":"levelo://app?vid=dcac3f7e-ac89-4f51-9065-db434d572e88"},"vehicle_type_id":"4","last_reported":1748639314,"current_range_meters":14000,"station_id":"ce4bgih2rcd13ifvqba0","pricing_plan_id":"cebpf4jnsgd1na2vs0mg"},{"bike_id":"71930e17-fe3c-443f-b621-4d725e50390f","system_id":"levelo_inurba_marseille","lat":43.33721,"lon":5.39179,"is_reserved":false,"is_disabled":false,"rental_uris":{"android":"levelo://app?vid=71930e17-fe3c-443f-b621-4d725e50390f","ios":"levelo://app?vid=71930e17-fe3c-443f-b621-4d725e50390f"},"vehicle_type_id":"4","last_reported":1748639314,"current_range_meters":14000,"station_id":"ce4bhr92rcd13ifvqhsg","pricing_plan_id":"cebpf4jnsgd1na2vs0mg"},{"bike_id":"ecc45c88-b0cd-460f-8a38-017c201f8231","system_id":"levelo_inurba_marseille","lat":43.27374,"lon":5.36239,"is_reserved":false,"is_disabled":true,"rental_uris":{"android":"levelo://app?vid=ecc45c88-b0cd-460f-8a38-017c201f8231","ios":"levelo://app?vid=ecc45c88-b0cd-460f-8a38-017c201f8231"},"vehicle_type_id":"4","last_reported":1748639314,"current_range_meters":14000,"station_id":"ce4bhbh2rcd13ifvqeo0","pricing_plan_id":"cebpf4jnsgd1na2vs0mg"},{"bike_id":"46431141-27e7-4cff-9211-cfe1a2caedc0","system_id":"levelo_inurba_marseille","lat":43.25869,"lon":5.39906,"is_reserved":false,"is_disabled":false,"rental_uris":{"android":"levelo://app?vid=46431141-27e7-4cff-9211-cfe1a2caedc0","ios":"levelo://app?vid=46431141-27e7-4cff-9211-cfe1a2caedc0"},"vehicle_type_id":"4","last_reported":1748639314,"current_range_meters":14400,"station_id":"ce4bhl92rcd13ifvqghg","pricing_plan_id":"cebpf4jnsgd1na2vs0mg"},{"bike_id":"36cce70c-a5ec-4870-8ef9-cd0791f32205","system_id":"levelo_inurba_marseille","lat":43.29604,"lon":5.37734,"is_reserved":false,"is_disabled":false,"rental_uris":{"android":"levelo://app?vid=36cce70c-a5ec-4870-8ef9-cd0791f32205","ios":"levelo://app?vid=36cce70c-a5ec-4870-8ef9-cd0791f32205"},"vehicle_type_id":"4","last_reported":1748639314,"current_range_meters":14400,"station_id":"","pricing_plan_id":"cebpf4jnsgd1na2vs0mg"},{"bike_id":"c51a1fd9-fa87-4a3d-a449-ce1c186ece4a","system_id":"levelo_inurba_marseille","lat":43.23196,"lon":5.35553,"is_reserved":false,"is_disabled":false,"rental_uris":{"android":"levelo://app?vid=c51a1fd9-fa87-4a3d-a449-ce1c186ece4a","ios":"levelo://app?vid=c51a1fd9-fa87-4a3d-a449-ce1c186ece4a"},"vehicle_type_id":"4","last_reported":1748639314,"current_range_meters":13600,"station_id":"ce4bhu92rcd13ifvqi70","pricing_plan_id":"cebpf4jnsgd1na2vs0mg"},{"bike_id":"893cccc3-5573-41c4-a76f-851cbc7df082","system_id":"levelo_inurba_marseille","lat":43.309365,"lon":5.401422,"is_reserved":false,"is_disabled":false,"rental_uris":{"android":"levelo://app?vid=893cccc3-5573-41c4-a76f-851cbc7df082","ios":"levelo://app?vid=893cccc3-5573-41c4-a76f-851cbc7df082"},"vehicle_type_id":"4","last_reported":1748639314,"current_range_meters":14800,"station_id":"ce4bgvp2rcd13ifvqct0","pricing_plan_id":"cebpf4jnsgd1na2vs0mg"},{"bike_id":"55040e52-b09b-4347-bb16-8eb95a0de438","system_id":"levelo_inurba_marseille","lat":43.29547,"lon":5.38541,"is_reserved":false,"is_disabled":false,"rental_uris":{"android":"levelo://app?vid=55040e52-b09b-4347-bb16-8eb95a0de438","ios":"levelo://app?vid=55040e52-b09b-4347-bb16-8eb95a0de438"},"vehicle_type_id":"4","last_reported":1748639314,"current_range_meters":14800,"station_id":"ce4bgih2rcd13ifvqba0","pricing_plan_id":"cebpf4jnsgd1na2vs0mg"},{"bike_id":"58c0f359-97d0-4a5e-a159-fe13cbd8e7b6","system_id":"levelo_inurba_marseille","lat":43.31073,"lon":5.3834,"is_reserved":false,"is_disabled":false,"rental_uris":{"android":"levelo://app?vid=58c0f359-97d0-4a5e-a159-fe13cbd8e7b6","ios":"levelo://app?vid=58c0f359-97d0-4a5e-a159-fe13cbd8e7b6"},"vehicle_type_id":"4","last_reported":1748639314,"current_range_meters":14800,"station_id":"ce4bgv92rcd13ifvqcr0","pricing_plan_id":"cebpf4jnsgd1na2vs0mg"},{"bike_id":"6dbec55b-fee0-4a3a-9ed2-723f9ae1c783","system_id":"levelo_inurba_marseille","lat":43.29908,"lon":5.43649,"is_reserved":false,"is_disabled":true,"rental_uris":{"android":"levelo://app?vid=6dbec55b-fee0-4a3a-9ed2-723f9ae1c783","ios":"levelo://app?vid=6dbec55b-fee0-4a3a-9ed2-723f9ae1c783"},"vehicle_type_id":"4","last_reported":1748639314,"current_range_meters":14800,"station_id":"ce4bhpp2rcd13ifvqhfg","pricing_plan_id":"cebpf4jnsgd1na2vs0mg"},{"bike_id":"83de0536-7b82-4b19-9a75-a93e9e8d39e3","system_id":"levelo_inurba_marseille","lat":43.2467,"lon":5.38161,"is_reserved":false,"is_disabled":false,"rental_uris":{"android":"levelo://app?vid=83de0536-7b82-4b19-9a75-a93e9e8d39e3","ios":"levelo://app?vid=83de0536-7b82-4b19-9a75-a93e9e8d39e3"},"vehicle_type_id":"4","last_reported":1748639314,"current_range_meters":14800,"station_id":"ce4bhih2rcd13ifvqfr0","pricing_plan_id":"cebpf4jnsgd1na2vs0mg"},{"bike_id":"19965ebd-9e44-4f44-afd2-1b0cfd69a6df","system_id":"levelo_inurba_marseille","lat":43.27564,"lon":5.38407,"is_reserved":false,"is_disabled":false,"rental_uris":{"android":"levelo://app?vid=19965ebd-9e44-4f44-afd2-1b0cfd69a6df","ios":"levelo://app?vid=19965ebd-9e44-4f44-afd2-1b0cfd69a6df"},"vehicle_type_id":"4","last_reported":1748639314,"current_range_meters":14800,"station_id":"ce4bhh92rcd13ifvqfi0","pricing_plan_id":"cebpf4jnsgd1na2vs0mg"},{"bike_id":"bbf25ded-718e-41f5-8ebc-a2000cac04a7","system_id":"levelo_inurba_marseille","lat":43.30751,"lon":5.38157,"is_reserved":false,"is_disabled":false,"rental_uris":{"android":"levelo://app?vid=bbf25ded-718e-41f5-8ebc-a2000cac04a7","ios":"levelo://app?vid=bbf25ded-718e-41f5-8ebc-a2000cac04a7"},"vehicle_type_id":"4","last_reported":1748639314,"current_range_meters":15200,"station_id":"","pricing_plan_id":"cebpf4jnsgd1na2vs0mg"},{"bike_id":"fdd6b96f-e129-464a-98ed-9975b5d46575","system_id":"levelo_inurba_marseille","lat":43.26495,"lon":5.39543,"is_reserved":false,"is_disabled":false,"rental_uris":{"android":"levelo://app?vid=fdd6b96f-e129-464a-98ed-9975b5d46575","ios":"levelo://app?vid=fdd6b96f-e129-464a-98ed-9975b5d46575"},"vehicle_type_id":"4","last_reported":1748639314,"current_range_meters":15200,"station_id":"ce4bhi12rcd13ifvqfq0","pricing_plan_id":"cebpf4jnsgd1na2vs0mg"},{"bike_id":"6a9e6a58-bddf-453f-9ba1-9a4237ac15ca","system_id":"levelo_inurba_marseille","lat":43.29267,"lon":5.38442,"is_reserved":false,"is_disabled":false,"rental_uris":{"android":"levelo://app?vid=6a9e6a58-bddf-453f-9ba1-9a4237ac15ca","ios":"levelo://app?vid=6a9e6a58-bddf-453f-9ba1-9a4237ac15ca"},"vehicle_type_id":"4","last_reported":1748639314,"current_range_meters":15200,"station_id":"ce4bh692rcd13ifvqea0","pricing_plan_id":"cebpf4jnsgd1na2vs0mg"},{"bike_id":"099ae7f8-da2f-4e1e-85e1-bd2cc4e2608a","system_id":"levelo_inurba_marseille","lat":43.290355,"lon":5.38646,"is_reserved":false,"is_disabled":false,"rental_uris":{"android":"levelo://app?vid=099ae7f8-da2f-4e1e-85e1-bd2cc4e2608a","ios":"levelo://app?vid=099ae7f8-da2f-4e1e-85e1-bd2cc4e2608a"},"vehicle_type_id":"4","last_reported":1748639314,"current_range_meters":15200,"station_id":"ce4bh4p2rcd13ifvqe0g","pricing_plan_id":"cebpf4jnsgd1na2vs0mg"},{"bike_id":"dd2e7cc2-b848-4f1a-8024-4e9628ed3a0b","system_id":"levelo_inurba_marseille","lat":43.28929,"lon":5.38398,"is_reserved":false,"is_disabled":false,"rental_uris":{"android":"levelo://app?vid=dd2e7cc2-b848-4f1a-8024-4e9628ed3a0b","ios":"levelo://app?vid=dd2e7cc2-b848-4f1a-8024-4e9628ed3a0b"},"vehicle_type_id":"4","last_reported":1748639314,"current_range_meters":15200,"station_id":"ce4bh612rcd13ifvqe6g","pricing_plan_id":"cebpf4jnsgd1na2vs0mg"},{"bike_id":"d464ab55-34bd-4dc6-84a6-7ff8ba7f947d","system_id":"levelo_inurba_marseille","lat":43.29412,"lon":5.38643,"is_reserved":false,"is_disabled":false,"rental_uris":{"android":"levelo://app?vid=d464ab55-34bd-4dc6-84a6-7ff8ba7f947d","ios":"levelo://app?vid=d464ab55-34bd-4dc6-84a6-7ff8ba7f947d"},"vehicle_type_id":"4","last_reported":1748639314,"current_range_meters":15200,"station_id":"ce4bh2h2rcd13ifvqdh0","pricing_plan_id":"cebpf4jnsgd1na2vs0mg"},{"bike_id":"0d3bab2f-26cf-41f1-82dd-bb5db963b288","system_id":"levelo_inurba_marseille","lat":43.32423,"lon":5.3658,"is_reserved":false,"is_disabled":false,"rental_uris":{"android":"levelo://app?vid=0d3bab2f-26cf-41f1-82dd-bb5db963b288","ios":"levelo://app?vid=0d3bab2f-26cf-41f1-82dd-bb5db963b288"},"vehicle_type_id":"4","last_reported":1748639314,"current_range_meters":15200,"station_id":"","pricing_plan_id":"cebpf4jnsgd1na2vs0mg"},{"bike_id":"03a76ee6-1b19-441a-9a91-9a19bd875d4f","system_id":"levelo_inurba_marseille","lat":43.29803,"lon":5.381,"is_reserved":false,"is_disabled":false,"rental_uris":{"android":"levelo://app?vid=03a76ee6-1b19-441a-9a91-9a19bd875d4f","ios":"levelo://app?vid=03a76ee6-1b19-441a-9a91-9a19bd875d4f"},"vehicle_type_id":"4","last_reported":1748639314,"current_range_meters":15200,"station_id":"ce4bgip2rcd13ifvqbb0","pricing_plan_id":"cebpf4jnsgd1na2vs0mg"},{"bike_id":"3d6cb693-27a7-4438-8dac-bdaab73d8eb2","system_id":"levelo_inurba_marseille","lat":43.2893,"lon":5.396,"is_reserved":false,"is_disabled":false,"rental_uris":{"android":"levelo://app?vid=3d6cb693-27a7-4438-8dac-bdaab73d8eb2","ios":"levelo://app?vid=3d6cb693-27a7-4438-8dac-bdaab73d8eb2"},"vehicle_type_id":"4","last_reported":1748639314,"current_range_meters":16000,"station_id":"ce4bh3h2rcd13ifvqdn0","pricing_plan_id":"cebpf4jnsgd1na2vs0mg"},{"bike_id":"3fbb13f5-2348-42b4-abc7-277c9f499e45","system_id":"levelo_inurba_marseille","lat":43.2961,"lon":5.381,"is_reserved":false,"is_disabled":false,"rental_uris":{"android":"levelo://app?vid=3fbb13f5-2348-42b4-abc7-277c9f499e45","ios":"levelo://app?vid=3fbb13f5-2348-42b4-abc7-277c9f499e45"},"vehicle_type_id":"4","last_reported":1748639314,"current_range_meters":16000,"station_id":"ce4bgl12rcd13ifvqbo0","pricing_plan_id":"cebpf4jnsgd1na2vs0mg"},{"bike_id":"e7177f0e-ec1f-4dbc-8836-0140350ce1f9","system_id":"levelo_inurba_marseille","lat":43.26211,"lon":5.37441,"is_reserved":false,"is_disabled":false,"rental_uris":{"android":"levelo://app?vid=e7177f0e-ec1f-4dbc-8836-0140350ce1f9","ios":"levelo://app?vid=e7177f0e-ec1f-4dbc-8836-0140350ce1f9"},"vehicle_type_id":"4","last_reported":1748639314,"current_range_meters":16000,"station_id":"ce4bhgp2rcd13ifvqfc0","pricing_plan_id":"cebpf4jnsgd1na2vs0mg"},{"bike_id":"495d3d4f-fe36-4133-8b6c-942fc4d537bf","system_id":"levelo_inurba_marseille","lat":43.29554,"lon":5.3824,"is_reserved":false,"is_disabled":false,"rental_uris":{"android":"levelo://app?vid=495d3d4f-fe36-4133-8b6c-942fc4d537bf","ios":"levelo://app?vid=495d3d4f-fe36-4133-8b6c-942fc4d537bf"},"vehicle_type_id":"4","last_reported":1748639314,"current_range_meters":16000,"station_id":"","pricing_plan_id":"cebpf4jnsgd1na2vs0mg"},{"bike_id":"b39b16dc-f183-4cb5-86c3-5371fdcfe54c","system_id":"levelo_inurba_marseille","lat":43.31086,"lon":5.38333,"is_reserved":false,"is_disabled":false,"rental_uris":{"android":"levelo://app?vid=b39b16dc-f183-4cb5-86c3-5371fdcfe54c","ios":"levelo://app?vid=b39b16dc-f183-4cb5-86c3-5371fdcfe54c"},"vehicle_type_id":"4","last_reported":1748639314,"current_range_meters":16000,"station_id":"ce4bgv92rcd13ifvqcr0","pricing_plan_id":"cebpf4jnsgd1na2vs0mg"},{"bike_id":"50ccef43-1903-48d0-b39a-ab051baaed01","system_id":"levelo_inurba_marseille","lat":43.29416,"lon":5.38639,"is_reserved":false,"is_disabled":false,"rental_uris":{"android":"levelo://app?vid=50ccef43-1903-48d0-b39a-ab051baaed01","ios":"levelo://app?vid=50ccef43-1903-48d0-b39a-ab051baaed01"},"vehicle_type_id":"4","last_reported":1748639314,"current_range_meters":16000,"station_id":"ce4bh2h2rcd13ifvqdh0","pricing_plan_id":"cebpf4jnsgd1na2vs0mg"},{"bike_id":"8449bcdc-3b29-48f5-a648-8e60ca848194","system_id":"levelo_inurba_marseille","lat":43.31377,"lon":5.38494,"is_reserved":false,"is_disabled":false,"rental_uris":{"android":"levelo://app?vid=8449bcdc-3b29-48f5-a648-8e60ca848194","ios":"levelo://app?vid=8449bcdc-3b29-48f5-a648-8e60ca848194"},"vehicle_type_id":"4","last_reported":1748639314,"current_range_meters":16000,"station_id":"ce4bgt92rcd13ifvqcf0","pricing_plan_id":"cebpf4jnsgd1na2vs0mg"},{"bike_id":"8c98bbc1-1b57-4d43-8e8f-3ff0a418a7d8","system_id":"levelo_inurba_marseille","lat":43.30484,"lon":5.372656,"is_reserved":false,"is_disabled":false,"rental_uris":{"android":"levelo://app?vid=8c98bbc1-1b57-4d43-8e8f-3ff0a418a7d8","ios":"levelo://app?vid=8c98bbc1-1b57-4d43-8e8f-3ff0a418a7d8"},"vehicle_type_id":"4","last_reported":1748639314,"current_range_meters":11600,"station_id":"","pricing_plan_id":"cebpf4jnsgd1na2vs0mg"},{"bike_id":"91d451cd-fd12-4c58-9642-67ff33efe050","system_id":"levelo_inurba_marseille","lat":43.29028,"lon":5.38662,"is_reserved":false,"is_disabled":false,"rental_uris":{"android":"levelo://app?vid=91d451cd-fd12-4c58-9642-67ff33efe050","ios":"levelo://app?vid=91d451cd-fd12-4c58-9642-67ff33efe050"},"vehicle_type_id":"4","last_reported":1748639314,"current_range_meters":16000,"station_id":"ce4bh4p2rcd13ifvqe0g","pricing_plan_id":"cebpf4jnsgd1na2vs0mg"},{"bike_id":"5a0f9c43-81b8-4fde-9937-0577c074501c","system_id":"levelo_inurba_marseille","lat":43.29533,"lon":5.3852,"is_reserved":false,"is_disabled":false,"rental_uris":{"android":"levelo://app?vid=5a0f9c43-81b8-4fde-9937-0577c074501c","ios":"levelo://app?vid=5a0f9c43-81b8-4fde-9937-0577c074501c"},"vehicle_type_id":"4","last_reported":1748639314,"current_range_meters":16000,"station_id":"ce4bgih2rcd13ifvqba0","pricing_plan_id":"cebpf4jnsgd1na2vs0mg"},{"bike_id":"00d2652e-ee56-49fe-b48e-60a4e8648877","system_id":"levelo_inurba_marseille","lat":43.26213,"lon":5.37925,"is_reserved":false,"is_disabled":false,"rental_uris":{"android":"levelo://app?vid=00d2652e-ee56-49fe-b48e-60a4e8648877","ios":"levelo://app?vid=00d2652e-ee56-49fe-b48e-60a4e8648877"},"vehicle_type_id":"4","last_reported":1748639314,"current_range_meters":16000,"station_id":"ce4bhjp2rcd13ifvqg90","pricing_plan_id":"cebpf4jnsgd1na2vs0mg"},{"bike_id":"67614841-9f24-4f1f-81f7-acf09b9bb6b8","system_id":"levelo_inurba_marseille","lat":43.25724,"lon":5.41109,"is_reserved":false,"is_disabled":false,"rental_uris":{"android":"levelo://app?vid=67614841-9f24-4f1f-81f7-acf09b9bb6b8","ios":"levelo://app?vid=67614841-9f24-4f1f-81f7-acf09b9bb6b8"},"vehicle_type_id":"4","last_reported":1748639314,"current_range_meters":16000,"station_id":"ce4bhkp2rcd13ifvqgd0","pricing_plan_id":"cebpf4jnsgd1na2vs0mg"},{"bike_id":"3067ce89-2492-4c2f-90d4-9462ba35ffd8","system_id":"levelo_inurba_marseille","lat":43.29287,"lon":5.36832,"is_reserved":false,"is_disabled":false,"rental_uris":{"android":"levelo://app?vid=3067ce89-2492-4c2f-90d4-9462ba35ffd8","ios":"levelo://app?vid=3067ce89-2492-4c2f-90d4-9462ba35ffd8"},"vehicle_type_id":"4","last_reported":1748639314,"current_range_meters":16000,"station_id":"ce4bhbp2rcd13ifvqesg","pricing_plan_id":"cebpf4jnsgd1na2vs0mg"},{"bike_id":"98c649e0-2bae-46eb-9e4d-669548a5301f","system_id":"levelo_inurba_marseille","lat":43.2511,"lon":5.40329,"is_reserved":false,"is_disabled":false,"rental_uris":{"android":"levelo://app?vid=98c649e0-2bae-46eb-9e4d-669548a5301f","ios":"levelo://app?vid=98c649e0-2bae-46eb-9e4d-669548a5301f"},"vehicle_type_id":"4","last_reported":1748639314,"current_range_meters":16000,"station_id":"ce4bhlh2rcd13ifvqgig","pricing_plan_id":"cebpf4jnsgd1na2vs0mg"},{"bike_id":"b15c9528-f47a-4235-9293-ec8fcd2e5e20","system_id":"levelo_inurba_marseille","lat":43.280772,"lon":5.396536,"is_reserved":false,"is_disabled":false,"rental_uris":{"android":"levelo://app?vid=b15c9528-f47a-4235-9293-ec8fcd2e5e20","ios":"levelo://app?vid=b15c9528-f47a-4235-9293-ec8fcd2e5e20"},"vehicle_type_id":"4","last_reported":1748639314,"current_range_meters":16000,"station_id":"ce4bho12rcd13ifvqh2g","pricing_plan_id":"cebpf4jnsgd1na2vs0mg"},{"bike_id":"60859eac-99a2-4321-b4cc-68d623f442aa","system_id":"levelo_inurba_marseille","lat":43.290357,"lon":5.375712,"is_reserved":false,"is_disabled":false,"rental_uris":{"android":"levelo://app?vid=60859eac-99a2-4321-b4cc-68d623f442aa","ios":"levelo://app?vid=60859eac-99a2-4321-b4cc-68d623f442aa"},"vehicle_type_id":"4","last_reported":1748639314,"current_range_meters":16000,"station_id":"ce4bh692rcd13ifvqe90","pricing_plan_id":"cebpf4jnsgd1na2vs0mg"},{"bike_id":"162b7a97-1aae-4dfe-a183-1df1e30de13c","system_id":"levelo_inurba_marseille","lat":43.33614,"lon":5.41035,"is_reserved":false,"is_disabled":false,"rental_uris":{"android":"levelo://app?vid=162b7a97-1aae-4dfe-a183-1df1e30de13c","ios":"levelo://app?vid=162b7a97-1aae-4dfe-a183-1df1e30de13c"},"vehicle_type_id":"4","last_reported":1748639314,"current_range_meters":16000,"station_id":"ce4bhqh2rcd13ifvqhmg","pricing_plan_id":"cebpf4jnsgd1na2vs0mg"},{"bike_id":"a1afee0d-636a-4145-8e38-9b2384426a66","system_id":"levelo_inurba_marseille","lat":43.32285,"lon":5.38272,"is_reserved":false,"is_disabled":false,"rental_uris":{"android":"levelo://app?vid=a1afee0d-636a-4145-8e38-9b2384426a66","ios":"levelo://app?vid=a1afee0d-636a-4145-8e38-9b2384426a66"},"vehicle_type_id":"4","last_reported":1748639314,"current_range_meters":16400,"station_id":"ce4bhr12rcd13ifvqhqg","pricing_plan_id":"cebpf4jnsgd1na2vs0mg"},{"bike_id":"7aeffebe-874b-435f-b57e-86750fcf60fd","system_id":"levelo_inurba_marseille","lat":43.29023,"lon":5.38143,"is_reserved":false,"is_disabled":false,"rental_uris":{"android":"levelo://app?vid=7aeffebe-874b-435f-b57e-86750fcf60fd","ios":"levelo://app?vid=7aeffebe-874b-435f-b57e-86750fcf60fd"},"vehicle_type_id":"4","last_reported":1748639314,"current_range_meters":16400,"station_id":"ce4bh4p2rcd13ifvqe1g","pricing_plan_id":"cebpf4jnsgd1na2vs0mg"},{"bike_id":"de1d3ee5-e56c-40ac-9735-5da3cec457b4","system_id":"levelo_inurba_marseille","lat":43.29414,"lon":5.3864,"is_reserved":false,"is_disabled":false,"rental_uris":{"android":"levelo://app?vid=de1d3ee5-e56c-40ac-9735-5da3cec457b4","ios":"levelo://app?vid=de1d3ee5-e56c-40ac-9735-5da3cec457b4"},"vehicle_type_id":"4","last_reported":1748639314,"current_range_meters":16400,"station_id":"ce4bh2h2rcd13ifvqdh0","pricing_plan_id":"cebpf4jnsgd1na2vs0mg"},{"bike_id":"ae6c6ca6-d287-466b-b376-3b9b47f675e6","system_id":"levelo_inurba_marseille","lat":43.27832,"lon":5.392033,"is_reserved":false,"is_disabled":false,"rental_uris":{"android":"levelo://app?vid=ae6c6ca6-d287-466b-b376-3b9b47f675e6","ios":"levelo://app?vid=ae6c6ca6-d287-466b-b376-3b9b47f675e6"},"vehicle_type_id":"4","last_reported":1748639314,"current_range_meters":16400,"station_id":"ce4bhjp2rcd13ifvqga0","pricing_plan_id":"cebpf4jnsgd1na2vs0mg"},{"bike_id":"0f978cd1-91a6-49f0-af52-a237e30e4baa","system_id":"levelo_inurba_marseille","lat":43.29604,"lon":5.381,"is_reserved":false,"is_disabled":false,"rental_uris":{"android":"levelo://app?vid=0f978cd1-91a6-49f0-af52-a237e30e4baa","ios":"levelo://app?vid=0f978cd1-91a6-49f0-af52-a237e30e4baa"},"vehicle_type_id":"4","last_reported":1748639314,"current_range_meters":16400,"station_id":"ce4bgl12rcd13ifvqbo0","pricing_plan_id":"cebpf4jnsgd1na2vs0mg"},{"bike_id":"5a2b3bfd-0cb6-4eb5-a76e-b73f8a3977d6","system_id":"levelo_inurba_marseille","lat":43.2652,"lon":5.39538,"is_reserved":false,"is_disabled":false,"rental_uris":{"android":"levelo://app?vid=5a2b3bfd-0cb6-4eb5-a76e-b73f8a3977d6","ios":"levelo://app?vid=5a2b3bfd-0cb6-4eb5-a76e-b73f8a3977d6"},"vehicle_type_id":"4","last_reported":1748639314,"current_range_meters":16400,"station_id":"ce4bhi12rcd13ifvqfq0","pricing_plan_id":"cebpf4jnsgd1na2vs0mg"},{"bike_id":"5ca251bb-3aed-48af-ab33-7384e026a0e3","system_id":"levelo_inurba_marseille","lat":43.29261,"lon":5.38433,"is_reserved":false,"is_disabled":false,"rental_uris":{"android":"levelo://app?vid=5ca251bb-3aed-48af-ab33-7384e026a0e3","ios":"levelo://app?vid=5ca251bb-3aed-48af-ab33-7384e026a0e3"},"vehicle_type_id":"4","last_reported":1748639314,"current_range_meters":16400,"station_id":"ce4bh692rcd13ifvqea0","pricing_plan_id":"cebpf4jnsgd1na2vs0mg"},{"bike_id":"23740cc0-3901-480f-940f-f8da299e812e","system_id":"levelo_inurba_marseille","lat":43.29527,"lon":5.38538,"is_reserved":false,"is_disabled":false,"rental_uris":{"android":"levelo://app?vid=23740cc0-3901-480f-940f-f8da299e812e","ios":"levelo://app?vid=23740cc0-3901-480f-940f-f8da299e812e"},"vehicle_type_id":"4","last_reported":1748639314,"current_range_meters":16400,"station_id":"ce4bgih2rcd13ifvqba0","pricing_plan_id":"cebpf4jnsgd1na2vs0mg"},{"bike_id":"98b24414-8194-4471-8f9a-e1b30450575e","system_id":"levelo_inurba_marseille","lat":43.2971,"lon":5.37687,"is_reserved":false,"is_disabled":false,"rental_uris":{"android":"levelo://app?vid=98b24414-8194-4471-8f9a-e1b30450575e","ios":"levelo://app?vid=98b24414-8194-4471-8f9a-e1b30450575e"},"vehicle_type_id":"4","last_reported":1748639314,"current_range_meters":16800,"station_id":"ce4bgkh2rcd13ifvqbl0","pricing_plan_id":"cebpf4jnsgd1na2vs0mg"},{"bike_id":"0241874a-f3f6-4da7-a3d4-680360f28362","system_id":"levelo_inurba_marseille","lat":43.29604,"lon":5.38094,"is_reserved":false,"is_disabled":false,"rental_uris":{"android":"levelo://app?vid=0241874a-f3f6-4da7-a3d4-680360f28362","ios":"levelo://app?vid=0241874a-f3f6-4da7-a3d4-680360f28362"},"vehicle_type_id":"4","last_reported":1748639314,"current_range_meters":16800,"station_id":"ce4bgl12rcd13ifvqbo0","pricing_plan_id":"cebpf4jnsgd1na2vs0mg"},{"bike_id":"297d0117-4377-48ab-a3cb-9a0114ec7e82","system_id":"levelo_inurba_marseille","lat":43.29403,"lon":5.39689,"is_reserved":false,"is_disabled":false,"rental_uris":{"android":"levelo://app?vid=297d0117-4377-48ab-a3cb-9a0114ec7e82","ios":"levelo://app?vid=297d0117-4377-48ab-a3cb-9a0114ec7e82"},"vehicle_type_id":"4","last_reported":1748639314,"current_range_meters":16400,"station_id":"ce4bh3h2rcd13ifvqdo0","pricing_plan_id":"cebpf4jnsgd1na2vs0mg"},{"bike_id":"a9c585aa-7114-44aa-b529-e679b5f544ad","system_id":"levelo_inurba_marseille","lat":43.2941,"lon":5.38647,"is_reserved":false,"is_disabled":false,"rental_uris":{"android":"levelo://app?vid=a9c585aa-7114-44aa-b529-e679b5f544ad","ios":"levelo://app?vid=a9c585aa-7114-44aa-b529-e679b5f544ad"},"vehicle_type_id":"4","last_reported":1748639314,"current_range_meters":16800,"station_id":"ce4bh2h2rcd13ifvqdh0","pricing_plan_id":"cebpf4jnsgd1na2vs0mg"},{"bike_id":"5fff718b-85b3-4ab7-b18b-0da9ce6aef46","system_id":"levelo_inurba_marseille","lat":43.30279,"lon":5.37693,"is_reserved":false,"is_disabled":false,"rental_uris":{"android":"levelo://app?vid=5fff718b-85b3-4ab7-b18b-0da9ce6aef46","ios":"levelo://app?vid=5fff718b-85b3-4ab7-b18b-0da9ce6aef46"},"vehicle_type_id":"4","last_reported":1748639314,"current_range_meters":16800,"station_id":"ce4bguh2rcd13ifvqcj0","pricing_plan_id":"cebpf4jnsgd1na2vs0mg"},{"bike_id":"1513e768-a97c-46ed-8b37-3cfea95c9531","system_id":"levelo_inurba_marseille","lat":43.26553,"lon":5.37285,"is_reserved":false,"is_disabled":false,"rental_uris":{"android":"levelo://app?vid=1513e768-a97c-46ed-8b37-3cfea95c9531","ios":"levelo://app?vid=1513e768-a97c-46ed-8b37-3cfea95c9531"},"vehicle_type_id":"4","last_reported":1748639314,"current_range_meters":16800,"station_id":"ce4bhg12rcd13ifvqf70","pricing_plan_id":"cebpf4jnsgd1na2vs0mg"},{"bike_id":"9d1f9ca0-3fd8-4611-97b9-796f04de726d","system_id":"levelo_inurba_marseille","lat":43.29605,"lon":5.38103,"is_reserved":false,"is_disabled":false,"rental_uris":{"android":"levelo://app?vid=9d1f9ca0-3fd8-4611-97b9-796f04de726d","ios":"levelo://app?vid=9d1f9ca0-3fd8-4611-97b9-796f04de726d"},"vehicle_type_id":"4","last_reported":1748639314,"current_range_meters":16800,"station_id":"ce4bgl12rcd13ifvqbo0","pricing_plan_id":"cebpf4jnsgd1na2vs0mg"},{"bike_id":"c6877bd4-34cc-4990-87c8-1c278a3303bb","system_id":"levelo_inurba_marseille","lat":43.29254,"lon":5.38433,"is_reserved":false,"is_disabled":false,"rental_uris":{"android":"levelo://app?vid=c6877bd4-34cc-4990-87c8-1c278a3303bb","ios":"levelo://app?vid=c6877bd4-34cc-4990-87c8-1c278a3303bb"},"vehicle_type_id":"4","last_reported":1748639314,"current_range_meters":16800,"station_id":"ce4bh692rcd13ifvqea0","pricing_plan_id":"cebpf4jnsgd1na2vs0mg"},{"bike_id":"6b8d8aed-00a8-4b8d-a748-5de2e9a98c31","system_id":"levelo_inurba_marseille","lat":43.28482,"lon":5.38562,"is_reserved":false,"is_disabled":false,"rental_uris":{"android":"levelo://app?vid=6b8d8aed-00a8-4b8d-a748-5de2e9a98c31","ios":"levelo://app?vid=6b8d8aed-00a8-4b8d-a748-5de2e9a98c31"},"vehicle_type_id":"4","last_reported":1748639314,"current_range_meters":16800,"station_id":"ce4bh8p2rcd13ifvqeb0","pricing_plan_id":"cebpf4jnsgd1na2vs0mg"},