{"last_updated":1727975296,"ttl":60,"version":"2.2","data":{"bikes":[{"bike_id":"18588757-cdc7-4164-b275-329b63991fa8","system_id":"levelo_inurba_marseille","lat":43.28607,"lon":5.35108,"is_reserved":false,"is_disabled":false,"rental_uris":{"android":"levelo://app?vid=18588757-cdc7-4164-b275-329b63991fa8","ios":"levelo://app?vid=18588757-cdc7-4164-b275-329b63991fa8"},"vehicle_type_id":"4","last_reported":1727975296,"current_range_meters":28400,"station_id":"ce4bhch2rcd13ifvqeug","pricing_plan_id":"cebpf4jnsgd1na2vs0mg"},{"bike_id":"ce8c92cd-067a-4a40-87ae-0b0f56270673","system_id":"levelo_inurba_marseille","lat":43.27496,"lon":5.42452,"is_reserved":false,"is_disabled":false,"rental_uris":{"android":"levelo://app?vid=ce8c92cd-067a-4a40-87ae-0b0f56270673","ios":"levelo://app?vid=ce8c92cd-067a-4a40-87ae-0b0f56270673"},"vehicle_type_id":"4","last_reported":1727975296,"current_range_meters":24800,"station_id":"ce4bhn92rcd13ifvqgrg","pricing_plan_id":"cebpf4jnsgd1na2vs0mg"},{"bike_id":"807e1eb7-f138-4b74-8320-f57286143271","system_id":"levelo_inurba_marseille","lat":43.29263,"lon":5.38435,"is_reserved":false,"is_disabled":false,"rental_uris":{"android":"levelo://app?vid=807e1eb7-f138-4b74-8320-f57286143271","ios":"levelo://app?vid=807e1eb7-f138-4b74-8320-f57286143271"},"vehicle_type_id":"4","last_reported":1727975296,"current_range_meters":39200,"station_id":"ce4bh692rcd13ifvqea0","pricing_plan_id":"cebpf4jnsgd1na2vs0mg"},{"bike_id":"3c1f9d9d-73dc-4f22-b485-e3222c4623b3","system_id":"levelo_inurba_marseille","lat":43.26933,"lon":5.38926,"is_reserved":false,"is_disabled":false,"rental_uris":{"android":"levelo://app?vid=3c1f9d9d-73dc-4f22-b485-e3222c4623b3","ios":"levelo://app?vid=3c1f9d9d-73dc-4f22-b485-e3222c4623b3"},"vehicle_type_id":"4","last_reported":1727975296,"current_range_meters":2800,"station_id":"ce4bhhh2rcd13ifvqfl0","pricing_plan_id":"cebpf4jnsgd1na2vs0mg"},{"bike_id":"73cb3f13-1489-478e-8fbc-ed6054c947d5","system_id":"levelo_inurba_marseille","lat":43.29006,"lon":5.35618,"is_reserved":false,"is_disabled":false,"rental_uris":{"android":"levelo://app?vid=73cb3f13-1489-478e-8fbc-ed6054c947d5","ios":"levelo://app?vid=73cb3f13-1489-478e-8fbc-ed6054c947d5"},"vehicle_type_id":"4","last_reported":1727975296,"current_range_meters":28800,"station_id":"ce4bhb92rcd13ifvqen0","pricing_plan_id":"cebpf4jnsgd1na2vs0mg"},{"bike_id":"dfa316ed-31fe-4eb7-ae98-3312a562d760","system_id":"levelo_inurba_marseille","lat":43.27178,"lon":5.40999,"is_reserved":false,"is_disabled":false,"rental_uris":{"android":"levelo://app?vid=dfa316ed-31fe-4eb7-ae98-3312a562d760","ios":"levelo://app?vid=dfa316ed-31fe-4eb7-ae98-3312a562d760"},"vehicle_type_id":"4","last_reported":1727975296,"current_range_meters":34800,"station_id":"ce4bhl12rcd13ifvqgf0","pricing_plan_id":"cebpf4jnsgd1na2vs0mg"},{"bike_id":"5d7d835a-280b-4851-9b58-86c1569c0c4c","system_id":"levelo_inurba_marseille","lat":43.33023,"lon":5.39032,"is_reserved":false,"is_disabled":false,"rental_uris":{"android":"levelo://app?vid=5d7d835a-280b-4851-9b58-86c1569c0c4c","ios":"levelo://app?vid=5d7d835a-280b-4851-9b58-86c1569c0c4c"},"vehicle_type_id":"4","last_reported":1727975296,"current_range_meters":28000,"station_id":"ce4bhr92rcd13ifvqhrg","pricing_plan_id":"cebpf4jnsgd1na2vs0mg"},{"bike_id":"756088e4-bd38-4606-aa6f-cbbf1461af00","system_id":"levelo_inurba_marseille","lat":43.22931,"lon":5.35388,"is_reserved":false,"is_disabled":false,"rental_uris":{"android":"levelo://app?vid=756088e4-bd38-4606-aa6f-cbbf1461af00","ios":"levelo://app?vid=756088e4-bd38-4606-aa6f-cbbf1461af00"},"vehicle_type_id":"4","last_reported":1727975296,"current_range_meters":17600,"station_id":"cpo3532slgdg3j2ikp40","pricing_plan_id":"cebpf4jnsgd1na2vs0mg"},{"bike_id":"bc17d3bd-40b9-4c1e-b414-1017cfd237d5","system_id":"levelo_inurba_marseille","lat":43.29279,"lon":5.40114,"is_reserved":false,"is_disabled":false,"rental_uris":{"android":"levelo://app?vid=bc17d3bd-40b9-4c1e-b414-1017cfd237d5","ios":"levelo://app?vid=bc17d3bd-40b9-4c1e-b414-1017cfd237d5"},"vehicle_type_id":"4","last_reported":1727975296,"current_range_meters":38400,"station_id":"ce4bh312rcd13ifvqdk0","pricing_plan_id":"cebpf4jnsgd1na2vs0mg"},{"bike_id":"f873f978-38f5-459a-b537-fe303e96201e","system_id":"levelo_inurba_marseille","lat":43.27375,"lon":5.36255,"is_reserved":false,"is_disabled":false,"rental_uris":{"android":"levelo://app?vid=f873f978-38f5-459a-b537-fe303e96201e","ios":"levelo://app?vid=f873f978-38f5-459a-b537-fe303e96201e"},"vehicle_type_id":"4","last_reported":1727975296,"current_range_meters":38800,"station_id":"ce4bhbh2rcd13ifvqeo0","pricing_plan_id":"cebpf4jnsgd1na2vs0mg"},{"bike_id":"25190886-2660-48be-9a25-e0428e15b936","system_id":"levelo_inurba_marseille","lat":43.27994,"lon":5.40005,"is_reserved":false,"is_disabled":false,"rental_uris":{"android":"levelo://app?vid=25190886-2660-48be-9a25-e0428e15b936","ios":"levelo://app?vid=25190886-2660-48be-9a25-e0428e15b936"},"vehicle_type_id":"4","last_reported":1727975296,"current_range_meters":29600,"station_id":"ce4bho92rcd13ifvqh4g","pricing_plan_id":"cebpf4jnsgd1na2vs0mg"},{"bike_id":"bc41810d-3fc6-4e9c-bcc1-3b1d7bce3ce2","system_id":"levelo_inurba_marseille","lat":43.232,"lon":5.3999,"is_reserved":false,"is_disabled":false,"rental_uris":{"android":"levelo://app?vid=bc41810d-3fc6-4e9c-bcc1-3b1d7bce3ce2","ios":"levelo://app?vid=bc41810d-3fc6-4e9c-bcc1-3b1d7bce3ce2"},"vehicle_type_id":"4","last_reported":1727975296,"current_range_meters":24000,"station_id":"ce4bhn12rcd13ifvqgqg","pricing_plan_id":"cebpf4jnsgd1na2vs0mg"},{"bike_id":"7d62748d-98a3-4962-b27b-7751be2f3101","system_id":"levelo_inurba_marseille","lat":43.2885,"lon":5.35848,"is_reserved":false,"is_disabled":false,"rental_uris":{"android":"levelo://app?vid=7d62748d-98a3-4962-b27b-7751be2f3101","ios":"levelo://app?vid=7d62748d-98a3-4962-b27b-7751be2f3101"},"vehicle_type_id":"4","last_reported":1727975296,"current_range_meters":31200,"station_id":"ce4bhb12rcd13ifvqem0","pricing_plan_id":"cebpf4jnsgd1na2vs0mg"},{"bike_id":"a04e026b-e051-4350-bb2b-b59c9528e1c4","system_id":"levelo_inurba_marseille","lat":43.30303,"lon":5.39216,"is_reserved":false,"is_disabled":false,"rental_uris":{"android":"levelo://app?vid=a04e026b-e051-4350-bb2b-b59c9528e1c4","ios":"levelo://app?vid=a04e026b-e051-4350-bb2b-b59c9528e1c4"},"vehicle_type_id":"4","last_reported":1727975296,"current_range_meters":3600,"station_id":"ce4bgkh2rcd13ifvqbk0","pricing_plan_id":"cebpf4jnsgd1na2vs0mg"},{"bike_id":"55a6abf8-fc19-4ceb-845e-cabd97c4f3f1","system_id":"levelo_inurba_marseille","lat":43.28151,"lon":5.42649,"is_reserved":false,"is_disabled":false,"rental_uris":{"android":"levelo://app?vid=55a6abf8-fc19-4ceb-845e-cabd97c4f3f1","ios":"levelo://app?vid=55a6abf8-fc19-4ceb-845e-cabd97c4f3f1"},"vehicle_type_id":"4","last_reported":1727975296,"current_range_meters":8000,"station_id":"ce4bhnh2rcd13ifvqgug","pricing_plan_id":"cebpf4jnsgd1na2vs0mg"},{"bike_id":"e32c9544-3edd-409a-8a51-0962229c6c6e","system_id":"levelo_inurba_marseille","lat":43.29877,"lon":5.38906,"is_reserved":false,"is_disabled":false,"rental_uris":{"android":"levelo://app?vid=e32c9544-3edd-409a-8a51-0962229c6c6e","ios":"levelo://app?vid=e32c9544-3edd-409a-8a51-0962229c6c6e"},"vehicle_type_id":"4","last_reported":1727975296,"current_range_meters":28800,"station_id":"ce4bh392rcd13ifvqdl0","pricing_plan_id":"cebpf4jnsgd1na2vs0mg"},{"bike_id":"e7658000-0b4f-4063-88e4-39a701eb85a4","system_id":"levelo_inurba_marseille","lat":43.296212,"lon":5.37163,"is_reserved":false,"is_disabled":false,"rental_uris":{"android":"levelo://app?vid=e7658000-0b4f-4063-88e4-39a701eb85a4","ios":"levelo://app?vid=e7658000-0b4f-4063-88e4-39a701eb85a4"},"vehicle_type_id":"4","last_reported":1727975296,"current_range_meters":38800,"station_id":"ce4bgnh2rcd13ifvqc0g","pricing_plan_id":"cebpf4jnsgd1na2vs0mg"},{"bike_id":"5b070da2-320a-4043-9c23-b4d39149be5f","system_id":"levelo_inurba_marseille","lat":43.29192,"lon":5.37234,"is_reserved":false,"is_disabled":false,"rental_uris":{"android":"levelo://app?vid=5b070da2-320a-4043-9c23-b4d39149be5f","ios":"levelo://app?vid=5b070da2-320a-4043-9c23-b4d39149be5f"},"vehicle_type_id":"4","last_reported":1727975296,"current_range_meters":15200,"station_id":"ce4bh192rcd13ifvqdb0","pricing_plan_id":"cebpf4jnsgd1na2vs0mg"},{"bike_id":"827abcee-a299-45de-8bcb-7e701039f3bb","system_id":"levelo_inurba_marseille","lat":43.29586,"lon":5.36743,"is_reserved":false,"is_disabled":false,"rental_uris":{"android":"levelo://app?vid=827abcee-a299-45de-8bcb-7e701039f3bb","ios":"levelo://app?vid=827abcee-a299-45de-8bcb-7e701039f3bb"},"vehicle_type_id":"4","last_reported":1727975296,"current_range_meters":8400,"station_id":"ce4bgph2rcd13ifvqc2g","pricing_plan_id":"cebpf4jnsgd1na2vs0mg"},{"bike_id":"a99e0887-fb66-4880-8761-33fdb36b8615","system_id":"levelo_inurba_marseille","lat":43.23189,"lon":5.39994,"is_reserved":false,"is_disabled":false,"rental_uris":{"android":"levelo://app?vid=a99e0887-fb66-4880-8761-33fdb36b8615","ios":"levelo://app?vid=a99e0887-fb66-4880-8761-33fdb36b8615"},"vehicle_type_id":"4","last_reported":1727975296,"current_range_meters":16400,"station_id":"ce4bhn12rcd13ifvqgqg","pricing_plan_id":"cebpf4jnsgd1na2vs0mg"},{"bike_id":"619a1add-e327-4952-863f-424667258ab9","system_id":"levelo_inurba_marseille","lat":43.32543,"lon":5.41434,"is_reserved":false,"is_disabled":false,"rental_uris":{"android":"levelo://app?vid=619a1add-e327-4952-863f-424667258ab9","ios":"levelo://app?vid=619a1add-e327-4952-863f-424667258ab9"},"vehicle_type_id":"4","last_reported":1727975296,"current_range_meters":10000,"station_id":"ce4bhq12rcd13ifvqhhg","pricing_plan_id":"cebpf4jnsgd1na2vs0mg"},{"bike_id":"ebfe0182-2335-48a3-a0e8-656c64220cc5","system_id":"levelo_inurba_marseille","lat":43.24662,"lon":5.38168,"is_reserved":false,"is_disabled":false,"rental_uris":{"android":"levelo://app?vid=ebfe0182-2335-48a3-a0e8-656c64220cc5","ios":"levelo://app?vid=ebfe0182-2335-48a3-a0e8-656c64220cc5"},"vehicle_type_id":"4","last_reported":1727975296,"current_range_meters":24000,"station_id":"ce4bhih2rcd13ifvqfr0","pricing_plan_id":"cebpf4jnsgd1na2vs0mg"},{"bike_id":"75d506ed-3ed6-4af1-bcc2-8459bcb53624","system_id":"levelo_inurba_marseille","lat":43.3009,"lon":5.39081,"is_reserved":false,"is_disabled":false,"rental_uris":{"android":"levelo://app?vid=75d506ed-3ed6-4af1-bcc2-8459bcb53624","ios":"levelo://app?vid=75d506ed-3ed6-4af1-bcc2-8459bcb53624"},"vehicle_type_id":"4","last_reported":1727975296,"current_range_meters":22400,"station_id":"ce4bh192rcd13ifvqdb0","pricing_plan_id":"cebpf4jnsgd1na2vs0mg"},{"bike_id":"302d1c78-fc37-47fc-8bab-267936789f46","system_id":"levelo_inurba_marseille","lat":43.28149,"lon":5.42649,"is_reserved":false,"is_disabled":false,"rental_uris":{"android":"levelo://app?vid=302d1c78-fc37-47fc-8bab-267936789f46","ios":"levelo://app?vid=302d1c78-fc37-47fc-8bab-267936789f46"},"vehicle_type_id":"4","last_reported":1727975296,"current_range_meters":8800,"station_id":"ce4bhnh2rcd13ifvqgug","pricing_plan_id":"cebpf4jnsgd1na2vs0mg"},{"bike_id":"75ae865b-18dc-4981-b8a0-9c762a1bfa9c","system_id":"levelo_inurba_marseille","lat":43.33022,"lon":5.39045,"is_reserved":false,"is_disabled":false,"rental_uris":{"android":"levelo://app?vid=75ae865b-18dc-4981-b8a0-9c762a1bfa9c","ios":"levelo://app?vid=75ae865b-18dc-4981-b8a0-9c762a1bfa9c"},"vehicle_type_id":"4","last_reported":1727975296,"current_range_meters":5600,"station_id":"ce4bhr92rcd13ifvqhrg","pricing_plan_id":"cebpf4jnsgd1na2vs0mg"},{"bike_id":"f921ae5a-0728-4b2c-9b3d-73895c664889","system_id":"levelo_inurba_marseille","lat":43.30144,"lon":5.37411,"is_reserved":false,"is_disabled":false,"rental_uris":{"android":"levelo://app?vid=f921ae5a-0728-4b2c-9b3d-73895c664889","ios":"levelo://app?vid=f921ae5a-0728-4b2c-9b3d-73895c664889"},"vehicle_type_id":"4","last_reported":1727975296,"current_range_meters":31200,"station_id":"ce4bgs92rcd13ifvqcc0","pricing_plan_id":"cebpf4jnsgd1na2vs0mg"},{"bike_id":"6bf3033d-1ef1-4af1-bece-8169e9baaf67","system_id":"levelo_inurba_marseille","lat":43.2558,"lon":5.38235,"is_reserved":false,"is_disabled":false,"rental_uris":{"android":"levelo://app?vid=6bf3033d-1ef1-4af1-bece-8169e9baaf67","ios":"levelo://app?vid=6bf3033d-1ef1-4af1-bece-8169e9baaf67"},"vehicle_type_id":"4","last_reported":1727975296,"current_range_meters":35200,"station_id":"ce4bhih2rcd13ifvqfs0","pricing_plan_id":"cebpf4jnsgd1na2vs0mg"},{"bike_id":"067137d1-b01e-4db3-8afa-dbe448ff1ea0","system_id":"levelo_inurba_marseille","lat":43.28614,"lon":5.35108,"is_reserved":false,"is_disabled":false,"rental_uris":{"android":"levelo://app?vid=067137d1-b01e-4db3-8afa-dbe448ff1ea0","ios":"levelo://app?vid=067137d1-b01e-4db3-8afa-dbe448ff1ea0"},"vehicle_type_id":"4","last_reported":1727975296,"current_range_meters":30400,"station_id":"ce4bhch2rcd13ifvqeug","pricing_plan_id":"cebpf4jnsgd1na2vs0mg"},{"bike_id":"e6b2df58-b4a0-4aec-933d-a62e42f34d34","system_id":"levelo_inurba_marseille","lat":43.33726,"lon":5.39198,"is_reserved":false,"is_disabled":false,"rental_uris":{"android":"levelo://app?vid=e6b2df58-b4a0-4aec-933d-a62e42f34d34","ios":"levelo://app?vid=e6b2df58-b4a0-4aec-933d-a62e42f34d34"},"vehicle_type_id":"4","last_reported":1727975296,"current_range_meters":24800,"station_id":"ce4bhr92rcd13ifvqhsg","pricing_plan_id":"cebpf4jnsgd1na2vs0mg"},{"bike_id":"b1caede3-9948-4c10-a88e-31db67871077","system_id":"levelo_inurba_marseille","lat":43.31357,"lon":5.38501,"is_reserved":false,"is_disabled":false,"rental_uris":{"android":"levelo://app?vid=b1caede3-9948-4c10-a88e-31db67871077","ios":"levelo://app?vid=b1caede3-9948-4c10-a88e-31db67871077"},"vehicle_type_id":"4","last_reported":1727975296,"current_range_meters":27600,"station_id":"ce4bgt92rcd13ifvqcf0","pricing_plan_id":"cebpf4jnsgd1na2vs0mg"},{"bike_id":"5cf6aade-4d8e-4b12-8d5b-0a105e925e14","system_id":"levelo_inurba_marseille","lat":43.24514,"lon":5.37352,"is_reserved":false,"is_disabled":false,"rental_uris":{"android":"levelo://app?vid=5cf6aade-4d8e-4b12-8d5b-0a105e925e14","ios":"levelo://app?vid=5cf6aade-4d8e-4b12-8d5b-0a105e925e14"},"vehicle_type_id":"4","last_reported":1727975296,"current_range_meters":20400,"station_id":"","pricing_plan_id":"cebpf4jnsgd1na2vs0mg"},{"bike_id":"b274f3be-bc62-43c8-b852-e10f571cb897","system_id":"levelo_inurba_marseille","lat":43.2993,"lon":5.37487,"is_reserved":false,"is_disabled":false,"rental_uris":{"android":"levelo://app?vid=b274f3be-bc62-43c8-b852-e10f571cb897","ios":"levelo://app?vid=b274f3be-bc62-43c8-b852-e10f571cb897"},"vehicle_type_id":"4","last_reported":1727975296,"current_range_meters":6000,"station_id":"ce4bgjh2rcd13ifvqbg0","pricing_plan_id":"cebpf4jnsgd1na2vs0mg"},{"bike_id":"56287f66-1668-4a5d-b3e1-733e18339fb8","system_id":"levelo_inurba_marseille","lat":43.32365,"lon":5.38886,"is_reserved":false,"is_disabled":false,"rental_uris":{"android":"levelo://app?vid=56287f66-1668-4a5d-b3e1-733e18339fb8","ios":"levelo://app?vid=56287f66-1668-4a5d-b3e1-733e18339fb8"},"vehicle_type_id":"4","last_reported":1727975296,"current_range_meters":28800,"station_id":"ce4bhqp2rcd13ifvqhog","pricing_plan_id":"cebpf4jnsgd1na2vs0mg"},{"bike_id":"acb7125d-2fb6-4d4f-984a-dce08d574b1c","system_id":"levelo_inurba_marseille","lat":43.29447,"lon":5.39754,"is_reserved":false,"is_disabled":false,"rental_uris":{"android":"levelo://app?vid=acb7125d-2fb6-4d4f-984a-dce08d574b1c","ios":"levelo://app?vid=acb7125d-2fb6-4d4f-984a-dce08d574b1c"},"vehicle_type_id":"4","last_reported":1727975296,"current_range_meters":8000,"station_id":"ce4bh3h2rcd13ifvqdo0","pricing_plan_id":"cebpf4jnsgd1na2vs0mg"},{"bike_id":"b73551f1-4737-42f3-8efd-5f2fca843848","system_id":"levelo_inurba_marseille","lat":43.29903,"lon":5.43684,"is_reserved":false,"is_disabled":false,"rental_uris":{"android":"levelo://app?vid=b73551f1-4737-42f3-8efd-5f2fca843848","ios":"levelo://app?vid=b73551f1-4737-42f3-8efd-5f2fca843848"},"vehicle_type_id":"4","last_reported":1727975296,"current_range_meters":23200,"station_id":"ce4bhpp2rcd13ifvqhfg","pricing_plan_id":"cebpf4jnsgd1na2vs0mg"},{"bike_id":"63bae4f0-02bd-4bdc-902b-51044b09603f","system_id":"levelo_inurba_marseille","lat":43.27616,"lon":5.36102,"is_reserved":false,"is_disabled":false,"rental_uris":{"android":"levelo://app?vid=63bae4f0-02bd-4bdc-902b-51044b09603f","ios":"levelo://app?vid=63bae4f0-02bd-4bdc-902b-51044b09603f"},"vehicle_type_id":"4","last_reported":1727975296,"current_range_meters":38800,"station_id":"ce4bgj92rcd13ifvqbe0","pricing_plan_id":"cebpf4jnsgd1na2vs0mg"},{"bike_id":"00b22d59-46f4-44cf-ab8f-01737a0f1f95","system_id":"levelo_inurba_marseille","lat":43.30883,"lon":5.39665,"is_reserved":false,"is_disabled":false,"rental_uris":{"android":"levelo://app?vid=00b22d59-46f4-44cf-ab8f-01737a0f1f95","ios":"levelo://app?vid=00b22d59-46f4-44cf-ab8f-01737a0f1f95"},"vehicle_type_id":"4","last_reported":1727975296,"current_range_meters":20800,"station_id":"ce4bh012rcd13ifvqcv0","pricing_plan_id":"cebpf4jnsgd1na2vs0mg"},{"bike_id":"a0feab16-2f1f-4214-9058-21d8b9b7774f","system_id":"levelo_inurba_marseille","lat":43.28011,"lon":5.40968,"is_reserved":false,"is_disabled":false,"rental_uris":{"android":"levelo://app?vid=a0feab16-2f1f-4214-9058-21d8b9b7774f","ios":"levelo://app?vid=a0feab16-2f1f-4214-9058-21d8b9b7774f"},"vehicle_type_id":"4","last_reported":1727975296,"current_range_meters":14400,"station_id":"","pricing_plan_id":"cebpf4jnsgd1na2vs0mg"},{"bike_id":"f5aa3bcd-f5f9-4a04-8726-2d0941eb8f10","system_id":"levelo_inurba_marseille","lat":43.27571,"lon":5.38431,"is_reserved":false,"is_disabled":false,"rental_uris":{"android":"levelo://app?vid=f5aa3bcd-f5f9-4a04-8726-2d0941eb8f10","ios":"levelo://app?vid=f5aa3bcd-f5f9-4a04-8726-2d0941eb8f10"},"vehicle_type_id":"4","last_reported":1727975296,"current_range_meters":25600,"station_id":"ce4bhh92rcd13ifvqfi0","pricing_plan_id":"cebpf4jnsgd1na2vs0mg"},{"bike_id":"0d38caac-4e1b-4bc6-8634-fba8549655ca","system_id":"levelo_inurba_marseille","lat":43.32113,"lon":5.36771,"is_reserved":false,"is_disabled":false,"rental_uris":{"android":"levelo://app?vid=0d38caac-4e1b-4bc6-8634-fba8549655ca","ios":"levelo://app?vid=0d38caac-4e1b-4bc6-8634-fba8549655ca"},"vehicle_type_id":"4","last_reported":1727975296,"current_range_meters":36000,"station_id":"ce4bhrh2rcd13ifvqhug","pricing_plan_id":"cebpf4jnsgd1na2vs0mg"},{"bike_id":"932ac322-61b8-4b32-85d3-0c30666d3ed0","system_id":"levelo_inurba_marseille","lat":43.2643,"lon":5.39228,"is_reserved":false,"is_disabled":false,"rental_uris":{"android":"levelo://app?vid=932ac322-61b8-4b32-85d3-0c30666d3ed0","ios":"levelo://app?vid=932ac322-61b8-4b32-85d3-0c30666d3ed0"},"vehicle_type_id":"4","last_reported":1727975296,"current_range_meters":30800,"station_id":"ce4bhgh2rcd13ifvqfb0","pricing_plan_id":"cebpf4jnsgd1na2vs0mg"},{"bike_id":"c1e5f639-f003-4f9d-862f-a3c8eb5780e1","system_id":"levelo_inurba_marseille","lat":43.29896,"lon":5.43664,"is_reserved":false,"is_disabled":false,"rental_uris":{"android":"levelo://app?vid=c1e5f639-f003-4f9d-862f-a3c8eb5780e1","ios":"levelo://app?vid=c1e5f639-f003-4f9d-862f-a3c8eb5780e1"},"vehicle_type_id":"4","last_reported":1727975296,"current_range_meters":28000,"station_id":"ce4bhpp2rcd13ifvqhfg","pricing_plan_id":"cebpf4jnsgd1na2vs0mg"},{"bike_id":"b620ea74-2780-4029-9305-030e06087b6c","system_id":"levelo_inurba_marseille","lat":43.29036,"lon":5.39973,"is_reserved":false,"is_disabled":false,"rental_uris":{"android":"levelo://app?vid=b620ea74-2780-4029-9305-030e06087b6c","ios":"levelo://app?vid=b620ea74-2780-4029-9305-030e06087b6c"},"vehicle_type_id":"4","last_reported":1727975296,"current_range_meters":35200,"station_id":"ce4bh392rcd13ifvqdm0","pricing_plan_id":"cebpf4jnsgd1na2vs0mg"},{"bike_id":"499cb64c-6fb8-4407-89d8-a118e3c5c28d","system_id":"levelo_inurba_marseille","lat":43.27988,"lon":5.40018,"is_reserved":false,"is_disabled":false,"rental_uris":{"android":"levelo://app?vid=499cb64c-6fb8-4407-89d8-a118e3c5c28d","ios":"levelo://app?vid=499cb64c-6fb8-4407-89d8-a118e3c5c28d"},"vehicle_type_id":"4","last_reported":1727975296,"current_range_meters":19200,"station_id":"ce4bho92rcd13ifvqh4g","pricing_plan_id":"cebpf4jnsgd1na2vs0mg"},{"bike_id":"ad9d6e94-a639-469e-9892-0c7fed511f97","system_id":"levelo_inurba_marseille","lat":43.26554,"lon":5.37287,"is_reserved":false,"is_disabled":false,"rental_uris":{"android":"levelo://app?vid=ad9d6e94-a639-469e-9892-0c7fed511f97","ios":"levelo://app?vid=ad9d6e94-a639-469e-9892-0c7fed511f97"},"vehicle_type_id":"4","last_reported":1727975296,"current_range_meters":20000,"station_id":"ce4bhg12rcd13ifvqf70","pricing_plan_id":"cebpf4jnsgd1na2vs0mg"},{"bike_id":"aad7eb39-827c-4765-aadc-c84a23849a3c","system_id":"levelo_inurba_marseille","lat":43.32364,"lon":5.38886,"is_reserved":false,"is_disabled":false,"rental_uris":{"android":"levelo://app?vid=aad7eb39-827c-4765-aadc-c84a23849a3c","ios":"levelo://app?vid=aad7eb39-827c-4765-aadc-c84a23849a3c"},"vehicle_type_id":"4","last_reported":1727975296,"current_range_meters":30000,"station_id":"ce4bhqp2rcd13ifvqhog","pricing_plan_id":"cebpf4jnsgd1na2vs0mg"},{"bike_id":"ef5a9b68-9868-4cba-b2f6-4e5e411c1dcd","system_id":"levelo_inurba_marseille","lat":43.260029,"lon":5.37565,"is_reserved":false,"is_disabled":false,"rental_uris":{"android":"levelo://app?vid=ef5a9b68-9868-4cba-b2f6-4e5e411c1dcd","ios":"levelo://app?vid=ef5a9b68-9868-4cba-b2f6-4e5e411c1dcd"},"vehicle_type_id":"4","last_reported":1727975296,"current_range_meters":25600,"station_id":"ce4bhgh2rcd13ifvqfa0","pricing_plan_id":"cebpf4jnsgd1na2vs0mg"},{"bike_id":"4b5bddc2-dd68-4d0e-b293-d80d115fea99","system_id":"levelo_inurba_marseille","lat":43.28455,"lon":5.35887,"is_reserved":false,"is_disabled":false,"rental_uris":{"android":"levelo://app?vid=4b5bddc2-dd68-4d0e-b293-d80d115fea99","ios":"levelo://app?vid=4b5bddc2-dd68-4d0e-b293-d80d115fea99"},"vehicle_type_id":"4","last_reported":1727975296,"current_range_meters":8800,"station_id":"ce4bhah2rcd13ifvqei0","pricing_plan_id":"cebpf4jnsgd1na2vs0mg"},{"bike_id":"76f567d4-1967-4cea-af8b-fd617ffaec8d","system_id":"levelo_inurba_marseille","lat":43.28276,"lon":5.35076,"is_reserved":false,"is_disabled":false,"rental_uris":{"android":"levelo://app?vid=76f567d4-1967-4cea-af8b-fd617ffaec8d","ios":"levelo://app?vid=76f567d4-1967-4cea-af8b-fd617ffaec8d"},"vehicle_type_id":"4","last_reported":1727975296,"current_range_meters":26800,"station_id":"ce4bhbp2rcd13ifvqerg","pricing_plan_id":"cebpf4jnsgd1na2vs0mg"},{"bike_id":"7bfb5721-baf3-4893-bbf9-7c8112a113a1","system_id":"levelo_inurba_marseille","lat":43.27985,"lon":5.40014,"is_reserved":false,"is_disabled":false,"rental_uris":{"android":"levelo://app?vid=7bfb5721-baf3-4893-bbf9-7c8112a113a1","ios":"levelo://app?vid=7bfb5721-baf3-4893-bbf9-7c8112a113a1"},"vehicle_type_id":"4","last_reported":1727975296,"current_range_meters":32800,"station_id":"ce4bho92rcd13ifvqh4g","pricing_plan_id":"cebpf4jnsgd1na2vs0mg"},{"bike_id":"a1f97a2a-5413-4599-8354-8254b4e2abd8","system_id":"levelo_inurba_marseille","lat":43.28106,"lon":5.37847,"is_reserved":false,"is_disabled":false,"rental_uris":{"android":"levelo://app?vid=a1f97a2a-5413-4599-8354-8254b4e2abd8","ios":"levelo://app?vid=a1f97a2a-5413-4599-8354-8254b4e2abd8"},"vehicle_type_id":"4","last_reported":1727975296,"current_range_meters":7200,"station_id":"ce4bha12rcd13ifvqee0","pricing_plan_id":"cebpf4jnsgd1na2vs0mg"},{"bike_id":"0fc7ae8d-9102-4d20-8337-a47ebec4b5f1","system_id":"levelo_inurba_marseille","lat":43.32544,"lon":5.41441,"is_reserved":false,"is_disabled":false,"rental_uris":{"android":"levelo://app?vid=0fc7ae8d-9102-4d20-8337-a47ebec4b5f1","ios":"levelo://app?vid=0fc7ae8d-9102-4d20-8337-a47ebec4b5f1"},"vehicle_type_id":"4","last_reported":1727975296,"current_range_meters":38800,"station_id":"ce4bhq12rcd13ifvqhhg","pricing_plan_id":"cebpf4jnsgd1na2vs0mg"},{"bike_id":"2f11cb32-2857-486d-9346-c6862611bae4","system_id":"levelo_inurba_marseille","lat":43.3014,"lon":5.3742,"is_reserved":false,"is_disabled":false,"rental_uris":{"android":"levelo://app?vid=2f11cb32-2857-486d-9346-c6862611bae4","ios":"levelo://app?vid=2f11cb32-2857-486d-9346-c6862611bae4"},"vehicle_type_id":"4","last_reported":1727975296,"current_range_meters":38400,"station_id":"ce4bgs92rcd13ifvqcc0","pricing_plan_id":"cebpf4jnsgd1na2vs0mg"},{"bike_id":"5b7b7f31-2ad6-409b-8235-1bb722bdf0ca","system_id":"levelo_inurba_marseille","lat":43.23965,"lon":5.36626,"is_reserved":false,"is_disabled":false,"rental_uris":{"android":"levelo://app?vid=5b7b7f31-2ad6-409b-8235-1bb722bdf0ca","ios":"levelo://app?vid=5b7b7f31-2ad6-409b-8235-1bb722bdf0ca"},"vehicle_type_id":"4","last_reported":1727975296,"current_range_meters":22400,"station_id":"ce4bhi12rcd13ifvqfp0","pricing_plan_id":"cebpf4jnsgd1na2vs0mg"},{"bike_id":"df6be8e4-00bb-441f-a8fd-95537afc6707","system_id":"levelo_inurba_marseille","lat":43.29774,"lon":5.37103,"is_reserved":false,"is_disabled":false,"rental_uris":{"android":"levelo://app?vid=df6be8e4-00bb-441f-a8fd-95537afc6707","ios":"levelo://app?vid=df6be8e4-00bb-441f-a8fd-95537afc6707"},"vehicle_type_id":"4","last_reported":1727975296,"current_range_meters":4800,"station_id":"ce4bgop2rcd13ifvqc1g","pricing_plan_id":"cebpf4jnsgd1na2vs0mg"},{"bike_id":"85a60867-0292-479f-99a9-23810b153b98","system_id":"levelo_inurba_marseille","lat":43.2707,"lon":5.42282,"is_reserved":false,"is_disabled":false,"rental_uris":{"android":"levelo://app?vid=85a60867-0292-479f-99a9-23810b153b98","ios":"levelo://app?vid=85a60867-0292-479f-99a9-23810b153b98"},"vehicle_type_id":"4","last_reported":1727975296,"current_range_meters":13600,"station_id":"ce4bhk92rcd13ifvqgb0","pricing_plan_id":"cebpf4jnsgd1na2vs0mg"},{"bike_id":"4d7b92bd-fb4a-4851-9d74-ec38fbbbdb1b","system_id":"levelo_inurba_marseille","lat":43.337444,"lon":5.374475,"is_reserved":false,"is_disabled":false,"rental_uris":{"android":"levelo://app?vid=4d7b92bd-fb4a-4851-9d74-ec38fbbbdb1b","ios":"levelo://app?vid=4d7b92bd-fb4a-4851-9d74-ec38fbbbdb1b"},"vehicle_type_id":"4","last_reported":1727975296,"current_range_meters":35600,"station_id":"","pricing_plan_id":"cebpf4jnsgd1na2vs0mg"},{"bike_id":"5e1a8f47-2de5-4f3a-aacc-ec3e409f85da","system_id":"levelo_inurba_marseille","lat":43.28858,"lon":5.35849,"is_reserved":false,"is_disabled":false,"rental_uris":{"android":"levelo://app?vid=5e1a8f47-2de5-4f3a-aacc-ec3e409f85da","ios":"levelo://app?vid=5e1a8f47-2de5-4f3a-aacc-ec3e409f85da"},"vehicle_type_id":"4","last_reported":1727975296,"current_range_meters":17200,"station_id":"ce4bhb12rcd13ifvqem0","pricing_plan_id":"cebpf4jnsgd1na2vs0mg"},{"bike_id":"88de8396-92a1-42d6-99a2-02304bd11c2d","system_id":"levelo_inurba_marseille","lat":43.24585,"lon":5.39302,"is_reserved":false,"is_disabled":false,"rental_uris":{"android":"levelo://app?vid=88de8396-92a1-42d6-99a2-02304bd11c2d","ios":"levelo://app?vid=88de8396-92a1-42d6-99a2-02304bd11c2d"},"vehicle_type_id":"4","last_reported":1727975296,"current_range_meters":21600,"station_id":"ce4bgjh2rcd13ifvqbg0","pricing_plan_id":"cebpf4jnsgd1na2vs0mg"},{"bike_id":"ce6019b7-b720-4ad8-b3ab-4ee03ad5943b","system_id":"levelo_inurba_marseille","lat":43.29304,"lon":5.37468,"is_reserved":false,"is_disabled":false,"rental_uris":{"android":"levelo://app?vid=ce6019b7-b720-4ad8-b3ab-4ee03ad5943b","ios":"levelo://app?vid=ce6019b7-b720-4ad8-b3ab-4ee03ad5943b"},"vehicle_type_id":"4","last_reported":1727975296,"current_range_meters":38800,"station_id":"ce4bgi12rcd13ifvqb70","pricing_plan_id":"cebpf4jnsgd1na2vs0mg"},{"bike_id":"c6b7f946-24b3-4394-9a23-1c9296536b54","system_id":"levelo_inurba_marseille","lat":43.29532,"lon":5.3854,"is_reserved":false,"is_disabled":false,"rental_uris":{"android":"levelo://app?vid=c6b7f946-24b3-4394-9a23-1c9296536b54","ios":"levelo://app?vid=c6b7f946-24b3-4394-9a23-1c9296536b54"},"vehicle_type_id":"4","last_reported":1727975296,"current_range_meters":30400,"station_id":"ce4bgih2rcd13ifvqba0","pricing_plan_id":"cebpf4jnsgd1na2vs0mg"},{"bike_id":"cc672fa0-56b6-49af-8c7d-01c54754b29a","system_id":"levelo_inurba_marseille","lat":43.2804,"lon":5.36951,"is_reserved":false,"is_disabled":false,"rental_uris":{"android":"levelo://app?vid=cc672fa0-56b6-49af-8c7d-01c54754b29a","ios":"levelo://app?vid=cc672fa0-56b6-49af-8c7d-01c54754b29a"},"vehicle_type_id":"4","last_reported":1727975296,"current_range_meters":25600,"station_id":"ce4bha12rcd13ifvqef0","pricing_plan_id":"cebpf4jnsgd1na2vs0mg"},{"bike_id":"6cc05df2-9f1a-4a6a-bf3f-7287b3f43093","system_id":"levelo_inurba_marseille","lat":43.28616,"lon":5.35103,"is_reserved":false,"is_disabled":false,"rental_uris":{"android":"levelo://app?vid=6cc05df2-9f1a-4a6a-bf3f-7287b3f43093","ios":"levelo://app?vid=6cc05df2-9f1a-4a6a-bf3f-7287b3f43093"},"vehicle_type_id":"4","last_reported":1727975296,"current_range_meters":4000,"station_id":"ce4bhch2rcd13ifvqeug","pricing_plan_id":"cebpf4jnsgd1na2vs0mg"},{"bike_id":"7963ac7d-ed35-43fc-b8f6-2d8ba8a6d7f0","system_id":"levelo_inurba_marseille","lat":43.28153,"lon":5.42645,"is_reserved":false,"is_disabled":false,"rental_uris":{"android":"levelo://app?vid=7963ac7d-ed35-43fc-b8f6-2d8ba8a6d7f0","ios":"levelo://app?vid=7963ac7d-ed35-43fc-b8f6-2d8ba8a6d7f0"},"vehicle_type_id":"4","last_reported":1727975296,"current_range_meters":11600,"station_id":"ce4bhnh2rcd13ifvqgug","pricing_plan_id":"cebpf4jnsgd1na2vs0mg"},{"bike_id":"fd872ba7-9877-4e67-9269-d8995abba644","system_id":"levelo_inurba_marseille","lat":43.22933,"lon":5.35378,"is_reserved":false,"is_disabled":false,"rental_uris":{"android":"levelo://app?vid=fd872ba7-9877-4e67-9269-d8995abba644","ios":"levelo://app?vid=fd872ba7-9877-4e67-9269-d8995abba644"},"vehicle_type_id":"4","last_reported":1727975296,"current_range_meters":24800,"station_id":"cpo3532slgdg3j2ikp40","pricing_plan_id":"cebpf4jnsgd1na2vs0mg"},{"bike_id":"4ce22d40-fb86-4b4e-b321-3e4fe9937193","system_id":"levelo_inurba_marseille","lat":43.32335,"lon":5.40612,"is_reserved":false,"is_disabled":false,"rental_uris":{"android":"levelo://app?vid=4ce22d40-fb86-4b4e-b321-3e4fe9937193","ios":"levelo://app?vid=4ce22d40-fb86-4b4e-b321-3e4fe9937193"},"vehicle_type_id":"4","last_reported":1727975296,"current_range_meters":3600,"station_id":"ce4bhq92rcd13ifvqhjg","pricing_plan_id":"cebpf4jnsgd1na2vs0mg"},{"bike_id":"1dff6269-77de-4259-8d5b-2ea73afb5126","system_id":"levelo_inurba_marseille","lat":43.24666,"lon":5.38163,"is_reserved":false,"is_disabled":false,"rental_uris":{"android":"levelo://app?vid=1dff6269-77de-4259-8d5b-2ea73afb5126","ios":"levelo://app?vid=1dff6269-77de-4259-8d5b-2ea73afb5126"},"vehicle_type_id":"4","last_reported":1727975296,"current_range_meters":28800,"station_id":"ce4bhih2rcd13ifvqfr0","pricing_plan_id":"cebpf4jnsgd1na2vs0mg"},{"bike_id":"0f53c290-ccde-436e-93da-5e6799c490b6","system_id":"levelo_inurba_marseille","lat":43.31757,"lon":5.39019,"is_reserved":false,"is_disabled":false,"rental_uris":{"android":"levelo://app?vid=0f53c290-ccde-436e-93da-5e6799c490b6","ios":"levelo://app?vid=0f53c290-ccde-436e-93da-5e6799c490b6"},"vehicle_type_id":"4","last_reported":1727975296,"current_range_meters":16400,"station_id":"ce4bhqp2rcd13ifvqhng","pricing_plan_id":"cebpf4jnsgd1na2vs0mg"},{"bike_id":"476d5000-e8b4-4168-a69f-b5e4937eeb89","system_id":"levelo_inurba_marseille","lat":43.25122,"lon":5.40318,"is_reserved":false,"is_disabled":false,"rental_uris":{"android":"levelo://app?vid=476d5000-e8b4-4168-a69f-b5e4937eeb89","ios":"levelo://app?vid=476d5000-e8b4-4168-a69f-b5e4937eeb89"},"vehicle_type_id":"4","last_reported":1727975296,"current_range_meters":14800,"station_id":"ce4bhlh2rcd13ifvqgig","pricing_plan_id":"cebpf4jnsgd1na2vs0mg"},{"bike_id":"f73b63f9-4e1f-4c1c-8085-6a2b26c5e763","system_id":"levelo_inurba_marseille","lat":43.292195,"lon":5.360456,"is_reserved":false,"is_disabled":false,"rental_uris":{"android":"levelo://app?vid=f73b63f9-4e1f-4c1c-8085-6a2b26c5e763","ios":"levelo://app?vid=f73b63f9-4e1f-4c1c-8085-6a2b26c5e763"},"vehicle_type_id":"4","last_reported":1727975296,"current_range_meters":2800,"station_id":"ce4bhbh2rcd13ifvqeqg","pricing_plan_id":"cebpf4jnsgd1na2vs0mg"},{"bike_id":"5c137518-0f3c-4764-ab09-36bc8f5d4980","system_id":"levelo_inurba_marseille","lat":43.31225,"lon":5.3687,"is_reserved":false,"is_disabled":false,"rental_uris":{"android":"levelo://app?vid=5c137518-0f3c-4764-ab09-36bc8f5d4980","ios":"levelo://app?vid=5c137518-0f3c-4764-ab09-36bc8f5d4980"},"vehicle_type_id":"4","last_reported":1727975296,"current_range_meters":38000,"station_id":"ce4bgl92rcd13ifvqbq0","pricing_plan_id":"cebpf4jnsgd1na2vs0mg"},{"bike_id":"d30beee0-c9ba-4c3b-afe8-5f74bf1011fd","system_id":"levelo_inurba_marseille","lat":43.323364,"lon":5.406179,"is_reserved":false,"is_disabled":false,"rental_uris":{"android":"levelo://app?vid=d30beee0-c9ba-4c3b-afe8-5f74bf1011fd","ios":"levelo://app?vid=d30beee0-c9ba-4c3b-afe8-5f74bf1011fd"},"vehicle_type_id":"4","last_reported":1727975296,"current_range_meters":21600,"station_id":"ce4bhq92rcd13ifvqhjg","pricing_plan_id":"cebpf4jnsgd1na2vs0mg"},{"bike_id":"92b5c022-a316-4370-85f1-cd9056a17cee","system_id":"levelo_inurba_marseille","lat":43.29871,"lon":5.39748,"is_reserved":false,"is_disabled":false,"rental_uris":{"android":"levelo://app?vid=92b5c022-a316-4370-85f1-cd9056a17cee","ios":"levelo://app?vid=92b5c022-a316-4370-85f1-cd9056a17cee"},"vehicle_type_id":"4","last_reported":1727975296,"current_range_meters":15200,"station_id":"ce4bh0h2rcd13ifvqd50","pricing_plan_id":"cebpf4jnsgd1na2vs0mg"},{"bike_id":"aeb9180a-b99f-4983-a5bc-d4efde28f7e4","system_id":"levelo_inurba_marseille","lat":43.26681,"lon":5.38274,"is_reserved":false,"is_disabled":false,"rental_uris":{"android":"levelo://app?vid=aeb9180a-b99f-4983-a5bc-d4efde28f7e4","ios":"levelo://app?vid=aeb9180a-b99f-4983-a5bc-d4efde28f7e4"},"vehicle_type_id":"4","last_reported":1727975296,"current_range_meters":6400,"station_id":"ce4bhg92rcd13ifvqf90","pricing_plan_id":"cebpf4jnsgd1na2vs0mg"},{"bike_id":"06ebb798-ce72-42fe-8e85-89d255931826","system_id":"levelo_inurba_marseille","lat":43.31173,"lon":5.38709,"is_reserved":false,"is_disabled":false,"rental_uris":{"android":"levelo://app?vid=06ebb798-ce72-42fe-8e85-89d255931826","ios":"levelo://app?vid=06ebb798-ce72-42fe-8e85-89d255931826"},"vehicle_type_id":"4","last_reported":1727975296,"current_range_meters":36800,"station_id":"ce4bgv12rcd13ifvqcp0","pricing_plan_id":"cebpf4jnsgd1na2vs0mg"},{"bike_id":"45448a20-51aa-478e-b8bb-d6bd1c396bca","system_id":"levelo_inurba_marseille","lat":43.29003,"lon":5.35613,"is_reserved":false,"is_disabled":false,"rental_uris":{"android":"levelo://app?vid=45448a20-51aa-478e-b8bb-d6bd1c396bca","ios":"levelo://app?vid=45448a20-51aa-478e-b8bb-d6bd1c396bca"},"vehicle_type_id":"4","last_reported":1727975296,"current_range_meters":30800,"station_id":"ce4bhb92rcd13ifvqen0","pricing_plan_id":"cebpf4jnsgd1na2vs0mg"},{"bike_id":"d93f9830-7ebf-4d61-8af5-361e8f946831","system_id":"levelo_inurba_marseille","lat":43.28268,"lon":5.35065,"is_reserved":false,"is_disabled":false,"rental_uris":{"android":"levelo://app?vid=d93f9830-7ebf-4d61-8af5-361e8f946831","ios":"levelo://app?vid=d93f9830-7ebf-4d61-8af5-361e8f946831"},"vehicle_type_id":"4","last_reported":1727975296,"current_range_meters":28000,"station_id":"ce4bhbp2rcd13ifvqerg","pricing_plan_id":"cebpf4jnsgd1na2vs0mg"},{"bike_id":"691f653c-20f1-4a65-85ca-89f418a872bf","system_id":"levelo_inurba_marseille","lat":43.32365,"lon":5.38885,"is_reserved":false,"is_disabled":false,"rental_uris":{"android":"levelo://app?vid=691f653c-20f1-4a65-85ca-89f418a872bf","ios":"levelo://app?vid=691f653c-20f1-4a65-85ca-89f418a872bf"},"vehicle_type_id":"4","last_reported":1727975296,"current_range_meters":26000,"station_id":"ce4bhqp2rcd13ifvqhog","pricing_plan_id":"cebpf4jnsgd1na2vs0mg"},{"bike_id":"53c6fe7a-c5f0-4c29-bdb6-08c6c7db5c71","system_id":"levelo_inurba_marseille","lat":43.32113,"lon":5.36781,"is_reserved":false,"is_disabled":false,"rental_uris":{"android":"levelo://app?vid=53c6fe7a-c5f0-4c29-bdb6-08c6c7db5c71","ios":"levelo://app?vid=53c6fe7a-c5f0-4c29-bdb6-08c6c7db5c71"},"vehicle_type_id":"4","last_reported":1727975296,"current_range_meters":9200,"station_id":"ce4bhrh2rcd13ifvqhug","pricing_plan_id":"cebpf4jnsgd1na2vs0mg"},{"bike_id":"6ce60676-3f86-4aaa-a5df-572436c32ad4","system_id":"levelo_inurba_marseille","lat":43.23198,"lon":5.3555,"is_reserved":false,"is_disabled":false,"rental_uris":{"android":"levelo://app?vid=6ce60676-3f86-4aaa-a5df-572436c32ad4","ios":"levelo://app?vid=6ce60676-3f86-4aaa-a5df-572436c32ad4"},"vehicle_type_id":"4","last_reported":1727975296,"current_range_meters":19200,"station_id":"ce4bhu92rcd13ifvqi70","pricing_plan_id":"cebpf4jnsgd1na2vs0mg"},{"bike_id":"c467b98e-c058-45b8-a2e2-7226be6f8662","system_id":"levelo_inurba_marseille","lat":43.26935,"lon":5.38916,"is_reserved":false,"is_disabled":false,"rental_uris":{"android":"levelo://app?vid=c467b98e-c058-45b8-a2e2-7226be6f8662","ios":"levelo://app?vid=c467b98e-c058-45b8-a2e2-7226be6f8662"},"vehicle_type_id":"4","last_reported":1727975296,"current_range_meters":1600,"station_id":"ce4bhhh2rcd13ifvqfl0","pricing_plan_id":"cebpf4jnsgd1na2vs0mg"},{"bike_id":"53ddd5dd-3ee6-48a8-a84b-5a917ade1459","system_id":"levelo_inurba_marseille","lat":43.30809,"lon":5.43535,"is_reserved":false,"is_disabled":false,"rental_uris":{"android":"levelo://app?vid=53ddd5dd-3ee6-48a8-a84b-5a917ade1459","ios":"levelo://app?vid=53ddd5dd-3ee6-48a8-a84b-5a917ade1459"},"vehicle_type_id":"4","last_reported":1727975296,"current_range_meters":27600,"station_id":"ce4bhph2rcd13ifvqheg","pricing_plan_id":"cebpf4jnsgd1na2vs0mg"},{"bike_id":"ac491eed-1fef-4832-b4ca-d42b5b54f337","system_id":"levelo_inurba_marseille","lat":43.28422,"lon":5.34993,"is_reserved":false,"is_disabled":false,"rental_uris":{"android":"levelo://app?vid=ac491eed-1fef-4832-b4ca-d42b5b54f337","ios":"levelo://app?vid=ac491eed-1fef-4832-b4ca-d42b5b54f337"},"vehicle_type_id":"4","last_reported":1727975296,"current_range_meters":38800,"station_id":"ce4bhbh2rcd13ifvqepg","pricing_plan_id":"cebpf4jnsgd1na2vs0mg"},{"bike_id":"33224129-a233-4547-bee3-fc424eedf14f","system_id":"levelo_inurba_marseille","lat":43.26561,"lon":5.39012,"is_reserved":false,"is_disabled":false,"rental_uris":{"android":"levelo://app?vid=33224129-a233-4547-bee3-fc424eedf14f","ios":"levelo://app?vid=33224129-a233-4547-bee3-fc424eedf14f"},"vehicle_type_id":"4","last_reported":1727975296,"current_range_meters":37600,"station_id":"ce4bhe12rcd13ifvqf30","pricing_plan_id":"cebpf4jnsgd1na2vs0mg"},{"bike_id":"7fed4edd-fced-4cac-8f5a-8f088e4cd963","system_id":"levelo_inurba_marseille","lat":43.26553,"lon":5.373,"is_reserved":false,"is_disabled":false,"rental_uris":{"android":"levelo://app?vid=7fed4edd-fced-4cac-8f5a-8f088e4cd963","ios":"levelo://app?vid=7fed4edd-fced-4cac-8f5a-8f088e4cd963"},"vehicle_type_id":"4","last_reported":1727975296,"current_range_meters":6800,"station_id":"ce4bhg12rcd13ifvqf70","pricing_plan_id":"cebpf4jnsgd1na2vs0mg"},{"bike_id":"a6692f1f-5525-4523-bd49-a7c219bc26c1","system_id":"levelo_inurba_marseille","lat":43.26561,"lon":5.37288,"is_reserved":false,"is_disabled":false,"rental_uris":{"android":"levelo://app?vid=a6692f1f-5525-4523-bd49-a7c219bc26c1","ios":"levelo://app?vid=a6692f1f-5525-4523-bd49-a7c219bc26c1"},"vehicle_type_id":"4","last_reported":1727975296,"current_range_meters":37600,"station_id":"ce4bhg12rcd13ifvqf70","pricing_plan_id":"cebpf4jnsgd1na2vs0mg"},{"bike_id":"e651ed3e-8bd1-4acf-9c97-b4bc70c338ec","system_id":"levelo_inurba_marseille","lat":43.28694,"lon":5.37383,"is_reserved":false,"is_disabled":false,"rental_uris":{"android":"levelo://app?vid=e651ed3e-8bd1-4acf-9c97-b4bc70c338ec","ios":"levelo://app?vid=e651ed3e-8bd1-4acf-9c97-b4bc70c338ec"},"vehicle_type_id":"4","last_reported":1727975296,"current_range_meters":11200,"station_id":"ce4bhah2rcd13ifvqei0","pricing_plan_id":"cebpf4jnsgd1na2vs0mg"},{"bike_id":"ddf75281-988c-4c19-880b-719d01004a8f","system_id":"levelo_inurba_marseille","lat":43.30802,"lon":5.4352,"is_reserved":false,"is_disabled":false,"rental_uris":{"android":"levelo://app?vid=ddf75281-988c-4c19-880b-719d01004a8f","ios":"levelo://app?vid=ddf75281-988c-4c19-880b-719d01004a8f"},"vehicle_type_id":"4","last_reported":1727975296,"current_range_meters":9200,"station_id":"ce4bhph2rcd13ifvqheg","pricing_plan_id":"cebpf4jnsgd1na2vs0mg"},{"bike_id":"a0d8da91-e5bc-492a-bac4-61d849a36ef9","system_id":"levelo_inurba_marseille","lat":43.30809,"lon":5.43391,"is_reserved":false,"is_disabled":false,"rental_uris":{"android":"levelo://app?vid=a0d8da91-e5bc-492a-bac4-61d849a36ef9","ios":"levelo://app?vid=a0d8da91-e5bc-492a-bac4-61d849a36ef9"},"vehicle_type_id":"4","last_reported":1727975296,"current_range_meters":8800,"station_id":"ce4bhph2rcd13ifvqheg","pricing_plan_id":"cebpf4jnsgd1na2vs0mg"},{"bike_id":"d77a79fe-863e-42e1-8239-da344827cb2c","system_id":"levelo_inurba_marseille","lat":43.29542,"lon":5.42272,"is_reserved":false,"is_disabled":false,"rental_uris":{"android":"levelo://app?vid=d77a79fe-863e-42e1-8239-da344827cb2c","ios":"levelo://app?vid=d77a79fe-863e-42e1-8239-da344827cb2c"},"vehicle_type_id":"4","last_reported":1727975296,"current_range_meters":29600,"station_id":"ce4bhph2rcd13ifvqhdg","pricing_plan_id":"cebpf4jnsgd1na2vs0mg"},{"bike_id":"87f8da44-1a3a-40b3-98e0-ccbd60ff820e","system_id":"levelo_inurba_marseille","lat":43.30308,"lon":5.36896,"is_reserved":false,"is_disabled":false,"rental_uris":{"android":"levelo://app?vid=87f8da44-1a3a-40b3-98e0-ccbd60ff820e","ios":"levelo://app?vid=87f8da44-1a3a-40b3-98e0-ccbd60ff820e"},"vehicle_type_id":"4","last_reported":1727975296,"current_range_meters":20400,"station_id":"ce4bgqh2rcd13ifvqc5g","pricing_plan_id":"cebpf4jnsgd1na2vs0mg"},{"bike_id":"70a6e5d9-f7dc-45fe-93de-dcba5cdbc45d","system_id":"levelo_inurba_marseille","lat":43.28613,"lon":5.35108,"is_reserved":false,"is_disabled":false,"rental_uris":{"android":"levelo://app?vid=70a6e5d9-f7dc-45fe-93de-dcba5cdbc45d","ios":"levelo://app?vid=70a6e5d9-f7dc-45fe-93de-dcba5cdbc45d"},"vehicle_type_id":"4","last_reported":1727975296,"current_range_meters":5600,"station_id":"ce4bhch2rcd13ifvqeug","pricing_plan_id":"cebpf4jnsgd1na2vs0mg"},{"bike_id":"bdd607e9-859d-402e-8914-3a4c42675274","system_id":"levelo_inurba_marseille","lat":43.25491,"lon":5.37653,"is_reserved":false,"is_disabled":false,"rental_uris":{"android":"levelo://app?vid=bdd607e9-859d-402e-8914-3a4c42675274","ios":"levelo://app?vid=bdd607e9-859d-402e-8914-3a4c42675274"},"vehicle_type_id":"4","last_reported":1727975296,"current_range_meters":25200,"station_id":"ce4bhh12rcd13ifvqff0","pricing_plan_id":"cebpf4jnsgd1na2vs0mg"},{"bike_id":"3e70beed-f0fe-4633-b30e-b52d2705f235","system_id":"levelo_inurba_marseille","lat":43.2917,"lon":5.37166,"is_reserved":false,"is_disabled":false,"rental_uris":{"android":"levelo://app?vid=3e70beed-f0fe-4633-b30e-b52d2705f235","ios":"levelo://app?vid=3e70beed-f0fe-4633-b30e-b52d2705f235"},"vehicle_type_id":"4","last_reported":1727975296,"current_range_meters":39200,"station_id":"ce4bha92rcd13ifvqeh0","pricing_plan_id":"cebpf4jnsgd1na2vs0mg"},{"bike_id":"c8e4ff73-620c-4248-92f7-758d5098242c","system_id":"levelo_inurba_marseille","lat":43.22928,"lon":5.35376,"is_reserved":false,"is_disabled":false,"rental_uris":{"android":"levelo://app?vid=c8e4ff73-620c-4248-92f7-758d5098242c","ios":"levelo://app?vid=c8e4ff73-620c-4248-92f7-758d5098242c"},"vehicle_type_id":"4","last_reported":1727975296,"current_range_meters":26800,"station_id":"cpo3532slgdg3j2ikp40","pricing_plan_id":"cebpf4jnsgd1na2vs0mg"},{"bike_id":"3bf045f0-0941-441d-8366-6abd7859d44f","system_id":"levelo_inurba_marseille","lat":43.2621,"lon":5.37446,"is_reserved":false,"is_disabled":false,"rental_uris":{"android":"levelo://app?vid=3bf045f0-0941-441d-8366-6abd7859d44f","ios":"levelo://app?vid=3bf045f0-0941-441d-8366-6abd7859d44f"},"vehicle_type_id":"4","last_reported":1727975296,"current_range_meters":36400,"station_id":"ce4bhgp2rcd13ifvqfc0","pricing_plan_id":"cebpf4jnsgd1na2vs0mg"},{"bike_id":"583eb2a3-c703-4842-8648-2706b2b88008","system_id":"levelo_inurba_marseille","lat":43.28154,"lon":5.4264,"is_reserved":false,"is_disabled":false,"rental_uris":{"android":"levelo://app?vid=583eb2a3-c703-4842-8648-2706b2b88008","ios":"levelo://app?vid=583eb2a3-c703-4842-8648-2706b2b88008"},"vehicle_type_id":"4","last_reported":1727975296,"current_range_meters":9600,"station_id":"ce4bhnh2rcd13ifvqgug","pricing_plan_id":"cebpf4jnsgd1na2vs0mg"},{"bike_id":"c79f1d9a-64ca-4b07-89be-0cf3553548d6","system_id":"levelo_inurba_marseille","lat":43.33022,"lon":5.3904,"is_reserved":false,"is_disabled":false,"rental_uris":{"android":"levelo://app?vid=c79f1d9a-64ca-4b07-89be-0cf3553548d6","ios":"levelo://app?vid=c79f1d9a-64ca-4b07-89be-0cf3553548d6"},"vehicle_type_id":"4","last_reported":1727975296,"current_range_meters":10000,"station_id":"ce4bhr92rcd13ifvqhrg","pricing_plan_id":"cebpf4jnsgd1na2vs0mg"},{"bike_id":"58328c53-fa13-40be-8815-01eac12dd7f4","system_id":"levelo_inurba_marseille","lat":43.29867,"lon":5.37227,"is_reserved":false,"is_disabled":false,"rental_uris":{"android":"levelo://app?vid=58328c53-fa13-40be-8815-01eac12dd7f4","ios":"levelo://app?vid=58328c53-fa13-40be-8815-01eac12dd7f4"},"vehicle_type_id":"4","last_reported":1727975296,"current_range_meters":19200,"station_id":"","pricing_plan_id":"cebpf4jnsgd1na2vs0mg"},{"bike_id":"df19166c-ecb8-4c24-b5fd-04013749e810","system_id":"levelo_inurba_marseille","lat":43.2396,"lon":5.36627,"is_reserved":false,"is_disabled":false,"rental_uris":{"android":"levelo://app?vid=df19166c-ecb8-4c24-b5fd-04013749e810","ios":"levelo://app?vid=df19166c-ecb8-4c24-b5fd-04013749e810"},"vehicle_type_id":"4","last_reported":1727975296,"current_range_meters":6800,"station_id":"ce4bhi12rcd13ifvqfp0","pricing_plan_id":"cebpf4jnsgd1na2vs0mg"},{"bike_id":"222b08e6-b10f-4fc9-86eb-500be90eaeb2","system_id":"levelo_inurba_marseille","lat":43.33024,"lon":5.39039,"is_reserved":false,"is_disabled":false,"rental_uris":{"android":"levelo://app?vid=222b08e6-b10f-4fc9-86eb-500be90eaeb2","ios":"levelo://app?vid=222b08e6-b10f-4fc9-86eb-500be90eaeb2"},"vehicle_type_id":"4","last_reported":1727975296,"current_range_meters":20400,"station_id":"ce4bhr92rcd13ifvqhrg","pricing_plan_id":"cebpf4jnsgd1na2vs0mg"},{"bike_id":"38be9d73-cbb7-4389-9457-874e123d48de","system_id":"levelo_inurba_marseille","lat":43.27677,"lon":5.3888,"is_reserved":false,"is_disabled":false,"rental_uris":{"android":"levelo://app?vid=38be9d73-cbb7-4389-9457-874e123d48de","ios":"levelo://app?vid=38be9d73-cbb7-4389-9457-874e123d48de"},"vehicle_type_id":"4","last_reported":1727975296,"current_range_meters":12000,"station_id":"ce4bhi12rcd13ifvqfo0","pricing_plan_id":"cebpf4jnsgd1na2vs0mg"},{"bike_id":"9111912f-5f92-4e01-9623-79e0ea71aff6","system_id":"levelo_inurba_marseille","lat":43.32275,"lon":5.38265,"is_reserved":false,"is_disabled":false,"rental_uris":{"android":"levelo://app?vid=9111912f-5f92-4e01-9623-79e0ea71aff6","ios":"levelo://app?vid=9111912f-5f92-4e01-9623-79e0ea71aff6"},"vehicle_type_id":"4","last_reported":1727975296,"current_range_meters":37600,"station_id":"ce4bhr12rcd13ifvqhqg","pricing_plan_id":"cebpf4jnsgd1na2vs0mg"},{"bike_id":"2daf76c7-db30-4e4f-a2f6-13767131974a","system_id":"levelo_inurba_marseille","lat":43.26034,"lon":5.37547,"is_reserved":false,"is_disabled":false,"rental_uris":{"android":"levelo://app?vid=2daf76c7-db30-4e4f-a2f6-13767131974a","ios":"levelo://app?vid=2daf76c7-db30-4e4f-a2f6-13767131974a"},"vehicle_type_id":"4","last_reported":1727975296,"current_range_meters":38400,"station_id":"ce4bhgh2rcd13ifvqfa0","pricing_plan_id":"cebpf4jnsgd1na2vs0mg"},{"bike_id":"279905d2-31cb-4375-9057-1a2156283393","system_id":"levelo_inurba_marseille","lat":43.28407,"lon":5.35005,"is_reserved":false,"is_disabled":false,"rental_uris":{"android":"levelo://app?vid=279905d2-31cb-4375-9057-1a2156283393","ios":"levelo://app?vid=279905d2-31cb-4375-9057-1a2156283393"},"vehicle_type_id":"4","last_reported":1727975296,"current_range_meters":36800,"station_id":"ce4bhbh2rcd13ifvqepg","pricing_plan_id":"cebpf4jnsgd1na2vs0mg"},{"bike_id":"aaf88bf6-dd55-4f8f-814d-7f310c3c3312","system_id":"levelo_inurba_marseille","lat":43.29414,"lon":5.38633,"is_reserved":false,"is_disabled":false,"rental_uris":{"android":"levelo://app?vid=aaf88bf6-dd55-4f8f-814d-7f310c3c3312","ios":"levelo://app?vid=aaf88bf6-dd55-4f8f-814d-7f310c3c3312"},"vehicle_type_id":"4","last_reported":1727975296,"current_range_meters":38800,"station_id":"ce4bh2h2rcd13ifvqdh0","pricing_plan_id":"cebpf4jnsgd1na2vs0mg"},{"bike_id":"30e2f0ec-0394-406c-8829-fe660566e51a","system_id":"levelo_inurba_marseille","lat":43.27811,"lon":5.40713,"is_reserved":false,"is_disabled":false,"rental_uris":{"android":"levelo://app?vid=30e2f0ec-0394-406c-8829-fe660566e51a","ios":"levelo://app?vid=30e2f0ec-0394-406c-8829-fe660566e51a"},"vehicle_type_id":"4","last_reported":1727975296,"current_range_meters":39200,"station_id":"ce4bhnh2rcd13ifvqgtg","pricing_plan_id":"cebpf4jnsgd1na2vs0mg"},{"bike_id":"bd8535c5-ba76-4f16-8ad2-6b9441b72570","system_id":"levelo_inurba_marseille","lat":43.28612,"lon":5.35104,"is_reserved":false,"is_disabled":false,"rental_uris":{"android":"levelo://app?vid=bd8535c5-ba76-4f16-8ad2-6b9441b72570","ios":"levelo://app?vid=bd8535c5-ba76-4f16-8ad2-6b9441b72570"},"vehicle_type_id":"4","last_reported":1727975296,"current_range_meters":38800,"station_id":"ce4bhch2rcd13ifvqeug","pricing_plan_id":"cebpf4jnsgd1na2vs0mg"},{"bike_id":"638ea2d4-cb56-475a-9712-21b4df19cbce","system_id":"levelo_inurba_marseille","lat":43.31762,"lon":5.39016,"is_reserved":false,"is_disabled":false,"rental_uris":{"android":"levelo://app?vid=638ea2d4-cb56-475a-9712-21b4df19cbce","ios":"levelo://app?vid=638ea2d4-cb56-475a-9712-21b4df19cbce"},"vehicle_type_id":"4","last_reported":1727975296,"current_range_meters":32400,"station_id":"ce4bhqp2rcd13ifvqhng","pricing_plan_id":"cebpf4jnsgd1na2vs0mg"},{"bike_id":"4f69c4e4-4aab-4ccb-88ff-64579ae1a72c","system_id":"levelo_inurba_marseille","lat":43.24178,"lon":5.39718,"is_reserved":false,"is_disabled":false,"rental_uris":{"android":"levelo://app?vid=4f69c4e4-4aab-4ccb-88ff-64579ae1a72c","ios":"levelo://app?vid=4f69c4e4-4aab-4ccb-88ff-64579ae1a72c"},"vehicle_type_id":"4","last_reported":1727975296,"current_range_meters":11600,"station_id":"ce4bhn12rcd13ifvqgpg","pricing_plan_id":"cebpf4jnsgd1na2vs0mg"},{"bike_id":"2d7cefa0-c726-4a01-ab3f-8d2375c19ae4","system_id":"levelo_inurba_marseille","lat":43.29788,"lon":5.37098,"is_reserved":false,"is_disabled":false,"rental_uris":{"android":"levelo://app?vid=2d7cefa0-c726-4a01-ab3f-8d2375c19ae4","ios":"levelo://app?vid=2d7cefa0-c726-4a01-ab3f-8d2375c19ae4"},"vehicle_type_id":"4","last_reported":1727975296,"current_range_meters":4400,"station_id":"ce4bgop2rcd13ifvqc1g","pricing_plan_id":"cebpf4jnsgd1na2vs0mg"},{"bike_id":"7b90d071-bbd1-4203-a899-e836a3d4ed7d","system_id":"levelo_inurba_marseille","lat":43.28074,"lon":5.3966,"is_reserved":false,"is_disabled":false,"rental_uris":{"android":"levelo://app?vid=7b90d071-bbd1-4203-a899-e836a3d4ed7d","ios":"levelo://app?vid=7b90d071-bbd1-4203-a899-e836a3d4ed7d"},"vehicle_type_id":"4","last_reported":1727975296,"current_range_meters":30800,"station_id":"ce4bho12rcd13ifvqh2g","pricing_plan_id":"cebpf4jnsgd1na2vs0mg"},{"bike_id":"dc086a08-bc01-4a19-b785-58f21f6829ae","system_id":"levelo_inurba_marseille","lat":43.25498,"lon":5.37653,"is_reserved":false,"is_disabled":false,"rental_uris":{"android":"levelo://app?vid=dc086a08-bc01-4a19-b785-58f21f6829ae","ios":"levelo://app?vid=dc086a08-bc01-4a19-b785-58f21f6829ae"},"vehicle_type_id":"4","last_reported":1727975296,"current_range_meters":11200,"station_id":"ce4bhh12rcd13ifvqff0","pricing_plan_id":"cebpf4jnsgd1na2vs0mg"},{"bike_id":"7211bed2-8514-4169-9df5-9ea6b7b446bf","system_id":"levelo_inurba_marseille","lat":43.28611,"lon":5.35103,"is_reserved":false,"is_disabled":false,"rental_uris":{"android":"levelo://app?vid=7211bed2-8514-4169-9df5-9ea6b7b446bf","ios":"levelo://app?vid=7211bed2-8514-4169-9df5-9ea6b7b446bf"},"vehicle_type_id":"4","last_reported":1727975296,"current_range_meters":12400,"station_id":"ce4bhch2rcd13ifvqeug","pricing_plan_id":"cebpf4jnsgd1na2vs0mg"},{"bike_id":"10a1f845-9e5e-45c7-ba99-a25d61d9a13e","system_id":"levelo_inurba_marseille","lat":43.26556,"lon":5.37287,"is_reserved":false,"is_disabled":false,"rental_uris":{"android":"levelo://app?vid=10a1f845-9e5e-45c7-ba99-a25d61d9a13e","ios":"levelo://app?vid=10a1f845-9e5e-45c7-ba99-a25d61d9a13e"},"vehicle_type_id":"4","last_reported":1727975296,"current_range_meters":23200,"station_id":"ce4bhg12rcd13ifvqf70","pricing_plan_id":"cebpf4jnsgd1na2vs0mg"},{"bike_id":"1018345a-6d1b-45b5-b516-2f376dc5a3b4","system_id":"levelo_inurba_marseille","lat":43.27175,"lon":5.41004,"is_reserved":false,"is_disabled":false,"rental_uris":{"android":"levelo://app?vid=1018345a-6d1b-45b5-b516-2f376dc5a3b4","ios":"levelo://app?vid=1018345a-6d1b-45b5-b516-2f376dc5a3b4"},"vehicle_type_id":"4","last_reported":1727975296,"current_range_meters":6400,"station_id":"ce4bhl12rcd13ifvqgf0","pricing_plan_id":"cebpf4jnsgd1na2vs0mg"},{"bike_id":"aea6d35a-d70d-42fd-8e7a-c209329f1752","system_id":"levelo_inurba_marseille","lat":43.28702,"lon":5.37387,"is_reserved":false,"is_disabled":false,"rental_uris":{"android":"levelo://app?vid=aea6d35a-d70d-42fd-8e7a-c209329f1752","ios":"levelo://app?vid=aea6d35a-d70d-42fd-8e7a-c209329f1752"},"vehicle_type_id":"4","last_reported":1727975296,"current_range_meters":8000,"station_id":"ce4bh3p2rcd13ifvqdq0","pricing_plan_id":"cebpf4jnsgd1na2vs0mg"},{"bike_id":"e4ead61a-2040-4a66-9a75-31ebe38aeda2","system_id":"levelo_inurba_marseille","lat":43.2694,"lon":5.40257,"is_reserved":false,"is_disabled":false,"rental_uris":{"android":"levelo://app?vid=e4ead61a-2040-4a66-9a75-31ebe38aeda2","ios":"levelo://app?vid=e4ead61a-2040-4a66-9a75-31ebe38aeda2"},"vehicle_type_id":"4","last_reported":1727975296,"current_range_meters":37600,"station_id":"cjm6bp8fraef2m0cb0m0","pricing_plan_id":"cebpf4jnsgd1na2vs0mg"},{"bike_id":"8036a2ef-56ec-4c4d-bfee-a9176f6f84f8","system_id":"levelo_inurba_marseille","lat":43.27377,"lon":5.36255,"is_reserved":false,"is_disabled":false,"rental_uris":{"android":"levelo://app?vid=8036a2ef-56ec-4c4d-bfee-a9176f6f84f8","ios":"levelo://app?vid=8036a2ef-56ec-4c4d-bfee-a9176f6f84f8"},"vehicle_type_id":"4","last_reported":1727975296,"current_range_meters":37600,"station_id":"ce4bhbh2rcd13ifvqeo0","pricing_plan_id":"cebpf4jnsgd1na2vs0mg"},{"bike_id":"b1de2d2c-06c8-4cd3-a9c2-6a5c17f5b3bb","system_id":"levelo_inurba_marseille","lat":43.32366,"lon":5.38882,"is_reserved":false,"is_disabled":false,"rental_uris":{"android":"levelo://app?vid=b1de2d2c-06c8-4cd3-a9c2-6a5c17f5b3bb","ios":"levelo://app?vid=b1de2d2c-06c8-4cd3-a9c2-6a5c17f5b3bb"},"vehicle_type_id":"4","last_reported":1727975296,"current_range_meters":20000,"station_id":"ce4bhqp2rcd13ifvqhog","pricing_plan_id":"cebpf4jnsgd1na2vs0mg"},{"bike_id":"eb739754-d2bf-4d15-bc20-966d50c1df3c","system_id":"levelo_inurba_marseille","lat":43.25001,"lon":5.38924,"is_reserved":false,"is_disabled":false,"rental_uris":{"android":"levelo://app?vid=eb739754-d2bf-4d15-bc20-966d50c1df3c","ios":"levelo://app?vid=eb739754-d2bf-4d15-bc20-966d50c1df3c"},"vehicle_type_id":"4","last_reported":1727975296,"current_range_meters":21600,"station_id":"ce4bhgp2rcd13ifvqfd0","pricing_plan_id":"cebpf4jnsgd1na2vs0mg"},{"bike_id":"ba268cfb-32df-4ac2-8d53-f107185f5557","system_id":"levelo_inurba_marseille","lat":43.27618,"lon":5.36109,"is_reserved":false,"is_disabled":false,"rental_uris":{"android":"levelo://app?vid=ba268cfb-32df-4ac2-8d53-f107185f5557","ios":"levelo://app?vid=ba268cfb-32df-4ac2-8d53-f107185f5557"},"vehicle_type_id":"4","last_reported":1727975296,"current_range_meters":37600,"station_id":"ce4bgj92rcd13ifvqbe0","pricing_plan_id":"cebpf4jnsgd1na2vs0mg"},{"bike_id":"c5bf6c57-7703-4962-bea8-fc52f0c9311e","system_id":"levelo_inurba_marseille","lat":43.27808,"lon":5.40718,"is_reserved":false,"is_disabled":false,"rental_uris":{"android":"levelo://app?vid=c5bf6c57-7703-4962-bea8-fc52f0c9311e","ios":"levelo://app?vid=c5bf6c57-7703-4962-bea8-fc52f0c9311e"},"vehicle_type_id":"4","last_reported":1727975296,"current_range_meters":39200,"station_id":"ce4bhnh2rcd13ifvqgtg","pricing_plan_id":"cebpf4jnsgd1na2vs0mg"},{"bike_id":"38ccb47c-cec4-440c-a317-244788fef8a1","system_id":"levelo_inurba_marseille","lat":43.23964,"lon":5.36629,"is_reserved":false,"is_disabled":false,"rental_uris":{"android":"levelo://app?vid=38ccb47c-cec4-440c-a317-244788fef8a1","ios":"levelo://app?vid=38ccb47c-cec4-440c-a317-244788fef8a1"},"vehicle_type_id":"4","last_reported":1727975296,"current_range_meters":39200,"station_id":"ce4bhi12rcd13ifvqfp0","pricing_plan_id":"cebpf4jnsgd1na2vs0mg"},{"bike_id":"bb3a76e5-5c40-4797-9b3e-e16394c6b8c7","system_id":"levelo_inurba_marseille","lat":43.29894,"lon":5.43662,"is_reserved":false,"is_disabled":false,"rental_uris":{"android":"levelo://app?vid=bb3a76e5-5c40-4797-9b3e-e16394c6b8c7","ios":"levelo://app?vid=bb3a76e5-5c40-4797-9b3e-e16394c6b8c7"},"vehicle_type_id":"4","last_reported":1727975296,"current_range_meters":39200,"station_id":"ce4bhpp2rcd13ifvqhfg","pricing_plan_id":"cebpf4jnsgd1na2vs0mg"},{"bike_id":"5839a257-4216-4f40-a5dc-06af74cc3824","system_id":"levelo_inurba_marseille","lat":43.29263,"lon":5.38451,"is_reserved":false,"is_disabled":false,"rental_uris":{"android":"levelo://app?vid=5839a257-4216-4f40-a5dc-06af74cc3824","ios":"levelo://app?vid=5839a257-4216-4f40-a5dc-06af74cc3824"},"vehicle_type_id":"4","last_reported":1727975296,"current_range_meters":38800,"station_id":"ce4bh692rcd13ifvqea0","pricing_plan_id":"cebpf4jnsgd1na2vs0mg"},{"bike_id":"d9513a24-3235-43a7-b9a5-1c5cfe37603f","system_id":"levelo_inurba_marseille","lat":43.23059,"lon":5.3549,"is_reserved":false,"is_disabled":false,"rental_uris":{"android":"levelo://app?vid=d9513a24-3235-43a7-b9a5-1c5cfe37603f","ios":"levelo://app?vid=d9513a24-3235-43a7-b9a5-1c5cfe37603f"},"vehicle_type_id":"4","last_reported":1727975296,"current_range_meters":28800,"station_id":"cpo3342slgdg3j2ifvpg","pricing_plan_id":"cebpf4jnsgd1na2vs0mg"},{"bike_id":"8bcb22c1-a83a-40b2-8dd0-8ee4373b1a33","system_id":"levelo_inurba_marseille","lat":43.26195,"lon":5.37455,"is_reserved":false,"is_disabled":false,"rental_uris":{"android":"levelo://app?vid=8bcb22c1-a83a-40b2-8dd0-8ee4373b1a33","ios":"levelo://app?vid=8bcb22c1-a83a-40b2-8dd0-8ee4373b1a33"},"vehicle_type_id":"4","last_reported":1727975296,"current_range_meters":0,"station_id":"ce4bhgp2rcd13ifvqfc0","pricing_plan_id":"cebpf4jnsgd1na2vs0mg"},{"bike_id":"384edeae-8b2d-4c40-bcd5-0cd46d2c15df","system_id":"levelo_inurba_marseille","lat":43.3189,"lon":5.40726,"is_reserved":false,"is_disabled":false,"rental_uris":{"android":"levelo://app?vid=384edeae-8b2d-4c40-bcd5-0cd46d2c15df","ios":"levelo://app?vid=384edeae-8b2d-4c40-bcd5-0cd46d2c15df"},"vehicle_type_id":"4","last_reported":1727975296,"current_range_meters":2800,"station_id":"ce4bhq12rcd13ifvqhig","pricing_plan_id":"cebpf4jnsgd1na2vs0mg"},{"bike_id":"cf2f556e-3991-4e9e-a3c9-d55a0202bac2","system_id":"levelo_inurba_marseille","lat":43.26032,"lon":5.37553,"is_reserved":false,"is_disabled":false,"rental_uris":{"android":"levelo://app?vid=cf2f556e-3991-4e9e-a3c9-d55a0202bac2","ios":"levelo://app?vid=cf2f556e-3991-4e9e-a3c9-d55a0202bac2"},"vehicle_type_id":"4","last_reported":1727975296,"current_range_meters":39200,"station_id":"ce4bhgh2rcd13ifvqfa0","pricing_plan_id":"cebpf4jnsgd1na2vs0mg"},{"bike_id":"93b9cd56-4725-4d7c-b990-e8e30ed5ca75","system_id":"levelo_inurba_marseille","lat":43.28461,"lon":5.35884,"is_reserved":false,"is_disabled":false,"rental_uris":{"android":"levelo://app?vid=93b9cd56-4725-4d7c-b990-e8e30ed5ca75","ios":"levelo://app?vid=93b9cd56-4725-4d7c-b990-e8e30ed5ca75"},"vehicle_type_id":"4","last_reported":1727975296,"current_range_meters":4000,"station_id":"ce4bhah2rcd13ifvqei0","pricing_plan_id":"cebpf4jnsgd1na2vs0mg"},{"bike_id":"fe0e7130-228b-42c0-aff6-01922a265f0b","system_id":"levelo_inurba_marseille","lat":43.299,"lon":5.43671,"is_reserved":false,"is_disabled":false,"rental_uris":{"android":"levelo://app?vid=fe0e7130-228b-42c0-aff6-01922a265f0b","ios":"levelo://app?vid=fe0e7130-228b-42c0-aff6-01922a265f0b"},"vehicle_type_id":"4","last_reported":1727975296,"current_range_meters":20000,"station_id":"ce4bhpp2rcd13ifvqhfg","pricing_plan_id":"cebpf4jnsgd1na2vs0mg"},{"bike_id":"f53f4873-b0ae-4474-b36b-db6ea8c8f799","system_id":"levelo_inurba_marseille","lat":43.26195,"lon":5.37449,"is_reserved":false,"is_disabled":false,"rental_uris":{"android":"levelo://app?vid=f53f4873-b0ae-4474-b36b-db6ea8c8f799","ios":"levelo://app?vid=f53f4873-b0ae-4474-b36b-db6ea8c8f799"},"vehicle_type_id":"4","last_reported":1727975296,"current_range_meters":38800,"station_id":"ce4bhgp2rcd13ifvqfc0","pricing_plan_id":"cebpf4jnsgd1na2vs0mg"},{"bike_id":"eee1dc5a-9ffe-417d-a588-57898aac93ea","system_id":"levelo_inurba_marseille","lat":43.28081,"lon":5.39661,"is_reserved":false,"is_disabled":false,"rental_uris":{"android":"levelo://app?vid=eee1dc5a-9ffe-417d-a588-57898aac93ea","ios":"levelo://app?vid=eee1dc5a-9ffe-417d-a588-57898aac93ea"},"vehicle_type_id":"4","last_reported":1727975296,"current_range_meters":24800,"station_id":"ce4bho12rcd13ifvqh2g","pricing_plan_id":"cebpf4jnsgd1na2vs0mg"},{"bike_id":"9df576ea-2303-4ad7-b87f-a2819123f13f","system_id":"levelo_inurba_marseille","lat":43.29422,"lon":5.38626,"is_reserved":false,"is_disabled":false,"rental_uris":{"android":"levelo://app?vid=9df576ea-2303-4ad7-b87f-a2819123f13f","ios":"levelo://app?vid=9df576ea-2303-4ad7-b87f-a2819123f13f"},"vehicle_type_id":"4","last_reported":1727975296,"current_range_meters":30400,"station_id":"ce4bh2h2rcd13ifvqdh0","pricing_plan_id":"cebpf4jnsgd1na2vs0mg"},{"bike_id":"754fd5bb-90db-4d48-8b2b-de99673a2728","system_id":"levelo_inurba_marseille","lat":43.27814,"lon":5.40711,"is_reserved":false,"is_disabled":false,"rental_uris":{"android":"levelo://app?vid=754fd5bb-90db-4d48-8b2b-de99673a2728","ios":"levelo://app?vid=754fd5bb-90db-4d48-8b2b-de99673a2728"},"vehicle_type_id":"4","last_reported":1727975296,"current_range_meters":20800,"station_id":"ce4bhnh2rcd13ifvqgtg","pricing_plan_id":"cebpf4jnsgd1na2vs0mg"},{"bike_id":"96b9453f-a7be-42c0-a6ff-b340287e7ff4","system_id":"levelo_inurba_marseille","lat":43.28469,"lon":5.3589,"is_reserved":false,"is_disabled":false,"rental_uris":{"android":"levelo://app?vid=96b9453f-a7be-42c0-a6ff-b340287e7ff4","ios":"levelo://app?vid=96b9453f-a7be-42c0-a6ff-b340287e7ff4"},"vehicle_type_id":"4","last_reported":1727975296,"current_range_meters":23200,"station_id":"ce4bhah2rcd13ifvqei0","pricing_plan_id":"cebpf4jnsgd1na2vs0mg"},{"bike_id":"5191ec42-f363-41a4-8d60-4432161b3474","system_id":"levelo_inurba_marseille","lat":43.26203,"lon":5.37935,"is_reserved":false,"is_disabled":false,"rental_uris":{"android":"levelo://app?vid=5191ec42-f363-41a4-8d60-4432161b3474","ios":"levelo://app?vid=5191ec42-f363-41a4-8d60-4432161b3474"},"vehicle_type_id":"4","last_reported":1727975296,"current_range_meters":5600,"station_id":"ce4bhjp2rcd13ifvqg90","pricing_plan_id":"cebpf4jnsgd1na2vs0mg"},{"bike_id":"21ed36b3-d5bf-48f5-9b3d-3ac59db7bafd","system_id":"levelo_inurba_marseille","lat":43.23187,"lon":5.39985,"is_reserved":false,"is_disabled":false,"rental_uris":{"android":"levelo://app?vid=21ed36b3-d5bf-48f5-9b3d-3ac59db7bafd","ios":"levelo://app?vid=21ed36b3-d5bf-48f5-9b3d-3ac59db7bafd"},"vehicle_type_id":"4","last_reported":1727975296,"current_range_meters":28800,"station_id":"ce4bhn12rcd13ifvqgqg","pricing_plan_id":"cebpf4jnsgd1na2vs0mg"},{"bike_id":"e571a55b-92e2-4b67-b8f6-5174cc410bfc","system_id":"levelo_inurba_marseille","lat":43.29416,"lon":5.38625,"is_reserved":false,"is_disabled":false,"rental_uris":{"android":"levelo://app?vid=e571a55b-92e2-4b67-b8f6-5174cc410bfc","ios":"levelo://app?vid=e571a55b-92e2-4b67-b8f6-5174cc410bfc"},"vehicle_type_id":"4","last_reported":1727975296,"current_range_meters":36800,"station_id":"ce4bh2h2rcd13ifvqdh0","pricing_plan_id":"cebpf4jnsgd1na2vs0mg"},{"bike_id":"a48d3ee5-8ad2-4b8d-b50b-9ff5a4f96cf7","system_id":"levelo_inurba_marseille","lat":43.29522,"lon":5.39058,"is_reserved":false,"is_disabled":false,"rental_uris":{"android":"levelo://app?vid=a48d3ee5-8ad2-4b8d-b50b-9ff5a4f96cf7","ios":"levelo://app?vid=a48d3ee5-8ad2-4b8d-b50b-9ff5a4f96cf7"},"vehicle_type_id":"4","last_reported":1727975296,"current_range_meters":10800,"station_id":"ce4bh3p2rcd13ifvqdp0","pricing_plan_id":"cebpf4jnsgd1na2vs0mg"},{"bike_id":"e2ad51f5-5ee7-4e98-a7eb-47b1e5c2da94","system_id":"levelo_inurba_marseille","lat":43.31118,"lon":5.37764,"is_reserved":false,"is_disabled":false,"rental_uris":{"android":"levelo://app?vid=e2ad51f5-5ee7-4e98-a7eb-47b1e5c2da94","ios":"levelo://app?vid=e2ad51f5-5ee7-4e98-a7eb-47b1e5c2da94"},"vehicle_type_id":"4","last_reported":1727975296,"current_range_meters":38800,"station_id":"ce4bgt92rcd13ifvqcg0","pricing_plan_id":"cebpf4jnsgd1na2vs0mg"},{"bike_id":"0997d1a2-60eb-433a-952c-3c68bed84b5f","system_id":"levelo_inurba_marseille","lat":43.29848,"lon":5.38864,"is_reserved":false,"is_disabled":false,"rental_uris":{"android":"levelo://app?vid=0997d1a2-60eb-433a-952c-3c68bed84b5f","ios":"levelo://app?vid=0997d1a2-60eb-433a-952c-3c68bed84b5f"},"vehicle_type_id":"4","last_reported":1727975296,"current_range_meters":8400,"station_id":"ce4bh392rcd13ifvqdl0","pricing_plan_id":"cebpf4jnsgd1na2vs0mg"},{"bike_id":"4d5295aa-04bc-493b-9ef8-c3a0716b12f8","system_id":"levelo_inurba_marseille","lat":43.28152,"lon":5.42645,"is_reserved":false,"is_disabled":false,"rental_uris":{"android":"levelo://app?vid=4d5295aa-04bc-493b-9ef8-c3a0716b12f8","ios":"levelo://app?vid=4d5295aa-04bc-493b-9ef8-c3a0716b12f8"},"vehicle_type_id":"4","last_reported":1727975296,"current_range_meters":15200,"station_id":"ce4bhnh2rcd13ifvqgug","pricing_plan_id":"cebpf4jnsgd1na2vs0mg"},{"bike_id":"4846c4fa-96d3-4add-8c3b-2ecb7d77627f","system_id":"levelo_inurba_marseille","lat":43.26552,"lon":5.37284,"is_reserved":false,"is_disabled":false,"rental_uris":{"android":"levelo://app?vid=4846c4fa-96d3-4add-8c3b-2ecb7d77627f","ios":"levelo://app?vid=4846c4fa-96d3-4add-8c3b-2ecb7d77627f"},"vehicle_type_id":"4","last_reported":1727975296,"current_range_meters":34000,"station_id":"ce4bhg12rcd13ifvqf70","pricing_plan_id":"cebpf4jnsgd1na2vs0mg"},{"bike_id":"9d1271a4-f60e-47fe-b989-3ffb38bffeef","system_id":"levelo_inurba_marseille","lat":43.23963,"lon":5.36629,"is_reserved":false,"is_disabled":false,"rental_uris":{"android":"levelo://app?vid=9d1271a4-f60e-47fe-b989-3ffb38bffeef","ios":"levelo://app?vid=9d1271a4-f60e-47fe-b989-3ffb38bffeef"},"vehicle_type_id":"4","last_reported":1727975296,"current_range_meters":20400,"station_id":"ce4bhi12rcd13ifvqfp0","pricing_plan_id":"cebpf4jnsgd1na2vs0mg"},{"bike_id":"7ba74d4a-605e-4c38-be45-17b9f499eeb8","system_id":"levelo_inurba_marseille","lat":43.281587,"lon":5.378743,"is_reserved":false,"is_disabled":false,"rental_uris":{"android":"levelo://app?vid=7ba74d4a-605e-4c38-be45-17b9f499eeb8","ios":"levelo://app?vid=7ba74d4a-605e-4c38-be45-17b9f499eeb8"},"vehicle_type_id":"4","last_reported":1727975296,"current_range_meters":32800,"station_id":"ce4bha12rcd13ifvqee0","pricing_plan_id":"cebpf4jnsgd1na2vs0mg"},{"bike_id":"aaa8683c-0315-4ec4-b129-2293b1565ff3","system_id":"levelo_inurba_marseille","lat":43.2958,"lon":5.36745,"is_reserved":false,"is_disabled":false,"rental_uris":{"android":"levelo://app?vid=aaa8683c-0315-4ec4-b129-2293b1565ff3","ios":"levelo://app?vid=aaa8683c-0315-4ec4-b129-2293b1565ff3"},"vehicle_type_id":"4","last_reported":1727975296,"current_range_meters":37600,"station_id":"ce4bgph2rcd13ifvqc2g","pricing_plan_id":"cebpf4jnsgd1na2vs0mg"},{"bike_id":"37e1e4a4-8365-44b3-8a68-c36ac556f00f","system_id":"levelo_inurba_marseille","lat":43.28852,"lon":5.35856,"is_reserved":false,"is_disabled":false,"rental_uris":{"android":"levelo://app?vid=37e1e4a4-8365-44b3-8a68-c36ac556f00f","ios":"levelo://app?vid=37e1e4a4-8365-44b3-8a68-c36ac556f00f"},"vehicle_type_id":"4","last_reported":1727975296,"current_range_meters":2000,"station_id":"ce4bhb12rcd13ifvqem0","pricing_plan_id":"cebpf4jnsgd1na2vs0mg"},{"bike_id":"830ac713-2724-4fda-92cc-5a303e26e2fc","system_id":"levelo_inurba_marseille","lat":43.33038,"lon":5.39043,"is_reserved":false,"is_disabled":false,"rental_uris":{"android":"levelo://app?vid=830ac713-2724-4fda-92cc-5a303e26e2fc","ios":"levelo://app?vid=830ac713-2724-4fda-92cc-5a303e26e2fc"},"vehicle_type_id":"4","last_reported":1727975296,"current_range_meters":30800,"station_id":"ce4bhr92rcd13ifvqhrg","pricing_plan_id":"cebpf4jnsgd1na2vs0mg"},{"bike_id":"17774e5e-4ca1-4447-afa9-8f03dd4b5e12","system_id":"levelo_inurba_marseille","lat":43.26188,"lon":5.37456,"is_reserved":false,"is_disabled":false,"rental_uris":{"android":"levelo://app?vid=17774e5e-4ca1-4447-afa9-8f03dd4b5e12","ios":"levelo://app?vid=17774e5e-4ca1-4447-afa9-8f03dd4b5e12"},"vehicle_type_id":"4","last_reported":1727975296,"current_range_meters":8000,"station_id":"ce4bhgp2rcd13ifvqfc0","pricing_plan_id":"cebpf4jnsgd1na2vs0mg"},{"bike_id":"16be8f59-5028-43d6-bf7f-906559eb9555","system_id":"levelo_inurba_marseille","lat":43.27996,"lon":5.41659,"is_reserved":false,"is_disabled":false,"rental_uris":{"android":"levelo://app?vid=16be8f59-5028-43d6-bf7f-906559eb9555","ios":"levelo://app?vid=16be8f59-5028-43d6-bf7f-906559eb9555"},"vehicle_type_id":"4","last_reported":1727975296,"current_range_meters":25200,"station_id":"ce4bho12rcd13ifvqh1g","pricing_plan_id":"cebpf4jnsgd1na2vs0mg"},{"bike_id":"a91e8ff0-c399-4211-9cc2-f07568d8778f","system_id":"levelo_inurba_marseille","lat":43.29017,"lon":5.38144,"is_reserved":false,"is_disabled":false,"rental_uris":{"android":"levelo://app?vid=a91e8ff0-c399-4211-9cc2-f07568d8778f","ios":"levelo://app?vid=a91e8ff0-c399-4211-9cc2-f07568d8778f"},"vehicle_type_id":"4","last_reported":1727975296,"current_range_meters":38800,"station_id":"ce4bh4p2rcd13ifvqe1g","pricing_plan_id":"cebpf4jnsgd1na2vs0mg"},{"bike_id":"0fd8a581-6079-4d41-8312-f6ecfd73b79c","system_id":"levelo_inurba_marseille","lat":43.23964,"lon":5.36628,"is_reserved":false,"is_disabled":false,"rental_uris":{"android":"levelo://app?vid=0fd8a581-6079-4d41-8312-f6ecfd73b79c","ios":"levelo://app?vid=0fd8a581-6079-4d41-8312-f6ecfd73b79c"},"vehicle_type_id":"4","last_reported":1727975296,"current_range_meters":12800,"station_id":"ce4bhi12rcd13ifvqfp0","pricing_plan_id":"cebpf4jnsgd1na2vs0mg"},{"bike_id":"b8bdbaf3-568b-45fd-8f24-ca991fc72fd7","system_id":"levelo_inurba_marseille","lat":43.25496,"lon":5.37653,"is_reserved":false,"is_disabled":false,"rental_uris":{"android":"levelo://app?vid=b8bdbaf3-568b-45fd-8f24-ca991fc72fd7","ios":"levelo://app?vid=b8bdbaf3-568b-45fd-8f24-ca991fc72fd7"},"vehicle_type_id":"4","last_reported":1727975296,"current_range_meters":7200,"station_id":"ce4bhh12rcd13ifvqff0","pricing_plan_id":"cebpf4jnsgd1na2vs0mg"},{"bike_id":"ee2fe624-4d4f-4030-8692-c5075aac4a36","system_id":"levelo_inurba_marseille","lat":43.27953,"lon":5.41055,"is_reserved":false,"is_disabled":false,"rental_uris":{"android":"levelo://app?vid=ee2fe624-4d4f-4030-8692-c5075aac4a36","ios":"levelo://app?vid=ee2fe624-4d4f-4030-8692-c5075aac4a36"},"vehicle_type_id":"4","last_reported":1727975296,"current_range_meters":27600,"station_id":"ce4bhnp2rcd13ifvqh0g","pricing_plan_id":"cebpf4jnsgd1na2vs0mg"},{"bike_id":"c5223d97-c6c1-4b68-af59-4b45fbb41329","system_id":"levelo_inurba_marseille","lat":43.32366,"lon":5.38883,"is_reserved":false,"is_disabled":false,"rental_uris":{"android":"levelo://app?vid=c5223d97-c6c1-4b68-af59-4b45fbb41329","ios":"levelo://app?vid=c5223d97-c6c1-4b68-af59-4b45fbb41329"},"vehicle_type_id":"4","last_reported":1727975296,"current_range_meters":17200,"station_id":"ce4bhqp2rcd13ifvqhog","pricing_plan_id":"cebpf4jnsgd1na2vs0mg"},{"bike_id":"95a95abc-d0d8-4165-b869-3c29ba95fa7c","system_id":"levelo_inurba_marseille","lat":43.29616,"lon":5.37727,"is_reserved":false,"is_disabled":false,"rental_uris":{"android":"levelo://app?vid=95a95abc-d0d8-4165-b869-3c29ba95fa7c","ios":"levelo://app?vid=95a95abc-d0d8-4165-b869-3c29ba95fa7c"},"vehicle_type_id":"4","last_reported":1727975296,"current_range_meters":6800,"station_id":"ce4bgi92rcd13ifvqb90","pricing_plan_id":"cebpf4jnsgd1na2vs0mg"},{"bike_id":"a8a80698-0ec7-479b-b847-64e0fb76fc90","system_id":"levelo_inurba_marseille","lat":43.284182,"lon":5.349718,"is_reserved":false,"is_disabled":false,"rental_uris":{"android":"levelo://app?vid=a8a80698-0ec7-479b-b847-64e0fb76fc90","ios":"levelo://app?vid=a8a80698-0ec7-479b-b847-64e0fb76fc90"},"vehicle_type_id":"4","last_reported":1727975296,"current_range_meters":38800,"station_id":"ce4bhbh2rcd13ifvqepg","pricing_plan_id":"cebpf4jnsgd1na2vs0mg"},{"bike_id":"0cb9acb2-15eb-485b-842c-a3f570e8e7c5","system_id":"levelo_inurba_marseille","lat":43.22934,"lon":5.35382,"is_reserved":false,"is_disabled":false,"rental_uris":{"android":"levelo://app?vid=0cb9acb2-15eb-485b-842c-a3f570e8e7c5","ios":"levelo://app?vid=0cb9acb2-15eb-485b-842c-a3f570e8e7c5"},"vehicle_type_id":"4","last_reported":1727975296,"current_range_meters":26800,"station_id":"cpo3532slgdg3j2ikp40","pricing_plan_id":"cebpf4jnsgd1na2vs0mg"},{"bike_id":"cdf87a7d-19a6-4644-a93e-e3fcac28887e","system_id":"levelo_inurba_marseille","lat":43.30956,"lon":5.39044,"is_reserved":false,"is_disabled":false,"rental_uris":{"android":"levelo://app?vid=cdf87a7d-19a6-4644-a93e-e3fcac28887e","ios":"levelo://app?vid=cdf87a7d-19a6-4644-a93e-e3fcac28887e"},"vehicle_type_id":"4","last_reported":1727975296,"current_range_meters":23200,"station_id":"ce4bgup2rcd13ifvqco0","pricing_plan_id":"cebpf4jnsgd1na2vs0mg"},{"bike_id":"d71b3789-4276-43fb-b072-a90a0bbdb4d2","system_id":"levelo_inurba_marseille","lat":43.28852,"lon":5.39312,"is_reserved":false,"is_disabled":false,"rental_uris":{"android":"levelo://app?vid=d71b3789-4276-43fb-b072-a90a0bbdb4d2","ios":"levelo://app?vid=d71b3789-4276-43fb-b072-a90a0bbdb4d2"},"vehicle_type_id":"4","last_reported":1727975296,"current_range_meters":4000,"station_id":"ce4bh2p2rcd13ifvqdi0","pricing_plan_id":"cebpf4jnsgd1na2vs0mg"},{"bike_id":"77a4deff-f11e-4c24-8875-e3301106e8fd","system_id":"levelo_inurba_marseille","lat":43.23964,"lon":5.36628,"is_reserved":false,"is_disabled":false,"rental_uris":{"android":"levelo://app?vid=77a4deff-f11e-4c24-8875-e3301106e8fd","ios":"levelo://app?vid=77a4deff-f11e-4c24-8875-e3301106e8fd"},"vehicle_type_id":"4","last_reported":1727975296,"current_range_meters":9200,"station_id":"ce4bhi12rcd13ifvqfp0","pricing_plan_id":"cebpf4jnsgd1na2vs0mg"},{"bike_id":"64bd957e-b978-44cb-a85c-928d627d24ec","system_id":"levelo_inurba_marseille","lat":43.35398,"lon":5.35881,"is_reserved":false,"is_disabled":false,"rental_uris":{"android":"levelo://app?vid=64bd957e-b978-44cb-a85c-928d627d24ec","ios":"levelo://app?vid=64bd957e-b978-44cb-a85c-928d627d24ec"},"vehicle_type_id":"4","last_reported":1727975296,"current_range_meters":11200,"station_id":"","pricing_plan_id":"cebpf4jnsgd1na2vs0mg"},{"bike_id":"35c4ccce-2b97-4d5d-8a93-5c94581c2cf7","system_id":"levelo_inurba_marseille","lat":43.27995,"lon":5.40005,"is_reserved":false,"is_disabled":false,"rental_uris":{"android":"levelo://app?vid=35c4ccce-2b97-4d5d-8a93-5c94581c2cf7","ios":"levelo://app?vid=35c4ccce-2b97-4d5d-8a93-5c94581c2cf7"},"vehicle_type_id":"4","last_reported":1727975296,"current_range_meters":16400,"station_id":"ce4bho92rcd13ifvqh4g","pricing_plan_id":"cebpf4jnsgd1na2vs0mg"},{"bike_id":"9eecd779-c6c0-4e07-ac55-d8d18d2fd278","system_id":"levelo_inurba_marseille","lat":43.27992,"lon":5.40014,"is_reserved":false,"is_disabled":false,"rental_uris":{"android":"levelo://app?vid=9eecd779-c6c0-4e07-ac55-d8d18d2fd278","ios":"levelo://app?vid=9eecd779-c6c0-4e07-ac55-d8d18d2fd278"},"vehicle_type_id":"4","last_reported":1727975296,"current_range_meters":24400,"station_id":"ce4bho92rcd13ifvqh4g","pricing_plan_id":"cebpf4jnsgd1na2vs0mg"},{"bike_id":"ba94af63-f208-4e10-87c3-96d5311d4a66","system_id":"levelo_inurba_marseille","lat":43.305292,"lon":5.385285,"is_reserved":false,"is_disabled":false,"rental_uris":{"android":"levelo://app?vid=ba94af63-f208-4e10-87c3-96d5311d4a66","ios":"levelo://app?vid=ba94af63-f208-4e10-87c3-96d5311d4a66"},"vehicle_type_id":"4","last_reported":1727975296,"current_range_meters":36000,"station_id":"ce4bgg92rcd13ifvqb30","pricing_plan_id":"cebpf4jnsgd1na2vs0mg"},{"bike_id":"d45d9a97-1129-45c9-9f44-4f962bebcce1","system_id":"levelo_inurba_marseille","lat":43.28613,"lon":5.35098,"is_reserved":false,"is_disabled":false,"rental_uris":{"android":"levelo://app?vid=d45d9a97-1129-45c9-9f44-4f962bebcce1","ios":"levelo://app?vid=d45d9a97-1129-45c9-9f44-4f962bebcce1"},"vehicle_type_id":"4","last_reported":1727975296,"current_range_meters":21600,"station_id":"ce4bhch2rcd13ifvqeug","pricing_plan_id":"cebpf4jnsgd1na2vs0mg"},{"bike_id":"6e91f0f7-0abd-475b-898f-65bbbb0bdc4f","system_id":"levelo_inurba_marseille","lat":43.27495,"lon":5.42451,"is_reserved":false,"is_disabled":false,"rental_uris":{"android":"levelo://app?vid=6e91f0f7-0abd-475b-898f-65bbbb0bdc4f","ios":"levelo://app?vid=6e91f0f7-0abd-475b-898f-65bbbb0bdc4f"},"vehicle_type_id":"4","last_reported":1727975296,"current_range_meters":4400,"station_id":"ce4bhn92rcd13ifvqgrg","pricing_plan_id":"cebpf4jnsgd1na2vs0mg"},{"bike_id":"4186b4f3-997c-49c0-b2e3-f345295358de","system_id":"levelo_inurba_marseille","lat":43.3112,"lon":5.37756,"is_reserved":false,"is_disabled":false,"rental_uris":{"android":"levelo://app?vid=4186b4f3-997c-49c0-b2e3-f345295358de","ios":"levelo://app?vid=4186b4f3-997c-49c0-b2e3-f345295358de"},"vehicle_type_id":"4","last_reported":1727975296,"current_range_meters":7200,"station_id":"ce4bgt92rcd13ifvqcg0","pricing_plan_id":"cebpf4jnsgd1na2vs0mg"},{"bike_id":"1151aedf-4546-4827-b5bc-3561c64baab5","system_id":"levelo_inurba_marseille","lat":43.29612,"lon":5.37713,"is_reserved":false,"is_disabled":false,"rental_uris":{"android":"levelo://app?vid=1151aedf-4546-4827-b5bc-3561c64baab5","ios":"levelo://app?vid=1151aedf-4546-4827-b5bc-3561c64baab5"},"vehicle_type_id":"4","last_reported":1727975296,"current_range_meters":38800,"station_id":"ce4bgi92rcd13ifvqb90","pricing_plan_id":"cebpf4jnsgd1na2vs0mg"},{"bike_id":"9e085f2a-958d-4160-8187-ff4894a6e484","system_id":"levelo_inurba_marseille","lat":43.32331,"lon":5.40611,"is_reserved":false,"is_disabled":false,"rental_uris":{"android":"levelo://app?vid=9e085f2a-958d-4160-8187-ff4894a6e484","ios":"levelo://app?vid=9e085f2a-958d-4160-8187-ff4894a6e484"},"vehicle_type_id":"4","last_reported":1727975296,"current_range_meters":27200,"station_id":"ce4bhq92rcd13ifvqhjg","pricing_plan_id":"cebpf4jnsgd1na2vs0mg"},{"bike_id":"6a50fb7f-6d7c-4a3a-9916-9f8ab7436ad0","system_id":"levelo_inurba_marseille","lat":43.31885,"lon":5.40748,"is_reserved":false,"is_disabled":false,"rental_uris":{"android":"levelo://app?vid=6a50fb7f-6d7c-4a3a-9916-9f8ab7436ad0","ios":"levelo://app?vid=6a50fb7f-6d7c-4a3a-9916-9f8ab7436ad0"},"vehicle_type_id":"4","last_reported":1727975296,"current_range_meters":6800,"station_id":"ce4bhq12rcd13ifvqhig","pricing_plan_id":"cebpf4jnsgd1na2vs0mg"},{"bike_id":"4ead1461-ae22-4c24-be21-53cee76e5ff1","system_id":"levelo_inurba_marseille","lat":43.29618,"lon":5.37156,"is_reserved":false,"is_disabled":false,"rental_uris":{"android":"levelo://app?vid=4ead1461-ae22-4c24-be21-53cee76e5ff1","ios":"levelo://app?vid=4ead1461-ae22-4c24-be21-53cee76e5ff1"},"vehicle_type_id":"4","last_reported":1727975296,"current_range_meters":22800,"station_id":"ce4bgnh2rcd13ifvqc0g","pricing_plan_id":"cebpf4jnsgd1na2vs0mg"},{"bike_id":"6d679b6b-38e0-4f37-8caf-d0dfb3677fc5","system_id":"levelo_inurba_marseille","lat":43.22932,"lon":5.35379,"is_reserved":false,"is_disabled":false,"rental_uris":{"android":"levelo://app?vid=6d679b6b-38e0-4f37-8caf-d0dfb3677fc5","ios":"levelo://app?vid=6d679b6b-38e0-4f37-8caf-d0dfb3677fc5"},"vehicle_type_id":"4","last_reported":1727975296,"current_range_meters":32400,"station_id":"cpo3532slgdg3j2ikp40","pricing_plan_id":"cebpf4jnsgd1na2vs0mg"},{"bike_id":"63aef610-733e-41a6-8428-2f1a095fc93b","system_id":"levelo_inurba_marseille","lat":43.31368,"lon":5.38492,"is_reserved":false,"is_disabled":false,"rental_uris":{"android":"levelo://app?vid=63aef610-733e-41a6-8428-2f1a095fc93b","ios":"levelo://app?vid=63aef610-733e-41a6-8428-2f1a095fc93b"},"vehicle_type_id":"4","last_reported":1727975296,"current_range_meters":36400,"station_id":"ce4bgt92rcd13ifvqcf0","pricing_plan_id":"cebpf4jnsgd1na2vs0mg"},{"bike_id":"329d3347-07fb-4a75-b213-9a7800923792","system_id":"levelo_inurba_marseille","lat":43.25064,"lon":5.38927,"is_reserved":false,"is_disabled":false,"rental_uris":{"android":"levelo://app?vid=329d3347-07fb-4a75-b213-9a7800923792","ios":"levelo://app?vid=329d3347-07fb-4a75-b213-9a7800923792"},"vehicle_type_id":"4","last_reported":1727975296,"current_range_meters":19200,"station_id":"ce4bhh12rcd13ifvqff0","pricing_plan_id":"cebpf4jnsgd1na2vs0mg"},{"bike_id":"a7e9568a-1404-4a54-801c-2e11a4e34570","system_id":"levelo_inurba_marseille","lat":43.285034,"lon":5.383456,"is_reserved":false,"is_disabled":false,"rental_uris":{"android":"levelo://app?vid=a7e9568a-1404-4a54-801c-2e11a4e34570","ios":"levelo://app?vid=a7e9568a-1404-4a54-801c-2e11a4e34570"},"vehicle_type_id":"4","last_reported":1727975296,"current_range_meters":16400,"station_id":"ce4bh692rcd13ifvqe90","pricing_plan_id":"cebpf4jnsgd1na2vs0mg"},{"bike_id":"7cecb45f-88bd-4c5c-b8df-f037b413969f","system_id":"levelo_inurba_marseille","lat":43.28456,"lon":5.35884,"is_reserved":false,"is_disabled":false,"rental_uris":{"android":"levelo://app?vid=7cecb45f-88bd-4c5c-b8df-f037b413969f","ios":"levelo://app?vid=7cecb45f-88bd-4c5c-b8df-f037b413969f"},"vehicle_type_id":"4","last_reported":1727975296,"current_range_meters":35600,"station_id":"ce4bhah2rcd13ifvqei0","pricing_plan_id":"cebpf4jnsgd1na2vs0mg"},{"bike_id":"7521db5c-ba25-466e-bb37-e52d5de9497c","system_id":"levelo_inurba_marseille","lat":43.304219,"lon":5.397332,"is_reserved":false,"is_disabled":false,"rental_uris":{"android":"levelo://app?vid=7521db5c-ba25-466e-bb37-e52d5de9497c","ios":"levelo://app?vid=7521db5c-ba25-466e-bb37-e52d5de9497c"},"vehicle_type_id":"4","last_reported":1727975296,"current_range_meters":22800,"station_id":"ce4bh092rcd13ifvqd20","pricing_plan_id":"cebpf4jnsgd1na2vs0mg"},{"bike_id":"42715632-e225-47f3-813c-9451f24e5700","system_id":"levelo_inurba_marseille","lat":43.2319,"lon":5.35555,"is_reserved":false,"is_disabled":false,"rental_uris":{"android":"levelo://app?vid=42715632-e225-47f3-813c-9451f24e5700","ios":"levelo://app?vid=42715632-e225-47f3-813c-9451f24e5700"},"vehicle_type_id":"4","last_reported":1727975296,"current_range_meters":24800,"station_id":"ce4bhu92rcd13ifvqi70","pricing_plan_id":"cebpf4jnsgd1na2vs0mg"},{"bike_id":"944bba5b-baf2-4a98-91ce-e9a1cfa054b8","system_id":"levelo_inurba_marseille","lat":43.29417,"lon":5.38626,"is_reserved":false,"is_disabled":false,"rental_uris":{"android":"levelo://app?vid=944bba5b-baf2-4a98-91ce-e9a1cfa054b8","ios":"levelo://app?vid=944bba5b-baf2-4a98-91ce-e9a1cfa054b8"},"vehicle_type_id":"4","last_reported":1727975296,"current_range_meters":38800,"station_id":"ce4bh2h2rcd13ifvqdh0","pricing_plan_id":"cebpf4jnsgd1na2vs0mg"},{"bike_id":"f9326eba-7f00-4763-9afb-c6eb7fa58937","system_id":"levelo_inurba_marseille","lat":43.23969,"lon":5.36635,"is_reserved":false,"is_disabled":false,"rental_uris":{"android":"levelo://app?vid=f9326eba-7f00-4763-9afb-c6eb7fa58937","ios":"levelo://app?vid=f9326eba-7f00-4763-9afb-c6eb7fa58937"},"vehicle_type_id":"4","last_reported":1727975296,"current_range_meters":17200,"station_id":"ce4bhi12rcd13ifvqfp0","pricing_plan_id":"cebpf4jnsgd1na2vs0mg"},{"bike_id":"751f1061-84f4-4b8a-a9af-e833489addba","system_id":"levelo_inurba_marseille","lat":43.29272,"lon":5.38445,"is_reserved":false,"is_disabled":false,"rental_uris":{"android":"levelo://app?vid=751f1061-84f4-4b8a-a9af-e833489addba","ios":"levelo://app?vid=751f1061-84f4-4b8a-a9af-e833489addba"},"vehicle_type_id":"4","last_reported":1727975296,"current_range_meters":24000,"station_id":"ce4bh692rcd13ifvqea0","pricing_plan_id":"cebpf4jnsgd1na2vs0mg"},{"bike_id":"6606facb-6ace-4bcb-b6a7-f4cddabbe7bf","system_id":"levelo_inurba_marseille","lat":43.25582,"lon":5.3823,"is_reserved":false,"is_disabled":false,"rental_uris":{"android":"levelo://app?vid=6606facb-6ace-4bcb-b6a7-f4cddabbe7bf","ios":"levelo://app?vid=6606facb-6ace-4bcb-b6a7-f4cddabbe7bf"},"vehicle_type_id":"4","last_reported":1727975296,"current_range_meters":16400,"station_id":"ce4bhih2rcd13ifvqfs0","pricing_plan_id":"cebpf4jnsgd1na2vs0mg"},{"bike_id":"5217aff9-c3d8-457d-a112-3078e1019e11","system_id":"levelo_inurba_marseille","lat":43.32335,"lon":5.40622,"is_reserved":false,"is_disabled":false,"rental_uris":{"android":"levelo://app?vid=5217aff9-c3d8-457d-a112-3078e1019e11","ios":"levelo://app?vid=5217aff9-c3d8-457d-a112-3078e1019e11"},"vehicle_type_id":"4","last_reported":1727975296,"current_range_meters":24400,"station_id":"ce4bhq92rcd13ifvqhjg","pricing_plan_id":"cebpf4jnsgd1na2vs0mg"},{"bike_id":"2ce3680e-bce5-4e5a-8b7e-a4a896b7d4e1","system_id":"levelo_inurba_marseille","lat":43.26033,"lon":5.37547,"is_reserved":false,"is_disabled":false,"rental_uris":{"android":"levelo://app?vid=2ce3680e-bce5-4e5a-8b7e-a4a896b7d4e1","ios":"levelo://app?vid=2ce3680e-bce5-4e5a-8b7e-a4a896b7d4e1"},"vehicle_type_id":"4","last_reported":1727975296,"current_range_meters":40000,"station_id":"ce4bhgh2rcd13ifvqfa0","pricing_plan_id":"cebpf4jnsgd1na2vs0mg"},{"bike_id":"3ff22cbd-168f-490d-a639-4e04d1e6b696","system_id":"levelo_inurba_marseille","lat":43.28413,"lon":5.34999,"is_reserved":false,"is_disabled":false,"rental_uris":{"android":"levelo://app?vid=3ff22cbd-168f-490d-a639-4e04d1e6b696","ios":"levelo://app?vid=3ff22cbd-168f-490d-a639-4e04d1e6b696"},"vehicle_type_id":"4","last_reported":1727975296,"current_range_meters":39200,"station_id":"ce4bhbh2rcd13ifvqepg","pricing_plan_id":"cebpf4jnsgd1na2vs0mg"},{"bike_id":"df805fc4-f3aa-4a6e-93f6-d16e6c118619","system_id":"levelo_inurba_marseille","lat":43.2803,"lon":5.36948,"is_reserved":false,"is_disabled":false,"rental_uris":{"android":"levelo://app?vid=df805fc4-f3aa-4a6e-93f6-d16e6c118619","ios":"levelo://app?vid=df805fc4-f3aa-4a6e-93f6-d16e6c118619"},"vehicle_type_id":"4","last_reported":1727975296,"current_range_meters":5600,"station_id":"ce4bha12rcd13ifvqef0","pricing_plan_id":"cebpf4jnsgd1na2vs0mg"},{"bike_id":"3edaa422-e0ce-4bbd-9bd1-15bb57f9ccec","system_id":"levelo_inurba_marseille","lat":43.2648,"lon":5.39552,"is_reserved":false,"is_disabled":false,"rental_uris":{"android":"levelo://app?vid=3edaa422-e0ce-4bbd-9bd1-15bb57f9ccec","ios":"levelo://app?vid=3edaa422-e0ce-4bbd-9bd1-15bb57f9ccec"},"vehicle_type_id":"4","last_reported":1727975296,"current_range_meters":38800,"station_id":"ce4bhi12rcd13ifvqfq0","pricing_plan_id":"cebpf4jnsgd1na2vs0mg"},{"bike_id":"e64341ff-2eda-479b-b5b5-391a7a6ef146","system_id":"levelo_inurba_marseille","lat":43.2901,"lon":5.35614,"is_reserved":false,"is_disabled":false,"rental_uris":{"android":"levelo://app?vid=e64341ff-2eda-479b-b5b5-391a7a6ef146","ios":"levelo://app?vid=e64341ff-2eda-479b-b5b5-391a7a6ef146"},"vehicle_type_id":"4","last_reported":1727975296,"current_range_meters":9200,"station_id":"ce4bhb92rcd13ifvqen0","pricing_plan_id":"cebpf4jnsgd1na2vs0mg"},{"bike_id":"f12a746f-6037-4519-ac8e-ee4d3886bd98","system_id":"levelo_inurba_marseille","lat":43.33018,"lon":5.39036,"is_reserved":false,"is_disabled":false,"rental_uris":{"android":"levelo://app?vid=f12a746f-6037-4519-ac8e-ee4d3886bd98","ios":"levelo://app?vid=f12a746f-6037-4519-ac8e-ee4d3886bd98"},"vehicle_type_id":"4","last_reported":1727975296,"current_range_meters":39200,"station_id":"ce4bhr92rcd13ifvqhrg","pricing_plan_id":"cebpf4jnsgd1na2vs0mg"},{"bike_id":"b33c4e3d-47af-45f8-880c-52316b922ede","system_id":"levelo_inurba_marseille","lat":43.31113,"lon":5.37761,"is_reserved":false,"is_disabled":false,"rental_uris":{"android":"levelo://app?vid=b33c4e3d-47af-45f8-880c-52316b922ede","ios":"levelo://app?vid=b33c4e3d-47af-45f8-880c-52316b922ede"},"vehicle_type_id":"4","last_reported":1727975296,"current_range_meters":19200,"station_id":"ce4bgt92rcd13ifvqcg0","pricing_plan_id":"cebpf4jnsgd1na2vs0mg"},{"bike_id":"2ed9a759-b912-4226-9614-c5e3bb31c43e","system_id":"levelo_inurba_marseille","lat":43.29417,"lon":5.38622,"is_reserved":false,"is_disabled":false,"rental_uris":{"android":"levelo://app?vid=2ed9a759-b912-4226-9614-c5e3bb31c43e","ios":"levelo://app?vid=2ed9a759-b912-4226-9614-c5e3bb31c43e"},"vehicle_type_id":"4","last_reported":1727975296,"current_range_meters":6000,"station_id":"ce4bh2h2rcd13ifvqdh0","pricing_plan_id":"cebpf4jnsgd1na2vs0mg"},{"bike_id":"5d82c145-cfb6-43ba-9466-e11f33bcfe6c","system_id":"levelo_inurba_marseille","lat":43.27174,"lon":5.40993,"is_reserved":false,"is_disabled":false,"rental_uris":{"android":"levelo://app?vid=5d82c145-cfb6-43ba-9466-e11f33bcfe6c","ios":"levelo://app?vid=5d82c145-cfb6-43ba-9466-e11f33bcfe6c"},"vehicle_type_id":"4","last_reported":1727975296,"current_range_meters":21600,"station_id":"ce4bhl12rcd13ifvqgf0","pricing_plan_id":"cebpf4jnsgd1na2vs0mg"},{"bike_id":"a49b0c54-8b69-4d47-89e4-7570d7daa359","system_id":"levelo_inurba_marseille","lat":43.28101,"lon":5.37834,"is_reserved":false,"is_disabled":false,"rental_uris":{"android":"levelo://app?vid=a49b0c54-8b69-4d47-89e4-7570d7daa359","ios":"levelo://app?vid=a49b0c54-8b69-4d47-89e4-7570d7daa359"},"vehicle_type_id":"4","last_reported":1727975296,"current_range_meters":24000,"station_id":"ce4bha12rcd13ifvqee0","pricing_plan_id":"cebpf4jnsgd1na2vs0mg"},{"bike_id":"14c1aa59-3a69-44dc-8e03-b8185566cc26","system_id":"levelo_inurba_marseille","lat":43.26059,"lon":5.39399,"is_reserved":false,"is_disabled":false,"rental_uris":{"android":"levelo://app?vid=14c1aa59-3a69-44dc-8e03-b8185566cc26","ios":"levelo://app?vid=14c1aa59-3a69-44dc-8e03-b8185566cc26"},"vehicle_type_id":"4","last_reported":1727975296,"current_range_meters":28000,"station_id":"ce4bhh92rcd13ifvqfj0","pricing_plan_id":"cebpf4jnsgd1na2vs0mg"},{"bike_id":"88bfed6a-7680-4dd1-abb6-4bf75163a29e","system_id":"levelo_inurba_marseille","lat":43.30245,"lon":5.40066,"is_reserved":false,"is_disabled":false,"rental_uris":{"android":"levelo://app?vid=88bfed6a-7680-4dd1-abb6-4bf75163a29e","ios":"levelo://app?vid=88bfed6a-7680-4dd1-abb6-4bf75163a29e"},"vehicle_type_id":"4","last_reported":1727975296,"current_range_meters":2800,"station_id":"ce4bgvh2rcd13ifvqcs0","pricing_plan_id":"cebpf4jnsgd1na2vs0mg"},{"bike_id":"330c3b4d-6006-448e-bef2-f00c970b4ea7","system_id":"levelo_inurba_marseille","lat":43.32365,"lon":5.38885,"is_reserved":false,"is_disabled":false,"rental_uris":{"android":"levelo://app?vid=330c3b4d-6006-448e-bef2-f00c970b4ea7","ios":"levelo://app?vid=330c3b4d-6006-448e-bef2-f00c970b4ea7"},"vehicle_type_id":"4","last_reported":1727975296,"current_range_meters":19600,"station_id":"ce4bhqp2rcd13ifvqhog","pricing_plan_id":"cebpf4jnsgd1na2vs0mg"},{"bike_id":"ac0b6154-a38d-415a-aade-84584309f437","system_id":"levelo_inurba_marseille","lat":43.33023,"lon":5.39051,"is_reserved":false,"is_disabled":false,"rental_uris":{"android":"levelo://app?vid=ac0b6154-a38d-415a-aade-84584309f437","ios":"levelo://app?vid=ac0b6154-a38d-415a-aade-84584309f437"},"vehicle_type_id":"4","last_reported":1727975296,"current_range_meters":10000,"station_id":"ce4bhr92rcd13ifvqhrg","pricing_plan_id":"cebpf4jnsgd1na2vs0mg"},{"bike_id":"4520bb8d-5bef-452b-ac13-7c0408245399","system_id":"levelo_inurba_marseille","lat":43.31533,"lon":5.38029,"is_reserved":false,"is_disabled":false,"rental_uris":{"android":"levelo://app?vid=4520bb8d-5bef-452b-ac13-7c0408245399","ios":"levelo://app?vid=4520bb8d-5bef-452b-ac13-7c0408245399"},"vehicle_type_id":"4","last_reported":1727975296,"current_range_meters":12000,"station_id":"ce4bhsp2rcd13ifvqi50","pricing_plan_id":"cebpf4jnsgd1na2vs0mg"},{"bike_id":"5f8b90d9-5e1c-4851-8115-92bc9fbf06de","system_id":"levelo_inurba_marseille","lat":43.29044,"lon":5.35924,"is_reserved":false,"is_disabled":false,"rental_uris":{"android":"levelo://app?vid=5f8b90d9-5e1c-4851-8115-92bc9fbf06de","ios":"levelo://app?vid=5f8b90d9-5e1c-4851-8115-92bc9fbf06de"},"vehicle_type_id":"4","last_reported":1727975296,"current_range_meters":39200,"station_id":"ce4bha92rcd13ifvqeg0","pricing_plan_id":"cebpf4jnsgd1na2vs0mg"},{"bike_id":"acc9b148-7c17-413f-884e-3202aba7a94c","system_id":"levelo_inurba_marseille","lat":43.33022,"lon":5.39043,"is_reserved":false,"is_disabled":false,"rental_uris":{"android":"levelo://app?vid=acc9b148-7c17-413f-884e-3202aba7a94c","ios":"levelo://app?vid=acc9b148-7c17-413f-884e-3202aba7a94c"},"vehicle_type_id":"4","last_reported":1727975296,"current_range_meters":39200,"station_id":"ce4bhr92rcd13ifvqhrg","pricing_plan_id":"cebpf4jnsgd1na2vs0mg"},{"bike_id":"5157d532-a863-422c-80b6-3a04cc9036c3","system_id":"levelo_inurba_marseille","lat":43.29049,"lon":5.35913,"is_reserved":false,"is_disabled":false,"rental_uris":{"android":"levelo://app?vid=5157d532-a863-422c-80b6-3a04cc9036c3","ios":"levelo://app?vid=5157d532-a863-422c-80b6-3a04cc9036c3"},"vehicle_type_id":"4","last_reported":1727975296,"current_range_meters":16400,"station_id":"ce4bha92rcd13ifvqeg0","pricing_plan_id":"cebpf4jnsgd1na2vs0mg"},{"bike_id":"e3c137fb-30a9-40a9-a61b-943381d5d1df","system_id":"levelo_inurba_marseille","lat":43.29227,"lon":5.36062,"is_reserved":false,"is_disabled":false,"rental_uris":{"android":"levelo://app?vid=e3c137fb-30a9-40a9-a61b-943381d5d1df","ios":"levelo://app?vid=e3c137fb-30a9-40a9-a61b-943381d5d1df"},"vehicle_type_id":"4","last_reported":1727975296,"current_range_meters":3600,"station_id":"ce4bhbh2rcd13ifvqeqg","pricing_plan_id":"cebpf4jnsgd1na2vs0mg"},{"bike_id":"d7ecd134-2483-483e-9322-6e9acfb13a5d","system_id":"levelo_inurba_marseille","lat":43.29003,"lon":5.35613,"is_reserved":false,"is_disabled":false,"rental_uris":{"android":"levelo://app?vid=d7ecd134-2483-483e-9322-6e9acfb13a5d","ios":"levelo://app?vid=d7ecd134-2483-483e-9322-6e9acfb13a5d"},"vehicle_type_id":"4","last_reported":1727975296,"current_range_meters":16400,"station_id":"ce4bhb92rcd13ifvqen0","pricing_plan_id":"cebpf4jnsgd1na2vs0mg"},{"bike_id":"72b8a52f-01db-4d6e-b30a-3b1101f8b910","system_id":"levelo_inurba_marseille","lat":43.32366,"lon":5.38884,"is_reserved":false,"is_disabled":false,"rental_uris":{"android":"levelo://app?vid=72b8a52f-01db-4d6e-b30a-3b1101f8b910","ios":"levelo://app?vid=72b8a52f-01db-4d6e-b30a-3b1101f8b910"},"vehicle_type_id":"4","last_reported":1727975296,"current_range_meters":8800,"station_id":"ce4bhqp2rcd13ifvqhog","pricing_plan_id":"cebpf4jnsgd1na2vs0mg"},{"bike_id":"b170bbea-d78b-4285-8517-a99b0a2ca83b","system_id":"levelo_inurba_marseille","lat":43.26553,"lon":5.37299,"is_reserved":false,"is_disabled":false,"rental_uris":{"android":"levelo://app?vid=b170bbea-d78b-4285-8517-a99b0a2ca83b","ios":"levelo://app?vid=b170bbea-d78b-4285-8517-a99b0a2ca83b"},"vehicle_type_id":"4","last_reported":1727975296,"current_range_meters":35200,"station_id":"ce4bhg12rcd13ifvqf70","pricing_plan_id":"cebpf4jnsgd1na2vs0mg"},{"bike_id":"27cde832-fba2-41b2-aa9e-3b8f22b0d781","system_id":"levelo_inurba_marseille","lat":43.30355,"lon":5.41877,"is_reserved":false,"is_disabled":false,"rental_uris":{"android":"levelo://app?vid=27cde832-fba2-41b2-aa9e-3b8f22b0d781","ios":"levelo://app?vid=27cde832-fba2-41b2-aa9e-3b8f22b0d781"},"vehicle_type_id":"4","last_reported":1727975296,"current_range_meters":38000,"station_id":"ce4bhop2rcd13ifvqh7g","pricing_plan_id":"cebpf4jnsgd1na2vs0mg"},{"bike_id":"474bc820-6d5d-464a-a9a8-af48d9cf0a55","system_id":"levelo_inurba_marseille","lat":43.29192,"lon":5.35794,"is_reserved":false,"is_disabled":false,"rental_uris":{"android":"levelo://app?vid=474bc820-6d5d-464a-a9a8-af48d9cf0a55","ios":"levelo://app?vid=474bc820-6d5d-464a-a9a8-af48d9cf0a55"},"vehicle_type_id":"4","last_reported":1727975296,"current_range_meters":16000,"station_id":"ce4bhb12rcd13ifvqel0","pricing_plan_id":"cebpf4jnsgd1na2vs0mg"},{"bike_id":"cb632285-f29d-4e33-8653-3a2957352494","system_id":"levelo_inurba_marseille","lat":43.29682,"lon":5.36635,"is_reserved":false,"is_disabled":false,"rental_uris":{"android":"levelo://app?vid=cb632285-f29d-4e33-8653-3a2957352494","ios":"levelo://app?vid=cb632285-f29d-4e33-8653-3a2957352494"},"vehicle_type_id":"4","last_reported":1727975296,"current_range_meters":22400,"station_id":"ce4bgn12rcd13ifvqbt0","pricing_plan_id":"cebpf4jnsgd1na2vs0mg"},{"bike_id":"61d7670a-0d55-491b-aa41-f5aa9fc7fd8d","system_id":"levelo_inurba_marseille","lat":43.2895,"lon":5.36412,"is_reserved":false,"is_disabled":false,"rental_uris":{"android":"levelo://app?vid=61d7670a-0d55-491b-aa41-f5aa9fc7fd8d","ios":"levelo://app?vid=61d7670a-0d55-491b-aa41-f5aa9fc7fd8d"},"vehicle_type_id":"4","last_reported":1727975296,"current_range_meters":35200,"station_id":"ce4bhc92rcd13ifvqetg","pricing_plan_id":"cebpf4jnsgd1na2vs0mg"},{"bike_id":"3801c375-9319-4652-9580-62e1e4179889","system_id":"levelo_inurba_marseille","lat":43.29519,"lon":5.39413,"is_reserved":false,"is_disabled":false,"rental_uris":{"android":"levelo://app?vid=3801c375-9319-4652-9580-62e1e4179889","ios":"levelo://app?vid=3801c375-9319-4652-9580-62e1e4179889"},"vehicle_type_id":"4","last_reported":1727975296,"current_range_meters":17200,"station_id":"ce4bh292rcd13ifvqdf0","pricing_plan_id":"cebpf4jnsgd1na2vs0mg"},{"bike_id":"b4d8bc07-7bdb-47be-8052-3e517e7fad86","system_id":"levelo_inurba_marseille","lat":43.2606,"lon":5.39398,"is_reserved":false,"is_disabled":false,"rental_uris":{"android":"levelo://app?vid=b4d8bc07-7bdb-47be-8052-3e517e7fad86","ios":"levelo://app?vid=b4d8bc07-7bdb-47be-8052-3e517e7fad86"},"vehicle_type_id":"4","last_reported":1727975296,"current_range_meters":14000,"station_id":"ce4bhh92rcd13ifvqfj0","pricing_plan_id":"cebpf4jnsgd1na2vs0mg"},{"bike_id":"7ff72486-b3d0-43ee-9b55-32f8e260ea00","system_id":"levelo_inurba_marseille","lat":43.31689,"lon":5.40481,"is_reserved":false,"is_disabled":false,"rental_uris":{"android":"levelo://app?vid=7ff72486-b3d0-43ee-9b55-32f8e260ea00","ios":"levelo://app?vid=7ff72486-b3d0-43ee-9b55-32f8e260ea00"},"vehicle_type_id":"4","last_reported":1727975296,"current_range_meters":8400,"station_id":"ce4bh012rcd13ifvqd00","pricing_plan_id":"cebpf4jnsgd1na2vs0mg"},{"bike_id":"c444324d-7539-4a71-b65e-7ae6259fca46","system_id":"levelo_inurba_marseille","lat":43.329887,"lon":5.390726,"is_reserved":false,"is_disabled":false,"rental_uris":{"android":"levelo://app?vid=c444324d-7539-4a71-b65e-7ae6259fca46","ios":"levelo://app?vid=c444324d-7539-4a71-b65e-7ae6259fca46"},"vehicle_type_id":"4","last_reported":1727975296,"current_range_meters":4000,"station_id":"ce4bhr92rcd13ifvqhrg","pricing_plan_id":"cebpf4jnsgd1na2vs0mg"},{"bike_id":"3042ab64-c43b-480f-a5d1-7113fef2aa54","system_id":"levelo_inurba_marseille","lat":43.269702,"lon":5.398366,"is_reserved":false,"is_disabled":false,"rental_uris":{"android":"levelo://app?vid=3042ab64-c43b-480f-a5d1-7113fef2aa54","ios":"levelo://app?vid=3042ab64-c43b-480f-a5d1-7113fef2aa54"},"vehicle_type_id":"4","last_reported":1727975296,"current_range_meters":16000,"station_id":"","pricing_plan_id":"cebpf4jnsgd1na2vs0mg"},{"bike_id":"da9fd01c-c5c9-40aa-89a1-c8f6045f5885","system_id":"levelo_inurba_marseille","lat":43.26947,"lon":5.4025,"is_reserved":false,"is_disabled":false,"rental_uris":{"android":"levelo://app?vid=da9fd01c-c5c9-40aa-89a1-c8f6045f5885","ios":"levelo://app?vid=da9fd01c-c5c9-40aa-89a1-c8f6045f5885"},"vehicle_type_id":"4","last_reported":1727975296,"current_range_meters":10800,"station_id":"cjm6bp8fraef2m0cb0m0","pricing_plan_id":"cebpf4jnsgd1na2vs0mg"},{"bike_id":"9cf16138-2e2c-43c5-914c-d1168d389c98","system_id":"levelo_inurba_marseille","lat":43.25497,"lon":5.37648,"is_reserved":false,"is_disabled":false,"rental_uris":{"android":"levelo://app?vid=9cf16138-2e2c-43c5-914c-d1168d389c98","ios":"levelo://app?vid=9cf16138-2e2c-43c5-914c-d1168d389c98"},"vehicle_type_id":"4","last_reported":1727975296,"current_range_meters":16000,"station_id":"ce4bhh12rcd13ifvqff0","pricing_plan_id":"cebpf4jnsgd1na2vs0mg"},