{"last_updated":1683972378,"ttl":30,"version":"2.2","data":{"bikes":[{"bike_id":"caf62a47-260f-4ea6-957c-2cd2b8faadb8","system_id":"levelo_inurba_marseille","lat":43.312239,"lon":5.368562,"is_reserved":false,"is_disabled":false,"rental_uris":{"android":"levelo://app?vid=caf62a47-260f-4ea6-957c-2cd2b8faadb8","ios":"levelo://app?vid=caf62a47-260f-4ea6-957c-2cd2b8faadb8"},"vehicle_type_id":"4","last_reported":1683972379,"current_range_meters":31200,"station_id":"ce4bgl92rcd13ifvqbq0","pricing_plan_id":"free"},{"bike_id":"236c7117-0423-4673-bd21-105819686532","system_id":"levelo_inurba_marseille","lat":43.312239,"lon":5.368562,"is_reserved":false,"is_disabled":false,"rental_uris":{"android":"levelo://app?vid=236c7117-0423-4673-bd21-105819686532","ios":"levelo://app?vid=236c7117-0423-4673-bd21-105819686532"},"vehicle_type_id":"4","last_reported":1683972379,"current_range_meters":18400,"station_id":"ce4bgl92rcd13ifvqbq0","pricing_plan_id":"free"},{"bike_id":"6b7c3507-e295-43af-a5ca-a2173ed82b2f","system_id":"levelo_inurba_marseille","lat":43.312239,"lon":5.368562,"is_reserved":false,"is_disabled":false,"rental_uris":{"android":"levelo://app?vid=6b7c3507-e295-43af-a5ca-a2173ed82b2f","ios":"levelo://app?vid=6b7c3507-e295-43af-a5ca-a2173ed82b2f"},"vehicle_type_id":"4","last_reported":1683972379,"current_range_meters":26800,"station_id":"ce4bgl92rcd13ifvqbq0","pricing_plan_id":"free"},{"bike_id":"142f6700-5d51-4b70-b614-ea33d4b62805","system_id":"levelo_inurba_marseille","lat":43.3123,"lon":5.36865,"is_reserved":false,"is_disabled":false,"rental_uris":{"android":"levelo://app?vid=142f6700-5d51-4b70-b614-ea33d4b62805","ios":"levelo://app?vid=142f6700-5d51-4b70-b614-ea33d4b62805"},"vehicle_type_id":"4","last_reported":1683972379,"current_range_meters":24800,"station_id":"ce4bgl92rcd13ifvqbq0","pricing_plan_id":"free"},{"bike_id":"74b03030-f764-44f2-a651-9c6e9c253c21","system_id":"levelo_inurba_marseille","lat":43.312239,"lon":5.368562,"is_reserved":false,"is_disabled":false,"rental_uris":{"android":"levelo://app?vid=74b03030-f764-44f2-a651-9c6e9c253c21","ios":"levelo://app?vid=74b03030-f764-44f2-a651-9c6e9c253c21"},"vehicle_type_id":"4","last_reported":1683972379,"current_range_meters":28400,"station_id":"ce4bgl92rcd13ifvqbq0","pricing_plan_id":"free"},{"bike_id":"4ab997a5-609f-4b6a-b188-44325240a566","system_id":"levelo_inurba_marseille","lat":43.312239,"lon":5.368562,"is_reserved":false,"is_disabled":false,"rental_uris":{"android":"levelo://app?vid=4ab997a5-609f-4b6a-b188-44325240a566","ios":"levelo://app?vid=4ab997a5-609f-4b6a-b188-44325240a566"},"vehicle_type_id":"4","last_reported":1683972379,"current_range_meters":16400,"station_id":"ce4bgl92rcd13ifvqbq0","pricing_plan_id":"free"},{"bike_id":"048f28fb-86d7-489b-ba57-fe72c51a5c87","system_id":"levelo_inurba_marseille","lat":43.31227,"lon":5.36876,"is_reserved":false,"is_disabled":false,"rental_uris":{"android":"levelo://app?vid=048f28fb-86d7-489b-ba57-fe72c51a5c87","ios":"levelo://app?vid=048f28fb-86d7-489b-ba57-fe72c51a5c87"},"vehicle_type_id":"4","last_reported":1683972379,"current_range_meters":25600,"station_id":"ce4bgl92rcd13ifvqbq0","pricing_plan_id":"free"},{"bike_id":"f6698b17-4ac7-4545-a869-3b8510280738","system_id":"levelo_inurba_marseille","lat":43.312239,"lon":5.368562,"is_reserved":false,"is_disabled":false,"rental_uris":{"android":"levelo://app?vid=f6698b17-4ac7-4545-a869-3b8510280738","ios":"levelo://app?vid=f6698b17-4ac7-4545-a869-3b8510280738"},"vehicle_type_id":"4","last_reported":1683972379,"current_range_meters":25200,"station_id":"ce4bgl92rcd13ifvqbq0","pricing_plan_id":"free"},{"bike_id":"a2f2373a-31d3-45bf-af68-bb79ac2dbb6a","system_id":"levelo_inurba_marseille","lat":43.314811,"lon":5.373104,"is_reserved":false,"is_disabled":false,"rental_uris":{"android":"levelo://app?vid=a2f2373a-31d3-45bf-af68-bb79ac2dbb6a","ios":"levelo://app?vid=a2f2373a-31d3-45bf-af68-bb79ac2dbb6a"},"vehicle_type_id":"4","last_reported":1683972379,"current_range_meters":16800,"station_id":"ce4bgt12rcd13ifvqcd0","pricing_plan_id":"free"},{"bike_id":"3d9d3d3d-0fa7-4024-8014-9bfdf7531cec","system_id":"levelo_inurba_marseille","lat":43.314811,"lon":5.373103,"is_reserved":false,"is_disabled":false,"rental_uris":{"android":"levelo://app?vid=3d9d3d3d-0fa7-4024-8014-9bfdf7531cec","ios":"levelo://app?vid=3d9d3d3d-0fa7-4024-8014-9bfdf7531cec"},"vehicle_type_id":"4","last_reported":1683972379,"current_range_meters":20000,"station_id":"ce4bgt12rcd13ifvqcd0","pricing_plan_id":"free"},{"bike_id":"c76b6405-77c6-44cd-bd42-6b82941e15b2","system_id":"levelo_inurba_marseille","lat":43.314811,"lon":5.373103,"is_reserved":false,"is_disabled":false,"rental_uris":{"android":"levelo://app?vid=c76b6405-77c6-44cd-bd42-6b82941e15b2","ios":"levelo://app?vid=c76b6405-77c6-44cd-bd42-6b82941e15b2"},"vehicle_type_id":"4","last_reported":1683972379,"current_range_meters":7600,"station_id":"ce4bgt12rcd13ifvqcd0","pricing_plan_id":"free"},{"bike_id":"aab7094f-9299-47f3-a498-193b5ec16f9d","system_id":"levelo_inurba_marseille","lat":43.305714,"lon":5.365633,"is_reserved":false,"is_disabled":false,"rental_uris":{"android":"levelo://app?vid=aab7094f-9299-47f3-a498-193b5ec16f9d","ios":"levelo://app?vid=aab7094f-9299-47f3-a498-193b5ec16f9d"},"vehicle_type_id":"4","last_reported":1683972379,"current_range_meters":26000,"station_id":"ce4bgs12rcd13ifvqcag","pricing_plan_id":"free"},{"bike_id":"c706453a-66b4-41d7-a74a-468a5939e1f6","system_id":"levelo_inurba_marseille","lat":43.305714,"lon":5.365633,"is_reserved":false,"is_disabled":false,"rental_uris":{"android":"levelo://app?vid=c706453a-66b4-41d7-a74a-468a5939e1f6","ios":"levelo://app?vid=c706453a-66b4-41d7-a74a-468a5939e1f6"},"vehicle_type_id":"4","last_reported":1683972379,"current_range_meters":0,"station_id":"ce4bgs12rcd13ifvqcag","pricing_plan_id":"free"},{"bike_id":"4c943e86-e032-4dc3-8ca2-42084e0c9154","system_id":"levelo_inurba_marseille","lat":43.305714,"lon":5.365633,"is_reserved":false,"is_disabled":false,"rental_uris":{"android":"levelo://app?vid=4c943e86-e032-4dc3-8ca2-42084e0c9154","ios":"levelo://app?vid=4c943e86-e032-4dc3-8ca2-42084e0c9154"},"vehicle_type_id":"4","last_reported":1683972379,"current_range_meters":25200,"station_id":"ce4bgs12rcd13ifvqcag","pricing_plan_id":"free"},{"bike_id":"8f5b7f8b-0e01-4ced-8ebe-3a8c43bcb9db","system_id":"levelo_inurba_marseille","lat":43.305989,"lon":5.37225,"is_reserved":false,"is_disabled":false,"rental_uris":{"android":"levelo://app?vid=8f5b7f8b-0e01-4ced-8ebe-3a8c43bcb9db","ios":"levelo://app?vid=8f5b7f8b-0e01-4ced-8ebe-3a8c43bcb9db"},"vehicle_type_id":"4","last_reported":1683972379,"current_range_meters":1200,"station_id":"ce4bgqh2rcd13ifvqc4g","pricing_plan_id":"free"},{"bike_id":"b2ecedc2-4a15-42d3-97a1-918c780cc273","system_id":"levelo_inurba_marseille","lat":43.305989,"lon":5.37225,"is_reserved":false,"is_disabled":false,"rental_uris":{"android":"levelo://app?vid=b2ecedc2-4a15-42d3-97a1-918c780cc273","ios":"levelo://app?vid=b2ecedc2-4a15-42d3-97a1-918c780cc273"},"vehicle_type_id":"4","last_reported":1683972379,"current_range_meters":30800,"station_id":"ce4bgqh2rcd13ifvqc4g","pricing_plan_id":"free"},{"bike_id":"151d50bc-3aee-48d5-9527-783274464e00","system_id":"levelo_inurba_marseille","lat":43.31173,"lon":5.37768,"is_reserved":false,"is_disabled":false,"rental_uris":{"android":"levelo://app?vid=151d50bc-3aee-48d5-9527-783274464e00","ios":"levelo://app?vid=151d50bc-3aee-48d5-9527-783274464e00"},"vehicle_type_id":"4","last_reported":1683972379,"current_range_meters":13600,"station_id":"","pricing_plan_id":"free"},{"bike_id":"23e23e28-96e4-49a0-acff-a42f940cad88","system_id":"levelo_inurba_marseille","lat":43.317075,"lon":5.377367,"is_reserved":false,"is_disabled":false,"rental_uris":{"android":"levelo://app?vid=23e23e28-96e4-49a0-acff-a42f940cad88","ios":"levelo://app?vid=23e23e28-96e4-49a0-acff-a42f940cad88"},"vehicle_type_id":"4","last_reported":1683972379,"current_range_meters":26800,"station_id":"ce4bgth2rcd13ifvqch0","pricing_plan_id":"free"},{"bike_id":"89f69f11-fb7e-4135-ac4f-7d97c54eb311","system_id":"levelo_inurba_marseille","lat":43.303046,"lon":5.368981,"is_reserved":false,"is_disabled":false,"rental_uris":{"android":"levelo://app?vid=89f69f11-fb7e-4135-ac4f-7d97c54eb311","ios":"levelo://app?vid=89f69f11-fb7e-4135-ac4f-7d97c54eb311"},"vehicle_type_id":"4","last_reported":1683972379,"current_range_meters":21200,"station_id":"ce4bgqh2rcd13ifvqc5g","pricing_plan_id":"free"},{"bike_id":"abf5c9f8-240e-47a7-a439-f9a15743a80a","system_id":"levelo_inurba_marseille","lat":43.301939,"lon":5.366286,"is_reserved":false,"is_disabled":false,"rental_uris":{"android":"levelo://app?vid=abf5c9f8-240e-47a7-a439-f9a15743a80a","ios":"levelo://app?vid=abf5c9f8-240e-47a7-a439-f9a15743a80a"},"vehicle_type_id":"4","last_reported":1683972379,"current_range_meters":30000,"station_id":"ce4bgrh2rcd13ifvqc8g","pricing_plan_id":"free"},{"bike_id":"cc2f9074-fbb8-4db4-818b-39a62d198bcc","system_id":"levelo_inurba_marseille","lat":43.301939,"lon":5.366286,"is_reserved":false,"is_disabled":false,"rental_uris":{"android":"levelo://app?vid=cc2f9074-fbb8-4db4-818b-39a62d198bcc","ios":"levelo://app?vid=cc2f9074-fbb8-4db4-818b-39a62d198bcc"},"vehicle_type_id":"4","last_reported":1683972379,"current_range_meters":25600,"station_id":"ce4bgrh2rcd13ifvqc8g","pricing_plan_id":"free"},{"bike_id":"8b47ea53-5d97-44ee-9714-7e51bb264dac","system_id":"levelo_inurba_marseille","lat":43.304606,"lon":5.379026,"is_reserved":false,"is_disabled":false,"rental_uris":{"android":"levelo://app?vid=8b47ea53-5d97-44ee-9714-7e51bb264dac","ios":"levelo://app?vid=8b47ea53-5d97-44ee-9714-7e51bb264dac"},"vehicle_type_id":"4","last_reported":1683972379,"current_range_meters":31200,"station_id":"ce4bgup2rcd13ifvqcn0","pricing_plan_id":"free"},{"bike_id":"003d582e-7e5f-4a87-a622-32e3086b14b0","system_id":"levelo_inurba_marseille","lat":43.304606,"lon":5.379026,"is_reserved":false,"is_disabled":false,"rental_uris":{"android":"levelo://app?vid=003d582e-7e5f-4a87-a622-32e3086b14b0","ios":"levelo://app?vid=003d582e-7e5f-4a87-a622-32e3086b14b0"},"vehicle_type_id":"4","last_reported":1683972379,"current_range_meters":31200,"station_id":"ce4bgup2rcd13ifvqcn0","pricing_plan_id":"free"},{"bike_id":"c980a709-f30e-41b2-b392-a60cca74bc8c","system_id":"levelo_inurba_marseille","lat":43.304606,"lon":5.379026,"is_reserved":false,"is_disabled":false,"rental_uris":{"android":"levelo://app?vid=c980a709-f30e-41b2-b392-a60cca74bc8c","ios":"levelo://app?vid=c980a709-f30e-41b2-b392-a60cca74bc8c"},"vehicle_type_id":"4","last_reported":1683972379,"current_range_meters":31600,"station_id":"ce4bgup2rcd13ifvqcn0","pricing_plan_id":"free"},{"bike_id":"2dde4dcf-7c45-4c6a-8422-da8ba7b671b6","system_id":"levelo_inurba_marseille","lat":43.30467,"lon":5.37905,"is_reserved":false,"is_disabled":false,"rental_uris":{"android":"levelo://app?vid=2dde4dcf-7c45-4c6a-8422-da8ba7b671b6","ios":"levelo://app?vid=2dde4dcf-7c45-4c6a-8422-da8ba7b671b6"},"vehicle_type_id":"4","last_reported":1683972379,"current_range_meters":27600,"station_id":"","pricing_plan_id":"free"},{"bike_id":"0368c736-1ed6-483e-bcad-e801795778b1","system_id":"levelo_inurba_marseille","lat":43.304606,"lon":5.379026,"is_reserved":false,"is_disabled":false,"rental_uris":{"android":"levelo://app?vid=0368c736-1ed6-483e-bcad-e801795778b1","ios":"levelo://app?vid=0368c736-1ed6-483e-bcad-e801795778b1"},"vehicle_type_id":"4","last_reported":1683972379,"current_range_meters":5200,"station_id":"ce4bgup2rcd13ifvqcn0","pricing_plan_id":"free"},{"bike_id":"793c250e-af9f-4886-92ae-d9a8ffeaec64","system_id":"levelo_inurba_marseille","lat":43.30467,"lon":5.37908,"is_reserved":false,"is_disabled":false,"rental_uris":{"android":"levelo://app?vid=793c250e-af9f-4886-92ae-d9a8ffeaec64","ios":"levelo://app?vid=793c250e-af9f-4886-92ae-d9a8ffeaec64"},"vehicle_type_id":"4","last_reported":1683972379,"current_range_meters":26400,"station_id":"ce4bgup2rcd13ifvqcn0","pricing_plan_id":"free"},{"bike_id":"60680915-fb24-4b19-bfde-912f36d2d614","system_id":"levelo_inurba_marseille","lat":43.304606,"lon":5.379026,"is_reserved":false,"is_disabled":false,"rental_uris":{"android":"levelo://app?vid=60680915-fb24-4b19-bfde-912f36d2d614","ios":"levelo://app?vid=60680915-fb24-4b19-bfde-912f36d2d614"},"vehicle_type_id":"4","last_reported":1683972379,"current_range_meters":31600,"station_id":"ce4bgup2rcd13ifvqcn0","pricing_plan_id":"free"},{"bike_id":"ef8a407f-f67d-4908-9c92-73365ec44eab","system_id":"levelo_inurba_marseille","lat":43.304606,"lon":5.379026,"is_reserved":false,"is_disabled":false,"rental_uris":{"android":"levelo://app?vid=ef8a407f-f67d-4908-9c92-73365ec44eab","ios":"levelo://app?vid=ef8a407f-f67d-4908-9c92-73365ec44eab"},"vehicle_type_id":"4","last_reported":1683972379,"current_range_meters":25600,"station_id":"ce4bgup2rcd13ifvqcn0","pricing_plan_id":"free"},{"bike_id":"d27d4be8-ac6a-4b2d-b470-398264c776db","system_id":"levelo_inurba_marseille","lat":43.304606,"lon":5.379026,"is_reserved":false,"is_disabled":false,"rental_uris":{"android":"levelo://app?vid=d27d4be8-ac6a-4b2d-b470-398264c776db","ios":"levelo://app?vid=d27d4be8-ac6a-4b2d-b470-398264c776db"},"vehicle_type_id":"4","last_reported":1683972379,"current_range_meters":9600,"station_id":"ce4bgup2rcd13ifvqcn0","pricing_plan_id":"free"},{"bike_id":"0afad3e0-6610-44c3-bd84-886f6bd0b676","system_id":"levelo_inurba_marseille","lat":43.304606,"lon":5.379026,"is_reserved":false,"is_disabled":false,"rental_uris":{"android":"levelo://app?vid=0afad3e0-6610-44c3-bd84-886f6bd0b676","ios":"levelo://app?vid=0afad3e0-6610-44c3-bd84-886f6bd0b676"},"vehicle_type_id":"4","last_reported":1683972379,"current_range_meters":32000,"station_id":"ce4bgup2rcd13ifvqcn0","pricing_plan_id":"free"},{"bike_id":"7fd58bde-e9d0-4819-bf16-e0c722621005","system_id":"levelo_inurba_marseille","lat":43.30466,"lon":5.37912,"is_reserved":false,"is_disabled":false,"rental_uris":{"android":"levelo://app?vid=7fd58bde-e9d0-4819-bf16-e0c722621005","ios":"levelo://app?vid=7fd58bde-e9d0-4819-bf16-e0c722621005"},"vehicle_type_id":"4","last_reported":1683972379,"current_range_meters":16800,"station_id":"ce4bgup2rcd13ifvqcn0","pricing_plan_id":"free"},{"bike_id":"2a95983f-beb5-4e6d-b4cd-ff10adb99cd2","system_id":"levelo_inurba_marseille","lat":43.3046,"lon":5.37906,"is_reserved":false,"is_disabled":false,"rental_uris":{"android":"levelo://app?vid=2a95983f-beb5-4e6d-b4cd-ff10adb99cd2","ios":"levelo://app?vid=2a95983f-beb5-4e6d-b4cd-ff10adb99cd2"},"vehicle_type_id":"4","last_reported":1683972379,"current_range_meters":20400,"station_id":"ce4bgup2rcd13ifvqcn0","pricing_plan_id":"free"},{"bike_id":"5f5e7486-2140-4e8d-9afa-f0c197b97c26","system_id":"levelo_inurba_marseille","lat":43.304606,"lon":5.379026,"is_reserved":false,"is_disabled":false,"rental_uris":{"android":"levelo://app?vid=5f5e7486-2140-4e8d-9afa-f0c197b97c26","ios":"levelo://app?vid=5f5e7486-2140-4e8d-9afa-f0c197b97c26"},"vehicle_type_id":"4","last_reported":1683972379,"current_range_meters":19600,"station_id":"ce4bgup2rcd13ifvqcn0","pricing_plan_id":"free"},{"bike_id":"06f6366e-3f49-4fb2-a3b1-353ce791950b","system_id":"levelo_inurba_marseille","lat":43.304606,"lon":5.379026,"is_reserved":false,"is_disabled":false,"rental_uris":{"android":"levelo://app?vid=06f6366e-3f49-4fb2-a3b1-353ce791950b","ios":"levelo://app?vid=06f6366e-3f49-4fb2-a3b1-353ce791950b"},"vehicle_type_id":"4","last_reported":1683972379,"current_range_meters":31600,"station_id":"ce4bgup2rcd13ifvqcn0","pricing_plan_id":"free"},{"bike_id":"c49b7f70-ee92-443f-8de7-4d535d6f0ac6","system_id":"levelo_inurba_marseille","lat":43.304606,"lon":5.379026,"is_reserved":false,"is_disabled":false,"rental_uris":{"android":"levelo://app?vid=c49b7f70-ee92-443f-8de7-4d535d6f0ac6","ios":"levelo://app?vid=c49b7f70-ee92-443f-8de7-4d535d6f0ac6"},"vehicle_type_id":"4","last_reported":1683972379,"current_range_meters":18400,"station_id":"ce4bgup2rcd13ifvqcn0","pricing_plan_id":"free"},{"bike_id":"788c65ee-7bae-4472-8eb2-3f54e474b1d0","system_id":"levelo_inurba_marseille","lat":43.304606,"lon":5.379026,"is_reserved":false,"is_disabled":false,"rental_uris":{"android":"levelo://app?vid=788c65ee-7bae-4472-8eb2-3f54e474b1d0","ios":"levelo://app?vid=788c65ee-7bae-4472-8eb2-3f54e474b1d0"},"vehicle_type_id":"4","last_reported":1683972379,"current_range_meters":24400,"station_id":"ce4bgup2rcd13ifvqcn0","pricing_plan_id":"free"},{"bike_id":"7995e2c4-6947-4e35-88a3-bc0b2280ebad","system_id":"levelo_inurba_marseille","lat":43.304606,"lon":5.379026,"is_reserved":false,"is_disabled":false,"rental_uris":{"android":"levelo://app?vid=7995e2c4-6947-4e35-88a3-bc0b2280ebad","ios":"levelo://app?vid=7995e2c4-6947-4e35-88a3-bc0b2280ebad"},"vehicle_type_id":"4","last_reported":1683972379,"current_range_meters":31200,"station_id":"ce4bgup2rcd13ifvqcn0","pricing_plan_id":"free"},{"bike_id":"5ebc2b59-57e9-4041-8cfa-d08e20a497fb","system_id":"levelo_inurba_marseille","lat":43.30461,"lon":5.379151,"is_reserved":false,"is_disabled":false,"rental_uris":{"android":"levelo://app?vid=5ebc2b59-57e9-4041-8cfa-d08e20a497fb","ios":"levelo://app?vid=5ebc2b59-57e9-4041-8cfa-d08e20a497fb"},"vehicle_type_id":"4","last_reported":1683972379,"current_range_meters":23600,"station_id":"ce4bgup2rcd13ifvqcn0","pricing_plan_id":"free"},{"bike_id":"4f89d854-5137-4e7e-9f60-644848ba5316","system_id":"levelo_inurba_marseille","lat":43.304606,"lon":5.379026,"is_reserved":false,"is_disabled":false,"rental_uris":{"android":"levelo://app?vid=4f89d854-5137-4e7e-9f60-644848ba5316","ios":"levelo://app?vid=4f89d854-5137-4e7e-9f60-644848ba5316"},"vehicle_type_id":"4","last_reported":1683972379,"current_range_meters":26800,"station_id":"ce4bgup2rcd13ifvqcn0","pricing_plan_id":"free"},{"bike_id":"855d1619-04b0-40fe-84c8-ba142ccc5162","system_id":"levelo_inurba_marseille","lat":43.304606,"lon":5.379026,"is_reserved":false,"is_disabled":false,"rental_uris":{"android":"levelo://app?vid=855d1619-04b0-40fe-84c8-ba142ccc5162","ios":"levelo://app?vid=855d1619-04b0-40fe-84c8-ba142ccc5162"},"vehicle_type_id":"4","last_reported":1683972379,"current_range_meters":20400,"station_id":"ce4bgup2rcd13ifvqcn0","pricing_plan_id":"free"},{"bike_id":"13cec834-4356-43cf-8dc1-8b628da2e78b","system_id":"levelo_inurba_marseille","lat":43.304615,"lon":5.379169,"is_reserved":false,"is_disabled":false,"rental_uris":{"android":"levelo://app?vid=13cec834-4356-43cf-8dc1-8b628da2e78b","ios":"levelo://app?vid=13cec834-4356-43cf-8dc1-8b628da2e78b"},"vehicle_type_id":"4","last_reported":1683972379,"current_range_meters":30400,"station_id":"ce4bgup2rcd13ifvqcn0","pricing_plan_id":"free"},{"bike_id":"495d7d5a-faf4-4c12-9225-d8afb00729cb","system_id":"levelo_inurba_marseille","lat":43.30449,"lon":5.3791,"is_reserved":false,"is_disabled":false,"rental_uris":{"android":"levelo://app?vid=495d7d5a-faf4-4c12-9225-d8afb00729cb","ios":"levelo://app?vid=495d7d5a-faf4-4c12-9225-d8afb00729cb"},"vehicle_type_id":"4","last_reported":1683972379,"current_range_meters":19200,"station_id":"ce4bgup2rcd13ifvqcn0","pricing_plan_id":"free"},{"bike_id":"09b041e6-6074-4df7-a048-f6981c376cfd","system_id":"levelo_inurba_marseille","lat":43.31372,"lon":5.38508,"is_reserved":false,"is_disabled":false,"rental_uris":{"android":"levelo://app?vid=09b041e6-6074-4df7-a048-f6981c376cfd","ios":"levelo://app?vid=09b041e6-6074-4df7-a048-f6981c376cfd"},"vehicle_type_id":"4","last_reported":1683972379,"current_range_meters":18000,"station_id":"ce4bgt92rcd13ifvqcf0","pricing_plan_id":"free"},{"bike_id":"54db8822-be42-4881-bcd0-63cbd0cff61b","system_id":"levelo_inurba_marseille","lat":43.299222,"lon":5.365554,"is_reserved":false,"is_disabled":false,"rental_uris":{"android":"levelo://app?vid=54db8822-be42-4881-bcd0-63cbd0cff61b","ios":"levelo://app?vid=54db8822-be42-4881-bcd0-63cbd0cff61b"},"vehicle_type_id":"4","last_reported":1683972379,"current_range_meters":13600,"station_id":"ce4bgm92rcd13ifvqbr0","pricing_plan_id":"free"},{"bike_id":"6b915c84-dcc7-4ace-a314-8bd5251874a0","system_id":"levelo_inurba_marseille","lat":43.30549,"lon":5.38364,"is_reserved":false,"is_disabled":false,"rental_uris":{"android":"levelo://app?vid=6b915c84-dcc7-4ace-a314-8bd5251874a0","ios":"levelo://app?vid=6b915c84-dcc7-4ace-a314-8bd5251874a0"},"vehicle_type_id":"4","last_reported":1683972379,"current_range_meters":28000,"station_id":"","pricing_plan_id":"free"},{"bike_id":"5432ee53-7666-48b3-9770-67586b914c8a","system_id":"levelo_inurba_marseille","lat":43.298433,"lon":5.362774,"is_reserved":false,"is_disabled":false,"rental_uris":{"android":"levelo://app?vid=5432ee53-7666-48b3-9770-67586b914c8a","ios":"levelo://app?vid=5432ee53-7666-48b3-9770-67586b914c8a"},"vehicle_type_id":"4","last_reported":1683972379,"current_range_meters":19600,"station_id":"ce4bgpp2rcd13ifvqc3g","pricing_plan_id":"free"},{"bike_id":"8a045a03-ffde-4c85-a76d-ca90164a0aad","system_id":"levelo_inurba_marseille","lat":43.298433,"lon":5.362774,"is_reserved":false,"is_disabled":false,"rental_uris":{"android":"levelo://app?vid=8a045a03-ffde-4c85-a76d-ca90164a0aad","ios":"levelo://app?vid=8a045a03-ffde-4c85-a76d-ca90164a0aad"},"vehicle_type_id":"4","last_reported":1683972379,"current_range_meters":31200,"station_id":"ce4bgpp2rcd13ifvqc3g","pricing_plan_id":"free"},{"bike_id":"b28eb0e0-c31f-4266-83d8-a7cdc955124b","system_id":"levelo_inurba_marseille","lat":43.305364,"lon":5.384119,"is_reserved":false,"is_disabled":false,"rental_uris":{"android":"levelo://app?vid=b28eb0e0-c31f-4266-83d8-a7cdc955124b","ios":"levelo://app?vid=b28eb0e0-c31f-4266-83d8-a7cdc955124b"},"vehicle_type_id":"4","last_reported":1683972379,"current_range_meters":9200,"station_id":"ce4bgg92rcd13ifvqb30","pricing_plan_id":"free"},{"bike_id":"acfc3e77-4dd0-4c9c-a3cc-40eac80d96f5","system_id":"levelo_inurba_marseille","lat":43.305364,"lon":5.384119,"is_reserved":false,"is_disabled":false,"rental_uris":{"android":"levelo://app?vid=acfc3e77-4dd0-4c9c-a3cc-40eac80d96f5","ios":"levelo://app?vid=acfc3e77-4dd0-4c9c-a3cc-40eac80d96f5"},"vehicle_type_id":"4","last_reported":1683972379,"current_range_meters":31200,"station_id":"ce4bgg92rcd13ifvqb30","pricing_plan_id":"free"},{"bike_id":"357f384d-6ab8-4f25-b14a-2cc273bd5cf0","system_id":"levelo_inurba_marseille","lat":43.29929,"lon":5.37486,"is_reserved":false,"is_disabled":false,"rental_uris":{"android":"levelo://app?vid=357f384d-6ab8-4f25-b14a-2cc273bd5cf0","ios":"levelo://app?vid=357f384d-6ab8-4f25-b14a-2cc273bd5cf0"},"vehicle_type_id":"4","last_reported":1683972379,"current_range_meters":23600,"station_id":"ce4bgjh2rcd13ifvqbg0","pricing_plan_id":"free"},{"bike_id":"50847303-5030-42c4-a6c3-9958d46c1e9e","system_id":"levelo_inurba_marseille","lat":43.298433,"lon":5.362774,"is_reserved":false,"is_disabled":false,"rental_uris":{"android":"levelo://app?vid=50847303-5030-42c4-a6c3-9958d46c1e9e","ios":"levelo://app?vid=50847303-5030-42c4-a6c3-9958d46c1e9e"},"vehicle_type_id":"4","last_reported":1683972379,"current_range_meters":22000,"station_id":"ce4bgpp2rcd13ifvqc3g","pricing_plan_id":"free"},{"bike_id":"89023bbe-2daa-49ee-84fa-85cf631fd92e","system_id":"levelo_inurba_marseille","lat":43.298433,"lon":5.362774,"is_reserved":false,"is_disabled":false,"rental_uris":{"android":"levelo://app?vid=89023bbe-2daa-49ee-84fa-85cf631fd92e","ios":"levelo://app?vid=89023bbe-2daa-49ee-84fa-85cf631fd92e"},"vehicle_type_id":"4","last_reported":1683972379,"current_range_meters":31200,"station_id":"ce4bgpp2rcd13ifvqc3g","pricing_plan_id":"free"},{"bike_id":"868c18a7-1b45-4329-b5af-1fb35a84865f","system_id":"levelo_inurba_marseille","lat":43.298433,"lon":5.362774,"is_reserved":false,"is_disabled":false,"rental_uris":{"android":"levelo://app?vid=868c18a7-1b45-4329-b5af-1fb35a84865f","ios":"levelo://app?vid=868c18a7-1b45-4329-b5af-1fb35a84865f"},"vehicle_type_id":"4","last_reported":1683972379,"current_range_meters":15200,"station_id":"ce4bgpp2rcd13ifvqc3g","pricing_plan_id":"free"},{"bike_id":"fee73e19-117b-4620-bdd6-e3d2e0a7d994","system_id":"levelo_inurba_marseille","lat":43.298433,"lon":5.362774,"is_reserved":false,"is_disabled":false,"rental_uris":{"android":"levelo://app?vid=fee73e19-117b-4620-bdd6-e3d2e0a7d994","ios":"levelo://app?vid=fee73e19-117b-4620-bdd6-e3d2e0a7d994"},"vehicle_type_id":"4","last_reported":1683972379,"current_range_meters":30000,"station_id":"ce4bgpp2rcd13ifvqc3g","pricing_plan_id":"free"},{"bike_id":"5fed7588-b2d5-47a4-b37a-08afdb206b50","system_id":"levelo_inurba_marseille","lat":43.305364,"lon":5.384119,"is_reserved":false,"is_disabled":false,"rental_uris":{"android":"levelo://app?vid=5fed7588-b2d5-47a4-b37a-08afdb206b50","ios":"levelo://app?vid=5fed7588-b2d5-47a4-b37a-08afdb206b50"},"vehicle_type_id":"4","last_reported":1683972379,"current_range_meters":24000,"station_id":"ce4bgg92rcd13ifvqb30","pricing_plan_id":"free"},{"bike_id":"fc91c14f-1adb-4f65-8e54-95e33420808e","system_id":"levelo_inurba_marseille","lat":43.299243,"lon":5.374807,"is_reserved":false,"is_disabled":false,"rental_uris":{"android":"levelo://app?vid=fc91c14f-1adb-4f65-8e54-95e33420808e","ios":"levelo://app?vid=fc91c14f-1adb-4f65-8e54-95e33420808e"},"vehicle_type_id":"4","last_reported":1683972379,"current_range_meters":19200,"station_id":"ce4bgjh2rcd13ifvqbg0","pricing_plan_id":"free"},{"bike_id":"09e9ee45-6249-482b-8ae6-e16dc0b6eb76","system_id":"levelo_inurba_marseille","lat":43.298433,"lon":5.362774,"is_reserved":false,"is_disabled":false,"rental_uris":{"android":"levelo://app?vid=09e9ee45-6249-482b-8ae6-e16dc0b6eb76","ios":"levelo://app?vid=09e9ee45-6249-482b-8ae6-e16dc0b6eb76"},"vehicle_type_id":"4","last_reported":1683972379,"current_range_meters":31200,"station_id":"ce4bgpp2rcd13ifvqc3g","pricing_plan_id":"free"},{"bike_id":"03599946-aa66-49fe-b04e-2a1f20c6e713","system_id":"levelo_inurba_marseille","lat":43.305364,"lon":5.384119,"is_reserved":false,"is_disabled":false,"rental_uris":{"android":"levelo://app?vid=03599946-aa66-49fe-b04e-2a1f20c6e713","ios":"levelo://app?vid=03599946-aa66-49fe-b04e-2a1f20c6e713"},"vehicle_type_id":"4","last_reported":1683972379,"current_range_meters":31200,"station_id":"ce4bgg92rcd13ifvqb30","pricing_plan_id":"free"},{"bike_id":"cbbfc8a8-ac8a-48ce-8cba-e5c11eaaa3b8","system_id":"levelo_inurba_marseille","lat":43.31177,"lon":5.38708,"is_reserved":false,"is_disabled":false,"rental_uris":{"android":"levelo://app?vid=cbbfc8a8-ac8a-48ce-8cba-e5c11eaaa3b8","ios":"levelo://app?vid=cbbfc8a8-ac8a-48ce-8cba-e5c11eaaa3b8"},"vehicle_type_id":"4","last_reported":1683972379,"current_range_meters":26800,"station_id":"ce4bgv12rcd13ifvqcp0","pricing_plan_id":"free"},{"bike_id":"a98742f9-5c83-4432-b37a-453987e478ef","system_id":"levelo_inurba_marseille","lat":43.298433,"lon":5.362774,"is_reserved":false,"is_disabled":false,"rental_uris":{"android":"levelo://app?vid=a98742f9-5c83-4432-b37a-453987e478ef","ios":"levelo://app?vid=a98742f9-5c83-4432-b37a-453987e478ef"},"vehicle_type_id":"4","last_reported":1683972379,"current_range_meters":28800,"station_id":"ce4bgpp2rcd13ifvqc3g","pricing_plan_id":"free"},{"bike_id":"7cd2c118-8c0c-4cc3-9dd5-54b2dc0644ea","system_id":"levelo_inurba_marseille","lat":43.298433,"lon":5.362774,"is_reserved":false,"is_disabled":false,"rental_uris":{"android":"levelo://app?vid=7cd2c118-8c0c-4cc3-9dd5-54b2dc0644ea","ios":"levelo://app?vid=7cd2c118-8c0c-4cc3-9dd5-54b2dc0644ea"},"vehicle_type_id":"4","last_reported":1683972379,"current_range_meters":8400,"station_id":"ce4bgpp2rcd13ifvqc3g","pricing_plan_id":"free"},{"bike_id":"7321ca39-b466-4173-b743-8e2a180215ba","system_id":"levelo_inurba_marseille","lat":43.298433,"lon":5.362774,"is_reserved":false,"is_disabled":false,"rental_uris":{"android":"levelo://app?vid=7321ca39-b466-4173-b743-8e2a180215ba","ios":"levelo://app?vid=7321ca39-b466-4173-b743-8e2a180215ba"},"vehicle_type_id":"4","last_reported":1683972379,"current_range_meters":23200,"station_id":"ce4bgpp2rcd13ifvqc3g","pricing_plan_id":"free"},{"bike_id":"383467fc-32d4-4010-9fa0-3d57a8263a21","system_id":"levelo_inurba_marseille","lat":43.299243,"lon":5.37481,"is_reserved":false,"is_disabled":false,"rental_uris":{"android":"levelo://app?vid=383467fc-32d4-4010-9fa0-3d57a8263a21","ios":"levelo://app?vid=383467fc-32d4-4010-9fa0-3d57a8263a21"},"vehicle_type_id":"4","last_reported":1683972379,"current_range_meters":30800,"station_id":"ce4bgjh2rcd13ifvqbg0","pricing_plan_id":"free"},{"bike_id":"2f96f4b7-d3f1-4b87-b98f-caf50ba6d13d","system_id":"levelo_inurba_marseille","lat":43.32772,"lon":5.36707,"is_reserved":false,"is_disabled":false,"rental_uris":{"android":"levelo://app?vid=2f96f4b7-d3f1-4b87-b98f-caf50ba6d13d","ios":"levelo://app?vid=2f96f4b7-d3f1-4b87-b98f-caf50ba6d13d"},"vehicle_type_id":"4","last_reported":1683972379,"current_range_meters":12400,"station_id":"","pricing_plan_id":"free"},{"bike_id":"0474487f-288e-4606-b7d4-e28d2ee99d8c","system_id":"levelo_inurba_marseille","lat":43.297794,"lon":5.370888,"is_reserved":false,"is_disabled":false,"rental_uris":{"android":"levelo://app?vid=0474487f-288e-4606-b7d4-e28d2ee99d8c","ios":"levelo://app?vid=0474487f-288e-4606-b7d4-e28d2ee99d8c"},"vehicle_type_id":"4","last_reported":1683972379,"current_range_meters":28000,"station_id":"ce4bgop2rcd13ifvqc1g","pricing_plan_id":"free"},{"bike_id":"9b6b204f-6717-4b59-a43f-9cae1ea502cd","system_id":"levelo_inurba_marseille","lat":43.297794,"lon":5.370888,"is_reserved":false,"is_disabled":false,"rental_uris":{"android":"levelo://app?vid=9b6b204f-6717-4b59-a43f-9cae1ea502cd","ios":"levelo://app?vid=9b6b204f-6717-4b59-a43f-9cae1ea502cd"},"vehicle_type_id":"4","last_reported":1683972379,"current_range_meters":6800,"station_id":"ce4bgop2rcd13ifvqc1g","pricing_plan_id":"free"},{"bike_id":"8a568eaa-ccec-4bc4-91a5-8a121d190a5e","system_id":"levelo_inurba_marseille","lat":43.297794,"lon":5.370888,"is_reserved":false,"is_disabled":false,"rental_uris":{"android":"levelo://app?vid=8a568eaa-ccec-4bc4-91a5-8a121d190a5e","ios":"levelo://app?vid=8a568eaa-ccec-4bc4-91a5-8a121d190a5e"},"vehicle_type_id":"4","last_reported":1683972379,"current_range_meters":31200,"station_id":"ce4bgop2rcd13ifvqc1g","pricing_plan_id":"free"},{"bike_id":"ba9e564b-ef2b-491f-bc8b-cc11a63e5e01","system_id":"levelo_inurba_marseille","lat":43.297794,"lon":5.370888,"is_reserved":false,"is_disabled":false,"rental_uris":{"android":"levelo://app?vid=ba9e564b-ef2b-491f-bc8b-cc11a63e5e01","ios":"levelo://app?vid=ba9e564b-ef2b-491f-bc8b-cc11a63e5e01"},"vehicle_type_id":"4","last_reported":1683972379,"current_range_meters":31200,"station_id":"ce4bgop2rcd13ifvqc1g","pricing_plan_id":"free"},{"bike_id":"eff8ca26-233d-4889-b571-97d77d97f113","system_id":"levelo_inurba_marseille","lat":43.297774,"lon":5.370875,"is_reserved":false,"is_disabled":false,"rental_uris":{"android":"levelo://app?vid=eff8ca26-233d-4889-b571-97d77d97f113","ios":"levelo://app?vid=eff8ca26-233d-4889-b571-97d77d97f113"},"vehicle_type_id":"4","last_reported":1683972379,"current_range_meters":30000,"station_id":"ce4bgop2rcd13ifvqc1g","pricing_plan_id":"free"},{"bike_id":"7a070e52-967e-4cda-a050-dbf621e582d9","system_id":"levelo_inurba_marseille","lat":43.297774,"lon":5.370875,"is_reserved":false,"is_disabled":false,"rental_uris":{"android":"levelo://app?vid=7a070e52-967e-4cda-a050-dbf621e582d9","ios":"levelo://app?vid=7a070e52-967e-4cda-a050-dbf621e582d9"},"vehicle_type_id":"4","last_reported":1683972379,"current_range_meters":30000,"station_id":"ce4bgop2rcd13ifvqc1g","pricing_plan_id":"free"},{"bike_id":"2f534b25-3d76-4ad4-bcb9-91101064834c","system_id":"levelo_inurba_marseille","lat":43.328371,"lon":5.366912,"is_reserved":false,"is_disabled":false,"rental_uris":{"android":"levelo://app?vid=2f534b25-3d76-4ad4-bcb9-91101064834c","ios":"levelo://app?vid=2f534b25-3d76-4ad4-bcb9-91101064834c"},"vehicle_type_id":"4","last_reported":1683972379,"current_range_meters":18800,"station_id":"ce4bhs92rcd13ifvqi0g","pricing_plan_id":"free"},{"bike_id":"0a5c6e50-cd6f-4800-a0e5-993347926bc8","system_id":"levelo_inurba_marseille","lat":43.328371,"lon":5.366912,"is_reserved":false,"is_disabled":false,"rental_uris":{"android":"levelo://app?vid=0a5c6e50-cd6f-4800-a0e5-993347926bc8","ios":"levelo://app?vid=0a5c6e50-cd6f-4800-a0e5-993347926bc8"},"vehicle_type_id":"4","last_reported":1683972379,"current_range_meters":12400,"station_id":"ce4bhs92rcd13ifvqi0g","pricing_plan_id":"free"},{"bike_id":"05dd3660-fb8d-4649-b95f-77a48f876534","system_id":"levelo_inurba_marseille","lat":43.32829,"lon":5.3668,"is_reserved":false,"is_disabled":false,"rental_uris":{"android":"levelo://app?vid=05dd3660-fb8d-4649-b95f-77a48f876534","ios":"levelo://app?vid=05dd3660-fb8d-4649-b95f-77a48f876534"},"vehicle_type_id":"4","last_reported":1683972379,"current_range_meters":3200,"station_id":"ce4bhs92rcd13ifvqi0g","pricing_plan_id":"free"},{"bike_id":"d2fd4a69-1781-4d10-b230-5796d7806c38","system_id":"levelo_inurba_marseille","lat":43.328371,"lon":5.366912,"is_reserved":false,"is_disabled":false,"rental_uris":{"android":"levelo://app?vid=d2fd4a69-1781-4d10-b230-5796d7806c38","ios":"levelo://app?vid=d2fd4a69-1781-4d10-b230-5796d7806c38"},"vehicle_type_id":"4","last_reported":1683972379,"current_range_meters":2400,"station_id":"ce4bhs92rcd13ifvqi0g","pricing_plan_id":"free"},{"bike_id":"86719306-0ddc-4576-a656-570a4d550f46","system_id":"levelo_inurba_marseille","lat":43.328371,"lon":5.366912,"is_reserved":false,"is_disabled":false,"rental_uris":{"android":"levelo://app?vid=86719306-0ddc-4576-a656-570a4d550f46","ios":"levelo://app?vid=86719306-0ddc-4576-a656-570a4d550f46"},"vehicle_type_id":"4","last_reported":1683972379,"current_range_meters":30000,"station_id":"ce4bhs92rcd13ifvqi0g","pricing_plan_id":"free"},{"bike_id":"e1b7270c-c690-4136-acf1-04f06180c8d3","system_id":"levelo_inurba_marseille","lat":43.328371,"lon":5.366912,"is_reserved":false,"is_disabled":false,"rental_uris":{"android":"levelo://app?vid=e1b7270c-c690-4136-acf1-04f06180c8d3","ios":"levelo://app?vid=e1b7270c-c690-4136-acf1-04f06180c8d3"},"vehicle_type_id":"4","last_reported":1683972379,"current_range_meters":15600,"station_id":"ce4bhs92rcd13ifvqi0g","pricing_plan_id":"free"},{"bike_id":"35c64b45-67cb-4db8-8dde-84eb3cae14a9","system_id":"levelo_inurba_marseille","lat":43.328371,"lon":5.366912,"is_reserved":false,"is_disabled":false,"rental_uris":{"android":"levelo://app?vid=35c64b45-67cb-4db8-8dde-84eb3cae14a9","ios":"levelo://app?vid=35c64b45-67cb-4db8-8dde-84eb3cae14a9"},"vehicle_type_id":"4","last_reported":1683972379,"current_range_meters":29600,"station_id":"ce4bhs92rcd13ifvqi0g","pricing_plan_id":"free"},{"bike_id":"e2436258-b820-4504-bbf4-d9b9d341aa87","system_id":"levelo_inurba_marseille","lat":43.32832,"lon":5.36689,"is_reserved":false,"is_disabled":false,"rental_uris":{"android":"levelo://app?vid=e2436258-b820-4504-bbf4-d9b9d341aa87","ios":"levelo://app?vid=e2436258-b820-4504-bbf4-d9b9d341aa87"},"vehicle_type_id":"4","last_reported":1683972379,"current_range_meters":13600,"station_id":"ce4bhs92rcd13ifvqi0g","pricing_plan_id":"free"},{"bike_id":"053fa0fe-d0b8-4b77-9e9a-95a5b916daf2","system_id":"levelo_inurba_marseille","lat":43.328371,"lon":5.366912,"is_reserved":false,"is_disabled":false,"rental_uris":{"android":"levelo://app?vid=053fa0fe-d0b8-4b77-9e9a-95a5b916daf2","ios":"levelo://app?vid=053fa0fe-d0b8-4b77-9e9a-95a5b916daf2"},"vehicle_type_id":"4","last_reported":1683972379,"current_range_meters":800,"station_id":"ce4bhs92rcd13ifvqi0g","pricing_plan_id":"free"},{"bike_id":"2ede4aa6-cb68-4708-8adb-810b72dccf8e","system_id":"levelo_inurba_marseille","lat":43.328371,"lon":5.366912,"is_reserved":false,"is_disabled":false,"rental_uris":{"android":"levelo://app?vid=2ede4aa6-cb68-4708-8adb-810b72dccf8e","ios":"levelo://app?vid=2ede4aa6-cb68-4708-8adb-810b72dccf8e"},"vehicle_type_id":"4","last_reported":1683972379,"current_range_meters":5600,"station_id":"ce4bhs92rcd13ifvqi0g","pricing_plan_id":"free"},{"bike_id":"4e8d495f-48a2-4a59-a0a4-e2a0bd5ad11a","system_id":"levelo_inurba_marseille","lat":43.328371,"lon":5.366912,"is_reserved":false,"is_disabled":false,"rental_uris":{"android":"levelo://app?vid=4e8d495f-48a2-4a59-a0a4-e2a0bd5ad11a","ios":"levelo://app?vid=4e8d495f-48a2-4a59-a0a4-e2a0bd5ad11a"},"vehicle_type_id":"4","last_reported":1683972379,"current_range_meters":0,"station_id":"ce4bhs92rcd13ifvqi0g","pricing_plan_id":"free"},{"bike_id":"173c35b5-642e-4cd5-9a42-cf3fc117f00c","system_id":"levelo_inurba_marseille","lat":43.328371,"lon":5.366912,"is_reserved":false,"is_disabled":false,"rental_uris":{"android":"levelo://app?vid=173c35b5-642e-4cd5-9a42-cf3fc117f00c","ios":"levelo://app?vid=173c35b5-642e-4cd5-9a42-cf3fc117f00c"},"vehicle_type_id":"4","last_reported":1683972379,"current_range_meters":18800,"station_id":"ce4bhs92rcd13ifvqi0g","pricing_plan_id":"free"},{"bike_id":"8ea15e6b-0302-4f6b-a369-2130aebae5f9","system_id":"levelo_inurba_marseille","lat":43.328371,"lon":5.366912,"is_reserved":false,"is_disabled":false,"rental_uris":{"android":"levelo://app?vid=8ea15e6b-0302-4f6b-a369-2130aebae5f9","ios":"levelo://app?vid=8ea15e6b-0302-4f6b-a369-2130aebae5f9"},"vehicle_type_id":"4","last_reported":1683972379,"current_range_meters":13200,"station_id":"ce4bhs92rcd13ifvqi0g","pricing_plan_id":"free"},{"bike_id":"86d38b05-ec38-47e7-a129-949854278a35","system_id":"levelo_inurba_marseille","lat":43.2968,"lon":5.37291,"is_reserved":false,"is_disabled":false,"rental_uris":{"android":"levelo://app?vid=86d38b05-ec38-47e7-a129-949854278a35","ios":"levelo://app?vid=86d38b05-ec38-47e7-a129-949854278a35"},"vehicle_type_id":"4","last_reported":1683972379,"current_range_meters":21200,"station_id":"ce4bgk12rcd13ifvqbj0","pricing_plan_id":"free"},{"bike_id":"b015041f-0470-42a7-b639-da2471314936","system_id":"levelo_inurba_marseille","lat":43.29573,"lon":5.367355,"is_reserved":false,"is_disabled":false,"rental_uris":{"android":"levelo://app?vid=b015041f-0470-42a7-b639-da2471314936","ios":"levelo://app?vid=b015041f-0470-42a7-b639-da2471314936"},"vehicle_type_id":"4","last_reported":1683972379,"current_range_meters":32000,"station_id":"ce4bgph2rcd13ifvqc2g","pricing_plan_id":"free"},{"bike_id":"d35353bb-c31a-4dd6-a991-80dae4dd289c","system_id":"levelo_inurba_marseille","lat":43.296131,"lon":5.370791,"is_reserved":false,"is_disabled":false,"rental_uris":{"android":"levelo://app?vid=d35353bb-c31a-4dd6-a991-80dae4dd289c","ios":"levelo://app?vid=d35353bb-c31a-4dd6-a991-80dae4dd289c"},"vehicle_type_id":"4","last_reported":1683972379,"current_range_meters":30000,"station_id":"ce4bgnh2rcd13ifvqc0g","pricing_plan_id":"free"},{"bike_id":"2baec4b6-8b4e-49ee-af61-fc5d7c839ba2","system_id":"levelo_inurba_marseille","lat":43.296129,"lon":5.370777,"is_reserved":false,"is_disabled":false,"rental_uris":{"android":"levelo://app?vid=2baec4b6-8b4e-49ee-af61-fc5d7c839ba2","ios":"levelo://app?vid=2baec4b6-8b4e-49ee-af61-fc5d7c839ba2"},"vehicle_type_id":"4","last_reported":1683972379,"current_range_meters":11200,"station_id":"ce4bgnh2rcd13ifvqc0g","pricing_plan_id":"free"},{"bike_id":"4f75fd7e-1692-41ee-a4c2-cfb390a921f8","system_id":"levelo_inurba_marseille","lat":43.296131,"lon":5.370773,"is_reserved":false,"is_disabled":false,"rental_uris":{"android":"levelo://app?vid=4f75fd7e-1692-41ee-a4c2-cfb390a921f8","ios":"levelo://app?vid=4f75fd7e-1692-41ee-a4c2-cfb390a921f8"},"vehicle_type_id":"4","last_reported":1683972379,"current_range_meters":24400,"station_id":"ce4bgnh2rcd13ifvqc0g","pricing_plan_id":"free"},{"bike_id":"822f0c0a-ff17-421a-80a1-6d7c62d6210d","system_id":"levelo_inurba_marseille","lat":43.296129,"lon":5.370777,"is_reserved":false,"is_disabled":false,"rental_uris":{"android":"levelo://app?vid=822f0c0a-ff17-421a-80a1-6d7c62d6210d","ios":"levelo://app?vid=822f0c0a-ff17-421a-80a1-6d7c62d6210d"},"vehicle_type_id":"4","last_reported":1683972379,"current_range_meters":23600,"station_id":"ce4bgnh2rcd13ifvqc0g","pricing_plan_id":"free"},{"bike_id":"9d3c21c5-31c3-4d87-a99b-82531594bcbc","system_id":"levelo_inurba_marseille","lat":43.296129,"lon":5.370777,"is_reserved":false,"is_disabled":false,"rental_uris":{"android":"levelo://app?vid=9d3c21c5-31c3-4d87-a99b-82531594bcbc","ios":"levelo://app?vid=9d3c21c5-31c3-4d87-a99b-82531594bcbc"},"vehicle_type_id":"4","last_reported":1683972379,"current_range_meters":18800,"station_id":"ce4bgnh2rcd13ifvqc0g","pricing_plan_id":"free"},{"bike_id":"8bbfacbc-552b-4b3e-874c-eeafdc244922","system_id":"levelo_inurba_marseille","lat":43.29573,"lon":5.367355,"is_reserved":false,"is_disabled":false,"rental_uris":{"android":"levelo://app?vid=8bbfacbc-552b-4b3e-874c-eeafdc244922","ios":"levelo://app?vid=8bbfacbc-552b-4b3e-874c-eeafdc244922"},"vehicle_type_id":"4","last_reported":1683972379,"current_range_meters":4400,"station_id":"ce4bgph2rcd13ifvqc2g","pricing_plan_id":"free"},{"bike_id":"16dd21fb-edaa-4bcf-80ae-447c9c3790e5","system_id":"levelo_inurba_marseille","lat":43.29573,"lon":5.367355,"is_reserved":false,"is_disabled":false,"rental_uris":{"android":"levelo://app?vid=16dd21fb-edaa-4bcf-80ae-447c9c3790e5","ios":"levelo://app?vid=16dd21fb-edaa-4bcf-80ae-447c9c3790e5"},"vehicle_type_id":"4","last_reported":1683972379,"current_range_meters":31200,"station_id":"ce4bgph2rcd13ifvqc2g","pricing_plan_id":"free"},{"bike_id":"23f9787b-d8c1-44b6-a24e-b485f0659946","system_id":"levelo_inurba_marseille","lat":43.29619,"lon":5.37173,"is_reserved":false,"is_disabled":false,"rental_uris":{"android":"levelo://app?vid=23f9787b-d8c1-44b6-a24e-b485f0659946","ios":"levelo://app?vid=23f9787b-d8c1-44b6-a24e-b485f0659946"},"vehicle_type_id":"4","last_reported":1683972379,"current_range_meters":20800,"station_id":"","pricing_plan_id":"free"},{"bike_id":"53eec990-f018-44dc-aa63-10d5b4f486f6","system_id":"levelo_inurba_marseille","lat":43.296131,"lon":5.370773,"is_reserved":false,"is_disabled":false,"rental_uris":{"android":"levelo://app?vid=53eec990-f018-44dc-aa63-10d5b4f486f6","ios":"levelo://app?vid=53eec990-f018-44dc-aa63-10d5b4f486f6"},"vehicle_type_id":"4","last_reported":1683972379,"current_range_meters":29600,"station_id":"ce4bgnh2rcd13ifvqc0g","pricing_plan_id":"free"},{"bike_id":"b039b68e-71fd-44c7-9ee7-30bcd6be35c6","system_id":"levelo_inurba_marseille","lat":43.29573,"lon":5.367355,"is_reserved":false,"is_disabled":false,"rental_uris":{"android":"levelo://app?vid=b039b68e-71fd-44c7-9ee7-30bcd6be35c6","ios":"levelo://app?vid=b039b68e-71fd-44c7-9ee7-30bcd6be35c6"},"vehicle_type_id":"4","last_reported":1683972379,"current_range_meters":24400,"station_id":"ce4bgph2rcd13ifvqc2g","pricing_plan_id":"free"},{"bike_id":"3c118c0a-badd-4e31-bf4e-d984a9220087","system_id":"levelo_inurba_marseille","lat":43.29573,"lon":5.367355,"is_reserved":false,"is_disabled":false,"rental_uris":{"android":"levelo://app?vid=3c118c0a-badd-4e31-bf4e-d984a9220087","ios":"levelo://app?vid=3c118c0a-badd-4e31-bf4e-d984a9220087"},"vehicle_type_id":"4","last_reported":1683972379,"current_range_meters":21200,"station_id":"ce4bgph2rcd13ifvqc2g","pricing_plan_id":"free"},{"bike_id":"923caf47-178a-41ec-8cc6-69c63f43fb2b","system_id":"levelo_inurba_marseille","lat":43.296935,"lon":5.376544,"is_reserved":false,"is_disabled":false,"rental_uris":{"android":"levelo://app?vid=923caf47-178a-41ec-8cc6-69c63f43fb2b","ios":"levelo://app?vid=923caf47-178a-41ec-8cc6-69c63f43fb2b"},"vehicle_type_id":"4","last_reported":1683972379,"current_range_meters":31200,"station_id":"ce4bgkh2rcd13ifvqbl0","pricing_plan_id":"free"},{"bike_id":"e62a4019-15e5-4aa8-ac87-39c5d1aaa8ba","system_id":"levelo_inurba_marseille","lat":43.30006,"lon":5.38271,"is_reserved":false,"is_disabled":false,"rental_uris":{"android":"levelo://app?vid=e62a4019-15e5-4aa8-ac87-39c5d1aaa8ba","ios":"levelo://app?vid=e62a4019-15e5-4aa8-ac87-39c5d1aaa8ba"},"vehicle_type_id":"4","last_reported":1683972379,"current_range_meters":400,"station_id":"","pricing_plan_id":"free"},{"bike_id":"4575b7ac-e9a8-4cc0-a77a-7d893f503fcb","system_id":"levelo_inurba_marseille","lat":43.29716,"lon":5.37702,"is_reserved":false,"is_disabled":false,"rental_uris":{"android":"levelo://app?vid=4575b7ac-e9a8-4cc0-a77a-7d893f503fcb","ios":"levelo://app?vid=4575b7ac-e9a8-4cc0-a77a-7d893f503fcb"},"vehicle_type_id":"4","last_reported":1683972379,"current_range_meters":28800,"station_id":"","pricing_plan_id":"free"},{"bike_id":"900e7488-c86d-406b-a340-af590b19ce66","system_id":"levelo_inurba_marseille","lat":43.296921,"lon":5.376579,"is_reserved":false,"is_disabled":false,"rental_uris":{"android":"levelo://app?vid=900e7488-c86d-406b-a340-af590b19ce66","ios":"levelo://app?vid=900e7488-c86d-406b-a340-af590b19ce66"},"vehicle_type_id":"4","last_reported":1683972379,"current_range_meters":25600,"station_id":"ce4bgkh2rcd13ifvqbl0","pricing_plan_id":"free"},{"bike_id":"045c9b9e-8fa7-4671-b189-21b4e9560c0c","system_id":"levelo_inurba_marseille","lat":43.299028,"lon":5.381509,"is_reserved":false,"is_disabled":false,"rental_uris":{"android":"levelo://app?vid=045c9b9e-8fa7-4671-b189-21b4e9560c0c","ios":"levelo://app?vid=045c9b9e-8fa7-4671-b189-21b4e9560c0c"},"vehicle_type_id":"4","last_reported":1683972379,"current_range_meters":21600,"station_id":"ce4bgj12rcd13ifvqbc0","pricing_plan_id":"free"},{"bike_id":"067cffbc-c651-4098-8f77-789b83927572","system_id":"levelo_inurba_marseille","lat":43.299028,"lon":5.381509,"is_reserved":false,"is_disabled":false,"rental_uris":{"android":"levelo://app?vid=067cffbc-c651-4098-8f77-789b83927572","ios":"levelo://app?vid=067cffbc-c651-4098-8f77-789b83927572"},"vehicle_type_id":"4","last_reported":1683972379,"current_range_meters":28400,"station_id":"ce4bgj12rcd13ifvqbc0","pricing_plan_id":"free"},{"bike_id":"e5aac9f4-7bf8-4b66-83fb-360eab9a195a","system_id":"levelo_inurba_marseille","lat":43.309589,"lon":5.390258,"is_reserved":false,"is_disabled":false,"rental_uris":{"android":"levelo://app?vid=e5aac9f4-7bf8-4b66-83fb-360eab9a195a","ios":"levelo://app?vid=e5aac9f4-7bf8-4b66-83fb-360eab9a195a"},"vehicle_type_id":"4","last_reported":1683972379,"current_range_meters":26800,"station_id":"ce4bgup2rcd13ifvqco0","pricing_plan_id":"free"},{"bike_id":"316d6e8b-366e-4c80-b7c0-8f2d0f1dc835","system_id":"levelo_inurba_marseille","lat":43.30946,"lon":5.39057,"is_reserved":false,"is_disabled":false,"rental_uris":{"android":"levelo://app?vid=316d6e8b-366e-4c80-b7c0-8f2d0f1dc835","ios":"levelo://app?vid=316d6e8b-366e-4c80-b7c0-8f2d0f1dc835"},"vehicle_type_id":"4","last_reported":1683972379,"current_range_meters":31200,"station_id":"ce4bgup2rcd13ifvqco0","pricing_plan_id":"free"},{"bike_id":"7e101d88-7926-4513-a08a-b2a6fdb92c65","system_id":"levelo_inurba_marseille","lat":43.31761,"lon":5.39011,"is_reserved":false,"is_disabled":false,"rental_uris":{"android":"levelo://app?vid=7e101d88-7926-4513-a08a-b2a6fdb92c65","ios":"levelo://app?vid=7e101d88-7926-4513-a08a-b2a6fdb92c65"},"vehicle_type_id":"4","last_reported":1683972379,"current_range_meters":30000,"station_id":"ce4bhqp2rcd13ifvqhng","pricing_plan_id":"free"},{"bike_id":"2e4072c4-97ae-412f-891d-364f103e5e6c","system_id":"levelo_inurba_marseille","lat":43.31753,"lon":5.39015,"is_reserved":false,"is_disabled":false,"rental_uris":{"android":"levelo://app?vid=2e4072c4-97ae-412f-891d-364f103e5e6c","ios":"levelo://app?vid=2e4072c4-97ae-412f-891d-364f103e5e6c"},"vehicle_type_id":"4","last_reported":1683972379,"current_range_meters":18400,"station_id":"ce4bhqp2rcd13ifvqhng","pricing_plan_id":"free"},{"bike_id":"eb214527-8203-4410-a520-f2f2d1c67bb7","system_id":"levelo_inurba_marseille","lat":43.317557,"lon":5.390173,"is_reserved":false,"is_disabled":false,"rental_uris":{"android":"levelo://app?vid=eb214527-8203-4410-a520-f2f2d1c67bb7","ios":"levelo://app?vid=eb214527-8203-4410-a520-f2f2d1c67bb7"},"vehicle_type_id":"4","last_reported":1683972379,"current_range_meters":12400,"station_id":"ce4bhqp2rcd13ifvqhng","pricing_plan_id":"free"},{"bike_id":"8d249c4e-5841-43df-a8c1-1ee71a14ff90","system_id":"levelo_inurba_marseille","lat":43.31756,"lon":5.39016,"is_reserved":false,"is_disabled":false,"rental_uris":{"android":"levelo://app?vid=8d249c4e-5841-43df-a8c1-1ee71a14ff90","ios":"levelo://app?vid=8d249c4e-5841-43df-a8c1-1ee71a14ff90"},"vehicle_type_id":"4","last_reported":1683972379,"current_range_meters":30000,"station_id":"ce4bhqp2rcd13ifvqhng","pricing_plan_id":"free"},{"bike_id":"80b60f6f-28ee-4635-a30c-377c46bb9c86","system_id":"levelo_inurba_marseille","lat":43.317557,"lon":5.390173,"is_reserved":false,"is_disabled":false,"rental_uris":{"android":"levelo://app?vid=80b60f6f-28ee-4635-a30c-377c46bb9c86","ios":"levelo://app?vid=80b60f6f-28ee-4635-a30c-377c46bb9c86"},"vehicle_type_id":"4","last_reported":1683972379,"current_range_meters":17600,"station_id":"ce4bhqp2rcd13ifvqhng","pricing_plan_id":"free"},{"bike_id":"1b8e8455-d974-44bb-9a4e-7e7867c76231","system_id":"levelo_inurba_marseille","lat":43.31751,"lon":5.3902,"is_reserved":false,"is_disabled":false,"rental_uris":{"android":"levelo://app?vid=1b8e8455-d974-44bb-9a4e-7e7867c76231","ios":"levelo://app?vid=1b8e8455-d974-44bb-9a4e-7e7867c76231"},"vehicle_type_id":"4","last_reported":1683972379,"current_range_meters":18400,"station_id":"ce4bhqp2rcd13ifvqhng","pricing_plan_id":"free"},{"bike_id":"0c9b564c-a960-4c50-857b-4578b4a2e124","system_id":"levelo_inurba_marseille","lat":43.31757,"lon":5.39018,"is_reserved":false,"is_disabled":false,"rental_uris":{"android":"levelo://app?vid=0c9b564c-a960-4c50-857b-4578b4a2e124","ios":"levelo://app?vid=0c9b564c-a960-4c50-857b-4578b4a2e124"},"vehicle_type_id":"4","last_reported":1683972379,"current_range_meters":16400,"station_id":"ce4bhqp2rcd13ifvqhng","pricing_plan_id":"free"},{"bike_id":"ebb64d41-4b06-49bb-a55c-b83574a6111f","system_id":"levelo_inurba_marseille","lat":43.317557,"lon":5.390173,"is_reserved":false,"is_disabled":false,"rental_uris":{"android":"levelo://app?vid=ebb64d41-4b06-49bb-a55c-b83574a6111f","ios":"levelo://app?vid=ebb64d41-4b06-49bb-a55c-b83574a6111f"},"vehicle_type_id":"4","last_reported":1683972379,"current_range_meters":31200,"station_id":"ce4bhqp2rcd13ifvqhng","pricing_plan_id":"free"},{"bike_id":"a1c564bc-7833-41f9-a7ef-52015e433698","system_id":"levelo_inurba_marseille","lat":43.317557,"lon":5.390173,"is_reserved":false,"is_disabled":false,"rental_uris":{"android":"levelo://app?vid=a1c564bc-7833-41f9-a7ef-52015e433698","ios":"levelo://app?vid=a1c564bc-7833-41f9-a7ef-52015e433698"},"vehicle_type_id":"4","last_reported":1683972379,"current_range_meters":31200,"station_id":"ce4bhqp2rcd13ifvqhng","pricing_plan_id":"free"},{"bike_id":"01208a13-824a-4a94-be8d-2a48a5b6b683","system_id":"levelo_inurba_marseille","lat":43.317557,"lon":5.390173,"is_reserved":false,"is_disabled":false,"rental_uris":{"android":"levelo://app?vid=01208a13-824a-4a94-be8d-2a48a5b6b683","ios":"levelo://app?vid=01208a13-824a-4a94-be8d-2a48a5b6b683"},"vehicle_type_id":"4","last_reported":1683972379,"current_range_meters":30800,"station_id":"ce4bhqp2rcd13ifvqhng","pricing_plan_id":"free"},{"bike_id":"1fda51dc-acb8-4daa-b746-7e5e3f6185cc","system_id":"levelo_inurba_marseille","lat":43.317557,"lon":5.390173,"is_reserved":false,"is_disabled":false,"rental_uris":{"android":"levelo://app?vid=1fda51dc-acb8-4daa-b746-7e5e3f6185cc","ios":"levelo://app?vid=1fda51dc-acb8-4daa-b746-7e5e3f6185cc"},"vehicle_type_id":"4","last_reported":1683972379,"current_range_meters":31200,"station_id":"ce4bhqp2rcd13ifvqhng","pricing_plan_id":"free"},{"bike_id":"365ac165-9ca8-49ef-910d-07364fc9a104","system_id":"levelo_inurba_marseille","lat":43.298037,"lon":5.381066,"is_reserved":false,"is_disabled":false,"rental_uris":{"android":"levelo://app?vid=365ac165-9ca8-49ef-910d-07364fc9a104","ios":"levelo://app?vid=365ac165-9ca8-49ef-910d-07364fc9a104"},"vehicle_type_id":"4","last_reported":1683972379,"current_range_meters":31200,"station_id":"ce4bgip2rcd13ifvqbb0","pricing_plan_id":"free"},{"bike_id":"b84e4771-0a58-4dbc-a22e-e2bed567fc26","system_id":"levelo_inurba_marseille","lat":43.298037,"lon":5.381066,"is_reserved":false,"is_disabled":false,"rental_uris":{"android":"levelo://app?vid=b84e4771-0a58-4dbc-a22e-e2bed567fc26","ios":"levelo://app?vid=b84e4771-0a58-4dbc-a22e-e2bed567fc26"},"vehicle_type_id":"4","last_reported":1683972379,"current_range_meters":28800,"station_id":"ce4bgip2rcd13ifvqbb0","pricing_plan_id":"free"},{"bike_id":"9a1266e1-7f83-4fd8-bded-ddce5176bb36","system_id":"levelo_inurba_marseille","lat":43.298037,"lon":5.381066,"is_reserved":false,"is_disabled":false,"rental_uris":{"android":"levelo://app?vid=9a1266e1-7f83-4fd8-bded-ddce5176bb36","ios":"levelo://app?vid=9a1266e1-7f83-4fd8-bded-ddce5176bb36"},"vehicle_type_id":"4","last_reported":1683972379,"current_range_meters":28000,"station_id":"ce4bgip2rcd13ifvqbb0","pricing_plan_id":"free"},{"bike_id":"2467f5a6-40fb-4e98-b640-742f6f697862","system_id":"levelo_inurba_marseille","lat":43.298037,"lon":5.381066,"is_reserved":false,"is_disabled":false,"rental_uris":{"android":"levelo://app?vid=2467f5a6-40fb-4e98-b640-742f6f697862","ios":"levelo://app?vid=2467f5a6-40fb-4e98-b640-742f6f697862"},"vehicle_type_id":"4","last_reported":1683972379,"current_range_meters":27600,"station_id":"ce4bgip2rcd13ifvqbb0","pricing_plan_id":"free"},{"bike_id":"fada3c0c-3338-4c4f-9e02-137314a02e29","system_id":"levelo_inurba_marseille","lat":43.298037,"lon":5.381066,"is_reserved":false,"is_disabled":false,"rental_uris":{"android":"levelo://app?vid=fada3c0c-3338-4c4f-9e02-137314a02e29","ios":"levelo://app?vid=fada3c0c-3338-4c4f-9e02-137314a02e29"},"vehicle_type_id":"4","last_reported":1683972379,"current_range_meters":26400,"station_id":"ce4bgip2rcd13ifvqbb0","pricing_plan_id":"free"},{"bike_id":"9a8f4c95-ba30-49ff-9ce9-5c6c5f83fb12","system_id":"levelo_inurba_marseille","lat":43.29807,"lon":5.381016,"is_reserved":false,"is_disabled":false,"rental_uris":{"android":"levelo://app?vid=9a8f4c95-ba30-49ff-9ce9-5c6c5f83fb12","ios":"levelo://app?vid=9a8f4c95-ba30-49ff-9ce9-5c6c5f83fb12"},"vehicle_type_id":"4","last_reported":1683972379,"current_range_meters":26000,"station_id":"","pricing_plan_id":"free"},{"bike_id":"cc648482-bfc0-4d88-bc5b-3e771f49f350","system_id":"levelo_inurba_marseille","lat":43.298037,"lon":5.381066,"is_reserved":false,"is_disabled":false,"rental_uris":{"android":"levelo://app?vid=cc648482-bfc0-4d88-bc5b-3e771f49f350","ios":"levelo://app?vid=cc648482-bfc0-4d88-bc5b-3e771f49f350"},"vehicle_type_id":"4","last_reported":1683972379,"current_range_meters":31600,"station_id":"ce4bgip2rcd13ifvqbb0","pricing_plan_id":"free"},{"bike_id":"9be31a47-feae-446f-9726-0edbe80b9143","system_id":"levelo_inurba_marseille","lat":43.298037,"lon":5.381066,"is_reserved":false,"is_disabled":false,"rental_uris":{"android":"levelo://app?vid=9be31a47-feae-446f-9726-0edbe80b9143","ios":"levelo://app?vid=9be31a47-feae-446f-9726-0edbe80b9143"},"vehicle_type_id":"4","last_reported":1683972379,"current_range_meters":31600,"station_id":"ce4bgip2rcd13ifvqbb0","pricing_plan_id":"free"},{"bike_id":"291aa194-49a8-4465-809a-3d7a84efde78","system_id":"levelo_inurba_marseille","lat":43.295748,"lon":5.37522,"is_reserved":false,"is_disabled":false,"rental_uris":{"android":"levelo://app?vid=291aa194-49a8-4465-809a-3d7a84efde78","ios":"levelo://app?vid=291aa194-49a8-4465-809a-3d7a84efde78"},"vehicle_type_id":"4","last_reported":1683972379,"current_range_meters":31200,"station_id":"ce4bgh92rcd13ifvqb50","pricing_plan_id":"free"},{"bike_id":"7e438a4c-bcb8-4396-9779-ce99870755b6","system_id":"levelo_inurba_marseille","lat":43.295748,"lon":5.37522,"is_reserved":false,"is_disabled":false,"rental_uris":{"android":"levelo://app?vid=7e438a4c-bcb8-4396-9779-ce99870755b6","ios":"levelo://app?vid=7e438a4c-bcb8-4396-9779-ce99870755b6"},"vehicle_type_id":"4","last_reported":1683972379,"current_range_meters":20400,"station_id":"ce4bgh92rcd13ifvqb50","pricing_plan_id":"free"},{"bike_id":"7e0c7a5c-0c07-4d93-bbed-dfc49dd25cc0","system_id":"levelo_inurba_marseille","lat":43.295748,"lon":5.37522,"is_reserved":false,"is_disabled":false,"rental_uris":{"android":"levelo://app?vid=7e0c7a5c-0c07-4d93-bbed-dfc49dd25cc0","ios":"levelo://app?vid=7e0c7a5c-0c07-4d93-bbed-dfc49dd25cc0"},"vehicle_type_id":"4","last_reported":1683972379,"current_range_meters":31600,"station_id":"ce4bgh92rcd13ifvqb50","pricing_plan_id":"free"},{"bike_id":"d4d6abed-d344-4940-9631-3cc0352bd86c","system_id":"levelo_inurba_marseille","lat":43.29785,"lon":5.38087,"is_reserved":false,"is_disabled":false,"rental_uris":{"android":"levelo://app?vid=d4d6abed-d344-4940-9631-3cc0352bd86c","ios":"levelo://app?vid=d4d6abed-d344-4940-9631-3cc0352bd86c"},"vehicle_type_id":"4","last_reported":1683972379,"current_range_meters":5600,"station_id":"ce4bgip2rcd13ifvqbb0","pricing_plan_id":"free"},{"bike_id":"b803ca40-83b5-4d63-b910-92d76c2131f4","system_id":"levelo_inurba_marseille","lat":43.304278,"lon":5.388868,"is_reserved":false,"is_disabled":false,"rental_uris":{"android":"levelo://app?vid=b803ca40-83b5-4d63-b910-92d76c2131f4","ios":"levelo://app?vid=b803ca40-83b5-4d63-b910-92d76c2131f4"},"vehicle_type_id":"4","last_reported":1683972379,"current_range_meters":0,"station_id":"ce4bgk12rcd13ifvqbi0","pricing_plan_id":"free"},{"bike_id":"49034e4f-8ca8-4639-aafa-11e11b46b540","system_id":"levelo_inurba_marseille","lat":43.29573,"lon":5.37517,"is_reserved":false,"is_disabled":false,"rental_uris":{"android":"levelo://app?vid=49034e4f-8ca8-4639-aafa-11e11b46b540","ios":"levelo://app?vid=49034e4f-8ca8-4639-aafa-11e11b46b540"},"vehicle_type_id":"4","last_reported":1683972379,"current_range_meters":18400,"station_id":"ce4bgh92rcd13ifvqb50","pricing_plan_id":"free"},{"bike_id":"fa1fd47a-05c9-4bfc-a5e1-8ab6b3a65edc","system_id":"levelo_inurba_marseille","lat":43.29571,"lon":5.37515,"is_reserved":false,"is_disabled":false,"rental_uris":{"android":"levelo://app?vid=fa1fd47a-05c9-4bfc-a5e1-8ab6b3a65edc","ios":"levelo://app?vid=fa1fd47a-05c9-4bfc-a5e1-8ab6b3a65edc"},"vehicle_type_id":"4","last_reported":1683972379,"current_range_meters":3600,"station_id":"ce4bgh92rcd13ifvqb50","pricing_plan_id":"free"},{"bike_id":"48d6d2b8-c3e8-4271-9cba-3177c6d8fec8","system_id":"levelo_inurba_marseille","lat":43.29788,"lon":5.38101,"is_reserved":false,"is_disabled":false,"rental_uris":{"android":"levelo://app?vid=48d6d2b8-c3e8-4271-9cba-3177c6d8fec8","ios":"levelo://app?vid=48d6d2b8-c3e8-4271-9cba-3177c6d8fec8"},"vehicle_type_id":"4","last_reported":1683972379,"current_range_meters":26800,"station_id":"ce4bgip2rcd13ifvqbb0","pricing_plan_id":"free"},{"bike_id":"bdb9da33-352e-43fb-be75-a6e3afc205a8","system_id":"levelo_inurba_marseille","lat":43.295748,"lon":5.37522,"is_reserved":false,"is_disabled":false,"rental_uris":{"android":"levelo://app?vid=bdb9da33-352e-43fb-be75-a6e3afc205a8","ios":"levelo://app?vid=bdb9da33-352e-43fb-be75-a6e3afc205a8"},"vehicle_type_id":"4","last_reported":1683972379,"current_range_meters":25200,"station_id":"ce4bgh92rcd13ifvqb50","pricing_plan_id":"free"},{"bike_id":"2abf43cd-cf6e-43a8-a699-92badcea8054","system_id":"levelo_inurba_marseille","lat":43.295748,"lon":5.37522,"is_reserved":false,"is_disabled":false,"rental_uris":{"android":"levelo://app?vid=2abf43cd-cf6e-43a8-a699-92badcea8054","ios":"levelo://app?vid=2abf43cd-cf6e-43a8-a699-92badcea8054"},"vehicle_type_id":"4","last_reported":1683972379,"current_range_meters":26000,"station_id":"ce4bgh92rcd13ifvqb50","pricing_plan_id":"free"},{"bike_id":"896f2c39-8017-4ea9-b0de-4e26784a89b7","system_id":"levelo_inurba_marseille","lat":43.29569,"lon":5.37512,"is_reserved":false,"is_disabled":false,"rental_uris":{"android":"levelo://app?vid=896f2c39-8017-4ea9-b0de-4e26784a89b7","ios":"levelo://app?vid=896f2c39-8017-4ea9-b0de-4e26784a89b7"},"vehicle_type_id":"4","last_reported":1683972379,"current_range_meters":29200,"station_id":"ce4bgh92rcd13ifvqb50","pricing_plan_id":"free"},{"bike_id":"78391e36-6134-42bf-aee3-4b52a8a27141","system_id":"levelo_inurba_marseille","lat":43.295952,"lon":5.3761,"is_reserved":false,"is_disabled":false,"rental_uris":{"android":"levelo://app?vid=78391e36-6134-42bf-aee3-4b52a8a27141","ios":"levelo://app?vid=78391e36-6134-42bf-aee3-4b52a8a27141"},"vehicle_type_id":"4","last_reported":1683972379,"current_range_meters":23600,"station_id":"ce4bhh12rcd13ifvqfg0","pricing_plan_id":"free"},{"bike_id":"820d2e83-f2f3-486d-a8a6-2a13b43167fd","system_id":"levelo_inurba_marseille","lat":43.29569,"lon":5.37515,"is_reserved":false,"is_disabled":false,"rental_uris":{"android":"levelo://app?vid=820d2e83-f2f3-486d-a8a6-2a13b43167fd","ios":"levelo://app?vid=820d2e83-f2f3-486d-a8a6-2a13b43167fd"},"vehicle_type_id":"4","last_reported":1683972379,"current_range_meters":28800,"station_id":"ce4bgh92rcd13ifvqb50","pricing_plan_id":"free"},{"bike_id":"ecec310a-dda5-4c66-8193-23b078b1d690","system_id":"levelo_inurba_marseille","lat":43.304274,"lon":5.388873,"is_reserved":false,"is_disabled":false,"rental_uris":{"android":"levelo://app?vid=ecec310a-dda5-4c66-8193-23b078b1d690","ios":"levelo://app?vid=ecec310a-dda5-4c66-8193-23b078b1d690"},"vehicle_type_id":"4","last_reported":1683972379,"current_range_meters":24800,"station_id":"ce4bgk12rcd13ifvqbi0","pricing_plan_id":"free"},{"bike_id":"84e745b6-8978-44e1-9a14-9d53f97b2bcf","system_id":"levelo_inurba_marseille","lat":43.2979,"lon":5.38113,"is_reserved":false,"is_disabled":false,"rental_uris":{"android":"levelo://app?vid=84e745b6-8978-44e1-9a14-9d53f97b2bcf","ios":"levelo://app?vid=84e745b6-8978-44e1-9a14-9d53f97b2bcf"},"vehicle_type_id":"4","last_reported":1683972379,"current_range_meters":15200,"station_id":"ce4bgip2rcd13ifvqbb0","pricing_plan_id":"free"},{"bike_id":"a5b1bdd9-dd6e-4158-aea7-5a66d2e4a970","system_id":"levelo_inurba_marseille","lat":43.295748,"lon":5.37522,"is_reserved":false,"is_disabled":false,"rental_uris":{"android":"levelo://app?vid=a5b1bdd9-dd6e-4158-aea7-5a66d2e4a970","ios":"levelo://app?vid=a5b1bdd9-dd6e-4158-aea7-5a66d2e4a970"},"vehicle_type_id":"4","last_reported":1683972379,"current_range_meters":28800,"station_id":"ce4bgh92rcd13ifvqb50","pricing_plan_id":"free"},{"bike_id":"9f40f0a2-6f9e-442b-b585-6ac9cc86a57c","system_id":"levelo_inurba_marseille","lat":43.304278,"lon":5.388868,"is_reserved":false,"is_disabled":false,"rental_uris":{"android":"levelo://app?vid=9f40f0a2-6f9e-442b-b585-6ac9cc86a57c","ios":"levelo://app?vid=9f40f0a2-6f9e-442b-b585-6ac9cc86a57c"},"vehicle_type_id":"4","last_reported":1683972379,"current_range_meters":18400,"station_id":"ce4bgk12rcd13ifvqbi0","pricing_plan_id":"free"},{"bike_id":"e03fb3b3-3b17-44e3-a6c7-80f72203e119","system_id":"levelo_inurba_marseille","lat":43.29789,"lon":5.38115,"is_reserved":false,"is_disabled":false,"rental_uris":{"android":"levelo://app?vid=e03fb3b3-3b17-44e3-a6c7-80f72203e119","ios":"levelo://app?vid=e03fb3b3-3b17-44e3-a6c7-80f72203e119"},"vehicle_type_id":"4","last_reported":1683972379,"current_range_meters":29200,"station_id":"ce4bgip2rcd13ifvqbb0","pricing_plan_id":"free"},{"bike_id":"bf0ce62a-95b1-43f0-86a1-d1f6f901cad2","system_id":"levelo_inurba_marseille","lat":43.295748,"lon":5.37522,"is_reserved":false,"is_disabled":false,"rental_uris":{"android":"levelo://app?vid=bf0ce62a-95b1-43f0-86a1-d1f6f901cad2","ios":"levelo://app?vid=bf0ce62a-95b1-43f0-86a1-d1f6f901cad2"},"vehicle_type_id":"4","last_reported":1683972379,"current_range_meters":23200,"station_id":"ce4bgh92rcd13ifvqb50","pricing_plan_id":"free"},{"bike_id":"397fb1c0-118d-4071-a1aa-999b9ee71aa3","system_id":"levelo_inurba_marseille","lat":43.29565,"lon":5.37521,"is_reserved":false,"is_disabled":false,"rental_uris":{"android":"levelo://app?vid=397fb1c0-118d-4071-a1aa-999b9ee71aa3","ios":"levelo://app?vid=397fb1c0-118d-4071-a1aa-999b9ee71aa3"},"vehicle_type_id":"4","last_reported":1683972379,"current_range_meters":27200,"station_id":"ce4bgh92rcd13ifvqb50","pricing_plan_id":"free"},{"bike_id":"3bb95e05-1eba-4cce-9c5c-0898f9b3ce77","system_id":"levelo_inurba_marseille","lat":43.304278,"lon":5.388868,"is_reserved":false,"is_disabled":false,"rental_uris":{"android":"levelo://app?vid=3bb95e05-1eba-4cce-9c5c-0898f9b3ce77","ios":"levelo://app?vid=3bb95e05-1eba-4cce-9c5c-0898f9b3ce77"},"vehicle_type_id":"4","last_reported":1683972379,"current_range_meters":19200,"station_id":"ce4bgk12rcd13ifvqbi0","pricing_plan_id":"free"},{"bike_id":"e25d9ec1-86b0-4790-9af8-7837c3f07c91","system_id":"levelo_inurba_marseille","lat":43.296263,"lon":5.377094,"is_reserved":false,"is_disabled":false,"rental_uris":{"android":"levelo://app?vid=e25d9ec1-86b0-4790-9af8-7837c3f07c91","ios":"levelo://app?vid=e25d9ec1-86b0-4790-9af8-7837c3f07c91"},"vehicle_type_id":"4","last_reported":1683972379,"current_range_meters":31200,"station_id":"ce4bgi92rcd13ifvqb90","pricing_plan_id":"free"},{"bike_id":"03ede4d4-5bd7-45a3-9e48-c70949c4c9ff","system_id":"levelo_inurba_marseille","lat":43.304274,"lon":5.388873,"is_reserved":false,"is_disabled":false,"rental_uris":{"android":"levelo://app?vid=03ede4d4-5bd7-45a3-9e48-c70949c4c9ff","ios":"levelo://app?vid=03ede4d4-5bd7-45a3-9e48-c70949c4c9ff"},"vehicle_type_id":"4","last_reported":1683972379,"current_range_meters":0,"station_id":"ce4bgk12rcd13ifvqbi0","pricing_plan_id":"free"},{"bike_id":"5c725c06-4210-4afa-81ad-25e34ea59def","system_id":"levelo_inurba_marseille","lat":43.29616,"lon":5.37718,"is_reserved":false,"is_disabled":false,"rental_uris":{"android":"levelo://app?vid=5c725c06-4210-4afa-81ad-25e34ea59def","ios":"levelo://app?vid=5c725c06-4210-4afa-81ad-25e34ea59def"},"vehicle_type_id":"4","last_reported":1683972379,"current_range_meters":31200,"station_id":"ce4bgi92rcd13ifvqb90","pricing_plan_id":"free"},{"bike_id":"a0c63549-f8b4-4350-a3ac-d58780044177","system_id":"levelo_inurba_marseille","lat":43.296277,"lon":5.377108,"is_reserved":false,"is_disabled":false,"rental_uris":{"android":"levelo://app?vid=a0c63549-f8b4-4350-a3ac-d58780044177","ios":"levelo://app?vid=a0c63549-f8b4-4350-a3ac-d58780044177"},"vehicle_type_id":"4","last_reported":1683972379,"current_range_meters":31200,"station_id":"ce4bgi92rcd13ifvqb90","pricing_plan_id":"free"},{"bike_id":"2813d3d3-8a9e-45f7-9f59-25f56b4da41c","system_id":"levelo_inurba_marseille","lat":43.29611,"lon":5.37725,"is_reserved":false,"is_disabled":false,"rental_uris":{"android":"levelo://app?vid=2813d3d3-8a9e-45f7-9f59-25f56b4da41c","ios":"levelo://app?vid=2813d3d3-8a9e-45f7-9f59-25f56b4da41c"},"vehicle_type_id":"4","last_reported":1683972379,"current_range_meters":31200,"station_id":"ce4bgi92rcd13ifvqb90","pricing_plan_id":"free"},{"bike_id":"1f40def6-3141-44e5-971d-b88ee6ff7977","system_id":"levelo_inurba_marseille","lat":43.29612,"lon":5.37729,"is_reserved":false,"is_disabled":false,"rental_uris":{"android":"levelo://app?vid=1f40def6-3141-44e5-971d-b88ee6ff7977","ios":"levelo://app?vid=1f40def6-3141-44e5-971d-b88ee6ff7977"},"vehicle_type_id":"4","last_reported":1683972379,"current_range_meters":30000,"station_id":"ce4bgi92rcd13ifvqb90","pricing_plan_id":"free"},{"bike_id":"94a0f1f4-3902-4b17-92b0-e2f749325968","system_id":"levelo_inurba_marseille","lat":43.296277,"lon":5.377108,"is_reserved":false,"is_disabled":false,"rental_uris":{"android":"levelo://app?vid=94a0f1f4-3902-4b17-92b0-e2f749325968","ios":"levelo://app?vid=94a0f1f4-3902-4b17-92b0-e2f749325968"},"vehicle_type_id":"4","last_reported":1683972379,"current_range_meters":31200,"station_id":"ce4bgi92rcd13ifvqb90","pricing_plan_id":"free"},{"bike_id":"4853a39c-005f-4578-92f1-561da5b3d294","system_id":"levelo_inurba_marseille","lat":43.29606,"lon":5.37722,"is_reserved":false,"is_disabled":false,"rental_uris":{"android":"levelo://app?vid=4853a39c-005f-4578-92f1-561da5b3d294","ios":"levelo://app?vid=4853a39c-005f-4578-92f1-561da5b3d294"},"vehicle_type_id":"4","last_reported":1683972379,"current_range_meters":24800,"station_id":"ce4bgi92rcd13ifvqb90","pricing_plan_id":"free"},{"bike_id":"e3ae861a-53b0-4f46-84a7-63822a382315","system_id":"levelo_inurba_marseille","lat":43.29609,"lon":5.37732,"is_reserved":false,"is_disabled":false,"rental_uris":{"android":"levelo://app?vid=e3ae861a-53b0-4f46-84a7-63822a382315","ios":"levelo://app?vid=e3ae861a-53b0-4f46-84a7-63822a382315"},"vehicle_type_id":"4","last_reported":1683972379,"current_range_meters":21200,"station_id":"ce4bgi92rcd13ifvqb90","pricing_plan_id":"free"},{"bike_id":"23588d64-2ba3-400a-af9f-1198128b2445","system_id":"levelo_inurba_marseille","lat":43.29603,"lon":5.37716,"is_reserved":false,"is_disabled":false,"rental_uris":{"android":"levelo://app?vid=23588d64-2ba3-400a-af9f-1198128b2445","ios":"levelo://app?vid=23588d64-2ba3-400a-af9f-1198128b2445"},"vehicle_type_id":"4","last_reported":1683972379,"current_range_meters":18400,"station_id":"","pricing_plan_id":"free"},{"bike_id":"d5ca1229-e224-48d4-a09a-822036e7f494","system_id":"levelo_inurba_marseille","lat":43.295279,"lon":5.375048,"is_reserved":false,"is_disabled":false,"rental_uris":{"android":"levelo://app?vid=d5ca1229-e224-48d4-a09a-822036e7f494","ios":"levelo://app?vid=d5ca1229-e224-48d4-a09a-822036e7f494"},"vehicle_type_id":"4","last_reported":1683972379,"current_range_meters":31200,"station_id":"ce4bgkp2rcd13ifvqbmg","pricing_plan_id":"free"},{"bike_id":"d210fa24-3fba-45fe-8554-c073d037a698","system_id":"levelo_inurba_marseille","lat":43.299717,"lon":5.384845,"is_reserved":false,"is_disabled":false,"rental_uris":{"android":"levelo://app?vid=d210fa24-3fba-45fe-8554-c073d037a698","ios":"levelo://app?vid=d210fa24-3fba-45fe-8554-c073d037a698"},"vehicle_type_id":"4","last_reported":1683972379,"current_range_meters":27200,"station_id":"ce4bgj92rcd13ifvqbd0","pricing_plan_id":"free"},{"bike_id":"e1cacc5f-a7f9-43a0-9b86-887fcdfbf7c6","system_id":"levelo_inurba_marseille","lat":43.299717,"lon":5.384845,"is_reserved":false,"is_disabled":false,"rental_uris":{"android":"levelo://app?vid=e1cacc5f-a7f9-43a0-9b86-887fcdfbf7c6","ios":"levelo://app?vid=e1cacc5f-a7f9-43a0-9b86-887fcdfbf7c6"},"vehicle_type_id":"4","last_reported":1683972379,"current_range_meters":24400,"station_id":"ce4bgj92rcd13ifvqbd0","pricing_plan_id":"free"},{"bike_id":"508cd4a9-75bb-46a7-8225-c9b3768e5329","system_id":"levelo_inurba_marseille","lat":43.295279,"lon":5.375048,"is_reserved":false,"is_disabled":false,"rental_uris":{"android":"levelo://app?vid=508cd4a9-75bb-46a7-8225-c9b3768e5329","ios":"levelo://app?vid=508cd4a9-75bb-46a7-8225-c9b3768e5329"},"vehicle_type_id":"4","last_reported":1683972379,"current_range_meters":24800,"station_id":"ce4bgkp2rcd13ifvqbmg","pricing_plan_id":"free"},{"bike_id":"f67e485d-f8b2-44a7-8c8b-4f53a7ffc871","system_id":"levelo_inurba_marseille","lat":43.295279,"lon":5.375048,"is_reserved":false,"is_disabled":false,"rental_uris":{"android":"levelo://app?vid=f67e485d-f8b2-44a7-8c8b-4f53a7ffc871","ios":"levelo://app?vid=f67e485d-f8b2-44a7-8c8b-4f53a7ffc871"},"vehicle_type_id":"4","last_reported":1683972379,"current_range_meters":31200,"station_id":"ce4bgkp2rcd13ifvqbmg","pricing_plan_id":"free"},{"bike_id":"e5cf1103-d9ef-4a82-83da-03921209dde5","system_id":"levelo_inurba_marseille","lat":43.295279,"lon":5.375048,"is_reserved":false,"is_disabled":false,"rental_uris":{"android":"levelo://app?vid=e5cf1103-d9ef-4a82-83da-03921209dde5","ios":"levelo://app?vid=e5cf1103-d9ef-4a82-83da-03921209dde5"},"vehicle_type_id":"4","last_reported":1683972379,"current_range_meters":30400,"station_id":"ce4bgkp2rcd13ifvqbmg","pricing_plan_id":"free"},{"bike_id":"269c3e81-9abe-42ae-91be-299ae3974219","system_id":"levelo_inurba_marseille","lat":43.295279,"lon":5.375048,"is_reserved":false,"is_disabled":false,"rental_uris":{"android":"levelo://app?vid=269c3e81-9abe-42ae-91be-299ae3974219","ios":"levelo://app?vid=269c3e81-9abe-42ae-91be-299ae3974219"},"vehicle_type_id":"4","last_reported":1683972379,"current_range_meters":31600,"station_id":"ce4bgkp2rcd13ifvqbmg","pricing_plan_id":"free"},{"bike_id":"69438af9-ae0c-4fdb-ac1f-ecf14b265409","system_id":"levelo_inurba_marseille","lat":43.295279,"lon":5.375048,"is_reserved":false,"is_disabled":false,"rental_uris":{"android":"levelo://app?vid=69438af9-ae0c-4fdb-ac1f-ecf14b265409","ios":"levelo://app?vid=69438af9-ae0c-4fdb-ac1f-ecf14b265409"},"vehicle_type_id":"4","last_reported":1683972379,"current_range_meters":0,"station_id":"ce4bgkp2rcd13ifvqbmg","pricing_plan_id":"free"},{"bike_id":"b1df7b7d-d06d-4cfe-acb6-c2ce0bfbd32d","system_id":"levelo_inurba_marseille","lat":43.295279,"lon":5.375048,"is_reserved":false,"is_disabled":false,"rental_uris":{"android":"levelo://app?vid=b1df7b7d-d06d-4cfe-acb6-c2ce0bfbd32d","ios":"levelo://app?vid=b1df7b7d-d06d-4cfe-acb6-c2ce0bfbd32d"},"vehicle_type_id":"4","last_reported":1683972379,"current_range_meters":28800,"station_id":"ce4bgkp2rcd13ifvqbmg","pricing_plan_id":"free"},{"bike_id":"d72c55ca-9f53-48b5-ab8c-b907d0e58f3a","system_id":"levelo_inurba_marseille","lat":43.295279,"lon":5.375048,"is_reserved":false,"is_disabled":false,"rental_uris":{"android":"levelo://app?vid=d72c55ca-9f53-48b5-ab8c-b907d0e58f3a","ios":"levelo://app?vid=d72c55ca-9f53-48b5-ab8c-b907d0e58f3a"},"vehicle_type_id":"4","last_reported":1683972379,"current_range_meters":28800,"station_id":"ce4bgkp2rcd13ifvqbmg","pricing_plan_id":"free"},{"bike_id":"6bac3cf8-a60d-4902-b089-3bf2e5f01c40","system_id":"levelo_inurba_marseille","lat":43.295279,"lon":5.375048,"is_reserved":false,"is_disabled":false,"rental_uris":{"android":"levelo://app?vid=6bac3cf8-a60d-4902-b089-3bf2e5f01c40","ios":"levelo://app?vid=6bac3cf8-a60d-4902-b089-3bf2e5f01c40"},"vehicle_type_id":"4","last_reported":1683972379,"current_range_meters":28800,"station_id":"ce4bgkp2rcd13ifvqbmg","pricing_plan_id":"free"},{"bike_id":"7a529c66-c97f-4d77-93c8-72d10d1fb089","system_id":"levelo_inurba_marseille","lat":43.295279,"lon":5.375048,"is_reserved":false,"is_disabled":false,"rental_uris":{"android":"levelo://app?vid=7a529c66-c97f-4d77-93c8-72d10d1fb089","ios":"levelo://app?vid=7a529c66-c97f-4d77-93c8-72d10d1fb089"},"vehicle_type_id":"4","last_reported":1683972379,"current_range_meters":25200,"station_id":"ce4bgkp2rcd13ifvqbmg","pricing_plan_id":"free"},{"bike_id":"773e813f-a004-44c0-87b7-b0e9f9496ac5","system_id":"levelo_inurba_marseille","lat":43.295279,"lon":5.375048,"is_reserved":false,"is_disabled":false,"rental_uris":{"android":"levelo://app?vid=773e813f-a004-44c0-87b7-b0e9f9496ac5","ios":"levelo://app?vid=773e813f-a004-44c0-87b7-b0e9f9496ac5"},"vehicle_type_id":"4","last_reported":1683972379,"current_range_meters":27200,"station_id":"ce4bgkp2rcd13ifvqbmg","pricing_plan_id":"free"},{"bike_id":"cc50c958-ba33-4085-9de8-8ab1c1eb820c","system_id":"levelo_inurba_marseille","lat":43.295279,"lon":5.375048,"is_reserved":false,"is_disabled":false,"rental_uris":{"android":"levelo://app?vid=cc50c958-ba33-4085-9de8-8ab1c1eb820c","ios":"levelo://app?vid=cc50c958-ba33-4085-9de8-8ab1c1eb820c"},"vehicle_type_id":"4","last_reported":1683972379,"current_range_meters":31200,"station_id":"ce4bgkp2rcd13ifvqbmg","pricing_plan_id":"free"},{"bike_id":"99c9f3e1-5f74-43fb-9f5c-36cd944e6dda","system_id":"levelo_inurba_marseille","lat":43.295279,"lon":5.375048,"is_reserved":false,"is_disabled":false,"rental_uris":{"android":"levelo://app?vid=99c9f3e1-5f74-43fb-9f5c-36cd944e6dda","ios":"levelo://app?vid=99c9f3e1-5f74-43fb-9f5c-36cd944e6dda"},"vehicle_type_id":"4","last_reported":1683972379,"current_range_meters":31200,"station_id":"ce4bgkp2rcd13ifvqbmg","pricing_plan_id":"free"},{"bike_id":"72c5c490-100c-4eba-80a7-d2504d382563","system_id":"levelo_inurba_marseille","lat":43.295279,"lon":5.375048,"is_reserved":false,"is_disabled":false,"rental_uris":{"android":"levelo://app?vid=72c5c490-100c-4eba-80a7-d2504d382563","ios":"levelo://app?vid=72c5c490-100c-4eba-80a7-d2504d382563"},"vehicle_type_id":"4","last_reported":1683972379,"current_range_meters":29200,"station_id":"ce4bgkp2rcd13ifvqbmg","pricing_plan_id":"free"},{"bike_id":"98d43089-ff1e-40ee-a123-f18e174ce1c4","system_id":"levelo_inurba_marseille","lat":43.31446,"lon":5.39275,"is_reserved":false,"is_disabled":false,"rental_uris":{"android":"levelo://app?vid=98d43089-ff1e-40ee-a123-f18e174ce1c4","ios":"levelo://app?vid=98d43089-ff1e-40ee-a123-f18e174ce1c4"},"vehicle_type_id":"4","last_reported":1683972379,"current_range_meters":4400,"station_id":"","pricing_plan_id":"free"},{"bike_id":"6f6b02ce-a50b-443a-a31d-aed834771e7b","system_id":"levelo_inurba_marseille","lat":43.31442,"lon":5.39285,"is_reserved":false,"is_disabled":false,"rental_uris":{"android":"levelo://app?vid=6f6b02ce-a50b-443a-a31d-aed834771e7b","ios":"levelo://app?vid=6f6b02ce-a50b-443a-a31d-aed834771e7b"},"vehicle_type_id":"4","last_reported":1683972379,"current_range_meters":6400,"station_id":"","pricing_plan_id":"free"},{"bike_id":"255d23e2-6607-47f9-ae02-1fececf67c6c","system_id":"levelo_inurba_marseille","lat":43.32901,"lon":5.38201,"is_reserved":false,"is_disabled":false,"rental_uris":{"android":"levelo://app?vid=255d23e2-6607-47f9-ae02-1fececf67c6c","ios":"levelo://app?vid=255d23e2-6607-47f9-ae02-1fececf67c6c"},"vehicle_type_id":"4","last_reported":1683972379,"current_range_meters":13600,"station_id":"","pricing_plan_id":"free"},{"bike_id":"bbb6f8a4-596b-4d31-aebf-494694fa847d","system_id":"levelo_inurba_marseille","lat":43.29602,"lon":5.381084,"is_reserved":false,"is_disabled":false,"rental_uris":{"android":"levelo://app?vid=bbb6f8a4-596b-4d31-aebf-494694fa847d","ios":"levelo://app?vid=bbb6f8a4-596b-4d31-aebf-494694fa847d"},"vehicle_type_id":"4","last_reported":1683972379,"current_range_meters":20000,"station_id":"ce4bgl12rcd13ifvqbo0","pricing_plan_id":"free"},{"bike_id":"0fb529b7-2fa3-49dc-9881-771b2d2e2f32","system_id":"levelo_inurba_marseille","lat":43.29601,"lon":5.381084,"is_reserved":false,"is_disabled":false,"rental_uris":{"android":"levelo://app?vid=0fb529b7-2fa3-49dc-9881-771b2d2e2f32","ios":"levelo://app?vid=0fb529b7-2fa3-49dc-9881-771b2d2e2f32"},"vehicle_type_id":"4","last_reported":1683972379,"current_range_meters":28400,"station_id":"ce4bgl12rcd13ifvqbo0","pricing_plan_id":"free"},{"bike_id":"df7647b1-99a9-4742-b9f2-9d2bc408c020","system_id":"levelo_inurba_marseille","lat":43.2948,"lon":5.37875,"is_reserved":false,"is_disabled":false,"rental_uris":{"android":"levelo://app?vid=df7647b1-99a9-4742-b9f2-9d2bc408c020","ios":"levelo://app?vid=df7647b1-99a9-4742-b9f2-9d2bc408c020"},"vehicle_type_id":"4","last_reported":1683972379,"current_range_meters":25600,"station_id":"","pricing_plan_id":"free"},{"bike_id":"88593624-c250-4a46-8a73-077423d799d6","system_id":"levelo_inurba_marseille","lat":43.29308,"lon":5.37188,"is_reserved":false,"is_disabled":false,"rental_uris":{"android":"levelo://app?vid=88593624-c250-4a46-8a73-077423d799d6","ios":"levelo://app?vid=88593624-c250-4a46-8a73-077423d799d6"},"vehicle_type_id":"4","last_reported":1683972379,"current_range_meters":2800,"station_id":"","pricing_plan_id":"free"},{"bike_id":"ebf485b4-c755-4fa7-a725-03dc0817b8e9","system_id":"levelo_inurba_marseille","lat":43.29303,"lon":5.37175,"is_reserved":false,"is_disabled":false,"rental_uris":{"android":"levelo://app?vid=ebf485b4-c755-4fa7-a725-03dc0817b8e9","ios":"levelo://app?vid=ebf485b4-c755-4fa7-a725-03dc0817b8e9"},"vehicle_type_id":"4","last_reported":1683972379,"current_range_meters":22800,"station_id":"","pricing_plan_id":"free"},{"bike_id":"2627662c-ba0e-46c2-9c4d-a7e0305650bc","system_id":"levelo_inurba_marseille","lat":43.29302,"lon":5.37172,"is_reserved":false,"is_disabled":false,"rental_uris":{"android":"levelo://app?vid=2627662c-ba0e-46c2-9c4d-a7e0305650bc","ios":"levelo://app?vid=2627662c-ba0e-46c2-9c4d-a7e0305650bc"},"vehicle_type_id":"4","last_reported":1683972379,"current_range_meters":0,"station_id":"ce4bgh92rcd13ifvqb40","pricing_plan_id":"free"},{"bike_id":"ae71d25a-de2a-46cb-ae4a-2c2143785e3b","system_id":"levelo_inurba_marseille","lat":43.29302,"lon":5.37174,"is_reserved":false,"is_disabled":false,"rental_uris":{"android":"levelo://app?vid=ae71d25a-de2a-46cb-ae4a-2c2143785e3b","ios":"levelo://app?vid=ae71d25a-de2a-46cb-ae4a-2c2143785e3b"},"vehicle_type_id":"4","last_reported":1683972379,"current_range_meters":13600,"station_id":"","pricing_plan_id":"free"},{"bike_id":"7c4a727e-d4b4-497b-a5ee-73dae1f87a43","system_id":"levelo_inurba_marseille","lat":43.292749,"lon":5.368402,"is_reserved":false,"is_disabled":false,"rental_uris":{"android":"levelo://app?vid=7c4a727e-d4b4-497b-a5ee-73dae1f87a43","ios":"levelo://app?vid=7c4a727e-d4b4-497b-a5ee-73dae1f87a43"},"vehicle_type_id":"4","last_reported":1683972379,"current_range_meters":23200,"station_id":"ce4bhbp2rcd13ifvqesg","pricing_plan_id":"free"},{"bike_id":"b2aa6c6d-f6d3-46e3-93db-bdc58a25fe41","system_id":"levelo_inurba_marseille","lat":43.293009,"lon":5.374584,"is_reserved":false,"is_disabled":false,"rental_uris":{"android":"levelo://app?vid=b2aa6c6d-f6d3-46e3-93db-bdc58a25fe41","ios":"levelo://app?vid=b2aa6c6d-f6d3-46e3-93db-bdc58a25fe41"},"vehicle_type_id":"4","last_reported":1683972379,"current_range_meters":28000,"station_id":"ce4bgi12rcd13ifvqb70","pricing_plan_id":"free"},{"bike_id":"d1bbf04a-efa8-47f5-839f-05cd1bde2eb2","system_id":"levelo_inurba_marseille","lat":43.293009,"lon":5.374584,"is_reserved":false,"is_disabled":false,"rental_uris":{"android":"levelo://app?vid=d1bbf04a-efa8-47f5-839f-05cd1bde2eb2","ios":"levelo://app?vid=d1bbf04a-efa8-47f5-839f-05cd1bde2eb2"},"vehicle_type_id":"4","last_reported":1683972379,"current_range_meters":31200,"station_id":"ce4bgi12rcd13ifvqb70","pricing_plan_id":"free"},{"bike_id":"3f0f5234-8c98-46cf-b24e-f08bd3523b43","system_id":"levelo_inurba_marseille","lat":43.2936,"lon":5.37835,"is_reserved":false,"is_disabled":false,"rental_uris":{"android":"levelo://app?vid=3f0f5234-8c98-46cf-b24e-f08bd3523b43","ios":"levelo://app?vid=3f0f5234-8c98-46cf-b24e-f08bd3523b43"},"vehicle_type_id":"4","last_reported":1683972379,"current_range_meters":20800,"station_id":"ce4bgjh2rcd13ifvqbf0","pricing_plan_id":"free"},{"bike_id":"9046523d-c80c-41c7-be30-4db1dfdc604a","system_id":"levelo_inurba_marseille","lat":43.2936,"lon":5.37835,"is_reserved":false,"is_disabled":false,"rental_uris":{"android":"levelo://app?vid=9046523d-c80c-41c7-be30-4db1dfdc604a","ios":"levelo://app?vid=9046523d-c80c-41c7-be30-4db1dfdc604a"},"vehicle_type_id":"4","last_reported":1683972379,"current_range_meters":31200,"station_id":"ce4bgjh2rcd13ifvqbf0","pricing_plan_id":"free"},{"bike_id":"790b57e1-c367-490f-ace7-5e44eb51cbf8","system_id":"levelo_inurba_marseille","lat":43.2936,"lon":5.37835,"is_reserved":false,"is_disabled":false,"rental_uris":{"android":"levelo://app?vid=790b57e1-c367-490f-ace7-5e44eb51cbf8","ios":"levelo://app?vid=790b57e1-c367-490f-ace7-5e44eb51cbf8"},"vehicle_type_id":"4","last_reported":1683972379,"current_range_meters":27200,"station_id":"ce4bgjh2rcd13ifvqbf0","pricing_plan_id":"free"},{"bike_id":"3b1bc0b3-ac91-4467-95da-88227719fc1b","system_id":"levelo_inurba_marseille","lat":43.2936,"lon":5.37835,"is_reserved":false,"is_disabled":false,"rental_uris":{"android":"levelo://app?vid=3b1bc0b3-ac91-4467-95da-88227719fc1b","ios":"levelo://app?vid=3b1bc0b3-ac91-4467-95da-88227719fc1b"},"vehicle_type_id":"4","last_reported":1683972379,"current_range_meters":25600,"station_id":"ce4bgjh2rcd13ifvqbf0","pricing_plan_id":"free"},{"bike_id":"0000af92-920c-4a43-b5ad-c09eca599407","system_id":"levelo_inurba_marseille","lat":43.302992,"lon":5.392136,"is_reserved":false,"is_disabled":false,"rental_uris":{"android":"levelo://app?vid=0000af92-920c-4a43-b5ad-c09eca599407","ios":"levelo://app?vid=0000af92-920c-4a43-b5ad-c09eca599407"},"vehicle_type_id":"4","last_reported":1683972379,"current_range_meters":28400,"station_id":"ce4bgkh2rcd13ifvqbk0","pricing_plan_id":"free"},{"bike_id":"502e32ec-c0f6-4566-a6eb-10eedadc736d","system_id":"levelo_inurba_marseille","lat":43.291675,"lon":5.371583,"is_reserved":false,"is_disabled":false,"rental_uris":{"android":"levelo://app?vid=502e32ec-c0f6-4566-a6eb-10eedadc736d","ios":"levelo://app?vid=502e32ec-c0f6-4566-a6eb-10eedadc736d"},"vehicle_type_id":"4","last_reported":1683972379,"current_range_meters":22000,"station_id":"ce4bha92rcd13ifvqeh0","pricing_plan_id":"free"},{"bike_id":"1ebcf42a-c0d3-45c7-b828-af56da7b420f","system_id":"levelo_inurba_marseille","lat":43.291675,"lon":5.371583,"is_reserved":false,"is_disabled":false,"rental_uris":{"android":"levelo://app?vid=1ebcf42a-c0d3-45c7-b828-af56da7b420f","ios":"levelo://app?vid=1ebcf42a-c0d3-45c7-b828-af56da7b420f"},"vehicle_type_id":"4","last_reported":1683972379,"current_range_meters":28400,"station_id":"ce4bha92rcd13ifvqeh0","pricing_plan_id":"free"},{"bike_id":"28266072-dcd6-4ed0-af66-f1bce5fc5d09","system_id":"levelo_inurba_marseille","lat":43.298764,"lon":5.388973,"is_reserved":false,"is_disabled":false,"rental_uris":{"android":"levelo://app?vid=28266072-dcd6-4ed0-af66-f1bce5fc5d09","ios":"levelo://app?vid=28266072-dcd6-4ed0-af66-f1bce5fc5d09"},"vehicle_type_id":"4","last_reported":1683972379,"current_range_meters":19200,"station_id":"ce4bh392rcd13ifvqdl0","pricing_plan_id":"free"},{"bike_id":"9eaf9e9c-c5d9-4bc0-93b0-d9afdb0afe79","system_id":"levelo_inurba_marseille","lat":43.291999,"lon":5.358091,"is_reserved":false,"is_disabled":false,"rental_uris":{"android":"levelo://app?vid=9eaf9e9c-c5d9-4bc0-93b0-d9afdb0afe79","ios":"levelo://app?vid=9eaf9e9c-c5d9-4bc0-93b0-d9afdb0afe79"},"vehicle_type_id":"4","last_reported":1683972379,"current_range_meters":18000,"station_id":"","pricing_plan_id":"free"},{"bike_id":"118fe8ec-fd23-4e0a-a168-1e7ad1f122cc","system_id":"levelo_inurba_marseille","lat":43.292,"lon":5.35805,"is_reserved":false,"is_disabled":false,"rental_uris":{"android":"levelo://app?vid=118fe8ec-fd23-4e0a-a168-1e7ad1f122cc","ios":"levelo://app?vid=118fe8ec-fd23-4e0a-a168-1e7ad1f122cc"},"vehicle_type_id":"4","last_reported":1683972379,"current_range_meters":11200,"station_id":"","pricing_plan_id":"free"},{"bike_id":"f3dee182-bfe0-41be-a4d7-25700f471b8c","system_id":"levelo_inurba_marseille","lat":43.31325,"lon":5.39685,"is_reserved":false,"is_disabled":false,"rental_uris":{"android":"levelo://app?vid=f3dee182-bfe0-41be-a4d7-25700f471b8c","ios":"levelo://app?vid=f3dee182-bfe0-41be-a4d7-25700f471b8c"},"vehicle_type_id":"4","last_reported":1683972379,"current_range_meters":16400,"station_id":"ce4bgvp2rcd13ifvqcu0","pricing_plan_id":"free"},{"bike_id":"63f2f5d4-89af-4b65-8d4f-c643623a1d0b","system_id":"levelo_inurba_marseille","lat":43.29195,"lon":5.35798,"is_reserved":false,"is_disabled":false,"rental_uris":{"android":"levelo://app?vid=63f2f5d4-89af-4b65-8d4f-c643623a1d0b","ios":"levelo://app?vid=63f2f5d4-89af-4b65-8d4f-c643623a1d0b"},"vehicle_type_id":"4","last_reported":1683972379,"current_range_meters":19600,"station_id":"","pricing_plan_id":"free"},{"bike_id":"d76c07e3-b0c5-48b5-a94f-0814df4676f0","system_id":"levelo_inurba_marseille","lat":43.31327,"lon":5.39687,"is_reserved":false,"is_disabled":false,"rental_uris":{"android":"levelo://app?vid=d76c07e3-b0c5-48b5-a94f-0814df4676f0","ios":"levelo://app?vid=d76c07e3-b0c5-48b5-a94f-0814df4676f0"},"vehicle_type_id":"4","last_reported":1683972379,"current_range_meters":18000,"station_id":"ce4bgvp2rcd13ifvqcu0","pricing_plan_id":"free"},{"bike_id":"0d17488f-4cc0-4c1b-a45d-b7eabcae8585","system_id":"levelo_inurba_marseille","lat":43.2919,"lon":5.35811,"is_reserved":false,"is_disabled":false,"rental_uris":{"android":"levelo://app?vid=0d17488f-4cc0-4c1b-a45d-b7eabcae8585","ios":"levelo://app?vid=0d17488f-4cc0-4c1b-a45d-b7eabcae8585"},"vehicle_type_id":"4","last_reported":1683972379,"current_range_meters":30400,"station_id":"","pricing_plan_id":"free"},{"bike_id":"c20bc477-dd5c-49da-87ed-cfec2b85dc57","system_id":"levelo_inurba_marseille","lat":43.29189,"lon":5.35805,"is_reserved":false,"is_disabled":false,"rental_uris":{"android":"levelo://app?vid=c20bc477-dd5c-49da-87ed-cfec2b85dc57","ios":"levelo://app?vid=c20bc477-dd5c-49da-87ed-cfec2b85dc57"},"vehicle_type_id":"4","last_reported":1683972379,"current_range_meters":31200,"station_id":"","pricing_plan_id":"free"},{"bike_id":"83d8e765-fa2c-482d-a11d-b148b2753996","system_id":"levelo_inurba_marseille","lat":43.29189,"lon":5.35805,"is_reserved":false,"is_disabled":false,"rental_uris":{"android":"levelo://app?vid=83d8e765-fa2c-482d-a11d-b148b2753996","ios":"levelo://app?vid=83d8e765-fa2c-482d-a11d-b148b2753996"},"vehicle_type_id":"4","last_reported":1683972379,"current_range_meters":16800,"station_id":"","pricing_plan_id":"free"},{"bike_id":"0b159117-460c-476c-a444-262159b93275","system_id":"levelo_inurba_marseille","lat":43.31326,"lon":5.39692,"is_reserved":false,"is_disabled":false,"rental_uris":{"android":"levelo://app?vid=0b159117-460c-476c-a444-262159b93275","ios":"levelo://app?vid=0b159117-460c-476c-a444-262159b93275"},"vehicle_type_id":"4","last_reported":1683972379,"current_range_meters":19600,"station_id":"ce4bgvp2rcd13ifvqcu0","pricing_plan_id":"free"},{"bike_id":"43ea94fb-f0bc-48af-bd2d-c866d6def370","system_id":"levelo_inurba_marseille","lat":43.29189,"lon":5.35793,"is_reserved":false,"is_disabled":false,"rental_uris":{"android":"levelo://app?vid=43ea94fb-f0bc-48af-bd2d-c866d6def370","ios":"levelo://app?vid=43ea94fb-f0bc-48af-bd2d-c866d6def370"},"vehicle_type_id":"4","last_reported":1683972379,"current_range_meters":21600,"station_id":"","pricing_plan_id":"free"},{"bike_id":"b66c6f7f-7fd1-4d34-baae-bad91a4ce3de","system_id":"levelo_inurba_marseille","lat":43.309038,"lon":5.396546,"is_reserved":false,"is_disabled":false,"rental_uris":{"android":"levelo://app?vid=b66c6f7f-7fd1-4d34-baae-bad91a4ce3de","ios":"levelo://app?vid=b66c6f7f-7fd1-4d34-baae-bad91a4ce3de"},"vehicle_type_id":"4","last_reported":1683972379,"current_range_meters":15200,"station_id":"ce4bh012rcd13ifvqcv0","pricing_plan_id":"free"},{"bike_id":"dc05e584-f68d-43c2-9988-7cdf12369f30","system_id":"levelo_inurba_marseille","lat":43.309038,"lon":5.396546,"is_reserved":false,"is_disabled":false,"rental_uris":{"android":"levelo://app?vid=dc05e584-f68d-43c2-9988-7cdf12369f30","ios":"levelo://app?vid=dc05e584-f68d-43c2-9988-7cdf12369f30"},"vehicle_type_id":"4","last_reported":1683972379,"current_range_meters":23600,"station_id":"ce4bh012rcd13ifvqcv0","pricing_plan_id":"free"},{"bike_id":"f586993d-d884-454a-a804-76e77411d37e","system_id":"levelo_inurba_marseille","lat":43.29529,"lon":5.385581,"is_reserved":false,"is_disabled":false,"rental_uris":{"android":"levelo://app?vid=f586993d-d884-454a-a804-76e77411d37e","ios":"levelo://app?vid=f586993d-d884-454a-a804-76e77411d37e"},"vehicle_type_id":"4","last_reported":1683972379,"current_range_meters":12000,"station_id":"ce4bgih2rcd13ifvqba0","pricing_plan_id":"free"},{"bike_id":"1b4dc9f0-c01f-4537-a3cf-19135a5f610b","system_id":"levelo_inurba_marseille","lat":43.29067,"lon":5.37167,"is_reserved":false,"is_disabled":false,"rental_uris":{"android":"levelo://app?vid=1b4dc9f0-c01f-4537-a3cf-19135a5f610b","ios":"levelo://app?vid=1b4dc9f0-c01f-4537-a3cf-19135a5f610b"},"vehicle_type_id":"4","last_reported":1683972379,"current_range_meters":29600,"station_id":"ce4bh5p2rcd13ifvqe4g","pricing_plan_id":"free"},{"bike_id":"20a05a05-a67c-4458-8f70-a66dd0972b99","system_id":"levelo_inurba_marseille","lat":43.290327,"lon":5.375711,"is_reserved":false,"is_disabled":false,"rental_uris":{"android":"levelo://app?vid=20a05a05-a67c-4458-8f70-a66dd0972b99","ios":"levelo://app?vid=20a05a05-a67c-4458-8f70-a66dd0972b99"},"vehicle_type_id":"4","last_reported":1683972379,"current_range_meters":20800,"station_id":"ce4bh692rcd13ifvqe90","pricing_plan_id":"free"},{"bike_id":"9f129774-36e1-42f1-8229-a7c2be11d89e","system_id":"levelo_inurba_marseille","lat":43.3049,"lon":5.39705,"is_reserved":false,"is_disabled":false,"rental_uris":{"android":"levelo://app?vid=9f129774-36e1-42f1-8229-a7c2be11d89e","ios":"levelo://app?vid=9f129774-36e1-42f1-8229-a7c2be11d89e"},"vehicle_type_id":"4","last_reported":1683972379,"current_range_meters":20400,"station_id":"","pricing_plan_id":"free"},{"bike_id":"bedee10e-5dfc-450e-8b51-ca83bf1109a6","system_id":"levelo_inurba_marseille","lat":43.30483,"lon":5.39705,"is_reserved":false,"is_disabled":false,"rental_uris":{"android":"levelo://app?vid=bedee10e-5dfc-450e-8b51-ca83bf1109a6","ios":"levelo://app?vid=bedee10e-5dfc-450e-8b51-ca83bf1109a6"},"vehicle_type_id":"4","last_reported":1683972379,"current_range_meters":4000,"station_id":"","pricing_plan_id":"free"},{"bike_id":"dceef487-f2a4-4f30-8375-91727bcd8cd6","system_id":"levelo_inurba_marseille","lat":43.289184,"lon":5.366408,"is_reserved":false,"is_disabled":false,"rental_uris":{"android":"levelo://app?vid=dceef487-f2a4-4f30-8375-91727bcd8cd6","ios":"levelo://app?vid=dceef487-f2a4-4f30-8375-91727bcd8cd6"},"vehicle_type_id":"4","last_reported":1683972379,"current_range_meters":30400,"station_id":"ce4bhap2rcd13ifvqek0","pricing_plan_id":"free"},{"bike_id":"d3fdee06-70ee-4c61-847d-1525dde6825e","system_id":"levelo_inurba_marseille","lat":43.289184,"lon":5.366408,"is_reserved":false,"is_disabled":false,"rental_uris":{"android":"levelo://app?vid=d3fdee06-70ee-4c61-847d-1525dde6825e","ios":"levelo://app?vid=d3fdee06-70ee-4c61-847d-1525dde6825e"},"vehicle_type_id":"4","last_reported":1683972379,"current_range_meters":24000,"station_id":"ce4bhap2rcd13ifvqek0","pricing_plan_id":"free"},{"bike_id":"99d11ff8-cd4f-4243-907c-822c17bc769b","system_id":"levelo_inurba_marseille","lat":43.33043,"lon":5.38917,"is_reserved":false,"is_disabled":false,"rental_uris":{"android":"levelo://app?vid=99d11ff8-cd4f-4243-907c-822c17bc769b","ios":"levelo://app?vid=99d11ff8-cd4f-4243-907c-822c17bc769b"},"vehicle_type_id":"4","last_reported":1683972379,"current_range_meters":21200,"station_id":"ce4bhr92rcd13ifvqhrg","pricing_plan_id":"free"},{"bike_id":"b8d0a2d7-4443-405c-9e1e-71d351b2ac12","system_id":"levelo_inurba_marseille","lat":43.33039,"lon":5.38923,"is_reserved":false,"is_disabled":false,"rental_uris":{"android":"levelo://app?vid=b8d0a2d7-4443-405c-9e1e-71d351b2ac12","ios":"levelo://app?vid=b8d0a2d7-4443-405c-9e1e-71d351b2ac12"},"vehicle_type_id":"4","last_reported":1683972379,"current_range_meters":22400,"station_id":"ce4bhr92rcd13ifvqhrg","pricing_plan_id":"free"},{"bike_id":"754ef565-0150-4f0d-8c0d-a8a5d6927613","system_id":"levelo_inurba_marseille","lat":43.3304,"lon":5.38923,"is_reserved":false,"is_disabled":false,"rental_uris":{"android":"levelo://app?vid=754ef565-0150-4f0d-8c0d-a8a5d6927613","ios":"levelo://app?vid=754ef565-0150-4f0d-8c0d-a8a5d6927613"},"vehicle_type_id":"4","last_reported":1683972379,"current_range_meters":19600,"station_id":"ce4bhr92rcd13ifvqhrg","pricing_plan_id":"free"},{"bike_id":"7dfb63d7-3cea-4571-aa06-76c88bd9f321","system_id":"levelo_inurba_marseille","lat":43.33043,"lon":5.38919,"is_reserved":false,"is_disabled":false,"rental_uris":{"android":"levelo://app?vid=7dfb63d7-3cea-4571-aa06-76c88bd9f321","ios":"levelo://app?vid=7dfb63d7-3cea-4571-aa06-76c88bd9f321"},"vehicle_type_id":"4","last_reported":1683972379,"current_range_meters":28800,"station_id":"ce4bhr92rcd13ifvqhrg","pricing_plan_id":"free"},{"bike_id":"d9c65fb5-b538-43a6-8b06-cce8ee9f5b2a","system_id":"levelo_inurba_marseille","lat":43.3304,"lon":5.38924,"is_reserved":false,"is_disabled":false,"rental_uris":{"android":"levelo://app?vid=d9c65fb5-b538-43a6-8b06-cce8ee9f5b2a","ios":"levelo://app?vid=d9c65fb5-b538-43a6-8b06-cce8ee9f5b2a"},"vehicle_type_id":"4","last_reported":1683972379,"current_range_meters":30000,"station_id":"ce4bhr92rcd13ifvqhrg","pricing_plan_id":"free"},{"bike_id":"e1cad4a0-c12c-4378-80ae-c7b89b0a1c4a","system_id":"levelo_inurba_marseille","lat":43.290104,"lon":5.356111,"is_reserved":false,"is_disabled":false,"rental_uris":{"android":"levelo://app?vid=e1cad4a0-c12c-4378-80ae-c7b89b0a1c4a","ios":"levelo://app?vid=e1cad4a0-c12c-4378-80ae-c7b89b0a1c4a"},"vehicle_type_id":"4","last_reported":1683972379,"current_range_meters":26000,"station_id":"ce4bhb92rcd13ifvqen0","pricing_plan_id":"free"},{"bike_id":"3dbfaf1d-7183-444f-8b3c-709f3433391b","system_id":"levelo_inurba_marseille","lat":43.290104,"lon":5.356111,"is_reserved":false,"is_disabled":false,"rental_uris":{"android":"levelo://app?vid=3dbfaf1d-7183-444f-8b3c-709f3433391b","ios":"levelo://app?vid=3dbfaf1d-7183-444f-8b3c-709f3433391b"},"vehicle_type_id":"4","last_reported":1683972379,"current_range_meters":26800,"station_id":"ce4bhb92rcd13ifvqen0","pricing_plan_id":"free"},{"bike_id":"672ba162-acde-420f-9961-e328fa789cd7","system_id":"levelo_inurba_marseille","lat":43.290995,"lon":5.381361,"is_reserved":false,"is_disabled":false,"rental_uris":{"android":"levelo://app?vid=672ba162-acde-420f-9961-e328fa789cd7","ios":"levelo://app?vid=672ba162-acde-420f-9961-e328fa789cd7"},"vehicle_type_id":"4","last_reported":1683972379,"current_range_meters":21200,"station_id":"ce4bh512rcd13ifvqe2g","pricing_plan_id":"free"},{"bike_id":"6219ecc0-e858-49af-a017-bcd37a7e4db8","system_id":"levelo_inurba_marseille","lat":43.289743,"lon":5.378304,"is_reserved":false,"is_disabled":false,"rental_uris":{"android":"levelo://app?vid=6219ecc0-e858-49af-a017-bcd37a7e4db8","ios":"levelo://app?vid=6219ecc0-e858-49af-a017-bcd37a7e4db8"},"vehicle_type_id":"4","last_reported":1683972379,"current_range_meters":18400,"station_id":"ce4bh9p2rcd13ifvqed0","pricing_plan_id":"free"},{"bike_id":"ebd49757-f004-40a5-90af-99f91a846809","system_id":"levelo_inurba_marseille","lat":43.28857,"lon":5.37328,"is_reserved":false,"is_disabled":false,"rental_uris":{"android":"levelo://app?vid=ebd49757-f004-40a5-90af-99f91a846809","ios":"levelo://app?vid=ebd49757-f004-40a5-90af-99f91a846809"},"vehicle_type_id":"4","last_reported":1683972379,"current_range_meters":27200,"station_id":"ce4bh692rcd13ifvqe90","pricing_plan_id":"free"},{"bike_id":"e0dc7a8c-b7b3-4002-99e5-aba85c99cacb","system_id":"levelo_inurba_marseille","lat":43.290094,"lon":5.381264,"is_reserved":false,"is_disabled":false,"rental_uris":{"android":"levelo://app?vid=e0dc7a8c-b7b3-4002-99e5-aba85c99cacb","ios":"levelo://app?vid=e0dc7a8c-b7b3-4002-99e5-aba85c99cacb"},"vehicle_type_id":"4","last_reported":1683972379,"current_range_meters":0,"station_id":"ce4bh4p2rcd13ifvqe1g","pricing_plan_id":"free"},{"bike_id":"704c7eca-7ed6-488b-97ec-93feaea5ac6f","system_id":"levelo_inurba_marseille","lat":43.28856,"lon":5.358371,"is_reserved":false,"is_disabled":false,"rental_uris":{"android":"levelo://app?vid=704c7eca-7ed6-488b-97ec-93feaea5ac6f","ios":"levelo://app?vid=704c7eca-7ed6-488b-97ec-93feaea5ac6f"},"vehicle_type_id":"4","last_reported":1683972379,"current_range_meters":31200,"station_id":"ce4bhb12rcd13ifvqem0","pricing_plan_id":"free"},{"bike_id":"4b5d1898-ca0d-4e89-9f5a-03d37f156b08","system_id":"levelo_inurba_marseille","lat":43.33736,"lon":5.37467,"is_reserved":false,"is_disabled":false,"rental_uris":{"android":"levelo://app?vid=4b5d1898-ca0d-4e89-9f5a-03d37f156b08","ios":"levelo://app?vid=4b5d1898-ca0d-4e89-9f5a-03d37f156b08"},"vehicle_type_id":"4","last_reported":1683972379,"current_range_meters":30000,"station_id":"","pricing_plan_id":"free"},{"bike_id":"7d45944e-d7ef-4cc4-ab14-f45b4fe8e950","system_id":"levelo_inurba_marseille","lat":43.33741,"lon":5.37464,"is_reserved":false,"is_disabled":false,"rental_uris":{"android":"levelo://app?vid=7d45944e-d7ef-4cc4-ab14-f45b4fe8e950","ios":"levelo://app?vid=7d45944e-d7ef-4cc4-ab14-f45b4fe8e950"},"vehicle_type_id":"4","last_reported":1683972379,"current_range_meters":30400,"station_id":"","pricing_plan_id":"free"},{"bike_id":"7050c15b-a483-4d0c-a11b-097fc7e96ca2","system_id":"levelo_inurba_marseille","lat":43.33754,"lon":5.37453,"is_reserved":false,"is_disabled":false,"rental_uris":{"android":"levelo://app?vid=7050c15b-a483-4d0c-a11b-097fc7e96ca2","ios":"levelo://app?vid=7050c15b-a483-4d0c-a11b-097fc7e96ca2"},"vehicle_type_id":"4","last_reported":1683972379,"current_range_meters":1200,"station_id":"","pricing_plan_id":"free"},{"bike_id":"dcf0a8c7-0856-4697-b5f4-085b6e499fa5","system_id":"levelo_inurba_marseille","lat":43.30642,"lon":5.401031,"is_reserved":false,"is_disabled":false,"rental_uris":{"android":"levelo://app?vid=dcf0a8c7-0856-4697-b5f4-085b6e499fa5","ios":"levelo://app?vid=dcf0a8c7-0856-4697-b5f4-085b6e499fa5"},"vehicle_type_id":"4","last_reported":1683972379,"current_range_meters":800,"station_id":"ce4bh112rcd13ifvqda0","pricing_plan_id":"free"},