{"last_updated":1730967146,"ttl":60,"version":"2.2","data":{"bikes":[{"bike_id":"5e89496f-7131-4633-ad8c-10a7e2afc839","system_id":"levelo_inurba_marseille","lat":43.2408,"lon":5.37754,"is_reserved":false,"is_disabled":false,"rental_uris":{"android":"levelo://app?vid=5e89496f-7131-4633-ad8c-10a7e2afc839","ios":"levelo://app?vid=5e89496f-7131-4633-ad8c-10a7e2afc839"},"vehicle_type_id":"4","last_reported":1730967146,"current_range_meters":24400,"station_id":"ce4bhnp2rcd13ifvqgvg","pricing_plan_id":"cebpf4jnsgd1na2vs0mg"},{"bike_id":"ec81448a-c27d-47b7-ad8b-9e51db34f579","system_id":"levelo_inurba_marseille","lat":43.31342,"lon":5.36726,"is_reserved":false,"is_disabled":false,"rental_uris":{"android":"levelo://app?vid=ec81448a-c27d-47b7-ad8b-9e51db34f579","ios":"levelo://app?vid=ec81448a-c27d-47b7-ad8b-9e51db34f579"},"vehicle_type_id":"4","last_reported":1730967146,"current_range_meters":20800,"station_id":"ce4bgr92rcd13ifvqc6g","pricing_plan_id":"cebpf4jnsgd1na2vs0mg"},{"bike_id":"1b0c34b7-cab0-4838-9a3f-9b01be74f404","system_id":"levelo_inurba_marseille","lat":43.28717,"lon":5.37939,"is_reserved":false,"is_disabled":false,"rental_uris":{"android":"levelo://app?vid=1b0c34b7-cab0-4838-9a3f-9b01be74f404","ios":"levelo://app?vid=1b0c34b7-cab0-4838-9a3f-9b01be74f404"},"vehicle_type_id":"4","last_reported":1730967146,"current_range_meters":38800,"station_id":"ce4bh9p2rcd13ifvqec0","pricing_plan_id":"cebpf4jnsgd1na2vs0mg"},{"bike_id":"a57490d6-1b5f-4a0d-b4b7-f79ba049a52c","system_id":"levelo_inurba_marseille","lat":43.33602,"lon":5.41029,"is_reserved":false,"is_disabled":false,"rental_uris":{"android":"levelo://app?vid=a57490d6-1b5f-4a0d-b4b7-f79ba049a52c","ios":"levelo://app?vid=a57490d6-1b5f-4a0d-b4b7-f79ba049a52c"},"vehicle_type_id":"4","last_reported":1730967146,"current_range_meters":6800,"station_id":"ce4bhqh2rcd13ifvqhmg","pricing_plan_id":"cebpf4jnsgd1na2vs0mg"},{"bike_id":"90084e62-5745-40d1-876d-02e6c1f29269","system_id":"levelo_inurba_marseille","lat":43.284149,"lon":5.385446,"is_reserved":false,"is_disabled":false,"rental_uris":{"android":"levelo://app?vid=90084e62-5745-40d1-876d-02e6c1f29269","ios":"levelo://app?vid=90084e62-5745-40d1-876d-02e6c1f29269"},"vehicle_type_id":"4","last_reported":1730967146,"current_range_meters":38800,"station_id":"ce4bhgp2rcd13ifvqfe0","pricing_plan_id":"cebpf4jnsgd1na2vs0mg"},{"bike_id":"9936c4b5-e664-4ce8-bd71-98b6c16a721b","system_id":"levelo_inurba_marseille","lat":43.24178,"lon":5.39728,"is_reserved":false,"is_disabled":false,"rental_uris":{"android":"levelo://app?vid=9936c4b5-e664-4ce8-bd71-98b6c16a721b","ios":"levelo://app?vid=9936c4b5-e664-4ce8-bd71-98b6c16a721b"},"vehicle_type_id":"4","last_reported":1730967146,"current_range_meters":24400,"station_id":"ce4bhn12rcd13ifvqgpg","pricing_plan_id":"cebpf4jnsgd1na2vs0mg"},{"bike_id":"14b1e13b-b00b-49e3-ada0-f9a9a5ca4439","system_id":"levelo_inurba_marseille","lat":43.30945,"lon":5.39033,"is_reserved":false,"is_disabled":false,"rental_uris":{"android":"levelo://app?vid=14b1e13b-b00b-49e3-ada0-f9a9a5ca4439","ios":"levelo://app?vid=14b1e13b-b00b-49e3-ada0-f9a9a5ca4439"},"vehicle_type_id":"4","last_reported":1730967146,"current_range_meters":24400,"station_id":"ce4bgup2rcd13ifvqco0","pricing_plan_id":"cebpf4jnsgd1na2vs0mg"},{"bike_id":"52c6c0a9-2cd5-43a6-b522-a933d2b99414","system_id":"levelo_inurba_marseille","lat":43.300781,"lon":5.375518,"is_reserved":false,"is_disabled":false,"rental_uris":{"android":"levelo://app?vid=52c6c0a9-2cd5-43a6-b522-a933d2b99414","ios":"levelo://app?vid=52c6c0a9-2cd5-43a6-b522-a933d2b99414"},"vehicle_type_id":"4","last_reported":1730967146,"current_range_meters":30000,"station_id":"ce4bgs92rcd13ifvqcc0","pricing_plan_id":"cebpf4jnsgd1na2vs0mg"},{"bike_id":"797b978a-f324-47e3-84c4-76070de1eba9","system_id":"levelo_inurba_marseille","lat":43.26684,"lon":5.38272,"is_reserved":false,"is_disabled":false,"rental_uris":{"android":"levelo://app?vid=797b978a-f324-47e3-84c4-76070de1eba9","ios":"levelo://app?vid=797b978a-f324-47e3-84c4-76070de1eba9"},"vehicle_type_id":"4","last_reported":1730967146,"current_range_meters":38000,"station_id":"ce4bhg92rcd13ifvqf90","pricing_plan_id":"cebpf4jnsgd1na2vs0mg"},{"bike_id":"171c996e-af3a-4f37-a956-55d56c1c1adb","system_id":"levelo_inurba_marseille","lat":43.29025,"lon":5.39978,"is_reserved":false,"is_disabled":false,"rental_uris":{"android":"levelo://app?vid=171c996e-af3a-4f37-a956-55d56c1c1adb","ios":"levelo://app?vid=171c996e-af3a-4f37-a956-55d56c1c1adb"},"vehicle_type_id":"4","last_reported":1730967146,"current_range_meters":39200,"station_id":"ce4bh392rcd13ifvqdm0","pricing_plan_id":"cebpf4jnsgd1na2vs0mg"},{"bike_id":"30758d5d-54e2-4e4f-8129-b6d871655d0b","system_id":"levelo_inurba_marseille","lat":43.30536,"lon":5.36561,"is_reserved":false,"is_disabled":false,"rental_uris":{"android":"levelo://app?vid=30758d5d-54e2-4e4f-8129-b6d871655d0b","ios":"levelo://app?vid=30758d5d-54e2-4e4f-8129-b6d871655d0b"},"vehicle_type_id":"4","last_reported":1730967146,"current_range_meters":14800,"station_id":"ce4bgs12rcd13ifvqcag","pricing_plan_id":"cebpf4jnsgd1na2vs0mg"},{"bike_id":"b2116663-67b9-426e-a75d-ed0e97e6dcbc","system_id":"levelo_inurba_marseille","lat":43.29621,"lon":5.37164,"is_reserved":false,"is_disabled":false,"rental_uris":{"android":"levelo://app?vid=b2116663-67b9-426e-a75d-ed0e97e6dcbc","ios":"levelo://app?vid=b2116663-67b9-426e-a75d-ed0e97e6dcbc"},"vehicle_type_id":"4","last_reported":1730967146,"current_range_meters":22800,"station_id":"ce4bgnh2rcd13ifvqc0g","pricing_plan_id":"cebpf4jnsgd1na2vs0mg"},{"bike_id":"f76ca3d1-7479-4f54-a458-de8a62d3c3f9","system_id":"levelo_inurba_marseille","lat":43.26952,"lon":5.38627,"is_reserved":false,"is_disabled":false,"rental_uris":{"android":"levelo://app?vid=f76ca3d1-7479-4f54-a458-de8a62d3c3f9","ios":"levelo://app?vid=f76ca3d1-7479-4f54-a458-de8a62d3c3f9"},"vehicle_type_id":"4","last_reported":1730967146,"current_range_meters":36400,"station_id":"ce4bhh92rcd13ifvqfh0","pricing_plan_id":"cebpf4jnsgd1na2vs0mg"},{"bike_id":"1e895776-d068-4fc1-ab14-310957d97e1b","system_id":"levelo_inurba_marseille","lat":43.33021,"lon":5.39044,"is_reserved":false,"is_disabled":false,"rental_uris":{"android":"levelo://app?vid=1e895776-d068-4fc1-ab14-310957d97e1b","ios":"levelo://app?vid=1e895776-d068-4fc1-ab14-310957d97e1b"},"vehicle_type_id":"4","last_reported":1730967146,"current_range_meters":38000,"station_id":"ce4bhr92rcd13ifvqhrg","pricing_plan_id":"cebpf4jnsgd1na2vs0mg"},{"bike_id":"434fe81b-9da2-49ed-aaee-dc29ee107415","system_id":"levelo_inurba_marseille","lat":43.24449,"lon":5.37204,"is_reserved":false,"is_disabled":false,"rental_uris":{"android":"levelo://app?vid=434fe81b-9da2-49ed-aaee-dc29ee107415","ios":"levelo://app?vid=434fe81b-9da2-49ed-aaee-dc29ee107415"},"vehicle_type_id":"4","last_reported":1730967146,"current_range_meters":14400,"station_id":"ce4bhi12rcd13ifvqfp0","pricing_plan_id":"cebpf4jnsgd1na2vs0mg"},{"bike_id":"4844b2d8-cd6b-43d1-9ae9-363e5aa238e5","system_id":"levelo_inurba_marseille","lat":43.28633,"lon":5.36188,"is_reserved":false,"is_disabled":false,"rental_uris":{"android":"levelo://app?vid=4844b2d8-cd6b-43d1-9ae9-363e5aa238e5","ios":"levelo://app?vid=4844b2d8-cd6b-43d1-9ae9-363e5aa238e5"},"vehicle_type_id":"4","last_reported":1730967146,"current_range_meters":16000,"station_id":"","pricing_plan_id":"cebpf4jnsgd1na2vs0mg"},{"bike_id":"44135612-fabe-4db6-b769-98ffa02d00e4","system_id":"levelo_inurba_marseille","lat":43.32283,"lon":5.38268,"is_reserved":false,"is_disabled":false,"rental_uris":{"android":"levelo://app?vid=44135612-fabe-4db6-b769-98ffa02d00e4","ios":"levelo://app?vid=44135612-fabe-4db6-b769-98ffa02d00e4"},"vehicle_type_id":"4","last_reported":1730967146,"current_range_meters":40000,"station_id":"ce4bhr12rcd13ifvqhqg","pricing_plan_id":"cebpf4jnsgd1na2vs0mg"},{"bike_id":"9243ff5d-eb12-466b-a02b-88d1000aa467","system_id":"levelo_inurba_marseille","lat":43.28941,"lon":5.36638,"is_reserved":false,"is_disabled":false,"rental_uris":{"android":"levelo://app?vid=9243ff5d-eb12-466b-a02b-88d1000aa467","ios":"levelo://app?vid=9243ff5d-eb12-466b-a02b-88d1000aa467"},"vehicle_type_id":"4","last_reported":1730967146,"current_range_meters":16800,"station_id":"ce4bhap2rcd13ifvqek0","pricing_plan_id":"cebpf4jnsgd1na2vs0mg"},{"bike_id":"81a73e1e-df8e-4923-a10d-61f139a542d3","system_id":"levelo_inurba_marseille","lat":43.28035,"lon":5.36951,"is_reserved":false,"is_disabled":false,"rental_uris":{"android":"levelo://app?vid=81a73e1e-df8e-4923-a10d-61f139a542d3","ios":"levelo://app?vid=81a73e1e-df8e-4923-a10d-61f139a542d3"},"vehicle_type_id":"4","last_reported":1730967146,"current_range_meters":14400,"station_id":"ce4bha12rcd13ifvqef0","pricing_plan_id":"cebpf4jnsgd1na2vs0mg"},{"bike_id":"b28caf33-3a19-4ad0-a838-784dcbb9ea26","system_id":"levelo_inurba_marseille","lat":43.27494,"lon":5.42448,"is_reserved":false,"is_disabled":false,"rental_uris":{"android":"levelo://app?vid=b28caf33-3a19-4ad0-a838-784dcbb9ea26","ios":"levelo://app?vid=b28caf33-3a19-4ad0-a838-784dcbb9ea26"},"vehicle_type_id":"4","last_reported":1730967146,"current_range_meters":24000,"station_id":"ce4bhn92rcd13ifvqgrg","pricing_plan_id":"cebpf4jnsgd1na2vs0mg"},{"bike_id":"35c658cd-6772-420c-87ce-ba3ed9431cb0","system_id":"levelo_inurba_marseille","lat":43.30545,"lon":5.365635,"is_reserved":false,"is_disabled":false,"rental_uris":{"android":"levelo://app?vid=35c658cd-6772-420c-87ce-ba3ed9431cb0","ios":"levelo://app?vid=35c658cd-6772-420c-87ce-ba3ed9431cb0"},"vehicle_type_id":"4","last_reported":1730967146,"current_range_meters":28800,"station_id":"ce4bgs12rcd13ifvqcag","pricing_plan_id":"cebpf4jnsgd1na2vs0mg"},{"bike_id":"a06b4532-64ef-4104-a6e2-2f1dac9ac2c3","system_id":"levelo_inurba_marseille","lat":43.28336,"lon":5.3811,"is_reserved":false,"is_disabled":false,"rental_uris":{"android":"levelo://app?vid=a06b4532-64ef-4104-a6e2-2f1dac9ac2c3","ios":"levelo://app?vid=a06b4532-64ef-4104-a6e2-2f1dac9ac2c3"},"vehicle_type_id":"4","last_reported":1730967146,"current_range_meters":23200,"station_id":"ce4bh412rcd13ifvqdr0","pricing_plan_id":"cebpf4jnsgd1na2vs0mg"},{"bike_id":"8c894b72-68ed-4925-b417-f67a0bb96441","system_id":"levelo_inurba_marseille","lat":43.29275,"lon":5.401183,"is_reserved":false,"is_disabled":false,"rental_uris":{"android":"levelo://app?vid=8c894b72-68ed-4925-b417-f67a0bb96441","ios":"levelo://app?vid=8c894b72-68ed-4925-b417-f67a0bb96441"},"vehicle_type_id":"4","last_reported":1730967146,"current_range_meters":33200,"station_id":"ce4bh312rcd13ifvqdk0","pricing_plan_id":"cebpf4jnsgd1na2vs0mg"},{"bike_id":"4df27c33-5d2b-4c1c-a7b3-9c8543269d96","system_id":"levelo_inurba_marseille","lat":43.30454,"lon":5.3791,"is_reserved":false,"is_disabled":false,"rental_uris":{"android":"levelo://app?vid=4df27c33-5d2b-4c1c-a7b3-9c8543269d96","ios":"levelo://app?vid=4df27c33-5d2b-4c1c-a7b3-9c8543269d96"},"vehicle_type_id":"4","last_reported":1730967146,"current_range_meters":30000,"station_id":"ce4bgup2rcd13ifvqcn0","pricing_plan_id":"cebpf4jnsgd1na2vs0mg"},{"bike_id":"b3a780aa-eced-42c7-aa0f-ab93e922353e","system_id":"levelo_inurba_marseille","lat":43.25566,"lon":5.38234,"is_reserved":false,"is_disabled":false,"rental_uris":{"android":"levelo://app?vid=b3a780aa-eced-42c7-aa0f-ab93e922353e","ios":"levelo://app?vid=b3a780aa-eced-42c7-aa0f-ab93e922353e"},"vehicle_type_id":"4","last_reported":1730967146,"current_range_meters":22000,"station_id":"ce4bhih2rcd13ifvqfs0","pricing_plan_id":"cebpf4jnsgd1na2vs0mg"},{"bike_id":"8a401a8a-30f9-4643-ad63-74116d1b600f","system_id":"levelo_inurba_marseille","lat":43.32482,"lon":5.36573,"is_reserved":false,"is_disabled":false,"rental_uris":{"android":"levelo://app?vid=8a401a8a-30f9-4643-ad63-74116d1b600f","ios":"levelo://app?vid=8a401a8a-30f9-4643-ad63-74116d1b600f"},"vehicle_type_id":"4","last_reported":1730967146,"current_range_meters":36800,"station_id":"ce4bhs12rcd13ifvqhvg","pricing_plan_id":"cebpf4jnsgd1na2vs0mg"},{"bike_id":"274d2498-5b2a-4886-93f2-d8f681155e7a","system_id":"levelo_inurba_marseille","lat":43.3375,"lon":5.37435,"is_reserved":false,"is_disabled":false,"rental_uris":{"android":"levelo://app?vid=274d2498-5b2a-4886-93f2-d8f681155e7a","ios":"levelo://app?vid=274d2498-5b2a-4886-93f2-d8f681155e7a"},"vehicle_type_id":"4","last_reported":1730967146,"current_range_meters":38400,"station_id":"","pricing_plan_id":"cebpf4jnsgd1na2vs0mg"},{"bike_id":"312a2e45-0a64-48c1-b780-670c5f80dc14","system_id":"levelo_inurba_marseille","lat":43.30284,"lon":5.37702,"is_reserved":false,"is_disabled":false,"rental_uris":{"android":"levelo://app?vid=312a2e45-0a64-48c1-b780-670c5f80dc14","ios":"levelo://app?vid=312a2e45-0a64-48c1-b780-670c5f80dc14"},"vehicle_type_id":"4","last_reported":1730967146,"current_range_meters":32400,"station_id":"ce4bguh2rcd13ifvqcj0","pricing_plan_id":"cebpf4jnsgd1na2vs0mg"},{"bike_id":"2cc43e09-3752-43d1-a447-33beecd41472","system_id":"levelo_inurba_marseille","lat":43.29041,"lon":5.39945,"is_reserved":false,"is_disabled":false,"rental_uris":{"android":"levelo://app?vid=2cc43e09-3752-43d1-a447-33beecd41472","ios":"levelo://app?vid=2cc43e09-3752-43d1-a447-33beecd41472"},"vehicle_type_id":"4","last_reported":1730967146,"current_range_meters":30400,"station_id":"ce4bh392rcd13ifvqdm0","pricing_plan_id":"cebpf4jnsgd1na2vs0mg"},{"bike_id":"d9d3ce7f-464c-4fdd-b176-fcd32cfc4a2a","system_id":"levelo_inurba_marseille","lat":43.25579,"lon":5.38231,"is_reserved":false,"is_disabled":false,"rental_uris":{"android":"levelo://app?vid=d9d3ce7f-464c-4fdd-b176-fcd32cfc4a2a","ios":"levelo://app?vid=d9d3ce7f-464c-4fdd-b176-fcd32cfc4a2a"},"vehicle_type_id":"4","last_reported":1730967146,"current_range_meters":32400,"station_id":"ce4bhih2rcd13ifvqfs0","pricing_plan_id":"cebpf4jnsgd1na2vs0mg"},{"bike_id":"c581a65f-8a5f-4ad5-991a-184d8880386c","system_id":"levelo_inurba_marseille","lat":43.24386,"lon":5.37055,"is_reserved":false,"is_disabled":false,"rental_uris":{"android":"levelo://app?vid=c581a65f-8a5f-4ad5-991a-184d8880386c","ios":"levelo://app?vid=c581a65f-8a5f-4ad5-991a-184d8880386c"},"vehicle_type_id":"4","last_reported":1730967146,"current_range_meters":8800,"station_id":"ce4bhhh2rcd13ifvqfk0","pricing_plan_id":"cebpf4jnsgd1na2vs0mg"},{"bike_id":"bb0cfcb7-0065-4ad1-b8a0-39dc30edd6fc","system_id":"levelo_inurba_marseille","lat":43.27968,"lon":5.38726,"is_reserved":false,"is_disabled":false,"rental_uris":{"android":"levelo://app?vid=bb0cfcb7-0065-4ad1-b8a0-39dc30edd6fc","ios":"levelo://app?vid=bb0cfcb7-0065-4ad1-b8a0-39dc30edd6fc"},"vehicle_type_id":"4","last_reported":1730967146,"current_range_meters":37600,"station_id":"ce4bhg12rcd13ifvqf80","pricing_plan_id":"cebpf4jnsgd1na2vs0mg"},{"bike_id":"6080b50e-dc53-41d1-ad52-4f06b49f8f27","system_id":"levelo_inurba_marseille","lat":43.31339,"lon":5.3672,"is_reserved":false,"is_disabled":false,"rental_uris":{"android":"levelo://app?vid=6080b50e-dc53-41d1-ad52-4f06b49f8f27","ios":"levelo://app?vid=6080b50e-dc53-41d1-ad52-4f06b49f8f27"},"vehicle_type_id":"4","last_reported":1730967146,"current_range_meters":27200,"station_id":"ce4bgr92rcd13ifvqc6g","pricing_plan_id":"cebpf4jnsgd1na2vs0mg"},{"bike_id":"1a32167b-5d04-4b6c-84cb-72d8b46b6fea","system_id":"levelo_inurba_marseille","lat":43.28935,"lon":5.36395,"is_reserved":false,"is_disabled":false,"rental_uris":{"android":"levelo://app?vid=1a32167b-5d04-4b6c-84cb-72d8b46b6fea","ios":"levelo://app?vid=1a32167b-5d04-4b6c-84cb-72d8b46b6fea"},"vehicle_type_id":"4","last_reported":1730967146,"current_range_meters":27600,"station_id":"ce4bhc92rcd13ifvqetg","pricing_plan_id":"cebpf4jnsgd1na2vs0mg"},{"bike_id":"5d0eb35a-d4b8-4ad0-a229-7c367289654b","system_id":"levelo_inurba_marseille","lat":43.29902,"lon":5.38137,"is_reserved":false,"is_disabled":false,"rental_uris":{"android":"levelo://app?vid=5d0eb35a-d4b8-4ad0-a229-7c367289654b","ios":"levelo://app?vid=5d0eb35a-d4b8-4ad0-a229-7c367289654b"},"vehicle_type_id":"4","last_reported":1730967146,"current_range_meters":37600,"station_id":"ce4bgj12rcd13ifvqbc0","pricing_plan_id":"cebpf4jnsgd1na2vs0mg"},{"bike_id":"08f92521-0bfb-4a85-9556-944f8cfa70ca","system_id":"levelo_inurba_marseille","lat":43.30153,"lon":5.38077,"is_reserved":false,"is_disabled":false,"rental_uris":{"android":"levelo://app?vid=08f92521-0bfb-4a85-9556-944f8cfa70ca","ios":"levelo://app?vid=08f92521-0bfb-4a85-9556-944f8cfa70ca"},"vehicle_type_id":"4","last_reported":1730967146,"current_range_meters":27200,"station_id":"ce4bgjp2rcd13ifvqbh0","pricing_plan_id":"cebpf4jnsgd1na2vs0mg"},{"bike_id":"b4acb205-fefb-4ff0-a0f5-e0b7a0a1fe0d","system_id":"levelo_inurba_marseille","lat":43.279893,"lon":5.416627,"is_reserved":false,"is_disabled":false,"rental_uris":{"android":"levelo://app?vid=b4acb205-fefb-4ff0-a0f5-e0b7a0a1fe0d","ios":"levelo://app?vid=b4acb205-fefb-4ff0-a0f5-e0b7a0a1fe0d"},"vehicle_type_id":"4","last_reported":1730967146,"current_range_meters":30800,"station_id":"ce4bho12rcd13ifvqh1g","pricing_plan_id":"cebpf4jnsgd1na2vs0mg"},{"bike_id":"246ba67c-82f0-4eaa-945c-ad5d72cee055","system_id":"levelo_inurba_marseille","lat":43.290194,"lon":5.381227,"is_reserved":false,"is_disabled":false,"rental_uris":{"android":"levelo://app?vid=246ba67c-82f0-4eaa-945c-ad5d72cee055","ios":"levelo://app?vid=246ba67c-82f0-4eaa-945c-ad5d72cee055"},"vehicle_type_id":"4","last_reported":1730967146,"current_range_meters":13600,"station_id":"ce4bh4p2rcd13ifvqe1g","pricing_plan_id":"cebpf4jnsgd1na2vs0mg"},{"bike_id":"148a05b0-5e9b-4a2d-af89-c42d1ba92550","system_id":"levelo_inurba_marseille","lat":43.28034,"lon":5.36948,"is_reserved":false,"is_disabled":false,"rental_uris":{"android":"levelo://app?vid=148a05b0-5e9b-4a2d-af89-c42d1ba92550","ios":"levelo://app?vid=148a05b0-5e9b-4a2d-af89-c42d1ba92550"},"vehicle_type_id":"4","last_reported":1730967146,"current_range_meters":28400,"station_id":"ce4bha12rcd13ifvqef0","pricing_plan_id":"cebpf4jnsgd1na2vs0mg"},{"bike_id":"933271ee-c87c-49ba-af4e-414a76ba1f14","system_id":"levelo_inurba_marseille","lat":43.29554,"lon":5.4228,"is_reserved":false,"is_disabled":false,"rental_uris":{"android":"levelo://app?vid=933271ee-c87c-49ba-af4e-414a76ba1f14","ios":"levelo://app?vid=933271ee-c87c-49ba-af4e-414a76ba1f14"},"vehicle_type_id":"4","last_reported":1730967146,"current_range_meters":9600,"station_id":"ce4bhph2rcd13ifvqhdg","pricing_plan_id":"cebpf4jnsgd1na2vs0mg"},{"bike_id":"70d67e8b-cf90-41d7-a359-ddc74e8f5edf","system_id":"levelo_inurba_marseille","lat":43.2593,"lon":5.40913,"is_reserved":false,"is_disabled":false,"rental_uris":{"android":"levelo://app?vid=70d67e8b-cf90-41d7-a359-ddc74e8f5edf","ios":"levelo://app?vid=70d67e8b-cf90-41d7-a359-ddc74e8f5edf"},"vehicle_type_id":"4","last_reported":1730967146,"current_range_meters":12000,"station_id":"ce4bhm92rcd13ifvqglg","pricing_plan_id":"cebpf4jnsgd1na2vs0mg"},{"bike_id":"42adc473-d30e-4e25-b3c8-e1786fd1cacc","system_id":"levelo_inurba_marseille","lat":43.24181,"lon":5.39722,"is_reserved":false,"is_disabled":false,"rental_uris":{"android":"levelo://app?vid=42adc473-d30e-4e25-b3c8-e1786fd1cacc","ios":"levelo://app?vid=42adc473-d30e-4e25-b3c8-e1786fd1cacc"},"vehicle_type_id":"4","last_reported":1730967146,"current_range_meters":30800,"station_id":"ce4bhn12rcd13ifvqgpg","pricing_plan_id":"cebpf4jnsgd1na2vs0mg"},{"bike_id":"d6012cce-4213-4913-a5ff-a23b071f00be","system_id":"levelo_inurba_marseille","lat":43.296173,"lon":5.371499,"is_reserved":false,"is_disabled":false,"rental_uris":{"android":"levelo://app?vid=d6012cce-4213-4913-a5ff-a23b071f00be","ios":"levelo://app?vid=d6012cce-4213-4913-a5ff-a23b071f00be"},"vehicle_type_id":"4","last_reported":1730967146,"current_range_meters":14400,"station_id":"ce4bgnh2rcd13ifvqc0g","pricing_plan_id":"cebpf4jnsgd1na2vs0mg"},{"bike_id":"222774d4-eeca-4df8-867e-cb2f0b5d02f3","system_id":"levelo_inurba_marseille","lat":43.28931,"lon":5.36356,"is_reserved":false,"is_disabled":false,"rental_uris":{"android":"levelo://app?vid=222774d4-eeca-4df8-867e-cb2f0b5d02f3","ios":"levelo://app?vid=222774d4-eeca-4df8-867e-cb2f0b5d02f3"},"vehicle_type_id":"4","last_reported":1730967146,"current_range_meters":18000,"station_id":"ce4bgi92rcd13ifvqb90","pricing_plan_id":"cebpf4jnsgd1na2vs0mg"},{"bike_id":"b713cad6-70bd-42cf-b1ca-e1069e290e82","system_id":"levelo_inurba_marseille","lat":43.31343,"lon":5.3672,"is_reserved":false,"is_disabled":false,"rental_uris":{"android":"levelo://app?vid=b713cad6-70bd-42cf-b1ca-e1069e290e82","ios":"levelo://app?vid=b713cad6-70bd-42cf-b1ca-e1069e290e82"},"vehicle_type_id":"4","last_reported":1730967146,"current_range_meters":22000,"station_id":"ce4bgr92rcd13ifvqc6g","pricing_plan_id":"cebpf4jnsgd1na2vs0mg"},{"bike_id":"fa0b7a65-cee1-4d2a-a04c-01c31bf50672","system_id":"levelo_inurba_marseille","lat":43.24154,"lon":5.364,"is_reserved":false,"is_disabled":false,"rental_uris":{"android":"levelo://app?vid=fa0b7a65-cee1-4d2a-a04c-01c31bf50672","ios":"levelo://app?vid=fa0b7a65-cee1-4d2a-a04c-01c31bf50672"},"vehicle_type_id":"4","last_reported":1730967146,"current_range_meters":24800,"station_id":"cpo36qri1sfpv3e86is0","pricing_plan_id":"cebpf4jnsgd1na2vs0mg"},{"bike_id":"6d39b78b-f75d-457f-82c4-bed17651dc53","system_id":"levelo_inurba_marseille","lat":43.30462,"lon":5.37913,"is_reserved":false,"is_disabled":false,"rental_uris":{"android":"levelo://app?vid=6d39b78b-f75d-457f-82c4-bed17651dc53","ios":"levelo://app?vid=6d39b78b-f75d-457f-82c4-bed17651dc53"},"vehicle_type_id":"4","last_reported":1730967146,"current_range_meters":20800,"station_id":"ce4bgup2rcd13ifvqcn0","pricing_plan_id":"cebpf4jnsgd1na2vs0mg"},{"bike_id":"2cf471a0-6b36-4655-beec-9a8ec9fa65d0","system_id":"levelo_inurba_marseille","lat":43.29031,"lon":5.39961,"is_reserved":false,"is_disabled":false,"rental_uris":{"android":"levelo://app?vid=2cf471a0-6b36-4655-beec-9a8ec9fa65d0","ios":"levelo://app?vid=2cf471a0-6b36-4655-beec-9a8ec9fa65d0"},"vehicle_type_id":"4","last_reported":1730967146,"current_range_meters":37600,"station_id":"ce4bh392rcd13ifvqdm0","pricing_plan_id":"cebpf4jnsgd1na2vs0mg"},{"bike_id":"3b5f0a17-487a-476d-a0c7-1f24c4dda983","system_id":"levelo_inurba_marseille","lat":43.30646,"lon":5.40066,"is_reserved":false,"is_disabled":false,"rental_uris":{"android":"levelo://app?vid=3b5f0a17-487a-476d-a0c7-1f24c4dda983","ios":"levelo://app?vid=3b5f0a17-487a-476d-a0c7-1f24c4dda983"},"vehicle_type_id":"4","last_reported":1730967146,"current_range_meters":38400,"station_id":"ce4bh112rcd13ifvqda0","pricing_plan_id":"cebpf4jnsgd1na2vs0mg"},{"bike_id":"5f71bbbc-b440-48b7-a743-bb6bda19f0ba","system_id":"levelo_inurba_marseille","lat":43.27492,"lon":5.42451,"is_reserved":false,"is_disabled":false,"rental_uris":{"android":"levelo://app?vid=5f71bbbc-b440-48b7-a743-bb6bda19f0ba","ios":"levelo://app?vid=5f71bbbc-b440-48b7-a743-bb6bda19f0ba"},"vehicle_type_id":"4","last_reported":1730967146,"current_range_meters":8400,"station_id":"ce4bhn92rcd13ifvqgrg","pricing_plan_id":"cebpf4jnsgd1na2vs0mg"},{"bike_id":"5205fbf7-8d59-4be8-bf69-1e6422de7447","system_id":"levelo_inurba_marseille","lat":43.30889,"lon":5.36862,"is_reserved":false,"is_disabled":false,"rental_uris":{"android":"levelo://app?vid=5205fbf7-8d59-4be8-bf69-1e6422de7447","ios":"levelo://app?vid=5205fbf7-8d59-4be8-bf69-1e6422de7447"},"vehicle_type_id":"4","last_reported":1730967146,"current_range_meters":8400,"station_id":"ce4bgn92rcd13ifvqbvg","pricing_plan_id":"cebpf4jnsgd1na2vs0mg"},{"bike_id":"046ad70a-ba24-4091-ab8a-bac3c6d4b438","system_id":"levelo_inurba_marseille","lat":43.29779,"lon":5.39312,"is_reserved":false,"is_disabled":false,"rental_uris":{"android":"levelo://app?vid=046ad70a-ba24-4091-ab8a-bac3c6d4b438","ios":"levelo://app?vid=046ad70a-ba24-4091-ab8a-bac3c6d4b438"},"vehicle_type_id":"4","last_reported":1730967146,"current_range_meters":34000,"station_id":"chh1huq6cuj3fo74tm60","pricing_plan_id":"cebpf4jnsgd1na2vs0mg"},{"bike_id":"317e22fd-8472-4da8-8656-66e026a126d6","system_id":"levelo_inurba_marseille","lat":43.24074,"lon":5.37755,"is_reserved":false,"is_disabled":false,"rental_uris":{"android":"levelo://app?vid=317e22fd-8472-4da8-8656-66e026a126d6","ios":"levelo://app?vid=317e22fd-8472-4da8-8656-66e026a126d6"},"vehicle_type_id":"4","last_reported":1730967146,"current_range_meters":36000,"station_id":"ce4bhnp2rcd13ifvqgvg","pricing_plan_id":"cebpf4jnsgd1na2vs0mg"},{"bike_id":"a8db27c5-8db7-466f-ad34-8d182c889206","system_id":"levelo_inurba_marseille","lat":43.30543,"lon":5.36705,"is_reserved":false,"is_disabled":false,"rental_uris":{"android":"levelo://app?vid=a8db27c5-8db7-466f-ad34-8d182c889206","ios":"levelo://app?vid=a8db27c5-8db7-466f-ad34-8d182c889206"},"vehicle_type_id":"4","last_reported":1730967146,"current_range_meters":6000,"station_id":"ce4bgrp2rcd13ifvqc9g","pricing_plan_id":"cebpf4jnsgd1na2vs0mg"},{"bike_id":"73ddab19-f3bf-49d8-9a14-da51e0ed8f6c","system_id":"levelo_inurba_marseille","lat":43.23152,"lon":5.43716,"is_reserved":false,"is_disabled":false,"rental_uris":{"android":"levelo://app?vid=73ddab19-f3bf-49d8-9a14-da51e0ed8f6c","ios":"levelo://app?vid=73ddab19-f3bf-49d8-9a14-da51e0ed8f6c"},"vehicle_type_id":"4","last_reported":1730967146,"current_range_meters":39200,"station_id":"ce4bhmp2rcd13ifvqgog","pricing_plan_id":"cebpf4jnsgd1na2vs0mg"},{"bike_id":"d1eef8ed-8492-4f33-b593-cbb9c4965d77","system_id":"levelo_inurba_marseille","lat":43.27492,"lon":5.42446,"is_reserved":false,"is_disabled":false,"rental_uris":{"android":"levelo://app?vid=d1eef8ed-8492-4f33-b593-cbb9c4965d77","ios":"levelo://app?vid=d1eef8ed-8492-4f33-b593-cbb9c4965d77"},"vehicle_type_id":"4","last_reported":1730967146,"current_range_meters":31200,"station_id":"ce4bhn92rcd13ifvqgrg","pricing_plan_id":"cebpf4jnsgd1na2vs0mg"},{"bike_id":"b3cfe5b9-3e84-4f44-9e4e-ba4fa07f2071","system_id":"levelo_inurba_marseille","lat":43.2408,"lon":5.37755,"is_reserved":false,"is_disabled":false,"rental_uris":{"android":"levelo://app?vid=b3cfe5b9-3e84-4f44-9e4e-ba4fa07f2071","ios":"levelo://app?vid=b3cfe5b9-3e84-4f44-9e4e-ba4fa07f2071"},"vehicle_type_id":"4","last_reported":1730967146,"current_range_meters":34000,"station_id":"ce4bhnp2rcd13ifvqgvg","pricing_plan_id":"cebpf4jnsgd1na2vs0mg"},{"bike_id":"85edd363-d1c8-4682-962e-cb10cebee847","system_id":"levelo_inurba_marseille","lat":43.30261,"lon":5.40084,"is_reserved":false,"is_disabled":false,"rental_uris":{"android":"levelo://app?vid=85edd363-d1c8-4682-962e-cb10cebee847","ios":"levelo://app?vid=85edd363-d1c8-4682-962e-cb10cebee847"},"vehicle_type_id":"4","last_reported":1730967146,"current_range_meters":23200,"station_id":"ce4bgvh2rcd13ifvqcs0","pricing_plan_id":"cebpf4jnsgd1na2vs0mg"},{"bike_id":"6648ef17-3082-4729-9252-7b0bafb502be","system_id":"levelo_inurba_marseille","lat":43.23191,"lon":5.35556,"is_reserved":false,"is_disabled":false,"rental_uris":{"android":"levelo://app?vid=6648ef17-3082-4729-9252-7b0bafb502be","ios":"levelo://app?vid=6648ef17-3082-4729-9252-7b0bafb502be"},"vehicle_type_id":"4","last_reported":1730967146,"current_range_meters":38800,"station_id":"ce4bhu92rcd13ifvqi70","pricing_plan_id":"cebpf4jnsgd1na2vs0mg"},{"bike_id":"e78dab81-2c63-4d84-bcf1-50edbd1b5fbc","system_id":"levelo_inurba_marseille","lat":43.274279,"lon":5.394199,"is_reserved":false,"is_disabled":false,"rental_uris":{"android":"levelo://app?vid=e78dab81-2c63-4d84-bcf1-50edbd1b5fbc","ios":"levelo://app?vid=e78dab81-2c63-4d84-bcf1-50edbd1b5fbc"},"vehicle_type_id":"4","last_reported":1730967146,"current_range_meters":20400,"station_id":"ce4bhdp2rcd13ifvqf20","pricing_plan_id":"cebpf4jnsgd1na2vs0mg"},{"bike_id":"19645b45-8dc5-44dd-9eea-afb63875c101","system_id":"levelo_inurba_marseille","lat":43.31709,"lon":5.3774,"is_reserved":false,"is_disabled":false,"rental_uris":{"android":"levelo://app?vid=19645b45-8dc5-44dd-9eea-afb63875c101","ios":"levelo://app?vid=19645b45-8dc5-44dd-9eea-afb63875c101"},"vehicle_type_id":"4","last_reported":1730967146,"current_range_meters":10800,"station_id":"ce4bgth2rcd13ifvqch0","pricing_plan_id":"cebpf4jnsgd1na2vs0mg"},{"bike_id":"b5ab3cce-171f-4768-826f-37879f0a2854","system_id":"levelo_inurba_marseille","lat":43.24071,"lon":5.37758,"is_reserved":false,"is_disabled":false,"rental_uris":{"android":"levelo://app?vid=b5ab3cce-171f-4768-826f-37879f0a2854","ios":"levelo://app?vid=b5ab3cce-171f-4768-826f-37879f0a2854"},"vehicle_type_id":"4","last_reported":1730967146,"current_range_meters":7200,"station_id":"ce4bhnp2rcd13ifvqgvg","pricing_plan_id":"cebpf4jnsgd1na2vs0mg"},{"bike_id":"c16a6dd7-d576-4be0-a56c-522fbe1a1fcb","system_id":"levelo_inurba_marseille","lat":43.2594,"lon":5.40903,"is_reserved":false,"is_disabled":false,"rental_uris":{"android":"levelo://app?vid=c16a6dd7-d576-4be0-a56c-522fbe1a1fcb","ios":"levelo://app?vid=c16a6dd7-d576-4be0-a56c-522fbe1a1fcb"},"vehicle_type_id":"4","last_reported":1730967146,"current_range_meters":6400,"station_id":"ce4bhm92rcd13ifvqglg","pricing_plan_id":"cebpf4jnsgd1na2vs0mg"},{"bike_id":"605d4e9e-fbdb-4b92-83ae-fd538c3fa3db","system_id":"levelo_inurba_marseille","lat":43.24073,"lon":5.37758,"is_reserved":false,"is_disabled":false,"rental_uris":{"android":"levelo://app?vid=605d4e9e-fbdb-4b92-83ae-fd538c3fa3db","ios":"levelo://app?vid=605d4e9e-fbdb-4b92-83ae-fd538c3fa3db"},"vehicle_type_id":"4","last_reported":1730967146,"current_range_meters":10800,"station_id":"ce4bhnp2rcd13ifvqgvg","pricing_plan_id":"cebpf4jnsgd1na2vs0mg"},{"bike_id":"5cc416b8-0c96-4a8f-b63a-5622ecd8925a","system_id":"levelo_inurba_marseille","lat":43.289312,"lon":5.396229,"is_reserved":false,"is_disabled":false,"rental_uris":{"android":"levelo://app?vid=5cc416b8-0c96-4a8f-b63a-5622ecd8925a","ios":"levelo://app?vid=5cc416b8-0c96-4a8f-b63a-5622ecd8925a"},"vehicle_type_id":"4","last_reported":1730967146,"current_range_meters":25200,"station_id":"ce4bh3h2rcd13ifvqdn0","pricing_plan_id":"cebpf4jnsgd1na2vs0mg"},{"bike_id":"e2f62a7a-4a87-4252-a97d-2b736d23e924","system_id":"levelo_inurba_marseille","lat":43.29907,"lon":5.37471,"is_reserved":false,"is_disabled":false,"rental_uris":{"android":"levelo://app?vid=e2f62a7a-4a87-4252-a97d-2b736d23e924","ios":"levelo://app?vid=e2f62a7a-4a87-4252-a97d-2b736d23e924"},"vehicle_type_id":"4","last_reported":1730967146,"current_range_meters":28800,"station_id":"ce4bgjh2rcd13ifvqbg0","pricing_plan_id":"cebpf4jnsgd1na2vs0mg"},{"bike_id":"c5b7820d-78fe-4750-89b8-a0efef8e5b8b","system_id":"levelo_inurba_marseille","lat":43.24653,"lon":5.38164,"is_reserved":false,"is_disabled":false,"rental_uris":{"android":"levelo://app?vid=c5b7820d-78fe-4750-89b8-a0efef8e5b8b","ios":"levelo://app?vid=c5b7820d-78fe-4750-89b8-a0efef8e5b8b"},"vehicle_type_id":"4","last_reported":1730967146,"current_range_meters":24000,"station_id":"ce4bhih2rcd13ifvqfr0","pricing_plan_id":"cebpf4jnsgd1na2vs0mg"},{"bike_id":"a547bfdb-0748-4bca-a439-abf8bd33088d","system_id":"levelo_inurba_marseille","lat":43.2957,"lon":5.39995,"is_reserved":false,"is_disabled":false,"rental_uris":{"android":"levelo://app?vid=a547bfdb-0748-4bca-a439-abf8bd33088d","ios":"levelo://app?vid=a547bfdb-0748-4bca-a439-abf8bd33088d"},"vehicle_type_id":"4","last_reported":1730967146,"current_range_meters":9600,"station_id":"ce4bh312rcd13ifvqdj0","pricing_plan_id":"cebpf4jnsgd1na2vs0mg"},{"bike_id":"77cbd3d7-f87c-41c7-9ee2-ce007afab03c","system_id":"levelo_inurba_marseille","lat":43.31087,"lon":5.42446,"is_reserved":false,"is_disabled":false,"rental_uris":{"android":"levelo://app?vid=77cbd3d7-f87c-41c7-9ee2-ce007afab03c","ios":"levelo://app?vid=77cbd3d7-f87c-41c7-9ee2-ce007afab03c"},"vehicle_type_id":"4","last_reported":1730967146,"current_range_meters":30800,"station_id":"ce4bhp92rcd13ifvqhag","pricing_plan_id":"cebpf4jnsgd1na2vs0mg"},{"bike_id":"b0a90dc9-62f4-4afc-a7f7-e2037fc95ad6","system_id":"levelo_inurba_marseille","lat":43.27484,"lon":5.42453,"is_reserved":false,"is_disabled":false,"rental_uris":{"android":"levelo://app?vid=b0a90dc9-62f4-4afc-a7f7-e2037fc95ad6","ios":"levelo://app?vid=b0a90dc9-62f4-4afc-a7f7-e2037fc95ad6"},"vehicle_type_id":"4","last_reported":1730967146,"current_range_meters":32400,"station_id":"ce4bhn92rcd13ifvqgrg","pricing_plan_id":"cebpf4jnsgd1na2vs0mg"},{"bike_id":"bcaefe79-c60d-49dc-bce9-3d2082bc57ba","system_id":"levelo_inurba_marseille","lat":43.28155,"lon":5.42635,"is_reserved":false,"is_disabled":false,"rental_uris":{"android":"levelo://app?vid=bcaefe79-c60d-49dc-bce9-3d2082bc57ba","ios":"levelo://app?vid=bcaefe79-c60d-49dc-bce9-3d2082bc57ba"},"vehicle_type_id":"4","last_reported":1730967146,"current_range_meters":30400,"station_id":"ce4bhnh2rcd13ifvqgug","pricing_plan_id":"cebpf4jnsgd1na2vs0mg"},{"bike_id":"85dfbf9b-c0a4-4a9d-bc2b-c3b2b3b4f0c0","system_id":"levelo_inurba_marseille","lat":43.31338,"lon":5.36724,"is_reserved":false,"is_disabled":false,"rental_uris":{"android":"levelo://app?vid=85dfbf9b-c0a4-4a9d-bc2b-c3b2b3b4f0c0","ios":"levelo://app?vid=85dfbf9b-c0a4-4a9d-bc2b-c3b2b3b4f0c0"},"vehicle_type_id":"4","last_reported":1730967146,"current_range_meters":36000,"station_id":"ce4bgr92rcd13ifvqc6g","pricing_plan_id":"cebpf4jnsgd1na2vs0mg"},{"bike_id":"b20b5964-0c91-4e48-87f0-d272762ebaf4","system_id":"levelo_inurba_marseille","lat":43.29039,"lon":5.39977,"is_reserved":false,"is_disabled":false,"rental_uris":{"android":"levelo://app?vid=b20b5964-0c91-4e48-87f0-d272762ebaf4","ios":"levelo://app?vid=b20b5964-0c91-4e48-87f0-d272762ebaf4"},"vehicle_type_id":"4","last_reported":1730967146,"current_range_meters":30000,"station_id":"ce4bh392rcd13ifvqdm0","pricing_plan_id":"cebpf4jnsgd1na2vs0mg"},{"bike_id":"79582731-c85c-44df-9358-c2952f2edf19","system_id":"levelo_inurba_marseille","lat":43.26685,"lon":5.38269,"is_reserved":false,"is_disabled":false,"rental_uris":{"android":"levelo://app?vid=79582731-c85c-44df-9358-c2952f2edf19","ios":"levelo://app?vid=79582731-c85c-44df-9358-c2952f2edf19"},"vehicle_type_id":"4","last_reported":1730967146,"current_range_meters":8400,"station_id":"ce4bhg92rcd13ifvqf90","pricing_plan_id":"cebpf4jnsgd1na2vs0mg"},{"bike_id":"ec0e1ce3-9509-4383-8c59-0ddff5648ab1","system_id":"levelo_inurba_marseille","lat":43.25717,"lon":5.41113,"is_reserved":false,"is_disabled":false,"rental_uris":{"android":"levelo://app?vid=ec0e1ce3-9509-4383-8c59-0ddff5648ab1","ios":"levelo://app?vid=ec0e1ce3-9509-4383-8c59-0ddff5648ab1"},"vehicle_type_id":"4","last_reported":1730967146,"current_range_meters":26800,"station_id":"ce4bhkp2rcd13ifvqgd0","pricing_plan_id":"cebpf4jnsgd1na2vs0mg"},{"bike_id":"dfdcdfb7-6179-4cdc-b4c4-a6f9385b4747","system_id":"levelo_inurba_marseille","lat":43.29842,"lon":5.36267,"is_reserved":false,"is_disabled":false,"rental_uris":{"android":"levelo://app?vid=dfdcdfb7-6179-4cdc-b4c4-a6f9385b4747","ios":"levelo://app?vid=dfdcdfb7-6179-4cdc-b4c4-a6f9385b4747"},"vehicle_type_id":"4","last_reported":1730967146,"current_range_meters":36000,"station_id":"ce4bgpp2rcd13ifvqc3g","pricing_plan_id":"cebpf4jnsgd1na2vs0mg"},{"bike_id":"56724e01-9843-478f-9957-90072d770c6c","system_id":"levelo_inurba_marseille","lat":43.2319,"lon":5.35554,"is_reserved":false,"is_disabled":false,"rental_uris":{"android":"levelo://app?vid=56724e01-9843-478f-9957-90072d770c6c","ios":"levelo://app?vid=56724e01-9843-478f-9957-90072d770c6c"},"vehicle_type_id":"4","last_reported":1730967146,"current_range_meters":11200,"station_id":"ce4bhu92rcd13ifvqi70","pricing_plan_id":"cebpf4jnsgd1na2vs0mg"},{"bike_id":"138edf40-8b55-4b5b-8ebd-2a9cd72069a9","system_id":"levelo_inurba_marseille","lat":43.24669,"lon":5.3816,"is_reserved":false,"is_disabled":false,"rental_uris":{"android":"levelo://app?vid=138edf40-8b55-4b5b-8ebd-2a9cd72069a9","ios":"levelo://app?vid=138edf40-8b55-4b5b-8ebd-2a9cd72069a9"},"vehicle_type_id":"4","last_reported":1730967146,"current_range_meters":12000,"station_id":"ce4bhih2rcd13ifvqfr0","pricing_plan_id":"cebpf4jnsgd1na2vs0mg"},{"bike_id":"2133dfbe-49e8-4189-a0e7-2637129ed1cc","system_id":"levelo_inurba_marseille","lat":43.30152,"lon":5.38083,"is_reserved":false,"is_disabled":false,"rental_uris":{"android":"levelo://app?vid=2133dfbe-49e8-4189-a0e7-2637129ed1cc","ios":"levelo://app?vid=2133dfbe-49e8-4189-a0e7-2637129ed1cc"},"vehicle_type_id":"4","last_reported":1730967146,"current_range_meters":14400,"station_id":"ce4bgjp2rcd13ifvqbh0","pricing_plan_id":"cebpf4jnsgd1na2vs0mg"},{"bike_id":"cde33d01-4fdf-4588-9993-50576e545d63","system_id":"levelo_inurba_marseille","lat":43.29901,"lon":5.43671,"is_reserved":false,"is_disabled":false,"rental_uris":{"android":"levelo://app?vid=cde33d01-4fdf-4588-9993-50576e545d63","ios":"levelo://app?vid=cde33d01-4fdf-4588-9993-50576e545d63"},"vehicle_type_id":"4","last_reported":1730967146,"current_range_meters":35200,"station_id":"ce4bhpp2rcd13ifvqhfg","pricing_plan_id":"cebpf4jnsgd1na2vs0mg"},{"bike_id":"f619f64c-3d71-450e-bb0a-b78b23a16f33","system_id":"levelo_inurba_marseille","lat":43.31348,"lon":5.36719,"is_reserved":false,"is_disabled":false,"rental_uris":{"android":"levelo://app?vid=f619f64c-3d71-450e-bb0a-b78b23a16f33","ios":"levelo://app?vid=f619f64c-3d71-450e-bb0a-b78b23a16f33"},"vehicle_type_id":"4","last_reported":1730967146,"current_range_meters":2800,"station_id":"ce4bgr92rcd13ifvqc6g","pricing_plan_id":"cebpf4jnsgd1na2vs0mg"},{"bike_id":"6a2e4514-9368-4cd3-acd7-0c0850422c9f","system_id":"levelo_inurba_marseille","lat":43.27311,"lon":5.39091,"is_reserved":false,"is_disabled":false,"rental_uris":{"android":"levelo://app?vid=6a2e4514-9368-4cd3-acd7-0c0850422c9f","ios":"levelo://app?vid=6a2e4514-9368-4cd3-acd7-0c0850422c9f"},"vehicle_type_id":"4","last_reported":1730967146,"current_range_meters":22800,"station_id":"ce4bhgp2rcd13ifvqfe0","pricing_plan_id":"cebpf4jnsgd1na2vs0mg"},{"bike_id":"9c7ef5b3-fd63-4a42-942a-2eb93419782e","system_id":"levelo_inurba_marseille","lat":43.25866,"lon":5.39899,"is_reserved":false,"is_disabled":false,"rental_uris":{"android":"levelo://app?vid=9c7ef5b3-fd63-4a42-942a-2eb93419782e","ios":"levelo://app?vid=9c7ef5b3-fd63-4a42-942a-2eb93419782e"},"vehicle_type_id":"4","last_reported":1730967146,"current_range_meters":37600,"station_id":"ce4bhl92rcd13ifvqghg","pricing_plan_id":"cebpf4jnsgd1na2vs0mg"},{"bike_id":"60204e1a-d821-43cb-bd38-21015cddbf4b","system_id":"levelo_inurba_marseille","lat":43.29192,"lon":5.39331,"is_reserved":false,"is_disabled":false,"rental_uris":{"android":"levelo://app?vid=60204e1a-d821-43cb-bd38-21015cddbf4b","ios":"levelo://app?vid=60204e1a-d821-43cb-bd38-21015cddbf4b"},"vehicle_type_id":"4","last_reported":1730967146,"current_range_meters":13600,"station_id":"ce4bh192rcd13ifvqdd0","pricing_plan_id":"cebpf4jnsgd1na2vs0mg"},{"bike_id":"34634ce2-f8c9-4afd-9d91-a815c55201fd","system_id":"levelo_inurba_marseille","lat":43.28419,"lon":5.40933,"is_reserved":false,"is_disabled":false,"rental_uris":{"android":"levelo://app?vid=34634ce2-f8c9-4afd-9d91-a815c55201fd","ios":"levelo://app?vid=34634ce2-f8c9-4afd-9d91-a815c55201fd"},"vehicle_type_id":"4","last_reported":1730967146,"current_range_meters":26800,"station_id":"","pricing_plan_id":"cebpf4jnsgd1na2vs0mg"},{"bike_id":"5eed7c4f-166a-423f-b11f-87a3edace396","system_id":"levelo_inurba_marseille","lat":43.25937,"lon":5.409,"is_reserved":false,"is_disabled":false,"rental_uris":{"android":"levelo://app?vid=5eed7c4f-166a-423f-b11f-87a3edace396","ios":"levelo://app?vid=5eed7c4f-166a-423f-b11f-87a3edace396"},"vehicle_type_id":"4","last_reported":1730967146,"current_range_meters":7200,"station_id":"ce4bhm92rcd13ifvqglg","pricing_plan_id":"cebpf4jnsgd1na2vs0mg"},{"bike_id":"3a2440ba-e3bd-4086-85b1-ada68df6a6f3","system_id":"levelo_inurba_marseille","lat":43.291964,"lon":5.393166,"is_reserved":false,"is_disabled":false,"rental_uris":{"android":"levelo://app?vid=3a2440ba-e3bd-4086-85b1-ada68df6a6f3","ios":"levelo://app?vid=3a2440ba-e3bd-4086-85b1-ada68df6a6f3"},"vehicle_type_id":"4","last_reported":1730967146,"current_range_meters":31200,"station_id":"ce4bh192rcd13ifvqdd0","pricing_plan_id":"cebpf4jnsgd1na2vs0mg"},{"bike_id":"5174ae6b-73b7-4eb9-b82e-9c61c1f78ce8","system_id":"levelo_inurba_marseille","lat":43.31225,"lon":5.40607,"is_reserved":false,"is_disabled":false,"rental_uris":{"android":"levelo://app?vid=5174ae6b-73b7-4eb9-b82e-9c61c1f78ce8","ios":"levelo://app?vid=5174ae6b-73b7-4eb9-b82e-9c61c1f78ce8"},"vehicle_type_id":"4","last_reported":1730967146,"current_range_meters":17600,"station_id":"","pricing_plan_id":"cebpf4jnsgd1na2vs0mg"},{"bike_id":"560b8690-a84c-4e4a-80ef-4792530d5f11","system_id":"levelo_inurba_marseille","lat":43.3028,"lon":5.37713,"is_reserved":false,"is_disabled":false,"rental_uris":{"android":"levelo://app?vid=560b8690-a84c-4e4a-80ef-4792530d5f11","ios":"levelo://app?vid=560b8690-a84c-4e4a-80ef-4792530d5f11"},"vehicle_type_id":"4","last_reported":1730967146,"current_range_meters":25600,"station_id":"ce4bguh2rcd13ifvqcj0","pricing_plan_id":"cebpf4jnsgd1na2vs0mg"},{"bike_id":"c3e27800-3ee3-4406-99ec-fa9ce1dee0ca","system_id":"levelo_inurba_marseille","lat":43.30541,"lon":5.36561,"is_reserved":false,"is_disabled":false,"rental_uris":{"android":"levelo://app?vid=c3e27800-3ee3-4406-99ec-fa9ce1dee0ca","ios":"levelo://app?vid=c3e27800-3ee3-4406-99ec-fa9ce1dee0ca"},"vehicle_type_id":"4","last_reported":1730967146,"current_range_meters":37600,"station_id":"ce4bgs12rcd13ifvqcag","pricing_plan_id":"cebpf4jnsgd1na2vs0mg"},{"bike_id":"76733292-6685-4127-a6aa-dc0a61b373d8","system_id":"levelo_inurba_marseille","lat":43.23146,"lon":5.4371,"is_reserved":false,"is_disabled":false,"rental_uris":{"android":"levelo://app?vid=76733292-6685-4127-a6aa-dc0a61b373d8","ios":"levelo://app?vid=76733292-6685-4127-a6aa-dc0a61b373d8"},"vehicle_type_id":"4","last_reported":1730967146,"current_range_meters":38000,"station_id":"ce4bhmp2rcd13ifvqgog","pricing_plan_id":"cebpf4jnsgd1na2vs0mg"},{"bike_id":"0997e0f4-4290-4e2c-a3bf-253b7bbdd77f","system_id":"levelo_inurba_marseille","lat":43.32533,"lon":5.41426,"is_reserved":false,"is_disabled":false,"rental_uris":{"android":"levelo://app?vid=0997e0f4-4290-4e2c-a3bf-253b7bbdd77f","ios":"levelo://app?vid=0997e0f4-4290-4e2c-a3bf-253b7bbdd77f"},"vehicle_type_id":"4","last_reported":1730967146,"current_range_meters":40000,"station_id":"ce4bhq12rcd13ifvqhhg","pricing_plan_id":"cebpf4jnsgd1na2vs0mg"},{"bike_id":"4425573e-d73c-4468-ae36-c95cd2911915","system_id":"levelo_inurba_marseille","lat":43.30152,"lon":5.38078,"is_reserved":false,"is_disabled":false,"rental_uris":{"android":"levelo://app?vid=4425573e-d73c-4468-ae36-c95cd2911915","ios":"levelo://app?vid=4425573e-d73c-4468-ae36-c95cd2911915"},"vehicle_type_id":"4","last_reported":1730967146,"current_range_meters":32000,"station_id":"ce4bgjp2rcd13ifvqbh0","pricing_plan_id":"cebpf4jnsgd1na2vs0mg"},{"bike_id":"7fc39130-d75c-4cdd-8854-b486ba7008ab","system_id":"levelo_inurba_marseille","lat":43.30145,"lon":5.3742,"is_reserved":false,"is_disabled":false,"rental_uris":{"android":"levelo://app?vid=7fc39130-d75c-4cdd-8854-b486ba7008ab","ios":"levelo://app?vid=7fc39130-d75c-4cdd-8854-b486ba7008ab"},"vehicle_type_id":"4","last_reported":1730967146,"current_range_meters":16400,"station_id":"ce4bgs92rcd13ifvqcc0","pricing_plan_id":"cebpf4jnsgd1na2vs0mg"},{"bike_id":"0cd17c10-d65a-4ac8-8ed6-24e276d755ed","system_id":"levelo_inurba_marseille","lat":43.24068,"lon":5.37762,"is_reserved":false,"is_disabled":false,"rental_uris":{"android":"levelo://app?vid=0cd17c10-d65a-4ac8-8ed6-24e276d755ed","ios":"levelo://app?vid=0cd17c10-d65a-4ac8-8ed6-24e276d755ed"},"vehicle_type_id":"4","last_reported":1730967146,"current_range_meters":22000,"station_id":"ce4bhnp2rcd13ifvqgvg","pricing_plan_id":"cebpf4jnsgd1na2vs0mg"},{"bike_id":"a662e305-1e99-4100-a164-c23a160f61e4","system_id":"levelo_inurba_marseille","lat":43.26058,"lon":5.39391,"is_reserved":false,"is_disabled":false,"rental_uris":{"android":"levelo://app?vid=a662e305-1e99-4100-a164-c23a160f61e4","ios":"levelo://app?vid=a662e305-1e99-4100-a164-c23a160f61e4"},"vehicle_type_id":"4","last_reported":1730967146,"current_range_meters":38800,"station_id":"ce4bhh92rcd13ifvqfj0","pricing_plan_id":"cebpf4jnsgd1na2vs0mg"},{"bike_id":"c819360e-bead-4d00-96c1-0cc47dde28e3","system_id":"levelo_inurba_marseille","lat":43.295514,"lon":5.422819,"is_reserved":false,"is_disabled":false,"rental_uris":{"android":"levelo://app?vid=c819360e-bead-4d00-96c1-0cc47dde28e3","ios":"levelo://app?vid=c819360e-bead-4d00-96c1-0cc47dde28e3"},"vehicle_type_id":"4","last_reported":1730967146,"current_range_meters":38000,"station_id":"ce4bhph2rcd13ifvqhdg","pricing_plan_id":"cebpf4jnsgd1na2vs0mg"},{"bike_id":"d1e30271-cd2c-4770-9843-e1d5713bd908","system_id":"levelo_inurba_marseille","lat":43.29033,"lon":5.39985,"is_reserved":false,"is_disabled":false,"rental_uris":{"android":"levelo://app?vid=d1e30271-cd2c-4770-9843-e1d5713bd908","ios":"levelo://app?vid=d1e30271-cd2c-4770-9843-e1d5713bd908"},"vehicle_type_id":"4","last_reported":1730967146,"current_range_meters":34800,"station_id":"ce4bh392rcd13ifvqdm0","pricing_plan_id":"cebpf4jnsgd1na2vs0mg"},{"bike_id":"5b0f60c7-ef1f-4634-8bc2-02af8f6e9225","system_id":"levelo_inurba_marseille","lat":43.29555,"lon":5.42289,"is_reserved":false,"is_disabled":false,"rental_uris":{"android":"levelo://app?vid=5b0f60c7-ef1f-4634-8bc2-02af8f6e9225","ios":"levelo://app?vid=5b0f60c7-ef1f-4634-8bc2-02af8f6e9225"},"vehicle_type_id":"4","last_reported":1730967146,"current_range_meters":20400,"station_id":"ce4bhph2rcd13ifvqhdg","pricing_plan_id":"cebpf4jnsgd1na2vs0mg"},{"bike_id":"3b054dd9-f0db-4ace-9178-527de73bcd34","system_id":"levelo_inurba_marseille","lat":43.30155,"lon":5.38079,"is_reserved":false,"is_disabled":false,"rental_uris":{"android":"levelo://app?vid=3b054dd9-f0db-4ace-9178-527de73bcd34","ios":"levelo://app?vid=3b054dd9-f0db-4ace-9178-527de73bcd34"},"vehicle_type_id":"4","last_reported":1730967146,"current_range_meters":6000,"station_id":"ce4bgjp2rcd13ifvqbh0","pricing_plan_id":"cebpf4jnsgd1na2vs0mg"},{"bike_id":"c422d058-3ba4-4248-88d3-1b8af438be46","system_id":"levelo_inurba_marseille","lat":43.29619,"lon":5.37725,"is_reserved":false,"is_disabled":false,"rental_uris":{"android":"levelo://app?vid=c422d058-3ba4-4248-88d3-1b8af438be46","ios":"levelo://app?vid=c422d058-3ba4-4248-88d3-1b8af438be46"},"vehicle_type_id":"4","last_reported":1730967146,"current_range_meters":36800,"station_id":"ce4bgi92rcd13ifvqb90","pricing_plan_id":"cebpf4jnsgd1na2vs0mg"},{"bike_id":"2b15cfd0-fa9c-4c17-9466-54a6b266456a","system_id":"levelo_inurba_marseille","lat":43.29678,"lon":5.36301,"is_reserved":false,"is_disabled":false,"rental_uris":{"android":"levelo://app?vid=2b15cfd0-fa9c-4c17-9466-54a6b266456a","ios":"levelo://app?vid=2b15cfd0-fa9c-4c17-9466-54a6b266456a"},"vehicle_type_id":"4","last_reported":1730967146,"current_range_meters":22800,"station_id":"ce4bgpp2rcd13ifvqc3g","pricing_plan_id":"cebpf4jnsgd1na2vs0mg"},{"bike_id":"56c14c33-2f49-48ae-9a36-8d0346ec2c04","system_id":"levelo_inurba_marseille","lat":43.23148,"lon":5.43712,"is_reserved":false,"is_disabled":false,"rental_uris":{"android":"levelo://app?vid=56c14c33-2f49-48ae-9a36-8d0346ec2c04","ios":"levelo://app?vid=56c14c33-2f49-48ae-9a36-8d0346ec2c04"},"vehicle_type_id":"4","last_reported":1730967146,"current_range_meters":18000,"station_id":"ce4bhmp2rcd13ifvqgog","pricing_plan_id":"cebpf4jnsgd1na2vs0mg"},{"bike_id":"d8b488fc-6c55-49fa-8385-8b8ec7a40529","system_id":"levelo_inurba_marseille","lat":43.30249,"lon":5.40069,"is_reserved":false,"is_disabled":false,"rental_uris":{"android":"levelo://app?vid=d8b488fc-6c55-49fa-8385-8b8ec7a40529","ios":"levelo://app?vid=d8b488fc-6c55-49fa-8385-8b8ec7a40529"},"vehicle_type_id":"4","last_reported":1730967146,"current_range_meters":36800,"station_id":"ce4bgvh2rcd13ifvqcs0","pricing_plan_id":"cebpf4jnsgd1na2vs0mg"},{"bike_id":"f9b51361-1f59-4e32-8790-218894731a9c","system_id":"levelo_inurba_marseille","lat":43.23954,"lon":5.36647,"is_reserved":false,"is_disabled":false,"rental_uris":{"android":"levelo://app?vid=f9b51361-1f59-4e32-8790-218894731a9c","ios":"levelo://app?vid=f9b51361-1f59-4e32-8790-218894731a9c"},"vehicle_type_id":"4","last_reported":1730967146,"current_range_meters":22800,"station_id":"ce4bhi12rcd13ifvqfp0","pricing_plan_id":"cebpf4jnsgd1na2vs0mg"},{"bike_id":"8596a87d-bde6-4a5a-a36c-7472ade19640","system_id":"levelo_inurba_marseille","lat":43.24078,"lon":5.37753,"is_reserved":false,"is_disabled":false,"rental_uris":{"android":"levelo://app?vid=8596a87d-bde6-4a5a-a36c-7472ade19640","ios":"levelo://app?vid=8596a87d-bde6-4a5a-a36c-7472ade19640"},"vehicle_type_id":"4","last_reported":1730967146,"current_range_meters":26800,"station_id":"ce4bhnp2rcd13ifvqgvg","pricing_plan_id":"cebpf4jnsgd1na2vs0mg"},{"bike_id":"e307d60c-0ad5-438f-b4e6-0643eb043b02","system_id":"levelo_inurba_marseille","lat":43.29604,"lon":5.38106,"is_reserved":false,"is_disabled":false,"rental_uris":{"android":"levelo://app?vid=e307d60c-0ad5-438f-b4e6-0643eb043b02","ios":"levelo://app?vid=e307d60c-0ad5-438f-b4e6-0643eb043b02"},"vehicle_type_id":"4","last_reported":1730967146,"current_range_meters":38400,"station_id":"ce4bgl12rcd13ifvqbo0","pricing_plan_id":"cebpf4jnsgd1na2vs0mg"},{"bike_id":"df5428bf-d3a3-4965-9045-2457e7abc52f","system_id":"levelo_inurba_marseille","lat":43.29057,"lon":5.37167,"is_reserved":false,"is_disabled":false,"rental_uris":{"android":"levelo://app?vid=df5428bf-d3a3-4965-9045-2457e7abc52f","ios":"levelo://app?vid=df5428bf-d3a3-4965-9045-2457e7abc52f"},"vehicle_type_id":"4","last_reported":1730967146,"current_range_meters":25600,"station_id":"ce4bh5p2rcd13ifvqe4g","pricing_plan_id":"cebpf4jnsgd1na2vs0mg"},{"bike_id":"1f30e003-5329-4849-9917-fce9582d0152","system_id":"levelo_inurba_marseille","lat":43.29972,"lon":5.37186,"is_reserved":false,"is_disabled":false,"rental_uris":{"android":"levelo://app?vid=1f30e003-5329-4849-9917-fce9582d0152","ios":"levelo://app?vid=1f30e003-5329-4849-9917-fce9582d0152"},"vehicle_type_id":"4","last_reported":1730967146,"current_range_meters":28400,"station_id":"ce4bgr92rcd13ifvqc7g","pricing_plan_id":"cebpf4jnsgd1na2vs0mg"},{"bike_id":"73579928-e2e7-4f6c-b2ab-d967c3bfe602","system_id":"levelo_inurba_marseille","lat":43.30534,"lon":5.3655,"is_reserved":false,"is_disabled":false,"rental_uris":{"android":"levelo://app?vid=73579928-e2e7-4f6c-b2ab-d967c3bfe602","ios":"levelo://app?vid=73579928-e2e7-4f6c-b2ab-d967c3bfe602"},"vehicle_type_id":"4","last_reported":1730967146,"current_range_meters":7200,"station_id":"ce4bgs12rcd13ifvqcag","pricing_plan_id":"cebpf4jnsgd1na2vs0mg"},{"bike_id":"21b37299-84e4-4b5b-8bf6-49ee4ecf921e","system_id":"levelo_inurba_marseille","lat":43.23964,"lon":5.36637,"is_reserved":false,"is_disabled":false,"rental_uris":{"android":"levelo://app?vid=21b37299-84e4-4b5b-8bf6-49ee4ecf921e","ios":"levelo://app?vid=21b37299-84e4-4b5b-8bf6-49ee4ecf921e"},"vehicle_type_id":"4","last_reported":1730967146,"current_range_meters":38800,"station_id":"ce4bhi12rcd13ifvqfp0","pricing_plan_id":"cebpf4jnsgd1na2vs0mg"},{"bike_id":"4b67932a-96ea-49e1-9ff9-d70abe287a8e","system_id":"levelo_inurba_marseille","lat":43.29917,"lon":5.37468,"is_reserved":false,"is_disabled":false,"rental_uris":{"android":"levelo://app?vid=4b67932a-96ea-49e1-9ff9-d70abe287a8e","ios":"levelo://app?vid=4b67932a-96ea-49e1-9ff9-d70abe287a8e"},"vehicle_type_id":"4","last_reported":1730967146,"current_range_meters":28400,"station_id":"ce4bgjh2rcd13ifvqbg0","pricing_plan_id":"cebpf4jnsgd1na2vs0mg"},{"bike_id":"4e5d727a-7c34-44b8-af94-45a54b88c1cc","system_id":"levelo_inurba_marseille","lat":43.33722,"lon":5.39176,"is_reserved":false,"is_disabled":false,"rental_uris":{"android":"levelo://app?vid=4e5d727a-7c34-44b8-af94-45a54b88c1cc","ios":"levelo://app?vid=4e5d727a-7c34-44b8-af94-45a54b88c1cc"},"vehicle_type_id":"4","last_reported":1730967146,"current_range_meters":40000,"station_id":"ce4bhr92rcd13ifvqhsg","pricing_plan_id":"cebpf4jnsgd1na2vs0mg"},{"bike_id":"49649fa5-1492-40c1-9427-4b83d655981e","system_id":"levelo_inurba_marseille","lat":43.25855,"lon":5.39908,"is_reserved":false,"is_disabled":false,"rental_uris":{"android":"levelo://app?vid=49649fa5-1492-40c1-9427-4b83d655981e","ios":"levelo://app?vid=49649fa5-1492-40c1-9427-4b83d655981e"},"vehicle_type_id":"4","last_reported":1730967146,"current_range_meters":37600,"station_id":"ce4bhl92rcd13ifvqghg","pricing_plan_id":"cebpf4jnsgd1na2vs0mg"},{"bike_id":"5063d9ae-a48b-495d-a1b3-6fba6ad945ff","system_id":"levelo_inurba_marseille","lat":43.24075,"lon":5.3775,"is_reserved":false,"is_disabled":false,"rental_uris":{"android":"levelo://app?vid=5063d9ae-a48b-495d-a1b3-6fba6ad945ff","ios":"levelo://app?vid=5063d9ae-a48b-495d-a1b3-6fba6ad945ff"},"vehicle_type_id":"4","last_reported":1730967146,"current_range_meters":23200,"station_id":"ce4bhnp2rcd13ifvqgvg","pricing_plan_id":"cebpf4jnsgd1na2vs0mg"},{"bike_id":"1a734c82-dcc8-4d3d-a318-7fd63d2ec81e","system_id":"levelo_inurba_marseille","lat":43.32286,"lon":5.38266,"is_reserved":false,"is_disabled":false,"rental_uris":{"android":"levelo://app?vid=1a734c82-dcc8-4d3d-a318-7fd63d2ec81e","ios":"levelo://app?vid=1a734c82-dcc8-4d3d-a318-7fd63d2ec81e"},"vehicle_type_id":"4","last_reported":1730967146,"current_range_meters":28000,"station_id":"ce4bhr12rcd13ifvqhqg","pricing_plan_id":"cebpf4jnsgd1na2vs0mg"},{"bike_id":"7ae50934-ff90-49ed-9580-9a338a37e831","system_id":"levelo_inurba_marseille","lat":43.29031,"lon":5.37572,"is_reserved":false,"is_disabled":false,"rental_uris":{"android":"levelo://app?vid=7ae50934-ff90-49ed-9580-9a338a37e831","ios":"levelo://app?vid=7ae50934-ff90-49ed-9580-9a338a37e831"},"vehicle_type_id":"4","last_reported":1730967146,"current_range_meters":21600,"station_id":"ce4bh692rcd13ifvqe90","pricing_plan_id":"cebpf4jnsgd1na2vs0mg"},{"bike_id":"25902ba6-6d35-42f4-b385-916a195b4207","system_id":"levelo_inurba_marseille","lat":43.31697,"lon":5.40471,"is_reserved":false,"is_disabled":false,"rental_uris":{"android":"levelo://app?vid=25902ba6-6d35-42f4-b385-916a195b4207","ios":"levelo://app?vid=25902ba6-6d35-42f4-b385-916a195b4207"},"vehicle_type_id":"4","last_reported":1730967146,"current_range_meters":36800,"station_id":"ce4bh012rcd13ifvqd00","pricing_plan_id":"cebpf4jnsgd1na2vs0mg"},{"bike_id":"0474bd5c-c1e3-4ca1-b3a1-d140689e0d18","system_id":"levelo_inurba_marseille","lat":43.30897,"lon":5.36853,"is_reserved":false,"is_disabled":false,"rental_uris":{"android":"levelo://app?vid=0474bd5c-c1e3-4ca1-b3a1-d140689e0d18","ios":"levelo://app?vid=0474bd5c-c1e3-4ca1-b3a1-d140689e0d18"},"vehicle_type_id":"4","last_reported":1730967146,"current_range_meters":28800,"station_id":"ce4bgn92rcd13ifvqbvg","pricing_plan_id":"cebpf4jnsgd1na2vs0mg"},{"bike_id":"9915abd7-5d8a-4533-be67-277c986c6010","system_id":"levelo_inurba_marseille","lat":43.26679,"lon":5.38265,"is_reserved":false,"is_disabled":false,"rental_uris":{"android":"levelo://app?vid=9915abd7-5d8a-4533-be67-277c986c6010","ios":"levelo://app?vid=9915abd7-5d8a-4533-be67-277c986c6010"},"vehicle_type_id":"4","last_reported":1730967146,"current_range_meters":28000,"station_id":"ce4bhg92rcd13ifvqf90","pricing_plan_id":"cebpf4jnsgd1na2vs0mg"},{"bike_id":"87b95e7e-e341-47d0-a0b5-f8b5d667bb4f","system_id":"levelo_inurba_marseille","lat":43.24076,"lon":5.37757,"is_reserved":false,"is_disabled":false,"rental_uris":{"android":"levelo://app?vid=87b95e7e-e341-47d0-a0b5-f8b5d667bb4f","ios":"levelo://app?vid=87b95e7e-e341-47d0-a0b5-f8b5d667bb4f"},"vehicle_type_id":"4","last_reported":1730967146,"current_range_meters":38000,"station_id":"ce4bhnp2rcd13ifvqgvg","pricing_plan_id":"cebpf4jnsgd1na2vs0mg"},{"bike_id":"4bddc708-4984-40cb-8b8a-b12640293d38","system_id":"levelo_inurba_marseille","lat":43.2781,"lon":5.40715,"is_reserved":false,"is_disabled":false,"rental_uris":{"android":"levelo://app?vid=4bddc708-4984-40cb-8b8a-b12640293d38","ios":"levelo://app?vid=4bddc708-4984-40cb-8b8a-b12640293d38"},"vehicle_type_id":"4","last_reported":1730967146,"current_range_meters":34800,"station_id":"ce4bhnh2rcd13ifvqgtg","pricing_plan_id":"cebpf4jnsgd1na2vs0mg"},{"bike_id":"1087f887-e632-4220-b28b-5649f8a81025","system_id":"levelo_inurba_marseille","lat":43.24066,"lon":5.3772,"is_reserved":false,"is_disabled":false,"rental_uris":{"android":"levelo://app?vid=1087f887-e632-4220-b28b-5649f8a81025","ios":"levelo://app?vid=1087f887-e632-4220-b28b-5649f8a81025"},"vehicle_type_id":"4","last_reported":1730967146,"current_range_meters":38800,"station_id":"ce4bhnp2rcd13ifvqgvg","pricing_plan_id":"cebpf4jnsgd1na2vs0mg"},{"bike_id":"b3efa261-435a-4d71-be02-67992b1c969c","system_id":"levelo_inurba_marseille","lat":43.30157,"lon":5.38079,"is_reserved":false,"is_disabled":false,"rental_uris":{"android":"levelo://app?vid=b3efa261-435a-4d71-be02-67992b1c969c","ios":"levelo://app?vid=b3efa261-435a-4d71-be02-67992b1c969c"},"vehicle_type_id":"4","last_reported":1730967146,"current_range_meters":12800,"station_id":"ce4bgjp2rcd13ifvqbh0","pricing_plan_id":"cebpf4jnsgd1na2vs0mg"},{"bike_id":"96bbe4b9-c3df-4eb3-8e8f-0dd163426af7","system_id":"levelo_inurba_marseille","lat":43.27494,"lon":5.4245,"is_reserved":false,"is_disabled":false,"rental_uris":{"android":"levelo://app?vid=96bbe4b9-c3df-4eb3-8e8f-0dd163426af7","ios":"levelo://app?vid=96bbe4b9-c3df-4eb3-8e8f-0dd163426af7"},"vehicle_type_id":"4","last_reported":1730967146,"current_range_meters":31200,"station_id":"ce4bhn92rcd13ifvqgrg","pricing_plan_id":"cebpf4jnsgd1na2vs0mg"},{"bike_id":"c4cc972e-7a14-46d5-a623-3df8ede326b1","system_id":"levelo_inurba_marseille","lat":43.29682,"lon":5.37284,"is_reserved":false,"is_disabled":false,"rental_uris":{"android":"levelo://app?vid=c4cc972e-7a14-46d5-a623-3df8ede326b1","ios":"levelo://app?vid=c4cc972e-7a14-46d5-a623-3df8ede326b1"},"vehicle_type_id":"4","last_reported":1730967146,"current_range_meters":30000,"station_id":"ce4bgk12rcd13ifvqbj0","pricing_plan_id":"cebpf4jnsgd1na2vs0mg"},{"bike_id":"52af7a3b-ddda-465a-a3b9-5cc6f08e1552","system_id":"levelo_inurba_marseille","lat":43.24152,"lon":5.36398,"is_reserved":false,"is_disabled":false,"rental_uris":{"android":"levelo://app?vid=52af7a3b-ddda-465a-a3b9-5cc6f08e1552","ios":"levelo://app?vid=52af7a3b-ddda-465a-a3b9-5cc6f08e1552"},"vehicle_type_id":"4","last_reported":1730967146,"current_range_meters":16000,"station_id":"cpo36qri1sfpv3e86is0","pricing_plan_id":"cebpf4jnsgd1na2vs0mg"},{"bike_id":"8d9dc8b3-0eea-424e-95a5-7233d93e4116","system_id":"levelo_inurba_marseille","lat":43.29553,"lon":5.42292,"is_reserved":false,"is_disabled":false,"rental_uris":{"android":"levelo://app?vid=8d9dc8b3-0eea-424e-95a5-7233d93e4116","ios":"levelo://app?vid=8d9dc8b3-0eea-424e-95a5-7233d93e4116"},"vehicle_type_id":"4","last_reported":1730967146,"current_range_meters":26000,"station_id":"ce4bhph2rcd13ifvqhdg","pricing_plan_id":"cebpf4jnsgd1na2vs0mg"},{"bike_id":"9bdc17b9-a84e-437b-a63b-d20105b448c0","system_id":"levelo_inurba_marseille","lat":43.30284,"lon":5.37704,"is_reserved":false,"is_disabled":false,"rental_uris":{"android":"levelo://app?vid=9bdc17b9-a84e-437b-a63b-d20105b448c0","ios":"levelo://app?vid=9bdc17b9-a84e-437b-a63b-d20105b448c0"},"vehicle_type_id":"4","last_reported":1730967146,"current_range_meters":15200,"station_id":"ce4bguh2rcd13ifvqcj0","pricing_plan_id":"cebpf4jnsgd1na2vs0mg"},{"bike_id":"3f4fc512-c09e-425c-8600-f50abb41362b","system_id":"levelo_inurba_marseille","lat":43.27494,"lon":5.42452,"is_reserved":false,"is_disabled":false,"rental_uris":{"android":"levelo://app?vid=3f4fc512-c09e-425c-8600-f50abb41362b","ios":"levelo://app?vid=3f4fc512-c09e-425c-8600-f50abb41362b"},"vehicle_type_id":"4","last_reported":1730967146,"current_range_meters":32800,"station_id":"ce4bhn92rcd13ifvqgrg","pricing_plan_id":"cebpf4jnsgd1na2vs0mg"},{"bike_id":"131c9aa0-3a6f-4d57-8c52-1f20f1d6de94","system_id":"levelo_inurba_marseille","lat":43.23154,"lon":5.4371,"is_reserved":false,"is_disabled":false,"rental_uris":{"android":"levelo://app?vid=131c9aa0-3a6f-4d57-8c52-1f20f1d6de94","ios":"levelo://app?vid=131c9aa0-3a6f-4d57-8c52-1f20f1d6de94"},"vehicle_type_id":"4","last_reported":1730967146,"current_range_meters":3600,"station_id":"ce4bhmp2rcd13ifvqgog","pricing_plan_id":"cebpf4jnsgd1na2vs0mg"},{"bike_id":"a0a885a1-a2e3-4ae5-81be-96a6e23bc90c","system_id":"levelo_inurba_marseille","lat":43.25938,"lon":5.40903,"is_reserved":false,"is_disabled":false,"rental_uris":{"android":"levelo://app?vid=a0a885a1-a2e3-4ae5-81be-96a6e23bc90c","ios":"levelo://app?vid=a0a885a1-a2e3-4ae5-81be-96a6e23bc90c"},"vehicle_type_id":"4","last_reported":1730967146,"current_range_meters":13600,"station_id":"ce4bhm92rcd13ifvqglg","pricing_plan_id":"cebpf4jnsgd1na2vs0mg"},{"bike_id":"9ce7cf61-2971-47eb-a12a-d69bf91d1b84","system_id":"levelo_inurba_marseille","lat":43.24184,"lon":5.39721,"is_reserved":false,"is_disabled":false,"rental_uris":{"android":"levelo://app?vid=9ce7cf61-2971-47eb-a12a-d69bf91d1b84","ios":"levelo://app?vid=9ce7cf61-2971-47eb-a12a-d69bf91d1b84"},"vehicle_type_id":"4","last_reported":1730967146,"current_range_meters":24800,"station_id":"ce4bhn12rcd13ifvqgpg","pricing_plan_id":"cebpf4jnsgd1na2vs0mg"},{"bike_id":"22b5768f-1b65-4e9d-9c4a-033c2af45c58","system_id":"levelo_inurba_marseille","lat":43.32526,"lon":5.414405,"is_reserved":false,"is_disabled":false,"rental_uris":{"android":"levelo://app?vid=22b5768f-1b65-4e9d-9c4a-033c2af45c58","ios":"levelo://app?vid=22b5768f-1b65-4e9d-9c4a-033c2af45c58"},"vehicle_type_id":"4","last_reported":1730967146,"current_range_meters":28000,"station_id":"ce4bhq12rcd13ifvqhhg","pricing_plan_id":"cebpf4jnsgd1na2vs0mg"},{"bike_id":"d3812d75-8ef2-461f-9b75-7dbd301f5d18","system_id":"levelo_inurba_marseille","lat":43.24083,"lon":5.37749,"is_reserved":false,"is_disabled":false,"rental_uris":{"android":"levelo://app?vid=d3812d75-8ef2-461f-9b75-7dbd301f5d18","ios":"levelo://app?vid=d3812d75-8ef2-461f-9b75-7dbd301f5d18"},"vehicle_type_id":"4","last_reported":1730967146,"current_range_meters":12000,"station_id":"ce4bhnp2rcd13ifvqgvg","pricing_plan_id":"cebpf4jnsgd1na2vs0mg"},{"bike_id":"50062052-2117-416a-b9a0-ef567ae2ce94","system_id":"levelo_inurba_marseille","lat":43.25001,"lon":5.38924,"is_reserved":false,"is_disabled":false,"rental_uris":{"android":"levelo://app?vid=50062052-2117-416a-b9a0-ef567ae2ce94","ios":"levelo://app?vid=50062052-2117-416a-b9a0-ef567ae2ce94"},"vehicle_type_id":"4","last_reported":1730967146,"current_range_meters":30800,"station_id":"ce4bhgp2rcd13ifvqfd0","pricing_plan_id":"cebpf4jnsgd1na2vs0mg"},{"bike_id":"b7af5fe1-1ffc-4983-a28e-5e881777edc3","system_id":"levelo_inurba_marseille","lat":43.25935,"lon":5.40919,"is_reserved":false,"is_disabled":false,"rental_uris":{"android":"levelo://app?vid=b7af5fe1-1ffc-4983-a28e-5e881777edc3","ios":"levelo://app?vid=b7af5fe1-1ffc-4983-a28e-5e881777edc3"},"vehicle_type_id":"4","last_reported":1730967146,"current_range_meters":17600,"station_id":"ce4bhm92rcd13ifvqglg","pricing_plan_id":"cebpf4jnsgd1na2vs0mg"},{"bike_id":"2de6f799-b58b-485a-a379-f1e033107c71","system_id":"levelo_inurba_marseille","lat":43.30307,"lon":5.36892,"is_reserved":false,"is_disabled":false,"rental_uris":{"android":"levelo://app?vid=2de6f799-b58b-485a-a379-f1e033107c71","ios":"levelo://app?vid=2de6f799-b58b-485a-a379-f1e033107c71"},"vehicle_type_id":"4","last_reported":1730967146,"current_range_meters":39200,"station_id":"ce4bgqh2rcd13ifvqc5g","pricing_plan_id":"cebpf4jnsgd1na2vs0mg"},{"bike_id":"31370be7-bd9c-4a97-a16e-8d6a5ceded68","system_id":"levelo_inurba_marseille","lat":43.31337,"lon":5.36714,"is_reserved":false,"is_disabled":false,"rental_uris":{"android":"levelo://app?vid=31370be7-bd9c-4a97-a16e-8d6a5ceded68","ios":"levelo://app?vid=31370be7-bd9c-4a97-a16e-8d6a5ceded68"},"vehicle_type_id":"4","last_reported":1730967146,"current_range_meters":30800,"station_id":"ce4bgr92rcd13ifvqc6g","pricing_plan_id":"cebpf4jnsgd1na2vs0mg"},{"bike_id":"26ee007d-c521-4271-a726-fe0c9aeca07e","system_id":"levelo_inurba_marseille","lat":43.33109,"lon":5.38214,"is_reserved":false,"is_disabled":false,"rental_uris":{"android":"levelo://app?vid=26ee007d-c521-4271-a726-fe0c9aeca07e","ios":"levelo://app?vid=26ee007d-c521-4271-a726-fe0c9aeca07e"},"vehicle_type_id":"4","last_reported":1730967146,"current_range_meters":9200,"station_id":"","pricing_plan_id":"cebpf4jnsgd1na2vs0mg"},{"bike_id":"76f46542-b5f6-481e-b238-ec79d2b38818","system_id":"levelo_inurba_marseille","lat":43.31067,"lon":5.38364,"is_reserved":false,"is_disabled":false,"rental_uris":{"android":"levelo://app?vid=76f46542-b5f6-481e-b238-ec79d2b38818","ios":"levelo://app?vid=76f46542-b5f6-481e-b238-ec79d2b38818"},"vehicle_type_id":"4","last_reported":1730967146,"current_range_meters":22400,"station_id":"ce4bgv92rcd13ifvqcr0","pricing_plan_id":"cebpf4jnsgd1na2vs0mg"},{"bike_id":"350a7e1e-713a-4552-8664-134097a3d34a","system_id":"levelo_inurba_marseille","lat":43.29162,"lon":5.3717,"is_reserved":false,"is_disabled":false,"rental_uris":{"android":"levelo://app?vid=350a7e1e-713a-4552-8664-134097a3d34a","ios":"levelo://app?vid=350a7e1e-713a-4552-8664-134097a3d34a"},"vehicle_type_id":"4","last_reported":1730967146,"current_range_meters":35200,"station_id":"ce4bha92rcd13ifvqeh0","pricing_plan_id":"cebpf4jnsgd1na2vs0mg"},{"bike_id":"204274af-cd8a-4fdc-9355-8da6a2c5b5a8","system_id":"levelo_inurba_marseille","lat":43.30897,"lon":5.36845,"is_reserved":false,"is_disabled":false,"rental_uris":{"android":"levelo://app?vid=204274af-cd8a-4fdc-9355-8da6a2c5b5a8","ios":"levelo://app?vid=204274af-cd8a-4fdc-9355-8da6a2c5b5a8"},"vehicle_type_id":"4","last_reported":1730967146,"current_range_meters":35600,"station_id":"ce4bgn92rcd13ifvqbvg","pricing_plan_id":"cebpf4jnsgd1na2vs0mg"},{"bike_id":"11a8f5d3-adeb-4770-97f1-d4c26d4fa85f","system_id":"levelo_inurba_marseille","lat":43.30939,"lon":5.39032,"is_reserved":false,"is_disabled":false,"rental_uris":{"android":"levelo://app?vid=11a8f5d3-adeb-4770-97f1-d4c26d4fa85f","ios":"levelo://app?vid=11a8f5d3-adeb-4770-97f1-d4c26d4fa85f"},"vehicle_type_id":"4","last_reported":1730967146,"current_range_meters":16000,"station_id":"ce4bgup2rcd13ifvqco0","pricing_plan_id":"cebpf4jnsgd1na2vs0mg"},{"bike_id":"1b6656c3-0183-448d-ac15-9ecf8f5c9338","system_id":"levelo_inurba_marseille","lat":43.29037,"lon":5.39954,"is_reserved":false,"is_disabled":false,"rental_uris":{"android":"levelo://app?vid=1b6656c3-0183-448d-ac15-9ecf8f5c9338","ios":"levelo://app?vid=1b6656c3-0183-448d-ac15-9ecf8f5c9338"},"vehicle_type_id":"4","last_reported":1730967146,"current_range_meters":21600,"station_id":"ce4bh392rcd13ifvqdm0","pricing_plan_id":"cebpf4jnsgd1na2vs0mg"},{"bike_id":"63679012-d0a0-44a9-a805-20815a46a99d","system_id":"levelo_inurba_marseille","lat":43.3078,"lon":5.40018,"is_reserved":false,"is_disabled":false,"rental_uris":{"android":"levelo://app?vid=63679012-d0a0-44a9-a805-20815a46a99d","ios":"levelo://app?vid=63679012-d0a0-44a9-a805-20815a46a99d"},"vehicle_type_id":"4","last_reported":1730967146,"current_range_meters":8400,"station_id":"","pricing_plan_id":"cebpf4jnsgd1na2vs0mg"},{"bike_id":"9404bcc0-c00b-44fe-9afc-e222c66995d1","system_id":"levelo_inurba_marseille","lat":43.29372,"lon":5.37859,"is_reserved":false,"is_disabled":false,"rental_uris":{"android":"levelo://app?vid=9404bcc0-c00b-44fe-9afc-e222c66995d1","ios":"levelo://app?vid=9404bcc0-c00b-44fe-9afc-e222c66995d1"},"vehicle_type_id":"4","last_reported":1730967146,"current_range_meters":38800,"station_id":"ce4bgjh2rcd13ifvqbf0","pricing_plan_id":"cebpf4jnsgd1na2vs0mg"},{"bike_id":"6cc359d5-7298-4810-a818-d4e6e28ea14a","system_id":"levelo_inurba_marseille","lat":43.30949,"lon":5.39029,"is_reserved":false,"is_disabled":false,"rental_uris":{"android":"levelo://app?vid=6cc359d5-7298-4810-a818-d4e6e28ea14a","ios":"levelo://app?vid=6cc359d5-7298-4810-a818-d4e6e28ea14a"},"vehicle_type_id":"4","last_reported":1730967146,"current_range_meters":32000,"station_id":"ce4bgup2rcd13ifvqco0","pricing_plan_id":"cebpf4jnsgd1na2vs0mg"},{"bike_id":"777b3eaa-30f9-4a1e-a4ff-060381cb7f7c","system_id":"levelo_inurba_marseille","lat":43.29042,"lon":5.39965,"is_reserved":false,"is_disabled":false,"rental_uris":{"android":"levelo://app?vid=777b3eaa-30f9-4a1e-a4ff-060381cb7f7c","ios":"levelo://app?vid=777b3eaa-30f9-4a1e-a4ff-060381cb7f7c"},"vehicle_type_id":"4","last_reported":1730967146,"current_range_meters":28400,"station_id":"ce4bh392rcd13ifvqdm0","pricing_plan_id":"cebpf4jnsgd1na2vs0mg"},{"bike_id":"250456d8-8281-463a-b832-040560d88517","system_id":"levelo_inurba_marseille","lat":43.31483,"lon":5.37291,"is_reserved":false,"is_disabled":false,"rental_uris":{"android":"levelo://app?vid=250456d8-8281-463a-b832-040560d88517","ios":"levelo://app?vid=250456d8-8281-463a-b832-040560d88517"},"vehicle_type_id":"4","last_reported":1730967146,"current_range_meters":10800,"station_id":"ce4bgt12rcd13ifvqcd0","pricing_plan_id":"cebpf4jnsgd1na2vs0mg"},{"bike_id":"b65db066-d03c-4342-800d-9d271493c9d0","system_id":"levelo_inurba_marseille","lat":43.28997,"lon":5.3561,"is_reserved":false,"is_disabled":false,"rental_uris":{"android":"levelo://app?vid=b65db066-d03c-4342-800d-9d271493c9d0","ios":"levelo://app?vid=b65db066-d03c-4342-800d-9d271493c9d0"},"vehicle_type_id":"4","last_reported":1730967146,"current_range_meters":24400,"station_id":"ce4bhb92rcd13ifvqen0","pricing_plan_id":"cebpf4jnsgd1na2vs0mg"},{"bike_id":"c3318893-b70a-499c-b36d-1a7e95757e93","system_id":"levelo_inurba_marseille","lat":43.26565,"lon":5.39018,"is_reserved":false,"is_disabled":false,"rental_uris":{"android":"levelo://app?vid=c3318893-b70a-499c-b36d-1a7e95757e93","ios":"levelo://app?vid=c3318893-b70a-499c-b36d-1a7e95757e93"},"vehicle_type_id":"4","last_reported":1730967146,"current_range_meters":32400,"station_id":"ce4bhe12rcd13ifvqf30","pricing_plan_id":"cebpf4jnsgd1na2vs0mg"},{"bike_id":"f19e21fc-3fb8-4be5-8aae-3b3f9019566c","system_id":"levelo_inurba_marseille","lat":43.30553,"lon":5.36546,"is_reserved":false,"is_disabled":false,"rental_uris":{"android":"levelo://app?vid=f19e21fc-3fb8-4be5-8aae-3b3f9019566c","ios":"levelo://app?vid=f19e21fc-3fb8-4be5-8aae-3b3f9019566c"},"vehicle_type_id":"4","last_reported":1730967146,"current_range_meters":7200,"station_id":"ce4bgs12rcd13ifvqcag","pricing_plan_id":"cebpf4jnsgd1na2vs0mg"},{"bike_id":"0562544a-b79d-473e-a168-4b06e39e4c5b","system_id":"levelo_inurba_marseille","lat":43.32478,"lon":5.36567,"is_reserved":false,"is_disabled":false,"rental_uris":{"android":"levelo://app?vid=0562544a-b79d-473e-a168-4b06e39e4c5b","ios":"levelo://app?vid=0562544a-b79d-473e-a168-4b06e39e4c5b"},"vehicle_type_id":"4","last_reported":1730967146,"current_range_meters":32400,"station_id":"ce4bhs12rcd13ifvqhvg","pricing_plan_id":"cebpf4jnsgd1na2vs0mg"},{"bike_id":"78ef9c13-ac49-450f-9deb-b3e2970839eb","system_id":"levelo_inurba_marseille","lat":43.30884,"lon":5.39657,"is_reserved":false,"is_disabled":false,"rental_uris":{"android":"levelo://app?vid=78ef9c13-ac49-450f-9deb-b3e2970839eb","ios":"levelo://app?vid=78ef9c13-ac49-450f-9deb-b3e2970839eb"},"vehicle_type_id":"4","last_reported":1730967146,"current_range_meters":3200,"station_id":"ce4bh012rcd13ifvqcv0","pricing_plan_id":"cebpf4jnsgd1na2vs0mg"},{"bike_id":"fb71b3b0-5d86-4777-a4f3-43ecadb71acf","system_id":"levelo_inurba_marseille","lat":43.29843,"lon":5.3627,"is_reserved":false,"is_disabled":false,"rental_uris":{"android":"levelo://app?vid=fb71b3b0-5d86-4777-a4f3-43ecadb71acf","ios":"levelo://app?vid=fb71b3b0-5d86-4777-a4f3-43ecadb71acf"},"vehicle_type_id":"4","last_reported":1730967146,"current_range_meters":10000,"station_id":"ce4bgpp2rcd13ifvqc3g","pricing_plan_id":"cebpf4jnsgd1na2vs0mg"},{"bike_id":"afb1f26c-6a37-442a-9588-088ed0a731a1","system_id":"levelo_inurba_marseille","lat":43.24076,"lon":5.37753,"is_reserved":false,"is_disabled":false,"rental_uris":{"android":"levelo://app?vid=afb1f26c-6a37-442a-9588-088ed0a731a1","ios":"levelo://app?vid=afb1f26c-6a37-442a-9588-088ed0a731a1"},"vehicle_type_id":"4","last_reported":1730967146,"current_range_meters":36800,"station_id":"ce4bhnp2rcd13ifvqgvg","pricing_plan_id":"cebpf4jnsgd1na2vs0mg"},{"bike_id":"944a28a0-ffb8-4660-a285-de6a3c52f9d5","system_id":"levelo_inurba_marseille","lat":43.25934,"lon":5.40906,"is_reserved":false,"is_disabled":false,"rental_uris":{"android":"levelo://app?vid=944a28a0-ffb8-4660-a285-de6a3c52f9d5","ios":"levelo://app?vid=944a28a0-ffb8-4660-a285-de6a3c52f9d5"},"vehicle_type_id":"4","last_reported":1730967146,"current_range_meters":8400,"station_id":"ce4bhm92rcd13ifvqglg","pricing_plan_id":"cebpf4jnsgd1na2vs0mg"},{"bike_id":"12f83d46-5599-4659-bee2-8d96df1e73dc","system_id":"levelo_inurba_marseille","lat":43.30908,"lon":5.36849,"is_reserved":false,"is_disabled":false,"rental_uris":{"android":"levelo://app?vid=12f83d46-5599-4659-bee2-8d96df1e73dc","ios":"levelo://app?vid=12f83d46-5599-4659-bee2-8d96df1e73dc"},"vehicle_type_id":"4","last_reported":1730967146,"current_range_meters":33200,"station_id":"ce4bgn92rcd13ifvqbvg","pricing_plan_id":"cebpf4jnsgd1na2vs0mg"},{"bike_id":"9c3169c5-7306-4ddc-9f15-d6bb8c9cdea4","system_id":"levelo_inurba_marseille","lat":43.27483,"lon":5.42448,"is_reserved":false,"is_disabled":false,"rental_uris":{"android":"levelo://app?vid=9c3169c5-7306-4ddc-9f15-d6bb8c9cdea4","ios":"levelo://app?vid=9c3169c5-7306-4ddc-9f15-d6bb8c9cdea4"},"vehicle_type_id":"4","last_reported":1730967146,"current_range_meters":29600,"station_id":"ce4bhn92rcd13ifvqgrg","pricing_plan_id":"cebpf4jnsgd1na2vs0mg"},{"bike_id":"f2505e30-345e-484e-b2e1-ae1a32d61553","system_id":"levelo_inurba_marseille","lat":43.24813,"lon":5.37456,"is_reserved":false,"is_disabled":false,"rental_uris":{"android":"levelo://app?vid=f2505e30-345e-484e-b2e1-ae1a32d61553","ios":"levelo://app?vid=f2505e30-345e-484e-b2e1-ae1a32d61553"},"vehicle_type_id":"4","last_reported":1730967146,"current_range_meters":38400,"station_id":"ce4bhgh2rcd13ifvqfb0","pricing_plan_id":"cebpf4jnsgd1na2vs0mg"},{"bike_id":"4450272b-34bc-4703-ac02-8e79cf5992c2","system_id":"levelo_inurba_marseille","lat":43.30141,"lon":5.37408,"is_reserved":false,"is_disabled":false,"rental_uris":{"android":"levelo://app?vid=4450272b-34bc-4703-ac02-8e79cf5992c2","ios":"levelo://app?vid=4450272b-34bc-4703-ac02-8e79cf5992c2"},"vehicle_type_id":"4","last_reported":1730967146,"current_range_meters":39200,"station_id":"ce4bgs92rcd13ifvqcc0","pricing_plan_id":"cebpf4jnsgd1na2vs0mg"},{"bike_id":"d21bbe6d-d864-4100-abd8-39933a2f1023","system_id":"levelo_inurba_marseille","lat":43.2749,"lon":5.42457,"is_reserved":false,"is_disabled":false,"rental_uris":{"android":"levelo://app?vid=d21bbe6d-d864-4100-abd8-39933a2f1023","ios":"levelo://app?vid=d21bbe6d-d864-4100-abd8-39933a2f1023"},"vehicle_type_id":"4","last_reported":1730967146,"current_range_meters":30000,"station_id":"ce4bhn92rcd13ifvqgrg","pricing_plan_id":"cebpf4jnsgd1na2vs0mg"},{"bike_id":"ac936881-03bb-4559-be34-eb80af9931f1","system_id":"levelo_inurba_marseille","lat":43.2742,"lon":5.3942,"is_reserved":false,"is_disabled":false,"rental_uris":{"android":"levelo://app?vid=ac936881-03bb-4559-be34-eb80af9931f1","ios":"levelo://app?vid=ac936881-03bb-4559-be34-eb80af9931f1"},"vehicle_type_id":"4","last_reported":1730967146,"current_range_meters":16400,"station_id":"ce4bhdp2rcd13ifvqf20","pricing_plan_id":"cebpf4jnsgd1na2vs0mg"},{"bike_id":"5f227d0f-c433-4268-a7e2-3a6bfafb270b","system_id":"levelo_inurba_marseille","lat":43.32541,"lon":5.41418,"is_reserved":false,"is_disabled":false,"rental_uris":{"android":"levelo://app?vid=5f227d0f-c433-4268-a7e2-3a6bfafb270b","ios":"levelo://app?vid=5f227d0f-c433-4268-a7e2-3a6bfafb270b"},"vehicle_type_id":"4","last_reported":1730967146,"current_range_meters":4800,"station_id":"ce4bhq12rcd13ifvqhhg","pricing_plan_id":"cebpf4jnsgd1na2vs0mg"},{"bike_id":"1266a4ad-4769-4831-8719-04dc336b66fd","system_id":"levelo_inurba_marseille","lat":43.24068,"lon":5.37761,"is_reserved":false,"is_disabled":false,"rental_uris":{"android":"levelo://app?vid=1266a4ad-4769-4831-8719-04dc336b66fd","ios":"levelo://app?vid=1266a4ad-4769-4831-8719-04dc336b66fd"},"vehicle_type_id":"4","last_reported":1730967146,"current_range_meters":26000,"station_id":"ce4bhnp2rcd13ifvqgvg","pricing_plan_id":"cebpf4jnsgd1na2vs0mg"},{"bike_id":"5381c5ad-8cb8-422e-b4fa-4c11d6dfde0a","system_id":"levelo_inurba_marseille","lat":43.26802,"lon":5.40268,"is_reserved":false,"is_disabled":false,"rental_uris":{"android":"levelo://app?vid=5381c5ad-8cb8-422e-b4fa-4c11d6dfde0a","ios":"levelo://app?vid=5381c5ad-8cb8-422e-b4fa-4c11d6dfde0a"},"vehicle_type_id":"4","last_reported":1730967146,"current_range_meters":29600,"station_id":"ce501612rcd8frsf0b60","pricing_plan_id":"cebpf4jnsgd1na2vs0mg"},{"bike_id":"2a1c1d39-a3ee-45b7-8182-d06c16353596","system_id":"levelo_inurba_marseille","lat":43.30301,"lon":5.36894,"is_reserved":false,"is_disabled":false,"rental_uris":{"android":"levelo://app?vid=2a1c1d39-a3ee-45b7-8182-d06c16353596","ios":"levelo://app?vid=2a1c1d39-a3ee-45b7-8182-d06c16353596"},"vehicle_type_id":"4","last_reported":1730967146,"current_range_meters":24400,"station_id":"ce4bgqh2rcd13ifvqc5g","pricing_plan_id":"cebpf4jnsgd1na2vs0mg"},{"bike_id":"0c7b0b17-a1c7-468f-83d4-892822190a6d","system_id":"levelo_inurba_marseille","lat":43.24176,"lon":5.39725,"is_reserved":false,"is_disabled":false,"rental_uris":{"android":"levelo://app?vid=0c7b0b17-a1c7-468f-83d4-892822190a6d","ios":"levelo://app?vid=0c7b0b17-a1c7-468f-83d4-892822190a6d"},"vehicle_type_id":"4","last_reported":1730967146,"current_range_meters":24000,"station_id":"ce4bhn12rcd13ifvqgpg","pricing_plan_id":"cebpf4jnsgd1na2vs0mg"},{"bike_id":"d7801d1a-d388-4433-bfd1-833e9f8b437b","system_id":"levelo_inurba_marseille","lat":43.28855,"lon":5.35863,"is_reserved":false,"is_disabled":false,"rental_uris":{"android":"levelo://app?vid=d7801d1a-d388-4433-bfd1-833e9f8b437b","ios":"levelo://app?vid=d7801d1a-d388-4433-bfd1-833e9f8b437b"},"vehicle_type_id":"4","last_reported":1730967146,"current_range_meters":17600,"station_id":"ce4bhb12rcd13ifvqem0","pricing_plan_id":"cebpf4jnsgd1na2vs0mg"},{"bike_id":"1ed4b874-bdae-43c6-98a8-b3cf65705ae8","system_id":"levelo_inurba_marseille","lat":43.23151,"lon":5.43724,"is_reserved":false,"is_disabled":false,"rental_uris":{"android":"levelo://app?vid=1ed4b874-bdae-43c6-98a8-b3cf65705ae8","ios":"levelo://app?vid=1ed4b874-bdae-43c6-98a8-b3cf65705ae8"},"vehicle_type_id":"4","last_reported":1730967146,"current_range_meters":17200,"station_id":"ce4bhmp2rcd13ifvqgog","pricing_plan_id":"cebpf4jnsgd1na2vs0mg"},{"bike_id":"ccb5443b-87a5-430e-961e-1cad591e2e6b","system_id":"levelo_inurba_marseille","lat":43.29367,"lon":5.4016,"is_reserved":false,"is_disabled":false,"rental_uris":{"android":"levelo://app?vid=ccb5443b-87a5-430e-961e-1cad591e2e6b","ios":"levelo://app?vid=ccb5443b-87a5-430e-961e-1cad591e2e6b"},"vehicle_type_id":"4","last_reported":1730967146,"current_range_meters":36400,"station_id":"ce4bh312rcd13ifvqdk0","pricing_plan_id":"cebpf4jnsgd1na2vs0mg"},{"bike_id":"9a242017-b2b8-4871-b084-3d4890f99b1c","system_id":"levelo_inurba_marseille","lat":43.31269,"lon":5.40168,"is_reserved":false,"is_disabled":false,"rental_uris":{"android":"levelo://app?vid=9a242017-b2b8-4871-b084-3d4890f99b1c","ios":"levelo://app?vid=9a242017-b2b8-4871-b084-3d4890f99b1c"},"vehicle_type_id":"4","last_reported":1730967146,"current_range_meters":20800,"station_id":"ce4bh092rcd13ifvqd30","pricing_plan_id":"cebpf4jnsgd1na2vs0mg"},{"bike_id":"02c8a66b-3505-4025-9984-2625a8fef3cd","system_id":"levelo_inurba_marseille","lat":43.280396,"lon":5.369535,"is_reserved":false,"is_disabled":false,"rental_uris":{"android":"levelo://app?vid=02c8a66b-3505-4025-9984-2625a8fef3cd","ios":"levelo://app?vid=02c8a66b-3505-4025-9984-2625a8fef3cd"},"vehicle_type_id":"4","last_reported":1730967146,"current_range_meters":35600,"station_id":"ce4bha12rcd13ifvqef0","pricing_plan_id":"cebpf4jnsgd1na2vs0mg"},{"bike_id":"263685c3-225f-4033-b252-e91414e0d28c","system_id":"levelo_inurba_marseille","lat":43.31341,"lon":5.36713,"is_reserved":false,"is_disabled":false,"rental_uris":{"android":"levelo://app?vid=263685c3-225f-4033-b252-e91414e0d28c","ios":"levelo://app?vid=263685c3-225f-4033-b252-e91414e0d28c"},"vehicle_type_id":"4","last_reported":1730967146,"current_range_meters":25600,"station_id":"ce4bgr92rcd13ifvqc6g","pricing_plan_id":"cebpf4jnsgd1na2vs0mg"},{"bike_id":"f3618dde-db99-40c6-9fce-dee9a0bce454","system_id":"levelo_inurba_marseille","lat":43.30906,"lon":5.36856,"is_reserved":false,"is_disabled":false,"rental_uris":{"android":"levelo://app?vid=f3618dde-db99-40c6-9fce-dee9a0bce454","ios":"levelo://app?vid=f3618dde-db99-40c6-9fce-dee9a0bce454"},"vehicle_type_id":"4","last_reported":1730967146,"current_range_meters":40000,"station_id":"ce4bgn92rcd13ifvqbvg","pricing_plan_id":"cebpf4jnsgd1na2vs0mg"},{"bike_id":"d3e54780-ddfb-432e-bfd3-55d19e8c43c8","system_id":"levelo_inurba_marseille","lat":43.31747,"lon":5.39022,"is_reserved":false,"is_disabled":false,"rental_uris":{"android":"levelo://app?vid=d3e54780-ddfb-432e-bfd3-55d19e8c43c8","ios":"levelo://app?vid=d3e54780-ddfb-432e-bfd3-55d19e8c43c8"},"vehicle_type_id":"4","last_reported":1730967146,"current_range_meters":32800,"station_id":"ce4bhqp2rcd13ifvqhng","pricing_plan_id":"cebpf4jnsgd1na2vs0mg"},{"bike_id":"4fd8461c-438c-4c64-abd1-8ee35b5d9507","system_id":"levelo_inurba_marseille","lat":43.30461,"lon":5.37904,"is_reserved":false,"is_disabled":false,"rental_uris":{"android":"levelo://app?vid=4fd8461c-438c-4c64-abd1-8ee35b5d9507","ios":"levelo://app?vid=4fd8461c-438c-4c64-abd1-8ee35b5d9507"},"vehicle_type_id":"4","last_reported":1730967146,"current_range_meters":35600,"station_id":"ce4bgup2rcd13ifvqcn0","pricing_plan_id":"cebpf4jnsgd1na2vs0mg"},{"bike_id":"484c3c40-66a4-44b3-bafa-2ea6dd677725","system_id":"levelo_inurba_marseille","lat":43.29624,"lon":5.37171,"is_reserved":false,"is_disabled":false,"rental_uris":{"android":"levelo://app?vid=484c3c40-66a4-44b3-bafa-2ea6dd677725","ios":"levelo://app?vid=484c3c40-66a4-44b3-bafa-2ea6dd677725"},"vehicle_type_id":"4","last_reported":1730967146,"current_range_meters":35600,"station_id":"ce4bgnh2rcd13ifvqc0g","pricing_plan_id":"cebpf4jnsgd1na2vs0mg"},{"bike_id":"a482a3a2-2edd-4960-90b1-3f8fafdad5f6","system_id":"levelo_inurba_marseille","lat":43.31273,"lon":5.40163,"is_reserved":false,"is_disabled":false,"rental_uris":{"android":"levelo://app?vid=a482a3a2-2edd-4960-90b1-3f8fafdad5f6","ios":"levelo://app?vid=a482a3a2-2edd-4960-90b1-3f8fafdad5f6"},"vehicle_type_id":"4","last_reported":1730967146,"current_range_meters":40000,"station_id":"ce4bh092rcd13ifvqd30","pricing_plan_id":"cebpf4jnsgd1na2vs0mg"},{"bike_id":"92bfdb81-1ac2-4e23-9e47-9d5b1f837dde","system_id":"levelo_inurba_marseille","lat":43.30538,"lon":5.36556,"is_reserved":false,"is_disabled":false,"rental_uris":{"android":"levelo://app?vid=92bfdb81-1ac2-4e23-9e47-9d5b1f837dde","ios":"levelo://app?vid=92bfdb81-1ac2-4e23-9e47-9d5b1f837dde"},"vehicle_type_id":"4","last_reported":1730967146,"current_range_meters":18000,"station_id":"ce4bgs12rcd13ifvqcag","pricing_plan_id":"cebpf4jnsgd1na2vs0mg"},{"bike_id":"075b048b-8589-435e-a40a-b3890b9d40d5","system_id":"levelo_inurba_marseille","lat":43.24395,"lon":5.37052,"is_reserved":false,"is_disabled":false,"rental_uris":{"android":"levelo://app?vid=075b048b-8589-435e-a40a-b3890b9d40d5","ios":"levelo://app?vid=075b048b-8589-435e-a40a-b3890b9d40d5"},"vehicle_type_id":"4","last_reported":1730967146,"current_range_meters":40000,"station_id":"ce4bhhh2rcd13ifvqfk0","pricing_plan_id":"cebpf4jnsgd1na2vs0mg"},{"bike_id":"d7419ddb-5370-47dc-9299-9ed32a20da4e","system_id":"levelo_inurba_marseille","lat":43.26686,"lon":5.38271,"is_reserved":false,"is_disabled":false,"rental_uris":{"android":"levelo://app?vid=d7419ddb-5370-47dc-9299-9ed32a20da4e","ios":"levelo://app?vid=d7419ddb-5370-47dc-9299-9ed32a20da4e"},"vehicle_type_id":"4","last_reported":1730967146,"current_range_meters":14800,"station_id":"ce4bhg92rcd13ifvqf90","pricing_plan_id":"cebpf4jnsgd1na2vs0mg"},{"bike_id":"cd23d2af-6909-4409-b4d1-b7c36d31bbf0","system_id":"levelo_inurba_marseille","lat":43.34143,"lon":5.40911,"is_reserved":false,"is_disabled":false,"rental_uris":{"android":"levelo://app?vid=cd23d2af-6909-4409-b4d1-b7c36d31bbf0","ios":"levelo://app?vid=cd23d2af-6909-4409-b4d1-b7c36d31bbf0"},"vehicle_type_id":"4","last_reported":1730967146,"current_range_meters":36800,"station_id":"ce4bhqh2rcd13ifvqhlg","pricing_plan_id":"cebpf4jnsgd1na2vs0mg"},{"bike_id":"2b04845f-8c2a-4e5c-948b-a8b896a00a0a","system_id":"levelo_inurba_marseille","lat":43.32539,"lon":5.41437,"is_reserved":false,"is_disabled":false,"rental_uris":{"android":"levelo://app?vid=2b04845f-8c2a-4e5c-948b-a8b896a00a0a","ios":"levelo://app?vid=2b04845f-8c2a-4e5c-948b-a8b896a00a0a"},"vehicle_type_id":"4","last_reported":1730967146,"current_range_meters":12800,"station_id":"ce4bhq12rcd13ifvqhhg","pricing_plan_id":"cebpf4jnsgd1na2vs0mg"},{"bike_id":"3bf7ebef-e00e-4a2c-ace5-c7b511a325a4","system_id":"levelo_inurba_marseille","lat":43.29222,"lon":5.38344,"is_reserved":false,"is_disabled":false,"rental_uris":{"android":"levelo://app?vid=3bf7ebef-e00e-4a2c-ace5-c7b511a325a4","ios":"levelo://app?vid=3bf7ebef-e00e-4a2c-ace5-c7b511a325a4"},"vehicle_type_id":"4","last_reported":1730967146,"current_range_meters":27200,"station_id":"ce4bhop2rcd13ifvqh8g","pricing_plan_id":"cebpf4jnsgd1na2vs0mg"},{"bike_id":"0e0aa953-ce04-478d-bf26-e5f223f30f5e","system_id":"levelo_inurba_marseille","lat":43.30546,"lon":5.3655,"is_reserved":false,"is_disabled":false,"rental_uris":{"android":"levelo://app?vid=0e0aa953-ce04-478d-bf26-e5f223f30f5e","ios":"levelo://app?vid=0e0aa953-ce04-478d-bf26-e5f223f30f5e"},"vehicle_type_id":"4","last_reported":1730967146,"current_range_meters":19200,"station_id":"ce4bgs12rcd13ifvqcag","pricing_plan_id":"cebpf4jnsgd1na2vs0mg"},{"bike_id":"98d3de5f-e96b-460b-81bc-84e8a55261ab","system_id":"levelo_inurba_marseille","lat":43.3134,"lon":5.36709,"is_reserved":false,"is_disabled":false,"rental_uris":{"android":"levelo://app?vid=98d3de5f-e96b-460b-81bc-84e8a55261ab","ios":"levelo://app?vid=98d3de5f-e96b-460b-81bc-84e8a55261ab"},"vehicle_type_id":"4","last_reported":1730967146,"current_range_meters":34800,"station_id":"ce4bgr92rcd13ifvqc6g","pricing_plan_id":"cebpf4jnsgd1na2vs0mg"},{"bike_id":"23d94fea-d1fe-489e-8e76-34c73d47b261","system_id":"levelo_inurba_marseille","lat":43.28849,"lon":5.35848,"is_reserved":false,"is_disabled":false,"rental_uris":{"android":"levelo://app?vid=23d94fea-d1fe-489e-8e76-34c73d47b261","ios":"levelo://app?vid=23d94fea-d1fe-489e-8e76-34c73d47b261"},"vehicle_type_id":"4","last_reported":1730967146,"current_range_meters":38800,"station_id":"ce4bhb12rcd13ifvqem0","pricing_plan_id":"cebpf4jnsgd1na2vs0mg"},{"bike_id":"7340dc7b-1164-4293-8938-58d52cecc69f","system_id":"levelo_inurba_marseille","lat":43.31365,"lon":5.3672,"is_reserved":false,"is_disabled":false,"rental_uris":{"android":"levelo://app?vid=7340dc7b-1164-4293-8938-58d52cecc69f","ios":"levelo://app?vid=7340dc7b-1164-4293-8938-58d52cecc69f"},"vehicle_type_id":"4","last_reported":1730967146,"current_range_meters":38000,"station_id":"ce4bgr92rcd13ifvqc6g","pricing_plan_id":"cebpf4jnsgd1na2vs0mg"},{"bike_id":"20c80413-bdb6-4737-bcdb-0a5d048834b3","system_id":"levelo_inurba_marseille","lat":43.23178,"lon":5.39986,"is_reserved":false,"is_disabled":false,"rental_uris":{"android":"levelo://app?vid=20c80413-bdb6-4737-bcdb-0a5d048834b3","ios":"levelo://app?vid=20c80413-bdb6-4737-bcdb-0a5d048834b3"},"vehicle_type_id":"4","last_reported":1730967146,"current_range_meters":38400,"station_id":"ce4bhn12rcd13ifvqgqg","pricing_plan_id":"cebpf4jnsgd1na2vs0mg"},{"bike_id":"4c487dff-fdc9-49d7-b2dd-4add6d9f1005","system_id":"levelo_inurba_marseille","lat":43.30884,"lon":5.37182,"is_reserved":false,"is_disabled":false,"rental_uris":{"android":"levelo://app?vid=4c487dff-fdc9-49d7-b2dd-4add6d9f1005","ios":"levelo://app?vid=4c487dff-fdc9-49d7-b2dd-4add6d9f1005"},"vehicle_type_id":"4","last_reported":1730967146,"current_range_meters":32000,"station_id":"ce4bguh2rcd13ifvqckg","pricing_plan_id":"cebpf4jnsgd1na2vs0mg"},{"bike_id":"d3701091-3ca8-4df2-a0fe-5264fb281f03","system_id":"levelo_inurba_marseille","lat":43.30911,"lon":5.36848,"is_reserved":false,"is_disabled":false,"rental_uris":{"android":"levelo://app?vid=d3701091-3ca8-4df2-a0fe-5264fb281f03","ios":"levelo://app?vid=d3701091-3ca8-4df2-a0fe-5264fb281f03"},"vehicle_type_id":"4","last_reported":1730967146,"current_range_meters":8000,"station_id":"ce4bgn92rcd13ifvqbvg","pricing_plan_id":"cebpf4jnsgd1na2vs0mg"},{"bike_id":"319d4761-c65a-4af6-b42c-312f7abb5990","system_id":"levelo_inurba_marseille","lat":43.3374,"lon":5.37441,"is_reserved":false,"is_disabled":false,"rental_uris":{"android":"levelo://app?vid=319d4761-c65a-4af6-b42c-312f7abb5990","ios":"levelo://app?vid=319d4761-c65a-4af6-b42c-312f7abb5990"},"vehicle_type_id":"4","last_reported":1730967146,"current_range_meters":30000,"station_id":"","pricing_plan_id":"cebpf4jnsgd1na2vs0mg"},{"bike_id":"0d38a97c-5442-47b0-a27c-e2c2ec1daecf","system_id":"levelo_inurba_marseille","lat":43.28848,"lon":5.3584,"is_reserved":false,"is_disabled":false,"rental_uris":{"android":"levelo://app?vid=0d38a97c-5442-47b0-a27c-e2c2ec1daecf","ios":"levelo://app?vid=0d38a97c-5442-47b0-a27c-e2c2ec1daecf"},"vehicle_type_id":"4","last_reported":1730967146,"current_range_meters":34000,"station_id":"ce4bhb12rcd13ifvqem0","pricing_plan_id":"cebpf4jnsgd1na2vs0mg"},{"bike_id":"93a83a5c-0d3d-43a2-be24-e99a92c3575d","system_id":"levelo_inurba_marseille","lat":43.30832,"lon":5.37108,"is_reserved":false,"is_disabled":false,"rental_uris":{"android":"levelo://app?vid=93a83a5c-0d3d-43a2-be24-e99a92c3575d","ios":"levelo://app?vid=93a83a5c-0d3d-43a2-be24-e99a92c3575d"},"vehicle_type_id":"4","last_reported":1730967146,"current_range_meters":3200,"station_id":"","pricing_plan_id":"cebpf4jnsgd1na2vs0mg"},{"bike_id":"6b8e9f15-f818-4864-9a59-ee975c790da6","system_id":"levelo_inurba_marseille","lat":43.3047,"lon":5.37905,"is_reserved":false,"is_disabled":false,"rental_uris":{"android":"levelo://app?vid=6b8e9f15-f818-4864-9a59-ee975c790da6","ios":"levelo://app?vid=6b8e9f15-f818-4864-9a59-ee975c790da6"},"vehicle_type_id":"4","last_reported":1730967146,"current_range_meters":25200,"station_id":"ce4bgup2rcd13ifvqcn0","pricing_plan_id":"cebpf4jnsgd1na2vs0mg"},{"bike_id":"5781a8a0-9309-4d44-bd8b-8068aee8be31","system_id":"levelo_inurba_marseille","lat":43.23152,"lon":5.43722,"is_reserved":false,"is_disabled":false,"rental_uris":{"android":"levelo://app?vid=5781a8a0-9309-4d44-bd8b-8068aee8be31","ios":"levelo://app?vid=5781a8a0-9309-4d44-bd8b-8068aee8be31"},"vehicle_type_id":"4","last_reported":1730967146,"current_range_meters":40000,"station_id":"ce4bhmp2rcd13ifvqgog","pricing_plan_id":"cebpf4jnsgd1na2vs0mg"},{"bike_id":"5eafa96a-40ea-4751-a828-481793e67bf1","system_id":"levelo_inurba_marseille","lat":43.2594,"lon":5.40897,"is_reserved":false,"is_disabled":false,"rental_uris":{"android":"levelo://app?vid=5eafa96a-40ea-4751-a828-481793e67bf1","ios":"levelo://app?vid=5eafa96a-40ea-4751-a828-481793e67bf1"},"vehicle_type_id":"4","last_reported":1730967146,"current_range_meters":30400,"station_id":"ce4bhm92rcd13ifvqglg","pricing_plan_id":"cebpf4jnsgd1na2vs0mg"},{"bike_id":"51876613-4cb0-44a5-8a02-28f91215db2c","system_id":"levelo_inurba_marseille","lat":43.30277,"lon":5.37704,"is_reserved":false,"is_disabled":false,"rental_uris":{"android":"levelo://app?vid=51876613-4cb0-44a5-8a02-28f91215db2c","ios":"levelo://app?vid=51876613-4cb0-44a5-8a02-28f91215db2c"},"vehicle_type_id":"4","last_reported":1730967146,"current_range_meters":35200,"station_id":"ce4bguh2rcd13ifvqcj0","pricing_plan_id":"cebpf4jnsgd1na2vs0mg"},{"bike_id":"4812777b-72e8-48b6-aa9c-2817af15f93f","system_id":"levelo_inurba_marseille","lat":43.2955,"lon":5.37547,"is_reserved":false,"is_disabled":false,"rental_uris":{"android":"levelo://app?vid=4812777b-72e8-48b6-aa9c-2817af15f93f","ios":"levelo://app?vid=4812777b-72e8-48b6-aa9c-2817af15f93f"},"vehicle_type_id":"4","last_reported":1730967146,"current_range_meters":22800,"station_id":"ce4bgk12rcd13ifvqbj0","pricing_plan_id":"cebpf4jnsgd1na2vs0mg"},{"bike_id":"f72eb540-b176-4acd-b4de-36f38c47ac82","system_id":"levelo_inurba_marseille","lat":43.33602,"lon":5.4103,"is_reserved":false,"is_disabled":false,"rental_uris":{"android":"levelo://app?vid=f72eb540-b176-4acd-b4de-36f38c47ac82","ios":"levelo://app?vid=f72eb540-b176-4acd-b4de-36f38c47ac82"},"vehicle_type_id":"4","last_reported":1730967146,"current_range_meters":34000,"station_id":"ce4bhqh2rcd13ifvqhmg","pricing_plan_id":"cebpf4jnsgd1na2vs0mg"},{"bike_id":"d3fdd57e-0ad2-4056-8700-afd128c2f1cb","system_id":"levelo_inurba_marseille","lat":43.31542,"lon":5.38032,"is_reserved":false,"is_disabled":false,"rental_uris":{"android":"levelo://app?vid=d3fdd57e-0ad2-4056-8700-afd128c2f1cb","ios":"levelo://app?vid=d3fdd57e-0ad2-4056-8700-afd128c2f1cb"},"vehicle_type_id":"4","last_reported":1730967146,"current_range_meters":36400,"station_id":"ce4bhsp2rcd13ifvqi50","pricing_plan_id":"cebpf4jnsgd1na2vs0mg"},{"bike_id":"1c05600b-16de-4228-911b-8b3fe0cd3120","system_id":"levelo_inurba_marseille","lat":43.31348,"lon":5.36711,"is_reserved":false,"is_disabled":false,"rental_uris":{"android":"levelo://app?vid=1c05600b-16de-4228-911b-8b3fe0cd3120","ios":"levelo://app?vid=1c05600b-16de-4228-911b-8b3fe0cd3120"},"vehicle_type_id":"4","last_reported":1730967146,"current_range_meters":16800,"station_id":"ce4bgr92rcd13ifvqc6g","pricing_plan_id":"cebpf4jnsgd1na2vs0mg"},{"bike_id":"34da6713-4df5-4f20-b76e-4e16a76c24bb","system_id":"levelo_inurba_marseille","lat":43.25579,"lon":5.38237,"is_reserved":false,"is_disabled":false,"rental_uris":{"android":"levelo://app?vid=34da6713-4df5-4f20-b76e-4e16a76c24bb","ios":"levelo://app?vid=34da6713-4df5-4f20-b76e-4e16a76c24bb"},"vehicle_type_id":"4","last_reported":1730967146,"current_range_meters":35600,"station_id":"ce4bhih2rcd13ifvqfs0","pricing_plan_id":"cebpf4jnsgd1na2vs0mg"},{"bike_id":"8d5f4e54-ae68-4f7d-9dad-55be180bb8f0","system_id":"levelo_inurba_marseille","lat":43.30905,"lon":5.36844,"is_reserved":false,"is_disabled":false,"rental_uris":{"android":"levelo://app?vid=8d5f4e54-ae68-4f7d-9dad-55be180bb8f0","ios":"levelo://app?vid=8d5f4e54-ae68-4f7d-9dad-55be180bb8f0"},"vehicle_type_id":"4","last_reported":1730967146,"current_range_meters":34800,"station_id":"ce4bgn92rcd13ifvqbvg","pricing_plan_id":"cebpf4jnsgd1na2vs0mg"},{"bike_id":"85f4f6fd-6d2f-4d38-a439-a6c5ccfa3a29","system_id":"levelo_inurba_marseille","lat":43.26951,"lon":5.38635,"is_reserved":false,"is_disabled":false,"rental_uris":{"android":"levelo://app?vid=85f4f6fd-6d2f-4d38-a439-a6c5ccfa3a29","ios":"levelo://app?vid=85f4f6fd-6d2f-4d38-a439-a6c5ccfa3a29"},"vehicle_type_id":"4","last_reported":1730967146,"current_range_meters":27600,"station_id":"ce4bhh92rcd13ifvqfh0","pricing_plan_id":"cebpf4jnsgd1na2vs0mg"},{"bike_id":"6f4d3377-964d-4ced-bb6a-b1d042821e4f","system_id":"levelo_inurba_marseille","lat":43.24388,"lon":5.37054,"is_reserved":false,"is_disabled":false,"rental_uris":{"android":"levelo://app?vid=6f4d3377-964d-4ced-bb6a-b1d042821e4f","ios":"levelo://app?vid=6f4d3377-964d-4ced-bb6a-b1d042821e4f"},"vehicle_type_id":"4","last_reported":1730967146,"current_range_meters":39200,"station_id":"ce4bhhh2rcd13ifvqfk0","pricing_plan_id":"cebpf4jnsgd1na2vs0mg"},{"bike_id":"9b226c91-f7f8-4488-a9e6-53d39d6cc339","system_id":"levelo_inurba_marseille","lat":43.29968,"lon":5.37176,"is_reserved":false,"is_disabled":false,"rental_uris":{"android":"levelo://app?vid=9b226c91-f7f8-4488-a9e6-53d39d6cc339","ios":"levelo://app?vid=9b226c91-f7f8-4488-a9e6-53d39d6cc339"},"vehicle_type_id":"4","last_reported":1730967146,"current_range_meters":26800,"station_id":"ce4bgr92rcd13ifvqc7g","pricing_plan_id":"cebpf4jnsgd1na2vs0mg"},{"bike_id":"d159900f-eaee-458a-adc8-1665e515ea1c","system_id":"levelo_inurba_marseille","lat":43.30268,"lon":5.37721,"is_reserved":false,"is_disabled":false,"rental_uris":{"android":"levelo://app?vid=d159900f-eaee-458a-adc8-1665e515ea1c","ios":"levelo://app?vid=d159900f-eaee-458a-adc8-1665e515ea1c"},"vehicle_type_id":"4","last_reported":1730967146,"current_range_meters":11200,"station_id":"ce4bguh2rcd13ifvqcj0","pricing_plan_id":"cebpf4jnsgd1na2vs0mg"},{"bike_id":"70470d4b-6df1-4979-8da5-a491033ee887","system_id":"levelo_inurba_marseille","lat":43.26192,"lon":5.37931,"is_reserved":false,"is_disabled":false,"rental_uris":{"android":"levelo://app?vid=70470d4b-6df1-4979-8da5-a491033ee887","ios":"levelo://app?vid=70470d4b-6df1-4979-8da5-a491033ee887"},"vehicle_type_id":"4","last_reported":1730967146,"current_range_meters":38400,"station_id":"ce4bhjp2rcd13ifvqg90","pricing_plan_id":"cebpf4jnsgd1na2vs0mg"},{"bike_id":"3d52a1ef-186f-46de-9eda-a5847803b076","system_id":"levelo_inurba_marseille","lat":43.28153,"lon":5.42645,"is_reserved":false,"is_disabled":false,"rental_uris":{"android":"levelo://app?vid=3d52a1ef-186f-46de-9eda-a5847803b076","ios":"levelo://app?vid=3d52a1ef-186f-46de-9eda-a5847803b076"},"vehicle_type_id":"4","last_reported":1730967146,"current_range_meters":39200,"station_id":"ce4bhnh2rcd13ifvqgug","pricing_plan_id":"cebpf4jnsgd1na2vs0mg"},{"bike_id":"43af506a-a5b1-45db-b08e-7360df269921","system_id":"levelo_inurba_marseille","lat":43.30094,"lon":5.3908,"is_reserved":false,"is_disabled":false,"rental_uris":{"android":"levelo://app?vid=43af506a-a5b1-45db-b08e-7360df269921","ios":"levelo://app?vid=43af506a-a5b1-45db-b08e-7360df269921"},"vehicle_type_id":"4","last_reported":1730967146,"current_range_meters":32800,"station_id":"ce4bh192rcd13ifvqdb0","pricing_plan_id":"cebpf4jnsgd1na2vs0mg"},{"bike_id":"3977e7a6-0229-41cb-a37d-332e334f5862","system_id":"levelo_inurba_marseille","lat":43.27485,"lon":5.42447,"is_reserved":false,"is_disabled":false,"rental_uris":{"android":"levelo://app?vid=3977e7a6-0229-41cb-a37d-332e334f5862","ios":"levelo://app?vid=3977e7a6-0229-41cb-a37d-332e334f5862"},"vehicle_type_id":"4","last_reported":1730967146,"current_range_meters":36000,"station_id":"ce4bhn92rcd13ifvqgrg","pricing_plan_id":"cebpf4jnsgd1na2vs0mg"},{"bike_id":"47566618-52dd-4463-a42e-17b6536e784d","system_id":"levelo_inurba_marseille","lat":43.30134,"lon":5.39862,"is_reserved":false,"is_disabled":false,"rental_uris":{"android":"levelo://app?vid=47566618-52dd-4463-a42e-17b6536e784d","ios":"levelo://app?vid=47566618-52dd-4463-a42e-17b6536e784d"},"vehicle_type_id":"4","last_reported":1730967146,"current_range_meters":39200,"station_id":"ce4bh0h2rcd13ifvqd40","pricing_plan_id":"cebpf4jnsgd1na2vs0mg"},{"bike_id":"9d554c78-349d-44b1-8de9-6967c37f2f68","system_id":"levelo_inurba_marseille","lat":43.29279,"lon":5.36854,"is_reserved":false,"is_disabled":false,"rental_uris":{"android":"levelo://app?vid=9d554c78-349d-44b1-8de9-6967c37f2f68","ios":"levelo://app?vid=9d554c78-349d-44b1-8de9-6967c37f2f68"},"vehicle_type_id":"4","last_reported":1730967146,"current_range_meters":26000,"station_id":"ce4bhbp2rcd13ifvqesg","pricing_plan_id":"cebpf4jnsgd1na2vs0mg"},{"bike_id":"ae0b390c-a9c9-4b2a-8f82-406c4e21cdcd","system_id":"levelo_inurba_marseille","lat":43.29737,"lon":5.35947,"is_reserved":false,"is_disabled":false,"rental_uris":{"android":"levelo://app?vid=ae0b390c-a9c9-4b2a-8f82-406c4e21cdcd","ios":"levelo://app?vid=ae0b390c-a9c9-4b2a-8f82-406c4e21cdcd"},"vehicle_type_id":"4","last_reported":1730967146,"current_range_meters":6800,"station_id":"","pricing_plan_id":"cebpf4jnsgd1na2vs0mg"},{"bike_id":"099cde7e-3df8-4642-a9d1-57c4963a6f11","system_id":"levelo_inurba_marseille","lat":43.28457,"lon":5.38456,"is_reserved":false,"is_disabled":false,"rental_uris":{"android":"levelo://app?vid=099cde7e-3df8-4642-a9d1-57c4963a6f11","ios":"levelo://app?vid=099cde7e-3df8-4642-a9d1-57c4963a6f11"},"vehicle_type_id":"4","last_reported":1730967146,"current_range_meters":3600,"station_id":"ce4bh512rcd13ifvqe3g","pricing_plan_id":"cebpf4jnsgd1na2vs0mg"},{"bike_id":"529e1162-a94d-4873-94c0-b223d29e00a8","system_id":"levelo_inurba_marseille","lat":43.29798,"lon":5.38091,"is_reserved":false,"is_disabled":false,"rental_uris":{"android":"levelo://app?vid=529e1162-a94d-4873-94c0-b223d29e00a8","ios":"levelo://app?vid=529e1162-a94d-4873-94c0-b223d29e00a8"},"vehicle_type_id":"4","last_reported":1730967146,"current_range_meters":6800,"station_id":"ce4bgip2rcd13ifvqbb0","pricing_plan_id":"cebpf4jnsgd1na2vs0mg"},