{"last_updated":1752221709,"ttl":60,"version":"2.2","data":{"bikes":[{"bike_id":"864830cd-471c-4ae8-8ff1-495934107509","system_id":"levelo_inurba_marseille","lat":43.318967,"lon":5.407303,"is_reserved":false,"is_disabled":true,"rental_uris":{"android":"levelo://app?vid=864830cd-471c-4ae8-8ff1-495934107509","ios":"levelo://app?vid=864830cd-471c-4ae8-8ff1-495934107509"},"vehicle_type_id":"4","last_reported":1752221709,"current_range_meters":3200,"station_id":"ce4bhq12rcd13ifvqhig","pricing_plan_id":"cebpf4jnsgd1na2vs0mg"},{"bike_id":"24bb26e8-f9a4-4f56-926d-ba4ea0ec83bb","system_id":"levelo_inurba_marseille","lat":43.28677,"lon":5.38632,"is_reserved":false,"is_disabled":false,"rental_uris":{"android":"levelo://app?vid=24bb26e8-f9a4-4f56-926d-ba4ea0ec83bb","ios":"levelo://app?vid=24bb26e8-f9a4-4f56-926d-ba4ea0ec83bb"},"vehicle_type_id":"4","last_reported":1752221709,"current_range_meters":3600,"station_id":"ce4bh492rcd13ifvqdug","pricing_plan_id":"cebpf4jnsgd1na2vs0mg"},{"bike_id":"8cbe0e8f-8727-4c79-8a57-25bcc1096fac","system_id":"levelo_inurba_marseille","lat":43.24173,"lon":5.39718,"is_reserved":false,"is_disabled":false,"rental_uris":{"android":"levelo://app?vid=8cbe0e8f-8727-4c79-8a57-25bcc1096fac","ios":"levelo://app?vid=8cbe0e8f-8727-4c79-8a57-25bcc1096fac"},"vehicle_type_id":"4","last_reported":1752221709,"current_range_meters":3600,"station_id":"ce4bhn12rcd13ifvqgpg","pricing_plan_id":"cebpf4jnsgd1na2vs0mg"},{"bike_id":"eafc038e-feaf-4fe9-b765-5f7700c48ba6","system_id":"levelo_inurba_marseille","lat":43.28489,"lon":5.38562,"is_reserved":false,"is_disabled":false,"rental_uris":{"android":"levelo://app?vid=eafc038e-feaf-4fe9-b765-5f7700c48ba6","ios":"levelo://app?vid=eafc038e-feaf-4fe9-b765-5f7700c48ba6"},"vehicle_type_id":"4","last_reported":1752221709,"current_range_meters":4000,"station_id":"ce4bh8p2rcd13ifvqeb0","pricing_plan_id":"cebpf4jnsgd1na2vs0mg"},{"bike_id":"ca87bb5a-af2c-4465-9698-9970080bc252","system_id":"levelo_inurba_marseille","lat":43.23156,"lon":5.43703,"is_reserved":false,"is_disabled":false,"rental_uris":{"android":"levelo://app?vid=ca87bb5a-af2c-4465-9698-9970080bc252","ios":"levelo://app?vid=ca87bb5a-af2c-4465-9698-9970080bc252"},"vehicle_type_id":"4","last_reported":1752221709,"current_range_meters":4000,"station_id":"ce4bhmp2rcd13ifvqgog","pricing_plan_id":"cebpf4jnsgd1na2vs0mg"},{"bike_id":"f8850064-2102-4305-b524-c3781d9e22a1","system_id":"levelo_inurba_marseille","lat":43.2886,"lon":5.384536,"is_reserved":false,"is_disabled":false,"rental_uris":{"android":"levelo://app?vid=f8850064-2102-4305-b524-c3781d9e22a1","ios":"levelo://app?vid=f8850064-2102-4305-b524-c3781d9e22a1"},"vehicle_type_id":"4","last_reported":1752221709,"current_range_meters":4400,"station_id":"","pricing_plan_id":"cebpf4jnsgd1na2vs0mg"},{"bike_id":"f63ffa3b-ddae-4307-9132-248888ed94ca","system_id":"levelo_inurba_marseille","lat":43.28721,"lon":5.37937,"is_reserved":false,"is_disabled":false,"rental_uris":{"android":"levelo://app?vid=f63ffa3b-ddae-4307-9132-248888ed94ca","ios":"levelo://app?vid=f63ffa3b-ddae-4307-9132-248888ed94ca"},"vehicle_type_id":"4","last_reported":1752221709,"current_range_meters":4400,"station_id":"ce4bh9p2rcd13ifvqec0","pricing_plan_id":"cebpf4jnsgd1na2vs0mg"},{"bike_id":"97c0318f-1fd4-4f1d-bd16-7f3127e8bcf3","system_id":"levelo_inurba_marseille","lat":43.31225,"lon":5.36863,"is_reserved":false,"is_disabled":false,"rental_uris":{"android":"levelo://app?vid=97c0318f-1fd4-4f1d-bd16-7f3127e8bcf3","ios":"levelo://app?vid=97c0318f-1fd4-4f1d-bd16-7f3127e8bcf3"},"vehicle_type_id":"4","last_reported":1752221709,"current_range_meters":4400,"station_id":"ce4bgl92rcd13ifvqbq0","pricing_plan_id":"cebpf4jnsgd1na2vs0mg"},{"bike_id":"b917b90f-fc6c-426e-bf8d-98724e231651","system_id":"levelo_inurba_marseille","lat":43.23152,"lon":5.43722,"is_reserved":false,"is_disabled":false,"rental_uris":{"android":"levelo://app?vid=b917b90f-fc6c-426e-bf8d-98724e231651","ios":"levelo://app?vid=b917b90f-fc6c-426e-bf8d-98724e231651"},"vehicle_type_id":"4","last_reported":1752221709,"current_range_meters":4400,"station_id":"ce4bhmp2rcd13ifvqgog","pricing_plan_id":"cebpf4jnsgd1na2vs0mg"},{"bike_id":"b8d6bf6b-ecbb-4c40-8ce7-0169ef070b49","system_id":"levelo_inurba_marseille","lat":43.29569,"lon":5.37397,"is_reserved":false,"is_disabled":false,"rental_uris":{"android":"levelo://app?vid=b8d6bf6b-ecbb-4c40-8ce7-0169ef070b49","ios":"levelo://app?vid=b8d6bf6b-ecbb-4c40-8ce7-0169ef070b49"},"vehicle_type_id":"4","last_reported":1752221709,"current_range_meters":4800,"station_id":"","pricing_plan_id":"cebpf4jnsgd1na2vs0mg"},{"bike_id":"2bd2509c-8e69-46fb-904c-1c65a6340b60","system_id":"levelo_inurba_marseille","lat":43.21754,"lon":5.346257,"is_reserved":false,"is_disabled":false,"rental_uris":{"android":"levelo://app?vid=2bd2509c-8e69-46fb-904c-1c65a6340b60","ios":"levelo://app?vid=2bd2509c-8e69-46fb-904c-1c65a6340b60"},"vehicle_type_id":"4","last_reported":1752221709,"current_range_meters":4800,"station_id":"st_cvj6r9ubvosntc0bgbag","pricing_plan_id":"cebpf4jnsgd1na2vs0mg"},{"bike_id":"18a3cb15-d329-450f-b9ad-69f534daf986","system_id":"levelo_inurba_marseille","lat":43.28601,"lon":5.37049,"is_reserved":false,"is_disabled":false,"rental_uris":{"android":"levelo://app?vid=18a3cb15-d329-450f-b9ad-69f534daf986","ios":"levelo://app?vid=18a3cb15-d329-450f-b9ad-69f534daf986"},"vehicle_type_id":"4","last_reported":1752221709,"current_range_meters":5600,"station_id":"ce4bht12rcd13ifvqi60","pricing_plan_id":"cebpf4jnsgd1na2vs0mg"},{"bike_id":"ba480b1d-fbef-4d54-9bb0-c2fa8b787212","system_id":"levelo_inurba_marseille","lat":43.21186,"lon":5.350716,"is_reserved":false,"is_disabled":false,"rental_uris":{"android":"levelo://app?vid=ba480b1d-fbef-4d54-9bb0-c2fa8b787212","ios":"levelo://app?vid=ba480b1d-fbef-4d54-9bb0-c2fa8b787212"},"vehicle_type_id":"4","last_reported":1752221709,"current_range_meters":6000,"station_id":"st_cvj6sg6p6f1abm77japg","pricing_plan_id":"cebpf4jnsgd1na2vs0mg"},{"bike_id":"cba82c81-b3f2-4fa6-93f9-f110cf828cae","system_id":"levelo_inurba_marseille","lat":43.29304,"lon":5.37165,"is_reserved":false,"is_disabled":false,"rental_uris":{"android":"levelo://app?vid=cba82c81-b3f2-4fa6-93f9-f110cf828cae","ios":"levelo://app?vid=cba82c81-b3f2-4fa6-93f9-f110cf828cae"},"vehicle_type_id":"4","last_reported":1752221709,"current_range_meters":6000,"station_id":"ce4bgh92rcd13ifvqb40","pricing_plan_id":"cebpf4jnsgd1na2vs0mg"},{"bike_id":"0d107160-d10e-4c36-92b5-b6723a0bca99","system_id":"levelo_inurba_marseille","lat":43.29259,"lon":5.36854,"is_reserved":false,"is_disabled":false,"rental_uris":{"android":"levelo://app?vid=0d107160-d10e-4c36-92b5-b6723a0bca99","ios":"levelo://app?vid=0d107160-d10e-4c36-92b5-b6723a0bca99"},"vehicle_type_id":"4","last_reported":1752221709,"current_range_meters":6400,"station_id":"ce4bhbp2rcd13ifvqesg","pricing_plan_id":"cebpf4jnsgd1na2vs0mg"},{"bike_id":"c9ec8264-b1f7-41db-a127-5dfa02fc980f","system_id":"levelo_inurba_marseille","lat":43.31546,"lon":5.40173,"is_reserved":false,"is_disabled":false,"rental_uris":{"android":"levelo://app?vid=c9ec8264-b1f7-41db-a127-5dfa02fc980f","ios":"levelo://app?vid=c9ec8264-b1f7-41db-a127-5dfa02fc980f"},"vehicle_type_id":"4","last_reported":1752221709,"current_range_meters":6400,"station_id":"","pricing_plan_id":"cebpf4jnsgd1na2vs0mg"},{"bike_id":"3108e78c-759c-4d11-b361-5abb833e983c","system_id":"levelo_inurba_marseille","lat":43.28856,"lon":5.3941,"is_reserved":false,"is_disabled":false,"rental_uris":{"android":"levelo://app?vid=3108e78c-759c-4d11-b361-5abb833e983c","ios":"levelo://app?vid=3108e78c-759c-4d11-b361-5abb833e983c"},"vehicle_type_id":"4","last_reported":1752221709,"current_range_meters":6800,"station_id":"","pricing_plan_id":"cebpf4jnsgd1na2vs0mg"},{"bike_id":"6e5c2657-ccb8-4153-8b94-2143bc427a03","system_id":"levelo_inurba_marseille","lat":43.22495,"lon":5.34781,"is_reserved":false,"is_disabled":false,"rental_uris":{"android":"levelo://app?vid=6e5c2657-ccb8-4153-8b94-2143bc427a03","ios":"levelo://app?vid=6e5c2657-ccb8-4153-8b94-2143bc427a03"},"vehicle_type_id":"4","last_reported":1752221709,"current_range_meters":6800,"station_id":"st_cvj5dfep6f1abm77gieg","pricing_plan_id":"cebpf4jnsgd1na2vs0mg"},{"bike_id":"aefcdd74-6482-42e0-92ee-b3d9efe0d8e2","system_id":"levelo_inurba_marseille","lat":43.32479,"lon":5.36558,"is_reserved":false,"is_disabled":false,"rental_uris":{"android":"levelo://app?vid=aefcdd74-6482-42e0-92ee-b3d9efe0d8e2","ios":"levelo://app?vid=aefcdd74-6482-42e0-92ee-b3d9efe0d8e2"},"vehicle_type_id":"4","last_reported":1752221709,"current_range_meters":7200,"station_id":"ce4bhs12rcd13ifvqhvg","pricing_plan_id":"cebpf4jnsgd1na2vs0mg"},{"bike_id":"6c5ac90f-96ea-4d30-a409-45281e043d41","system_id":"levelo_inurba_marseille","lat":43.29227,"lon":5.36053,"is_reserved":false,"is_disabled":false,"rental_uris":{"android":"levelo://app?vid=6c5ac90f-96ea-4d30-a409-45281e043d41","ios":"levelo://app?vid=6c5ac90f-96ea-4d30-a409-45281e043d41"},"vehicle_type_id":"4","last_reported":1752221709,"current_range_meters":7200,"station_id":"ce4bhbh2rcd13ifvqeqg","pricing_plan_id":"cebpf4jnsgd1na2vs0mg"},{"bike_id":"f9c9bdfb-3d90-4f04-bb05-4f6996bd97c8","system_id":"levelo_inurba_marseille","lat":43.30342,"lon":5.4043,"is_reserved":false,"is_disabled":false,"rental_uris":{"android":"levelo://app?vid=f9c9bdfb-3d90-4f04-bb05-4f6996bd97c8","ios":"levelo://app?vid=f9c9bdfb-3d90-4f04-bb05-4f6996bd97c8"},"vehicle_type_id":"4","last_reported":1752221709,"current_range_meters":7200,"station_id":"ce4bh012rcd13ifvqd10","pricing_plan_id":"cebpf4jnsgd1na2vs0mg"},{"bike_id":"b2caa530-bb19-4cc6-a6bd-61e3e1d7432e","system_id":"levelo_inurba_marseille","lat":43.33763,"lon":5.37461,"is_reserved":false,"is_disabled":false,"rental_uris":{"android":"levelo://app?vid=b2caa530-bb19-4cc6-a6bd-61e3e1d7432e","ios":"levelo://app?vid=b2caa530-bb19-4cc6-a6bd-61e3e1d7432e"},"vehicle_type_id":"4","last_reported":1752221709,"current_range_meters":7200,"station_id":"","pricing_plan_id":"cebpf4jnsgd1na2vs0mg"},{"bike_id":"f1521e14-c58e-4d8c-b222-a585052d0ae8","system_id":"levelo_inurba_marseille","lat":43.30781,"lon":5.37652,"is_reserved":false,"is_disabled":false,"rental_uris":{"android":"levelo://app?vid=f1521e14-c58e-4d8c-b222-a585052d0ae8","ios":"levelo://app?vid=f1521e14-c58e-4d8c-b222-a585052d0ae8"},"vehicle_type_id":"4","last_reported":1752221709,"current_range_meters":7200,"station_id":"ce4bgv92rcd13ifvqcq0","pricing_plan_id":"cebpf4jnsgd1na2vs0mg"},{"bike_id":"81617568-8f2c-4ac8-bc1f-d0fe3702bc05","system_id":"levelo_inurba_marseille","lat":43.28669,"lon":5.38653,"is_reserved":false,"is_disabled":false,"rental_uris":{"android":"levelo://app?vid=81617568-8f2c-4ac8-bc1f-d0fe3702bc05","ios":"levelo://app?vid=81617568-8f2c-4ac8-bc1f-d0fe3702bc05"},"vehicle_type_id":"4","last_reported":1752221709,"current_range_meters":7200,"station_id":"ce4bh492rcd13ifvqdug","pricing_plan_id":"cebpf4jnsgd1na2vs0mg"},{"bike_id":"21ae54b9-7375-4101-b8a7-bff9d6e1fa32","system_id":"levelo_inurba_marseille","lat":43.29989,"lon":5.37587,"is_reserved":false,"is_disabled":false,"rental_uris":{"android":"levelo://app?vid=21ae54b9-7375-4101-b8a7-bff9d6e1fa32","ios":"levelo://app?vid=21ae54b9-7375-4101-b8a7-bff9d6e1fa32"},"vehicle_type_id":"4","last_reported":1752221709,"current_range_meters":8000,"station_id":"","pricing_plan_id":"cebpf4jnsgd1na2vs0mg"},{"bike_id":"b757ffbb-2b71-4330-9f60-5f8a9d46d16e","system_id":"levelo_inurba_marseille","lat":43.2967,"lon":5.37107,"is_reserved":false,"is_disabled":false,"rental_uris":{"android":"levelo://app?vid=b757ffbb-2b71-4330-9f60-5f8a9d46d16e","ios":"levelo://app?vid=b757ffbb-2b71-4330-9f60-5f8a9d46d16e"},"vehicle_type_id":"4","last_reported":1752221709,"current_range_meters":8000,"station_id":"","pricing_plan_id":"cebpf4jnsgd1na2vs0mg"},{"bike_id":"4deca6f8-9b37-4465-ae5a-2b72c9e4c858","system_id":"levelo_inurba_marseille","lat":43.29941,"lon":5.37188,"is_reserved":false,"is_disabled":false,"rental_uris":{"android":"levelo://app?vid=4deca6f8-9b37-4465-ae5a-2b72c9e4c858","ios":"levelo://app?vid=4deca6f8-9b37-4465-ae5a-2b72c9e4c858"},"vehicle_type_id":"4","last_reported":1752221709,"current_range_meters":8400,"station_id":"ce4bgr92rcd13ifvqc7g","pricing_plan_id":"cebpf4jnsgd1na2vs0mg"},{"bike_id":"4fcc0924-ffa7-438c-92bf-010a7c6b4ba1","system_id":"levelo_inurba_marseille","lat":43.26965,"lon":5.4025,"is_reserved":false,"is_disabled":false,"rental_uris":{"android":"levelo://app?vid=4fcc0924-ffa7-438c-92bf-010a7c6b4ba1","ios":"levelo://app?vid=4fcc0924-ffa7-438c-92bf-010a7c6b4ba1"},"vehicle_type_id":"4","last_reported":1752221709,"current_range_meters":8400,"station_id":"cjm6bp8fraef2m0cb0m0","pricing_plan_id":"cebpf4jnsgd1na2vs0mg"},{"bike_id":"833f97ec-e704-4051-ab3b-2e9eb58f71d0","system_id":"levelo_inurba_marseille","lat":43.30271,"lon":5.37527,"is_reserved":false,"is_disabled":false,"rental_uris":{"android":"levelo://app?vid=833f97ec-e704-4051-ab3b-2e9eb58f71d0","ios":"levelo://app?vid=833f97ec-e704-4051-ab3b-2e9eb58f71d0"},"vehicle_type_id":"4","last_reported":1752221709,"current_range_meters":8800,"station_id":"","pricing_plan_id":"cebpf4jnsgd1na2vs0mg"},{"bike_id":"f61cdae0-4695-434c-8112-4bcb8089989b","system_id":"levelo_inurba_marseille","lat":43.29261,"lon":5.37617,"is_reserved":false,"is_disabled":false,"rental_uris":{"android":"levelo://app?vid=f61cdae0-4695-434c-8112-4bcb8089989b","ios":"levelo://app?vid=f61cdae0-4695-434c-8112-4bcb8089989b"},"vehicle_type_id":"4","last_reported":1752221709,"current_range_meters":9200,"station_id":"ce4bgi12rcd13ifvqb80","pricing_plan_id":"cebpf4jnsgd1na2vs0mg"},{"bike_id":"92b21758-9711-46e9-b785-20d1c61b8b2e","system_id":"levelo_inurba_marseille","lat":43.296162,"lon":5.376945,"is_reserved":false,"is_disabled":true,"rental_uris":{"android":"levelo://app?vid=92b21758-9711-46e9-b785-20d1c61b8b2e","ios":"levelo://app?vid=92b21758-9711-46e9-b785-20d1c61b8b2e"},"vehicle_type_id":"4","last_reported":1752221709,"current_range_meters":9200,"station_id":"","pricing_plan_id":"cebpf4jnsgd1na2vs0mg"},{"bike_id":"c3898ed2-8480-4d26-a9ec-d2e20757aca9","system_id":"levelo_inurba_marseille","lat":43.28415,"lon":5.34984,"is_reserved":false,"is_disabled":false,"rental_uris":{"android":"levelo://app?vid=c3898ed2-8480-4d26-a9ec-d2e20757aca9","ios":"levelo://app?vid=c3898ed2-8480-4d26-a9ec-d2e20757aca9"},"vehicle_type_id":"4","last_reported":1752221709,"current_range_meters":9200,"station_id":"ce4bhbh2rcd13ifvqepg","pricing_plan_id":"cebpf4jnsgd1na2vs0mg"},{"bike_id":"e204274b-73ad-4c6f-862d-8af730ce2e2b","system_id":"levelo_inurba_marseille","lat":43.29547,"lon":5.42265,"is_reserved":false,"is_disabled":false,"rental_uris":{"android":"levelo://app?vid=e204274b-73ad-4c6f-862d-8af730ce2e2b","ios":"levelo://app?vid=e204274b-73ad-4c6f-862d-8af730ce2e2b"},"vehicle_type_id":"4","last_reported":1752221709,"current_range_meters":9200,"station_id":"ce4bhph2rcd13ifvqhdg","pricing_plan_id":"cebpf4jnsgd1na2vs0mg"},{"bike_id":"85bef485-8d2a-42d1-a5ab-7678e260e8db","system_id":"levelo_inurba_marseille","lat":43.250052,"lon":5.389236,"is_reserved":false,"is_disabled":false,"rental_uris":{"android":"levelo://app?vid=85bef485-8d2a-42d1-a5ab-7678e260e8db","ios":"levelo://app?vid=85bef485-8d2a-42d1-a5ab-7678e260e8db"},"vehicle_type_id":"4","last_reported":1752221709,"current_range_meters":9600,"station_id":"ce4bhgp2rcd13ifvqfd0","pricing_plan_id":"cebpf4jnsgd1na2vs0mg"},{"bike_id":"d4fef870-f3df-418c-b45a-632453acc9ad","system_id":"levelo_inurba_marseille","lat":43.22502,"lon":5.34781,"is_reserved":false,"is_disabled":false,"rental_uris":{"android":"levelo://app?vid=d4fef870-f3df-418c-b45a-632453acc9ad","ios":"levelo://app?vid=d4fef870-f3df-418c-b45a-632453acc9ad"},"vehicle_type_id":"4","last_reported":1752221709,"current_range_meters":9600,"station_id":"st_cvj5dfep6f1abm77gieg","pricing_plan_id":"cebpf4jnsgd1na2vs0mg"},{"bike_id":"67af2fe7-f535-4afe-8f2e-b36dad8bb280","system_id":"levelo_inurba_marseille","lat":43.284789,"lon":5.385771,"is_reserved":false,"is_disabled":false,"rental_uris":{"android":"levelo://app?vid=67af2fe7-f535-4afe-8f2e-b36dad8bb280","ios":"levelo://app?vid=67af2fe7-f535-4afe-8f2e-b36dad8bb280"},"vehicle_type_id":"4","last_reported":1752221709,"current_range_meters":10000,"station_id":"ce4bh8p2rcd13ifvqeb0","pricing_plan_id":"cebpf4jnsgd1na2vs0mg"},{"bike_id":"ea7f713a-f8eb-4f16-8168-36d2161084e8","system_id":"levelo_inurba_marseille","lat":43.27878,"lon":5.3946,"is_reserved":false,"is_disabled":false,"rental_uris":{"android":"levelo://app?vid=ea7f713a-f8eb-4f16-8168-36d2161084e8","ios":"levelo://app?vid=ea7f713a-f8eb-4f16-8168-36d2161084e8"},"vehicle_type_id":"4","last_reported":1752221709,"current_range_meters":10000,"station_id":"","pricing_plan_id":"cebpf4jnsgd1na2vs0mg"},{"bike_id":"39d81cdf-aa9d-4dc2-96f3-0fbee5ba6fcc","system_id":"levelo_inurba_marseille","lat":43.30946,"lon":5.39034,"is_reserved":false,"is_disabled":false,"rental_uris":{"android":"levelo://app?vid=39d81cdf-aa9d-4dc2-96f3-0fbee5ba6fcc","ios":"levelo://app?vid=39d81cdf-aa9d-4dc2-96f3-0fbee5ba6fcc"},"vehicle_type_id":"4","last_reported":1752221709,"current_range_meters":10000,"station_id":"ce4bgup2rcd13ifvqco0","pricing_plan_id":"cebpf4jnsgd1na2vs0mg"},{"bike_id":"e7628d59-1f53-4a3e-bac9-cc30ae8a4212","system_id":"levelo_inurba_marseille","lat":43.312,"lon":5.36865,"is_reserved":false,"is_disabled":false,"rental_uris":{"android":"levelo://app?vid=e7628d59-1f53-4a3e-bac9-cc30ae8a4212","ios":"levelo://app?vid=e7628d59-1f53-4a3e-bac9-cc30ae8a4212"},"vehicle_type_id":"4","last_reported":1752221709,"current_range_meters":10800,"station_id":"ce4bgl92rcd13ifvqbq0","pricing_plan_id":"cebpf4jnsgd1na2vs0mg"},{"bike_id":"73fe94e8-74f9-41f0-85e9-7d8c52adf2fc","system_id":"levelo_inurba_marseille","lat":43.21276,"lon":5.35272,"is_reserved":false,"is_disabled":false,"rental_uris":{"android":"levelo://app?vid=73fe94e8-74f9-41f0-85e9-7d8c52adf2fc","ios":"levelo://app?vid=73fe94e8-74f9-41f0-85e9-7d8c52adf2fc"},"vehicle_type_id":"4","last_reported":1752221709,"current_range_meters":10800,"station_id":"","pricing_plan_id":"cebpf4jnsgd1na2vs0mg"},{"bike_id":"ddb9be4f-f3f8-43f9-aa75-a62ae12dac83","system_id":"levelo_inurba_marseille","lat":43.29047,"lon":5.39953,"is_reserved":false,"is_disabled":false,"rental_uris":{"android":"levelo://app?vid=ddb9be4f-f3f8-43f9-aa75-a62ae12dac83","ios":"levelo://app?vid=ddb9be4f-f3f8-43f9-aa75-a62ae12dac83"},"vehicle_type_id":"4","last_reported":1752221709,"current_range_meters":10800,"station_id":"ce4bh392rcd13ifvqdm0","pricing_plan_id":"cebpf4jnsgd1na2vs0mg"},{"bike_id":"2af8082d-fa32-4b21-914d-bf22e7c444bc","system_id":"levelo_inurba_marseille","lat":43.28946,"lon":5.36384,"is_reserved":false,"is_disabled":false,"rental_uris":{"android":"levelo://app?vid=2af8082d-fa32-4b21-914d-bf22e7c444bc","ios":"levelo://app?vid=2af8082d-fa32-4b21-914d-bf22e7c444bc"},"vehicle_type_id":"4","last_reported":1752221709,"current_range_meters":10800,"station_id":"ce4bhc92rcd13ifvqetg","pricing_plan_id":"cebpf4jnsgd1na2vs0mg"},{"bike_id":"6fa0df8f-9ff1-40c3-a15b-344b5a0d383b","system_id":"levelo_inurba_marseille","lat":43.32359,"lon":5.36763,"is_reserved":false,"is_disabled":false,"rental_uris":{"android":"levelo://app?vid=6fa0df8f-9ff1-40c3-a15b-344b5a0d383b","ios":"levelo://app?vid=6fa0df8f-9ff1-40c3-a15b-344b5a0d383b"},"vehicle_type_id":"4","last_reported":1752221709,"current_range_meters":10800,"station_id":"ce4bhsh2rcd13ifvqi2g","pricing_plan_id":"cebpf4jnsgd1na2vs0mg"},{"bike_id":"f373e4a8-33e3-4f72-ae8e-e7ab386910f4","system_id":"levelo_inurba_marseille","lat":43.225,"lon":5.34775,"is_reserved":false,"is_disabled":false,"rental_uris":{"android":"levelo://app?vid=f373e4a8-33e3-4f72-ae8e-e7ab386910f4","ios":"levelo://app?vid=f373e4a8-33e3-4f72-ae8e-e7ab386910f4"},"vehicle_type_id":"4","last_reported":1752221709,"current_range_meters":10800,"station_id":"st_cvj5dfep6f1abm77gieg","pricing_plan_id":"cebpf4jnsgd1na2vs0mg"},{"bike_id":"26f0e34f-89f8-4c55-bf5b-08fe42d26846","system_id":"levelo_inurba_marseille","lat":43.30782,"lon":5.37642,"is_reserved":false,"is_disabled":false,"rental_uris":{"android":"levelo://app?vid=26f0e34f-89f8-4c55-bf5b-08fe42d26846","ios":"levelo://app?vid=26f0e34f-89f8-4c55-bf5b-08fe42d26846"},"vehicle_type_id":"4","last_reported":1752221709,"current_range_meters":10800,"station_id":"ce4bgv92rcd13ifvqcq0","pricing_plan_id":"cebpf4jnsgd1na2vs0mg"},{"bike_id":"20680127-388b-4c3d-826d-da1f8ee9afa9","system_id":"levelo_inurba_marseille","lat":43.3014,"lon":5.38077,"is_reserved":false,"is_disabled":false,"rental_uris":{"android":"levelo://app?vid=20680127-388b-4c3d-826d-da1f8ee9afa9","ios":"levelo://app?vid=20680127-388b-4c3d-826d-da1f8ee9afa9"},"vehicle_type_id":"4","last_reported":1752221709,"current_range_meters":10000,"station_id":"ce4bgjp2rcd13ifvqbh0","pricing_plan_id":"cebpf4jnsgd1na2vs0mg"},{"bike_id":"7c2d071d-3793-47df-b931-9d1ad060c48c","system_id":"levelo_inurba_marseille","lat":43.29595,"lon":5.423,"is_reserved":false,"is_disabled":false,"rental_uris":{"android":"levelo://app?vid=7c2d071d-3793-47df-b931-9d1ad060c48c","ios":"levelo://app?vid=7c2d071d-3793-47df-b931-9d1ad060c48c"},"vehicle_type_id":"4","last_reported":1752221709,"current_range_meters":10800,"station_id":"ce4bhph2rcd13ifvqhdg","pricing_plan_id":"cebpf4jnsgd1na2vs0mg"},{"bike_id":"cb8397a4-a91a-4e0e-97be-392721e9ec48","system_id":"levelo_inurba_marseille","lat":43.24382,"lon":5.37055,"is_reserved":false,"is_disabled":false,"rental_uris":{"android":"levelo://app?vid=cb8397a4-a91a-4e0e-97be-392721e9ec48","ios":"levelo://app?vid=cb8397a4-a91a-4e0e-97be-392721e9ec48"},"vehicle_type_id":"4","last_reported":1752221709,"current_range_meters":10800,"station_id":"ce4bhhh2rcd13ifvqfk0","pricing_plan_id":"cebpf4jnsgd1na2vs0mg"},{"bike_id":"b3d60eb0-7aa4-4c31-880d-886f21433e0c","system_id":"levelo_inurba_marseille","lat":43.31722,"lon":5.40436,"is_reserved":false,"is_disabled":false,"rental_uris":{"android":"levelo://app?vid=b3d60eb0-7aa4-4c31-880d-886f21433e0c","ios":"levelo://app?vid=b3d60eb0-7aa4-4c31-880d-886f21433e0c"},"vehicle_type_id":"4","last_reported":1752221709,"current_range_meters":10800,"station_id":"","pricing_plan_id":"cebpf4jnsgd1na2vs0mg"},{"bike_id":"95ed45be-0cbe-4ada-ab9b-3d6fe6e0c22e","system_id":"levelo_inurba_marseille","lat":43.27611,"lon":5.36096,"is_reserved":false,"is_disabled":true,"rental_uris":{"android":"levelo://app?vid=95ed45be-0cbe-4ada-ab9b-3d6fe6e0c22e","ios":"levelo://app?vid=95ed45be-0cbe-4ada-ab9b-3d6fe6e0c22e"},"vehicle_type_id":"4","last_reported":1752221709,"current_range_meters":10800,"station_id":"ce4bgj92rcd13ifvqbe0","pricing_plan_id":"cebpf4jnsgd1na2vs0mg"},{"bike_id":"1498aa10-6325-4f33-ade6-c2c8eadfca79","system_id":"levelo_inurba_marseille","lat":43.24384,"lon":5.37057,"is_reserved":false,"is_disabled":false,"rental_uris":{"android":"levelo://app?vid=1498aa10-6325-4f33-ade6-c2c8eadfca79","ios":"levelo://app?vid=1498aa10-6325-4f33-ade6-c2c8eadfca79"},"vehicle_type_id":"4","last_reported":1752221709,"current_range_meters":10800,"station_id":"ce4bhhh2rcd13ifvqfk0","pricing_plan_id":"cebpf4jnsgd1na2vs0mg"},{"bike_id":"be814f25-37ad-475c-b3ce-8e4eb6677f83","system_id":"levelo_inurba_marseille","lat":43.286882,"lon":5.366993,"is_reserved":false,"is_disabled":false,"rental_uris":{"android":"levelo://app?vid=be814f25-37ad-475c-b3ce-8e4eb6677f83","ios":"levelo://app?vid=be814f25-37ad-475c-b3ce-8e4eb6677f83"},"vehicle_type_id":"4","last_reported":1752221709,"current_range_meters":11200,"station_id":"ce4bha12rcd13ifvqef0","pricing_plan_id":"cebpf4jnsgd1na2vs0mg"},{"bike_id":"2892c59b-e1f7-4d16-baa4-2c49420c8688","system_id":"levelo_inurba_marseille","lat":43.28418,"lon":5.34984,"is_reserved":false,"is_disabled":false,"rental_uris":{"android":"levelo://app?vid=2892c59b-e1f7-4d16-baa4-2c49420c8688","ios":"levelo://app?vid=2892c59b-e1f7-4d16-baa4-2c49420c8688"},"vehicle_type_id":"4","last_reported":1752221709,"current_range_meters":11200,"station_id":"ce4bhbh2rcd13ifvqepg","pricing_plan_id":"cebpf4jnsgd1na2vs0mg"},{"bike_id":"77a895c0-f47c-4ec3-a855-a3289edee2ca","system_id":"levelo_inurba_marseille","lat":43.27897,"lon":5.39205,"is_reserved":false,"is_disabled":true,"rental_uris":{"android":"levelo://app?vid=77a895c0-f47c-4ec3-a855-a3289edee2ca","ios":"levelo://app?vid=77a895c0-f47c-4ec3-a855-a3289edee2ca"},"vehicle_type_id":"4","last_reported":1752221709,"current_range_meters":11600,"station_id":"ce4bhjp2rcd13ifvqga0","pricing_plan_id":"cebpf4jnsgd1na2vs0mg"},{"bike_id":"9f5e74ce-2459-4c6f-a171-f6d1e8a1ed83","system_id":"levelo_inurba_marseille","lat":43.31855,"lon":5.37566,"is_reserved":false,"is_disabled":false,"rental_uris":{"android":"levelo://app?vid=9f5e74ce-2459-4c6f-a171-f6d1e8a1ed83","ios":"levelo://app?vid=9f5e74ce-2459-4c6f-a171-f6d1e8a1ed83"},"vehicle_type_id":"4","last_reported":1752221709,"current_range_meters":11600,"station_id":"","pricing_plan_id":"cebpf4jnsgd1na2vs0mg"},{"bike_id":"4e209b0c-855f-4b51-8120-2faef8673853","system_id":"levelo_inurba_marseille","lat":43.306131,"lon":5.368887,"is_reserved":false,"is_disabled":false,"rental_uris":{"android":"levelo://app?vid=4e209b0c-855f-4b51-8120-2faef8673853","ios":"levelo://app?vid=4e209b0c-855f-4b51-8120-2faef8673853"},"vehicle_type_id":"4","last_reported":1752221709,"current_range_meters":11600,"station_id":"","pricing_plan_id":"cebpf4jnsgd1na2vs0mg"},{"bike_id":"624dedc3-fc47-424d-a69a-652531556a2d","system_id":"levelo_inurba_marseille","lat":43.29224,"lon":5.3607,"is_reserved":false,"is_disabled":false,"rental_uris":{"android":"levelo://app?vid=624dedc3-fc47-424d-a69a-652531556a2d","ios":"levelo://app?vid=624dedc3-fc47-424d-a69a-652531556a2d"},"vehicle_type_id":"4","last_reported":1752221709,"current_range_meters":11600,"station_id":"ce4bhbh2rcd13ifvqeqg","pricing_plan_id":"cebpf4jnsgd1na2vs0mg"},{"bike_id":"3cc0a5e9-78a9-4ed7-b38b-3a582942c62e","system_id":"levelo_inurba_marseille","lat":43.27206,"lon":5.39169,"is_reserved":false,"is_disabled":false,"rental_uris":{"android":"levelo://app?vid=3cc0a5e9-78a9-4ed7-b38b-3a582942c62e","ios":"levelo://app?vid=3cc0a5e9-78a9-4ed7-b38b-3a582942c62e"},"vehicle_type_id":"4","last_reported":1752221709,"current_range_meters":11600,"station_id":"ce4bhhp2rcd13ifvqfm0","pricing_plan_id":"cebpf4jnsgd1na2vs0mg"},{"bike_id":"1ffc805c-8736-438b-9a4f-0dd7804275b4","system_id":"levelo_inurba_marseille","lat":43.29234,"lon":5.36049,"is_reserved":false,"is_disabled":false,"rental_uris":{"android":"levelo://app?vid=1ffc805c-8736-438b-9a4f-0dd7804275b4","ios":"levelo://app?vid=1ffc805c-8736-438b-9a4f-0dd7804275b4"},"vehicle_type_id":"4","last_reported":1752221709,"current_range_meters":12400,"station_id":"ce4bhbh2rcd13ifvqeqg","pricing_plan_id":"cebpf4jnsgd1na2vs0mg"},{"bike_id":"5a7b57ef-a00d-4d19-853c-d49c119db95f","system_id":"levelo_inurba_marseille","lat":43.24566,"lon":5.3734,"is_reserved":false,"is_disabled":false,"rental_uris":{"android":"levelo://app?vid=5a7b57ef-a00d-4d19-853c-d49c119db95f","ios":"levelo://app?vid=5a7b57ef-a00d-4d19-853c-d49c119db95f"},"vehicle_type_id":"4","last_reported":1752221709,"current_range_meters":12400,"station_id":"","pricing_plan_id":"cebpf4jnsgd1na2vs0mg"},{"bike_id":"13d6e247-795f-44d9-bafe-31cbd3d5d525","system_id":"levelo_inurba_marseille","lat":43.26553,"lon":5.37305,"is_reserved":false,"is_disabled":false,"rental_uris":{"android":"levelo://app?vid=13d6e247-795f-44d9-bafe-31cbd3d5d525","ios":"levelo://app?vid=13d6e247-795f-44d9-bafe-31cbd3d5d525"},"vehicle_type_id":"4","last_reported":1752221709,"current_range_meters":12400,"station_id":"ce4bhg12rcd13ifvqf70","pricing_plan_id":"cebpf4jnsgd1na2vs0mg"},{"bike_id":"52ded562-124e-46e9-8eee-59b1479b9e35","system_id":"levelo_inurba_marseille","lat":43.32477,"lon":5.36555,"is_reserved":false,"is_disabled":false,"rental_uris":{"android":"levelo://app?vid=52ded562-124e-46e9-8eee-59b1479b9e35","ios":"levelo://app?vid=52ded562-124e-46e9-8eee-59b1479b9e35"},"vehicle_type_id":"4","last_reported":1752221709,"current_range_meters":12400,"station_id":"ce4bhs12rcd13ifvqhvg","pricing_plan_id":"cebpf4jnsgd1na2vs0mg"},{"bike_id":"fa87fcb5-aacb-41a1-a789-0296bbd02085","system_id":"levelo_inurba_marseille","lat":43.24586,"lon":5.37368,"is_reserved":false,"is_disabled":false,"rental_uris":{"android":"levelo://app?vid=fa87fcb5-aacb-41a1-a789-0296bbd02085","ios":"levelo://app?vid=fa87fcb5-aacb-41a1-a789-0296bbd02085"},"vehicle_type_id":"4","last_reported":1752221709,"current_range_meters":12400,"station_id":"","pricing_plan_id":"cebpf4jnsgd1na2vs0mg"},{"bike_id":"eb808631-7f2b-4efe-a9e5-541032677921","system_id":"levelo_inurba_marseille","lat":43.23192,"lon":5.35557,"is_reserved":false,"is_disabled":false,"rental_uris":{"android":"levelo://app?vid=eb808631-7f2b-4efe-a9e5-541032677921","ios":"levelo://app?vid=eb808631-7f2b-4efe-a9e5-541032677921"},"vehicle_type_id":"4","last_reported":1752221709,"current_range_meters":12400,"station_id":"ce4bhu92rcd13ifvqi70","pricing_plan_id":"cebpf4jnsgd1na2vs0mg"},{"bike_id":"a670c742-83d5-4266-8575-6eb1676d2099","system_id":"levelo_inurba_marseille","lat":43.29528,"lon":5.37501,"is_reserved":false,"is_disabled":true,"rental_uris":{"android":"levelo://app?vid=a670c742-83d5-4266-8575-6eb1676d2099","ios":"levelo://app?vid=a670c742-83d5-4266-8575-6eb1676d2099"},"vehicle_type_id":"4","last_reported":1752221709,"current_range_meters":12400,"station_id":"ce4bgkp2rcd13ifvqbmg","pricing_plan_id":"cebpf4jnsgd1na2vs0mg"},{"bike_id":"8330a68f-2f6e-4337-9657-35d7d87c04ca","system_id":"levelo_inurba_marseille","lat":43.25451,"lon":5.37946,"is_reserved":false,"is_disabled":false,"rental_uris":{"android":"levelo://app?vid=8330a68f-2f6e-4337-9657-35d7d87c04ca","ios":"levelo://app?vid=8330a68f-2f6e-4337-9657-35d7d87c04ca"},"vehicle_type_id":"4","last_reported":1752221709,"current_range_meters":12800,"station_id":"","pricing_plan_id":"cebpf4jnsgd1na2vs0mg"},{"bike_id":"70f26965-dd64-4f6c-a1f4-194a139dfe93","system_id":"levelo_inurba_marseille","lat":43.291905,"lon":5.357476,"is_reserved":false,"is_disabled":false,"rental_uris":{"android":"levelo://app?vid=70f26965-dd64-4f6c-a1f4-194a139dfe93","ios":"levelo://app?vid=70f26965-dd64-4f6c-a1f4-194a139dfe93"},"vehicle_type_id":"4","last_reported":1752221709,"current_range_meters":12800,"station_id":"ce4bhb12rcd13ifvqel0","pricing_plan_id":"cebpf4jnsgd1na2vs0mg"},{"bike_id":"ee1ac907-8623-4d00-ac01-d41dd90be9fe","system_id":"levelo_inurba_marseille","lat":43.211913,"lon":5.350724,"is_reserved":false,"is_disabled":false,"rental_uris":{"android":"levelo://app?vid=ee1ac907-8623-4d00-ac01-d41dd90be9fe","ios":"levelo://app?vid=ee1ac907-8623-4d00-ac01-d41dd90be9fe"},"vehicle_type_id":"4","last_reported":1752221709,"current_range_meters":12800,"station_id":"st_cvj6sg6p6f1abm77japg","pricing_plan_id":"cebpf4jnsgd1na2vs0mg"},{"bike_id":"1830d799-57e9-4ec2-b486-66d995653d72","system_id":"levelo_inurba_marseille","lat":43.296181,"lon":5.381997,"is_reserved":false,"is_disabled":false,"rental_uris":{"android":"levelo://app?vid=1830d799-57e9-4ec2-b486-66d995653d72","ios":"levelo://app?vid=1830d799-57e9-4ec2-b486-66d995653d72"},"vehicle_type_id":"4","last_reported":1752221709,"current_range_meters":12800,"station_id":"","pricing_plan_id":"cebpf4jnsgd1na2vs0mg"},{"bike_id":"9a38b8ae-de57-4388-9942-2cd602d3a5ea","system_id":"levelo_inurba_marseille","lat":43.29567,"lon":5.42286,"is_reserved":false,"is_disabled":false,"rental_uris":{"android":"levelo://app?vid=9a38b8ae-de57-4388-9942-2cd602d3a5ea","ios":"levelo://app?vid=9a38b8ae-de57-4388-9942-2cd602d3a5ea"},"vehicle_type_id":"4","last_reported":1752221709,"current_range_meters":12800,"station_id":"ce4bhph2rcd13ifvqhdg","pricing_plan_id":"cebpf4jnsgd1na2vs0mg"},{"bike_id":"23e44b9b-c463-490b-acec-f06bbd7164fa","system_id":"levelo_inurba_marseille","lat":43.284108,"lon":5.349858,"is_reserved":false,"is_disabled":false,"rental_uris":{"android":"levelo://app?vid=23e44b9b-c463-490b-acec-f06bbd7164fa","ios":"levelo://app?vid=23e44b9b-c463-490b-acec-f06bbd7164fa"},"vehicle_type_id":"4","last_reported":1752221709,"current_range_meters":12400,"station_id":"ce4bhbp2rcd13ifvqerg","pricing_plan_id":"cebpf4jnsgd1na2vs0mg"},{"bike_id":"6737467a-fe5d-470c-a191-2df05ebbb3bb","system_id":"levelo_inurba_marseille","lat":43.22509,"lon":5.34777,"is_reserved":false,"is_disabled":false,"rental_uris":{"android":"levelo://app?vid=6737467a-fe5d-470c-a191-2df05ebbb3bb","ios":"levelo://app?vid=6737467a-fe5d-470c-a191-2df05ebbb3bb"},"vehicle_type_id":"4","last_reported":1752221709,"current_range_meters":13600,"station_id":"st_cvj5dfep6f1abm77gieg","pricing_plan_id":"cebpf4jnsgd1na2vs0mg"},{"bike_id":"eb0d9850-5f26-4578-af9f-c0198df98640","system_id":"levelo_inurba_marseille","lat":43.318268,"lon":5.406375,"is_reserved":false,"is_disabled":false,"rental_uris":{"android":"levelo://app?vid=eb0d9850-5f26-4578-af9f-c0198df98640","ios":"levelo://app?vid=eb0d9850-5f26-4578-af9f-c0198df98640"},"vehicle_type_id":"4","last_reported":1752221709,"current_range_meters":13600,"station_id":"ce4bhq12rcd13ifvqhig","pricing_plan_id":"cebpf4jnsgd1na2vs0mg"},{"bike_id":"24b17f7b-dff1-4936-b27a-7c2c6813a894","system_id":"levelo_inurba_marseille","lat":43.24578,"lon":5.37368,"is_reserved":false,"is_disabled":false,"rental_uris":{"android":"levelo://app?vid=24b17f7b-dff1-4936-b27a-7c2c6813a894","ios":"levelo://app?vid=24b17f7b-dff1-4936-b27a-7c2c6813a894"},"vehicle_type_id":"4","last_reported":1752221709,"current_range_meters":13600,"station_id":"","pricing_plan_id":"cebpf4jnsgd1na2vs0mg"},{"bike_id":"6fd2964a-ebf0-46c1-acf3-823fc9db7b31","system_id":"levelo_inurba_marseille","lat":43.31373,"lon":5.38484,"is_reserved":false,"is_disabled":false,"rental_uris":{"android":"levelo://app?vid=6fd2964a-ebf0-46c1-acf3-823fc9db7b31","ios":"levelo://app?vid=6fd2964a-ebf0-46c1-acf3-823fc9db7b31"},"vehicle_type_id":"4","last_reported":1752221709,"current_range_meters":13600,"station_id":"ce4bgt92rcd13ifvqcf0","pricing_plan_id":"cebpf4jnsgd1na2vs0mg"},{"bike_id":"67a1c8bb-4e10-4d4c-8446-8fe730f54574","system_id":"levelo_inurba_marseille","lat":43.294183,"lon":5.385994,"is_reserved":false,"is_disabled":true,"rental_uris":{"android":"levelo://app?vid=67a1c8bb-4e10-4d4c-8446-8fe730f54574","ios":"levelo://app?vid=67a1c8bb-4e10-4d4c-8446-8fe730f54574"},"vehicle_type_id":"4","last_reported":1752221709,"current_range_meters":14000,"station_id":"ce4bh2h2rcd13ifvqdh0","pricing_plan_id":"cebpf4jnsgd1na2vs0mg"},{"bike_id":"4018485f-3d49-463e-bed7-d890e4ff7869","system_id":"levelo_inurba_marseille","lat":43.29017,"lon":5.38629,"is_reserved":false,"is_disabled":true,"rental_uris":{"android":"levelo://app?vid=4018485f-3d49-463e-bed7-d890e4ff7869","ios":"levelo://app?vid=4018485f-3d49-463e-bed7-d890e4ff7869"},"vehicle_type_id":"4","last_reported":1752221709,"current_range_meters":14000,"station_id":"ce4bh4p2rcd13ifvqe0g","pricing_plan_id":"cebpf4jnsgd1na2vs0mg"},{"bike_id":"20298669-51c1-4292-ad92-d0fa61c941d3","system_id":"levelo_inurba_marseille","lat":43.23148,"lon":5.43682,"is_reserved":false,"is_disabled":true,"rental_uris":{"android":"levelo://app?vid=20298669-51c1-4292-ad92-d0fa61c941d3","ios":"levelo://app?vid=20298669-51c1-4292-ad92-d0fa61c941d3"},"vehicle_type_id":"4","last_reported":1752221709,"current_range_meters":14000,"station_id":"ce4bhmp2rcd13ifvqgog","pricing_plan_id":"cebpf4jnsgd1na2vs0mg"},{"bike_id":"a50ca97f-59e1-4e40-a18e-f22271122bf0","system_id":"levelo_inurba_marseille","lat":43.28432,"lon":5.39199,"is_reserved":false,"is_disabled":false,"rental_uris":{"android":"levelo://app?vid=a50ca97f-59e1-4e40-a18e-f22271122bf0","ios":"levelo://app?vid=a50ca97f-59e1-4e40-a18e-f22271122bf0"},"vehicle_type_id":"4","last_reported":1752221709,"current_range_meters":14000,"station_id":"ce4bhoh2rcd13ifvqh5g","pricing_plan_id":"cebpf4jnsgd1na2vs0mg"},{"bike_id":"b5199a50-e9b3-4993-ba89-c9ec31e86cb8","system_id":"levelo_inurba_marseille","lat":43.24068,"lon":5.3776,"is_reserved":false,"is_disabled":false,"rental_uris":{"android":"levelo://app?vid=b5199a50-e9b3-4993-ba89-c9ec31e86cb8","ios":"levelo://app?vid=b5199a50-e9b3-4993-ba89-c9ec31e86cb8"},"vehicle_type_id":"4","last_reported":1752221709,"current_range_meters":14000,"station_id":"ce4bhnp2rcd13ifvqgvg","pricing_plan_id":"cebpf4jnsgd1na2vs0mg"},{"bike_id":"29a0a180-d29f-4a4e-a71b-d1d9d42cb217","system_id":"levelo_inurba_marseille","lat":43.21198,"lon":5.35058,"is_reserved":false,"is_disabled":false,"rental_uris":{"android":"levelo://app?vid=29a0a180-d29f-4a4e-a71b-d1d9d42cb217","ios":"levelo://app?vid=29a0a180-d29f-4a4e-a71b-d1d9d42cb217"},"vehicle_type_id":"4","last_reported":1752221709,"current_range_meters":14000,"station_id":"st_cvj6sg6p6f1abm77japg","pricing_plan_id":"cebpf4jnsgd1na2vs0mg"},{"bike_id":"199fc732-b1f9-4b43-a682-43aab23bc41d","system_id":"levelo_inurba_marseille","lat":43.3053,"lon":5.36689,"is_reserved":false,"is_disabled":false,"rental_uris":{"android":"levelo://app?vid=199fc732-b1f9-4b43-a682-43aab23bc41d","ios":"levelo://app?vid=199fc732-b1f9-4b43-a682-43aab23bc41d"},"vehicle_type_id":"4","last_reported":1752221709,"current_range_meters":14000,"station_id":"ce4bgrp2rcd13ifvqc9g","pricing_plan_id":"cebpf4jnsgd1na2vs0mg"},{"bike_id":"8f89e4f3-495a-4317-bd6d-37a19186d65b","system_id":"levelo_inurba_marseille","lat":43.33728,"lon":5.39199,"is_reserved":false,"is_disabled":false,"rental_uris":{"android":"levelo://app?vid=8f89e4f3-495a-4317-bd6d-37a19186d65b","ios":"levelo://app?vid=8f89e4f3-495a-4317-bd6d-37a19186d65b"},"vehicle_type_id":"4","last_reported":1752221709,"current_range_meters":14000,"station_id":"ce4bhr92rcd13ifvqhsg","pricing_plan_id":"cebpf4jnsgd1na2vs0mg"},{"bike_id":"c3c5b26c-e834-4db6-994b-52abb31f20f1","system_id":"levelo_inurba_marseille","lat":43.24077,"lon":5.37743,"is_reserved":false,"is_disabled":false,"rental_uris":{"android":"levelo://app?vid=c3c5b26c-e834-4db6-994b-52abb31f20f1","ios":"levelo://app?vid=c3c5b26c-e834-4db6-994b-52abb31f20f1"},"vehicle_type_id":"4","last_reported":1752221709,"current_range_meters":14400,"station_id":"ce4bhnp2rcd13ifvqgvg","pricing_plan_id":"cebpf4jnsgd1na2vs0mg"},{"bike_id":"e16b6c04-3994-4476-9af0-9084b67d8f63","system_id":"levelo_inurba_marseille","lat":43.3122,"lon":5.36848,"is_reserved":false,"is_disabled":false,"rental_uris":{"android":"levelo://app?vid=e16b6c04-3994-4476-9af0-9084b67d8f63","ios":"levelo://app?vid=e16b6c04-3994-4476-9af0-9084b67d8f63"},"vehicle_type_id":"4","last_reported":1752221709,"current_range_meters":14400,"station_id":"ce4bgl92rcd13ifvqbq0","pricing_plan_id":"cebpf4jnsgd1na2vs0mg"},{"bike_id":"2c702aa4-2ac5-4550-b697-5b3cdcd314b3","system_id":"levelo_inurba_marseille","lat":43.32026,"lon":5.41552,"is_reserved":false,"is_disabled":false,"rental_uris":{"android":"levelo://app?vid=2c702aa4-2ac5-4550-b697-5b3cdcd314b3","ios":"levelo://app?vid=2c702aa4-2ac5-4550-b697-5b3cdcd314b3"},"vehicle_type_id":"4","last_reported":1752221709,"current_range_meters":14400,"station_id":"ce4bhq92rcd13ifvqhkg","pricing_plan_id":"cebpf4jnsgd1na2vs0mg"},{"bike_id":"d849a247-c2c0-4619-bac8-f5a6994e0014","system_id":"levelo_inurba_marseille","lat":43.320356,"lon":5.415708,"is_reserved":false,"is_disabled":true,"rental_uris":{"android":"levelo://app?vid=d849a247-c2c0-4619-bac8-f5a6994e0014","ios":"levelo://app?vid=d849a247-c2c0-4619-bac8-f5a6994e0014"},"vehicle_type_id":"4","last_reported":1752221709,"current_range_meters":14400,"station_id":"ce4bhq92rcd13ifvqhkg","pricing_plan_id":"cebpf4jnsgd1na2vs0mg"},{"bike_id":"448c4f20-9ff9-43c1-b5e0-d4a3666ae33b","system_id":"levelo_inurba_marseille","lat":43.31218,"lon":5.36853,"is_reserved":false,"is_disabled":false,"rental_uris":{"android":"levelo://app?vid=448c4f20-9ff9-43c1-b5e0-d4a3666ae33b","ios":"levelo://app?vid=448c4f20-9ff9-43c1-b5e0-d4a3666ae33b"},"vehicle_type_id":"4","last_reported":1752221709,"current_range_meters":14400,"station_id":"ce4bgl92rcd13ifvqbq0","pricing_plan_id":"cebpf4jnsgd1na2vs0mg"},{"bike_id":"4a45e5ca-f29e-489f-b18f-8e2f7daebc90","system_id":"levelo_inurba_marseille","lat":43.24179,"lon":5.39725,"is_reserved":false,"is_disabled":false,"rental_uris":{"android":"levelo://app?vid=4a45e5ca-f29e-489f-b18f-8e2f7daebc90","ios":"levelo://app?vid=4a45e5ca-f29e-489f-b18f-8e2f7daebc90"},"vehicle_type_id":"4","last_reported":1752221709,"current_range_meters":14800,"station_id":"ce4bhn12rcd13ifvqgpg","pricing_plan_id":"cebpf4jnsgd1na2vs0mg"},{"bike_id":"6994c34f-7b9e-4588-9c5d-f80e030067a1","system_id":"levelo_inurba_marseille","lat":43.323542,"lon":5.388912,"is_reserved":false,"is_disabled":false,"rental_uris":{"android":"levelo://app?vid=6994c34f-7b9e-4588-9c5d-f80e030067a1","ios":"levelo://app?vid=6994c34f-7b9e-4588-9c5d-f80e030067a1"},"vehicle_type_id":"4","last_reported":1752221709,"current_range_meters":14800,"station_id":"ce4bhqp2rcd13ifvqhog","pricing_plan_id":"cebpf4jnsgd1na2vs0mg"},{"bike_id":"340489a7-34e9-484d-b857-3f26fdaac1b4","system_id":"levelo_inurba_marseille","lat":43.24651,"lon":5.38892,"is_reserved":false,"is_disabled":false,"rental_uris":{"android":"levelo://app?vid=340489a7-34e9-484d-b857-3f26fdaac1b4","ios":"levelo://app?vid=340489a7-34e9-484d-b857-3f26fdaac1b4"},"vehicle_type_id":"4","last_reported":1752221709,"current_range_meters":14800,"station_id":"ce4bhg12rcd13ifvqf60","pricing_plan_id":"cebpf4jnsgd1na2vs0mg"},{"bike_id":"c6a80404-0b82-4bac-a58d-0caa47987300","system_id":"levelo_inurba_marseille","lat":43.3012,"lon":5.37398,"is_reserved":false,"is_disabled":false,"rental_uris":{"android":"levelo://app?vid=c6a80404-0b82-4bac-a58d-0caa47987300","ios":"levelo://app?vid=c6a80404-0b82-4bac-a58d-0caa47987300"},"vehicle_type_id":"4","last_reported":1752221709,"current_range_meters":14800,"station_id":"ce4bgs92rcd13ifvqcc0","pricing_plan_id":"cebpf4jnsgd1na2vs0mg"},{"bike_id":"7610ab18-d131-42bf-a6a8-e0d34c2e91d9","system_id":"levelo_inurba_marseille","lat":43.29859,"lon":5.36278,"is_reserved":false,"is_disabled":false,"rental_uris":{"android":"levelo://app?vid=7610ab18-d131-42bf-a6a8-e0d34c2e91d9","ios":"levelo://app?vid=7610ab18-d131-42bf-a6a8-e0d34c2e91d9"},"vehicle_type_id":"4","last_reported":1752221709,"current_range_meters":14800,"station_id":"ce4bgpp2rcd13ifvqc3g","pricing_plan_id":"cebpf4jnsgd1na2vs0mg"},{"bike_id":"63a571e4-fc02-4b67-a548-5883b6130d96","system_id":"levelo_inurba_marseille","lat":43.295739,"lon":5.399743,"is_reserved":false,"is_disabled":false,"rental_uris":{"android":"levelo://app?vid=63a571e4-fc02-4b67-a548-5883b6130d96","ios":"levelo://app?vid=63a571e4-fc02-4b67-a548-5883b6130d96"},"vehicle_type_id":"4","last_reported":1752221709,"current_range_meters":15200,"station_id":"ce4bh312rcd13ifvqdj0","pricing_plan_id":"cebpf4jnsgd1na2vs0mg"},{"bike_id":"4d4b9e28-a4f6-4d45-ac6b-64a63a768bd8","system_id":"levelo_inurba_marseille","lat":43.31472,"lon":5.37366,"is_reserved":false,"is_disabled":false,"rental_uris":{"android":"levelo://app?vid=4d4b9e28-a4f6-4d45-ac6b-64a63a768bd8","ios":"levelo://app?vid=4d4b9e28-a4f6-4d45-ac6b-64a63a768bd8"},"vehicle_type_id":"4","last_reported":1752221709,"current_range_meters":15200,"station_id":"ce4bgt12rcd13ifvqcd0","pricing_plan_id":"cebpf4jnsgd1na2vs0mg"},{"bike_id":"4f774368-fda9-4da5-ac96-a0bf973160be","system_id":"levelo_inurba_marseille","lat":43.29166,"lon":5.37165,"is_reserved":false,"is_disabled":false,"rental_uris":{"android":"levelo://app?vid=4f774368-fda9-4da5-ac96-a0bf973160be","ios":"levelo://app?vid=4f774368-fda9-4da5-ac96-a0bf973160be"},"vehicle_type_id":"4","last_reported":1752221709,"current_range_meters":15200,"station_id":"ce4bha92rcd13ifvqeh0","pricing_plan_id":"cebpf4jnsgd1na2vs0mg"},{"bike_id":"595e9351-a7ce-45de-8995-771f7d9fe86e","system_id":"levelo_inurba_marseille","lat":43.309243,"lon":5.378088,"is_reserved":false,"is_disabled":false,"rental_uris":{"android":"levelo://app?vid=595e9351-a7ce-45de-8995-771f7d9fe86e","ios":"levelo://app?vid=595e9351-a7ce-45de-8995-771f7d9fe86e"},"vehicle_type_id":"4","last_reported":1752221709,"current_range_meters":15200,"station_id":"","pricing_plan_id":"cebpf4jnsgd1na2vs0mg"},{"bike_id":"6e44525d-ed45-445a-a877-081b94eb5813","system_id":"levelo_inurba_marseille","lat":43.303598,"lon":5.41884,"is_reserved":false,"is_disabled":true,"rental_uris":{"android":"levelo://app?vid=6e44525d-ed45-445a-a877-081b94eb5813","ios":"levelo://app?vid=6e44525d-ed45-445a-a877-081b94eb5813"},"vehicle_type_id":"4","last_reported":1752221709,"current_range_meters":15200,"station_id":"ce4bhop2rcd13ifvqh7g","pricing_plan_id":"cebpf4jnsgd1na2vs0mg"},{"bike_id":"b2744915-51cf-4d6c-a617-6a8720cef808","system_id":"levelo_inurba_marseille","lat":43.25981,"lon":5.40928,"is_reserved":false,"is_disabled":false,"rental_uris":{"android":"levelo://app?vid=b2744915-51cf-4d6c-a617-6a8720cef808","ios":"levelo://app?vid=b2744915-51cf-4d6c-a617-6a8720cef808"},"vehicle_type_id":"4","last_reported":1752221709,"current_range_meters":15200,"station_id":"","pricing_plan_id":"cebpf4jnsgd1na2vs0mg"},{"bike_id":"544ec108-796d-413d-8a7c-7e4ffa805fe3","system_id":"levelo_inurba_marseille","lat":43.27328,"lon":5.39246,"is_reserved":false,"is_disabled":false,"rental_uris":{"android":"levelo://app?vid=544ec108-796d-413d-8a7c-7e4ffa805fe3","ios":"levelo://app?vid=544ec108-796d-413d-8a7c-7e4ffa805fe3"},"vehicle_type_id":"4","last_reported":1752221709,"current_range_meters":15200,"station_id":"","pricing_plan_id":"cebpf4jnsgd1na2vs0mg"},{"bike_id":"f82f0666-36b3-4afe-b19b-085900be0f79","system_id":"levelo_inurba_marseille","lat":43.29572,"lon":5.37533,"is_reserved":false,"is_disabled":false,"rental_uris":{"android":"levelo://app?vid=f82f0666-36b3-4afe-b19b-085900be0f79","ios":"levelo://app?vid=f82f0666-36b3-4afe-b19b-085900be0f79"},"vehicle_type_id":"4","last_reported":1752221709,"current_range_meters":15200,"station_id":"ce4bgh92rcd13ifvqb50","pricing_plan_id":"cebpf4jnsgd1na2vs0mg"},{"bike_id":"19d5ca68-b0ee-4fec-8895-6e18653bdbda","system_id":"levelo_inurba_marseille","lat":43.29722,"lon":5.37692,"is_reserved":false,"is_disabled":false,"rental_uris":{"android":"levelo://app?vid=19d5ca68-b0ee-4fec-8895-6e18653bdbda","ios":"levelo://app?vid=19d5ca68-b0ee-4fec-8895-6e18653bdbda"},"vehicle_type_id":"4","last_reported":1752221709,"current_range_meters":15200,"station_id":"ce4bgkh2rcd13ifvqbl0","pricing_plan_id":"cebpf4jnsgd1na2vs0mg"},{"bike_id":"e3a75ee9-c614-467b-8cc2-f813bcef2ab1","system_id":"levelo_inurba_marseille","lat":43.33743,"lon":5.3919,"is_reserved":false,"is_disabled":false,"rental_uris":{"android":"levelo://app?vid=e3a75ee9-c614-467b-8cc2-f813bcef2ab1","ios":"levelo://app?vid=e3a75ee9-c614-467b-8cc2-f813bcef2ab1"},"vehicle_type_id":"4","last_reported":1752221709,"current_range_meters":15200,"station_id":"ce4bhr92rcd13ifvqhsg","pricing_plan_id":"cebpf4jnsgd1na2vs0mg"},{"bike_id":"0218405b-8196-457b-9403-772b177cf636","system_id":"levelo_inurba_marseille","lat":43.23156,"lon":5.43709,"is_reserved":false,"is_disabled":false,"rental_uris":{"android":"levelo://app?vid=0218405b-8196-457b-9403-772b177cf636","ios":"levelo://app?vid=0218405b-8196-457b-9403-772b177cf636"},"vehicle_type_id":"4","last_reported":1752221709,"current_range_meters":16000,"station_id":"ce4bhmp2rcd13ifvqgog","pricing_plan_id":"cebpf4jnsgd1na2vs0mg"},{"bike_id":"36d841ea-e6f4-4ff1-8465-d05e720a58e5","system_id":"levelo_inurba_marseille","lat":43.28714,"lon":5.39992,"is_reserved":false,"is_disabled":true,"rental_uris":{"android":"levelo://app?vid=36d841ea-e6f4-4ff1-8465-d05e720a58e5","ios":"levelo://app?vid=36d841ea-e6f4-4ff1-8465-d05e720a58e5"},"vehicle_type_id":"4","last_reported":1752221709,"current_range_meters":16000,"station_id":"ce4bho92rcd13ifvqh3g","pricing_plan_id":"cebpf4jnsgd1na2vs0mg"},{"bike_id":"65516a12-86b1-4674-a81b-7c255b747901","system_id":"levelo_inurba_marseille","lat":43.32099,"lon":5.36775,"is_reserved":false,"is_disabled":false,"rental_uris":{"android":"levelo://app?vid=65516a12-86b1-4674-a81b-7c255b747901","ios":"levelo://app?vid=65516a12-86b1-4674-a81b-7c255b747901"},"vehicle_type_id":"4","last_reported":1752221709,"current_range_meters":16000,"station_id":"ce4bhrh2rcd13ifvqhug","pricing_plan_id":"cebpf4jnsgd1na2vs0mg"},{"bike_id":"9b04a4f2-b923-47f6-b8b6-f578593a2bb7","system_id":"levelo_inurba_marseille","lat":43.31754,"lon":5.39004,"is_reserved":false,"is_disabled":false,"rental_uris":{"android":"levelo://app?vid=9b04a4f2-b923-47f6-b8b6-f578593a2bb7","ios":"levelo://app?vid=9b04a4f2-b923-47f6-b8b6-f578593a2bb7"},"vehicle_type_id":"4","last_reported":1752221709,"current_range_meters":16000,"station_id":"ce4bhqp2rcd13ifvqhng","pricing_plan_id":"cebpf4jnsgd1na2vs0mg"},{"bike_id":"7097363b-955f-4a5e-8ede-9bb14b7f1708","system_id":"levelo_inurba_marseille","lat":43.21195,"lon":5.35049,"is_reserved":false,"is_disabled":false,"rental_uris":{"android":"levelo://app?vid=7097363b-955f-4a5e-8ede-9bb14b7f1708","ios":"levelo://app?vid=7097363b-955f-4a5e-8ede-9bb14b7f1708"},"vehicle_type_id":"4","last_reported":1752221709,"current_range_meters":16000,"station_id":"st_cvj6sg6p6f1abm77japg","pricing_plan_id":"cebpf4jnsgd1na2vs0mg"},{"bike_id":"5423e7d5-07f9-4264-9d42-219884898d7f","system_id":"levelo_inurba_marseille","lat":43.24169,"lon":5.36365,"is_reserved":false,"is_disabled":false,"rental_uris":{"android":"levelo://app?vid=5423e7d5-07f9-4264-9d42-219884898d7f","ios":"levelo://app?vid=5423e7d5-07f9-4264-9d42-219884898d7f"},"vehicle_type_id":"4","last_reported":1752221709,"current_range_meters":16000,"station_id":"cpo36qri1sfpv3e86is0","pricing_plan_id":"cebpf4jnsgd1na2vs0mg"},{"bike_id":"9569d1e2-7193-4160-aec1-f824c35a5ed4","system_id":"levelo_inurba_marseille","lat":43.31225,"lon":5.36861,"is_reserved":false,"is_disabled":false,"rental_uris":{"android":"levelo://app?vid=9569d1e2-7193-4160-aec1-f824c35a5ed4","ios":"levelo://app?vid=9569d1e2-7193-4160-aec1-f824c35a5ed4"},"vehicle_type_id":"4","last_reported":1752221709,"current_range_meters":16000,"station_id":"ce4bgl92rcd13ifvqbq0","pricing_plan_id":"cebpf4jnsgd1na2vs0mg"},{"bike_id":"485e458e-2aaa-4260-b411-6909bcda375c","system_id":"levelo_inurba_marseille","lat":43.30534,"lon":5.36537,"is_reserved":false,"is_disabled":false,"rental_uris":{"android":"levelo://app?vid=485e458e-2aaa-4260-b411-6909bcda375c","ios":"levelo://app?vid=485e458e-2aaa-4260-b411-6909bcda375c"},"vehicle_type_id":"4","last_reported":1752221709,"current_range_meters":16000,"station_id":"ce4bgs12rcd13ifvqcag","pricing_plan_id":"cebpf4jnsgd1na2vs0mg"},{"bike_id":"03d285ad-fd72-47fb-9975-6f1db5bfd76f","system_id":"levelo_inurba_marseille","lat":43.29885,"lon":5.3974,"is_reserved":false,"is_disabled":true,"rental_uris":{"android":"levelo://app?vid=03d285ad-fd72-47fb-9975-6f1db5bfd76f","ios":"levelo://app?vid=03d285ad-fd72-47fb-9975-6f1db5bfd76f"},"vehicle_type_id":"4","last_reported":1752221709,"current_range_meters":16000,"station_id":"ce4bh0h2rcd13ifvqd50","pricing_plan_id":"cebpf4jnsgd1na2vs0mg"},{"bike_id":"2a4f42a7-07aa-47c8-b675-42c02aa2b2e5","system_id":"levelo_inurba_marseille","lat":43.25939,"lon":5.40901,"is_reserved":false,"is_disabled":false,"rental_uris":{"android":"levelo://app?vid=2a4f42a7-07aa-47c8-b675-42c02aa2b2e5","ios":"levelo://app?vid=2a4f42a7-07aa-47c8-b675-42c02aa2b2e5"},"vehicle_type_id":"4","last_reported":1752221709,"current_range_meters":16400,"station_id":"ce4bhm92rcd13ifvqglg","pricing_plan_id":"cebpf4jnsgd1na2vs0mg"},{"bike_id":"530fdaa0-3dcf-48bd-ae6d-18f67ca1c283","system_id":"levelo_inurba_marseille","lat":43.297111,"lon":5.366155,"is_reserved":false,"is_disabled":false,"rental_uris":{"android":"levelo://app?vid=530fdaa0-3dcf-48bd-ae6d-18f67ca1c283","ios":"levelo://app?vid=530fdaa0-3dcf-48bd-ae6d-18f67ca1c283"},"vehicle_type_id":"4","last_reported":1752221709,"current_range_meters":16400,"station_id":"","pricing_plan_id":"cebpf4jnsgd1na2vs0mg"},{"bike_id":"9d4f14f9-e9e1-4507-8658-c8951cc4b985","system_id":"levelo_inurba_marseille","lat":43.284738,"lon":5.38415,"is_reserved":false,"is_disabled":false,"rental_uris":{"android":"levelo://app?vid=9d4f14f9-e9e1-4507-8658-c8951cc4b985","ios":"levelo://app?vid=9d4f14f9-e9e1-4507-8658-c8951cc4b985"},"vehicle_type_id":"4","last_reported":1752221709,"current_range_meters":16400,"station_id":"ce4bh512rcd13ifvqe3g","pricing_plan_id":"cebpf4jnsgd1na2vs0mg"},{"bike_id":"2719b67f-90e1-4bd7-99b7-35777b5be959","system_id":"levelo_inurba_marseille","lat":43.29299,"lon":5.37455,"is_reserved":false,"is_disabled":false,"rental_uris":{"android":"levelo://app?vid=2719b67f-90e1-4bd7-99b7-35777b5be959","ios":"levelo://app?vid=2719b67f-90e1-4bd7-99b7-35777b5be959"},"vehicle_type_id":"4","last_reported":1752221709,"current_range_meters":16400,"station_id":"ce4bgi12rcd13ifvqb70","pricing_plan_id":"cebpf4jnsgd1na2vs0mg"},{"bike_id":"647a1903-1834-4730-b34e-6397917620f0","system_id":"levelo_inurba_marseille","lat":43.31659,"lon":5.37014,"is_reserved":false,"is_disabled":false,"rental_uris":{"android":"levelo://app?vid=647a1903-1834-4730-b34e-6397917620f0","ios":"levelo://app?vid=647a1903-1834-4730-b34e-6397917620f0"},"vehicle_type_id":"4","last_reported":1752221709,"current_range_meters":16400,"station_id":"","pricing_plan_id":"cebpf4jnsgd1na2vs0mg"},{"bike_id":"d5404e76-69b9-4c58-80ef-2e7badfb250e","system_id":"levelo_inurba_marseille","lat":43.249935,"lon":5.389315,"is_reserved":false,"is_disabled":false,"rental_uris":{"android":"levelo://app?vid=d5404e76-69b9-4c58-80ef-2e7badfb250e","ios":"levelo://app?vid=d5404e76-69b9-4c58-80ef-2e7badfb250e"},"vehicle_type_id":"4","last_reported":1752221709,"current_range_meters":16400,"station_id":"ce4bhgp2rcd13ifvqfd0","pricing_plan_id":"cebpf4jnsgd1na2vs0mg"},{"bike_id":"ecec5a70-47e2-4076-ac88-b63310387724","system_id":"levelo_inurba_marseille","lat":43.21746,"lon":5.34607,"is_reserved":false,"is_disabled":false,"rental_uris":{"android":"levelo://app?vid=ecec5a70-47e2-4076-ac88-b63310387724","ios":"levelo://app?vid=ecec5a70-47e2-4076-ac88-b63310387724"},"vehicle_type_id":"4","last_reported":1752221709,"current_range_meters":16400,"station_id":"st_cvj6r9ubvosntc0bgbag","pricing_plan_id":"cebpf4jnsgd1na2vs0mg"},{"bike_id":"68974211-e67a-421c-82a4-118187d89855","system_id":"levelo_inurba_marseille","lat":43.30274,"lon":5.37709,"is_reserved":false,"is_disabled":false,"rental_uris":{"android":"levelo://app?vid=68974211-e67a-421c-82a4-118187d89855","ios":"levelo://app?vid=68974211-e67a-421c-82a4-118187d89855"},"vehicle_type_id":"4","last_reported":1752221709,"current_range_meters":16400,"station_id":"ce4bguh2rcd13ifvqcj0","pricing_plan_id":"cebpf4jnsgd1na2vs0mg"},{"bike_id":"2f8a5f2d-3e40-49a3-af7d-3f339ed1b4f8","system_id":"levelo_inurba_marseille","lat":43.31696,"lon":5.37764,"is_reserved":false,"is_disabled":false,"rental_uris":{"android":"levelo://app?vid=2f8a5f2d-3e40-49a3-af7d-3f339ed1b4f8","ios":"levelo://app?vid=2f8a5f2d-3e40-49a3-af7d-3f339ed1b4f8"},"vehicle_type_id":"4","last_reported":1752221709,"current_range_meters":16400,"station_id":"ce4bgth2rcd13ifvqch0","pricing_plan_id":"cebpf4jnsgd1na2vs0mg"},{"bike_id":"eda0ea69-6404-43e6-9ede-2655d170d444","system_id":"levelo_inurba_marseille","lat":43.28849,"lon":5.35836,"is_reserved":false,"is_disabled":true,"rental_uris":{"android":"levelo://app?vid=eda0ea69-6404-43e6-9ede-2655d170d444","ios":"levelo://app?vid=eda0ea69-6404-43e6-9ede-2655d170d444"},"vehicle_type_id":"4","last_reported":1752221709,"current_range_meters":16400,"station_id":"ce4bhb12rcd13ifvqem0","pricing_plan_id":"cebpf4jnsgd1na2vs0mg"},{"bike_id":"e8e03632-b9d1-480f-a4da-da482a543464","system_id":"levelo_inurba_marseille","lat":43.290318,"lon":5.375551,"is_reserved":false,"is_disabled":true,"rental_uris":{"android":"levelo://app?vid=e8e03632-b9d1-480f-a4da-da482a543464","ios":"levelo://app?vid=e8e03632-b9d1-480f-a4da-da482a543464"},"vehicle_type_id":"4","last_reported":1752221709,"current_range_meters":16800,"station_id":"ce4bh692rcd13ifvqe90","pricing_plan_id":"cebpf4jnsgd1na2vs0mg"},{"bike_id":"8929c1bf-fd4d-44e4-aa66-b3eb6538c998","system_id":"levelo_inurba_marseille","lat":43.28571,"lon":5.42966,"is_reserved":false,"is_disabled":false,"rental_uris":{"android":"levelo://app?vid=8929c1bf-fd4d-44e4-aa66-b3eb6538c998","ios":"levelo://app?vid=8929c1bf-fd4d-44e4-aa66-b3eb6538c998"},"vehicle_type_id":"4","last_reported":1752221709,"current_range_meters":16800,"station_id":"","pricing_plan_id":"cebpf4jnsgd1na2vs0mg"},{"bike_id":"b073521b-e52b-4d6f-bc0c-4d1b0b414b90","system_id":"levelo_inurba_marseille","lat":43.29194,"lon":5.35794,"is_reserved":false,"is_disabled":false,"rental_uris":{"android":"levelo://app?vid=b073521b-e52b-4d6f-bc0c-4d1b0b414b90","ios":"levelo://app?vid=b073521b-e52b-4d6f-bc0c-4d1b0b414b90"},"vehicle_type_id":"4","last_reported":1752221709,"current_range_meters":16400,"station_id":"ce4bhb12rcd13ifvqel0","pricing_plan_id":"cebpf4jnsgd1na2vs0mg"},{"bike_id":"388da5fd-54e1-4106-9f06-3e9f9ee2fc42","system_id":"levelo_inurba_marseille","lat":43.31372,"lon":5.36708,"is_reserved":false,"is_disabled":false,"rental_uris":{"android":"levelo://app?vid=388da5fd-54e1-4106-9f06-3e9f9ee2fc42","ios":"levelo://app?vid=388da5fd-54e1-4106-9f06-3e9f9ee2fc42"},"vehicle_type_id":"4","last_reported":1752221709,"current_range_meters":16800,"station_id":"ce4bgr92rcd13ifvqc6g","pricing_plan_id":"cebpf4jnsgd1na2vs0mg"},{"bike_id":"454f8d45-097d-4f25-bea5-29d7928a9ae9","system_id":"levelo_inurba_marseille","lat":43.30474,"lon":5.37901,"is_reserved":false,"is_disabled":false,"rental_uris":{"android":"levelo://app?vid=454f8d45-097d-4f25-bea5-29d7928a9ae9","ios":"levelo://app?vid=454f8d45-097d-4f25-bea5-29d7928a9ae9"},"vehicle_type_id":"4","last_reported":1752221709,"current_range_meters":16800,"station_id":"ce4bgup2rcd13ifvqcn0","pricing_plan_id":"cebpf4jnsgd1na2vs0mg"},{"bike_id":"7f941e81-3761-4ae9-a1ad-e3246230c081","system_id":"levelo_inurba_marseille","lat":43.31479,"lon":5.37304,"is_reserved":false,"is_disabled":false,"rental_uris":{"android":"levelo://app?vid=7f941e81-3761-4ae9-a1ad-e3246230c081","ios":"levelo://app?vid=7f941e81-3761-4ae9-a1ad-e3246230c081"},"vehicle_type_id":"4","last_reported":1752221709,"current_range_meters":16800,"station_id":"ce4bgt12rcd13ifvqcd0","pricing_plan_id":"cebpf4jnsgd1na2vs0mg"},{"bike_id":"405dbd18-f6e1-4f7d-ab36-07194d21eec1","system_id":"levelo_inurba_marseille","lat":43.29199,"lon":5.358004,"is_reserved":false,"is_disabled":false,"rental_uris":{"android":"levelo://app?vid=405dbd18-f6e1-4f7d-ab36-07194d21eec1","ios":"levelo://app?vid=405dbd18-f6e1-4f7d-ab36-07194d21eec1"},"vehicle_type_id":"4","last_reported":1752221709,"current_range_meters":16800,"station_id":"","pricing_plan_id":"cebpf4jnsgd1na2vs0mg"},{"bike_id":"dafa5a87-b26d-4379-9a6b-1f02133b78a6","system_id":"levelo_inurba_marseille","lat":43.21191,"lon":5.35065,"is_reserved":false,"is_disabled":false,"rental_uris":{"android":"levelo://app?vid=dafa5a87-b26d-4379-9a6b-1f02133b78a6","ios":"levelo://app?vid=dafa5a87-b26d-4379-9a6b-1f02133b78a6"},"vehicle_type_id":"4","last_reported":1752221709,"current_range_meters":16800,"station_id":"st_cvj6sg6p6f1abm77japg","pricing_plan_id":"cebpf4jnsgd1na2vs0mg"},{"bike_id":"f3ceaef6-ac40-4740-8744-96d4928772c9","system_id":"levelo_inurba_marseille","lat":43.29168,"lon":5.37165,"is_reserved":false,"is_disabled":false,"rental_uris":{"android":"levelo://app?vid=f3ceaef6-ac40-4740-8744-96d4928772c9","ios":"levelo://app?vid=f3ceaef6-ac40-4740-8744-96d4928772c9"},"vehicle_type_id":"4","last_reported":1752221709,"current_range_meters":17200,"station_id":"ce4bha92rcd13ifvqeh0","pricing_plan_id":"cebpf4jnsgd1na2vs0mg"},{"bike_id":"e9fd0cf8-573b-4177-88a6-f1faf33e8aca","system_id":"levelo_inurba_marseille","lat":43.289984,"lon":5.356012,"is_reserved":false,"is_disabled":true,"rental_uris":{"android":"levelo://app?vid=e9fd0cf8-573b-4177-88a6-f1faf33e8aca","ios":"levelo://app?vid=e9fd0cf8-573b-4177-88a6-f1faf33e8aca"},"vehicle_type_id":"4","last_reported":1752221709,"current_range_meters":17200,"station_id":"ce4bhb92rcd13ifvqen0","pricing_plan_id":"cebpf4jnsgd1na2vs0mg"},{"bike_id":"f84d414b-b83e-4804-9933-e2e4067ccad4","system_id":"levelo_inurba_marseille","lat":43.31708,"lon":5.40466,"is_reserved":false,"is_disabled":false,"rental_uris":{"android":"levelo://app?vid=f84d414b-b83e-4804-9933-e2e4067ccad4","ios":"levelo://app?vid=f84d414b-b83e-4804-9933-e2e4067ccad4"},"vehicle_type_id":"4","last_reported":1752221709,"current_range_meters":17200,"station_id":"ce4bh012rcd13ifvqd00","pricing_plan_id":"cebpf4jnsgd1na2vs0mg"},{"bike_id":"43b90c82-97e0-4fa7-8b67-2448f07d529e","system_id":"levelo_inurba_marseille","lat":43.211881,"lon":5.350743,"is_reserved":false,"is_disabled":false,"rental_uris":{"android":"levelo://app?vid=43b90c82-97e0-4fa7-8b67-2448f07d529e","ios":"levelo://app?vid=43b90c82-97e0-4fa7-8b67-2448f07d529e"},"vehicle_type_id":"4","last_reported":1752221709,"current_range_meters":17200,"station_id":"","pricing_plan_id":"cebpf4jnsgd1na2vs0mg"},{"bike_id":"bd69f1e7-b901-41a0-b2c9-aee4bd027443","system_id":"levelo_inurba_marseille","lat":43.21199,"lon":5.3506,"is_reserved":false,"is_disabled":false,"rental_uris":{"android":"levelo://app?vid=bd69f1e7-b901-41a0-b2c9-aee4bd027443","ios":"levelo://app?vid=bd69f1e7-b901-41a0-b2c9-aee4bd027443"},"vehicle_type_id":"4","last_reported":1752221709,"current_range_meters":17200,"station_id":"st_cvj6sg6p6f1abm77japg","pricing_plan_id":"cebpf4jnsgd1na2vs0mg"},{"bike_id":"af1cde33-5506-4304-9bde-62aa1392a4b6","system_id":"levelo_inurba_marseille","lat":43.32377,"lon":5.38887,"is_reserved":false,"is_disabled":false,"rental_uris":{"android":"levelo://app?vid=af1cde33-5506-4304-9bde-62aa1392a4b6","ios":"levelo://app?vid=af1cde33-5506-4304-9bde-62aa1392a4b6"},"vehicle_type_id":"4","last_reported":1752221709,"current_range_meters":17200,"station_id":"ce4bhqp2rcd13ifvqhog","pricing_plan_id":"cebpf4jnsgd1na2vs0mg"},{"bike_id":"37b84a38-055a-4a6e-a56a-8ff3d0c1b2ec","system_id":"levelo_inurba_marseille","lat":43.21187,"lon":5.35072,"is_reserved":false,"is_disabled":false,"rental_uris":{"android":"levelo://app?vid=37b84a38-055a-4a6e-a56a-8ff3d0c1b2ec","ios":"levelo://app?vid=37b84a38-055a-4a6e-a56a-8ff3d0c1b2ec"},"vehicle_type_id":"4","last_reported":1752221709,"current_range_meters":17200,"station_id":"st_cvj6sg6p6f1abm77japg","pricing_plan_id":"cebpf4jnsgd1na2vs0mg"},{"bike_id":"fa5f5a02-3282-4c35-a37d-f04431009ee3","system_id":"levelo_inurba_marseille","lat":43.25933,"lon":5.40908,"is_reserved":false,"is_disabled":false,"rental_uris":{"android":"levelo://app?vid=fa5f5a02-3282-4c35-a37d-f04431009ee3","ios":"levelo://app?vid=fa5f5a02-3282-4c35-a37d-f04431009ee3"},"vehicle_type_id":"4","last_reported":1752221709,"current_range_meters":17200,"station_id":"ce4bhm92rcd13ifvqglg","pricing_plan_id":"cebpf4jnsgd1na2vs0mg"},{"bike_id":"7b5cd6ce-df57-4328-854d-cb2d1407ab18","system_id":"levelo_inurba_marseille","lat":43.3303,"lon":5.39035,"is_reserved":false,"is_disabled":false,"rental_uris":{"android":"levelo://app?vid=7b5cd6ce-df57-4328-854d-cb2d1407ab18","ios":"levelo://app?vid=7b5cd6ce-df57-4328-854d-cb2d1407ab18"},"vehicle_type_id":"4","last_reported":1752221709,"current_range_meters":17200,"station_id":"ce4bhr92rcd13ifvqhrg","pricing_plan_id":"cebpf4jnsgd1na2vs0mg"},{"bike_id":"c8b423c9-7d56-4df7-bdcc-1b935bdb1a15","system_id":"levelo_inurba_marseille","lat":43.29424,"lon":5.385974,"is_reserved":false,"is_disabled":true,"rental_uris":{"android":"levelo://app?vid=c8b423c9-7d56-4df7-bdcc-1b935bdb1a15","ios":"levelo://app?vid=c8b423c9-7d56-4df7-bdcc-1b935bdb1a15"},"vehicle_type_id":"4","last_reported":1752221709,"current_range_meters":17600,"station_id":"ce4bh2h2rcd13ifvqdh0","pricing_plan_id":"cebpf4jnsgd1na2vs0mg"},{"bike_id":"3dd9343f-66fa-462b-9c8c-fff788e402d1","system_id":"levelo_inurba_marseille","lat":43.26933,"lon":5.38914,"is_reserved":false,"is_disabled":false,"rental_uris":{"android":"levelo://app?vid=3dd9343f-66fa-462b-9c8c-fff788e402d1","ios":"levelo://app?vid=3dd9343f-66fa-462b-9c8c-fff788e402d1"},"vehicle_type_id":"4","last_reported":1752221709,"current_range_meters":17200,"station_id":"ce4bhhh2rcd13ifvqfl0","pricing_plan_id":"cebpf4jnsgd1na2vs0mg"},{"bike_id":"3b7bf651-6938-43f8-a187-93c03b2fd4c1","system_id":"levelo_inurba_marseille","lat":43.2594,"lon":5.40889,"is_reserved":false,"is_disabled":false,"rental_uris":{"android":"levelo://app?vid=3b7bf651-6938-43f8-a187-93c03b2fd4c1","ios":"levelo://app?vid=3b7bf651-6938-43f8-a187-93c03b2fd4c1"},"vehicle_type_id":"4","last_reported":1752221709,"current_range_meters":17600,"station_id":"ce4bhm92rcd13ifvqglg","pricing_plan_id":"cebpf4jnsgd1na2vs0mg"},{"bike_id":"774d135c-7e9a-4129-8ec0-e075f7551a81","system_id":"levelo_inurba_marseille","lat":43.30893,"lon":5.37187,"is_reserved":false,"is_disabled":false,"rental_uris":{"android":"levelo://app?vid=774d135c-7e9a-4129-8ec0-e075f7551a81","ios":"levelo://app?vid=774d135c-7e9a-4129-8ec0-e075f7551a81"},"vehicle_type_id":"4","last_reported":1752221709,"current_range_meters":17600,"station_id":"ce4bguh2rcd13ifvqckg","pricing_plan_id":"cebpf4jnsgd1na2vs0mg"},{"bike_id":"2816e3ac-4428-4792-a73a-0eb1948465ef","system_id":"levelo_inurba_marseille","lat":43.312178,"lon":5.36871,"is_reserved":false,"is_disabled":false,"rental_uris":{"android":"levelo://app?vid=2816e3ac-4428-4792-a73a-0eb1948465ef","ios":"levelo://app?vid=2816e3ac-4428-4792-a73a-0eb1948465ef"},"vehicle_type_id":"4","last_reported":1752221709,"current_range_meters":17600,"station_id":"ce4bgl92rcd13ifvqbq0","pricing_plan_id":"cebpf4jnsgd1na2vs0mg"},{"bike_id":"c247c2e2-ae71-4b28-9074-544dbdc41d40","system_id":"levelo_inurba_marseille","lat":43.29021,"lon":5.38136,"is_reserved":false,"is_disabled":false,"rental_uris":{"android":"levelo://app?vid=c247c2e2-ae71-4b28-9074-544dbdc41d40","ios":"levelo://app?vid=c247c2e2-ae71-4b28-9074-544dbdc41d40"},"vehicle_type_id":"4","last_reported":1752221709,"current_range_meters":17600,"station_id":"ce4bh4p2rcd13ifvqe1g","pricing_plan_id":"cebpf4jnsgd1na2vs0mg"},{"bike_id":"2a16ae50-7dbe-4fc6-bba2-cf897e5fa99d","system_id":"levelo_inurba_marseille","lat":43.29014,"lon":5.38147,"is_reserved":false,"is_disabled":true,"rental_uris":{"android":"levelo://app?vid=2a16ae50-7dbe-4fc6-bba2-cf897e5fa99d","ios":"levelo://app?vid=2a16ae50-7dbe-4fc6-bba2-cf897e5fa99d"},"vehicle_type_id":"4","last_reported":1752221709,"current_range_meters":17600,"station_id":"ce4bh4p2rcd13ifvqe1g","pricing_plan_id":"cebpf4jnsgd1na2vs0mg"},{"bike_id":"2974747e-ea3f-40ca-a42c-269a75d6da9b","system_id":"levelo_inurba_marseille","lat":43.29278,"lon":5.36845,"is_reserved":false,"is_disabled":false,"rental_uris":{"android":"levelo://app?vid=2974747e-ea3f-40ca-a42c-269a75d6da9b","ios":"levelo://app?vid=2974747e-ea3f-40ca-a42c-269a75d6da9b"},"vehicle_type_id":"4","last_reported":1752221709,"current_range_meters":17600,"station_id":"ce4bhbp2rcd13ifvqesg","pricing_plan_id":"cebpf4jnsgd1na2vs0mg"},{"bike_id":"dbba3321-20c7-4989-a7b5-ea9ab2c4b3e8","system_id":"levelo_inurba_marseille","lat":43.261935,"lon":5.374477,"is_reserved":false,"is_disabled":false,"rental_uris":{"android":"levelo://app?vid=dbba3321-20c7-4989-a7b5-ea9ab2c4b3e8","ios":"levelo://app?vid=dbba3321-20c7-4989-a7b5-ea9ab2c4b3e8"},"vehicle_type_id":"4","last_reported":1752221709,"current_range_meters":17600,"station_id":"ce4bhgp2rcd13ifvqfc0","pricing_plan_id":"cebpf4jnsgd1na2vs0mg"},{"bike_id":"f0179236-e9ab-4927-93af-d54515af1834","system_id":"levelo_inurba_marseille","lat":43.29257,"lon":5.37622,"is_reserved":false,"is_disabled":false,"rental_uris":{"android":"levelo://app?vid=f0179236-e9ab-4927-93af-d54515af1834","ios":"levelo://app?vid=f0179236-e9ab-4927-93af-d54515af1834"},"vehicle_type_id":"4","last_reported":1752221709,"current_range_meters":17600,"station_id":"ce4bgi12rcd13ifvqb80","pricing_plan_id":"cebpf4jnsgd1na2vs0mg"},{"bike_id":"a8acf416-1d7d-42a1-8f80-d0fb24ed475e","system_id":"levelo_inurba_marseille","lat":43.2955,"lon":5.37526,"is_reserved":false,"is_disabled":false,"rental_uris":{"android":"levelo://app?vid=a8acf416-1d7d-42a1-8f80-d0fb24ed475e","ios":"levelo://app?vid=a8acf416-1d7d-42a1-8f80-d0fb24ed475e"},"vehicle_type_id":"4","last_reported":1752221709,"current_range_meters":18000,"station_id":"ce4bgh92rcd13ifvqb50","pricing_plan_id":"cebpf4jnsgd1na2vs0mg"},{"bike_id":"1340328c-b4a2-450b-8825-6452832aa83f","system_id":"levelo_inurba_marseille","lat":43.27064,"lon":5.40258,"is_reserved":false,"is_disabled":false,"rental_uris":{"android":"levelo://app?vid=1340328c-b4a2-450b-8825-6452832aa83f","ios":"levelo://app?vid=1340328c-b4a2-450b-8825-6452832aa83f"},"vehicle_type_id":"4","last_reported":1752221709,"current_range_meters":18000,"station_id":"ce4bhk92rcd13ifvqgc0","pricing_plan_id":"cebpf4jnsgd1na2vs0mg"},{"bike_id":"8fccf46e-4269-459a-bd9a-cdd93f6b32bc","system_id":"levelo_inurba_marseille","lat":43.30359,"lon":5.41887,"is_reserved":false,"is_disabled":true,"rental_uris":{"android":"levelo://app?vid=8fccf46e-4269-459a-bd9a-cdd93f6b32bc","ios":"levelo://app?vid=8fccf46e-4269-459a-bd9a-cdd93f6b32bc"},"vehicle_type_id":"4","last_reported":1752221709,"current_range_meters":18000,"station_id":"ce4bhop2rcd13ifvqh7g","pricing_plan_id":"cebpf4jnsgd1na2vs0mg"},{"bike_id":"5f9facdb-d1e1-40e1-8ceb-766e4b9ac193","system_id":"levelo_inurba_marseille","lat":43.21754,"lon":5.345992,"is_reserved":false,"is_disabled":false,"rental_uris":{"android":"levelo://app?vid=5f9facdb-d1e1-40e1-8ceb-766e4b9ac193","ios":"levelo://app?vid=5f9facdb-d1e1-40e1-8ceb-766e4b9ac193"},"vehicle_type_id":"4","last_reported":1752221709,"current_range_meters":18000,"station_id":"","pricing_plan_id":"cebpf4jnsgd1na2vs0mg"},{"bike_id":"61198919-e72c-4fce-bc96-126627987dc0","system_id":"levelo_inurba_marseille","lat":43.29572,"lon":5.37884,"is_reserved":false,"is_disabled":false,"rental_uris":{"android":"levelo://app?vid=61198919-e72c-4fce-bc96-126627987dc0","ios":"levelo://app?vid=61198919-e72c-4fce-bc96-126627987dc0"},"vehicle_type_id":"4","last_reported":1752221709,"current_range_meters":18000,"station_id":"","pricing_plan_id":"cebpf4jnsgd1na2vs0mg"},{"bike_id":"eb6a2290-40e2-4780-bdeb-a149c699215d","system_id":"levelo_inurba_marseille","lat":43.279487,"lon":5.410496,"is_reserved":false,"is_disabled":false,"rental_uris":{"android":"levelo://app?vid=eb6a2290-40e2-4780-bdeb-a149c699215d","ios":"levelo://app?vid=eb6a2290-40e2-4780-bdeb-a149c699215d"},"vehicle_type_id":"4","last_reported":1752221709,"current_range_meters":18000,"station_id":"ce4bhnp2rcd13ifvqh0g","pricing_plan_id":"cebpf4jnsgd1na2vs0mg"},{"bike_id":"e86ba8c9-208d-482c-a826-4c100938472a","system_id":"levelo_inurba_marseille","lat":43.211931,"lon":5.350625,"is_reserved":false,"is_disabled":false,"rental_uris":{"android":"levelo://app?vid=e86ba8c9-208d-482c-a826-4c100938472a","ios":"levelo://app?vid=e86ba8c9-208d-482c-a826-4c100938472a"},"vehicle_type_id":"4","last_reported":1752221709,"current_range_meters":18000,"station_id":"st_cvj6sg6p6f1abm77japg","pricing_plan_id":"cebpf4jnsgd1na2vs0mg"},{"bike_id":"d2e8f5b4-fa3f-42f7-bbe6-f1de007db237","system_id":"levelo_inurba_marseille","lat":43.25927,"lon":5.4092,"is_reserved":false,"is_disabled":false,"rental_uris":{"android":"levelo://app?vid=d2e8f5b4-fa3f-42f7-bbe6-f1de007db237","ios":"levelo://app?vid=d2e8f5b4-fa3f-42f7-bbe6-f1de007db237"},"vehicle_type_id":"4","last_reported":1752221709,"current_range_meters":18000,"station_id":"ce4bhm92rcd13ifvqglg","pricing_plan_id":"cebpf4jnsgd1na2vs0mg"},{"bike_id":"20da7c5a-4fb2-4c6d-ae20-b28ebedff588","system_id":"levelo_inurba_marseille","lat":43.273163,"lon":5.390734,"is_reserved":false,"is_disabled":false,"rental_uris":{"android":"levelo://app?vid=20da7c5a-4fb2-4c6d-ae20-b28ebedff588","ios":"levelo://app?vid=20da7c5a-4fb2-4c6d-ae20-b28ebedff588"},"vehicle_type_id":"4","last_reported":1752221709,"current_range_meters":18800,"station_id":"","pricing_plan_id":"cebpf4jnsgd1na2vs0mg"},{"bike_id":"7f546ea3-d00f-46d7-9b25-30d225b0831d","system_id":"levelo_inurba_marseille","lat":43.28267,"lon":5.35058,"is_reserved":false,"is_disabled":false,"rental_uris":{"android":"levelo://app?vid=7f546ea3-d00f-46d7-9b25-30d225b0831d","ios":"levelo://app?vid=7f546ea3-d00f-46d7-9b25-30d225b0831d"},"vehicle_type_id":"4","last_reported":1752221709,"current_range_meters":18800,"station_id":"ce4bhbp2rcd13ifvqerg","pricing_plan_id":"cebpf4jnsgd1na2vs0mg"},{"bike_id":"f5742157-e5fa-49f5-959a-500d766f92f6","system_id":"levelo_inurba_marseille","lat":43.261948,"lon":5.374513,"is_reserved":false,"is_disabled":false,"rental_uris":{"android":"levelo://app?vid=f5742157-e5fa-49f5-959a-500d766f92f6","ios":"levelo://app?vid=f5742157-e5fa-49f5-959a-500d766f92f6"},"vehicle_type_id":"4","last_reported":1752221709,"current_range_meters":18800,"station_id":"ce4bhgp2rcd13ifvqfc0","pricing_plan_id":"cebpf4jnsgd1na2vs0mg"},{"bike_id":"9d0d85e3-ee19-452d-93c5-fbfc98a09acf","system_id":"levelo_inurba_marseille","lat":43.295051,"lon":5.438568,"is_reserved":false,"is_disabled":false,"rental_uris":{"android":"levelo://app?vid=9d0d85e3-ee19-452d-93c5-fbfc98a09acf","ios":"levelo://app?vid=9d0d85e3-ee19-452d-93c5-fbfc98a09acf"},"vehicle_type_id":"4","last_reported":1752221709,"current_range_meters":18800,"station_id":"","pricing_plan_id":"cebpf4jnsgd1na2vs0mg"},{"bike_id":"452e8211-4f44-45d0-814a-3e9e25b8c44e","system_id":"levelo_inurba_marseille","lat":43.211934,"lon":5.350721,"is_reserved":false,"is_disabled":false,"rental_uris":{"android":"levelo://app?vid=452e8211-4f44-45d0-814a-3e9e25b8c44e","ios":"levelo://app?vid=452e8211-4f44-45d0-814a-3e9e25b8c44e"},"vehicle_type_id":"4","last_reported":1752221709,"current_range_meters":18800,"station_id":"st_cvj6sg6p6f1abm77japg","pricing_plan_id":"cebpf4jnsgd1na2vs0mg"},{"bike_id":"2a017920-d6e1-44c4-afe4-55b429419e31","system_id":"levelo_inurba_marseille","lat":43.259243,"lon":5.40923,"is_reserved":false,"is_disabled":false,"rental_uris":{"android":"levelo://app?vid=2a017920-d6e1-44c4-afe4-55b429419e31","ios":"levelo://app?vid=2a017920-d6e1-44c4-afe4-55b429419e31"},"vehicle_type_id":"4","last_reported":1752221709,"current_range_meters":18800,"station_id":"ce4bhm92rcd13ifvqglg","pricing_plan_id":"cebpf4jnsgd1na2vs0mg"},{"bike_id":"85512058-0851-4083-ad75-1b0f1fd73b1f","system_id":"levelo_inurba_marseille","lat":43.30959,"lon":5.39027,"is_reserved":false,"is_disabled":false,"rental_uris":{"android":"levelo://app?vid=85512058-0851-4083-ad75-1b0f1fd73b1f","ios":"levelo://app?vid=85512058-0851-4083-ad75-1b0f1fd73b1f"},"vehicle_type_id":"4","last_reported":1752221709,"current_range_meters":19200,"station_id":"ce4bgup2rcd13ifvqco0","pricing_plan_id":"cebpf4jnsgd1na2vs0mg"},{"bike_id":"fcbc5811-eb10-4c07-a609-20e149cebf6c","system_id":"levelo_inurba_marseille","lat":43.29627,"lon":5.37751,"is_reserved":false,"is_disabled":false,"rental_uris":{"android":"levelo://app?vid=fcbc5811-eb10-4c07-a609-20e149cebf6c","ios":"levelo://app?vid=fcbc5811-eb10-4c07-a609-20e149cebf6c"},"vehicle_type_id":"4","last_reported":1752221709,"current_range_meters":19200,"station_id":"ce4bgi92rcd13ifvqb90","pricing_plan_id":"cebpf4jnsgd1na2vs0mg"},{"bike_id":"a81ede20-43a9-47cd-942d-8fb15c54f5f7","system_id":"levelo_inurba_marseille","lat":43.30066,"lon":5.45146,"is_reserved":false,"is_disabled":false,"rental_uris":{"android":"levelo://app?vid=a81ede20-43a9-47cd-942d-8fb15c54f5f7","ios":"levelo://app?vid=a81ede20-43a9-47cd-942d-8fb15c54f5f7"},"vehicle_type_id":"4","last_reported":1752221709,"current_range_meters":19600,"station_id":"","pricing_plan_id":"cebpf4jnsgd1na2vs0mg"},{"bike_id":"09a8628e-3ca4-4af6-b971-3b3417814de7","system_id":"levelo_inurba_marseille","lat":43.29191,"lon":5.3579,"is_reserved":false,"is_disabled":false,"rental_uris":{"android":"levelo://app?vid=09a8628e-3ca4-4af6-b971-3b3417814de7","ios":"levelo://app?vid=09a8628e-3ca4-4af6-b971-3b3417814de7"},"vehicle_type_id":"4","last_reported":1752221709,"current_range_meters":19600,"station_id":"ce4bhb12rcd13ifvqel0","pricing_plan_id":"cebpf4jnsgd1na2vs0mg"},{"bike_id":"6863c0a0-efcd-4fcb-b60f-b3613367ce8a","system_id":"levelo_inurba_marseille","lat":43.3077,"lon":5.37639,"is_reserved":false,"is_disabled":false,"rental_uris":{"android":"levelo://app?vid=6863c0a0-efcd-4fcb-b60f-b3613367ce8a","ios":"levelo://app?vid=6863c0a0-efcd-4fcb-b60f-b3613367ce8a"},"vehicle_type_id":"4","last_reported":1752221709,"current_range_meters":19600,"station_id":"ce4bgv92rcd13ifvqcq0","pricing_plan_id":"cebpf4jnsgd1na2vs0mg"},{"bike_id":"f86c4b63-fc81-44ff-9804-862536b9fc94","system_id":"levelo_inurba_marseille","lat":43.25717,"lon":5.41106,"is_reserved":false,"is_disabled":false,"rental_uris":{"android":"levelo://app?vid=f86c4b63-fc81-44ff-9804-862536b9fc94","ios":"levelo://app?vid=f86c4b63-fc81-44ff-9804-862536b9fc94"},"vehicle_type_id":"4","last_reported":1752221709,"current_range_meters":19600,"station_id":"ce4bhkp2rcd13ifvqgd0","pricing_plan_id":"cebpf4jnsgd1na2vs0mg"},{"bike_id":"95508d1b-a047-4e81-94e0-5bf2758b8c99","system_id":"levelo_inurba_marseille","lat":43.24394,"lon":5.37044,"is_reserved":false,"is_disabled":false,"rental_uris":{"android":"levelo://app?vid=95508d1b-a047-4e81-94e0-5bf2758b8c99","ios":"levelo://app?vid=95508d1b-a047-4e81-94e0-5bf2758b8c99"},"vehicle_type_id":"4","last_reported":1752221709,"current_range_meters":19600,"station_id":"ce4bhhh2rcd13ifvqfk0","pricing_plan_id":"cebpf4jnsgd1na2vs0mg"},{"bike_id":"99f37ec9-135a-4c9d-96a2-6d74ab7cd265","system_id":"levelo_inurba_marseille","lat":43.286621,"lon":5.386733,"is_reserved":false,"is_disabled":false,"rental_uris":{"android":"levelo://app?vid=99f37ec9-135a-4c9d-96a2-6d74ab7cd265","ios":"levelo://app?vid=99f37ec9-135a-4c9d-96a2-6d74ab7cd265"},"vehicle_type_id":"4","last_reported":1752221709,"current_range_meters":20000,"station_id":"ce4bh492rcd13ifvqdug","pricing_plan_id":"cebpf4jnsgd1na2vs0mg"},{"bike_id":"83dcc478-365f-43d3-9f3c-a44e9e49779f","system_id":"levelo_inurba_marseille","lat":43.2968,"lon":5.37282,"is_reserved":false,"is_disabled":false,"rental_uris":{"android":"levelo://app?vid=83dcc478-365f-43d3-9f3c-a44e9e49779f","ios":"levelo://app?vid=83dcc478-365f-43d3-9f3c-a44e9e49779f"},"vehicle_type_id":"4","last_reported":1752221709,"current_range_meters":19600,"station_id":"ce4bgk12rcd13ifvqbj0","pricing_plan_id":"cebpf4jnsgd1na2vs0mg"},{"bike_id":"e5ecd8ed-8b4c-4477-8516-61ad62a4b6db","system_id":"levelo_inurba_marseille","lat":43.26949,"lon":5.38631,"is_reserved":false,"is_disabled":false,"rental_uris":{"android":"levelo://app?vid=e5ecd8ed-8b4c-4477-8516-61ad62a4b6db","ios":"levelo://app?vid=e5ecd8ed-8b4c-4477-8516-61ad62a4b6db"},"vehicle_type_id":"4","last_reported":1752221709,"current_range_meters":20000,"station_id":"ce4bhh92rcd13ifvqfh0","pricing_plan_id":"cebpf4jnsgd1na2vs0mg"},{"bike_id":"9c306d2c-4c4a-458b-8440-eb87e2f8e252","system_id":"levelo_inurba_marseille","lat":43.298391,"lon":5.362664,"is_reserved":false,"is_disabled":false,"rental_uris":{"android":"levelo://app?vid=9c306d2c-4c4a-458b-8440-eb87e2f8e252","ios":"levelo://app?vid=9c306d2c-4c4a-458b-8440-eb87e2f8e252"},"vehicle_type_id":"4","last_reported":1752221709,"current_range_meters":20400,"station_id":"ce4bgpp2rcd13ifvqc3g","pricing_plan_id":"cebpf4jnsgd1na2vs0mg"},{"bike_id":"ad023729-3d33-44a6-99ca-a047715b7f88","system_id":"levelo_inurba_marseille","lat":43.21189,"lon":5.35065,"is_reserved":false,"is_disabled":false,"rental_uris":{"android":"levelo://app?vid=ad023729-3d33-44a6-99ca-a047715b7f88","ios":"levelo://app?vid=ad023729-3d33-44a6-99ca-a047715b7f88"},"vehicle_type_id":"4","last_reported":1752221709,"current_range_meters":20400,"station_id":"st_cvj6sg6p6f1abm77japg","pricing_plan_id":"cebpf4jnsgd1na2vs0mg"},{"bike_id":"dc966a62-8335-4d85-b767-47e297432501","system_id":"levelo_inurba_marseille","lat":43.30551,"lon":5.36555,"is_reserved":false,"is_disabled":false,"rental_uris":{"android":"levelo://app?vid=dc966a62-8335-4d85-b767-47e297432501","ios":"levelo://app?vid=dc966a62-8335-4d85-b767-47e297432501"},"vehicle_type_id":"4","last_reported":1752221709,"current_range_meters":20400,"station_id":"ce4bgs12rcd13ifvqcag","pricing_plan_id":"cebpf4jnsgd1na2vs0mg"},{"bike_id":"0c83541e-4f70-4285-9739-3516faf20acb","system_id":"levelo_inurba_marseille","lat":43.30803,"lon":5.37655,"is_reserved":false,"is_disabled":false,"rental_uris":{"android":"levelo://app?vid=0c83541e-4f70-4285-9739-3516faf20acb","ios":"levelo://app?vid=0c83541e-4f70-4285-9739-3516faf20acb"},"vehicle_type_id":"4","last_reported":1752221709,"current_range_meters":20400,"station_id":"ce4bgv92rcd13ifvqcq0","pricing_plan_id":"cebpf4jnsgd1na2vs0mg"},{"bike_id":"102900eb-df25-4d95-ad9b-1534803fd8c5","system_id":"levelo_inurba_marseille","lat":43.30547,"lon":5.36686,"is_reserved":false,"is_disabled":false,"rental_uris":{"android":"levelo://app?vid=102900eb-df25-4d95-ad9b-1534803fd8c5","ios":"levelo://app?vid=102900eb-df25-4d95-ad9b-1534803fd8c5"},"vehicle_type_id":"4","last_reported":1752221709,"current_range_meters":20400,"station_id":"ce4bgrp2rcd13ifvqc9g","pricing_plan_id":"cebpf4jnsgd1na2vs0mg"},{"bike_id":"d263aa21-6161-4847-98e4-5595c3560971","system_id":"levelo_inurba_marseille","lat":43.24389,"lon":5.37055,"is_reserved":false,"is_disabled":false,"rental_uris":{"android":"levelo://app?vid=d263aa21-6161-4847-98e4-5595c3560971","ios":"levelo://app?vid=d263aa21-6161-4847-98e4-5595c3560971"},"vehicle_type_id":"4","last_reported":1752221709,"current_range_meters":20800,"station_id":"ce4bhhh2rcd13ifvqfk0","pricing_plan_id":"cebpf4jnsgd1na2vs0mg"},{"bike_id":"00bc0b3b-e317-4a17-a011-a3a9a29d816a","system_id":"levelo_inurba_marseille","lat":43.21199,"lon":5.3504,"is_reserved":false,"is_disabled":false,"rental_uris":{"android":"levelo://app?vid=00bc0b3b-e317-4a17-a011-a3a9a29d816a","ios":"levelo://app?vid=00bc0b3b-e317-4a17-a011-a3a9a29d816a"},"vehicle_type_id":"4","last_reported":1752221709,"current_range_meters":20800,"station_id":"st_cvj6sg6p6f1abm77japg","pricing_plan_id":"cebpf4jnsgd1na2vs0mg"},{"bike_id":"aaefc596-a337-4872-81e7-0d4dda8941ad","system_id":"levelo_inurba_marseille","lat":43.30904,"lon":5.36841,"is_reserved":false,"is_disabled":false,"rental_uris":{"android":"levelo://app?vid=aaefc596-a337-4872-81e7-0d4dda8941ad","ios":"levelo://app?vid=aaefc596-a337-4872-81e7-0d4dda8941ad"},"vehicle_type_id":"4","last_reported":1752221709,"current_range_meters":20800,"station_id":"ce4bgn92rcd13ifvqbvg","pricing_plan_id":"cebpf4jnsgd1na2vs0mg"},{"bike_id":"790c377f-77f7-4730-a831-b0f708a46319","system_id":"levelo_inurba_marseille","lat":43.3361,"lon":5.410173,"is_reserved":false,"is_disabled":false,"rental_uris":{"android":"levelo://app?vid=790c377f-77f7-4730-a831-b0f708a46319","ios":"levelo://app?vid=790c377f-77f7-4730-a831-b0f708a46319"},"vehicle_type_id":"4","last_reported":1752221709,"current_range_meters":20800,"station_id":"ce4bhqh2rcd13ifvqhmg","pricing_plan_id":"cebpf4jnsgd1na2vs0mg"},{"bike_id":"f87da4a0-0285-4527-bfeb-b47ac7e63f89","system_id":"levelo_inurba_marseille","lat":43.30906,"lon":5.36849,"is_reserved":false,"is_disabled":false,"rental_uris":{"android":"levelo://app?vid=f87da4a0-0285-4527-bfeb-b47ac7e63f89","ios":"levelo://app?vid=f87da4a0-0285-4527-bfeb-b47ac7e63f89"},"vehicle_type_id":"4","last_reported":1752221709,"current_range_meters":20800,"station_id":"ce4bgn92rcd13ifvqbvg","pricing_plan_id":"cebpf4jnsgd1na2vs0mg"},{"bike_id":"54e396f9-9d94-4b8f-95e4-893836693cd7","system_id":"levelo_inurba_marseille","lat":43.27987,"lon":5.41658,"is_reserved":false,"is_disabled":false,"rental_uris":{"android":"levelo://app?vid=54e396f9-9d94-4b8f-95e4-893836693cd7","ios":"levelo://app?vid=54e396f9-9d94-4b8f-95e4-893836693cd7"},"vehicle_type_id":"4","last_reported":1752221709,"current_range_meters":21600,"station_id":"ce4bho12rcd13ifvqh1g","pricing_plan_id":"cebpf4jnsgd1na2vs0mg"},{"bike_id":"dd1f54cf-2c8e-4c29-8df6-aa76c641e79c","system_id":"levelo_inurba_marseille","lat":43.31323,"lon":5.39688,"is_reserved":false,"is_disabled":false,"rental_uris":{"android":"levelo://app?vid=dd1f54cf-2c8e-4c29-8df6-aa76c641e79c","ios":"levelo://app?vid=dd1f54cf-2c8e-4c29-8df6-aa76c641e79c"},"vehicle_type_id":"4","last_reported":1752221709,"current_range_meters":21600,"station_id":"ce4bgvp2rcd13ifvqcu0","pricing_plan_id":"cebpf4jnsgd1na2vs0mg"},{"bike_id":"b711d936-d6c6-412e-ac7f-e0a3c1e83c4c","system_id":"levelo_inurba_marseille","lat":43.231934,"lon":5.355489,"is_reserved":false,"is_disabled":false,"rental_uris":{"android":"levelo://app?vid=b711d936-d6c6-412e-ac7f-e0a3c1e83c4c","ios":"levelo://app?vid=b711d936-d6c6-412e-ac7f-e0a3c1e83c4c"},"vehicle_type_id":"4","last_reported":1752221709,"current_range_meters":21600,"station_id":"ce4bhu92rcd13ifvqi70","pricing_plan_id":"cebpf4jnsgd1na2vs0mg"},{"bike_id":"3a3dfa5a-df5c-4a7f-acf5-a3c87de21f46","system_id":"levelo_inurba_marseille","lat":43.30535,"lon":5.36548,"is_reserved":false,"is_disabled":false,"rental_uris":{"android":"levelo://app?vid=3a3dfa5a-df5c-4a7f-acf5-a3c87de21f46","ios":"levelo://app?vid=3a3dfa5a-df5c-4a7f-acf5-a3c87de21f46"},"vehicle_type_id":"4","last_reported":1752221709,"current_range_meters":21600,"station_id":"ce4bgs12rcd13ifvqcag","pricing_plan_id":"cebpf4jnsgd1na2vs0mg"},{"bike_id":"078fab8e-0d4a-4bfc-867e-c4adfc2ac53b","system_id":"levelo_inurba_marseille","lat":43.2721,"lon":5.391574,"is_reserved":false,"is_disabled":true,"rental_uris":{"android":"levelo://app?vid=078fab8e-0d4a-4bfc-867e-c4adfc2ac53b","ios":"levelo://app?vid=078fab8e-0d4a-4bfc-867e-c4adfc2ac53b"},"vehicle_type_id":"4","last_reported":1752221709,"current_range_meters":21600,"station_id":"ce4bhhp2rcd13ifvqfm0","pricing_plan_id":"cebpf4jnsgd1na2vs0mg"},{"bike_id":"723e9b23-6e07-48f9-803c-9378118236aa","system_id":"levelo_inurba_marseille","lat":43.23151,"lon":5.43724,"is_reserved":false,"is_disabled":false,"rental_uris":{"android":"levelo://app?vid=723e9b23-6e07-48f9-803c-9378118236aa","ios":"levelo://app?vid=723e9b23-6e07-48f9-803c-9378118236aa"},"vehicle_type_id":"4","last_reported":1752221709,"current_range_meters":22000,"station_id":"ce4bhmp2rcd13ifvqgog","pricing_plan_id":"cebpf4jnsgd1na2vs0mg"},{"bike_id":"24e3b2f1-00cf-4dc1-941d-0810a1eb0857","system_id":"levelo_inurba_marseille","lat":43.297883,"lon":5.393407,"is_reserved":false,"is_disabled":false,"rental_uris":{"android":"levelo://app?vid=24e3b2f1-00cf-4dc1-941d-0810a1eb0857","ios":"levelo://app?vid=24e3b2f1-00cf-4dc1-941d-0810a1eb0857"},"vehicle_type_id":"4","last_reported":1752221709,"current_range_meters":22000,"station_id":"","pricing_plan_id":"cebpf4jnsgd1na2vs0mg"},{"bike_id":"51890362-46b0-4ee7-9f02-afbf036d064e","system_id":"levelo_inurba_marseille","lat":43.211958,"lon":5.350678,"is_reserved":false,"is_disabled":false,"rental_uris":{"android":"levelo://app?vid=51890362-46b0-4ee7-9f02-afbf036d064e","ios":"levelo://app?vid=51890362-46b0-4ee7-9f02-afbf036d064e"},"vehicle_type_id":"4","last_reported":1752221709,"current_range_meters":22000,"station_id":"st_cvj6sg6p6f1abm77japg","pricing_plan_id":"cebpf4jnsgd1na2vs0mg"},{"bike_id":"1550d62c-ac23-4182-a92a-927896c39981","system_id":"levelo_inurba_marseille","lat":43.32982,"lon":5.38232,"is_reserved":false,"is_disabled":false,"rental_uris":{"android":"levelo://app?vid=1550d62c-ac23-4182-a92a-927896c39981","ios":"levelo://app?vid=1550d62c-ac23-4182-a92a-927896c39981"},"vehicle_type_id":"4","last_reported":1752221709,"current_range_meters":22000,"station_id":"","pricing_plan_id":"cebpf4jnsgd1na2vs0mg"},{"bike_id":"85d2aee3-4fe4-4c9f-9f31-cc4fe835c04e","system_id":"levelo_inurba_marseille","lat":43.212,"lon":5.35073,"is_reserved":false,"is_disabled":false,"rental_uris":{"android":"levelo://app?vid=85d2aee3-4fe4-4c9f-9f31-cc4fe835c04e","ios":"levelo://app?vid=85d2aee3-4fe4-4c9f-9f31-cc4fe835c04e"},"vehicle_type_id":"4","last_reported":1752221709,"current_range_meters":22000,"station_id":"st_cvj6sg6p6f1abm77japg","pricing_plan_id":"cebpf4jnsgd1na2vs0mg"},{"bike_id":"ae130788-e353-401a-a025-d3f9f55a638e","system_id":"levelo_inurba_marseille","lat":43.29279,"lon":5.40115,"is_reserved":false,"is_disabled":false,"rental_uris":{"android":"levelo://app?vid=ae130788-e353-401a-a025-d3f9f55a638e","ios":"levelo://app?vid=ae130788-e353-401a-a025-d3f9f55a638e"},"vehicle_type_id":"4","last_reported":1752221709,"current_range_meters":22000,"station_id":"ce4bh312rcd13ifvqdk0","pricing_plan_id":"cebpf4jnsgd1na2vs0mg"},{"bike_id":"61311c34-8ad3-46f2-97a6-24b285751e2f","system_id":"levelo_inurba_marseille","lat":43.32345,"lon":5.40624,"is_reserved":false,"is_disabled":false,"rental_uris":{"android":"levelo://app?vid=61311c34-8ad3-46f2-97a6-24b285751e2f","ios":"levelo://app?vid=61311c34-8ad3-46f2-97a6-24b285751e2f"},"vehicle_type_id":"4","last_reported":1752221709,"current_range_meters":22400,"station_id":"ce4bhq92rcd13ifvqhjg","pricing_plan_id":"cebpf4jnsgd1na2vs0mg"},{"bike_id":"00bb04d2-087b-4ba0-958b-5c83f2321f0a","system_id":"levelo_inurba_marseille","lat":43.295503,"lon":5.422835,"is_reserved":false,"is_disabled":false,"rental_uris":{"android":"levelo://app?vid=00bb04d2-087b-4ba0-958b-5c83f2321f0a","ios":"levelo://app?vid=00bb04d2-087b-4ba0-958b-5c83f2321f0a"},"vehicle_type_id":"4","last_reported":1752221709,"current_range_meters":22400,"station_id":"ce4bhph2rcd13ifvqhdg","pricing_plan_id":"cebpf4jnsgd1na2vs0mg"},{"bike_id":"028c8301-8e99-4f6b-983c-d8b1eaa0aa1d","system_id":"levelo_inurba_marseille","lat":43.30008,"lon":5.38602,"is_reserved":false,"is_disabled":false,"rental_uris":{"android":"levelo://app?vid=028c8301-8e99-4f6b-983c-d8b1eaa0aa1d","ios":"levelo://app?vid=028c8301-8e99-4f6b-983c-d8b1eaa0aa1d"},"vehicle_type_id":"4","last_reported":1752221709,"current_range_meters":22400,"station_id":"","pricing_plan_id":"cebpf4jnsgd1na2vs0mg"},{"bike_id":"79404b7e-362a-4f9c-aa4e-cea693a91245","system_id":"levelo_inurba_marseille","lat":43.30145,"lon":5.38081,"is_reserved":false,"is_disabled":false,"rental_uris":{"android":"levelo://app?vid=79404b7e-362a-4f9c-aa4e-cea693a91245","ios":"levelo://app?vid=79404b7e-362a-4f9c-aa4e-cea693a91245"},"vehicle_type_id":"4","last_reported":1752221709,"current_range_meters":22400,"station_id":"ce4bgjp2rcd13ifvqbh0","pricing_plan_id":"cebpf4jnsgd1na2vs0mg"},{"bike_id":"8b37f03f-f226-4bbc-8648-b109da7ba145","system_id":"levelo_inurba_marseille","lat":43.30536,"lon":5.366999,"is_reserved":false,"is_disabled":false,"rental_uris":{"android":"levelo://app?vid=8b37f03f-f226-4bbc-8648-b109da7ba145","ios":"levelo://app?vid=8b37f03f-f226-4bbc-8648-b109da7ba145"},"vehicle_type_id":"4","last_reported":1752221709,"current_range_meters":22400,"station_id":"","pricing_plan_id":"cebpf4jnsgd1na2vs0mg"},{"bike_id":"42abc01b-608e-4eb8-85e4-f45caa02d7fa","system_id":"levelo_inurba_marseille","lat":43.2315,"lon":5.43717,"is_reserved":false,"is_disabled":false,"rental_uris":{"android":"levelo://app?vid=42abc01b-608e-4eb8-85e4-f45caa02d7fa","ios":"levelo://app?vid=42abc01b-608e-4eb8-85e4-f45caa02d7fa"},"vehicle_type_id":"4","last_reported":1752221709,"current_range_meters":22400,"station_id":"ce4bhmp2rcd13ifvqgog","pricing_plan_id":"cebpf4jnsgd1na2vs0mg"},{"bike_id":"d799b321-3a7d-4201-b46e-ffe2ad124f19","system_id":"levelo_inurba_marseille","lat":43.328824,"lon":5.383989,"is_reserved":false,"is_disabled":false,"rental_uris":{"android":"levelo://app?vid=d799b321-3a7d-4201-b46e-ffe2ad124f19","ios":"levelo://app?vid=d799b321-3a7d-4201-b46e-ffe2ad124f19"},"vehicle_type_id":"4","last_reported":1752221709,"current_range_meters":22400,"station_id":"","pricing_plan_id":"cebpf4jnsgd1na2vs0mg"},{"bike_id":"0fd6c78d-9958-4b43-afd1-c57ce2fd1d97","system_id":"levelo_inurba_marseille","lat":43.27176,"lon":5.40989,"is_reserved":false,"is_disabled":false,"rental_uris":{"android":"levelo://app?vid=0fd6c78d-9958-4b43-afd1-c57ce2fd1d97","ios":"levelo://app?vid=0fd6c78d-9958-4b43-afd1-c57ce2fd1d97"},"vehicle_type_id":"4","last_reported":1752221709,"current_range_meters":22400,"station_id":"ce4bhl12rcd13ifvqgf0","pricing_plan_id":"cebpf4jnsgd1na2vs0mg"},{"bike_id":"72b39aad-c91e-4545-8fe5-aa395b7d62ba","system_id":"levelo_inurba_marseille","lat":43.31681,"lon":5.37641,"is_reserved":false,"is_disabled":false,"rental_uris":{"android":"levelo://app?vid=72b39aad-c91e-4545-8fe5-aa395b7d62ba","ios":"levelo://app?vid=72b39aad-c91e-4545-8fe5-aa395b7d62ba"},"vehicle_type_id":"4","last_reported":1752221709,"current_range_meters":22800,"station_id":"","pricing_plan_id":"cebpf4jnsgd1na2vs0mg"},{"bike_id":"d35037a4-c51d-43e6-8d10-170fa5340764","system_id":"levelo_inurba_marseille","lat":43.23149,"lon":5.4372,"is_reserved":false,"is_disabled":false,"rental_uris":{"android":"levelo://app?vid=d35037a4-c51d-43e6-8d10-170fa5340764","ios":"levelo://app?vid=d35037a4-c51d-43e6-8d10-170fa5340764"},"vehicle_type_id":"4","last_reported":1752221709,"current_range_meters":22800,"station_id":"ce4bhmp2rcd13ifvqgog","pricing_plan_id":"cebpf4jnsgd1na2vs0mg"},{"bike_id":"e38f7f5b-1493-46e4-a8cf-0b8e1debebdc","system_id":"levelo_inurba_marseille","lat":43.30475,"lon":5.37908,"is_reserved":false,"is_disabled":false,"rental_uris":{"android":"levelo://app?vid=e38f7f5b-1493-46e4-a8cf-0b8e1debebdc","ios":"levelo://app?vid=e38f7f5b-1493-46e4-a8cf-0b8e1debebdc"},"vehicle_type_id":"4","last_reported":1752221709,"current_range_meters":22800,"station_id":"ce4bgup2rcd13ifvqcn0","pricing_plan_id":"cebpf4jnsgd1na2vs0mg"},{"bike_id":"64b5aef6-e300-41a9-a308-e78c5106a024","system_id":"levelo_inurba_marseille","lat":43.314453,"lon":5.380012,"is_reserved":false,"is_disabled":false,"rental_uris":{"android":"levelo://app?vid=64b5aef6-e300-41a9-a308-e78c5106a024","ios":"levelo://app?vid=64b5aef6-e300-41a9-a308-e78c5106a024"},"vehicle_type_id":"4","last_reported":1752221709,"current_range_meters":22800,"station_id":"ce4bhsp2rcd13ifvqi50","pricing_plan_id":"cebpf4jnsgd1na2vs0mg"},{"bike_id":"ee5338dd-18a1-4b48-a5b0-f8c72f7b1319","system_id":"levelo_inurba_marseille","lat":43.31814,"lon":5.36842,"is_reserved":false,"is_disabled":false,"rental_uris":{"android":"levelo://app?vid=ee5338dd-18a1-4b48-a5b0-f8c72f7b1319","ios":"levelo://app?vid=ee5338dd-18a1-4b48-a5b0-f8c72f7b1319"},"vehicle_type_id":"4","last_reported":1752221709,"current_range_meters":22800,"station_id":"","pricing_plan_id":"cebpf4jnsgd1na2vs0mg"},{"bike_id":"ae790f9d-4b42-408e-8659-37a80e946e03","system_id":"levelo_inurba_marseille","lat":43.323616,"lon":5.388804,"is_reserved":false,"is_disabled":false,"rental_uris":{"android":"levelo://app?vid=ae790f9d-4b42-408e-8659-37a80e946e03","ios":"levelo://app?vid=ae790f9d-4b42-408e-8659-37a80e946e03"},"vehicle_type_id":"4","last_reported":1752221709,"current_range_meters":22800,"station_id":"ce4bhqp2rcd13ifvqhog","pricing_plan_id":"cebpf4jnsgd1na2vs0mg"},{"bike_id":"fca7f33a-4f3d-44ac-bf6b-be967adaabdb","system_id":"levelo_inurba_marseille","lat":43.24056,"lon":5.37749,"is_reserved":false,"is_disabled":false,"rental_uris":{"android":"levelo://app?vid=fca7f33a-4f3d-44ac-bf6b-be967adaabdb","ios":"levelo://app?vid=fca7f33a-4f3d-44ac-bf6b-be967adaabdb"},"vehicle_type_id":"4","last_reported":1752221709,"current_range_meters":22800,"station_id":"ce4bhnp2rcd13ifvqgvg","pricing_plan_id":"cebpf4jnsgd1na2vs0mg"},{"bike_id":"01f802b2-e1bd-4941-87e8-460a90ed8043","system_id":"levelo_inurba_marseille","lat":43.29301,"lon":5.37459,"is_reserved":false,"is_disabled":false,"rental_uris":{"android":"levelo://app?vid=01f802b2-e1bd-4941-87e8-460a90ed8043","ios":"levelo://app?vid=01f802b2-e1bd-4941-87e8-460a90ed8043"},"vehicle_type_id":"4","last_reported":1752221709,"current_range_meters":22800,"station_id":"ce4bgi12rcd13ifvqb70","pricing_plan_id":"cebpf4jnsgd1na2vs0mg"},{"bike_id":"0b5568ad-5cb1-43dd-96ea-ac921d768809","system_id":"levelo_inurba_marseille","lat":43.30475,"lon":5.37894,"is_reserved":false,"is_disabled":false,"rental_uris":{"android":"levelo://app?vid=0b5568ad-5cb1-43dd-96ea-ac921d768809","ios":"levelo://app?vid=0b5568ad-5cb1-43dd-96ea-ac921d768809"},"vehicle_type_id":"4","last_reported":1752221709,"current_range_meters":22800,"station_id":"ce4bgup2rcd13ifvqcn0","pricing_plan_id":"cebpf4jnsgd1na2vs0mg"},{"bike_id":"a0137104-c9f4-434a-a5e3-80725cd5a2b4","system_id":"levelo_inurba_marseille","lat":43.211906,"lon":5.350767,"is_reserved":false,"is_disabled":false,"rental_uris":{"android":"levelo://app?vid=a0137104-c9f4-434a-a5e3-80725cd5a2b4","ios":"levelo://app?vid=a0137104-c9f4-434a-a5e3-80725cd5a2b4"},"vehicle_type_id":"4","last_reported":1752221709,"current_range_meters":22800,"station_id":"st_cvj6sg6p6f1abm77japg","pricing_plan_id":"cebpf4jnsgd1na2vs0mg"},{"bike_id":"f13872ab-8eaa-44e3-b5c1-b3018fdd74ad","system_id":"levelo_inurba_marseille","lat":43.32482,"lon":5.36563,"is_reserved":false,"is_disabled":false,"rental_uris":{"android":"levelo://app?vid=f13872ab-8eaa-44e3-b5c1-b3018fdd74ad","ios":"levelo://app?vid=f13872ab-8eaa-44e3-b5c1-b3018fdd74ad"},"vehicle_type_id":"4","last_reported":1752221709,"current_range_meters":22800,"station_id":"ce4bhs12rcd13ifvqhvg","pricing_plan_id":"cebpf4jnsgd1na2vs0mg"},{"bike_id":"98a7da3f-ccf7-48b6-bee0-c33b55163a6a","system_id":"levelo_inurba_marseille","lat":43.26035,"lon":5.37544,"is_reserved":false,"is_disabled":false,"rental_uris":{"android":"levelo://app?vid=98a7da3f-ccf7-48b6-bee0-c33b55163a6a","ios":"levelo://app?vid=98a7da3f-ccf7-48b6-bee0-c33b55163a6a"},"vehicle_type_id":"4","last_reported":1752221709,"current_range_meters":23200,"station_id":"ce4bhgh2rcd13ifvqfa0","pricing_plan_id":"cebpf4jnsgd1na2vs0mg"},{"bike_id":"254f4a2d-5cbe-4abd-93b7-4f61c9fb9512","system_id":"levelo_inurba_marseille","lat":43.29577,"lon":5.37539,"is_reserved":false,"is_disabled":false,"rental_uris":{"android":"levelo://app?vid=254f4a2d-5cbe-4abd-93b7-4f61c9fb9512","ios":"levelo://app?vid=254f4a2d-5cbe-4abd-93b7-4f61c9fb9512"},"vehicle_type_id":"4","last_reported":1752221709,"current_range_meters":23200,"station_id":"ce4bgh92rcd13ifvqb50","pricing_plan_id":"cebpf4jnsgd1na2vs0mg"},{"bike_id":"72e95b8b-8554-4472-861b-33ddc5882252","system_id":"levelo_inurba_marseille","lat":43.31484,"lon":5.37306,"is_reserved":false,"is_disabled":false,"rental_uris":{"android":"levelo://app?vid=72e95b8b-8554-4472-861b-33ddc5882252","ios":"levelo://app?vid=72e95b8b-8554-4472-861b-33ddc5882252"},"vehicle_type_id":"4","last_reported":1752221709,"current_range_meters":23200,"station_id":"ce4bgt12rcd13ifvqcd0","pricing_plan_id":"cebpf4jnsgd1na2vs0mg"},{"bike_id":"e9a96a1c-fa0a-4839-9366-a4dff59b658f","system_id":"levelo_inurba_marseille","lat":43.23153,"lon":5.4371,"is_reserved":false,"is_disabled":false,"rental_uris":{"android":"levelo://app?vid=e9a96a1c-fa0a-4839-9366-a4dff59b658f","ios":"levelo://app?vid=e9a96a1c-fa0a-4839-9366-a4dff59b658f"},"vehicle_type_id":"4","last_reported":1752221709,"current_range_meters":22800,"station_id":"ce4bhmp2rcd13ifvqgog","pricing_plan_id":"cebpf4jnsgd1na2vs0mg"},{"bike_id":"41f3df89-e719-4a5b-b83b-6c738c83cbcc","system_id":"levelo_inurba_marseille","lat":43.284159,"lon":5.349823,"is_reserved":false,"is_disabled":false,"rental_uris":{"android":"levelo://app?vid=41f3df89-e719-4a5b-b83b-6c738c83cbcc","ios":"levelo://app?vid=41f3df89-e719-4a5b-b83b-6c738c83cbcc"},"vehicle_type_id":"4","last_reported":1752221709,"current_range_meters":23200,"station_id":"ce4bhbh2rcd13ifvqepg","pricing_plan_id":"cebpf4jnsgd1na2vs0mg"},{"bike_id":"f9f410eb-6040-41f8-aa16-e4a27941160f","system_id":"levelo_inurba_marseille","lat":43.296334,"lon":5.371446,"is_reserved":false,"is_disabled":false,"rental_uris":{"android":"levelo://app?vid=f9f410eb-6040-41f8-aa16-e4a27941160f","ios":"levelo://app?vid=f9f410eb-6040-41f8-aa16-e4a27941160f"},"vehicle_type_id":"4","last_reported":1752221709,"current_range_meters":23200,"station_id":"ce4bgnh2rcd13ifvqc0g","pricing_plan_id":"cebpf4jnsgd1na2vs0mg"},{"bike_id":"42af39c2-11c4-4eb9-b8fb-f128c59f6878","system_id":"levelo_inurba_marseille","lat":43.29549,"lon":5.37505,"is_reserved":false,"is_disabled":false,"rental_uris":{"android":"levelo://app?vid=42af39c2-11c4-4eb9-b8fb-f128c59f6878","ios":"levelo://app?vid=42af39c2-11c4-4eb9-b8fb-f128c59f6878"},"vehicle_type_id":"4","last_reported":1752221709,"current_range_meters":23200,"station_id":"ce4bgkp2rcd13ifvqbmg","pricing_plan_id":"cebpf4jnsgd1na2vs0mg"},