{"last_updated":1753776988,"ttl":60,"version":"2.2","data":{"bikes":[{"bike_id":"ac45b923-8377-4fc7-aa02-844168ab0e1a","system_id":"levelo_inurba_marseille","lat":43.30545,"lon":5.36547,"is_reserved":false,"is_disabled":true,"rental_uris":{"android":"levelo://app?vid=ac45b923-8377-4fc7-aa02-844168ab0e1a","ios":"levelo://app?vid=ac45b923-8377-4fc7-aa02-844168ab0e1a"},"vehicle_type_id":"4","last_reported":1753776988,"current_range_meters":2000,"station_id":"ce4bgs12rcd13ifvqcag","pricing_plan_id":"cebpf4jnsgd1na2vs0mg"},{"bike_id":"078f11b0-bb56-4df0-87db-0c5d635cc500","system_id":"levelo_inurba_marseille","lat":43.22513,"lon":5.34786,"is_reserved":false,"is_disabled":false,"rental_uris":{"android":"levelo://app?vid=078f11b0-bb56-4df0-87db-0c5d635cc500","ios":"levelo://app?vid=078f11b0-bb56-4df0-87db-0c5d635cc500"},"vehicle_type_id":"4","last_reported":1753776988,"current_range_meters":3200,"station_id":"st_cvj5dfep6f1abm77gieg","pricing_plan_id":"cebpf4jnsgd1na2vs0mg"},{"bike_id":"198a8a48-9082-408a-ac7c-20dca32fbf4e","system_id":"levelo_inurba_marseille","lat":43.32025,"lon":5.40946,"is_reserved":false,"is_disabled":true,"rental_uris":{"android":"levelo://app?vid=198a8a48-9082-408a-ac7c-20dca32fbf4e","ios":"levelo://app?vid=198a8a48-9082-408a-ac7c-20dca32fbf4e"},"vehicle_type_id":"4","last_reported":1753776988,"current_range_meters":3200,"station_id":"","pricing_plan_id":"cebpf4jnsgd1na2vs0mg"},{"bike_id":"1b039ae0-bd90-4af5-b917-f9e20c56f19e","system_id":"levelo_inurba_marseille","lat":43.29901,"lon":5.3864,"is_reserved":false,"is_disabled":true,"rental_uris":{"android":"levelo://app?vid=1b039ae0-bd90-4af5-b917-f9e20c56f19e","ios":"levelo://app?vid=1b039ae0-bd90-4af5-b917-f9e20c56f19e"},"vehicle_type_id":"4","last_reported":1753776988,"current_range_meters":3600,"station_id":"","pricing_plan_id":"cebpf4jnsgd1na2vs0mg"},{"bike_id":"16c6ac9b-1f47-4108-9866-f88d1f2ebac1","system_id":"levelo_inurba_marseille","lat":43.2315,"lon":5.43725,"is_reserved":false,"is_disabled":false,"rental_uris":{"android":"levelo://app?vid=16c6ac9b-1f47-4108-9866-f88d1f2ebac1","ios":"levelo://app?vid=16c6ac9b-1f47-4108-9866-f88d1f2ebac1"},"vehicle_type_id":"4","last_reported":1753776988,"current_range_meters":4000,"station_id":"ce4bhmp2rcd13ifvqgog","pricing_plan_id":"cebpf4jnsgd1na2vs0mg"},{"bike_id":"57d2148b-4900-48dc-9253-f8ca7d2e9d8a","system_id":"levelo_inurba_marseille","lat":43.303122,"lon":5.405017,"is_reserved":false,"is_disabled":false,"rental_uris":{"android":"levelo://app?vid=57d2148b-4900-48dc-9253-f8ca7d2e9d8a","ios":"levelo://app?vid=57d2148b-4900-48dc-9253-f8ca7d2e9d8a"},"vehicle_type_id":"4","last_reported":1753776988,"current_range_meters":4000,"station_id":"","pricing_plan_id":"cebpf4jnsgd1na2vs0mg"},{"bike_id":"4ec96cd7-55e1-4969-a86f-324e9add7f1a","system_id":"levelo_inurba_marseille","lat":43.29574,"lon":5.37534,"is_reserved":false,"is_disabled":false,"rental_uris":{"android":"levelo://app?vid=4ec96cd7-55e1-4969-a86f-324e9add7f1a","ios":"levelo://app?vid=4ec96cd7-55e1-4969-a86f-324e9add7f1a"},"vehicle_type_id":"4","last_reported":1753776988,"current_range_meters":4000,"station_id":"ce4bgh92rcd13ifvqb50","pricing_plan_id":"cebpf4jnsgd1na2vs0mg"},{"bike_id":"962879c5-ede6-4ad1-8ad6-e3e238b6e210","system_id":"levelo_inurba_marseille","lat":43.28269,"lon":5.35067,"is_reserved":false,"is_disabled":false,"rental_uris":{"android":"levelo://app?vid=962879c5-ede6-4ad1-8ad6-e3e238b6e210","ios":"levelo://app?vid=962879c5-ede6-4ad1-8ad6-e3e238b6e210"},"vehicle_type_id":"4","last_reported":1753776988,"current_range_meters":4400,"station_id":"ce4bhbp2rcd13ifvqerg","pricing_plan_id":"cebpf4jnsgd1na2vs0mg"},{"bike_id":"bc28bf74-2543-4d44-8df6-5a0152aea9cb","system_id":"levelo_inurba_marseille","lat":43.29933,"lon":5.3655,"is_reserved":false,"is_disabled":false,"rental_uris":{"android":"levelo://app?vid=bc28bf74-2543-4d44-8df6-5a0152aea9cb","ios":"levelo://app?vid=bc28bf74-2543-4d44-8df6-5a0152aea9cb"},"vehicle_type_id":"4","last_reported":1753776988,"current_range_meters":4400,"station_id":"ce4bgm92rcd13ifvqbr0","pricing_plan_id":"cebpf4jnsgd1na2vs0mg"},{"bike_id":"4e15f944-12dd-42fb-8ea1-cf22b6c3acf2","system_id":"levelo_inurba_marseille","lat":43.27667,"lon":5.38887,"is_reserved":false,"is_disabled":false,"rental_uris":{"android":"levelo://app?vid=4e15f944-12dd-42fb-8ea1-cf22b6c3acf2","ios":"levelo://app?vid=4e15f944-12dd-42fb-8ea1-cf22b6c3acf2"},"vehicle_type_id":"4","last_reported":1753776988,"current_range_meters":4000,"station_id":"ce4bhi12rcd13ifvqfo0","pricing_plan_id":"cebpf4jnsgd1na2vs0mg"},{"bike_id":"da055bef-84ba-4631-8505-4d6c32ae805a","system_id":"levelo_inurba_marseille","lat":43.274238,"lon":5.394201,"is_reserved":false,"is_disabled":false,"rental_uris":{"android":"levelo://app?vid=da055bef-84ba-4631-8505-4d6c32ae805a","ios":"levelo://app?vid=da055bef-84ba-4631-8505-4d6c32ae805a"},"vehicle_type_id":"4","last_reported":1753776988,"current_range_meters":4800,"station_id":"ce4bhdp2rcd13ifvqf20","pricing_plan_id":"cebpf4jnsgd1na2vs0mg"},{"bike_id":"920a358b-d7bd-41db-b762-0dfd24010237","system_id":"levelo_inurba_marseille","lat":43.33724,"lon":5.39194,"is_reserved":false,"is_disabled":false,"rental_uris":{"android":"levelo://app?vid=920a358b-d7bd-41db-b762-0dfd24010237","ios":"levelo://app?vid=920a358b-d7bd-41db-b762-0dfd24010237"},"vehicle_type_id":"4","last_reported":1753776988,"current_range_meters":4800,"station_id":"ce4bhr92rcd13ifvqhsg","pricing_plan_id":"cebpf4jnsgd1na2vs0mg"},{"bike_id":"04d119cf-5219-44d3-9131-bf7175859d9e","system_id":"levelo_inurba_marseille","lat":43.23195,"lon":5.3555,"is_reserved":false,"is_disabled":false,"rental_uris":{"android":"levelo://app?vid=04d119cf-5219-44d3-9131-bf7175859d9e","ios":"levelo://app?vid=04d119cf-5219-44d3-9131-bf7175859d9e"},"vehicle_type_id":"4","last_reported":1753776988,"current_range_meters":4800,"station_id":"ce4bhu92rcd13ifvqi70","pricing_plan_id":"cebpf4jnsgd1na2vs0mg"},{"bike_id":"463e03fe-b9b0-4212-a764-9bd6d78e3c2e","system_id":"levelo_inurba_marseille","lat":43.31014,"lon":5.38137,"is_reserved":false,"is_disabled":true,"rental_uris":{"android":"levelo://app?vid=463e03fe-b9b0-4212-a764-9bd6d78e3c2e","ios":"levelo://app?vid=463e03fe-b9b0-4212-a764-9bd6d78e3c2e"},"vehicle_type_id":"4","last_reported":1753776988,"current_range_meters":5600,"station_id":"","pricing_plan_id":"cebpf4jnsgd1na2vs0mg"},{"bike_id":"9ee4ab36-e032-4821-bce2-d1dd99292b37","system_id":"levelo_inurba_marseille","lat":43.24172,"lon":5.39725,"is_reserved":false,"is_disabled":false,"rental_uris":{"android":"levelo://app?vid=9ee4ab36-e032-4821-bce2-d1dd99292b37","ios":"levelo://app?vid=9ee4ab36-e032-4821-bce2-d1dd99292b37"},"vehicle_type_id":"4","last_reported":1753776988,"current_range_meters":5600,"station_id":"ce4bhn12rcd13ifvqgpg","pricing_plan_id":"cebpf4jnsgd1na2vs0mg"},{"bike_id":"25a15290-9a6e-4be4-97e8-211e46bf4337","system_id":"levelo_inurba_marseille","lat":43.32281,"lon":5.38282,"is_reserved":false,"is_disabled":false,"rental_uris":{"android":"levelo://app?vid=25a15290-9a6e-4be4-97e8-211e46bf4337","ios":"levelo://app?vid=25a15290-9a6e-4be4-97e8-211e46bf4337"},"vehicle_type_id":"4","last_reported":1753776988,"current_range_meters":5600,"station_id":"ce4bhr12rcd13ifvqhqg","pricing_plan_id":"cebpf4jnsgd1na2vs0mg"},{"bike_id":"ae391c70-785a-4a33-99f9-c451e0f35084","system_id":"levelo_inurba_marseille","lat":43.26949,"lon":5.38638,"is_reserved":false,"is_disabled":false,"rental_uris":{"android":"levelo://app?vid=ae391c70-785a-4a33-99f9-c451e0f35084","ios":"levelo://app?vid=ae391c70-785a-4a33-99f9-c451e0f35084"},"vehicle_type_id":"4","last_reported":1753776988,"current_range_meters":6000,"station_id":"ce4bhh92rcd13ifvqfh0","pricing_plan_id":"cebpf4jnsgd1na2vs0mg"},{"bike_id":"44b95661-263f-4a06-9511-84c496a88338","system_id":"levelo_inurba_marseille","lat":43.27322,"lon":5.39083,"is_reserved":false,"is_disabled":false,"rental_uris":{"android":"levelo://app?vid=44b95661-263f-4a06-9511-84c496a88338","ios":"levelo://app?vid=44b95661-263f-4a06-9511-84c496a88338"},"vehicle_type_id":"4","last_reported":1753776988,"current_range_meters":6000,"station_id":"ce4bhgp2rcd13ifvqfe0","pricing_plan_id":"cebpf4jnsgd1na2vs0mg"},{"bike_id":"da0dea9a-07a2-4249-aa7c-2489e28d40de","system_id":"levelo_inurba_marseille","lat":43.29672,"lon":5.36192,"is_reserved":false,"is_disabled":false,"rental_uris":{"android":"levelo://app?vid=da0dea9a-07a2-4249-aa7c-2489e28d40de","ios":"levelo://app?vid=da0dea9a-07a2-4249-aa7c-2489e28d40de"},"vehicle_type_id":"4","last_reported":1753776988,"current_range_meters":6400,"station_id":"","pricing_plan_id":"cebpf4jnsgd1na2vs0mg"},{"bike_id":"4d7205a5-ff21-413b-a129-0a5c010b9149","system_id":"levelo_inurba_marseille","lat":43.32482,"lon":5.36594,"is_reserved":false,"is_disabled":false,"rental_uris":{"android":"levelo://app?vid=4d7205a5-ff21-413b-a129-0a5c010b9149","ios":"levelo://app?vid=4d7205a5-ff21-413b-a129-0a5c010b9149"},"vehicle_type_id":"4","last_reported":1753776988,"current_range_meters":6400,"station_id":"ce4bhs12rcd13ifvqhvg","pricing_plan_id":"cebpf4jnsgd1na2vs0mg"},{"bike_id":"5a67886b-2f40-46df-b0be-1179491cb0a7","system_id":"levelo_inurba_marseille","lat":43.299683,"lon":5.386239,"is_reserved":false,"is_disabled":false,"rental_uris":{"android":"levelo://app?vid=5a67886b-2f40-46df-b0be-1179491cb0a7","ios":"levelo://app?vid=5a67886b-2f40-46df-b0be-1179491cb0a7"},"vehicle_type_id":"4","last_reported":1753776988,"current_range_meters":6400,"station_id":"","pricing_plan_id":"cebpf4jnsgd1na2vs0mg"},{"bike_id":"7eb5587c-cb0d-4f70-a221-0a702baacad8","system_id":"levelo_inurba_marseille","lat":43.31503,"lon":5.37251,"is_reserved":false,"is_disabled":false,"rental_uris":{"android":"levelo://app?vid=7eb5587c-cb0d-4f70-a221-0a702baacad8","ios":"levelo://app?vid=7eb5587c-cb0d-4f70-a221-0a702baacad8"},"vehicle_type_id":"4","last_reported":1753776988,"current_range_meters":6400,"station_id":"ce4bgt12rcd13ifvqcd0","pricing_plan_id":"cebpf4jnsgd1na2vs0mg"},{"bike_id":"351153d9-f2f2-4ba0-8798-a7e9c603dd9d","system_id":"levelo_inurba_marseille","lat":43.2417,"lon":5.36387,"is_reserved":false,"is_disabled":false,"rental_uris":{"android":"levelo://app?vid=351153d9-f2f2-4ba0-8798-a7e9c603dd9d","ios":"levelo://app?vid=351153d9-f2f2-4ba0-8798-a7e9c603dd9d"},"vehicle_type_id":"4","last_reported":1753776988,"current_range_meters":6400,"station_id":"cpo36qri1sfpv3e86is0","pricing_plan_id":"cebpf4jnsgd1na2vs0mg"},{"bike_id":"727aec61-8a0f-45e6-a287-e186d2b13c8c","system_id":"levelo_inurba_marseille","lat":43.28407,"lon":5.34984,"is_reserved":false,"is_disabled":false,"rental_uris":{"android":"levelo://app?vid=727aec61-8a0f-45e6-a287-e186d2b13c8c","ios":"levelo://app?vid=727aec61-8a0f-45e6-a287-e186d2b13c8c"},"vehicle_type_id":"4","last_reported":1753776988,"current_range_meters":6400,"station_id":"ce4bhbh2rcd13ifvqepg","pricing_plan_id":"cebpf4jnsgd1na2vs0mg"},{"bike_id":"567bec51-a0ed-4d2c-be90-a649621e54e8","system_id":"levelo_inurba_marseille","lat":43.31262,"lon":5.36852,"is_reserved":false,"is_disabled":false,"rental_uris":{"android":"levelo://app?vid=567bec51-a0ed-4d2c-be90-a649621e54e8","ios":"levelo://app?vid=567bec51-a0ed-4d2c-be90-a649621e54e8"},"vehicle_type_id":"4","last_reported":1753776988,"current_range_meters":6800,"station_id":"ce4bgl92rcd13ifvqbq0","pricing_plan_id":"cebpf4jnsgd1na2vs0mg"},{"bike_id":"bf295fbf-1f72-4e1a-a8f1-f319bb5fd736","system_id":"levelo_inurba_marseille","lat":43.29314,"lon":5.37035,"is_reserved":false,"is_disabled":false,"rental_uris":{"android":"levelo://app?vid=bf295fbf-1f72-4e1a-a8f1-f319bb5fd736","ios":"levelo://app?vid=bf295fbf-1f72-4e1a-a8f1-f319bb5fd736"},"vehicle_type_id":"4","last_reported":1753776988,"current_range_meters":6800,"station_id":"","pricing_plan_id":"cebpf4jnsgd1na2vs0mg"},{"bike_id":"6cb11f4f-f451-4a1b-a7c5-61054d6b97f6","system_id":"levelo_inurba_marseille","lat":43.23662,"lon":5.40994,"is_reserved":false,"is_disabled":false,"rental_uris":{"android":"levelo://app?vid=6cb11f4f-f451-4a1b-a7c5-61054d6b97f6","ios":"levelo://app?vid=6cb11f4f-f451-4a1b-a7c5-61054d6b97f6"},"vehicle_type_id":"4","last_reported":1753776988,"current_range_meters":6800,"station_id":"","pricing_plan_id":"cebpf4jnsgd1na2vs0mg"},{"bike_id":"24fd6419-b2f6-4afd-9dfe-aa29bff8d554","system_id":"levelo_inurba_marseille","lat":43.29777,"lon":5.37115,"is_reserved":false,"is_disabled":false,"rental_uris":{"android":"levelo://app?vid=24fd6419-b2f6-4afd-9dfe-aa29bff8d554","ios":"levelo://app?vid=24fd6419-b2f6-4afd-9dfe-aa29bff8d554"},"vehicle_type_id":"4","last_reported":1753776988,"current_range_meters":7200,"station_id":"ce4bgop2rcd13ifvqc1g","pricing_plan_id":"cebpf4jnsgd1na2vs0mg"},{"bike_id":"fb45cff3-08fa-4cc9-bf53-0d8295f6b8d1","system_id":"levelo_inurba_marseille","lat":43.2788,"lon":5.42817,"is_reserved":false,"is_disabled":false,"rental_uris":{"android":"levelo://app?vid=fb45cff3-08fa-4cc9-bf53-0d8295f6b8d1","ios":"levelo://app?vid=fb45cff3-08fa-4cc9-bf53-0d8295f6b8d1"},"vehicle_type_id":"4","last_reported":1753776988,"current_range_meters":7200,"station_id":"","pricing_plan_id":"cebpf4jnsgd1na2vs0mg"},{"bike_id":"eac438a9-250c-4f80-b97e-66e585adbfcf","system_id":"levelo_inurba_marseille","lat":43.22541,"lon":5.34757,"is_reserved":false,"is_disabled":false,"rental_uris":{"android":"levelo://app?vid=eac438a9-250c-4f80-b97e-66e585adbfcf","ios":"levelo://app?vid=eac438a9-250c-4f80-b97e-66e585adbfcf"},"vehicle_type_id":"4","last_reported":1753776988,"current_range_meters":7200,"station_id":"","pricing_plan_id":"cebpf4jnsgd1na2vs0mg"},{"bike_id":"3152576e-d602-4c3f-980e-717f41aed773","system_id":"levelo_inurba_marseille","lat":43.33737,"lon":5.37465,"is_reserved":false,"is_disabled":false,"rental_uris":{"android":"levelo://app?vid=3152576e-d602-4c3f-980e-717f41aed773","ios":"levelo://app?vid=3152576e-d602-4c3f-980e-717f41aed773"},"vehicle_type_id":"4","last_reported":1753776988,"current_range_meters":7200,"station_id":"","pricing_plan_id":"cebpf4jnsgd1na2vs0mg"},{"bike_id":"667deef3-8257-4ad6-9e1b-82d6f84e1e13","system_id":"levelo_inurba_marseille","lat":43.30873,"lon":5.37181,"is_reserved":false,"is_disabled":false,"rental_uris":{"android":"levelo://app?vid=667deef3-8257-4ad6-9e1b-82d6f84e1e13","ios":"levelo://app?vid=667deef3-8257-4ad6-9e1b-82d6f84e1e13"},"vehicle_type_id":"4","last_reported":1753776988,"current_range_meters":8000,"station_id":"ce4bguh2rcd13ifvqckg","pricing_plan_id":"cebpf4jnsgd1na2vs0mg"},{"bike_id":"f33c36f7-2a48-435d-a3f9-42272441c5de","system_id":"levelo_inurba_marseille","lat":43.30905,"lon":5.36851,"is_reserved":false,"is_disabled":false,"rental_uris":{"android":"levelo://app?vid=f33c36f7-2a48-435d-a3f9-42272441c5de","ios":"levelo://app?vid=f33c36f7-2a48-435d-a3f9-42272441c5de"},"vehicle_type_id":"4","last_reported":1753776988,"current_range_meters":8000,"station_id":"ce4bgn92rcd13ifvqbvg","pricing_plan_id":"cebpf4jnsgd1na2vs0mg"},{"bike_id":"93f5d5a7-bb0a-4907-8041-d46384725889","system_id":"levelo_inurba_marseille","lat":43.3169,"lon":5.40466,"is_reserved":false,"is_disabled":false,"rental_uris":{"android":"levelo://app?vid=93f5d5a7-bb0a-4907-8041-d46384725889","ios":"levelo://app?vid=93f5d5a7-bb0a-4907-8041-d46384725889"},"vehicle_type_id":"4","last_reported":1753776988,"current_range_meters":8000,"station_id":"ce4bh012rcd13ifvqd00","pricing_plan_id":"cebpf4jnsgd1na2vs0mg"},{"bike_id":"f078f85b-29cc-469a-b7a1-13876bebe32b","system_id":"levelo_inurba_marseille","lat":43.29576,"lon":5.36743,"is_reserved":false,"is_disabled":false,"rental_uris":{"android":"levelo://app?vid=f078f85b-29cc-469a-b7a1-13876bebe32b","ios":"levelo://app?vid=f078f85b-29cc-469a-b7a1-13876bebe32b"},"vehicle_type_id":"4","last_reported":1753776988,"current_range_meters":8400,"station_id":"ce4bgph2rcd13ifvqc2g","pricing_plan_id":"cebpf4jnsgd1na2vs0mg"},{"bike_id":"d5593a85-cea5-49f7-9cab-83d2e11aab38","system_id":"levelo_inurba_marseille","lat":43.30781,"lon":5.3765,"is_reserved":false,"is_disabled":false,"rental_uris":{"android":"levelo://app?vid=d5593a85-cea5-49f7-9cab-83d2e11aab38","ios":"levelo://app?vid=d5593a85-cea5-49f7-9cab-83d2e11aab38"},"vehicle_type_id":"4","last_reported":1753776988,"current_range_meters":8400,"station_id":"ce4bgv92rcd13ifvqcq0","pricing_plan_id":"cebpf4jnsgd1na2vs0mg"},{"bike_id":"ad15468a-4f9d-4254-980d-b89e72d9f138","system_id":"levelo_inurba_marseille","lat":43.29913,"lon":5.38137,"is_reserved":false,"is_disabled":false,"rental_uris":{"android":"levelo://app?vid=ad15468a-4f9d-4254-980d-b89e72d9f138","ios":"levelo://app?vid=ad15468a-4f9d-4254-980d-b89e72d9f138"},"vehicle_type_id":"4","last_reported":1753776988,"current_range_meters":8400,"station_id":"ce4bgj12rcd13ifvqbc0","pricing_plan_id":"cebpf4jnsgd1na2vs0mg"},{"bike_id":"c8d74c46-263f-413f-977a-96331b2e7ea4","system_id":"levelo_inurba_marseille","lat":43.30968,"lon":5.39031,"is_reserved":false,"is_disabled":false,"rental_uris":{"android":"levelo://app?vid=c8d74c46-263f-413f-977a-96331b2e7ea4","ios":"levelo://app?vid=c8d74c46-263f-413f-977a-96331b2e7ea4"},"vehicle_type_id":"4","last_reported":1753776988,"current_range_meters":8800,"station_id":"ce4bgup2rcd13ifvqco0","pricing_plan_id":"cebpf4jnsgd1na2vs0mg"},{"bike_id":"2d596e96-5a2b-4e72-a2df-115ba58324ee","system_id":"levelo_inurba_marseille","lat":43.25084,"lon":5.39524,"is_reserved":false,"is_disabled":false,"rental_uris":{"android":"levelo://app?vid=2d596e96-5a2b-4e72-a2df-115ba58324ee","ios":"levelo://app?vid=2d596e96-5a2b-4e72-a2df-115ba58324ee"},"vehicle_type_id":"4","last_reported":1753776988,"current_range_meters":8800,"station_id":"ce4bhm12rcd13ifvqgkg","pricing_plan_id":"cebpf4jnsgd1na2vs0mg"},{"bike_id":"2e376ae5-53e8-4a5e-ba0a-b005877b8384","system_id":"levelo_inurba_marseille","lat":43.28484,"lon":5.38419,"is_reserved":false,"is_disabled":false,"rental_uris":{"android":"levelo://app?vid=2e376ae5-53e8-4a5e-ba0a-b005877b8384","ios":"levelo://app?vid=2e376ae5-53e8-4a5e-ba0a-b005877b8384"},"vehicle_type_id":"4","last_reported":1753776988,"current_range_meters":8800,"station_id":"ce4bh512rcd13ifvqe3g","pricing_plan_id":"cebpf4jnsgd1na2vs0mg"},{"bike_id":"35d4431a-83ad-4f70-a807-8dec1887248c","system_id":"levelo_inurba_marseille","lat":43.27073,"lon":5.42292,"is_reserved":false,"is_disabled":false,"rental_uris":{"android":"levelo://app?vid=35d4431a-83ad-4f70-a807-8dec1887248c","ios":"levelo://app?vid=35d4431a-83ad-4f70-a807-8dec1887248c"},"vehicle_type_id":"4","last_reported":1753776988,"current_range_meters":8800,"station_id":"ce4bhk92rcd13ifvqgb0","pricing_plan_id":"cebpf4jnsgd1na2vs0mg"},{"bike_id":"b7dbc990-2740-43c0-85a6-662356794ff0","system_id":"levelo_inurba_marseille","lat":43.30514,"lon":5.36726,"is_reserved":false,"is_disabled":false,"rental_uris":{"android":"levelo://app?vid=b7dbc990-2740-43c0-85a6-662356794ff0","ios":"levelo://app?vid=b7dbc990-2740-43c0-85a6-662356794ff0"},"vehicle_type_id":"4","last_reported":1753776988,"current_range_meters":8800,"station_id":"ce4bgrp2rcd13ifvqc9g","pricing_plan_id":"cebpf4jnsgd1na2vs0mg"},{"bike_id":"8bf2129d-0df0-4a35-ba38-615c802fc22c","system_id":"levelo_inurba_marseille","lat":43.27329,"lon":5.39103,"is_reserved":false,"is_disabled":false,"rental_uris":{"android":"levelo://app?vid=8bf2129d-0df0-4a35-ba38-615c802fc22c","ios":"levelo://app?vid=8bf2129d-0df0-4a35-ba38-615c802fc22c"},"vehicle_type_id":"4","last_reported":1753776988,"current_range_meters":8800,"station_id":"ce4bhgp2rcd13ifvqfe0","pricing_plan_id":"cebpf4jnsgd1na2vs0mg"},{"bike_id":"fb32444b-f9ac-4899-a180-81ca0b2eca1d","system_id":"levelo_inurba_marseille","lat":43.29006,"lon":5.35604,"is_reserved":false,"is_disabled":false,"rental_uris":{"android":"levelo://app?vid=fb32444b-f9ac-4899-a180-81ca0b2eca1d","ios":"levelo://app?vid=fb32444b-f9ac-4899-a180-81ca0b2eca1d"},"vehicle_type_id":"4","last_reported":1753776988,"current_range_meters":8800,"station_id":"ce4bhb92rcd13ifvqen0","pricing_plan_id":"cebpf4jnsgd1na2vs0mg"},{"bike_id":"9a53c405-7cae-4213-857e-35d22ee808a3","system_id":"levelo_inurba_marseille","lat":43.28425,"lon":5.34991,"is_reserved":false,"is_disabled":false,"rental_uris":{"android":"levelo://app?vid=9a53c405-7cae-4213-857e-35d22ee808a3","ios":"levelo://app?vid=9a53c405-7cae-4213-857e-35d22ee808a3"},"vehicle_type_id":"4","last_reported":1753776988,"current_range_meters":9200,"station_id":"ce4bhbh2rcd13ifvqepg","pricing_plan_id":"cebpf4jnsgd1na2vs0mg"},{"bike_id":"80915a30-ef88-4d81-b5d1-969d1c17a42d","system_id":"levelo_inurba_marseille","lat":43.30412,"lon":5.40831,"is_reserved":false,"is_disabled":false,"rental_uris":{"android":"levelo://app?vid=80915a30-ef88-4d81-b5d1-969d1c17a42d","ios":"levelo://app?vid=80915a30-ef88-4d81-b5d1-969d1c17a42d"},"vehicle_type_id":"4","last_reported":1753776988,"current_range_meters":9200,"station_id":"","pricing_plan_id":"cebpf4jnsgd1na2vs0mg"},{"bike_id":"8e37ef79-bd01-46c2-9d9e-3d3f7741a07a","system_id":"levelo_inurba_marseille","lat":43.297302,"lon":5.374166,"is_reserved":false,"is_disabled":false,"rental_uris":{"android":"levelo://app?vid=8e37ef79-bd01-46c2-9d9e-3d3f7741a07a","ios":"levelo://app?vid=8e37ef79-bd01-46c2-9d9e-3d3f7741a07a"},"vehicle_type_id":"4","last_reported":1753776988,"current_range_meters":9200,"station_id":"","pricing_plan_id":"cebpf4jnsgd1na2vs0mg"},{"bike_id":"3efe99ad-0b45-4c18-92ca-96f6cb43a670","system_id":"levelo_inurba_marseille","lat":43.32364,"lon":5.36763,"is_reserved":false,"is_disabled":false,"rental_uris":{"android":"levelo://app?vid=3efe99ad-0b45-4c18-92ca-96f6cb43a670","ios":"levelo://app?vid=3efe99ad-0b45-4c18-92ca-96f6cb43a670"},"vehicle_type_id":"4","last_reported":1753776988,"current_range_meters":9200,"station_id":"ce4bhsh2rcd13ifvqi2g","pricing_plan_id":"cebpf4jnsgd1na2vs0mg"},{"bike_id":"b2b4ad4d-5068-4687-8111-29e68ef6a3cb","system_id":"levelo_inurba_marseille","lat":43.28156,"lon":5.42642,"is_reserved":false,"is_disabled":false,"rental_uris":{"android":"levelo://app?vid=b2b4ad4d-5068-4687-8111-29e68ef6a3cb","ios":"levelo://app?vid=b2b4ad4d-5068-4687-8111-29e68ef6a3cb"},"vehicle_type_id":"4","last_reported":1753776988,"current_range_meters":9200,"station_id":"ce4bhnh2rcd13ifvqgug","pricing_plan_id":"cebpf4jnsgd1na2vs0mg"},{"bike_id":"08579487-b2b7-4d11-9c00-77d2a18c9bdc","system_id":"levelo_inurba_marseille","lat":43.3095,"lon":5.39039,"is_reserved":false,"is_disabled":false,"rental_uris":{"android":"levelo://app?vid=08579487-b2b7-4d11-9c00-77d2a18c9bdc","ios":"levelo://app?vid=08579487-b2b7-4d11-9c00-77d2a18c9bdc"},"vehicle_type_id":"4","last_reported":1753776988,"current_range_meters":9200,"station_id":"ce4bgup2rcd13ifvqco0","pricing_plan_id":"cebpf4jnsgd1na2vs0mg"},{"bike_id":"84036e62-78c0-42e9-a5c2-ad3d3703bc8c","system_id":"levelo_inurba_marseille","lat":43.279525,"lon":5.41043,"is_reserved":false,"is_disabled":true,"rental_uris":{"android":"levelo://app?vid=84036e62-78c0-42e9-a5c2-ad3d3703bc8c","ios":"levelo://app?vid=84036e62-78c0-42e9-a5c2-ad3d3703bc8c"},"vehicle_type_id":"4","last_reported":1753776988,"current_range_meters":9200,"station_id":"ce4bhnp2rcd13ifvqh0g","pricing_plan_id":"cebpf4jnsgd1na2vs0mg"},{"bike_id":"c85546d4-3ea8-44da-9c2d-e6b7bf575831","system_id":"levelo_inurba_marseille","lat":43.284305,"lon":5.349933,"is_reserved":false,"is_disabled":false,"rental_uris":{"android":"levelo://app?vid=c85546d4-3ea8-44da-9c2d-e6b7bf575831","ios":"levelo://app?vid=c85546d4-3ea8-44da-9c2d-e6b7bf575831"},"vehicle_type_id":"4","last_reported":1753776988,"current_range_meters":9200,"station_id":"ce4bhbh2rcd13ifvqepg","pricing_plan_id":"cebpf4jnsgd1na2vs0mg"},{"bike_id":"3dddabfb-566b-4525-981e-f94e9915ce4e","system_id":"levelo_inurba_marseille","lat":43.23152,"lon":5.43711,"is_reserved":false,"is_disabled":false,"rental_uris":{"android":"levelo://app?vid=3dddabfb-566b-4525-981e-f94e9915ce4e","ios":"levelo://app?vid=3dddabfb-566b-4525-981e-f94e9915ce4e"},"vehicle_type_id":"4","last_reported":1753776988,"current_range_meters":9200,"station_id":"ce4bhmp2rcd13ifvqgog","pricing_plan_id":"cebpf4jnsgd1na2vs0mg"},{"bike_id":"88711c8e-0d35-4243-828a-d0c18d208246","system_id":"levelo_inurba_marseille","lat":43.281509,"lon":5.4263,"is_reserved":false,"is_disabled":false,"rental_uris":{"android":"levelo://app?vid=88711c8e-0d35-4243-828a-d0c18d208246","ios":"levelo://app?vid=88711c8e-0d35-4243-828a-d0c18d208246"},"vehicle_type_id":"4","last_reported":1753776988,"current_range_meters":9600,"station_id":"ce4bhnh2rcd13ifvqgug","pricing_plan_id":"cebpf4jnsgd1na2vs0mg"},{"bike_id":"05cbfde1-bc8b-4494-8924-fea2291ddb1f","system_id":"levelo_inurba_marseille","lat":43.29574,"lon":5.36586,"is_reserved":false,"is_disabled":false,"rental_uris":{"android":"levelo://app?vid=05cbfde1-bc8b-4494-8924-fea2291ddb1f","ios":"levelo://app?vid=05cbfde1-bc8b-4494-8924-fea2291ddb1f"},"vehicle_type_id":"4","last_reported":1753776988,"current_range_meters":9600,"station_id":"","pricing_plan_id":"cebpf4jnsgd1na2vs0mg"},{"bike_id":"95dd70e4-879c-49e7-b318-a6c71b22a43e","system_id":"levelo_inurba_marseille","lat":43.2703,"lon":5.39295,"is_reserved":false,"is_disabled":false,"rental_uris":{"android":"levelo://app?vid=95dd70e4-879c-49e7-b318-a6c71b22a43e","ios":"levelo://app?vid=95dd70e4-879c-49e7-b318-a6c71b22a43e"},"vehicle_type_id":"4","last_reported":1753776988,"current_range_meters":9600,"station_id":"","pricing_plan_id":"cebpf4jnsgd1na2vs0mg"},{"bike_id":"65e3db07-f188-422b-b687-3d06cfe2bcf8","system_id":"levelo_inurba_marseille","lat":43.28044,"lon":5.35006,"is_reserved":false,"is_disabled":false,"rental_uris":{"android":"levelo://app?vid=65e3db07-f188-422b-b687-3d06cfe2bcf8","ios":"levelo://app?vid=65e3db07-f188-422b-b687-3d06cfe2bcf8"},"vehicle_type_id":"4","last_reported":1753776988,"current_range_meters":9600,"station_id":"","pricing_plan_id":"cebpf4jnsgd1na2vs0mg"},{"bike_id":"149fbe11-3bce-47a0-b584-c7c7bd6bb12f","system_id":"levelo_inurba_marseille","lat":43.21625,"lon":5.34433,"is_reserved":false,"is_disabled":false,"rental_uris":{"android":"levelo://app?vid=149fbe11-3bce-47a0-b584-c7c7bd6bb12f","ios":"levelo://app?vid=149fbe11-3bce-47a0-b584-c7c7bd6bb12f"},"vehicle_type_id":"4","last_reported":1753776988,"current_range_meters":9600,"station_id":"","pricing_plan_id":"cebpf4jnsgd1na2vs0mg"},{"bike_id":"2b542a2e-2a90-4b9a-8c07-73c51b53c4d1","system_id":"levelo_inurba_marseille","lat":43.29701,"lon":5.36603,"is_reserved":false,"is_disabled":false,"rental_uris":{"android":"levelo://app?vid=2b542a2e-2a90-4b9a-8c07-73c51b53c4d1","ios":"levelo://app?vid=2b542a2e-2a90-4b9a-8c07-73c51b53c4d1"},"vehicle_type_id":"4","last_reported":1753776988,"current_range_meters":9600,"station_id":"ce4bgn12rcd13ifvqbt0","pricing_plan_id":"cebpf4jnsgd1na2vs0mg"},{"bike_id":"209c73e6-1f69-4d13-9fed-77cb46eecd05","system_id":"levelo_inurba_marseille","lat":43.34681,"lon":5.38065,"is_reserved":false,"is_disabled":false,"rental_uris":{"android":"levelo://app?vid=209c73e6-1f69-4d13-9fed-77cb46eecd05","ios":"levelo://app?vid=209c73e6-1f69-4d13-9fed-77cb46eecd05"},"vehicle_type_id":"4","last_reported":1753776988,"current_range_meters":9600,"station_id":"","pricing_plan_id":"cebpf4jnsgd1na2vs0mg"},{"bike_id":"24e4fbdb-edb3-4f7d-8c37-f4ec34322a64","system_id":"levelo_inurba_marseille","lat":43.30896,"lon":5.37177,"is_reserved":false,"is_disabled":false,"rental_uris":{"android":"levelo://app?vid=24e4fbdb-edb3-4f7d-8c37-f4ec34322a64","ios":"levelo://app?vid=24e4fbdb-edb3-4f7d-8c37-f4ec34322a64"},"vehicle_type_id":"4","last_reported":1753776988,"current_range_meters":10000,"station_id":"ce4bguh2rcd13ifvqckg","pricing_plan_id":"cebpf4jnsgd1na2vs0mg"},{"bike_id":"a33dcfc5-165c-4c25-a7c4-59d469f16878","system_id":"levelo_inurba_marseille","lat":43.2417,"lon":5.36398,"is_reserved":false,"is_disabled":false,"rental_uris":{"android":"levelo://app?vid=a33dcfc5-165c-4c25-a7c4-59d469f16878","ios":"levelo://app?vid=a33dcfc5-165c-4c25-a7c4-59d469f16878"},"vehicle_type_id":"4","last_reported":1753776988,"current_range_meters":10000,"station_id":"cpo36qri1sfpv3e86is0","pricing_plan_id":"cebpf4jnsgd1na2vs0mg"},{"bike_id":"495f9f77-34aa-4678-bcaf-8a3a4d726e8d","system_id":"levelo_inurba_marseille","lat":43.28424,"lon":5.34985,"is_reserved":false,"is_disabled":false,"rental_uris":{"android":"levelo://app?vid=495f9f77-34aa-4678-bcaf-8a3a4d726e8d","ios":"levelo://app?vid=495f9f77-34aa-4678-bcaf-8a3a4d726e8d"},"vehicle_type_id":"4","last_reported":1753776988,"current_range_meters":10000,"station_id":"ce4bhbh2rcd13ifvqepg","pricing_plan_id":"cebpf4jnsgd1na2vs0mg"},{"bike_id":"b3edc236-81d0-4218-befe-4bfb747f7341","system_id":"levelo_inurba_marseille","lat":43.32542,"lon":5.41434,"is_reserved":false,"is_disabled":false,"rental_uris":{"android":"levelo://app?vid=b3edc236-81d0-4218-befe-4bfb747f7341","ios":"levelo://app?vid=b3edc236-81d0-4218-befe-4bfb747f7341"},"vehicle_type_id":"4","last_reported":1753776988,"current_range_meters":9600,"station_id":"ce4bhq12rcd13ifvqhhg","pricing_plan_id":"cebpf4jnsgd1na2vs0mg"},{"bike_id":"e35ad9d6-7fa9-489f-8172-987ea2248b22","system_id":"levelo_inurba_marseille","lat":43.24169,"lon":5.39727,"is_reserved":false,"is_disabled":false,"rental_uris":{"android":"levelo://app?vid=e35ad9d6-7fa9-489f-8172-987ea2248b22","ios":"levelo://app?vid=e35ad9d6-7fa9-489f-8172-987ea2248b22"},"vehicle_type_id":"4","last_reported":1753776988,"current_range_meters":10000,"station_id":"ce4bhn12rcd13ifvqgpg","pricing_plan_id":"cebpf4jnsgd1na2vs0mg"},{"bike_id":"3dd2b2f9-64bc-4f1c-ad06-386f2ab19894","system_id":"levelo_inurba_marseille","lat":43.29762,"lon":5.36428,"is_reserved":false,"is_disabled":false,"rental_uris":{"android":"levelo://app?vid=3dd2b2f9-64bc-4f1c-ad06-386f2ab19894","ios":"levelo://app?vid=3dd2b2f9-64bc-4f1c-ad06-386f2ab19894"},"vehicle_type_id":"4","last_reported":1753776988,"current_range_meters":10000,"station_id":"","pricing_plan_id":"cebpf4jnsgd1na2vs0mg"},{"bike_id":"b11f1456-4a1a-4e51-9dd4-b48933a25f68","system_id":"levelo_inurba_marseille","lat":43.25088,"lon":5.395273,"is_reserved":false,"is_disabled":false,"rental_uris":{"android":"levelo://app?vid=b11f1456-4a1a-4e51-9dd4-b48933a25f68","ios":"levelo://app?vid=b11f1456-4a1a-4e51-9dd4-b48933a25f68"},"vehicle_type_id":"4","last_reported":1753776988,"current_range_meters":10000,"station_id":"ce4bhm12rcd13ifvqgkg","pricing_plan_id":"cebpf4jnsgd1na2vs0mg"},{"bike_id":"aafba76e-3da3-4ebb-9332-0bac111897c0","system_id":"levelo_inurba_marseille","lat":43.22927,"lon":5.35376,"is_reserved":false,"is_disabled":false,"rental_uris":{"android":"levelo://app?vid=aafba76e-3da3-4ebb-9332-0bac111897c0","ios":"levelo://app?vid=aafba76e-3da3-4ebb-9332-0bac111897c0"},"vehicle_type_id":"4","last_reported":1753776988,"current_range_meters":10000,"station_id":"cpo3532slgdg3j2ikp40","pricing_plan_id":"cebpf4jnsgd1na2vs0mg"},{"bike_id":"0be35de7-1772-4ea3-bc5f-d2148e2213f8","system_id":"levelo_inurba_marseille","lat":43.24158,"lon":5.36398,"is_reserved":false,"is_disabled":false,"rental_uris":{"android":"levelo://app?vid=0be35de7-1772-4ea3-bc5f-d2148e2213f8","ios":"levelo://app?vid=0be35de7-1772-4ea3-bc5f-d2148e2213f8"},"vehicle_type_id":"4","last_reported":1753776988,"current_range_meters":10000,"station_id":"cpo36qri1sfpv3e86is0","pricing_plan_id":"cebpf4jnsgd1na2vs0mg"},{"bike_id":"f917d544-7e6b-4c83-ba1c-c35b4c3019e2","system_id":"levelo_inurba_marseille","lat":43.28004,"lon":5.38693,"is_reserved":false,"is_disabled":false,"rental_uris":{"android":"levelo://app?vid=f917d544-7e6b-4c83-ba1c-c35b4c3019e2","ios":"levelo://app?vid=f917d544-7e6b-4c83-ba1c-c35b4c3019e2"},"vehicle_type_id":"4","last_reported":1753776988,"current_range_meters":10800,"station_id":"ce4bhg12rcd13ifvqf80","pricing_plan_id":"cebpf4jnsgd1na2vs0mg"},{"bike_id":"4a3f6541-c9b0-45d8-ac3a-e7e76ed59bf5","system_id":"levelo_inurba_marseille","lat":43.246486,"lon":5.388901,"is_reserved":false,"is_disabled":false,"rental_uris":{"android":"levelo://app?vid=4a3f6541-c9b0-45d8-ac3a-e7e76ed59bf5","ios":"levelo://app?vid=4a3f6541-c9b0-45d8-ac3a-e7e76ed59bf5"},"vehicle_type_id":"4","last_reported":1753776988,"current_range_meters":10800,"station_id":"ce4bhg12rcd13ifvqf60","pricing_plan_id":"cebpf4jnsgd1na2vs0mg"},{"bike_id":"a46d98ad-2ec7-4e1f-848d-f81d8ba88191","system_id":"levelo_inurba_marseille","lat":43.32487,"lon":5.36581,"is_reserved":false,"is_disabled":false,"rental_uris":{"android":"levelo://app?vid=a46d98ad-2ec7-4e1f-848d-f81d8ba88191","ios":"levelo://app?vid=a46d98ad-2ec7-4e1f-848d-f81d8ba88191"},"vehicle_type_id":"4","last_reported":1753776988,"current_range_meters":10800,"station_id":"ce4bhs12rcd13ifvqhvg","pricing_plan_id":"cebpf4jnsgd1na2vs0mg"},{"bike_id":"ea7ec345-6e03-464f-93a0-a84c2b461724","system_id":"levelo_inurba_marseille","lat":43.28419,"lon":5.37522,"is_reserved":false,"is_disabled":false,"rental_uris":{"android":"levelo://app?vid=ea7ec345-6e03-464f-93a0-a84c2b461724","ios":"levelo://app?vid=ea7ec345-6e03-464f-93a0-a84c2b461724"},"vehicle_type_id":"4","last_reported":1753776988,"current_range_meters":10800,"station_id":"ce4bh412rcd13ifvqds0","pricing_plan_id":"cebpf4jnsgd1na2vs0mg"},{"bike_id":"0098a0c4-8e2e-4567-8ca9-22d084600675","system_id":"levelo_inurba_marseille","lat":43.28722,"lon":5.3794,"is_reserved":false,"is_disabled":false,"rental_uris":{"android":"levelo://app?vid=0098a0c4-8e2e-4567-8ca9-22d084600675","ios":"levelo://app?vid=0098a0c4-8e2e-4567-8ca9-22d084600675"},"vehicle_type_id":"4","last_reported":1753776988,"current_range_meters":10800,"station_id":"ce4bh9p2rcd13ifvqec0","pricing_plan_id":"cebpf4jnsgd1na2vs0mg"},{"bike_id":"c5d6c16c-667e-4c61-9e09-b5efae6e86bc","system_id":"levelo_inurba_marseille","lat":43.298884,"lon":5.436487,"is_reserved":false,"is_disabled":false,"rental_uris":{"android":"levelo://app?vid=c5d6c16c-667e-4c61-9e09-b5efae6e86bc","ios":"levelo://app?vid=c5d6c16c-667e-4c61-9e09-b5efae6e86bc"},"vehicle_type_id":"4","last_reported":1753776988,"current_range_meters":10800,"station_id":"ce4bhpp2rcd13ifvqhfg","pricing_plan_id":"cebpf4jnsgd1na2vs0mg"},{"bike_id":"2f0fe510-ad62-4509-94fd-c24ea111b24c","system_id":"levelo_inurba_marseille","lat":43.28484,"lon":5.35409,"is_reserved":false,"is_disabled":true,"rental_uris":{"android":"levelo://app?vid=2f0fe510-ad62-4509-94fd-c24ea111b24c","ios":"levelo://app?vid=2f0fe510-ad62-4509-94fd-c24ea111b24c"},"vehicle_type_id":"4","last_reported":1753776988,"current_range_meters":10800,"station_id":"","pricing_plan_id":"cebpf4jnsgd1na2vs0mg"},{"bike_id":"feb40379-0815-4a68-aadb-305942f11d04","system_id":"levelo_inurba_marseille","lat":43.24997,"lon":5.3894,"is_reserved":false,"is_disabled":false,"rental_uris":{"android":"levelo://app?vid=feb40379-0815-4a68-aadb-305942f11d04","ios":"levelo://app?vid=feb40379-0815-4a68-aadb-305942f11d04"},"vehicle_type_id":"4","last_reported":1753776988,"current_range_meters":10800,"station_id":"","pricing_plan_id":"cebpf4jnsgd1na2vs0mg"},{"bike_id":"e0ce0053-71c4-4b07-8b9e-379e7ce2bf22","system_id":"levelo_inurba_marseille","lat":43.302832,"lon":5.398026,"is_reserved":false,"is_disabled":false,"rental_uris":{"android":"levelo://app?vid=e0ce0053-71c4-4b07-8b9e-379e7ce2bf22","ios":"levelo://app?vid=e0ce0053-71c4-4b07-8b9e-379e7ce2bf22"},"vehicle_type_id":"4","last_reported":1753776988,"current_range_meters":10800,"station_id":"","pricing_plan_id":"cebpf4jnsgd1na2vs0mg"},{"bike_id":"773fd437-da0b-45d4-ac50-f8f90577242e","system_id":"levelo_inurba_marseille","lat":43.26696,"lon":5.38253,"is_reserved":false,"is_disabled":false,"rental_uris":{"android":"levelo://app?vid=773fd437-da0b-45d4-ac50-f8f90577242e","ios":"levelo://app?vid=773fd437-da0b-45d4-ac50-f8f90577242e"},"vehicle_type_id":"4","last_reported":1753776988,"current_range_meters":11200,"station_id":"ce4bhg92rcd13ifvqf90","pricing_plan_id":"cebpf4jnsgd1na2vs0mg"},{"bike_id":"c13ce413-660f-4ff8-9547-d17d0704485e","system_id":"levelo_inurba_marseille","lat":43.212283,"lon":5.350795,"is_reserved":false,"is_disabled":false,"rental_uris":{"android":"levelo://app?vid=c13ce413-660f-4ff8-9547-d17d0704485e","ios":"levelo://app?vid=c13ce413-660f-4ff8-9547-d17d0704485e"},"vehicle_type_id":"4","last_reported":1753776988,"current_range_meters":11200,"station_id":"","pricing_plan_id":"cebpf4jnsgd1na2vs0mg"},{"bike_id":"7dd1a394-ac3b-45ae-8f59-195d372bf63b","system_id":"levelo_inurba_marseille","lat":43.30073,"lon":5.380768,"is_reserved":false,"is_disabled":true,"rental_uris":{"android":"levelo://app?vid=7dd1a394-ac3b-45ae-8f59-195d372bf63b","ios":"levelo://app?vid=7dd1a394-ac3b-45ae-8f59-195d372bf63b"},"vehicle_type_id":"4","last_reported":1753776988,"current_range_meters":11200,"station_id":"","pricing_plan_id":"cebpf4jnsgd1na2vs0mg"},{"bike_id":"3c6d990b-d853-4774-9e68-ab11c54c28bf","system_id":"levelo_inurba_marseille","lat":43.28418,"lon":5.34988,"is_reserved":false,"is_disabled":false,"rental_uris":{"android":"levelo://app?vid=3c6d990b-d853-4774-9e68-ab11c54c28bf","ios":"levelo://app?vid=3c6d990b-d853-4774-9e68-ab11c54c28bf"},"vehicle_type_id":"4","last_reported":1753776988,"current_range_meters":11200,"station_id":"ce4bhbh2rcd13ifvqepg","pricing_plan_id":"cebpf4jnsgd1na2vs0mg"},{"bike_id":"52fa2f88-6678-4b0d-bdeb-77d5e9331688","system_id":"levelo_inurba_marseille","lat":43.21193,"lon":5.35074,"is_reserved":false,"is_disabled":false,"rental_uris":{"android":"levelo://app?vid=52fa2f88-6678-4b0d-bdeb-77d5e9331688","ios":"levelo://app?vid=52fa2f88-6678-4b0d-bdeb-77d5e9331688"},"vehicle_type_id":"4","last_reported":1753776988,"current_range_meters":11200,"station_id":"st_cvj6sg6p6f1abm77japg","pricing_plan_id":"cebpf4jnsgd1na2vs0mg"},{"bike_id":"2a3a9f20-00d1-4c95-a093-ba8e28724bc0","system_id":"levelo_inurba_marseille","lat":43.30661,"lon":5.37565,"is_reserved":false,"is_disabled":false,"rental_uris":{"android":"levelo://app?vid=2a3a9f20-00d1-4c95-a093-ba8e28724bc0","ios":"levelo://app?vid=2a3a9f20-00d1-4c95-a093-ba8e28724bc0"},"vehicle_type_id":"4","last_reported":1753776988,"current_range_meters":11200,"station_id":"","pricing_plan_id":"cebpf4jnsgd1na2vs0mg"},{"bike_id":"882bdff1-651a-41c1-9ab0-596f43205cf1","system_id":"levelo_inurba_marseille","lat":43.337444,"lon":5.374475,"is_reserved":false,"is_disabled":false,"rental_uris":{"android":"levelo://app?vid=882bdff1-651a-41c1-9ab0-596f43205cf1","ios":"levelo://app?vid=882bdff1-651a-41c1-9ab0-596f43205cf1"},"vehicle_type_id":"4","last_reported":1753776988,"current_range_meters":11600,"station_id":"ce4bgkp2rcd13ifvqbmg","pricing_plan_id":"cebpf4jnsgd1na2vs0mg"},{"bike_id":"f935bdfe-ce07-40e9-9f05-f13806b2bee8","system_id":"levelo_inurba_marseille","lat":43.22527,"lon":5.34769,"is_reserved":false,"is_disabled":false,"rental_uris":{"android":"levelo://app?vid=f935bdfe-ce07-40e9-9f05-f13806b2bee8","ios":"levelo://app?vid=f935bdfe-ce07-40e9-9f05-f13806b2bee8"},"vehicle_type_id":"4","last_reported":1753776988,"current_range_meters":11600,"station_id":"st_cvj5dfep6f1abm77gieg","pricing_plan_id":"cebpf4jnsgd1na2vs0mg"},{"bike_id":"32826f34-8228-4d4b-815c-cc490d99eb72","system_id":"levelo_inurba_marseille","lat":43.22495,"lon":5.34776,"is_reserved":false,"is_disabled":false,"rental_uris":{"android":"levelo://app?vid=32826f34-8228-4d4b-815c-cc490d99eb72","ios":"levelo://app?vid=32826f34-8228-4d4b-815c-cc490d99eb72"},"vehicle_type_id":"4","last_reported":1753776988,"current_range_meters":11600,"station_id":"st_cvj5dfep6f1abm77gieg","pricing_plan_id":"cebpf4jnsgd1na2vs0mg"},{"bike_id":"f297ecb0-f504-4ce2-a698-235b8f25b26b","system_id":"levelo_inurba_marseille","lat":43.24169,"lon":5.364018,"is_reserved":false,"is_disabled":false,"rental_uris":{"android":"levelo://app?vid=f297ecb0-f504-4ce2-a698-235b8f25b26b","ios":"levelo://app?vid=f297ecb0-f504-4ce2-a698-235b8f25b26b"},"vehicle_type_id":"4","last_reported":1753776988,"current_range_meters":11600,"station_id":"cpo36qri1sfpv3e86is0","pricing_plan_id":"cebpf4jnsgd1na2vs0mg"},{"bike_id":"2a8f7284-7cdc-4ce0-8ca0-a0ff147fa6be","system_id":"levelo_inurba_marseille","lat":43.25502,"lon":5.37649,"is_reserved":false,"is_disabled":false,"rental_uris":{"android":"levelo://app?vid=2a8f7284-7cdc-4ce0-8ca0-a0ff147fa6be","ios":"levelo://app?vid=2a8f7284-7cdc-4ce0-8ca0-a0ff147fa6be"},"vehicle_type_id":"4","last_reported":1753776988,"current_range_meters":11600,"station_id":"ce4bhh12rcd13ifvqff0","pricing_plan_id":"cebpf4jnsgd1na2vs0mg"},{"bike_id":"20a40cc7-6b1e-49b3-8066-0bb241f80c44","system_id":"levelo_inurba_marseille","lat":43.310806,"lon":5.385324,"is_reserved":false,"is_disabled":false,"rental_uris":{"android":"levelo://app?vid=20a40cc7-6b1e-49b3-8066-0bb241f80c44","ios":"levelo://app?vid=20a40cc7-6b1e-49b3-8066-0bb241f80c44"},"vehicle_type_id":"4","last_reported":1753776988,"current_range_meters":11600,"station_id":"","pricing_plan_id":"cebpf4jnsgd1na2vs0mg"},{"bike_id":"34765211-2ebc-4022-87cc-18acc3f5bbb4","system_id":"levelo_inurba_marseille","lat":43.29633,"lon":5.40623,"is_reserved":false,"is_disabled":false,"rental_uris":{"android":"levelo://app?vid=34765211-2ebc-4022-87cc-18acc3f5bbb4","ios":"levelo://app?vid=34765211-2ebc-4022-87cc-18acc3f5bbb4"},"vehicle_type_id":"4","last_reported":1753776988,"current_range_meters":12000,"station_id":"ce4bh0h2rcd13ifvqd60","pricing_plan_id":"cebpf4jnsgd1na2vs0mg"},{"bike_id":"9d81c361-5b7f-44dc-b0f1-1f6fccafd051","system_id":"levelo_inurba_marseille","lat":43.27988,"lon":5.41667,"is_reserved":false,"is_disabled":false,"rental_uris":{"android":"levelo://app?vid=9d81c361-5b7f-44dc-b0f1-1f6fccafd051","ios":"levelo://app?vid=9d81c361-5b7f-44dc-b0f1-1f6fccafd051"},"vehicle_type_id":"4","last_reported":1753776988,"current_range_meters":12000,"station_id":"ce4bho12rcd13ifvqh1g","pricing_plan_id":"cebpf4jnsgd1na2vs0mg"},{"bike_id":"d4b0442d-37e3-4887-8827-87b59f4e9086","system_id":"levelo_inurba_marseille","lat":43.2977,"lon":5.38108,"is_reserved":false,"is_disabled":false,"rental_uris":{"android":"levelo://app?vid=d4b0442d-37e3-4887-8827-87b59f4e9086","ios":"levelo://app?vid=d4b0442d-37e3-4887-8827-87b59f4e9086"},"vehicle_type_id":"4","last_reported":1753776988,"current_range_meters":12000,"station_id":"","pricing_plan_id":"cebpf4jnsgd1na2vs0mg"},{"bike_id":"0e941e64-67ac-4f61-ab09-392151091f63","system_id":"levelo_inurba_marseille","lat":43.29744,"lon":5.37128,"is_reserved":false,"is_disabled":false,"rental_uris":{"android":"levelo://app?vid=0e941e64-67ac-4f61-ab09-392151091f63","ios":"levelo://app?vid=0e941e64-67ac-4f61-ab09-392151091f63"},"vehicle_type_id":"4","last_reported":1753776988,"current_range_meters":12000,"station_id":"","pricing_plan_id":"cebpf4jnsgd1na2vs0mg"},{"bike_id":"72e03784-0704-41e0-b1f1-3eacc06d2c0c","system_id":"levelo_inurba_marseille","lat":43.308818,"lon":5.371816,"is_reserved":false,"is_disabled":false,"rental_uris":{"android":"levelo://app?vid=72e03784-0704-41e0-b1f1-3eacc06d2c0c","ios":"levelo://app?vid=72e03784-0704-41e0-b1f1-3eacc06d2c0c"},"vehicle_type_id":"4","last_reported":1753776988,"current_range_meters":12000,"station_id":"ce4bguh2rcd13ifvqckg","pricing_plan_id":"cebpf4jnsgd1na2vs0mg"},{"bike_id":"da4d0b39-d20e-4fb8-9414-fb1a899238cd","system_id":"levelo_inurba_marseille","lat":43.29037,"lon":5.39932,"is_reserved":false,"is_disabled":false,"rental_uris":{"android":"levelo://app?vid=da4d0b39-d20e-4fb8-9414-fb1a899238cd","ios":"levelo://app?vid=da4d0b39-d20e-4fb8-9414-fb1a899238cd"},"vehicle_type_id":"4","last_reported":1753776988,"current_range_meters":12000,"station_id":"ce4bh392rcd13ifvqdm0","pricing_plan_id":"cebpf4jnsgd1na2vs0mg"},{"bike_id":"7d0bc366-7472-4dec-a2f3-a1ab117a465c","system_id":"levelo_inurba_marseille","lat":43.32281,"lon":5.3828,"is_reserved":false,"is_disabled":false,"rental_uris":{"android":"levelo://app?vid=7d0bc366-7472-4dec-a2f3-a1ab117a465c","ios":"levelo://app?vid=7d0bc366-7472-4dec-a2f3-a1ab117a465c"},"vehicle_type_id":"4","last_reported":1753776988,"current_range_meters":12400,"station_id":"ce4bhr12rcd13ifvqhqg","pricing_plan_id":"cebpf4jnsgd1na2vs0mg"},{"bike_id":"0938e41e-f961-425a-8c0f-36baf4215fb9","system_id":"levelo_inurba_marseille","lat":43.27083,"lon":5.42279,"is_reserved":false,"is_disabled":false,"rental_uris":{"android":"levelo://app?vid=0938e41e-f961-425a-8c0f-36baf4215fb9","ios":"levelo://app?vid=0938e41e-f961-425a-8c0f-36baf4215fb9"},"vehicle_type_id":"4","last_reported":1753776988,"current_range_meters":12000,"station_id":"ce4bhk92rcd13ifvqgb0","pricing_plan_id":"cebpf4jnsgd1na2vs0mg"},{"bike_id":"1d599ca9-96fe-4939-8af9-7954ed58ad38","system_id":"levelo_inurba_marseille","lat":43.235473,"lon":5.360201,"is_reserved":false,"is_disabled":false,"rental_uris":{"android":"levelo://app?vid=1d599ca9-96fe-4939-8af9-7954ed58ad38","ios":"levelo://app?vid=1d599ca9-96fe-4939-8af9-7954ed58ad38"},"vehicle_type_id":"4","last_reported":1753776988,"current_range_meters":12400,"station_id":"","pricing_plan_id":"cebpf4jnsgd1na2vs0mg"},{"bike_id":"3bf27eea-4501-4f3a-979c-1296bd075512","system_id":"levelo_inurba_marseille","lat":43.30419,"lon":5.41283,"is_reserved":false,"is_disabled":false,"rental_uris":{"android":"levelo://app?vid=3bf27eea-4501-4f3a-979c-1296bd075512","ios":"levelo://app?vid=3bf27eea-4501-4f3a-979c-1296bd075512"},"vehicle_type_id":"4","last_reported":1753776988,"current_range_meters":12400,"station_id":"ce4bhop2rcd13ifvqh8g","pricing_plan_id":"cebpf4jnsgd1na2vs0mg"},{"bike_id":"01a8e307-f9de-4eb5-a307-55559ca42c36","system_id":"levelo_inurba_marseille","lat":43.22498,"lon":5.3478,"is_reserved":false,"is_disabled":false,"rental_uris":{"android":"levelo://app?vid=01a8e307-f9de-4eb5-a307-55559ca42c36","ios":"levelo://app?vid=01a8e307-f9de-4eb5-a307-55559ca42c36"},"vehicle_type_id":"4","last_reported":1753776988,"current_range_meters":12400,"station_id":"st_cvj5dfep6f1abm77gieg","pricing_plan_id":"cebpf4jnsgd1na2vs0mg"},{"bike_id":"3475c007-8386-4d5c-8658-083ffe164ed3","system_id":"levelo_inurba_marseille","lat":43.30181,"lon":5.36601,"is_reserved":false,"is_disabled":false,"rental_uris":{"android":"levelo://app?vid=3475c007-8386-4d5c-8658-083ffe164ed3","ios":"levelo://app?vid=3475c007-8386-4d5c-8658-083ffe164ed3"},"vehicle_type_id":"4","last_reported":1753776988,"current_range_meters":12800,"station_id":"ce4bgrh2rcd13ifvqc8g","pricing_plan_id":"cebpf4jnsgd1na2vs0mg"},{"bike_id":"4f0d56f5-e54c-465b-a15e-32b747ab0912","system_id":"levelo_inurba_marseille","lat":43.31735,"lon":5.4046,"is_reserved":false,"is_disabled":true,"rental_uris":{"android":"levelo://app?vid=4f0d56f5-e54c-465b-a15e-32b747ab0912","ios":"levelo://app?vid=4f0d56f5-e54c-465b-a15e-32b747ab0912"},"vehicle_type_id":"4","last_reported":1753776988,"current_range_meters":12800,"station_id":"","pricing_plan_id":"cebpf4jnsgd1na2vs0mg"},{"bike_id":"dfbb3af1-a9dc-49a2-b647-2d8ea8063896","system_id":"levelo_inurba_marseille","lat":43.2418,"lon":5.39722,"is_reserved":false,"is_disabled":false,"rental_uris":{"android":"levelo://app?vid=dfbb3af1-a9dc-49a2-b647-2d8ea8063896","ios":"levelo://app?vid=dfbb3af1-a9dc-49a2-b647-2d8ea8063896"},"vehicle_type_id":"4","last_reported":1753776988,"current_range_meters":12800,"station_id":"ce4bhn12rcd13ifvqgpg","pricing_plan_id":"cebpf4jnsgd1na2vs0mg"},{"bike_id":"d74a53f2-a358-4ccb-8d9f-ff313ea2ec34","system_id":"levelo_inurba_marseille","lat":43.21191,"lon":5.35075,"is_reserved":false,"is_disabled":false,"rental_uris":{"android":"levelo://app?vid=d74a53f2-a358-4ccb-8d9f-ff313ea2ec34","ios":"levelo://app?vid=d74a53f2-a358-4ccb-8d9f-ff313ea2ec34"},"vehicle_type_id":"4","last_reported":1753776988,"current_range_meters":12800,"station_id":"st_cvj6sg6p6f1abm77japg","pricing_plan_id":"cebpf4jnsgd1na2vs0mg"},{"bike_id":"cd42ba41-c1cf-4478-893a-21a9292f479d","system_id":"levelo_inurba_marseille","lat":43.32482,"lon":5.36564,"is_reserved":false,"is_disabled":false,"rental_uris":{"android":"levelo://app?vid=cd42ba41-c1cf-4478-893a-21a9292f479d","ios":"levelo://app?vid=cd42ba41-c1cf-4478-893a-21a9292f479d"},"vehicle_type_id":"4","last_reported":1753776988,"current_range_meters":13600,"station_id":"ce4bhs12rcd13ifvqhvg","pricing_plan_id":"cebpf4jnsgd1na2vs0mg"},{"bike_id":"905576ef-66ce-426e-9600-566828c3b671","system_id":"levelo_inurba_marseille","lat":43.21745,"lon":5.34638,"is_reserved":false,"is_disabled":true,"rental_uris":{"android":"levelo://app?vid=905576ef-66ce-426e-9600-566828c3b671","ios":"levelo://app?vid=905576ef-66ce-426e-9600-566828c3b671"},"vehicle_type_id":"4","last_reported":1753776988,"current_range_meters":13600,"station_id":"","pricing_plan_id":"cebpf4jnsgd1na2vs0mg"},{"bike_id":"3a5e5af6-6972-463d-8f49-b18d912970fd","system_id":"levelo_inurba_marseille","lat":43.32341,"lon":5.40614,"is_reserved":false,"is_disabled":false,"rental_uris":{"android":"levelo://app?vid=3a5e5af6-6972-463d-8f49-b18d912970fd","ios":"levelo://app?vid=3a5e5af6-6972-463d-8f49-b18d912970fd"},"vehicle_type_id":"4","last_reported":1753776988,"current_range_meters":13600,"station_id":"ce4bhq92rcd13ifvqhjg","pricing_plan_id":"cebpf4jnsgd1na2vs0mg"},{"bike_id":"8f346c07-df4f-459b-ac59-d111eb9f0783","system_id":"levelo_inurba_marseille","lat":43.22516,"lon":5.34762,"is_reserved":false,"is_disabled":false,"rental_uris":{"android":"levelo://app?vid=8f346c07-df4f-459b-ac59-d111eb9f0783","ios":"levelo://app?vid=8f346c07-df4f-459b-ac59-d111eb9f0783"},"vehicle_type_id":"4","last_reported":1753776988,"current_range_meters":13600,"station_id":"st_cvj5dfep6f1abm77gieg","pricing_plan_id":"cebpf4jnsgd1na2vs0mg"},{"bike_id":"ca925fc2-2f2d-4856-ab96-1d6d55f0e4dc","system_id":"levelo_inurba_marseille","lat":43.28423,"lon":5.34984,"is_reserved":false,"is_disabled":false,"rental_uris":{"android":"levelo://app?vid=ca925fc2-2f2d-4856-ab96-1d6d55f0e4dc","ios":"levelo://app?vid=ca925fc2-2f2d-4856-ab96-1d6d55f0e4dc"},"vehicle_type_id":"4","last_reported":1753776988,"current_range_meters":13600,"station_id":"ce4bhbh2rcd13ifvqepg","pricing_plan_id":"cebpf4jnsgd1na2vs0mg"},{"bike_id":"9f3014ed-5645-414b-825d-495616334a15","system_id":"levelo_inurba_marseille","lat":43.307289,"lon":5.424343,"is_reserved":false,"is_disabled":false,"rental_uris":{"android":"levelo://app?vid=9f3014ed-5645-414b-825d-495616334a15","ios":"levelo://app?vid=9f3014ed-5645-414b-825d-495616334a15"},"vehicle_type_id":"4","last_reported":1753776988,"current_range_meters":13600,"station_id":"st_cvj6ca6bvosntc0bfgr0","pricing_plan_id":"cebpf4jnsgd1na2vs0mg"},{"bike_id":"9159586d-1d5e-4053-b47a-77df79f69e93","system_id":"levelo_inurba_marseille","lat":43.29574,"lon":5.37517,"is_reserved":false,"is_disabled":false,"rental_uris":{"android":"levelo://app?vid=9159586d-1d5e-4053-b47a-77df79f69e93","ios":"levelo://app?vid=9159586d-1d5e-4053-b47a-77df79f69e93"},"vehicle_type_id":"4","last_reported":1753776988,"current_range_meters":14000,"station_id":"ce4bgh92rcd13ifvqb50","pricing_plan_id":"cebpf4jnsgd1na2vs0mg"},{"bike_id":"600a8c26-0dd2-46f7-81b3-c0d809595f07","system_id":"levelo_inurba_marseille","lat":43.2656,"lon":5.37286,"is_reserved":false,"is_disabled":false,"rental_uris":{"android":"levelo://app?vid=600a8c26-0dd2-46f7-81b3-c0d809595f07","ios":"levelo://app?vid=600a8c26-0dd2-46f7-81b3-c0d809595f07"},"vehicle_type_id":"4","last_reported":1753776988,"current_range_meters":14000,"station_id":"ce4bhg12rcd13ifvqf70","pricing_plan_id":"cebpf4jnsgd1na2vs0mg"},{"bike_id":"8601db36-297c-4602-a874-7663f897881b","system_id":"levelo_inurba_marseille","lat":43.29075,"lon":5.37179,"is_reserved":false,"is_disabled":false,"rental_uris":{"android":"levelo://app?vid=8601db36-297c-4602-a874-7663f897881b","ios":"levelo://app?vid=8601db36-297c-4602-a874-7663f897881b"},"vehicle_type_id":"4","last_reported":1753776988,"current_range_meters":13600,"station_id":"ce4bh5p2rcd13ifvqe4g","pricing_plan_id":"cebpf4jnsgd1na2vs0mg"},{"bike_id":"82641ba6-8d3f-4c37-98fc-43a2732b11ed","system_id":"levelo_inurba_marseille","lat":43.30891,"lon":5.36849,"is_reserved":false,"is_disabled":false,"rental_uris":{"android":"levelo://app?vid=82641ba6-8d3f-4c37-98fc-43a2732b11ed","ios":"levelo://app?vid=82641ba6-8d3f-4c37-98fc-43a2732b11ed"},"vehicle_type_id":"4","last_reported":1753776988,"current_range_meters":14000,"station_id":"ce4bgn92rcd13ifvqbvg","pricing_plan_id":"cebpf4jnsgd1na2vs0mg"},{"bike_id":"fc610ef3-163c-4f1a-b59c-e6e6df538d41","system_id":"levelo_inurba_marseille","lat":43.30911,"lon":5.36852,"is_reserved":false,"is_disabled":false,"rental_uris":{"android":"levelo://app?vid=fc610ef3-163c-4f1a-b59c-e6e6df538d41","ios":"levelo://app?vid=fc610ef3-163c-4f1a-b59c-e6e6df538d41"},"vehicle_type_id":"4","last_reported":1753776988,"current_range_meters":14000,"station_id":"ce4bgn92rcd13ifvqbvg","pricing_plan_id":"cebpf4jnsgd1na2vs0mg"},{"bike_id":"a0757552-cef1-4156-a44e-da8e0ad06a62","system_id":"levelo_inurba_marseille","lat":43.22935,"lon":5.353691,"is_reserved":false,"is_disabled":false,"rental_uris":{"android":"levelo://app?vid=a0757552-cef1-4156-a44e-da8e0ad06a62","ios":"levelo://app?vid=a0757552-cef1-4156-a44e-da8e0ad06a62"},"vehicle_type_id":"4","last_reported":1753776988,"current_range_meters":14000,"station_id":"cpo3532slgdg3j2ikp40","pricing_plan_id":"cebpf4jnsgd1na2vs0mg"},{"bike_id":"49491b9e-bc95-484f-b8e1-371ec4848922","system_id":"levelo_inurba_marseille","lat":43.22926,"lon":5.35384,"is_reserved":false,"is_disabled":false,"rental_uris":{"android":"levelo://app?vid=49491b9e-bc95-484f-b8e1-371ec4848922","ios":"levelo://app?vid=49491b9e-bc95-484f-b8e1-371ec4848922"},"vehicle_type_id":"4","last_reported":1753776988,"current_range_meters":14000,"station_id":"cpo3532slgdg3j2ikp40","pricing_plan_id":"cebpf4jnsgd1na2vs0mg"},{"bike_id":"f125679c-9b2c-4901-983c-b1c931846749","system_id":"levelo_inurba_marseille","lat":43.28477,"lon":5.38407,"is_reserved":false,"is_disabled":false,"rental_uris":{"android":"levelo://app?vid=f125679c-9b2c-4901-983c-b1c931846749","ios":"levelo://app?vid=f125679c-9b2c-4901-983c-b1c931846749"},"vehicle_type_id":"4","last_reported":1753776988,"current_range_meters":14000,"station_id":"ce4bh512rcd13ifvqe3g","pricing_plan_id":"cebpf4jnsgd1na2vs0mg"},{"bike_id":"4b03818f-38c0-4721-8299-a39ad77b6df1","system_id":"levelo_inurba_marseille","lat":43.32494,"lon":5.36567,"is_reserved":false,"is_disabled":false,"rental_uris":{"android":"levelo://app?vid=4b03818f-38c0-4721-8299-a39ad77b6df1","ios":"levelo://app?vid=4b03818f-38c0-4721-8299-a39ad77b6df1"},"vehicle_type_id":"4","last_reported":1753776988,"current_range_meters":14000,"station_id":"ce4bhs12rcd13ifvqhvg","pricing_plan_id":"cebpf4jnsgd1na2vs0mg"},{"bike_id":"745b7009-2571-499a-912a-f5b66e4533be","system_id":"levelo_inurba_marseille","lat":43.29032,"lon":5.39968,"is_reserved":false,"is_disabled":false,"rental_uris":{"android":"levelo://app?vid=745b7009-2571-499a-912a-f5b66e4533be","ios":"levelo://app?vid=745b7009-2571-499a-912a-f5b66e4533be"},"vehicle_type_id":"4","last_reported":1753776988,"current_range_meters":14000,"station_id":"ce4bh392rcd13ifvqdm0","pricing_plan_id":"cebpf4jnsgd1na2vs0mg"},{"bike_id":"7cf62c04-91f9-4e0a-bdd9-c677d355fb11","system_id":"levelo_inurba_marseille","lat":43.292473,"lon":5.382669,"is_reserved":false,"is_disabled":false,"rental_uris":{"android":"levelo://app?vid=7cf62c04-91f9-4e0a-bdd9-c677d355fb11","ios":"levelo://app?vid=7cf62c04-91f9-4e0a-bdd9-c677d355fb11"},"vehicle_type_id":"4","last_reported":1753776988,"current_range_meters":14000,"station_id":"","pricing_plan_id":"cebpf4jnsgd1na2vs0mg"},{"bike_id":"1f69a2ce-d3bc-4cfe-8944-249c7cf1916c","system_id":"levelo_inurba_marseille","lat":43.24404,"lon":5.37041,"is_reserved":false,"is_disabled":false,"rental_uris":{"android":"levelo://app?vid=1f69a2ce-d3bc-4cfe-8944-249c7cf1916c","ios":"levelo://app?vid=1f69a2ce-d3bc-4cfe-8944-249c7cf1916c"},"vehicle_type_id":"4","last_reported":1753776988,"current_range_meters":14400,"station_id":"ce4bhhh2rcd13ifvqfk0","pricing_plan_id":"cebpf4jnsgd1na2vs0mg"},{"bike_id":"edeebce6-e3cf-4eac-ac64-0399354a083c","system_id":"levelo_inurba_marseille","lat":43.309243,"lon":5.371862,"is_reserved":false,"is_disabled":false,"rental_uris":{"android":"levelo://app?vid=edeebce6-e3cf-4eac-ac64-0399354a083c","ios":"levelo://app?vid=edeebce6-e3cf-4eac-ac64-0399354a083c"},"vehicle_type_id":"4","last_reported":1753776988,"current_range_meters":14400,"station_id":"ce4bguh2rcd13ifvqckg","pricing_plan_id":"cebpf4jnsgd1na2vs0mg"},{"bike_id":"731cd626-0d26-4660-8190-f10f9fc1a3ff","system_id":"levelo_inurba_marseille","lat":43.290344,"lon":5.399555,"is_reserved":false,"is_disabled":false,"rental_uris":{"android":"levelo://app?vid=731cd626-0d26-4660-8190-f10f9fc1a3ff","ios":"levelo://app?vid=731cd626-0d26-4660-8190-f10f9fc1a3ff"},"vehicle_type_id":"4","last_reported":1753776988,"current_range_meters":14400,"station_id":"ce4bh392rcd13ifvqdm0","pricing_plan_id":"cebpf4jnsgd1na2vs0mg"},{"bike_id":"62f5da51-1009-4002-b725-5765ccaaf3ec","system_id":"levelo_inurba_marseille","lat":43.29422,"lon":5.43244,"is_reserved":false,"is_disabled":false,"rental_uris":{"android":"levelo://app?vid=62f5da51-1009-4002-b725-5765ccaaf3ec","ios":"levelo://app?vid=62f5da51-1009-4002-b725-5765ccaaf3ec"},"vehicle_type_id":"4","last_reported":1753776988,"current_range_meters":14400,"station_id":"","pricing_plan_id":"cebpf4jnsgd1na2vs0mg"},{"bike_id":"3d9f2061-7fb9-4387-9262-8d2451911c2b","system_id":"levelo_inurba_marseille","lat":43.22932,"lon":5.35377,"is_reserved":false,"is_disabled":false,"rental_uris":{"android":"levelo://app?vid=3d9f2061-7fb9-4387-9262-8d2451911c2b","ios":"levelo://app?vid=3d9f2061-7fb9-4387-9262-8d2451911c2b"},"vehicle_type_id":"4","last_reported":1753776988,"current_range_meters":14400,"station_id":"cpo3532slgdg3j2ikp40","pricing_plan_id":"cebpf4jnsgd1na2vs0mg"},{"bike_id":"24cc0dbd-b08f-4de8-af60-49777c0880d1","system_id":"levelo_inurba_marseille","lat":43.29586,"lon":5.37498,"is_reserved":false,"is_disabled":false,"rental_uris":{"android":"levelo://app?vid=24cc0dbd-b08f-4de8-af60-49777c0880d1","ios":"levelo://app?vid=24cc0dbd-b08f-4de8-af60-49777c0880d1"},"vehicle_type_id":"4","last_reported":1753776988,"current_range_meters":14800,"station_id":"ce4bgh92rcd13ifvqb50","pricing_plan_id":"cebpf4jnsgd1na2vs0mg"},{"bike_id":"0e7a2def-5fa1-44b0-a321-6e6e48a8f6cd","system_id":"levelo_inurba_marseille","lat":43.29044,"lon":5.40121,"is_reserved":false,"is_disabled":false,"rental_uris":{"android":"levelo://app?vid=0e7a2def-5fa1-44b0-a321-6e6e48a8f6cd","ios":"levelo://app?vid=0e7a2def-5fa1-44b0-a321-6e6e48a8f6cd"},"vehicle_type_id":"4","last_reported":1753776988,"current_range_meters":14800,"station_id":"","pricing_plan_id":"cebpf4jnsgd1na2vs0mg"},{"bike_id":"8600117f-2868-4874-a87b-44da40a3eccd","system_id":"levelo_inurba_marseille","lat":43.22931,"lon":5.35381,"is_reserved":false,"is_disabled":false,"rental_uris":{"android":"levelo://app?vid=8600117f-2868-4874-a87b-44da40a3eccd","ios":"levelo://app?vid=8600117f-2868-4874-a87b-44da40a3eccd"},"vehicle_type_id":"4","last_reported":1753776988,"current_range_meters":14800,"station_id":"cpo3532slgdg3j2ikp40","pricing_plan_id":"cebpf4jnsgd1na2vs0mg"},{"bike_id":"62e54455-0cad-476e-836b-6efe5dee6c34","system_id":"levelo_inurba_marseille","lat":43.22504,"lon":5.34781,"is_reserved":false,"is_disabled":false,"rental_uris":{"android":"levelo://app?vid=62e54455-0cad-476e-836b-6efe5dee6c34","ios":"levelo://app?vid=62e54455-0cad-476e-836b-6efe5dee6c34"},"vehicle_type_id":"4","last_reported":1753776988,"current_range_meters":14800,"station_id":"st_cvj5dfep6f1abm77gieg","pricing_plan_id":"cebpf4jnsgd1na2vs0mg"},{"bike_id":"e137dc03-26cf-440c-b3ea-1ea522645199","system_id":"levelo_inurba_marseille","lat":43.280815,"lon":5.396626,"is_reserved":false,"is_disabled":false,"rental_uris":{"android":"levelo://app?vid=e137dc03-26cf-440c-b3ea-1ea522645199","ios":"levelo://app?vid=e137dc03-26cf-440c-b3ea-1ea522645199"},"vehicle_type_id":"4","last_reported":1753776988,"current_range_meters":14800,"station_id":"","pricing_plan_id":"cebpf4jnsgd1na2vs0mg"},{"bike_id":"c11f4789-7d37-4722-9529-2b6d43a6d56c","system_id":"levelo_inurba_marseille","lat":43.2815,"lon":5.42636,"is_reserved":false,"is_disabled":true,"rental_uris":{"android":"levelo://app?vid=c11f4789-7d37-4722-9529-2b6d43a6d56c","ios":"levelo://app?vid=c11f4789-7d37-4722-9529-2b6d43a6d56c"},"vehicle_type_id":"4","last_reported":1753776988,"current_range_meters":14800,"station_id":"ce4bhnh2rcd13ifvqgug","pricing_plan_id":"cebpf4jnsgd1na2vs0mg"},{"bike_id":"4d199580-883e-4a55-b503-2f2d48122bc5","system_id":"levelo_inurba_marseille","lat":43.2594,"lon":5.40903,"is_reserved":false,"is_disabled":false,"rental_uris":{"android":"levelo://app?vid=4d199580-883e-4a55-b503-2f2d48122bc5","ios":"levelo://app?vid=4d199580-883e-4a55-b503-2f2d48122bc5"},"vehicle_type_id":"4","last_reported":1753776988,"current_range_meters":15200,"station_id":"ce4bhm92rcd13ifvqglg","pricing_plan_id":"cebpf4jnsgd1na2vs0mg"},{"bike_id":"57927d23-89e7-4ddd-a64f-277b3ded0af3","system_id":"levelo_inurba_marseille","lat":43.240624,"lon":5.377328,"is_reserved":false,"is_disabled":true,"rental_uris":{"android":"levelo://app?vid=57927d23-89e7-4ddd-a64f-277b3ded0af3","ios":"levelo://app?vid=57927d23-89e7-4ddd-a64f-277b3ded0af3"},"vehicle_type_id":"4","last_reported":1753776988,"current_range_meters":15200,"station_id":"ce4bhnp2rcd13ifvqgvg","pricing_plan_id":"cebpf4jnsgd1na2vs0mg"},{"bike_id":"722fada6-ef78-4599-96e1-3dce2b596022","system_id":"levelo_inurba_marseille","lat":43.26196,"lon":5.37445,"is_reserved":false,"is_disabled":false,"rental_uris":{"android":"levelo://app?vid=722fada6-ef78-4599-96e1-3dce2b596022","ios":"levelo://app?vid=722fada6-ef78-4599-96e1-3dce2b596022"},"vehicle_type_id":"4","last_reported":1753776988,"current_range_meters":15200,"station_id":"ce4bhgp2rcd13ifvqfc0","pricing_plan_id":"cebpf4jnsgd1na2vs0mg"},{"bike_id":"5dfabdc2-b806-44aa-94b4-47dba92b8204","system_id":"levelo_inurba_marseille","lat":43.229324,"lon":5.353738,"is_reserved":false,"is_disabled":false,"rental_uris":{"android":"levelo://app?vid=5dfabdc2-b806-44aa-94b4-47dba92b8204","ios":"levelo://app?vid=5dfabdc2-b806-44aa-94b4-47dba92b8204"},"vehicle_type_id":"4","last_reported":1753776988,"current_range_meters":15200,"station_id":"cpo3532slgdg3j2ikp40","pricing_plan_id":"cebpf4jnsgd1na2vs0mg"},{"bike_id":"947cf9dd-0905-42a3-aafb-8e1c05b7ea7a","system_id":"levelo_inurba_marseille","lat":43.30718,"lon":5.38425,"is_reserved":false,"is_disabled":false,"rental_uris":{"android":"levelo://app?vid=947cf9dd-0905-42a3-aafb-8e1c05b7ea7a","ios":"levelo://app?vid=947cf9dd-0905-42a3-aafb-8e1c05b7ea7a"},"vehicle_type_id":"4","last_reported":1753776988,"current_range_meters":15200,"station_id":"","pricing_plan_id":"cebpf4jnsgd1na2vs0mg"},{"bike_id":"4ffc9d79-d56a-482d-b7d9-a5892348f435","system_id":"levelo_inurba_marseille","lat":43.28422,"lon":5.34999,"is_reserved":false,"is_disabled":false,"rental_uris":{"android":"levelo://app?vid=4ffc9d79-d56a-482d-b7d9-a5892348f435","ios":"levelo://app?vid=4ffc9d79-d56a-482d-b7d9-a5892348f435"},"vehicle_type_id":"4","last_reported":1753776988,"current_range_meters":16000,"station_id":"ce4bhbh2rcd13ifvqepg","pricing_plan_id":"cebpf4jnsgd1na2vs0mg"},{"bike_id":"75fe3001-aecd-4a19-95b4-5e4b93442c16","system_id":"levelo_inurba_marseille","lat":43.255,"lon":5.37647,"is_reserved":false,"is_disabled":false,"rental_uris":{"android":"levelo://app?vid=75fe3001-aecd-4a19-95b4-5e4b93442c16","ios":"levelo://app?vid=75fe3001-aecd-4a19-95b4-5e4b93442c16"},"vehicle_type_id":"4","last_reported":1753776988,"current_range_meters":16000,"station_id":"ce4bhh12rcd13ifvqff0","pricing_plan_id":"cebpf4jnsgd1na2vs0mg"},{"bike_id":"6417f94c-7833-42a3-8770-bee520a8551e","system_id":"levelo_inurba_marseille","lat":43.25,"lon":5.38926,"is_reserved":false,"is_disabled":false,"rental_uris":{"android":"levelo://app?vid=6417f94c-7833-42a3-8770-bee520a8551e","ios":"levelo://app?vid=6417f94c-7833-42a3-8770-bee520a8551e"},"vehicle_type_id":"4","last_reported":1753776988,"current_range_meters":16000,"station_id":"ce4bhgp2rcd13ifvqfd0","pricing_plan_id":"cebpf4jnsgd1na2vs0mg"},{"bike_id":"6f7ccb69-bf92-486d-92b3-1d25f0d6e17f","system_id":"levelo_inurba_marseille","lat":43.26221,"lon":5.3744,"is_reserved":false,"is_disabled":false,"rental_uris":{"android":"levelo://app?vid=6f7ccb69-bf92-486d-92b3-1d25f0d6e17f","ios":"levelo://app?vid=6f7ccb69-bf92-486d-92b3-1d25f0d6e17f"},"vehicle_type_id":"4","last_reported":1753776988,"current_range_meters":16000,"station_id":"ce4bhgp2rcd13ifvqfc0","pricing_plan_id":"cebpf4jnsgd1na2vs0mg"},{"bike_id":"75aa074a-8804-4fec-88d9-260a8abf5ca1","system_id":"levelo_inurba_marseille","lat":43.265562,"lon":5.372781,"is_reserved":false,"is_disabled":false,"rental_uris":{"android":"levelo://app?vid=75aa074a-8804-4fec-88d9-260a8abf5ca1","ios":"levelo://app?vid=75aa074a-8804-4fec-88d9-260a8abf5ca1"},"vehicle_type_id":"4","last_reported":1753776988,"current_range_meters":16000,"station_id":"ce4bhg12rcd13ifvqf70","pricing_plan_id":"cebpf4jnsgd1na2vs0mg"},{"bike_id":"e65acc05-153b-4942-8607-11c4ec4f142a","system_id":"levelo_inurba_marseille","lat":43.30903,"lon":5.36845,"is_reserved":false,"is_disabled":false,"rental_uris":{"android":"levelo://app?vid=e65acc05-153b-4942-8607-11c4ec4f142a","ios":"levelo://app?vid=e65acc05-153b-4942-8607-11c4ec4f142a"},"vehicle_type_id":"4","last_reported":1753776988,"current_range_meters":16000,"station_id":"ce4bgn92rcd13ifvqbvg","pricing_plan_id":"cebpf4jnsgd1na2vs0mg"},{"bike_id":"5d5e0ed8-53a8-4dd4-81bf-ff5624b38868","system_id":"levelo_inurba_marseille","lat":43.2419,"lon":5.39774,"is_reserved":false,"is_disabled":false,"rental_uris":{"android":"levelo://app?vid=5d5e0ed8-53a8-4dd4-81bf-ff5624b38868","ios":"levelo://app?vid=5d5e0ed8-53a8-4dd4-81bf-ff5624b38868"},"vehicle_type_id":"4","last_reported":1753776988,"current_range_meters":16000,"station_id":"ce4bhn12rcd13ifvqgpg","pricing_plan_id":"cebpf4jnsgd1na2vs0mg"},{"bike_id":"0284b153-ed18-4aff-854a-398618bd67fc","system_id":"levelo_inurba_marseille","lat":43.28442,"lon":5.34983,"is_reserved":false,"is_disabled":false,"rental_uris":{"android":"levelo://app?vid=0284b153-ed18-4aff-854a-398618bd67fc","ios":"levelo://app?vid=0284b153-ed18-4aff-854a-398618bd67fc"},"vehicle_type_id":"4","last_reported":1753776988,"current_range_meters":16000,"station_id":"ce4bhbh2rcd13ifvqepg","pricing_plan_id":"cebpf4jnsgd1na2vs0mg"},{"bike_id":"938d8840-48a4-43f6-9563-48a70be0f1d1","system_id":"levelo_inurba_marseille","lat":43.24181,"lon":5.39729,"is_reserved":false,"is_disabled":false,"rental_uris":{"android":"levelo://app?vid=938d8840-48a4-43f6-9563-48a70be0f1d1","ios":"levelo://app?vid=938d8840-48a4-43f6-9563-48a70be0f1d1"},"vehicle_type_id":"4","last_reported":1753776988,"current_range_meters":16000,"station_id":"ce4bhn12rcd13ifvqgpg","pricing_plan_id":"cebpf4jnsgd1na2vs0mg"},{"bike_id":"90d7df2a-251b-43b9-9339-5d650e173049","system_id":"levelo_inurba_marseille","lat":43.2293,"lon":5.35378,"is_reserved":false,"is_disabled":false,"rental_uris":{"android":"levelo://app?vid=90d7df2a-251b-43b9-9339-5d650e173049","ios":"levelo://app?vid=90d7df2a-251b-43b9-9339-5d650e173049"},"vehicle_type_id":"4","last_reported":1753776988,"current_range_meters":16000,"station_id":"cpo3532slgdg3j2ikp40","pricing_plan_id":"cebpf4jnsgd1na2vs0mg"},{"bike_id":"9e921b8a-c099-4f06-a946-ae1745185848","system_id":"levelo_inurba_marseille","lat":43.290327,"lon":5.399504,"is_reserved":false,"is_disabled":false,"rental_uris":{"android":"levelo://app?vid=9e921b8a-c099-4f06-a946-ae1745185848","ios":"levelo://app?vid=9e921b8a-c099-4f06-a946-ae1745185848"},"vehicle_type_id":"4","last_reported":1753776988,"current_range_meters":16400,"station_id":"ce4bh392rcd13ifvqdm0","pricing_plan_id":"cebpf4jnsgd1na2vs0mg"},{"bike_id":"a911c590-3fc3-41d8-a717-3e33faf888d9","system_id":"levelo_inurba_marseille","lat":43.25091,"lon":5.3952,"is_reserved":false,"is_disabled":false,"rental_uris":{"android":"levelo://app?vid=a911c590-3fc3-41d8-a717-3e33faf888d9","ios":"levelo://app?vid=a911c590-3fc3-41d8-a717-3e33faf888d9"},"vehicle_type_id":"4","last_reported":1753776988,"current_range_meters":16400,"station_id":"ce4bhm12rcd13ifvqgkg","pricing_plan_id":"cebpf4jnsgd1na2vs0mg"},{"bike_id":"df59e2f2-ebcb-4b5d-884c-2c743fa57461","system_id":"levelo_inurba_marseille","lat":43.28612,"lon":5.35105,"is_reserved":false,"is_disabled":false,"rental_uris":{"android":"levelo://app?vid=df59e2f2-ebcb-4b5d-884c-2c743fa57461","ios":"levelo://app?vid=df59e2f2-ebcb-4b5d-884c-2c743fa57461"},"vehicle_type_id":"4","last_reported":1753776988,"current_range_meters":16400,"station_id":"ce4bhch2rcd13ifvqeug","pricing_plan_id":"cebpf4jnsgd1na2vs0mg"},{"bike_id":"57c25787-5337-4fe9-8a83-3851365c86d4","system_id":"levelo_inurba_marseille","lat":43.28609,"lon":5.35106,"is_reserved":false,"is_disabled":false,"rental_uris":{"android":"levelo://app?vid=57c25787-5337-4fe9-8a83-3851365c86d4","ios":"levelo://app?vid=57c25787-5337-4fe9-8a83-3851365c86d4"},"vehicle_type_id":"4","last_reported":1753776988,"current_range_meters":16400,"station_id":"ce4bhch2rcd13ifvqeug","pricing_plan_id":"cebpf4jnsgd1na2vs0mg"},{"bike_id":"6899e2e9-11d4-4744-ba20-38a84388c2bc","system_id":"levelo_inurba_marseille","lat":43.3248,"lon":5.36562,"is_reserved":false,"is_disabled":false,"rental_uris":{"android":"levelo://app?vid=6899e2e9-11d4-4744-ba20-38a84388c2bc","ios":"levelo://app?vid=6899e2e9-11d4-4744-ba20-38a84388c2bc"},"vehicle_type_id":"4","last_reported":1753776988,"current_range_meters":16400,"station_id":"ce4bhs12rcd13ifvqhvg","pricing_plan_id":"cebpf4jnsgd1na2vs0mg"},{"bike_id":"9a6f8140-f860-4a66-b6dc-5db52176e0cf","system_id":"levelo_inurba_marseille","lat":43.23192,"lon":5.35566,"is_reserved":false,"is_disabled":false,"rental_uris":{"android":"levelo://app?vid=9a6f8140-f860-4a66-b6dc-5db52176e0cf","ios":"levelo://app?vid=9a6f8140-f860-4a66-b6dc-5db52176e0cf"},"vehicle_type_id":"4","last_reported":1753776988,"current_range_meters":16400,"station_id":"ce4bhu92rcd13ifvqi70","pricing_plan_id":"cebpf4jnsgd1na2vs0mg"},{"bike_id":"b7234136-bf62-4ef1-9964-a9c43529d354","system_id":"levelo_inurba_marseille","lat":43.31817,"lon":5.39441,"is_reserved":false,"is_disabled":false,"rental_uris":{"android":"levelo://app?vid=b7234136-bf62-4ef1-9964-a9c43529d354","ios":"levelo://app?vid=b7234136-bf62-4ef1-9964-a9c43529d354"},"vehicle_type_id":"4","last_reported":1753776988,"current_range_meters":16400,"station_id":"","pricing_plan_id":"cebpf4jnsgd1na2vs0mg"},{"bike_id":"d52bd79a-479d-43b4-ad86-786143dffe7c","system_id":"levelo_inurba_marseille","lat":43.31087,"lon":5.42418,"is_reserved":false,"is_disabled":false,"rental_uris":{"android":"levelo://app?vid=d52bd79a-479d-43b4-ad86-786143dffe7c","ios":"levelo://app?vid=d52bd79a-479d-43b4-ad86-786143dffe7c"},"vehicle_type_id":"4","last_reported":1753776988,"current_range_meters":16400,"station_id":"ce4bhp92rcd13ifvqhag","pricing_plan_id":"cebpf4jnsgd1na2vs0mg"},{"bike_id":"d8e6094c-0de7-412e-bab8-3969f4a35524","system_id":"levelo_inurba_marseille","lat":43.29847,"lon":5.37574,"is_reserved":false,"is_disabled":false,"rental_uris":{"android":"levelo://app?vid=d8e6094c-0de7-412e-bab8-3969f4a35524","ios":"levelo://app?vid=d8e6094c-0de7-412e-bab8-3969f4a35524"},"vehicle_type_id":"4","last_reported":1753776988,"current_range_meters":16400,"station_id":"","pricing_plan_id":"cebpf4jnsgd1na2vs0mg"},{"bike_id":"a5d21f19-a2f8-4c79-9341-84f97b97beb0","system_id":"levelo_inurba_marseille","lat":43.33398,"lon":5.40069,"is_reserved":false,"is_disabled":false,"rental_uris":{"android":"levelo://app?vid=a5d21f19-a2f8-4c79-9341-84f97b97beb0","ios":"levelo://app?vid=a5d21f19-a2f8-4c79-9341-84f97b97beb0"},"vehicle_type_id":"4","last_reported":1753776988,"current_range_meters":16400,"station_id":"","pricing_plan_id":"cebpf4jnsgd1na2vs0mg"},{"bike_id":"6a572c23-a95b-4f4a-8a53-33876eff2ac0","system_id":"levelo_inurba_marseille","lat":43.27188,"lon":5.41001,"is_reserved":false,"is_disabled":false,"rental_uris":{"android":"levelo://app?vid=6a572c23-a95b-4f4a-8a53-33876eff2ac0","ios":"levelo://app?vid=6a572c23-a95b-4f4a-8a53-33876eff2ac0"},"vehicle_type_id":"4","last_reported":1753776988,"current_range_meters":16400,"station_id":"ce4bhl12rcd13ifvqgf0","pricing_plan_id":"cebpf4jnsgd1na2vs0mg"},{"bike_id":"ab9c577b-9cc3-4d9b-9e71-2ee231744295","system_id":"levelo_inurba_marseille","lat":43.281046,"lon":5.383281,"is_reserved":false,"is_disabled":false,"rental_uris":{"android":"levelo://app?vid=ab9c577b-9cc3-4d9b-9e71-2ee231744295","ios":"levelo://app?vid=ab9c577b-9cc3-4d9b-9e71-2ee231744295"},"vehicle_type_id":"4","last_reported":1753776988,"current_range_meters":16800,"station_id":"","pricing_plan_id":"cebpf4jnsgd1na2vs0mg"},{"bike_id":"e37eb161-fcf7-4b1c-b6d0-bf936484f52c","system_id":"levelo_inurba_marseille","lat":43.26806,"lon":5.40262,"is_reserved":false,"is_disabled":false,"rental_uris":{"android":"levelo://app?vid=e37eb161-fcf7-4b1c-b6d0-bf936484f52c","ios":"levelo://app?vid=e37eb161-fcf7-4b1c-b6d0-bf936484f52c"},"vehicle_type_id":"4","last_reported":1753776988,"current_range_meters":16800,"station_id":"ce501612rcd8frsf0b60","pricing_plan_id":"cebpf4jnsgd1na2vs0mg"},{"bike_id":"56c63526-b05f-46bb-b69e-a692e7843dc2","system_id":"levelo_inurba_marseille","lat":43.30591,"lon":5.37211,"is_reserved":false,"is_disabled":false,"rental_uris":{"android":"levelo://app?vid=56c63526-b05f-46bb-b69e-a692e7843dc2","ios":"levelo://app?vid=56c63526-b05f-46bb-b69e-a692e7843dc2"},"vehicle_type_id":"4","last_reported":1753776988,"current_range_meters":16400,"station_id":"ce4bgqh2rcd13ifvqc4g","pricing_plan_id":"cebpf4jnsgd1na2vs0mg"},{"bike_id":"bc7eac7e-266e-401e-9609-2683c9aee0c6","system_id":"levelo_inurba_marseille","lat":43.280802,"lon":5.396354,"is_reserved":false,"is_disabled":false,"rental_uris":{"android":"levelo://app?vid=bc7eac7e-266e-401e-9609-2683c9aee0c6","ios":"levelo://app?vid=bc7eac7e-266e-401e-9609-2683c9aee0c6"},"vehicle_type_id":"4","last_reported":1753776988,"current_range_meters":16800,"station_id":"ce4bho12rcd13ifvqh2g","pricing_plan_id":"cebpf4jnsgd1na2vs0mg"},{"bike_id":"d64fe16a-1622-4d52-863e-3c3d23aff017","system_id":"levelo_inurba_marseille","lat":43.29032,"lon":5.40086,"is_reserved":false,"is_disabled":false,"rental_uris":{"android":"levelo://app?vid=d64fe16a-1622-4d52-863e-3c3d23aff017","ios":"levelo://app?vid=d64fe16a-1622-4d52-863e-3c3d23aff017"},"vehicle_type_id":"4","last_reported":1753776988,"current_range_meters":16800,"station_id":"","pricing_plan_id":"cebpf4jnsgd1na2vs0mg"},{"bike_id":"f80360ba-0fe8-4b25-a649-77e551b6ca41","system_id":"levelo_inurba_marseille","lat":43.26213,"lon":5.37453,"is_reserved":false,"is_disabled":false,"rental_uris":{"android":"levelo://app?vid=f80360ba-0fe8-4b25-a649-77e551b6ca41","ios":"levelo://app?vid=f80360ba-0fe8-4b25-a649-77e551b6ca41"},"vehicle_type_id":"4","last_reported":1753776988,"current_range_meters":16800,"station_id":"ce4bhgp2rcd13ifvqfc0","pricing_plan_id":"cebpf4jnsgd1na2vs0mg"},{"bike_id":"f22609a1-876b-4f44-af96-72e7c4943b69","system_id":"levelo_inurba_marseille","lat":43.24183,"lon":5.39723,"is_reserved":false,"is_disabled":false,"rental_uris":{"android":"levelo://app?vid=f22609a1-876b-4f44-af96-72e7c4943b69","ios":"levelo://app?vid=f22609a1-876b-4f44-af96-72e7c4943b69"},"vehicle_type_id":"4","last_reported":1753776988,"current_range_meters":16800,"station_id":"ce4bhn12rcd13ifvqgpg","pricing_plan_id":"cebpf4jnsgd1na2vs0mg"},{"bike_id":"61e28e73-1aa6-4796-bba1-3b86863ea4fa","system_id":"levelo_inurba_marseille","lat":43.23962,"lon":5.36627,"is_reserved":false,"is_disabled":false,"rental_uris":{"android":"levelo://app?vid=61e28e73-1aa6-4796-bba1-3b86863ea4fa","ios":"levelo://app?vid=61e28e73-1aa6-4796-bba1-3b86863ea4fa"},"vehicle_type_id":"4","last_reported":1753776988,"current_range_meters":16400,"station_id":"ce4bhi12rcd13ifvqfp0","pricing_plan_id":"cebpf4jnsgd1na2vs0mg"},{"bike_id":"ef65f066-de96-432a-a3bf-b1b3ad0e62a1","system_id":"levelo_inurba_marseille","lat":43.32095,"lon":5.36799,"is_reserved":false,"is_disabled":false,"rental_uris":{"android":"levelo://app?vid=ef65f066-de96-432a-a3bf-b1b3ad0e62a1","ios":"levelo://app?vid=ef65f066-de96-432a-a3bf-b1b3ad0e62a1"},"vehicle_type_id":"4","last_reported":1753776988,"current_range_meters":16800,"station_id":"ce4bhrh2rcd13ifvqhug","pricing_plan_id":"cebpf4jnsgd1na2vs0mg"},{"bike_id":"6688b234-e2ab-4042-9518-5f2fcd353a74","system_id":"levelo_inurba_marseille","lat":43.30532,"lon":5.36715,"is_reserved":false,"is_disabled":false,"rental_uris":{"android":"levelo://app?vid=6688b234-e2ab-4042-9518-5f2fcd353a74","ios":"levelo://app?vid=6688b234-e2ab-4042-9518-5f2fcd353a74"},"vehicle_type_id":"4","last_reported":1753776988,"current_range_meters":16800,"station_id":"ce4bgrp2rcd13ifvqc9g","pricing_plan_id":"cebpf4jnsgd1na2vs0mg"},{"bike_id":"853312e1-e4e3-40e7-8039-f2d3f7ac7474","system_id":"levelo_inurba_marseille","lat":43.24983,"lon":5.38927,"is_reserved":false,"is_disabled":false,"rental_uris":{"android":"levelo://app?vid=853312e1-e4e3-40e7-8039-f2d3f7ac7474","ios":"levelo://app?vid=853312e1-e4e3-40e7-8039-f2d3f7ac7474"},"vehicle_type_id":"4","last_reported":1753776988,"current_range_meters":16800,"station_id":"ce4bhgp2rcd13ifvqfd0","pricing_plan_id":"cebpf4jnsgd1na2vs0mg"},{"bike_id":"af74ab65-e306-4d0e-ab5e-461b144ffe6a","system_id":"levelo_inurba_marseille","lat":43.29615,"lon":5.37561,"is_reserved":false,"is_disabled":false,"rental_uris":{"android":"levelo://app?vid=af74ab65-e306-4d0e-ab5e-461b144ffe6a","ios":"levelo://app?vid=af74ab65-e306-4d0e-ab5e-461b144ffe6a"},"vehicle_type_id":"4","last_reported":1753776988,"current_range_meters":16800,"station_id":"","pricing_plan_id":"cebpf4jnsgd1na2vs0mg"},{"bike_id":"6ad44a24-4533-4da0-9fd0-e52d1925d207","system_id":"levelo_inurba_marseille","lat":43.22934,"lon":5.353806,"is_reserved":false,"is_disabled":false,"rental_uris":{"android":"levelo://app?vid=6ad44a24-4533-4da0-9fd0-e52d1925d207","ios":"levelo://app?vid=6ad44a24-4533-4da0-9fd0-e52d1925d207"},"vehicle_type_id":"4","last_reported":1753776988,"current_range_meters":17200,"station_id":"cpo3532slgdg3j2ikp40","pricing_plan_id":"cebpf4jnsgd1na2vs0mg"},{"bike_id":"35c04ed3-3f32-4bf9-8a1e-9f2898086490","system_id":"levelo_inurba_marseille","lat":43.33778,"lon":5.37435,"is_reserved":false,"is_disabled":false,"rental_uris":{"android":"levelo://app?vid=35c04ed3-3f32-4bf9-8a1e-9f2898086490","ios":"levelo://app?vid=35c04ed3-3f32-4bf9-8a1e-9f2898086490"},"vehicle_type_id":"4","last_reported":1753776988,"current_range_meters":17200,"station_id":"","pricing_plan_id":"cebpf4jnsgd1na2vs0mg"},{"bike_id":"96f2817b-2168-4f43-87e5-f90384c5b505","system_id":"levelo_inurba_marseille","lat":43.231893,"lon":5.355623,"is_reserved":false,"is_disabled":false,"rental_uris":{"android":"levelo://app?vid=96f2817b-2168-4f43-87e5-f90384c5b505","ios":"levelo://app?vid=96f2817b-2168-4f43-87e5-f90384c5b505"},"vehicle_type_id":"4","last_reported":1753776988,"current_range_meters":17200,"station_id":"ce4bhu92rcd13ifvqi70","pricing_plan_id":"cebpf4jnsgd1na2vs0mg"},{"bike_id":"3890866e-14a6-4b7d-939c-2b1449234ab5","system_id":"levelo_inurba_marseille","lat":43.25939,"lon":5.40904,"is_reserved":false,"is_disabled":false,"rental_uris":{"android":"levelo://app?vid=3890866e-14a6-4b7d-939c-2b1449234ab5","ios":"levelo://app?vid=3890866e-14a6-4b7d-939c-2b1449234ab5"},"vehicle_type_id":"4","last_reported":1753776988,"current_range_meters":17200,"station_id":"ce4bhm92rcd13ifvqglg","pricing_plan_id":"cebpf4jnsgd1na2vs0mg"},{"bike_id":"4bb17272-8ce1-44e8-9f93-ebd9d4a2e4b5","system_id":"levelo_inurba_marseille","lat":43.24179,"lon":5.39722,"is_reserved":false,"is_disabled":false,"rental_uris":{"android":"levelo://app?vid=4bb17272-8ce1-44e8-9f93-ebd9d4a2e4b5","ios":"levelo://app?vid=4bb17272-8ce1-44e8-9f93-ebd9d4a2e4b5"},"vehicle_type_id":"4","last_reported":1753776988,"current_range_meters":17200,"station_id":"ce4bhn12rcd13ifvqgpg","pricing_plan_id":"cebpf4jnsgd1na2vs0mg"},{"bike_id":"3e632e67-e785-475b-93e1-b0a668624c02","system_id":"levelo_inurba_marseille","lat":43.28148,"lon":5.42632,"is_reserved":false,"is_disabled":false,"rental_uris":{"android":"levelo://app?vid=3e632e67-e785-475b-93e1-b0a668624c02","ios":"levelo://app?vid=3e632e67-e785-475b-93e1-b0a668624c02"},"vehicle_type_id":"4","last_reported":1753776988,"current_range_meters":17200,"station_id":"ce4bhnh2rcd13ifvqgug","pricing_plan_id":"cebpf4jnsgd1na2vs0mg"},{"bike_id":"8f48cadd-2a70-4d38-8d08-52547126cdf0","system_id":"levelo_inurba_marseille","lat":43.284113,"lon":5.350084,"is_reserved":false,"is_disabled":false,"rental_uris":{"android":"levelo://app?vid=8f48cadd-2a70-4d38-8d08-52547126cdf0","ios":"levelo://app?vid=8f48cadd-2a70-4d38-8d08-52547126cdf0"},"vehicle_type_id":"4","last_reported":1753776988,"current_range_meters":17200,"station_id":"ce4bhbh2rcd13ifvqepg","pricing_plan_id":"cebpf4jnsgd1na2vs0mg"},{"bike_id":"fde58576-9414-46ba-8efc-bd1983f1cdb2","system_id":"levelo_inurba_marseille","lat":43.24395,"lon":5.37055,"is_reserved":false,"is_disabled":false,"rental_uris":{"android":"levelo://app?vid=fde58576-9414-46ba-8efc-bd1983f1cdb2","ios":"levelo://app?vid=fde58576-9414-46ba-8efc-bd1983f1cdb2"},"vehicle_type_id":"4","last_reported":1753776988,"current_range_meters":17200,"station_id":"ce4bhhh2rcd13ifvqfk0","pricing_plan_id":"cebpf4jnsgd1na2vs0mg"},{"bike_id":"9ec8faa6-a535-4fad-aa79-6cc1d20d11a0","system_id":"levelo_inurba_marseille","lat":43.33724,"lon":5.39193,"is_reserved":false,"is_disabled":false,"rental_uris":{"android":"levelo://app?vid=9ec8faa6-a535-4fad-aa79-6cc1d20d11a0","ios":"levelo://app?vid=9ec8faa6-a535-4fad-aa79-6cc1d20d11a0"},"vehicle_type_id":"4","last_reported":1753776988,"current_range_meters":17600,"station_id":"ce4bhr92rcd13ifvqhsg","pricing_plan_id":"cebpf4jnsgd1na2vs0mg"},{"bike_id":"b48f5dd0-6dba-4454-bab2-8fe0e77c0439","system_id":"levelo_inurba_marseille","lat":43.241634,"lon":5.363965,"is_reserved":false,"is_disabled":false,"rental_uris":{"android":"levelo://app?vid=b48f5dd0-6dba-4454-bab2-8fe0e77c0439","ios":"levelo://app?vid=b48f5dd0-6dba-4454-bab2-8fe0e77c0439"},"vehicle_type_id":"4","last_reported":1753776988,"current_range_meters":17600,"station_id":"cpo36qri1sfpv3e86is0","pricing_plan_id":"cebpf4jnsgd1na2vs0mg"},{"bike_id":"d080a54c-0a1a-4b23-b7f1-2609dc23077e","system_id":"levelo_inurba_marseille","lat":43.287109,"lon":5.37937,"is_reserved":false,"is_disabled":false,"rental_uris":{"android":"levelo://app?vid=d080a54c-0a1a-4b23-b7f1-2609dc23077e","ios":"levelo://app?vid=d080a54c-0a1a-4b23-b7f1-2609dc23077e"},"vehicle_type_id":"4","last_reported":1753776988,"current_range_meters":17600,"station_id":"ce4bh9p2rcd13ifvqec0","pricing_plan_id":"cebpf4jnsgd1na2vs0mg"},{"bike_id":"d14e8988-3160-4c41-b666-5114b1fc50ea","system_id":"levelo_inurba_marseille","lat":43.290372,"lon":5.399874,"is_reserved":false,"is_disabled":false,"rental_uris":{"android":"levelo://app?vid=d14e8988-3160-4c41-b666-5114b1fc50ea","ios":"levelo://app?vid=d14e8988-3160-4c41-b666-5114b1fc50ea"},"vehicle_type_id":"4","last_reported":1753776988,"current_range_meters":17600,"station_id":"ce4bh392rcd13ifvqdm0","pricing_plan_id":"cebpf4jnsgd1na2vs0mg"},{"bike_id":"863b2e2b-1f2d-4c94-b7fc-5e3cf1d176ec","system_id":"levelo_inurba_marseille","lat":43.321107,"lon":5.36783,"is_reserved":false,"is_disabled":false,"rental_uris":{"android":"levelo://app?vid=863b2e2b-1f2d-4c94-b7fc-5e3cf1d176ec","ios":"levelo://app?vid=863b2e2b-1f2d-4c94-b7fc-5e3cf1d176ec"},"vehicle_type_id":"4","last_reported":1753776988,"current_range_meters":17600,"station_id":"ce4bhrh2rcd13ifvqhug","pricing_plan_id":"cebpf4jnsgd1na2vs0mg"},{"bike_id":"65128901-820a-4659-b3ee-e2b5bd719a50","system_id":"levelo_inurba_marseille","lat":43.24391,"lon":5.37059,"is_reserved":false,"is_disabled":false,"rental_uris":{"android":"levelo://app?vid=65128901-820a-4659-b3ee-e2b5bd719a50","ios":"levelo://app?vid=65128901-820a-4659-b3ee-e2b5bd719a50"},"vehicle_type_id":"4","last_reported":1753776988,"current_range_meters":17600,"station_id":"ce4bhhh2rcd13ifvqfk0","pricing_plan_id":"cebpf4jnsgd1na2vs0mg"},{"bike_id":"583fe4cd-2e74-4e07-9efb-40c9db83ffb6","system_id":"levelo_inurba_marseille","lat":43.22509,"lon":5.34777,"is_reserved":false,"is_disabled":false,"rental_uris":{"android":"levelo://app?vid=583fe4cd-2e74-4e07-9efb-40c9db83ffb6","ios":"levelo://app?vid=583fe4cd-2e74-4e07-9efb-40c9db83ffb6"},"vehicle_type_id":"4","last_reported":1753776988,"current_range_meters":17600,"station_id":"st_cvj5dfep6f1abm77gieg","pricing_plan_id":"cebpf4jnsgd1na2vs0mg"},{"bike_id":"b4c74b11-a67e-40a3-9e0c-b42217416a86","system_id":"levelo_inurba_marseille","lat":43.26683,"lon":5.38271,"is_reserved":false,"is_disabled":false,"rental_uris":{"android":"levelo://app?vid=b4c74b11-a67e-40a3-9e0c-b42217416a86","ios":"levelo://app?vid=b4c74b11-a67e-40a3-9e0c-b42217416a86"},"vehicle_type_id":"4","last_reported":1753776988,"current_range_meters":18000,"station_id":"ce4bhg92rcd13ifvqf90","pricing_plan_id":"cebpf4jnsgd1na2vs0mg"},{"bike_id":"c955bc82-f8e4-4ebb-86a7-104c0532602d","system_id":"levelo_inurba_marseille","lat":43.271746,"lon":5.409908,"is_reserved":false,"is_disabled":false,"rental_uris":{"android":"levelo://app?vid=c955bc82-f8e4-4ebb-86a7-104c0532602d","ios":"levelo://app?vid=c955bc82-f8e4-4ebb-86a7-104c0532602d"},"vehicle_type_id":"4","last_reported":1753776988,"current_range_meters":18000,"station_id":"ce4bhl12rcd13ifvqgf0","pricing_plan_id":"cebpf4jnsgd1na2vs0mg"},{"bike_id":"135ab1ea-fc9a-4785-9240-6bfa3adf7c7c","system_id":"levelo_inurba_marseille","lat":43.32356,"lon":5.36761,"is_reserved":false,"is_disabled":false,"rental_uris":{"android":"levelo://app?vid=135ab1ea-fc9a-4785-9240-6bfa3adf7c7c","ios":"levelo://app?vid=135ab1ea-fc9a-4785-9240-6bfa3adf7c7c"},"vehicle_type_id":"4","last_reported":1753776988,"current_range_meters":18000,"station_id":"ce4bhsh2rcd13ifvqi2g","pricing_plan_id":"cebpf4jnsgd1na2vs0mg"},{"bike_id":"b0995025-cd63-43f6-9d3e-02211401b9de","system_id":"levelo_inurba_marseille","lat":43.29972,"lon":5.38493,"is_reserved":false,"is_disabled":false,"rental_uris":{"android":"levelo://app?vid=b0995025-cd63-43f6-9d3e-02211401b9de","ios":"levelo://app?vid=b0995025-cd63-43f6-9d3e-02211401b9de"},"vehicle_type_id":"4","last_reported":1753776988,"current_range_meters":18000,"station_id":"ce4bgj92rcd13ifvqbd0","pricing_plan_id":"cebpf4jnsgd1na2vs0mg"},{"bike_id":"64d55015-af70-4bce-9f99-aaa8cb162c53","system_id":"levelo_inurba_marseille","lat":43.32482,"lon":5.36573,"is_reserved":false,"is_disabled":false,"rental_uris":{"android":"levelo://app?vid=64d55015-af70-4bce-9f99-aaa8cb162c53","ios":"levelo://app?vid=64d55015-af70-4bce-9f99-aaa8cb162c53"},"vehicle_type_id":"4","last_reported":1753776988,"current_range_meters":18000,"station_id":"ce4bhs12rcd13ifvqhvg","pricing_plan_id":"cebpf4jnsgd1na2vs0mg"},{"bike_id":"4259e739-1a09-4782-9244-9cdcddbe2009","system_id":"levelo_inurba_marseille","lat":43.29279,"lon":5.40112,"is_reserved":false,"is_disabled":false,"rental_uris":{"android":"levelo://app?vid=4259e739-1a09-4782-9244-9cdcddbe2009","ios":"levelo://app?vid=4259e739-1a09-4782-9244-9cdcddbe2009"},"vehicle_type_id":"4","last_reported":1753776988,"current_range_meters":18000,"station_id":"ce4bh312rcd13ifvqdk0","pricing_plan_id":"cebpf4jnsgd1na2vs0mg"},{"bike_id":"ae160175-06a8-4ec4-8cd4-b0c682909b29","system_id":"levelo_inurba_marseille","lat":43.286171,"lon":5.350994,"is_reserved":false,"is_disabled":false,"rental_uris":{"android":"levelo://app?vid=ae160175-06a8-4ec4-8cd4-b0c682909b29","ios":"levelo://app?vid=ae160175-06a8-4ec4-8cd4-b0c682909b29"},"vehicle_type_id":"4","last_reported":1753776988,"current_range_meters":18000,"station_id":"ce4bhch2rcd13ifvqeug","pricing_plan_id":"cebpf4jnsgd1na2vs0mg"},{"bike_id":"3128f700-234d-40b6-8ad0-a6c4db1dae79","system_id":"levelo_inurba_marseille","lat":43.2407,"lon":5.37767,"is_reserved":false,"is_disabled":false,"rental_uris":{"android":"levelo://app?vid=3128f700-234d-40b6-8ad0-a6c4db1dae79","ios":"levelo://app?vid=3128f700-234d-40b6-8ad0-a6c4db1dae79"},"vehicle_type_id":"4","last_reported":1753776988,"current_range_meters":18000,"station_id":"ce4bhnp2rcd13ifvqgvg","pricing_plan_id":"cebpf4jnsgd1na2vs0mg"},{"bike_id":"b8758a9f-3d73-4e7b-a206-55ca21fb4865","system_id":"levelo_inurba_marseille","lat":43.28966,"lon":5.37829,"is_reserved":false,"is_disabled":false,"rental_uris":{"android":"levelo://app?vid=b8758a9f-3d73-4e7b-a206-55ca21fb4865","ios":"levelo://app?vid=b8758a9f-3d73-4e7b-a206-55ca21fb4865"},"vehicle_type_id":"4","last_reported":1753776988,"current_range_meters":18000,"station_id":"ce4bh9p2rcd13ifvqed0","pricing_plan_id":"cebpf4jnsgd1na2vs0mg"},{"bike_id":"a6a46ae2-d764-44ee-baf2-a76e49bd9084","system_id":"levelo_inurba_marseille","lat":43.269827,"lon":5.402953,"is_reserved":false,"is_disabled":false,"rental_uris":{"android":"levelo://app?vid=a6a46ae2-d764-44ee-baf2-a76e49bd9084","ios":"levelo://app?vid=a6a46ae2-d764-44ee-baf2-a76e49bd9084"},"vehicle_type_id":"4","last_reported":1753776988,"current_range_meters":18000,"station_id":"cjm6bp8fraef2m0cb0m0","pricing_plan_id":"cebpf4jnsgd1na2vs0mg"},{"bike_id":"00de3457-bb26-4f86-be97-d29604933a4d","system_id":"levelo_inurba_marseille","lat":43.28638,"lon":5.37181,"is_reserved":false,"is_disabled":false,"rental_uris":{"android":"levelo://app?vid=00de3457-bb26-4f86-be97-d29604933a4d","ios":"levelo://app?vid=00de3457-bb26-4f86-be97-d29604933a4d"},"vehicle_type_id":"4","last_reported":1753776988,"current_range_meters":18000,"station_id":"","pricing_plan_id":"cebpf4jnsgd1na2vs0mg"},{"bike_id":"9f5df8de-de4b-4da9-99b8-eb435af03f31","system_id":"levelo_inurba_marseille","lat":43.23958,"lon":5.36636,"is_reserved":false,"is_disabled":false,"rental_uris":{"android":"levelo://app?vid=9f5df8de-de4b-4da9-99b8-eb435af03f31","ios":"levelo://app?vid=9f5df8de-de4b-4da9-99b8-eb435af03f31"},"vehicle_type_id":"4","last_reported":1753776988,"current_range_meters":18000,"station_id":"ce4bhi12rcd13ifvqfp0","pricing_plan_id":"cebpf4jnsgd1na2vs0mg"},{"bike_id":"dcfdafab-b01a-465c-90c8-169c274c9970","system_id":"levelo_inurba_marseille","lat":43.296055,"lon":5.377112,"is_reserved":false,"is_disabled":false,"rental_uris":{"android":"levelo://app?vid=dcfdafab-b01a-465c-90c8-169c274c9970","ios":"levelo://app?vid=dcfdafab-b01a-465c-90c8-169c274c9970"},"vehicle_type_id":"4","last_reported":1753776988,"current_range_meters":18800,"station_id":"","pricing_plan_id":"cebpf4jnsgd1na2vs0mg"},{"bike_id":"36fa8f99-aad5-40fa-9af6-a5ba4a2710da","system_id":"levelo_inurba_marseille","lat":43.2893,"lon":5.36636,"is_reserved":false,"is_disabled":false,"rental_uris":{"android":"levelo://app?vid=36fa8f99-aad5-40fa-9af6-a5ba4a2710da","ios":"levelo://app?vid=36fa8f99-aad5-40fa-9af6-a5ba4a2710da"},"vehicle_type_id":"4","last_reported":1753776988,"current_range_meters":18000,"station_id":"ce4bhap2rcd13ifvqek0","pricing_plan_id":"cebpf4jnsgd1na2vs0mg"},{"bike_id":"6a8221ad-83c9-40bd-8997-bb175766af1b","system_id":"levelo_inurba_marseille","lat":43.28418,"lon":5.34985,"is_reserved":false,"is_disabled":false,"rental_uris":{"android":"levelo://app?vid=6a8221ad-83c9-40bd-8997-bb175766af1b","ios":"levelo://app?vid=6a8221ad-83c9-40bd-8997-bb175766af1b"},"vehicle_type_id":"4","last_reported":1753776988,"current_range_meters":18800,"station_id":"ce4bhbh2rcd13ifvqepg","pricing_plan_id":"cebpf4jnsgd1na2vs0mg"},{"bike_id":"eba8ca75-8dd4-4f8a-8d08-eb7c57baa236","system_id":"levelo_inurba_marseille","lat":43.211932,"lon":5.350671,"is_reserved":false,"is_disabled":false,"rental_uris":{"android":"levelo://app?vid=eba8ca75-8dd4-4f8a-8d08-eb7c57baa236","ios":"levelo://app?vid=eba8ca75-8dd4-4f8a-8d08-eb7c57baa236"},"vehicle_type_id":"4","last_reported":1753776988,"current_range_meters":18800,"station_id":"st_cvj6sg6p6f1abm77japg","pricing_plan_id":"cebpf4jnsgd1na2vs0mg"},{"bike_id":"4908c9b7-3d6c-42c8-af98-77bb16d04f1d","system_id":"levelo_inurba_marseille","lat":43.31327,"lon":5.36748,"is_reserved":false,"is_disabled":false,"rental_uris":{"android":"levelo://app?vid=4908c9b7-3d6c-42c8-af98-77bb16d04f1d","ios":"levelo://app?vid=4908c9b7-3d6c-42c8-af98-77bb16d04f1d"},"vehicle_type_id":"4","last_reported":1753776988,"current_range_meters":18800,"station_id":"ce4bgr92rcd13ifvqc6g","pricing_plan_id":"cebpf4jnsgd1na2vs0mg"},{"bike_id":"24ddc855-9db1-447b-8cc7-fb33f85a47fb","system_id":"levelo_inurba_marseille","lat":43.30595,"lon":5.37213,"is_reserved":false,"is_disabled":false,"rental_uris":{"android":"levelo://app?vid=24ddc855-9db1-447b-8cc7-fb33f85a47fb","ios":"levelo://app?vid=24ddc855-9db1-447b-8cc7-fb33f85a47fb"},"vehicle_type_id":"4","last_reported":1753776988,"current_range_meters":18800,"station_id":"ce4bgqh2rcd13ifvqc4g","pricing_plan_id":"cebpf4jnsgd1na2vs0mg"},{"bike_id":"91e17399-d936-4f93-a978-801e80f8b687","system_id":"levelo_inurba_marseille","lat":43.23195,"lon":5.35553,"is_reserved":false,"is_disabled":false,"rental_uris":{"android":"levelo://app?vid=91e17399-d936-4f93-a978-801e80f8b687","ios":"levelo://app?vid=91e17399-d936-4f93-a978-801e80f8b687"},"vehicle_type_id":"4","last_reported":1753776988,"current_range_meters":18800,"station_id":"ce4bhu92rcd13ifvqi70","pricing_plan_id":"cebpf4jnsgd1na2vs0mg"},{"bike_id":"5aae0171-8e81-41e3-9059-0b6db07bd8e8","system_id":"levelo_inurba_marseille","lat":43.28424,"lon":5.34983,"is_reserved":false,"is_disabled":false,"rental_uris":{"android":"levelo://app?vid=5aae0171-8e81-41e3-9059-0b6db07bd8e8","ios":"levelo://app?vid=5aae0171-8e81-41e3-9059-0b6db07bd8e8"},"vehicle_type_id":"4","last_reported":1753776988,"current_range_meters":18800,"station_id":"ce4bhbh2rcd13ifvqepg","pricing_plan_id":"cebpf4jnsgd1na2vs0mg"},{"bike_id":"c686771c-e4d6-4ee5-934b-f3ca190b833e","system_id":"levelo_inurba_marseille","lat":43.32765,"lon":5.39204,"is_reserved":false,"is_disabled":false,"rental_uris":{"android":"levelo://app?vid=c686771c-e4d6-4ee5-934b-f3ca190b833e","ios":"levelo://app?vid=c686771c-e4d6-4ee5-934b-f3ca190b833e"},"vehicle_type_id":"4","last_reported":1753776988,"current_range_meters":18800,"station_id":"","pricing_plan_id":"cebpf4jnsgd1na2vs0mg"},{"bike_id":"6c40ec02-1921-499d-8c43-12f25ee6244b","system_id":"levelo_inurba_marseille","lat":43.24045,"lon":5.37693,"is_reserved":false,"is_disabled":false,"rental_uris":{"android":"levelo://app?vid=6c40ec02-1921-499d-8c43-12f25ee6244b","ios":"levelo://app?vid=6c40ec02-1921-499d-8c43-12f25ee6244b"},"vehicle_type_id":"4","last_reported":1753776988,"current_range_meters":18800,"station_id":"","pricing_plan_id":"cebpf4jnsgd1na2vs0mg"},{"bike_id":"376d5e0e-5279-4719-85d3-c90915196027","system_id":"levelo_inurba_marseille","lat":43.312673,"lon":5.3672,"is_reserved":false,"is_disabled":false,"rental_uris":{"android":"levelo://app?vid=376d5e0e-5279-4719-85d3-c90915196027","ios":"levelo://app?vid=376d5e0e-5279-4719-85d3-c90915196027"},"vehicle_type_id":"4","last_reported":1753776988,"current_range_meters":19200,"station_id":"ce4bgr92rcd13ifvqc6g","pricing_plan_id":"cebpf4jnsgd1na2vs0mg"},{"bike_id":"2fad1b6f-d0b7-4211-9b9d-661d7c090096","system_id":"levelo_inurba_marseille","lat":43.2981,"lon":5.43317,"is_reserved":false,"is_disabled":false,"rental_uris":{"android":"levelo://app?vid=2fad1b6f-d0b7-4211-9b9d-661d7c090096","ios":"levelo://app?vid=2fad1b6f-d0b7-4211-9b9d-661d7c090096"},"vehicle_type_id":"4","last_reported":1753776988,"current_range_meters":19200,"station_id":"","pricing_plan_id":"cebpf4jnsgd1na2vs0mg"},{"bike_id":"5dbf80ba-b347-4839-869e-cf2748342627","system_id":"levelo_inurba_marseille","lat":43.28356,"lon":5.38103,"is_reserved":false,"is_disabled":false,"rental_uris":{"android":"levelo://app?vid=5dbf80ba-b347-4839-869e-cf2748342627","ios":"levelo://app?vid=5dbf80ba-b347-4839-869e-cf2748342627"},"vehicle_type_id":"4","last_reported":1753776988,"current_range_meters":19200,"station_id":"ce4bh412rcd13ifvqdr0","pricing_plan_id":"cebpf4jnsgd1na2vs0mg"},{"bike_id":"980678a5-dfe4-422c-aa4d-5a0bbc08cc73","system_id":"levelo_inurba_marseille","lat":43.22509,"lon":5.34779,"is_reserved":false,"is_disabled":false,"rental_uris":{"android":"levelo://app?vid=980678a5-dfe4-422c-aa4d-5a0bbc08cc73","ios":"levelo://app?vid=980678a5-dfe4-422c-aa4d-5a0bbc08cc73"},"vehicle_type_id":"4","last_reported":1753776988,"current_range_meters":19200,"station_id":"st_cvj5dfep6f1abm77gieg","pricing_plan_id":"cebpf4jnsgd1na2vs0mg"},{"bike_id":"cb1344b4-4167-40a0-afbe-4b4326b96e41","system_id":"levelo_inurba_marseille","lat":43.28426,"lon":5.34966,"is_reserved":false,"is_disabled":false,"rental_uris":{"android":"levelo://app?vid=cb1344b4-4167-40a0-afbe-4b4326b96e41","ios":"levelo://app?vid=cb1344b4-4167-40a0-afbe-4b4326b96e41"},"vehicle_type_id":"4","last_reported":1753776988,"current_range_meters":19200,"station_id":"ce4bhbh2rcd13ifvqepg","pricing_plan_id":"cebpf4jnsgd1na2vs0mg"},{"bike_id":"86a9a134-5094-4008-9936-97f77ca361e8","system_id":"levelo_inurba_marseille","lat":43.25495,"lon":5.37656,"is_reserved":false,"is_disabled":false,"rental_uris":{"android":"levelo://app?vid=86a9a134-5094-4008-9936-97f77ca361e8","ios":"levelo://app?vid=86a9a134-5094-4008-9936-97f77ca361e8"},"vehicle_type_id":"4","last_reported":1753776988,"current_range_meters":19200,"station_id":"ce4bhh12rcd13ifvqff0","pricing_plan_id":"cebpf4jnsgd1na2vs0mg"},{"bike_id":"3a1771dd-30b8-44a7-9397-d14504b8726c","system_id":"levelo_inurba_marseille","lat":43.23197,"lon":5.35554,"is_reserved":false,"is_disabled":false,"rental_uris":{"android":"levelo://app?vid=3a1771dd-30b8-44a7-9397-d14504b8726c","ios":"levelo://app?vid=3a1771dd-30b8-44a7-9397-d14504b8726c"},"vehicle_type_id":"4","last_reported":1753776988,"current_range_meters":19200,"station_id":"ce4bhu92rcd13ifvqi70","pricing_plan_id":"cebpf4jnsgd1na2vs0mg"},{"bike_id":"9334f34a-980a-401c-82f4-9a8b79f8762a","system_id":"levelo_inurba_marseille","lat":43.3247,"lon":5.36566,"is_reserved":false,"is_disabled":false,"rental_uris":{"android":"levelo://app?vid=9334f34a-980a-401c-82f4-9a8b79f8762a","ios":"levelo://app?vid=9334f34a-980a-401c-82f4-9a8b79f8762a"},"vehicle_type_id":"4","last_reported":1753776988,"current_range_meters":19200,"station_id":"ce4bhs12rcd13ifvqhvg","pricing_plan_id":"cebpf4jnsgd1na2vs0mg"},{"bike_id":"ebc8a48a-905f-4bbf-b47b-1effbaf5835d","system_id":"levelo_inurba_marseille","lat":43.26817,"lon":5.40254,"is_reserved":false,"is_disabled":false,"rental_uris":{"android":"levelo://app?vid=ebc8a48a-905f-4bbf-b47b-1effbaf5835d","ios":"levelo://app?vid=ebc8a48a-905f-4bbf-b47b-1effbaf5835d"},"vehicle_type_id":"4","last_reported":1753776988,"current_range_meters":19200,"station_id":"ce501612rcd8frsf0b60","pricing_plan_id":"cebpf4jnsgd1na2vs0mg"},{"bike_id":"915513aa-2ef0-4e1b-9aa3-73608a47efab","system_id":"levelo_inurba_marseille","lat":43.22523,"lon":5.34792,"is_reserved":false,"is_disabled":false,"rental_uris":{"android":"levelo://app?vid=915513aa-2ef0-4e1b-9aa3-73608a47efab","ios":"levelo://app?vid=915513aa-2ef0-4e1b-9aa3-73608a47efab"},"vehicle_type_id":"4","last_reported":1753776988,"current_range_meters":19200,"station_id":"st_cvj5dfep6f1abm77gieg","pricing_plan_id":"cebpf4jnsgd1na2vs0mg"},{"bike_id":"82d57d4c-66e6-4f12-a6c5-1ed406f2a5ea","system_id":"levelo_inurba_marseille","lat":43.30902,"lon":5.36862,"is_reserved":false,"is_disabled":false,"rental_uris":{"android":"levelo://app?vid=82d57d4c-66e6-4f12-a6c5-1ed406f2a5ea","ios":"levelo://app?vid=82d57d4c-66e6-4f12-a6c5-1ed406f2a5ea"},"vehicle_type_id":"4","last_reported":1753776988,"current_range_meters":19200,"station_id":"ce4bgn92rcd13ifvqbvg","pricing_plan_id":"cebpf4jnsgd1na2vs0mg"},{"bike_id":"f307aaae-580a-4153-b74c-b5b7192c927a","system_id":"levelo_inurba_marseille","lat":43.30159,"lon":5.38069,"is_reserved":false,"is_disabled":false,"rental_uris":{"android":"levelo://app?vid=f307aaae-580a-4153-b74c-b5b7192c927a","ios":"levelo://app?vid=f307aaae-580a-4153-b74c-b5b7192c927a"},"vehicle_type_id":"4","last_reported":1753776988,"current_range_meters":19200,"station_id":"ce4bgjp2rcd13ifvqbh0","pricing_plan_id":"cebpf4jnsgd1na2vs0mg"},{"bike_id":"7d63cf5a-0da2-4b18-a94a-562fda8ccf0c","system_id":"levelo_inurba_marseille","lat":43.241674,"lon":5.364055,"is_reserved":false,"is_disabled":false,"rental_uris":{"android":"levelo://app?vid=7d63cf5a-0da2-4b18-a94a-562fda8ccf0c","ios":"levelo://app?vid=7d63cf5a-0da2-4b18-a94a-562fda8ccf0c"},