{"last_updated":1729789680,"ttl":60,"version":"2.2","data":{"bikes":[{"bike_id":"1568e98d-3e80-4d3a-913a-84af01bba11e","system_id":"levelo_inurba_marseille","lat":43.28153,"lon":5.42637,"is_reserved":false,"is_disabled":false,"rental_uris":{"android":"levelo://app?vid=1568e98d-3e80-4d3a-913a-84af01bba11e","ios":"levelo://app?vid=1568e98d-3e80-4d3a-913a-84af01bba11e"},"vehicle_type_id":"4","last_reported":1729789680,"current_range_meters":4400,"station_id":"ce4bhnh2rcd13ifvqgug","pricing_plan_id":"cebpf4jnsgd1na2vs0mg"},{"bike_id":"49d10780-a70f-42bb-86c6-64e09ba7647e","system_id":"levelo_inurba_marseille","lat":43.29299,"lon":5.37462,"is_reserved":false,"is_disabled":false,"rental_uris":{"android":"levelo://app?vid=49d10780-a70f-42bb-86c6-64e09ba7647e","ios":"levelo://app?vid=49d10780-a70f-42bb-86c6-64e09ba7647e"},"vehicle_type_id":"4","last_reported":1729789680,"current_range_meters":4000,"station_id":"ce4bgi12rcd13ifvqb70","pricing_plan_id":"cebpf4jnsgd1na2vs0mg"},{"bike_id":"4e718520-217c-4986-8e4a-4dbcae9b7210","system_id":"levelo_inurba_marseille","lat":43.27995,"lon":5.4166,"is_reserved":false,"is_disabled":false,"rental_uris":{"android":"levelo://app?vid=4e718520-217c-4986-8e4a-4dbcae9b7210","ios":"levelo://app?vid=4e718520-217c-4986-8e4a-4dbcae9b7210"},"vehicle_type_id":"4","last_reported":1729789680,"current_range_meters":8400,"station_id":"ce4bho12rcd13ifvqh1g","pricing_plan_id":"cebpf4jnsgd1na2vs0mg"},{"bike_id":"d92add26-76e1-4b54-9d4c-db7be93d0502","system_id":"levelo_inurba_marseille","lat":43.2407,"lon":5.37768,"is_reserved":false,"is_disabled":false,"rental_uris":{"android":"levelo://app?vid=d92add26-76e1-4b54-9d4c-db7be93d0502","ios":"levelo://app?vid=d92add26-76e1-4b54-9d4c-db7be93d0502"},"vehicle_type_id":"4","last_reported":1729789680,"current_range_meters":9600,"station_id":"ce4bhnp2rcd13ifvqgvg","pricing_plan_id":"cebpf4jnsgd1na2vs0mg"},{"bike_id":"8be8412e-0a83-4ac4-abd6-b6d8878e679e","system_id":"levelo_inurba_marseille","lat":43.29936,"lon":5.36555,"is_reserved":false,"is_disabled":false,"rental_uris":{"android":"levelo://app?vid=8be8412e-0a83-4ac4-abd6-b6d8878e679e","ios":"levelo://app?vid=8be8412e-0a83-4ac4-abd6-b6d8878e679e"},"vehicle_type_id":"4","last_reported":1729789680,"current_range_meters":22000,"station_id":"ce4bgm92rcd13ifvqbr0","pricing_plan_id":"cebpf4jnsgd1na2vs0mg"},{"bike_id":"396e419d-6bed-439f-a3ec-2c1a59697c36","system_id":"levelo_inurba_marseille","lat":43.23967,"lon":5.36634,"is_reserved":false,"is_disabled":false,"rental_uris":{"android":"levelo://app?vid=396e419d-6bed-439f-a3ec-2c1a59697c36","ios":"levelo://app?vid=396e419d-6bed-439f-a3ec-2c1a59697c36"},"vehicle_type_id":"4","last_reported":1729789680,"current_range_meters":18000,"station_id":"ce4bhi12rcd13ifvqfp0","pricing_plan_id":"cebpf4jnsgd1na2vs0mg"},{"bike_id":"48763050-daa1-4e66-a2a0-d258ce65d29c","system_id":"levelo_inurba_marseille","lat":43.2886,"lon":5.35847,"is_reserved":false,"is_disabled":false,"rental_uris":{"android":"levelo://app?vid=48763050-daa1-4e66-a2a0-d258ce65d29c","ios":"levelo://app?vid=48763050-daa1-4e66-a2a0-d258ce65d29c"},"vehicle_type_id":"4","last_reported":1729789680,"current_range_meters":3600,"station_id":"ce4bhb12rcd13ifvqem0","pricing_plan_id":"cebpf4jnsgd1na2vs0mg"},{"bike_id":"33c72216-5469-424b-9d14-cc0d00e0ce16","system_id":"levelo_inurba_marseille","lat":43.27912,"lon":5.38009,"is_reserved":false,"is_disabled":false,"rental_uris":{"android":"levelo://app?vid=33c72216-5469-424b-9d14-cc0d00e0ce16","ios":"levelo://app?vid=33c72216-5469-424b-9d14-cc0d00e0ce16"},"vehicle_type_id":"4","last_reported":1729789680,"current_range_meters":8000,"station_id":"ce4bhf92rcd13ifvqf50","pricing_plan_id":"cebpf4jnsgd1na2vs0mg"},{"bike_id":"e5821906-5ed2-4c47-9bcc-cf644d37828f","system_id":"levelo_inurba_marseille","lat":43.31327,"lon":5.39695,"is_reserved":false,"is_disabled":false,"rental_uris":{"android":"levelo://app?vid=e5821906-5ed2-4c47-9bcc-cf644d37828f","ios":"levelo://app?vid=e5821906-5ed2-4c47-9bcc-cf644d37828f"},"vehicle_type_id":"4","last_reported":1729789680,"current_range_meters":30400,"station_id":"ce4bgvp2rcd13ifvqcu0","pricing_plan_id":"cebpf4jnsgd1na2vs0mg"},{"bike_id":"9379528d-dc27-4009-8b9a-b522c1a3eceb","system_id":"levelo_inurba_marseille","lat":43.33726,"lon":5.39189,"is_reserved":false,"is_disabled":false,"rental_uris":{"android":"levelo://app?vid=9379528d-dc27-4009-8b9a-b522c1a3eceb","ios":"levelo://app?vid=9379528d-dc27-4009-8b9a-b522c1a3eceb"},"vehicle_type_id":"4","last_reported":1729789680,"current_range_meters":11200,"station_id":"ce4bhr92rcd13ifvqhsg","pricing_plan_id":"cebpf4jnsgd1na2vs0mg"},{"bike_id":"e130cf78-8420-42ef-935c-589ad91611cf","system_id":"levelo_inurba_marseille","lat":43.3266,"lon":5.40995,"is_reserved":false,"is_disabled":false,"rental_uris":{"android":"levelo://app?vid=e130cf78-8420-42ef-935c-589ad91611cf","ios":"levelo://app?vid=e130cf78-8420-42ef-935c-589ad91611cf"},"vehicle_type_id":"4","last_reported":1729789680,"current_range_meters":20400,"station_id":"ce4bhpp2rcd13ifvqhgg","pricing_plan_id":"cebpf4jnsgd1na2vs0mg"},{"bike_id":"4e0098f1-7519-4d62-abb0-b009afdc8e55","system_id":"levelo_inurba_marseille","lat":43.24996,"lon":5.38933,"is_reserved":false,"is_disabled":false,"rental_uris":{"android":"levelo://app?vid=4e0098f1-7519-4d62-abb0-b009afdc8e55","ios":"levelo://app?vid=4e0098f1-7519-4d62-abb0-b009afdc8e55"},"vehicle_type_id":"4","last_reported":1729789680,"current_range_meters":21600,"station_id":"ce4bhgp2rcd13ifvqfd0","pricing_plan_id":"cebpf4jnsgd1na2vs0mg"},{"bike_id":"ba7e5801-c582-45dd-98bf-186e36f63575","system_id":"levelo_inurba_marseille","lat":43.31993,"lon":5.38153,"is_reserved":false,"is_disabled":false,"rental_uris":{"android":"levelo://app?vid=ba7e5801-c582-45dd-98bf-186e36f63575","ios":"levelo://app?vid=ba7e5801-c582-45dd-98bf-186e36f63575"},"vehicle_type_id":"4","last_reported":1729789680,"current_range_meters":4000,"station_id":"ce4bhr12rcd13ifvqhpg","pricing_plan_id":"cebpf4jnsgd1na2vs0mg"},{"bike_id":"ec6da635-2839-4ff3-931d-b555ed5d70b6","system_id":"levelo_inurba_marseille","lat":43.29055,"lon":5.35915,"is_reserved":false,"is_disabled":false,"rental_uris":{"android":"levelo://app?vid=ec6da635-2839-4ff3-931d-b555ed5d70b6","ios":"levelo://app?vid=ec6da635-2839-4ff3-931d-b555ed5d70b6"},"vehicle_type_id":"4","last_reported":1729789680,"current_range_meters":32800,"station_id":"ce4bha92rcd13ifvqeg0","pricing_plan_id":"cebpf4jnsgd1na2vs0mg"},{"bike_id":"824a125f-4182-45fd-a129-af546f0d26b7","system_id":"levelo_inurba_marseille","lat":43.29257,"lon":5.40896,"is_reserved":false,"is_disabled":false,"rental_uris":{"android":"levelo://app?vid=824a125f-4182-45fd-a129-af546f0d26b7","ios":"levelo://app?vid=824a125f-4182-45fd-a129-af546f0d26b7"},"vehicle_type_id":"4","last_reported":1729789680,"current_range_meters":16800,"station_id":"ce4bh192rcd13ifvqdc0","pricing_plan_id":"cebpf4jnsgd1na2vs0mg"},{"bike_id":"5d7e855d-d0e4-4cc3-8449-d0b666ee367d","system_id":"levelo_inurba_marseille","lat":43.337444,"lon":5.374475,"is_reserved":false,"is_disabled":false,"rental_uris":{"android":"levelo://app?vid=5d7e855d-d0e4-4cc3-8449-d0b666ee367d","ios":"levelo://app?vid=5d7e855d-d0e4-4cc3-8449-d0b666ee367d"},"vehicle_type_id":"4","last_reported":1729789680,"current_range_meters":3200,"station_id":"","pricing_plan_id":"cebpf4jnsgd1na2vs0mg"},{"bike_id":"6b8602cc-4eb5-44a5-bf3c-7af9a7b25d57","system_id":"levelo_inurba_marseille","lat":43.28002,"lon":5.41655,"is_reserved":false,"is_disabled":false,"rental_uris":{"android":"levelo://app?vid=6b8602cc-4eb5-44a5-bf3c-7af9a7b25d57","ios":"levelo://app?vid=6b8602cc-4eb5-44a5-bf3c-7af9a7b25d57"},"vehicle_type_id":"4","last_reported":1729789680,"current_range_meters":35200,"station_id":"ce4bho12rcd13ifvqh1g","pricing_plan_id":"cebpf4jnsgd1na2vs0mg"},{"bike_id":"3e6dacef-7721-4fd6-908f-05fbf9bc0354","system_id":"levelo_inurba_marseille","lat":43.23197,"lon":5.35559,"is_reserved":false,"is_disabled":false,"rental_uris":{"android":"levelo://app?vid=3e6dacef-7721-4fd6-908f-05fbf9bc0354","ios":"levelo://app?vid=3e6dacef-7721-4fd6-908f-05fbf9bc0354"},"vehicle_type_id":"4","last_reported":1729789680,"current_range_meters":38800,"station_id":"ce4bhu92rcd13ifvqi70","pricing_plan_id":"cebpf4jnsgd1na2vs0mg"},{"bike_id":"df8acca8-0e3c-4bae-9149-b64194c5832f","system_id":"levelo_inurba_marseille","lat":43.28954,"lon":5.3639,"is_reserved":false,"is_disabled":false,"rental_uris":{"android":"levelo://app?vid=df8acca8-0e3c-4bae-9149-b64194c5832f","ios":"levelo://app?vid=df8acca8-0e3c-4bae-9149-b64194c5832f"},"vehicle_type_id":"4","last_reported":1729789680,"current_range_meters":6000,"station_id":"ce4bhc92rcd13ifvqetg","pricing_plan_id":"cebpf4jnsgd1na2vs0mg"},{"bike_id":"97ce6431-cdfe-4c86-8575-534875aed7f5","system_id":"levelo_inurba_marseille","lat":43.3053,"lon":5.36659,"is_reserved":false,"is_disabled":false,"rental_uris":{"android":"levelo://app?vid=97ce6431-cdfe-4c86-8575-534875aed7f5","ios":"levelo://app?vid=97ce6431-cdfe-4c86-8575-534875aed7f5"},"vehicle_type_id":"4","last_reported":1729789680,"current_range_meters":6400,"station_id":"","pricing_plan_id":"cebpf4jnsgd1na2vs0mg"},{"bike_id":"10367e1d-0c36-44bf-989e-0e78a44534cd","system_id":"levelo_inurba_marseille","lat":43.2997,"lon":5.38503,"is_reserved":false,"is_disabled":false,"rental_uris":{"android":"levelo://app?vid=10367e1d-0c36-44bf-989e-0e78a44534cd","ios":"levelo://app?vid=10367e1d-0c36-44bf-989e-0e78a44534cd"},"vehicle_type_id":"4","last_reported":1729789680,"current_range_meters":30000,"station_id":"ce4bgj92rcd13ifvqbd0","pricing_plan_id":"cebpf4jnsgd1na2vs0mg"},{"bike_id":"b69d0c64-0724-4563-ab4e-cdb5166b1cd5","system_id":"levelo_inurba_marseille","lat":43.3312,"lon":5.38215,"is_reserved":false,"is_disabled":false,"rental_uris":{"android":"levelo://app?vid=b69d0c64-0724-4563-ab4e-cdb5166b1cd5","ios":"levelo://app?vid=b69d0c64-0724-4563-ab4e-cdb5166b1cd5"},"vehicle_type_id":"4","last_reported":1729789680,"current_range_meters":19200,"station_id":"","pricing_plan_id":"cebpf4jnsgd1na2vs0mg"},{"bike_id":"c70dc1e7-d574-49de-90da-08570e8dcf3b","system_id":"levelo_inurba_marseille","lat":43.29528,"lon":5.3854,"is_reserved":false,"is_disabled":false,"rental_uris":{"android":"levelo://app?vid=c70dc1e7-d574-49de-90da-08570e8dcf3b","ios":"levelo://app?vid=c70dc1e7-d574-49de-90da-08570e8dcf3b"},"vehicle_type_id":"4","last_reported":1729789680,"current_range_meters":38800,"station_id":"ce4bgih2rcd13ifvqba0","pricing_plan_id":"cebpf4jnsgd1na2vs0mg"},{"bike_id":"c47ee947-2909-41a5-bbe0-603cbb5c8694","system_id":"levelo_inurba_marseille","lat":43.27947,"lon":5.41058,"is_reserved":false,"is_disabled":false,"rental_uris":{"android":"levelo://app?vid=c47ee947-2909-41a5-bbe0-603cbb5c8694","ios":"levelo://app?vid=c47ee947-2909-41a5-bbe0-603cbb5c8694"},"vehicle_type_id":"4","last_reported":1729789680,"current_range_meters":16800,"station_id":"ce4bhnp2rcd13ifvqh0g","pricing_plan_id":"cebpf4jnsgd1na2vs0mg"},{"bike_id":"1c425869-08dd-4690-9799-fa45294b0628","system_id":"levelo_inurba_marseille","lat":43.31694,"lon":5.40471,"is_reserved":false,"is_disabled":false,"rental_uris":{"android":"levelo://app?vid=1c425869-08dd-4690-9799-fa45294b0628","ios":"levelo://app?vid=1c425869-08dd-4690-9799-fa45294b0628"},"vehicle_type_id":"4","last_reported":1729789680,"current_range_meters":28400,"station_id":"ce4bh012rcd13ifvqd00","pricing_plan_id":"cebpf4jnsgd1na2vs0mg"},{"bike_id":"1bc8abb2-d88b-4a0f-8bb7-3b05fe30dde1","system_id":"levelo_inurba_marseille","lat":43.24805,"lon":5.37458,"is_reserved":false,"is_disabled":false,"rental_uris":{"android":"levelo://app?vid=1bc8abb2-d88b-4a0f-8bb7-3b05fe30dde1","ios":"levelo://app?vid=1bc8abb2-d88b-4a0f-8bb7-3b05fe30dde1"},"vehicle_type_id":"4","last_reported":1729789680,"current_range_meters":29600,"station_id":"ce4bhgh2rcd13ifvqfb0","pricing_plan_id":"cebpf4jnsgd1na2vs0mg"},{"bike_id":"13d0e3ae-0c8d-4c86-aa06-6206afa7a2ab","system_id":"levelo_inurba_marseille","lat":43.29711,"lon":5.37703,"is_reserved":false,"is_disabled":false,"rental_uris":{"android":"levelo://app?vid=13d0e3ae-0c8d-4c86-aa06-6206afa7a2ab","ios":"levelo://app?vid=13d0e3ae-0c8d-4c86-aa06-6206afa7a2ab"},"vehicle_type_id":"4","last_reported":1729789680,"current_range_meters":6400,"station_id":"ce4bgkh2rcd13ifvqbl0","pricing_plan_id":"cebpf4jnsgd1na2vs0mg"},{"bike_id":"200737c7-9ddf-43b2-b4c4-126efd622608","system_id":"levelo_inurba_marseille","lat":43.296814,"lon":5.398043,"is_reserved":false,"is_disabled":false,"rental_uris":{"android":"levelo://app?vid=200737c7-9ddf-43b2-b4c4-126efd622608","ios":"levelo://app?vid=200737c7-9ddf-43b2-b4c4-126efd622608"},"vehicle_type_id":"4","last_reported":1729789680,"current_range_meters":36800,"station_id":"ce4bgkh2rcd13ifvqbk0","pricing_plan_id":"cebpf4jnsgd1na2vs0mg"},{"bike_id":"f7d2b303-edad-446e-948d-4fdec7f7bf4b","system_id":"levelo_inurba_marseille","lat":43.29606,"lon":5.38104,"is_reserved":false,"is_disabled":false,"rental_uris":{"android":"levelo://app?vid=f7d2b303-edad-446e-948d-4fdec7f7bf4b","ios":"levelo://app?vid=f7d2b303-edad-446e-948d-4fdec7f7bf4b"},"vehicle_type_id":"4","last_reported":1729789680,"current_range_meters":38800,"station_id":"ce4bgl12rcd13ifvqbo0","pricing_plan_id":"cebpf4jnsgd1na2vs0mg"},{"bike_id":"29b25be5-2292-4af8-b85e-04f4a7e72e17","system_id":"levelo_inurba_marseille","lat":43.2318,"lon":5.39995,"is_reserved":false,"is_disabled":false,"rental_uris":{"android":"levelo://app?vid=29b25be5-2292-4af8-b85e-04f4a7e72e17","ios":"levelo://app?vid=29b25be5-2292-4af8-b85e-04f4a7e72e17"},"vehicle_type_id":"4","last_reported":1729789680,"current_range_meters":14000,"station_id":"ce4bhn12rcd13ifvqgqg","pricing_plan_id":"cebpf4jnsgd1na2vs0mg"},{"bike_id":"7cfd0d58-39e9-4bfe-9cb2-198fddb73713","system_id":"levelo_inurba_marseille","lat":43.25816,"lon":5.39439,"is_reserved":false,"is_disabled":false,"rental_uris":{"android":"levelo://app?vid=7cfd0d58-39e9-4bfe-9cb2-198fddb73713","ios":"levelo://app?vid=7cfd0d58-39e9-4bfe-9cb2-198fddb73713"},"vehicle_type_id":"4","last_reported":1729789680,"current_range_meters":18000,"station_id":"ce4bhip2rcd13ifvqft0","pricing_plan_id":"cebpf4jnsgd1na2vs0mg"},{"bike_id":"f9c9b1ee-52de-4087-bfbe-6fd1be150b81","system_id":"levelo_inurba_marseille","lat":43.29557,"lon":5.42296,"is_reserved":false,"is_disabled":false,"rental_uris":{"android":"levelo://app?vid=f9c9b1ee-52de-4087-bfbe-6fd1be150b81","ios":"levelo://app?vid=f9c9b1ee-52de-4087-bfbe-6fd1be150b81"},"vehicle_type_id":"4","last_reported":1729789680,"current_range_meters":14400,"station_id":"ce4bhph2rcd13ifvqhdg","pricing_plan_id":"cebpf4jnsgd1na2vs0mg"},{"bike_id":"933557ef-e951-4c8f-adab-063805190575","system_id":"levelo_inurba_marseille","lat":43.27496,"lon":5.42449,"is_reserved":false,"is_disabled":false,"rental_uris":{"android":"levelo://app?vid=933557ef-e951-4c8f-adab-063805190575","ios":"levelo://app?vid=933557ef-e951-4c8f-adab-063805190575"},"vehicle_type_id":"4","last_reported":1729789680,"current_range_meters":26000,"station_id":"ce4bhn92rcd13ifvqgrg","pricing_plan_id":"cebpf4jnsgd1na2vs0mg"},{"bike_id":"6cbfa692-dd3a-4974-a880-ff78cda0b3ba","system_id":"levelo_inurba_marseille","lat":43.25721,"lon":5.41115,"is_reserved":false,"is_disabled":false,"rental_uris":{"android":"levelo://app?vid=6cbfa692-dd3a-4974-a880-ff78cda0b3ba","ios":"levelo://app?vid=6cbfa692-dd3a-4974-a880-ff78cda0b3ba"},"vehicle_type_id":"4","last_reported":1729789680,"current_range_meters":8800,"station_id":"","pricing_plan_id":"cebpf4jnsgd1na2vs0mg"},{"bike_id":"407d3a17-511a-4ab6-9df5-e20fc50d90ad","system_id":"levelo_inurba_marseille","lat":43.25573,"lon":5.38234,"is_reserved":false,"is_disabled":false,"rental_uris":{"android":"levelo://app?vid=407d3a17-511a-4ab6-9df5-e20fc50d90ad","ios":"levelo://app?vid=407d3a17-511a-4ab6-9df5-e20fc50d90ad"},"vehicle_type_id":"4","last_reported":1729789680,"current_range_meters":33200,"station_id":"ce4bhih2rcd13ifvqfs0","pricing_plan_id":"cebpf4jnsgd1na2vs0mg"},{"bike_id":"7fe64ec0-928d-4791-8e59-2f8faf6811d5","system_id":"levelo_inurba_marseille","lat":43.29599,"lon":5.38108,"is_reserved":false,"is_disabled":false,"rental_uris":{"android":"levelo://app?vid=7fe64ec0-928d-4791-8e59-2f8faf6811d5","ios":"levelo://app?vid=7fe64ec0-928d-4791-8e59-2f8faf6811d5"},"vehicle_type_id":"4","last_reported":1729789680,"current_range_meters":27600,"station_id":"ce4bgl12rcd13ifvqbo0","pricing_plan_id":"cebpf4jnsgd1na2vs0mg"},{"bike_id":"be8fbca4-3dcd-4e0e-96d2-8c570f59713c","system_id":"levelo_inurba_marseille","lat":43.32479,"lon":5.36571,"is_reserved":false,"is_disabled":false,"rental_uris":{"android":"levelo://app?vid=be8fbca4-3dcd-4e0e-96d2-8c570f59713c","ios":"levelo://app?vid=be8fbca4-3dcd-4e0e-96d2-8c570f59713c"},"vehicle_type_id":"4","last_reported":1729789680,"current_range_meters":24400,"station_id":"ce4bhs12rcd13ifvqhvg","pricing_plan_id":"cebpf4jnsgd1na2vs0mg"},{"bike_id":"3a798783-b747-47d0-8ed8-04593bec0194","system_id":"levelo_inurba_marseille","lat":43.23195,"lon":5.35555,"is_reserved":false,"is_disabled":false,"rental_uris":{"android":"levelo://app?vid=3a798783-b747-47d0-8ed8-04593bec0194","ios":"levelo://app?vid=3a798783-b747-47d0-8ed8-04593bec0194"},"vehicle_type_id":"4","last_reported":1729789680,"current_range_meters":15200,"station_id":"ce4bhu92rcd13ifvqi70","pricing_plan_id":"cebpf4jnsgd1na2vs0mg"},{"bike_id":"32745b13-c55b-4aa9-82ac-9fbdcc1e90be","system_id":"levelo_inurba_marseille","lat":43.28619,"lon":5.40122,"is_reserved":false,"is_disabled":false,"rental_uris":{"android":"levelo://app?vid=32745b13-c55b-4aa9-82ac-9fbdcc1e90be","ios":"levelo://app?vid=32745b13-c55b-4aa9-82ac-9fbdcc1e90be"},"vehicle_type_id":"4","last_reported":1729789680,"current_range_meters":4000,"station_id":"","pricing_plan_id":"cebpf4jnsgd1na2vs0mg"},{"bike_id":"01903a9f-09a7-4f25-9505-4ff6ff3a31f5","system_id":"levelo_inurba_marseille","lat":43.29792,"lon":5.37101,"is_reserved":false,"is_disabled":false,"rental_uris":{"android":"levelo://app?vid=01903a9f-09a7-4f25-9505-4ff6ff3a31f5","ios":"levelo://app?vid=01903a9f-09a7-4f25-9505-4ff6ff3a31f5"},"vehicle_type_id":"4","last_reported":1729789680,"current_range_meters":38000,"station_id":"ce4bgop2rcd13ifvqc1g","pricing_plan_id":"cebpf4jnsgd1na2vs0mg"},{"bike_id":"a389a759-ac16-41bb-a668-b8d634b74462","system_id":"levelo_inurba_marseille","lat":43.27185,"lon":5.40996,"is_reserved":false,"is_disabled":false,"rental_uris":{"android":"levelo://app?vid=a389a759-ac16-41bb-a668-b8d634b74462","ios":"levelo://app?vid=a389a759-ac16-41bb-a668-b8d634b74462"},"vehicle_type_id":"4","last_reported":1729789680,"current_range_meters":10800,"station_id":"ce4bhl12rcd13ifvqgf0","pricing_plan_id":"cebpf4jnsgd1na2vs0mg"},{"bike_id":"8f7bf3d1-8907-4949-879f-82a7b3709036","system_id":"levelo_inurba_marseille","lat":43.29424,"lon":5.38631,"is_reserved":false,"is_disabled":false,"rental_uris":{"android":"levelo://app?vid=8f7bf3d1-8907-4949-879f-82a7b3709036","ios":"levelo://app?vid=8f7bf3d1-8907-4949-879f-82a7b3709036"},"vehicle_type_id":"4","last_reported":1729789680,"current_range_meters":22400,"station_id":"ce4bh2h2rcd13ifvqdh0","pricing_plan_id":"cebpf4jnsgd1na2vs0mg"},{"bike_id":"1dac7c47-12d7-40e0-9d70-96c609ac1e87","system_id":"levelo_inurba_marseille","lat":43.28927,"lon":5.38387,"is_reserved":false,"is_disabled":false,"rental_uris":{"android":"levelo://app?vid=1dac7c47-12d7-40e0-9d70-96c609ac1e87","ios":"levelo://app?vid=1dac7c47-12d7-40e0-9d70-96c609ac1e87"},"vehicle_type_id":"4","last_reported":1729789680,"current_range_meters":22400,"station_id":"ce4bh612rcd13ifvqe6g","pricing_plan_id":"cebpf4jnsgd1na2vs0mg"},{"bike_id":"9f10b58d-f55f-45ab-aac6-158c0e70f236","system_id":"levelo_inurba_marseille","lat":43.28156,"lon":5.42651,"is_reserved":false,"is_disabled":false,"rental_uris":{"android":"levelo://app?vid=9f10b58d-f55f-45ab-aac6-158c0e70f236","ios":"levelo://app?vid=9f10b58d-f55f-45ab-aac6-158c0e70f236"},"vehicle_type_id":"4","last_reported":1729789680,"current_range_meters":24400,"station_id":"ce4bhnh2rcd13ifvqgug","pricing_plan_id":"cebpf4jnsgd1na2vs0mg"},{"bike_id":"6b26e3b2-0a56-416b-85fb-ee072c365518","system_id":"levelo_inurba_marseille","lat":43.3025,"lon":5.4006,"is_reserved":false,"is_disabled":false,"rental_uris":{"android":"levelo://app?vid=6b26e3b2-0a56-416b-85fb-ee072c365518","ios":"levelo://app?vid=6b26e3b2-0a56-416b-85fb-ee072c365518"},"vehicle_type_id":"4","last_reported":1729789680,"current_range_meters":38400,"station_id":"ce4bgvh2rcd13ifvqcs0","pricing_plan_id":"cebpf4jnsgd1na2vs0mg"},{"bike_id":"f0a286fa-865c-404e-97de-1da8f4125132","system_id":"levelo_inurba_marseille","lat":43.29551,"lon":5.423,"is_reserved":false,"is_disabled":false,"rental_uris":{"android":"levelo://app?vid=f0a286fa-865c-404e-97de-1da8f4125132","ios":"levelo://app?vid=f0a286fa-865c-404e-97de-1da8f4125132"},"vehicle_type_id":"4","last_reported":1729789680,"current_range_meters":38000,"station_id":"ce4bhph2rcd13ifvqhdg","pricing_plan_id":"cebpf4jnsgd1na2vs0mg"},{"bike_id":"f8c6f1bc-ea44-4ab8-b33c-f75f82cb071b","system_id":"levelo_inurba_marseille","lat":43.23177,"lon":5.39991,"is_reserved":false,"is_disabled":false,"rental_uris":{"android":"levelo://app?vid=f8c6f1bc-ea44-4ab8-b33c-f75f82cb071b","ios":"levelo://app?vid=f8c6f1bc-ea44-4ab8-b33c-f75f82cb071b"},"vehicle_type_id":"4","last_reported":1729789680,"current_range_meters":5600,"station_id":"ce4bhn12rcd13ifvqgqg","pricing_plan_id":"cebpf4jnsgd1na2vs0mg"},{"bike_id":"4f218e0a-97d3-4e6b-9b6e-cebdd110c585","system_id":"levelo_inurba_marseille","lat":43.29416,"lon":5.38628,"is_reserved":false,"is_disabled":false,"rental_uris":{"android":"levelo://app?vid=4f218e0a-97d3-4e6b-9b6e-cebdd110c585","ios":"levelo://app?vid=4f218e0a-97d3-4e6b-9b6e-cebdd110c585"},"vehicle_type_id":"4","last_reported":1729789680,"current_range_meters":25200,"station_id":"ce4bh2h2rcd13ifvqdh0","pricing_plan_id":"cebpf4jnsgd1na2vs0mg"},{"bike_id":"4217714c-4b2b-4b48-b6d2-9a5e5bc5c303","system_id":"levelo_inurba_marseille","lat":43.28616,"lon":5.35108,"is_reserved":false,"is_disabled":false,"rental_uris":{"android":"levelo://app?vid=4217714c-4b2b-4b48-b6d2-9a5e5bc5c303","ios":"levelo://app?vid=4217714c-4b2b-4b48-b6d2-9a5e5bc5c303"},"vehicle_type_id":"4","last_reported":1729789680,"current_range_meters":12400,"station_id":"ce4bhch2rcd13ifvqeug","pricing_plan_id":"cebpf4jnsgd1na2vs0mg"},{"bike_id":"d2b1bdf2-4357-4fe1-9310-b780934b2159","system_id":"levelo_inurba_marseille","lat":43.32058,"lon":5.41558,"is_reserved":false,"is_disabled":false,"rental_uris":{"android":"levelo://app?vid=d2b1bdf2-4357-4fe1-9310-b780934b2159","ios":"levelo://app?vid=d2b1bdf2-4357-4fe1-9310-b780934b2159"},"vehicle_type_id":"4","last_reported":1729789680,"current_range_meters":39200,"station_id":"ce4bhq92rcd13ifvqhkg","pricing_plan_id":"cebpf4jnsgd1na2vs0mg"},{"bike_id":"2244819a-fafc-41ad-9dfb-cd4524381ec4","system_id":"levelo_inurba_marseille","lat":43.28421,"lon":5.34992,"is_reserved":false,"is_disabled":false,"rental_uris":{"android":"levelo://app?vid=2244819a-fafc-41ad-9dfb-cd4524381ec4","ios":"levelo://app?vid=2244819a-fafc-41ad-9dfb-cd4524381ec4"},"vehicle_type_id":"4","last_reported":1729789680,"current_range_meters":28800,"station_id":"ce4bhbh2rcd13ifvqepg","pricing_plan_id":"cebpf4jnsgd1na2vs0mg"},{"bike_id":"71bab705-0c16-4fa2-bae4-9cc9fd94ae96","system_id":"levelo_inurba_marseille","lat":43.2318,"lon":5.3999,"is_reserved":false,"is_disabled":false,"rental_uris":{"android":"levelo://app?vid=71bab705-0c16-4fa2-bae4-9cc9fd94ae96","ios":"levelo://app?vid=71bab705-0c16-4fa2-bae4-9cc9fd94ae96"},"vehicle_type_id":"4","last_reported":1729789680,"current_range_meters":8000,"station_id":"ce4bhn12rcd13ifvqgqg","pricing_plan_id":"cebpf4jnsgd1na2vs0mg"},{"bike_id":"4df89a2d-944a-4ac9-b9ea-41a3c92d5fbc","system_id":"levelo_inurba_marseille","lat":43.24667,"lon":5.38164,"is_reserved":false,"is_disabled":false,"rental_uris":{"android":"levelo://app?vid=4df89a2d-944a-4ac9-b9ea-41a3c92d5fbc","ios":"levelo://app?vid=4df89a2d-944a-4ac9-b9ea-41a3c92d5fbc"},"vehicle_type_id":"4","last_reported":1729789680,"current_range_meters":33200,"station_id":"ce4bhih2rcd13ifvqfr0","pricing_plan_id":"cebpf4jnsgd1na2vs0mg"},{"bike_id":"d3e2f2eb-7c3f-42d5-84f2-9aeb0d59e8f5","system_id":"levelo_inurba_marseille","lat":43.23965,"lon":5.36638,"is_reserved":false,"is_disabled":false,"rental_uris":{"android":"levelo://app?vid=d3e2f2eb-7c3f-42d5-84f2-9aeb0d59e8f5","ios":"levelo://app?vid=d3e2f2eb-7c3f-42d5-84f2-9aeb0d59e8f5"},"vehicle_type_id":"4","last_reported":1729789680,"current_range_meters":9600,"station_id":"ce4bhi12rcd13ifvqfp0","pricing_plan_id":"cebpf4jnsgd1na2vs0mg"},{"bike_id":"cc260fe5-6bba-4809-8bb2-7c5eb794aa8f","system_id":"levelo_inurba_marseille","lat":43.29567,"lon":5.39982,"is_reserved":false,"is_disabled":false,"rental_uris":{"android":"levelo://app?vid=cc260fe5-6bba-4809-8bb2-7c5eb794aa8f","ios":"levelo://app?vid=cc260fe5-6bba-4809-8bb2-7c5eb794aa8f"},"vehicle_type_id":"4","last_reported":1729789680,"current_range_meters":6800,"station_id":"ce4bh312rcd13ifvqdj0","pricing_plan_id":"cebpf4jnsgd1na2vs0mg"},{"bike_id":"91bfa645-9cfa-4568-8072-595cbd3b9c72","system_id":"levelo_inurba_marseille","lat":43.28902,"lon":5.36107,"is_reserved":false,"is_disabled":false,"rental_uris":{"android":"levelo://app?vid=91bfa645-9cfa-4568-8072-595cbd3b9c72","ios":"levelo://app?vid=91bfa645-9cfa-4568-8072-595cbd3b9c72"},"vehicle_type_id":"4","last_reported":1729789680,"current_range_meters":22800,"station_id":"","pricing_plan_id":"cebpf4jnsgd1na2vs0mg"},{"bike_id":"605a6615-397b-4984-b5ce-52e2e66c8501","system_id":"levelo_inurba_marseille","lat":43.25578,"lon":5.38238,"is_reserved":false,"is_disabled":false,"rental_uris":{"android":"levelo://app?vid=605a6615-397b-4984-b5ce-52e2e66c8501","ios":"levelo://app?vid=605a6615-397b-4984-b5ce-52e2e66c8501"},"vehicle_type_id":"4","last_reported":1729789680,"current_range_meters":26000,"station_id":"ce4bhih2rcd13ifvqfs0","pricing_plan_id":"cebpf4jnsgd1na2vs0mg"},{"bike_id":"856d115a-8f1b-4d78-a4f5-e6563030d0a3","system_id":"levelo_inurba_marseille","lat":43.23961,"lon":5.36632,"is_reserved":false,"is_disabled":false,"rental_uris":{"android":"levelo://app?vid=856d115a-8f1b-4d78-a4f5-e6563030d0a3","ios":"levelo://app?vid=856d115a-8f1b-4d78-a4f5-e6563030d0a3"},"vehicle_type_id":"4","last_reported":1729789680,"current_range_meters":37600,"station_id":"ce4bhi12rcd13ifvqfp0","pricing_plan_id":"cebpf4jnsgd1na2vs0mg"},{"bike_id":"97ec9672-eea4-4d9a-8a25-013f09b65b94","system_id":"levelo_inurba_marseille","lat":43.25453,"lon":5.3781,"is_reserved":false,"is_disabled":false,"rental_uris":{"android":"levelo://app?vid=97ec9672-eea4-4d9a-8a25-013f09b65b94","ios":"levelo://app?vid=97ec9672-eea4-4d9a-8a25-013f09b65b94"},"vehicle_type_id":"4","last_reported":1729789680,"current_range_meters":9600,"station_id":"","pricing_plan_id":"cebpf4jnsgd1na2vs0mg"},{"bike_id":"b3c3001a-ead9-44fd-8f73-2e160cd62a2e","system_id":"levelo_inurba_marseille","lat":43.276843,"lon":5.389101,"is_reserved":false,"is_disabled":false,"rental_uris":{"android":"levelo://app?vid=b3c3001a-ead9-44fd-8f73-2e160cd62a2e","ios":"levelo://app?vid=b3c3001a-ead9-44fd-8f73-2e160cd62a2e"},"vehicle_type_id":"4","last_reported":1729789680,"current_range_meters":7200,"station_id":"ce4bhi12rcd13ifvqfo0","pricing_plan_id":"cebpf4jnsgd1na2vs0mg"},{"bike_id":"7d32f242-6f39-41d1-84d2-ec6b2939c884","system_id":"levelo_inurba_marseille","lat":43.25586,"lon":5.38232,"is_reserved":false,"is_disabled":false,"rental_uris":{"android":"levelo://app?vid=7d32f242-6f39-41d1-84d2-ec6b2939c884","ios":"levelo://app?vid=7d32f242-6f39-41d1-84d2-ec6b2939c884"},"vehicle_type_id":"4","last_reported":1729789680,"current_range_meters":27200,"station_id":"ce4bhih2rcd13ifvqfs0","pricing_plan_id":"cebpf4jnsgd1na2vs0mg"},{"bike_id":"59147329-f7ed-4cbf-86ee-79236487b50a","system_id":"levelo_inurba_marseille","lat":43.28562,"lon":5.39509,"is_reserved":false,"is_disabled":false,"rental_uris":{"android":"levelo://app?vid=59147329-f7ed-4cbf-86ee-79236487b50a","ios":"levelo://app?vid=59147329-f7ed-4cbf-86ee-79236487b50a"},"vehicle_type_id":"4","last_reported":1729789680,"current_range_meters":38400,"station_id":"ce4bh292rcd13ifvqdg0","pricing_plan_id":"cebpf4jnsgd1na2vs0mg"},{"bike_id":"665e214c-aa54-4257-884a-ca889eef1d58","system_id":"levelo_inurba_marseille","lat":43.25503,"lon":5.37653,"is_reserved":false,"is_disabled":false,"rental_uris":{"android":"levelo://app?vid=665e214c-aa54-4257-884a-ca889eef1d58","ios":"levelo://app?vid=665e214c-aa54-4257-884a-ca889eef1d58"},"vehicle_type_id":"4","last_reported":1729789680,"current_range_meters":30400,"station_id":"ce4bhh12rcd13ifvqff0","pricing_plan_id":"cebpf4jnsgd1na2vs0mg"},{"bike_id":"62614577-a5bf-499c-b571-1fe649c05774","system_id":"levelo_inurba_marseille","lat":43.30628,"lon":5.40087,"is_reserved":false,"is_disabled":false,"rental_uris":{"android":"levelo://app?vid=62614577-a5bf-499c-b571-1fe649c05774","ios":"levelo://app?vid=62614577-a5bf-499c-b571-1fe649c05774"},"vehicle_type_id":"4","last_reported":1729789680,"current_range_meters":16800,"station_id":"ce4bh112rcd13ifvqda0","pricing_plan_id":"cebpf4jnsgd1na2vs0mg"},{"bike_id":"16bd0a14-6126-4d4d-ab5a-55e7218ae5a5","system_id":"levelo_inurba_marseille","lat":43.29704,"lon":5.36342,"is_reserved":false,"is_disabled":false,"rental_uris":{"android":"levelo://app?vid=16bd0a14-6126-4d4d-ab5a-55e7218ae5a5","ios":"levelo://app?vid=16bd0a14-6126-4d4d-ab5a-55e7218ae5a5"},"vehicle_type_id":"4","last_reported":1729789680,"current_range_meters":36800,"station_id":"","pricing_plan_id":"cebpf4jnsgd1na2vs0mg"},{"bike_id":"4ca1bec4-8c28-4521-b183-9cd7fad0bbfd","system_id":"levelo_inurba_marseille","lat":43.291257,"lon":5.416834,"is_reserved":false,"is_disabled":false,"rental_uris":{"android":"levelo://app?vid=4ca1bec4-8c28-4521-b183-9cd7fad0bbfd","ios":"levelo://app?vid=4ca1bec4-8c28-4521-b183-9cd7fad0bbfd"},"vehicle_type_id":"4","last_reported":1729789680,"current_range_meters":15200,"station_id":"","pricing_plan_id":"cebpf4jnsgd1na2vs0mg"},{"bike_id":"9c980766-3696-42be-8e1a-d22fb6edb5c5","system_id":"levelo_inurba_marseille","lat":43.3066,"lon":5.38178,"is_reserved":false,"is_disabled":false,"rental_uris":{"android":"levelo://app?vid=9c980766-3696-42be-8e1a-d22fb6edb5c5","ios":"levelo://app?vid=9c980766-3696-42be-8e1a-d22fb6edb5c5"},"vehicle_type_id":"4","last_reported":1729789680,"current_range_meters":27600,"station_id":"","pricing_plan_id":"cebpf4jnsgd1na2vs0mg"},{"bike_id":"ab71ec54-4156-490c-ad29-5b0c96b8bc21","system_id":"levelo_inurba_marseille","lat":43.29426,"lon":5.38618,"is_reserved":false,"is_disabled":false,"rental_uris":{"android":"levelo://app?vid=ab71ec54-4156-490c-ad29-5b0c96b8bc21","ios":"levelo://app?vid=ab71ec54-4156-490c-ad29-5b0c96b8bc21"},"vehicle_type_id":"4","last_reported":1729789680,"current_range_meters":36000,"station_id":"ce4bh2h2rcd13ifvqdh0","pricing_plan_id":"cebpf4jnsgd1na2vs0mg"},{"bike_id":"52f0e4a5-d535-4f96-b297-18be6815ac33","system_id":"levelo_inurba_marseille","lat":43.33722,"lon":5.39193,"is_reserved":false,"is_disabled":false,"rental_uris":{"android":"levelo://app?vid=52f0e4a5-d535-4f96-b297-18be6815ac33","ios":"levelo://app?vid=52f0e4a5-d535-4f96-b297-18be6815ac33"},"vehicle_type_id":"4","last_reported":1729789680,"current_range_meters":30000,"station_id":"ce4bhr92rcd13ifvqhsg","pricing_plan_id":"cebpf4jnsgd1na2vs0mg"},{"bike_id":"cb359280-435c-40d7-ad26-ec57fa0d7180","system_id":"levelo_inurba_marseille","lat":43.29705,"lon":5.36596,"is_reserved":false,"is_disabled":false,"rental_uris":{"android":"levelo://app?vid=cb359280-435c-40d7-ad26-ec57fa0d7180","ios":"levelo://app?vid=cb359280-435c-40d7-ad26-ec57fa0d7180"},"vehicle_type_id":"4","last_reported":1729789680,"current_range_meters":32400,"station_id":"ce4bgn12rcd13ifvqbt0","pricing_plan_id":"cebpf4jnsgd1na2vs0mg"},{"bike_id":"ddc9d34a-3a18-4656-afac-2c40e00335c6","system_id":"levelo_inurba_marseille","lat":43.26488,"lon":5.39557,"is_reserved":false,"is_disabled":false,"rental_uris":{"android":"levelo://app?vid=ddc9d34a-3a18-4656-afac-2c40e00335c6","ios":"levelo://app?vid=ddc9d34a-3a18-4656-afac-2c40e00335c6"},"vehicle_type_id":"4","last_reported":1729789680,"current_range_meters":16800,"station_id":"ce4bhi12rcd13ifvqfq0","pricing_plan_id":"cebpf4jnsgd1na2vs0mg"},{"bike_id":"f9a54d44-d4a7-46dc-9c89-89283c4b7de7","system_id":"levelo_inurba_marseille","lat":43.29846,"lon":5.36277,"is_reserved":false,"is_disabled":false,"rental_uris":{"android":"levelo://app?vid=f9a54d44-d4a7-46dc-9c89-89283c4b7de7","ios":"levelo://app?vid=f9a54d44-d4a7-46dc-9c89-89283c4b7de7"},"vehicle_type_id":"4","last_reported":1729789680,"current_range_meters":400,"station_id":"ce4bgpp2rcd13ifvqc3g","pricing_plan_id":"cebpf4jnsgd1na2vs0mg"},{"bike_id":"743abaf1-2fda-4a51-9e0a-0c893ab1848c","system_id":"levelo_inurba_marseille","lat":43.25583,"lon":5.38233,"is_reserved":false,"is_disabled":false,"rental_uris":{"android":"levelo://app?vid=743abaf1-2fda-4a51-9e0a-0c893ab1848c","ios":"levelo://app?vid=743abaf1-2fda-4a51-9e0a-0c893ab1848c"},"vehicle_type_id":"4","last_reported":1729789680,"current_range_meters":3600,"station_id":"ce4bhih2rcd13ifvqfs0","pricing_plan_id":"cebpf4jnsgd1na2vs0mg"},{"bike_id":"ce1440f9-ed9a-4c6c-bb53-ae7c2dce2969","system_id":"levelo_inurba_marseille","lat":43.29067,"lon":5.3717,"is_reserved":false,"is_disabled":false,"rental_uris":{"android":"levelo://app?vid=ce1440f9-ed9a-4c6c-bb53-ae7c2dce2969","ios":"levelo://app?vid=ce1440f9-ed9a-4c6c-bb53-ae7c2dce2969"},"vehicle_type_id":"4","last_reported":1729789680,"current_range_meters":28400,"station_id":"ce4bh5p2rcd13ifvqe4g","pricing_plan_id":"cebpf4jnsgd1na2vs0mg"},{"bike_id":"a83bb183-5954-46b0-bd47-7bae02fb646e","system_id":"levelo_inurba_marseille","lat":43.2501,"lon":5.38932,"is_reserved":false,"is_disabled":false,"rental_uris":{"android":"levelo://app?vid=a83bb183-5954-46b0-bd47-7bae02fb646e","ios":"levelo://app?vid=a83bb183-5954-46b0-bd47-7bae02fb646e"},"vehicle_type_id":"4","last_reported":1729789680,"current_range_meters":33600,"station_id":"ce4bhgp2rcd13ifvqfd0","pricing_plan_id":"cebpf4jnsgd1na2vs0mg"},{"bike_id":"0a640d1c-fe2b-43df-9ad3-9068b204c66c","system_id":"levelo_inurba_marseille","lat":43.29802,"lon":5.40397,"is_reserved":false,"is_disabled":false,"rental_uris":{"android":"levelo://app?vid=0a640d1c-fe2b-43df-9ad3-9068b204c66c","ios":"levelo://app?vid=0a640d1c-fe2b-43df-9ad3-9068b204c66c"},"vehicle_type_id":"4","last_reported":1729789680,"current_range_meters":27600,"station_id":"ce4bh112rcd13ifvqd90","pricing_plan_id":"cebpf4jnsgd1na2vs0mg"},{"bike_id":"40aa32d1-fa1b-4cb2-85ac-ea6f6cb2d1d7","system_id":"levelo_inurba_marseille","lat":43.29791,"lon":5.37108,"is_reserved":false,"is_disabled":false,"rental_uris":{"android":"levelo://app?vid=40aa32d1-fa1b-4cb2-85ac-ea6f6cb2d1d7","ios":"levelo://app?vid=40aa32d1-fa1b-4cb2-85ac-ea6f6cb2d1d7"},"vehicle_type_id":"4","last_reported":1729789680,"current_range_meters":10800,"station_id":"ce4bgop2rcd13ifvqc1g","pricing_plan_id":"cebpf4jnsgd1na2vs0mg"},{"bike_id":"98a8f88f-e739-4474-98c6-4aca77f0a54b","system_id":"levelo_inurba_marseille","lat":43.30423,"lon":5.41279,"is_reserved":false,"is_disabled":false,"rental_uris":{"android":"levelo://app?vid=98a8f88f-e739-4474-98c6-4aca77f0a54b","ios":"levelo://app?vid=98a8f88f-e739-4474-98c6-4aca77f0a54b"},"vehicle_type_id":"4","last_reported":1729789680,"current_range_meters":8400,"station_id":"ce4bhop2rcd13ifvqh8g","pricing_plan_id":"cebpf4jnsgd1na2vs0mg"},{"bike_id":"14cec377-7827-4686-b5f3-ffafa4bcb451","system_id":"levelo_inurba_marseille","lat":43.29556,"lon":5.42286,"is_reserved":false,"is_disabled":false,"rental_uris":{"android":"levelo://app?vid=14cec377-7827-4686-b5f3-ffafa4bcb451","ios":"levelo://app?vid=14cec377-7827-4686-b5f3-ffafa4bcb451"},"vehicle_type_id":"4","last_reported":1729789680,"current_range_meters":20800,"station_id":"ce4bhph2rcd13ifvqhdg","pricing_plan_id":"cebpf4jnsgd1na2vs0mg"},{"bike_id":"18be3625-dee0-4903-8828-d9ce4854b664","system_id":"levelo_inurba_marseille","lat":43.25588,"lon":5.38232,"is_reserved":false,"is_disabled":false,"rental_uris":{"android":"levelo://app?vid=18be3625-dee0-4903-8828-d9ce4854b664","ios":"levelo://app?vid=18be3625-dee0-4903-8828-d9ce4854b664"},"vehicle_type_id":"4","last_reported":1729789680,"current_range_meters":3200,"station_id":"ce4bhih2rcd13ifvqfs0","pricing_plan_id":"cebpf4jnsgd1na2vs0mg"},{"bike_id":"7691659f-eea1-4b4d-8db5-2728fcde3a23","system_id":"levelo_inurba_marseille","lat":43.32329,"lon":5.38528,"is_reserved":false,"is_disabled":false,"rental_uris":{"android":"levelo://app?vid=7691659f-eea1-4b4d-8db5-2728fcde3a23","ios":"levelo://app?vid=7691659f-eea1-4b4d-8db5-2728fcde3a23"},"vehicle_type_id":"4","last_reported":1729789680,"current_range_meters":28000,"station_id":"ce4bhr12rcd13ifvqhqg","pricing_plan_id":"cebpf4jnsgd1na2vs0mg"},{"bike_id":"d025cf9a-9cd7-49f3-a8f6-f22a96aba4bc","system_id":"levelo_inurba_marseille","lat":43.2996,"lon":5.3717,"is_reserved":false,"is_disabled":false,"rental_uris":{"android":"levelo://app?vid=d025cf9a-9cd7-49f3-a8f6-f22a96aba4bc","ios":"levelo://app?vid=d025cf9a-9cd7-49f3-a8f6-f22a96aba4bc"},"vehicle_type_id":"4","last_reported":1729789680,"current_range_meters":6800,"station_id":"ce4bhb92rcd13ifvqen0","pricing_plan_id":"cebpf4jnsgd1na2vs0mg"},{"bike_id":"04c65914-75b0-4e7b-915c-e78ebf87ac08","system_id":"levelo_inurba_marseille","lat":43.28157,"lon":5.42643,"is_reserved":false,"is_disabled":false,"rental_uris":{"android":"levelo://app?vid=04c65914-75b0-4e7b-915c-e78ebf87ac08","ios":"levelo://app?vid=04c65914-75b0-4e7b-915c-e78ebf87ac08"},"vehicle_type_id":"4","last_reported":1729789680,"current_range_meters":18800,"station_id":"ce4bhnh2rcd13ifvqgug","pricing_plan_id":"cebpf4jnsgd1na2vs0mg"},{"bike_id":"a8a5774c-1d79-4b70-8686-f07f7e337405","system_id":"levelo_inurba_marseille","lat":43.25867,"lon":5.399,"is_reserved":false,"is_disabled":false,"rental_uris":{"android":"levelo://app?vid=a8a5774c-1d79-4b70-8686-f07f7e337405","ios":"levelo://app?vid=a8a5774c-1d79-4b70-8686-f07f7e337405"},"vehicle_type_id":"4","last_reported":1729789680,"current_range_meters":4000,"station_id":"ce4bhl92rcd13ifvqghg","pricing_plan_id":"cebpf4jnsgd1na2vs0mg"},{"bike_id":"228c2a65-a88a-474e-baae-39029ce20359","system_id":"levelo_inurba_marseille","lat":43.24072,"lon":5.37747,"is_reserved":false,"is_disabled":false,"rental_uris":{"android":"levelo://app?vid=228c2a65-a88a-474e-baae-39029ce20359","ios":"levelo://app?vid=228c2a65-a88a-474e-baae-39029ce20359"},"vehicle_type_id":"4","last_reported":1729789680,"current_range_meters":18800,"station_id":"ce4bhnp2rcd13ifvqgvg","pricing_plan_id":"cebpf4jnsgd1na2vs0mg"},{"bike_id":"f6725a65-3f44-453e-9350-d809f9d15454","system_id":"levelo_inurba_marseille","lat":43.29422,"lon":5.38617,"is_reserved":false,"is_disabled":false,"rental_uris":{"android":"levelo://app?vid=f6725a65-3f44-453e-9350-d809f9d15454","ios":"levelo://app?vid=f6725a65-3f44-453e-9350-d809f9d15454"},"vehicle_type_id":"4","last_reported":1729789680,"current_range_meters":17600,"station_id":"ce4bh2h2rcd13ifvqdh0","pricing_plan_id":"cebpf4jnsgd1na2vs0mg"},{"bike_id":"e39826b4-8392-4235-affc-037e147ed687","system_id":"levelo_inurba_marseille","lat":43.2971,"lon":5.36609,"is_reserved":false,"is_disabled":false,"rental_uris":{"android":"levelo://app?vid=e39826b4-8392-4235-affc-037e147ed687","ios":"levelo://app?vid=e39826b4-8392-4235-affc-037e147ed687"},"vehicle_type_id":"4","last_reported":1729789680,"current_range_meters":5600,"station_id":"ce4bgn12rcd13ifvqbt0","pricing_plan_id":"cebpf4jnsgd1na2vs0mg"},{"bike_id":"4b6769f0-9d52-4427-92eb-85214df0463d","system_id":"levelo_inurba_marseille","lat":43.232,"lon":5.35559,"is_reserved":false,"is_disabled":false,"rental_uris":{"android":"levelo://app?vid=4b6769f0-9d52-4427-92eb-85214df0463d","ios":"levelo://app?vid=4b6769f0-9d52-4427-92eb-85214df0463d"},"vehicle_type_id":"4","last_reported":1729789680,"current_range_meters":38400,"station_id":"ce4bhu92rcd13ifvqi70","pricing_plan_id":"cebpf4jnsgd1na2vs0mg"},{"bike_id":"5291e557-c918-4db6-9386-b480fab8b930","system_id":"levelo_inurba_marseille","lat":43.24805,"lon":5.37459,"is_reserved":false,"is_disabled":false,"rental_uris":{"android":"levelo://app?vid=5291e557-c918-4db6-9386-b480fab8b930","ios":"levelo://app?vid=5291e557-c918-4db6-9386-b480fab8b930"},"vehicle_type_id":"4","last_reported":1729789680,"current_range_meters":22800,"station_id":"ce4bhgh2rcd13ifvqfb0","pricing_plan_id":"cebpf4jnsgd1na2vs0mg"},{"bike_id":"0ac2b4b1-8b19-423d-8023-dbb94d38427f","system_id":"levelo_inurba_marseille","lat":43.24071,"lon":5.37765,"is_reserved":false,"is_disabled":false,"rental_uris":{"android":"levelo://app?vid=0ac2b4b1-8b19-423d-8023-dbb94d38427f","ios":"levelo://app?vid=0ac2b4b1-8b19-423d-8023-dbb94d38427f"},"vehicle_type_id":"4","last_reported":1729789680,"current_range_meters":34000,"station_id":"ce4bhnp2rcd13ifvqgvg","pricing_plan_id":"cebpf4jnsgd1na2vs0mg"},{"bike_id":"303bfd12-09b7-400e-9f0e-8535d468050c","system_id":"levelo_inurba_marseille","lat":43.28413,"lon":5.34997,"is_reserved":false,"is_disabled":false,"rental_uris":{"android":"levelo://app?vid=303bfd12-09b7-400e-9f0e-8535d468050c","ios":"levelo://app?vid=303bfd12-09b7-400e-9f0e-8535d468050c"},"vehicle_type_id":"4","last_reported":1729789680,"current_range_meters":18000,"station_id":"ce4bhbh2rcd13ifvqepg","pricing_plan_id":"cebpf4jnsgd1na2vs0mg"},{"bike_id":"103ed008-6f4b-4142-8ae0-e6b210d9a427","system_id":"levelo_inurba_marseille","lat":43.22928,"lon":5.35374,"is_reserved":false,"is_disabled":false,"rental_uris":{"android":"levelo://app?vid=103ed008-6f4b-4142-8ae0-e6b210d9a427","ios":"levelo://app?vid=103ed008-6f4b-4142-8ae0-e6b210d9a427"},"vehicle_type_id":"4","last_reported":1729789680,"current_range_meters":9600,"station_id":"cpo3532slgdg3j2ikp40","pricing_plan_id":"cebpf4jnsgd1na2vs0mg"},{"bike_id":"16e3e0e5-bd85-4fd2-b857-f3c660d4ae0d","system_id":"levelo_inurba_marseille","lat":43.240836,"lon":5.377397,"is_reserved":false,"is_disabled":false,"rental_uris":{"android":"levelo://app?vid=16e3e0e5-bd85-4fd2-b857-f3c660d4ae0d","ios":"levelo://app?vid=16e3e0e5-bd85-4fd2-b857-f3c660d4ae0d"},"vehicle_type_id":"4","last_reported":1729789680,"current_range_meters":37600,"station_id":"ce4bhnp2rcd13ifvqgvg","pricing_plan_id":"cebpf4jnsgd1na2vs0mg"},{"bike_id":"f378da28-eb2b-44ee-b934-1fe89f2495dd","system_id":"levelo_inurba_marseille","lat":43.29305,"lon":5.3746,"is_reserved":false,"is_disabled":false,"rental_uris":{"android":"levelo://app?vid=f378da28-eb2b-44ee-b934-1fe89f2495dd","ios":"levelo://app?vid=f378da28-eb2b-44ee-b934-1fe89f2495dd"},"vehicle_type_id":"4","last_reported":1729789680,"current_range_meters":18800,"station_id":"ce4bgi12rcd13ifvqb70","pricing_plan_id":"cebpf4jnsgd1na2vs0mg"},{"bike_id":"bfdaaba9-00ee-4476-b15d-93b7821ab8db","system_id":"levelo_inurba_marseille","lat":43.29252,"lon":5.38443,"is_reserved":false,"is_disabled":false,"rental_uris":{"android":"levelo://app?vid=bfdaaba9-00ee-4476-b15d-93b7821ab8db","ios":"levelo://app?vid=bfdaaba9-00ee-4476-b15d-93b7821ab8db"},"vehicle_type_id":"4","last_reported":1729789680,"current_range_meters":27600,"station_id":"ce4bh692rcd13ifvqea0","pricing_plan_id":"cebpf4jnsgd1na2vs0mg"},{"bike_id":"0bc90dc2-cf8c-457e-a6aa-9b91de95f992","system_id":"levelo_inurba_marseille","lat":43.22766,"lon":5.41579,"is_reserved":false,"is_disabled":false,"rental_uris":{"android":"levelo://app?vid=0bc90dc2-cf8c-457e-a6aa-9b91de95f992","ios":"levelo://app?vid=0bc90dc2-cf8c-457e-a6aa-9b91de95f992"},"vehicle_type_id":"4","last_reported":1729789680,"current_range_meters":32000,"station_id":"","pricing_plan_id":"cebpf4jnsgd1na2vs0mg"},{"bike_id":"80fc4f6c-d67b-488d-82a0-fc009364fd99","system_id":"levelo_inurba_marseille","lat":43.29555,"lon":5.42285,"is_reserved":false,"is_disabled":false,"rental_uris":{"android":"levelo://app?vid=80fc4f6c-d67b-488d-82a0-fc009364fd99","ios":"levelo://app?vid=80fc4f6c-d67b-488d-82a0-fc009364fd99"},"vehicle_type_id":"4","last_reported":1729789680,"current_range_meters":16800,"station_id":"ce4bhph2rcd13ifvqhdg","pricing_plan_id":"cebpf4jnsgd1na2vs0mg"},{"bike_id":"558500c4-5b78-451b-b7fa-fc5420cc422e","system_id":"levelo_inurba_marseille","lat":43.32312,"lon":5.38531,"is_reserved":false,"is_disabled":false,"rental_uris":{"android":"levelo://app?vid=558500c4-5b78-451b-b7fa-fc5420cc422e","ios":"levelo://app?vid=558500c4-5b78-451b-b7fa-fc5420cc422e"},"vehicle_type_id":"4","last_reported":1729789680,"current_range_meters":26800,"station_id":"","pricing_plan_id":"cebpf4jnsgd1na2vs0mg"},{"bike_id":"9d37ddd4-2b61-4713-8a62-0d4f3fabcc3e","system_id":"levelo_inurba_marseille","lat":43.30875,"lon":5.39644,"is_reserved":false,"is_disabled":false,"rental_uris":{"android":"levelo://app?vid=9d37ddd4-2b61-4713-8a62-0d4f3fabcc3e","ios":"levelo://app?vid=9d37ddd4-2b61-4713-8a62-0d4f3fabcc3e"},"vehicle_type_id":"4","last_reported":1729789680,"current_range_meters":14800,"station_id":"ce4bh012rcd13ifvqcv0","pricing_plan_id":"cebpf4jnsgd1na2vs0mg"},{"bike_id":"e2a68541-49b2-49da-af3d-65a338824e59","system_id":"levelo_inurba_marseille","lat":43.30803,"lon":5.43523,"is_reserved":false,"is_disabled":false,"rental_uris":{"android":"levelo://app?vid=e2a68541-49b2-49da-af3d-65a338824e59","ios":"levelo://app?vid=e2a68541-49b2-49da-af3d-65a338824e59"},"vehicle_type_id":"4","last_reported":1729789680,"current_range_meters":1600,"station_id":"ce4bhph2rcd13ifvqheg","pricing_plan_id":"cebpf4jnsgd1na2vs0mg"},{"bike_id":"a7308642-2672-4aff-b8c9-911f3753afde","system_id":"levelo_inurba_marseille","lat":43.303,"lon":5.39208,"is_reserved":false,"is_disabled":false,"rental_uris":{"android":"levelo://app?vid=a7308642-2672-4aff-b8c9-911f3753afde","ios":"levelo://app?vid=a7308642-2672-4aff-b8c9-911f3753afde"},"vehicle_type_id":"4","last_reported":1729789680,"current_range_meters":28000,"station_id":"ce4bgkh2rcd13ifvqbk0","pricing_plan_id":"cebpf4jnsgd1na2vs0mg"},{"bike_id":"8b99d4d2-d0af-4210-b886-1f64213cdd53","system_id":"levelo_inurba_marseille","lat":43.27682,"lon":5.38872,"is_reserved":false,"is_disabled":false,"rental_uris":{"android":"levelo://app?vid=8b99d4d2-d0af-4210-b886-1f64213cdd53","ios":"levelo://app?vid=8b99d4d2-d0af-4210-b886-1f64213cdd53"},"vehicle_type_id":"4","last_reported":1729789680,"current_range_meters":31200,"station_id":"ce4bhi12rcd13ifvqfo0","pricing_plan_id":"cebpf4jnsgd1na2vs0mg"},{"bike_id":"9cc86360-5eab-45ae-a458-952e8a91e43e","system_id":"levelo_inurba_marseille","lat":43.22933,"lon":5.35379,"is_reserved":false,"is_disabled":false,"rental_uris":{"android":"levelo://app?vid=9cc86360-5eab-45ae-a458-952e8a91e43e","ios":"levelo://app?vid=9cc86360-5eab-45ae-a458-952e8a91e43e"},"vehicle_type_id":"4","last_reported":1729789680,"current_range_meters":16000,"station_id":"cpo3532slgdg3j2ikp40","pricing_plan_id":"cebpf4jnsgd1na2vs0mg"},{"bike_id":"7c72f3d4-9f64-4313-b180-ed24ffe9acbd","system_id":"levelo_inurba_marseille","lat":43.29263,"lon":5.38436,"is_reserved":false,"is_disabled":false,"rental_uris":{"android":"levelo://app?vid=7c72f3d4-9f64-4313-b180-ed24ffe9acbd","ios":"levelo://app?vid=7c72f3d4-9f64-4313-b180-ed24ffe9acbd"},"vehicle_type_id":"4","last_reported":1729789680,"current_range_meters":27200,"station_id":"ce4bh692rcd13ifvqea0","pricing_plan_id":"cebpf4jnsgd1na2vs0mg"},{"bike_id":"56804446-1b6b-4a40-81a8-5ca1116f71fd","system_id":"levelo_inurba_marseille","lat":43.28416,"lon":5.34989,"is_reserved":false,"is_disabled":false,"rental_uris":{"android":"levelo://app?vid=56804446-1b6b-4a40-81a8-5ca1116f71fd","ios":"levelo://app?vid=56804446-1b6b-4a40-81a8-5ca1116f71fd"},"vehicle_type_id":"4","last_reported":1729789680,"current_range_meters":28000,"station_id":"ce4bhbh2rcd13ifvqepg","pricing_plan_id":"cebpf4jnsgd1na2vs0mg"},{"bike_id":"6540dced-4a6d-443b-b78e-bb8174f36873","system_id":"levelo_inurba_marseille","lat":43.27186,"lon":5.40998,"is_reserved":false,"is_disabled":false,"rental_uris":{"android":"levelo://app?vid=6540dced-4a6d-443b-b78e-bb8174f36873","ios":"levelo://app?vid=6540dced-4a6d-443b-b78e-bb8174f36873"},"vehicle_type_id":"4","last_reported":1729789680,"current_range_meters":20000,"station_id":"ce4bhl12rcd13ifvqgf0","pricing_plan_id":"cebpf4jnsgd1na2vs0mg"},{"bike_id":"36856ec2-b80b-4ae8-abff-10088c18f7e8","system_id":"levelo_inurba_marseille","lat":43.24167,"lon":5.36398,"is_reserved":false,"is_disabled":false,"rental_uris":{"android":"levelo://app?vid=36856ec2-b80b-4ae8-abff-10088c18f7e8","ios":"levelo://app?vid=36856ec2-b80b-4ae8-abff-10088c18f7e8"},"vehicle_type_id":"4","last_reported":1729789680,"current_range_meters":38800,"station_id":"cpo36qri1sfpv3e86is0","pricing_plan_id":"cebpf4jnsgd1na2vs0mg"},{"bike_id":"78dd4c6c-699f-4c6a-8ee5-1aa5251459a8","system_id":"levelo_inurba_marseille","lat":43.29897,"lon":5.43675,"is_reserved":false,"is_disabled":false,"rental_uris":{"android":"levelo://app?vid=78dd4c6c-699f-4c6a-8ee5-1aa5251459a8","ios":"levelo://app?vid=78dd4c6c-699f-4c6a-8ee5-1aa5251459a8"},"vehicle_type_id":"4","last_reported":1729789680,"current_range_meters":16000,"station_id":"ce4bhpp2rcd13ifvqhfg","pricing_plan_id":"cebpf4jnsgd1na2vs0mg"},{"bike_id":"304995c1-25a0-4cf1-adcc-2f1260379d9b","system_id":"levelo_inurba_marseille","lat":43.28615,"lon":5.35105,"is_reserved":false,"is_disabled":false,"rental_uris":{"android":"levelo://app?vid=304995c1-25a0-4cf1-adcc-2f1260379d9b","ios":"levelo://app?vid=304995c1-25a0-4cf1-adcc-2f1260379d9b"},"vehicle_type_id":"4","last_reported":1729789680,"current_range_meters":16400,"station_id":"ce4bhch2rcd13ifvqeug","pricing_plan_id":"cebpf4jnsgd1na2vs0mg"},{"bike_id":"34914c38-8ab6-4312-aa38-12468df64f83","system_id":"levelo_inurba_marseille","lat":43.30885,"lon":5.39644,"is_reserved":false,"is_disabled":false,"rental_uris":{"android":"levelo://app?vid=34914c38-8ab6-4312-aa38-12468df64f83","ios":"levelo://app?vid=34914c38-8ab6-4312-aa38-12468df64f83"},"vehicle_type_id":"4","last_reported":1729789680,"current_range_meters":3600,"station_id":"ce4bh012rcd13ifvqcv0","pricing_plan_id":"cebpf4jnsgd1na2vs0mg"},{"bike_id":"3a526fc6-5f14-429c-8829-287dc38ef285","system_id":"levelo_inurba_marseille","lat":43.22931,"lon":5.35374,"is_reserved":false,"is_disabled":false,"rental_uris":{"android":"levelo://app?vid=3a526fc6-5f14-429c-8829-287dc38ef285","ios":"levelo://app?vid=3a526fc6-5f14-429c-8829-287dc38ef285"},"vehicle_type_id":"4","last_reported":1729789680,"current_range_meters":30400,"station_id":"cpo3532slgdg3j2ikp40","pricing_plan_id":"cebpf4jnsgd1na2vs0mg"},{"bike_id":"6496e66e-1aea-4b5e-9236-f3537fbbeed5","system_id":"levelo_inurba_marseille","lat":43.281494,"lon":5.426328,"is_reserved":false,"is_disabled":false,"rental_uris":{"android":"levelo://app?vid=6496e66e-1aea-4b5e-9236-f3537fbbeed5","ios":"levelo://app?vid=6496e66e-1aea-4b5e-9236-f3537fbbeed5"},"vehicle_type_id":"4","last_reported":1729789680,"current_range_meters":9200,"station_id":"ce4bhnh2rcd13ifvqgug","pricing_plan_id":"cebpf4jnsgd1na2vs0mg"},{"bike_id":"365a5e76-e012-4983-b8a9-1a07480bde83","system_id":"levelo_inurba_marseille","lat":43.23192,"lon":5.35547,"is_reserved":false,"is_disabled":false,"rental_uris":{"android":"levelo://app?vid=365a5e76-e012-4983-b8a9-1a07480bde83","ios":"levelo://app?vid=365a5e76-e012-4983-b8a9-1a07480bde83"},"vehicle_type_id":"4","last_reported":1729789680,"current_range_meters":39200,"station_id":"ce4bhu92rcd13ifvqi70","pricing_plan_id":"cebpf4jnsgd1na2vs0mg"},{"bike_id":"2ad01a87-7f11-4e3b-a5f4-4ceaba9f5b00","system_id":"levelo_inurba_marseille","lat":43.30309,"lon":5.3921,"is_reserved":false,"is_disabled":false,"rental_uris":{"android":"levelo://app?vid=2ad01a87-7f11-4e3b-a5f4-4ceaba9f5b00","ios":"levelo://app?vid=2ad01a87-7f11-4e3b-a5f4-4ceaba9f5b00"},"vehicle_type_id":"4","last_reported":1729789680,"current_range_meters":24800,"station_id":"ce4bgkh2rcd13ifvqbk0","pricing_plan_id":"cebpf4jnsgd1na2vs0mg"},{"bike_id":"313366c0-6dc0-4ce6-8d58-7e7ec1af783b","system_id":"levelo_inurba_marseille","lat":43.30303,"lon":5.39207,"is_reserved":false,"is_disabled":false,"rental_uris":{"android":"levelo://app?vid=313366c0-6dc0-4ce6-8d58-7e7ec1af783b","ios":"levelo://app?vid=313366c0-6dc0-4ce6-8d58-7e7ec1af783b"},"vehicle_type_id":"4","last_reported":1729789680,"current_range_meters":12000,"station_id":"ce4bgkh2rcd13ifvqbk0","pricing_plan_id":"cebpf4jnsgd1na2vs0mg"},{"bike_id":"e26421ff-7b3d-4c9c-b9b9-b3feff10e008","system_id":"levelo_inurba_marseille","lat":43.3127,"lon":5.40174,"is_reserved":false,"is_disabled":false,"rental_uris":{"android":"levelo://app?vid=e26421ff-7b3d-4c9c-b9b9-b3feff10e008","ios":"levelo://app?vid=e26421ff-7b3d-4c9c-b9b9-b3feff10e008"},"vehicle_type_id":"4","last_reported":1729789680,"current_range_meters":12400,"station_id":"ce4bh092rcd13ifvqd30","pricing_plan_id":"cebpf4jnsgd1na2vs0mg"},{"bike_id":"d4c3f55d-fd45-4f78-9f7c-d19fe141e9b6","system_id":"levelo_inurba_marseille","lat":43.310665,"lon":5.400845,"is_reserved":false,"is_disabled":false,"rental_uris":{"android":"levelo://app?vid=d4c3f55d-fd45-4f78-9f7c-d19fe141e9b6","ios":"levelo://app?vid=d4c3f55d-fd45-4f78-9f7c-d19fe141e9b6"},"vehicle_type_id":"4","last_reported":1729789680,"current_range_meters":32000,"station_id":"ce4bhpp2rcd13ifvqhfg","pricing_plan_id":"cebpf4jnsgd1na2vs0mg"},{"bike_id":"0e5ff133-53e0-4524-a622-bae3c50c3545","system_id":"levelo_inurba_marseille","lat":43.24387,"lon":5.37059,"is_reserved":false,"is_disabled":false,"rental_uris":{"android":"levelo://app?vid=0e5ff133-53e0-4524-a622-bae3c50c3545","ios":"levelo://app?vid=0e5ff133-53e0-4524-a622-bae3c50c3545"},"vehicle_type_id":"4","last_reported":1729789680,"current_range_meters":35600,"station_id":"ce4bhhh2rcd13ifvqfk0","pricing_plan_id":"cebpf4jnsgd1na2vs0mg"},{"bike_id":"6ae4de9e-49af-416c-8214-d97fd43fa0b9","system_id":"levelo_inurba_marseille","lat":43.32329,"lon":5.38523,"is_reserved":false,"is_disabled":false,"rental_uris":{"android":"levelo://app?vid=6ae4de9e-49af-416c-8214-d97fd43fa0b9","ios":"levelo://app?vid=6ae4de9e-49af-416c-8214-d97fd43fa0b9"},"vehicle_type_id":"4","last_reported":1729789680,"current_range_meters":8400,"station_id":"","pricing_plan_id":"cebpf4jnsgd1na2vs0mg"},{"bike_id":"041849db-b192-4ed6-b6df-e18aeaa0d45f","system_id":"levelo_inurba_marseille","lat":43.28415,"lon":5.34992,"is_reserved":false,"is_disabled":false,"rental_uris":{"android":"levelo://app?vid=041849db-b192-4ed6-b6df-e18aeaa0d45f","ios":"levelo://app?vid=041849db-b192-4ed6-b6df-e18aeaa0d45f"},"vehicle_type_id":"4","last_reported":1729789680,"current_range_meters":22400,"station_id":"ce4bhbh2rcd13ifvqepg","pricing_plan_id":"cebpf4jnsgd1na2vs0mg"},{"bike_id":"9c78078a-7e8b-4511-8541-a6915ed7654b","system_id":"levelo_inurba_marseille","lat":43.29532,"lon":5.38543,"is_reserved":false,"is_disabled":false,"rental_uris":{"android":"levelo://app?vid=9c78078a-7e8b-4511-8541-a6915ed7654b","ios":"levelo://app?vid=9c78078a-7e8b-4511-8541-a6915ed7654b"},"vehicle_type_id":"4","last_reported":1729789680,"current_range_meters":20800,"station_id":"ce4bgih2rcd13ifvqba0","pricing_plan_id":"cebpf4jnsgd1na2vs0mg"},{"bike_id":"57bb5f8d-1e87-4769-9c41-8f46c442bbab","system_id":"levelo_inurba_marseille","lat":43.29595,"lon":5.381,"is_reserved":false,"is_disabled":false,"rental_uris":{"android":"levelo://app?vid=57bb5f8d-1e87-4769-9c41-8f46c442bbab","ios":"levelo://app?vid=57bb5f8d-1e87-4769-9c41-8f46c442bbab"},"vehicle_type_id":"4","last_reported":1729789680,"current_range_meters":39200,"station_id":"ce4bgl12rcd13ifvqbo0","pricing_plan_id":"cebpf4jnsgd1na2vs0mg"},{"bike_id":"765658ed-f7cd-4463-8c81-ac62892bee30","system_id":"levelo_inurba_marseille","lat":43.28969,"lon":5.37838,"is_reserved":false,"is_disabled":false,"rental_uris":{"android":"levelo://app?vid=765658ed-f7cd-4463-8c81-ac62892bee30","ios":"levelo://app?vid=765658ed-f7cd-4463-8c81-ac62892bee30"},"vehicle_type_id":"4","last_reported":1729789680,"current_range_meters":35600,"station_id":"ce4bh9p2rcd13ifvqed0","pricing_plan_id":"cebpf4jnsgd1na2vs0mg"},{"bike_id":"1e8dae93-11ec-4cea-9a66-6f9eb73b4fc4","system_id":"levelo_inurba_marseille","lat":43.32368,"lon":5.38886,"is_reserved":false,"is_disabled":false,"rental_uris":{"android":"levelo://app?vid=1e8dae93-11ec-4cea-9a66-6f9eb73b4fc4","ios":"levelo://app?vid=1e8dae93-11ec-4cea-9a66-6f9eb73b4fc4"},"vehicle_type_id":"4","last_reported":1729789680,"current_range_meters":24000,"station_id":"ce4bhqp2rcd13ifvqhog","pricing_plan_id":"cebpf4jnsgd1na2vs0mg"},{"bike_id":"fcd8446d-545d-4e11-b2ae-e3285ea5db27","system_id":"levelo_inurba_marseille","lat":43.29984,"lon":5.385,"is_reserved":false,"is_disabled":false,"rental_uris":{"android":"levelo://app?vid=fcd8446d-545d-4e11-b2ae-e3285ea5db27","ios":"levelo://app?vid=fcd8446d-545d-4e11-b2ae-e3285ea5db27"},"vehicle_type_id":"4","last_reported":1729789680,"current_range_meters":38800,"station_id":"ce4bgj92rcd13ifvqbd0","pricing_plan_id":"cebpf4jnsgd1na2vs0mg"},{"bike_id":"64b170f8-2500-48ef-96a3-25f7c0707542","system_id":"levelo_inurba_marseille","lat":43.337444,"lon":5.374475,"is_reserved":false,"is_disabled":false,"rental_uris":{"android":"levelo://app?vid=64b170f8-2500-48ef-96a3-25f7c0707542","ios":"levelo://app?vid=64b170f8-2500-48ef-96a3-25f7c0707542"},"vehicle_type_id":"4","last_reported":1729789680,"current_range_meters":6000,"station_id":"","pricing_plan_id":"cebpf4jnsgd1na2vs0mg"},{"bike_id":"1ac40b37-c226-44e4-949b-d14311da6aad","system_id":"levelo_inurba_marseille","lat":43.2693,"lon":5.38929,"is_reserved":false,"is_disabled":false,"rental_uris":{"android":"levelo://app?vid=1ac40b37-c226-44e4-949b-d14311da6aad","ios":"levelo://app?vid=1ac40b37-c226-44e4-949b-d14311da6aad"},"vehicle_type_id":"4","last_reported":1729789680,"current_range_meters":25600,"station_id":"ce4bhhh2rcd13ifvqfl0","pricing_plan_id":"cebpf4jnsgd1na2vs0mg"},{"bike_id":"4f409860-e0f7-4877-99ee-a24fed7f0e97","system_id":"levelo_inurba_marseille","lat":43.2781,"lon":5.40718,"is_reserved":false,"is_disabled":false,"rental_uris":{"android":"levelo://app?vid=4f409860-e0f7-4877-99ee-a24fed7f0e97","ios":"levelo://app?vid=4f409860-e0f7-4877-99ee-a24fed7f0e97"},"vehicle_type_id":"4","last_reported":1729789680,"current_range_meters":36000,"station_id":"ce4bhnh2rcd13ifvqgtg","pricing_plan_id":"cebpf4jnsgd1na2vs0mg"},{"bike_id":"2fcdd798-e778-4442-9a04-c4ae9c6da565","system_id":"levelo_inurba_marseille","lat":43.29252,"lon":5.40915,"is_reserved":false,"is_disabled":false,"rental_uris":{"android":"levelo://app?vid=2fcdd798-e778-4442-9a04-c4ae9c6da565","ios":"levelo://app?vid=2fcdd798-e778-4442-9a04-c4ae9c6da565"},"vehicle_type_id":"4","last_reported":1729789680,"current_range_meters":18000,"station_id":"ce4bh192rcd13ifvqdc0","pricing_plan_id":"cebpf4jnsgd1na2vs0mg"},{"bike_id":"d86d9b25-9894-4853-a422-1be6249c8c5b","system_id":"levelo_inurba_marseille","lat":43.28414,"lon":5.34993,"is_reserved":false,"is_disabled":false,"rental_uris":{"android":"levelo://app?vid=d86d9b25-9894-4853-a422-1be6249c8c5b","ios":"levelo://app?vid=d86d9b25-9894-4853-a422-1be6249c8c5b"},"vehicle_type_id":"4","last_reported":1729789680,"current_range_meters":39200,"station_id":"ce4bhbh2rcd13ifvqepg","pricing_plan_id":"cebpf4jnsgd1na2vs0mg"},{"bike_id":"e41607d9-3daf-40d3-8b46-f5fd98de6384","system_id":"levelo_inurba_marseille","lat":43.28416,"lon":5.37517,"is_reserved":false,"is_disabled":false,"rental_uris":{"android":"levelo://app?vid=e41607d9-3daf-40d3-8b46-f5fd98de6384","ios":"levelo://app?vid=e41607d9-3daf-40d3-8b46-f5fd98de6384"},"vehicle_type_id":"4","last_reported":1729789680,"current_range_meters":28400,"station_id":"ce4bh412rcd13ifvqds0","pricing_plan_id":"cebpf4jnsgd1na2vs0mg"},{"bike_id":"4aed350e-1ca7-498b-8b1c-164e4ecd3d02","system_id":"levelo_inurba_marseille","lat":43.29712,"lon":5.36598,"is_reserved":false,"is_disabled":false,"rental_uris":{"android":"levelo://app?vid=4aed350e-1ca7-498b-8b1c-164e4ecd3d02","ios":"levelo://app?vid=4aed350e-1ca7-498b-8b1c-164e4ecd3d02"},"vehicle_type_id":"4","last_reported":1729789680,"current_range_meters":6800,"station_id":"ce4bgn12rcd13ifvqbt0","pricing_plan_id":"cebpf4jnsgd1na2vs0mg"},{"bike_id":"0f9b9ad0-afce-4bfd-bf57-931acb265786","system_id":"levelo_inurba_marseille","lat":43.24804,"lon":5.37459,"is_reserved":false,"is_disabled":false,"rental_uris":{"android":"levelo://app?vid=0f9b9ad0-afce-4bfd-bf57-931acb265786","ios":"levelo://app?vid=0f9b9ad0-afce-4bfd-bf57-931acb265786"},"vehicle_type_id":"4","last_reported":1729789680,"current_range_meters":9200,"station_id":"ce4bhgh2rcd13ifvqfb0","pricing_plan_id":"cebpf4jnsgd1na2vs0mg"},{"bike_id":"97c7d666-fc46-4579-afe6-73f465d2d92a","system_id":"levelo_inurba_marseille","lat":43.31464,"lon":5.3921,"is_reserved":false,"is_disabled":false,"rental_uris":{"android":"levelo://app?vid=97c7d666-fc46-4579-afe6-73f465d2d92a","ios":"levelo://app?vid=97c7d666-fc46-4579-afe6-73f465d2d92a"},"vehicle_type_id":"4","last_reported":1729789680,"current_range_meters":14400,"station_id":"","pricing_plan_id":"cebpf4jnsgd1na2vs0mg"},{"bike_id":"2b2b55ee-496c-4df1-b522-88a2c43f4c15","system_id":"levelo_inurba_marseille","lat":43.26213,"lon":5.37445,"is_reserved":false,"is_disabled":false,"rental_uris":{"android":"levelo://app?vid=2b2b55ee-496c-4df1-b522-88a2c43f4c15","ios":"levelo://app?vid=2b2b55ee-496c-4df1-b522-88a2c43f4c15"},"vehicle_type_id":"4","last_reported":1729789680,"current_range_meters":38800,"station_id":"ce4bhgp2rcd13ifvqfc0","pricing_plan_id":"cebpf4jnsgd1na2vs0mg"},{"bike_id":"7579570f-99bf-41e2-bf21-7fd38ba44d82","system_id":"levelo_inurba_marseille","lat":43.28463,"lon":5.35893,"is_reserved":false,"is_disabled":false,"rental_uris":{"android":"levelo://app?vid=7579570f-99bf-41e2-bf21-7fd38ba44d82","ios":"levelo://app?vid=7579570f-99bf-41e2-bf21-7fd38ba44d82"},"vehicle_type_id":"4","last_reported":1729789680,"current_range_meters":8800,"station_id":"ce4bhah2rcd13ifvqei0","pricing_plan_id":"cebpf4jnsgd1na2vs0mg"},{"bike_id":"1b558aa9-605b-4f03-84be-fe98f76910f7","system_id":"levelo_inurba_marseille","lat":43.30313,"lon":5.39205,"is_reserved":false,"is_disabled":false,"rental_uris":{"android":"levelo://app?vid=1b558aa9-605b-4f03-84be-fe98f76910f7","ios":"levelo://app?vid=1b558aa9-605b-4f03-84be-fe98f76910f7"},"vehicle_type_id":"4","last_reported":1729789680,"current_range_meters":30800,"station_id":"ce4bgkh2rcd13ifvqbk0","pricing_plan_id":"cebpf4jnsgd1na2vs0mg"},{"bike_id":"ab3ba53f-9bb3-41e4-a57f-78a0e4727cc8","system_id":"levelo_inurba_marseille","lat":43.24665,"lon":5.381646,"is_reserved":false,"is_disabled":false,"rental_uris":{"android":"levelo://app?vid=ab3ba53f-9bb3-41e4-a57f-78a0e4727cc8","ios":"levelo://app?vid=ab3ba53f-9bb3-41e4-a57f-78a0e4727cc8"},"vehicle_type_id":"4","last_reported":1729789680,"current_range_meters":36800,"station_id":"ce4bhih2rcd13ifvqfr0","pricing_plan_id":"cebpf4jnsgd1na2vs0mg"},{"bike_id":"ebd705dc-c597-4c42-8543-aaca5fcd96a5","system_id":"levelo_inurba_marseille","lat":43.32468,"lon":5.3657,"is_reserved":false,"is_disabled":false,"rental_uris":{"android":"levelo://app?vid=ebd705dc-c597-4c42-8543-aaca5fcd96a5","ios":"levelo://app?vid=ebd705dc-c597-4c42-8543-aaca5fcd96a5"},"vehicle_type_id":"4","last_reported":1729789680,"current_range_meters":38800,"station_id":"ce4bhs12rcd13ifvqhvg","pricing_plan_id":"cebpf4jnsgd1na2vs0mg"},{"bike_id":"15a50d25-6e71-40cd-9608-140782200963","system_id":"levelo_inurba_marseille","lat":43.27312,"lon":5.3908,"is_reserved":false,"is_disabled":false,"rental_uris":{"android":"levelo://app?vid=15a50d25-6e71-40cd-9608-140782200963","ios":"levelo://app?vid=15a50d25-6e71-40cd-9608-140782200963"},"vehicle_type_id":"4","last_reported":1729789680,"current_range_meters":28000,"station_id":"ce4bhgp2rcd13ifvqfe0","pricing_plan_id":"cebpf4jnsgd1na2vs0mg"},{"bike_id":"8f7856b2-c668-4f5d-940a-4d5f309812ca","system_id":"levelo_inurba_marseille","lat":43.24073,"lon":5.37759,"is_reserved":false,"is_disabled":false,"rental_uris":{"android":"levelo://app?vid=8f7856b2-c668-4f5d-940a-4d5f309812ca","ios":"levelo://app?vid=8f7856b2-c668-4f5d-940a-4d5f309812ca"},"vehicle_type_id":"4","last_reported":1729789680,"current_range_meters":32800,"station_id":"ce4bhnp2rcd13ifvqgvg","pricing_plan_id":"cebpf4jnsgd1na2vs0mg"},{"bike_id":"e6511bbc-61fb-4495-bdbb-54e92154484e","system_id":"levelo_inurba_marseille","lat":43.2833,"lon":5.38101,"is_reserved":false,"is_disabled":false,"rental_uris":{"android":"levelo://app?vid=e6511bbc-61fb-4495-bdbb-54e92154484e","ios":"levelo://app?vid=e6511bbc-61fb-4495-bdbb-54e92154484e"},"vehicle_type_id":"4","last_reported":1729789680,"current_range_meters":24000,"station_id":"ce4bh412rcd13ifvqdr0","pricing_plan_id":"cebpf4jnsgd1na2vs0mg"},{"bike_id":"9163436a-3b35-472e-9a7c-baf944c10c48","system_id":"levelo_inurba_marseille","lat":43.30544,"lon":5.36557,"is_reserved":false,"is_disabled":false,"rental_uris":{"android":"levelo://app?vid=9163436a-3b35-472e-9a7c-baf944c10c48","ios":"levelo://app?vid=9163436a-3b35-472e-9a7c-baf944c10c48"},"vehicle_type_id":"4","last_reported":1729789680,"current_range_meters":6800,"station_id":"ce4bgs12rcd13ifvqcag","pricing_plan_id":"cebpf4jnsgd1na2vs0mg"},{"bike_id":"f2efbe0b-fce4-4d48-8838-e394dabb4cc9","system_id":"levelo_inurba_marseille","lat":43.26553,"lon":5.37288,"is_reserved":false,"is_disabled":false,"rental_uris":{"android":"levelo://app?vid=f2efbe0b-fce4-4d48-8838-e394dabb4cc9","ios":"levelo://app?vid=f2efbe0b-fce4-4d48-8838-e394dabb4cc9"},"vehicle_type_id":"4","last_reported":1729789680,"current_range_meters":37600,"station_id":"ce4bhg12rcd13ifvqf70","pricing_plan_id":"cebpf4jnsgd1na2vs0mg"},{"bike_id":"59536d99-5a8d-40ab-a377-8e9e902f8e2c","system_id":"levelo_inurba_marseille","lat":43.2929,"lon":5.37456,"is_reserved":false,"is_disabled":false,"rental_uris":{"android":"levelo://app?vid=59536d99-5a8d-40ab-a377-8e9e902f8e2c","ios":"levelo://app?vid=59536d99-5a8d-40ab-a377-8e9e902f8e2c"},"vehicle_type_id":"4","last_reported":1729789680,"current_range_meters":9200,"station_id":"ce4bgi12rcd13ifvqb70","pricing_plan_id":"cebpf4jnsgd1na2vs0mg"},{"bike_id":"9131424d-5f38-4003-a915-c4f2698059fa","system_id":"levelo_inurba_marseille","lat":43.24084,"lon":5.37742,"is_reserved":false,"is_disabled":false,"rental_uris":{"android":"levelo://app?vid=9131424d-5f38-4003-a915-c4f2698059fa","ios":"levelo://app?vid=9131424d-5f38-4003-a915-c4f2698059fa"},"vehicle_type_id":"4","last_reported":1729789680,"current_range_meters":38000,"station_id":"ce4bhnp2rcd13ifvqgvg","pricing_plan_id":"cebpf4jnsgd1na2vs0mg"},{"bike_id":"2ae542ef-dd9e-4dc5-b2ec-8d8246ea76bb","system_id":"levelo_inurba_marseille","lat":43.32104,"lon":5.36767,"is_reserved":false,"is_disabled":false,"rental_uris":{"android":"levelo://app?vid=2ae542ef-dd9e-4dc5-b2ec-8d8246ea76bb","ios":"levelo://app?vid=2ae542ef-dd9e-4dc5-b2ec-8d8246ea76bb"},"vehicle_type_id":"4","last_reported":1729789680,"current_range_meters":16000,"station_id":"ce4bhrh2rcd13ifvqhug","pricing_plan_id":"cebpf4jnsgd1na2vs0mg"},{"bike_id":"9ecdc9f3-d8c7-439d-8597-3851a4de27af","system_id":"levelo_inurba_marseille","lat":43.27621,"lon":5.36107,"is_reserved":false,"is_disabled":false,"rental_uris":{"android":"levelo://app?vid=9ecdc9f3-d8c7-439d-8597-3851a4de27af","ios":"levelo://app?vid=9ecdc9f3-d8c7-439d-8597-3851a4de27af"},"vehicle_type_id":"4","last_reported":1729789680,"current_range_meters":39200,"station_id":"ce4bgj92rcd13ifvqbe0","pricing_plan_id":"cebpf4jnsgd1na2vs0mg"},{"bike_id":"f630798a-3b93-40e1-8d7b-72b6d9e894d8","system_id":"levelo_inurba_marseille","lat":43.240844,"lon":5.377476,"is_reserved":false,"is_disabled":false,"rental_uris":{"android":"levelo://app?vid=f630798a-3b93-40e1-8d7b-72b6d9e894d8","ios":"levelo://app?vid=f630798a-3b93-40e1-8d7b-72b6d9e894d8"},"vehicle_type_id":"4","last_reported":1729789680,"current_range_meters":36400,"station_id":"ce4bhnp2rcd13ifvqgvg","pricing_plan_id":"cebpf4jnsgd1na2vs0mg"},{"bike_id":"1a5c0716-9d38-46ae-9bea-cbda1a338f70","system_id":"levelo_inurba_marseille","lat":43.32484,"lon":5.36577,"is_reserved":false,"is_disabled":false,"rental_uris":{"android":"levelo://app?vid=1a5c0716-9d38-46ae-9bea-cbda1a338f70","ios":"levelo://app?vid=1a5c0716-9d38-46ae-9bea-cbda1a338f70"},"vehicle_type_id":"4","last_reported":1729789680,"current_range_meters":37600,"station_id":"ce4bhs12rcd13ifvqhvg","pricing_plan_id":"cebpf4jnsgd1na2vs0mg"},{"bike_id":"604be2d7-5bf3-4964-a760-59a6256f6418","system_id":"levelo_inurba_marseille","lat":43.29704,"lon":5.36618,"is_reserved":false,"is_disabled":false,"rental_uris":{"android":"levelo://app?vid=604be2d7-5bf3-4964-a760-59a6256f6418","ios":"levelo://app?vid=604be2d7-5bf3-4964-a760-59a6256f6418"},"vehicle_type_id":"4","last_reported":1729789680,"current_range_meters":37600,"station_id":"ce4bgn12rcd13ifvqbt0","pricing_plan_id":"cebpf4jnsgd1na2vs0mg"},{"bike_id":"5dac752b-5f3e-449b-8933-09241deb391d","system_id":"levelo_inurba_marseille","lat":43.2682,"lon":5.41111,"is_reserved":false,"is_disabled":false,"rental_uris":{"android":"levelo://app?vid=5dac752b-5f3e-449b-8933-09241deb391d","ios":"levelo://app?vid=5dac752b-5f3e-449b-8933-09241deb391d"},"vehicle_type_id":"4","last_reported":1729789680,"current_range_meters":13600,"station_id":"","pricing_plan_id":"cebpf4jnsgd1na2vs0mg"},{"bike_id":"8e8377c5-57c6-4617-9377-c1fc55479f35","system_id":"levelo_inurba_marseille","lat":43.27373,"lon":5.36258,"is_reserved":false,"is_disabled":false,"rental_uris":{"android":"levelo://app?vid=8e8377c5-57c6-4617-9377-c1fc55479f35","ios":"levelo://app?vid=8e8377c5-57c6-4617-9377-c1fc55479f35"},"vehicle_type_id":"4","last_reported":1729789680,"current_range_meters":32400,"station_id":"ce4bhbh2rcd13ifvqeo0","pricing_plan_id":"cebpf4jnsgd1na2vs0mg"},{"bike_id":"4c2ac47d-a8a9-4d9a-94a8-d7a4d8d35473","system_id":"levelo_inurba_marseille","lat":43.26701,"lon":5.38318,"is_reserved":false,"is_disabled":false,"rental_uris":{"android":"levelo://app?vid=4c2ac47d-a8a9-4d9a-94a8-d7a4d8d35473","ios":"levelo://app?vid=4c2ac47d-a8a9-4d9a-94a8-d7a4d8d35473"},"vehicle_type_id":"4","last_reported":1729789680,"current_range_meters":19600,"station_id":"ce4bhg92rcd13ifvqf90","pricing_plan_id":"cebpf4jnsgd1na2vs0mg"},{"bike_id":"69436c81-3c6d-4c01-bd2d-a3852ac2078d","system_id":"levelo_inurba_marseille","lat":43.2444,"lon":5.37175,"is_reserved":false,"is_disabled":false,"rental_uris":{"android":"levelo://app?vid=69436c81-3c6d-4c01-bd2d-a3852ac2078d","ios":"levelo://app?vid=69436c81-3c6d-4c01-bd2d-a3852ac2078d"},"vehicle_type_id":"4","last_reported":1729789680,"current_range_meters":6400,"station_id":"ce4bhhh2rcd13ifvqfk0","pricing_plan_id":"cebpf4jnsgd1na2vs0mg"},{"bike_id":"2f22dc35-f2a6-4b61-ad11-9ddb0c01ec88","system_id":"levelo_inurba_marseille","lat":43.2835,"lon":5.38111,"is_reserved":false,"is_disabled":false,"rental_uris":{"android":"levelo://app?vid=2f22dc35-f2a6-4b61-ad11-9ddb0c01ec88","ios":"levelo://app?vid=2f22dc35-f2a6-4b61-ad11-9ddb0c01ec88"},"vehicle_type_id":"4","last_reported":1729789680,"current_range_meters":3600,"station_id":"ce4bh412rcd13ifvqdr0","pricing_plan_id":"cebpf4jnsgd1na2vs0mg"},{"bike_id":"cd8cc058-0f4c-4b68-9703-804e3ffc3c30","system_id":"levelo_inurba_marseille","lat":43.31083,"lon":5.42436,"is_reserved":false,"is_disabled":false,"rental_uris":{"android":"levelo://app?vid=cd8cc058-0f4c-4b68-9703-804e3ffc3c30","ios":"levelo://app?vid=cd8cc058-0f4c-4b68-9703-804e3ffc3c30"},"vehicle_type_id":"4","last_reported":1729789680,"current_range_meters":26800,"station_id":"ce4bhp92rcd13ifvqhag","pricing_plan_id":"cebpf4jnsgd1na2vs0mg"},{"bike_id":"888298fe-b351-4b93-acce-8ee1bee848c5","system_id":"levelo_inurba_marseille","lat":43.30256,"lon":5.4008,"is_reserved":false,"is_disabled":false,"rental_uris":{"android":"levelo://app?vid=888298fe-b351-4b93-acce-8ee1bee848c5","ios":"levelo://app?vid=888298fe-b351-4b93-acce-8ee1bee848c5"},"vehicle_type_id":"4","last_reported":1729789680,"current_range_meters":4400,"station_id":"ce4bgvh2rcd13ifvqcs0","pricing_plan_id":"cebpf4jnsgd1na2vs0mg"},{"bike_id":"161f22fe-96be-44a2-836f-834f5c2bdb0a","system_id":"levelo_inurba_marseille","lat":43.2961,"lon":5.37726,"is_reserved":false,"is_disabled":false,"rental_uris":{"android":"levelo://app?vid=161f22fe-96be-44a2-836f-834f5c2bdb0a","ios":"levelo://app?vid=161f22fe-96be-44a2-836f-834f5c2bdb0a"},"vehicle_type_id":"4","last_reported":1729789680,"current_range_meters":24800,"station_id":"ce4bgi92rcd13ifvqb90","pricing_plan_id":"cebpf4jnsgd1na2vs0mg"},{"bike_id":"0a88f589-7b84-4352-8b81-bbbe3fa900cb","system_id":"levelo_inurba_marseille","lat":43.29553,"lon":5.423,"is_reserved":false,"is_disabled":false,"rental_uris":{"android":"levelo://app?vid=0a88f589-7b84-4352-8b81-bbbe3fa900cb","ios":"levelo://app?vid=0a88f589-7b84-4352-8b81-bbbe3fa900cb"},"vehicle_type_id":"4","last_reported":1729789680,"current_range_meters":9200,"station_id":"ce4bhph2rcd13ifvqhdg","pricing_plan_id":"cebpf4jnsgd1na2vs0mg"},{"bike_id":"d544de61-f834-4b8b-af31-6963a82e8674","system_id":"levelo_inurba_marseille","lat":43.302437,"lon":5.40084,"is_reserved":false,"is_disabled":false,"rental_uris":{"android":"levelo://app?vid=d544de61-f834-4b8b-af31-6963a82e8674","ios":"levelo://app?vid=d544de61-f834-4b8b-af31-6963a82e8674"},"vehicle_type_id":"4","last_reported":1729789680,"current_range_meters":16000,"station_id":"ce4bgvh2rcd13ifvqcs0","pricing_plan_id":"cebpf4jnsgd1na2vs0mg"},{"bike_id":"40670dd6-b6b3-4075-aefc-6af82cc6a566","system_id":"levelo_inurba_marseille","lat":43.27369,"lon":5.36263,"is_reserved":false,"is_disabled":false,"rental_uris":{"android":"levelo://app?vid=40670dd6-b6b3-4075-aefc-6af82cc6a566","ios":"levelo://app?vid=40670dd6-b6b3-4075-aefc-6af82cc6a566"},"vehicle_type_id":"4","last_reported":1729789680,"current_range_meters":30000,"station_id":"ce4bhbh2rcd13ifvqeo0","pricing_plan_id":"cebpf4jnsgd1na2vs0mg"},{"bike_id":"5b1b7108-7e79-4b69-acc2-0f811f1fad6b","system_id":"levelo_inurba_marseille","lat":43.30875,"lon":5.39634,"is_reserved":false,"is_disabled":false,"rental_uris":{"android":"levelo://app?vid=5b1b7108-7e79-4b69-acc2-0f811f1fad6b","ios":"levelo://app?vid=5b1b7108-7e79-4b69-acc2-0f811f1fad6b"},"vehicle_type_id":"4","last_reported":1729789680,"current_range_meters":13600,"station_id":"ce4bh012rcd13ifvqcv0","pricing_plan_id":"cebpf4jnsgd1na2vs0mg"},{"bike_id":"c8420f34-271c-4737-b3ae-092e643a5181","system_id":"levelo_inurba_marseille","lat":43.302989,"lon":5.392211,"is_reserved":false,"is_disabled":false,"rental_uris":{"android":"levelo://app?vid=c8420f34-271c-4737-b3ae-092e643a5181","ios":"levelo://app?vid=c8420f34-271c-4737-b3ae-092e643a5181"},"vehicle_type_id":"4","last_reported":1729789680,"current_range_meters":36400,"station_id":"ce4bhf92rcd13ifvqf50","pricing_plan_id":"cebpf4jnsgd1na2vs0mg"},{"bike_id":"263073e3-ace6-4090-99c9-e143ae1fa940","system_id":"levelo_inurba_marseille","lat":43.29602,"lon":5.3811,"is_reserved":false,"is_disabled":false,"rental_uris":{"android":"levelo://app?vid=263073e3-ace6-4090-99c9-e143ae1fa940","ios":"levelo://app?vid=263073e3-ace6-4090-99c9-e143ae1fa940"},"vehicle_type_id":"4","last_reported":1729789680,"current_range_meters":27600,"station_id":"ce4bgl12rcd13ifvqbo0","pricing_plan_id":"cebpf4jnsgd1na2vs0mg"},{"bike_id":"c301fd1a-77dd-4442-bccb-ec3f62803792","system_id":"levelo_inurba_marseille","lat":43.29422,"lon":5.38617,"is_reserved":false,"is_disabled":false,"rental_uris":{"android":"levelo://app?vid=c301fd1a-77dd-4442-bccb-ec3f62803792","ios":"levelo://app?vid=c301fd1a-77dd-4442-bccb-ec3f62803792"},"vehicle_type_id":"4","last_reported":1729789680,"current_range_meters":9200,"station_id":"ce4bh2h2rcd13ifvqdh0","pricing_plan_id":"cebpf4jnsgd1na2vs0mg"},{"bike_id":"fb47bc2c-a7e1-4460-b597-41949cb673f8","system_id":"levelo_inurba_marseille","lat":43.32057,"lon":5.41549,"is_reserved":false,"is_disabled":false,"rental_uris":{"android":"levelo://app?vid=fb47bc2c-a7e1-4460-b597-41949cb673f8","ios":"levelo://app?vid=fb47bc2c-a7e1-4460-b597-41949cb673f8"},"vehicle_type_id":"4","last_reported":1729789680,"current_range_meters":24000,"station_id":"ce4bhq92rcd13ifvqhkg","pricing_plan_id":"cebpf4jnsgd1na2vs0mg"},{"bike_id":"cd625491-0e02-45b7-b7ae-ab385be32f6a","system_id":"levelo_inurba_marseille","lat":43.30636,"lon":5.40094,"is_reserved":false,"is_disabled":false,"rental_uris":{"android":"levelo://app?vid=cd625491-0e02-45b7-b7ae-ab385be32f6a","ios":"levelo://app?vid=cd625491-0e02-45b7-b7ae-ab385be32f6a"},"vehicle_type_id":"4","last_reported":1729789680,"current_range_meters":10000,"station_id":"ce4bh112rcd13ifvqda0","pricing_plan_id":"cebpf4jnsgd1na2vs0mg"},{"bike_id":"fb885720-45fb-4951-a1fb-f09a5daa1973","system_id":"levelo_inurba_marseille","lat":43.298645,"lon":5.398056,"is_reserved":false,"is_disabled":false,"rental_uris":{"android":"levelo://app?vid=fb885720-45fb-4951-a1fb-f09a5daa1973","ios":"levelo://app?vid=fb885720-45fb-4951-a1fb-f09a5daa1973"},"vehicle_type_id":"4","last_reported":1729789680,"current_range_meters":13600,"station_id":"ce4bh2p2rcd13ifvqdi0","pricing_plan_id":"cebpf4jnsgd1na2vs0mg"},{"bike_id":"412495f8-0195-4d42-a7fb-07ae92301c77","system_id":"levelo_inurba_marseille","lat":43.32662,"lon":5.40993,"is_reserved":false,"is_disabled":false,"rental_uris":{"android":"levelo://app?vid=412495f8-0195-4d42-a7fb-07ae92301c77","ios":"levelo://app?vid=412495f8-0195-4d42-a7fb-07ae92301c77"},"vehicle_type_id":"4","last_reported":1729789680,"current_range_meters":21600,"station_id":"ce4bhpp2rcd13ifvqhgg","pricing_plan_id":"cebpf4jnsgd1na2vs0mg"},{"bike_id":"4d8bcbbd-6684-48d2-9401-07e1abdca776","system_id":"levelo_inurba_marseille","lat":43.26786,"lon":5.39423,"is_reserved":false,"is_disabled":false,"rental_uris":{"android":"levelo://app?vid=4d8bcbbd-6684-48d2-9401-07e1abdca776","ios":"levelo://app?vid=4d8bcbbd-6684-48d2-9401-07e1abdca776"},"vehicle_type_id":"4","last_reported":1729789680,"current_range_meters":7200,"station_id":"ce4bhh12rcd13ifvqfg0","pricing_plan_id":"cebpf4jnsgd1na2vs0mg"},{"bike_id":"f28ff1d8-3ea9-4359-b609-434a632e4b2d","system_id":"levelo_inurba_marseille","lat":43.31481,"lon":5.37306,"is_reserved":false,"is_disabled":false,"rental_uris":{"android":"levelo://app?vid=f28ff1d8-3ea9-4359-b609-434a632e4b2d","ios":"levelo://app?vid=f28ff1d8-3ea9-4359-b609-434a632e4b2d"},"vehicle_type_id":"4","last_reported":1729789680,"current_range_meters":6400,"station_id":"ce4bgt12rcd13ifvqcd0","pricing_plan_id":"cebpf4jnsgd1na2vs0mg"},{"bike_id":"08626ba6-c7c5-41e0-900a-da4025c43087","system_id":"levelo_inurba_marseille","lat":43.28154,"lon":5.42637,"is_reserved":false,"is_disabled":false,"rental_uris":{"android":"levelo://app?vid=08626ba6-c7c5-41e0-900a-da4025c43087","ios":"levelo://app?vid=08626ba6-c7c5-41e0-900a-da4025c43087"},"vehicle_type_id":"4","last_reported":1729789680,"current_range_meters":9200,"station_id":"ce4bhnh2rcd13ifvqgug","pricing_plan_id":"cebpf4jnsgd1na2vs0mg"},{"bike_id":"8c7580e6-2517-469a-b770-5829a72b0278","system_id":"levelo_inurba_marseille","lat":43.28721,"lon":5.37945,"is_reserved":false,"is_disabled":false,"rental_uris":{"android":"levelo://app?vid=8c7580e6-2517-469a-b770-5829a72b0278","ios":"levelo://app?vid=8c7580e6-2517-469a-b770-5829a72b0278"},"vehicle_type_id":"4","last_reported":1729789680,"current_range_meters":9200,"station_id":"ce4bh9p2rcd13ifvqec0","pricing_plan_id":"cebpf4jnsgd1na2vs0mg"},{"bike_id":"2d3efdbf-e4d3-442c-8dfa-1eda164210b5","system_id":"levelo_inurba_marseille","lat":43.273804,"lon":5.36238,"is_reserved":false,"is_disabled":false,"rental_uris":{"android":"levelo://app?vid=2d3efdbf-e4d3-442c-8dfa-1eda164210b5","ios":"levelo://app?vid=2d3efdbf-e4d3-442c-8dfa-1eda164210b5"},"vehicle_type_id":"4","last_reported":1729789680,"current_range_meters":28800,"station_id":"ce4bhbh2rcd13ifvqeo0","pricing_plan_id":"cebpf4jnsgd1na2vs0mg"},{"bike_id":"150efb5c-745c-4c78-911d-0acbe1e6aa17","system_id":"levelo_inurba_marseille","lat":43.33023,"lon":5.3904,"is_reserved":false,"is_disabled":false,"rental_uris":{"android":"levelo://app?vid=150efb5c-745c-4c78-911d-0acbe1e6aa17","ios":"levelo://app?vid=150efb5c-745c-4c78-911d-0acbe1e6aa17"},"vehicle_type_id":"4","last_reported":1729789680,"current_range_meters":4400,"station_id":"ce4bhr92rcd13ifvqhrg","pricing_plan_id":"cebpf4jnsgd1na2vs0mg"},{"bike_id":"77b67b4b-2a17-4d24-af32-24e63eddb390","system_id":"levelo_inurba_marseille","lat":43.31721,"lon":5.42395,"is_reserved":false,"is_disabled":false,"rental_uris":{"android":"levelo://app?vid=77b67b4b-2a17-4d24-af32-24e63eddb390","ios":"levelo://app?vid=77b67b4b-2a17-4d24-af32-24e63eddb390"},"vehicle_type_id":"4","last_reported":1729789680,"current_range_meters":38800,"station_id":"ce4bhp92rcd13ifvqhbg","pricing_plan_id":"cebpf4jnsgd1na2vs0mg"},{"bike_id":"931d7c43-a3cd-46e9-b061-71cfd6762f21","system_id":"levelo_inurba_marseille","lat":43.29531,"lon":5.38529,"is_reserved":false,"is_disabled":false,"rental_uris":{"android":"levelo://app?vid=931d7c43-a3cd-46e9-b061-71cfd6762f21","ios":"levelo://app?vid=931d7c43-a3cd-46e9-b061-71cfd6762f21"},"vehicle_type_id":"4","last_reported":1729789680,"current_range_meters":18800,"station_id":"ce4bgih2rcd13ifvqba0","pricing_plan_id":"cebpf4jnsgd1na2vs0mg"},{"bike_id":"8fb77f9b-dfb2-4c5a-9f98-a9d8bda92bed","system_id":"levelo_inurba_marseille","lat":43.32475,"lon":5.36558,"is_reserved":false,"is_disabled":false,"rental_uris":{"android":"levelo://app?vid=8fb77f9b-dfb2-4c5a-9f98-a9d8bda92bed","ios":"levelo://app?vid=8fb77f9b-dfb2-4c5a-9f98-a9d8bda92bed"},"vehicle_type_id":"4","last_reported":1729789680,"current_range_meters":39200,"station_id":"ce4bhs12rcd13ifvqhvg","pricing_plan_id":"cebpf4jnsgd1na2vs0mg"},{"bike_id":"f8648f6a-15f1-48ed-a8b6-1cefec4c0fca","system_id":"levelo_inurba_marseille","lat":43.33025,"lon":5.3905,"is_reserved":false,"is_disabled":false,"rental_uris":{"android":"levelo://app?vid=f8648f6a-15f1-48ed-a8b6-1cefec4c0fca","ios":"levelo://app?vid=f8648f6a-15f1-48ed-a8b6-1cefec4c0fca"},"vehicle_type_id":"4","last_reported":1729789680,"current_range_meters":5600,"station_id":"ce4bhr92rcd13ifvqhrg","pricing_plan_id":"cebpf4jnsgd1na2vs0mg"},{"bike_id":"1426aab6-2b98-47eb-8531-0e72c818e023","system_id":"levelo_inurba_marseille","lat":43.30318,"lon":5.40437,"is_reserved":false,"is_disabled":false,"rental_uris":{"android":"levelo://app?vid=1426aab6-2b98-47eb-8531-0e72c818e023","ios":"levelo://app?vid=1426aab6-2b98-47eb-8531-0e72c818e023"},"vehicle_type_id":"4","last_reported":1729789680,"current_range_meters":20800,"station_id":"ce4bh012rcd13ifvqd10","pricing_plan_id":"cebpf4jnsgd1na2vs0mg"},{"bike_id":"a0da52c0-1f92-4940-9c4b-1d1bbfd38381","system_id":"levelo_inurba_marseille","lat":43.27987,"lon":5.41656,"is_reserved":false,"is_disabled":false,"rental_uris":{"android":"levelo://app?vid=a0da52c0-1f92-4940-9c4b-1d1bbfd38381","ios":"levelo://app?vid=a0da52c0-1f92-4940-9c4b-1d1bbfd38381"},"vehicle_type_id":"4","last_reported":1729789680,"current_range_meters":16800,"station_id":"ce4bho12rcd13ifvqh1g","pricing_plan_id":"cebpf4jnsgd1na2vs0mg"},{"bike_id":"d0b1b71e-a962-4930-9f71-34cc242a4eb3","system_id":"levelo_inurba_marseille","lat":43.24075,"lon":5.37761,"is_reserved":false,"is_disabled":false,"rental_uris":{"android":"levelo://app?vid=d0b1b71e-a962-4930-9f71-34cc242a4eb3","ios":"levelo://app?vid=d0b1b71e-a962-4930-9f71-34cc242a4eb3"},"vehicle_type_id":"4","last_reported":1729789680,"current_range_meters":14000,"station_id":"ce4bhnp2rcd13ifvqgvg","pricing_plan_id":"cebpf4jnsgd1na2vs0mg"},{"bike_id":"a3025bcd-121c-4369-8c12-17b07a837038","system_id":"levelo_inurba_marseille","lat":43.28934,"lon":5.38406,"is_reserved":false,"is_disabled":false,"rental_uris":{"android":"levelo://app?vid=a3025bcd-121c-4369-8c12-17b07a837038","ios":"levelo://app?vid=a3025bcd-121c-4369-8c12-17b07a837038"},"vehicle_type_id":"4","last_reported":1729789680,"current_range_meters":10800,"station_id":"ce4bh612rcd13ifvqe6g","pricing_plan_id":"cebpf4jnsgd1na2vs0mg"},{"bike_id":"335fc766-fe37-44fc-89f2-103bf5320965","system_id":"levelo_inurba_marseille","lat":43.30881,"lon":5.39641,"is_reserved":false,"is_disabled":false,"rental_uris":{"android":"levelo://app?vid=335fc766-fe37-44fc-89f2-103bf5320965","ios":"levelo://app?vid=335fc766-fe37-44fc-89f2-103bf5320965"},"vehicle_type_id":"4","last_reported":1729789680,"current_range_meters":16800,"station_id":"ce4bh012rcd13ifvqcv0","pricing_plan_id":"cebpf4jnsgd1na2vs0mg"},{"bike_id":"513008f5-dcbd-4120-b6ac-2d8dcc3aea89","system_id":"levelo_inurba_marseille","lat":43.26061,"lon":5.39401,"is_reserved":false,"is_disabled":false,"rental_uris":{"android":"levelo://app?vid=513008f5-dcbd-4120-b6ac-2d8dcc3aea89","ios":"levelo://app?vid=513008f5-dcbd-4120-b6ac-2d8dcc3aea89"},"vehicle_type_id":"4","last_reported":1729789680,"current_range_meters":38800,"station_id":"ce4bhh92rcd13ifvqfj0","pricing_plan_id":"cebpf4jnsgd1na2vs0mg"},{"bike_id":"77cac30e-4f8f-45b7-9108-1d4a19e74cc0","system_id":"levelo_inurba_marseille","lat":43.29673,"lon":5.37285,"is_reserved":false,"is_disabled":false,"rental_uris":{"android":"levelo://app?vid=77cac30e-4f8f-45b7-9108-1d4a19e74cc0","ios":"levelo://app?vid=77cac30e-4f8f-45b7-9108-1d4a19e74cc0"},"vehicle_type_id":"4","last_reported":1729789680,"current_range_meters":7200,"station_id":"ce4bgk12rcd13ifvqbj0","pricing_plan_id":"cebpf4jnsgd1na2vs0mg"},{"bike_id":"15a25176-7f98-4fc6-a3ce-bb689344a431","system_id":"levelo_inurba_marseille","lat":43.27188,"lon":5.41005,"is_reserved":false,"is_disabled":false,"rental_uris":{"android":"levelo://app?vid=15a25176-7f98-4fc6-a3ce-bb689344a431","ios":"levelo://app?vid=15a25176-7f98-4fc6-a3ce-bb689344a431"},"vehicle_type_id":"4","last_reported":1729789680,"current_range_meters":38800,"station_id":"ce4bhl12rcd13ifvqgf0","pricing_plan_id":"cebpf4jnsgd1na2vs0mg"},{"bike_id":"b897e9f1-0b91-422f-9472-7ff80618f201","system_id":"levelo_inurba_marseille","lat":43.29607,"lon":5.38109,"is_reserved":false,"is_disabled":false,"rental_uris":{"android":"levelo://app?vid=b897e9f1-0b91-422f-9472-7ff80618f201","ios":"levelo://app?vid=b897e9f1-0b91-422f-9472-7ff80618f201"},"vehicle_type_id":"4","last_reported":1729789680,"current_range_meters":33200,"station_id":"ce4bgl12rcd13ifvqbo0","pricing_plan_id":"cebpf4jnsgd1na2vs0mg"},{"bike_id":"54b054fa-f8f8-43db-867f-fc5cf929bd5c","system_id":"levelo_inurba_marseille","lat":43.28421,"lon":5.34988,"is_reserved":false,"is_disabled":false,"rental_uris":{"android":"levelo://app?vid=54b054fa-f8f8-43db-867f-fc5cf929bd5c","ios":"levelo://app?vid=54b054fa-f8f8-43db-867f-fc5cf929bd5c"},"vehicle_type_id":"4","last_reported":1729789680,"current_range_meters":2000,"station_id":"ce4bhbh2rcd13ifvqepg","pricing_plan_id":"cebpf4jnsgd1na2vs0mg"},{"bike_id":"f2e044f6-9f0a-4a95-aab5-cc44a351726c","system_id":"levelo_inurba_marseille","lat":43.30526,"lon":5.36716,"is_reserved":false,"is_disabled":false,"rental_uris":{"android":"levelo://app?vid=f2e044f6-9f0a-4a95-aab5-cc44a351726c","ios":"levelo://app?vid=f2e044f6-9f0a-4a95-aab5-cc44a351726c"},"vehicle_type_id":"4","last_reported":1729789680,"current_range_meters":38800,"station_id":"ce4bgrp2rcd13ifvqc9g","pricing_plan_id":"cebpf4jnsgd1na2vs0mg"},{"bike_id":"08678e0c-87d6-4a91-a5eb-b942f976e44f","system_id":"levelo_inurba_marseille","lat":43.29709,"lon":5.36614,"is_reserved":false,"is_disabled":false,"rental_uris":{"android":"levelo://app?vid=08678e0c-87d6-4a91-a5eb-b942f976e44f","ios":"levelo://app?vid=08678e0c-87d6-4a91-a5eb-b942f976e44f"},"vehicle_type_id":"4","last_reported":1729789680,"current_range_meters":30800,"station_id":"ce4bgn12rcd13ifvqbt0","pricing_plan_id":"cebpf4jnsgd1na2vs0mg"},{"bike_id":"a9ee11b7-ad5b-4584-baad-7024aca4faa3","system_id":"levelo_inurba_marseille","lat":43.23153,"lon":5.43716,"is_reserved":false,"is_disabled":false,"rental_uris":{"android":"levelo://app?vid=a9ee11b7-ad5b-4584-baad-7024aca4faa3","ios":"levelo://app?vid=a9ee11b7-ad5b-4584-baad-7024aca4faa3"},"vehicle_type_id":"4","last_reported":1729789680,"current_range_meters":4000,"station_id":"ce4bhmp2rcd13ifvqgog","pricing_plan_id":"cebpf4jnsgd1na2vs0mg"},{"bike_id":"f6a622be-7b2f-4e6e-b4c1-c60b3ae2648e","system_id":"levelo_inurba_marseille","lat":43.30665,"lon":5.38181,"is_reserved":false,"is_disabled":false,"rental_uris":{"android":"levelo://app?vid=f6a622be-7b2f-4e6e-b4c1-c60b3ae2648e","ios":"levelo://app?vid=f6a622be-7b2f-4e6e-b4c1-c60b3ae2648e"},"vehicle_type_id":"4","last_reported":1729789680,"current_range_meters":22800,"station_id":"","pricing_plan_id":"cebpf4jnsgd1na2vs0mg"},{"bike_id":"8cf9c294-ea07-488e-994a-c08778e907b3","system_id":"levelo_inurba_marseille","lat":43.25865,"lon":5.39903,"is_reserved":false,"is_disabled":false,"rental_uris":{"android":"levelo://app?vid=8cf9c294-ea07-488e-994a-c08778e907b3","ios":"levelo://app?vid=8cf9c294-ea07-488e-994a-c08778e907b3"},"vehicle_type_id":"4","last_reported":1729789680,"current_range_meters":8400,"station_id":"ce4bhl92rcd13ifvqghg","pricing_plan_id":"cebpf4jnsgd1na2vs0mg"},{"bike_id":"a0ad943d-eb6b-4ce4-b8e5-1fc88dd6dbd7","system_id":"levelo_inurba_marseille","lat":43.30645,"lon":5.40098,"is_reserved":false,"is_disabled":false,"rental_uris":{"android":"levelo://app?vid=a0ad943d-eb6b-4ce4-b8e5-1fc88dd6dbd7","ios":"levelo://app?vid=a0ad943d-eb6b-4ce4-b8e5-1fc88dd6dbd7"},"vehicle_type_id":"4","last_reported":1729789680,"current_range_meters":10800,"station_id":"ce4bh112rcd13ifvqda0","pricing_plan_id":"cebpf4jnsgd1na2vs0mg"},{"bike_id":"bb0dbc9e-f0e1-43a3-be65-c1dbba5bc389","system_id":"levelo_inurba_marseille","lat":43.28724,"lon":5.37942,"is_reserved":false,"is_disabled":false,"rental_uris":{"android":"levelo://app?vid=bb0dbc9e-f0e1-43a3-be65-c1dbba5bc389","ios":"levelo://app?vid=bb0dbc9e-f0e1-43a3-be65-c1dbba5bc389"},"vehicle_type_id":"4","last_reported":1729789680,"current_range_meters":36000,"station_id":"ce4bh9p2rcd13ifvqec0","pricing_plan_id":"cebpf4jnsgd1na2vs0mg"},{"bike_id":"d4710a5f-7581-42a3-8248-225afe0d63c9","system_id":"levelo_inurba_marseille","lat":43.29708,"lon":5.36613,"is_reserved":false,"is_disabled":false,"rental_uris":{"android":"levelo://app?vid=d4710a5f-7581-42a3-8248-225afe0d63c9","ios":"levelo://app?vid=d4710a5f-7581-42a3-8248-225afe0d63c9"},"vehicle_type_id":"4","last_reported":1729789680,"current_range_meters":39200,"station_id":"ce4bgn12rcd13ifvqbt0","pricing_plan_id":"cebpf4jnsgd1na2vs0mg"},{"bike_id":"7885cbf5-08cc-4190-a473-73565d5545fa","system_id":"levelo_inurba_marseille","lat":43.28415,"lon":5.3499,"is_reserved":false,"is_disabled":false,"rental_uris":{"android":"levelo://app?vid=7885cbf5-08cc-4190-a473-73565d5545fa","ios":"levelo://app?vid=7885cbf5-08cc-4190-a473-73565d5545fa"},"vehicle_type_id":"4","last_reported":1729789680,"current_range_meters":35600,"station_id":"ce4bhbh2rcd13ifvqepg","pricing_plan_id":"cebpf4jnsgd1na2vs0mg"},{"bike_id":"9db6fc1d-54c1-435f-8241-4bc1807f5f3e","system_id":"levelo_inurba_marseille","lat":43.29432,"lon":5.38626,"is_reserved":false,"is_disabled":false,"rental_uris":{"android":"levelo://app?vid=9db6fc1d-54c1-435f-8241-4bc1807f5f3e","ios":"levelo://app?vid=9db6fc1d-54c1-435f-8241-4bc1807f5f3e"},"vehicle_type_id":"4","last_reported":1729789680,"current_range_meters":6800,"station_id":"ce4bh2h2rcd13ifvqdh0","pricing_plan_id":"cebpf4jnsgd1na2vs0mg"},{"bike_id":"9b2936be-9439-4d56-9b59-93fe39857702","system_id":"levelo_inurba_marseille","lat":43.29277,"lon":5.36848,"is_reserved":false,"is_disabled":false,"rental_uris":{"android":"levelo://app?vid=9b2936be-9439-4d56-9b59-93fe39857702","ios":"levelo://app?vid=9b2936be-9439-4d56-9b59-93fe39857702"},"vehicle_type_id":"4","last_reported":1729789680,"current_range_meters":22400,"station_id":"ce4bhbp2rcd13ifvqesg","pricing_plan_id":"cebpf4jnsgd1na2vs0mg"},{"bike_id":"566c3f78-b119-41dc-8ce6-d1bacd6a4945","system_id":"levelo_inurba_marseille","lat":43.24077,"lon":5.37757,"is_reserved":false,"is_disabled":false,"rental_uris":{"android":"levelo://app?vid=566c3f78-b119-41dc-8ce6-d1bacd6a4945","ios":"levelo://app?vid=566c3f78-b119-41dc-8ce6-d1bacd6a4945"},"vehicle_type_id":"4","last_reported":1729789680,"current_range_meters":19600,"station_id":"ce4bhnp2rcd13ifvqgvg","pricing_plan_id":"cebpf4jnsgd1na2vs0mg"},{"bike_id":"43262a64-ad1f-4f26-b10e-b59db509daff","system_id":"levelo_inurba_marseille","lat":43.29029,"lon":5.3593,"is_reserved":false,"is_disabled":false,"rental_uris":{"android":"levelo://app?vid=43262a64-ad1f-4f26-b10e-b59db509daff","ios":"levelo://app?vid=43262a64-ad1f-4f26-b10e-b59db509daff"},"vehicle_type_id":"4","last_reported":1729789680,"current_range_meters":31200,"station_id":"ce4bha92rcd13ifvqeg0","pricing_plan_id":"cebpf4jnsgd1na2vs0mg"},{"bike_id":"6ab9b2d9-ac0f-4c57-85b9-015ccc4e5854","system_id":"levelo_inurba_marseille","lat":43.32476,"lon":5.36565,"is_reserved":false,"is_disabled":false,"rental_uris":{"android":"levelo://app?vid=6ab9b2d9-ac0f-4c57-85b9-015ccc4e5854","ios":"levelo://app?vid=6ab9b2d9-ac0f-4c57-85b9-015ccc4e5854"},"vehicle_type_id":"4","last_reported":1729789680,"current_range_meters":28400,"station_id":"ce4bhs12rcd13ifvqhvg","pricing_plan_id":"cebpf4jnsgd1na2vs0mg"},{"bike_id":"85617c0d-649d-42df-bad7-50f9a1e544b5","system_id":"levelo_inurba_marseille","lat":43.2582,"lon":5.39437,"is_reserved":false,"is_disabled":false,"rental_uris":{"android":"levelo://app?vid=85617c0d-649d-42df-bad7-50f9a1e544b5","ios":"levelo://app?vid=85617c0d-649d-42df-bad7-50f9a1e544b5"},"vehicle_type_id":"4","last_reported":1729789680,"current_range_meters":38000,"station_id":"ce4bhip2rcd13ifvqft0","pricing_plan_id":"cebpf4jnsgd1na2vs0mg"},{"bike_id":"bdad3ec4-e9a4-4fe0-bac4-5034f97840d1","system_id":"levelo_inurba_marseille","lat":43.28461,"lon":5.35894,"is_reserved":false,"is_disabled":false,"rental_uris":{"android":"levelo://app?vid=bdad3ec4-e9a4-4fe0-bac4-5034f97840d1","ios":"levelo://app?vid=bdad3ec4-e9a4-4fe0-bac4-5034f97840d1"},"vehicle_type_id":"4","last_reported":1729789680,"current_range_meters":8400,"station_id":"ce4bhah2rcd13ifvqei0","pricing_plan_id":"cebpf4jnsgd1na2vs0mg"},{"bike_id":"3ad6f5db-d281-427a-b0cb-383c04c720b0","system_id":"levelo_inurba_marseille","lat":43.28156,"lon":5.42637,"is_reserved":false,"is_disabled":false,"rental_uris":{"android":"levelo://app?vid=3ad6f5db-d281-427a-b0cb-383c04c720b0","ios":"levelo://app?vid=3ad6f5db-d281-427a-b0cb-383c04c720b0"},"vehicle_type_id":"4","last_reported":1729789680,"current_range_meters":2000,"station_id":"ce4bhnh2rcd13ifvqgug","pricing_plan_id":"cebpf4jnsgd1na2vs0mg"},{"bike_id":"25ee30bf-c944-4431-8783-9c05a2795a9f","system_id":"levelo_inurba_marseille","lat":43.29185,"lon":5.35813,"is_reserved":false,"is_disabled":false,"rental_uris":{"android":"levelo://app?vid=25ee30bf-c944-4431-8783-9c05a2795a9f","ios":"levelo://app?vid=25ee30bf-c944-4431-8783-9c05a2795a9f"},"vehicle_type_id":"4","last_reported":1729789680,"current_range_meters":10000,"station_id":"ce4bhb12rcd13ifvqel0","pricing_plan_id":"cebpf4jnsgd1na2vs0mg"},{"bike_id":"1823a2f4-8182-4abd-afc9-a7552bb6f11d","system_id":"levelo_inurba_marseille","lat":43.2407,"lon":5.37761,"is_reserved":false,"is_disabled":false,"rental_uris":{"android":"levelo://app?vid=1823a2f4-8182-4abd-afc9-a7552bb6f11d","ios":"levelo://app?vid=1823a2f4-8182-4abd-afc9-a7552bb6f11d"},"vehicle_type_id":"4","last_reported":1729789680,"current_range_meters":33600,"station_id":"ce4bhnp2rcd13ifvqgvg","pricing_plan_id":"cebpf4jnsgd1na2vs0mg"},{"bike_id":"41b3e8ea-8afa-4385-9ad2-9ec4830d2cdb","system_id":"levelo_inurba_marseille","lat":43.27899,"lon":5.38011,"is_reserved":false,"is_disabled":false,"rental_uris":{"android":"levelo://app?vid=41b3e8ea-8afa-4385-9ad2-9ec4830d2cdb","ios":"levelo://app?vid=41b3e8ea-8afa-4385-9ad2-9ec4830d2cdb"},"vehicle_type_id":"4","last_reported":1729789680,"current_range_meters":30000,"station_id":"ce4bhf92rcd13ifvqf50","pricing_plan_id":"cebpf4jnsgd1na2vs0mg"},{"bike_id":"a3cb7526-08ee-477e-872a-a77864ad7ed5","system_id":"levelo_inurba_marseille","lat":43.29603,"lon":5.38102,"is_reserved":false,"is_disabled":false,"rental_uris":{"android":"levelo://app?vid=a3cb7526-08ee-477e-872a-a77864ad7ed5","ios":"levelo://app?vid=a3cb7526-08ee-477e-872a-a77864ad7ed5"},"vehicle_type_id":"4","last_reported":1729789680,"current_range_meters":9200,"station_id":"ce4bgl12rcd13ifvqbo0","pricing_plan_id":"cebpf4jnsgd1na2vs0mg"},{"bike_id":"e477d482-41d6-4981-884f-b1f756068006","system_id":"levelo_inurba_marseille","lat":43.337444,"lon":5.374475,"is_reserved":false,"is_disabled":false,"rental_uris":{"android":"levelo://app?vid=e477d482-41d6-4981-884f-b1f756068006","ios":"levelo://app?vid=e477d482-41d6-4981-884f-b1f756068006"},"vehicle_type_id":"4","last_reported":1729789680,"current_range_meters":18800,"station_id":"","pricing_plan_id":"cebpf4jnsgd1na2vs0mg"},{"bike_id":"4ac149d7-3eef-4b94-8dbb-192349e64d47","system_id":"levelo_inurba_marseille","lat":43.30135,"lon":5.38786,"is_reserved":false,"is_disabled":false,"rental_uris":{"android":"levelo://app?vid=4ac149d7-3eef-4b94-8dbb-192349e64d47","ios":"levelo://app?vid=4ac149d7-3eef-4b94-8dbb-192349e64d47"},"vehicle_type_id":"4","last_reported":1729789680,"current_range_meters":8400,"station_id":"ce4bghh2rcd13ifvqb60","pricing_plan_id":"cebpf4jnsgd1na2vs0mg"},{"bike_id":"6d70c751-6bd6-457a-a310-b097a6b68c49","system_id":"levelo_inurba_marseille","lat":43.31723,"lon":5.42398,"is_reserved":false,"is_disabled":false,"rental_uris":{"android":"levelo://app?vid=6d70c751-6bd6-457a-a310-b097a6b68c49","ios":"levelo://app?vid=6d70c751-6bd6-457a-a310-b097a6b68c49"},"vehicle_type_id":"4","last_reported":1729789680,"current_range_meters":30000,"station_id":"","pricing_plan_id":"cebpf4jnsgd1na2vs0mg"},{"bike_id":"67f88fce-3e79-40a9-b873-9c9f77eef06f","system_id":"levelo_inurba_marseille","lat":43.280881,"lon":5.396264,"is_reserved":false,"is_disabled":false,"rental_uris":{"android":"levelo://app?vid=67f88fce-3e79-40a9-b873-9c9f77eef06f","ios":"levelo://app?vid=67f88fce-3e79-40a9-b873-9c9f77eef06f"},"vehicle_type_id":"4","last_reported":1729789680,"current_range_meters":14400,"station_id":"ce4bho12rcd13ifvqh2g","pricing_plan_id":"cebpf4jnsgd1na2vs0mg"},{"bike_id":"e77a807f-4cfb-4fc3-a347-b84e5209302b","system_id":"levelo_inurba_marseille","lat":43.28034,"lon":5.36943,"is_reserved":false,"is_disabled":false,"rental_uris":{"android":"levelo://app?vid=e77a807f-4cfb-4fc3-a347-b84e5209302b","ios":"levelo://app?vid=e77a807f-4cfb-4fc3-a347-b84e5209302b"},"vehicle_type_id":"4","last_reported":1729789680,"current_range_meters":8800,"station_id":"ce4bha12rcd13ifvqef0","pricing_plan_id":"cebpf4jnsgd1na2vs0mg"},{"bike_id":"ec7cbff7-71b0-4ba7-8c7b-9b1e9be1e540","system_id":"levelo_inurba_marseille","lat":43.29849,"lon":5.36286,"is_reserved":false,"is_disabled":false,"rental_uris":{"android":"levelo://app?vid=ec7cbff7-71b0-4ba7-8c7b-9b1e9be1e540","ios":"levelo://app?vid=ec7cbff7-71b0-4ba7-8c7b-9b1e9be1e540"},"vehicle_type_id":"4","last_reported":1729789680,"current_range_meters":24000,"station_id":"ce4bgpp2rcd13ifvqc3g","pricing_plan_id":"cebpf4jnsgd1na2vs0mg"},{"bike_id":"1ef02102-e07c-4261-833c-c179230da11e","system_id":"levelo_inurba_marseille","lat":43.29789,"lon":5.38103,"is_reserved":false,"is_disabled":false,"rental_uris":{"android":"levelo://app?vid=1ef02102-e07c-4261-833c-c179230da11e","ios":"levelo://app?vid=1ef02102-e07c-4261-833c-c179230da11e"},"vehicle_type_id":"4","last_reported":1729789680,"current_range_meters":14800,"station_id":"ce4bgip2rcd13ifvqbb0","pricing_plan_id":"cebpf4jnsgd1na2vs0mg"},{"bike_id":"c2e085ad-70c6-47f9-91a1-dcfa9d57d8f3","system_id":"levelo_inurba_marseille","lat":43.27384,"lon":5.3625,"is_reserved":false,"is_disabled":false,"rental_uris":{"android":"levelo://app?vid=c2e085ad-70c6-47f9-91a1-dcfa9d57d8f3","ios":"levelo://app?vid=c2e085ad-70c6-47f9-91a1-dcfa9d57d8f3"},"vehicle_type_id":"4","last_reported":1729789680,"current_range_meters":23200,"station_id":"ce4bhbh2rcd13ifvqeo0","pricing_plan_id":"cebpf4jnsgd1na2vs0mg"},{"bike_id":"b5275941-d2c8-4290-8531-c1a7b56fecdf","system_id":"levelo_inurba_marseille","lat":43.24168,"lon":5.36398,"is_reserved":false,"is_disabled":false,"rental_uris":{"android":"levelo://app?vid=b5275941-d2c8-4290-8531-c1a7b56fecdf","ios":"levelo://app?vid=b5275941-d2c8-4290-8531-c1a7b56fecdf"},