{"last_updated":1702829260,"ttl":30,"version":"2.2","data":{"bikes":[{"bike_id":"955e4ab2-16e5-44e8-a986-a2f50ff96c06","system_id":"levelo_inurba_marseille","lat":43.305382,"lon":5.365389,"is_reserved":false,"is_disabled":false,"rental_uris":{"android":"levelo://app?vid=955e4ab2-16e5-44e8-a986-a2f50ff96c06","ios":"levelo://app?vid=955e4ab2-16e5-44e8-a986-a2f50ff96c06"},"vehicle_type_id":"4","last_reported":1702829260,"current_range_meters":11200,"station_id":"","pricing_plan_id":"free"},{"bike_id":"9c187f98-048e-4bb3-ac41-d282ff03dd7b","system_id":"levelo_inurba_marseille","lat":43.305368,"lon":5.367343,"is_reserved":false,"is_disabled":false,"rental_uris":{"android":"levelo://app?vid=9c187f98-048e-4bb3-ac41-d282ff03dd7b","ios":"levelo://app?vid=9c187f98-048e-4bb3-ac41-d282ff03dd7b"},"vehicle_type_id":"4","last_reported":1702829260,"current_range_meters":26800,"station_id":"ce4bgrp2rcd13ifvqc9g","pricing_plan_id":"free"},{"bike_id":"30edb211-f44c-4b33-8400-27db721c1a94","system_id":"levelo_inurba_marseille","lat":43.305706,"lon":5.365654,"is_reserved":false,"is_disabled":false,"rental_uris":{"android":"levelo://app?vid=30edb211-f44c-4b33-8400-27db721c1a94","ios":"levelo://app?vid=30edb211-f44c-4b33-8400-27db721c1a94"},"vehicle_type_id":"4","last_reported":1702829260,"current_range_meters":23600,"station_id":"ce4bgs12rcd13ifvqcag","pricing_plan_id":"free"},{"bike_id":"31ed6a50-ee4c-4d89-b2d5-dca9c661f2e5","system_id":"levelo_inurba_marseille","lat":43.304606,"lon":5.379026,"is_reserved":false,"is_disabled":false,"rental_uris":{"android":"levelo://app?vid=31ed6a50-ee4c-4d89-b2d5-dca9c661f2e5","ios":"levelo://app?vid=31ed6a50-ee4c-4d89-b2d5-dca9c661f2e5"},"vehicle_type_id":"4","last_reported":1702829260,"current_range_meters":20400,"station_id":"ce4bgup2rcd13ifvqcn0","pricing_plan_id":"free"},{"bike_id":"13768288-3fa1-446f-8566-e6e7c6e2debf","system_id":"levelo_inurba_marseille","lat":43.304606,"lon":5.379026,"is_reserved":false,"is_disabled":false,"rental_uris":{"android":"levelo://app?vid=13768288-3fa1-446f-8566-e6e7c6e2debf","ios":"levelo://app?vid=13768288-3fa1-446f-8566-e6e7c6e2debf"},"vehicle_type_id":"4","last_reported":1702829260,"current_range_meters":10000,"station_id":"ce4bgup2rcd13ifvqcn0","pricing_plan_id":"free"},{"bike_id":"59b57198-a06f-45fa-a566-e40d5cdee018","system_id":"levelo_inurba_marseille","lat":43.3112,"lon":5.38344,"is_reserved":false,"is_disabled":false,"rental_uris":{"android":"levelo://app?vid=59b57198-a06f-45fa-a566-e40d5cdee018","ios":"levelo://app?vid=59b57198-a06f-45fa-a566-e40d5cdee018"},"vehicle_type_id":"4","last_reported":1702829260,"current_range_meters":26000,"station_id":"","pricing_plan_id":"free"},{"bike_id":"9f084666-d9c8-4104-8112-29f1dad66c8e","system_id":"levelo_inurba_marseille","lat":43.31995,"lon":5.38163,"is_reserved":false,"is_disabled":false,"rental_uris":{"android":"levelo://app?vid=9f084666-d9c8-4104-8112-29f1dad66c8e","ios":"levelo://app?vid=9f084666-d9c8-4104-8112-29f1dad66c8e"},"vehicle_type_id":"4","last_reported":1702829260,"current_range_meters":0,"station_id":"ce4bhr12rcd13ifvqhpg","pricing_plan_id":"free"},{"bike_id":"5a3a60ea-7cfb-4434-8c17-93e282ffb427","system_id":"levelo_inurba_marseille","lat":43.29929,"lon":5.36547,"is_reserved":false,"is_disabled":false,"rental_uris":{"android":"levelo://app?vid=5a3a60ea-7cfb-4434-8c17-93e282ffb427","ios":"levelo://app?vid=5a3a60ea-7cfb-4434-8c17-93e282ffb427"},"vehicle_type_id":"4","last_reported":1702829260,"current_range_meters":27600,"station_id":"ce4bgm92rcd13ifvqbr0","pricing_plan_id":"free"},{"bike_id":"14cdc9a7-7452-4ef8-8f8e-d8e12a3c383a","system_id":"levelo_inurba_marseille","lat":43.29926,"lon":5.36536,"is_reserved":false,"is_disabled":false,"rental_uris":{"android":"levelo://app?vid=14cdc9a7-7452-4ef8-8f8e-d8e12a3c383a","ios":"levelo://app?vid=14cdc9a7-7452-4ef8-8f8e-d8e12a3c383a"},"vehicle_type_id":"4","last_reported":1702829260,"current_range_meters":0,"station_id":"ce4bgm92rcd13ifvqbr0","pricing_plan_id":"free"},{"bike_id":"40443e4f-b665-4cf9-8944-fba7979342bd","system_id":"levelo_inurba_marseille","lat":43.298433,"lon":5.362774,"is_reserved":false,"is_disabled":false,"rental_uris":{"android":"levelo://app?vid=40443e4f-b665-4cf9-8944-fba7979342bd","ios":"levelo://app?vid=40443e4f-b665-4cf9-8944-fba7979342bd"},"vehicle_type_id":"4","last_reported":1702829260,"current_range_meters":28000,"station_id":"ce4bgpp2rcd13ifvqc3g","pricing_plan_id":"free"},{"bike_id":"c4e77394-aef9-4077-b745-e99148625344","system_id":"levelo_inurba_marseille","lat":43.32733,"lon":5.36707,"is_reserved":false,"is_disabled":false,"rental_uris":{"android":"levelo://app?vid=c4e77394-aef9-4077-b745-e99148625344","ios":"levelo://app?vid=c4e77394-aef9-4077-b745-e99148625344"},"vehicle_type_id":"4","last_reported":1702829260,"current_range_meters":18400,"station_id":"","pricing_plan_id":"free"},{"bike_id":"819cb438-2e9c-4e0b-902b-5e19ef554d5c","system_id":"levelo_inurba_marseille","lat":43.305531,"lon":5.384374,"is_reserved":false,"is_disabled":false,"rental_uris":{"android":"levelo://app?vid=819cb438-2e9c-4e0b-902b-5e19ef554d5c","ios":"levelo://app?vid=819cb438-2e9c-4e0b-902b-5e19ef554d5c"},"vehicle_type_id":"4","last_reported":1702829260,"current_range_meters":11600,"station_id":"ce4bgg92rcd13ifvqb30","pricing_plan_id":"free"},{"bike_id":"1b518023-0a7f-4581-a62f-63e78b4e6c52","system_id":"levelo_inurba_marseille","lat":43.322872,"lon":5.382756,"is_reserved":false,"is_disabled":false,"rental_uris":{"android":"levelo://app?vid=1b518023-0a7f-4581-a62f-63e78b4e6c52","ios":"levelo://app?vid=1b518023-0a7f-4581-a62f-63e78b4e6c52"},"vehicle_type_id":"4","last_reported":1702829260,"current_range_meters":15600,"station_id":"ce4bhr12rcd13ifvqhqg","pricing_plan_id":"free"},{"bike_id":"a53eb3b9-41ed-497c-99cd-8a9926c080cd","system_id":"levelo_inurba_marseille","lat":43.322872,"lon":5.382756,"is_reserved":false,"is_disabled":false,"rental_uris":{"android":"levelo://app?vid=a53eb3b9-41ed-497c-99cd-8a9926c080cd","ios":"levelo://app?vid=a53eb3b9-41ed-497c-99cd-8a9926c080cd"},"vehicle_type_id":"4","last_reported":1702829260,"current_range_meters":3200,"station_id":"ce4bhr12rcd13ifvqhqg","pricing_plan_id":"free"},{"bike_id":"895ced73-5d21-48d2-99d3-0586154176b0","system_id":"levelo_inurba_marseille","lat":43.29578,"lon":5.36738,"is_reserved":false,"is_disabled":false,"rental_uris":{"android":"levelo://app?vid=895ced73-5d21-48d2-99d3-0586154176b0","ios":"levelo://app?vid=895ced73-5d21-48d2-99d3-0586154176b0"},"vehicle_type_id":"4","last_reported":1702829260,"current_range_meters":5600,"station_id":"ce4bgph2rcd13ifvqc2g","pricing_plan_id":"free"},{"bike_id":"5b0ff26d-6ba8-485b-b6d4-ad54ed3a6037","system_id":"levelo_inurba_marseille","lat":43.296935,"lon":5.376544,"is_reserved":false,"is_disabled":false,"rental_uris":{"android":"levelo://app?vid=5b0ff26d-6ba8-485b-b6d4-ad54ed3a6037","ios":"levelo://app?vid=5b0ff26d-6ba8-485b-b6d4-ad54ed3a6037"},"vehicle_type_id":"4","last_reported":1702829260,"current_range_meters":22000,"station_id":"ce4bgkh2rcd13ifvqbl0","pricing_plan_id":"free"},{"bike_id":"c8fcd1fe-8120-40d3-91ed-af49c82cd499","system_id":"levelo_inurba_marseille","lat":43.309589,"lon":5.390258,"is_reserved":false,"is_disabled":false,"rental_uris":{"android":"levelo://app?vid=c8fcd1fe-8120-40d3-91ed-af49c82cd499","ios":"levelo://app?vid=c8fcd1fe-8120-40d3-91ed-af49c82cd499"},"vehicle_type_id":"4","last_reported":1702829260,"current_range_meters":0,"station_id":"ce4bgup2rcd13ifvqco0","pricing_plan_id":"free"},{"bike_id":"360a4314-3695-4145-964d-47d5df65b28d","system_id":"levelo_inurba_marseille","lat":43.317557,"lon":5.390173,"is_reserved":false,"is_disabled":false,"rental_uris":{"android":"levelo://app?vid=360a4314-3695-4145-964d-47d5df65b28d","ios":"levelo://app?vid=360a4314-3695-4145-964d-47d5df65b28d"},"vehicle_type_id":"4","last_reported":1702829260,"current_range_meters":31200,"station_id":"ce4bhqp2rcd13ifvqhng","pricing_plan_id":"free"},{"bike_id":"fbd6ea71-825d-482d-9992-e720a56f3b32","system_id":"levelo_inurba_marseille","lat":43.317557,"lon":5.390173,"is_reserved":false,"is_disabled":false,"rental_uris":{"android":"levelo://app?vid=fbd6ea71-825d-482d-9992-e720a56f3b32","ios":"levelo://app?vid=fbd6ea71-825d-482d-9992-e720a56f3b32"},"vehicle_type_id":"4","last_reported":1702829260,"current_range_meters":29200,"station_id":"ce4bhqp2rcd13ifvqhng","pricing_plan_id":"free"},{"bike_id":"3caf0c52-25f6-44ea-bc77-c55e7fe57759","system_id":"levelo_inurba_marseille","lat":43.31756,"lon":5.39014,"is_reserved":false,"is_disabled":false,"rental_uris":{"android":"levelo://app?vid=3caf0c52-25f6-44ea-bc77-c55e7fe57759","ios":"levelo://app?vid=3caf0c52-25f6-44ea-bc77-c55e7fe57759"},"vehicle_type_id":"4","last_reported":1702829260,"current_range_meters":16800,"station_id":"ce4bhqp2rcd13ifvqhng","pricing_plan_id":"free"},{"bike_id":"1054a8cd-4359-46b3-a792-c5dcc7e5362d","system_id":"levelo_inurba_marseille","lat":43.304274,"lon":5.388873,"is_reserved":false,"is_disabled":false,"rental_uris":{"android":"levelo://app?vid=1054a8cd-4359-46b3-a792-c5dcc7e5362d","ios":"levelo://app?vid=1054a8cd-4359-46b3-a792-c5dcc7e5362d"},"vehicle_type_id":"4","last_reported":1702829260,"current_range_meters":0,"station_id":"ce4bgk12rcd13ifvqbi0","pricing_plan_id":"free"},{"bike_id":"560e868f-a6e6-465a-aed5-4a998ad1392f","system_id":"levelo_inurba_marseille","lat":43.295748,"lon":5.37522,"is_reserved":false,"is_disabled":false,"rental_uris":{"android":"levelo://app?vid=560e868f-a6e6-465a-aed5-4a998ad1392f","ios":"levelo://app?vid=560e868f-a6e6-465a-aed5-4a998ad1392f"},"vehicle_type_id":"4","last_reported":1702829260,"current_range_meters":400,"station_id":"ce4bgh92rcd13ifvqb50","pricing_plan_id":"free"},{"bike_id":"7521cbc3-b32e-4e54-b573-801898b95f67","system_id":"levelo_inurba_marseille","lat":43.295748,"lon":5.37522,"is_reserved":false,"is_disabled":false,"rental_uris":{"android":"levelo://app?vid=7521cbc3-b32e-4e54-b573-801898b95f67","ios":"levelo://app?vid=7521cbc3-b32e-4e54-b573-801898b95f67"},"vehicle_type_id":"4","last_reported":1702829260,"current_range_meters":14000,"station_id":"ce4bgh92rcd13ifvqb50","pricing_plan_id":"free"},{"bike_id":"63367178-583d-4cc0-a850-37a031081cac","system_id":"levelo_inurba_marseille","lat":43.295748,"lon":5.37522,"is_reserved":false,"is_disabled":false,"rental_uris":{"android":"levelo://app?vid=63367178-583d-4cc0-a850-37a031081cac","ios":"levelo://app?vid=63367178-583d-4cc0-a850-37a031081cac"},"vehicle_type_id":"4","last_reported":1702829260,"current_range_meters":0,"station_id":"ce4bgh92rcd13ifvqb50","pricing_plan_id":"free"},{"bike_id":"c7ce2064-4ab5-44db-8212-202f7eb1c34c","system_id":"levelo_inurba_marseille","lat":43.304278,"lon":5.388868,"is_reserved":false,"is_disabled":false,"rental_uris":{"android":"levelo://app?vid=c7ce2064-4ab5-44db-8212-202f7eb1c34c","ios":"levelo://app?vid=c7ce2064-4ab5-44db-8212-202f7eb1c34c"},"vehicle_type_id":"4","last_reported":1702829260,"current_range_meters":2800,"station_id":"ce4bgk12rcd13ifvqbi0","pricing_plan_id":"free"},{"bike_id":"dc54a9cb-9758-4f0b-a700-215cb0d9cb02","system_id":"levelo_inurba_marseille","lat":43.29536,"lon":5.374996,"is_reserved":false,"is_disabled":false,"rental_uris":{"android":"levelo://app?vid=dc54a9cb-9758-4f0b-a700-215cb0d9cb02","ios":"levelo://app?vid=dc54a9cb-9758-4f0b-a700-215cb0d9cb02"},"vehicle_type_id":"4","last_reported":1702829260,"current_range_meters":0,"station_id":"ce4bgkp2rcd13ifvqbmg","pricing_plan_id":"free"},{"bike_id":"da2bf830-8371-4987-8296-d78e324a9b5b","system_id":"levelo_inurba_marseille","lat":43.29652,"lon":5.379563,"is_reserved":false,"is_disabled":false,"rental_uris":{"android":"levelo://app?vid=da2bf830-8371-4987-8296-d78e324a9b5b","ios":"levelo://app?vid=da2bf830-8371-4987-8296-d78e324a9b5b"},"vehicle_type_id":"4","last_reported":1702829260,"current_range_meters":0,"station_id":"","pricing_plan_id":"free"},{"bike_id":"cb9e127f-2511-49bc-be70-b1f3a18736b0","system_id":"levelo_inurba_marseille","lat":43.29306,"lon":5.37182,"is_reserved":false,"is_disabled":false,"rental_uris":{"android":"levelo://app?vid=cb9e127f-2511-49bc-be70-b1f3a18736b0","ios":"levelo://app?vid=cb9e127f-2511-49bc-be70-b1f3a18736b0"},"vehicle_type_id":"4","last_reported":1702829260,"current_range_meters":6800,"station_id":"ce4bgh92rcd13ifvqb40","pricing_plan_id":"free"},{"bike_id":"0877a954-e7fb-4b65-b86b-c2e0419f9d4e","system_id":"levelo_inurba_marseille","lat":43.29233,"lon":5.36608,"is_reserved":false,"is_disabled":false,"rental_uris":{"android":"levelo://app?vid=0877a954-e7fb-4b65-b86b-c2e0419f9d4e","ios":"levelo://app?vid=0877a954-e7fb-4b65-b86b-c2e0419f9d4e"},"vehicle_type_id":"4","last_reported":1702829260,"current_range_meters":0,"station_id":"","pricing_plan_id":"free"},{"bike_id":"d7df1c69-5ddc-4ca4-92d9-afa14f5dd1c1","system_id":"levelo_inurba_marseille","lat":43.305994,"lon":5.393687,"is_reserved":false,"is_disabled":false,"rental_uris":{"android":"levelo://app?vid=d7df1c69-5ddc-4ca4-92d9-afa14f5dd1c1","ios":"levelo://app?vid=d7df1c69-5ddc-4ca4-92d9-afa14f5dd1c1"},"vehicle_type_id":"4","last_reported":1702829260,"current_range_meters":17200,"station_id":"ce4bh0p2rcd13ifvqd80","pricing_plan_id":"free"},{"bike_id":"5d1b2371-8def-404e-8938-738e86df1329","system_id":"levelo_inurba_marseille","lat":43.303002,"lon":5.392142,"is_reserved":false,"is_disabled":false,"rental_uris":{"android":"levelo://app?vid=5d1b2371-8def-404e-8938-738e86df1329","ios":"levelo://app?vid=5d1b2371-8def-404e-8938-738e86df1329"},"vehicle_type_id":"4","last_reported":1702829260,"current_range_meters":6000,"station_id":"ce4bgkh2rcd13ifvqbk0","pricing_plan_id":"free"},{"bike_id":"a2593fc1-471c-42fb-a661-cff007b8349b","system_id":"levelo_inurba_marseille","lat":43.29373,"lon":5.37829,"is_reserved":false,"is_disabled":false,"rental_uris":{"android":"levelo://app?vid=a2593fc1-471c-42fb-a661-cff007b8349b","ios":"levelo://app?vid=a2593fc1-471c-42fb-a661-cff007b8349b"},"vehicle_type_id":"4","last_reported":1702829260,"current_range_meters":0,"station_id":"ce4bgjh2rcd13ifvqbf0","pricing_plan_id":"free"},{"bike_id":"7c9c3e5b-b831-4dfe-a88c-2b98591c2baa","system_id":"levelo_inurba_marseille","lat":43.302992,"lon":5.392136,"is_reserved":false,"is_disabled":false,"rental_uris":{"android":"levelo://app?vid=7c9c3e5b-b831-4dfe-a88c-2b98591c2baa","ios":"levelo://app?vid=7c9c3e5b-b831-4dfe-a88c-2b98591c2baa"},"vehicle_type_id":"4","last_reported":1702829260,"current_range_meters":26400,"station_id":"ce4bgkh2rcd13ifvqbk0","pricing_plan_id":"free"},{"bike_id":"e0242650-7565-4250-8b86-2332c2252dd5","system_id":"levelo_inurba_marseille","lat":43.302992,"lon":5.392136,"is_reserved":false,"is_disabled":false,"rental_uris":{"android":"levelo://app?vid=e0242650-7565-4250-8b86-2332c2252dd5","ios":"levelo://app?vid=e0242650-7565-4250-8b86-2332c2252dd5"},"vehicle_type_id":"4","last_reported":1702829260,"current_range_meters":0,"station_id":"ce4bgkh2rcd13ifvqbk0","pricing_plan_id":"free"},{"bike_id":"aba10e6c-b5a9-42b0-82ee-cae301c2b27c","system_id":"levelo_inurba_marseille","lat":43.300852,"lon":5.390859,"is_reserved":false,"is_disabled":false,"rental_uris":{"android":"levelo://app?vid=aba10e6c-b5a9-42b0-82ee-cae301c2b27c","ios":"levelo://app?vid=aba10e6c-b5a9-42b0-82ee-cae301c2b27c"},"vehicle_type_id":"4","last_reported":1702829260,"current_range_meters":15600,"station_id":"ce4bh192rcd13ifvqdb0","pricing_plan_id":"free"},{"bike_id":"233d6dad-2293-4dd7-b307-467051e0fce4","system_id":"levelo_inurba_marseille","lat":43.31329,"lon":5.39694,"is_reserved":false,"is_disabled":false,"rental_uris":{"android":"levelo://app?vid=233d6dad-2293-4dd7-b307-467051e0fce4","ios":"levelo://app?vid=233d6dad-2293-4dd7-b307-467051e0fce4"},"vehicle_type_id":"4","last_reported":1702829260,"current_range_meters":0,"station_id":"ce4bgvp2rcd13ifvqcu0","pricing_plan_id":"free"},{"bike_id":"80dec2bc-5ae3-486b-a59e-1130dbb94e27","system_id":"levelo_inurba_marseille","lat":43.29529,"lon":5.385581,"is_reserved":false,"is_disabled":false,"rental_uris":{"android":"levelo://app?vid=80dec2bc-5ae3-486b-a59e-1130dbb94e27","ios":"levelo://app?vid=80dec2bc-5ae3-486b-a59e-1130dbb94e27"},"vehicle_type_id":"4","last_reported":1702829260,"current_range_meters":2400,"station_id":"ce4bgih2rcd13ifvqba0","pricing_plan_id":"free"},{"bike_id":"d3959055-108a-49b3-8d39-dc5e53ea151b","system_id":"levelo_inurba_marseille","lat":43.294153,"lon":5.386305,"is_reserved":false,"is_disabled":false,"rental_uris":{"android":"levelo://app?vid=d3959055-108a-49b3-8d39-dc5e53ea151b","ios":"levelo://app?vid=d3959055-108a-49b3-8d39-dc5e53ea151b"},"vehicle_type_id":"4","last_reported":1702829260,"current_range_meters":23200,"station_id":"ce4bh2h2rcd13ifvqdh0","pricing_plan_id":"free"},{"bike_id":"4b635193-58f3-44c8-b0e0-8db6488fd5a4","system_id":"levelo_inurba_marseille","lat":43.294162,"lon":5.386292,"is_reserved":false,"is_disabled":false,"rental_uris":{"android":"levelo://app?vid=4b635193-58f3-44c8-b0e0-8db6488fd5a4","ios":"levelo://app?vid=4b635193-58f3-44c8-b0e0-8db6488fd5a4"},"vehicle_type_id":"4","last_reported":1702829260,"current_range_meters":28400,"station_id":"ce4bh2h2rcd13ifvqdh0","pricing_plan_id":"free"},{"bike_id":"48738bbf-9294-4c9c-ae73-cc5ee15c9976","system_id":"levelo_inurba_marseille","lat":43.304296,"lon":5.397513,"is_reserved":false,"is_disabled":false,"rental_uris":{"android":"levelo://app?vid=48738bbf-9294-4c9c-ae73-cc5ee15c9976","ios":"levelo://app?vid=48738bbf-9294-4c9c-ae73-cc5ee15c9976"},"vehicle_type_id":"4","last_reported":1702829260,"current_range_meters":2000,"station_id":"ce4bh092rcd13ifvqd20","pricing_plan_id":"free"},{"bike_id":"ae5765fb-845a-40b0-8fa5-e0d1d88aa9c3","system_id":"levelo_inurba_marseille","lat":43.290103,"lon":5.356114,"is_reserved":false,"is_disabled":false,"rental_uris":{"android":"levelo://app?vid=ae5765fb-845a-40b0-8fa5-e0d1d88aa9c3","ios":"levelo://app?vid=ae5765fb-845a-40b0-8fa5-e0d1d88aa9c3"},"vehicle_type_id":"4","last_reported":1702829260,"current_range_meters":19200,"station_id":"ce4bhb92rcd13ifvqen0","pricing_plan_id":"free"},{"bike_id":"4307e344-f1ed-4ce2-940a-81d309d06930","system_id":"levelo_inurba_marseille","lat":43.33044,"lon":5.38921,"is_reserved":false,"is_disabled":false,"rental_uris":{"android":"levelo://app?vid=4307e344-f1ed-4ce2-940a-81d309d06930","ios":"levelo://app?vid=4307e344-f1ed-4ce2-940a-81d309d06930"},"vehicle_type_id":"4","last_reported":1702829260,"current_range_meters":18400,"station_id":"ce4bhr92rcd13ifvqhrg","pricing_plan_id":"free"},{"bike_id":"5fa34a05-5c55-4873-a568-038c0fe9a5d6","system_id":"levelo_inurba_marseille","lat":43.33044,"lon":5.38923,"is_reserved":false,"is_disabled":false,"rental_uris":{"android":"levelo://app?vid=5fa34a05-5c55-4873-a568-038c0fe9a5d6","ios":"levelo://app?vid=5fa34a05-5c55-4873-a568-038c0fe9a5d6"},"vehicle_type_id":"4","last_reported":1702829260,"current_range_meters":11600,"station_id":"ce4bhr92rcd13ifvqhrg","pricing_plan_id":"free"},{"bike_id":"5e34ed2c-bf38-40ae-a8cb-00f085f8e568","system_id":"levelo_inurba_marseille","lat":43.2917,"lon":5.38309,"is_reserved":false,"is_disabled":false,"rental_uris":{"android":"levelo://app?vid=5e34ed2c-bf38-40ae-a8cb-00f085f8e568","ios":"levelo://app?vid=5e34ed2c-bf38-40ae-a8cb-00f085f8e568"},"vehicle_type_id":"4","last_reported":1702829260,"current_range_meters":0,"station_id":"","pricing_plan_id":"free"},{"bike_id":"080d27ca-254c-4a23-b30f-a8c3780223e5","system_id":"levelo_inurba_marseille","lat":43.290995,"lon":5.381361,"is_reserved":false,"is_disabled":false,"rental_uris":{"android":"levelo://app?vid=080d27ca-254c-4a23-b30f-a8c3780223e5","ios":"levelo://app?vid=080d27ca-254c-4a23-b30f-a8c3780223e5"},"vehicle_type_id":"4","last_reported":1702829260,"current_range_meters":0,"station_id":"ce4bh512rcd13ifvqe2g","pricing_plan_id":"free"},{"bike_id":"db5999ef-d37a-428f-97b3-1018b5ccd1bc","system_id":"levelo_inurba_marseille","lat":43.289741,"lon":5.378306,"is_reserved":false,"is_disabled":false,"rental_uris":{"android":"levelo://app?vid=db5999ef-d37a-428f-97b3-1018b5ccd1bc","ios":"levelo://app?vid=db5999ef-d37a-428f-97b3-1018b5ccd1bc"},"vehicle_type_id":"4","last_reported":1702829260,"current_range_meters":0,"station_id":"ce4bh9p2rcd13ifvqed0","pricing_plan_id":"free"},{"bike_id":"fa089e24-81d8-4653-a2dc-56b2b0bfc56a","system_id":"levelo_inurba_marseille","lat":43.295169,"lon":5.390426,"is_reserved":false,"is_disabled":false,"rental_uris":{"android":"levelo://app?vid=fa089e24-81d8-4653-a2dc-56b2b0bfc56a","ios":"levelo://app?vid=fa089e24-81d8-4653-a2dc-56b2b0bfc56a"},"vehicle_type_id":"4","last_reported":1702829260,"current_range_meters":17200,"station_id":"ce4bh3p2rcd13ifvqdp0","pricing_plan_id":"free"},{"bike_id":"ebee04b5-5d6f-4289-980d-69e0698d9b10","system_id":"levelo_inurba_marseille","lat":43.297815,"lon":5.393548,"is_reserved":false,"is_disabled":false,"rental_uris":{"android":"levelo://app?vid=ebee04b5-5d6f-4289-980d-69e0698d9b10","ios":"levelo://app?vid=ebee04b5-5d6f-4289-980d-69e0698d9b10"},"vehicle_type_id":"4","last_reported":1702829260,"current_range_meters":0,"station_id":"chh1huq6cuj3fo74tm60","pricing_plan_id":"free"},{"bike_id":"27371b33-fe33-4f1d-ae9d-806609b20732","system_id":"levelo_inurba_marseille","lat":43.312609,"lon":5.401662,"is_reserved":false,"is_disabled":false,"rental_uris":{"android":"levelo://app?vid=27371b33-fe33-4f1d-ae9d-806609b20732","ios":"levelo://app?vid=27371b33-fe33-4f1d-ae9d-806609b20732"},"vehicle_type_id":"4","last_reported":1702829260,"current_range_meters":3200,"station_id":"ce4bh092rcd13ifvqd30","pricing_plan_id":"free"},{"bike_id":"f0cd831c-cfb9-44c7-9487-103b6df223ca","system_id":"levelo_inurba_marseille","lat":43.337445,"lon":5.374592,"is_reserved":false,"is_disabled":false,"rental_uris":{"android":"levelo://app?vid=f0cd831c-cfb9-44c7-9487-103b6df223ca","ios":"levelo://app?vid=f0cd831c-cfb9-44c7-9487-103b6df223ca"},"vehicle_type_id":"4","last_reported":1702829260,"current_range_meters":24800,"station_id":"","pricing_plan_id":"free"},{"bike_id":"ef80ceab-dc9f-4b6c-8f52-707d5177f481","system_id":"levelo_inurba_marseille","lat":43.33752,"lon":5.37466,"is_reserved":false,"is_disabled":false,"rental_uris":{"android":"levelo://app?vid=ef80ceab-dc9f-4b6c-8f52-707d5177f481","ios":"levelo://app?vid=ef80ceab-dc9f-4b6c-8f52-707d5177f481"},"vehicle_type_id":"4","last_reported":1702829260,"current_range_meters":24400,"station_id":"","pricing_plan_id":"free"},{"bike_id":"74029e47-c92e-4a09-93e2-966e816bf173","system_id":"levelo_inurba_marseille","lat":43.33763,"lon":5.37486,"is_reserved":false,"is_disabled":false,"rental_uris":{"android":"levelo://app?vid=74029e47-c92e-4a09-93e2-966e816bf173","ios":"levelo://app?vid=74029e47-c92e-4a09-93e2-966e816bf173"},"vehicle_type_id":"4","last_reported":1702829260,"current_range_meters":28400,"station_id":"","pricing_plan_id":"free"},{"bike_id":"f6eac803-2936-4a40-9e71-858d8702670e","system_id":"levelo_inurba_marseille","lat":43.33775,"lon":5.3744,"is_reserved":false,"is_disabled":false,"rental_uris":{"android":"levelo://app?vid=f6eac803-2936-4a40-9e71-858d8702670e","ios":"levelo://app?vid=f6eac803-2936-4a40-9e71-858d8702670e"},"vehicle_type_id":"4","last_reported":1702829260,"current_range_meters":24800,"station_id":"","pricing_plan_id":"free"},{"bike_id":"c2045420-022e-4e47-a9ca-b416c1a9d12b","system_id":"levelo_inurba_marseille","lat":43.28727,"lon":5.36078,"is_reserved":false,"is_disabled":false,"rental_uris":{"android":"levelo://app?vid=c2045420-022e-4e47-a9ca-b416c1a9d12b","ios":"levelo://app?vid=c2045420-022e-4e47-a9ca-b416c1a9d12b"},"vehicle_type_id":"4","last_reported":1702829260,"current_range_meters":20000,"station_id":"cki0cbj6b192h4jlfktg","pricing_plan_id":"free"},{"bike_id":"73de292b-86a9-496c-a4c5-ee9856f6b591","system_id":"levelo_inurba_marseille","lat":43.286591,"lon":5.363346,"is_reserved":false,"is_disabled":false,"rental_uris":{"android":"levelo://app?vid=73de292b-86a9-496c-a4c5-ee9856f6b591","ios":"levelo://app?vid=73de292b-86a9-496c-a4c5-ee9856f6b591"},"vehicle_type_id":"4","last_reported":1702829260,"current_range_meters":7600,"station_id":"ce4bhah2rcd13ifvqej0","pricing_plan_id":"free"},{"bike_id":"9b7ddc08-33d4-4b60-85fa-6bfc7e7e94e6","system_id":"levelo_inurba_marseille","lat":43.290345,"lon":5.38646,"is_reserved":false,"is_disabled":false,"rental_uris":{"android":"levelo://app?vid=9b7ddc08-33d4-4b60-85fa-6bfc7e7e94e6","ios":"levelo://app?vid=9b7ddc08-33d4-4b60-85fa-6bfc7e7e94e6"},"vehicle_type_id":"4","last_reported":1702829260,"current_range_meters":26400,"station_id":"ce4bh4p2rcd13ifvqe0g","pricing_plan_id":"free"},{"bike_id":"16b07af7-cfbc-4882-bf50-26545d65ad93","system_id":"levelo_inurba_marseille","lat":43.290345,"lon":5.38646,"is_reserved":false,"is_disabled":false,"rental_uris":{"android":"levelo://app?vid=16b07af7-cfbc-4882-bf50-26545d65ad93","ios":"levelo://app?vid=16b07af7-cfbc-4882-bf50-26545d65ad93"},"vehicle_type_id":"4","last_reported":1702829260,"current_range_meters":8800,"station_id":"ce4bh4p2rcd13ifvqe0g","pricing_plan_id":"free"},{"bike_id":"7137bca0-de3a-430c-9f6e-ed334d56d940","system_id":"levelo_inurba_marseille","lat":43.29025,"lon":5.38637,"is_reserved":false,"is_disabled":false,"rental_uris":{"android":"levelo://app?vid=7137bca0-de3a-430c-9f6e-ed334d56d940","ios":"levelo://app?vid=7137bca0-de3a-430c-9f6e-ed334d56d940"},"vehicle_type_id":"4","last_reported":1702829260,"current_range_meters":9200,"station_id":"ce4bh4p2rcd13ifvqe0g","pricing_plan_id":"free"},{"bike_id":"2d21dbdb-3b92-4413-9b0c-b164d436d69f","system_id":"levelo_inurba_marseille","lat":43.29026,"lon":5.38648,"is_reserved":false,"is_disabled":false,"rental_uris":{"android":"levelo://app?vid=2d21dbdb-3b92-4413-9b0c-b164d436d69f","ios":"levelo://app?vid=2d21dbdb-3b92-4413-9b0c-b164d436d69f"},"vehicle_type_id":"4","last_reported":1702829260,"current_range_meters":13200,"station_id":"ce4bh4p2rcd13ifvqe0g","pricing_plan_id":"free"},{"bike_id":"83f524a0-c188-4085-a0b5-77f0f81e3104","system_id":"levelo_inurba_marseille","lat":43.289307,"lon":5.38406,"is_reserved":false,"is_disabled":false,"rental_uris":{"android":"levelo://app?vid=83f524a0-c188-4085-a0b5-77f0f81e3104","ios":"levelo://app?vid=83f524a0-c188-4085-a0b5-77f0f81e3104"},"vehicle_type_id":"4","last_reported":1702829260,"current_range_meters":20400,"station_id":"ce4bh612rcd13ifvqe6g","pricing_plan_id":"free"},{"bike_id":"7d2c5797-2075-4e82-a0f8-26835eb765c5","system_id":"levelo_inurba_marseille","lat":43.29025,"lon":5.38653,"is_reserved":false,"is_disabled":false,"rental_uris":{"android":"levelo://app?vid=7d2c5797-2075-4e82-a0f8-26835eb765c5","ios":"levelo://app?vid=7d2c5797-2075-4e82-a0f8-26835eb765c5"},"vehicle_type_id":"4","last_reported":1702829260,"current_range_meters":400,"station_id":"ce4bh4p2rcd13ifvqe0g","pricing_plan_id":"free"},{"bike_id":"68e01489-7e07-41ee-b9cf-2c45e1c8b3f3","system_id":"levelo_inurba_marseille","lat":43.290336,"lon":5.386425,"is_reserved":false,"is_disabled":false,"rental_uris":{"android":"levelo://app?vid=68e01489-7e07-41ee-b9cf-2c45e1c8b3f3","ios":"levelo://app?vid=68e01489-7e07-41ee-b9cf-2c45e1c8b3f3"},"vehicle_type_id":"4","last_reported":1702829260,"current_range_meters":20400,"station_id":"ce4bh4p2rcd13ifvqe0g","pricing_plan_id":"free"},{"bike_id":"97eb082c-3b77-40ff-aebc-849a35bc7267","system_id":"levelo_inurba_marseille","lat":43.286039,"lon":5.370679,"is_reserved":false,"is_disabled":false,"rental_uris":{"android":"levelo://app?vid=97eb082c-3b77-40ff-aebc-849a35bc7267","ios":"levelo://app?vid=97eb082c-3b77-40ff-aebc-849a35bc7267"},"vehicle_type_id":"4","last_reported":1702829260,"current_range_meters":14800,"station_id":"ce4bht12rcd13ifvqi60","pricing_plan_id":"free"},{"bike_id":"2a553197-7fdc-452f-a9e1-4c9e00d5a090","system_id":"levelo_inurba_marseille","lat":43.286039,"lon":5.370679,"is_reserved":false,"is_disabled":false,"rental_uris":{"android":"levelo://app?vid=2a553197-7fdc-452f-a9e1-4c9e00d5a090","ios":"levelo://app?vid=2a553197-7fdc-452f-a9e1-4c9e00d5a090"},"vehicle_type_id":"4","last_reported":1702829260,"current_range_meters":21200,"station_id":"ce4bht12rcd13ifvqi60","pricing_plan_id":"free"},{"bike_id":"e17772c4-1fe6-473b-b320-337200be3f08","system_id":"levelo_inurba_marseille","lat":43.291994,"lon":5.392907,"is_reserved":false,"is_disabled":false,"rental_uris":{"android":"levelo://app?vid=e17772c4-1fe6-473b-b320-337200be3f08","ios":"levelo://app?vid=e17772c4-1fe6-473b-b320-337200be3f08"},"vehicle_type_id":"4","last_reported":1702829260,"current_range_meters":4800,"station_id":"ce4bh192rcd13ifvqdd0","pricing_plan_id":"free"},{"bike_id":"2dfa5049-0e1b-4839-b5c3-156910a65dbd","system_id":"levelo_inurba_marseille","lat":43.33095,"lon":5.39702,"is_reserved":false,"is_disabled":false,"rental_uris":{"android":"levelo://app?vid=2dfa5049-0e1b-4839-b5c3-156910a65dbd","ios":"levelo://app?vid=2dfa5049-0e1b-4839-b5c3-156910a65dbd"},"vehicle_type_id":"4","last_reported":1702829260,"current_range_meters":6000,"station_id":"","pricing_plan_id":"free"},{"bike_id":"a7e2187b-efbe-4c54-bbf2-0d9d9de30506","system_id":"levelo_inurba_marseille","lat":43.33317,"lon":5.39596,"is_reserved":false,"is_disabled":false,"rental_uris":{"android":"levelo://app?vid=a7e2187b-efbe-4c54-bbf2-0d9d9de30506","ios":"levelo://app?vid=a7e2187b-efbe-4c54-bbf2-0d9d9de30506"},"vehicle_type_id":"4","last_reported":1702829260,"current_range_meters":15600,"station_id":"","pricing_plan_id":"free"},{"bike_id":"d6284a72-130c-4768-bc08-1087913f919c","system_id":"levelo_inurba_marseille","lat":43.283675,"lon":5.375285,"is_reserved":false,"is_disabled":false,"rental_uris":{"android":"levelo://app?vid=d6284a72-130c-4768-bc08-1087913f919c","ios":"levelo://app?vid=d6284a72-130c-4768-bc08-1087913f919c"},"vehicle_type_id":"4","last_reported":1702829260,"current_range_meters":9600,"station_id":"ce4bh412rcd13ifvqds0","pricing_plan_id":"free"},{"bike_id":"e70493e5-0069-4d15-8e86-fad41c180e67","system_id":"levelo_inurba_marseille","lat":43.286595,"lon":5.386795,"is_reserved":false,"is_disabled":false,"rental_uris":{"android":"levelo://app?vid=e70493e5-0069-4d15-8e86-fad41c180e67","ios":"levelo://app?vid=e70493e5-0069-4d15-8e86-fad41c180e67"},"vehicle_type_id":"4","last_reported":1702829260,"current_range_meters":20800,"station_id":"ce4bh492rcd13ifvqdug","pricing_plan_id":"free"},{"bike_id":"f987e058-ea9b-4827-a0cf-e9075c7a7205","system_id":"levelo_inurba_marseille","lat":43.319179,"lon":5.407725,"is_reserved":false,"is_disabled":false,"rental_uris":{"android":"levelo://app?vid=f987e058-ea9b-4827-a0cf-e9075c7a7205","ios":"levelo://app?vid=f987e058-ea9b-4827-a0cf-e9075c7a7205"},"vehicle_type_id":"4","last_reported":1702829260,"current_range_meters":28800,"station_id":"ce4bhq12rcd13ifvqhig","pricing_plan_id":"free"},{"bike_id":"778d2109-76e0-459d-b48c-93647b6b1708","system_id":"levelo_inurba_marseille","lat":43.284793,"lon":5.384113,"is_reserved":false,"is_disabled":false,"rental_uris":{"android":"levelo://app?vid=778d2109-76e0-459d-b48c-93647b6b1708","ios":"levelo://app?vid=778d2109-76e0-459d-b48c-93647b6b1708"},"vehicle_type_id":"4","last_reported":1702829260,"current_range_meters":2400,"station_id":"ce4bh512rcd13ifvqe3g","pricing_plan_id":"free"},{"bike_id":"1b5fd434-07fb-48bf-b3e0-7c27801a61ec","system_id":"levelo_inurba_marseille","lat":43.288501,"lon":5.393087,"is_reserved":false,"is_disabled":false,"rental_uris":{"android":"levelo://app?vid=1b5fd434-07fb-48bf-b3e0-7c27801a61ec","ios":"levelo://app?vid=1b5fd434-07fb-48bf-b3e0-7c27801a61ec"},"vehicle_type_id":"4","last_reported":1702829260,"current_range_meters":5200,"station_id":"ce4bh2p2rcd13ifvqdi0","pricing_plan_id":"free"},{"bike_id":"ef2888ad-6fea-4043-9531-369cdac94d13","system_id":"levelo_inurba_marseille","lat":43.283502,"lon":5.386471,"is_reserved":false,"is_disabled":false,"rental_uris":{"android":"levelo://app?vid=ef2888ad-6fea-4043-9531-369cdac94d13","ios":"levelo://app?vid=ef2888ad-6fea-4043-9531-369cdac94d13"},"vehicle_type_id":"4","last_reported":1702829260,"current_range_meters":3600,"station_id":"ce4bh492rcd13ifvqdvg","pricing_plan_id":"free"},{"bike_id":"876e5c55-3f27-46f8-9985-8a40f32a0616","system_id":"levelo_inurba_marseille","lat":43.282754,"lon":5.350519,"is_reserved":false,"is_disabled":false,"rental_uris":{"android":"levelo://app?vid=876e5c55-3f27-46f8-9985-8a40f32a0616","ios":"levelo://app?vid=876e5c55-3f27-46f8-9985-8a40f32a0616"},"vehicle_type_id":"4","last_reported":1702829260,"current_range_meters":19200,"station_id":"ce4bhbp2rcd13ifvqerg","pricing_plan_id":"free"},{"bike_id":"3a121494-16bc-4c7d-bd95-8ff92424d0fb","system_id":"levelo_inurba_marseille","lat":43.283502,"lon":5.386471,"is_reserved":false,"is_disabled":false,"rental_uris":{"android":"levelo://app?vid=3a121494-16bc-4c7d-bd95-8ff92424d0fb","ios":"levelo://app?vid=3a121494-16bc-4c7d-bd95-8ff92424d0fb"},"vehicle_type_id":"4","last_reported":1702829260,"current_range_meters":5200,"station_id":"ce4bh492rcd13ifvqdvg","pricing_plan_id":"free"},{"bike_id":"64c4a80d-d92a-42c2-b80b-17f932e528f7","system_id":"levelo_inurba_marseille","lat":43.282744,"lon":5.350533,"is_reserved":false,"is_disabled":false,"rental_uris":{"android":"levelo://app?vid=64c4a80d-d92a-42c2-b80b-17f932e528f7","ios":"levelo://app?vid=64c4a80d-d92a-42c2-b80b-17f932e528f7"},"vehicle_type_id":"4","last_reported":1702829260,"current_range_meters":4400,"station_id":"ce4bhbp2rcd13ifvqerg","pricing_plan_id":"free"},{"bike_id":"9317f0e8-9b93-4d7c-ae5c-815d95e6c305","system_id":"levelo_inurba_marseille","lat":43.282754,"lon":5.350519,"is_reserved":false,"is_disabled":false,"rental_uris":{"android":"levelo://app?vid=9317f0e8-9b93-4d7c-ae5c-815d95e6c305","ios":"levelo://app?vid=9317f0e8-9b93-4d7c-ae5c-815d95e6c305"},"vehicle_type_id":"4","last_reported":1702829260,"current_range_meters":12000,"station_id":"ce4bhbp2rcd13ifvqerg","pricing_plan_id":"free"},{"bike_id":"a7e42413-5bbb-4ad7-b119-aa613011a595","system_id":"levelo_inurba_marseille","lat":43.29041,"lon":5.399634,"is_reserved":false,"is_disabled":false,"rental_uris":{"android":"levelo://app?vid=a7e42413-5bbb-4ad7-b119-aa613011a595","ios":"levelo://app?vid=a7e42413-5bbb-4ad7-b119-aa613011a595"},"vehicle_type_id":"4","last_reported":1702829260,"current_range_meters":12400,"station_id":"ce4bh392rcd13ifvqdm0","pricing_plan_id":"free"},{"bike_id":"cf7741ab-84c0-42b8-8d4b-480827f23121","system_id":"levelo_inurba_marseille","lat":43.296263,"lon":5.40601,"is_reserved":false,"is_disabled":false,"rental_uris":{"android":"levelo://app?vid=cf7741ab-84c0-42b8-8d4b-480827f23121","ios":"levelo://app?vid=cf7741ab-84c0-42b8-8d4b-480827f23121"},"vehicle_type_id":"4","last_reported":1702829260,"current_range_meters":20000,"station_id":"ce4bh0h2rcd13ifvqd60","pricing_plan_id":"free"},{"bike_id":"3115d407-352c-4897-be8d-ee50cb625a49","system_id":"levelo_inurba_marseille","lat":43.281044,"lon":5.378308,"is_reserved":false,"is_disabled":false,"rental_uris":{"android":"levelo://app?vid=3115d407-352c-4897-be8d-ee50cb625a49","ios":"levelo://app?vid=3115d407-352c-4897-be8d-ee50cb625a49"},"vehicle_type_id":"4","last_reported":1702829260,"current_range_meters":4400,"station_id":"ce4bha12rcd13ifvqee0","pricing_plan_id":"free"},{"bike_id":"9f9da822-066f-4aaa-9d1a-d976c3544b17","system_id":"levelo_inurba_marseille","lat":43.281044,"lon":5.378308,"is_reserved":false,"is_disabled":false,"rental_uris":{"android":"levelo://app?vid=9f9da822-066f-4aaa-9d1a-d976c3544b17","ios":"levelo://app?vid=9f9da822-066f-4aaa-9d1a-d976c3544b17"},"vehicle_type_id":"4","last_reported":1702829260,"current_range_meters":12400,"station_id":"ce4bha12rcd13ifvqee0","pricing_plan_id":"free"},{"bike_id":"b1bba2b6-372d-49dd-b13b-1b4d710db23d","system_id":"levelo_inurba_marseille","lat":43.32405,"lon":5.4097,"is_reserved":false,"is_disabled":false,"rental_uris":{"android":"levelo://app?vid=b1bba2b6-372d-49dd-b13b-1b4d710db23d","ios":"levelo://app?vid=b1bba2b6-372d-49dd-b13b-1b4d710db23d"},"vehicle_type_id":"4","last_reported":1702829260,"current_range_meters":31200,"station_id":"","pricing_plan_id":"free"},{"bike_id":"d4beafb5-5eff-454d-8012-a7202c1601b6","system_id":"levelo_inurba_marseille","lat":43.284462,"lon":5.392121,"is_reserved":false,"is_disabled":false,"rental_uris":{"android":"levelo://app?vid=d4beafb5-5eff-454d-8012-a7202c1601b6","ios":"levelo://app?vid=d4beafb5-5eff-454d-8012-a7202c1601b6"},"vehicle_type_id":"4","last_reported":1702829260,"current_range_meters":7600,"station_id":"ce4bhoh2rcd13ifvqh5g","pricing_plan_id":"free"},{"bike_id":"92b3fa0e-c54d-44a7-be9c-86b441b7ed70","system_id":"levelo_inurba_marseille","lat":43.28573,"lon":5.394992,"is_reserved":false,"is_disabled":false,"rental_uris":{"android":"levelo://app?vid=92b3fa0e-c54d-44a7-be9c-86b441b7ed70","ios":"levelo://app?vid=92b3fa0e-c54d-44a7-be9c-86b441b7ed70"},"vehicle_type_id":"4","last_reported":1702829260,"current_range_meters":6800,"station_id":"ce4bh292rcd13ifvqdg0","pricing_plan_id":"free"},{"bike_id":"1bcbe2d3-210b-425a-849b-e0c41268a44e","system_id":"levelo_inurba_marseille","lat":43.285742,"lon":5.395004,"is_reserved":false,"is_disabled":false,"rental_uris":{"android":"levelo://app?vid=1bcbe2d3-210b-425a-849b-e0c41268a44e","ios":"levelo://app?vid=1bcbe2d3-210b-425a-849b-e0c41268a44e"},"vehicle_type_id":"4","last_reported":1702829260,"current_range_meters":19600,"station_id":"ce4bh292rcd13ifvqdg0","pricing_plan_id":"free"},{"bike_id":"ba23a49f-f752-40f9-b881-d731ba920e07","system_id":"levelo_inurba_marseille","lat":43.326605,"lon":5.409903,"is_reserved":false,"is_disabled":false,"rental_uris":{"android":"levelo://app?vid=ba23a49f-f752-40f9-b881-d731ba920e07","ios":"levelo://app?vid=ba23a49f-f752-40f9-b881-d731ba920e07"},"vehicle_type_id":"4","last_reported":1702829260,"current_range_meters":12800,"station_id":"ce4bhpp2rcd13ifvqhgg","pricing_plan_id":"free"},{"bike_id":"4a226d5e-8a72-4124-bc3c-9ffb433e0d4d","system_id":"levelo_inurba_marseille","lat":43.320045,"lon":5.415048,"is_reserved":false,"is_disabled":false,"rental_uris":{"android":"levelo://app?vid=4a226d5e-8a72-4124-bc3c-9ffb433e0d4d","ios":"levelo://app?vid=4a226d5e-8a72-4124-bc3c-9ffb433e0d4d"},"vehicle_type_id":"4","last_reported":1702829260,"current_range_meters":30400,"station_id":"ce4bhq92rcd13ifvqhkg","pricing_plan_id":"free"},{"bike_id":"22108b1c-5fc7-4b97-967f-5fd8edb3c448","system_id":"levelo_inurba_marseille","lat":43.299579,"lon":5.413255,"is_reserved":false,"is_disabled":false,"rental_uris":{"android":"levelo://app?vid=22108b1c-5fc7-4b97-967f-5fd8edb3c448","ios":"levelo://app?vid=22108b1c-5fc7-4b97-967f-5fd8edb3c448"},"vehicle_type_id":"4","last_reported":1702829260,"current_range_meters":4400,"station_id":"ce4bhp12rcd13ifvqh9g","pricing_plan_id":"free"},{"bike_id":"e888c001-e65f-403c-af3d-7254bb6f360e","system_id":"levelo_inurba_marseille","lat":43.276219,"lon":5.361051,"is_reserved":false,"is_disabled":false,"rental_uris":{"android":"levelo://app?vid=e888c001-e65f-403c-af3d-7254bb6f360e","ios":"levelo://app?vid=e888c001-e65f-403c-af3d-7254bb6f360e"},"vehicle_type_id":"4","last_reported":1702829260,"current_range_meters":28400,"station_id":"ce4bgj92rcd13ifvqbe0","pricing_plan_id":"free"},{"bike_id":"434f842b-f282-4dd6-b874-29e357570e08","system_id":"levelo_inurba_marseille","lat":43.325243,"lon":5.414326,"is_reserved":false,"is_disabled":false,"rental_uris":{"android":"levelo://app?vid=434f842b-f282-4dd6-b874-29e357570e08","ios":"levelo://app?vid=434f842b-f282-4dd6-b874-29e357570e08"},"vehicle_type_id":"4","last_reported":1702829260,"current_range_meters":30400,"station_id":"ce4bhq12rcd13ifvqhhg","pricing_plan_id":"free"},{"bike_id":"4d82301d-c057-4648-8590-e432d4239c2f","system_id":"levelo_inurba_marseille","lat":43.273613,"lon":5.362705,"is_reserved":false,"is_disabled":false,"rental_uris":{"android":"levelo://app?vid=4d82301d-c057-4648-8590-e432d4239c2f","ios":"levelo://app?vid=4d82301d-c057-4648-8590-e432d4239c2f"},"vehicle_type_id":"4","last_reported":1702829260,"current_range_meters":24400,"station_id":"ce4bhbh2rcd13ifvqeo0","pricing_plan_id":"free"},{"bike_id":"0da6a2d7-08e1-44b1-b9cc-cc80fcaebbfd","system_id":"levelo_inurba_marseille","lat":43.273613,"lon":5.362705,"is_reserved":false,"is_disabled":false,"rental_uris":{"android":"levelo://app?vid=0da6a2d7-08e1-44b1-b9cc-cc80fcaebbfd","ios":"levelo://app?vid=0da6a2d7-08e1-44b1-b9cc-cc80fcaebbfd"},"vehicle_type_id":"4","last_reported":1702829260,"current_range_meters":23600,"station_id":"ce4bhbh2rcd13ifvqeo0","pricing_plan_id":"free"},{"bike_id":"ea3d35f6-b07e-4308-ae51-5376e9d8e7cc","system_id":"levelo_inurba_marseille","lat":43.27348,"lon":5.36457,"is_reserved":false,"is_disabled":false,"rental_uris":{"android":"levelo://app?vid=ea3d35f6-b07e-4308-ae51-5376e9d8e7cc","ios":"levelo://app?vid=ea3d35f6-b07e-4308-ae51-5376e9d8e7cc"},"vehicle_type_id":"4","last_reported":1702829260,"current_range_meters":11600,"station_id":"","pricing_plan_id":"free"},{"bike_id":"99978326-7b25-4e84-bb1f-4de97f84522a","system_id":"levelo_inurba_marseille","lat":43.275625,"lon":5.384392,"is_reserved":false,"is_disabled":false,"rental_uris":{"android":"levelo://app?vid=99978326-7b25-4e84-bb1f-4de97f84522a","ios":"levelo://app?vid=99978326-7b25-4e84-bb1f-4de97f84522a"},"vehicle_type_id":"4","last_reported":1702829260,"current_range_meters":7600,"station_id":"ce4bhh92rcd13ifvqfi0","pricing_plan_id":"free"},{"bike_id":"4160b86b-98a8-43e9-900e-2a4b8025014a","system_id":"levelo_inurba_marseille","lat":43.276771,"lon":5.388799,"is_reserved":false,"is_disabled":false,"rental_uris":{"android":"levelo://app?vid=4160b86b-98a8-43e9-900e-2a4b8025014a","ios":"levelo://app?vid=4160b86b-98a8-43e9-900e-2a4b8025014a"},"vehicle_type_id":"4","last_reported":1702829260,"current_range_meters":3200,"station_id":"ce4bhi12rcd13ifvqfo0","pricing_plan_id":"free"},{"bike_id":"438c8346-0af0-4f77-87c0-7808076a5627","system_id":"levelo_inurba_marseille","lat":43.279975,"lon":5.40009,"is_reserved":false,"is_disabled":false,"rental_uris":{"android":"levelo://app?vid=438c8346-0af0-4f77-87c0-7808076a5627","ios":"levelo://app?vid=438c8346-0af0-4f77-87c0-7808076a5627"},"vehicle_type_id":"4","last_reported":1702829260,"current_range_meters":27200,"station_id":"ce4bho92rcd13ifvqh4g","pricing_plan_id":"free"},{"bike_id":"f97f3ae3-0746-4a73-8a97-072f8aa9cb10","system_id":"levelo_inurba_marseille","lat":43.310785,"lon":5.424305,"is_reserved":false,"is_disabled":false,"rental_uris":{"android":"levelo://app?vid=f97f3ae3-0746-4a73-8a97-072f8aa9cb10","ios":"levelo://app?vid=f97f3ae3-0746-4a73-8a97-072f8aa9cb10"},"vehicle_type_id":"4","last_reported":1702829260,"current_range_meters":31600,"station_id":"ce4bhp92rcd13ifvqhag","pricing_plan_id":"free"},{"bike_id":"3ca2c2d2-99b0-4aa6-a05d-e30f02e6a7fb","system_id":"levelo_inurba_marseille","lat":43.276092,"lon":5.395289,"is_reserved":false,"is_disabled":false,"rental_uris":{"android":"levelo://app?vid=3ca2c2d2-99b0-4aa6-a05d-e30f02e6a7fb","ios":"levelo://app?vid=3ca2c2d2-99b0-4aa6-a05d-e30f02e6a7fb"},"vehicle_type_id":"4","last_reported":1702829260,"current_range_meters":18400,"station_id":"","pricing_plan_id":"free"},{"bike_id":"7fec3823-220e-4c68-821a-680b26ef3cb4","system_id":"levelo_inurba_marseille","lat":43.273125,"lon":5.390731,"is_reserved":false,"is_disabled":false,"rental_uris":{"android":"levelo://app?vid=7fec3823-220e-4c68-821a-680b26ef3cb4","ios":"levelo://app?vid=7fec3823-220e-4c68-821a-680b26ef3cb4"},"vehicle_type_id":"4","last_reported":1702829260,"current_range_meters":24000,"station_id":"ce4bhgp2rcd13ifvqfe0","pricing_plan_id":"free"},{"bike_id":"219fa93e-0ec4-416c-96bb-ee06abb7da1a","system_id":"levelo_inurba_marseille","lat":43.273129,"lon":5.390725,"is_reserved":false,"is_disabled":false,"rental_uris":{"android":"levelo://app?vid=219fa93e-0ec4-416c-96bb-ee06abb7da1a","ios":"levelo://app?vid=219fa93e-0ec4-416c-96bb-ee06abb7da1a"},"vehicle_type_id":"4","last_reported":1702829260,"current_range_meters":13200,"station_id":"ce4bhgp2rcd13ifvqfe0","pricing_plan_id":"free"},{"bike_id":"881fd1b3-f3bf-47a7-be80-cf1b5b94c0b8","system_id":"levelo_inurba_marseille","lat":43.273125,"lon":5.390731,"is_reserved":false,"is_disabled":false,"rental_uris":{"android":"levelo://app?vid=881fd1b3-f3bf-47a7-be80-cf1b5b94c0b8","ios":"levelo://app?vid=881fd1b3-f3bf-47a7-be80-cf1b5b94c0b8"},"vehicle_type_id":"4","last_reported":1702829260,"current_range_meters":25200,"station_id":"ce4bhgp2rcd13ifvqfe0","pricing_plan_id":"free"},{"bike_id":"837fa1b1-4d62-4105-9c7c-a2617fab7820","system_id":"levelo_inurba_marseille","lat":43.274099,"lon":5.394019,"is_reserved":false,"is_disabled":false,"rental_uris":{"android":"levelo://app?vid=837fa1b1-4d62-4105-9c7c-a2617fab7820","ios":"levelo://app?vid=837fa1b1-4d62-4105-9c7c-a2617fab7820"},"vehicle_type_id":"4","last_reported":1702829260,"current_range_meters":26000,"station_id":"ce4bhdp2rcd13ifvqf20","pricing_plan_id":"free"},{"bike_id":"5e2ca4b2-e9bf-40db-9b08-fb4c54cd7a74","system_id":"levelo_inurba_marseille","lat":43.273129,"lon":5.390725,"is_reserved":false,"is_disabled":false,"rental_uris":{"android":"levelo://app?vid=5e2ca4b2-e9bf-40db-9b08-fb4c54cd7a74","ios":"levelo://app?vid=5e2ca4b2-e9bf-40db-9b08-fb4c54cd7a74"},"vehicle_type_id":"4","last_reported":1702829260,"current_range_meters":5200,"station_id":"ce4bhgp2rcd13ifvqfe0","pricing_plan_id":"free"},{"bike_id":"e0422bf0-2089-4091-885e-2221d758f653","system_id":"levelo_inurba_marseille","lat":43.274099,"lon":5.394019,"is_reserved":false,"is_disabled":false,"rental_uris":{"android":"levelo://app?vid=e0422bf0-2089-4091-885e-2221d758f653","ios":"levelo://app?vid=e0422bf0-2089-4091-885e-2221d758f653"},"vehicle_type_id":"4","last_reported":1702829260,"current_range_meters":26400,"station_id":"ce4bhdp2rcd13ifvqf20","pricing_plan_id":"free"},{"bike_id":"09d74d52-bca9-408f-9689-c44558f2bafc","system_id":"levelo_inurba_marseille","lat":43.273129,"lon":5.390725,"is_reserved":false,"is_disabled":false,"rental_uris":{"android":"levelo://app?vid=09d74d52-bca9-408f-9689-c44558f2bafc","ios":"levelo://app?vid=09d74d52-bca9-408f-9689-c44558f2bafc"},"vehicle_type_id":"4","last_reported":1702829260,"current_range_meters":13600,"station_id":"ce4bhgp2rcd13ifvqfe0","pricing_plan_id":"free"},{"bike_id":"aad81123-c462-4ff9-9418-6f1a8e898513","system_id":"levelo_inurba_marseille","lat":43.27205,"lon":5.39174,"is_reserved":false,"is_disabled":false,"rental_uris":{"android":"levelo://app?vid=aad81123-c462-4ff9-9418-6f1a8e898513","ios":"levelo://app?vid=aad81123-c462-4ff9-9418-6f1a8e898513"},"vehicle_type_id":"4","last_reported":1702829260,"current_range_meters":0,"station_id":"ce4bhhp2rcd13ifvqfm0","pricing_plan_id":"free"},{"bike_id":"7c5e5a9a-9f39-4a14-9573-d5b8ab599dd5","system_id":"levelo_inurba_marseille","lat":43.27188,"lon":5.39224,"is_reserved":false,"is_disabled":false,"rental_uris":{"android":"levelo://app?vid=7c5e5a9a-9f39-4a14-9573-d5b8ab599dd5","ios":"levelo://app?vid=7c5e5a9a-9f39-4a14-9573-d5b8ab599dd5"},"vehicle_type_id":"4","last_reported":1702829260,"current_range_meters":17600,"station_id":"ce4bhhp2rcd13ifvqfm0","pricing_plan_id":"free"},{"bike_id":"c0d4131f-8d8d-4750-bf09-aa224f883954","system_id":"levelo_inurba_marseille","lat":43.27948,"lon":5.41045,"is_reserved":false,"is_disabled":false,"rental_uris":{"android":"levelo://app?vid=c0d4131f-8d8d-4750-bf09-aa224f883954","ios":"levelo://app?vid=c0d4131f-8d8d-4750-bf09-aa224f883954"},"vehicle_type_id":"4","last_reported":1702829260,"current_range_meters":0,"station_id":"ce4bhnp2rcd13ifvqh0g","pricing_plan_id":"free"},{"bike_id":"d8a9494d-fcc0-4ea3-9ac8-ff0b6ca913e0","system_id":"levelo_inurba_marseille","lat":43.269319,"lon":5.389397,"is_reserved":false,"is_disabled":false,"rental_uris":{"android":"levelo://app?vid=d8a9494d-fcc0-4ea3-9ac8-ff0b6ca913e0","ios":"levelo://app?vid=d8a9494d-fcc0-4ea3-9ac8-ff0b6ca913e0"},"vehicle_type_id":"4","last_reported":1702829260,"current_range_meters":14000,"station_id":"ce4bhhh2rcd13ifvqfl0","pricing_plan_id":"free"},{"bike_id":"b65d376d-65bf-4afe-a491-07eed8c1f984","system_id":"levelo_inurba_marseille","lat":43.269319,"lon":5.389397,"is_reserved":false,"is_disabled":false,"rental_uris":{"android":"levelo://app?vid=b65d376d-65bf-4afe-a491-07eed8c1f984","ios":"levelo://app?vid=b65d376d-65bf-4afe-a491-07eed8c1f984"},"vehicle_type_id":"4","last_reported":1702829260,"current_range_meters":24800,"station_id":"ce4bhhh2rcd13ifvqfl0","pricing_plan_id":"free"},{"bike_id":"db774753-4382-453e-a138-c32d538f9839","system_id":"levelo_inurba_marseille","lat":43.358673,"lon":5.356739,"is_reserved":false,"is_disabled":false,"rental_uris":{"android":"levelo://app?vid=db774753-4382-453e-a138-c32d538f9839","ios":"levelo://app?vid=db774753-4382-453e-a138-c32d538f9839"},"vehicle_type_id":"4","last_reported":1702829260,"current_range_meters":10800,"station_id":"","pricing_plan_id":"free"},{"bike_id":"1ce935ae-0912-4db6-9e90-0b9424125016","system_id":"levelo_inurba_marseille","lat":43.2656,"lon":5.37286,"is_reserved":false,"is_disabled":false,"rental_uris":{"android":"levelo://app?vid=1ce935ae-0912-4db6-9e90-0b9424125016","ios":"levelo://app?vid=1ce935ae-0912-4db6-9e90-0b9424125016"},"vehicle_type_id":"4","last_reported":1702829260,"current_range_meters":31200,"station_id":"ce4bhg12rcd13ifvqf70","pricing_plan_id":"free"},{"bike_id":"a3460914-7f72-4878-970e-5a624382ba87","system_id":"levelo_inurba_marseille","lat":43.265553,"lon":5.372957,"is_reserved":false,"is_disabled":false,"rental_uris":{"android":"levelo://app?vid=a3460914-7f72-4878-970e-5a624382ba87","ios":"levelo://app?vid=a3460914-7f72-4878-970e-5a624382ba87"},"vehicle_type_id":"4","last_reported":1702829260,"current_range_meters":31200,"station_id":"ce4bhg12rcd13ifvqf70","pricing_plan_id":"free"},{"bike_id":"9bd21b60-a446-4c74-8aeb-5c8c659b7b54","system_id":"levelo_inurba_marseille","lat":43.26553,"lon":5.37285,"is_reserved":false,"is_disabled":false,"rental_uris":{"android":"levelo://app?vid=9bd21b60-a446-4c74-8aeb-5c8c659b7b54","ios":"levelo://app?vid=9bd21b60-a446-4c74-8aeb-5c8c659b7b54"},"vehicle_type_id":"4","last_reported":1702829260,"current_range_meters":4400,"station_id":"ce4bhg12rcd13ifvqf70","pricing_plan_id":"free"},{"bike_id":"3e62efb6-eb17-4c06-b054-f57cfe5da526","system_id":"levelo_inurba_marseille","lat":43.26552,"lon":5.37286,"is_reserved":false,"is_disabled":false,"rental_uris":{"android":"levelo://app?vid=3e62efb6-eb17-4c06-b054-f57cfe5da526","ios":"levelo://app?vid=3e62efb6-eb17-4c06-b054-f57cfe5da526"},"vehicle_type_id":"4","last_reported":1702829260,"current_range_meters":800,"station_id":"ce4bhg12rcd13ifvqf70","pricing_plan_id":"free"},{"bike_id":"2d57c9a4-fa6f-4edf-857b-107297fcf971","system_id":"levelo_inurba_marseille","lat":43.264735,"lon":5.377028,"is_reserved":false,"is_disabled":false,"rental_uris":{"android":"levelo://app?vid=2d57c9a4-fa6f-4edf-857b-107297fcf971","ios":"levelo://app?vid=2d57c9a4-fa6f-4edf-857b-107297fcf971"},"vehicle_type_id":"4","last_reported":1702829260,"current_range_meters":0,"station_id":"","pricing_plan_id":"free"},{"bike_id":"3ec397f0-b8da-4e84-be43-f4abb20ebecf","system_id":"levelo_inurba_marseille","lat":43.276627,"lon":5.411798,"is_reserved":false,"is_disabled":false,"rental_uris":{"android":"levelo://app?vid=3ec397f0-b8da-4e84-be43-f4abb20ebecf","ios":"levelo://app?vid=3ec397f0-b8da-4e84-be43-f4abb20ebecf"},"vehicle_type_id":"4","last_reported":1702829260,"current_range_meters":27600,"station_id":"","pricing_plan_id":"free"},{"bike_id":"f8f82ff9-9aa1-465a-b2da-0cef09eec093","system_id":"levelo_inurba_marseille","lat":43.27996,"lon":5.416624,"is_reserved":false,"is_disabled":false,"rental_uris":{"android":"levelo://app?vid=f8f82ff9-9aa1-465a-b2da-0cef09eec093","ios":"levelo://app?vid=f8f82ff9-9aa1-465a-b2da-0cef09eec093"},"vehicle_type_id":"4","last_reported":1702829260,"current_range_meters":24000,"station_id":"ce4bho12rcd13ifvqh1g","pricing_plan_id":"free"},{"bike_id":"79aa8b6d-2cb1-44f8-8fa0-e2efc9c27bbb","system_id":"levelo_inurba_marseille","lat":43.265714,"lon":5.372891,"is_reserved":false,"is_disabled":false,"rental_uris":{"android":"levelo://app?vid=79aa8b6d-2cb1-44f8-8fa0-e2efc9c27bbb","ios":"levelo://app?vid=79aa8b6d-2cb1-44f8-8fa0-e2efc9c27bbb"},"vehicle_type_id":"4","last_reported":1702829260,"current_range_meters":19200,"station_id":"ce4bhg12rcd13ifvqf70","pricing_plan_id":"free"},{"bike_id":"a1729145-4b96-4923-87ae-1d778a471370","system_id":"levelo_inurba_marseille","lat":43.267966,"lon":5.393976,"is_reserved":false,"is_disabled":false,"rental_uris":{"android":"levelo://app?vid=a1729145-4b96-4923-87ae-1d778a471370","ios":"levelo://app?vid=a1729145-4b96-4923-87ae-1d778a471370"},"vehicle_type_id":"4","last_reported":1702829260,"current_range_meters":26400,"station_id":"ce4bhh12rcd13ifvqfg0","pricing_plan_id":"free"},{"bike_id":"cc7a94dc-7975-40c1-877a-c30ebd102a27","system_id":"levelo_inurba_marseille","lat":43.267966,"lon":5.393976,"is_reserved":false,"is_disabled":false,"rental_uris":{"android":"levelo://app?vid=cc7a94dc-7975-40c1-877a-c30ebd102a27","ios":"levelo://app?vid=cc7a94dc-7975-40c1-877a-c30ebd102a27"},"vehicle_type_id":"4","last_reported":1702829260,"current_range_meters":24800,"station_id":"ce4bhh12rcd13ifvqfg0","pricing_plan_id":"free"},{"bike_id":"dd557d8f-4f61-4ba7-bc27-70e6215d21ad","system_id":"levelo_inurba_marseille","lat":43.26778,"lon":5.39417,"is_reserved":false,"is_disabled":false,"rental_uris":{"android":"levelo://app?vid=dd557d8f-4f61-4ba7-bc27-70e6215d21ad","ios":"levelo://app?vid=dd557d8f-4f61-4ba7-bc27-70e6215d21ad"},"vehicle_type_id":"4","last_reported":1702829260,"current_range_meters":24800,"station_id":"ce4bhh12rcd13ifvqfg0","pricing_plan_id":"free"},{"bike_id":"ab3633df-c67c-499f-bd1b-4f00431dc4d6","system_id":"levelo_inurba_marseille","lat":43.2657,"lon":5.39011,"is_reserved":false,"is_disabled":false,"rental_uris":{"android":"levelo://app?vid=ab3633df-c67c-499f-bd1b-4f00431dc4d6","ios":"levelo://app?vid=ab3633df-c67c-499f-bd1b-4f00431dc4d6"},"vehicle_type_id":"4","last_reported":1702829260,"current_range_meters":0,"station_id":"ce4bhe12rcd13ifvqf30","pricing_plan_id":"free"},{"bike_id":"93902faa-2e5e-40a5-af73-6f196ae47cf8","system_id":"levelo_inurba_marseille","lat":43.26944,"lon":5.4025,"is_reserved":false,"is_disabled":false,"rental_uris":{"android":"levelo://app?vid=93902faa-2e5e-40a5-af73-6f196ae47cf8","ios":"levelo://app?vid=93902faa-2e5e-40a5-af73-6f196ae47cf8"},"vehicle_type_id":"4","last_reported":1702829260,"current_range_meters":23200,"station_id":"cjm6bp8fraef2m0cb0m0","pricing_plan_id":"free"},{"bike_id":"ca5e6e4e-54d6-4792-a912-a1bd591d741a","system_id":"levelo_inurba_marseille","lat":43.292749,"lon":5.368402,"is_reserved":false,"is_disabled":false,"rental_uris":{"android":"levelo://app?vid=ca5e6e4e-54d6-4792-a912-a1bd591d741a","ios":"levelo://app?vid=ca5e6e4e-54d6-4792-a912-a1bd591d741a"},"vehicle_type_id":"4","last_reported":1702829260,"current_range_meters":19600,"station_id":"ce4bhbp2rcd13ifvqesg","pricing_plan_id":"free"},{"bike_id":"88ea7517-ea62-4f59-90db-1bda595661a9","system_id":"levelo_inurba_marseille","lat":43.26941,"lon":5.40251,"is_reserved":false,"is_disabled":false,"rental_uris":{"android":"levelo://app?vid=88ea7517-ea62-4f59-90db-1bda595661a9","ios":"levelo://app?vid=88ea7517-ea62-4f59-90db-1bda595661a9"},"vehicle_type_id":"4","last_reported":1702829260,"current_range_meters":20000,"station_id":"cjm6bp8fraef2m0cb0m0","pricing_plan_id":"free"},{"bike_id":"b89f74fa-1b20-4958-b9b0-30d470de419d","system_id":"levelo_inurba_marseille","lat":43.26949,"lon":5.40262,"is_reserved":false,"is_disabled":false,"rental_uris":{"android":"levelo://app?vid=b89f74fa-1b20-4958-b9b0-30d470de419d","ios":"levelo://app?vid=b89f74fa-1b20-4958-b9b0-30d470de419d"},"vehicle_type_id":"4","last_reported":1702829260,"current_range_meters":9200,"station_id":"cjm6bp8fraef2m0cb0m0","pricing_plan_id":"free"},{"bike_id":"19e0c57e-03ed-4907-8551-ee8e5713b69f","system_id":"levelo_inurba_marseille","lat":43.26949,"lon":5.40262,"is_reserved":false,"is_disabled":false,"rental_uris":{"android":"levelo://app?vid=19e0c57e-03ed-4907-8551-ee8e5713b69f","ios":"levelo://app?vid=19e0c57e-03ed-4907-8551-ee8e5713b69f"},"vehicle_type_id":"4","last_reported":1702829260,"current_range_meters":4400,"station_id":"cjm6bp8fraef2m0cb0m0","pricing_plan_id":"free"},{"bike_id":"8eacc825-5cce-4ee1-a3f5-66b3496c181c","system_id":"levelo_inurba_marseille","lat":43.26943,"lon":5.4026,"is_reserved":false,"is_disabled":false,"rental_uris":{"android":"levelo://app?vid=8eacc825-5cce-4ee1-a3f5-66b3496c181c","ios":"levelo://app?vid=8eacc825-5cce-4ee1-a3f5-66b3496c181c"},"vehicle_type_id":"4","last_reported":1702829260,"current_range_meters":27200,"station_id":"cjm6bp8fraef2m0cb0m0","pricing_plan_id":"free"},{"bike_id":"a5f2853f-d833-4921-9839-7ffcfadabfa6","system_id":"levelo_inurba_marseille","lat":43.26949,"lon":5.40262,"is_reserved":false,"is_disabled":false,"rental_uris":{"android":"levelo://app?vid=a5f2853f-d833-4921-9839-7ffcfadabfa6","ios":"levelo://app?vid=a5f2853f-d833-4921-9839-7ffcfadabfa6"},"vehicle_type_id":"4","last_reported":1702829260,"current_range_meters":24000,"station_id":"cjm6bp8fraef2m0cb0m0","pricing_plan_id":"free"},{"bike_id":"a773cd1e-626a-43c1-8e0c-ea59be088cbb","system_id":"levelo_inurba_marseille","lat":43.26939,"lon":5.40255,"is_reserved":false,"is_disabled":false,"rental_uris":{"android":"levelo://app?vid=a773cd1e-626a-43c1-8e0c-ea59be088cbb","ios":"levelo://app?vid=a773cd1e-626a-43c1-8e0c-ea59be088cbb"},"vehicle_type_id":"4","last_reported":1702829260,"current_range_meters":4000,"station_id":"cjm6bp8fraef2m0cb0m0","pricing_plan_id":"free"},{"bike_id":"40965ca4-69d9-4f9d-8117-9f21ef094538","system_id":"levelo_inurba_marseille","lat":43.26937,"lon":5.40251,"is_reserved":false,"is_disabled":false,"rental_uris":{"android":"levelo://app?vid=40965ca4-69d9-4f9d-8117-9f21ef094538","ios":"levelo://app?vid=40965ca4-69d9-4f9d-8117-9f21ef094538"},"vehicle_type_id":"4","last_reported":1702829260,"current_range_meters":6800,"station_id":"cjm6bp8fraef2m0cb0m0","pricing_plan_id":"free"},{"bike_id":"d9145888-dc11-4dd2-92e7-94c65d3fd2df","system_id":"levelo_inurba_marseille","lat":43.26939,"lon":5.40257,"is_reserved":false,"is_disabled":false,"rental_uris":{"android":"levelo://app?vid=d9145888-dc11-4dd2-92e7-94c65d3fd2df","ios":"levelo://app?vid=d9145888-dc11-4dd2-92e7-94c65d3fd2df"},"vehicle_type_id":"4","last_reported":1702829260,"current_range_meters":22400,"station_id":"cjm6bp8fraef2m0cb0m0","pricing_plan_id":"free"},{"bike_id":"203029aa-b894-498b-a282-dab96fdff6c3","system_id":"levelo_inurba_marseille","lat":43.26938,"lon":5.40258,"is_reserved":false,"is_disabled":false,"rental_uris":{"android":"levelo://app?vid=203029aa-b894-498b-a282-dab96fdff6c3","ios":"levelo://app?vid=203029aa-b894-498b-a282-dab96fdff6c3"},"vehicle_type_id":"4","last_reported":1702829260,"current_range_meters":20400,"station_id":"cjm6bp8fraef2m0cb0m0","pricing_plan_id":"free"},{"bike_id":"346d5af5-c620-478d-a330-d3d4a036bcbb","system_id":"levelo_inurba_marseille","lat":43.26937,"lon":5.40256,"is_reserved":false,"is_disabled":false,"rental_uris":{"android":"levelo://app?vid=346d5af5-c620-478d-a330-d3d4a036bcbb","ios":"levelo://app?vid=346d5af5-c620-478d-a330-d3d4a036bcbb"},"vehicle_type_id":"4","last_reported":1702829260,"current_range_meters":27200,"station_id":"cjm6bp8fraef2m0cb0m0","pricing_plan_id":"free"},{"bike_id":"8a89967b-a5ba-4c98-9fe4-fc037e82266e","system_id":"levelo_inurba_marseille","lat":43.26949,"lon":5.40262,"is_reserved":false,"is_disabled":false,"rental_uris":{"android":"levelo://app?vid=8a89967b-a5ba-4c98-9fe4-fc037e82266e","ios":"levelo://app?vid=8a89967b-a5ba-4c98-9fe4-fc037e82266e"},"vehicle_type_id":"4","last_reported":1702829260,"current_range_meters":21600,"station_id":"cjm6bp8fraef2m0cb0m0","pricing_plan_id":"free"},{"bike_id":"2ddaa260-3dde-415e-85e9-e03f5b2dd164","system_id":"levelo_inurba_marseille","lat":43.26936,"lon":5.40261,"is_reserved":false,"is_disabled":false,"rental_uris":{"android":"levelo://app?vid=2ddaa260-3dde-415e-85e9-e03f5b2dd164","ios":"levelo://app?vid=2ddaa260-3dde-415e-85e9-e03f5b2dd164"},"vehicle_type_id":"4","last_reported":1702829260,"current_range_meters":800,"station_id":"cjm6bp8fraef2m0cb0m0","pricing_plan_id":"free"},{"bike_id":"31435e3f-b95f-47db-8502-abb12dfe4e20","system_id":"levelo_inurba_marseille","lat":43.31712,"lon":5.4369,"is_reserved":false,"is_disabled":false,"rental_uris":{"android":"levelo://app?vid=31435e3f-b95f-47db-8502-abb12dfe4e20","ios":"levelo://app?vid=31435e3f-b95f-47db-8502-abb12dfe4e20"},"vehicle_type_id":"4","last_reported":1702829260,"current_range_meters":15600,"station_id":"ce4bhp92rcd13ifvqhcg","pricing_plan_id":"free"},{"bike_id":"b02aefd3-0a20-400b-a328-f898885c3a6c","system_id":"levelo_inurba_marseille","lat":43.26202,"lon":5.379299,"is_reserved":false,"is_disabled":false,"rental_uris":{"android":"levelo://app?vid=b02aefd3-0a20-400b-a328-f898885c3a6c","ios":"levelo://app?vid=b02aefd3-0a20-400b-a328-f898885c3a6c"},"vehicle_type_id":"4","last_reported":1702829260,"current_range_meters":4000,"station_id":"ce4bhjp2rcd13ifvqg90","pricing_plan_id":"free"},{"bike_id":"536dad1d-ac10-4603-b7ee-677a3761187a","system_id":"levelo_inurba_marseille","lat":43.271368,"lon":5.40928,"is_reserved":false,"is_disabled":false,"rental_uris":{"android":"levelo://app?vid=536dad1d-ac10-4603-b7ee-677a3761187a","ios":"levelo://app?vid=536dad1d-ac10-4603-b7ee-677a3761187a"},"vehicle_type_id":"4","last_reported":1702829260,"current_range_meters":24000,"station_id":"ce4bhl12rcd13ifvqgf0","pricing_plan_id":"free"},{"bike_id":"fb4a922a-4b87-4e6c-83ea-2cf94c278b6d","system_id":"levelo_inurba_marseille","lat":43.267959,"lon":5.402687,"is_reserved":false,"is_disabled":false,"rental_uris":{"android":"levelo://app?vid=fb4a922a-4b87-4e6c-83ea-2cf94c278b6d","ios":"levelo://app?vid=fb4a922a-4b87-4e6c-83ea-2cf94c278b6d"},"vehicle_type_id":"4","last_reported":1702829260,"current_range_meters":12800,"station_id":"ce501612rcd8frsf0b60","pricing_plan_id":"free"},{"bike_id":"f68468a8-64bf-419c-837b-04b385605a8e","system_id":"levelo_inurba_marseille","lat":43.267959,"lon":5.402685,"is_reserved":false,"is_disabled":false,"rental_uris":{"android":"levelo://app?vid=f68468a8-64bf-419c-837b-04b385605a8e","ios":"levelo://app?vid=f68468a8-64bf-419c-837b-04b385605a8e"},"vehicle_type_id":"4","last_reported":1702829260,"current_range_meters":29200,"station_id":"ce501612rcd8frsf0b60","pricing_plan_id":"free"},{"bike_id":"38f9b33e-7b6c-4c27-be0e-fc968ebfecaf","system_id":"levelo_inurba_marseille","lat":43.267959,"lon":5.402687,"is_reserved":false,"is_disabled":false,"rental_uris":{"android":"levelo://app?vid=38f9b33e-7b6c-4c27-be0e-fc968ebfecaf","ios":"levelo://app?vid=38f9b33e-7b6c-4c27-be0e-fc968ebfecaf"},"vehicle_type_id":"4","last_reported":1702829260,"current_range_meters":12400,"station_id":"ce501612rcd8frsf0b60","pricing_plan_id":"free"},{"bike_id":"5cc87c5f-03c3-4c7f-bcd8-e11e665d9b9a","system_id":"levelo_inurba_marseille","lat":43.267959,"lon":5.402687,"is_reserved":false,"is_disabled":false,"rental_uris":{"android":"levelo://app?vid=5cc87c5f-03c3-4c7f-bcd8-e11e665d9b9a","ios":"levelo://app?vid=5cc87c5f-03c3-4c7f-bcd8-e11e665d9b9a"},"vehicle_type_id":"4","last_reported":1702829260,"current_range_meters":26400,"station_id":"ce501612rcd8frsf0b60","pricing_plan_id":"free"},{"bike_id":"6c0377bb-a76e-4969-939b-7403664e0b8c","system_id":"levelo_inurba_marseille","lat":43.267959,"lon":5.402687,"is_reserved":false,"is_disabled":false,"rental_uris":{"android":"levelo://app?vid=6c0377bb-a76e-4969-939b-7403664e0b8c","ios":"levelo://app?vid=6c0377bb-a76e-4969-939b-7403664e0b8c"},"vehicle_type_id":"4","last_reported":1702829260,"current_range_meters":32000,"station_id":"ce501612rcd8frsf0b60","pricing_plan_id":"free"},{"bike_id":"0d18db20-19d5-4f47-aeb3-a1b49319ce96","system_id":"levelo_inurba_marseille","lat":43.267959,"lon":5.402687,"is_reserved":false,"is_disabled":false,"rental_uris":{"android":"levelo://app?vid=0d18db20-19d5-4f47-aeb3-a1b49319ce96","ios":"levelo://app?vid=0d18db20-19d5-4f47-aeb3-a1b49319ce96"},"vehicle_type_id":"4","last_reported":1702829260,"current_range_meters":0,"station_id":"ce501612rcd8frsf0b60","pricing_plan_id":"free"},{"bike_id":"7743d713-d033-44f0-9919-d35e21ec4494","system_id":"levelo_inurba_marseille","lat":43.26501,"lon":5.39549,"is_reserved":false,"is_disabled":false,"rental_uris":{"android":"levelo://app?vid=7743d713-d033-44f0-9919-d35e21ec4494","ios":"levelo://app?vid=7743d713-d033-44f0-9919-d35e21ec4494"},"vehicle_type_id":"4","last_reported":1702829260,"current_range_meters":16800,"station_id":"","pricing_plan_id":"free"},{"bike_id":"0ec5e271-7cd0-420b-b23c-1b753d83e615","system_id":"levelo_inurba_marseille","lat":43.26499,"lon":5.39551,"is_reserved":false,"is_disabled":false,"rental_uris":{"android":"levelo://app?vid=0ec5e271-7cd0-420b-b23c-1b753d83e615","ios":"levelo://app?vid=0ec5e271-7cd0-420b-b23c-1b753d83e615"},"vehicle_type_id":"4","last_reported":1702829260,"current_range_meters":0,"station_id":"","pricing_plan_id":"free"},{"bike_id":"45f537d4-c8e4-45cb-92c1-e06089b5a82d","system_id":"levelo_inurba_marseille","lat":43.298768,"lon":5.43643,"is_reserved":false,"is_disabled":false,"rental_uris":{"android":"levelo://app?vid=45f537d4-c8e4-45cb-92c1-e06089b5a82d","ios":"levelo://app?vid=45f537d4-c8e4-45cb-92c1-e06089b5a82d"},"vehicle_type_id":"4","last_reported":1702829260,"current_range_meters":12800,"station_id":"ce4bhpp2rcd13ifvqhfg","pricing_plan_id":"free"},{"bike_id":"789899a7-63a0-46b3-843c-64ff0b8e294b","system_id":"levelo_inurba_marseille","lat":43.28152,"lon":5.42639,"is_reserved":false,"is_disabled":false,"rental_uris":{"android":"levelo://app?vid=789899a7-63a0-46b3-843c-64ff0b8e294b","ios":"levelo://app?vid=789899a7-63a0-46b3-843c-64ff0b8e294b"},"vehicle_type_id":"4","last_reported":1702829260,"current_range_meters":2400,"station_id":"ce4bhnh2rcd13ifvqgug","pricing_plan_id":"free"},{"bike_id":"81b3c1a1-51d6-432c-b4ab-ddd2760cbdf7","system_id":"levelo_inurba_marseille","lat":43.281548,"lon":5.42643,"is_reserved":false,"is_disabled":false,"rental_uris":{"android":"levelo://app?vid=81b3c1a1-51d6-432c-b4ab-ddd2760cbdf7","ios":"levelo://app?vid=81b3c1a1-51d6-432c-b4ab-ddd2760cbdf7"},"vehicle_type_id":"4","last_reported":1702829260,"current_range_meters":15600,"station_id":"ce4bhnh2rcd13ifvqgug","pricing_plan_id":"free"},{"bike_id":"dc5b3333-f2bc-4446-a6c5-a0f9c03b9c29","system_id":"levelo_inurba_marseille","lat":43.2607,"lon":5.393983,"is_reserved":false,"is_disabled":false,"rental_uris":{"android":"levelo://app?vid=dc5b3333-f2bc-4446-a6c5-a0f9c03b9c29","ios":"levelo://app?vid=dc5b3333-f2bc-4446-a6c5-a0f9c03b9c29"},"vehicle_type_id":"4","last_reported":1702829260,"current_range_meters":19200,"station_id":"ce4bhh92rcd13ifvqfj0","pricing_plan_id":"free"},{"bike_id":"b6836b5c-bf87-43d1-afcb-477e491235ab","system_id":"levelo_inurba_marseille","lat":43.260882,"lon":5.39766,"is_reserved":false,"is_disabled":false,"rental_uris":{"android":"levelo://app?vid=b6836b5c-bf87-43d1-afcb-477e491235ab","ios":"levelo://app?vid=b6836b5c-bf87-43d1-afcb-477e491235ab"},"vehicle_type_id":"4","last_reported":1702829260,"current_range_meters":400,"station_id":"","pricing_plan_id":"free"},{"bike_id":"9a221386-4eef-461d-8e18-f3fc3f633bbb","system_id":"levelo_inurba_marseille","lat":43.25751,"lon":5.38976,"is_reserved":false,"is_disabled":false,"rental_uris":{"android":"levelo://app?vid=9a221386-4eef-461d-8e18-f3fc3f633bbb","ios":"levelo://app?vid=9a221386-4eef-461d-8e18-f3fc3f633bbb"},"vehicle_type_id":"4","last_reported":1702829260,"current_range_meters":21600,"station_id":"","pricing_plan_id":"free"},{"bike_id":"c389d107-e6f2-478d-bd6a-ba0085ee0286","system_id":"levelo_inurba_marseille","lat":43.25827,"lon":5.3943,"is_reserved":false,"is_disabled":false,"rental_uris":{"android":"levelo://app?vid=c389d107-e6f2-478d-bd6a-ba0085ee0286","ios":"levelo://app?vid=c389d107-e6f2-478d-bd6a-ba0085ee0286"},"vehicle_type_id":"4","last_reported":1702829260,"current_range_meters":24000,"station_id":"ce4bhip2rcd13ifvqft0","pricing_plan_id":"free"},{"bike_id":"aae0aa1c-fe31-4b1a-a382-444c7c82fcef","system_id":"levelo_inurba_marseille","lat":43.2558,"lon":5.38231,"is_reserved":false,"is_disabled":false,"rental_uris":{"android":"levelo://app?vid=aae0aa1c-fe31-4b1a-a382-444c7c82fcef","ios":"levelo://app?vid=aae0aa1c-fe31-4b1a-a382-444c7c82fcef"},"vehicle_type_id":"4","last_reported":1702829260,"current_range_meters":23600,"station_id":"ce4bhih2rcd13ifvqfs0","pricing_plan_id":"free"},{"bike_id":"788cfa92-1356-4e76-9e3f-54d84b82b1ce","system_id":"levelo_inurba_marseille","lat":43.258224,"lon":5.394369,"is_reserved":false,"is_disabled":false,"rental_uris":{"android":"levelo://app?vid=788cfa92-1356-4e76-9e3f-54d84b82b1ce","ios":"levelo://app?vid=788cfa92-1356-4e76-9e3f-54d84b82b1ce"},"vehicle_type_id":"4","last_reported":1702829260,"current_range_meters":29600,"station_id":"ce4bhip2rcd13ifvqft0","pricing_plan_id":"free"},{"bike_id":"a6ddb250-4a4f-46d8-8e47-8e10c3fbab6b","system_id":"levelo_inurba_marseille","lat":43.258224,"lon":5.394369,"is_reserved":false,"is_disabled":false,"rental_uris":{"android":"levelo://app?vid=a6ddb250-4a4f-46d8-8e47-8e10c3fbab6b","ios":"levelo://app?vid=a6ddb250-4a4f-46d8-8e47-8e10c3fbab6b"},"vehicle_type_id":"4","last_reported":1702829260,"current_range_meters":22000,"station_id":"ce4bhip2rcd13ifvqft0","pricing_plan_id":"free"},{"bike_id":"bc6b12ba-4ed2-4a9f-b715-b68493a4e8d5","system_id":"levelo_inurba_marseille","lat":43.258205,"lon":5.394369,"is_reserved":false,"is_disabled":false,"rental_uris":{"android":"levelo://app?vid=bc6b12ba-4ed2-4a9f-b715-b68493a4e8d5","ios":"levelo://app?vid=bc6b12ba-4ed2-4a9f-b715-b68493a4e8d5"},"vehicle_type_id":"4","last_reported":1702829260,"current_range_meters":14800,"station_id":"ce4bhip2rcd13ifvqft0","pricing_plan_id":"free"},{"bike_id":"28c6ba06-8cd5-4fe2-a2a8-ef7f84c723a0","system_id":"levelo_inurba_marseille","lat":43.25497,"lon":5.37651,"is_reserved":false,"is_disabled":false,"rental_uris":{"android":"levelo://app?vid=28c6ba06-8cd5-4fe2-a2a8-ef7f84c723a0","ios":"levelo://app?vid=28c6ba06-8cd5-4fe2-a2a8-ef7f84c723a0"},"vehicle_type_id":"4","last_reported":1702829260,"current_range_meters":3200,"station_id":"ce4bhh12rcd13ifvqff0","pricing_plan_id":"free"},{"bike_id":"f56d7efe-9d30-42a2-81c6-ebd0694003a0","system_id":"levelo_inurba_marseille","lat":43.258224,"lon":5.394369,"is_reserved":false,"is_disabled":false,"rental_uris":{"android":"levelo://app?vid=f56d7efe-9d30-42a2-81c6-ebd0694003a0","ios":"levelo://app?vid=f56d7efe-9d30-42a2-81c6-ebd0694003a0"},"vehicle_type_id":"4","last_reported":1702829260,"current_range_meters":20800,"station_id":"ce4bhip2rcd13ifvqft0","pricing_plan_id":"free"},{"bike_id":"72754e72-8184-4099-8810-cb87ff31a7c1","system_id":"levelo_inurba_marseille","lat":43.270721,"lon":5.422764,"is_reserved":false,"is_disabled":false,"rental_uris":{"android":"levelo://app?vid=72754e72-8184-4099-8810-cb87ff31a7c1","ios":"levelo://app?vid=72754e72-8184-4099-8810-cb87ff31a7c1"},"vehicle_type_id":"4","last_reported":1702829260,"current_range_meters":22800,"station_id":"ce4bhk92rcd13ifvqgb0","pricing_plan_id":"free"},{"bike_id":"01a0ec0d-3cb5-4d6b-9194-dbeb6d97ce73","system_id":"levelo_inurba_marseille","lat":43.259013,"lon":5.409301,"is_reserved":false,"is_disabled":false,"rental_uris":{"android":"levelo://app?vid=01a0ec0d-3cb5-4d6b-9194-dbeb6d97ce73","ios":"levelo://app?vid=01a0ec0d-3cb5-4d6b-9194-dbeb6d97ce73"},"vehicle_type_id":"4","last_reported":1702829260,"current_range_meters":26400,"station_id":"ce4bhm92rcd13ifvqglg","pricing_plan_id":"free"},{"bike_id":"486de631-4303-438d-8a28-45c67f8e2772","system_id":"levelo_inurba_marseille","lat":43.2593,"lon":5.40907,"is_reserved":false,"is_disabled":false,"rental_uris":{"android":"levelo://app?vid=486de631-4303-438d-8a28-45c67f8e2772","ios":"levelo://app?vid=486de631-4303-438d-8a28-45c67f8e2772"},"vehicle_type_id":"4","last_reported":1702829260,"current_range_meters":18000,"station_id":"ce4bhm92rcd13ifvqglg","pricing_plan_id":"free"},{"bike_id":"61a4c449-70c1-4d31-941e-a3fe596474dd","system_id":"levelo_inurba_marseille","lat":43.259278,"lon":5.409126,"is_reserved":false,"is_disabled":false,"rental_uris":{"android":"levelo://app?vid=61a4c449-70c1-4d31-941e-a3fe596474dd","ios":"levelo://app?vid=61a4c449-70c1-4d31-941e-a3fe596474dd"},"vehicle_type_id":"4","last_reported":1702829260,"current_range_meters":31600,"station_id":"ce4bhm92rcd13ifvqglg","pricing_plan_id":"free"},{"bike_id":"118d6971-ccf8-413b-a5f3-5bcb58db73da","system_id":"levelo_inurba_marseille","lat":43.257079,"lon":5.411051,"is_reserved":false,"is_disabled":false,"rental_uris":{"android":"levelo://app?vid=118d6971-ccf8-413b-a5f3-5bcb58db73da","ios":"levelo://app?vid=118d6971-ccf8-413b-a5f3-5bcb58db73da"},"vehicle_type_id":"4","last_reported":1702829260,"current_range_meters":18000,"station_id":"ce4bhkp2rcd13ifvqgd0","pricing_plan_id":"free"},{"bike_id":"67d4480c-ec71-4499-9e4f-01cd61597d70","system_id":"levelo_inurba_marseille","lat":43.257079,"lon":5.411051,"is_reserved":false,"is_disabled":false,"rental_uris":{"android":"levelo://app?vid=67d4480c-ec71-4499-9e4f-01cd61597d70","ios":"levelo://app?vid=67d4480c-ec71-4499-9e4f-01cd61597d70"},"vehicle_type_id":"4","last_reported":1702829260,"current_range_meters":7600,"station_id":"ce4bhkp2rcd13ifvqgd0","pricing_plan_id":"free"},{"bike_id":"f6c1446c-20ed-4549-a5bf-94e21f186df5","system_id":"levelo_inurba_marseille","lat":43.2479,"lon":5.374457,"is_reserved":false,"is_disabled":false,"rental_uris":{"android":"levelo://app?vid=f6c1446c-20ed-4549-a5bf-94e21f186df5","ios":"levelo://app?vid=f6c1446c-20ed-4549-a5bf-94e21f186df5"},"vehicle_type_id":"4","last_reported":1702829260,"current_range_meters":15600,"station_id":"ce4bhgh2rcd13ifvqfb0","pricing_plan_id":"free"},{"bike_id":"7d7d87f3-d5ee-42fd-adef-fd310af8fd5c","system_id":"levelo_inurba_marseille","lat":43.2479,"lon":5.374457,"is_reserved":false,"is_disabled":false,"rental_uris":{"android":"levelo://app?vid=7d7d87f3-d5ee-42fd-adef-fd310af8fd5c","ios":"levelo://app?vid=7d7d87f3-d5ee-42fd-adef-fd310af8fd5c"},"vehicle_type_id":"4","last_reported":1702829260,"current_range_meters":5600,"station_id":"ce4bhgh2rcd13ifvqfb0","pricing_plan_id":"free"},{"bike_id":"94e40f5f-c850-46fc-b352-7e28cd522432","system_id":"levelo_inurba_marseille","lat":43.2479,"lon":5.374457,"is_reserved":false,"is_disabled":false,"rental_uris":{"android":"levelo://app?vid=94e40f5f-c850-46fc-b352-7e28cd522432","ios":"levelo://app?vid=94e40f5f-c850-46fc-b352-7e28cd522432"},"vehicle_type_id":"4","last_reported":1702829260,"current_range_meters":17200,"station_id":"ce4bhgh2rcd13ifvqfb0","pricing_plan_id":"free"},{"bike_id":"5e40675e-073f-40e8-8b46-cac49158f778","system_id":"levelo_inurba_marseille","lat":43.2479,"lon":5.374457,"is_reserved":false,"is_disabled":false,"rental_uris":{"android":"levelo://app?vid=5e40675e-073f-40e8-8b46-cac49158f778","ios":"levelo://app?vid=5e40675e-073f-40e8-8b46-cac49158f778"},"vehicle_type_id":"4","last_reported":1702829260,"current_range_meters":7600,"station_id":"ce4bhgh2rcd13ifvqfb0","pricing_plan_id":"free"},{"bike_id":"17ec82a7-a075-4c53-84c1-a60158f8545d","system_id":"levelo_inurba_marseille","lat":43.250966,"lon":5.395186,"is_reserved":false,"is_disabled":false,"rental_uris":{"android":"levelo://app?vid=17ec82a7-a075-4c53-84c1-a60158f8545d","ios":"levelo://app?vid=17ec82a7-a075-4c53-84c1-a60158f8545d"},"vehicle_type_id":"4","last_reported":1702829260,"current_range_meters":30800,"station_id":"ce4bhm12rcd13ifvqgkg","pricing_plan_id":"free"},{"bike_id":"5065f1c1-0d9e-438b-a54c-a6bd79eab63b","system_id":"levelo_inurba_marseille","lat":43.25088,"lon":5.39525,"is_reserved":false,"is_disabled":false,"rental_uris":{"android":"levelo://app?vid=5065f1c1-0d9e-438b-a54c-a6bd79eab63b","ios":"levelo://app?vid=5065f1c1-0d9e-438b-a54c-a6bd79eab63b"},"vehicle_type_id":"4","last_reported":1702829260,"current_range_meters":16000,"station_id":"ce4bhm12rcd13ifvqgkg","pricing_plan_id":"free"},{"bike_id":"ad81fac2-bddc-4e91-a01a-42b9cfcc94a0","system_id":"levelo_inurba_marseille","lat":43.24693,"lon":5.382096,"is_reserved":false,"is_disabled":false,"rental_uris":{"android":"levelo://app?vid=ad81fac2-bddc-4e91-a01a-42b9cfcc94a0","ios":"levelo://app?vid=ad81fac2-bddc-4e91-a01a-42b9cfcc94a0"},"vehicle_type_id":"4","last_reported":1702829260,"current_range_meters":0,"station_id":"ce4bhih2rcd13ifvqfr0","pricing_plan_id":"free"},{"bike_id":"cda151f2-9ad2-46c9-9115-b73ba9a06619","system_id":"levelo_inurba_marseille","lat":43.25218,"lon":5.40642,"is_reserved":false,"is_disabled":false,"rental_uris":{"android":"levelo://app?vid=cda151f2-9ad2-46c9-9115-b73ba9a06619","ios":"levelo://app?vid=cda151f2-9ad2-46c9-9115-b73ba9a06619"},"vehicle_type_id":"4","last_reported":1702829260,"current_range_meters":0,"station_id":"","pricing_plan_id":"free"},{"bike_id":"838b05d7-6a52-4938-98ab-8b37001989d5","system_id":"levelo_inurba_marseille","lat":43.246467,"lon":5.388984,"is_reserved":false,"is_disabled":false,"rental_uris":{"android":"levelo://app?vid=838b05d7-6a52-4938-98ab-8b37001989d5","ios":"levelo://app?vid=838b05d7-6a52-4938-98ab-8b37001989d5"},"vehicle_type_id":"4","last_reported":1702829260,"current_range_meters":16000,"station_id":"ce4bhg12rcd13ifvqf60","pricing_plan_id":"free"},{"bike_id":"bfc09dd1-ee9f-467a-8fd9-017443a3e28a","system_id":"levelo_inurba_marseille","lat":43.24549,"lon":5.39524,"is_reserved":false,"is_disabled":false,"rental_uris":{"android":"levelo://app?vid=bfc09dd1-ee9f-467a-8fd9-017443a3e28a","ios":"levelo://app?vid=bfc09dd1-ee9f-467a-8fd9-017443a3e28a"},"vehicle_type_id":"4","last_reported":1702829260,"current_range_meters":0,"station_id":"ce4bhlp2rcd13ifvqgjg","pricing_plan_id":"free"},{"bike_id":"5171abc0-176b-4095-b8f7-136aa02ef30c","system_id":"levelo_inurba_marseille","lat":43.245581,"lon":5.395069,"is_reserved":false,"is_disabled":false,"rental_uris":{"android":"levelo://app?vid=5171abc0-176b-4095-b8f7-136aa02ef30c","ios":"levelo://app?vid=5171abc0-176b-4095-b8f7-136aa02ef30c"},"vehicle_type_id":"4","last_reported":1702829260,"current_range_meters":28000,"station_id":"ce4bhlp2rcd13ifvqgjg","pricing_plan_id":"free"},{"bike_id":"7b88a3be-4805-4fbf-917a-30597a8b0cbe","system_id":"levelo_inurba_marseille","lat":43.245581,"lon":5.395069,"is_reserved":false,"is_disabled":false,"rental_uris":{"android":"levelo://app?vid=7b88a3be-4805-4fbf-917a-30597a8b0cbe","ios":"levelo://app?vid=7b88a3be-4805-4fbf-917a-30597a8b0cbe"},"vehicle_type_id":"4","last_reported":1702829260,"current_range_meters":20400,"station_id":"ce4bhlp2rcd13ifvqgjg","pricing_plan_id":"free"},{"bike_id":"06bea5c1-932e-4686-a69e-73c3a94a649c","system_id":"levelo_inurba_marseille","lat":43.24076,"lon":5.37766,"is_reserved":false,"is_disabled":false,"rental_uris":{"android":"levelo://app?vid=06bea5c1-932e-4686-a69e-73c3a94a649c","ios":"levelo://app?vid=06bea5c1-932e-4686-a69e-73c3a94a649c"},"vehicle_type_id":"4","last_reported":1702829260,"current_range_meters":5200,"station_id":"ce4bhnp2rcd13ifvqgvg","pricing_plan_id":"free"},{"bike_id":"06b4f2b0-f274-474c-a1c2-df6e6c70ba20","system_id":"levelo_inurba_marseille","lat":43.240623,"lon":5.377642,"is_reserved":false,"is_disabled":false,"rental_uris":{"android":"levelo://app?vid=06b4f2b0-f274-474c-a1c2-df6e6c70ba20","ios":"levelo://app?vid=06b4f2b0-f274-474c-a1c2-df6e6c70ba20"},"vehicle_type_id":"4","last_reported":1702829260,"current_range_meters":31200,"station_id":"ce4bhnp2rcd13ifvqgvg","pricing_plan_id":"free"},{"bike_id":"1a0aaa3c-7b25-4d9a-9a1b-04aaf2445cf4","system_id":"levelo_inurba_marseille","lat":43.239588,"lon":5.366238,"is_reserved":false,"is_disabled":false,"rental_uris":{"android":"levelo://app?vid=1a0aaa3c-7b25-4d9a-9a1b-04aaf2445cf4","ios":"levelo://app?vid=1a0aaa3c-7b25-4d9a-9a1b-04aaf2445cf4"},"vehicle_type_id":"4","last_reported":1702829260,"current_range_meters":13600,"station_id":"ce4bhi12rcd13ifvqfp0","pricing_plan_id":"free"},{"bike_id":"3259352c-4c01-4d59-9b3c-0965eddb2e8a","system_id":"levelo_inurba_marseille","lat":43.239588,"lon":5.366238,"is_reserved":false,"is_disabled":false,"rental_uris":{"android":"levelo://app?vid=3259352c-4c01-4d59-9b3c-0965eddb2e8a","ios":"levelo://app?vid=3259352c-4c01-4d59-9b3c-0965eddb2e8a"},"vehicle_type_id":"4","last_reported":1702829260,"current_range_meters":20800,"station_id":"ce4bhi12rcd13ifvqfp0","pricing_plan_id":"free"},{"bike_id":"9342a91e-9fef-433b-8fbf-420f63619a68","system_id":"levelo_inurba_marseille","lat":43.239588,"lon":5.366238,"is_reserved":false,"is_disabled":false,"rental_uris":{"android":"levelo://app?vid=9342a91e-9fef-433b-8fbf-420f63619a68","ios":"levelo://app?vid=9342a91e-9fef-433b-8fbf-420f63619a68"},"vehicle_type_id":"4","last_reported":1702829260,"current_range_meters":22800,"station_id":"ce4bhi12rcd13ifvqfp0","pricing_plan_id":"free"},{"bike_id":"c9074b87-4262-4412-9d82-f62d3786e247","system_id":"levelo_inurba_marseille","lat":43.239588,"lon":5.366238,"is_reserved":false,"is_disabled":false,"rental_uris":{"android":"levelo://app?vid=c9074b87-4262-4412-9d82-f62d3786e247","ios":"levelo://app?vid=c9074b87-4262-4412-9d82-f62d3786e247"},"vehicle_type_id":"4","last_reported":1702829260,"current_range_meters":32000,"station_id":"ce4bhi12rcd13ifvqfp0","pricing_plan_id":"free"},{"bike_id":"010d7e4f-9e11-405a-829f-1c37989b8b97","system_id":"levelo_inurba_marseille","lat":43.239588,"lon":5.366238,"is_reserved":false,"is_disabled":false,"rental_uris":{"android":"levelo://app?vid=010d7e4f-9e11-405a-829f-1c37989b8b97","ios":"levelo://app?vid=010d7e4f-9e11-405a-829f-1c37989b8b97"},"vehicle_type_id":"4","last_reported":1702829260,"current_range_meters":14000,"station_id":"ce4bhi12rcd13ifvqfp0","pricing_plan_id":"free"},{"bike_id":"630cf2f9-baf1-4860-be47-7a66ce2ac839","system_id":"levelo_inurba_marseille","lat":43.239585,"lon":5.366296,"is_reserved":false,"is_disabled":false,"rental_uris":{"android":"levelo://app?vid=630cf2f9-baf1-4860-be47-7a66ce2ac839","ios":"levelo://app?vid=630cf2f9-baf1-4860-be47-7a66ce2ac839"},"vehicle_type_id":"4","last_reported":1702829260,"current_range_meters":24000,"station_id":"ce4bhi12rcd13ifvqfp0","pricing_plan_id":"free"},{"bike_id":"391d21ee-50f4-4ad5-9205-d2446648b03a","system_id":"levelo_inurba_marseille","lat":43.239588,"lon":5.366238,"is_reserved":false,"is_disabled":false,"rental_uris":{"android":"levelo://app?vid=391d21ee-50f4-4ad5-9205-d2446648b03a","ios":"levelo://app?vid=391d21ee-50f4-4ad5-9205-d2446648b03a"},"vehicle_type_id":"4","last_reported":1702829260,"current_range_meters":28400,"station_id":"ce4bhi12rcd13ifvqfp0","pricing_plan_id":"free"},{"bike_id":"7544b8c0-a29f-44c5-8842-21760cbddff8","system_id":"levelo_inurba_marseille","lat":43.241782,"lon":5.397261,"is_reserved":false,"is_disabled":false,"rental_uris":{"android":"levelo://app?vid=7544b8c0-a29f-44c5-8842-21760cbddff8","ios":"levelo://app?vid=7544b8c0-a29f-44c5-8842-21760cbddff8"},"vehicle_type_id":"4","last_reported":1702829260,"current_range_meters":400,"station_id":"ce4bhn12rcd13ifvqgpg","pricing_plan_id":"free"},{"bike_id":"83e81e69-db0f-47f9-a374-f01b664427a3","system_id":"levelo_inurba_marseille","lat":43.241782,"lon":5.397261,"is_reserved":false,"is_disabled":false,"rental_uris":{"android":"levelo://app?vid=83e81e69-db0f-47f9-a374-f01b664427a3","ios":"levelo://app?vid=83e81e69-db0f-47f9-a374-f01b664427a3"},"vehicle_type_id":"4","last_reported":1702829260,"current_range_meters":6800,"station_id":"ce4bhn12rcd13ifvqgpg","pricing_plan_id":"free"},{"bike_id":"8fa8dcad-9213-4682-9e78-bced4d248910","system_id":"levelo_inurba_marseille","lat":43.23206,"lon":5.35552,"is_reserved":false,"is_disabled":false,"rental_uris":{"android":"levelo://app?vid=8fa8dcad-9213-4682-9e78-bced4d248910","ios":"levelo://app?vid=8fa8dcad-9213-4682-9e78-bced4d248910"},"vehicle_type_id":"4","last_reported":1702829260,"current_range_meters":12000,"station_id":"ce4bhu92rcd13ifvqi70","pricing_plan_id":"free"},{"bike_id":"6407938b-389d-4533-9ecb-2228594d1ac0","system_id":"levelo_inurba_marseille","lat":43.23203,"lon":5.35548,"is_reserved":false,"is_disabled":false,"rental_uris":{"android":"levelo://app?vid=6407938b-389d-4533-9ecb-2228594d1ac0","ios":"levelo://app?vid=6407938b-389d-4533-9ecb-2228594d1ac0"},"vehicle_type_id":"4","last_reported":1702829260,"current_range_meters":15600,"station_id":"ce4bhu92rcd13ifvqi70","pricing_plan_id":"free"},{"bike_id":"460de107-05f0-40a7-b98c-773b2cacefdd","system_id":"levelo_inurba_marseille","lat":43.23201,"lon":5.35546,"is_reserved":false,"is_disabled":false,"rental_uris":{"android":"levelo://app?vid=460de107-05f0-40a7-b98c-773b2cacefdd","ios":"levelo://app?vid=460de107-05f0-40a7-b98c-773b2cacefdd"},"vehicle_type_id":"4","last_reported":1702829260,"current_range_meters":26800,"station_id":"ce4bhu92rcd13ifvqi70","pricing_plan_id":"free"},{"bike_id":"3dd05bbe-7d4d-4d5f-b9a9-4266846c777b","system_id":"levelo_inurba_marseille","lat":43.23196,"lon":5.35555,"is_reserved":false,"is_disabled":false,"rental_uris":{"android":"levelo://app?vid=3dd05bbe-7d4d-4d5f-b9a9-4266846c777b","ios":"levelo://app?vid=3dd05bbe-7d4d-4d5f-b9a9-4266846c777b"},"vehicle_type_id":"4","last_reported":1702829260,"current_range_meters":30400,"station_id":"ce4bhu92rcd13ifvqi70","pricing_plan_id":"free"},{"bike_id":"e84f6252-dfd2-4688-b914-9eca8c7cdb93","system_id":"levelo_inurba_marseille","lat":43.23195,"lon":5.35543,"is_reserved":false,"is_disabled":false,"rental_uris":{"android":"levelo://app?vid=e84f6252-dfd2-4688-b914-9eca8c7cdb93","ios":"levelo://app?vid=e84f6252-dfd2-4688-b914-9eca8c7cdb93"},"vehicle_type_id":"4","last_reported":1702829260,"current_range_meters":20800,"station_id":"ce4bhu92rcd13ifvqi70","pricing_plan_id":"free"},{"bike_id":"deb8549c-895f-4c6d-b68c-130ea343f1e6","system_id":"levelo_inurba_marseille","lat":43.23194,"lon":5.35555,"is_reserved":false,"is_disabled":false,"rental_uris":{"android":"levelo://app?vid=deb8549c-895f-4c6d-b68c-130ea343f1e6","ios":"levelo://app?vid=deb8549c-895f-4c6d-b68c-130ea343f1e6"},"vehicle_type_id":"4","last_reported":1702829260,"current_range_meters":19600,"station_id":"ce4bhu92rcd13ifvqi70","pricing_plan_id":"free"},{"bike_id":"79ddd983-a8fc-494d-84c2-53aea6d96edf","system_id":"levelo_inurba_marseille","lat":43.23193,"lon":5.35555,"is_reserved":false,"is_disabled":false,"rental_uris":{"android":"levelo://app?vid=79ddd983-a8fc-494d-84c2-53aea6d96edf","ios":"levelo://app?vid=79ddd983-a8fc-494d-84c2-53aea6d96edf"},"vehicle_type_id":"4","last_reported":1702829260,"current_range_meters":30000,"station_id":"ce4bhu92rcd13ifvqi70","pricing_plan_id":"free"},{"bike_id":"56dee7e6-1189-4420-98f7-78158f1ad0b3","system_id":"levelo_inurba_marseille","lat":43.23192,"lon":5.35544,"is_reserved":false,"is_disabled":false,"rental_uris":{"android":"levelo://app?vid=56dee7e6-1189-4420-98f7-78158f1ad0b3","ios":"levelo://app?vid=56dee7e6-1189-4420-98f7-78158f1ad0b3"},"vehicle_type_id":"4","last_reported":1702829260,"current_range_meters":26400,"station_id":"ce4bhu92rcd13ifvqi70","pricing_plan_id":"free"},{"bike_id":"8bde1f20-3114-431c-b2df-22d6e7b7655a","system_id":"levelo_inurba_marseille","lat":43.23191,"lon":5.35557,"is_reserved":false,"is_disabled":false,"rental_uris":{"android":"levelo://app?vid=8bde1f20-3114-431c-b2df-22d6e7b7655a","ios":"levelo://app?vid=8bde1f20-3114-431c-b2df-22d6e7b7655a"},"vehicle_type_id":"4","last_reported":1702829260,"current_range_meters":30400,"station_id":"ce4bhu92rcd13ifvqi70","pricing_plan_id":"free"},{"bike_id":"d5206a6c-92a9-4a75-8859-313a2b40fcd2","system_id":"levelo_inurba_marseille","lat":43.231793,"lon":5.400044,"is_reserved":false,"is_disabled":false,"rental_uris":{"android":"levelo://app?vid=d5206a6c-92a9-4a75-8859-313a2b40fcd2","ios":"levelo://app?vid=d5206a6c-92a9-4a75-8859-313a2b40fcd2"},"vehicle_type_id":"4","last_reported":1702829260,"current_range_meters":31600,"station_id":"ce4bhn12rcd13ifvqgqg","pricing_plan_id":"free"},{"bike_id":"82b0b121-d2e6-4f04-8530-97cda8a0fbcd","system_id":"levelo_inurba_marseille","lat":43.231794,"lon":5.400052,"is_reserved":false,"is_disabled":false,"rental_uris":{"android":"levelo://app?vid=82b0b121-d2e6-4f04-8530-97cda8a0fbcd","ios":"levelo://app?vid=82b0b121-d2e6-4f04-8530-97cda8a0fbcd"},"vehicle_type_id":"4","last_reported":1702829260,"current_range_meters":31200,"station_id":"ce4bhn12rcd13ifvqgqg","pricing_plan_id":"free"},{"bike_id":"3ee0ea00-8e05-48c0-a38d-caf8a81146cd","system_id":"levelo_inurba_marseille","lat":43.231794,"lon":5.400052,"is_reserved":false,"is_disabled":false,"rental_uris":{"android":"levelo://app?vid=3ee0ea00-8e05-48c0-a38d-caf8a81146cd","ios":"levelo://app?vid=3ee0ea00-8e05-48c0-a38d-caf8a81146cd"},"vehicle_type_id":"4","last_reported":1702829260,"current_range_meters":30800,"station_id":"ce4bhn12rcd13ifvqgqg","pricing_plan_id":"free"},{"bike_id":"56e5134b-2d66-4511-b569-3c4bfa4ce73d","system_id":"levelo_inurba_marseille","lat":43.23182,"lon":5.39991,"is_reserved":false,"is_disabled":false,"rental_uris":{"android":"levelo://app?vid=56e5134b-2d66-4511-b569-3c4bfa4ce73d","ios":"levelo://app?vid=56e5134b-2d66-4511-b569-3c4bfa4ce73d"},"vehicle_type_id":"4","last_reported":1702829260,"current_range_meters":2400,"station_id":"ce4bhn12rcd13ifvqgqg","pricing_plan_id":"free"},{"bike_id":"f24eb76b-d777-4231-a0c9-e86572250025","system_id":"levelo_inurba_marseille","lat":43.231793,"lon":5.400044,"is_reserved":false,"is_disabled":false,"rental_uris":{"android":"levelo://app?vid=f24eb76b-d777-4231-a0c9-e86572250025","ios":"levelo://app?vid=f24eb76b-d777-4231-a0c9-e86572250025"},"vehicle_type_id":"4","last_reported":1702829260,"current_range_meters":16400,"station_id":"ce4bhn12rcd13ifvqgqg","pricing_plan_id":"free"},{"bike_id":"5d78c484-5aad-4c6b-ac91-47a4ca258067","system_id":"levelo_inurba_marseille","lat":43.231562,"lon":5.436933,"is_reserved":false,"is_disabled":false,"rental_uris":{"android":"levelo://app?vid=5d78c484-5aad-4c6b-ac91-47a4ca258067","ios":"levelo://app?vid=5d78c484-5aad-4c6b-ac91-47a4ca258067"},"vehicle_type_id":"4","last_reported":1702829260,"current_range_meters":20800,"station_id":"ce4bhmp2rcd13ifvqgog","pricing_plan_id":"free"}]}}