{"last_updated":1727032004,"ttl":30,"version":"2.2","data":{"bikes":[{"bike_id":"de2fa5f3-8a95-489c-b7b5-f80918e2227e","system_id":"levelo_inurba_marseille","lat":43.23962,"lon":5.36634,"is_reserved":false,"is_disabled":false,"rental_uris":{"android":"levelo://app?vid=de2fa5f3-8a95-489c-b7b5-f80918e2227e","ios":"levelo://app?vid=de2fa5f3-8a95-489c-b7b5-f80918e2227e"},"vehicle_type_id":"4","last_reported":1727032004,"current_range_meters":3200,"station_id":"ce4bhi12rcd13ifvqfp0","pricing_plan_id":"cebpf4jnsgd1na2vs0mg"},{"bike_id":"fd84f170-c075-4570-a556-c5e617e29406","system_id":"levelo_inurba_marseille","lat":43.28277,"lon":5.40894,"is_reserved":false,"is_disabled":false,"rental_uris":{"android":"levelo://app?vid=fd84f170-c075-4570-a556-c5e617e29406","ios":"levelo://app?vid=fd84f170-c075-4570-a556-c5e617e29406"},"vehicle_type_id":"4","last_reported":1727032004,"current_range_meters":18000,"station_id":"","pricing_plan_id":"cebpf4jnsgd1na2vs0mg"},{"bike_id":"73bf7027-5bf8-43b2-b279-78342f80f543","system_id":"levelo_inurba_marseille","lat":43.28097,"lon":5.37842,"is_reserved":false,"is_disabled":false,"rental_uris":{"android":"levelo://app?vid=73bf7027-5bf8-43b2-b279-78342f80f543","ios":"levelo://app?vid=73bf7027-5bf8-43b2-b279-78342f80f543"},"vehicle_type_id":"4","last_reported":1727032004,"current_range_meters":36000,"station_id":"ce4bha12rcd13ifvqee0","pricing_plan_id":"cebpf4jnsgd1na2vs0mg"},{"bike_id":"82aac619-d9f9-4e79-9834-b1fd180b3a93","system_id":"levelo_inurba_marseille","lat":43.29595,"lon":5.3809,"is_reserved":false,"is_disabled":false,"rental_uris":{"android":"levelo://app?vid=82aac619-d9f9-4e79-9834-b1fd180b3a93","ios":"levelo://app?vid=82aac619-d9f9-4e79-9834-b1fd180b3a93"},"vehicle_type_id":"4","last_reported":1727032004,"current_range_meters":30000,"station_id":"ce4bgl12rcd13ifvqbo0","pricing_plan_id":"cebpf4jnsgd1na2vs0mg"},{"bike_id":"920f6081-acb9-4f4d-a0fc-5a83ceecd3f4","system_id":"levelo_inurba_marseille","lat":43.24806,"lon":5.37458,"is_reserved":false,"is_disabled":false,"rental_uris":{"android":"levelo://app?vid=920f6081-acb9-4f4d-a0fc-5a83ceecd3f4","ios":"levelo://app?vid=920f6081-acb9-4f4d-a0fc-5a83ceecd3f4"},"vehicle_type_id":"4","last_reported":1727032004,"current_range_meters":4000,"station_id":"ce4bhgh2rcd13ifvqfb0","pricing_plan_id":"cebpf4jnsgd1na2vs0mg"},{"bike_id":"4c310860-536f-48a7-992d-43d8d7f317b9","system_id":"levelo_inurba_marseille","lat":43.31704,"lon":5.37744,"is_reserved":false,"is_disabled":false,"rental_uris":{"android":"levelo://app?vid=4c310860-536f-48a7-992d-43d8d7f317b9","ios":"levelo://app?vid=4c310860-536f-48a7-992d-43d8d7f317b9"},"vehicle_type_id":"4","last_reported":1727032004,"current_range_meters":22800,"station_id":"ce4bgth2rcd13ifvqch0","pricing_plan_id":"cebpf4jnsgd1na2vs0mg"},{"bike_id":"26f5ba65-d2c9-495f-a791-92ff63e4632b","system_id":"levelo_inurba_marseille","lat":43.29418,"lon":5.38626,"is_reserved":false,"is_disabled":false,"rental_uris":{"android":"levelo://app?vid=26f5ba65-d2c9-495f-a791-92ff63e4632b","ios":"levelo://app?vid=26f5ba65-d2c9-495f-a791-92ff63e4632b"},"vehicle_type_id":"4","last_reported":1727032004,"current_range_meters":38800,"station_id":"ce4bh2h2rcd13ifvqdh0","pricing_plan_id":"cebpf4jnsgd1na2vs0mg"},{"bike_id":"2375269c-1ee0-4177-a574-bcc26e16eb27","system_id":"levelo_inurba_marseille","lat":43.31712,"lon":5.43704,"is_reserved":false,"is_disabled":false,"rental_uris":{"android":"levelo://app?vid=2375269c-1ee0-4177-a574-bcc26e16eb27","ios":"levelo://app?vid=2375269c-1ee0-4177-a574-bcc26e16eb27"},"vehicle_type_id":"4","last_reported":1727032004,"current_range_meters":19200,"station_id":"ce4bhp92rcd13ifvqhcg","pricing_plan_id":"cebpf4jnsgd1na2vs0mg"},{"bike_id":"26928311-73e0-4a04-a1f4-c5d8a6b46043","system_id":"levelo_inurba_marseille","lat":43.301459,"lon":5.380722,"is_reserved":false,"is_disabled":false,"rental_uris":{"android":"levelo://app?vid=26928311-73e0-4a04-a1f4-c5d8a6b46043","ios":"levelo://app?vid=26928311-73e0-4a04-a1f4-c5d8a6b46043"},"vehicle_type_id":"4","last_reported":1727032004,"current_range_meters":19600,"station_id":"ce4bhah2rcd13ifvqej0","pricing_plan_id":"cebpf4jnsgd1na2vs0mg"},{"bike_id":"3a1ddd4d-b887-4311-a487-6b06a84d9e23","system_id":"levelo_inurba_marseille","lat":43.2958,"lon":5.36751,"is_reserved":false,"is_disabled":false,"rental_uris":{"android":"levelo://app?vid=3a1ddd4d-b887-4311-a487-6b06a84d9e23","ios":"levelo://app?vid=3a1ddd4d-b887-4311-a487-6b06a84d9e23"},"vehicle_type_id":"4","last_reported":1727032004,"current_range_meters":33200,"station_id":"ce4bgph2rcd13ifvqc2g","pricing_plan_id":"cebpf4jnsgd1na2vs0mg"},{"bike_id":"3088b933-0eb0-44a5-81e7-422b8bfe6707","system_id":"levelo_inurba_marseille","lat":43.2407,"lon":5.37756,"is_reserved":false,"is_disabled":false,"rental_uris":{"android":"levelo://app?vid=3088b933-0eb0-44a5-81e7-422b8bfe6707","ios":"levelo://app?vid=3088b933-0eb0-44a5-81e7-422b8bfe6707"},"vehicle_type_id":"4","last_reported":1727032004,"current_range_meters":19200,"station_id":"ce4bhnp2rcd13ifvqgvg","pricing_plan_id":"cebpf4jnsgd1na2vs0mg"},{"bike_id":"abbea46f-18ff-409b-8357-c088db166ae1","system_id":"levelo_inurba_marseille","lat":43.31532,"lon":5.38036,"is_reserved":false,"is_disabled":false,"rental_uris":{"android":"levelo://app?vid=abbea46f-18ff-409b-8357-c088db166ae1","ios":"levelo://app?vid=abbea46f-18ff-409b-8357-c088db166ae1"},"vehicle_type_id":"4","last_reported":1727032004,"current_range_meters":34000,"station_id":"ce4bhsp2rcd13ifvqi50","pricing_plan_id":"cebpf4jnsgd1na2vs0mg"},{"bike_id":"92f6d52b-089a-4a04-a1c3-9a7252adfbbc","system_id":"levelo_inurba_marseille","lat":43.2919,"lon":5.38038,"is_reserved":false,"is_disabled":false,"rental_uris":{"android":"levelo://app?vid=92f6d52b-089a-4a04-a1c3-9a7252adfbbc","ios":"levelo://app?vid=92f6d52b-089a-4a04-a1c3-9a7252adfbbc"},"vehicle_type_id":"4","last_reported":1727032004,"current_range_meters":22800,"station_id":"ce4bh512rcd13ifvqe2g","pricing_plan_id":"cebpf4jnsgd1na2vs0mg"},{"bike_id":"2d4db35c-74d4-4f16-acb0-832a99727e80","system_id":"levelo_inurba_marseille","lat":43.27955,"lon":5.38699,"is_reserved":false,"is_disabled":false,"rental_uris":{"android":"levelo://app?vid=2d4db35c-74d4-4f16-acb0-832a99727e80","ios":"levelo://app?vid=2d4db35c-74d4-4f16-acb0-832a99727e80"},"vehicle_type_id":"4","last_reported":1727032004,"current_range_meters":39200,"station_id":"ce4bhg12rcd13ifvqf80","pricing_plan_id":"cebpf4jnsgd1na2vs0mg"},{"bike_id":"77ad9f61-e5ef-4835-8ea9-ab408071c0bf","system_id":"levelo_inurba_marseille","lat":43.31256,"lon":5.40164,"is_reserved":false,"is_disabled":false,"rental_uris":{"android":"levelo://app?vid=77ad9f61-e5ef-4835-8ea9-ab408071c0bf","ios":"levelo://app?vid=77ad9f61-e5ef-4835-8ea9-ab408071c0bf"},"vehicle_type_id":"4","last_reported":1727032004,"current_range_meters":37600,"station_id":"ce4bh092rcd13ifvqd30","pricing_plan_id":"cebpf4jnsgd1na2vs0mg"},{"bike_id":"20a042f1-81aa-4cde-8548-4f002e395336","system_id":"levelo_inurba_marseille","lat":43.30185,"lon":5.39852,"is_reserved":false,"is_disabled":false,"rental_uris":{"android":"levelo://app?vid=20a042f1-81aa-4cde-8548-4f002e395336","ios":"levelo://app?vid=20a042f1-81aa-4cde-8548-4f002e395336"},"vehicle_type_id":"4","last_reported":1727032004,"current_range_meters":36400,"station_id":"ce4bgvp2rcd13ifvqct0","pricing_plan_id":"cebpf4jnsgd1na2vs0mg"},{"bike_id":"eba66bb8-485a-4a36-900e-7a7af5e48d0c","system_id":"levelo_inurba_marseille","lat":43.27991,"lon":5.41661,"is_reserved":false,"is_disabled":false,"rental_uris":{"android":"levelo://app?vid=eba66bb8-485a-4a36-900e-7a7af5e48d0c","ios":"levelo://app?vid=eba66bb8-485a-4a36-900e-7a7af5e48d0c"},"vehicle_type_id":"4","last_reported":1727032004,"current_range_meters":32000,"station_id":"ce4bho12rcd13ifvqh1g","pricing_plan_id":"cebpf4jnsgd1na2vs0mg"},{"bike_id":"cbe1d532-4808-44ee-b9d0-83fa9f257b96","system_id":"levelo_inurba_marseille","lat":43.26058,"lon":5.39395,"is_reserved":false,"is_disabled":false,"rental_uris":{"android":"levelo://app?vid=cbe1d532-4808-44ee-b9d0-83fa9f257b96","ios":"levelo://app?vid=cbe1d532-4808-44ee-b9d0-83fa9f257b96"},"vehicle_type_id":"4","last_reported":1727032004,"current_range_meters":29600,"station_id":"ce4bhh92rcd13ifvqfj0","pricing_plan_id":"cebpf4jnsgd1na2vs0mg"},{"bike_id":"966952b3-5dfe-4d9e-b393-22917346bb65","system_id":"levelo_inurba_marseille","lat":43.29254,"lon":5.38448,"is_reserved":false,"is_disabled":false,"rental_uris":{"android":"levelo://app?vid=966952b3-5dfe-4d9e-b393-22917346bb65","ios":"levelo://app?vid=966952b3-5dfe-4d9e-b393-22917346bb65"},"vehicle_type_id":"4","last_reported":1727032004,"current_range_meters":24400,"station_id":"ce4bh692rcd13ifvqea0","pricing_plan_id":"cebpf4jnsgd1na2vs0mg"},{"bike_id":"68b1f62b-d8b3-40fd-860c-4a28332f3487","system_id":"levelo_inurba_marseille","lat":43.27808,"lon":5.40717,"is_reserved":false,"is_disabled":false,"rental_uris":{"android":"levelo://app?vid=68b1f62b-d8b3-40fd-860c-4a28332f3487","ios":"levelo://app?vid=68b1f62b-d8b3-40fd-860c-4a28332f3487"},"vehicle_type_id":"4","last_reported":1727032004,"current_range_meters":28000,"station_id":"ce4bhnh2rcd13ifvqgtg","pricing_plan_id":"cebpf4jnsgd1na2vs0mg"},{"bike_id":"33817eff-36f4-46e2-938b-7e62383edc1c","system_id":"levelo_inurba_marseille","lat":43.29256,"lon":5.38451,"is_reserved":false,"is_disabled":false,"rental_uris":{"android":"levelo://app?vid=33817eff-36f4-46e2-938b-7e62383edc1c","ios":"levelo://app?vid=33817eff-36f4-46e2-938b-7e62383edc1c"},"vehicle_type_id":"4","last_reported":1727032004,"current_range_meters":38800,"station_id":"ce4bh692rcd13ifvqea0","pricing_plan_id":"cebpf4jnsgd1na2vs0mg"},{"bike_id":"4af44d7d-fd5d-4f7e-a541-467f7adc5360","system_id":"levelo_inurba_marseille","lat":43.29598,"lon":5.38112,"is_reserved":false,"is_disabled":false,"rental_uris":{"android":"levelo://app?vid=4af44d7d-fd5d-4f7e-a541-467f7adc5360","ios":"levelo://app?vid=4af44d7d-fd5d-4f7e-a541-467f7adc5360"},"vehicle_type_id":"4","last_reported":1727032004,"current_range_meters":25200,"station_id":"ce4bgl12rcd13ifvqbo0","pricing_plan_id":"cebpf4jnsgd1na2vs0mg"},{"bike_id":"ddef2735-203a-4460-8fe2-32d0d088e5d5","system_id":"levelo_inurba_marseille","lat":43.31231,"lon":5.37998,"is_reserved":false,"is_disabled":false,"rental_uris":{"android":"levelo://app?vid=ddef2735-203a-4460-8fe2-32d0d088e5d5","ios":"levelo://app?vid=ddef2735-203a-4460-8fe2-32d0d088e5d5"},"vehicle_type_id":"4","last_reported":1727032004,"current_range_meters":4000,"station_id":"","pricing_plan_id":"cebpf4jnsgd1na2vs0mg"},{"bike_id":"09294207-06dc-4376-b148-2c0fb3b38409","system_id":"levelo_inurba_marseille","lat":43.25579,"lon":5.38236,"is_reserved":false,"is_disabled":false,"rental_uris":{"android":"levelo://app?vid=09294207-06dc-4376-b148-2c0fb3b38409","ios":"levelo://app?vid=09294207-06dc-4376-b148-2c0fb3b38409"},"vehicle_type_id":"4","last_reported":1727032004,"current_range_meters":9200,"station_id":"ce4bhih2rcd13ifvqfs0","pricing_plan_id":"cebpf4jnsgd1na2vs0mg"},{"bike_id":"d7768b41-42b6-44d5-906a-db089dfd5ded","system_id":"levelo_inurba_marseille","lat":43.2958,"lon":5.36754,"is_reserved":false,"is_disabled":false,"rental_uris":{"android":"levelo://app?vid=d7768b41-42b6-44d5-906a-db089dfd5ded","ios":"levelo://app?vid=d7768b41-42b6-44d5-906a-db089dfd5ded"},"vehicle_type_id":"4","last_reported":1727032004,"current_range_meters":4400,"station_id":"ce4bgph2rcd13ifvqc2g","pricing_plan_id":"cebpf4jnsgd1na2vs0mg"},{"bike_id":"baa9e3ba-a317-4c5a-937b-63c24c256bd8","system_id":"levelo_inurba_marseille","lat":43.32683,"lon":5.40933,"is_reserved":false,"is_disabled":false,"rental_uris":{"android":"levelo://app?vid=baa9e3ba-a317-4c5a-937b-63c24c256bd8","ios":"levelo://app?vid=baa9e3ba-a317-4c5a-937b-63c24c256bd8"},"vehicle_type_id":"4","last_reported":1727032004,"current_range_meters":38800,"station_id":"","pricing_plan_id":"cebpf4jnsgd1na2vs0mg"},{"bike_id":"6fb5c5d3-6aa9-4d3c-a0e6-f1f095d5520e","system_id":"levelo_inurba_marseille","lat":43.291656,"lon":5.371579,"is_reserved":false,"is_disabled":false,"rental_uris":{"android":"levelo://app?vid=6fb5c5d3-6aa9-4d3c-a0e6-f1f095d5520e","ios":"levelo://app?vid=6fb5c5d3-6aa9-4d3c-a0e6-f1f095d5520e"},"vehicle_type_id":"4","last_reported":1727032004,"current_range_meters":25600,"station_id":"ce4bhah2rcd13ifvqej0","pricing_plan_id":"cebpf4jnsgd1na2vs0mg"},{"bike_id":"bc7ee07a-eb6f-46f7-b14c-b92248103165","system_id":"levelo_inurba_marseille","lat":43.29266,"lon":5.38447,"is_reserved":false,"is_disabled":false,"rental_uris":{"android":"levelo://app?vid=bc7ee07a-eb6f-46f7-b14c-b92248103165","ios":"levelo://app?vid=bc7ee07a-eb6f-46f7-b14c-b92248103165"},"vehicle_type_id":"4","last_reported":1727032004,"current_range_meters":37600,"station_id":"ce4bh692rcd13ifvqea0","pricing_plan_id":"cebpf4jnsgd1na2vs0mg"},{"bike_id":"e35f0e97-2b9f-438d-b1bc-2da44bc851c0","system_id":"levelo_inurba_marseille","lat":43.31711,"lon":5.43708,"is_reserved":false,"is_disabled":false,"rental_uris":{"android":"levelo://app?vid=e35f0e97-2b9f-438d-b1bc-2da44bc851c0","ios":"levelo://app?vid=e35f0e97-2b9f-438d-b1bc-2da44bc851c0"},"vehicle_type_id":"4","last_reported":1727032004,"current_range_meters":32800,"station_id":"ce4bhp92rcd13ifvqhcg","pricing_plan_id":"cebpf4jnsgd1na2vs0mg"},{"bike_id":"b51ce446-611a-42c6-8797-bda05e34d07b","system_id":"levelo_inurba_marseille","lat":43.31325,"lon":5.39705,"is_reserved":false,"is_disabled":false,"rental_uris":{"android":"levelo://app?vid=b51ce446-611a-42c6-8797-bda05e34d07b","ios":"levelo://app?vid=b51ce446-611a-42c6-8797-bda05e34d07b"},"vehicle_type_id":"4","last_reported":1727032004,"current_range_meters":22800,"station_id":"ce4bgvp2rcd13ifvqcu0","pricing_plan_id":"cebpf4jnsgd1na2vs0mg"},{"bike_id":"3ce59b6f-7686-4b2b-8d52-a069173b32ca","system_id":"levelo_inurba_marseille","lat":43.311715,"lon":5.387273,"is_reserved":false,"is_disabled":false,"rental_uris":{"android":"levelo://app?vid=3ce59b6f-7686-4b2b-8d52-a069173b32ca","ios":"levelo://app?vid=3ce59b6f-7686-4b2b-8d52-a069173b32ca"},"vehicle_type_id":"4","last_reported":1727032004,"current_range_meters":38800,"station_id":"ce4bgv12rcd13ifvqcp0","pricing_plan_id":"cebpf4jnsgd1na2vs0mg"},{"bike_id":"468dec7e-4f89-473d-ab2e-61ee7d247c61","system_id":"levelo_inurba_marseille","lat":43.24179,"lon":5.39731,"is_reserved":false,"is_disabled":false,"rental_uris":{"android":"levelo://app?vid=468dec7e-4f89-473d-ab2e-61ee7d247c61","ios":"levelo://app?vid=468dec7e-4f89-473d-ab2e-61ee7d247c61"},"vehicle_type_id":"4","last_reported":1727032004,"current_range_meters":9600,"station_id":"ce4bhn12rcd13ifvqgpg","pricing_plan_id":"cebpf4jnsgd1na2vs0mg"},{"bike_id":"dbf2427f-c0b1-4784-9627-321c7882278a","system_id":"levelo_inurba_marseille","lat":43.301971,"lon":5.400733,"is_reserved":false,"is_disabled":false,"rental_uris":{"android":"levelo://app?vid=dbf2427f-c0b1-4784-9627-321c7882278a","ios":"levelo://app?vid=dbf2427f-c0b1-4784-9627-321c7882278a"},"vehicle_type_id":"4","last_reported":1727032004,"current_range_meters":9200,"station_id":"ce4bgvh2rcd13ifvqcs0","pricing_plan_id":"cebpf4jnsgd1na2vs0mg"},{"bike_id":"bf1b2103-b792-4830-9ce1-52d19f810b0b","system_id":"levelo_inurba_marseille","lat":43.30792,"lon":5.43534,"is_reserved":false,"is_disabled":false,"rental_uris":{"android":"levelo://app?vid=bf1b2103-b792-4830-9ce1-52d19f810b0b","ios":"levelo://app?vid=bf1b2103-b792-4830-9ce1-52d19f810b0b"},"vehicle_type_id":"4","last_reported":1727032004,"current_range_meters":9200,"station_id":"ce4bhph2rcd13ifvqheg","pricing_plan_id":"cebpf4jnsgd1na2vs0mg"},{"bike_id":"eba50f3e-15a7-4c77-9a3a-080623d136f4","system_id":"levelo_inurba_marseille","lat":43.29008,"lon":5.38133,"is_reserved":false,"is_disabled":false,"rental_uris":{"android":"levelo://app?vid=eba50f3e-15a7-4c77-9a3a-080623d136f4","ios":"levelo://app?vid=eba50f3e-15a7-4c77-9a3a-080623d136f4"},"vehicle_type_id":"4","last_reported":1727032004,"current_range_meters":38000,"station_id":"ce4bh4p2rcd13ifvqe1g","pricing_plan_id":"cebpf4jnsgd1na2vs0mg"},{"bike_id":"7ea6f11e-bb74-4722-bd77-c4a2c92da2c7","system_id":"levelo_inurba_marseille","lat":43.25869,"lon":5.39896,"is_reserved":false,"is_disabled":false,"rental_uris":{"android":"levelo://app?vid=7ea6f11e-bb74-4722-bd77-c4a2c92da2c7","ios":"levelo://app?vid=7ea6f11e-bb74-4722-bd77-c4a2c92da2c7"},"vehicle_type_id":"4","last_reported":1727032004,"current_range_meters":10000,"station_id":"ce4bhl92rcd13ifvqghg","pricing_plan_id":"cebpf4jnsgd1na2vs0mg"},{"bike_id":"5bf4fa55-561d-41a9-ac75-043f452ea403","system_id":"levelo_inurba_marseille","lat":43.28079,"lon":5.39661,"is_reserved":false,"is_disabled":false,"rental_uris":{"android":"levelo://app?vid=5bf4fa55-561d-41a9-ac75-043f452ea403","ios":"levelo://app?vid=5bf4fa55-561d-41a9-ac75-043f452ea403"},"vehicle_type_id":"4","last_reported":1727032004,"current_range_meters":24000,"station_id":"ce4bho12rcd13ifvqh2g","pricing_plan_id":"cebpf4jnsgd1na2vs0mg"},{"bike_id":"e68b94cf-f394-4560-9c0b-52865583d26a","system_id":"levelo_inurba_marseille","lat":43.23186,"lon":5.39982,"is_reserved":false,"is_disabled":false,"rental_uris":{"android":"levelo://app?vid=e68b94cf-f394-4560-9c0b-52865583d26a","ios":"levelo://app?vid=e68b94cf-f394-4560-9c0b-52865583d26a"},"vehicle_type_id":"4","last_reported":1727032004,"current_range_meters":17600,"station_id":"ce4bhn12rcd13ifvqgqg","pricing_plan_id":"cebpf4jnsgd1na2vs0mg"},{"bike_id":"8fea3d40-1027-4b93-b566-cf6bf82d1cb6","system_id":"levelo_inurba_marseille","lat":43.31068,"lon":5.40104,"is_reserved":false,"is_disabled":false,"rental_uris":{"android":"levelo://app?vid=8fea3d40-1027-4b93-b566-cf6bf82d1cb6","ios":"levelo://app?vid=8fea3d40-1027-4b93-b566-cf6bf82d1cb6"},"vehicle_type_id":"4","last_reported":1727032004,"current_range_meters":36000,"station_id":"","pricing_plan_id":"cebpf4jnsgd1na2vs0mg"},{"bike_id":"5bdf0447-751e-4b35-8dea-c8b96aa4349c","system_id":"levelo_inurba_marseille","lat":43.29186,"lon":5.35823,"is_reserved":false,"is_disabled":false,"rental_uris":{"android":"levelo://app?vid=5bdf0447-751e-4b35-8dea-c8b96aa4349c","ios":"levelo://app?vid=5bdf0447-751e-4b35-8dea-c8b96aa4349c"},"vehicle_type_id":"4","last_reported":1727032004,"current_range_meters":38800,"station_id":"ce4bhb12rcd13ifvqel0","pricing_plan_id":"cebpf4jnsgd1na2vs0mg"},{"bike_id":"fa434d1c-ed09-4e1e-b76b-403ef93db80e","system_id":"levelo_inurba_marseille","lat":43.2781,"lon":5.40717,"is_reserved":false,"is_disabled":false,"rental_uris":{"android":"levelo://app?vid=fa434d1c-ed09-4e1e-b76b-403ef93db80e","ios":"levelo://app?vid=fa434d1c-ed09-4e1e-b76b-403ef93db80e"},"vehicle_type_id":"4","last_reported":1727032004,"current_range_meters":25600,"station_id":"ce4bhnh2rcd13ifvqgtg","pricing_plan_id":"cebpf4jnsgd1na2vs0mg"},{"bike_id":"959147eb-b90e-422c-9e06-fd10a43765c1","system_id":"levelo_inurba_marseille","lat":43.29264,"lon":5.38449,"is_reserved":false,"is_disabled":false,"rental_uris":{"android":"levelo://app?vid=959147eb-b90e-422c-9e06-fd10a43765c1","ios":"levelo://app?vid=959147eb-b90e-422c-9e06-fd10a43765c1"},"vehicle_type_id":"4","last_reported":1727032004,"current_range_meters":31200,"station_id":"ce4bhah2rcd13ifvqej0","pricing_plan_id":"cebpf4jnsgd1na2vs0mg"},{"bike_id":"90890cf4-4c81-4003-ba44-9a9a23207e3d","system_id":"levelo_inurba_marseille","lat":43.25864,"lon":5.39898,"is_reserved":false,"is_disabled":false,"rental_uris":{"android":"levelo://app?vid=90890cf4-4c81-4003-ba44-9a9a23207e3d","ios":"levelo://app?vid=90890cf4-4c81-4003-ba44-9a9a23207e3d"},"vehicle_type_id":"4","last_reported":1727032004,"current_range_meters":38800,"station_id":"ce4bhl92rcd13ifvqghg","pricing_plan_id":"cebpf4jnsgd1na2vs0mg"},{"bike_id":"676e7a0f-f9f7-4f5a-9c73-7968c165a08e","system_id":"levelo_inurba_marseille","lat":43.29532,"lon":5.38545,"is_reserved":false,"is_disabled":false,"rental_uris":{"android":"levelo://app?vid=676e7a0f-f9f7-4f5a-9c73-7968c165a08e","ios":"levelo://app?vid=676e7a0f-f9f7-4f5a-9c73-7968c165a08e"},"vehicle_type_id":"4","last_reported":1727032004,"current_range_meters":8800,"station_id":"ce4bgih2rcd13ifvqba0","pricing_plan_id":"cebpf4jnsgd1na2vs0mg"},{"bike_id":"a3108788-6dbe-4135-a9c6-12d545d1be39","system_id":"levelo_inurba_marseille","lat":43.25576,"lon":5.38239,"is_reserved":false,"is_disabled":false,"rental_uris":{"android":"levelo://app?vid=a3108788-6dbe-4135-a9c6-12d545d1be39","ios":"levelo://app?vid=a3108788-6dbe-4135-a9c6-12d545d1be39"},"vehicle_type_id":"4","last_reported":1727032004,"current_range_meters":38800,"station_id":"ce4bhih2rcd13ifvqfs0","pricing_plan_id":"cebpf4jnsgd1na2vs0mg"},{"bike_id":"4021daa9-bb10-46e3-b126-d820adcd0c04","system_id":"levelo_inurba_marseille","lat":43.29597,"lon":5.38103,"is_reserved":false,"is_disabled":false,"rental_uris":{"android":"levelo://app?vid=4021daa9-bb10-46e3-b126-d820adcd0c04","ios":"levelo://app?vid=4021daa9-bb10-46e3-b126-d820adcd0c04"},"vehicle_type_id":"4","last_reported":1727032004,"current_range_meters":6400,"station_id":"ce4bgl12rcd13ifvqbo0","pricing_plan_id":"cebpf4jnsgd1na2vs0mg"},{"bike_id":"36c416da-9158-44af-aa3a-06b103bea7bf","system_id":"levelo_inurba_marseille","lat":43.337444,"lon":5.374475,"is_reserved":false,"is_disabled":false,"rental_uris":{"android":"levelo://app?vid=36c416da-9158-44af-aa3a-06b103bea7bf","ios":"levelo://app?vid=36c416da-9158-44af-aa3a-06b103bea7bf"},"vehicle_type_id":"4","last_reported":1727032004,"current_range_meters":27200,"station_id":"","pricing_plan_id":"cebpf4jnsgd1na2vs0mg"},{"bike_id":"5a733a74-55e5-4b8a-b316-ce6776ffe49f","system_id":"levelo_inurba_marseille","lat":43.29526,"lon":5.38551,"is_reserved":false,"is_disabled":false,"rental_uris":{"android":"levelo://app?vid=5a733a74-55e5-4b8a-b316-ce6776ffe49f","ios":"levelo://app?vid=5a733a74-55e5-4b8a-b316-ce6776ffe49f"},"vehicle_type_id":"4","last_reported":1727032004,"current_range_meters":30000,"station_id":"ce4bgih2rcd13ifvqba0","pricing_plan_id":"cebpf4jnsgd1na2vs0mg"},{"bike_id":"b4a0f177-d5ec-4c9c-8105-902c1b585992","system_id":"levelo_inurba_marseille","lat":43.31065,"lon":5.38354,"is_reserved":false,"is_disabled":false,"rental_uris":{"android":"levelo://app?vid=b4a0f177-d5ec-4c9c-8105-902c1b585992","ios":"levelo://app?vid=b4a0f177-d5ec-4c9c-8105-902c1b585992"},"vehicle_type_id":"4","last_reported":1727032004,"current_range_meters":16000,"station_id":"ce4bgv92rcd13ifvqcr0","pricing_plan_id":"cebpf4jnsgd1na2vs0mg"},{"bike_id":"e7ba8be8-bb54-4ee1-83ab-ce479a272181","system_id":"levelo_inurba_marseille","lat":43.31329,"lon":5.3969,"is_reserved":false,"is_disabled":false,"rental_uris":{"android":"levelo://app?vid=e7ba8be8-bb54-4ee1-83ab-ce479a272181","ios":"levelo://app?vid=e7ba8be8-bb54-4ee1-83ab-ce479a272181"},"vehicle_type_id":"4","last_reported":1727032004,"current_range_meters":4400,"station_id":"ce4bgvp2rcd13ifvqcu0","pricing_plan_id":"cebpf4jnsgd1na2vs0mg"},{"bike_id":"558c76b0-215a-4a84-9e10-663662edc353","system_id":"levelo_inurba_marseille","lat":43.31072,"lon":5.38353,"is_reserved":false,"is_disabled":false,"rental_uris":{"android":"levelo://app?vid=558c76b0-215a-4a84-9e10-663662edc353","ios":"levelo://app?vid=558c76b0-215a-4a84-9e10-663662edc353"},"vehicle_type_id":"4","last_reported":1727032004,"current_range_meters":10800,"station_id":"ce4bgv92rcd13ifvqcr0","pricing_plan_id":"cebpf4jnsgd1na2vs0mg"},{"bike_id":"dcf3d7bc-c35f-4647-a9ab-733122a04faf","system_id":"levelo_inurba_marseille","lat":43.2511,"lon":5.40327,"is_reserved":false,"is_disabled":false,"rental_uris":{"android":"levelo://app?vid=dcf3d7bc-c35f-4647-a9ab-733122a04faf","ios":"levelo://app?vid=dcf3d7bc-c35f-4647-a9ab-733122a04faf"},"vehicle_type_id":"4","last_reported":1727032004,"current_range_meters":38800,"station_id":"ce4bhlh2rcd13ifvqgig","pricing_plan_id":"cebpf4jnsgd1na2vs0mg"},{"bike_id":"bc08d377-8934-49f9-a16b-d231e67a2261","system_id":"levelo_inurba_marseille","lat":43.28151,"lon":5.42652,"is_reserved":false,"is_disabled":false,"rental_uris":{"android":"levelo://app?vid=bc08d377-8934-49f9-a16b-d231e67a2261","ios":"levelo://app?vid=bc08d377-8934-49f9-a16b-d231e67a2261"},"vehicle_type_id":"4","last_reported":1727032004,"current_range_meters":20800,"station_id":"ce4bhnh2rcd13ifvqgug","pricing_plan_id":"cebpf4jnsgd1na2vs0mg"},{"bike_id":"f72b4ee5-3b6a-4bba-8e4b-bc24bda6e341","system_id":"levelo_inurba_marseille","lat":43.28571,"lon":5.39504,"is_reserved":false,"is_disabled":false,"rental_uris":{"android":"levelo://app?vid=f72b4ee5-3b6a-4bba-8e4b-bc24bda6e341","ios":"levelo://app?vid=f72b4ee5-3b6a-4bba-8e4b-bc24bda6e341"},"vehicle_type_id":"4","last_reported":1727032004,"current_range_meters":28000,"station_id":"ce4bh292rcd13ifvqdg0","pricing_plan_id":"cebpf4jnsgd1na2vs0mg"},{"bike_id":"d6391691-de65-45d3-b374-0c65a866bbce","system_id":"levelo_inurba_marseille","lat":43.31703,"lon":5.40483,"is_reserved":false,"is_disabled":false,"rental_uris":{"android":"levelo://app?vid=d6391691-de65-45d3-b374-0c65a866bbce","ios":"levelo://app?vid=d6391691-de65-45d3-b374-0c65a866bbce"},"vehicle_type_id":"4","last_reported":1727032004,"current_range_meters":36400,"station_id":"ce4bh012rcd13ifvqd00","pricing_plan_id":"cebpf4jnsgd1na2vs0mg"},{"bike_id":"fee847b2-684e-4f0f-b3c3-0910bdb1f06e","system_id":"levelo_inurba_marseille","lat":43.28154,"lon":5.42645,"is_reserved":false,"is_disabled":false,"rental_uris":{"android":"levelo://app?vid=fee847b2-684e-4f0f-b3c3-0910bdb1f06e","ios":"levelo://app?vid=fee847b2-684e-4f0f-b3c3-0910bdb1f06e"},"vehicle_type_id":"4","last_reported":1727032004,"current_range_meters":12000,"station_id":"ce4bhnh2rcd13ifvqgug","pricing_plan_id":"cebpf4jnsgd1na2vs0mg"},{"bike_id":"d894223a-4e7a-4950-afa3-fc457a96210b","system_id":"levelo_inurba_marseille","lat":43.23184,"lon":5.39991,"is_reserved":false,"is_disabled":false,"rental_uris":{"android":"levelo://app?vid=d894223a-4e7a-4950-afa3-fc457a96210b","ios":"levelo://app?vid=d894223a-4e7a-4950-afa3-fc457a96210b"},"vehicle_type_id":"4","last_reported":1727032004,"current_range_meters":39200,"station_id":"ce4bhn12rcd13ifvqgqg","pricing_plan_id":"cebpf4jnsgd1na2vs0mg"},{"bike_id":"41c90b48-de93-4d56-a965-3b11fc010bd5","system_id":"levelo_inurba_marseille","lat":43.24648,"lon":5.38902,"is_reserved":false,"is_disabled":false,"rental_uris":{"android":"levelo://app?vid=41c90b48-de93-4d56-a965-3b11fc010bd5","ios":"levelo://app?vid=41c90b48-de93-4d56-a965-3b11fc010bd5"},"vehicle_type_id":"4","last_reported":1727032004,"current_range_meters":38800,"station_id":"ce4bhg12rcd13ifvqf60","pricing_plan_id":"cebpf4jnsgd1na2vs0mg"},{"bike_id":"ab30cf98-7057-4c15-8f77-3fa1abaf6046","system_id":"levelo_inurba_marseille","lat":43.29249,"lon":5.38446,"is_reserved":false,"is_disabled":false,"rental_uris":{"android":"levelo://app?vid=ab30cf98-7057-4c15-8f77-3fa1abaf6046","ios":"levelo://app?vid=ab30cf98-7057-4c15-8f77-3fa1abaf6046"},"vehicle_type_id":"4","last_reported":1727032004,"current_range_meters":34000,"station_id":"ce4bh692rcd13ifvqea0","pricing_plan_id":"cebpf4jnsgd1na2vs0mg"},{"bike_id":"05cfe6f3-b07f-4f5d-bad3-9f31a71c2e22","system_id":"levelo_inurba_marseille","lat":43.287,"lon":5.39994,"is_reserved":false,"is_disabled":false,"rental_uris":{"android":"levelo://app?vid=05cfe6f3-b07f-4f5d-bad3-9f31a71c2e22","ios":"levelo://app?vid=05cfe6f3-b07f-4f5d-bad3-9f31a71c2e22"},"vehicle_type_id":"4","last_reported":1727032004,"current_range_meters":16800,"station_id":"ce4bho92rcd13ifvqh3g","pricing_plan_id":"cebpf4jnsgd1na2vs0mg"},{"bike_id":"c041f175-138a-4fe9-a5f4-31506ee131f8","system_id":"levelo_inurba_marseille","lat":43.308,"lon":5.43531,"is_reserved":false,"is_disabled":false,"rental_uris":{"android":"levelo://app?vid=c041f175-138a-4fe9-a5f4-31506ee131f8","ios":"levelo://app?vid=c041f175-138a-4fe9-a5f4-31506ee131f8"},"vehicle_type_id":"4","last_reported":1727032004,"current_range_meters":30400,"station_id":"ce4bhph2rcd13ifvqheg","pricing_plan_id":"cebpf4jnsgd1na2vs0mg"},{"bike_id":"dd11883b-cf73-4dcc-a3f9-86037763b5de","system_id":"levelo_inurba_marseille","lat":43.28861,"lon":5.35843,"is_reserved":false,"is_disabled":false,"rental_uris":{"android":"levelo://app?vid=dd11883b-cf73-4dcc-a3f9-86037763b5de","ios":"levelo://app?vid=dd11883b-cf73-4dcc-a3f9-86037763b5de"},"vehicle_type_id":"4","last_reported":1727032004,"current_range_meters":8800,"station_id":"ce4bhb12rcd13ifvqem0","pricing_plan_id":"cebpf4jnsgd1na2vs0mg"},{"bike_id":"42a41072-7fba-45d4-a180-03401f09a7ca","system_id":"levelo_inurba_marseille","lat":43.28433,"lon":5.392,"is_reserved":false,"is_disabled":false,"rental_uris":{"android":"levelo://app?vid=42a41072-7fba-45d4-a180-03401f09a7ca","ios":"levelo://app?vid=42a41072-7fba-45d4-a180-03401f09a7ca"},"vehicle_type_id":"4","last_reported":1727032004,"current_range_meters":3200,"station_id":"ce4bhoh2rcd13ifvqh5g","pricing_plan_id":"cebpf4jnsgd1na2vs0mg"},{"bike_id":"149779fc-bc45-458a-857f-33707eedaf6a","system_id":"levelo_inurba_marseille","lat":43.23189,"lon":5.35558,"is_reserved":false,"is_disabled":false,"rental_uris":{"android":"levelo://app?vid=149779fc-bc45-458a-857f-33707eedaf6a","ios":"levelo://app?vid=149779fc-bc45-458a-857f-33707eedaf6a"},"vehicle_type_id":"4","last_reported":1727032004,"current_range_meters":13600,"station_id":"ce4bhu92rcd13ifvqi70","pricing_plan_id":"cebpf4jnsgd1na2vs0mg"},{"bike_id":"43df60f0-901e-45e8-a739-2918ae0ece83","system_id":"levelo_inurba_marseille","lat":43.24661,"lon":5.38162,"is_reserved":false,"is_disabled":false,"rental_uris":{"android":"levelo://app?vid=43df60f0-901e-45e8-a739-2918ae0ece83","ios":"levelo://app?vid=43df60f0-901e-45e8-a739-2918ae0ece83"},"vehicle_type_id":"4","last_reported":1727032004,"current_range_meters":38800,"station_id":"ce4bhih2rcd13ifvqfr0","pricing_plan_id":"cebpf4jnsgd1na2vs0mg"},{"bike_id":"9e76614e-09a0-4c59-8bc7-1ac57848deef","system_id":"levelo_inurba_marseille","lat":43.24078,"lon":5.37747,"is_reserved":false,"is_disabled":false,"rental_uris":{"android":"levelo://app?vid=9e76614e-09a0-4c59-8bc7-1ac57848deef","ios":"levelo://app?vid=9e76614e-09a0-4c59-8bc7-1ac57848deef"},"vehicle_type_id":"4","last_reported":1727032004,"current_range_meters":38800,"station_id":"ce4bhnp2rcd13ifvqgvg","pricing_plan_id":"cebpf4jnsgd1na2vs0mg"},{"bike_id":"2eb59fce-4b09-45e1-8472-de3ef262d301","system_id":"levelo_inurba_marseille","lat":43.31532,"lon":5.3803,"is_reserved":false,"is_disabled":false,"rental_uris":{"android":"levelo://app?vid=2eb59fce-4b09-45e1-8472-de3ef262d301","ios":"levelo://app?vid=2eb59fce-4b09-45e1-8472-de3ef262d301"},"vehicle_type_id":"4","last_reported":1727032004,"current_range_meters":10800,"station_id":"ce4bhsp2rcd13ifvqi50","pricing_plan_id":"cebpf4jnsgd1na2vs0mg"},{"bike_id":"a5487fcd-e8c9-4379-b683-ed5f5657469c","system_id":"levelo_inurba_marseille","lat":43.31167,"lon":5.38731,"is_reserved":false,"is_disabled":false,"rental_uris":{"android":"levelo://app?vid=a5487fcd-e8c9-4379-b683-ed5f5657469c","ios":"levelo://app?vid=a5487fcd-e8c9-4379-b683-ed5f5657469c"},"vehicle_type_id":"4","last_reported":1727032004,"current_range_meters":38000,"station_id":"ce4bgv12rcd13ifvqcp0","pricing_plan_id":"cebpf4jnsgd1na2vs0mg"},{"bike_id":"88652ec3-2459-4db5-982c-12577594f1fa","system_id":"levelo_inurba_marseille","lat":43.31884,"lon":5.40742,"is_reserved":false,"is_disabled":false,"rental_uris":{"android":"levelo://app?vid=88652ec3-2459-4db5-982c-12577594f1fa","ios":"levelo://app?vid=88652ec3-2459-4db5-982c-12577594f1fa"},"vehicle_type_id":"4","last_reported":1727032004,"current_range_meters":38800,"station_id":"ce4bhq12rcd13ifvqhig","pricing_plan_id":"cebpf4jnsgd1na2vs0mg"},{"bike_id":"36da88d1-8b0b-4bd7-adaa-b10272d512a5","system_id":"levelo_inurba_marseille","lat":43.29272,"lon":5.40148,"is_reserved":false,"is_disabled":false,"rental_uris":{"android":"levelo://app?vid=36da88d1-8b0b-4bd7-adaa-b10272d512a5","ios":"levelo://app?vid=36da88d1-8b0b-4bd7-adaa-b10272d512a5"},"vehicle_type_id":"4","last_reported":1727032004,"current_range_meters":8000,"station_id":"ce4bh312rcd13ifvqdk0","pricing_plan_id":"cebpf4jnsgd1na2vs0mg"},{"bike_id":"19633ef5-54e1-46af-b1fa-684178fe65c6","system_id":"levelo_inurba_marseille","lat":43.27833,"lon":5.39209,"is_reserved":false,"is_disabled":false,"rental_uris":{"android":"levelo://app?vid=19633ef5-54e1-46af-b1fa-684178fe65c6","ios":"levelo://app?vid=19633ef5-54e1-46af-b1fa-684178fe65c6"},"vehicle_type_id":"4","last_reported":1727032004,"current_range_meters":38800,"station_id":"ce4bhjp2rcd13ifvqga0","pricing_plan_id":"cebpf4jnsgd1na2vs0mg"},{"bike_id":"b514bdf1-4b4b-480b-9f56-1ba2e116bd4b","system_id":"levelo_inurba_marseille","lat":43.27493,"lon":5.42451,"is_reserved":false,"is_disabled":false,"rental_uris":{"android":"levelo://app?vid=b514bdf1-4b4b-480b-9f56-1ba2e116bd4b","ios":"levelo://app?vid=b514bdf1-4b4b-480b-9f56-1ba2e116bd4b"},"vehicle_type_id":"4","last_reported":1727032004,"current_range_meters":14800,"station_id":"ce4bhn92rcd13ifvqgrg","pricing_plan_id":"cebpf4jnsgd1na2vs0mg"},{"bike_id":"01e8ec8d-8b94-497c-b9e7-ce4456e7e000","system_id":"levelo_inurba_marseille","lat":43.28276,"lon":5.35074,"is_reserved":false,"is_disabled":false,"rental_uris":{"android":"levelo://app?vid=01e8ec8d-8b94-497c-b9e7-ce4456e7e000","ios":"levelo://app?vid=01e8ec8d-8b94-497c-b9e7-ce4456e7e000"},"vehicle_type_id":"4","last_reported":1727032004,"current_range_meters":39200,"station_id":"ce4bhbp2rcd13ifvqerg","pricing_plan_id":"cebpf4jnsgd1na2vs0mg"},{"bike_id":"ab53795f-5404-4f9e-b16e-6b273164588e","system_id":"levelo_inurba_marseille","lat":43.33023,"lon":5.39039,"is_reserved":false,"is_disabled":false,"rental_uris":{"android":"levelo://app?vid=ab53795f-5404-4f9e-b16e-6b273164588e","ios":"levelo://app?vid=ab53795f-5404-4f9e-b16e-6b273164588e"},"vehicle_type_id":"4","last_reported":1727032004,"current_range_meters":25200,"station_id":"ce4bhr92rcd13ifvqhrg","pricing_plan_id":"cebpf4jnsgd1na2vs0mg"},{"bike_id":"71bac315-ae3a-44ba-b051-9159b7b17179","system_id":"levelo_inurba_marseille","lat":43.25002,"lon":5.38936,"is_reserved":false,"is_disabled":false,"rental_uris":{"android":"levelo://app?vid=71bac315-ae3a-44ba-b051-9159b7b17179","ios":"levelo://app?vid=71bac315-ae3a-44ba-b051-9159b7b17179"},"vehicle_type_id":"4","last_reported":1727032004,"current_range_meters":38800,"station_id":"ce4bhgp2rcd13ifvqfd0","pricing_plan_id":"cebpf4jnsgd1na2vs0mg"},{"bike_id":"d4cd02a2-8196-45a0-ade7-083f2b1cddee","system_id":"levelo_inurba_marseille","lat":43.24181,"lon":5.39726,"is_reserved":false,"is_disabled":false,"rental_uris":{"android":"levelo://app?vid=d4cd02a2-8196-45a0-ade7-083f2b1cddee","ios":"levelo://app?vid=d4cd02a2-8196-45a0-ade7-083f2b1cddee"},"vehicle_type_id":"4","last_reported":1727032004,"current_range_meters":37600,"station_id":"ce4bhn12rcd13ifvqgpg","pricing_plan_id":"cebpf4jnsgd1na2vs0mg"},{"bike_id":"19b9aa55-279f-47f2-87d7-0a5390c939fa","system_id":"levelo_inurba_marseille","lat":43.3414,"lon":5.40916,"is_reserved":false,"is_disabled":false,"rental_uris":{"android":"levelo://app?vid=19b9aa55-279f-47f2-87d7-0a5390c939fa","ios":"levelo://app?vid=19b9aa55-279f-47f2-87d7-0a5390c939fa"},"vehicle_type_id":"4","last_reported":1727032004,"current_range_meters":18800,"station_id":"ce4bhqh2rcd13ifvqhlg","pricing_plan_id":"cebpf4jnsgd1na2vs0mg"},{"bike_id":"745165ca-2557-4cbf-840f-706713e329dd","system_id":"levelo_inurba_marseille","lat":43.23962,"lon":5.36625,"is_reserved":false,"is_disabled":false,"rental_uris":{"android":"levelo://app?vid=745165ca-2557-4cbf-840f-706713e329dd","ios":"levelo://app?vid=745165ca-2557-4cbf-840f-706713e329dd"},"vehicle_type_id":"4","last_reported":1727032004,"current_range_meters":10000,"station_id":"ce4bhi12rcd13ifvqfp0","pricing_plan_id":"cebpf4jnsgd1na2vs0mg"},{"bike_id":"e6d85726-456e-4acb-96bb-ffd9c2b09532","system_id":"levelo_inurba_marseille","lat":43.31705,"lon":5.37737,"is_reserved":false,"is_disabled":false,"rental_uris":{"android":"levelo://app?vid=e6d85726-456e-4acb-96bb-ffd9c2b09532","ios":"levelo://app?vid=e6d85726-456e-4acb-96bb-ffd9c2b09532"},"vehicle_type_id":"4","last_reported":1727032004,"current_range_meters":5600,"station_id":"ce4bgth2rcd13ifvqch0","pricing_plan_id":"cebpf4jnsgd1na2vs0mg"},{"bike_id":"bbd7ec78-3313-4dea-a22b-3f9d846e8ac0","system_id":"levelo_inurba_marseille","lat":43.281555,"lon":5.426469,"is_reserved":false,"is_disabled":false,"rental_uris":{"android":"levelo://app?vid=bbd7ec78-3313-4dea-a22b-3f9d846e8ac0","ios":"levelo://app?vid=bbd7ec78-3313-4dea-a22b-3f9d846e8ac0"},"vehicle_type_id":"4","last_reported":1727032004,"current_range_meters":12400,"station_id":"","pricing_plan_id":"cebpf4jnsgd1na2vs0mg"},{"bike_id":"4aaff02e-644a-4022-9352-1d65c33f608d","system_id":"levelo_inurba_marseille","lat":43.27824,"lon":5.39219,"is_reserved":false,"is_disabled":false,"rental_uris":{"android":"levelo://app?vid=4aaff02e-644a-4022-9352-1d65c33f608d","ios":"levelo://app?vid=4aaff02e-644a-4022-9352-1d65c33f608d"},"vehicle_type_id":"4","last_reported":1727032004,"current_range_meters":16000,"station_id":"ce4bhjp2rcd13ifvqga0","pricing_plan_id":"cebpf4jnsgd1na2vs0mg"},{"bike_id":"53ebd296-9c09-489f-b39f-fbe2b3d1dcdc","system_id":"levelo_inurba_marseille","lat":43.25002,"lon":5.38943,"is_reserved":false,"is_disabled":false,"rental_uris":{"android":"levelo://app?vid=53ebd296-9c09-489f-b39f-fbe2b3d1dcdc","ios":"levelo://app?vid=53ebd296-9c09-489f-b39f-fbe2b3d1dcdc"},"vehicle_type_id":"4","last_reported":1727032004,"current_range_meters":38800,"station_id":"ce4bhgp2rcd13ifvqfd0","pricing_plan_id":"cebpf4jnsgd1na2vs0mg"},{"bike_id":"18203819-669e-4be6-9f18-9e4cc380ad83","system_id":"levelo_inurba_marseille","lat":43.28437,"lon":5.3919,"is_reserved":false,"is_disabled":false,"rental_uris":{"android":"levelo://app?vid=18203819-669e-4be6-9f18-9e4cc380ad83","ios":"levelo://app?vid=18203819-669e-4be6-9f18-9e4cc380ad83"},"vehicle_type_id":"4","last_reported":1727032004,"current_range_meters":14000,"station_id":"ce4bhoh2rcd13ifvqh5g","pricing_plan_id":"cebpf4jnsgd1na2vs0mg"},{"bike_id":"4dd07110-cbcd-496a-8e6a-0c34472dfa8e","system_id":"levelo_inurba_marseille","lat":43.27494,"lon":5.42454,"is_reserved":false,"is_disabled":false,"rental_uris":{"android":"levelo://app?vid=4dd07110-cbcd-496a-8e6a-0c34472dfa8e","ios":"levelo://app?vid=4dd07110-cbcd-496a-8e6a-0c34472dfa8e"},"vehicle_type_id":"4","last_reported":1727032004,"current_range_meters":4000,"station_id":"ce4bhn92rcd13ifvqgrg","pricing_plan_id":"cebpf4jnsgd1na2vs0mg"},{"bike_id":"aff05152-6958-4301-a959-f94d84fe70a0","system_id":"levelo_inurba_marseille","lat":43.25576,"lon":5.3824,"is_reserved":false,"is_disabled":false,"rental_uris":{"android":"levelo://app?vid=aff05152-6958-4301-a959-f94d84fe70a0","ios":"levelo://app?vid=aff05152-6958-4301-a959-f94d84fe70a0"},"vehicle_type_id":"4","last_reported":1727032004,"current_range_meters":38800,"station_id":"ce4bhih2rcd13ifvqfs0","pricing_plan_id":"cebpf4jnsgd1na2vs0mg"},{"bike_id":"d7bbe955-ab89-4289-9791-a79fc3f9fc42","system_id":"levelo_inurba_marseille","lat":43.310748,"lon":5.383577,"is_reserved":false,"is_disabled":false,"rental_uris":{"android":"levelo://app?vid=d7bbe955-ab89-4289-9791-a79fc3f9fc42","ios":"levelo://app?vid=d7bbe955-ab89-4289-9791-a79fc3f9fc42"},"vehicle_type_id":"4","last_reported":1727032004,"current_range_meters":38800,"station_id":"ce4bgv92rcd13ifvqcr0","pricing_plan_id":"cebpf4jnsgd1na2vs0mg"},{"bike_id":"6cbc2fdc-96a1-4bca-b822-56394ecb85a1","system_id":"levelo_inurba_marseille","lat":43.29556,"lon":5.42296,"is_reserved":false,"is_disabled":false,"rental_uris":{"android":"levelo://app?vid=6cbc2fdc-96a1-4bca-b822-56394ecb85a1","ios":"levelo://app?vid=6cbc2fdc-96a1-4bca-b822-56394ecb85a1"},"vehicle_type_id":"4","last_reported":1727032004,"current_range_meters":38800,"station_id":"ce4bhph2rcd13ifvqhdg","pricing_plan_id":"cebpf4jnsgd1na2vs0mg"},{"bike_id":"a7a2630d-54d4-495a-8506-d0472b9b9a1a","system_id":"levelo_inurba_marseille","lat":43.2954,"lon":5.42287,"is_reserved":false,"is_disabled":false,"rental_uris":{"android":"levelo://app?vid=a7a2630d-54d4-495a-8506-d0472b9b9a1a","ios":"levelo://app?vid=a7a2630d-54d4-495a-8506-d0472b9b9a1a"},"vehicle_type_id":"4","last_reported":1727032004,"current_range_meters":38000,"station_id":"ce4bhph2rcd13ifvqhdg","pricing_plan_id":"cebpf4jnsgd1na2vs0mg"},{"bike_id":"4a83f8b4-bcf8-46b1-818f-6408f898e5e7","system_id":"levelo_inurba_marseille","lat":43.27948,"lon":5.38694,"is_reserved":false,"is_disabled":false,"rental_uris":{"android":"levelo://app?vid=4a83f8b4-bcf8-46b1-818f-6408f898e5e7","ios":"levelo://app?vid=4a83f8b4-bcf8-46b1-818f-6408f898e5e7"},"vehicle_type_id":"4","last_reported":1727032004,"current_range_meters":4400,"station_id":"ce4bhg12rcd13ifvqf80","pricing_plan_id":"cebpf4jnsgd1na2vs0mg"},{"bike_id":"757411e7-939e-4353-9792-02a3aa30f3ed","system_id":"levelo_inurba_marseille","lat":43.23195,"lon":5.35549,"is_reserved":false,"is_disabled":false,"rental_uris":{"android":"levelo://app?vid=757411e7-939e-4353-9792-02a3aa30f3ed","ios":"levelo://app?vid=757411e7-939e-4353-9792-02a3aa30f3ed"},"vehicle_type_id":"4","last_reported":1727032004,"current_range_meters":38800,"station_id":"ce4bhu92rcd13ifvqi70","pricing_plan_id":"cebpf4jnsgd1na2vs0mg"},{"bike_id":"3ee42b7b-6918-49bc-a1a0-e562e8d4c438","system_id":"levelo_inurba_marseille","lat":43.27375,"lon":5.36251,"is_reserved":false,"is_disabled":false,"rental_uris":{"android":"levelo://app?vid=3ee42b7b-6918-49bc-a1a0-e562e8d4c438","ios":"levelo://app?vid=3ee42b7b-6918-49bc-a1a0-e562e8d4c438"},"vehicle_type_id":"4","last_reported":1727032004,"current_range_meters":38800,"station_id":"ce4bhbh2rcd13ifvqeo0","pricing_plan_id":"cebpf4jnsgd1na2vs0mg"},{"bike_id":"121c0775-8dfa-41dd-b400-f9f2771f9d4b","system_id":"levelo_inurba_marseille","lat":43.31064,"lon":5.38359,"is_reserved":false,"is_disabled":false,"rental_uris":{"android":"levelo://app?vid=121c0775-8dfa-41dd-b400-f9f2771f9d4b","ios":"levelo://app?vid=121c0775-8dfa-41dd-b400-f9f2771f9d4b"},"vehicle_type_id":"4","last_reported":1727032004,"current_range_meters":38800,"station_id":"ce4bgv92rcd13ifvqcr0","pricing_plan_id":"cebpf4jnsgd1na2vs0mg"},{"bike_id":"d5380afb-f42b-47f0-901d-2ff71487d786","system_id":"levelo_inurba_marseille","lat":43.29418,"lon":5.38629,"is_reserved":false,"is_disabled":false,"rental_uris":{"android":"levelo://app?vid=d5380afb-f42b-47f0-901d-2ff71487d786","ios":"levelo://app?vid=d5380afb-f42b-47f0-901d-2ff71487d786"},"vehicle_type_id":"4","last_reported":1727032004,"current_range_meters":26800,"station_id":"ce4bh2h2rcd13ifvqdh0","pricing_plan_id":"cebpf4jnsgd1na2vs0mg"},{"bike_id":"8ea3ea29-5c01-4016-a590-e853cf837830","system_id":"levelo_inurba_marseille","lat":43.2465,"lon":5.38909,"is_reserved":false,"is_disabled":false,"rental_uris":{"android":"levelo://app?vid=8ea3ea29-5c01-4016-a590-e853cf837830","ios":"levelo://app?vid=8ea3ea29-5c01-4016-a590-e853cf837830"},"vehicle_type_id":"4","last_reported":1727032004,"current_range_meters":38800,"station_id":"ce4bhg12rcd13ifvqf60","pricing_plan_id":"cebpf4jnsgd1na2vs0mg"},{"bike_id":"71aa8592-ddf7-4343-aed4-c00d3433340f","system_id":"levelo_inurba_marseille","lat":43.337444,"lon":5.374475,"is_reserved":false,"is_disabled":false,"rental_uris":{"android":"levelo://app?vid=71aa8592-ddf7-4343-aed4-c00d3433340f","ios":"levelo://app?vid=71aa8592-ddf7-4343-aed4-c00d3433340f"},"vehicle_type_id":"4","last_reported":1727032004,"current_range_meters":30400,"station_id":"","pricing_plan_id":"cebpf4jnsgd1na2vs0mg"},{"bike_id":"3740c6df-06cd-419b-9ae6-b8d9e5eff548","system_id":"levelo_inurba_marseille","lat":43.2753,"lon":5.40935,"is_reserved":false,"is_disabled":false,"rental_uris":{"android":"levelo://app?vid=3740c6df-06cd-419b-9ae6-b8d9e5eff548","ios":"levelo://app?vid=3740c6df-06cd-419b-9ae6-b8d9e5eff548"},"vehicle_type_id":"4","last_reported":1727032004,"current_range_meters":12000,"station_id":"","pricing_plan_id":"cebpf4jnsgd1na2vs0mg"},{"bike_id":"11853cff-45ce-43ef-91ca-ab98ed0f6845","system_id":"levelo_inurba_marseille","lat":43.31068,"lon":5.3836,"is_reserved":false,"is_disabled":false,"rental_uris":{"android":"levelo://app?vid=11853cff-45ce-43ef-91ca-ab98ed0f6845","ios":"levelo://app?vid=11853cff-45ce-43ef-91ca-ab98ed0f6845"},"vehicle_type_id":"4","last_reported":1727032004,"current_range_meters":36800,"station_id":"ce4bgv92rcd13ifvqcr0","pricing_plan_id":"cebpf4jnsgd1na2vs0mg"},{"bike_id":"37cfea08-a4a9-4194-96d9-f325f70d9e4d","system_id":"levelo_inurba_marseille","lat":43.296295,"lon":5.377149,"is_reserved":false,"is_disabled":false,"rental_uris":{"android":"levelo://app?vid=37cfea08-a4a9-4194-96d9-f325f70d9e4d","ios":"levelo://app?vid=37cfea08-a4a9-4194-96d9-f325f70d9e4d"},"vehicle_type_id":"4","last_reported":1727032004,"current_range_meters":10000,"station_id":"ce4bhih2rcd13ifvqfs0","pricing_plan_id":"cebpf4jnsgd1na2vs0mg"},{"bike_id":"37129aa8-05a3-4467-8fa1-1fc6f7f9028c","system_id":"levelo_inurba_marseille","lat":43.30948,"lon":5.39039,"is_reserved":false,"is_disabled":false,"rental_uris":{"android":"levelo://app?vid=37129aa8-05a3-4467-8fa1-1fc6f7f9028c","ios":"levelo://app?vid=37129aa8-05a3-4467-8fa1-1fc6f7f9028c"},"vehicle_type_id":"4","last_reported":1727032004,"current_range_meters":38800,"station_id":"ce4bgup2rcd13ifvqco0","pricing_plan_id":"cebpf4jnsgd1na2vs0mg"},{"bike_id":"38e55ba7-c26c-4b9c-8404-9f7cec825759","system_id":"levelo_inurba_marseille","lat":43.22928,"lon":5.35377,"is_reserved":false,"is_disabled":false,"rental_uris":{"android":"levelo://app?vid=38e55ba7-c26c-4b9c-8404-9f7cec825759","ios":"levelo://app?vid=38e55ba7-c26c-4b9c-8404-9f7cec825759"},"vehicle_type_id":"4","last_reported":1727032004,"current_range_meters":38800,"station_id":"cpo3532slgdg3j2ikp40","pricing_plan_id":"cebpf4jnsgd1na2vs0mg"},{"bike_id":"49a88de6-be65-4277-8395-26964f5d48cf","system_id":"levelo_inurba_marseille","lat":43.273773,"lon":5.362578,"is_reserved":false,"is_disabled":false,"rental_uris":{"android":"levelo://app?vid=49a88de6-be65-4277-8395-26964f5d48cf","ios":"levelo://app?vid=49a88de6-be65-4277-8395-26964f5d48cf"},"vehicle_type_id":"4","last_reported":1727032004,"current_range_meters":16800,"station_id":"ce4bhbh2rcd13ifvqeo0","pricing_plan_id":"cebpf4jnsgd1na2vs0mg"},{"bike_id":"c11ed82c-1d9e-425d-9840-8ef40b737a69","system_id":"levelo_inurba_marseille","lat":43.26061,"lon":5.394,"is_reserved":false,"is_disabled":false,"rental_uris":{"android":"levelo://app?vid=c11ed82c-1d9e-425d-9840-8ef40b737a69","ios":"levelo://app?vid=c11ed82c-1d9e-425d-9840-8ef40b737a69"},"vehicle_type_id":"4","last_reported":1727032004,"current_range_meters":22800,"station_id":"ce4bhh92rcd13ifvqfj0","pricing_plan_id":"cebpf4jnsgd1na2vs0mg"},{"bike_id":"ccdda738-7250-47e2-aa71-d13ea93d8b99","system_id":"levelo_inurba_marseille","lat":43.31078,"lon":5.38362,"is_reserved":false,"is_disabled":false,"rental_uris":{"android":"levelo://app?vid=ccdda738-7250-47e2-aa71-d13ea93d8b99","ios":"levelo://app?vid=ccdda738-7250-47e2-aa71-d13ea93d8b99"},"vehicle_type_id":"4","last_reported":1727032004,"current_range_meters":28000,"station_id":"ce4bgv92rcd13ifvqcr0","pricing_plan_id":"cebpf4jnsgd1na2vs0mg"},{"bike_id":"df1ca689-a44b-4d7b-ae50-90ade339c4cf","system_id":"levelo_inurba_marseille","lat":43.2925,"lon":5.40904,"is_reserved":false,"is_disabled":false,"rental_uris":{"android":"levelo://app?vid=df1ca689-a44b-4d7b-ae50-90ade339c4cf","ios":"levelo://app?vid=df1ca689-a44b-4d7b-ae50-90ade339c4cf"},"vehicle_type_id":"4","last_reported":1727032004,"current_range_meters":3200,"station_id":"ce4bh192rcd13ifvqdc0","pricing_plan_id":"cebpf4jnsgd1na2vs0mg"},{"bike_id":"f2c752a1-56a8-478a-bfde-d550e6225907","system_id":"levelo_inurba_marseille","lat":43.31263,"lon":5.40188,"is_reserved":false,"is_disabled":false,"rental_uris":{"android":"levelo://app?vid=f2c752a1-56a8-478a-bfde-d550e6225907","ios":"levelo://app?vid=f2c752a1-56a8-478a-bfde-d550e6225907"},"vehicle_type_id":"4","last_reported":1727032004,"current_range_meters":39200,"station_id":"ce4bh092rcd13ifvqd30","pricing_plan_id":"cebpf4jnsgd1na2vs0mg"},{"bike_id":"e68923eb-9d1a-4a01-8786-5cb089bf8e8f","system_id":"levelo_inurba_marseille","lat":43.33021,"lon":5.39043,"is_reserved":false,"is_disabled":false,"rental_uris":{"android":"levelo://app?vid=e68923eb-9d1a-4a01-8786-5cb089bf8e8f","ios":"levelo://app?vid=e68923eb-9d1a-4a01-8786-5cb089bf8e8f"},"vehicle_type_id":"4","last_reported":1727032004,"current_range_meters":11600,"station_id":"ce4bhr92rcd13ifvqhrg","pricing_plan_id":"cebpf4jnsgd1na2vs0mg"},{"bike_id":"34bac9de-afcc-485f-a901-124a385dd441","system_id":"levelo_inurba_marseille","lat":43.24538,"lon":5.39515,"is_reserved":false,"is_disabled":false,"rental_uris":{"android":"levelo://app?vid=34bac9de-afcc-485f-a901-124a385dd441","ios":"levelo://app?vid=34bac9de-afcc-485f-a901-124a385dd441"},"vehicle_type_id":"4","last_reported":1727032004,"current_range_meters":37600,"station_id":"ce4bhlp2rcd13ifvqgjg","pricing_plan_id":"cebpf4jnsgd1na2vs0mg"},{"bike_id":"2ee07ada-3085-496d-98ef-ceb76f26f88d","system_id":"levelo_inurba_marseille","lat":43.24646,"lon":5.38904,"is_reserved":false,"is_disabled":false,"rental_uris":{"android":"levelo://app?vid=2ee07ada-3085-496d-98ef-ceb76f26f88d","ios":"levelo://app?vid=2ee07ada-3085-496d-98ef-ceb76f26f88d"},"vehicle_type_id":"4","last_reported":1727032004,"current_range_meters":9600,"station_id":"ce4bhg12rcd13ifvqf60","pricing_plan_id":"cebpf4jnsgd1na2vs0mg"},{"bike_id":"a53869a3-1513-403b-a98d-4b025ee2b884","system_id":"levelo_inurba_marseille","lat":43.28267,"lon":5.3508,"is_reserved":false,"is_disabled":false,"rental_uris":{"android":"levelo://app?vid=a53869a3-1513-403b-a98d-4b025ee2b884","ios":"levelo://app?vid=a53869a3-1513-403b-a98d-4b025ee2b884"},"vehicle_type_id":"4","last_reported":1727032004,"current_range_meters":38800,"station_id":"ce4bhbp2rcd13ifvqerg","pricing_plan_id":"cebpf4jnsgd1na2vs0mg"},{"bike_id":"1575e777-51f8-479e-bd95-714cef91a125","system_id":"levelo_inurba_marseille","lat":43.24181,"lon":5.39719,"is_reserved":false,"is_disabled":false,"rental_uris":{"android":"levelo://app?vid=1575e777-51f8-479e-bd95-714cef91a125","ios":"levelo://app?vid=1575e777-51f8-479e-bd95-714cef91a125"},"vehicle_type_id":"4","last_reported":1727032004,"current_range_meters":25600,"station_id":"ce4bhn12rcd13ifvqgpg","pricing_plan_id":"cebpf4jnsgd1na2vs0mg"},{"bike_id":"493351e3-2673-4fea-86d7-dbb5ef4ffae6","system_id":"levelo_inurba_marseille","lat":43.29553,"lon":5.42284,"is_reserved":false,"is_disabled":false,"rental_uris":{"android":"levelo://app?vid=493351e3-2673-4fea-86d7-dbb5ef4ffae6","ios":"levelo://app?vid=493351e3-2673-4fea-86d7-dbb5ef4ffae6"},"vehicle_type_id":"4","last_reported":1727032004,"current_range_meters":22800,"station_id":"ce4bhph2rcd13ifvqhdg","pricing_plan_id":"cebpf4jnsgd1na2vs0mg"},{"bike_id":"3b329b55-825e-4ec9-99cd-f4ca68da5ece","system_id":"levelo_inurba_marseille","lat":43.27172,"lon":5.40995,"is_reserved":false,"is_disabled":false,"rental_uris":{"android":"levelo://app?vid=3b329b55-825e-4ec9-99cd-f4ca68da5ece","ios":"levelo://app?vid=3b329b55-825e-4ec9-99cd-f4ca68da5ece"},"vehicle_type_id":"4","last_reported":1727032004,"current_range_meters":32000,"station_id":"ce4bhl12rcd13ifvqgf0","pricing_plan_id":"cebpf4jnsgd1na2vs0mg"},{"bike_id":"570def66-88bb-4bef-89c7-48abbc19d672","system_id":"levelo_inurba_marseille","lat":43.29016,"lon":5.38133,"is_reserved":false,"is_disabled":false,"rental_uris":{"android":"levelo://app?vid=570def66-88bb-4bef-89c7-48abbc19d672","ios":"levelo://app?vid=570def66-88bb-4bef-89c7-48abbc19d672"},"vehicle_type_id":"4","last_reported":1727032004,"current_range_meters":28400,"station_id":"ce4bh4p2rcd13ifvqe1g","pricing_plan_id":"cebpf4jnsgd1na2vs0mg"},{"bike_id":"8d9038f2-7784-4d9c-82cd-834726cb1d16","system_id":"levelo_inurba_marseille","lat":43.27557,"lon":5.38429,"is_reserved":false,"is_disabled":false,"rental_uris":{"android":"levelo://app?vid=8d9038f2-7784-4d9c-82cd-834726cb1d16","ios":"levelo://app?vid=8d9038f2-7784-4d9c-82cd-834726cb1d16"},"vehicle_type_id":"4","last_reported":1727032004,"current_range_meters":4800,"station_id":"ce4bhh92rcd13ifvqfi0","pricing_plan_id":"cebpf4jnsgd1na2vs0mg"},{"bike_id":"c92db725-6c08-4bad-a265-5d68ad5ce6a2","system_id":"levelo_inurba_marseille","lat":43.24662,"lon":5.38166,"is_reserved":false,"is_disabled":false,"rental_uris":{"android":"levelo://app?vid=c92db725-6c08-4bad-a265-5d68ad5ce6a2","ios":"levelo://app?vid=c92db725-6c08-4bad-a265-5d68ad5ce6a2"},"vehicle_type_id":"4","last_reported":1727032004,"current_range_meters":28400,"station_id":"ce4bhih2rcd13ifvqfr0","pricing_plan_id":"cebpf4jnsgd1na2vs0mg"},{"bike_id":"932407ff-2077-40b2-b44d-9de249d86649","system_id":"levelo_inurba_marseille","lat":43.29967,"lon":5.41323,"is_reserved":false,"is_disabled":false,"rental_uris":{"android":"levelo://app?vid=932407ff-2077-40b2-b44d-9de249d86649","ios":"levelo://app?vid=932407ff-2077-40b2-b44d-9de249d86649"},"vehicle_type_id":"4","last_reported":1727032004,"current_range_meters":37600,"station_id":"ce4bhp12rcd13ifvqh9g","pricing_plan_id":"cebpf4jnsgd1na2vs0mg"},{"bike_id":"4338e1f0-345e-4b51-9a37-7c290a3ef146","system_id":"levelo_inurba_marseille","lat":43.28434,"lon":5.39194,"is_reserved":false,"is_disabled":false,"rental_uris":{"android":"levelo://app?vid=4338e1f0-345e-4b51-9a37-7c290a3ef146","ios":"levelo://app?vid=4338e1f0-345e-4b51-9a37-7c290a3ef146"},"vehicle_type_id":"4","last_reported":1727032004,"current_range_meters":16400,"station_id":"ce4bhoh2rcd13ifvqh5g","pricing_plan_id":"cebpf4jnsgd1na2vs0mg"},{"bike_id":"18bec02d-c0f9-449c-9230-74c6f3b845b9","system_id":"levelo_inurba_marseille","lat":43.27956,"lon":5.38697,"is_reserved":false,"is_disabled":false,"rental_uris":{"android":"levelo://app?vid=18bec02d-c0f9-449c-9230-74c6f3b845b9","ios":"levelo://app?vid=18bec02d-c0f9-449c-9230-74c6f3b845b9"},"vehicle_type_id":"4","last_reported":1727032004,"current_range_meters":38800,"station_id":"ce4bhg12rcd13ifvqf80","pricing_plan_id":"cebpf4jnsgd1na2vs0mg"},{"bike_id":"1452c4a9-61ae-4e36-80bc-305f2209f473","system_id":"levelo_inurba_marseille","lat":43.25937,"lon":5.409,"is_reserved":false,"is_disabled":false,"rental_uris":{"android":"levelo://app?vid=1452c4a9-61ae-4e36-80bc-305f2209f473","ios":"levelo://app?vid=1452c4a9-61ae-4e36-80bc-305f2209f473"},"vehicle_type_id":"4","last_reported":1727032004,"current_range_meters":6400,"station_id":"ce4bhm92rcd13ifvqglg","pricing_plan_id":"cebpf4jnsgd1na2vs0mg"},{"bike_id":"83318a82-e63f-4b5c-ac76-832196c6230e","system_id":"levelo_inurba_marseille","lat":43.29593,"lon":5.38089,"is_reserved":false,"is_disabled":false,"rental_uris":{"android":"levelo://app?vid=83318a82-e63f-4b5c-ac76-832196c6230e","ios":"levelo://app?vid=83318a82-e63f-4b5c-ac76-832196c6230e"},"vehicle_type_id":"4","last_reported":1727032004,"current_range_meters":11200,"station_id":"ce4bgl12rcd13ifvqbo0","pricing_plan_id":"cebpf4jnsgd1na2vs0mg"},{"bike_id":"8f234d07-88cf-4b46-a0f1-cb37492ad8ff","system_id":"levelo_inurba_marseille","lat":43.31529,"lon":5.38037,"is_reserved":false,"is_disabled":false,"rental_uris":{"android":"levelo://app?vid=8f234d07-88cf-4b46-a0f1-cb37492ad8ff","ios":"levelo://app?vid=8f234d07-88cf-4b46-a0f1-cb37492ad8ff"},"vehicle_type_id":"4","last_reported":1727032004,"current_range_meters":39200,"station_id":"ce4bhsp2rcd13ifvqi50","pricing_plan_id":"cebpf4jnsgd1na2vs0mg"},{"bike_id":"d765ecc6-f24e-4e18-aeb0-429ef33b50a7","system_id":"levelo_inurba_marseille","lat":43.23182,"lon":5.3998,"is_reserved":false,"is_disabled":false,"rental_uris":{"android":"levelo://app?vid=d765ecc6-f24e-4e18-aeb0-429ef33b50a7","ios":"levelo://app?vid=d765ecc6-f24e-4e18-aeb0-429ef33b50a7"},"vehicle_type_id":"4","last_reported":1727032004,"current_range_meters":38800,"station_id":"ce4bhn12rcd13ifvqgqg","pricing_plan_id":"cebpf4jnsgd1na2vs0mg"},{"bike_id":"6d823e02-37a6-40de-8ea0-23cd9ae3749e","system_id":"levelo_inurba_marseille","lat":43.31068,"lon":5.38353,"is_reserved":false,"is_disabled":false,"rental_uris":{"android":"levelo://app?vid=6d823e02-37a6-40de-8ea0-23cd9ae3749e","ios":"levelo://app?vid=6d823e02-37a6-40de-8ea0-23cd9ae3749e"},"vehicle_type_id":"4","last_reported":1727032004,"current_range_meters":38800,"station_id":"ce4bgv92rcd13ifvqcr0","pricing_plan_id":"cebpf4jnsgd1na2vs0mg"},{"bike_id":"8aad0ab5-e022-4d02-bbfc-876faab6e3dc","system_id":"levelo_inurba_marseille","lat":43.245453,"lon":5.373172,"is_reserved":false,"is_disabled":false,"rental_uris":{"android":"levelo://app?vid=8aad0ab5-e022-4d02-bbfc-876faab6e3dc","ios":"levelo://app?vid=8aad0ab5-e022-4d02-bbfc-876faab6e3dc"},"vehicle_type_id":"4","last_reported":1727032004,"current_range_meters":8800,"station_id":"ce4bhhh2rcd13ifvqfk0","pricing_plan_id":"cebpf4jnsgd1na2vs0mg"},{"bike_id":"feb42740-c719-4916-9efa-d99f861e0e6d","system_id":"levelo_inurba_marseille","lat":43.32471,"lon":5.36574,"is_reserved":false,"is_disabled":false,"rental_uris":{"android":"levelo://app?vid=feb42740-c719-4916-9efa-d99f861e0e6d","ios":"levelo://app?vid=feb42740-c719-4916-9efa-d99f861e0e6d"},"vehicle_type_id":"4","last_reported":1727032004,"current_range_meters":34800,"station_id":"ce4bhs12rcd13ifvqhvg","pricing_plan_id":"cebpf4jnsgd1na2vs0mg"},{"bike_id":"c5ffc1c0-381a-458f-a127-016acbeaf92f","system_id":"levelo_inurba_marseille","lat":43.27888,"lon":5.38005,"is_reserved":false,"is_disabled":false,"rental_uris":{"android":"levelo://app?vid=c5ffc1c0-381a-458f-a127-016acbeaf92f","ios":"levelo://app?vid=c5ffc1c0-381a-458f-a127-016acbeaf92f"},"vehicle_type_id":"4","last_reported":1727032004,"current_range_meters":33200,"station_id":"ce4bhf92rcd13ifvqf50","pricing_plan_id":"cebpf4jnsgd1na2vs0mg"},{"bike_id":"5c64faea-5b37-4b73-b703-49325d85ee54","system_id":"levelo_inurba_marseille","lat":43.29529,"lon":5.38548,"is_reserved":false,"is_disabled":false,"rental_uris":{"android":"levelo://app?vid=5c64faea-5b37-4b73-b703-49325d85ee54","ios":"levelo://app?vid=5c64faea-5b37-4b73-b703-49325d85ee54"},"vehicle_type_id":"4","last_reported":1727032004,"current_range_meters":27200,"station_id":"ce4bgih2rcd13ifvqba0","pricing_plan_id":"cebpf4jnsgd1na2vs0mg"},{"bike_id":"ffb3eff3-3eab-4aee-8214-41780d8a8a9e","system_id":"levelo_inurba_marseille","lat":43.26058,"lon":5.39398,"is_reserved":false,"is_disabled":false,"rental_uris":{"android":"levelo://app?vid=ffb3eff3-3eab-4aee-8214-41780d8a8a9e","ios":"levelo://app?vid=ffb3eff3-3eab-4aee-8214-41780d8a8a9e"},"vehicle_type_id":"4","last_reported":1727032004,"current_range_meters":30400,"station_id":"ce4bhh92rcd13ifvqfj0","pricing_plan_id":"cebpf4jnsgd1na2vs0mg"},{"bike_id":"d88c04c9-5e62-4d5d-851d-643f064c8972","system_id":"levelo_inurba_marseille","lat":43.26553,"lon":5.39029,"is_reserved":false,"is_disabled":false,"rental_uris":{"android":"levelo://app?vid=d88c04c9-5e62-4d5d-851d-643f064c8972","ios":"levelo://app?vid=d88c04c9-5e62-4d5d-851d-643f064c8972"},"vehicle_type_id":"4","last_reported":1727032004,"current_range_meters":38800,"station_id":"ce4bhe12rcd13ifvqf30","pricing_plan_id":"cebpf4jnsgd1na2vs0mg"},{"bike_id":"6b07d8a7-7c03-4374-94b0-055a055dd8d9","system_id":"levelo_inurba_marseille","lat":43.26572,"lon":5.39001,"is_reserved":false,"is_disabled":false,"rental_uris":{"android":"levelo://app?vid=6b07d8a7-7c03-4374-94b0-055a055dd8d9","ios":"levelo://app?vid=6b07d8a7-7c03-4374-94b0-055a055dd8d9"},"vehicle_type_id":"4","last_reported":1727032004,"current_range_meters":3600,"station_id":"ce4bhe12rcd13ifvqf30","pricing_plan_id":"cebpf4jnsgd1na2vs0mg"},{"bike_id":"c89c9147-3171-4d85-8cd6-a163d1b3f000","system_id":"levelo_inurba_marseille","lat":43.28718,"lon":5.37945,"is_reserved":false,"is_disabled":false,"rental_uris":{"android":"levelo://app?vid=c89c9147-3171-4d85-8cd6-a163d1b3f000","ios":"levelo://app?vid=c89c9147-3171-4d85-8cd6-a163d1b3f000"},"vehicle_type_id":"4","last_reported":1727032004,"current_range_meters":38400,"station_id":"ce4bh9p2rcd13ifvqec0","pricing_plan_id":"cebpf4jnsgd1na2vs0mg"},{"bike_id":"fce734b4-6c36-4cb6-983c-c95238702258","system_id":"levelo_inurba_marseille","lat":43.3107,"lon":5.38124,"is_reserved":false,"is_disabled":false,"rental_uris":{"android":"levelo://app?vid=fce734b4-6c36-4cb6-983c-c95238702258","ios":"levelo://app?vid=fce734b4-6c36-4cb6-983c-c95238702258"},"vehicle_type_id":"4","last_reported":1727032004,"current_range_meters":10800,"station_id":"","pricing_plan_id":"cebpf4jnsgd1na2vs0mg"},{"bike_id":"d7906575-ae65-4a25-bc81-44519be420b7","system_id":"levelo_inurba_marseille","lat":43.29605,"lon":5.38098,"is_reserved":false,"is_disabled":false,"rental_uris":{"android":"levelo://app?vid=d7906575-ae65-4a25-bc81-44519be420b7","ios":"levelo://app?vid=d7906575-ae65-4a25-bc81-44519be420b7"},"vehicle_type_id":"4","last_reported":1727032004,"current_range_meters":36400,"station_id":"ce4bgl12rcd13ifvqbo0","pricing_plan_id":"cebpf4jnsgd1na2vs0mg"},{"bike_id":"0f08bb21-cbbd-4eab-b6b5-6eba8e91ec1b","system_id":"levelo_inurba_marseille","lat":43.31891,"lon":5.40735,"is_reserved":false,"is_disabled":false,"rental_uris":{"android":"levelo://app?vid=0f08bb21-cbbd-4eab-b6b5-6eba8e91ec1b","ios":"levelo://app?vid=0f08bb21-cbbd-4eab-b6b5-6eba8e91ec1b"},"vehicle_type_id":"4","last_reported":1727032004,"current_range_meters":38800,"station_id":"ce4bhq12rcd13ifvqhig","pricing_plan_id":"cebpf4jnsgd1na2vs0mg"},{"bike_id":"e9ff8a04-d08a-4e53-ba15-13ed3974ebbf","system_id":"levelo_inurba_marseille","lat":43.29903,"lon":5.43672,"is_reserved":false,"is_disabled":false,"rental_uris":{"android":"levelo://app?vid=e9ff8a04-d08a-4e53-ba15-13ed3974ebbf","ios":"levelo://app?vid=e9ff8a04-d08a-4e53-ba15-13ed3974ebbf"},"vehicle_type_id":"4","last_reported":1727032004,"current_range_meters":14000,"station_id":"ce4bhpp2rcd13ifvqhfg","pricing_plan_id":"cebpf4jnsgd1na2vs0mg"},{"bike_id":"d4ef8c5a-631c-4a3a-9816-a12882b32fda","system_id":"levelo_inurba_marseille","lat":43.29039,"lon":5.39968,"is_reserved":false,"is_disabled":false,"rental_uris":{"android":"levelo://app?vid=d4ef8c5a-631c-4a3a-9816-a12882b32fda","ios":"levelo://app?vid=d4ef8c5a-631c-4a3a-9816-a12882b32fda"},"vehicle_type_id":"4","last_reported":1727032004,"current_range_meters":38800,"station_id":"ce4bh392rcd13ifvqdm0","pricing_plan_id":"cebpf4jnsgd1na2vs0mg"},{"bike_id":"b8901bf2-fc56-49ba-8703-896e1e8b899c","system_id":"levelo_inurba_marseille","lat":43.31333,"lon":5.39703,"is_reserved":false,"is_disabled":false,"rental_uris":{"android":"levelo://app?vid=b8901bf2-fc56-49ba-8703-896e1e8b899c","ios":"levelo://app?vid=b8901bf2-fc56-49ba-8703-896e1e8b899c"},"vehicle_type_id":"4","last_reported":1727032004,"current_range_meters":15200,"station_id":"ce4bgvp2rcd13ifvqcu0","pricing_plan_id":"cebpf4jnsgd1na2vs0mg"},{"bike_id":"dbf7a699-6d7a-465f-8b67-63a48f82afe0","system_id":"levelo_inurba_marseille","lat":43.24652,"lon":5.38896,"is_reserved":false,"is_disabled":false,"rental_uris":{"android":"levelo://app?vid=dbf7a699-6d7a-465f-8b67-63a48f82afe0","ios":"levelo://app?vid=dbf7a699-6d7a-465f-8b67-63a48f82afe0"},"vehicle_type_id":"4","last_reported":1727032004,"current_range_meters":38800,"station_id":"ce4bhg12rcd13ifvqf60","pricing_plan_id":"cebpf4jnsgd1na2vs0mg"},{"bike_id":"96cdf3d4-51e4-484c-b4a5-a5fb6c0d77b8","system_id":"levelo_inurba_marseille","lat":43.25112,"lon":5.40326,"is_reserved":false,"is_disabled":false,"rental_uris":{"android":"levelo://app?vid=96cdf3d4-51e4-484c-b4a5-a5fb6c0d77b8","ios":"levelo://app?vid=96cdf3d4-51e4-484c-b4a5-a5fb6c0d77b8"},"vehicle_type_id":"4","last_reported":1727032004,"current_range_meters":38800,"station_id":"ce4bhlh2rcd13ifvqgig","pricing_plan_id":"cebpf4jnsgd1na2vs0mg"},{"bike_id":"c9b26236-5875-48d6-bad4-28e61e651f87","system_id":"levelo_inurba_marseille","lat":43.33721,"lon":5.39181,"is_reserved":false,"is_disabled":false,"rental_uris":{"android":"levelo://app?vid=c9b26236-5875-48d6-bad4-28e61e651f87","ios":"levelo://app?vid=c9b26236-5875-48d6-bad4-28e61e651f87"},"vehicle_type_id":"4","last_reported":1727032004,"current_range_meters":22800,"station_id":"ce4bhr92rcd13ifvqhsg","pricing_plan_id":"cebpf4jnsgd1na2vs0mg"},{"bike_id":"c9d644ea-b525-4061-ab89-a29cb33c53e2","system_id":"levelo_inurba_marseille","lat":43.2987,"lon":5.38911,"is_reserved":false,"is_disabled":false,"rental_uris":{"android":"levelo://app?vid=c9d644ea-b525-4061-ab89-a29cb33c53e2","ios":"levelo://app?vid=c9d644ea-b525-4061-ab89-a29cb33c53e2"},"vehicle_type_id":"4","last_reported":1727032004,"current_range_meters":33200,"station_id":"ce4bh392rcd13ifvqdl0","pricing_plan_id":"cebpf4jnsgd1na2vs0mg"},{"bike_id":"509b148d-0503-40c2-a2c5-19db187c5f80","system_id":"levelo_inurba_marseille","lat":43.24671,"lon":5.38158,"is_reserved":false,"is_disabled":false,"rental_uris":{"android":"levelo://app?vid=509b148d-0503-40c2-a2c5-19db187c5f80","ios":"levelo://app?vid=509b148d-0503-40c2-a2c5-19db187c5f80"},"vehicle_type_id":"4","last_reported":1727032004,"current_range_meters":11200,"station_id":"ce4bhih2rcd13ifvqfr0","pricing_plan_id":"cebpf4jnsgd1na2vs0mg"},{"bike_id":"b8551345-00a8-413b-a6da-b44b1e50d1de","system_id":"levelo_inurba_marseille","lat":43.27499,"lon":5.42453,"is_reserved":false,"is_disabled":false,"rental_uris":{"android":"levelo://app?vid=b8551345-00a8-413b-a6da-b44b1e50d1de","ios":"levelo://app?vid=b8551345-00a8-413b-a6da-b44b1e50d1de"},"vehicle_type_id":"4","last_reported":1727032004,"current_range_meters":38400,"station_id":"ce4bhn92rcd13ifvqgrg","pricing_plan_id":"cebpf4jnsgd1na2vs0mg"},{"bike_id":"534a783e-c777-46cc-823d-92376ca47d4d","system_id":"levelo_inurba_marseille","lat":43.28149,"lon":5.42649,"is_reserved":false,"is_disabled":false,"rental_uris":{"android":"levelo://app?vid=534a783e-c777-46cc-823d-92376ca47d4d","ios":"levelo://app?vid=534a783e-c777-46cc-823d-92376ca47d4d"},"vehicle_type_id":"4","last_reported":1727032004,"current_range_meters":18000,"station_id":"ce4bhnh2rcd13ifvqgug","pricing_plan_id":"cebpf4jnsgd1na2vs0mg"},{"bike_id":"e43e6310-a348-41cd-8943-af09fa3133d4","system_id":"levelo_inurba_marseille","lat":43.25866,"lon":5.39906,"is_reserved":false,"is_disabled":false,"rental_uris":{"android":"levelo://app?vid=e43e6310-a348-41cd-8943-af09fa3133d4","ios":"levelo://app?vid=e43e6310-a348-41cd-8943-af09fa3133d4"},"vehicle_type_id":"4","last_reported":1727032004,"current_range_meters":26800,"station_id":"ce4bhl92rcd13ifvqghg","pricing_plan_id":"cebpf4jnsgd1na2vs0mg"},{"bike_id":"a2e8c52d-da90-4c5e-98d8-2b2fdef6adaf","system_id":"levelo_inurba_marseille","lat":43.28029,"lon":5.36946,"is_reserved":false,"is_disabled":false,"rental_uris":{"android":"levelo://app?vid=a2e8c52d-da90-4c5e-98d8-2b2fdef6adaf","ios":"levelo://app?vid=a2e8c52d-da90-4c5e-98d8-2b2fdef6adaf"},"vehicle_type_id":"4","last_reported":1727032004,"current_range_meters":12000,"station_id":"ce4bha12rcd13ifvqef0","pricing_plan_id":"cebpf4jnsgd1na2vs0mg"},{"bike_id":"113b10fb-1b14-408a-97a3-970b058150a0","system_id":"levelo_inurba_marseille","lat":43.25861,"lon":5.39909,"is_reserved":false,"is_disabled":false,"rental_uris":{"android":"levelo://app?vid=113b10fb-1b14-408a-97a3-970b058150a0","ios":"levelo://app?vid=113b10fb-1b14-408a-97a3-970b058150a0"},"vehicle_type_id":"4","last_reported":1727032004,"current_range_meters":38800,"station_id":"ce4bhl92rcd13ifvqghg","pricing_plan_id":"cebpf4jnsgd1na2vs0mg"},{"bike_id":"37449279-2a9d-4c8e-986a-14e23da64700","system_id":"levelo_inurba_marseille","lat":43.30887,"lon":5.39622,"is_reserved":false,"is_disabled":false,"rental_uris":{"android":"levelo://app?vid=37449279-2a9d-4c8e-986a-14e23da64700","ios":"levelo://app?vid=37449279-2a9d-4c8e-986a-14e23da64700"},"vehicle_type_id":"4","last_reported":1727032004,"current_range_meters":37600,"station_id":"ce4bh012rcd13ifvqcv0","pricing_plan_id":"cebpf4jnsgd1na2vs0mg"},{"bike_id":"1b2633c7-3231-4e7d-89e9-a2c8e8cd897a","system_id":"levelo_inurba_marseille","lat":43.28118,"lon":5.35179,"is_reserved":false,"is_disabled":false,"rental_uris":{"android":"levelo://app?vid=1b2633c7-3231-4e7d-89e9-a2c8e8cd897a","ios":"levelo://app?vid=1b2633c7-3231-4e7d-89e9-a2c8e8cd897a"},"vehicle_type_id":"4","last_reported":1727032004,"current_range_meters":9200,"station_id":"","pricing_plan_id":"cebpf4jnsgd1na2vs0mg"},{"bike_id":"308a7c94-0c10-4f36-8ab7-8ae520d1113b","system_id":"levelo_inurba_marseille","lat":43.2678,"lon":5.394256,"is_reserved":false,"is_disabled":false,"rental_uris":{"android":"levelo://app?vid=308a7c94-0c10-4f36-8ab7-8ae520d1113b","ios":"levelo://app?vid=308a7c94-0c10-4f36-8ab7-8ae520d1113b"},"vehicle_type_id":"4","last_reported":1727032004,"current_range_meters":8400,"station_id":"ce4bha12rcd13ifvqef0","pricing_plan_id":"cebpf4jnsgd1na2vs0mg"},{"bike_id":"4fbb5250-9647-470b-8d93-052750ba4685","system_id":"levelo_inurba_marseille","lat":43.287806,"lon":5.373697,"is_reserved":false,"is_disabled":false,"rental_uris":{"android":"levelo://app?vid=4fbb5250-9647-470b-8d93-052750ba4685","ios":"levelo://app?vid=4fbb5250-9647-470b-8d93-052750ba4685"},"vehicle_type_id":"4","last_reported":1727032004,"current_range_meters":24800,"station_id":"ce4bh692rcd13ifvqe90","pricing_plan_id":"cebpf4jnsgd1na2vs0mg"},{"bike_id":"7b85672e-fc5c-45af-b3ca-4d93fbdbd41c","system_id":"levelo_inurba_marseille","lat":43.271817,"lon":5.391491,"is_reserved":false,"is_disabled":false,"rental_uris":{"android":"levelo://app?vid=7b85672e-fc5c-45af-b3ca-4d93fbdbd41c","ios":"levelo://app?vid=7b85672e-fc5c-45af-b3ca-4d93fbdbd41c"},"vehicle_type_id":"4","last_reported":1727032004,"current_range_meters":34000,"station_id":"ce4bhhp2rcd13ifvqfm0","pricing_plan_id":"cebpf4jnsgd1na2vs0mg"},{"bike_id":"687e45cc-3291-4a06-a549-9ca2a3f5a1ad","system_id":"levelo_inurba_marseille","lat":43.23957,"lon":5.3664,"is_reserved":false,"is_disabled":false,"rental_uris":{"android":"levelo://app?vid=687e45cc-3291-4a06-a549-9ca2a3f5a1ad","ios":"levelo://app?vid=687e45cc-3291-4a06-a549-9ca2a3f5a1ad"},"vehicle_type_id":"4","last_reported":1727032004,"current_range_meters":38800,"station_id":"ce4bhi12rcd13ifvqfp0","pricing_plan_id":"cebpf4jnsgd1na2vs0mg"},{"bike_id":"fa690805-233a-4a70-a9f3-33f1b67cdb1f","system_id":"levelo_inurba_marseille","lat":43.32291,"lon":5.38263,"is_reserved":false,"is_disabled":false,"rental_uris":{"android":"levelo://app?vid=fa690805-233a-4a70-a9f3-33f1b67cdb1f","ios":"levelo://app?vid=fa690805-233a-4a70-a9f3-33f1b67cdb1f"},"vehicle_type_id":"4","last_reported":1727032004,"current_range_meters":6400,"station_id":"ce4bhr12rcd13ifvqhqg","pricing_plan_id":"cebpf4jnsgd1na2vs0mg"},{"bike_id":"e71376a1-6327-42ca-a51f-550883f1db3a","system_id":"levelo_inurba_marseille","lat":43.29306,"lon":5.37178,"is_reserved":false,"is_disabled":false,"rental_uris":{"android":"levelo://app?vid=e71376a1-6327-42ca-a51f-550883f1db3a","ios":"levelo://app?vid=e71376a1-6327-42ca-a51f-550883f1db3a"},"vehicle_type_id":"4","last_reported":1727032004,"current_range_meters":17200,"station_id":"ce4bgh92rcd13ifvqb40","pricing_plan_id":"cebpf4jnsgd1na2vs0mg"},{"bike_id":"28240d2c-e418-438f-babf-4c56ecf57b77","system_id":"levelo_inurba_marseille","lat":43.295929,"lon":5.376364,"is_reserved":false,"is_disabled":false,"rental_uris":{"android":"levelo://app?vid=28240d2c-e418-438f-babf-4c56ecf57b77","ios":"levelo://app?vid=28240d2c-e418-438f-babf-4c56ecf57b77"},"vehicle_type_id":"4","last_reported":1727032004,"current_range_meters":2000,"station_id":"ce4bgi92rcd13ifvqb90","pricing_plan_id":"cebpf4jnsgd1na2vs0mg"},{"bike_id":"bc3584b9-4a83-4d0c-a410-b2fd8d1ac8dd","system_id":"levelo_inurba_marseille","lat":43.24802,"lon":5.37463,"is_reserved":false,"is_disabled":false,"rental_uris":{"android":"levelo://app?vid=bc3584b9-4a83-4d0c-a410-b2fd8d1ac8dd","ios":"levelo://app?vid=bc3584b9-4a83-4d0c-a410-b2fd8d1ac8dd"},"vehicle_type_id":"4","last_reported":1727032004,"current_range_meters":39200,"station_id":"ce4bhgh2rcd13ifvqfb0","pricing_plan_id":"cebpf4jnsgd1na2vs0mg"},{"bike_id":"b484b6d4-84bf-4839-a4c8-f7d752856b17","system_id":"levelo_inurba_marseille","lat":43.28626,"lon":5.35109,"is_reserved":false,"is_disabled":false,"rental_uris":{"android":"levelo://app?vid=b484b6d4-84bf-4839-a4c8-f7d752856b17","ios":"levelo://app?vid=b484b6d4-84bf-4839-a4c8-f7d752856b17"},"vehicle_type_id":"4","last_reported":1727032004,"current_range_meters":38800,"station_id":"ce4bhch2rcd13ifvqeug","pricing_plan_id":"cebpf4jnsgd1na2vs0mg"},{"bike_id":"093caf09-4e78-481c-9a1b-0fa03af1ce8f","system_id":"levelo_inurba_marseille","lat":43.311768,"lon":5.387203,"is_reserved":false,"is_disabled":false,"rental_uris":{"android":"levelo://app?vid=093caf09-4e78-481c-9a1b-0fa03af1ce8f","ios":"levelo://app?vid=093caf09-4e78-481c-9a1b-0fa03af1ce8f"},"vehicle_type_id":"4","last_reported":1727032004,"current_range_meters":38800,"station_id":"ce4bgv12rcd13ifvqcp0","pricing_plan_id":"cebpf4jnsgd1na2vs0mg"},{"bike_id":"7211eecf-a08f-4947-9205-dfe247dfe3f4","system_id":"levelo_inurba_marseille","lat":43.28699,"lon":5.39999,"is_reserved":false,"is_disabled":false,"rental_uris":{"android":"levelo://app?vid=7211eecf-a08f-4947-9205-dfe247dfe3f4","ios":"levelo://app?vid=7211eecf-a08f-4947-9205-dfe247dfe3f4"},"vehicle_type_id":"4","last_reported":1727032004,"current_range_meters":35600,"station_id":"ce4bho92rcd13ifvqh3g","pricing_plan_id":"cebpf4jnsgd1na2vs0mg"},{"bike_id":"6b2dee0b-51f4-4046-ba9b-e0f7710bf752","system_id":"levelo_inurba_marseille","lat":43.2926,"lon":5.38442,"is_reserved":false,"is_disabled":false,"rental_uris":{"android":"levelo://app?vid=6b2dee0b-51f4-4046-ba9b-e0f7710bf752","ios":"levelo://app?vid=6b2dee0b-51f4-4046-ba9b-e0f7710bf752"},"vehicle_type_id":"4","last_reported":1727032004,"current_range_meters":38800,"station_id":"ce4bh692rcd13ifvqea0","pricing_plan_id":"cebpf4jnsgd1na2vs0mg"},{"bike_id":"4fff38dc-bd3c-4e8f-98bc-85181f638254","system_id":"levelo_inurba_marseille","lat":43.24077,"lon":5.37745,"is_reserved":false,"is_disabled":false,"rental_uris":{"android":"levelo://app?vid=4fff38dc-bd3c-4e8f-98bc-85181f638254","ios":"levelo://app?vid=4fff38dc-bd3c-4e8f-98bc-85181f638254"},"vehicle_type_id":"4","last_reported":1727032004,"current_range_meters":38800,"station_id":"ce4bhnp2rcd13ifvqgvg","pricing_plan_id":"cebpf4jnsgd1na2vs0mg"},{"bike_id":"d8a9d9a9-2bca-44db-8aa8-7ba746150062","system_id":"levelo_inurba_marseille","lat":43.29417,"lon":5.38632,"is_reserved":false,"is_disabled":false,"rental_uris":{"android":"levelo://app?vid=d8a9d9a9-2bca-44db-8aa8-7ba746150062","ios":"levelo://app?vid=d8a9d9a9-2bca-44db-8aa8-7ba746150062"},"vehicle_type_id":"4","last_reported":1727032004,"current_range_meters":22800,"station_id":"ce4bh2h2rcd13ifvqdh0","pricing_plan_id":"cebpf4jnsgd1na2vs0mg"},{"bike_id":"be0088aa-5ffc-4670-b80e-7b1179bc8290","system_id":"levelo_inurba_marseille","lat":43.29252,"lon":5.38449,"is_reserved":false,"is_disabled":false,"rental_uris":{"android":"levelo://app?vid=be0088aa-5ffc-4670-b80e-7b1179bc8290","ios":"levelo://app?vid=be0088aa-5ffc-4670-b80e-7b1179bc8290"},"vehicle_type_id":"4","last_reported":1727032004,"current_range_meters":11600,"station_id":"ce4bh692rcd13ifvqea0","pricing_plan_id":"cebpf4jnsgd1na2vs0mg"},{"bike_id":"ce217f4d-c568-459f-90b0-2bc7513c36c7","system_id":"levelo_inurba_marseille","lat":43.29057,"lon":5.35926,"is_reserved":false,"is_disabled":false,"rental_uris":{"android":"levelo://app?vid=ce217f4d-c568-459f-90b0-2bc7513c36c7","ios":"levelo://app?vid=ce217f4d-c568-459f-90b0-2bc7513c36c7"},"vehicle_type_id":"4","last_reported":1727032004,"current_range_meters":25600,"station_id":"ce4bha92rcd13ifvqeg0","pricing_plan_id":"cebpf4jnsgd1na2vs0mg"},{"bike_id":"b2b35de5-2177-4df5-afd2-8ec2d030fd4a","system_id":"levelo_inurba_marseille","lat":43.25819,"lon":5.39442,"is_reserved":false,"is_disabled":false,"rental_uris":{"android":"levelo://app?vid=b2b35de5-2177-4df5-afd2-8ec2d030fd4a","ios":"levelo://app?vid=b2b35de5-2177-4df5-afd2-8ec2d030fd4a"},"vehicle_type_id":"4","last_reported":1727032004,"current_range_meters":20400,"station_id":"ce4bhip2rcd13ifvqft0","pricing_plan_id":"cebpf4jnsgd1na2vs0mg"},{"bike_id":"1f6a558c-e54d-4f8b-b14d-d55ddff68a1a","system_id":"levelo_inurba_marseille","lat":43.2893,"lon":5.36646,"is_reserved":false,"is_disabled":false,"rental_uris":{"android":"levelo://app?vid=1f6a558c-e54d-4f8b-b14d-d55ddff68a1a","ios":"levelo://app?vid=1f6a558c-e54d-4f8b-b14d-d55ddff68a1a"},"vehicle_type_id":"4","last_reported":1727032004,"current_range_meters":38000,"station_id":"ce4bhap2rcd13ifvqek0","pricing_plan_id":"cebpf4jnsgd1na2vs0mg"},{"bike_id":"d0a1caaf-f40e-481c-8f6a-9e78cdfa37b8","system_id":"levelo_inurba_marseille","lat":43.29301,"lon":5.37169,"is_reserved":false,"is_disabled":false,"rental_uris":{"android":"levelo://app?vid=d0a1caaf-f40e-481c-8f6a-9e78cdfa37b8","ios":"levelo://app?vid=d0a1caaf-f40e-481c-8f6a-9e78cdfa37b8"},"vehicle_type_id":"4","last_reported":1727032004,"current_range_meters":6800,"station_id":"ce4bgh92rcd13ifvqb40","pricing_plan_id":"cebpf4jnsgd1na2vs0mg"},{"bike_id":"5ecfdc9e-875b-4597-a1f0-3a52a4f104da","system_id":"levelo_inurba_marseille","lat":43.303497,"lon":5.41881,"is_reserved":false,"is_disabled":false,"rental_uris":{"android":"levelo://app?vid=5ecfdc9e-875b-4597-a1f0-3a52a4f104da","ios":"levelo://app?vid=5ecfdc9e-875b-4597-a1f0-3a52a4f104da"},"vehicle_type_id":"4","last_reported":1727032004,"current_range_meters":12000,"station_id":"ce4bhop2rcd13ifvqh7g","pricing_plan_id":"cebpf4jnsgd1na2vs0mg"},{"bike_id":"73c95d91-4339-4d75-b1c4-461a3daf1b5f","system_id":"levelo_inurba_marseille","lat":43.2956,"lon":5.42276,"is_reserved":false,"is_disabled":false,"rental_uris":{"android":"levelo://app?vid=73c95d91-4339-4d75-b1c4-461a3daf1b5f","ios":"levelo://app?vid=73c95d91-4339-4d75-b1c4-461a3daf1b5f"},"vehicle_type_id":"4","last_reported":1727032004,"current_range_meters":38800,"station_id":"ce4bhph2rcd13ifvqhdg","pricing_plan_id":"cebpf4jnsgd1na2vs0mg"},{"bike_id":"08a0c236-df57-4ce3-984d-141950698394","system_id":"levelo_inurba_marseille","lat":43.33023,"lon":5.39046,"is_reserved":false,"is_disabled":false,"rental_uris":{"android":"levelo://app?vid=08a0c236-df57-4ce3-984d-141950698394","ios":"levelo://app?vid=08a0c236-df57-4ce3-984d-141950698394"},"vehicle_type_id":"4","last_reported":1727032004,"current_range_meters":20800,"station_id":"ce4bhr92rcd13ifvqhrg","pricing_plan_id":"cebpf4jnsgd1na2vs0mg"},{"bike_id":"bec92394-8860-4fe2-8433-524cc1554a7a","system_id":"levelo_inurba_marseille","lat":43.31711,"lon":5.43711,"is_reserved":false,"is_disabled":false,"rental_uris":{"android":"levelo://app?vid=bec92394-8860-4fe2-8433-524cc1554a7a","ios":"levelo://app?vid=bec92394-8860-4fe2-8433-524cc1554a7a"},"vehicle_type_id":"4","last_reported":1727032004,"current_range_meters":39200,"station_id":"ce4bhp92rcd13ifvqhcg","pricing_plan_id":"cebpf4jnsgd1na2vs0mg"},{"bike_id":"8a5f5b90-42a7-4ee6-b444-56a77fdb035c","system_id":"levelo_inurba_marseille","lat":43.28152,"lon":5.42651,"is_reserved":false,"is_disabled":false,"rental_uris":{"android":"levelo://app?vid=8a5f5b90-42a7-4ee6-b444-56a77fdb035c","ios":"levelo://app?vid=8a5f5b90-42a7-4ee6-b444-56a77fdb035c"},"vehicle_type_id":"4","last_reported":1727032004,"current_range_meters":20000,"station_id":"ce4bhnh2rcd13ifvqgug","pricing_plan_id":"cebpf4jnsgd1na2vs0mg"},{"bike_id":"573da8cc-92ed-45e0-95ff-36fa97d84a8a","system_id":"levelo_inurba_marseille","lat":43.31326,"lon":5.3969,"is_reserved":false,"is_disabled":false,"rental_uris":{"android":"levelo://app?vid=573da8cc-92ed-45e0-95ff-36fa97d84a8a","ios":"levelo://app?vid=573da8cc-92ed-45e0-95ff-36fa97d84a8a"},"vehicle_type_id":"4","last_reported":1727032004,"current_range_meters":38400,"station_id":"ce4bgvp2rcd13ifvqcu0","pricing_plan_id":"cebpf4jnsgd1na2vs0mg"},{"bike_id":"f2dc22e0-4166-44e3-b903-ea8cb1fabfed","system_id":"levelo_inurba_marseille","lat":43.31361,"lon":5.38495,"is_reserved":false,"is_disabled":false,"rental_uris":{"android":"levelo://app?vid=f2dc22e0-4166-44e3-b903-ea8cb1fabfed","ios":"levelo://app?vid=f2dc22e0-4166-44e3-b903-ea8cb1fabfed"},"vehicle_type_id":"4","last_reported":1727032004,"current_range_meters":32400,"station_id":"ce4bgt92rcd13ifvqcf0","pricing_plan_id":"cebpf4jnsgd1na2vs0mg"},{"bike_id":"12883d26-f662-4048-81d6-99aa13a8aee0","system_id":"levelo_inurba_marseille","lat":43.28724,"lon":5.36096,"is_reserved":false,"is_disabled":false,"rental_uris":{"android":"levelo://app?vid=12883d26-f662-4048-81d6-99aa13a8aee0","ios":"levelo://app?vid=12883d26-f662-4048-81d6-99aa13a8aee0"},"vehicle_type_id":"4","last_reported":1727032004,"current_range_meters":37600,"station_id":"cki0cbj6b192h4jlfktg","pricing_plan_id":"cebpf4jnsgd1na2vs0mg"},{"bike_id":"1e43de8f-9dc9-42df-bbe6-256ec5e1a6ad","system_id":"levelo_inurba_marseille","lat":43.31489,"lon":5.37311,"is_reserved":false,"is_disabled":false,"rental_uris":{"android":"levelo://app?vid=1e43de8f-9dc9-42df-bbe6-256ec5e1a6ad","ios":"levelo://app?vid=1e43de8f-9dc9-42df-bbe6-256ec5e1a6ad"},"vehicle_type_id":"4","last_reported":1727032004,"current_range_meters":38000,"station_id":"ce4bgt12rcd13ifvqcd0","pricing_plan_id":"cebpf4jnsgd1na2vs0mg"},{"bike_id":"925c65f4-392d-4931-909c-7e16d55e55b8","system_id":"levelo_inurba_marseille","lat":43.3171,"lon":5.43708,"is_reserved":false,"is_disabled":false,"rental_uris":{"android":"levelo://app?vid=925c65f4-392d-4931-909c-7e16d55e55b8","ios":"levelo://app?vid=925c65f4-392d-4931-909c-7e16d55e55b8"},"vehicle_type_id":"4","last_reported":1727032004,"current_range_meters":24800,"station_id":"ce4bhp92rcd13ifvqhcg","pricing_plan_id":"cebpf4jnsgd1na2vs0mg"},{"bike_id":"c10cd09c-8926-49e9-920a-0616d0e3e35c","system_id":"levelo_inurba_marseille","lat":43.31225,"lon":5.36857,"is_reserved":false,"is_disabled":false,"rental_uris":{"android":"levelo://app?vid=c10cd09c-8926-49e9-920a-0616d0e3e35c","ios":"levelo://app?vid=c10cd09c-8926-49e9-920a-0616d0e3e35c"},"vehicle_type_id":"4","last_reported":1727032004,"current_range_meters":36800,"station_id":"ce4bgl92rcd13ifvqbq0","pricing_plan_id":"cebpf4jnsgd1na2vs0mg"},{"bike_id":"401ac810-85ed-4c84-b91c-7a0d98e85fd4","system_id":"levelo_inurba_marseille","lat":43.29525,"lon":5.38546,"is_reserved":false,"is_disabled":false,"rental_uris":{"android":"levelo://app?vid=401ac810-85ed-4c84-b91c-7a0d98e85fd4","ios":"levelo://app?vid=401ac810-85ed-4c84-b91c-7a0d98e85fd4"},"vehicle_type_id":"4","last_reported":1727032004,"current_range_meters":39200,"station_id":"ce4bgih2rcd13ifvqba0","pricing_plan_id":"cebpf4jnsgd1na2vs0mg"},{"bike_id":"a8d24a95-8c48-444a-b90b-38f2a75bc9c9","system_id":"levelo_inurba_marseille","lat":43.28614,"lon":5.35103,"is_reserved":false,"is_disabled":false,"rental_uris":{"android":"levelo://app?vid=a8d24a95-8c48-444a-b90b-38f2a75bc9c9","ios":"levelo://app?vid=a8d24a95-8c48-444a-b90b-38f2a75bc9c9"},"vehicle_type_id":"4","last_reported":1727032004,"current_range_meters":38800,"station_id":"ce4bhch2rcd13ifvqeug","pricing_plan_id":"cebpf4jnsgd1na2vs0mg"},{"bike_id":"603a041d-f2cd-4eb5-a4cb-9f3056ca5111","system_id":"levelo_inurba_marseille","lat":43.31079,"lon":5.38377,"is_reserved":false,"is_disabled":false,"rental_uris":{"android":"levelo://app?vid=603a041d-f2cd-4eb5-a4cb-9f3056ca5111","ios":"levelo://app?vid=603a041d-f2cd-4eb5-a4cb-9f3056ca5111"},"vehicle_type_id":"4","last_reported":1727032004,"current_range_meters":20000,"station_id":"ce4bgv92rcd13ifvqcr0","pricing_plan_id":"cebpf4jnsgd1na2vs0mg"},{"bike_id":"ccc88ebb-8c97-4797-8223-c7bfd3c960e6","system_id":"levelo_inurba_marseille","lat":43.2811,"lon":5.37847,"is_reserved":false,"is_disabled":false,"rental_uris":{"android":"levelo://app?vid=ccc88ebb-8c97-4797-8223-c7bfd3c960e6","ios":"levelo://app?vid=ccc88ebb-8c97-4797-8223-c7bfd3c960e6"},"vehicle_type_id":"4","last_reported":1727032004,"current_range_meters":38800,"station_id":"ce4bha12rcd13ifvqee0","pricing_plan_id":"cebpf4jnsgd1na2vs0mg"},{"bike_id":"9ed24570-8306-4bcb-900e-cd8f94718ccb","system_id":"levelo_inurba_marseille","lat":43.32339,"lon":5.40625,"is_reserved":false,"is_disabled":false,"rental_uris":{"android":"levelo://app?vid=9ed24570-8306-4bcb-900e-cd8f94718ccb","ios":"levelo://app?vid=9ed24570-8306-4bcb-900e-cd8f94718ccb"},"vehicle_type_id":"4","last_reported":1727032004,"current_range_meters":11600,"station_id":"ce4bhq92rcd13ifvqhjg","pricing_plan_id":"cebpf4jnsgd1na2vs0mg"},{"bike_id":"df42f132-93bd-456a-9a0b-6da80ae47c3c","system_id":"levelo_inurba_marseille","lat":43.309468,"lon":5.390284,"is_reserved":false,"is_disabled":false,"rental_uris":{"android":"levelo://app?vid=df42f132-93bd-456a-9a0b-6da80ae47c3c","ios":"levelo://app?vid=df42f132-93bd-456a-9a0b-6da80ae47c3c"},"vehicle_type_id":"4","last_reported":1727032004,"current_range_meters":30000,"station_id":"ce4bgup2rcd13ifvqco0","pricing_plan_id":"cebpf4jnsgd1na2vs0mg"},{"bike_id":"48e17160-24b3-4bb2-9052-55b9b4248b77","system_id":"levelo_inurba_marseille","lat":43.30406,"lon":5.3974,"is_reserved":false,"is_disabled":false,"rental_uris":{"android":"levelo://app?vid=48e17160-24b3-4bb2-9052-55b9b4248b77","ios":"levelo://app?vid=48e17160-24b3-4bb2-9052-55b9b4248b77"},"vehicle_type_id":"4","last_reported":1727032004,"current_range_meters":38400,"station_id":"ce4bh092rcd13ifvqd20","pricing_plan_id":"cebpf4jnsgd1na2vs0mg"},{"bike_id":"8259a5a1-4c0a-45c0-b304-b8d3b10e2e1b","system_id":"levelo_inurba_marseille","lat":43.26557,"lon":5.39039,"is_reserved":false,"is_disabled":false,"rental_uris":{"android":"levelo://app?vid=8259a5a1-4c0a-45c0-b304-b8d3b10e2e1b","ios":"levelo://app?vid=8259a5a1-4c0a-45c0-b304-b8d3b10e2e1b"},"vehicle_type_id":"4","last_reported":1727032004,"current_range_meters":38800,"station_id":"ce4bhe12rcd13ifvqf30","pricing_plan_id":"cebpf4jnsgd1na2vs0mg"},{"bike_id":"e06b9f9c-de21-48d8-b253-a34a4a3f3b6c","system_id":"levelo_inurba_marseille","lat":43.30881,"lon":5.39629,"is_reserved":false,"is_disabled":false,"rental_uris":{"android":"levelo://app?vid=e06b9f9c-de21-48d8-b253-a34a4a3f3b6c","ios":"levelo://app?vid=e06b9f9c-de21-48d8-b253-a34a4a3f3b6c"},"vehicle_type_id":"4","last_reported":1727032004,"current_range_meters":19200,"station_id":"ce4bh012rcd13ifvqcv0","pricing_plan_id":"cebpf4jnsgd1na2vs0mg"},{"bike_id":"58e7bc79-5583-4fe7-94bb-a9e3ceb2981f","system_id":"levelo_inurba_marseille","lat":43.22931,"lon":5.35386,"is_reserved":false,"is_disabled":false,"rental_uris":{"android":"levelo://app?vid=58e7bc79-5583-4fe7-94bb-a9e3ceb2981f","ios":"levelo://app?vid=58e7bc79-5583-4fe7-94bb-a9e3ceb2981f"},"vehicle_type_id":"4","last_reported":1727032004,"current_range_meters":38800,"station_id":"cpo3532slgdg3j2ikp40","pricing_plan_id":"cebpf4jnsgd1na2vs0mg"},{"bike_id":"040525c9-2158-44df-8e6c-c11c87237117","system_id":"levelo_inurba_marseille","lat":43.302478,"lon":5.400686,"is_reserved":false,"is_disabled":false,"rental_uris":{"android":"levelo://app?vid=040525c9-2158-44df-8e6c-c11c87237117","ios":"levelo://app?vid=040525c9-2158-44df-8e6c-c11c87237117"},"vehicle_type_id":"4","last_reported":1727032004,"current_range_meters":10800,"station_id":"ce4bgvh2rcd13ifvqcs0","pricing_plan_id":"cebpf4jnsgd1na2vs0mg"},{"bike_id":"4390574c-5f9a-4305-ac06-87fd03e82370","system_id":"levelo_inurba_marseille","lat":43.2586,"lon":5.39902,"is_reserved":false,"is_disabled":false,"rental_uris":{"android":"levelo://app?vid=4390574c-5f9a-4305-ac06-87fd03e82370","ios":"levelo://app?vid=4390574c-5f9a-4305-ac06-87fd03e82370"},"vehicle_type_id":"4","last_reported":1727032004,"current_range_meters":38800,"station_id":"ce4bhl92rcd13ifvqghg","pricing_plan_id":"cebpf4jnsgd1na2vs0mg"},{"bike_id":"712a3801-0990-484c-890d-08054b1a2925","system_id":"levelo_inurba_marseille","lat":43.29539,"lon":5.38539,"is_reserved":false,"is_disabled":false,"rental_uris":{"android":"levelo://app?vid=712a3801-0990-484c-890d-08054b1a2925","ios":"levelo://app?vid=712a3801-0990-484c-890d-08054b1a2925"},"vehicle_type_id":"4","last_reported":1727032004,"current_range_meters":13600,"station_id":"ce4bgih2rcd13ifvqba0","pricing_plan_id":"cebpf4jnsgd1na2vs0mg"},{"bike_id":"3d840dca-8a73-436d-b5d8-9ea9f6b19dea","system_id":"levelo_inurba_marseille","lat":43.29852,"lon":5.36303,"is_reserved":false,"is_disabled":false,"rental_uris":{"android":"levelo://app?vid=3d840dca-8a73-436d-b5d8-9ea9f6b19dea","ios":"levelo://app?vid=3d840dca-8a73-436d-b5d8-9ea9f6b19dea"},"vehicle_type_id":"4","last_reported":1727032004,"current_range_meters":8800,"station_id":"ce4bgpp2rcd13ifvqc3g","pricing_plan_id":"cebpf4jnsgd1na2vs0mg"},{"bike_id":"e6190756-118f-4eb6-a85b-235c149ff787","system_id":"levelo_inurba_marseille","lat":43.30868,"lon":5.3964,"is_reserved":false,"is_disabled":false,"rental_uris":{"android":"levelo://app?vid=e6190756-118f-4eb6-a85b-235c149ff787","ios":"levelo://app?vid=e6190756-118f-4eb6-a85b-235c149ff787"},"vehicle_type_id":"4","last_reported":1727032004,"current_range_meters":40000,"station_id":"ce4bh012rcd13ifvqcv0","pricing_plan_id":"cebpf4jnsgd1na2vs0mg"},{"bike_id":"45df21b1-6418-447a-844b-5625671df584","system_id":"levelo_inurba_marseille","lat":43.260295,"lon":5.375868,"is_reserved":false,"is_disabled":false,"rental_uris":{"android":"levelo://app?vid=45df21b1-6418-447a-844b-5625671df584","ios":"levelo://app?vid=45df21b1-6418-447a-844b-5625671df584"},"vehicle_type_id":"4","last_reported":1727032004,"current_range_meters":30800,"station_id":"ce4bhm12rcd13ifvqgkg","pricing_plan_id":"cebpf4jnsgd1na2vs0mg"},{"bike_id":"8d70445f-82c9-44f4-aff9-81537e8f273c","system_id":"levelo_inurba_marseille","lat":43.29599,"lon":5.38112,"is_reserved":false,"is_disabled":false,"rental_uris":{"android":"levelo://app?vid=8d70445f-82c9-44f4-aff9-81537e8f273c","ios":"levelo://app?vid=8d70445f-82c9-44f4-aff9-81537e8f273c"},"vehicle_type_id":"4","last_reported":1727032004,"current_range_meters":5600,"station_id":"ce4bgl12rcd13ifvqbo0","pricing_plan_id":"cebpf4jnsgd1na2vs0mg"},{"bike_id":"e20603a3-6f76-471c-9f28-cfa8b7b1f9af","system_id":"levelo_inurba_marseille","lat":43.3059,"lon":5.39359,"is_reserved":false,"is_disabled":false,"rental_uris":{"android":"levelo://app?vid=e20603a3-6f76-471c-9f28-cfa8b7b1f9af","ios":"levelo://app?vid=e20603a3-6f76-471c-9f28-cfa8b7b1f9af"},"vehicle_type_id":"4","last_reported":1727032004,"current_range_meters":38400,"station_id":"ce4bh0p2rcd13ifvqd80","pricing_plan_id":"cebpf4jnsgd1na2vs0mg"},{"bike_id":"1102eb3d-2dc8-4019-9e1d-c4670dad7e11","system_id":"levelo_inurba_marseille","lat":43.23955,"lon":5.36634,"is_reserved":false,"is_disabled":false,"rental_uris":{"android":"levelo://app?vid=1102eb3d-2dc8-4019-9e1d-c4670dad7e11","ios":"levelo://app?vid=1102eb3d-2dc8-4019-9e1d-c4670dad7e11"},"vehicle_type_id":"4","last_reported":1727032004,"current_range_meters":9600,"station_id":"ce4bhi12rcd13ifvqfp0","pricing_plan_id":"cebpf4jnsgd1na2vs0mg"},{"bike_id":"6a46b9e6-b6be-42de-bc91-1f2b1d9de259","system_id":"levelo_inurba_marseille","lat":43.31888,"lon":5.40729,"is_reserved":false,"is_disabled":false,"rental_uris":{"android":"levelo://app?vid=6a46b9e6-b6be-42de-bc91-1f2b1d9de259","ios":"levelo://app?vid=6a46b9e6-b6be-42de-bc91-1f2b1d9de259"},"vehicle_type_id":"4","last_reported":1727032004,"current_range_meters":22400,"station_id":"ce4bhq12rcd13ifvqhig","pricing_plan_id":"cebpf4jnsgd1na2vs0mg"},{"bike_id":"2688f954-b52e-40ff-8adc-c9c533c2fc4a","system_id":"levelo_inurba_marseille","lat":43.25117,"lon":5.40319,"is_reserved":false,"is_disabled":false,"rental_uris":{"android":"levelo://app?vid=2688f954-b52e-40ff-8adc-c9c533c2fc4a","ios":"levelo://app?vid=2688f954-b52e-40ff-8adc-c9c533c2fc4a"},"vehicle_type_id":"4","last_reported":1727032004,"current_range_meters":33600,"station_id":"ce4bhlh2rcd13ifvqgig","pricing_plan_id":"cebpf4jnsgd1na2vs0mg"},{"bike_id":"aca6a9a0-2c6f-4d55-9288-7225383ce077","system_id":"levelo_inurba_marseille","lat":43.30442,"lon":5.39843,"is_reserved":false,"is_disabled":false,"rental_uris":{"android":"levelo://app?vid=aca6a9a0-2c6f-4d55-9288-7225383ce077","ios":"levelo://app?vid=aca6a9a0-2c6f-4d55-9288-7225383ce077"},"vehicle_type_id":"4","last_reported":1727032004,"current_range_meters":38800,"station_id":"ce4bh112rcd13ifvqda0","pricing_plan_id":"cebpf4jnsgd1na2vs0mg"},{"bike_id":"c31d2cee-8cb9-469f-8a4f-eed70a1577b7","system_id":"levelo_inurba_marseille","lat":43.32054,"lon":5.41559,"is_reserved":false,"is_disabled":false,"rental_uris":{"android":"levelo://app?vid=c31d2cee-8cb9-469f-8a4f-eed70a1577b7","ios":"levelo://app?vid=c31d2cee-8cb9-469f-8a4f-eed70a1577b7"},"vehicle_type_id":"4","last_reported":1727032004,"current_range_meters":13600,"station_id":"ce4bhq92rcd13ifvqhkg","pricing_plan_id":"cebpf4jnsgd1na2vs0mg"},{"bike_id":"09eb2821-2d79-45de-b313-6a434e8d50fe","system_id":"levelo_inurba_marseille","lat":43.25816,"lon":5.39438,"is_reserved":false,"is_disabled":false,"rental_uris":{"android":"levelo://app?vid=09eb2821-2d79-45de-b313-6a434e8d50fe","ios":"levelo://app?vid=09eb2821-2d79-45de-b313-6a434e8d50fe"},"vehicle_type_id":"4","last_reported":1727032004,"current_range_meters":16400,"station_id":"ce4bhip2rcd13ifvqft0","pricing_plan_id":"cebpf4jnsgd1na2vs0mg"},{"bike_id":"fdafa27c-f09a-4fcc-be63-4b0fcfac35cc","system_id":"levelo_inurba_marseille","lat":43.28277,"lon":5.3507,"is_reserved":false,"is_disabled":false,"rental_uris":{"android":"levelo://app?vid=fdafa27c-f09a-4fcc-be63-4b0fcfac35cc","ios":"levelo://app?vid=fdafa27c-f09a-4fcc-be63-4b0fcfac35cc"},"vehicle_type_id":"4","last_reported":1727032004,"current_range_meters":38800,"station_id":"ce4bhbp2rcd13ifvqerg","pricing_plan_id":"cebpf4jnsgd1na2vs0mg"},{"bike_id":"7c7205bb-7829-4b9e-ac2f-618cc9341607","system_id":"levelo_inurba_marseille","lat":43.27813,"lon":5.40738,"is_reserved":false,"is_disabled":false,"rental_uris":{"android":"levelo://app?vid=7c7205bb-7829-4b9e-ac2f-618cc9341607","ios":"levelo://app?vid=7c7205bb-7829-4b9e-ac2f-618cc9341607"},"vehicle_type_id":"4","last_reported":1727032004,"current_range_meters":38000,"station_id":"ce4bhnh2rcd13ifvqgtg","pricing_plan_id":"cebpf4jnsgd1na2vs0mg"},{"bike_id":"97c88354-ef75-4867-a0bb-96f286568a64","system_id":"levelo_inurba_marseille","lat":43.27174,"lon":5.40993,"is_reserved":false,"is_disabled":false,"rental_uris":{"android":"levelo://app?vid=97c88354-ef75-4867-a0bb-96f286568a64","ios":"levelo://app?vid=97c88354-ef75-4867-a0bb-96f286568a64"},"vehicle_type_id":"4","last_reported":1727032004,"current_range_meters":14400,"station_id":"ce4bhl12rcd13ifvqgf0","pricing_plan_id":"cebpf4jnsgd1na2vs0mg"},{"bike_id":"36dc71fe-bfc9-4a4d-b2ef-39ebb067c458","system_id":"levelo_inurba_marseille","lat":43.29554,"lon":5.42285,"is_reserved":false,"is_disabled":false,"rental_uris":{"android":"levelo://app?vid=36dc71fe-bfc9-4a4d-b2ef-39ebb067c458","ios":"levelo://app?vid=36dc71fe-bfc9-4a4d-b2ef-39ebb067c458"},"vehicle_type_id":"4","last_reported":1727032004,"current_range_meters":39200,"station_id":"ce4bhph2rcd13ifvqhdg","pricing_plan_id":"cebpf4jnsgd1na2vs0mg"},{"bike_id":"25f75490-29b4-47f9-9485-a195a6896960","system_id":"levelo_inurba_marseille","lat":43.29365,"lon":5.37859,"is_reserved":false,"is_disabled":false,"rental_uris":{"android":"levelo://app?vid=25f75490-29b4-47f9-9485-a195a6896960","ios":"levelo://app?vid=25f75490-29b4-47f9-9485-a195a6896960"},"vehicle_type_id":"4","last_reported":1727032004,"current_range_meters":38800,"station_id":"ce4bgjh2rcd13ifvqbf0","pricing_plan_id":"cebpf4jnsgd1na2vs0mg"},{"bike_id":"18f212b9-d6e9-4ad5-8bb4-4f4de523d98d","system_id":"levelo_inurba_marseille","lat":43.29273,"lon":5.36852,"is_reserved":false,"is_disabled":false,"rental_uris":{"android":"levelo://app?vid=18f212b9-d6e9-4ad5-8bb4-4f4de523d98d","ios":"levelo://app?vid=18f212b9-d6e9-4ad5-8bb4-4f4de523d98d"},"vehicle_type_id":"4","last_reported":1727032004,"current_range_meters":16400,"station_id":"ce4bhbp2rcd13ifvqesg","pricing_plan_id":"cebpf4jnsgd1na2vs0mg"},{"bike_id":"92ab8a1a-6606-49e1-9951-f10e38cd789d","system_id":"levelo_inurba_marseille","lat":43.31712,"lon":5.43696,"is_reserved":false,"is_disabled":false,"rental_uris":{"android":"levelo://app?vid=92ab8a1a-6606-49e1-9951-f10e38cd789d","ios":"levelo://app?vid=92ab8a1a-6606-49e1-9951-f10e38cd789d"},"vehicle_type_id":"4","last_reported":1727032004,"current_range_meters":38800,"station_id":"ce4bhp92rcd13ifvqhcg","pricing_plan_id":"cebpf4jnsgd1na2vs0mg"},{"bike_id":"bcbe6095-74c6-4e6a-9235-6041481bec8a","system_id":"levelo_inurba_marseille","lat":43.23187,"lon":5.39987,"is_reserved":false,"is_disabled":false,"rental_uris":{"android":"levelo://app?vid=bcbe6095-74c6-4e6a-9235-6041481bec8a","ios":"levelo://app?vid=bcbe6095-74c6-4e6a-9235-6041481bec8a"},"vehicle_type_id":"4","last_reported":1727032004,"current_range_meters":6400,"station_id":"ce4bhn12rcd13ifvqgqg","pricing_plan_id":"cebpf4jnsgd1na2vs0mg"},{"bike_id":"1437b30c-7d45-456f-be5f-6d19204997b1","system_id":"levelo_inurba_marseille","lat":43.32479,"lon":5.36561,"is_reserved":false,"is_disabled":false,"rental_uris":{"android":"levelo://app?vid=1437b30c-7d45-456f-be5f-6d19204997b1","ios":"levelo://app?vid=1437b30c-7d45-456f-be5f-6d19204997b1"},"vehicle_type_id":"4","last_reported":1727032004,"current_range_meters":26000,"station_id":"ce4bhs12rcd13ifvqhvg","pricing_plan_id":"cebpf4jnsgd1na2vs0mg"},{"bike_id":"1c632cc3-abc4-4d25-921e-a4944015acf3","system_id":"levelo_inurba_marseille","lat":43.30132,"lon":5.38776,"is_reserved":false,"is_disabled":false,"rental_uris":{"android":"levelo://app?vid=1c632cc3-abc4-4d25-921e-a4944015acf3","ios":"levelo://app?vid=1c632cc3-abc4-4d25-921e-a4944015acf3"},"vehicle_type_id":"4","last_reported":1727032004,"current_range_meters":14000,"station_id":"ce4bghh2rcd13ifvqb60","pricing_plan_id":"cebpf4jnsgd1na2vs0mg"},{"bike_id":"c4330dd1-33c8-49ba-a408-9c6e1ac5f997","system_id":"levelo_inurba_marseille","lat":43.31484,"lon":5.37312,"is_reserved":false,"is_disabled":false,"rental_uris":{"android":"levelo://app?vid=c4330dd1-33c8-49ba-a408-9c6e1ac5f997","ios":"levelo://app?vid=c4330dd1-33c8-49ba-a408-9c6e1ac5f997"},"vehicle_type_id":"4","last_reported":1727032004,"current_range_meters":38800,"station_id":"ce4bgt12rcd13ifvqcd0","pricing_plan_id":"cebpf4jnsgd1na2vs0mg"},{"bike_id":"7e12d283-8dd3-4a97-8cd3-080b0b1e29eb","system_id":"levelo_inurba_marseille","lat":43.29439,"lon":5.39757,"is_reserved":false,"is_disabled":false,"rental_uris":{"android":"levelo://app?vid=7e12d283-8dd3-4a97-8cd3-080b0b1e29eb","ios":"levelo://app?vid=7e12d283-8dd3-4a97-8cd3-080b0b1e29eb"},"vehicle_type_id":"4","last_reported":1727032004,"current_range_meters":33200,"station_id":"ce4bh3h2rcd13ifvqdo0","pricing_plan_id":"cebpf4jnsgd1na2vs0mg"},{"bike_id":"7ae379da-9440-4378-a690-86693789de4b","system_id":"levelo_inurba_marseille","lat":43.29555,"lon":5.42283,"is_reserved":false,"is_disabled":false,"rental_uris":{"android":"levelo://app?vid=7ae379da-9440-4378-a690-86693789de4b","ios":"levelo://app?vid=7ae379da-9440-4378-a690-86693789de4b"},"vehicle_type_id":"4","last_reported":1727032004,"current_range_meters":16400,"station_id":"ce4bhph2rcd13ifvqhdg","pricing_plan_id":"cebpf4jnsgd1na2vs0mg"},{"bike_id":"02552a84-93ac-4f47-9115-b594cbf16674","system_id":"levelo_inurba_marseille","lat":43.2955,"lon":5.42288,"is_reserved":false,"is_disabled":false,"rental_uris":{"android":"levelo://app?vid=02552a84-93ac-4f47-9115-b594cbf16674","ios":"levelo://app?vid=02552a84-93ac-4f47-9115-b594cbf16674"},"vehicle_type_id":"4","last_reported":1727032004,"current_range_meters":39200,"station_id":"ce4bhph2rcd13ifvqhdg","pricing_plan_id":"cebpf4jnsgd1na2vs0mg"},{"bike_id":"3ab07a82-e4e2-4987-9106-e23a36476439","system_id":"levelo_inurba_marseille","lat":43.2827,"lon":5.35074,"is_reserved":false,"is_disabled":false,"rental_uris":{"android":"levelo://app?vid=3ab07a82-e4e2-4987-9106-e23a36476439","ios":"levelo://app?vid=3ab07a82-e4e2-4987-9106-e23a36476439"},"vehicle_type_id":"4","last_reported":1727032004,"current_range_meters":38800,"station_id":"ce4bhbp2rcd13ifvqerg","pricing_plan_id":"cebpf4jnsgd1na2vs0mg"},{"bike_id":"2e622ff0-a8dc-4afc-9ff0-3160e79dd338","system_id":"levelo_inurba_marseille","lat":43.2707,"lon":5.42283,"is_reserved":false,"is_disabled":false,"rental_uris":{"android":"levelo://app?vid=2e622ff0-a8dc-4afc-9ff0-3160e79dd338","ios":"levelo://app?vid=2e622ff0-a8dc-4afc-9ff0-3160e79dd338"},"vehicle_type_id":"4","last_reported":1727032004,"current_range_meters":8000,"station_id":"ce4bhk92rcd13ifvqgb0","pricing_plan_id":"cebpf4jnsgd1na2vs0mg"},