{"last_updated":1685192826,"ttl":30,"version":"2.2","data":{"bikes":[{"bike_id":"1c72d2ca-cb6f-400e-9189-fdf7da7a150d","system_id":"levelo_inurba_marseille","lat":43.31341,"lon":5.367098,"is_reserved":false,"is_disabled":false,"rental_uris":{"android":"levelo://app?vid=1c72d2ca-cb6f-400e-9189-fdf7da7a150d","ios":"levelo://app?vid=1c72d2ca-cb6f-400e-9189-fdf7da7a150d"},"vehicle_type_id":"4","last_reported":1685192826,"current_range_meters":30000,"station_id":"ce4bgr92rcd13ifvqc6g","pricing_plan_id":"free"},{"bike_id":"072d49ba-08fe-4d3a-974d-5352f8dbbb35","system_id":"levelo_inurba_marseille","lat":43.314811,"lon":5.373103,"is_reserved":false,"is_disabled":false,"rental_uris":{"android":"levelo://app?vid=072d49ba-08fe-4d3a-974d-5352f8dbbb35","ios":"levelo://app?vid=072d49ba-08fe-4d3a-974d-5352f8dbbb35"},"vehicle_type_id":"4","last_reported":1685192826,"current_range_meters":12400,"station_id":"ce4bgt12rcd13ifvqcd0","pricing_plan_id":"free"},{"bike_id":"96b8a4c1-b4ee-4191-9e26-fbfaeaf7d3db","system_id":"levelo_inurba_marseille","lat":43.308614,"lon":5.372098,"is_reserved":false,"is_disabled":false,"rental_uris":{"android":"levelo://app?vid=96b8a4c1-b4ee-4191-9e26-fbfaeaf7d3db","ios":"levelo://app?vid=96b8a4c1-b4ee-4191-9e26-fbfaeaf7d3db"},"vehicle_type_id":"4","last_reported":1685192826,"current_range_meters":18000,"station_id":"ce4bguh2rcd13ifvqckg","pricing_plan_id":"free"},{"bike_id":"9c7f8648-d123-455c-8f51-17ea595bde6c","system_id":"levelo_inurba_marseille","lat":43.3054,"lon":5.36549,"is_reserved":false,"is_disabled":false,"rental_uris":{"android":"levelo://app?vid=9c7f8648-d123-455c-8f51-17ea595bde6c","ios":"levelo://app?vid=9c7f8648-d123-455c-8f51-17ea595bde6c"},"vehicle_type_id":"4","last_reported":1685192826,"current_range_meters":6400,"station_id":"","pricing_plan_id":"free"},{"bike_id":"1012ad19-b85d-44c2-9966-d346186d3fbc","system_id":"levelo_inurba_marseille","lat":43.3112,"lon":5.37776,"is_reserved":false,"is_disabled":false,"rental_uris":{"android":"levelo://app?vid=1012ad19-b85d-44c2-9966-d346186d3fbc","ios":"levelo://app?vid=1012ad19-b85d-44c2-9966-d346186d3fbc"},"vehicle_type_id":"4","last_reported":1685192826,"current_range_meters":21600,"station_id":"ce4bgt92rcd13ifvqcg0","pricing_plan_id":"free"},{"bike_id":"c62ccf64-32ce-442f-b325-47439c06447d","system_id":"levelo_inurba_marseille","lat":43.317075,"lon":5.377367,"is_reserved":false,"is_disabled":false,"rental_uris":{"android":"levelo://app?vid=c62ccf64-32ce-442f-b325-47439c06447d","ios":"levelo://app?vid=c62ccf64-32ce-442f-b325-47439c06447d"},"vehicle_type_id":"4","last_reported":1685192826,"current_range_meters":15200,"station_id":"ce4bgth2rcd13ifvqch0","pricing_plan_id":"free"},{"bike_id":"b7317787-71cb-4f57-90e2-2a09fd4cbd04","system_id":"levelo_inurba_marseille","lat":43.315293,"lon":5.380349,"is_reserved":false,"is_disabled":false,"rental_uris":{"android":"levelo://app?vid=b7317787-71cb-4f57-90e2-2a09fd4cbd04","ios":"levelo://app?vid=b7317787-71cb-4f57-90e2-2a09fd4cbd04"},"vehicle_type_id":"4","last_reported":1685192826,"current_range_meters":13600,"station_id":"ce4bhsp2rcd13ifvqi50","pricing_plan_id":"free"},{"bike_id":"0d16e93b-de4c-47bc-92f1-a0bc50b803d0","system_id":"levelo_inurba_marseille","lat":43.243884,"lon":5.370736,"is_reserved":false,"is_disabled":false,"rental_uris":{"android":"levelo://app?vid=0d16e93b-de4c-47bc-92f1-a0bc50b803d0","ios":"levelo://app?vid=0d16e93b-de4c-47bc-92f1-a0bc50b803d0"},"vehicle_type_id":"4","last_reported":1685192826,"current_range_meters":9200,"station_id":"ce4bhhh2rcd13ifvqfk0","pricing_plan_id":"free"},{"bike_id":"e48acc00-0787-41b7-8898-bb69a6f43041","system_id":"levelo_inurba_marseille","lat":43.304655,"lon":5.379113,"is_reserved":false,"is_disabled":false,"rental_uris":{"android":"levelo://app?vid=e48acc00-0787-41b7-8898-bb69a6f43041","ios":"levelo://app?vid=e48acc00-0787-41b7-8898-bb69a6f43041"},"vehicle_type_id":"4","last_reported":1685192826,"current_range_meters":1200,"station_id":"ce4bgup2rcd13ifvqcn0","pricing_plan_id":"free"},{"bike_id":"5e638371-5c30-4ed5-8462-b255cdd63e8e","system_id":"levelo_inurba_marseille","lat":43.30138,"lon":5.37409,"is_reserved":false,"is_disabled":false,"rental_uris":{"android":"levelo://app?vid=5e638371-5c30-4ed5-8462-b255cdd63e8e","ios":"levelo://app?vid=5e638371-5c30-4ed5-8462-b255cdd63e8e"},"vehicle_type_id":"4","last_reported":1685192826,"current_range_meters":27600,"station_id":"","pricing_plan_id":"free"},{"bike_id":"5f66b5c8-c13e-4e6a-af73-99f8edb1fe4e","system_id":"levelo_inurba_marseille","lat":43.31993,"lon":5.38145,"is_reserved":false,"is_disabled":false,"rental_uris":{"android":"levelo://app?vid=5f66b5c8-c13e-4e6a-af73-99f8edb1fe4e","ios":"levelo://app?vid=5f66b5c8-c13e-4e6a-af73-99f8edb1fe4e"},"vehicle_type_id":"4","last_reported":1685192826,"current_range_meters":17200,"station_id":"ce4bhr12rcd13ifvqhpg","pricing_plan_id":"free"},{"bike_id":"15085faf-94d1-454c-8de1-c9482918e24b","system_id":"levelo_inurba_marseille","lat":43.31993,"lon":5.38148,"is_reserved":false,"is_disabled":false,"rental_uris":{"android":"levelo://app?vid=15085faf-94d1-454c-8de1-c9482918e24b","ios":"levelo://app?vid=15085faf-94d1-454c-8de1-c9482918e24b"},"vehicle_type_id":"4","last_reported":1685192826,"current_range_meters":4400,"station_id":"ce4bhr12rcd13ifvqhpg","pricing_plan_id":"free"},{"bike_id":"e5571f58-adb6-49b7-8c86-2d757ae8e1a0","system_id":"levelo_inurba_marseille","lat":43.319935,"lon":5.381699,"is_reserved":false,"is_disabled":false,"rental_uris":{"android":"levelo://app?vid=e5571f58-adb6-49b7-8c86-2d757ae8e1a0","ios":"levelo://app?vid=e5571f58-adb6-49b7-8c86-2d757ae8e1a0"},"vehicle_type_id":"4","last_reported":1685192826,"current_range_meters":14400,"station_id":"ce4bhr12rcd13ifvqhpg","pricing_plan_id":"free"},{"bike_id":"edc96815-b3ab-4c58-b65b-672be6b50dea","system_id":"levelo_inurba_marseille","lat":43.31363,"lon":5.38514,"is_reserved":false,"is_disabled":false,"rental_uris":{"android":"levelo://app?vid=edc96815-b3ab-4c58-b65b-672be6b50dea","ios":"levelo://app?vid=edc96815-b3ab-4c58-b65b-672be6b50dea"},"vehicle_type_id":"4","last_reported":1685192826,"current_range_meters":19600,"station_id":"ce4bgt92rcd13ifvqcf0","pricing_plan_id":"free"},{"bike_id":"25daed20-7987-4f3e-a34e-5817d620d773","system_id":"levelo_inurba_marseille","lat":43.298433,"lon":5.362774,"is_reserved":false,"is_disabled":false,"rental_uris":{"android":"levelo://app?vid=25daed20-7987-4f3e-a34e-5817d620d773","ios":"levelo://app?vid=25daed20-7987-4f3e-a34e-5817d620d773"},"vehicle_type_id":"4","last_reported":1685192826,"current_range_meters":25200,"station_id":"ce4bgpp2rcd13ifvqc3g","pricing_plan_id":"free"},{"bike_id":"ee015c66-d3f0-42b6-8d2e-e7ff758f809b","system_id":"levelo_inurba_marseille","lat":43.29849,"lon":5.36275,"is_reserved":false,"is_disabled":false,"rental_uris":{"android":"levelo://app?vid=ee015c66-d3f0-42b6-8d2e-e7ff758f809b","ios":"levelo://app?vid=ee015c66-d3f0-42b6-8d2e-e7ff758f809b"},"vehicle_type_id":"4","last_reported":1685192826,"current_range_meters":31200,"station_id":"ce4bgpp2rcd13ifvqc3g","pricing_plan_id":"free"},{"bike_id":"a02b7016-f166-4366-8e34-785720c64e7d","system_id":"levelo_inurba_marseille","lat":43.298433,"lon":5.362774,"is_reserved":false,"is_disabled":false,"rental_uris":{"android":"levelo://app?vid=a02b7016-f166-4366-8e34-785720c64e7d","ios":"levelo://app?vid=a02b7016-f166-4366-8e34-785720c64e7d"},"vehicle_type_id":"4","last_reported":1685192826,"current_range_meters":23200,"station_id":"ce4bgpp2rcd13ifvqc3g","pricing_plan_id":"free"},{"bike_id":"18b069c6-6e04-441b-9b3a-6f719a4ac802","system_id":"levelo_inurba_marseille","lat":43.29838,"lon":5.36268,"is_reserved":false,"is_disabled":false,"rental_uris":{"android":"levelo://app?vid=18b069c6-6e04-441b-9b3a-6f719a4ac802","ios":"levelo://app?vid=18b069c6-6e04-441b-9b3a-6f719a4ac802"},"vehicle_type_id":"4","last_reported":1685192826,"current_range_meters":9600,"station_id":"ce4bgpp2rcd13ifvqc3g","pricing_plan_id":"free"},{"bike_id":"db50a01d-befe-4eb4-8a1d-357b03872a02","system_id":"levelo_inurba_marseille","lat":43.29913,"lon":5.37472,"is_reserved":false,"is_disabled":false,"rental_uris":{"android":"levelo://app?vid=db50a01d-befe-4eb4-8a1d-357b03872a02","ios":"levelo://app?vid=db50a01d-befe-4eb4-8a1d-357b03872a02"},"vehicle_type_id":"4","last_reported":1685192826,"current_range_meters":24000,"station_id":"ce4bgjh2rcd13ifvqbg0","pricing_plan_id":"free"},{"bike_id":"96edd83b-334b-483f-80be-76640f7098ac","system_id":"levelo_inurba_marseille","lat":43.297794,"lon":5.370888,"is_reserved":false,"is_disabled":false,"rental_uris":{"android":"levelo://app?vid=96edd83b-334b-483f-80be-76640f7098ac","ios":"levelo://app?vid=96edd83b-334b-483f-80be-76640f7098ac"},"vehicle_type_id":"4","last_reported":1685192826,"current_range_meters":0,"station_id":"ce4bgop2rcd13ifvqc1g","pricing_plan_id":"free"},{"bike_id":"6aadd20f-ee22-42f7-9c69-f3066c5dfcf1","system_id":"levelo_inurba_marseille","lat":43.328371,"lon":5.366909,"is_reserved":false,"is_disabled":false,"rental_uris":{"android":"levelo://app?vid=6aadd20f-ee22-42f7-9c69-f3066c5dfcf1","ios":"levelo://app?vid=6aadd20f-ee22-42f7-9c69-f3066c5dfcf1"},"vehicle_type_id":"4","last_reported":1685192826,"current_range_meters":15600,"station_id":"ce4bhs92rcd13ifvqi0g","pricing_plan_id":"free"},{"bike_id":"7ce3d098-4510-412f-8173-acef5f3caaab","system_id":"levelo_inurba_marseille","lat":43.32827,"lon":5.36691,"is_reserved":false,"is_disabled":false,"rental_uris":{"android":"levelo://app?vid=7ce3d098-4510-412f-8173-acef5f3caaab","ios":"levelo://app?vid=7ce3d098-4510-412f-8173-acef5f3caaab"},"vehicle_type_id":"4","last_reported":1685192826,"current_range_meters":0,"station_id":"ce4bhs92rcd13ifvqi0g","pricing_plan_id":"free"},{"bike_id":"15bdd509-ac6b-486d-a3af-74b1c552f2cb","system_id":"levelo_inurba_marseille","lat":43.3283,"lon":5.3669,"is_reserved":false,"is_disabled":false,"rental_uris":{"android":"levelo://app?vid=15bdd509-ac6b-486d-a3af-74b1c552f2cb","ios":"levelo://app?vid=15bdd509-ac6b-486d-a3af-74b1c552f2cb"},"vehicle_type_id":"4","last_reported":1685192826,"current_range_meters":11600,"station_id":"ce4bhs92rcd13ifvqi0g","pricing_plan_id":"free"},{"bike_id":"54716154-8db0-4266-ab8e-a58a594b5020","system_id":"levelo_inurba_marseille","lat":43.32846,"lon":5.36518,"is_reserved":false,"is_disabled":false,"rental_uris":{"android":"levelo://app?vid=54716154-8db0-4266-ab8e-a58a594b5020","ios":"levelo://app?vid=54716154-8db0-4266-ab8e-a58a594b5020"},"vehicle_type_id":"4","last_reported":1685192826,"current_range_meters":0,"station_id":"","pricing_plan_id":"free"},{"bike_id":"454c4fb6-b039-49dd-b83f-9a983b97c4de","system_id":"levelo_inurba_marseille","lat":43.2968,"lon":5.37291,"is_reserved":false,"is_disabled":false,"rental_uris":{"android":"levelo://app?vid=454c4fb6-b039-49dd-b83f-9a983b97c4de","ios":"levelo://app?vid=454c4fb6-b039-49dd-b83f-9a983b97c4de"},"vehicle_type_id":"4","last_reported":1685192826,"current_range_meters":28800,"station_id":"ce4bgk12rcd13ifvqbj0","pricing_plan_id":"free"},{"bike_id":"23c4d7fe-2908-4fc0-881d-888eb27d4a0b","system_id":"levelo_inurba_marseille","lat":43.296935,"lon":5.376544,"is_reserved":false,"is_disabled":false,"rental_uris":{"android":"levelo://app?vid=23c4d7fe-2908-4fc0-881d-888eb27d4a0b","ios":"levelo://app?vid=23c4d7fe-2908-4fc0-881d-888eb27d4a0b"},"vehicle_type_id":"4","last_reported":1685192826,"current_range_meters":22400,"station_id":"ce4bgkh2rcd13ifvqbl0","pricing_plan_id":"free"},{"bike_id":"0af20c65-9ad3-40cf-bbc9-b8bfd395fcf7","system_id":"levelo_inurba_marseille","lat":43.29707,"lon":5.37754,"is_reserved":false,"is_disabled":false,"rental_uris":{"android":"levelo://app?vid=0af20c65-9ad3-40cf-bbc9-b8bfd395fcf7","ios":"levelo://app?vid=0af20c65-9ad3-40cf-bbc9-b8bfd395fcf7"},"vehicle_type_id":"4","last_reported":1685192826,"current_range_meters":0,"station_id":"","pricing_plan_id":"free"},{"bike_id":"13535b40-dd94-4597-953f-9338ab55c854","system_id":"levelo_inurba_marseille","lat":43.304278,"lon":5.388868,"is_reserved":false,"is_disabled":false,"rental_uris":{"android":"levelo://app?vid=13535b40-dd94-4597-953f-9338ab55c854","ios":"levelo://app?vid=13535b40-dd94-4597-953f-9338ab55c854"},"vehicle_type_id":"4","last_reported":1685192826,"current_range_meters":16800,"station_id":"ce4bgk12rcd13ifvqbi0","pricing_plan_id":"free"},{"bike_id":"13494400-39a7-4394-aae7-2e06e1666fd0","system_id":"levelo_inurba_marseille","lat":43.298037,"lon":5.381066,"is_reserved":false,"is_disabled":false,"rental_uris":{"android":"levelo://app?vid=13494400-39a7-4394-aae7-2e06e1666fd0","ios":"levelo://app?vid=13494400-39a7-4394-aae7-2e06e1666fd0"},"vehicle_type_id":"4","last_reported":1685192826,"current_range_meters":3600,"station_id":"ce4bgip2rcd13ifvqbb0","pricing_plan_id":"free"},{"bike_id":"3b895094-43e2-420f-a81c-aab9a64c2607","system_id":"levelo_inurba_marseille","lat":43.29623,"lon":5.37725,"is_reserved":false,"is_disabled":false,"rental_uris":{"android":"levelo://app?vid=3b895094-43e2-420f-a81c-aab9a64c2607","ios":"levelo://app?vid=3b895094-43e2-420f-a81c-aab9a64c2607"},"vehicle_type_id":"4","last_reported":1685192826,"current_range_meters":0,"station_id":"ce4bgi92rcd13ifvqb90","pricing_plan_id":"free"},{"bike_id":"48d1bc47-a8a8-4937-8224-65df9e098874","system_id":"levelo_inurba_marseille","lat":43.29556,"lon":5.37516,"is_reserved":false,"is_disabled":false,"rental_uris":{"android":"levelo://app?vid=48d1bc47-a8a8-4937-8224-65df9e098874","ios":"levelo://app?vid=48d1bc47-a8a8-4937-8224-65df9e098874"},"vehicle_type_id":"4","last_reported":1685192826,"current_range_meters":19600,"station_id":"ce4bgh92rcd13ifvqb50","pricing_plan_id":"free"},{"bike_id":"6fbbbef0-d2a8-4c70-8cea-50dbc98ee959","system_id":"levelo_inurba_marseille","lat":43.2954,"lon":5.37504,"is_reserved":false,"is_disabled":false,"rental_uris":{"android":"levelo://app?vid=6fbbbef0-d2a8-4c70-8cea-50dbc98ee959","ios":"levelo://app?vid=6fbbbef0-d2a8-4c70-8cea-50dbc98ee959"},"vehicle_type_id":"4","last_reported":1685192826,"current_range_meters":25200,"station_id":"ce4bgkp2rcd13ifvqbmg","pricing_plan_id":"free"},{"bike_id":"9417c2e5-f7af-4daa-8dab-295f3b2985f0","system_id":"levelo_inurba_marseille","lat":43.295279,"lon":5.375048,"is_reserved":false,"is_disabled":false,"rental_uris":{"android":"levelo://app?vid=9417c2e5-f7af-4daa-8dab-295f3b2985f0","ios":"levelo://app?vid=9417c2e5-f7af-4daa-8dab-295f3b2985f0"},"vehicle_type_id":"4","last_reported":1685192826,"current_range_meters":25600,"station_id":"ce4bgkp2rcd13ifvqbmg","pricing_plan_id":"free"},{"bike_id":"bc3c68b1-894f-4484-ba81-10ca4057acf3","system_id":"levelo_inurba_marseille","lat":43.296823,"lon":5.381254,"is_reserved":false,"is_disabled":false,"rental_uris":{"android":"levelo://app?vid=bc3c68b1-894f-4484-ba81-10ca4057acf3","ios":"levelo://app?vid=bc3c68b1-894f-4484-ba81-10ca4057acf3"},"vehicle_type_id":"4","last_reported":1685192826,"current_range_meters":18000,"station_id":"","pricing_plan_id":"free"},{"bike_id":"3289b7bc-6138-4ebb-8d82-2b0e69f1f911","system_id":"levelo_inurba_marseille","lat":43.296556,"lon":5.381226,"is_reserved":false,"is_disabled":false,"rental_uris":{"android":"levelo://app?vid=3289b7bc-6138-4ebb-8d82-2b0e69f1f911","ios":"levelo://app?vid=3289b7bc-6138-4ebb-8d82-2b0e69f1f911"},"vehicle_type_id":"4","last_reported":1685192826,"current_range_meters":0,"station_id":"","pricing_plan_id":"free"},{"bike_id":"6a8b7d1f-c892-4ce6-a6aa-a7ae378f1500","system_id":"levelo_inurba_marseille","lat":43.32367,"lon":5.388836,"is_reserved":false,"is_disabled":false,"rental_uris":{"android":"levelo://app?vid=6a8b7d1f-c892-4ce6-a6aa-a7ae378f1500","ios":"levelo://app?vid=6a8b7d1f-c892-4ce6-a6aa-a7ae378f1500"},"vehicle_type_id":"4","last_reported":1685192826,"current_range_meters":20400,"station_id":"ce4bhqp2rcd13ifvqhog","pricing_plan_id":"free"},{"bike_id":"aa17a3bc-9954-46ab-923d-c0fa0ccaa1c4","system_id":"levelo_inurba_marseille","lat":43.32361,"lon":5.38884,"is_reserved":false,"is_disabled":false,"rental_uris":{"android":"levelo://app?vid=aa17a3bc-9954-46ab-923d-c0fa0ccaa1c4","ios":"levelo://app?vid=aa17a3bc-9954-46ab-923d-c0fa0ccaa1c4"},"vehicle_type_id":"4","last_reported":1685192826,"current_range_meters":2000,"station_id":"ce4bhqp2rcd13ifvqhog","pricing_plan_id":"free"},{"bike_id":"60b36379-0779-4973-a7cb-31566c057c76","system_id":"levelo_inurba_marseille","lat":43.292749,"lon":5.368402,"is_reserved":false,"is_disabled":false,"rental_uris":{"android":"levelo://app?vid=60b36379-0779-4973-a7cb-31566c057c76","ios":"levelo://app?vid=60b36379-0779-4973-a7cb-31566c057c76"},"vehicle_type_id":"4","last_reported":1685192826,"current_range_meters":6400,"station_id":"ce4bhbp2rcd13ifvqesg","pricing_plan_id":"free"},{"bike_id":"4ab11f75-5d04-474e-a2a0-7e842f1c0b62","system_id":"levelo_inurba_marseille","lat":43.293249,"lon":5.371578,"is_reserved":false,"is_disabled":false,"rental_uris":{"android":"levelo://app?vid=4ab11f75-5d04-474e-a2a0-7e842f1c0b62","ios":"levelo://app?vid=4ab11f75-5d04-474e-a2a0-7e842f1c0b62"},"vehicle_type_id":"4","last_reported":1685192826,"current_range_meters":16800,"station_id":"ce4bgh92rcd13ifvqb40","pricing_plan_id":"free"},{"bike_id":"11b79b64-0583-4206-8cea-eb41406c0bf8","system_id":"levelo_inurba_marseille","lat":43.293009,"lon":5.374584,"is_reserved":false,"is_disabled":false,"rental_uris":{"android":"levelo://app?vid=11b79b64-0583-4206-8cea-eb41406c0bf8","ios":"levelo://app?vid=11b79b64-0583-4206-8cea-eb41406c0bf8"},"vehicle_type_id":"4","last_reported":1685192826,"current_range_meters":23600,"station_id":"ce4bgi12rcd13ifvqb70","pricing_plan_id":"free"},{"bike_id":"d3ab44dd-e707-409c-b960-3b5c5ec80fad","system_id":"levelo_inurba_marseille","lat":43.254947,"lon":5.376454,"is_reserved":false,"is_disabled":false,"rental_uris":{"android":"levelo://app?vid=d3ab44dd-e707-409c-b960-3b5c5ec80fad","ios":"levelo://app?vid=d3ab44dd-e707-409c-b960-3b5c5ec80fad"},"vehicle_type_id":"4","last_reported":1685192826,"current_range_meters":25600,"station_id":"ce4bhh12rcd13ifvqff0","pricing_plan_id":"free"},{"bike_id":"9657cef7-e1fe-4808-84d6-ff13a0dac5f9","system_id":"levelo_inurba_marseille","lat":43.300852,"lon":5.390859,"is_reserved":false,"is_disabled":false,"rental_uris":{"android":"levelo://app?vid=9657cef7-e1fe-4808-84d6-ff13a0dac5f9","ios":"levelo://app?vid=9657cef7-e1fe-4808-84d6-ff13a0dac5f9"},"vehicle_type_id":"4","last_reported":1685192826,"current_range_meters":12800,"station_id":"ce4bh192rcd13ifvqdb0","pricing_plan_id":"free"},{"bike_id":"3dd59001-a732-4424-b6ec-4d77b2524572","system_id":"levelo_inurba_marseille","lat":43.291994,"lon":5.357886,"is_reserved":false,"is_disabled":false,"rental_uris":{"android":"levelo://app?vid=3dd59001-a732-4424-b6ec-4d77b2524572","ios":"levelo://app?vid=3dd59001-a732-4424-b6ec-4d77b2524572"},"vehicle_type_id":"4","last_reported":1685192826,"current_range_meters":4400,"station_id":"ce4bhb12rcd13ifvqel0","pricing_plan_id":"free"},{"bike_id":"0b96247d-8577-4011-8118-be80ac1792e1","system_id":"levelo_inurba_marseille","lat":43.309038,"lon":5.396546,"is_reserved":false,"is_disabled":false,"rental_uris":{"android":"levelo://app?vid=0b96247d-8577-4011-8118-be80ac1792e1","ios":"levelo://app?vid=0b96247d-8577-4011-8118-be80ac1792e1"},"vehicle_type_id":"4","last_reported":1685192826,"current_range_meters":800,"station_id":"ce4bh012rcd13ifvqcv0","pricing_plan_id":"free"},{"bike_id":"c69e29d8-c26e-4938-b93c-2c0ade49cf8a","system_id":"levelo_inurba_marseille","lat":43.290779,"lon":5.371482,"is_reserved":false,"is_disabled":false,"rental_uris":{"android":"levelo://app?vid=c69e29d8-c26e-4938-b93c-2c0ade49cf8a","ios":"levelo://app?vid=c69e29d8-c26e-4938-b93c-2c0ade49cf8a"},"vehicle_type_id":"4","last_reported":1685192826,"current_range_meters":26800,"station_id":"ce4bh5p2rcd13ifvqe4g","pricing_plan_id":"free"},{"bike_id":"06e0371c-496e-4681-a83e-45500a0f00de","system_id":"levelo_inurba_marseille","lat":43.29043,"lon":5.35905,"is_reserved":false,"is_disabled":false,"rental_uris":{"android":"levelo://app?vid=06e0371c-496e-4681-a83e-45500a0f00de","ios":"levelo://app?vid=06e0371c-496e-4681-a83e-45500a0f00de"},"vehicle_type_id":"4","last_reported":1685192826,"current_range_meters":0,"station_id":"","pricing_plan_id":"free"},{"bike_id":"697593b3-8c65-4aac-8a3f-205ab6d176aa","system_id":"levelo_inurba_marseille","lat":43.290631,"lon":5.359244,"is_reserved":false,"is_disabled":false,"rental_uris":{"android":"levelo://app?vid=697593b3-8c65-4aac-8a3f-205ab6d176aa","ios":"levelo://app?vid=697593b3-8c65-4aac-8a3f-205ab6d176aa"},"vehicle_type_id":"4","last_reported":1685192826,"current_range_meters":29600,"station_id":"ce4bha92rcd13ifvqeg0","pricing_plan_id":"free"},{"bike_id":"3b4de78f-0f02-4c3f-ac70-d0ac5a1b22b3","system_id":"levelo_inurba_marseille","lat":43.290327,"lon":5.375711,"is_reserved":false,"is_disabled":false,"rental_uris":{"android":"levelo://app?vid=3b4de78f-0f02-4c3f-ac70-d0ac5a1b22b3","ios":"levelo://app?vid=3b4de78f-0f02-4c3f-ac70-d0ac5a1b22b3"},"vehicle_type_id":"4","last_reported":1685192826,"current_range_meters":6400,"station_id":"ce4bh692rcd13ifvqe90","pricing_plan_id":"free"},{"bike_id":"c0c505af-80da-431f-957c-8bcc3d0fc408","system_id":"levelo_inurba_marseille","lat":43.29006,"lon":5.35608,"is_reserved":false,"is_disabled":false,"rental_uris":{"android":"levelo://app?vid=c0c505af-80da-431f-957c-8bcc3d0fc408","ios":"levelo://app?vid=c0c505af-80da-431f-957c-8bcc3d0fc408"},"vehicle_type_id":"4","last_reported":1685192826,"current_range_meters":6800,"station_id":"ce4bhb92rcd13ifvqen0","pricing_plan_id":"free"},{"bike_id":"dd020841-115f-418e-9737-91c9f1dbfed9","system_id":"levelo_inurba_marseille","lat":43.29004,"lon":5.35608,"is_reserved":false,"is_disabled":false,"rental_uris":{"android":"levelo://app?vid=dd020841-115f-418e-9737-91c9f1dbfed9","ios":"levelo://app?vid=dd020841-115f-418e-9737-91c9f1dbfed9"},"vehicle_type_id":"4","last_reported":1685192826,"current_range_meters":0,"station_id":"ce4bhb92rcd13ifvqen0","pricing_plan_id":"free"},{"bike_id":"737b337b-234d-4d02-b7a1-09e66e10952f","system_id":"levelo_inurba_marseille","lat":43.2901,"lon":5.381269,"is_reserved":false,"is_disabled":false,"rental_uris":{"android":"levelo://app?vid=737b337b-234d-4d02-b7a1-09e66e10952f","ios":"levelo://app?vid=737b337b-234d-4d02-b7a1-09e66e10952f"},"vehicle_type_id":"4","last_reported":1685192826,"current_range_meters":0,"station_id":"ce4bh4p2rcd13ifvqe1g","pricing_plan_id":"free"},{"bike_id":"b704ad5d-3c68-4321-b374-3a0f352ceeb8","system_id":"levelo_inurba_marseille","lat":43.28856,"lon":5.358371,"is_reserved":false,"is_disabled":false,"rental_uris":{"android":"levelo://app?vid=b704ad5d-3c68-4321-b374-3a0f352ceeb8","ios":"levelo://app?vid=b704ad5d-3c68-4321-b374-3a0f352ceeb8"},"vehicle_type_id":"4","last_reported":1685192826,"current_range_meters":12000,"station_id":"ce4bhb12rcd13ifvqem0","pricing_plan_id":"free"},{"bike_id":"c67b547c-3fcb-4384-8614-e15f558fec55","system_id":"levelo_inurba_marseille","lat":43.33744,"lon":5.37451,"is_reserved":false,"is_disabled":false,"rental_uris":{"android":"levelo://app?vid=c67b547c-3fcb-4384-8614-e15f558fec55","ios":"levelo://app?vid=c67b547c-3fcb-4384-8614-e15f558fec55"},"vehicle_type_id":"4","last_reported":1685192826,"current_range_meters":31200,"station_id":"","pricing_plan_id":"free"},{"bike_id":"556c6db1-2600-4c2b-9521-aae8453517c1","system_id":"levelo_inurba_marseille","lat":43.33749,"lon":5.37449,"is_reserved":false,"is_disabled":false,"rental_uris":{"android":"levelo://app?vid=556c6db1-2600-4c2b-9521-aae8453517c1","ios":"levelo://app?vid=556c6db1-2600-4c2b-9521-aae8453517c1"},"vehicle_type_id":"4","last_reported":1685192826,"current_range_meters":18000,"station_id":"","pricing_plan_id":"free"},{"bike_id":"9e8ba907-b276-46b3-a0d4-643791b8cf62","system_id":"levelo_inurba_marseille","lat":43.3375,"lon":5.37448,"is_reserved":false,"is_disabled":false,"rental_uris":{"android":"levelo://app?vid=9e8ba907-b276-46b3-a0d4-643791b8cf62","ios":"levelo://app?vid=9e8ba907-b276-46b3-a0d4-643791b8cf62"},"vehicle_type_id":"4","last_reported":1685192826,"current_range_meters":30400,"station_id":"","pricing_plan_id":"free"},{"bike_id":"21bebb90-bd37-4351-9ead-f26273aea005","system_id":"levelo_inurba_marseille","lat":43.33751,"lon":5.37448,"is_reserved":false,"is_disabled":false,"rental_uris":{"android":"levelo://app?vid=21bebb90-bd37-4351-9ead-f26273aea005","ios":"levelo://app?vid=21bebb90-bd37-4351-9ead-f26273aea005"},"vehicle_type_id":"4","last_reported":1685192826,"current_range_meters":15600,"station_id":"","pricing_plan_id":"free"},{"bike_id":"141c14ea-594b-43ee-894e-8c44af1dcd73","system_id":"levelo_inurba_marseille","lat":43.33751,"lon":5.37449,"is_reserved":false,"is_disabled":false,"rental_uris":{"android":"levelo://app?vid=141c14ea-594b-43ee-894e-8c44af1dcd73","ios":"levelo://app?vid=141c14ea-594b-43ee-894e-8c44af1dcd73"},"vehicle_type_id":"4","last_reported":1685192826,"current_range_meters":11600,"station_id":"","pricing_plan_id":"free"},{"bike_id":"5aaf445f-f097-4041-99e9-0b2edc8a39b1","system_id":"levelo_inurba_marseille","lat":43.33754,"lon":5.37434,"is_reserved":false,"is_disabled":false,"rental_uris":{"android":"levelo://app?vid=5aaf445f-f097-4041-99e9-0b2edc8a39b1","ios":"levelo://app?vid=5aaf445f-f097-4041-99e9-0b2edc8a39b1"},"vehicle_type_id":"4","last_reported":1685192826,"current_range_meters":24800,"station_id":"","pricing_plan_id":"free"},{"bike_id":"4a9be2f7-5d74-4d13-b74a-62d2aef957fc","system_id":"levelo_inurba_marseille","lat":43.337564,"lon":5.374517,"is_reserved":false,"is_disabled":false,"rental_uris":{"android":"levelo://app?vid=4a9be2f7-5d74-4d13-b74a-62d2aef957fc","ios":"levelo://app?vid=4a9be2f7-5d74-4d13-b74a-62d2aef957fc"},"vehicle_type_id":"4","last_reported":1685192826,"current_range_meters":30800,"station_id":"","pricing_plan_id":"free"},{"bike_id":"731e040c-881f-4646-a3a6-9292ec5c2853","system_id":"levelo_inurba_marseille","lat":43.30642,"lon":5.401031,"is_reserved":false,"is_disabled":false,"rental_uris":{"android":"levelo://app?vid=731e040c-881f-4646-a3a6-9292ec5c2853","ios":"levelo://app?vid=731e040c-881f-4646-a3a6-9292ec5c2853"},"vehicle_type_id":"4","last_reported":1685192826,"current_range_meters":9600,"station_id":"ce4bh112rcd13ifvqda0","pricing_plan_id":"free"},{"bike_id":"9f5e48a4-ba7e-4368-a2fd-c44e3ca674f7","system_id":"levelo_inurba_marseille","lat":43.287184,"lon":5.37937,"is_reserved":false,"is_disabled":false,"rental_uris":{"android":"levelo://app?vid=9f5e48a4-ba7e-4368-a2fd-c44e3ca674f7","ios":"levelo://app?vid=9f5e48a4-ba7e-4368-a2fd-c44e3ca674f7"},"vehicle_type_id":"4","last_reported":1685192826,"current_range_meters":20800,"station_id":"ce4bh9p2rcd13ifvqec0","pricing_plan_id":"free"},{"bike_id":"4ebe09ea-bbd9-477a-ad27-805daef49ec1","system_id":"levelo_inurba_marseille","lat":43.3164,"lon":5.40439,"is_reserved":false,"is_disabled":false,"rental_uris":{"android":"levelo://app?vid=4ebe09ea-bbd9-477a-ad27-805daef49ec1","ios":"levelo://app?vid=4ebe09ea-bbd9-477a-ad27-805daef49ec1"},"vehicle_type_id":"4","last_reported":1685192826,"current_range_meters":0,"station_id":"ce4bh012rcd13ifvqd00","pricing_plan_id":"free"},{"bike_id":"eb173b22-5dcf-4a8e-9f3d-01adbc37fde2","system_id":"levelo_inurba_marseille","lat":43.28482,"lon":5.37281,"is_reserved":false,"is_disabled":false,"rental_uris":{"android":"levelo://app?vid=eb173b22-5dcf-4a8e-9f3d-01adbc37fde2","ios":"levelo://app?vid=eb173b22-5dcf-4a8e-9f3d-01adbc37fde2"},"vehicle_type_id":"4","last_reported":1685192826,"current_range_meters":12800,"station_id":"","pricing_plan_id":"free"},{"bike_id":"e4bbd4f5-73c2-4ca7-804f-f290ef48c060","system_id":"levelo_inurba_marseille","lat":43.316068,"lon":5.406451,"is_reserved":false,"is_disabled":false,"rental_uris":{"android":"levelo://app?vid=e4bbd4f5-73c2-4ca7-804f-f290ef48c060","ios":"levelo://app?vid=e4bbd4f5-73c2-4ca7-804f-f290ef48c060"},"vehicle_type_id":"4","last_reported":1685192826,"current_range_meters":25200,"station_id":"ce4bh012rcd13ifvqd00","pricing_plan_id":"free"},{"bike_id":"ce3c8e01-c69b-4661-99e4-de25835e9964","system_id":"levelo_inurba_marseille","lat":43.295713,"lon":5.399639,"is_reserved":false,"is_disabled":false,"rental_uris":{"android":"levelo://app?vid=ce3c8e01-c69b-4661-99e4-de25835e9964","ios":"levelo://app?vid=ce3c8e01-c69b-4661-99e4-de25835e9964"},"vehicle_type_id":"4","last_reported":1685192826,"current_range_meters":7600,"station_id":"ce4bh312rcd13ifvqdj0","pricing_plan_id":"free"},{"bike_id":"35e09f16-ffda-4f5a-8e58-a67b737b6e44","system_id":"levelo_inurba_marseille","lat":43.286595,"lon":5.386795,"is_reserved":false,"is_disabled":false,"rental_uris":{"android":"levelo://app?vid=35e09f16-ffda-4f5a-8e58-a67b737b6e44","ios":"levelo://app?vid=35e09f16-ffda-4f5a-8e58-a67b737b6e44"},"vehicle_type_id":"4","last_reported":1685192826,"current_range_meters":11200,"station_id":"ce4bh492rcd13ifvqdug","pricing_plan_id":"free"},{"bike_id":"313049e2-232c-4f54-9b26-81086cea8884","system_id":"levelo_inurba_marseille","lat":43.33724,"lon":5.39183,"is_reserved":false,"is_disabled":false,"rental_uris":{"android":"levelo://app?vid=313049e2-232c-4f54-9b26-81086cea8884","ios":"levelo://app?vid=313049e2-232c-4f54-9b26-81086cea8884"},"vehicle_type_id":"4","last_reported":1685192826,"current_range_meters":8800,"station_id":"","pricing_plan_id":"free"},{"bike_id":"f7643fda-0266-4755-82bf-fcd27a6a7f7a","system_id":"levelo_inurba_marseille","lat":43.323464,"lon":5.406297,"is_reserved":false,"is_disabled":false,"rental_uris":{"android":"levelo://app?vid=f7643fda-0266-4755-82bf-fcd27a6a7f7a","ios":"levelo://app?vid=f7643fda-0266-4755-82bf-fcd27a6a7f7a"},"vehicle_type_id":"4","last_reported":1685192826,"current_range_meters":28400,"station_id":"ce4bhq92rcd13ifvqhjg","pricing_plan_id":"free"},{"bike_id":"d5fd31a8-b7a4-48f5-9751-f4ba7b16e78e","system_id":"levelo_inurba_marseille","lat":43.323464,"lon":5.406297,"is_reserved":false,"is_disabled":false,"rental_uris":{"android":"levelo://app?vid=d5fd31a8-b7a4-48f5-9751-f4ba7b16e78e","ios":"levelo://app?vid=d5fd31a8-b7a4-48f5-9751-f4ba7b16e78e"},"vehicle_type_id":"4","last_reported":1685192826,"current_range_meters":31200,"station_id":"ce4bhq92rcd13ifvqhjg","pricing_plan_id":"free"},{"bike_id":"c2665dea-19b3-4f00-9e51-3321eb6a6bbd","system_id":"levelo_inurba_marseille","lat":43.284217,"lon":5.349697,"is_reserved":false,"is_disabled":false,"rental_uris":{"android":"levelo://app?vid=c2665dea-19b3-4f00-9e51-3321eb6a6bbd","ios":"levelo://app?vid=c2665dea-19b3-4f00-9e51-3321eb6a6bbd"},"vehicle_type_id":"4","last_reported":1685192826,"current_range_meters":22400,"station_id":"ce4bhbh2rcd13ifvqepg","pricing_plan_id":"free"},{"bike_id":"8f6b0a5f-929b-4f17-aa74-57e57e6bcaa8","system_id":"levelo_inurba_marseille","lat":43.28425,"lon":5.34982,"is_reserved":false,"is_disabled":false,"rental_uris":{"android":"levelo://app?vid=8f6b0a5f-929b-4f17-aa74-57e57e6bcaa8","ios":"levelo://app?vid=8f6b0a5f-929b-4f17-aa74-57e57e6bcaa8"},"vehicle_type_id":"4","last_reported":1685192826,"current_range_meters":14000,"station_id":"ce4bhbh2rcd13ifvqepg","pricing_plan_id":"free"},{"bike_id":"9f32c4b1-e356-4314-bc55-18a3eeba59c4","system_id":"levelo_inurba_marseille","lat":43.28423,"lon":5.34987,"is_reserved":false,"is_disabled":false,"rental_uris":{"android":"levelo://app?vid=9f32c4b1-e356-4314-bc55-18a3eeba59c4","ios":"levelo://app?vid=9f32c4b1-e356-4314-bc55-18a3eeba59c4"},"vehicle_type_id":"4","last_reported":1685192826,"current_range_meters":18400,"station_id":"ce4bhbh2rcd13ifvqepg","pricing_plan_id":"free"},{"bike_id":"b1ff8838-a358-4e94-a60d-ce2eb23073e5","system_id":"levelo_inurba_marseille","lat":43.28422,"lon":5.34988,"is_reserved":false,"is_disabled":false,"rental_uris":{"android":"levelo://app?vid=b1ff8838-a358-4e94-a60d-ce2eb23073e5","ios":"levelo://app?vid=b1ff8838-a358-4e94-a60d-ce2eb23073e5"},"vehicle_type_id":"4","last_reported":1685192826,"current_range_meters":10400,"station_id":"ce4bhbh2rcd13ifvqepg","pricing_plan_id":"free"},{"bike_id":"b9d2c794-3df5-4e61-8116-62d6ba349af2","system_id":"levelo_inurba_marseille","lat":43.284219,"lon":5.3497,"is_reserved":false,"is_disabled":false,"rental_uris":{"android":"levelo://app?vid=b9d2c794-3df5-4e61-8116-62d6ba349af2","ios":"levelo://app?vid=b9d2c794-3df5-4e61-8116-62d6ba349af2"},"vehicle_type_id":"4","last_reported":1685192826,"current_range_meters":15200,"station_id":"ce4bhbh2rcd13ifvqepg","pricing_plan_id":"free"},{"bike_id":"7661bca5-e0b2-41fd-9c7e-8f1cb9507ce0","system_id":"levelo_inurba_marseille","lat":43.28425,"lon":5.34975,"is_reserved":false,"is_disabled":false,"rental_uris":{"android":"levelo://app?vid=7661bca5-e0b2-41fd-9c7e-8f1cb9507ce0","ios":"levelo://app?vid=7661bca5-e0b2-41fd-9c7e-8f1cb9507ce0"},"vehicle_type_id":"4","last_reported":1685192826,"current_range_meters":20800,"station_id":"ce4bhbh2rcd13ifvqepg","pricing_plan_id":"free"},{"bike_id":"f6c3cab7-575e-4eca-b594-41fa4404b817","system_id":"levelo_inurba_marseille","lat":43.28421,"lon":5.34985,"is_reserved":false,"is_disabled":false,"rental_uris":{"android":"levelo://app?vid=f6c3cab7-575e-4eca-b594-41fa4404b817","ios":"levelo://app?vid=f6c3cab7-575e-4eca-b594-41fa4404b817"},"vehicle_type_id":"4","last_reported":1685192826,"current_range_meters":8400,"station_id":"ce4bhbh2rcd13ifvqepg","pricing_plan_id":"free"},{"bike_id":"4d4b1069-3848-4241-a864-bfb6b1d713e5","system_id":"levelo_inurba_marseille","lat":43.284219,"lon":5.3497,"is_reserved":false,"is_disabled":false,"rental_uris":{"android":"levelo://app?vid=4d4b1069-3848-4241-a864-bfb6b1d713e5","ios":"levelo://app?vid=4d4b1069-3848-4241-a864-bfb6b1d713e5"},"vehicle_type_id":"4","last_reported":1685192826,"current_range_meters":26000,"station_id":"ce4bhbh2rcd13ifvqepg","pricing_plan_id":"free"},{"bike_id":"883e8c60-1fc9-421c-91c2-08c736cb7c25","system_id":"levelo_inurba_marseille","lat":43.284217,"lon":5.349697,"is_reserved":false,"is_disabled":false,"rental_uris":{"android":"levelo://app?vid=883e8c60-1fc9-421c-91c2-08c736cb7c25","ios":"levelo://app?vid=883e8c60-1fc9-421c-91c2-08c736cb7c25"},"vehicle_type_id":"4","last_reported":1685192826,"current_range_meters":25600,"station_id":"ce4bhbh2rcd13ifvqepg","pricing_plan_id":"free"},{"bike_id":"c6b9925f-6913-4284-ac2d-db9a2ae9b39a","system_id":"levelo_inurba_marseille","lat":43.284217,"lon":5.349697,"is_reserved":false,"is_disabled":false,"rental_uris":{"android":"levelo://app?vid=c6b9925f-6913-4284-ac2d-db9a2ae9b39a","ios":"levelo://app?vid=c6b9925f-6913-4284-ac2d-db9a2ae9b39a"},"vehicle_type_id":"4","last_reported":1685192826,"current_range_meters":400,"station_id":"ce4bhbh2rcd13ifvqepg","pricing_plan_id":"free"},{"bike_id":"8243f533-f587-4826-a845-355261b16f03","system_id":"levelo_inurba_marseille","lat":43.284217,"lon":5.349697,"is_reserved":false,"is_disabled":false,"rental_uris":{"android":"levelo://app?vid=8243f533-f587-4826-a845-355261b16f03","ios":"levelo://app?vid=8243f533-f587-4826-a845-355261b16f03"},"vehicle_type_id":"4","last_reported":1685192826,"current_range_meters":15600,"station_id":"ce4bhbh2rcd13ifvqepg","pricing_plan_id":"free"},{"bike_id":"9a760311-9b3e-49ea-8ef2-955178f8f972","system_id":"levelo_inurba_marseille","lat":43.284217,"lon":5.349697,"is_reserved":false,"is_disabled":false,"rental_uris":{"android":"levelo://app?vid=9a760311-9b3e-49ea-8ef2-955178f8f972","ios":"levelo://app?vid=9a760311-9b3e-49ea-8ef2-955178f8f972"},"vehicle_type_id":"4","last_reported":1685192826,"current_range_meters":27600,"station_id":"ce4bhbh2rcd13ifvqepg","pricing_plan_id":"free"},{"bike_id":"a401912c-20c5-4b21-a1f0-e8165766764d","system_id":"levelo_inurba_marseille","lat":43.28417,"lon":5.34982,"is_reserved":false,"is_disabled":false,"rental_uris":{"android":"levelo://app?vid=a401912c-20c5-4b21-a1f0-e8165766764d","ios":"levelo://app?vid=a401912c-20c5-4b21-a1f0-e8165766764d"},"vehicle_type_id":"4","last_reported":1685192826,"current_range_meters":0,"station_id":"ce4bhbh2rcd13ifvqepg","pricing_plan_id":"free"},{"bike_id":"360dad79-c0b9-4e17-a48d-3dbbd628ffda","system_id":"levelo_inurba_marseille","lat":43.28413,"lon":5.34989,"is_reserved":false,"is_disabled":false,"rental_uris":{"android":"levelo://app?vid=360dad79-c0b9-4e17-a48d-3dbbd628ffda","ios":"levelo://app?vid=360dad79-c0b9-4e17-a48d-3dbbd628ffda"},"vehicle_type_id":"4","last_reported":1685192826,"current_range_meters":5200,"station_id":"ce4bhbh2rcd13ifvqepg","pricing_plan_id":"free"},{"bike_id":"8a408173-c053-42c9-9d56-a0a51a995382","system_id":"levelo_inurba_marseille","lat":43.284217,"lon":5.349697,"is_reserved":false,"is_disabled":false,"rental_uris":{"android":"levelo://app?vid=8a408173-c053-42c9-9d56-a0a51a995382","ios":"levelo://app?vid=8a408173-c053-42c9-9d56-a0a51a995382"},"vehicle_type_id":"4","last_reported":1685192826,"current_range_meters":31200,"station_id":"ce4bhbh2rcd13ifvqepg","pricing_plan_id":"free"},{"bike_id":"ce6c945b-7621-4d22-87a9-e82a2abf4d8d","system_id":"levelo_inurba_marseille","lat":43.284217,"lon":5.349697,"is_reserved":false,"is_disabled":false,"rental_uris":{"android":"levelo://app?vid=ce6c945b-7621-4d22-87a9-e82a2abf4d8d","ios":"levelo://app?vid=ce6c945b-7621-4d22-87a9-e82a2abf4d8d"},"vehicle_type_id":"4","last_reported":1685192826,"current_range_meters":0,"station_id":"ce4bhbh2rcd13ifvqepg","pricing_plan_id":"free"},{"bike_id":"15f8a350-458e-4065-af9c-53d47f02fef5","system_id":"levelo_inurba_marseille","lat":43.284217,"lon":5.349697,"is_reserved":false,"is_disabled":false,"rental_uris":{"android":"levelo://app?vid=15f8a350-458e-4065-af9c-53d47f02fef5","ios":"levelo://app?vid=15f8a350-458e-4065-af9c-53d47f02fef5"},"vehicle_type_id":"4","last_reported":1685192826,"current_range_meters":10800,"station_id":"ce4bhbh2rcd13ifvqepg","pricing_plan_id":"free"},{"bike_id":"b62b7ff7-db1c-48b3-8daa-a1a29634f47a","system_id":"levelo_inurba_marseille","lat":43.284217,"lon":5.349697,"is_reserved":false,"is_disabled":false,"rental_uris":{"android":"levelo://app?vid=b62b7ff7-db1c-48b3-8daa-a1a29634f47a","ios":"levelo://app?vid=b62b7ff7-db1c-48b3-8daa-a1a29634f47a"},"vehicle_type_id":"4","last_reported":1685192826,"current_range_meters":22800,"station_id":"ce4bhbh2rcd13ifvqepg","pricing_plan_id":"free"},{"bike_id":"f0ad7a79-16c3-43df-bb4d-8e6fe7552922","system_id":"levelo_inurba_marseille","lat":43.28271,"lon":5.35078,"is_reserved":false,"is_disabled":false,"rental_uris":{"android":"levelo://app?vid=f0ad7a79-16c3-43df-bb4d-8e6fe7552922","ios":"levelo://app?vid=f0ad7a79-16c3-43df-bb4d-8e6fe7552922"},"vehicle_type_id":"4","last_reported":1685192826,"current_range_meters":31200,"station_id":"ce4bhbp2rcd13ifvqerg","pricing_plan_id":"free"},{"bike_id":"775e3df4-a258-4a11-be98-12be7ed822a9","system_id":"levelo_inurba_marseille","lat":43.28274,"lon":5.35066,"is_reserved":false,"is_disabled":false,"rental_uris":{"android":"levelo://app?vid=775e3df4-a258-4a11-be98-12be7ed822a9","ios":"levelo://app?vid=775e3df4-a258-4a11-be98-12be7ed822a9"},"vehicle_type_id":"4","last_reported":1685192826,"current_range_meters":27200,"station_id":"ce4bhbp2rcd13ifvqerg","pricing_plan_id":"free"},{"bike_id":"ccb62037-949c-4787-84c6-573cb5800761","system_id":"levelo_inurba_marseille","lat":43.28273,"lon":5.35063,"is_reserved":false,"is_disabled":false,"rental_uris":{"android":"levelo://app?vid=ccb62037-949c-4787-84c6-573cb5800761","ios":"levelo://app?vid=ccb62037-949c-4787-84c6-573cb5800761"},"vehicle_type_id":"4","last_reported":1685192826,"current_range_meters":2000,"station_id":"ce4bhbp2rcd13ifvqerg","pricing_plan_id":"free"},{"bike_id":"f869e6ce-6832-4e76-b1ea-3b2990d92f24","system_id":"levelo_inurba_marseille","lat":43.28273,"lon":5.35061,"is_reserved":false,"is_disabled":false,"rental_uris":{"android":"levelo://app?vid=f869e6ce-6832-4e76-b1ea-3b2990d92f24","ios":"levelo://app?vid=f869e6ce-6832-4e76-b1ea-3b2990d92f24"},"vehicle_type_id":"4","last_reported":1685192826,"current_range_meters":1200,"station_id":"ce4bhbp2rcd13ifvqerg","pricing_plan_id":"free"},{"bike_id":"df876506-3bbf-41a1-aa9d-00b3da08ff5c","system_id":"levelo_inurba_marseille","lat":43.28267,"lon":5.35072,"is_reserved":false,"is_disabled":false,"rental_uris":{"android":"levelo://app?vid=df876506-3bbf-41a1-aa9d-00b3da08ff5c","ios":"levelo://app?vid=df876506-3bbf-41a1-aa9d-00b3da08ff5c"},"vehicle_type_id":"4","last_reported":1685192826,"current_range_meters":20800,"station_id":"ce4bhbp2rcd13ifvqerg","pricing_plan_id":"free"},{"bike_id":"7a5a47d0-7cd5-4aa6-a3e9-0f2a28ccd109","system_id":"levelo_inurba_marseille","lat":43.282744,"lon":5.350533,"is_reserved":false,"is_disabled":false,"rental_uris":{"android":"levelo://app?vid=7a5a47d0-7cd5-4aa6-a3e9-0f2a28ccd109","ios":"levelo://app?vid=7a5a47d0-7cd5-4aa6-a3e9-0f2a28ccd109"},"vehicle_type_id":"4","last_reported":1685192826,"current_range_meters":11200,"station_id":"ce4bhbp2rcd13ifvqerg","pricing_plan_id":"free"},{"bike_id":"1ee89efe-1057-4947-b604-5e008b79db8d","system_id":"levelo_inurba_marseille","lat":43.282744,"lon":5.350533,"is_reserved":false,"is_disabled":false,"rental_uris":{"android":"levelo://app?vid=1ee89efe-1057-4947-b604-5e008b79db8d","ios":"levelo://app?vid=1ee89efe-1057-4947-b604-5e008b79db8d"},"vehicle_type_id":"4","last_reported":1685192826,"current_range_meters":7200,"station_id":"ce4bhbp2rcd13ifvqerg","pricing_plan_id":"free"},{"bike_id":"d45f58aa-c07c-4d88-8a3c-10477c83ff0d","system_id":"levelo_inurba_marseille","lat":43.28266,"lon":5.35071,"is_reserved":false,"is_disabled":false,"rental_uris":{"android":"levelo://app?vid=d45f58aa-c07c-4d88-8a3c-10477c83ff0d","ios":"levelo://app?vid=d45f58aa-c07c-4d88-8a3c-10477c83ff0d"},"vehicle_type_id":"4","last_reported":1685192826,"current_range_meters":31200,"station_id":"ce4bhbp2rcd13ifvqerg","pricing_plan_id":"free"},{"bike_id":"5b732d47-2797-4953-b202-d5313eb48d52","system_id":"levelo_inurba_marseille","lat":43.28267,"lon":5.35067,"is_reserved":false,"is_disabled":false,"rental_uris":{"android":"levelo://app?vid=5b732d47-2797-4953-b202-d5313eb48d52","ios":"levelo://app?vid=5b732d47-2797-4953-b202-d5313eb48d52"},"vehicle_type_id":"4","last_reported":1685192826,"current_range_meters":2400,"station_id":"ce4bhbp2rcd13ifvqerg","pricing_plan_id":"free"},{"bike_id":"afca1b06-c4fe-43c2-a311-d3c326f9fee6","system_id":"levelo_inurba_marseille","lat":43.28268,"lon":5.35061,"is_reserved":false,"is_disabled":false,"rental_uris":{"android":"levelo://app?vid=afca1b06-c4fe-43c2-a311-d3c326f9fee6","ios":"levelo://app?vid=afca1b06-c4fe-43c2-a311-d3c326f9fee6"},"vehicle_type_id":"4","last_reported":1685192826,"current_range_meters":26800,"station_id":"ce4bhbp2rcd13ifvqerg","pricing_plan_id":"free"},{"bike_id":"297c2b86-275b-4a09-a3d6-ac2d2c9e3a70","system_id":"levelo_inurba_marseille","lat":43.282744,"lon":5.350533,"is_reserved":false,"is_disabled":false,"rental_uris":{"android":"levelo://app?vid=297c2b86-275b-4a09-a3d6-ac2d2c9e3a70","ios":"levelo://app?vid=297c2b86-275b-4a09-a3d6-ac2d2c9e3a70"},"vehicle_type_id":"4","last_reported":1685192826,"current_range_meters":31600,"station_id":"ce4bhbp2rcd13ifvqerg","pricing_plan_id":"free"},{"bike_id":"895b5132-2352-40d2-a70a-85149beefa20","system_id":"levelo_inurba_marseille","lat":43.28266,"lon":5.35065,"is_reserved":false,"is_disabled":false,"rental_uris":{"android":"levelo://app?vid=895b5132-2352-40d2-a70a-85149beefa20","ios":"levelo://app?vid=895b5132-2352-40d2-a70a-85149beefa20"},"vehicle_type_id":"4","last_reported":1685192826,"current_range_meters":6800,"station_id":"ce4bhbp2rcd13ifvqerg","pricing_plan_id":"free"},{"bike_id":"aa626edb-0756-470e-88ca-7ac8766fe570","system_id":"levelo_inurba_marseille","lat":43.282744,"lon":5.350533,"is_reserved":false,"is_disabled":false,"rental_uris":{"android":"levelo://app?vid=aa626edb-0756-470e-88ca-7ac8766fe570","ios":"levelo://app?vid=aa626edb-0756-470e-88ca-7ac8766fe570"},"vehicle_type_id":"4","last_reported":1685192826,"current_range_meters":26000,"station_id":"ce4bhbp2rcd13ifvqerg","pricing_plan_id":"free"},{"bike_id":"c5065fe5-d9be-478c-b3d9-c4a7fefd0631","system_id":"levelo_inurba_marseille","lat":43.28267,"lon":5.3506,"is_reserved":false,"is_disabled":false,"rental_uris":{"android":"levelo://app?vid=c5065fe5-d9be-478c-b3d9-c4a7fefd0631","ios":"levelo://app?vid=c5065fe5-d9be-478c-b3d9-c4a7fefd0631"},"vehicle_type_id":"4","last_reported":1685192826,"current_range_meters":24800,"station_id":"ce4bhbp2rcd13ifvqerg","pricing_plan_id":"free"},{"bike_id":"4f9a0629-93d3-4eb1-b384-e94d6dd532cf","system_id":"levelo_inurba_marseille","lat":43.28266,"lon":5.35063,"is_reserved":false,"is_disabled":false,"rental_uris":{"android":"levelo://app?vid=4f9a0629-93d3-4eb1-b384-e94d6dd532cf","ios":"levelo://app?vid=4f9a0629-93d3-4eb1-b384-e94d6dd532cf"},"vehicle_type_id":"4","last_reported":1685192826,"current_range_meters":31200,"station_id":"ce4bhbp2rcd13ifvqerg","pricing_plan_id":"free"},{"bike_id":"c549a5df-a34e-409d-8c4d-bd368c5f1ee7","system_id":"levelo_inurba_marseille","lat":43.282744,"lon":5.350533,"is_reserved":false,"is_disabled":false,"rental_uris":{"android":"levelo://app?vid=c549a5df-a34e-409d-8c4d-bd368c5f1ee7","ios":"levelo://app?vid=c549a5df-a34e-409d-8c4d-bd368c5f1ee7"},"vehicle_type_id":"4","last_reported":1685192826,"current_range_meters":31200,"station_id":"ce4bhbp2rcd13ifvqerg","pricing_plan_id":"free"},{"bike_id":"306048c7-6e51-4da3-8a8d-305e67bf5063","system_id":"levelo_inurba_marseille","lat":43.282744,"lon":5.350533,"is_reserved":false,"is_disabled":false,"rental_uris":{"android":"levelo://app?vid=306048c7-6e51-4da3-8a8d-305e67bf5063","ios":"levelo://app?vid=306048c7-6e51-4da3-8a8d-305e67bf5063"},"vehicle_type_id":"4","last_reported":1685192826,"current_range_meters":18000,"station_id":"ce4bhbp2rcd13ifvqerg","pricing_plan_id":"free"},{"bike_id":"33faf005-4b4e-41ba-8211-76a37102fbbb","system_id":"levelo_inurba_marseille","lat":43.28263,"lon":5.35068,"is_reserved":false,"is_disabled":false,"rental_uris":{"android":"levelo://app?vid=33faf005-4b4e-41ba-8211-76a37102fbbb","ios":"levelo://app?vid=33faf005-4b4e-41ba-8211-76a37102fbbb"},"vehicle_type_id":"4","last_reported":1685192826,"current_range_meters":22400,"station_id":"ce4bhbp2rcd13ifvqerg","pricing_plan_id":"free"},{"bike_id":"7e45fa32-0e27-4c9a-88e8-9d4b296ac62a","system_id":"levelo_inurba_marseille","lat":43.28264,"lon":5.35063,"is_reserved":false,"is_disabled":false,"rental_uris":{"android":"levelo://app?vid=7e45fa32-0e27-4c9a-88e8-9d4b296ac62a","ios":"levelo://app?vid=7e45fa32-0e27-4c9a-88e8-9d4b296ac62a"},"vehicle_type_id":"4","last_reported":1685192826,"current_range_meters":12000,"station_id":"ce4bhbp2rcd13ifvqerg","pricing_plan_id":"free"},{"bike_id":"8424e3dc-7f1f-4c18-a24d-d9ec17d150ac","system_id":"levelo_inurba_marseille","lat":43.282744,"lon":5.350533,"is_reserved":false,"is_disabled":false,"rental_uris":{"android":"levelo://app?vid=8424e3dc-7f1f-4c18-a24d-d9ec17d150ac","ios":"levelo://app?vid=8424e3dc-7f1f-4c18-a24d-d9ec17d150ac"},"vehicle_type_id":"4","last_reported":1685192826,"current_range_meters":31200,"station_id":"ce4bhbp2rcd13ifvqerg","pricing_plan_id":"free"},{"bike_id":"0652721c-3532-48e7-84cb-184d8ac738c3","system_id":"levelo_inurba_marseille","lat":43.28263,"lon":5.35064,"is_reserved":false,"is_disabled":false,"rental_uris":{"android":"levelo://app?vid=0652721c-3532-48e7-84cb-184d8ac738c3","ios":"levelo://app?vid=0652721c-3532-48e7-84cb-184d8ac738c3"},"vehicle_type_id":"4","last_reported":1685192826,"current_range_meters":5600,"station_id":"ce4bhbp2rcd13ifvqerg","pricing_plan_id":"free"},{"bike_id":"bdc9fcb1-eec7-409a-a88b-2d7f06879b41","system_id":"levelo_inurba_marseille","lat":43.282744,"lon":5.350533,"is_reserved":false,"is_disabled":false,"rental_uris":{"android":"levelo://app?vid=bdc9fcb1-eec7-409a-a88b-2d7f06879b41","ios":"levelo://app?vid=bdc9fcb1-eec7-409a-a88b-2d7f06879b41"},"vehicle_type_id":"4","last_reported":1685192826,"current_range_meters":21600,"station_id":"ce4bhbp2rcd13ifvqerg","pricing_plan_id":"free"},{"bike_id":"028e1e19-9799-4a96-865b-b56366ee2c54","system_id":"levelo_inurba_marseille","lat":43.282744,"lon":5.350533,"is_reserved":false,"is_disabled":false,"rental_uris":{"android":"levelo://app?vid=028e1e19-9799-4a96-865b-b56366ee2c54","ios":"levelo://app?vid=028e1e19-9799-4a96-865b-b56366ee2c54"},"vehicle_type_id":"4","last_reported":1685192826,"current_range_meters":12000,"station_id":"ce4bhbp2rcd13ifvqerg","pricing_plan_id":"free"},{"bike_id":"82ebb985-ba4a-4b08-a901-9f94948fd539","system_id":"levelo_inurba_marseille","lat":43.282744,"lon":5.350533,"is_reserved":false,"is_disabled":false,"rental_uris":{"android":"levelo://app?vid=82ebb985-ba4a-4b08-a901-9f94948fd539","ios":"levelo://app?vid=82ebb985-ba4a-4b08-a901-9f94948fd539"},"vehicle_type_id":"4","last_reported":1685192826,"current_range_meters":31200,"station_id":"ce4bhbp2rcd13ifvqerg","pricing_plan_id":"free"},{"bike_id":"22af1f82-6779-48ad-970b-8b438953621c","system_id":"levelo_inurba_marseille","lat":43.28261,"lon":5.35063,"is_reserved":false,"is_disabled":false,"rental_uris":{"android":"levelo://app?vid=22af1f82-6779-48ad-970b-8b438953621c","ios":"levelo://app?vid=22af1f82-6779-48ad-970b-8b438953621c"},"vehicle_type_id":"4","last_reported":1685192826,"current_range_meters":13600,"station_id":"ce4bhbp2rcd13ifvqerg","pricing_plan_id":"free"},{"bike_id":"c09e4ad7-c2b0-4f32-9502-d4d35bf3a233","system_id":"levelo_inurba_marseille","lat":43.28261,"lon":5.35062,"is_reserved":false,"is_disabled":false,"rental_uris":{"android":"levelo://app?vid=c09e4ad7-c2b0-4f32-9502-d4d35bf3a233","ios":"levelo://app?vid=c09e4ad7-c2b0-4f32-9502-d4d35bf3a233"},"vehicle_type_id":"4","last_reported":1685192826,"current_range_meters":18000,"station_id":"ce4bhbp2rcd13ifvqerg","pricing_plan_id":"free"},{"bike_id":"3d4de9fe-179a-47f1-a3a7-b9ab2139981f","system_id":"levelo_inurba_marseille","lat":43.28261,"lon":5.350608,"is_reserved":false,"is_disabled":false,"rental_uris":{"android":"levelo://app?vid=3d4de9fe-179a-47f1-a3a7-b9ab2139981f","ios":"levelo://app?vid=3d4de9fe-179a-47f1-a3a7-b9ab2139981f"},"vehicle_type_id":"4","last_reported":1685192826,"current_range_meters":24000,"station_id":"ce4bhch2rcd13ifvqeug","pricing_plan_id":"free"},{"bike_id":"33a69924-33b1-420c-8fed-86c4b57e6599","system_id":"levelo_inurba_marseille","lat":43.282744,"lon":5.350533,"is_reserved":false,"is_disabled":false,"rental_uris":{"android":"levelo://app?vid=33a69924-33b1-420c-8fed-86c4b57e6599","ios":"levelo://app?vid=33a69924-33b1-420c-8fed-86c4b57e6599"},"vehicle_type_id":"4","last_reported":1685192826,"current_range_meters":31200,"station_id":"ce4bhbp2rcd13ifvqerg","pricing_plan_id":"free"},{"bike_id":"5be2dc27-9f4e-4fbb-bdff-00717014c0d2","system_id":"levelo_inurba_marseille","lat":43.282744,"lon":5.350533,"is_reserved":false,"is_disabled":false,"rental_uris":{"android":"levelo://app?vid=5be2dc27-9f4e-4fbb-bdff-00717014c0d2","ios":"levelo://app?vid=5be2dc27-9f4e-4fbb-bdff-00717014c0d2"},"vehicle_type_id":"4","last_reported":1685192826,"current_range_meters":14800,"station_id":"ce4bhbp2rcd13ifvqerg","pricing_plan_id":"free"},{"bike_id":"2b840ec7-1aca-41c9-bbe6-25301a969da9","system_id":"levelo_inurba_marseille","lat":43.28039,"lon":5.369297,"is_reserved":false,"is_disabled":false,"rental_uris":{"android":"levelo://app?vid=2b840ec7-1aca-41c9-bbe6-25301a969da9","ios":"levelo://app?vid=2b840ec7-1aca-41c9-bbe6-25301a969da9"},"vehicle_type_id":"4","last_reported":1685192826,"current_range_meters":15200,"station_id":"ce4bha12rcd13ifvqef0","pricing_plan_id":"free"},{"bike_id":"4d86ce40-e406-44d0-9e2e-59dcfae65e59","system_id":"levelo_inurba_marseille","lat":43.29041,"lon":5.39947,"is_reserved":false,"is_disabled":false,"rental_uris":{"android":"levelo://app?vid=4d86ce40-e406-44d0-9e2e-59dcfae65e59","ios":"levelo://app?vid=4d86ce40-e406-44d0-9e2e-59dcfae65e59"},"vehicle_type_id":"4","last_reported":1685192826,"current_range_meters":0,"station_id":"ce4bh392rcd13ifvqdm0","pricing_plan_id":"free"},{"bike_id":"d10f4af1-2d07-4fe0-a789-0d7f2b0de308","system_id":"levelo_inurba_marseille","lat":43.281,"lon":5.37835,"is_reserved":false,"is_disabled":false,"rental_uris":{"android":"levelo://app?vid=d10f4af1-2d07-4fe0-a789-0d7f2b0de308","ios":"levelo://app?vid=d10f4af1-2d07-4fe0-a789-0d7f2b0de308"},"vehicle_type_id":"4","last_reported":1685192826,"current_range_meters":19200,"station_id":"ce4bha12rcd13ifvqee0","pricing_plan_id":"free"},{"bike_id":"af084bf4-c753-4722-b617-379999692b25","system_id":"levelo_inurba_marseille","lat":43.231919,"lon":5.355532,"is_reserved":false,"is_disabled":false,"rental_uris":{"android":"levelo://app?vid=af084bf4-c753-4722-b617-379999692b25","ios":"levelo://app?vid=af084bf4-c753-4722-b617-379999692b25"},"vehicle_type_id":"4","last_reported":1685192826,"current_range_meters":15200,"station_id":"ce4bhu92rcd13ifvqi70","pricing_plan_id":"free"},{"bike_id":"976254bc-d84c-40e7-88b6-52c03416c965","system_id":"levelo_inurba_marseille","lat":43.32134,"lon":5.41057,"is_reserved":false,"is_disabled":false,"rental_uris":{"android":"levelo://app?vid=976254bc-d84c-40e7-88b6-52c03416c965","ios":"levelo://app?vid=976254bc-d84c-40e7-88b6-52c03416c965"},"vehicle_type_id":"4","last_reported":1685192826,"current_range_meters":8400,"station_id":"","pricing_plan_id":"free"},{"bike_id":"0ed37d4a-9dfc-4ff0-a698-bcc2543e84d3","system_id":"levelo_inurba_marseille","lat":43.287154,"lon":5.399979,"is_reserved":false,"is_disabled":false,"rental_uris":{"android":"levelo://app?vid=0ed37d4a-9dfc-4ff0-a698-bcc2543e84d3","ios":"levelo://app?vid=0ed37d4a-9dfc-4ff0-a698-bcc2543e84d3"},"vehicle_type_id":"4","last_reported":1685192826,"current_range_meters":26400,"station_id":"ce4bho92rcd13ifvqh3g","pricing_plan_id":"free"},{"bike_id":"c25a5e34-9cce-4703-ab21-0147a8461989","system_id":"levelo_inurba_marseille","lat":43.320045,"lon":5.415048,"is_reserved":false,"is_disabled":false,"rental_uris":{"android":"levelo://app?vid=c25a5e34-9cce-4703-ab21-0147a8461989","ios":"levelo://app?vid=c25a5e34-9cce-4703-ab21-0147a8461989"},"vehicle_type_id":"4","last_reported":1685192826,"current_range_meters":30000,"station_id":"ce4bhq92rcd13ifvqhkg","pricing_plan_id":"free"},{"bike_id":"29f0a3bf-4d58-421d-88da-065a42cf8a0d","system_id":"levelo_inurba_marseille","lat":43.32538,"lon":5.41427,"is_reserved":false,"is_disabled":false,"rental_uris":{"android":"levelo://app?vid=29f0a3bf-4d58-421d-88da-065a42cf8a0d","ios":"levelo://app?vid=29f0a3bf-4d58-421d-88da-065a42cf8a0d"},"vehicle_type_id":"4","last_reported":1685192826,"current_range_meters":20400,"station_id":"ce4bhq12rcd13ifvqhhg","pricing_plan_id":"free"},{"bike_id":"030686b0-ad6c-4213-a61b-df2f2c473531","system_id":"levelo_inurba_marseille","lat":43.276179,"lon":5.361009,"is_reserved":false,"is_disabled":false,"rental_uris":{"android":"levelo://app?vid=030686b0-ad6c-4213-a61b-df2f2c473531","ios":"levelo://app?vid=030686b0-ad6c-4213-a61b-df2f2c473531"},"vehicle_type_id":"4","last_reported":1685192826,"current_range_meters":6800,"station_id":"ce4bgj92rcd13ifvqbe0","pricing_plan_id":"free"},{"bike_id":"585d87b2-13eb-4ebb-882a-24e7d7c507b8","system_id":"levelo_inurba_marseille","lat":43.2762,"lon":5.36105,"is_reserved":false,"is_disabled":false,"rental_uris":{"android":"levelo://app?vid=585d87b2-13eb-4ebb-882a-24e7d7c507b8","ios":"levelo://app?vid=585d87b2-13eb-4ebb-882a-24e7d7c507b8"},"vehicle_type_id":"4","last_reported":1685192826,"current_range_meters":2400,"station_id":"ce4bgj92rcd13ifvqbe0","pricing_plan_id":"free"},{"bike_id":"c5c38cc6-5160-486c-a0bb-b1d6abff2b8e","system_id":"levelo_inurba_marseille","lat":43.27614,"lon":5.36101,"is_reserved":false,"is_disabled":false,"rental_uris":{"android":"levelo://app?vid=c5c38cc6-5160-486c-a0bb-b1d6abff2b8e","ios":"levelo://app?vid=c5c38cc6-5160-486c-a0bb-b1d6abff2b8e"},"vehicle_type_id":"4","last_reported":1685192826,"current_range_meters":5200,"station_id":"ce4bgj92rcd13ifvqbe0","pricing_plan_id":"free"},{"bike_id":"bb0f08f9-614e-4eb6-8929-65b50933c619","system_id":"levelo_inurba_marseille","lat":43.276179,"lon":5.361009,"is_reserved":false,"is_disabled":false,"rental_uris":{"android":"levelo://app?vid=bb0f08f9-614e-4eb6-8929-65b50933c619","ios":"levelo://app?vid=bb0f08f9-614e-4eb6-8929-65b50933c619"},"vehicle_type_id":"4","last_reported":1685192826,"current_range_meters":18000,"station_id":"ce4bgj92rcd13ifvqbe0","pricing_plan_id":"free"},{"bike_id":"29d3e50a-0765-4650-b6ad-50e13f6afdd8","system_id":"levelo_inurba_marseille","lat":43.280784,"lon":5.396622,"is_reserved":false,"is_disabled":false,"rental_uris":{"android":"levelo://app?vid=29d3e50a-0765-4650-b6ad-50e13f6afdd8","ios":"levelo://app?vid=29d3e50a-0765-4650-b6ad-50e13f6afdd8"},"vehicle_type_id":"4","last_reported":1685192826,"current_range_meters":8000,"station_id":"ce4bho12rcd13ifvqh2g","pricing_plan_id":"free"},{"bike_id":"dffacef4-004d-4faa-88a5-960cf2217e8b","system_id":"levelo_inurba_marseille","lat":43.28078,"lon":5.39661,"is_reserved":false,"is_disabled":false,"rental_uris":{"android":"levelo://app?vid=dffacef4-004d-4faa-88a5-960cf2217e8b","ios":"levelo://app?vid=dffacef4-004d-4faa-88a5-960cf2217e8b"},"vehicle_type_id":"4","last_reported":1685192826,"current_range_meters":16800,"station_id":"ce4bho12rcd13ifvqh2g","pricing_plan_id":"free"},{"bike_id":"21443e76-380e-4e6f-960e-9202a951e477","system_id":"levelo_inurba_marseille","lat":43.280784,"lon":5.396622,"is_reserved":false,"is_disabled":false,"rental_uris":{"android":"levelo://app?vid=21443e76-380e-4e6f-960e-9202a951e477","ios":"levelo://app?vid=21443e76-380e-4e6f-960e-9202a951e477"},"vehicle_type_id":"4","last_reported":1685192826,"current_range_meters":20800,"station_id":"ce4bho12rcd13ifvqh2g","pricing_plan_id":"free"},{"bike_id":"de5ea3c1-0b0f-4549-a2b1-44cf291baae4","system_id":"levelo_inurba_marseille","lat":43.280784,"lon":5.396622,"is_reserved":false,"is_disabled":false,"rental_uris":{"android":"levelo://app?vid=de5ea3c1-0b0f-4549-a2b1-44cf291baae4","ios":"levelo://app?vid=de5ea3c1-0b0f-4549-a2b1-44cf291baae4"},"vehicle_type_id":"4","last_reported":1685192826,"current_range_meters":400,"station_id":"ce4bho12rcd13ifvqh2g","pricing_plan_id":"free"},{"bike_id":"8cd0731a-1b0b-4565-a78d-7dcb6b62e018","system_id":"levelo_inurba_marseille","lat":43.273613,"lon":5.362705,"is_reserved":false,"is_disabled":false,"rental_uris":{"android":"levelo://app?vid=8cd0731a-1b0b-4565-a78d-7dcb6b62e018","ios":"levelo://app?vid=8cd0731a-1b0b-4565-a78d-7dcb6b62e018"},"vehicle_type_id":"4","last_reported":1685192826,"current_range_meters":16000,"station_id":"ce4bhbh2rcd13ifvqeo0","pricing_plan_id":"free"},{"bike_id":"d8be705f-1ef4-48be-9b47-a655ecc7edeb","system_id":"levelo_inurba_marseille","lat":43.273613,"lon":5.362705,"is_reserved":false,"is_disabled":false,"rental_uris":{"android":"levelo://app?vid=d8be705f-1ef4-48be-9b47-a655ecc7edeb","ios":"levelo://app?vid=d8be705f-1ef4-48be-9b47-a655ecc7edeb"},"vehicle_type_id":"4","last_reported":1685192826,"current_range_meters":10400,"station_id":"ce4bhbh2rcd13ifvqeo0","pricing_plan_id":"free"},{"bike_id":"2b353646-c277-488e-b088-37e212d061d0","system_id":"levelo_inurba_marseille","lat":43.273613,"lon":5.362705,"is_reserved":false,"is_disabled":false,"rental_uris":{"android":"levelo://app?vid=2b353646-c277-488e-b088-37e212d061d0","ios":"levelo://app?vid=2b353646-c277-488e-b088-37e212d061d0"},"vehicle_type_id":"4","last_reported":1685192826,"current_range_meters":6000,"station_id":"ce4bhbh2rcd13ifvqeo0","pricing_plan_id":"free"},{"bike_id":"2323cbba-c89c-4612-803c-520f9cd92387","system_id":"levelo_inurba_marseille","lat":43.273613,"lon":5.362705,"is_reserved":false,"is_disabled":false,"rental_uris":{"android":"levelo://app?vid=2323cbba-c89c-4612-803c-520f9cd92387","ios":"levelo://app?vid=2323cbba-c89c-4612-803c-520f9cd92387"},"vehicle_type_id":"4","last_reported":1685192826,"current_range_meters":4800,"station_id":"ce4bhbh2rcd13ifvqeo0","pricing_plan_id":"free"},{"bike_id":"b858e505-67d4-4faf-933e-10a991e7d6bf","system_id":"levelo_inurba_marseille","lat":43.273613,"lon":5.362705,"is_reserved":false,"is_disabled":false,"rental_uris":{"android":"levelo://app?vid=b858e505-67d4-4faf-933e-10a991e7d6bf","ios":"levelo://app?vid=b858e505-67d4-4faf-933e-10a991e7d6bf"},"vehicle_type_id":"4","last_reported":1685192826,"current_range_meters":0,"station_id":"ce4bhbh2rcd13ifvqeo0","pricing_plan_id":"free"},{"bike_id":"2d7fa746-e642-410c-95f5-7010cf289b40","system_id":"levelo_inurba_marseille","lat":43.273613,"lon":5.362705,"is_reserved":false,"is_disabled":false,"rental_uris":{"android":"levelo://app?vid=2d7fa746-e642-410c-95f5-7010cf289b40","ios":"levelo://app?vid=2d7fa746-e642-410c-95f5-7010cf289b40"},"vehicle_type_id":"4","last_reported":1685192826,"current_range_meters":21200,"station_id":"ce4bhbh2rcd13ifvqeo0","pricing_plan_id":"free"},{"bike_id":"5bf64b73-5bf4-4b7e-bb39-2d4efa71d17c","system_id":"levelo_inurba_marseille","lat":43.273613,"lon":5.362705,"is_reserved":false,"is_disabled":false,"rental_uris":{"android":"levelo://app?vid=5bf64b73-5bf4-4b7e-bb39-2d4efa71d17c","ios":"levelo://app?vid=5bf64b73-5bf4-4b7e-bb39-2d4efa71d17c"},"vehicle_type_id":"4","last_reported":1685192826,"current_range_meters":31600,"station_id":"ce4bhbh2rcd13ifvqeo0","pricing_plan_id":"free"},{"bike_id":"9b4d6139-c440-4dbf-a376-1f35bc74391a","system_id":"levelo_inurba_marseille","lat":43.273613,"lon":5.362705,"is_reserved":false,"is_disabled":false,"rental_uris":{"android":"levelo://app?vid=9b4d6139-c440-4dbf-a376-1f35bc74391a","ios":"levelo://app?vid=9b4d6139-c440-4dbf-a376-1f35bc74391a"},"vehicle_type_id":"4","last_reported":1685192826,"current_range_meters":25600,"station_id":"ce4bhbh2rcd13ifvqeo0","pricing_plan_id":"free"},{"bike_id":"8852d9be-9ee0-44ae-b2b8-754c0559ce7f","system_id":"levelo_inurba_marseille","lat":43.273613,"lon":5.362705,"is_reserved":false,"is_disabled":false,"rental_uris":{"android":"levelo://app?vid=8852d9be-9ee0-44ae-b2b8-754c0559ce7f","ios":"levelo://app?vid=8852d9be-9ee0-44ae-b2b8-754c0559ce7f"},"vehicle_type_id":"4","last_reported":1685192826,"current_range_meters":22400,"station_id":"ce4bhbh2rcd13ifvqeo0","pricing_plan_id":"free"},{"bike_id":"84fb29fb-3096-4dc7-a089-f87c4f7aa430","system_id":"levelo_inurba_marseille","lat":43.273609,"lon":5.362708,"is_reserved":false,"is_disabled":false,"rental_uris":{"android":"levelo://app?vid=84fb29fb-3096-4dc7-a089-f87c4f7aa430","ios":"levelo://app?vid=84fb29fb-3096-4dc7-a089-f87c4f7aa430"},"vehicle_type_id":"4","last_reported":1685192826,"current_range_meters":16400,"station_id":"ce4bhbh2rcd13ifvqeo0","pricing_plan_id":"free"},{"bike_id":"0a3dfa48-b8b7-40d2-8eef-1bc352909a6f","system_id":"levelo_inurba_marseille","lat":43.273613,"lon":5.362705,"is_reserved":false,"is_disabled":false,"rental_uris":{"android":"levelo://app?vid=0a3dfa48-b8b7-40d2-8eef-1bc352909a6f","ios":"levelo://app?vid=0a3dfa48-b8b7-40d2-8eef-1bc352909a6f"},"vehicle_type_id":"4","last_reported":1685192826,"current_range_meters":30000,"station_id":"ce4bhbh2rcd13ifvqeo0","pricing_plan_id":"free"},{"bike_id":"bab4cb6e-ec8a-4a5d-9bda-de635dc33d39","system_id":"levelo_inurba_marseille","lat":43.273613,"lon":5.362705,"is_reserved":false,"is_disabled":false,"rental_uris":{"android":"levelo://app?vid=bab4cb6e-ec8a-4a5d-9bda-de635dc33d39","ios":"levelo://app?vid=bab4cb6e-ec8a-4a5d-9bda-de635dc33d39"},"vehicle_type_id":"4","last_reported":1685192826,"current_range_meters":11200,"station_id":"ce4bhbh2rcd13ifvqeo0","pricing_plan_id":"free"},{"bike_id":"0d09d882-57a4-419a-806a-daaade0fb2ac","system_id":"levelo_inurba_marseille","lat":43.273613,"lon":5.362705,"is_reserved":false,"is_disabled":false,"rental_uris":{"android":"levelo://app?vid=0d09d882-57a4-419a-806a-daaade0fb2ac","ios":"levelo://app?vid=0d09d882-57a4-419a-806a-daaade0fb2ac"},"vehicle_type_id":"4","last_reported":1685192826,"current_range_meters":22800,"station_id":"ce4bhbh2rcd13ifvqeo0","pricing_plan_id":"free"},{"bike_id":"34073aea-789f-49ad-ba35-56789ebe3734","system_id":"levelo_inurba_marseille","lat":43.273613,"lon":5.362705,"is_reserved":false,"is_disabled":false,"rental_uris":{"android":"levelo://app?vid=34073aea-789f-49ad-ba35-56789ebe3734","ios":"levelo://app?vid=34073aea-789f-49ad-ba35-56789ebe3734"},"vehicle_type_id":"4","last_reported":1685192826,"current_range_meters":20000,"station_id":"ce4bhbh2rcd13ifvqeo0","pricing_plan_id":"free"},{"bike_id":"64266a8a-0d79-438f-ba89-19693eb83af6","system_id":"levelo_inurba_marseille","lat":43.273613,"lon":5.362705,"is_reserved":false,"is_disabled":false,"rental_uris":{"android":"levelo://app?vid=64266a8a-0d79-438f-ba89-19693eb83af6","ios":"levelo://app?vid=64266a8a-0d79-438f-ba89-19693eb83af6"},"vehicle_type_id":"4","last_reported":1685192826,"current_range_meters":31200,"station_id":"ce4bhbh2rcd13ifvqeo0","pricing_plan_id":"free"},{"bike_id":"3d371651-ba3b-4f81-9848-4f9790ed9322","system_id":"levelo_inurba_marseille","lat":43.27374,"lon":5.36245,"is_reserved":false,"is_disabled":false,"rental_uris":{"android":"levelo://app?vid=3d371651-ba3b-4f81-9848-4f9790ed9322","ios":"levelo://app?vid=3d371651-ba3b-4f81-9848-4f9790ed9322"},"vehicle_type_id":"4","last_reported":1685192826,"current_range_meters":0,"station_id":"ce4bhbh2rcd13ifvqeo0","pricing_plan_id":"free"},{"bike_id":"2755c42c-c2cb-4cc2-afe9-7c39499c838f","system_id":"levelo_inurba_marseille","lat":43.273609,"lon":5.362708,"is_reserved":false,"is_disabled":false,"rental_uris":{"android":"levelo://app?vid=2755c42c-c2cb-4cc2-afe9-7c39499c838f","ios":"levelo://app?vid=2755c42c-c2cb-4cc2-afe9-7c39499c838f"},"vehicle_type_id":"4","last_reported":1685192826,"current_range_meters":6400,"station_id":"ce4bhbh2rcd13ifvqeo0","pricing_plan_id":"free"},{"bike_id":"144e79e2-b2b5-4a78-b51b-af38b6f551b8","system_id":"levelo_inurba_marseille","lat":43.27373,"lon":5.36259,"is_reserved":false,"is_disabled":false,"rental_uris":{"android":"levelo://app?vid=144e79e2-b2b5-4a78-b51b-af38b6f551b8","ios":"levelo://app?vid=144e79e2-b2b5-4a78-b51b-af38b6f551b8"},"vehicle_type_id":"4","last_reported":1685192826,"current_range_meters":14000,"station_id":"ce4bhbh2rcd13ifvqeo0","pricing_plan_id":"free"},{"bike_id":"3ba989d1-8771-4dc9-b92c-5f6a0c849347","system_id":"levelo_inurba_marseille","lat":43.273609,"lon":5.362708,"is_reserved":false,"is_disabled":false,"rental_uris":{"android":"levelo://app?vid=3ba989d1-8771-4dc9-b92c-5f6a0c849347","ios":"levelo://app?vid=3ba989d1-8771-4dc9-b92c-5f6a0c849347"},"vehicle_type_id":"4","last_reported":1685192826,"current_range_meters":2400,"station_id":"ce4bhbh2rcd13ifvqeo0","pricing_plan_id":"free"},{"bike_id":"60a161ad-252d-42d6-bc5c-775469cc9fcb","system_id":"levelo_inurba_marseille","lat":43.273609,"lon":5.362708,"is_reserved":false,"is_disabled":false,"rental_uris":{"android":"levelo://app?vid=60a161ad-252d-42d6-bc5c-775469cc9fcb","ios":"levelo://app?vid=60a161ad-252d-42d6-bc5c-775469cc9fcb"},"vehicle_type_id":"4","last_reported":1685192826,"current_range_meters":5200,"station_id":"ce4bhbh2rcd13ifvqeo0","pricing_plan_id":"free"},{"bike_id":"2028d74c-b028-4d02-81ec-89d1f0c47a19","system_id":"levelo_inurba_marseille","lat":43.273613,"lon":5.362705,"is_reserved":false,"is_disabled":false,"rental_uris":{"android":"levelo://app?vid=2028d74c-b028-4d02-81ec-89d1f0c47a19","ios":"levelo://app?vid=2028d74c-b028-4d02-81ec-89d1f0c47a19"},"vehicle_type_id":"4","last_reported":1685192826,"current_range_meters":30800,"station_id":"ce4bhbh2rcd13ifvqeo0","pricing_plan_id":"free"},{"bike_id":"bd698eab-7c03-47c3-801b-250fd6c655a6","system_id":"levelo_inurba_marseille","lat":43.273609,"lon":5.362708,"is_reserved":false,"is_disabled":false,"rental_uris":{"android":"levelo://app?vid=bd698eab-7c03-47c3-801b-250fd6c655a6","ios":"levelo://app?vid=bd698eab-7c03-47c3-801b-250fd6c655a6"},"vehicle_type_id":"4","last_reported":1685192826,"current_range_meters":17600,"station_id":"ce4bhbh2rcd13ifvqeo0","pricing_plan_id":"free"},{"bike_id":"547b2876-e49a-453c-b910-2b07c29b3f49","system_id":"levelo_inurba_marseille","lat":43.273609,"lon":5.362708,"is_reserved":false,"is_disabled":false,"rental_uris":{"android":"levelo://app?vid=547b2876-e49a-453c-b910-2b07c29b3f49","ios":"levelo://app?vid=547b2876-e49a-453c-b910-2b07c29b3f49"},"vehicle_type_id":"4","last_reported":1685192826,"current_range_meters":10400,"station_id":"ce4bhbh2rcd13ifvqeo0","pricing_plan_id":"free"},{"bike_id":"fc586ce6-49db-4250-aac2-a50a23d224cc","system_id":"levelo_inurba_marseille","lat":43.273613,"lon":5.362705,"is_reserved":false,"is_disabled":false,"rental_uris":{"android":"levelo://app?vid=fc586ce6-49db-4250-aac2-a50a23d224cc","ios":"levelo://app?vid=fc586ce6-49db-4250-aac2-a50a23d224cc"},"vehicle_type_id":"4","last_reported":1685192826,"current_range_meters":31600,"station_id":"ce4bhbh2rcd13ifvqeo0","pricing_plan_id":"free"},{"bike_id":"40aa8bba-6aa2-465c-85b1-060c78154bc6","system_id":"levelo_inurba_marseille","lat":43.273609,"lon":5.362708,"is_reserved":false,"is_disabled":false,"rental_uris":{"android":"levelo://app?vid=40aa8bba-6aa2-465c-85b1-060c78154bc6","ios":"levelo://app?vid=40aa8bba-6aa2-465c-85b1-060c78154bc6"},"vehicle_type_id":"4","last_reported":1685192826,"current_range_meters":31200,"station_id":"ce4bhbh2rcd13ifvqeo0","pricing_plan_id":"free"},{"bike_id":"d5522b58-18f5-43a4-92d1-6928c14f5ac0","system_id":"levelo_inurba_marseille","lat":43.273609,"lon":5.362708,"is_reserved":false,"is_disabled":false,"rental_uris":{"android":"levelo://app?vid=d5522b58-18f5-43a4-92d1-6928c14f5ac0","ios":"levelo://app?vid=d5522b58-18f5-43a4-92d1-6928c14f5ac0"},"vehicle_type_id":"4","last_reported":1685192826,"current_range_meters":28000,"station_id":"ce4bhbh2rcd13ifvqeo0","pricing_plan_id":"free"},{"bike_id":"e72fd538-7d92-4d14-b050-461ba0e7677f","system_id":"levelo_inurba_marseille","lat":43.273609,"lon":5.362708,"is_reserved":false,"is_disabled":false,"rental_uris":{"android":"levelo://app?vid=e72fd538-7d92-4d14-b050-461ba0e7677f","ios":"levelo://app?vid=e72fd538-7d92-4d14-b050-461ba0e7677f"},"vehicle_type_id":"4","last_reported":1685192826,"current_range_meters":31200,"station_id":"ce4bhbh2rcd13ifvqeo0","pricing_plan_id":"free"},{"bike_id":"1d3c2b50-9a9d-4667-94a8-aaf5d39d9886","system_id":"levelo_inurba_marseille","lat":43.273609,"lon":5.362708,"is_reserved":false,"is_disabled":false,"rental_uris":{"android":"levelo://app?vid=1d3c2b50-9a9d-4667-94a8-aaf5d39d9886","ios":"levelo://app?vid=1d3c2b50-9a9d-4667-94a8-aaf5d39d9886"},"vehicle_type_id":"4","last_reported":1685192826,"current_range_meters":31600,"station_id":"ce4bhbh2rcd13ifvqeo0","pricing_plan_id":"free"},{"bike_id":"cd18e5cd-0880-4fe7-a6d1-fb38556b3866","system_id":"levelo_inurba_marseille","lat":43.273613,"lon":5.362705,"is_reserved":false,"is_disabled":false,"rental_uris":{"android":"levelo://app?vid=cd18e5cd-0880-4fe7-a6d1-fb38556b3866","ios":"levelo://app?vid=cd18e5cd-0880-4fe7-a6d1-fb38556b3866"},"vehicle_type_id":"4","last_reported":1685192826,"current_range_meters":14800,"station_id":"ce4bhbh2rcd13ifvqeo0","pricing_plan_id":"free"},{"bike_id":"f152decd-6f9f-4967-b465-d279bf81eb1f","system_id":"levelo_inurba_marseille","lat":43.310785,"lon":5.424305,"is_reserved":false,"is_disabled":false,"rental_uris":{"android":"levelo://app?vid=f152decd-6f9f-4967-b465-d279bf81eb1f","ios":"levelo://app?vid=f152decd-6f9f-4967-b465-d279bf81eb1f"},"vehicle_type_id":"4","last_reported":1685192826,"current_range_meters":18000,"station_id":"ce4bhp92rcd13ifvqhag","pricing_plan_id":"free"},{"bike_id":"176d7673-e0e2-42be-8d60-be83473e2392","system_id":"levelo_inurba_marseille","lat":43.273125,"lon":5.390731,"is_reserved":false,"is_disabled":false,"rental_uris":{"android":"levelo://app?vid=176d7673-e0e2-42be-8d60-be83473e2392","ios":"levelo://app?vid=176d7673-e0e2-42be-8d60-be83473e2392"},"vehicle_type_id":"4","last_reported":1685192826,"current_range_meters":13200,"station_id":"ce4bhgp2rcd13ifvqfe0","pricing_plan_id":"free"},{"bike_id":"4069682c-94bd-4038-ac29-654001fb6ede","system_id":"levelo_inurba_marseille","lat":43.2742,"lon":5.39416,"is_reserved":false,"is_disabled":false,"rental_uris":{"android":"levelo://app?vid=4069682c-94bd-4038-ac29-654001fb6ede","ios":"levelo://app?vid=4069682c-94bd-4038-ac29-654001fb6ede"},"vehicle_type_id":"4","last_reported":1685192826,"current_range_meters":4000,"station_id":"","pricing_plan_id":"free"},{"bike_id":"a33711ef-8503-4d17-9de8-f39e88ac8577","system_id":"levelo_inurba_marseille","lat":43.304096,"lon":5.425385,"is_reserved":false,"is_disabled":false,"rental_uris":{"android":"levelo://app?vid=a33711ef-8503-4d17-9de8-f39e88ac8577","ios":"levelo://app?vid=a33711ef-8503-4d17-9de8-f39e88ac8577"},"vehicle_type_id":"4","last_reported":1685192826,"current_range_meters":22000,"station_id":"ce4bhoh2rcd13ifvqh6g","pricing_plan_id":"free"},{"bike_id":"194d0731-9c3d-4111-875b-99cf3e7c97aa","system_id":"levelo_inurba_marseille","lat":43.304096,"lon":5.425385,"is_reserved":false,"is_disabled":false,"rental_uris":{"android":"levelo://app?vid=194d0731-9c3d-4111-875b-99cf3e7c97aa","ios":"levelo://app?vid=194d0731-9c3d-4111-875b-99cf3e7c97aa"},"vehicle_type_id":"4","last_reported":1685192826,"current_range_meters":26800,"station_id":"ce4bhoh2rcd13ifvqh6g","pricing_plan_id":"free"},{"bike_id":"70a9fc64-8f3c-4414-87e6-f2c51b05cba6","system_id":"levelo_inurba_marseille","lat":43.304096,"lon":5.425385,"is_reserved":false,"is_disabled":false,"rental_uris":{"android":"levelo://app?vid=70a9fc64-8f3c-4414-87e6-f2c51b05cba6","ios":"levelo://app?vid=70a9fc64-8f3c-4414-87e6-f2c51b05cba6"},"vehicle_type_id":"4","last_reported":1685192826,"current_range_meters":5600,"station_id":"ce4bhoh2rcd13ifvqh6g","pricing_plan_id":"free"},{"bike_id":"b558783a-8417-44f2-9e5b-1d6497e05a0f","system_id":"levelo_inurba_marseille","lat":43.304096,"lon":5.425385,"is_reserved":false,"is_disabled":false,"rental_uris":{"android":"levelo://app?vid=b558783a-8417-44f2-9e5b-1d6497e05a0f","ios":"levelo://app?vid=b558783a-8417-44f2-9e5b-1d6497e05a0f"},"vehicle_type_id":"4","last_reported":1685192826,"current_range_meters":30000,"station_id":"ce4bhoh2rcd13ifvqh6g","pricing_plan_id":"free"},{"bike_id":"054312dd-8d7c-4fbb-af3d-e2ff6f0bca29","system_id":"levelo_inurba_marseille","lat":43.304088,"lon":5.425388,"is_reserved":false,"is_disabled":false,"rental_uris":{"android":"levelo://app?vid=054312dd-8d7c-4fbb-af3d-e2ff6f0bca29","ios":"levelo://app?vid=054312dd-8d7c-4fbb-af3d-e2ff6f0bca29"},"vehicle_type_id":"4","last_reported":1685192826,"current_range_meters":30000,"station_id":"ce4bhoh2rcd13ifvqh6g","pricing_plan_id":"free"},{"bike_id":"c2416055-4858-4dc7-a68f-1137277a710c","system_id":"levelo_inurba_marseille","lat":43.304096,"lon":5.425385,"is_reserved":false,"is_disabled":false,"rental_uris":{"android":"levelo://app?vid=c2416055-4858-4dc7-a68f-1137277a710c","ios":"levelo://app?vid=c2416055-4858-4dc7-a68f-1137277a710c"},"vehicle_type_id":"4","last_reported":1685192826,"current_range_meters":26000,"station_id":"ce4bhoh2rcd13ifvqh6g","pricing_plan_id":"free"},{"bike_id":"cf0ee14a-d6ea-497e-ab85-2b04d14ce82e","system_id":"levelo_inurba_marseille","lat":43.304088,"lon":5.425388,"is_reserved":false,"is_disabled":false,"rental_uris":{"android":"levelo://app?vid=cf0ee14a-d6ea-497e-ab85-2b04d14ce82e","ios":"levelo://app?vid=cf0ee14a-d6ea-497e-ab85-2b04d14ce82e"},"vehicle_type_id":"4","last_reported":1685192826,"current_range_meters":27200,"station_id":"ce4bhoh2rcd13ifvqh6g","pricing_plan_id":"free"},{"bike_id":"a5f2599f-e826-44ed-97a8-a94883bc1dc3","system_id":"levelo_inurba_marseille","lat":43.30412,"lon":5.42548,"is_reserved":false,"is_disabled":false,"rental_uris":{"android":"levelo://app?vid=a5f2599f-e826-44ed-97a8-a94883bc1dc3","ios":"levelo://app?vid=a5f2599f-e826-44ed-97a8-a94883bc1dc3"},"vehicle_type_id":"4","last_reported":1685192826,"current_range_meters":29200,"station_id":"ce4bhoh2rcd13ifvqh6g","pricing_plan_id":"free"},{"bike_id":"6ebd766a-159a-430a-b666-12fd8b5b0da1","system_id":"levelo_inurba_marseille","lat":43.295511,"lon":5.422926,"is_reserved":false,"is_disabled":false,"rental_uris":{"android":"levelo://app?vid=6ebd766a-159a-430a-b666-12fd8b5b0da1","ios":"levelo://app?vid=6ebd766a-159a-430a-b666-12fd8b5b0da1"},"vehicle_type_id":"4","last_reported":1685192826,"current_range_meters":3600,"station_id":"ce4bhph2rcd13ifvqhdg","pricing_plan_id":"free"},{"bike_id":"a8a9943c-339a-4939-b766-eec1adc5040f","system_id":"levelo_inurba_marseille","lat":43.295523,"lon":5.422926,"is_reserved":false,"is_disabled":false,"rental_uris":{"android":"levelo://app?vid=a8a9943c-339a-4939-b766-eec1adc5040f","ios":"levelo://app?vid=a8a9943c-339a-4939-b766-eec1adc5040f"},"vehicle_type_id":"4","last_reported":1685192826,"current_range_meters":22000,"station_id":"ce4bhph2rcd13ifvqhdg","pricing_plan_id":"free"},{"bike_id":"1b615ad5-73af-4fa8-bf04-0832d7733073","system_id":"levelo_inurba_marseille","lat":43.295511,"lon":5.422926,"is_reserved":false,"is_disabled":false,"rental_uris":{"android":"levelo://app?vid=1b615ad5-73af-4fa8-bf04-0832d7733073","ios":"levelo://app?vid=1b615ad5-73af-4fa8-bf04-0832d7733073"},"vehicle_type_id":"4","last_reported":1685192826,"current_range_meters":31200,"station_id":"ce4bhph2rcd13ifvqhdg","pricing_plan_id":"free"},{"bike_id":"4085bd2e-70b6-4044-a9c8-1479817c38f0","system_id":"levelo_inurba_marseille","lat":43.272116,"lon":5.391763,"is_reserved":false,"is_disabled":false,"rental_uris":{"android":"levelo://app?vid=4085bd2e-70b6-4044-a9c8-1479817c38f0","ios":"levelo://app?vid=4085bd2e-70b6-4044-a9c8-1479817c38f0"},"vehicle_type_id":"4","last_reported":1685192826,"current_range_meters":0,"station_id":"ce4bhhp2rcd13ifvqfm0","pricing_plan_id":"free"},{"bike_id":"f3ac006a-36fa-4233-a39b-428a20b1cd41","system_id":"levelo_inurba_marseille","lat":43.272118,"lon":5.391758,"is_reserved":false,"is_disabled":false,"rental_uris":{"android":"levelo://app?vid=f3ac006a-36fa-4233-a39b-428a20b1cd41","ios":"levelo://app?vid=f3ac006a-36fa-4233-a39b-428a20b1cd41"},"vehicle_type_id":"4","last_reported":1685192826,"current_range_meters":14000,"station_id":"ce4bhhp2rcd13ifvqfm0","pricing_plan_id":"free"},{"bike_id":"e673226a-f594-432c-91d8-a6184fc8c0a2","system_id":"levelo_inurba_marseille","lat":43.265714,"lon":5.372891,"is_reserved":false,"is_disabled":false,"rental_uris":{"android":"levelo://app?vid=e673226a-f594-432c-91d8-a6184fc8c0a2","ios":"levelo://app?vid=e673226a-f594-432c-91d8-a6184fc8c0a2"},"vehicle_type_id":"4","last_reported":1685192826,"current_range_meters":14000,"station_id":"ce4bhg12rcd13ifvqf70","pricing_plan_id":"free"},{"bike_id":"6d95fc5d-b8ad-4149-b716-d707aac2801b","system_id":"levelo_inurba_marseille","lat":43.26681,"lon":5.382694,"is_reserved":false,"is_disabled":false,"rental_uris":{"android":"levelo://app?vid=6d95fc5d-b8ad-4149-b716-d707aac2801b","ios":"levelo://app?vid=6d95fc5d-b8ad-4149-b716-d707aac2801b"},"vehicle_type_id":"4","last_reported":1685192826,"current_range_meters":30400,"station_id":"ce4bhg92rcd13ifvqf90","pricing_plan_id":"free"},{"bike_id":"1a2a93cf-e915-4462-9900-60cb9e8115cc","system_id":"levelo_inurba_marseille","lat":43.266779,"lon":5.382711,"is_reserved":false,"is_disabled":false,"rental_uris":{"android":"levelo://app?vid=1a2a93cf-e915-4462-9900-60cb9e8115cc","ios":"levelo://app?vid=1a2a93cf-e915-4462-9900-60cb9e8115cc"},"vehicle_type_id":"4","last_reported":1685192826,"current_range_meters":24000,"station_id":"ce4bhgp2rcd13ifvqfc0","pricing_plan_id":"free"},{"bike_id":"21a31154-ec33-47f8-86df-928af99f26fd","system_id":"levelo_inurba_marseille","lat":43.26556,"lon":5.37293,"is_reserved":false,"is_disabled":false,"rental_uris":{"android":"levelo://app?vid=21a31154-ec33-47f8-86df-928af99f26fd","ios":"levelo://app?vid=21a31154-ec33-47f8-86df-928af99f26fd"},"vehicle_type_id":"4","last_reported":1685192826,"current_range_meters":29200,"station_id":"ce4bhg12rcd13ifvqf70","pricing_plan_id":"free"},{"bike_id":"ef395311-31be-4f9b-ae30-84fdc7f1345a","system_id":"levelo_inurba_marseille","lat":43.26556,"lon":5.37293,"is_reserved":false,"is_disabled":false,"rental_uris":{"android":"levelo://app?vid=ef395311-31be-4f9b-ae30-84fdc7f1345a","ios":"levelo://app?vid=ef395311-31be-4f9b-ae30-84fdc7f1345a"},"vehicle_type_id":"4","last_reported":1685192826,"current_range_meters":29600,"station_id":"ce4bhg12rcd13ifvqf70","pricing_plan_id":"free"},{"bike_id":"9fde9078-abba-4b37-8430-7ca10eb755d3","system_id":"levelo_inurba_marseille","lat":43.26555,"lon":5.37284,"is_reserved":false,"is_disabled":false,"rental_uris":{"android":"levelo://app?vid=9fde9078-abba-4b37-8430-7ca10eb755d3","ios":"levelo://app?vid=9fde9078-abba-4b37-8430-7ca10eb755d3"},"vehicle_type_id":"4","last_reported":1685192826,"current_range_meters":10400,"station_id":"ce4bhg12rcd13ifvqf70","pricing_plan_id":"free"},{"bike_id":"f1af5359-90d5-47c5-82c4-d0068d72e72e","system_id":"levelo_inurba_marseille","lat":43.26555,"lon":5.372851,"is_reserved":false,"is_disabled":false,"rental_uris":{"android":"levelo://app?vid=f1af5359-90d5-47c5-82c4-d0068d72e72e","ios":"levelo://app?vid=f1af5359-90d5-47c5-82c4-d0068d72e72e"},"vehicle_type_id":"4","last_reported":1685192826,"current_range_meters":28400,"station_id":"","pricing_plan_id":"free"},{"bike_id":"aecc272a-1eea-4993-9a69-5a60f1d21a96","system_id":"levelo_inurba_marseille","lat":43.26555,"lon":5.37287,"is_reserved":false,"is_disabled":false,"rental_uris":{"android":"levelo://app?vid=aecc272a-1eea-4993-9a69-5a60f1d21a96","ios":"levelo://app?vid=aecc272a-1eea-4993-9a69-5a60f1d21a96"},"vehicle_type_id":"4","last_reported":1685192826,"current_range_meters":14400,"station_id":"ce4bhg12rcd13ifvqf70","pricing_plan_id":"free"},{"bike_id":"6c3ac612-9e1e-4a79-9cf7-b65fbdf5aad2","system_id":"levelo_inurba_marseille","lat":43.265714,"lon":5.372891,"is_reserved":false,"is_disabled":false,"rental_uris":{"android":"levelo://app?vid=6c3ac612-9e1e-4a79-9cf7-b65fbdf5aad2","ios":"levelo://app?vid=6c3ac612-9e1e-4a79-9cf7-b65fbdf5aad2"},"vehicle_type_id":"4","last_reported":1685192826,"current_range_meters":400,"station_id":"ce4bhg12rcd13ifvqf70","pricing_plan_id":"free"},{"bike_id":"b0d30ec9-e25e-42e0-8aab-dd953fc23ea4","system_id":"levelo_inurba_marseille","lat":43.26554,"lon":5.37283,"is_reserved":false,"is_disabled":false,"rental_uris":{"android":"levelo://app?vid=b0d30ec9-e25e-42e0-8aab-dd953fc23ea4","ios":"levelo://app?vid=b0d30ec9-e25e-42e0-8aab-dd953fc23ea4"},"vehicle_type_id":"4","last_reported":1685192826,"current_range_meters":2800,"station_id":"ce4bhg12rcd13ifvqf70","pricing_plan_id":"free"},{"bike_id":"6d3825cc-52f2-4525-8fbe-e3dd8caf776c","system_id":"levelo_inurba_marseille","lat":43.265714,"lon":5.372891,"is_reserved":false,"is_disabled":false,"rental_uris":{"android":"levelo://app?vid=6d3825cc-52f2-4525-8fbe-e3dd8caf776c","ios":"levelo://app?vid=6d3825cc-52f2-4525-8fbe-e3dd8caf776c"},"vehicle_type_id":"4","last_reported":1685192826,"current_range_meters":24000,"station_id":"ce4bhg12rcd13ifvqf70","pricing_plan_id":"free"},{"bike_id":"6ae505a4-2cb1-4426-8c02-5e0462e2a030","system_id":"levelo_inurba_marseille","lat":43.265714,"lon":5.372891,"is_reserved":false,"is_disabled":false,"rental_uris":{"android":"levelo://app?vid=6ae505a4-2cb1-4426-8c02-5e0462e2a030","ios":"levelo://app?vid=6ae505a4-2cb1-4426-8c02-5e0462e2a030"},"vehicle_type_id":"4","last_reported":1685192826,"current_range_meters":9600,"station_id":"ce4bhg12rcd13ifvqf70","pricing_plan_id":"free"},{"bike_id":"026cc139-9c1b-4e67-ab12-65fce239dcab","system_id":"levelo_inurba_marseille","lat":43.265714,"lon":5.372891,"is_reserved":false,"is_disabled":false,"rental_uris":{"android":"levelo://app?vid=026cc139-9c1b-4e67-ab12-65fce239dcab","ios":"levelo://app?vid=026cc139-9c1b-4e67-ab12-65fce239dcab"},"vehicle_type_id":"4","last_reported":1685192826,"current_range_meters":31200,"station_id":"ce4bhg12rcd13ifvqf70","pricing_plan_id":"free"},{"bike_id":"9b32a15f-0dfd-43f5-a026-898d8a213bf7","system_id":"levelo_inurba_marseille","lat":43.26548,"lon":5.37289,"is_reserved":false,"is_disabled":false,"rental_uris":{"android":"levelo://app?vid=9b32a15f-0dfd-43f5-a026-898d8a213bf7","ios":"levelo://app?vid=9b32a15f-0dfd-43f5-a026-898d8a213bf7"},"vehicle_type_id":"4","last_reported":1685192826,"current_range_meters":27200,"station_id":"ce4bhg12rcd13ifvqf70","pricing_plan_id":"free"},{"bike_id":"2175d4ea-6538-4788-bfbd-f4c91d4656c5","system_id":"levelo_inurba_marseille","lat":43.26548,"lon":5.3729,"is_reserved":false,"is_disabled":false,"rental_uris":{"android":"levelo://app?vid=2175d4ea-6538-4788-bfbd-f4c91d4656c5","ios":"levelo://app?vid=2175d4ea-6538-4788-bfbd-f4c91d4656c5"},"vehicle_type_id":"4","last_reported":1685192826,"current_range_meters":27600,"station_id":"ce4bhg12rcd13ifvqf70","pricing_plan_id":"free"},{"bike_id":"d4d4390b-dcaf-4c40-8688-73d5ce974052","system_id":"levelo_inurba_marseille","lat":43.26547,"lon":5.37289,"is_reserved":false,"is_disabled":false,"rental_uris":{"android":"levelo://app?vid=d4d4390b-dcaf-4c40-8688-73d5ce974052","ios":"levelo://app?vid=d4d4390b-dcaf-4c40-8688-73d5ce974052"},"vehicle_type_id":"4","last_reported":1685192826,"current_range_meters":29600,"station_id":"","pricing_plan_id":"free"},{"bike_id":"91b49189-18df-431a-bbbf-f0b2350181de","system_id":"levelo_inurba_marseille","lat":43.27998,"lon":5.41649,"is_reserved":false,"is_disabled":false,"rental_uris":{"android":"levelo://app?vid=91b49189-18df-431a-bbbf-f0b2350181de","ios":"levelo://app?vid=91b49189-18df-431a-bbbf-f0b2350181de"},"vehicle_type_id":"4","last_reported":1685192826,"current_range_meters":19600,"station_id":"","pricing_plan_id":"free"},{"bike_id":"c350be26-8d73-4d02-b51f-0c35431a1b57","system_id":"levelo_inurba_marseille","lat":43.27996,"lon":5.416624,"is_reserved":false,"is_disabled":false,"rental_uris":{"android":"levelo://app?vid=c350be26-8d73-4d02-b51f-0c35431a1b57","ios":"levelo://app?vid=c350be26-8d73-4d02-b51f-0c35431a1b57"},"vehicle_type_id":"4","last_reported":1685192826,"current_range_meters":18000,"station_id":"ce4bho12rcd13ifvqh1g","pricing_plan_id":"free"},{"bike_id":"f23f8efd-89bc-42e3-be42-5ddb2064eb9d","system_id":"levelo_inurba_marseille","lat":43.27996,"lon":5.416624,"is_reserved":false,"is_disabled":false,"rental_uris":{"android":"levelo://app?vid=f23f8efd-89bc-42e3-be42-5ddb2064eb9d","ios":"levelo://app?vid=f23f8efd-89bc-42e3-be42-5ddb2064eb9d"},"vehicle_type_id":"4","last_reported":1685192826,"current_range_meters":26000,"station_id":"ce4bho12rcd13ifvqh1g","pricing_plan_id":"free"},{"bike_id":"6c99c10b-f97b-4ca0-b80d-e20ed79ef72c","system_id":"levelo_inurba_marseille","lat":43.27996,"lon":5.416624,"is_reserved":false,"is_disabled":false,"rental_uris":{"android":"levelo://app?vid=6c99c10b-f97b-4ca0-b80d-e20ed79ef72c","ios":"levelo://app?vid=6c99c10b-f97b-4ca0-b80d-e20ed79ef72c"},"vehicle_type_id":"4","last_reported":1685192826,"current_range_meters":23600,"station_id":"ce4bho12rcd13ifvqh1g","pricing_plan_id":"free"},{"bike_id":"0aa4850d-595c-4b77-bd6d-6a2d1dea475b","system_id":"levelo_inurba_marseille","lat":43.27996,"lon":5.416624,"is_reserved":false,"is_disabled":false,"rental_uris":{"android":"levelo://app?vid=0aa4850d-595c-4b77-bd6d-6a2d1dea475b","ios":"levelo://app?vid=0aa4850d-595c-4b77-bd6d-6a2d1dea475b"},"vehicle_type_id":"4","last_reported":1685192826,"current_range_meters":13200,"station_id":"ce4bho12rcd13ifvqh1g","pricing_plan_id":"free"},{"bike_id":"4bc67e5d-eb80-470b-86b7-e7949478ee8f","system_id":"levelo_inurba_marseille","lat":43.261782,"lon":5.374515,"is_reserved":false,"is_disabled":false,"rental_uris":{"android":"levelo://app?vid=4bc67e5d-eb80-470b-86b7-e7949478ee8f","ios":"levelo://app?vid=4bc67e5d-eb80-470b-86b7-e7949478ee8f"},"vehicle_type_id":"4","last_reported":1685192826,"current_range_meters":30000,"station_id":"ce4bhgp2rcd13ifvqfc0","pricing_plan_id":"free"},{"bike_id":"fb203907-d201-4611-9b52-b515f725b1a2","system_id":"levelo_inurba_marseille","lat":43.261782,"lon":5.374515,"is_reserved":false,"is_disabled":false,"rental_uris":{"android":"levelo://app?vid=fb203907-d201-4611-9b52-b515f725b1a2","ios":"levelo://app?vid=fb203907-d201-4611-9b52-b515f725b1a2"},"vehicle_type_id":"4","last_reported":1685192826,"current_range_meters":16000,"station_id":"ce4bhgp2rcd13ifvqfc0","pricing_plan_id":"free"},{"bike_id":"97f92444-dc7f-4ac8-885e-43ac50454dc0","system_id":"levelo_inurba_marseille","lat":43.31711,"lon":5.43696,"is_reserved":false,"is_disabled":false,"rental_uris":{"android":"levelo://app?vid=97f92444-dc7f-4ac8-885e-43ac50454dc0","ios":"levelo://app?vid=97f92444-dc7f-4ac8-885e-43ac50454dc0"},"vehicle_type_id":"4","last_reported":1685192826,"current_range_meters":0,"station_id":"ce4bhp92rcd13ifvqhcg","pricing_plan_id":"free"},{"bike_id":"532884e4-4a74-4481-a26a-f24a4c3eae7e","system_id":"levelo_inurba_marseille","lat":43.261782,"lon":5.374515,"is_reserved":false,"is_disabled":false,"rental_uris":{"android":"levelo://app?vid=532884e4-4a74-4481-a26a-f24a4c3eae7e","ios":"levelo://app?vid=532884e4-4a74-4481-a26a-f24a4c3eae7e"},"vehicle_type_id":"4","last_reported":1685192826,"current_range_meters":31200,"station_id":"ce4bhgp2rcd13ifvqfc0","pricing_plan_id":"free"},{"bike_id":"13386135-a2a1-42f3-8d9d-ab5263c92445","system_id":"levelo_inurba_marseille","lat":43.26186,"lon":5.37439,"is_reserved":false,"is_disabled":false,"rental_uris":{"android":"levelo://app?vid=13386135-a2a1-42f3-8d9d-ab5263c92445","ios":"levelo://app?vid=13386135-a2a1-42f3-8d9d-ab5263c92445"},"vehicle_type_id":"4","last_reported":1685192826,"current_range_meters":23200,"station_id":"ce4bhgp2rcd13ifvqfc0","pricing_plan_id":"free"},{"bike_id":"2a103623-d123-4e86-910b-5cd2cd28d6bc","system_id":"levelo_inurba_marseille","lat":43.261782,"lon":5.374515,"is_reserved":false,"is_disabled":false,"rental_uris":{"android":"levelo://app?vid=2a103623-d123-4e86-910b-5cd2cd28d6bc","ios":"levelo://app?vid=2a103623-d123-4e86-910b-5cd2cd28d6bc"},"vehicle_type_id":"4","last_reported":1685192826,"current_range_meters":19200,"station_id":"ce4bhgp2rcd13ifvqfc0","pricing_plan_id":"free"},{"bike_id":"cee00825-ce78-41a2-8f71-afd3688cd850","system_id":"levelo_inurba_marseille","lat":43.26186,"lon":5.37444,"is_reserved":false,"is_disabled":false,"rental_uris":{"android":"levelo://app?vid=cee00825-ce78-41a2-8f71-afd3688cd850","ios":"levelo://app?vid=cee00825-ce78-41a2-8f71-afd3688cd850"},"vehicle_type_id":"4","last_reported":1685192826,"current_range_meters":24400,"station_id":"ce4bhgp2rcd13ifvqfc0","pricing_plan_id":"free"},{"bike_id":"997fbca5-8dd6-4985-8f12-98f562376a79","system_id":"levelo_inurba_marseille","lat":43.317104,"lon":5.436818,"is_reserved":false,"is_disabled":false,"rental_uris":{"android":"levelo://app?vid=997fbca5-8dd6-4985-8f12-98f562376a79","ios":"levelo://app?vid=997fbca5-8dd6-4985-8f12-98f562376a79"},"vehicle_type_id":"4","last_reported":1685192826,"current_range_meters":19600,"station_id":"ce4bhp92rcd13ifvqhcg","pricing_plan_id":"free"},{"bike_id":"3ba9708f-bff7-41c1-9340-bfea0f3467ce","system_id":"levelo_inurba_marseille","lat":43.317104,"lon":5.436818,"is_reserved":false,"is_disabled":false,"rental_uris":{"android":"levelo://app?vid=3ba9708f-bff7-41c1-9340-bfea0f3467ce","ios":"levelo://app?vid=3ba9708f-bff7-41c1-9340-bfea0f3467ce"},"vehicle_type_id":"4","last_reported":1685192826,"current_range_meters":23600,"station_id":"ce4bhp92rcd13ifvqhcg","pricing_plan_id":"free"},{"bike_id":"108bd8c6-8ebc-4f70-99ac-edec113e00ad","system_id":"levelo_inurba_marseille","lat":43.271368,"lon":5.40928,"is_reserved":false,"is_disabled":false,"rental_uris":{"android":"levelo://app?vid=108bd8c6-8ebc-4f70-99ac-edec113e00ad","ios":"levelo://app?vid=108bd8c6-8ebc-4f70-99ac-edec113e00ad"},"vehicle_type_id":"4","last_reported":1685192826,"current_range_meters":30400,"station_id":"ce4bhl12rcd13ifvqgf0","pricing_plan_id":"free"},{"bike_id":"d4497e2e-6e0a-4aac-af2d-c52051e55d20","system_id":"levelo_inurba_marseille","lat":43.298768,"lon":5.43643,"is_reserved":false,"is_disabled":false,"rental_uris":{"android":"levelo://app?vid=d4497e2e-6e0a-4aac-af2d-c52051e55d20","ios":"levelo://app?vid=d4497e2e-6e0a-4aac-af2d-c52051e55d20"},"vehicle_type_id":"4","last_reported":1685192826,"current_range_meters":18400,"station_id":"ce4bhpp2rcd13ifvqhfg","pricing_plan_id":"free"},{"bike_id":"4e1b86b6-b12c-441f-b5c1-ba0a90fca197","system_id":"levelo_inurba_marseille","lat":43.298768,"lon":5.43643,"is_reserved":false,"is_disabled":false,"rental_uris":{"android":"levelo://app?vid=4e1b86b6-b12c-441f-b5c1-ba0a90fca197","ios":"levelo://app?vid=4e1b86b6-b12c-441f-b5c1-ba0a90fca197"},"vehicle_type_id":"4","last_reported":1685192826,"current_range_meters":31600,"station_id":"ce4bhpp2rcd13ifvqhfg","pricing_plan_id":"free"},{"bike_id":"141abb9c-baa0-4410-bbbc-e3f6497daf31","system_id":"levelo_inurba_marseille","lat":43.298768,"lon":5.43643,"is_reserved":false,"is_disabled":false,"rental_uris":{"android":"levelo://app?vid=141abb9c-baa0-4410-bbbc-e3f6497daf31","ios":"levelo://app?vid=141abb9c-baa0-4410-bbbc-e3f6497daf31"},"vehicle_type_id":"4","last_reported":1685192826,"current_range_meters":27200,"station_id":"ce4bhpp2rcd13ifvqhfg","pricing_plan_id":"free"},{"bike_id":"57572c88-3708-4036-891a-204b9f884608","system_id":"levelo_inurba_marseille","lat":43.298768,"lon":5.43643,"is_reserved":false,"is_disabled":false,"rental_uris":{"android":"levelo://app?vid=57572c88-3708-4036-891a-204b9f884608","ios":"levelo://app?vid=57572c88-3708-4036-891a-204b9f884608"},"vehicle_type_id":"4","last_reported":1685192826,"current_range_meters":10000,"station_id":"ce4bhpp2rcd13ifvqhfg","pricing_plan_id":"free"},{"bike_id":"a01b8269-cd6f-432a-9c44-37513ea96cd0","system_id":"levelo_inurba_marseille","lat":43.298768,"lon":5.43643,"is_reserved":false,"is_disabled":false,"rental_uris":{"android":"levelo://app?vid=a01b8269-cd6f-432a-9c44-37513ea96cd0","ios":"levelo://app?vid=a01b8269-cd6f-432a-9c44-37513ea96cd0"},"vehicle_type_id":"4","last_reported":1685192826,"current_range_meters":30000,"station_id":"ce4bhpp2rcd13ifvqhfg","pricing_plan_id":"free"},{"bike_id":"fa0729d7-e924-4392-98fc-abb23c77958e","system_id":"levelo_inurba_marseille","lat":43.298768,"lon":5.43643,"is_reserved":false,"is_disabled":false,"rental_uris":{"android":"levelo://app?vid=fa0729d7-e924-4392-98fc-abb23c77958e","ios":"levelo://app?vid=fa0729d7-e924-4392-98fc-abb23c77958e"},"vehicle_type_id":"4","last_reported":1685192826,"current_range_meters":10800,"station_id":"ce4bhpp2rcd13ifvqhfg","pricing_plan_id":"free"},{"bike_id":"db925b50-ad8a-4820-a61d-8ab7c8e7db97","system_id":"levelo_inurba_marseille","lat":43.298768,"lon":5.43643,"is_reserved":false,"is_disabled":false,"rental_uris":{"android":"levelo://app?vid=db925b50-ad8a-4820-a61d-8ab7c8e7db97","ios":"levelo://app?vid=db925b50-ad8a-4820-a61d-8ab7c8e7db97"},"vehicle_type_id":"4","last_reported":1685192826,"current_range_meters":24400,"station_id":"ce4bhpp2rcd13ifvqhfg","pricing_plan_id":"free"},{"bike_id":"625cf51e-ab1a-4754-ae5a-a72655adf3ff","system_id":"levelo_inurba_marseille","lat":43.298768,"lon":5.43643,"is_reserved":false,"is_disabled":false,"rental_uris":{"android":"levelo://app?vid=625cf51e-ab1a-4754-ae5a-a72655adf3ff","ios":"levelo://app?vid=625cf51e-ab1a-4754-ae5a-a72655adf3ff"},"vehicle_type_id":"4","last_reported":1685192826,"current_range_meters":7600,"station_id":"ce4bhpp2rcd13ifvqhfg","pricing_plan_id":"free"},{"bike_id":"393fb8d7-9c3a-4c26-adde-9c67bba0a82d","system_id":"levelo_inurba_marseille","lat":43.298768,"lon":5.43643,"is_reserved":false,"is_disabled":false,"rental_uris":{"android":"levelo://app?vid=393fb8d7-9c3a-4c26-adde-9c67bba0a82d","ios":"levelo://app?vid=393fb8d7-9c3a-4c26-adde-9c67bba0a82d"},"vehicle_type_id":"4","last_reported":1685192826,"current_range_meters":18000,"station_id":"ce4bhpp2rcd13ifvqhfg","pricing_plan_id":"free"},{"bike_id":"1522e6fe-e66c-4a0c-a606-391cd3d5a93b","system_id":"levelo_inurba_marseille","lat":43.298768,"lon":5.43643,"is_reserved":false,"is_disabled":false,"rental_uris":{"android":"levelo://app?vid=1522e6fe-e66c-4a0c-a606-391cd3d5a93b","ios":"levelo://app?vid=1522e6fe-e66c-4a0c-a606-391cd3d5a93b"},"vehicle_type_id":"4","last_reported":1685192826,"current_range_meters":31600,"station_id":"ce4bhpp2rcd13ifvqhfg","pricing_plan_id":"free"},{"bike_id":"5d7f3f55-44ba-4ff5-923d-bd77a0240db0","system_id":"levelo_inurba_marseille","lat":43.260225,"lon":5.375455,"is_reserved":false,"is_disabled":false,"rental_uris":{"android":"levelo://app?vid=5d7f3f55-44ba-4ff5-923d-bd77a0240db0","ios":"levelo://app?vid=5d7f3f55-44ba-4ff5-923d-bd77a0240db0"},"vehicle_type_id":"4","last_reported":1685192826,"current_range_meters":28800,"station_id":"ce4bhgh2rcd13ifvqfa0","pricing_plan_id":"free"},{"bike_id":"5bcabf35-251b-4532-bbee-87a91dce913c","system_id":"levelo_inurba_marseille","lat":43.255756,"lon":5.382303,"is_reserved":false,"is_disabled":false,"rental_uris":{"android":"levelo://app?vid=5bcabf35-251b-4532-bbee-87a91dce913c","ios":"levelo://app?vid=5bcabf35-251b-4532-bbee-87a91dce913c"},"vehicle_type_id":"4","last_reported":1685192826,"current_range_meters":15600,"station_id":"ce4bhih2rcd13ifvqfs0","pricing_plan_id":"free"},{"bike_id":"ea1626a2-ea91-4f7f-a48f-1668e6d11f06","system_id":"levelo_inurba_marseille","lat":43.255756,"lon":5.382303,"is_reserved":false,"is_disabled":false,"rental_uris":{"android":"levelo://app?vid=ea1626a2-ea91-4f7f-a48f-1668e6d11f06","ios":"levelo://app?vid=ea1626a2-ea91-4f7f-a48f-1668e6d11f06"},"vehicle_type_id":"4","last_reported":1685192826,"current_range_meters":20400,"station_id":"ce4bhih2rcd13ifvqfs0","pricing_plan_id":"free"},{"bike_id":"781bafa2-d71c-479d-9e1d-26c604d825ff","system_id":"levelo_inurba_marseille","lat":43.25502,"lon":5.37651,"is_reserved":false,"is_disabled":false,"rental_uris":{"android":"levelo://app?vid=781bafa2-d71c-479d-9e1d-26c604d825ff","ios":"levelo://app?vid=781bafa2-d71c-479d-9e1d-26c604d825ff"},"vehicle_type_id":"4","last_reported":1685192826,"current_range_meters":8000,"station_id":"ce4bhh12rcd13ifvqff0","pricing_plan_id":"free"},{"bike_id":"b5c4c592-658f-4ea0-8fbd-3cab4728eb0a","system_id":"levelo_inurba_marseille","lat":43.25502,"lon":5.37652,"is_reserved":false,"is_disabled":false,"rental_uris":{"android":"levelo://app?vid=b5c4c592-658f-4ea0-8fbd-3cab4728eb0a","ios":"levelo://app?vid=b5c4c592-658f-4ea0-8fbd-3cab4728eb0a"},"vehicle_type_id":"4","last_reported":1685192826,"current_range_meters":12000,"station_id":"ce4bhh12rcd13ifvqff0","pricing_plan_id":"free"},{"bike_id":"42a76a15-4b94-4d68-bed7-56bcc1386df7","system_id":"levelo_inurba_marseille","lat":43.254947,"lon":5.376454,"is_reserved":false,"is_disabled":false,"rental_uris":{"android":"levelo://app?vid=42a76a15-4b94-4d68-bed7-56bcc1386df7","ios":"levelo://app?vid=42a76a15-4b94-4d68-bed7-56bcc1386df7"},"vehicle_type_id":"4","last_reported":1685192826,"current_range_meters":13600,"station_id":"ce4bhh12rcd13ifvqff0","pricing_plan_id":"free"},{"bike_id":"78dd8651-86a6-4060-b040-a2662d605acf","system_id":"levelo_inurba_marseille","lat":43.25498,"lon":5.3765,"is_reserved":false,"is_disabled":false,"rental_uris":{"android":"levelo://app?vid=78dd8651-86a6-4060-b040-a2662d605acf","ios":"levelo://app?vid=78dd8651-86a6-4060-b040-a2662d605acf"},"vehicle_type_id":"4","last_reported":1685192826,"current_range_meters":28000,"station_id":"ce4bhh12rcd13ifvqff0","pricing_plan_id":"free"},{"bike_id":"72c02b2c-78e2-4e83-bf11-cb6b6fd8d17c","system_id":"levelo_inurba_marseille","lat":43.254947,"lon":5.376454,"is_reserved":false,"is_disabled":false,"rental_uris":{"android":"levelo://app?vid=72c02b2c-78e2-4e83-bf11-cb6b6fd8d17c","ios":"levelo://app?vid=72c02b2c-78e2-4e83-bf11-cb6b6fd8d17c"},"vehicle_type_id":"4","last_reported":1685192826,"current_range_meters":31200,"station_id":"ce4bhh12rcd13ifvqff0","pricing_plan_id":"free"},{"bike_id":"21a94e83-2bcf-4902-8a6a-85407ac0d3c9","system_id":"levelo_inurba_marseille","lat":43.254952,"lon":5.376471,"is_reserved":false,"is_disabled":false,"rental_uris":{"android":"levelo://app?vid=21a94e83-2bcf-4902-8a6a-85407ac0d3c9","ios":"levelo://app?vid=21a94e83-2bcf-4902-8a6a-85407ac0d3c9"},"vehicle_type_id":"4","last_reported":1685192826,"current_range_meters":4400,"station_id":"","pricing_plan_id":"free"},