{"last_updated":1690992491,"ttl":30,"version":"2.2","data":{"bikes":[{"bike_id":"e039d14b-0e1c-4f83-b4c8-fac4cf16d8bb","system_id":"levelo_inurba_marseille","lat":43.3148,"lon":5.37306,"is_reserved":false,"is_disabled":false,"rental_uris":{"android":"levelo://app?vid=e039d14b-0e1c-4f83-b4c8-fac4cf16d8bb","ios":"levelo://app?vid=e039d14b-0e1c-4f83-b4c8-fac4cf16d8bb"},"vehicle_type_id":"4","last_reported":1690992493,"current_range_meters":16800,"station_id":"ce4bgt12rcd13ifvqcd0","pricing_plan_id":"free"},{"bike_id":"c1e56737-7e6d-49d3-8798-96db7c04513e","system_id":"levelo_inurba_marseille","lat":43.309039,"lon":5.371797,"is_reserved":false,"is_disabled":false,"rental_uris":{"android":"levelo://app?vid=c1e56737-7e6d-49d3-8798-96db7c04513e","ios":"levelo://app?vid=c1e56737-7e6d-49d3-8798-96db7c04513e"},"vehicle_type_id":"4","last_reported":1690992493,"current_range_meters":20000,"station_id":"ce4bguh2rcd13ifvqckg","pricing_plan_id":"free"},{"bike_id":"4396d199-3c72-4e07-9c49-8e46440cc37a","system_id":"levelo_inurba_marseille","lat":43.31646,"lon":5.37451,"is_reserved":false,"is_disabled":false,"rental_uris":{"android":"levelo://app?vid=4396d199-3c72-4e07-9c49-8e46440cc37a","ios":"levelo://app?vid=4396d199-3c72-4e07-9c49-8e46440cc37a"},"vehicle_type_id":"4","last_reported":1690992493,"current_range_meters":22400,"station_id":"","pricing_plan_id":"free"},{"bike_id":"74d14feb-a892-478d-b86f-291c876731cb","system_id":"levelo_inurba_marseille","lat":43.31669,"lon":5.37522,"is_reserved":false,"is_disabled":false,"rental_uris":{"android":"levelo://app?vid=74d14feb-a892-478d-b86f-291c876731cb","ios":"levelo://app?vid=74d14feb-a892-478d-b86f-291c876731cb"},"vehicle_type_id":"4","last_reported":1690992493,"current_range_meters":30000,"station_id":"","pricing_plan_id":"free"},{"bike_id":"f20ea888-8740-440b-bfeb-8eb2a7c1f652","system_id":"levelo_inurba_marseille","lat":43.305989,"lon":5.37225,"is_reserved":false,"is_disabled":false,"rental_uris":{"android":"levelo://app?vid=f20ea888-8740-440b-bfeb-8eb2a7c1f652","ios":"levelo://app?vid=f20ea888-8740-440b-bfeb-8eb2a7c1f652"},"vehicle_type_id":"4","last_reported":1690992493,"current_range_meters":30000,"station_id":"ce4bgqh2rcd13ifvqc4g","pricing_plan_id":"free"},{"bike_id":"075b44c7-6280-4f2b-9d1f-beb7be4583bf","system_id":"levelo_inurba_marseille","lat":43.311131,"lon":5.377651,"is_reserved":false,"is_disabled":false,"rental_uris":{"android":"levelo://app?vid=075b44c7-6280-4f2b-9d1f-beb7be4583bf","ios":"levelo://app?vid=075b44c7-6280-4f2b-9d1f-beb7be4583bf"},"vehicle_type_id":"4","last_reported":1690992493,"current_range_meters":29200,"station_id":"ce4bgt92rcd13ifvqcg0","pricing_plan_id":"free"},{"bike_id":"3065ea92-8d54-4a64-9b46-5431d50941a1","system_id":"levelo_inurba_marseille","lat":43.311125,"lon":5.377624,"is_reserved":false,"is_disabled":false,"rental_uris":{"android":"levelo://app?vid=3065ea92-8d54-4a64-9b46-5431d50941a1","ios":"levelo://app?vid=3065ea92-8d54-4a64-9b46-5431d50941a1"},"vehicle_type_id":"4","last_reported":1690992493,"current_range_meters":2800,"station_id":"ce4bgt92rcd13ifvqcg0","pricing_plan_id":"free"},{"bike_id":"6e974166-206e-46d1-ad5d-8e9de480c2e1","system_id":"levelo_inurba_marseille","lat":43.307945,"lon":5.376487,"is_reserved":false,"is_disabled":false,"rental_uris":{"android":"levelo://app?vid=6e974166-206e-46d1-ad5d-8e9de480c2e1","ios":"levelo://app?vid=6e974166-206e-46d1-ad5d-8e9de480c2e1"},"vehicle_type_id":"4","last_reported":1690992493,"current_range_meters":21600,"station_id":"ce4bgv92rcd13ifvqcq0","pricing_plan_id":"free"},{"bike_id":"538883bc-8939-44e7-a4d9-00f4431276f7","system_id":"levelo_inurba_marseille","lat":43.31537,"lon":5.38032,"is_reserved":false,"is_disabled":false,"rental_uris":{"android":"levelo://app?vid=538883bc-8939-44e7-a4d9-00f4431276f7","ios":"levelo://app?vid=538883bc-8939-44e7-a4d9-00f4431276f7"},"vehicle_type_id":"4","last_reported":1690992493,"current_range_meters":25600,"station_id":"ce4bhsp2rcd13ifvqi50","pricing_plan_id":"free"},{"bike_id":"cf8c9f8b-e344-478b-897a-6d9b0c20fa37","system_id":"levelo_inurba_marseille","lat":43.31527,"lon":5.38038,"is_reserved":false,"is_disabled":false,"rental_uris":{"android":"levelo://app?vid=cf8c9f8b-e344-478b-897a-6d9b0c20fa37","ios":"levelo://app?vid=cf8c9f8b-e344-478b-897a-6d9b0c20fa37"},"vehicle_type_id":"4","last_reported":1690992493,"current_range_meters":6400,"station_id":"ce4bhsp2rcd13ifvqi50","pricing_plan_id":"free"},{"bike_id":"a904f371-2d12-41b2-aa09-f95903c2c7ef","system_id":"levelo_inurba_marseille","lat":43.31532,"lon":5.38038,"is_reserved":false,"is_disabled":false,"rental_uris":{"android":"levelo://app?vid=a904f371-2d12-41b2-aa09-f95903c2c7ef","ios":"levelo://app?vid=a904f371-2d12-41b2-aa09-f95903c2c7ef"},"vehicle_type_id":"4","last_reported":1690992493,"current_range_meters":25200,"station_id":"ce4bhsp2rcd13ifvqi50","pricing_plan_id":"free"},{"bike_id":"daeefd53-5538-4b56-ad3f-a7bea168502c","system_id":"levelo_inurba_marseille","lat":43.315293,"lon":5.380349,"is_reserved":false,"is_disabled":false,"rental_uris":{"android":"levelo://app?vid=daeefd53-5538-4b56-ad3f-a7bea168502c","ios":"levelo://app?vid=daeefd53-5538-4b56-ad3f-a7bea168502c"},"vehicle_type_id":"4","last_reported":1690992493,"current_range_meters":24000,"station_id":"ce4bhsp2rcd13ifvqi50","pricing_plan_id":"free"},{"bike_id":"69efd253-fbbb-4a73-9ba0-16d8244fa080","system_id":"levelo_inurba_marseille","lat":43.304606,"lon":5.379026,"is_reserved":false,"is_disabled":false,"rental_uris":{"android":"levelo://app?vid=69efd253-fbbb-4a73-9ba0-16d8244fa080","ios":"levelo://app?vid=69efd253-fbbb-4a73-9ba0-16d8244fa080"},"vehicle_type_id":"4","last_reported":1690992493,"current_range_meters":24400,"station_id":"ce4bgup2rcd13ifvqcn0","pricing_plan_id":"free"},{"bike_id":"5573bf4c-966c-48ee-93c2-1ac5ad2dc71b","system_id":"levelo_inurba_marseille","lat":43.319935,"lon":5.381699,"is_reserved":false,"is_disabled":false,"rental_uris":{"android":"levelo://app?vid=5573bf4c-966c-48ee-93c2-1ac5ad2dc71b","ios":"levelo://app?vid=5573bf4c-966c-48ee-93c2-1ac5ad2dc71b"},"vehicle_type_id":"4","last_reported":1690992493,"current_range_meters":20400,"station_id":"ce4bhr12rcd13ifvqhpg","pricing_plan_id":"free"},{"bike_id":"38df3d61-a59e-4499-95e6-94b2a9d33314","system_id":"levelo_inurba_marseille","lat":43.319935,"lon":5.381699,"is_reserved":false,"is_disabled":false,"rental_uris":{"android":"levelo://app?vid=38df3d61-a59e-4499-95e6-94b2a9d33314","ios":"levelo://app?vid=38df3d61-a59e-4499-95e6-94b2a9d33314"},"vehicle_type_id":"4","last_reported":1690992493,"current_range_meters":22000,"station_id":"ce4bhr12rcd13ifvqhpg","pricing_plan_id":"free"},{"bike_id":"200f98e5-cb71-4f1f-90a9-d80b1fb9897b","system_id":"levelo_inurba_marseille","lat":43.31994,"lon":5.38155,"is_reserved":false,"is_disabled":false,"rental_uris":{"android":"levelo://app?vid=200f98e5-cb71-4f1f-90a9-d80b1fb9897b","ios":"levelo://app?vid=200f98e5-cb71-4f1f-90a9-d80b1fb9897b"},"vehicle_type_id":"4","last_reported":1690992493,"current_range_meters":23600,"station_id":"ce4bhr12rcd13ifvqhpg","pricing_plan_id":"free"},{"bike_id":"72449b95-50fd-45fe-8a64-1903ee6c9517","system_id":"levelo_inurba_marseille","lat":43.313571,"lon":5.384829,"is_reserved":false,"is_disabled":false,"rental_uris":{"android":"levelo://app?vid=72449b95-50fd-45fe-8a64-1903ee6c9517","ios":"levelo://app?vid=72449b95-50fd-45fe-8a64-1903ee6c9517"},"vehicle_type_id":"4","last_reported":1690992493,"current_range_meters":26800,"station_id":"ce4bgt92rcd13ifvqcf0","pricing_plan_id":"free"},{"bike_id":"30537d43-af02-4a10-b928-7b9b8cf633d2","system_id":"levelo_inurba_marseille","lat":43.305364,"lon":5.384119,"is_reserved":false,"is_disabled":false,"rental_uris":{"android":"levelo://app?vid=30537d43-af02-4a10-b928-7b9b8cf633d2","ios":"levelo://app?vid=30537d43-af02-4a10-b928-7b9b8cf633d2"},"vehicle_type_id":"4","last_reported":1690992493,"current_range_meters":29200,"station_id":"ce4bgg92rcd13ifvqb30","pricing_plan_id":"free"},{"bike_id":"8ba84754-7fc0-4ee5-9e01-e1b95bd26f8a","system_id":"levelo_inurba_marseille","lat":43.298433,"lon":5.362774,"is_reserved":false,"is_disabled":false,"rental_uris":{"android":"levelo://app?vid=8ba84754-7fc0-4ee5-9e01-e1b95bd26f8a","ios":"levelo://app?vid=8ba84754-7fc0-4ee5-9e01-e1b95bd26f8a"},"vehicle_type_id":"4","last_reported":1690992493,"current_range_meters":8000,"station_id":"ce4bgpp2rcd13ifvqc3g","pricing_plan_id":"free"},{"bike_id":"96f72db2-a612-41cf-abe5-9a1177a4a796","system_id":"levelo_inurba_marseille","lat":43.298433,"lon":5.362774,"is_reserved":false,"is_disabled":false,"rental_uris":{"android":"levelo://app?vid=96f72db2-a612-41cf-abe5-9a1177a4a796","ios":"levelo://app?vid=96f72db2-a612-41cf-abe5-9a1177a4a796"},"vehicle_type_id":"4","last_reported":1690992493,"current_range_meters":9200,"station_id":"ce4bgpp2rcd13ifvqc3g","pricing_plan_id":"free"},{"bike_id":"5fe8ef05-4db2-4f5d-8a1e-ad8026b19768","system_id":"levelo_inurba_marseille","lat":43.32286,"lon":5.38259,"is_reserved":false,"is_disabled":false,"rental_uris":{"android":"levelo://app?vid=5fe8ef05-4db2-4f5d-8a1e-ad8026b19768","ios":"levelo://app?vid=5fe8ef05-4db2-4f5d-8a1e-ad8026b19768"},"vehicle_type_id":"4","last_reported":1690992493,"current_range_meters":31200,"station_id":"ce4bhr12rcd13ifvqhqg","pricing_plan_id":"free"},{"bike_id":"01eb1fb8-673d-4f19-9ad9-040e1da82ec5","system_id":"levelo_inurba_marseille","lat":43.297794,"lon":5.370888,"is_reserved":false,"is_disabled":false,"rental_uris":{"android":"levelo://app?vid=01eb1fb8-673d-4f19-9ad9-040e1da82ec5","ios":"levelo://app?vid=01eb1fb8-673d-4f19-9ad9-040e1da82ec5"},"vehicle_type_id":"4","last_reported":1690992493,"current_range_meters":7200,"station_id":"ce4bgop2rcd13ifvqc1g","pricing_plan_id":"free"},{"bike_id":"64ea26b7-acae-42ad-a6a0-88231e5e3114","system_id":"levelo_inurba_marseille","lat":43.290104,"lon":5.356111,"is_reserved":false,"is_disabled":false,"rental_uris":{"android":"levelo://app?vid=64ea26b7-acae-42ad-a6a0-88231e5e3114","ios":"levelo://app?vid=64ea26b7-acae-42ad-a6a0-88231e5e3114"},"vehicle_type_id":"4","last_reported":1690992493,"current_range_meters":21200,"station_id":"ce4bhb92rcd13ifvqen0","pricing_plan_id":"free"},{"bike_id":"647bbb61-5e4f-4c06-9100-c0c890c9a2a0","system_id":"levelo_inurba_marseille","lat":43.32284,"lon":5.38279,"is_reserved":false,"is_disabled":false,"rental_uris":{"android":"levelo://app?vid=647bbb61-5e4f-4c06-9100-c0c890c9a2a0","ios":"levelo://app?vid=647bbb61-5e4f-4c06-9100-c0c890c9a2a0"},"vehicle_type_id":"4","last_reported":1690992493,"current_range_meters":18800,"station_id":"ce4bhr12rcd13ifvqhqg","pricing_plan_id":"free"},{"bike_id":"4428d793-10b6-4e43-91af-7626c02dde2b","system_id":"levelo_inurba_marseille","lat":43.32828,"lon":5.36685,"is_reserved":false,"is_disabled":false,"rental_uris":{"android":"levelo://app?vid=4428d793-10b6-4e43-91af-7626c02dde2b","ios":"levelo://app?vid=4428d793-10b6-4e43-91af-7626c02dde2b"},"vehicle_type_id":"4","last_reported":1690992493,"current_range_meters":28400,"station_id":"ce4bhs92rcd13ifvqi0g","pricing_plan_id":"free"},{"bike_id":"6a80adeb-da51-4538-9a45-ae4375c6b71a","system_id":"levelo_inurba_marseille","lat":43.32831,"lon":5.3668,"is_reserved":false,"is_disabled":false,"rental_uris":{"android":"levelo://app?vid=6a80adeb-da51-4538-9a45-ae4375c6b71a","ios":"levelo://app?vid=6a80adeb-da51-4538-9a45-ae4375c6b71a"},"vehicle_type_id":"4","last_reported":1690992493,"current_range_meters":0,"station_id":"ce4bhs92rcd13ifvqi0g","pricing_plan_id":"free"},{"bike_id":"3c84e741-4334-47a0-b17b-6869b176288b","system_id":"levelo_inurba_marseille","lat":43.297163,"lon":5.365866,"is_reserved":false,"is_disabled":false,"rental_uris":{"android":"levelo://app?vid=3c84e741-4334-47a0-b17b-6869b176288b","ios":"levelo://app?vid=3c84e741-4334-47a0-b17b-6869b176288b"},"vehicle_type_id":"4","last_reported":1690992493,"current_range_meters":12800,"station_id":"ce4bgn12rcd13ifvqbt0","pricing_plan_id":"free"},{"bike_id":"e09a0f7c-023e-4111-af5d-cebf709f018d","system_id":"levelo_inurba_marseille","lat":43.29717,"lon":5.36607,"is_reserved":false,"is_disabled":false,"rental_uris":{"android":"levelo://app?vid=e09a0f7c-023e-4111-af5d-cebf709f018d","ios":"levelo://app?vid=e09a0f7c-023e-4111-af5d-cebf709f018d"},"vehicle_type_id":"4","last_reported":1690992493,"current_range_meters":12800,"station_id":"ce4bgn12rcd13ifvqbt0","pricing_plan_id":"free"},{"bike_id":"e131e158-32bb-4cc7-861f-8ed202cb7b7f","system_id":"levelo_inurba_marseille","lat":43.297163,"lon":5.365866,"is_reserved":false,"is_disabled":false,"rental_uris":{"android":"levelo://app?vid=e131e158-32bb-4cc7-861f-8ed202cb7b7f","ios":"levelo://app?vid=e131e158-32bb-4cc7-861f-8ed202cb7b7f"},"vehicle_type_id":"4","last_reported":1690992493,"current_range_meters":9600,"station_id":"ce4bgn12rcd13ifvqbt0","pricing_plan_id":"free"},{"bike_id":"dd789220-e7b5-42c1-b9dc-dc4243148021","system_id":"levelo_inurba_marseille","lat":43.297163,"lon":5.365866,"is_reserved":false,"is_disabled":false,"rental_uris":{"android":"levelo://app?vid=dd789220-e7b5-42c1-b9dc-dc4243148021","ios":"levelo://app?vid=dd789220-e7b5-42c1-b9dc-dc4243148021"},"vehicle_type_id":"4","last_reported":1690992493,"current_range_meters":32000,"station_id":"ce4bgn12rcd13ifvqbt0","pricing_plan_id":"free"},{"bike_id":"d722ef27-bb72-445e-80ce-64e19fb1d7ee","system_id":"levelo_inurba_marseille","lat":43.2971,"lon":5.36615,"is_reserved":false,"is_disabled":false,"rental_uris":{"android":"levelo://app?vid=d722ef27-bb72-445e-80ce-64e19fb1d7ee","ios":"levelo://app?vid=d722ef27-bb72-445e-80ce-64e19fb1d7ee"},"vehicle_type_id":"4","last_reported":1690992493,"current_range_meters":22000,"station_id":"ce4bgn12rcd13ifvqbt0","pricing_plan_id":"free"},{"bike_id":"259ec9fe-cf10-4a4e-aeb6-bc542a81a5e9","system_id":"levelo_inurba_marseille","lat":43.297163,"lon":5.365866,"is_reserved":false,"is_disabled":false,"rental_uris":{"android":"levelo://app?vid=259ec9fe-cf10-4a4e-aeb6-bc542a81a5e9","ios":"levelo://app?vid=259ec9fe-cf10-4a4e-aeb6-bc542a81a5e9"},"vehicle_type_id":"4","last_reported":1690992493,"current_range_meters":30800,"station_id":"ce4bgn12rcd13ifvqbt0","pricing_plan_id":"free"},{"bike_id":"cde6ce8c-54ce-4c80-9e0f-d1d0f83652d6","system_id":"levelo_inurba_marseille","lat":43.29573,"lon":5.367355,"is_reserved":false,"is_disabled":false,"rental_uris":{"android":"levelo://app?vid=cde6ce8c-54ce-4c80-9e0f-d1d0f83652d6","ios":"levelo://app?vid=cde6ce8c-54ce-4c80-9e0f-d1d0f83652d6"},"vehicle_type_id":"4","last_reported":1690992493,"current_range_meters":8400,"station_id":"ce4bgph2rcd13ifvqc2g","pricing_plan_id":"free"},{"bike_id":"c6f63ac6-a30d-4265-ba78-515f84ba7c3b","system_id":"levelo_inurba_marseille","lat":43.28039,"lon":5.369297,"is_reserved":false,"is_disabled":false,"rental_uris":{"android":"levelo://app?vid=c6f63ac6-a30d-4265-ba78-515f84ba7c3b","ios":"levelo://app?vid=c6f63ac6-a30d-4265-ba78-515f84ba7c3b"},"vehicle_type_id":"4","last_reported":1690992493,"current_range_meters":14000,"station_id":"ce4bha12rcd13ifvqef0","pricing_plan_id":"free"},{"bike_id":"f0b1921d-8fc5-42f6-8214-26455e772ce5","system_id":"levelo_inurba_marseille","lat":43.30953,"lon":5.39035,"is_reserved":false,"is_disabled":false,"rental_uris":{"android":"levelo://app?vid=f0b1921d-8fc5-42f6-8214-26455e772ce5","ios":"levelo://app?vid=f0b1921d-8fc5-42f6-8214-26455e772ce5"},"vehicle_type_id":"4","last_reported":1690992493,"current_range_meters":15600,"station_id":"ce4bgup2rcd13ifvqco0","pricing_plan_id":"free"},{"bike_id":"5f6fe95b-3122-4dec-b32f-dccd539cf579","system_id":"levelo_inurba_marseille","lat":43.317557,"lon":5.390173,"is_reserved":false,"is_disabled":false,"rental_uris":{"android":"levelo://app?vid=5f6fe95b-3122-4dec-b32f-dccd539cf579","ios":"levelo://app?vid=5f6fe95b-3122-4dec-b32f-dccd539cf579"},"vehicle_type_id":"4","last_reported":1690992493,"current_range_meters":23600,"station_id":"ce4bhqp2rcd13ifvqhng","pricing_plan_id":"free"},{"bike_id":"d703dee8-f8a9-4d10-9377-0f7e094c5bbd","system_id":"levelo_inurba_marseille","lat":43.317557,"lon":5.390173,"is_reserved":false,"is_disabled":false,"rental_uris":{"android":"levelo://app?vid=d703dee8-f8a9-4d10-9377-0f7e094c5bbd","ios":"levelo://app?vid=d703dee8-f8a9-4d10-9377-0f7e094c5bbd"},"vehicle_type_id":"4","last_reported":1690992493,"current_range_meters":18800,"station_id":"ce4bhqp2rcd13ifvqhng","pricing_plan_id":"free"},{"bike_id":"3e98b8b4-07d6-4995-a392-97dabac14f7d","system_id":"levelo_inurba_marseille","lat":43.317557,"lon":5.390173,"is_reserved":false,"is_disabled":false,"rental_uris":{"android":"levelo://app?vid=3e98b8b4-07d6-4995-a392-97dabac14f7d","ios":"levelo://app?vid=3e98b8b4-07d6-4995-a392-97dabac14f7d"},"vehicle_type_id":"4","last_reported":1690992493,"current_range_meters":31600,"station_id":"ce4bhqp2rcd13ifvqhng","pricing_plan_id":"free"},{"bike_id":"77ebcbd8-e117-438c-bee7-adc1d55aa45b","system_id":"levelo_inurba_marseille","lat":43.317557,"lon":5.390173,"is_reserved":false,"is_disabled":false,"rental_uris":{"android":"levelo://app?vid=77ebcbd8-e117-438c-bee7-adc1d55aa45b","ios":"levelo://app?vid=77ebcbd8-e117-438c-bee7-adc1d55aa45b"},"vehicle_type_id":"4","last_reported":1690992493,"current_range_meters":4400,"station_id":"ce4bhqp2rcd13ifvqhng","pricing_plan_id":"free"},{"bike_id":"3cef7228-7851-430b-b168-52a55960b6c2","system_id":"levelo_inurba_marseille","lat":43.317557,"lon":5.390173,"is_reserved":false,"is_disabled":false,"rental_uris":{"android":"levelo://app?vid=3cef7228-7851-430b-b168-52a55960b6c2","ios":"levelo://app?vid=3cef7228-7851-430b-b168-52a55960b6c2"},"vehicle_type_id":"4","last_reported":1690992493,"current_range_meters":31200,"station_id":"ce4bhqp2rcd13ifvqhng","pricing_plan_id":"free"},{"bike_id":"55e54075-e293-4dd4-a233-0813229af09d","system_id":"levelo_inurba_marseille","lat":43.317557,"lon":5.390173,"is_reserved":false,"is_disabled":false,"rental_uris":{"android":"levelo://app?vid=55e54075-e293-4dd4-a233-0813229af09d","ios":"levelo://app?vid=55e54075-e293-4dd4-a233-0813229af09d"},"vehicle_type_id":"4","last_reported":1690992493,"current_range_meters":25200,"station_id":"ce4bhqp2rcd13ifvqhng","pricing_plan_id":"free"},{"bike_id":"da901600-bc39-47cb-bb33-e257bcc60851","system_id":"levelo_inurba_marseille","lat":43.298037,"lon":5.381066,"is_reserved":false,"is_disabled":false,"rental_uris":{"android":"levelo://app?vid=da901600-bc39-47cb-bb33-e257bcc60851","ios":"levelo://app?vid=da901600-bc39-47cb-bb33-e257bcc60851"},"vehicle_type_id":"4","last_reported":1690992493,"current_range_meters":4000,"station_id":"ce4bgip2rcd13ifvqbb0","pricing_plan_id":"free"},{"bike_id":"e74c8c1e-a13e-4455-9ebe-80f9fdb44e8d","system_id":"levelo_inurba_marseille","lat":43.296277,"lon":5.377108,"is_reserved":false,"is_disabled":false,"rental_uris":{"android":"levelo://app?vid=e74c8c1e-a13e-4455-9ebe-80f9fdb44e8d","ios":"levelo://app?vid=e74c8c1e-a13e-4455-9ebe-80f9fdb44e8d"},"vehicle_type_id":"4","last_reported":1690992493,"current_range_meters":31200,"station_id":"ce4bgi92rcd13ifvqb90","pricing_plan_id":"free"},{"bike_id":"bddc840e-8074-46d8-9958-29c57f734ed4","system_id":"levelo_inurba_marseille","lat":43.30423,"lon":5.38892,"is_reserved":false,"is_disabled":false,"rental_uris":{"android":"levelo://app?vid=bddc840e-8074-46d8-9958-29c57f734ed4","ios":"levelo://app?vid=bddc840e-8074-46d8-9958-29c57f734ed4"},"vehicle_type_id":"4","last_reported":1690992493,"current_range_meters":20000,"station_id":"","pricing_plan_id":"free"},{"bike_id":"1100a965-6d92-4769-9131-d84d2dbeb5f7","system_id":"levelo_inurba_marseille","lat":43.296263,"lon":5.377094,"is_reserved":false,"is_disabled":false,"rental_uris":{"android":"levelo://app?vid=1100a965-6d92-4769-9131-d84d2dbeb5f7","ios":"levelo://app?vid=1100a965-6d92-4769-9131-d84d2dbeb5f7"},"vehicle_type_id":"4","last_reported":1690992493,"current_range_meters":30000,"station_id":"ce4bgi92rcd13ifvqb90","pricing_plan_id":"free"},{"bike_id":"951576c4-6476-43bc-8217-fdb6df4d238f","system_id":"levelo_inurba_marseille","lat":43.296263,"lon":5.377094,"is_reserved":false,"is_disabled":false,"rental_uris":{"android":"levelo://app?vid=951576c4-6476-43bc-8217-fdb6df4d238f","ios":"levelo://app?vid=951576c4-6476-43bc-8217-fdb6df4d238f"},"vehicle_type_id":"4","last_reported":1690992493,"current_range_meters":11200,"station_id":"ce4bgi92rcd13ifvqb90","pricing_plan_id":"free"},{"bike_id":"b52cf151-fdd6-4711-bf26-f142546b7075","system_id":"levelo_inurba_marseille","lat":43.29534,"lon":5.37457,"is_reserved":false,"is_disabled":false,"rental_uris":{"android":"levelo://app?vid=b52cf151-fdd6-4711-bf26-f142546b7075","ios":"levelo://app?vid=b52cf151-fdd6-4711-bf26-f142546b7075"},"vehicle_type_id":"4","last_reported":1690992493,"current_range_meters":21200,"station_id":"ce4bgkp2rcd13ifvqbmg","pricing_plan_id":"free"},{"bike_id":"58a6635c-4a80-4f19-a739-16c42ebed577","system_id":"levelo_inurba_marseille","lat":43.32366,"lon":5.38878,"is_reserved":false,"is_disabled":false,"rental_uris":{"android":"levelo://app?vid=58a6635c-4a80-4f19-a739-16c42ebed577","ios":"levelo://app?vid=58a6635c-4a80-4f19-a739-16c42ebed577"},"vehicle_type_id":"4","last_reported":1690992493,"current_range_meters":17600,"station_id":"ce4bhqp2rcd13ifvqhog","pricing_plan_id":"free"},{"bike_id":"ae548e81-e003-4748-8fa2-5c0fb569d70d","system_id":"levelo_inurba_marseille","lat":43.32367,"lon":5.388836,"is_reserved":false,"is_disabled":false,"rental_uris":{"android":"levelo://app?vid=ae548e81-e003-4748-8fa2-5c0fb569d70d","ios":"levelo://app?vid=ae548e81-e003-4748-8fa2-5c0fb569d70d"},"vehicle_type_id":"4","last_reported":1690992493,"current_range_meters":26400,"station_id":"ce4bhqp2rcd13ifvqhog","pricing_plan_id":"free"},{"bike_id":"419713fa-7cc1-4cfe-93fa-32add7c4fc42","system_id":"levelo_inurba_marseille","lat":43.32367,"lon":5.388836,"is_reserved":false,"is_disabled":false,"rental_uris":{"android":"levelo://app?vid=419713fa-7cc1-4cfe-93fa-32add7c4fc42","ios":"levelo://app?vid=419713fa-7cc1-4cfe-93fa-32add7c4fc42"},"vehicle_type_id":"4","last_reported":1690992493,"current_range_meters":14800,"station_id":"ce4bhqp2rcd13ifvqhog","pricing_plan_id":"free"},{"bike_id":"83e40035-5ae5-4bb2-89ae-adf2ef147026","system_id":"levelo_inurba_marseille","lat":43.323665,"lon":5.388845,"is_reserved":false,"is_disabled":false,"rental_uris":{"android":"levelo://app?vid=83e40035-5ae5-4bb2-89ae-adf2ef147026","ios":"levelo://app?vid=83e40035-5ae5-4bb2-89ae-adf2ef147026"},"vehicle_type_id":"4","last_reported":1690992493,"current_range_meters":18400,"station_id":"","pricing_plan_id":"free"},{"bike_id":"ef5d1edc-be2e-4323-93de-ada6a8e2aac3","system_id":"levelo_inurba_marseille","lat":43.32369,"lon":5.38883,"is_reserved":false,"is_disabled":false,"rental_uris":{"android":"levelo://app?vid=ef5d1edc-be2e-4323-93de-ada6a8e2aac3","ios":"levelo://app?vid=ef5d1edc-be2e-4323-93de-ada6a8e2aac3"},"vehicle_type_id":"4","last_reported":1690992493,"current_range_meters":27200,"station_id":"ce4bhqp2rcd13ifvqhog","pricing_plan_id":"free"},{"bike_id":"48043a1d-4fe7-466d-96fd-b0352977ef75","system_id":"levelo_inurba_marseille","lat":43.32365,"lon":5.38887,"is_reserved":false,"is_disabled":false,"rental_uris":{"android":"levelo://app?vid=48043a1d-4fe7-466d-96fd-b0352977ef75","ios":"levelo://app?vid=48043a1d-4fe7-466d-96fd-b0352977ef75"},"vehicle_type_id":"4","last_reported":1690992493,"current_range_meters":28400,"station_id":"ce4bhqp2rcd13ifvqhog","pricing_plan_id":"free"},{"bike_id":"5759cff4-3ff2-4260-bc36-bc9b93e57519","system_id":"levelo_inurba_marseille","lat":43.32369,"lon":5.3889,"is_reserved":false,"is_disabled":false,"rental_uris":{"android":"levelo://app?vid=5759cff4-3ff2-4260-bc36-bc9b93e57519","ios":"levelo://app?vid=5759cff4-3ff2-4260-bc36-bc9b93e57519"},"vehicle_type_id":"4","last_reported":1690992493,"current_range_meters":21600,"station_id":"ce4bhqp2rcd13ifvqhog","pricing_plan_id":"free"},{"bike_id":"918d663e-a33f-47a2-b209-40782e102914","system_id":"levelo_inurba_marseille","lat":43.293009,"lon":5.374584,"is_reserved":false,"is_disabled":false,"rental_uris":{"android":"levelo://app?vid=918d663e-a33f-47a2-b209-40782e102914","ios":"levelo://app?vid=918d663e-a33f-47a2-b209-40782e102914"},"vehicle_type_id":"4","last_reported":1690992493,"current_range_meters":0,"station_id":"ce4bgi12rcd13ifvqb70","pricing_plan_id":"free"},{"bike_id":"9ffce497-fea4-4002-a8b2-50916cf65ffe","system_id":"levelo_inurba_marseille","lat":43.292311,"lon":5.360731,"is_reserved":false,"is_disabled":false,"rental_uris":{"android":"levelo://app?vid=9ffce497-fea4-4002-a8b2-50916cf65ffe","ios":"levelo://app?vid=9ffce497-fea4-4002-a8b2-50916cf65ffe"},"vehicle_type_id":"4","last_reported":1690992493,"current_range_meters":30800,"station_id":"ce4bhbh2rcd13ifvqeqg","pricing_plan_id":"free"},{"bike_id":"7a33a875-27bb-4608-af72-a42f0ec24f66","system_id":"levelo_inurba_marseille","lat":43.30085,"lon":5.390856,"is_reserved":false,"is_disabled":false,"rental_uris":{"android":"levelo://app?vid=7a33a875-27bb-4608-af72-a42f0ec24f66","ios":"levelo://app?vid=7a33a875-27bb-4608-af72-a42f0ec24f66"},"vehicle_type_id":"4","last_reported":1690992493,"current_range_meters":6800,"station_id":"ce4bh192rcd13ifvqdb0","pricing_plan_id":"free"},{"bike_id":"a641410e-7c0c-4221-980b-8bd848f6709c","system_id":"levelo_inurba_marseille","lat":43.292663,"lon":5.376389,"is_reserved":false,"is_disabled":false,"rental_uris":{"android":"levelo://app?vid=a641410e-7c0c-4221-980b-8bd848f6709c","ios":"levelo://app?vid=a641410e-7c0c-4221-980b-8bd848f6709c"},"vehicle_type_id":"4","last_reported":1690992493,"current_range_meters":0,"station_id":"ce4bgi12rcd13ifvqb80","pricing_plan_id":"free"},{"bike_id":"f888bae3-b747-44fc-9df0-3e3cc6704bf1","system_id":"levelo_inurba_marseille","lat":43.29264,"lon":5.37634,"is_reserved":false,"is_disabled":false,"rental_uris":{"android":"levelo://app?vid=f888bae3-b747-44fc-9df0-3e3cc6704bf1","ios":"levelo://app?vid=f888bae3-b747-44fc-9df0-3e3cc6704bf1"},"vehicle_type_id":"4","last_reported":1690992493,"current_range_meters":6000,"station_id":"","pricing_plan_id":"free"},{"bike_id":"9d1b0acb-0968-488f-a570-c7736ae47ddb","system_id":"levelo_inurba_marseille","lat":43.292663,"lon":5.376394,"is_reserved":false,"is_disabled":false,"rental_uris":{"android":"levelo://app?vid=9d1b0acb-0968-488f-a570-c7736ae47ddb","ios":"levelo://app?vid=9d1b0acb-0968-488f-a570-c7736ae47ddb"},"vehicle_type_id":"4","last_reported":1690992493,"current_range_meters":9600,"station_id":"ce4bgi12rcd13ifvqb80","pricing_plan_id":"free"},{"bike_id":"27d3b92b-fafc-4868-81f4-0527e6d69ec9","system_id":"levelo_inurba_marseille","lat":43.292663,"lon":5.376389,"is_reserved":false,"is_disabled":false,"rental_uris":{"android":"levelo://app?vid=27d3b92b-fafc-4868-81f4-0527e6d69ec9","ios":"levelo://app?vid=27d3b92b-fafc-4868-81f4-0527e6d69ec9"},"vehicle_type_id":"4","last_reported":1690992493,"current_range_meters":800,"station_id":"ce4bgi12rcd13ifvqb80","pricing_plan_id":"free"},{"bike_id":"b7fef1ed-ce0d-4fc2-9850-420f6b432256","system_id":"levelo_inurba_marseille","lat":43.308655,"lon":5.395989,"is_reserved":false,"is_disabled":false,"rental_uris":{"android":"levelo://app?vid=b7fef1ed-ce0d-4fc2-9850-420f6b432256","ios":"levelo://app?vid=b7fef1ed-ce0d-4fc2-9850-420f6b432256"},"vehicle_type_id":"4","last_reported":1690992493,"current_range_meters":15600,"station_id":"ce4bh012rcd13ifvqcv0","pricing_plan_id":"free"},{"bike_id":"8f6293be-fa04-457f-93fc-891bb0f9b88e","system_id":"levelo_inurba_marseille","lat":43.29197,"lon":5.35798,"is_reserved":false,"is_disabled":false,"rental_uris":{"android":"levelo://app?vid=8f6293be-fa04-457f-93fc-891bb0f9b88e","ios":"levelo://app?vid=8f6293be-fa04-457f-93fc-891bb0f9b88e"},"vehicle_type_id":"4","last_reported":1690992493,"current_range_meters":8800,"station_id":"ce4bhb12rcd13ifvqel0","pricing_plan_id":"free"},{"bike_id":"ac529fea-b1a6-49f2-8aee-304a36638a83","system_id":"levelo_inurba_marseille","lat":43.30888,"lon":5.39637,"is_reserved":false,"is_disabled":false,"rental_uris":{"android":"levelo://app?vid=ac529fea-b1a6-49f2-8aee-304a36638a83","ios":"levelo://app?vid=ac529fea-b1a6-49f2-8aee-304a36638a83"},"vehicle_type_id":"4","last_reported":1690992493,"current_range_meters":0,"station_id":"ce4bh012rcd13ifvqcv0","pricing_plan_id":"free"},{"bike_id":"a2518816-e7ea-47d8-8497-a87590f79aae","system_id":"levelo_inurba_marseille","lat":43.29196,"lon":5.358,"is_reserved":false,"is_disabled":false,"rental_uris":{"android":"levelo://app?vid=a2518816-e7ea-47d8-8497-a87590f79aae","ios":"levelo://app?vid=a2518816-e7ea-47d8-8497-a87590f79aae"},"vehicle_type_id":"4","last_reported":1690992493,"current_range_meters":24400,"station_id":"ce4bhb12rcd13ifvqel0","pricing_plan_id":"free"},{"bike_id":"ab87b101-6033-46a5-a821-65bbaf29b614","system_id":"levelo_inurba_marseille","lat":43.29192,"lon":5.35792,"is_reserved":false,"is_disabled":false,"rental_uris":{"android":"levelo://app?vid=ab87b101-6033-46a5-a821-65bbaf29b614","ios":"levelo://app?vid=ab87b101-6033-46a5-a821-65bbaf29b614"},"vehicle_type_id":"4","last_reported":1690992493,"current_range_meters":10800,"station_id":"ce4bhb12rcd13ifvqel0","pricing_plan_id":"free"},{"bike_id":"d8353796-c7f0-4c08-b5fa-90ffcf390f56","system_id":"levelo_inurba_marseille","lat":43.30885,"lon":5.39645,"is_reserved":false,"is_disabled":false,"rental_uris":{"android":"levelo://app?vid=d8353796-c7f0-4c08-b5fa-90ffcf390f56","ios":"levelo://app?vid=d8353796-c7f0-4c08-b5fa-90ffcf390f56"},"vehicle_type_id":"4","last_reported":1690992493,"current_range_meters":26000,"station_id":"ce4bh012rcd13ifvqcv0","pricing_plan_id":"free"},{"bike_id":"19de96ef-474d-4b5f-9cc9-d244f415c020","system_id":"levelo_inurba_marseille","lat":43.309038,"lon":5.396546,"is_reserved":false,"is_disabled":false,"rental_uris":{"android":"levelo://app?vid=19de96ef-474d-4b5f-9cc9-d244f415c020","ios":"levelo://app?vid=19de96ef-474d-4b5f-9cc9-d244f415c020"},"vehicle_type_id":"4","last_reported":1690992493,"current_range_meters":24400,"station_id":"ce4bh012rcd13ifvqcv0","pricing_plan_id":"free"},{"bike_id":"0c974dec-45de-46ac-9fe2-114517541caf","system_id":"levelo_inurba_marseille","lat":43.29529,"lon":5.385581,"is_reserved":false,"is_disabled":false,"rental_uris":{"android":"levelo://app?vid=0c974dec-45de-46ac-9fe2-114517541caf","ios":"levelo://app?vid=0c974dec-45de-46ac-9fe2-114517541caf"},"vehicle_type_id":"4","last_reported":1690992493,"current_range_meters":22400,"station_id":"ce4bgih2rcd13ifvqba0","pricing_plan_id":"free"},{"bike_id":"88484b95-6585-4a8c-8d5c-d0b8e68406d1","system_id":"levelo_inurba_marseille","lat":43.29529,"lon":5.385581,"is_reserved":false,"is_disabled":false,"rental_uris":{"android":"levelo://app?vid=88484b95-6585-4a8c-8d5c-d0b8e68406d1","ios":"levelo://app?vid=88484b95-6585-4a8c-8d5c-d0b8e68406d1"},"vehicle_type_id":"4","last_reported":1690992493,"current_range_meters":10800,"station_id":"ce4bgih2rcd13ifvqba0","pricing_plan_id":"free"},{"bike_id":"10c5e58c-f4d1-4172-bfe6-267683790168","system_id":"levelo_inurba_marseille","lat":43.29529,"lon":5.385581,"is_reserved":false,"is_disabled":false,"rental_uris":{"android":"levelo://app?vid=10c5e58c-f4d1-4172-bfe6-267683790168","ios":"levelo://app?vid=10c5e58c-f4d1-4172-bfe6-267683790168"},"vehicle_type_id":"4","last_reported":1690992493,"current_range_meters":17600,"station_id":"ce4bgih2rcd13ifvqba0","pricing_plan_id":"free"},{"bike_id":"a3fe21c0-d8be-4078-8beb-9fc82fab7545","system_id":"levelo_inurba_marseille","lat":43.29529,"lon":5.385581,"is_reserved":false,"is_disabled":false,"rental_uris":{"android":"levelo://app?vid=a3fe21c0-d8be-4078-8beb-9fc82fab7545","ios":"levelo://app?vid=a3fe21c0-d8be-4078-8beb-9fc82fab7545"},"vehicle_type_id":"4","last_reported":1690992493,"current_range_meters":22800,"station_id":"ce4bgih2rcd13ifvqba0","pricing_plan_id":"free"},{"bike_id":"3ca2efb3-c7d0-42f6-aded-fbc84f7d74a2","system_id":"levelo_inurba_marseille","lat":43.290631,"lon":5.359244,"is_reserved":false,"is_disabled":false,"rental_uris":{"android":"levelo://app?vid=3ca2efb3-c7d0-42f6-aded-fbc84f7d74a2","ios":"levelo://app?vid=3ca2efb3-c7d0-42f6-aded-fbc84f7d74a2"},"vehicle_type_id":"4","last_reported":1690992493,"current_range_meters":9200,"station_id":"ce4bha92rcd13ifvqeg0","pricing_plan_id":"free"},{"bike_id":"06a47ed0-151f-466b-98f3-03b74f291a7d","system_id":"levelo_inurba_marseille","lat":43.290624,"lon":5.359245,"is_reserved":false,"is_disabled":false,"rental_uris":{"android":"levelo://app?vid=06a47ed0-151f-466b-98f3-03b74f291a7d","ios":"levelo://app?vid=06a47ed0-151f-466b-98f3-03b74f291a7d"},"vehicle_type_id":"4","last_reported":1690992493,"current_range_meters":17600,"station_id":"ce4bha92rcd13ifvqeg0","pricing_plan_id":"free"},{"bike_id":"61fc9cf3-54cf-49f5-ab59-9843eb085e4f","system_id":"levelo_inurba_marseille","lat":43.289184,"lon":5.366408,"is_reserved":false,"is_disabled":false,"rental_uris":{"android":"levelo://app?vid=61fc9cf3-54cf-49f5-ab59-9843eb085e4f","ios":"levelo://app?vid=61fc9cf3-54cf-49f5-ab59-9843eb085e4f"},"vehicle_type_id":"4","last_reported":1690992493,"current_range_meters":29200,"station_id":"ce4bhap2rcd13ifvqek0","pricing_plan_id":"free"},{"bike_id":"63922450-dd9c-4867-9fb9-aeae1b388fe7","system_id":"levelo_inurba_marseille","lat":43.292642,"lon":5.384254,"is_reserved":false,"is_disabled":false,"rental_uris":{"android":"levelo://app?vid=63922450-dd9c-4867-9fb9-aeae1b388fe7","ios":"levelo://app?vid=63922450-dd9c-4867-9fb9-aeae1b388fe7"},"vehicle_type_id":"4","last_reported":1690992493,"current_range_meters":22800,"station_id":"ce4bh692rcd13ifvqea0","pricing_plan_id":"free"},{"bike_id":"b5f0a0cd-a98c-4c1a-8ffe-34c51c278d7d","system_id":"levelo_inurba_marseille","lat":43.29013,"lon":5.35621,"is_reserved":false,"is_disabled":false,"rental_uris":{"android":"levelo://app?vid=b5f0a0cd-a98c-4c1a-8ffe-34c51c278d7d","ios":"levelo://app?vid=b5f0a0cd-a98c-4c1a-8ffe-34c51c278d7d"},"vehicle_type_id":"4","last_reported":1690992493,"current_range_meters":26800,"station_id":"ce4bhb92rcd13ifvqen0","pricing_plan_id":"free"},{"bike_id":"05eb7167-1649-4b38-8503-b0d2e3456f24","system_id":"levelo_inurba_marseille","lat":43.33038,"lon":5.38918,"is_reserved":false,"is_disabled":false,"rental_uris":{"android":"levelo://app?vid=05eb7167-1649-4b38-8503-b0d2e3456f24","ios":"levelo://app?vid=05eb7167-1649-4b38-8503-b0d2e3456f24"},"vehicle_type_id":"4","last_reported":1690992493,"current_range_meters":29600,"station_id":"ce4bhr92rcd13ifvqhrg","pricing_plan_id":"free"},{"bike_id":"78f62ce6-e16b-41dc-ba14-549260470aff","system_id":"levelo_inurba_marseille","lat":43.29011,"lon":5.35612,"is_reserved":false,"is_disabled":false,"rental_uris":{"android":"levelo://app?vid=78f62ce6-e16b-41dc-ba14-549260470aff","ios":"levelo://app?vid=78f62ce6-e16b-41dc-ba14-549260470aff"},"vehicle_type_id":"4","last_reported":1690992493,"current_range_meters":3600,"station_id":"ce4bhb92rcd13ifvqen0","pricing_plan_id":"free"},{"bike_id":"f67edc25-bcc7-41fb-8431-1add679b0933","system_id":"levelo_inurba_marseille","lat":43.33038,"lon":5.38924,"is_reserved":false,"is_disabled":false,"rental_uris":{"android":"levelo://app?vid=f67edc25-bcc7-41fb-8431-1add679b0933","ios":"levelo://app?vid=f67edc25-bcc7-41fb-8431-1add679b0933"},"vehicle_type_id":"4","last_reported":1690992493,"current_range_meters":29600,"station_id":"ce4bhr92rcd13ifvqhrg","pricing_plan_id":"free"},{"bike_id":"0b40da1c-c5a8-44b1-ae95-03a93c8bf4e2","system_id":"levelo_inurba_marseille","lat":43.33041,"lon":5.3892,"is_reserved":false,"is_disabled":false,"rental_uris":{"android":"levelo://app?vid=0b40da1c-c5a8-44b1-ae95-03a93c8bf4e2","ios":"levelo://app?vid=0b40da1c-c5a8-44b1-ae95-03a93c8bf4e2"},"vehicle_type_id":"4","last_reported":1690992493,"current_range_meters":22400,"station_id":"ce4bhr92rcd13ifvqhrg","pricing_plan_id":"free"},{"bike_id":"8795e432-c7a3-4d95-9fa9-9f904bfbcb4a","system_id":"levelo_inurba_marseille","lat":43.33043,"lon":5.38917,"is_reserved":false,"is_disabled":false,"rental_uris":{"android":"levelo://app?vid=8795e432-c7a3-4d95-9fa9-9f904bfbcb4a","ios":"levelo://app?vid=8795e432-c7a3-4d95-9fa9-9f904bfbcb4a"},"vehicle_type_id":"4","last_reported":1690992493,"current_range_meters":22400,"station_id":"ce4bhr92rcd13ifvqhrg","pricing_plan_id":"free"},{"bike_id":"1b40bbc9-bee2-4e25-a269-93b0a0e63a9e","system_id":"levelo_inurba_marseille","lat":43.330423,"lon":5.389187,"is_reserved":false,"is_disabled":false,"rental_uris":{"android":"levelo://app?vid=1b40bbc9-bee2-4e25-a269-93b0a0e63a9e","ios":"levelo://app?vid=1b40bbc9-bee2-4e25-a269-93b0a0e63a9e"},"vehicle_type_id":"4","last_reported":1690992493,"current_range_meters":11600,"station_id":"ce4bhr92rcd13ifvqhrg","pricing_plan_id":"free"},{"bike_id":"20cf3f6d-acf4-4653-bf24-baa04253f77a","system_id":"levelo_inurba_marseille","lat":43.33043,"lon":5.38918,"is_reserved":false,"is_disabled":false,"rental_uris":{"android":"levelo://app?vid=20cf3f6d-acf4-4653-bf24-baa04253f77a","ios":"levelo://app?vid=20cf3f6d-acf4-4653-bf24-baa04253f77a"},"vehicle_type_id":"4","last_reported":1690992493,"current_range_meters":28000,"station_id":"ce4bhr92rcd13ifvqhrg","pricing_plan_id":"free"},{"bike_id":"a716ed66-8607-47f1-a4f4-b99eecc862cb","system_id":"levelo_inurba_marseille","lat":43.33041,"lon":5.38921,"is_reserved":false,"is_disabled":false,"rental_uris":{"android":"levelo://app?vid=a716ed66-8607-47f1-a4f4-b99eecc862cb","ios":"levelo://app?vid=a716ed66-8607-47f1-a4f4-b99eecc862cb"},"vehicle_type_id":"4","last_reported":1690992493,"current_range_meters":3200,"station_id":"ce4bhr92rcd13ifvqhrg","pricing_plan_id":"free"},{"bike_id":"7ebbf3c4-154a-4b73-9a8a-d0fb0ca4427f","system_id":"levelo_inurba_marseille","lat":43.33045,"lon":5.38917,"is_reserved":false,"is_disabled":false,"rental_uris":{"android":"levelo://app?vid=7ebbf3c4-154a-4b73-9a8a-d0fb0ca4427f","ios":"levelo://app?vid=7ebbf3c4-154a-4b73-9a8a-d0fb0ca4427f"},"vehicle_type_id":"4","last_reported":1690992493,"current_range_meters":22800,"station_id":"ce4bhr92rcd13ifvqhrg","pricing_plan_id":"free"},{"bike_id":"79f0d7c3-eefb-49f9-86ba-bc33432f6817","system_id":"levelo_inurba_marseille","lat":43.29006,"lon":5.35618,"is_reserved":false,"is_disabled":false,"rental_uris":{"android":"levelo://app?vid=79f0d7c3-eefb-49f9-86ba-bc33432f6817","ios":"levelo://app?vid=79f0d7c3-eefb-49f9-86ba-bc33432f6817"},"vehicle_type_id":"4","last_reported":1690992493,"current_range_meters":24000,"station_id":"ce4bhb92rcd13ifvqen0","pricing_plan_id":"free"},{"bike_id":"a6d7dd98-f958-47b5-a810-c1ba5782eecb","system_id":"levelo_inurba_marseille","lat":43.290104,"lon":5.356111,"is_reserved":false,"is_disabled":false,"rental_uris":{"android":"levelo://app?vid=a6d7dd98-f958-47b5-a810-c1ba5782eecb","ios":"levelo://app?vid=a6d7dd98-f958-47b5-a810-c1ba5782eecb"},"vehicle_type_id":"4","last_reported":1690992493,"current_range_meters":16400,"station_id":"ce4bhb92rcd13ifvqen0","pricing_plan_id":"free"},{"bike_id":"bc615810-d4ff-4293-855f-a2e63bbc113b","system_id":"levelo_inurba_marseille","lat":43.290104,"lon":5.356111,"is_reserved":false,"is_disabled":false,"rental_uris":{"android":"levelo://app?vid=bc615810-d4ff-4293-855f-a2e63bbc113b","ios":"levelo://app?vid=bc615810-d4ff-4293-855f-a2e63bbc113b"},"vehicle_type_id":"4","last_reported":1690992493,"current_range_meters":11200,"station_id":"ce4bhb92rcd13ifvqen0","pricing_plan_id":"free"},{"bike_id":"836c06c4-674c-43c5-aead-865133181f5a","system_id":"levelo_inurba_marseille","lat":43.290104,"lon":5.356111,"is_reserved":false,"is_disabled":false,"rental_uris":{"android":"levelo://app?vid=836c06c4-674c-43c5-aead-865133181f5a","ios":"levelo://app?vid=836c06c4-674c-43c5-aead-865133181f5a"},"vehicle_type_id":"4","last_reported":1690992493,"current_range_meters":28400,"station_id":"ce4bhb92rcd13ifvqen0","pricing_plan_id":"free"},{"bike_id":"134ef223-0af9-48f2-bbd1-4d84dd8cb35c","system_id":"levelo_inurba_marseille","lat":43.290104,"lon":5.356111,"is_reserved":false,"is_disabled":false,"rental_uris":{"android":"levelo://app?vid=134ef223-0af9-48f2-bbd1-4d84dd8cb35c","ios":"levelo://app?vid=134ef223-0af9-48f2-bbd1-4d84dd8cb35c"},"vehicle_type_id":"4","last_reported":1690992493,"current_range_meters":31600,"station_id":"ce4bhb92rcd13ifvqen0","pricing_plan_id":"free"},{"bike_id":"7603d86a-5da2-4498-bd9d-bf4c81fc504f","system_id":"levelo_inurba_marseille","lat":43.290103,"lon":5.356114,"is_reserved":false,"is_disabled":false,"rental_uris":{"android":"levelo://app?vid=7603d86a-5da2-4498-bd9d-bf4c81fc504f","ios":"levelo://app?vid=7603d86a-5da2-4498-bd9d-bf4c81fc504f"},"vehicle_type_id":"4","last_reported":1690992493,"current_range_meters":6800,"station_id":"ce4bhb92rcd13ifvqen0","pricing_plan_id":"free"},{"bike_id":"a371036c-91ed-433d-a401-9e42df454fda","system_id":"levelo_inurba_marseille","lat":43.290104,"lon":5.356111,"is_reserved":false,"is_disabled":false,"rental_uris":{"android":"levelo://app?vid=a371036c-91ed-433d-a401-9e42df454fda","ios":"levelo://app?vid=a371036c-91ed-433d-a401-9e42df454fda"},"vehicle_type_id":"4","last_reported":1690992493,"current_range_meters":25200,"station_id":"ce4bhb92rcd13ifvqen0","pricing_plan_id":"free"},{"bike_id":"152ca92a-2451-47fe-b4b6-bb38858ee460","system_id":"levelo_inurba_marseille","lat":43.29003,"lon":5.35614,"is_reserved":false,"is_disabled":false,"rental_uris":{"android":"levelo://app?vid=152ca92a-2451-47fe-b4b6-bb38858ee460","ios":"levelo://app?vid=152ca92a-2451-47fe-b4b6-bb38858ee460"},"vehicle_type_id":"4","last_reported":1690992493,"current_range_meters":19200,"station_id":"ce4bhb92rcd13ifvqen0","pricing_plan_id":"free"},{"bike_id":"cf3d1810-fbdb-4dfb-999f-1ebb007734ce","system_id":"levelo_inurba_marseille","lat":43.290104,"lon":5.356111,"is_reserved":false,"is_disabled":false,"rental_uris":{"android":"levelo://app?vid=cf3d1810-fbdb-4dfb-999f-1ebb007734ce","ios":"levelo://app?vid=cf3d1810-fbdb-4dfb-999f-1ebb007734ce"},"vehicle_type_id":"4","last_reported":1690992493,"current_range_meters":22000,"station_id":"ce4bhb92rcd13ifvqen0","pricing_plan_id":"free"},{"bike_id":"e33b2cbc-9b2a-4677-8bc2-e90769360e6f","system_id":"levelo_inurba_marseille","lat":43.290104,"lon":5.356111,"is_reserved":false,"is_disabled":false,"rental_uris":{"android":"levelo://app?vid=e33b2cbc-9b2a-4677-8bc2-e90769360e6f","ios":"levelo://app?vid=e33b2cbc-9b2a-4677-8bc2-e90769360e6f"},"vehicle_type_id":"4","last_reported":1690992493,"current_range_meters":28800,"station_id":"ce4bhb92rcd13ifvqen0","pricing_plan_id":"free"},{"bike_id":"00c47fd4-4d97-494e-9a80-b1b66a374600","system_id":"levelo_inurba_marseille","lat":43.290104,"lon":5.356111,"is_reserved":false,"is_disabled":false,"rental_uris":{"android":"levelo://app?vid=00c47fd4-4d97-494e-9a80-b1b66a374600","ios":"levelo://app?vid=00c47fd4-4d97-494e-9a80-b1b66a374600"},"vehicle_type_id":"4","last_reported":1690992493,"current_range_meters":20400,"station_id":"ce4bhb92rcd13ifvqen0","pricing_plan_id":"free"},{"bike_id":"05bf2cc0-c80b-4d3b-9303-5cea93148e89","system_id":"levelo_inurba_marseille","lat":43.290995,"lon":5.381361,"is_reserved":false,"is_disabled":false,"rental_uris":{"android":"levelo://app?vid=05bf2cc0-c80b-4d3b-9303-5cea93148e89","ios":"levelo://app?vid=05bf2cc0-c80b-4d3b-9303-5cea93148e89"},"vehicle_type_id":"4","last_reported":1690992493,"current_range_meters":30800,"station_id":"ce4bh512rcd13ifvqe2g","pricing_plan_id":"free"},{"bike_id":"e30ca43a-b40b-4f3e-861a-b22210d6849e","system_id":"levelo_inurba_marseille","lat":43.29096,"lon":5.3813,"is_reserved":false,"is_disabled":false,"rental_uris":{"android":"levelo://app?vid=e30ca43a-b40b-4f3e-861a-b22210d6849e","ios":"levelo://app?vid=e30ca43a-b40b-4f3e-861a-b22210d6849e"},"vehicle_type_id":"4","last_reported":1690992493,"current_range_meters":0,"station_id":"ce4bh512rcd13ifvqe2g","pricing_plan_id":"free"},{"bike_id":"c92a94a2-017a-4189-a9cb-23a8fcd83653","system_id":"levelo_inurba_marseille","lat":43.290995,"lon":5.381361,"is_reserved":false,"is_disabled":false,"rental_uris":{"android":"levelo://app?vid=c92a94a2-017a-4189-a9cb-23a8fcd83653","ios":"levelo://app?vid=c92a94a2-017a-4189-a9cb-23a8fcd83653"},"vehicle_type_id":"4","last_reported":1690992493,"current_range_meters":17600,"station_id":"ce4bh512rcd13ifvqe2g","pricing_plan_id":"free"},{"bike_id":"99d642af-c301-4837-9e15-9b603aaa478c","system_id":"levelo_inurba_marseille","lat":43.290995,"lon":5.381361,"is_reserved":false,"is_disabled":false,"rental_uris":{"android":"levelo://app?vid=99d642af-c301-4837-9e15-9b603aaa478c","ios":"levelo://app?vid=99d642af-c301-4837-9e15-9b603aaa478c"},"vehicle_type_id":"4","last_reported":1690992493,"current_range_meters":10800,"station_id":"ce4bh512rcd13ifvqe2g","pricing_plan_id":"free"},{"bike_id":"f63670a2-404b-49c8-a3a9-1f5e51dc1ea1","system_id":"levelo_inurba_marseille","lat":43.290259,"lon":5.381335,"is_reserved":false,"is_disabled":false,"rental_uris":{"android":"levelo://app?vid=f63670a2-404b-49c8-a3a9-1f5e51dc1ea1","ios":"levelo://app?vid=f63670a2-404b-49c8-a3a9-1f5e51dc1ea1"},"vehicle_type_id":"4","last_reported":1690992493,"current_range_meters":18800,"station_id":"","pricing_plan_id":"free"},{"bike_id":"aa164c48-69a5-4512-910e-da9d1a516118","system_id":"levelo_inurba_marseille","lat":43.290214,"lon":5.381262,"is_reserved":false,"is_disabled":false,"rental_uris":{"android":"levelo://app?vid=aa164c48-69a5-4512-910e-da9d1a516118","ios":"levelo://app?vid=aa164c48-69a5-4512-910e-da9d1a516118"},"vehicle_type_id":"4","last_reported":1690992493,"current_range_meters":13600,"station_id":"ce4bh4p2rcd13ifvqe1g","pricing_plan_id":"free"},{"bike_id":"dcad0aef-a7d2-4f6b-8881-abc04f8cc2f0","system_id":"levelo_inurba_marseille","lat":43.28856,"lon":5.358371,"is_reserved":false,"is_disabled":false,"rental_uris":{"android":"levelo://app?vid=dcad0aef-a7d2-4f6b-8881-abc04f8cc2f0","ios":"levelo://app?vid=dcad0aef-a7d2-4f6b-8881-abc04f8cc2f0"},"vehicle_type_id":"4","last_reported":1690992493,"current_range_meters":2400,"station_id":"ce4bhb12rcd13ifvqem0","pricing_plan_id":"free"},{"bike_id":"5a5669ed-d88a-4248-95e3-854555f54c94","system_id":"levelo_inurba_marseille","lat":43.28856,"lon":5.358371,"is_reserved":false,"is_disabled":false,"rental_uris":{"android":"levelo://app?vid=5a5669ed-d88a-4248-95e3-854555f54c94","ios":"levelo://app?vid=5a5669ed-d88a-4248-95e3-854555f54c94"},"vehicle_type_id":"4","last_reported":1690992493,"current_range_meters":24000,"station_id":"ce4bhb12rcd13ifvqem0","pricing_plan_id":"free"},{"bike_id":"7c5360ee-488e-4633-9516-861a6643eb56","system_id":"levelo_inurba_marseille","lat":43.28856,"lon":5.358371,"is_reserved":false,"is_disabled":false,"rental_uris":{"android":"levelo://app?vid=7c5360ee-488e-4633-9516-861a6643eb56","ios":"levelo://app?vid=7c5360ee-488e-4633-9516-861a6643eb56"},"vehicle_type_id":"4","last_reported":1690992493,"current_range_meters":14000,"station_id":"ce4bhb12rcd13ifvqem0","pricing_plan_id":"free"},{"bike_id":"669ac3a4-416b-4e25-b012-7273541dec46","system_id":"levelo_inurba_marseille","lat":43.28856,"lon":5.358371,"is_reserved":false,"is_disabled":false,"rental_uris":{"android":"levelo://app?vid=669ac3a4-416b-4e25-b012-7273541dec46","ios":"levelo://app?vid=669ac3a4-416b-4e25-b012-7273541dec46"},"vehicle_type_id":"4","last_reported":1690992493,"current_range_meters":6400,"station_id":"ce4bhb12rcd13ifvqem0","pricing_plan_id":"free"},{"bike_id":"26b99700-4c05-4346-b10b-ebd0e6c3be81","system_id":"levelo_inurba_marseille","lat":43.28856,"lon":5.358371,"is_reserved":false,"is_disabled":false,"rental_uris":{"android":"levelo://app?vid=26b99700-4c05-4346-b10b-ebd0e6c3be81","ios":"levelo://app?vid=26b99700-4c05-4346-b10b-ebd0e6c3be81"},"vehicle_type_id":"4","last_reported":1690992493,"current_range_meters":23600,"station_id":"ce4bhb12rcd13ifvqem0","pricing_plan_id":"free"},{"bike_id":"33d9cd18-53fd-4ffb-bcfc-fb36e4fcc66b","system_id":"levelo_inurba_marseille","lat":43.31274,"lon":5.40168,"is_reserved":false,"is_disabled":false,"rental_uris":{"android":"levelo://app?vid=33d9cd18-53fd-4ffb-bcfc-fb36e4fcc66b","ios":"levelo://app?vid=33d9cd18-53fd-4ffb-bcfc-fb36e4fcc66b"},"vehicle_type_id":"4","last_reported":1690992493,"current_range_meters":5200,"station_id":"ce4bh092rcd13ifvqd30","pricing_plan_id":"free"},{"bike_id":"8b94180a-ba7d-4b79-9e51-cb96ea3aafe8","system_id":"levelo_inurba_marseille","lat":43.3094,"lon":5.40141,"is_reserved":false,"is_disabled":false,"rental_uris":{"android":"levelo://app?vid=8b94180a-ba7d-4b79-9e51-cb96ea3aafe8","ios":"levelo://app?vid=8b94180a-ba7d-4b79-9e51-cb96ea3aafe8"},"vehicle_type_id":"4","last_reported":1690992493,"current_range_meters":0,"station_id":"","pricing_plan_id":"free"},{"bike_id":"40010a07-7400-4073-814b-fed4099c4dce","system_id":"levelo_inurba_marseille","lat":43.31272,"lon":5.40172,"is_reserved":false,"is_disabled":false,"rental_uris":{"android":"levelo://app?vid=40010a07-7400-4073-814b-fed4099c4dce","ios":"levelo://app?vid=40010a07-7400-4073-814b-fed4099c4dce"},"vehicle_type_id":"4","last_reported":1690992493,"current_range_meters":19600,"station_id":"ce4bh092rcd13ifvqd30","pricing_plan_id":"free"},{"bike_id":"fb620ca6-d9c7-494f-bed2-adeac9f628e4","system_id":"levelo_inurba_marseille","lat":43.30939,"lon":5.40142,"is_reserved":false,"is_disabled":false,"rental_uris":{"android":"levelo://app?vid=fb620ca6-d9c7-494f-bed2-adeac9f628e4","ios":"levelo://app?vid=fb620ca6-d9c7-494f-bed2-adeac9f628e4"},"vehicle_type_id":"4","last_reported":1690992493,"current_range_meters":10000,"station_id":"ce4bgvp2rcd13ifvqct0","pricing_plan_id":"free"},{"bike_id":"2393febb-206c-45f4-b068-f748a5bfeb8d","system_id":"levelo_inurba_marseille","lat":43.286961,"lon":5.373785,"is_reserved":false,"is_disabled":false,"rental_uris":{"android":"levelo://app?vid=2393febb-206c-45f4-b068-f748a5bfeb8d","ios":"levelo://app?vid=2393febb-206c-45f4-b068-f748a5bfeb8d"},"vehicle_type_id":"4","last_reported":1690992493,"current_range_meters":31200,"station_id":"ce4bh3p2rcd13ifvqdq0","pricing_plan_id":"free"},{"bike_id":"b3493d50-3b58-479c-8746-00169da27626","system_id":"levelo_inurba_marseille","lat":43.298681,"lon":5.397225,"is_reserved":false,"is_disabled":false,"rental_uris":{"android":"levelo://app?vid=b3493d50-3b58-479c-8746-00169da27626","ios":"levelo://app?vid=b3493d50-3b58-479c-8746-00169da27626"},"vehicle_type_id":"4","last_reported":1690992493,"current_range_meters":25200,"station_id":"ce4bh0h2rcd13ifvqd50","pricing_plan_id":"free"},{"bike_id":"75199276-b705-4ad7-b6a9-49aeaa84628a","system_id":"levelo_inurba_marseille","lat":43.286593,"lon":5.363346,"is_reserved":false,"is_disabled":false,"rental_uris":{"android":"levelo://app?vid=75199276-b705-4ad7-b6a9-49aeaa84628a","ios":"levelo://app?vid=75199276-b705-4ad7-b6a9-49aeaa84628a"},"vehicle_type_id":"4","last_reported":1690992493,"current_range_meters":31200,"station_id":"ce4bhah2rcd13ifvqej0","pricing_plan_id":"free"},{"bike_id":"80300ca2-4aaa-481b-ab4e-b5a1ceb3fc23","system_id":"levelo_inurba_marseille","lat":43.29542,"lon":5.39405,"is_reserved":false,"is_disabled":false,"rental_uris":{"android":"levelo://app?vid=80300ca2-4aaa-481b-ab4e-b5a1ceb3fc23","ios":"levelo://app?vid=80300ca2-4aaa-481b-ab4e-b5a1ceb3fc23"},"vehicle_type_id":"4","last_reported":1690992493,"current_range_meters":18400,"station_id":"","pricing_plan_id":"free"},{"bike_id":"9fb2f3d3-5955-416f-a32b-3c47bfc8ba26","system_id":"levelo_inurba_marseille","lat":43.295196,"lon":5.39397,"is_reserved":false,"is_disabled":false,"rental_uris":{"android":"levelo://app?vid=9fb2f3d3-5955-416f-a32b-3c47bfc8ba26","ios":"levelo://app?vid=9fb2f3d3-5955-416f-a32b-3c47bfc8ba26"},"vehicle_type_id":"4","last_reported":1690992493,"current_range_meters":14400,"station_id":"ce4bh292rcd13ifvqdf0","pricing_plan_id":"free"},{"bike_id":"c2c1d6a7-3fad-4983-99ff-d5ab83d8ceb5","system_id":"levelo_inurba_marseille","lat":43.302759,"lon":5.400793,"is_reserved":false,"is_disabled":false,"rental_uris":{"android":"levelo://app?vid=c2c1d6a7-3fad-4983-99ff-d5ab83d8ceb5","ios":"levelo://app?vid=c2c1d6a7-3fad-4983-99ff-d5ab83d8ceb5"},"vehicle_type_id":"4","last_reported":1690992493,"current_range_meters":21600,"station_id":"ce4bgvh2rcd13ifvqcs0","pricing_plan_id":"free"},{"bike_id":"a13063a3-6404-4b3a-9d8b-7de2632a41ab","system_id":"levelo_inurba_marseille","lat":43.302759,"lon":5.400793,"is_reserved":false,"is_disabled":false,"rental_uris":{"android":"levelo://app?vid=a13063a3-6404-4b3a-9d8b-7de2632a41ab","ios":"levelo://app?vid=a13063a3-6404-4b3a-9d8b-7de2632a41ab"},"vehicle_type_id":"4","last_reported":1690992493,"current_range_meters":27200,"station_id":"ce4bgvh2rcd13ifvqcs0","pricing_plan_id":"free"},{"bike_id":"f55400ed-5461-4c05-b69b-da6730fb18b0","system_id":"levelo_inurba_marseille","lat":43.302759,"lon":5.400793,"is_reserved":false,"is_disabled":false,"rental_uris":{"android":"levelo://app?vid=f55400ed-5461-4c05-b69b-da6730fb18b0","ios":"levelo://app?vid=f55400ed-5461-4c05-b69b-da6730fb18b0"},"vehicle_type_id":"4","last_reported":1690992493,"current_range_meters":4800,"station_id":"ce4bgvh2rcd13ifvqcs0","pricing_plan_id":"free"},{"bike_id":"60641807-7492-4dba-b807-7131ab19db7d","system_id":"levelo_inurba_marseille","lat":43.302759,"lon":5.400793,"is_reserved":false,"is_disabled":false,"rental_uris":{"android":"levelo://app?vid=60641807-7492-4dba-b807-7131ab19db7d","ios":"levelo://app?vid=60641807-7492-4dba-b807-7131ab19db7d"},"vehicle_type_id":"4","last_reported":1690992493,"current_range_meters":21600,"station_id":"ce4bgvh2rcd13ifvqcs0","pricing_plan_id":"free"},{"bike_id":"d7595e00-5cf6-4b73-839b-3cb6d8acb6b0","system_id":"levelo_inurba_marseille","lat":43.286098,"lon":5.370691,"is_reserved":false,"is_disabled":false,"rental_uris":{"android":"levelo://app?vid=d7595e00-5cf6-4b73-839b-3cb6d8acb6b0","ios":"levelo://app?vid=d7595e00-5cf6-4b73-839b-3cb6d8acb6b0"},"vehicle_type_id":"4","last_reported":1690992493,"current_range_meters":11600,"station_id":"","pricing_plan_id":"free"},{"bike_id":"243b6de7-f210-4bd0-9a34-8dcc7a12d3e4","system_id":"levelo_inurba_marseille","lat":43.287184,"lon":5.37937,"is_reserved":false,"is_disabled":false,"rental_uris":{"android":"levelo://app?vid=243b6de7-f210-4bd0-9a34-8dcc7a12d3e4","ios":"levelo://app?vid=243b6de7-f210-4bd0-9a34-8dcc7a12d3e4"},"vehicle_type_id":"4","last_reported":1690992493,"current_range_meters":800,"station_id":"ce4bh9p2rcd13ifvqec0","pricing_plan_id":"free"},{"bike_id":"992d4d46-9f22-439a-ba60-77868c399592","system_id":"levelo_inurba_marseille","lat":43.31647,"lon":5.40432,"is_reserved":false,"is_disabled":false,"rental_uris":{"android":"levelo://app?vid=992d4d46-9f22-439a-ba60-77868c399592","ios":"levelo://app?vid=992d4d46-9f22-439a-ba60-77868c399592"},"vehicle_type_id":"4","last_reported":1690992493,"current_range_meters":29600,"station_id":"ce4bh012rcd13ifvqd00","pricing_plan_id":"free"},{"bike_id":"3d61ae8c-21bb-4cda-9643-7ca57d4f6f41","system_id":"levelo_inurba_marseille","lat":43.31649,"lon":5.40435,"is_reserved":false,"is_disabled":false,"rental_uris":{"android":"levelo://app?vid=3d61ae8c-21bb-4cda-9643-7ca57d4f6f41","ios":"levelo://app?vid=3d61ae8c-21bb-4cda-9643-7ca57d4f6f41"},"vehicle_type_id":"4","last_reported":1690992493,"current_range_meters":11200,"station_id":"ce4bh012rcd13ifvqd00","pricing_plan_id":"free"},{"bike_id":"319b67a5-c642-4797-8c02-6eb0ecc259ea","system_id":"levelo_inurba_marseille","lat":43.31646,"lon":5.40436,"is_reserved":false,"is_disabled":false,"rental_uris":{"android":"levelo://app?vid=319b67a5-c642-4797-8c02-6eb0ecc259ea","ios":"levelo://app?vid=319b67a5-c642-4797-8c02-6eb0ecc259ea"},"vehicle_type_id":"4","last_reported":1690992493,"current_range_meters":22400,"station_id":"ce4bh012rcd13ifvqd00","pricing_plan_id":"free"},{"bike_id":"7eeb9539-a218-46fa-8215-75ee860772be","system_id":"levelo_inurba_marseille","lat":43.316517,"lon":5.404375,"is_reserved":false,"is_disabled":false,"rental_uris":{"android":"levelo://app?vid=7eeb9539-a218-46fa-8215-75ee860772be","ios":"levelo://app?vid=7eeb9539-a218-46fa-8215-75ee860772be"},"vehicle_type_id":"4","last_reported":1690992493,"current_range_meters":29200,"station_id":"ce4bh012rcd13ifvqd00","pricing_plan_id":"free"},{"bike_id":"7ce180e9-bd5d-4c9c-8f99-4c6521c30da4","system_id":"levelo_inurba_marseille","lat":43.31651,"lon":5.40439,"is_reserved":false,"is_disabled":false,"rental_uris":{"android":"levelo://app?vid=7ce180e9-bd5d-4c9c-8f99-4c6521c30da4","ios":"levelo://app?vid=7ce180e9-bd5d-4c9c-8f99-4c6521c30da4"},"vehicle_type_id":"4","last_reported":1690992493,"current_range_meters":25600,"station_id":"ce4bh012rcd13ifvqd00","pricing_plan_id":"free"},{"bike_id":"115ec360-05aa-4fb4-8dea-e514bdbd2089","system_id":"levelo_inurba_marseille","lat":43.31646,"lon":5.40441,"is_reserved":false,"is_disabled":false,"rental_uris":{"android":"levelo://app?vid=115ec360-05aa-4fb4-8dea-e514bdbd2089","ios":"levelo://app?vid=115ec360-05aa-4fb4-8dea-e514bdbd2089"},"vehicle_type_id":"4","last_reported":1690992493,"current_range_meters":24800,"station_id":"ce4bh012rcd13ifvqd00","pricing_plan_id":"free"},{"bike_id":"99b07d52-006c-428c-87c8-3eaf3e1ab7cd","system_id":"levelo_inurba_marseille","lat":43.31652,"lon":5.40442,"is_reserved":false,"is_disabled":false,"rental_uris":{"android":"levelo://app?vid=99b07d52-006c-428c-87c8-3eaf3e1ab7cd","ios":"levelo://app?vid=99b07d52-006c-428c-87c8-3eaf3e1ab7cd"},"vehicle_type_id":"4","last_reported":1690992493,"current_range_meters":29600,"station_id":"ce4bh012rcd13ifvqd00","pricing_plan_id":"free"},{"bike_id":"d32a1f49-6b7b-4f69-85da-378355eab289","system_id":"levelo_inurba_marseille","lat":43.291994,"lon":5.392907,"is_reserved":false,"is_disabled":false,"rental_uris":{"android":"levelo://app?vid=d32a1f49-6b7b-4f69-85da-378355eab289","ios":"levelo://app?vid=d32a1f49-6b7b-4f69-85da-378355eab289"},"vehicle_type_id":"4","last_reported":1690992493,"current_range_meters":18000,"station_id":"ce4bh192rcd13ifvqdd0","pricing_plan_id":"free"},{"bike_id":"d50e84d8-4fef-4d08-8479-af42ab5739f1","system_id":"levelo_inurba_marseille","lat":43.291994,"lon":5.392907,"is_reserved":false,"is_disabled":false,"rental_uris":{"android":"levelo://app?vid=d50e84d8-4fef-4d08-8479-af42ab5739f1","ios":"levelo://app?vid=d50e84d8-4fef-4d08-8479-af42ab5739f1"},"vehicle_type_id":"4","last_reported":1690992493,"current_range_meters":26800,"station_id":"ce4bh192rcd13ifvqdd0","pricing_plan_id":"free"},{"bike_id":"99ef77c8-5f24-48f8-b499-d5f3fc911ee4","system_id":"levelo_inurba_marseille","lat":43.29239,"lon":5.39412,"is_reserved":false,"is_disabled":false,"rental_uris":{"android":"levelo://app?vid=99ef77c8-5f24-48f8-b499-d5f3fc911ee4","ios":"levelo://app?vid=99ef77c8-5f24-48f8-b499-d5f3fc911ee4"},"vehicle_type_id":"4","last_reported":1690992493,"current_range_meters":22400,"station_id":"","pricing_plan_id":"free"},{"bike_id":"87975013-8bcf-4a40-9730-abf929fb38e9","system_id":"levelo_inurba_marseille","lat":43.2846,"lon":5.35883,"is_reserved":false,"is_disabled":false,"rental_uris":{"android":"levelo://app?vid=87975013-8bcf-4a40-9730-abf929fb38e9","ios":"levelo://app?vid=87975013-8bcf-4a40-9730-abf929fb38e9"},"vehicle_type_id":"4","last_reported":1690992493,"current_range_meters":22800,"station_id":"ce4bhah2rcd13ifvqei0","pricing_plan_id":"free"},{"bike_id":"bae647ae-c9bc-4a99-bdd5-df125c12d956","system_id":"levelo_inurba_marseille","lat":43.294314,"lon":5.397498,"is_reserved":false,"is_disabled":false,"rental_uris":{"android":"levelo://app?vid=bae647ae-c9bc-4a99-bdd5-df125c12d956","ios":"levelo://app?vid=bae647ae-c9bc-4a99-bdd5-df125c12d956"},"vehicle_type_id":"4","last_reported":1690992493,"current_range_meters":5200,"station_id":"ce4bh3h2rcd13ifvqdo0","pricing_plan_id":"free"},{"bike_id":"6f34c7f1-6956-49c8-a4bb-670ac8d58a9f","system_id":"levelo_inurba_marseille","lat":43.285856,"lon":5.350771,"is_reserved":false,"is_disabled":false,"rental_uris":{"android":"levelo://app?vid=6f34c7f1-6956-49c8-a4bb-670ac8d58a9f","ios":"levelo://app?vid=6f34c7f1-6956-49c8-a4bb-670ac8d58a9f"},"vehicle_type_id":"4","last_reported":1690992493,"current_range_meters":10400,"station_id":"ce4bhch2rcd13ifvqeug","pricing_plan_id":"free"},{"bike_id":"eee4dd2e-ec26-4577-b30b-8997fff253f9","system_id":"levelo_inurba_marseille","lat":43.283998,"lon":5.375062,"is_reserved":false,"is_disabled":false,"rental_uris":{"android":"levelo://app?vid=eee4dd2e-ec26-4577-b30b-8997fff253f9","ios":"levelo://app?vid=eee4dd2e-ec26-4577-b30b-8997fff253f9"},"vehicle_type_id":"4","last_reported":1690992493,"current_range_meters":31200,"station_id":"ce4bh412rcd13ifvqds0","pricing_plan_id":"free"},{"bike_id":"f545890d-af1f-4a8e-bcbe-4118a01441f3","system_id":"levelo_inurba_marseille","lat":43.283998,"lon":5.375062,"is_reserved":false,"is_disabled":false,"rental_uris":{"android":"levelo://app?vid=f545890d-af1f-4a8e-bcbe-4118a01441f3","ios":"levelo://app?vid=f545890d-af1f-4a8e-bcbe-4118a01441f3"},"vehicle_type_id":"4","last_reported":1690992493,"current_range_meters":31200,"station_id":"ce4bh412rcd13ifvqds0","pricing_plan_id":"free"},{"bike_id":"6be5b20c-021d-4eed-aad9-4768b42994e9","system_id":"levelo_inurba_marseille","lat":43.28414,"lon":5.37525,"is_reserved":false,"is_disabled":false,"rental_uris":{"android":"levelo://app?vid=6be5b20c-021d-4eed-aad9-4768b42994e9","ios":"levelo://app?vid=6be5b20c-021d-4eed-aad9-4768b42994e9"},"vehicle_type_id":"4","last_reported":1690992493,"current_range_meters":31200,"station_id":"ce4bh412rcd13ifvqds0","pricing_plan_id":"free"},{"bike_id":"b241b0b8-0573-4aac-9ff4-6d8d215db464","system_id":"levelo_inurba_marseille","lat":43.284077,"lon":5.375158,"is_reserved":false,"is_disabled":false,"rental_uris":{"android":"levelo://app?vid=b241b0b8-0573-4aac-9ff4-6d8d215db464","ios":"levelo://app?vid=b241b0b8-0573-4aac-9ff4-6d8d215db464"},"vehicle_type_id":"4","last_reported":1690992493,"current_range_meters":11600,"station_id":"ce4bh412rcd13ifvqds0","pricing_plan_id":"free"},{"bike_id":"b78a9c3b-305c-45b3-97ca-2c918ebda42a","system_id":"levelo_inurba_marseille","lat":43.284038,"lon":5.375155,"is_reserved":false,"is_disabled":false,"rental_uris":{"android":"levelo://app?vid=b78a9c3b-305c-45b3-97ca-2c918ebda42a","ios":"levelo://app?vid=b78a9c3b-305c-45b3-97ca-2c918ebda42a"},"vehicle_type_id":"4","last_reported":1690992493,"current_range_meters":11600,"station_id":"","pricing_plan_id":"free"},{"bike_id":"64ab17aa-0e4b-4619-a8f5-c4456e32af87","system_id":"levelo_inurba_marseille","lat":43.28403,"lon":5.37517,"is_reserved":false,"is_disabled":false,"rental_uris":{"android":"levelo://app?vid=64ab17aa-0e4b-4619-a8f5-c4456e32af87","ios":"levelo://app?vid=64ab17aa-0e4b-4619-a8f5-c4456e32af87"},"vehicle_type_id":"4","last_reported":1690992493,"current_range_meters":30000,"station_id":"ce4bh412rcd13ifvqds0","pricing_plan_id":"free"},{"bike_id":"f99622e9-42e9-4d75-9800-e95938c35762","system_id":"levelo_inurba_marseille","lat":43.283998,"lon":5.375062,"is_reserved":false,"is_disabled":false,"rental_uris":{"android":"levelo://app?vid=f99622e9-42e9-4d75-9800-e95938c35762","ios":"levelo://app?vid=f99622e9-42e9-4d75-9800-e95938c35762"},"vehicle_type_id":"4","last_reported":1690992493,"current_range_meters":18000,"station_id":"ce4bh412rcd13ifvqds0","pricing_plan_id":"free"},{"bike_id":"4ab3431e-ca6c-4820-b5f7-f30e40014af5","system_id":"levelo_inurba_marseille","lat":43.254945,"lon":5.376454,"is_reserved":false,"is_disabled":false,"rental_uris":{"android":"levelo://app?vid=4ab3431e-ca6c-4820-b5f7-f30e40014af5","ios":"levelo://app?vid=4ab3431e-ca6c-4820-b5f7-f30e40014af5"},"vehicle_type_id":"4","last_reported":1690992493,"current_range_meters":13600,"station_id":"ce4bhh12rcd13ifvqff0","pricing_plan_id":"free"},{"bike_id":"b0c29aad-67dd-4e2c-a5be-a7036cc3059d","system_id":"levelo_inurba_marseille","lat":43.319179,"lon":5.407725,"is_reserved":false,"is_disabled":false,"rental_uris":{"android":"levelo://app?vid=b0c29aad-67dd-4e2c-a5be-a7036cc3059d","ios":"levelo://app?vid=b0c29aad-67dd-4e2c-a5be-a7036cc3059d"},"vehicle_type_id":"4","last_reported":1690992493,"current_range_meters":2800,"station_id":"ce4bhq12rcd13ifvqhig","pricing_plan_id":"free"},{"bike_id":"3e563380-a985-451c-801d-2783d7714294","system_id":"levelo_inurba_marseille","lat":43.337168,"lon":5.391825,"is_reserved":false,"is_disabled":false,"rental_uris":{"android":"levelo://app?vid=3e563380-a985-451c-801d-2783d7714294","ios":"levelo://app?vid=3e563380-a985-451c-801d-2783d7714294"},"vehicle_type_id":"4","last_reported":1690992493,"current_range_meters":25600,"station_id":"ce4bhr92rcd13ifvqhsg","pricing_plan_id":"free"},{"bike_id":"91e09460-cfc0-485e-9f84-92d2c8fee084","system_id":"levelo_inurba_marseille","lat":43.323464,"lon":5.406297,"is_reserved":false,"is_disabled":false,"rental_uris":{"android":"levelo://app?vid=91e09460-cfc0-485e-9f84-92d2c8fee084","ios":"levelo://app?vid=91e09460-cfc0-485e-9f84-92d2c8fee084"},"vehicle_type_id":"4","last_reported":1690992493,"current_range_meters":31200,"station_id":"ce4bhq92rcd13ifvqhjg","pricing_plan_id":"free"},{"bike_id":"98db51aa-ea4b-4608-9d13-b33ac5b52a63","system_id":"levelo_inurba_marseille","lat":43.337168,"lon":5.391825,"is_reserved":false,"is_disabled":false,"rental_uris":{"android":"levelo://app?vid=98db51aa-ea4b-4608-9d13-b33ac5b52a63","ios":"levelo://app?vid=98db51aa-ea4b-4608-9d13-b33ac5b52a63"},"vehicle_type_id":"4","last_reported":1690992493,"current_range_meters":24400,"station_id":"ce4bhr92rcd13ifvqhsg","pricing_plan_id":"free"},{"bike_id":"40de583e-accb-4721-a8a6-7d230889501e","system_id":"levelo_inurba_marseille","lat":43.337168,"lon":5.391825,"is_reserved":false,"is_disabled":false,"rental_uris":{"android":"levelo://app?vid=40de583e-accb-4721-a8a6-7d230889501e","ios":"levelo://app?vid=40de583e-accb-4721-a8a6-7d230889501e"},"vehicle_type_id":"4","last_reported":1690992493,"current_range_meters":14800,"station_id":"ce4bhr92rcd13ifvqhsg","pricing_plan_id":"free"},{"bike_id":"9d8dc018-8295-487e-aae9-79ce0f469cdf","system_id":"levelo_inurba_marseille","lat":43.33723,"lon":5.39187,"is_reserved":false,"is_disabled":false,"rental_uris":{"android":"levelo://app?vid=9d8dc018-8295-487e-aae9-79ce0f469cdf","ios":"levelo://app?vid=9d8dc018-8295-487e-aae9-79ce0f469cdf"},"vehicle_type_id":"4","last_reported":1690992493,"current_range_meters":2800,"station_id":"ce4bhr92rcd13ifvqhsg","pricing_plan_id":"free"},{"bike_id":"9056272c-7317-415c-b1dd-df612017d315","system_id":"levelo_inurba_marseille","lat":43.323464,"lon":5.406297,"is_reserved":false,"is_disabled":false,"rental_uris":{"android":"levelo://app?vid=9056272c-7317-415c-b1dd-df612017d315","ios":"levelo://app?vid=9056272c-7317-415c-b1dd-df612017d315"},"vehicle_type_id":"4","last_reported":1690992493,"current_range_meters":24800,"station_id":"ce4bhq92rcd13ifvqhjg","pricing_plan_id":"free"},{"bike_id":"b5240968-d861-485a-9cd6-e1d2f00ba051","system_id":"levelo_inurba_marseille","lat":43.33717,"lon":5.391857,"is_reserved":false,"is_disabled":false,"rental_uris":{"android":"levelo://app?vid=b5240968-d861-485a-9cd6-e1d2f00ba051","ios":"levelo://app?vid=b5240968-d861-485a-9cd6-e1d2f00ba051"},"vehicle_type_id":"4","last_reported":1690992493,"current_range_meters":26400,"station_id":"ce4bhr92rcd13ifvqhsg","pricing_plan_id":"free"},{"bike_id":"23754b05-6cd5-4c5d-bd4c-76b75b07ecde","system_id":"levelo_inurba_marseille","lat":43.33717,"lon":5.391857,"is_reserved":false,"is_disabled":false,"rental_uris":{"android":"levelo://app?vid=23754b05-6cd5-4c5d-bd4c-76b75b07ecde","ios":"levelo://app?vid=23754b05-6cd5-4c5d-bd4c-76b75b07ecde"},"vehicle_type_id":"4","last_reported":1690992493,"current_range_meters":16400,"station_id":"ce4bhr92rcd13ifvqhsg","pricing_plan_id":"free"},{"bike_id":"b92e19a3-7411-4873-90e8-e9de861000ca","system_id":"levelo_inurba_marseille","lat":43.33728,"lon":5.39188,"is_reserved":false,"is_disabled":false,"rental_uris":{"android":"levelo://app?vid=b92e19a3-7411-4873-90e8-e9de861000ca","ios":"levelo://app?vid=b92e19a3-7411-4873-90e8-e9de861000ca"},"vehicle_type_id":"4","last_reported":1690992493,"current_range_meters":6800,"station_id":"ce4bhr92rcd13ifvqhsg","pricing_plan_id":"free"},{"bike_id":"2aa6c250-3555-4cd3-abaf-fe930ebba1d5","system_id":"levelo_inurba_marseille","lat":43.323464,"lon":5.406297,"is_reserved":false,"is_disabled":false,"rental_uris":{"android":"levelo://app?vid=2aa6c250-3555-4cd3-abaf-fe930ebba1d5","ios":"levelo://app?vid=2aa6c250-3555-4cd3-abaf-fe930ebba1d5"},"vehicle_type_id":"4","last_reported":1690992493,"current_range_meters":4400,"station_id":"ce4bhq92rcd13ifvqhjg","pricing_plan_id":"free"},{"bike_id":"dbada9f9-e33c-4a7d-ab43-1cac4e571e70","system_id":"levelo_inurba_marseille","lat":43.284787,"lon":5.384116,"is_reserved":false,"is_disabled":false,"rental_uris":{"android":"levelo://app?vid=dbada9f9-e33c-4a7d-ab43-1cac4e571e70","ios":"levelo://app?vid=dbada9f9-e33c-4a7d-ab43-1cac4e571e70"},"vehicle_type_id":"4","last_reported":1690992493,"current_range_meters":29600,"station_id":"ce4bh512rcd13ifvqe3g","pricing_plan_id":"free"},{"bike_id":"3bff2d7a-1d4f-4506-b133-782f14a6a426","system_id":"levelo_inurba_marseille","lat":43.29802,"lon":5.40415,"is_reserved":false,"is_disabled":false,"rental_uris":{"android":"levelo://app?vid=3bff2d7a-1d4f-4506-b133-782f14a6a426","ios":"levelo://app?vid=3bff2d7a-1d4f-4506-b133-782f14a6a426"},"vehicle_type_id":"4","last_reported":1690992493,"current_range_meters":1200,"station_id":"","pricing_plan_id":"free"},{"bike_id":"b64fd43e-9a8f-4d9c-bc81-75befa3ae70d","system_id":"levelo_inurba_marseille","lat":43.284219,"lon":5.3497,"is_reserved":false,"is_disabled":false,"rental_uris":{"android":"levelo://app?vid=b64fd43e-9a8f-4d9c-bc81-75befa3ae70d","ios":"levelo://app?vid=b64fd43e-9a8f-4d9c-bc81-75befa3ae70d"},"vehicle_type_id":"4","last_reported":1690992493,"current_range_meters":26000,"station_id":"ce4bhbh2rcd13ifvqepg","pricing_plan_id":"free"},{"bike_id":"150badb7-9b34-4508-82cf-13e8e4b7c1db","system_id":"levelo_inurba_marseille","lat":43.28423,"lon":5.34986,"is_reserved":false,"is_disabled":false,"rental_uris":{"android":"levelo://app?vid=150badb7-9b34-4508-82cf-13e8e4b7c1db","ios":"levelo://app?vid=150badb7-9b34-4508-82cf-13e8e4b7c1db"},"vehicle_type_id":"4","last_reported":1690992493,"current_range_meters":31200,"station_id":"ce4bhbh2rcd13ifvqepg","pricing_plan_id":"free"},{"bike_id":"6be066e7-9fca-4d17-8168-e0c67bdae81c","system_id":"levelo_inurba_marseille","lat":43.28421,"lon":5.34989,"is_reserved":false,"is_disabled":false,"rental_uris":{"android":"levelo://app?vid=6be066e7-9fca-4d17-8168-e0c67bdae81c","ios":"levelo://app?vid=6be066e7-9fca-4d17-8168-e0c67bdae81c"},"vehicle_type_id":"4","last_reported":1690992493,"current_range_meters":2400,"station_id":"","pricing_plan_id":"free"},{"bike_id":"91f271c9-69f0-4659-ad5f-6e06278f6b49","system_id":"levelo_inurba_marseille","lat":43.28417,"lon":5.34997,"is_reserved":false,"is_disabled":false,"rental_uris":{"android":"levelo://app?vid=91f271c9-69f0-4659-ad5f-6e06278f6b49","ios":"levelo://app?vid=91f271c9-69f0-4659-ad5f-6e06278f6b49"},"vehicle_type_id":"4","last_reported":1690992493,"current_range_meters":6400,"station_id":"ce4bhbh2rcd13ifvqepg","pricing_plan_id":"free"},{"bike_id":"21aa306f-d442-431c-a79b-eacd4252e6d9","system_id":"levelo_inurba_marseille","lat":43.284219,"lon":5.3497,"is_reserved":false,"is_disabled":false,"rental_uris":{"android":"levelo://app?vid=21aa306f-d442-431c-a79b-eacd4252e6d9","ios":"levelo://app?vid=21aa306f-d442-431c-a79b-eacd4252e6d9"},"vehicle_type_id":"4","last_reported":1690992493,"current_range_meters":20400,"station_id":"ce4bhbh2rcd13ifvqepg","pricing_plan_id":"free"},{"bike_id":"4601fee6-24dc-4994-a516-b469e1eaacaf","system_id":"levelo_inurba_marseille","lat":43.28419,"lon":5.34987,"is_reserved":false,"is_disabled":false,"rental_uris":{"android":"levelo://app?vid=4601fee6-24dc-4994-a516-b469e1eaacaf","ios":"levelo://app?vid=4601fee6-24dc-4994-a516-b469e1eaacaf"},"vehicle_type_id":"4","last_reported":1690992493,"current_range_meters":28000,"station_id":"ce4bhbh2rcd13ifvqepg","pricing_plan_id":"free"},{"bike_id":"b19c9cec-a527-4001-9ef2-1632105e2eac","system_id":"levelo_inurba_marseille","lat":43.284202,"lon":5.34982,"is_reserved":false,"is_disabled":false,"rental_uris":{"android":"levelo://app?vid=b19c9cec-a527-4001-9ef2-1632105e2eac","ios":"levelo://app?vid=b19c9cec-a527-4001-9ef2-1632105e2eac"},"vehicle_type_id":"4","last_reported":1690992493,"current_range_meters":10800,"station_id":"ce4bhbh2rcd13ifvqepg","pricing_plan_id":"free"},{"bike_id":"6c46baf7-e2d9-4832-a13e-541ee777eaec","system_id":"levelo_inurba_marseille","lat":43.28417,"lon":5.34992,"is_reserved":false,"is_disabled":false,"rental_uris":{"android":"levelo://app?vid=6c46baf7-e2d9-4832-a13e-541ee777eaec","ios":"levelo://app?vid=6c46baf7-e2d9-4832-a13e-541ee777eaec"},"vehicle_type_id":"4","last_reported":1690992493,"current_range_meters":19600,"station_id":"ce4bhbh2rcd13ifvqepg","pricing_plan_id":"free"},{"bike_id":"72a41549-2633-4cb5-abeb-cf890401113a","system_id":"levelo_inurba_marseille","lat":43.28417,"lon":5.3499,"is_reserved":false,"is_disabled":false,"rental_uris":{"android":"levelo://app?vid=72a41549-2633-4cb5-abeb-cf890401113a","ios":"levelo://app?vid=72a41549-2633-4cb5-abeb-cf890401113a"},"vehicle_type_id":"4","last_reported":1690992493,"current_range_meters":27600,"station_id":"ce4bhbh2rcd13ifvqepg","pricing_plan_id":"free"},{"bike_id":"5b2ca1f3-2fc0-473d-9642-29e2e20bc93c","system_id":"levelo_inurba_marseille","lat":43.28416,"lon":5.34985,"is_reserved":false,"is_disabled":false,"rental_uris":{"android":"levelo://app?vid=5b2ca1f3-2fc0-473d-9642-29e2e20bc93c","ios":"levelo://app?vid=5b2ca1f3-2fc0-473d-9642-29e2e20bc93c"},"vehicle_type_id":"4","last_reported":1690992493,"current_range_meters":16400,"station_id":"ce4bhbh2rcd13ifvqepg","pricing_plan_id":"free"},{"bike_id":"2fc05b90-d448-4e5f-acca-4afadc455bc5","system_id":"levelo_inurba_marseille","lat":43.28414,"lon":5.34988,"is_reserved":false,"is_disabled":false,"rental_uris":{"android":"levelo://app?vid=2fc05b90-d448-4e5f-acca-4afadc455bc5","ios":"levelo://app?vid=2fc05b90-d448-4e5f-acca-4afadc455bc5"},"vehicle_type_id":"4","last_reported":1690992493,"current_range_meters":11600,"station_id":"ce4bhbh2rcd13ifvqepg","pricing_plan_id":"free"},{"bike_id":"a031431b-2496-4823-af32-ce3e2a5b376b","system_id":"levelo_inurba_marseille","lat":43.28412,"lon":5.34994,"is_reserved":false,"is_disabled":false,"rental_uris":{"android":"levelo://app?vid=a031431b-2496-4823-af32-ce3e2a5b376b","ios":"levelo://app?vid=a031431b-2496-4823-af32-ce3e2a5b376b"},"vehicle_type_id":"4","last_reported":1690992493,"current_range_meters":19200,"station_id":"ce4bhbh2rcd13ifvqepg","pricing_plan_id":"free"},{"bike_id":"0e9145d1-17b9-45ee-a7c4-d52600518c02","system_id":"levelo_inurba_marseille","lat":43.28416,"lon":5.34977,"is_reserved":false,"is_disabled":false,"rental_uris":{"android":"levelo://app?vid=0e9145d1-17b9-45ee-a7c4-d52600518c02","ios":"levelo://app?vid=0e9145d1-17b9-45ee-a7c4-d52600518c02"},"vehicle_type_id":"4","last_reported":1690992493,"current_range_meters":10000,"station_id":"ce4bhbh2rcd13ifvqepg","pricing_plan_id":"free"},{"bike_id":"d4dd060b-1a6d-4df4-9eba-e56ef00aa969","system_id":"levelo_inurba_marseille","lat":43.28412,"lon":5.34979,"is_reserved":false,"is_disabled":false,"rental_uris":{"android":"levelo://app?vid=d4dd060b-1a6d-4df4-9eba-e56ef00aa969","ios":"levelo://app?vid=d4dd060b-1a6d-4df4-9eba-e56ef00aa969"},"vehicle_type_id":"4","last_reported":1690992493,"current_range_meters":8800,"station_id":"ce4bhbh2rcd13ifvqepg","pricing_plan_id":"free"},{"bike_id":"823754cf-5cb0-4c6c-9e3c-a284552d321e","system_id":"levelo_inurba_marseille","lat":43.284217,"lon":5.349697,"is_reserved":false,"is_disabled":false,"rental_uris":{"android":"levelo://app?vid=823754cf-5cb0-4c6c-9e3c-a284552d321e","ios":"levelo://app?vid=823754cf-5cb0-4c6c-9e3c-a284552d321e"},"vehicle_type_id":"4","last_reported":1690992493,"current_range_meters":24800,"station_id":"ce4bhbh2rcd13ifvqepg","pricing_plan_id":"free"},{"bike_id":"cddd64b3-5686-46e2-b5c1-768047d19c30","system_id":"levelo_inurba_marseille","lat":43.28403,"lon":5.34983,"is_reserved":false,"is_disabled":false,"rental_uris":{"android":"levelo://app?vid=cddd64b3-5686-46e2-b5c1-768047d19c30","ios":"levelo://app?vid=cddd64b3-5686-46e2-b5c1-768047d19c30"},"vehicle_type_id":"4","last_reported":1690992493,"current_range_meters":26400,"station_id":"ce4bhbh2rcd13ifvqepg","pricing_plan_id":"free"},{"bike_id":"f7f5768e-b80f-4da0-8864-86696a8877fb","system_id":"levelo_inurba_marseille","lat":43.32456,"lon":5.40727,"is_reserved":false,"is_disabled":false,"rental_uris":{"android":"levelo://app?vid=f7f5768e-b80f-4da0-8864-86696a8877fb","ios":"levelo://app?vid=f7f5768e-b80f-4da0-8864-86696a8877fb"},"vehicle_type_id":"4","last_reported":1690992493,"current_range_meters":4000,"station_id":"","pricing_plan_id":"free"},{"bike_id":"b3e8d0c9-c02f-48ac-b121-aeb8fdfbedd1","system_id":"levelo_inurba_marseille","lat":43.292724,"lon":5.401131,"is_reserved":false,"is_disabled":false,"rental_uris":{"android":"levelo://app?vid=b3e8d0c9-c02f-48ac-b121-aeb8fdfbedd1","ios":"levelo://app?vid=b3e8d0c9-c02f-48ac-b121-aeb8fdfbedd1"},"vehicle_type_id":"4","last_reported":1690992493,"current_range_meters":26000,"station_id":"ce4bh312rcd13ifvqdk0","pricing_plan_id":"free"},{"bike_id":"e0149166-6f3e-47f7-904e-31d5e70bf5ac","system_id":"levelo_inurba_marseille","lat":43.282744,"lon":5.350533,"is_reserved":false,"is_disabled":false,"rental_uris":{"android":"levelo://app?vid=e0149166-6f3e-47f7-904e-31d5e70bf5ac","ios":"levelo://app?vid=e0149166-6f3e-47f7-904e-31d5e70bf5ac"},"vehicle_type_id":"4","last_reported":1690992493,"current_range_meters":22000,"station_id":"ce4bhbp2rcd13ifvqerg","pricing_plan_id":"free"},{"bike_id":"ac2ed349-77fd-43c8-b044-d254999f7938","system_id":"levelo_inurba_marseille","lat":43.28274,"lon":5.35074,"is_reserved":false,"is_disabled":false,"rental_uris":{"android":"levelo://app?vid=ac2ed349-77fd-43c8-b044-d254999f7938","ios":"levelo://app?vid=ac2ed349-77fd-43c8-b044-d254999f7938"},"vehicle_type_id":"4","last_reported":1690992493,"current_range_meters":31200,"station_id":"ce4bhbp2rcd13ifvqerg","pricing_plan_id":"free"},{"bike_id":"827ed529-c1ba-4856-96e5-74cd343993ba","system_id":"levelo_inurba_marseille","lat":43.282754,"lon":5.350519,"is_reserved":false,"is_disabled":false,"rental_uris":{"android":"levelo://app?vid=827ed529-c1ba-4856-96e5-74cd343993ba","ios":"levelo://app?vid=827ed529-c1ba-4856-96e5-74cd343993ba"},"vehicle_type_id":"4","last_reported":1690992493,"current_range_meters":12400,"station_id":"ce4bhbp2rcd13ifvqerg","pricing_plan_id":"free"},{"bike_id":"4f90521b-ab58-4810-845f-38676df60263","system_id":"levelo_inurba_marseille","lat":43.282744,"lon":5.350533,"is_reserved":false,"is_disabled":false,"rental_uris":{"android":"levelo://app?vid=4f90521b-ab58-4810-845f-38676df60263","ios":"levelo://app?vid=4f90521b-ab58-4810-845f-38676df60263"},"vehicle_type_id":"4","last_reported":1690992493,"current_range_meters":14400,"station_id":"ce4bhbp2rcd13ifvqerg","pricing_plan_id":"free"},{"bike_id":"4eac14df-6fbe-4d5f-8799-40ba36f9de03","system_id":"levelo_inurba_marseille","lat":43.282659,"lon":5.350625,"is_reserved":false,"is_disabled":false,"rental_uris":{"android":"levelo://app?vid=4eac14df-6fbe-4d5f-8799-40ba36f9de03","ios":"levelo://app?vid=4eac14df-6fbe-4d5f-8799-40ba36f9de03"},"vehicle_type_id":"4","last_reported":1690992493,"current_range_meters":16400,"station_id":"","pricing_plan_id":"free"},{"bike_id":"eb97ba82-6b4d-46ec-841e-fe1eac676593","system_id":"levelo_inurba_marseille","lat":43.28045,"lon":5.36936,"is_reserved":false,"is_disabled":false,"rental_uris":{"android":"levelo://app?vid=eb97ba82-6b4d-46ec-841e-fe1eac676593","ios":"levelo://app?vid=eb97ba82-6b4d-46ec-841e-fe1eac676593"},"vehicle_type_id":"4","last_reported":1690992493,"current_range_meters":29200,"station_id":"ce4bha12rcd13ifvqef0","pricing_plan_id":"free"},{"bike_id":"2c20459e-25b0-4916-a795-3a7515e078b5","system_id":"levelo_inurba_marseille","lat":43.280438,"lon":5.369467,"is_reserved":false,"is_disabled":false,"rental_uris":{"android":"levelo://app?vid=2c20459e-25b0-4916-a795-3a7515e078b5","ios":"levelo://app?vid=2c20459e-25b0-4916-a795-3a7515e078b5"},"vehicle_type_id":"4","last_reported":1690992493,"current_range_meters":31200,"station_id":"ce4bha12rcd13ifvqef0","pricing_plan_id":"free"},{"bike_id":"c77e5574-e30c-4d64-989d-912c5a006a82","system_id":"levelo_inurba_marseille","lat":43.282744,"lon":5.350533,"is_reserved":false,"is_disabled":false,"rental_uris":{"android":"levelo://app?vid=c77e5574-e30c-4d64-989d-912c5a006a82","ios":"levelo://app?vid=c77e5574-e30c-4d64-989d-912c5a006a82"},"vehicle_type_id":"4","last_reported":1690992493,"current_range_meters":2000,"station_id":"ce4bhbp2rcd13ifvqerg","pricing_plan_id":"free"},{"bike_id":"60fdbf4d-1a20-4f94-8a8c-cd548920b1d8","system_id":"levelo_inurba_marseille","lat":43.282754,"lon":5.350519,"is_reserved":false,"is_disabled":false,"rental_uris":{"android":"levelo://app?vid=60fdbf4d-1a20-4f94-8a8c-cd548920b1d8","ios":"levelo://app?vid=60fdbf4d-1a20-4f94-8a8c-cd548920b1d8"},"vehicle_type_id":"4","last_reported":1690992493,"current_range_meters":25600,"station_id":"ce4bhbp2rcd13ifvqerg","pricing_plan_id":"free"},{"bike_id":"11dcd41e-4c11-4029-b9a7-8efed8f422eb","system_id":"levelo_inurba_marseille","lat":43.282754,"lon":5.350519,"is_reserved":false,"is_disabled":false,"rental_uris":{"android":"levelo://app?vid=11dcd41e-4c11-4029-b9a7-8efed8f422eb","ios":"levelo://app?vid=11dcd41e-4c11-4029-b9a7-8efed8f422eb"},"vehicle_type_id":"4","last_reported":1690992493,"current_range_meters":14800,"station_id":"ce4bhbp2rcd13ifvqerg","pricing_plan_id":"free"},{"bike_id":"38ac57bc-34ef-45b8-91a0-7477d1e11c34","system_id":"levelo_inurba_marseille","lat":43.282744,"lon":5.350533,"is_reserved":false,"is_disabled":false,"rental_uris":{"android":"levelo://app?vid=38ac57bc-34ef-45b8-91a0-7477d1e11c34","ios":"levelo://app?vid=38ac57bc-34ef-45b8-91a0-7477d1e11c34"},"vehicle_type_id":"4","last_reported":1690992493,"current_range_meters":21600,"station_id":"ce4bhbp2rcd13ifvqerg","pricing_plan_id":"free"},{"bike_id":"143b8e23-081f-4138-abb6-c7388a93d2d3","system_id":"levelo_inurba_marseille","lat":43.280382,"lon":5.369291,"is_reserved":false,"is_disabled":false,"rental_uris":{"android":"levelo://app?vid=143b8e23-081f-4138-abb6-c7388a93d2d3","ios":"levelo://app?vid=143b8e23-081f-4138-abb6-c7388a93d2d3"},"vehicle_type_id":"4","last_reported":1690992493,"current_range_meters":26400,"station_id":"ce4bha12rcd13ifvqef0","pricing_plan_id":"free"},{"bike_id":"d39a41f9-5c7c-4e3d-9538-af3e4fe4bde8","system_id":"levelo_inurba_marseille","lat":43.28039,"lon":5.369297,"is_reserved":false,"is_disabled":false,"rental_uris":{"android":"levelo://app?vid=d39a41f9-5c7c-4e3d-9538-af3e4fe4bde8","ios":"levelo://app?vid=d39a41f9-5c7c-4e3d-9538-af3e4fe4bde8"},"vehicle_type_id":"4","last_reported":1690992493,"current_range_meters":28400,"station_id":"ce4bha12rcd13ifvqef0","pricing_plan_id":"free"},{"bike_id":"c67fd003-011a-42e2-85f2-2714de5997e4","system_id":"levelo_inurba_marseille","lat":43.32502,"lon":5.40824,"is_reserved":false,"is_disabled":false,"rental_uris":{"android":"levelo://app?vid=c67fd003-011a-42e2-85f2-2714de5997e4","ios":"levelo://app?vid=c67fd003-011a-42e2-85f2-2714de5997e4"},"vehicle_type_id":"4","last_reported":1690992493,"current_range_meters":0,"station_id":"","pricing_plan_id":"free"},{"bike_id":"1daee953-793e-4e15-850f-30ae71d39ab2","system_id":"levelo_inurba_marseille","lat":43.280382,"lon":5.369291,"is_reserved":false,"is_disabled":false,"rental_uris":{"android":"levelo://app?vid=1daee953-793e-4e15-850f-30ae71d39ab2","ios":"levelo://app?vid=1daee953-793e-4e15-850f-30ae71d39ab2"},"vehicle_type_id":"4","last_reported":1690992493,"current_range_meters":31200,"station_id":"ce4bha12rcd13ifvqef0","pricing_plan_id":"free"},{"bike_id":"b28260e5-2fc1-42ad-a2b2-fe4bd6eef94b","system_id":"levelo_inurba_marseille","lat":43.28105,"lon":5.37838,"is_reserved":false,"is_disabled":false,"rental_uris":{"android":"levelo://app?vid=b28260e5-2fc1-42ad-a2b2-fe4bd6eef94b","ios":"levelo://app?vid=b28260e5-2fc1-42ad-a2b2-fe4bd6eef94b"},"vehicle_type_id":"4","last_reported":1690992493,"current_range_meters":20800,"station_id":"","pricing_plan_id":"free"},{"bike_id":"fb7cb79e-7168-453f-a3e2-36e00ee7319f","system_id":"levelo_inurba_marseille","lat":43.32407,"lon":5.40924,"is_reserved":false,"is_disabled":false,"rental_uris":{"android":"levelo://app?vid=fb7cb79e-7168-453f-a3e2-36e00ee7319f","ios":"levelo://app?vid=fb7cb79e-7168-453f-a3e2-36e00ee7319f"},"vehicle_type_id":"4","last_reported":1690992493,"current_range_meters":22000,"station_id":"","pricing_plan_id":"free"},{"bike_id":"85ad4d3c-fa47-4a26-8f07-c0f04efaca8a","system_id":"levelo_inurba_marseille","lat":43.28573,"lon":5.394992,"is_reserved":false,"is_disabled":false,"rental_uris":{"android":"levelo://app?vid=85ad4d3c-fa47-4a26-8f07-c0f04efaca8a","ios":"levelo://app?vid=85ad4d3c-fa47-4a26-8f07-c0f04efaca8a"},"vehicle_type_id":"4","last_reported":1690992493,"current_range_meters":30400,"station_id":"ce4bh292rcd13ifvqdg0","pricing_plan_id":"free"},{"bike_id":"1c3e2053-37a0-465e-8e54-8e5ce781947d","system_id":"levelo_inurba_marseille","lat":43.326605,"lon":5.409903,"is_reserved":false,"is_disabled":false,"rental_uris":{"android":"levelo://app?vid=1c3e2053-37a0-465e-8e54-8e5ce781947d","ios":"levelo://app?vid=1c3e2053-37a0-465e-8e54-8e5ce781947d"},"vehicle_type_id":"4","last_reported":1690992493,"current_range_meters":31200,"station_id":"ce4bhpp2rcd13ifvqhgg","pricing_plan_id":"free"},{"bike_id":"d21d33c3-5255-4bbd-aaaa-e7ea85b3babf","system_id":"levelo_inurba_marseille","lat":43.32654,"lon":5.4099,"is_reserved":false,"is_disabled":false,"rental_uris":{"android":"levelo://app?vid=d21d33c3-5255-4bbd-aaaa-e7ea85b3babf","ios":"levelo://app?vid=d21d33c3-5255-4bbd-aaaa-e7ea85b3babf"},"vehicle_type_id":"4","last_reported":1690992493,"current_range_meters":28400,"station_id":"ce4bhpp2rcd13ifvqhgg","pricing_plan_id":"free"},{"bike_id":"0ff37f37-1b1c-40ad-8d65-cfe3ce0a745b","system_id":"levelo_inurba_marseille","lat":43.326605,"lon":5.409903,"is_reserved":false,"is_disabled":false,"rental_uris":{"android":"levelo://app?vid=0ff37f37-1b1c-40ad-8d65-cfe3ce0a745b","ios":"levelo://app?vid=0ff37f37-1b1c-40ad-8d65-cfe3ce0a745b"},"vehicle_type_id":"4","last_reported":1690992493,"current_range_meters":31200,"station_id":"ce4bhpp2rcd13ifvqhgg","pricing_plan_id":"free"},{"bike_id":"e78399c7-b161-4b59-99e9-511284445788","system_id":"levelo_inurba_marseille","lat":43.326605,"lon":5.409903,"is_reserved":false,"is_disabled":false,"rental_uris":{"android":"levelo://app?vid=e78399c7-b161-4b59-99e9-511284445788","ios":"levelo://app?vid=e78399c7-b161-4b59-99e9-511284445788"},"vehicle_type_id":"4","last_reported":1690992493,"current_range_meters":31200,"station_id":"ce4bhpp2rcd13ifvqhgg","pricing_plan_id":"free"},{"bike_id":"ee382734-1190-4e95-907a-c0d476fc78c1","system_id":"levelo_inurba_marseille","lat":43.326605,"lon":5.409903,"is_reserved":false,"is_disabled":false,"rental_uris":{"android":"levelo://app?vid=ee382734-1190-4e95-907a-c0d476fc78c1","ios":"levelo://app?vid=ee382734-1190-4e95-907a-c0d476fc78c1"},"vehicle_type_id":"4","last_reported":1690992493,"current_range_meters":26400,"station_id":"ce4bhpp2rcd13ifvqhgg","pricing_plan_id":"free"},{"bike_id":"af62b88f-9666-4cc9-b71f-1aa223fd1a40","system_id":"levelo_inurba_marseille","lat":43.287154,"lon":5.399979,"is_reserved":false,"is_disabled":false,"rental_uris":{"android":"levelo://app?vid=af62b88f-9666-4cc9-b71f-1aa223fd1a40","ios":"levelo://app?vid=af62b88f-9666-4cc9-b71f-1aa223fd1a40"},"vehicle_type_id":"4","last_reported":1690992493,"current_range_meters":27600,"station_id":"ce4bho92rcd13ifvqh3g","pricing_plan_id":"free"},{"bike_id":"bfba65bc-557c-47e6-b28b-4a4bb65ee0cb","system_id":"levelo_inurba_marseille","lat":43.287154,"lon":5.399979,"is_reserved":false,"is_disabled":false,"rental_uris":{"android":"levelo://app?vid=bfba65bc-557c-47e6-b28b-4a4bb65ee0cb","ios":"levelo://app?vid=bfba65bc-557c-47e6-b28b-4a4bb65ee0cb"},"vehicle_type_id":"4","last_reported":1690992493,"current_range_meters":27600,"station_id":"ce4bho92rcd13ifvqh3g","pricing_plan_id":"free"},{"bike_id":"da74851f-183f-4ed8-bc32-44e1d656b516","system_id":"levelo_inurba_marseille","lat":43.32095,"lon":5.41512,"is_reserved":false,"is_disabled":false,"rental_uris":{"android":"levelo://app?vid=da74851f-183f-4ed8-bc32-44e1d656b516","ios":"levelo://app?vid=da74851f-183f-4ed8-bc32-44e1d656b516"},"vehicle_type_id":"4","last_reported":1690992493,"current_range_meters":6800,"station_id":"","pricing_plan_id":"free"},{"bike_id":"e9fbe7f4-c376-4a74-9a01-c2dfa71d30c2","system_id":"levelo_inurba_marseille","lat":43.3209,"lon":5.41514,"is_reserved":false,"is_disabled":false,"rental_uris":{"android":"levelo://app?vid=e9fbe7f4-c376-4a74-9a01-c2dfa71d30c2","ios":"levelo://app?vid=e9fbe7f4-c376-4a74-9a01-c2dfa71d30c2"},"vehicle_type_id":"4","last_reported":1690992493,"current_range_meters":3200,"station_id":"","pricing_plan_id":"free"},{"bike_id":"95987842-078f-4d1b-af84-474fdd67e96d","system_id":"levelo_inurba_marseille","lat":43.320045,"lon":5.415046,"is_reserved":false,"is_disabled":false,"rental_uris":{"android":"levelo://app?vid=95987842-078f-4d1b-af84-474fdd67e96d","ios":"levelo://app?vid=95987842-078f-4d1b-af84-474fdd67e96d"},"vehicle_type_id":"4","last_reported":1690992493,"current_range_meters":31600,"station_id":"ce4bhq92rcd13ifvqhkg","pricing_plan_id":"free"},{"bike_id":"62823ab8-e27e-4b60-82d1-3162dee90e5f","system_id":"levelo_inurba_marseille","lat":43.320045,"lon":5.415046,"is_reserved":false,"is_disabled":false,"rental_uris":{"android":"levelo://app?vid=62823ab8-e27e-4b60-82d1-3162dee90e5f","ios":"levelo://app?vid=62823ab8-e27e-4b60-82d1-3162dee90e5f"},"vehicle_type_id":"4","last_reported":1690992493,"current_range_meters":29200,"station_id":"ce4bhq92rcd13ifvqhkg","pricing_plan_id":"free"},{"bike_id":"97b793c3-380f-4154-8238-528f8d1995d8","system_id":"levelo_inurba_marseille","lat":43.320045,"lon":5.415046,"is_reserved":false,"is_disabled":false,"rental_uris":{"android":"levelo://app?vid=97b793c3-380f-4154-8238-528f8d1995d8","ios":"levelo://app?vid=97b793c3-380f-4154-8238-528f8d1995d8"},"vehicle_type_id":"4","last_reported":1690992493,"current_range_meters":21600,"station_id":"ce4bhq92rcd13ifvqhkg","pricing_plan_id":"free"},{"bike_id":"6a73a50c-aa54-423b-9fc2-7c434588b534","system_id":"levelo_inurba_marseille","lat":43.32026,"lon":5.41546,"is_reserved":false,"is_disabled":false,"rental_uris":{"android":"levelo://app?vid=6a73a50c-aa54-423b-9fc2-7c434588b534","ios":"levelo://app?vid=6a73a50c-aa54-423b-9fc2-7c434588b534"},"vehicle_type_id":"4","last_reported":1690992493,"current_range_meters":30400,"station_id":"ce4bhq92rcd13ifvqhkg","pricing_plan_id":"free"},{"bike_id":"ac73ea33-0de5-41a4-ad12-b592870f9003","system_id":"levelo_inurba_marseille","lat":43.320045,"lon":5.415046,"is_reserved":false,"is_disabled":false,"rental_uris":{"android":"levelo://app?vid=ac73ea33-0de5-41a4-ad12-b592870f9003","ios":"levelo://app?vid=ac73ea33-0de5-41a4-ad12-b592870f9003"},"vehicle_type_id":"4","last_reported":1690992493,"current_range_meters":14000,"station_id":"ce4bhq92rcd13ifvqhkg","pricing_plan_id":"free"},{"bike_id":"46612dcb-1621-4324-9152-f7dd86016801","system_id":"levelo_inurba_marseille","lat":43.320045,"lon":5.415046,"is_reserved":false,"is_disabled":false,"rental_uris":{"android":"levelo://app?vid=46612dcb-1621-4324-9152-f7dd86016801","ios":"levelo://app?vid=46612dcb-1621-4324-9152-f7dd86016801"},"vehicle_type_id":"4","last_reported":1690992493,"current_range_meters":23600,"station_id":"ce4bhq92rcd13ifvqhkg","pricing_plan_id":"free"},{"bike_id":"894ffc8f-86f0-4a88-9273-a13e77860068","system_id":"levelo_inurba_marseille","lat":43.320045,"lon":5.415046,"is_reserved":false,"is_disabled":false,"rental_uris":{"android":"levelo://app?vid=894ffc8f-86f0-4a88-9273-a13e77860068","ios":"levelo://app?vid=894ffc8f-86f0-4a88-9273-a13e77860068"},"vehicle_type_id":"4","last_reported":1690992493,"current_range_meters":31600,"station_id":"ce4bhq92rcd13ifvqhkg","pricing_plan_id":"free"},{"bike_id":"059bad7b-8751-45e1-8746-24b49345e396","system_id":"levelo_inurba_marseille","lat":43.320045,"lon":5.415048,"is_reserved":false,"is_disabled":false,"rental_uris":{"android":"levelo://app?vid=059bad7b-8751-45e1-8746-24b49345e396","ios":"levelo://app?vid=059bad7b-8751-45e1-8746-24b49345e396"},"vehicle_type_id":"4","last_reported":1690992493,"current_range_meters":31200,"station_id":"ce4bhq92rcd13ifvqhkg","pricing_plan_id":"free"},{"bike_id":"e80f134e-bdf0-416c-b95e-c454d1cce4b3","system_id":"levelo_inurba_marseille","lat":43.320045,"lon":5.415048,"is_reserved":false,"is_disabled":false,"rental_uris":{"android":"levelo://app?vid=e80f134e-bdf0-416c-b95e-c454d1cce4b3","ios":"levelo://app?vid=e80f134e-bdf0-416c-b95e-c454d1cce4b3"},"vehicle_type_id":"4","last_reported":1690992493,"current_range_meters":28800,"station_id":"ce4bhq92rcd13ifvqhkg","pricing_plan_id":"free"},{"bike_id":"c327718a-8fe6-4791-a349-aba0f8f94e82","system_id":"levelo_inurba_marseille","lat":43.279742,"lon":5.38744,"is_reserved":false,"is_disabled":false,"rental_uris":{"android":"levelo://app?vid=c327718a-8fe6-4791-a349-aba0f8f94e82","ios":"levelo://app?vid=c327718a-8fe6-4791-a349-aba0f8f94e82"},"vehicle_type_id":"4","last_reported":1690992493,"current_range_meters":31200,"station_id":"ce4bhg12rcd13ifvqf80","pricing_plan_id":"free"},{"bike_id":"80ea05ca-3ed4-4917-8758-dd35096867ff","system_id":"levelo_inurba_marseille","lat":43.320045,"lon":5.415046,"is_reserved":false,"is_disabled":false,"rental_uris":{"android":"levelo://app?vid=80ea05ca-3ed4-4917-8758-dd35096867ff","ios":"levelo://app?vid=80ea05ca-3ed4-4917-8758-dd35096867ff"},"vehicle_type_id":"4","last_reported":1690992493,"current_range_meters":31200,"station_id":"ce4bhq92rcd13ifvqhkg","pricing_plan_id":"free"},{"bike_id":"000e9a76-0cf8-4611-bcab-b300a4299b93","system_id":"levelo_inurba_marseille","lat":43.29261,"lon":5.40906,"is_reserved":false,"is_disabled":false,"rental_uris":{"android":"levelo://app?vid=000e9a76-0cf8-4611-bcab-b300a4299b93","ios":"levelo://app?vid=000e9a76-0cf8-4611-bcab-b300a4299b93"},"vehicle_type_id":"4","last_reported":1690992493,"current_range_meters":0,"station_id":"ce4bh192rcd13ifvqdc0","pricing_plan_id":"free"},{"bike_id":"2ecaf25c-9814-4e7b-80f7-e4c070a04c69","system_id":"levelo_inurba_marseille","lat":43.325233,"lon":5.414318,"is_reserved":false,"is_disabled":false,"rental_uris":{"android":"levelo://app?vid=2ecaf25c-9814-4e7b-80f7-e4c070a04c69","ios":"levelo://app?vid=2ecaf25c-9814-4e7b-80f7-e4c070a04c69"},"vehicle_type_id":"4","last_reported":1690992493,"current_range_meters":29200,"station_id":"ce4bhq12rcd13ifvqhhg","pricing_plan_id":"free"},{"bike_id":"facec683-9177-429a-b650-7abc4af7f962","system_id":"levelo_inurba_marseille","lat":43.27618,"lon":5.361009,"is_reserved":false,"is_disabled":false,"rental_uris":{"android":"levelo://app?vid=facec683-9177-429a-b650-7abc4af7f962","ios":"levelo://app?vid=facec683-9177-429a-b650-7abc4af7f962"},"vehicle_type_id":"4","last_reported":1690992493,"current_range_meters":28400,"station_id":"ce4bgj92rcd13ifvqbe0","pricing_plan_id":"free"},{"bike_id":"cdefcebc-5078-4d67-8d7a-45f230382108","system_id":"levelo_inurba_marseille","lat":43.325233,"lon":5.414318,"is_reserved":false,"is_disabled":false,"rental_uris":{"android":"levelo://app?vid=cdefcebc-5078-4d67-8d7a-45f230382108","ios":"levelo://app?vid=cdefcebc-5078-4d67-8d7a-45f230382108"},"vehicle_type_id":"4","last_reported":1690992493,"current_range_meters":31600,"station_id":"ce4bhq12rcd13ifvqhhg","pricing_plan_id":"free"},{"bike_id":"15e6f4a1-3db3-448e-a6f0-15e74de325ba","system_id":"levelo_inurba_marseille","lat":43.27618,"lon":5.361009,"is_reserved":false,"is_disabled":false,"rental_uris":{"android":"levelo://app?vid=15e6f4a1-3db3-448e-a6f0-15e74de325ba","ios":"levelo://app?vid=15e6f4a1-3db3-448e-a6f0-15e74de325ba"},"vehicle_type_id":"4","last_reported":1690992493,"current_range_meters":31200,"station_id":"ce4bgj92rcd13ifvqbe0","pricing_plan_id":"free"},{"bike_id":"b9b3c616-a96b-4c56-8dbd-e46380818684","system_id":"levelo_inurba_marseille","lat":43.32537,"lon":5.41451,"is_reserved":false,"is_disabled":false,"rental_uris":{"android":"levelo://app?vid=b9b3c616-a96b-4c56-8dbd-e46380818684","ios":"levelo://app?vid=b9b3c616-a96b-4c56-8dbd-e46380818684"},"vehicle_type_id":"4","last_reported":1690992493,"current_range_meters":13200,"station_id":"ce4bhq12rcd13ifvqhhg","pricing_plan_id":"free"},{"bike_id":"c964849d-3e03-44a8-87e7-224ea54dce6c","system_id":"levelo_inurba_marseille","lat":43.27612,"lon":5.36111,"is_reserved":false,"is_disabled":false,"rental_uris":{"android":"levelo://app?vid=c964849d-3e03-44a8-87e7-224ea54dce6c","ios":"levelo://app?vid=c964849d-3e03-44a8-87e7-224ea54dce6c"},"vehicle_type_id":"4","last_reported":1690992493,"current_range_meters":14800,"station_id":"ce4bgj92rcd13ifvqbe0","pricing_plan_id":"free"},{"bike_id":"386ed8e3-b71e-4f68-86af-202c5b76503e","system_id":"levelo_inurba_marseille","lat":43.27611,"lon":5.36115,"is_reserved":false,"is_disabled":false,"rental_uris":{"android":"levelo://app?vid=386ed8e3-b71e-4f68-86af-202c5b76503e","ios":"levelo://app?vid=386ed8e3-b71e-4f68-86af-202c5b76503e"},"vehicle_type_id":"4","last_reported":1690992493,"current_range_meters":25200,"station_id":"ce4bgj92rcd13ifvqbe0","pricing_plan_id":"free"},{"bike_id":"3f2c8a8b-ee18-4681-87c7-0a79a1c09bf4","system_id":"levelo_inurba_marseille","lat":43.27606,"lon":5.3611,"is_reserved":false,"is_disabled":false,"rental_uris":{"android":"levelo://app?vid=3f2c8a8b-ee18-4681-87c7-0a79a1c09bf4","ios":"levelo://app?vid=3f2c8a8b-ee18-4681-87c7-0a79a1c09bf4"},"vehicle_type_id":"4","last_reported":1690992493,"current_range_meters":21600,"station_id":"ce4bgj92rcd13ifvqbe0","pricing_plan_id":"free"},{"bike_id":"4bc88a21-e10e-43a1-9c13-7244dbcbc637","system_id":"levelo_inurba_marseille","lat":43.325233,"lon":5.414318,"is_reserved":false,"is_disabled":false,"rental_uris":{"android":"levelo://app?vid=4bc88a21-e10e-43a1-9c13-7244dbcbc637","ios":"levelo://app?vid=4bc88a21-e10e-43a1-9c13-7244dbcbc637"},"vehicle_type_id":"4","last_reported":1690992493,"current_range_meters":14800,"station_id":"ce4bhq12rcd13ifvqhhg","pricing_plan_id":"free"},{"bike_id":"45948a2e-59d3-47c2-9c80-1c820c7623f2","system_id":"levelo_inurba_marseille","lat":43.280884,"lon":5.396178,"is_reserved":false,"is_disabled":false,"rental_uris":{"android":"levelo://app?vid=45948a2e-59d3-47c2-9c80-1c820c7623f2","ios":"levelo://app?vid=45948a2e-59d3-47c2-9c80-1c820c7623f2"},"vehicle_type_id":"4","last_reported":1690992493,"current_range_meters":5200,"station_id":"ce4bho12rcd13ifvqh2g","pricing_plan_id":"free"},{"bike_id":"40f229f5-0a15-4436-ad27-c1226c755b00","system_id":"levelo_inurba_marseille","lat":43.280784,"lon":5.396622,"is_reserved":false,"is_disabled":false,"rental_uris":{"android":"levelo://app?vid=40f229f5-0a15-4436-ad27-c1226c755b00","ios":"levelo://app?vid=40f229f5-0a15-4436-ad27-c1226c755b00"},"vehicle_type_id":"4","last_reported":1690992493,"current_range_meters":22800,"station_id":"ce4bho12rcd13ifvqh2g","pricing_plan_id":"free"},{"bike_id":"e0528843-58ea-4a82-a65b-b763a0a5de3b","system_id":"levelo_inurba_marseille","lat":43.303837,"lon":5.418724,"is_reserved":false,"is_disabled":false,"rental_uris":{"android":"levelo://app?vid=e0528843-58ea-4a82-a65b-b763a0a5de3b","ios":"levelo://app?vid=e0528843-58ea-4a82-a65b-b763a0a5de3b"},"vehicle_type_id":"4","last_reported":1690992493,"current_range_meters":26000,"station_id":"ce4bhop2rcd13ifvqh7g","pricing_plan_id":"free"},{"bike_id":"d78e2db8-96c1-498a-b191-7488395819eb","system_id":"levelo_inurba_marseille","lat":43.30357,"lon":5.41882,"is_reserved":false,"is_disabled":false,"rental_uris":{"android":"levelo://app?vid=d78e2db8-96c1-498a-b191-7488395819eb","ios":"levelo://app?vid=d78e2db8-96c1-498a-b191-7488395819eb"},"vehicle_type_id":"4","last_reported":1690992493,"current_range_meters":22400,"station_id":"ce4bhop2rcd13ifvqh7g","pricing_plan_id":"free"},