{"last_updated":1726211338,"ttl":30,"version":"2.2","data":{"bikes":[{"bike_id":"73ca6a4c-de1d-4956-a09e-6ffb47199579","system_id":"levelo_inurba_marseille","lat":43.2862,"lon":5.35103,"is_reserved":false,"is_disabled":false,"rental_uris":{"android":"levelo://app?vid=73ca6a4c-de1d-4956-a09e-6ffb47199579","ios":"levelo://app?vid=73ca6a4c-de1d-4956-a09e-6ffb47199579"},"vehicle_type_id":"4","last_reported":1726211339,"current_range_meters":14400,"station_id":"ce4bhch2rcd13ifvqeug","pricing_plan_id":"cebpf4jnsgd1na2vs0mg"},{"bike_id":"2ca2fd52-6283-4397-ac7e-8db28b0c8f78","system_id":"levelo_inurba_marseille","lat":43.23196,"lon":5.35555,"is_reserved":false,"is_disabled":false,"rental_uris":{"android":"levelo://app?vid=2ca2fd52-6283-4397-ac7e-8db28b0c8f78","ios":"levelo://app?vid=2ca2fd52-6283-4397-ac7e-8db28b0c8f78"},"vehicle_type_id":"4","last_reported":1726211339,"current_range_meters":12400,"station_id":"ce4bhu92rcd13ifvqi70","pricing_plan_id":"cebpf4jnsgd1na2vs0mg"},{"bike_id":"2c88e731-11a2-44d0-806c-83ba8bff3e6b","system_id":"levelo_inurba_marseille","lat":43.30319,"lon":5.36898,"is_reserved":false,"is_disabled":false,"rental_uris":{"android":"levelo://app?vid=2c88e731-11a2-44d0-806c-83ba8bff3e6b","ios":"levelo://app?vid=2c88e731-11a2-44d0-806c-83ba8bff3e6b"},"vehicle_type_id":"4","last_reported":1726211339,"current_range_meters":38800,"station_id":"ce4bgqh2rcd13ifvqc5g","pricing_plan_id":"cebpf4jnsgd1na2vs0mg"},{"bike_id":"402437e6-c2f1-42df-940c-2f249616f6ba","system_id":"levelo_inurba_marseille","lat":43.28009,"lon":5.387167,"is_reserved":false,"is_disabled":false,"rental_uris":{"android":"levelo://app?vid=402437e6-c2f1-42df-940c-2f249616f6ba","ios":"levelo://app?vid=402437e6-c2f1-42df-940c-2f249616f6ba"},"vehicle_type_id":"4","last_reported":1726211339,"current_range_meters":22800,"station_id":"ce4bhg12rcd13ifvqf80","pricing_plan_id":"cebpf4jnsgd1na2vs0mg"},{"bike_id":"ad4e1c78-f0d7-492f-b728-5e388f9b88f9","system_id":"levelo_inurba_marseille","lat":43.26951,"lon":5.38628,"is_reserved":false,"is_disabled":false,"rental_uris":{"android":"levelo://app?vid=ad4e1c78-f0d7-492f-b728-5e388f9b88f9","ios":"levelo://app?vid=ad4e1c78-f0d7-492f-b728-5e388f9b88f9"},"vehicle_type_id":"4","last_reported":1726211339,"current_range_meters":19200,"station_id":"ce4bhh92rcd13ifvqfh0","pricing_plan_id":"cebpf4jnsgd1na2vs0mg"},{"bike_id":"17eaeb7a-22bf-4e92-bb7d-8f4c1ac5a7dd","system_id":"levelo_inurba_marseille","lat":43.27488,"lon":5.42469,"is_reserved":false,"is_disabled":false,"rental_uris":{"android":"levelo://app?vid=17eaeb7a-22bf-4e92-bb7d-8f4c1ac5a7dd","ios":"levelo://app?vid=17eaeb7a-22bf-4e92-bb7d-8f4c1ac5a7dd"},"vehicle_type_id":"4","last_reported":1726211339,"current_range_meters":38800,"station_id":"ce4bhn92rcd13ifvqgrg","pricing_plan_id":"cebpf4jnsgd1na2vs0mg"},{"bike_id":"ae8c7bd4-e320-4650-aaec-5acdea38c512","system_id":"levelo_inurba_marseille","lat":43.28039,"lon":5.38713,"is_reserved":false,"is_disabled":false,"rental_uris":{"android":"levelo://app?vid=ae8c7bd4-e320-4650-aaec-5acdea38c512","ios":"levelo://app?vid=ae8c7bd4-e320-4650-aaec-5acdea38c512"},"vehicle_type_id":"4","last_reported":1726211339,"current_range_meters":22800,"station_id":"","pricing_plan_id":"cebpf4jnsgd1na2vs0mg"},{"bike_id":"0ac293a5-409b-4c77-9d1b-336bd09deec1","system_id":"levelo_inurba_marseille","lat":43.31515,"lon":5.37335,"is_reserved":false,"is_disabled":false,"rental_uris":{"android":"levelo://app?vid=0ac293a5-409b-4c77-9d1b-336bd09deec1","ios":"levelo://app?vid=0ac293a5-409b-4c77-9d1b-336bd09deec1"},"vehicle_type_id":"4","last_reported":1726211339,"current_range_meters":37600,"station_id":"ce4bgt12rcd13ifvqcd0","pricing_plan_id":"cebpf4jnsgd1na2vs0mg"},{"bike_id":"9b955446-b0f1-4b46-ab9e-30ac60b44110","system_id":"levelo_inurba_marseille","lat":43.30098,"lon":5.39071,"is_reserved":false,"is_disabled":false,"rental_uris":{"android":"levelo://app?vid=9b955446-b0f1-4b46-ab9e-30ac60b44110","ios":"levelo://app?vid=9b955446-b0f1-4b46-ab9e-30ac60b44110"},"vehicle_type_id":"4","last_reported":1726211339,"current_range_meters":36400,"station_id":"ce4bh192rcd13ifvqdb0","pricing_plan_id":"cebpf4jnsgd1na2vs0mg"},{"bike_id":"6857c5d1-5581-450d-a969-e54e4e134161","system_id":"levelo_inurba_marseille","lat":43.27564,"lon":5.38438,"is_reserved":false,"is_disabled":false,"rental_uris":{"android":"levelo://app?vid=6857c5d1-5581-450d-a969-e54e4e134161","ios":"levelo://app?vid=6857c5d1-5581-450d-a969-e54e4e134161"},"vehicle_type_id":"4","last_reported":1726211339,"current_range_meters":30000,"station_id":"ce4bhh92rcd13ifvqfi0","pricing_plan_id":"cebpf4jnsgd1na2vs0mg"},{"bike_id":"1c9df10b-5f8c-4fbe-a691-32d403952ff7","system_id":"levelo_inurba_marseille","lat":43.33607,"lon":5.41036,"is_reserved":false,"is_disabled":false,"rental_uris":{"android":"levelo://app?vid=1c9df10b-5f8c-4fbe-a691-32d403952ff7","ios":"levelo://app?vid=1c9df10b-5f8c-4fbe-a691-32d403952ff7"},"vehicle_type_id":"4","last_reported":1726211339,"current_range_meters":14400,"station_id":"ce4bhqh2rcd13ifvqhmg","pricing_plan_id":"cebpf4jnsgd1na2vs0mg"},{"bike_id":"bbf1f00d-76a1-4396-bda0-3ad38de7ca5a","system_id":"levelo_inurba_marseille","lat":43.26025,"lon":5.37549,"is_reserved":false,"is_disabled":false,"rental_uris":{"android":"levelo://app?vid=bbf1f00d-76a1-4396-bda0-3ad38de7ca5a","ios":"levelo://app?vid=bbf1f00d-76a1-4396-bda0-3ad38de7ca5a"},"vehicle_type_id":"4","last_reported":1726211339,"current_range_meters":29600,"station_id":"ce4bhgh2rcd13ifvqfa0","pricing_plan_id":"cebpf4jnsgd1na2vs0mg"},{"bike_id":"b961dfeb-c89b-4953-8a6f-897cb13c41c1","system_id":"levelo_inurba_marseille","lat":43.33608,"lon":5.41023,"is_reserved":false,"is_disabled":false,"rental_uris":{"android":"levelo://app?vid=b961dfeb-c89b-4953-8a6f-897cb13c41c1","ios":"levelo://app?vid=b961dfeb-c89b-4953-8a6f-897cb13c41c1"},"vehicle_type_id":"4","last_reported":1726211339,"current_range_meters":27200,"station_id":"ce4bhqh2rcd13ifvqhmg","pricing_plan_id":"cebpf4jnsgd1na2vs0mg"},{"bike_id":"20a93905-b3a1-4ead-a861-f6bd36aa5b5e","system_id":"levelo_inurba_marseille","lat":43.23155,"lon":5.4371,"is_reserved":false,"is_disabled":false,"rental_uris":{"android":"levelo://app?vid=20a93905-b3a1-4ead-a861-f6bd36aa5b5e","ios":"levelo://app?vid=20a93905-b3a1-4ead-a861-f6bd36aa5b5e"},"vehicle_type_id":"4","last_reported":1726211339,"current_range_meters":20800,"station_id":"ce4bhmp2rcd13ifvqgog","pricing_plan_id":"cebpf4jnsgd1na2vs0mg"},{"bike_id":"5acc2cfe-a866-4897-9174-0395a94f269d","system_id":"levelo_inurba_marseille","lat":43.31687,"lon":5.37758,"is_reserved":false,"is_disabled":false,"rental_uris":{"android":"levelo://app?vid=5acc2cfe-a866-4897-9174-0395a94f269d","ios":"levelo://app?vid=5acc2cfe-a866-4897-9174-0395a94f269d"},"vehicle_type_id":"4","last_reported":1726211339,"current_range_meters":8800,"station_id":"ce4bgth2rcd13ifvqch0","pricing_plan_id":"cebpf4jnsgd1na2vs0mg"},{"bike_id":"118d8d6e-e982-4920-9eff-10d0a637c53e","system_id":"levelo_inurba_marseille","lat":43.24082,"lon":5.37757,"is_reserved":false,"is_disabled":false,"rental_uris":{"android":"levelo://app?vid=118d8d6e-e982-4920-9eff-10d0a637c53e","ios":"levelo://app?vid=118d8d6e-e982-4920-9eff-10d0a637c53e"},"vehicle_type_id":"4","last_reported":1726211339,"current_range_meters":8800,"station_id":"ce4bhnp2rcd13ifvqgvg","pricing_plan_id":"cebpf4jnsgd1na2vs0mg"},{"bike_id":"f8d0fba0-b375-496d-9fb6-aac6b8a7715f","system_id":"levelo_inurba_marseille","lat":43.31684,"lon":5.37734,"is_reserved":false,"is_disabled":false,"rental_uris":{"android":"levelo://app?vid=f8d0fba0-b375-496d-9fb6-aac6b8a7715f","ios":"levelo://app?vid=f8d0fba0-b375-496d-9fb6-aac6b8a7715f"},"vehicle_type_id":"4","last_reported":1726211339,"current_range_meters":10000,"station_id":"ce4bgth2rcd13ifvqch0","pricing_plan_id":"cebpf4jnsgd1na2vs0mg"},{"bike_id":"f45d9413-9a73-47f2-a10e-0dc762623601","system_id":"levelo_inurba_marseille","lat":43.23161,"lon":5.43703,"is_reserved":false,"is_disabled":false,"rental_uris":{"android":"levelo://app?vid=f45d9413-9a73-47f2-a10e-0dc762623601","ios":"levelo://app?vid=f45d9413-9a73-47f2-a10e-0dc762623601"},"vehicle_type_id":"4","last_reported":1726211339,"current_range_meters":38400,"station_id":"ce4bhmp2rcd13ifvqgog","pricing_plan_id":"cebpf4jnsgd1na2vs0mg"},{"bike_id":"e29bbe97-bd9c-439a-b114-113a1ddb6a77","system_id":"levelo_inurba_marseille","lat":43.337444,"lon":5.374475,"is_reserved":false,"is_disabled":false,"rental_uris":{"android":"levelo://app?vid=e29bbe97-bd9c-439a-b114-113a1ddb6a77","ios":"levelo://app?vid=e29bbe97-bd9c-439a-b114-113a1ddb6a77"},"vehicle_type_id":"4","last_reported":1726211339,"current_range_meters":27200,"station_id":"","pricing_plan_id":"cebpf4jnsgd1na2vs0mg"},{"bike_id":"13ec4916-f0ea-4897-8afc-596425b42c42","system_id":"levelo_inurba_marseille","lat":43.23193,"lon":5.35551,"is_reserved":false,"is_disabled":false,"rental_uris":{"android":"levelo://app?vid=13ec4916-f0ea-4897-8afc-596425b42c42","ios":"levelo://app?vid=13ec4916-f0ea-4897-8afc-596425b42c42"},"vehicle_type_id":"4","last_reported":1726211339,"current_range_meters":33200,"station_id":"ce4bhu92rcd13ifvqi70","pricing_plan_id":"cebpf4jnsgd1na2vs0mg"},{"bike_id":"4763e540-68d4-47e4-91ce-c776505c9525","system_id":"levelo_inurba_marseille","lat":43.29926,"lon":5.3747,"is_reserved":false,"is_disabled":false,"rental_uris":{"android":"levelo://app?vid=4763e540-68d4-47e4-91ce-c776505c9525","ios":"levelo://app?vid=4763e540-68d4-47e4-91ce-c776505c9525"},"vehicle_type_id":"4","last_reported":1726211339,"current_range_meters":27200,"station_id":"ce4bgjh2rcd13ifvqbg0","pricing_plan_id":"cebpf4jnsgd1na2vs0mg"},{"bike_id":"b6e3e73b-d583-48b5-980c-ef8c79d236fd","system_id":"levelo_inurba_marseille","lat":43.2408,"lon":5.37757,"is_reserved":false,"is_disabled":false,"rental_uris":{"android":"levelo://app?vid=b6e3e73b-d583-48b5-980c-ef8c79d236fd","ios":"levelo://app?vid=b6e3e73b-d583-48b5-980c-ef8c79d236fd"},"vehicle_type_id":"4","last_reported":1726211339,"current_range_meters":30400,"station_id":"ce4bhnp2rcd13ifvqgvg","pricing_plan_id":"cebpf4jnsgd1na2vs0mg"},{"bike_id":"76913fa2-3256-446b-bf65-5662664adc3a","system_id":"levelo_inurba_marseille","lat":43.246582,"lon":5.381819,"is_reserved":false,"is_disabled":false,"rental_uris":{"android":"levelo://app?vid=76913fa2-3256-446b-bf65-5662664adc3a","ios":"levelo://app?vid=76913fa2-3256-446b-bf65-5662664adc3a"},"vehicle_type_id":"4","last_reported":1726211339,"current_range_meters":31200,"station_id":"ce4bhn12rcd13ifvqgqg","pricing_plan_id":"cebpf4jnsgd1na2vs0mg"},{"bike_id":"a59d64a6-0c90-478e-8726-6eda2f84c2f7","system_id":"levelo_inurba_marseille","lat":43.26026,"lon":5.3755,"is_reserved":false,"is_disabled":false,"rental_uris":{"android":"levelo://app?vid=a59d64a6-0c90-478e-8726-6eda2f84c2f7","ios":"levelo://app?vid=a59d64a6-0c90-478e-8726-6eda2f84c2f7"},"vehicle_type_id":"4","last_reported":1726211339,"current_range_meters":6400,"station_id":"ce4bhgh2rcd13ifvqfa0","pricing_plan_id":"cebpf4jnsgd1na2vs0mg"},{"bike_id":"d035d579-2e69-4a79-8e97-e3875f643f43","system_id":"levelo_inurba_marseille","lat":43.25824,"lon":5.39424,"is_reserved":false,"is_disabled":false,"rental_uris":{"android":"levelo://app?vid=d035d579-2e69-4a79-8e97-e3875f643f43","ios":"levelo://app?vid=d035d579-2e69-4a79-8e97-e3875f643f43"},"vehicle_type_id":"4","last_reported":1726211339,"current_range_meters":39200,"station_id":"ce4bhip2rcd13ifvqft0","pricing_plan_id":"cebpf4jnsgd1na2vs0mg"},{"bike_id":"acd8a3d5-a9db-4ea3-b234-2a790cfd605a","system_id":"levelo_inurba_marseille","lat":43.23965,"lon":5.36619,"is_reserved":false,"is_disabled":false,"rental_uris":{"android":"levelo://app?vid=acd8a3d5-a9db-4ea3-b234-2a790cfd605a","ios":"levelo://app?vid=acd8a3d5-a9db-4ea3-b234-2a790cfd605a"},"vehicle_type_id":"4","last_reported":1726211339,"current_range_meters":17600,"station_id":"ce4bhi12rcd13ifvqfp0","pricing_plan_id":"cebpf4jnsgd1na2vs0mg"},{"bike_id":"f16d9709-3a53-4cda-9f88-fe6320822116","system_id":"levelo_inurba_marseille","lat":43.240906,"lon":5.378228,"is_reserved":false,"is_disabled":false,"rental_uris":{"android":"levelo://app?vid=f16d9709-3a53-4cda-9f88-fe6320822116","ios":"levelo://app?vid=f16d9709-3a53-4cda-9f88-fe6320822116"},"vehicle_type_id":"4","last_reported":1726211339,"current_range_meters":30000,"station_id":"","pricing_plan_id":"cebpf4jnsgd1na2vs0mg"},{"bike_id":"ee5bd0a5-1257-48de-9343-ea8521c36cdd","system_id":"levelo_inurba_marseille","lat":43.23199,"lon":5.35551,"is_reserved":false,"is_disabled":false,"rental_uris":{"android":"levelo://app?vid=ee5bd0a5-1257-48de-9343-ea8521c36cdd","ios":"levelo://app?vid=ee5bd0a5-1257-48de-9343-ea8521c36cdd"},"vehicle_type_id":"4","last_reported":1726211339,"current_range_meters":4800,"station_id":"ce4bhu92rcd13ifvqi70","pricing_plan_id":"cebpf4jnsgd1na2vs0mg"},{"bike_id":"995d3a7e-289e-4ebd-b785-9d2da426ad57","system_id":"levelo_inurba_marseille","lat":43.23193,"lon":5.3555,"is_reserved":false,"is_disabled":false,"rental_uris":{"android":"levelo://app?vid=995d3a7e-289e-4ebd-b785-9d2da426ad57","ios":"levelo://app?vid=995d3a7e-289e-4ebd-b785-9d2da426ad57"},"vehicle_type_id":"4","last_reported":1726211339,"current_range_meters":27600,"station_id":"ce4bhu92rcd13ifvqi70","pricing_plan_id":"cebpf4jnsgd1na2vs0mg"},{"bike_id":"74c67d55-8a5f-40c9-8066-d68354718f8c","system_id":"levelo_inurba_marseille","lat":43.23195,"lon":5.35551,"is_reserved":false,"is_disabled":false,"rental_uris":{"android":"levelo://app?vid=74c67d55-8a5f-40c9-8066-d68354718f8c","ios":"levelo://app?vid=74c67d55-8a5f-40c9-8066-d68354718f8c"},"vehicle_type_id":"4","last_reported":1726211339,"current_range_meters":30800,"station_id":"ce4bhu92rcd13ifvqi70","pricing_plan_id":"cebpf4jnsgd1na2vs0mg"},{"bike_id":"85d9c374-dd62-475b-a958-c5d8d3d1a08b","system_id":"levelo_inurba_marseille","lat":43.26489,"lon":5.39544,"is_reserved":false,"is_disabled":false,"rental_uris":{"android":"levelo://app?vid=85d9c374-dd62-475b-a958-c5d8d3d1a08b","ios":"levelo://app?vid=85d9c374-dd62-475b-a958-c5d8d3d1a08b"},"vehicle_type_id":"4","last_reported":1726211339,"current_range_meters":3200,"station_id":"ce4bhi12rcd13ifvqfq0","pricing_plan_id":"cebpf4jnsgd1na2vs0mg"},{"bike_id":"0203a330-e952-4e07-92c6-98d22b471fb8","system_id":"levelo_inurba_marseille","lat":43.30467,"lon":5.37914,"is_reserved":false,"is_disabled":false,"rental_uris":{"android":"levelo://app?vid=0203a330-e952-4e07-92c6-98d22b471fb8","ios":"levelo://app?vid=0203a330-e952-4e07-92c6-98d22b471fb8"},"vehicle_type_id":"4","last_reported":1726211339,"current_range_meters":33200,"station_id":"ce4bgup2rcd13ifvqcn0","pricing_plan_id":"cebpf4jnsgd1na2vs0mg"},{"bike_id":"c7a72c95-d3e6-46b3-8c83-3114a189ce35","system_id":"levelo_inurba_marseille","lat":43.25575,"lon":5.38238,"is_reserved":false,"is_disabled":false,"rental_uris":{"android":"levelo://app?vid=c7a72c95-d3e6-46b3-8c83-3114a189ce35","ios":"levelo://app?vid=c7a72c95-d3e6-46b3-8c83-3114a189ce35"},"vehicle_type_id":"4","last_reported":1726211339,"current_range_meters":9600,"station_id":"ce4bhih2rcd13ifvqfs0","pricing_plan_id":"cebpf4jnsgd1na2vs0mg"},{"bike_id":"9f41d6ac-b6f0-407c-8958-c25276347868","system_id":"levelo_inurba_marseille","lat":43.30948,"lon":5.39025,"is_reserved":false,"is_disabled":false,"rental_uris":{"android":"levelo://app?vid=9f41d6ac-b6f0-407c-8958-c25276347868","ios":"levelo://app?vid=9f41d6ac-b6f0-407c-8958-c25276347868"},"vehicle_type_id":"4","last_reported":1726211339,"current_range_meters":38400,"station_id":"ce4bgup2rcd13ifvqco0","pricing_plan_id":"cebpf4jnsgd1na2vs0mg"},{"bike_id":"ddcd6a1d-6048-412e-a374-9c40896ddcb7","system_id":"levelo_inurba_marseille","lat":43.23154,"lon":5.43704,"is_reserved":false,"is_disabled":false,"rental_uris":{"android":"levelo://app?vid=ddcd6a1d-6048-412e-a374-9c40896ddcb7","ios":"levelo://app?vid=ddcd6a1d-6048-412e-a374-9c40896ddcb7"},"vehicle_type_id":"4","last_reported":1726211339,"current_range_meters":16000,"station_id":"ce4bhmp2rcd13ifvqgog","pricing_plan_id":"cebpf4jnsgd1na2vs0mg"},{"bike_id":"7f7d711b-d42e-403c-8bf5-e4217831a361","system_id":"levelo_inurba_marseille","lat":43.28343,"lon":5.381,"is_reserved":false,"is_disabled":false,"rental_uris":{"android":"levelo://app?vid=7f7d711b-d42e-403c-8bf5-e4217831a361","ios":"levelo://app?vid=7f7d711b-d42e-403c-8bf5-e4217831a361"},"vehicle_type_id":"4","last_reported":1726211339,"current_range_meters":18000,"station_id":"ce4bh412rcd13ifvqdr0","pricing_plan_id":"cebpf4jnsgd1na2vs0mg"},{"bike_id":"8dfcfcd2-e9e0-4703-8423-630af9dce84d","system_id":"levelo_inurba_marseille","lat":43.29044,"lon":5.39958,"is_reserved":false,"is_disabled":false,"rental_uris":{"android":"levelo://app?vid=8dfcfcd2-e9e0-4703-8423-630af9dce84d","ios":"levelo://app?vid=8dfcfcd2-e9e0-4703-8423-630af9dce84d"},"vehicle_type_id":"4","last_reported":1726211339,"current_range_meters":30000,"station_id":"ce4bh392rcd13ifvqdm0","pricing_plan_id":"cebpf4jnsgd1na2vs0mg"},{"bike_id":"4c3408ec-cd57-468f-a4f3-d648cffdd4db","system_id":"levelo_inurba_marseille","lat":43.30481,"lon":5.37907,"is_reserved":false,"is_disabled":false,"rental_uris":{"android":"levelo://app?vid=4c3408ec-cd57-468f-a4f3-d648cffdd4db","ios":"levelo://app?vid=4c3408ec-cd57-468f-a4f3-d648cffdd4db"},"vehicle_type_id":"4","last_reported":1726211339,"current_range_meters":13600,"station_id":"ce4bgup2rcd13ifvqcn0","pricing_plan_id":"cebpf4jnsgd1na2vs0mg"},{"bike_id":"59488802-6166-4a54-8b1e-a1f33164b68c","system_id":"levelo_inurba_marseille","lat":43.30288,"lon":5.37724,"is_reserved":false,"is_disabled":false,"rental_uris":{"android":"levelo://app?vid=59488802-6166-4a54-8b1e-a1f33164b68c","ios":"levelo://app?vid=59488802-6166-4a54-8b1e-a1f33164b68c"},"vehicle_type_id":"4","last_reported":1726211339,"current_range_meters":22000,"station_id":"ce4bguh2rcd13ifvqcj0","pricing_plan_id":"cebpf4jnsgd1na2vs0mg"},{"bike_id":"d6f781b5-d5a7-4af2-81cd-266dd0f272bf","system_id":"levelo_inurba_marseille","lat":43.33612,"lon":5.4104,"is_reserved":false,"is_disabled":false,"rental_uris":{"android":"levelo://app?vid=d6f781b5-d5a7-4af2-81cd-266dd0f272bf","ios":"levelo://app?vid=d6f781b5-d5a7-4af2-81cd-266dd0f272bf"},"vehicle_type_id":"4","last_reported":1726211339,"current_range_meters":40000,"station_id":"ce4bhqh2rcd13ifvqhmg","pricing_plan_id":"cebpf4jnsgd1na2vs0mg"},{"bike_id":"8650baf2-bb77-4de5-86db-3d5c55fc9920","system_id":"levelo_inurba_marseille","lat":43.286827,"lon":5.386744,"is_reserved":false,"is_disabled":false,"rental_uris":{"android":"levelo://app?vid=8650baf2-bb77-4de5-86db-3d5c55fc9920","ios":"levelo://app?vid=8650baf2-bb77-4de5-86db-3d5c55fc9920"},"vehicle_type_id":"4","last_reported":1726211339,"current_range_meters":20800,"station_id":"ce4bgpp2rcd13ifvqc3g","pricing_plan_id":"cebpf4jnsgd1na2vs0mg"},{"bike_id":"fbc6bc50-cb35-4d0d-a0ed-403889426346","system_id":"levelo_inurba_marseille","lat":43.309082,"lon":5.391153,"is_reserved":false,"is_disabled":false,"rental_uris":{"android":"levelo://app?vid=fbc6bc50-cb35-4d0d-a0ed-403889426346","ios":"levelo://app?vid=fbc6bc50-cb35-4d0d-a0ed-403889426346"},"vehicle_type_id":"4","last_reported":1726211339,"current_range_meters":19600,"station_id":"ce4bgup2rcd13ifvqco0","pricing_plan_id":"cebpf4jnsgd1na2vs0mg"},{"bike_id":"953e285e-1004-4077-a5e5-9f2f9b5cc3e9","system_id":"levelo_inurba_marseille","lat":43.295957,"lon":5.380991,"is_reserved":false,"is_disabled":false,"rental_uris":{"android":"levelo://app?vid=953e285e-1004-4077-a5e5-9f2f9b5cc3e9","ios":"levelo://app?vid=953e285e-1004-4077-a5e5-9f2f9b5cc3e9"},"vehicle_type_id":"4","last_reported":1726211339,"current_range_meters":20800,"station_id":"ce4bgl12rcd13ifvqbo0","pricing_plan_id":"cebpf4jnsgd1na2vs0mg"},{"bike_id":"d54209f6-3398-4e00-8b3a-a3ed0a88f3b6","system_id":"levelo_inurba_marseille","lat":43.24562,"lon":5.37316,"is_reserved":false,"is_disabled":false,"rental_uris":{"android":"levelo://app?vid=d54209f6-3398-4e00-8b3a-a3ed0a88f3b6","ios":"levelo://app?vid=d54209f6-3398-4e00-8b3a-a3ed0a88f3b6"},"vehicle_type_id":"4","last_reported":1726211339,"current_range_meters":28800,"station_id":"","pricing_plan_id":"cebpf4jnsgd1na2vs0mg"},{"bike_id":"3083500b-3b09-403c-853a-ccf0fdae3c0c","system_id":"levelo_inurba_marseille","lat":43.26201,"lon":5.37931,"is_reserved":false,"is_disabled":false,"rental_uris":{"android":"levelo://app?vid=3083500b-3b09-403c-853a-ccf0fdae3c0c","ios":"levelo://app?vid=3083500b-3b09-403c-853a-ccf0fdae3c0c"},"vehicle_type_id":"4","last_reported":1726211339,"current_range_meters":38800,"station_id":"ce4bhjp2rcd13ifvqg90","pricing_plan_id":"cebpf4jnsgd1na2vs0mg"},{"bike_id":"e4d66130-b0dd-4b37-9171-f31d47fea291","system_id":"levelo_inurba_marseille","lat":43.29046,"lon":5.39952,"is_reserved":false,"is_disabled":false,"rental_uris":{"android":"levelo://app?vid=e4d66130-b0dd-4b37-9171-f31d47fea291","ios":"levelo://app?vid=e4d66130-b0dd-4b37-9171-f31d47fea291"},"vehicle_type_id":"4","last_reported":1726211339,"current_range_meters":10800,"station_id":"ce4bh392rcd13ifvqdm0","pricing_plan_id":"cebpf4jnsgd1na2vs0mg"},{"bike_id":"73d9339a-3ea1-4e34-bd15-d970b8153f9b","system_id":"levelo_inurba_marseille","lat":43.305947,"lon":5.393637,"is_reserved":false,"is_disabled":false,"rental_uris":{"android":"levelo://app?vid=73d9339a-3ea1-4e34-bd15-d970b8153f9b","ios":"levelo://app?vid=73d9339a-3ea1-4e34-bd15-d970b8153f9b"},"vehicle_type_id":"4","last_reported":1726211339,"current_range_meters":17200,"station_id":"ce4bh0p2rcd13ifvqd80","pricing_plan_id":"cebpf4jnsgd1na2vs0mg"},{"bike_id":"a8ab8679-5fcd-43d4-b99a-0ee9e1e224f7","system_id":"levelo_inurba_marseille","lat":43.30949,"lon":5.39033,"is_reserved":false,"is_disabled":false,"rental_uris":{"android":"levelo://app?vid=a8ab8679-5fcd-43d4-b99a-0ee9e1e224f7","ios":"levelo://app?vid=a8ab8679-5fcd-43d4-b99a-0ee9e1e224f7"},"vehicle_type_id":"4","last_reported":1726211339,"current_range_meters":27600,"station_id":"ce4bgup2rcd13ifvqco0","pricing_plan_id":"cebpf4jnsgd1na2vs0mg"},{"bike_id":"8263ea4a-64d0-4c72-9510-874ccbb3b8e8","system_id":"levelo_inurba_marseille","lat":43.28672,"lon":5.36349,"is_reserved":false,"is_disabled":false,"rental_uris":{"android":"levelo://app?vid=8263ea4a-64d0-4c72-9510-874ccbb3b8e8","ios":"levelo://app?vid=8263ea4a-64d0-4c72-9510-874ccbb3b8e8"},"vehicle_type_id":"4","last_reported":1726211339,"current_range_meters":40000,"station_id":"ce4bhah2rcd13ifvqej0","pricing_plan_id":"cebpf4jnsgd1na2vs0mg"},{"bike_id":"d80f338e-c7b9-4843-a0cc-56dcfe3a81de","system_id":"levelo_inurba_marseille","lat":43.26218,"lon":5.37447,"is_reserved":false,"is_disabled":false,"rental_uris":{"android":"levelo://app?vid=d80f338e-c7b9-4843-a0cc-56dcfe3a81de","ios":"levelo://app?vid=d80f338e-c7b9-4843-a0cc-56dcfe3a81de"},"vehicle_type_id":"4","last_reported":1726211339,"current_range_meters":38000,"station_id":"ce4bhgp2rcd13ifvqfc0","pricing_plan_id":"cebpf4jnsgd1na2vs0mg"},{"bike_id":"ef95460f-7ba8-4a1b-bb2b-8e22951de8d1","system_id":"levelo_inurba_marseille","lat":43.27214,"lon":5.39176,"is_reserved":false,"is_disabled":false,"rental_uris":{"android":"levelo://app?vid=ef95460f-7ba8-4a1b-bb2b-8e22951de8d1","ios":"levelo://app?vid=ef95460f-7ba8-4a1b-bb2b-8e22951de8d1"},"vehicle_type_id":"4","last_reported":1726211339,"current_range_meters":34000,"station_id":"ce4bhhp2rcd13ifvqfm0","pricing_plan_id":"cebpf4jnsgd1na2vs0mg"},{"bike_id":"224d2bd5-5787-4b6a-9fb8-2753f5ea59b8","system_id":"levelo_inurba_marseille","lat":43.32068,"lon":5.41536,"is_reserved":false,"is_disabled":false,"rental_uris":{"android":"levelo://app?vid=224d2bd5-5787-4b6a-9fb8-2753f5ea59b8","ios":"levelo://app?vid=224d2bd5-5787-4b6a-9fb8-2753f5ea59b8"},"vehicle_type_id":"4","last_reported":1726211339,"current_range_meters":33200,"station_id":"ce4bhq92rcd13ifvqhkg","pricing_plan_id":"cebpf4jnsgd1na2vs0mg"},{"bike_id":"b4628834-f298-45b6-a337-9b3212dc80ef","system_id":"levelo_inurba_marseille","lat":43.31189,"lon":5.386952,"is_reserved":false,"is_disabled":false,"rental_uris":{"android":"levelo://app?vid=b4628834-f298-45b6-a337-9b3212dc80ef","ios":"levelo://app?vid=b4628834-f298-45b6-a337-9b3212dc80ef"},"vehicle_type_id":"4","last_reported":1726211339,"current_range_meters":38400,"station_id":"ce4bgv12rcd13ifvqcp0","pricing_plan_id":"cebpf4jnsgd1na2vs0mg"},{"bike_id":"8e3fa3c4-0578-445b-a91d-9a9f0137a0dd","system_id":"levelo_inurba_marseille","lat":43.26684,"lon":5.38268,"is_reserved":false,"is_disabled":false,"rental_uris":{"android":"levelo://app?vid=8e3fa3c4-0578-445b-a91d-9a9f0137a0dd","ios":"levelo://app?vid=8e3fa3c4-0578-445b-a91d-9a9f0137a0dd"},"vehicle_type_id":"4","last_reported":1726211339,"current_range_meters":39200,"station_id":"ce4bhg92rcd13ifvqf90","pricing_plan_id":"cebpf4jnsgd1na2vs0mg"},{"bike_id":"dc2ae6b1-73aa-44f8-84f2-534f5fcc840f","system_id":"levelo_inurba_marseille","lat":43.302673,"lon":5.386539,"is_reserved":false,"is_disabled":false,"rental_uris":{"android":"levelo://app?vid=dc2ae6b1-73aa-44f8-84f2-534f5fcc840f","ios":"levelo://app?vid=dc2ae6b1-73aa-44f8-84f2-534f5fcc840f"},"vehicle_type_id":"4","last_reported":1726211339,"current_range_meters":8000,"station_id":"ce4bgj92rcd13ifvqbd0","pricing_plan_id":"cebpf4jnsgd1na2vs0mg"},{"bike_id":"6a8f2f10-9a94-4930-acf4-9d3abaa17531","system_id":"levelo_inurba_marseille","lat":43.25502,"lon":5.37651,"is_reserved":false,"is_disabled":false,"rental_uris":{"android":"levelo://app?vid=6a8f2f10-9a94-4930-acf4-9d3abaa17531","ios":"levelo://app?vid=6a8f2f10-9a94-4930-acf4-9d3abaa17531"},"vehicle_type_id":"4","last_reported":1726211339,"current_range_meters":33200,"station_id":"ce4bhh12rcd13ifvqff0","pricing_plan_id":"cebpf4jnsgd1na2vs0mg"},{"bike_id":"ec3be02e-39ad-49e9-b399-fd1e500eb14f","system_id":"levelo_inurba_marseille","lat":43.26955,"lon":5.38631,"is_reserved":false,"is_disabled":false,"rental_uris":{"android":"levelo://app?vid=ec3be02e-39ad-49e9-b399-fd1e500eb14f","ios":"levelo://app?vid=ec3be02e-39ad-49e9-b399-fd1e500eb14f"},"vehicle_type_id":"4","last_reported":1726211339,"current_range_meters":8800,"station_id":"ce4bhh92rcd13ifvqfh0","pricing_plan_id":"cebpf4jnsgd1na2vs0mg"},{"bike_id":"976a4a08-3cc1-4b84-afb0-078a903accb6","system_id":"levelo_inurba_marseille","lat":43.25581,"lon":5.3823,"is_reserved":false,"is_disabled":false,"rental_uris":{"android":"levelo://app?vid=976a4a08-3cc1-4b84-afb0-078a903accb6","ios":"levelo://app?vid=976a4a08-3cc1-4b84-afb0-078a903accb6"},"vehicle_type_id":"4","last_reported":1726211339,"current_range_meters":30400,"station_id":"ce4bhih2rcd13ifvqfs0","pricing_plan_id":"cebpf4jnsgd1na2vs0mg"},{"bike_id":"463a29c6-de5f-452d-8ad2-3526bf777173","system_id":"levelo_inurba_marseille","lat":43.29627,"lon":5.36275,"is_reserved":false,"is_disabled":false,"rental_uris":{"android":"levelo://app?vid=463a29c6-de5f-452d-8ad2-3526bf777173","ios":"levelo://app?vid=463a29c6-de5f-452d-8ad2-3526bf777173"},"vehicle_type_id":"4","last_reported":1726211339,"current_range_meters":9600,"station_id":"ce4bgs12rcd13ifvqcag","pricing_plan_id":"cebpf4jnsgd1na2vs0mg"},{"bike_id":"b006715f-f2d3-4398-8a4b-c171b855becd","system_id":"levelo_inurba_marseille","lat":43.30139,"lon":5.37412,"is_reserved":false,"is_disabled":false,"rental_uris":{"android":"levelo://app?vid=b006715f-f2d3-4398-8a4b-c171b855becd","ios":"levelo://app?vid=b006715f-f2d3-4398-8a4b-c171b855becd"},"vehicle_type_id":"4","last_reported":1726211339,"current_range_meters":39200,"station_id":"ce4bgs92rcd13ifvqcc0","pricing_plan_id":"cebpf4jnsgd1na2vs0mg"},{"bike_id":"9b598b8e-1224-4f15-a059-59ec72ffe837","system_id":"levelo_inurba_marseille","lat":43.27491,"lon":5.42442,"is_reserved":false,"is_disabled":false,"rental_uris":{"android":"levelo://app?vid=9b598b8e-1224-4f15-a059-59ec72ffe837","ios":"levelo://app?vid=9b598b8e-1224-4f15-a059-59ec72ffe837"},"vehicle_type_id":"4","last_reported":1726211339,"current_range_meters":24000,"station_id":"ce4bhn92rcd13ifvqgrg","pricing_plan_id":"cebpf4jnsgd1na2vs0mg"},{"bike_id":"f28581ff-902c-4761-a312-4ea1190c753a","system_id":"levelo_inurba_marseille","lat":43.28157,"lon":5.42642,"is_reserved":false,"is_disabled":false,"rental_uris":{"android":"levelo://app?vid=f28581ff-902c-4761-a312-4ea1190c753a","ios":"levelo://app?vid=f28581ff-902c-4761-a312-4ea1190c753a"},"vehicle_type_id":"4","last_reported":1726211339,"current_range_meters":23200,"station_id":"ce4bhnh2rcd13ifvqgug","pricing_plan_id":"cebpf4jnsgd1na2vs0mg"},{"bike_id":"5483f9b1-08d8-47bd-ace2-b461fdc9ec9d","system_id":"levelo_inurba_marseille","lat":43.29561,"lon":5.42279,"is_reserved":false,"is_disabled":false,"rental_uris":{"android":"levelo://app?vid=5483f9b1-08d8-47bd-ace2-b461fdc9ec9d","ios":"levelo://app?vid=5483f9b1-08d8-47bd-ace2-b461fdc9ec9d"},"vehicle_type_id":"4","last_reported":1726211339,"current_range_meters":29600,"station_id":"ce4bhph2rcd13ifvqhdg","pricing_plan_id":"cebpf4jnsgd1na2vs0mg"},{"bike_id":"4067cf6c-6e3d-4ac9-99bf-c1b92b69f736","system_id":"levelo_inurba_marseille","lat":43.32483,"lon":5.36556,"is_reserved":false,"is_disabled":false,"rental_uris":{"android":"levelo://app?vid=4067cf6c-6e3d-4ac9-99bf-c1b92b69f736","ios":"levelo://app?vid=4067cf6c-6e3d-4ac9-99bf-c1b92b69f736"},"vehicle_type_id":"4","last_reported":1726211339,"current_range_meters":25200,"station_id":"ce4bhs12rcd13ifvqhvg","pricing_plan_id":"cebpf4jnsgd1na2vs0mg"},{"bike_id":"9a294201-177a-42e2-b4e6-ec74738f7951","system_id":"levelo_inurba_marseille","lat":43.26959,"lon":5.38634,"is_reserved":false,"is_disabled":false,"rental_uris":{"android":"levelo://app?vid=9a294201-177a-42e2-b4e6-ec74738f7951","ios":"levelo://app?vid=9a294201-177a-42e2-b4e6-ec74738f7951"},"vehicle_type_id":"4","last_reported":1726211339,"current_range_meters":39200,"station_id":"ce4bhh92rcd13ifvqfh0","pricing_plan_id":"cebpf4jnsgd1na2vs0mg"},{"bike_id":"6e14003c-d4af-4b7a-827a-952d80ab270a","system_id":"levelo_inurba_marseille","lat":43.28044,"lon":5.36961,"is_reserved":false,"is_disabled":false,"rental_uris":{"android":"levelo://app?vid=6e14003c-d4af-4b7a-827a-952d80ab270a","ios":"levelo://app?vid=6e14003c-d4af-4b7a-827a-952d80ab270a"},"vehicle_type_id":"4","last_reported":1726211339,"current_range_meters":18800,"station_id":"ce4bha12rcd13ifvqef0","pricing_plan_id":"cebpf4jnsgd1na2vs0mg"},{"bike_id":"78ad1ed1-5c3f-4cb0-b4c3-f368830893ef","system_id":"levelo_inurba_marseille","lat":43.31498,"lon":5.37312,"is_reserved":false,"is_disabled":false,"rental_uris":{"android":"levelo://app?vid=78ad1ed1-5c3f-4cb0-b4c3-f368830893ef","ios":"levelo://app?vid=78ad1ed1-5c3f-4cb0-b4c3-f368830893ef"},"vehicle_type_id":"4","last_reported":1726211339,"current_range_meters":6800,"station_id":"ce4bgt12rcd13ifvqcd0","pricing_plan_id":"cebpf4jnsgd1na2vs0mg"},{"bike_id":"eaf3218e-3b2a-4dde-9c15-99a6c4254e56","system_id":"levelo_inurba_marseille","lat":43.29895,"lon":5.43662,"is_reserved":false,"is_disabled":false,"rental_uris":{"android":"levelo://app?vid=eaf3218e-3b2a-4dde-9c15-99a6c4254e56","ios":"levelo://app?vid=eaf3218e-3b2a-4dde-9c15-99a6c4254e56"},"vehicle_type_id":"4","last_reported":1726211339,"current_range_meters":38800,"station_id":"ce4bhpp2rcd13ifvqhfg","pricing_plan_id":"cebpf4jnsgd1na2vs0mg"},{"bike_id":"666567cc-2e65-4160-9df5-8745ddbe7e28","system_id":"levelo_inurba_marseille","lat":43.31354,"lon":5.36715,"is_reserved":false,"is_disabled":false,"rental_uris":{"android":"levelo://app?vid=666567cc-2e65-4160-9df5-8745ddbe7e28","ios":"levelo://app?vid=666567cc-2e65-4160-9df5-8745ddbe7e28"},"vehicle_type_id":"4","last_reported":1726211339,"current_range_meters":37600,"station_id":"ce4bgr92rcd13ifvqc6g","pricing_plan_id":"cebpf4jnsgd1na2vs0mg"},{"bike_id":"9c95abdd-a030-43f1-837e-ad70e1bbcbc9","system_id":"levelo_inurba_marseille","lat":43.3014,"lon":5.3742,"is_reserved":false,"is_disabled":false,"rental_uris":{"android":"levelo://app?vid=9c95abdd-a030-43f1-837e-ad70e1bbcbc9","ios":"levelo://app?vid=9c95abdd-a030-43f1-837e-ad70e1bbcbc9"},"vehicle_type_id":"4","last_reported":1726211339,"current_range_meters":12800,"station_id":"ce4bgs92rcd13ifvqcc0","pricing_plan_id":"cebpf4jnsgd1na2vs0mg"},{"bike_id":"ba81e19a-02db-4df6-ba4c-045bfb8f6f7d","system_id":"levelo_inurba_marseille","lat":43.3054,"lon":5.36552,"is_reserved":false,"is_disabled":false,"rental_uris":{"android":"levelo://app?vid=ba81e19a-02db-4df6-ba4c-045bfb8f6f7d","ios":"levelo://app?vid=ba81e19a-02db-4df6-ba4c-045bfb8f6f7d"},"vehicle_type_id":"4","last_reported":1726211339,"current_range_meters":18800,"station_id":"ce4bgs12rcd13ifvqcag","pricing_plan_id":"cebpf4jnsgd1na2vs0mg"},{"bike_id":"45eb7e78-e68d-4dc7-9f08-324dadf34c21","system_id":"levelo_inurba_marseille","lat":43.23155,"lon":5.43723,"is_reserved":false,"is_disabled":false,"rental_uris":{"android":"levelo://app?vid=45eb7e78-e68d-4dc7-9f08-324dadf34c21","ios":"levelo://app?vid=45eb7e78-e68d-4dc7-9f08-324dadf34c21"},"vehicle_type_id":"4","last_reported":1726211339,"current_range_meters":18000,"station_id":"ce4bhmp2rcd13ifvqgog","pricing_plan_id":"cebpf4jnsgd1na2vs0mg"},{"bike_id":"09d44732-e048-4ed6-91d6-bcddea05fe14","system_id":"levelo_inurba_marseille","lat":43.28943,"lon":5.36384,"is_reserved":false,"is_disabled":false,"rental_uris":{"android":"levelo://app?vid=09d44732-e048-4ed6-91d6-bcddea05fe14","ios":"levelo://app?vid=09d44732-e048-4ed6-91d6-bcddea05fe14"},"vehicle_type_id":"4","last_reported":1726211339,"current_range_meters":28800,"station_id":"ce4bhc92rcd13ifvqetg","pricing_plan_id":"cebpf4jnsgd1na2vs0mg"},{"bike_id":"e49093f7-6383-4e7f-9f16-cb91fa6cb74b","system_id":"levelo_inurba_marseille","lat":43.25002,"lon":5.38927,"is_reserved":false,"is_disabled":false,"rental_uris":{"android":"levelo://app?vid=e49093f7-6383-4e7f-9f16-cb91fa6cb74b","ios":"levelo://app?vid=e49093f7-6383-4e7f-9f16-cb91fa6cb74b"},"vehicle_type_id":"4","last_reported":1726211339,"current_range_meters":27200,"station_id":"ce4bhgp2rcd13ifvqfd0","pricing_plan_id":"cebpf4jnsgd1na2vs0mg"},{"bike_id":"f5d2a195-4090-43a6-8dda-1b6baaa5dc05","system_id":"levelo_inurba_marseille","lat":43.23388,"lon":5.43223,"is_reserved":false,"is_disabled":false,"rental_uris":{"android":"levelo://app?vid=f5d2a195-4090-43a6-8dda-1b6baaa5dc05","ios":"levelo://app?vid=f5d2a195-4090-43a6-8dda-1b6baaa5dc05"},"vehicle_type_id":"4","last_reported":1726211339,"current_range_meters":21600,"station_id":"ce4bhmp2rcd13ifvqgog","pricing_plan_id":"cebpf4jnsgd1na2vs0mg"},{"bike_id":"8764129a-9b8d-4490-a1c9-f9fa60b4a560","system_id":"levelo_inurba_marseille","lat":43.33609,"lon":5.41028,"is_reserved":false,"is_disabled":false,"rental_uris":{"android":"levelo://app?vid=8764129a-9b8d-4490-a1c9-f9fa60b4a560","ios":"levelo://app?vid=8764129a-9b8d-4490-a1c9-f9fa60b4a560"},"vehicle_type_id":"4","last_reported":1726211339,"current_range_meters":40000,"station_id":"ce4bhqh2rcd13ifvqhmg","pricing_plan_id":"cebpf4jnsgd1na2vs0mg"},{"bike_id":"cdb7f7b4-ad89-4f18-9858-49d0e878e14f","system_id":"levelo_inurba_marseille","lat":43.32549,"lon":5.41435,"is_reserved":false,"is_disabled":false,"rental_uris":{"android":"levelo://app?vid=cdb7f7b4-ad89-4f18-9858-49d0e878e14f","ios":"levelo://app?vid=cdb7f7b4-ad89-4f18-9858-49d0e878e14f"},"vehicle_type_id":"4","last_reported":1726211339,"current_range_meters":38400,"station_id":"ce4bhq12rcd13ifvqhhg","pricing_plan_id":"cebpf4jnsgd1na2vs0mg"},{"bike_id":"4c0a2394-5fff-46c4-a289-f13795c3409e","system_id":"levelo_inurba_marseille","lat":43.3046,"lon":5.37909,"is_reserved":false,"is_disabled":false,"rental_uris":{"android":"levelo://app?vid=4c0a2394-5fff-46c4-a289-f13795c3409e","ios":"levelo://app?vid=4c0a2394-5fff-46c4-a289-f13795c3409e"},"vehicle_type_id":"4","last_reported":1726211339,"current_range_meters":34800,"station_id":"ce4bgup2rcd13ifvqcn0","pricing_plan_id":"cebpf4jnsgd1na2vs0mg"},{"bike_id":"96cb29cb-8da1-4dd6-bd35-ee190827a973","system_id":"levelo_inurba_marseille","lat":43.26566,"lon":5.37272,"is_reserved":false,"is_disabled":false,"rental_uris":{"android":"levelo://app?vid=96cb29cb-8da1-4dd6-bd35-ee190827a973","ios":"levelo://app?vid=96cb29cb-8da1-4dd6-bd35-ee190827a973"},"vehicle_type_id":"4","last_reported":1726211339,"current_range_meters":7200,"station_id":"ce4bhg12rcd13ifvqf70","pricing_plan_id":"cebpf4jnsgd1na2vs0mg"},{"bike_id":"a61c9e04-bce5-4e44-99ea-7dd65bcde295","system_id":"levelo_inurba_marseille","lat":43.29002,"lon":5.35618,"is_reserved":false,"is_disabled":false,"rental_uris":{"android":"levelo://app?vid=a61c9e04-bce5-4e44-99ea-7dd65bcde295","ios":"levelo://app?vid=a61c9e04-bce5-4e44-99ea-7dd65bcde295"},"vehicle_type_id":"4","last_reported":1726211339,"current_range_meters":26800,"station_id":"ce4bhb92rcd13ifvqen0","pricing_plan_id":"cebpf4jnsgd1na2vs0mg"},{"bike_id":"3d0be373-de2e-4082-893a-54f0b6f55849","system_id":"levelo_inurba_marseille","lat":43.25937,"lon":5.40906,"is_reserved":false,"is_disabled":false,"rental_uris":{"android":"levelo://app?vid=3d0be373-de2e-4082-893a-54f0b6f55849","ios":"levelo://app?vid=3d0be373-de2e-4082-893a-54f0b6f55849"},"vehicle_type_id":"4","last_reported":1726211339,"current_range_meters":33200,"station_id":"ce4bhm92rcd13ifvqglg","pricing_plan_id":"cebpf4jnsgd1na2vs0mg"},{"bike_id":"9b49fc06-69dc-4375-9bc8-2ab31283d424","system_id":"levelo_inurba_marseille","lat":43.29906,"lon":5.43657,"is_reserved":false,"is_disabled":false,"rental_uris":{"android":"levelo://app?vid=9b49fc06-69dc-4375-9bc8-2ab31283d424","ios":"levelo://app?vid=9b49fc06-69dc-4375-9bc8-2ab31283d424"},"vehicle_type_id":"4","last_reported":1726211339,"current_range_meters":38000,"station_id":"ce4bhpp2rcd13ifvqhfg","pricing_plan_id":"cebpf4jnsgd1na2vs0mg"},{"bike_id":"a1b2bdae-90b4-4330-83e3-91a0c6286081","system_id":"levelo_inurba_marseille","lat":43.27053,"lon":5.4026,"is_reserved":false,"is_disabled":false,"rental_uris":{"android":"levelo://app?vid=a1b2bdae-90b4-4330-83e3-91a0c6286081","ios":"levelo://app?vid=a1b2bdae-90b4-4330-83e3-91a0c6286081"},"vehicle_type_id":"4","last_reported":1726211339,"current_range_meters":30000,"station_id":"ce4bhk92rcd13ifvqgc0","pricing_plan_id":"cebpf4jnsgd1na2vs0mg"},{"bike_id":"2ad38932-5697-4174-9790-55a1437bb734","system_id":"levelo_inurba_marseille","lat":43.23147,"lon":5.43713,"is_reserved":false,"is_disabled":false,"rental_uris":{"android":"levelo://app?vid=2ad38932-5697-4174-9790-55a1437bb734","ios":"levelo://app?vid=2ad38932-5697-4174-9790-55a1437bb734"},"vehicle_type_id":"4","last_reported":1726211339,"current_range_meters":24800,"station_id":"ce4bhmp2rcd13ifvqgog","pricing_plan_id":"cebpf4jnsgd1na2vs0mg"},{"bike_id":"c1297063-d590-4c7e-8f21-712bf962a707","system_id":"levelo_inurba_marseille","lat":43.28465,"lon":5.35876,"is_reserved":false,"is_disabled":false,"rental_uris":{"android":"levelo://app?vid=c1297063-d590-4c7e-8f21-712bf962a707","ios":"levelo://app?vid=c1297063-d590-4c7e-8f21-712bf962a707"},"vehicle_type_id":"4","last_reported":1726211339,"current_range_meters":40000,"station_id":"ce4bhah2rcd13ifvqei0","pricing_plan_id":"cebpf4jnsgd1na2vs0mg"},{"bike_id":"87850db3-b794-4962-afa3-03602764e808","system_id":"levelo_inurba_marseille","lat":43.27206,"lon":5.39189,"is_reserved":false,"is_disabled":false,"rental_uris":{"android":"levelo://app?vid=87850db3-b794-4962-afa3-03602764e808","ios":"levelo://app?vid=87850db3-b794-4962-afa3-03602764e808"},"vehicle_type_id":"4","last_reported":1726211339,"current_range_meters":36800,"station_id":"ce4bhhp2rcd13ifvqfm0","pricing_plan_id":"cebpf4jnsgd1na2vs0mg"},{"bike_id":"4c989433-6751-4583-bd02-23047a88b550","system_id":"levelo_inurba_marseille","lat":43.29795,"lon":5.38087,"is_reserved":false,"is_disabled":false,"rental_uris":{"android":"levelo://app?vid=4c989433-6751-4583-bd02-23047a88b550","ios":"levelo://app?vid=4c989433-6751-4583-bd02-23047a88b550"},"vehicle_type_id":"4","last_reported":1726211339,"current_range_meters":17200,"station_id":"ce4bgip2rcd13ifvqbb0","pricing_plan_id":"cebpf4jnsgd1na2vs0mg"},{"bike_id":"69a8bafd-9f00-4df8-bb17-fba606e96b3a","system_id":"levelo_inurba_marseille","lat":43.30546,"lon":5.36539,"is_reserved":false,"is_disabled":false,"rental_uris":{"android":"levelo://app?vid=69a8bafd-9f00-4df8-bb17-fba606e96b3a","ios":"levelo://app?vid=69a8bafd-9f00-4df8-bb17-fba606e96b3a"},"vehicle_type_id":"4","last_reported":1726211339,"current_range_meters":36000,"station_id":"ce4bgs12rcd13ifvqcag","pricing_plan_id":"cebpf4jnsgd1na2vs0mg"},{"bike_id":"7b906c95-3be8-431b-a658-74eb97f77263","system_id":"levelo_inurba_marseille","lat":43.28932,"lon":5.36639,"is_reserved":false,"is_disabled":false,"rental_uris":{"android":"levelo://app?vid=7b906c95-3be8-431b-a658-74eb97f77263","ios":"levelo://app?vid=7b906c95-3be8-431b-a658-74eb97f77263"},"vehicle_type_id":"4","last_reported":1726211339,"current_range_meters":14800,"station_id":"ce4bhap2rcd13ifvqek0","pricing_plan_id":"cebpf4jnsgd1na2vs0mg"},{"bike_id":"2fbe59be-967c-4f3f-b5eb-2a3f8b0b8fb5","system_id":"levelo_inurba_marseille","lat":43.27494,"lon":5.42454,"is_reserved":false,"is_disabled":false,"rental_uris":{"android":"levelo://app?vid=2fbe59be-967c-4f3f-b5eb-2a3f8b0b8fb5","ios":"levelo://app?vid=2fbe59be-967c-4f3f-b5eb-2a3f8b0b8fb5"},"vehicle_type_id":"4","last_reported":1726211339,"current_range_meters":37600,"station_id":"ce4bhn92rcd13ifvqgrg","pricing_plan_id":"cebpf4jnsgd1na2vs0mg"},{"bike_id":"64fb79f9-6111-4358-8c55-8553d51d9562","system_id":"levelo_inurba_marseille","lat":43.28953,"lon":5.38907,"is_reserved":false,"is_disabled":false,"rental_uris":{"android":"levelo://app?vid=64fb79f9-6111-4358-8c55-8553d51d9562","ios":"levelo://app?vid=64fb79f9-6111-4358-8c55-8553d51d9562"},"vehicle_type_id":"4","last_reported":1726211339,"current_range_meters":6400,"station_id":"","pricing_plan_id":"cebpf4jnsgd1na2vs0mg"},{"bike_id":"a2065f96-47d3-4a85-be06-4c0f1ffbde51","system_id":"levelo_inurba_marseille","lat":43.2606,"lon":5.39395,"is_reserved":false,"is_disabled":false,"rental_uris":{"android":"levelo://app?vid=a2065f96-47d3-4a85-be06-4c0f1ffbde51","ios":"levelo://app?vid=a2065f96-47d3-4a85-be06-4c0f1ffbde51"},"vehicle_type_id":"4","last_reported":1726211339,"current_range_meters":10000,"station_id":"ce4bhh92rcd13ifvqfj0","pricing_plan_id":"cebpf4jnsgd1na2vs0mg"},{"bike_id":"79b7950d-90c8-4e3c-a243-1a31b18cd68e","system_id":"levelo_inurba_marseille","lat":43.2397,"lon":5.36621,"is_reserved":false,"is_disabled":false,"rental_uris":{"android":"levelo://app?vid=79b7950d-90c8-4e3c-a243-1a31b18cd68e","ios":"levelo://app?vid=79b7950d-90c8-4e3c-a243-1a31b18cd68e"},"vehicle_type_id":"4","last_reported":1726211339,"current_range_meters":12000,"station_id":"ce4bhi12rcd13ifvqfp0","pricing_plan_id":"cebpf4jnsgd1na2vs0mg"},{"bike_id":"72b517d2-6987-46d8-857e-779bc7604f01","system_id":"levelo_inurba_marseille","lat":43.26026,"lon":5.37547,"is_reserved":false,"is_disabled":false,"rental_uris":{"android":"levelo://app?vid=72b517d2-6987-46d8-857e-779bc7604f01","ios":"levelo://app?vid=72b517d2-6987-46d8-857e-779bc7604f01"},"vehicle_type_id":"4","last_reported":1726211339,"current_range_meters":21600,"station_id":"ce4bhgh2rcd13ifvqfa0","pricing_plan_id":"cebpf4jnsgd1na2vs0mg"},{"bike_id":"53d2bf3d-4905-49f9-89c4-324506aca78e","system_id":"levelo_inurba_marseille","lat":43.31856,"lon":5.40918,"is_reserved":false,"is_disabled":false,"rental_uris":{"android":"levelo://app?vid=53d2bf3d-4905-49f9-89c4-324506aca78e","ios":"levelo://app?vid=53d2bf3d-4905-49f9-89c4-324506aca78e"},"vehicle_type_id":"4","last_reported":1726211339,"current_range_meters":18800,"station_id":"","pricing_plan_id":"cebpf4jnsgd1na2vs0mg"},{"bike_id":"a2cd8b1a-5149-423f-b006-3a9bf1a7a464","system_id":"levelo_inurba_marseille","lat":43.27494,"lon":5.42448,"is_reserved":false,"is_disabled":false,"rental_uris":{"android":"levelo://app?vid=a2cd8b1a-5149-423f-b006-3a9bf1a7a464","ios":"levelo://app?vid=a2cd8b1a-5149-423f-b006-3a9bf1a7a464"},"vehicle_type_id":"4","last_reported":1726211339,"current_range_meters":16400,"station_id":"ce4bhn92rcd13ifvqgrg","pricing_plan_id":"cebpf4jnsgd1na2vs0mg"},{"bike_id":"24d5349f-bd40-4a00-86c3-2391af5b1abb","system_id":"levelo_inurba_marseille","lat":43.30457,"lon":5.37915,"is_reserved":false,"is_disabled":false,"rental_uris":{"android":"levelo://app?vid=24d5349f-bd40-4a00-86c3-2391af5b1abb","ios":"levelo://app?vid=24d5349f-bd40-4a00-86c3-2391af5b1abb"},"vehicle_type_id":"4","last_reported":1726211339,"current_range_meters":30400,"station_id":"ce4bgup2rcd13ifvqcn0","pricing_plan_id":"cebpf4jnsgd1na2vs0mg"},{"bike_id":"2c4577b3-3689-495e-a3c3-a78eafd4dc43","system_id":"levelo_inurba_marseille","lat":43.26558,"lon":5.37282,"is_reserved":false,"is_disabled":false,"rental_uris":{"android":"levelo://app?vid=2c4577b3-3689-495e-a3c3-a78eafd4dc43","ios":"levelo://app?vid=2c4577b3-3689-495e-a3c3-a78eafd4dc43"},"vehicle_type_id":"4","last_reported":1726211339,"current_range_meters":28400,"station_id":"ce4bhg12rcd13ifvqf70","pricing_plan_id":"cebpf4jnsgd1na2vs0mg"},{"bike_id":"a58a5547-dd18-4a9c-b55b-f6584b800ad0","system_id":"levelo_inurba_marseille","lat":43.272131,"lon":5.391789,"is_reserved":false,"is_disabled":false,"rental_uris":{"android":"levelo://app?vid=a58a5547-dd18-4a9c-b55b-f6584b800ad0","ios":"levelo://app?vid=a58a5547-dd18-4a9c-b55b-f6584b800ad0"},"vehicle_type_id":"4","last_reported":1726211339,"current_range_meters":28800,"station_id":"ce4bhhp2rcd13ifvqfm0","pricing_plan_id":"cebpf4jnsgd1na2vs0mg"},{"bike_id":"6c9ac6be-0029-4a2d-bb72-5c51035bba42","system_id":"levelo_inurba_marseille","lat":43.33614,"lon":5.41029,"is_reserved":false,"is_disabled":false,"rental_uris":{"android":"levelo://app?vid=6c9ac6be-0029-4a2d-bb72-5c51035bba42","ios":"levelo://app?vid=6c9ac6be-0029-4a2d-bb72-5c51035bba42"},"vehicle_type_id":"4","last_reported":1726211339,"current_range_meters":40000,"station_id":"ce4bhqh2rcd13ifvqhmg","pricing_plan_id":"cebpf4jnsgd1na2vs0mg"},{"bike_id":"3d5998b8-f552-42dd-894c-2d371a7435d7","system_id":"levelo_inurba_marseille","lat":43.24081,"lon":5.3775,"is_reserved":false,"is_disabled":false,"rental_uris":{"android":"levelo://app?vid=3d5998b8-f552-42dd-894c-2d371a7435d7","ios":"levelo://app?vid=3d5998b8-f552-42dd-894c-2d371a7435d7"},"vehicle_type_id":"4","last_reported":1726211339,"current_range_meters":28400,"station_id":"ce4bhnp2rcd13ifvqgvg","pricing_plan_id":"cebpf4jnsgd1na2vs0mg"},{"bike_id":"f890408a-09d3-44a4-b9ac-3affc05dc13b","system_id":"levelo_inurba_marseille","lat":43.28349,"lon":5.38115,"is_reserved":false,"is_disabled":false,"rental_uris":{"android":"levelo://app?vid=f890408a-09d3-44a4-b9ac-3affc05dc13b","ios":"levelo://app?vid=f890408a-09d3-44a4-b9ac-3affc05dc13b"},"vehicle_type_id":"4","last_reported":1726211339,"current_range_meters":36800,"station_id":"ce4bh412rcd13ifvqdr0","pricing_plan_id":"cebpf4jnsgd1na2vs0mg"},{"bike_id":"60d5bda9-f640-405a-935d-62d1314e50fa","system_id":"levelo_inurba_marseille","lat":43.23965,"lon":5.36634,"is_reserved":false,"is_disabled":false,"rental_uris":{"android":"levelo://app?vid=60d5bda9-f640-405a-935d-62d1314e50fa","ios":"levelo://app?vid=60d5bda9-f640-405a-935d-62d1314e50fa"},"vehicle_type_id":"4","last_reported":1726211339,"current_range_meters":28000,"station_id":"ce4bhi12rcd13ifvqfp0","pricing_plan_id":"cebpf4jnsgd1na2vs0mg"},{"bike_id":"715b08a5-9edc-4363-b38a-8ad004d88332","system_id":"levelo_inurba_marseille","lat":43.27493,"lon":5.42459,"is_reserved":false,"is_disabled":false,"rental_uris":{"android":"levelo://app?vid=715b08a5-9edc-4363-b38a-8ad004d88332","ios":"levelo://app?vid=715b08a5-9edc-4363-b38a-8ad004d88332"},"vehicle_type_id":"4","last_reported":1726211339,"current_range_meters":32400,"station_id":"ce4bhn92rcd13ifvqgrg","pricing_plan_id":"cebpf4jnsgd1na2vs0mg"},{"bike_id":"bd2ce2e0-f8d9-4e30-a205-2f074a8614dd","system_id":"levelo_inurba_marseille","lat":43.26951,"lon":5.38623,"is_reserved":false,"is_disabled":false,"rental_uris":{"android":"levelo://app?vid=bd2ce2e0-f8d9-4e30-a205-2f074a8614dd","ios":"levelo://app?vid=bd2ce2e0-f8d9-4e30-a205-2f074a8614dd"},"vehicle_type_id":"4","last_reported":1726211339,"current_range_meters":24400,"station_id":"ce4bhh92rcd13ifvqfh0","pricing_plan_id":"cebpf4jnsgd1na2vs0mg"},{"bike_id":"423a4cab-8a31-4718-8b7a-239bcdca67af","system_id":"levelo_inurba_marseille","lat":43.24184,"lon":5.39716,"is_reserved":false,"is_disabled":false,"rental_uris":{"android":"levelo://app?vid=423a4cab-8a31-4718-8b7a-239bcdca67af","ios":"levelo://app?vid=423a4cab-8a31-4718-8b7a-239bcdca67af"},"vehicle_type_id":"4","last_reported":1726211339,"current_range_meters":37600,"station_id":"ce4bhn12rcd13ifvqgpg","pricing_plan_id":"cebpf4jnsgd1na2vs0mg"},{"bike_id":"a0b7b91d-5120-456a-a32f-3beb587d5443","system_id":"levelo_inurba_marseille","lat":43.27495,"lon":5.42454,"is_reserved":false,"is_disabled":false,"rental_uris":{"android":"levelo://app?vid=a0b7b91d-5120-456a-a32f-3beb587d5443","ios":"levelo://app?vid=a0b7b91d-5120-456a-a32f-3beb587d5443"},"vehicle_type_id":"4","last_reported":1726211339,"current_range_meters":30800,"station_id":"ce4bhn92rcd13ifvqgrg","pricing_plan_id":"cebpf4jnsgd1na2vs0mg"},{"bike_id":"5d612d07-70d5-41e8-91cf-e6930763702f","system_id":"levelo_inurba_marseille","lat":43.28923,"lon":5.38394,"is_reserved":false,"is_disabled":false,"rental_uris":{"android":"levelo://app?vid=5d612d07-70d5-41e8-91cf-e6930763702f","ios":"levelo://app?vid=5d612d07-70d5-41e8-91cf-e6930763702f"},"vehicle_type_id":"4","last_reported":1726211339,"current_range_meters":32400,"station_id":"ce4bh612rcd13ifvqe6g","pricing_plan_id":"cebpf4jnsgd1na2vs0mg"},{"bike_id":"0c90a57b-e9bd-4696-9929-53707ab70205","system_id":"levelo_inurba_marseille","lat":43.30151,"lon":5.38087,"is_reserved":false,"is_disabled":false,"rental_uris":{"android":"levelo://app?vid=0c90a57b-e9bd-4696-9929-53707ab70205","ios":"levelo://app?vid=0c90a57b-e9bd-4696-9929-53707ab70205"},"vehicle_type_id":"4","last_reported":1726211339,"current_range_meters":19200,"station_id":"ce4bgjp2rcd13ifvqbh0","pricing_plan_id":"cebpf4jnsgd1na2vs0mg"},{"bike_id":"5174d76d-7c6b-41e9-aceb-a48450e5301e","system_id":"levelo_inurba_marseille","lat":43.26953,"lon":5.40247,"is_reserved":false,"is_disabled":false,"rental_uris":{"android":"levelo://app?vid=5174d76d-7c6b-41e9-aceb-a48450e5301e","ios":"levelo://app?vid=5174d76d-7c6b-41e9-aceb-a48450e5301e"},"vehicle_type_id":"4","last_reported":1726211339,"current_range_meters":38800,"station_id":"cjm6bp8fraef2m0cb0m0","pricing_plan_id":"cebpf4jnsgd1na2vs0mg"},{"bike_id":"0f5d1e4e-5cdd-41aa-9f16-247b92ec8386","system_id":"levelo_inurba_marseille","lat":43.29963,"lon":5.41327,"is_reserved":false,"is_disabled":false,"rental_uris":{"android":"levelo://app?vid=0f5d1e4e-5cdd-41aa-9f16-247b92ec8386","ios":"levelo://app?vid=0f5d1e4e-5cdd-41aa-9f16-247b92ec8386"},"vehicle_type_id":"4","last_reported":1726211339,"current_range_meters":38000,"station_id":"ce4bhp12rcd13ifvqh9g","pricing_plan_id":"cebpf4jnsgd1na2vs0mg"},{"bike_id":"f9e64ca0-1deb-4fb9-8c87-d3dc918a0f62","system_id":"levelo_inurba_marseille","lat":43.2908,"lon":5.37163,"is_reserved":false,"is_disabled":false,"rental_uris":{"android":"levelo://app?vid=f9e64ca0-1deb-4fb9-8c87-d3dc918a0f62","ios":"levelo://app?vid=f9e64ca0-1deb-4fb9-8c87-d3dc918a0f62"},"vehicle_type_id":"4","last_reported":1726211339,"current_range_meters":6800,"station_id":"ce4bh5p2rcd13ifvqe4g","pricing_plan_id":"cebpf4jnsgd1na2vs0mg"},{"bike_id":"2ce3fc1f-df25-434f-a1a3-e45514741cc3","system_id":"levelo_inurba_marseille","lat":43.31357,"lon":5.38496,"is_reserved":false,"is_disabled":false,"rental_uris":{"android":"levelo://app?vid=2ce3fc1f-df25-434f-a1a3-e45514741cc3","ios":"levelo://app?vid=2ce3fc1f-df25-434f-a1a3-e45514741cc3"},"vehicle_type_id":"4","last_reported":1726211339,"current_range_meters":19200,"station_id":"ce4bgt92rcd13ifvqcf0","pricing_plan_id":"cebpf4jnsgd1na2vs0mg"},{"bike_id":"288cef71-b93b-4cf0-921e-39ef252d67a1","system_id":"levelo_inurba_marseille","lat":43.3377,"lon":5.37437,"is_reserved":false,"is_disabled":false,"rental_uris":{"android":"levelo://app?vid=288cef71-b93b-4cf0-921e-39ef252d67a1","ios":"levelo://app?vid=288cef71-b93b-4cf0-921e-39ef252d67a1"},"vehicle_type_id":"4","last_reported":1726211339,"current_range_meters":30400,"station_id":"","pricing_plan_id":"cebpf4jnsgd1na2vs0mg"},{"bike_id":"2d9f6a36-1e8d-46ce-8819-b2bb04006d43","system_id":"levelo_inurba_marseille","lat":43.25586,"lon":5.38226,"is_reserved":false,"is_disabled":false,"rental_uris":{"android":"levelo://app?vid=2d9f6a36-1e8d-46ce-8819-b2bb04006d43","ios":"levelo://app?vid=2d9f6a36-1e8d-46ce-8819-b2bb04006d43"},"vehicle_type_id":"4","last_reported":1726211339,"current_range_meters":32400,"station_id":"ce4bhih2rcd13ifvqfs0","pricing_plan_id":"cebpf4jnsgd1na2vs0mg"},{"bike_id":"b926fb92-715c-4fd6-8d22-98c95619b7dd","system_id":"levelo_inurba_marseille","lat":43.31474,"lon":5.3725,"is_reserved":false,"is_disabled":false,"rental_uris":{"android":"levelo://app?vid=b926fb92-715c-4fd6-8d22-98c95619b7dd","ios":"levelo://app?vid=b926fb92-715c-4fd6-8d22-98c95619b7dd"},"vehicle_type_id":"4","last_reported":1726211339,"current_range_meters":22800,"station_id":"ce4bgr92rcd13ifvqc7g","pricing_plan_id":"cebpf4jnsgd1na2vs0mg"},{"bike_id":"ef5e568d-a654-452d-b1a9-598c6c1e3f88","system_id":"levelo_inurba_marseille","lat":43.29797,"lon":5.38114,"is_reserved":false,"is_disabled":false,"rental_uris":{"android":"levelo://app?vid=ef5e568d-a654-452d-b1a9-598c6c1e3f88","ios":"levelo://app?vid=ef5e568d-a654-452d-b1a9-598c6c1e3f88"},"vehicle_type_id":"4","last_reported":1726211339,"current_range_meters":33600,"station_id":"ce4bgip2rcd13ifvqbb0","pricing_plan_id":"cebpf4jnsgd1na2vs0mg"},{"bike_id":"8dca9963-cf39-4281-bf12-7f04d8ff2bb7","system_id":"levelo_inurba_marseille","lat":43.29181,"lon":5.37153,"is_reserved":false,"is_disabled":false,"rental_uris":{"android":"levelo://app?vid=8dca9963-cf39-4281-bf12-7f04d8ff2bb7","ios":"levelo://app?vid=8dca9963-cf39-4281-bf12-7f04d8ff2bb7"},"vehicle_type_id":"4","last_reported":1726211339,"current_range_meters":38800,"station_id":"ce4bha92rcd13ifvqeh0","pricing_plan_id":"cebpf4jnsgd1na2vs0mg"},{"bike_id":"7d4c65d1-6c97-45e5-beb7-666476bee16d","system_id":"levelo_inurba_marseille","lat":43.24184,"lon":5.39726,"is_reserved":false,"is_disabled":false,"rental_uris":{"android":"levelo://app?vid=7d4c65d1-6c97-45e5-beb7-666476bee16d","ios":"levelo://app?vid=7d4c65d1-6c97-45e5-beb7-666476bee16d"},"vehicle_type_id":"4","last_reported":1726211339,"current_range_meters":24400,"station_id":"ce4bhn12rcd13ifvqgpg","pricing_plan_id":"cebpf4jnsgd1na2vs0mg"},{"bike_id":"e62c8c71-b14f-4c94-8aa4-e0afcaaf93b6","system_id":"levelo_inurba_marseille","lat":43.24816,"lon":5.37461,"is_reserved":false,"is_disabled":false,"rental_uris":{"android":"levelo://app?vid=e62c8c71-b14f-4c94-8aa4-e0afcaaf93b6","ios":"levelo://app?vid=e62c8c71-b14f-4c94-8aa4-e0afcaaf93b6"},"vehicle_type_id":"4","last_reported":1726211339,"current_range_meters":33600,"station_id":"ce4bhgh2rcd13ifvqfb0","pricing_plan_id":"cebpf4jnsgd1na2vs0mg"},{"bike_id":"eb3568dc-dad6-4c11-bfd8-2a7670bd333f","system_id":"levelo_inurba_marseille","lat":43.28347,"lon":5.38114,"is_reserved":false,"is_disabled":false,"rental_uris":{"android":"levelo://app?vid=eb3568dc-dad6-4c11-bfd8-2a7670bd333f","ios":"levelo://app?vid=eb3568dc-dad6-4c11-bfd8-2a7670bd333f"},"vehicle_type_id":"4","last_reported":1726211339,"current_range_meters":16800,"station_id":"ce4bh412rcd13ifvqdr0","pricing_plan_id":"cebpf4jnsgd1na2vs0mg"},{"bike_id":"9e955087-931f-42c6-a5de-4480d9f0a58c","system_id":"levelo_inurba_marseille","lat":43.32478,"lon":5.36572,"is_reserved":false,"is_disabled":false,"rental_uris":{"android":"levelo://app?vid=9e955087-931f-42c6-a5de-4480d9f0a58c","ios":"levelo://app?vid=9e955087-931f-42c6-a5de-4480d9f0a58c"},"vehicle_type_id":"4","last_reported":1726211339,"current_range_meters":28400,"station_id":"ce4bhs12rcd13ifvqhvg","pricing_plan_id":"cebpf4jnsgd1na2vs0mg"},{"bike_id":"45cff7cc-1207-4cd4-8678-6f79cec0950b","system_id":"levelo_inurba_marseille","lat":43.28492,"lon":5.38415,"is_reserved":false,"is_disabled":false,"rental_uris":{"android":"levelo://app?vid=45cff7cc-1207-4cd4-8678-6f79cec0950b","ios":"levelo://app?vid=45cff7cc-1207-4cd4-8678-6f79cec0950b"},"vehicle_type_id":"4","last_reported":1726211339,"current_range_meters":17200,"station_id":"ce4bh512rcd13ifvqe3g","pricing_plan_id":"cebpf4jnsgd1na2vs0mg"},{"bike_id":"69b26a0b-db83-4395-8ee1-1e784091ffad","system_id":"levelo_inurba_marseille","lat":43.23155,"lon":5.43709,"is_reserved":false,"is_disabled":false,"rental_uris":{"android":"levelo://app?vid=69b26a0b-db83-4395-8ee1-1e784091ffad","ios":"levelo://app?vid=69b26a0b-db83-4395-8ee1-1e784091ffad"},"vehicle_type_id":"4","last_reported":1726211339,"current_range_meters":8400,"station_id":"ce4bhmp2rcd13ifvqgog","pricing_plan_id":"cebpf4jnsgd1na2vs0mg"},{"bike_id":"655b4797-dc8d-49a1-8610-fcd415671ad9","system_id":"levelo_inurba_marseille","lat":43.33605,"lon":5.41031,"is_reserved":false,"is_disabled":false,"rental_uris":{"android":"levelo://app?vid=655b4797-dc8d-49a1-8610-fcd415671ad9","ios":"levelo://app?vid=655b4797-dc8d-49a1-8610-fcd415671ad9"},"vehicle_type_id":"4","last_reported":1726211339,"current_range_meters":36800,"station_id":"ce4bhqh2rcd13ifvqhmg","pricing_plan_id":"cebpf4jnsgd1na2vs0mg"},{"bike_id":"59a2b5a9-0f56-40d5-a59c-cb2592419b75","system_id":"levelo_inurba_marseille","lat":43.25584,"lon":5.38231,"is_reserved":false,"is_disabled":false,"rental_uris":{"android":"levelo://app?vid=59a2b5a9-0f56-40d5-a59c-cb2592419b75","ios":"levelo://app?vid=59a2b5a9-0f56-40d5-a59c-cb2592419b75"},"vehicle_type_id":"4","last_reported":1726211339,"current_range_meters":38800,"station_id":"ce4bhih2rcd13ifvqfs0","pricing_plan_id":"cebpf4jnsgd1na2vs0mg"},{"bike_id":"13b59975-d383-4254-90d7-d1dbbd742258","system_id":"levelo_inurba_marseille","lat":43.29078,"lon":5.37177,"is_reserved":false,"is_disabled":false,"rental_uris":{"android":"levelo://app?vid=13b59975-d383-4254-90d7-d1dbbd742258","ios":"levelo://app?vid=13b59975-d383-4254-90d7-d1dbbd742258"},"vehicle_type_id":"4","last_reported":1726211339,"current_range_meters":37600,"station_id":"ce4bh5p2rcd13ifvqe4g","pricing_plan_id":"cebpf4jnsgd1na2vs0mg"},{"bike_id":"91ce77ce-18ef-47d8-9533-f401393ecd0b","system_id":"levelo_inurba_marseille","lat":43.28622,"lon":5.35099,"is_reserved":false,"is_disabled":false,"rental_uris":{"android":"levelo://app?vid=91ce77ce-18ef-47d8-9533-f401393ecd0b","ios":"levelo://app?vid=91ce77ce-18ef-47d8-9533-f401393ecd0b"},"vehicle_type_id":"4","last_reported":1726211339,"current_range_meters":18800,"station_id":"ce4bhch2rcd13ifvqeug","pricing_plan_id":"cebpf4jnsgd1na2vs0mg"},{"bike_id":"5413942c-8963-4c08-9950-837c72f9eb11","system_id":"levelo_inurba_marseille","lat":43.24085,"lon":5.37741,"is_reserved":false,"is_disabled":false,"rental_uris":{"android":"levelo://app?vid=5413942c-8963-4c08-9950-837c72f9eb11","ios":"levelo://app?vid=5413942c-8963-4c08-9950-837c72f9eb11"},"vehicle_type_id":"4","last_reported":1726211339,"current_range_meters":38400,"station_id":"ce4bhnp2rcd13ifvqgvg","pricing_plan_id":"cebpf4jnsgd1na2vs0mg"},{"bike_id":"52d73d29-2986-44f2-942f-757570fb11a6","system_id":"levelo_inurba_marseille","lat":43.29034,"lon":5.37565,"is_reserved":false,"is_disabled":false,"rental_uris":{"android":"levelo://app?vid=52d73d29-2986-44f2-942f-757570fb11a6","ios":"levelo://app?vid=52d73d29-2986-44f2-942f-757570fb11a6"},"vehicle_type_id":"4","last_reported":1726211339,"current_range_meters":6800,"station_id":"ce4bh692rcd13ifvqe90","pricing_plan_id":"cebpf4jnsgd1na2vs0mg"},{"bike_id":"b6a55e8b-3ff3-46c8-a72a-6c10f7cc2db1","system_id":"levelo_inurba_marseille","lat":43.29959,"lon":5.41317,"is_reserved":false,"is_disabled":false,"rental_uris":{"android":"levelo://app?vid=b6a55e8b-3ff3-46c8-a72a-6c10f7cc2db1","ios":"levelo://app?vid=b6a55e8b-3ff3-46c8-a72a-6c10f7cc2db1"},"vehicle_type_id":"4","last_reported":1726211339,"current_range_meters":39200,"station_id":"ce4bhp12rcd13ifvqh9g","pricing_plan_id":"cebpf4jnsgd1na2vs0mg"},{"bike_id":"09366a6a-7b33-4315-bd86-159f4a8e144d","system_id":"levelo_inurba_marseille","lat":43.28943,"lon":5.36391,"is_reserved":false,"is_disabled":false,"rental_uris":{"android":"levelo://app?vid=09366a6a-7b33-4315-bd86-159f4a8e144d","ios":"levelo://app?vid=09366a6a-7b33-4315-bd86-159f4a8e144d"},"vehicle_type_id":"4","last_reported":1726211339,"current_range_meters":39200,"station_id":"ce4bhc92rcd13ifvqetg","pricing_plan_id":"cebpf4jnsgd1na2vs0mg"},{"bike_id":"d608f0a9-6c51-4c68-be81-d6c79550be85","system_id":"levelo_inurba_marseille","lat":43.31714,"lon":5.43706,"is_reserved":false,"is_disabled":false,"rental_uris":{"android":"levelo://app?vid=d608f0a9-6c51-4c68-be81-d6c79550be85","ios":"levelo://app?vid=d608f0a9-6c51-4c68-be81-d6c79550be85"},"vehicle_type_id":"4","last_reported":1726211339,"current_range_meters":40000,"station_id":"ce4bhp92rcd13ifvqhcg","pricing_plan_id":"cebpf4jnsgd1na2vs0mg"},{"bike_id":"e1544aa2-69b6-4f78-8480-1a80fd0a088f","system_id":"levelo_inurba_marseille","lat":43.29007,"lon":5.35615,"is_reserved":false,"is_disabled":false,"rental_uris":{"android":"levelo://app?vid=e1544aa2-69b6-4f78-8480-1a80fd0a088f","ios":"levelo://app?vid=e1544aa2-69b6-4f78-8480-1a80fd0a088f"},"vehicle_type_id":"4","last_reported":1726211339,"current_range_meters":39200,"station_id":"ce4bhb92rcd13ifvqen0","pricing_plan_id":"cebpf4jnsgd1na2vs0mg"},{"bike_id":"7685c71a-1935-4b9f-858d-7f9381b88abf","system_id":"levelo_inurba_marseille","lat":43.33616,"lon":5.41024,"is_reserved":false,"is_disabled":false,"rental_uris":{"android":"levelo://app?vid=7685c71a-1935-4b9f-858d-7f9381b88abf","ios":"levelo://app?vid=7685c71a-1935-4b9f-858d-7f9381b88abf"},"vehicle_type_id":"4","last_reported":1726211339,"current_range_meters":28400,"station_id":"ce4bhqh2rcd13ifvqhmg","pricing_plan_id":"cebpf4jnsgd1na2vs0mg"},{"bike_id":"deaeb920-23ab-4b51-a90a-3a4d369b9959","system_id":"levelo_inurba_marseille","lat":43.26556,"lon":5.37282,"is_reserved":false,"is_disabled":false,"rental_uris":{"android":"levelo://app?vid=deaeb920-23ab-4b51-a90a-3a4d369b9959","ios":"levelo://app?vid=deaeb920-23ab-4b51-a90a-3a4d369b9959"},"vehicle_type_id":"4","last_reported":1726211339,"current_range_meters":8800,"station_id":"ce4bhg12rcd13ifvqf70","pricing_plan_id":"cebpf4jnsgd1na2vs0mg"},{"bike_id":"099ad6de-f9dd-4170-a0a3-76533d27ba3b","system_id":"levelo_inurba_marseille","lat":43.28936,"lon":5.36395,"is_reserved":false,"is_disabled":false,"rental_uris":{"android":"levelo://app?vid=099ad6de-f9dd-4170-a0a3-76533d27ba3b","ios":"levelo://app?vid=099ad6de-f9dd-4170-a0a3-76533d27ba3b"},"vehicle_type_id":"4","last_reported":1726211339,"current_range_meters":8400,"station_id":"ce4bhc92rcd13ifvqetg","pricing_plan_id":"cebpf4jnsgd1na2vs0mg"},{"bike_id":"0c2cc3bd-04ab-4bf9-af25-7f2d3e690764","system_id":"levelo_inurba_marseille","lat":43.29579,"lon":5.37522,"is_reserved":false,"is_disabled":false,"rental_uris":{"android":"levelo://app?vid=0c2cc3bd-04ab-4bf9-af25-7f2d3e690764","ios":"levelo://app?vid=0c2cc3bd-04ab-4bf9-af25-7f2d3e690764"},"vehicle_type_id":"4","last_reported":1726211339,"current_range_meters":32000,"station_id":"ce4bgh92rcd13ifvqb50","pricing_plan_id":"cebpf4jnsgd1na2vs0mg"},{"bike_id":"a3c99c0e-efb7-4563-a1e3-25d67d6029f6","system_id":"levelo_inurba_marseille","lat":43.31085,"lon":5.42428,"is_reserved":false,"is_disabled":false,"rental_uris":{"android":"levelo://app?vid=a3c99c0e-efb7-4563-a1e3-25d67d6029f6","ios":"levelo://app?vid=a3c99c0e-efb7-4563-a1e3-25d67d6029f6"},"vehicle_type_id":"4","last_reported":1726211339,"current_range_meters":10000,"station_id":"ce4bhp92rcd13ifvqhag","pricing_plan_id":"cebpf4jnsgd1na2vs0mg"},{"bike_id":"0a5c7982-28f1-44b8-a901-7e32bdbe3e0d","system_id":"levelo_inurba_marseille","lat":43.25492,"lon":5.37647,"is_reserved":false,"is_disabled":false,"rental_uris":{"android":"levelo://app?vid=0a5c7982-28f1-44b8-a901-7e32bdbe3e0d","ios":"levelo://app?vid=0a5c7982-28f1-44b8-a901-7e32bdbe3e0d"},"vehicle_type_id":"4","last_reported":1726211339,"current_range_meters":34800,"station_id":"ce4bhh12rcd13ifvqff0","pricing_plan_id":"cebpf4jnsgd1na2vs0mg"},{"bike_id":"b877ed53-a251-44bf-893a-23751878af97","system_id":"levelo_inurba_marseille","lat":43.27669,"lon":5.38874,"is_reserved":false,"is_disabled":false,"rental_uris":{"android":"levelo://app?vid=b877ed53-a251-44bf-893a-23751878af97","ios":"levelo://app?vid=b877ed53-a251-44bf-893a-23751878af97"},"vehicle_type_id":"4","last_reported":1726211339,"current_range_meters":35200,"station_id":"ce4bhi12rcd13ifvqfo0","pricing_plan_id":"cebpf4jnsgd1na2vs0mg"},{"bike_id":"2706703d-819c-4205-a468-5b08a4b1f00c","system_id":"levelo_inurba_marseille","lat":43.26959,"lon":5.38632,"is_reserved":false,"is_disabled":false,"rental_uris":{"android":"levelo://app?vid=2706703d-819c-4205-a468-5b08a4b1f00c","ios":"levelo://app?vid=2706703d-819c-4205-a468-5b08a4b1f00c"},"vehicle_type_id":"4","last_reported":1726211339,"current_range_meters":34800,"station_id":"ce4bhh92rcd13ifvqfh0","pricing_plan_id":"cebpf4jnsgd1na2vs0mg"},{"bike_id":"d765a641-e055-4e3b-87e7-fd69ea5db099","system_id":"levelo_inurba_marseille","lat":43.33762,"lon":5.37426,"is_reserved":false,"is_disabled":false,"rental_uris":{"android":"levelo://app?vid=d765a641-e055-4e3b-87e7-fd69ea5db099","ios":"levelo://app?vid=d765a641-e055-4e3b-87e7-fd69ea5db099"},"vehicle_type_id":"4","last_reported":1726211339,"current_range_meters":35600,"station_id":"","pricing_plan_id":"cebpf4jnsgd1na2vs0mg"},{"bike_id":"712ed283-2e97-40bf-a20c-65756f19ed99","system_id":"levelo_inurba_marseille","lat":43.28352,"lon":5.38109,"is_reserved":false,"is_disabled":false,"rental_uris":{"android":"levelo://app?vid=712ed283-2e97-40bf-a20c-65756f19ed99","ios":"levelo://app?vid=712ed283-2e97-40bf-a20c-65756f19ed99"},"vehicle_type_id":"4","last_reported":1726211339,"current_range_meters":33200,"station_id":"ce4bh412rcd13ifvqdr0","pricing_plan_id":"cebpf4jnsgd1na2vs0mg"},{"bike_id":"3a82be99-0129-491b-a6a6-d963bb916583","system_id":"levelo_inurba_marseille","lat":43.30461,"lon":5.379,"is_reserved":false,"is_disabled":false,"rental_uris":{"android":"levelo://app?vid=3a82be99-0129-491b-a6a6-d963bb916583","ios":"levelo://app?vid=3a82be99-0129-491b-a6a6-d963bb916583"},"vehicle_type_id":"4","last_reported":1726211339,"current_range_meters":24800,"station_id":"ce4bgup2rcd13ifvqcn0","pricing_plan_id":"cebpf4jnsgd1na2vs0mg"},{"bike_id":"ecb19fdf-c363-4be5-9a1d-16b9150ca555","system_id":"levelo_inurba_marseille","lat":43.31348,"lon":5.36713,"is_reserved":false,"is_disabled":false,"rental_uris":{"android":"levelo://app?vid=ecb19fdf-c363-4be5-9a1d-16b9150ca555","ios":"levelo://app?vid=ecb19fdf-c363-4be5-9a1d-16b9150ca555"},"vehicle_type_id":"4","last_reported":1726211339,"current_range_meters":27600,"station_id":"ce4bgr92rcd13ifvqc6g","pricing_plan_id":"cebpf4jnsgd1na2vs0mg"},{"bike_id":"dbc4086c-48db-4284-a3cc-0bca6ec06a27","system_id":"levelo_inurba_marseille","lat":43.30447,"lon":5.3791,"is_reserved":false,"is_disabled":false,"rental_uris":{"android":"levelo://app?vid=dbc4086c-48db-4284-a3cc-0bca6ec06a27","ios":"levelo://app?vid=dbc4086c-48db-4284-a3cc-0bca6ec06a27"},"vehicle_type_id":"4","last_reported":1726211339,"current_range_meters":40000,"station_id":"ce4bgup2rcd13ifvqcn0","pricing_plan_id":"cebpf4jnsgd1na2vs0mg"},{"bike_id":"2e1b7783-3f10-4155-a11c-1bf9df31fd07","system_id":"levelo_inurba_marseille","lat":43.29174,"lon":5.37141,"is_reserved":false,"is_disabled":false,"rental_uris":{"android":"levelo://app?vid=2e1b7783-3f10-4155-a11c-1bf9df31fd07","ios":"levelo://app?vid=2e1b7783-3f10-4155-a11c-1bf9df31fd07"},"vehicle_type_id":"4","last_reported":1726211339,"current_range_meters":12800,"station_id":"ce4bha92rcd13ifvqeh0","pricing_plan_id":"cebpf4jnsgd1na2vs0mg"},{"bike_id":"7d63178b-69f7-4014-a28f-2f01f91ab383","system_id":"levelo_inurba_marseille","lat":43.24085,"lon":5.37748,"is_reserved":false,"is_disabled":false,"rental_uris":{"android":"levelo://app?vid=7d63178b-69f7-4014-a28f-2f01f91ab383","ios":"levelo://app?vid=7d63178b-69f7-4014-a28f-2f01f91ab383"},"vehicle_type_id":"4","last_reported":1726211339,"current_range_meters":34000,"station_id":"ce4bhnp2rcd13ifvqgvg","pricing_plan_id":"cebpf4jnsgd1na2vs0mg"},{"bike_id":"f22d7c7d-1a79-4418-8e07-612430d283a3","system_id":"levelo_inurba_marseille","lat":43.3046,"lon":5.37899,"is_reserved":false,"is_disabled":false,"rental_uris":{"android":"levelo://app?vid=f22d7c7d-1a79-4418-8e07-612430d283a3","ios":"levelo://app?vid=f22d7c7d-1a79-4418-8e07-612430d283a3"},"vehicle_type_id":"4","last_reported":1726211339,"current_range_meters":33200,"station_id":"ce4bgup2rcd13ifvqcn0","pricing_plan_id":"cebpf4jnsgd1na2vs0mg"},{"bike_id":"fb4a43cc-1094-4b91-b8fc-da2543614e4a","system_id":"levelo_inurba_marseille","lat":43.27323,"lon":5.3908,"is_reserved":false,"is_disabled":false,"rental_uris":{"android":"levelo://app?vid=fb4a43cc-1094-4b91-b8fc-da2543614e4a","ios":"levelo://app?vid=fb4a43cc-1094-4b91-b8fc-da2543614e4a"},"vehicle_type_id":"4","last_reported":1726211339,"current_range_meters":26000,"station_id":"ce4bhgp2rcd13ifvqfe0","pricing_plan_id":"cebpf4jnsgd1na2vs0mg"},{"bike_id":"1800e2b5-60a9-4fa4-9106-ab0fd800acdb","system_id":"levelo_inurba_marseille","lat":43.303136,"lon":5.368981,"is_reserved":false,"is_disabled":false,"rental_uris":{"android":"levelo://app?vid=1800e2b5-60a9-4fa4-9106-ab0fd800acdb","ios":"levelo://app?vid=1800e2b5-60a9-4fa4-9106-ab0fd800acdb"},"vehicle_type_id":"4","last_reported":1726211339,"current_range_meters":28800,"station_id":"ce4bgqh2rcd13ifvqc5g","pricing_plan_id":"cebpf4jnsgd1na2vs0mg"},{"bike_id":"4afb8b00-be3a-4d15-9b8b-47916e625762","system_id":"levelo_inurba_marseille","lat":43.2853,"lon":5.44229,"is_reserved":false,"is_disabled":false,"rental_uris":{"android":"levelo://app?vid=4afb8b00-be3a-4d15-9b8b-47916e625762","ios":"levelo://app?vid=4afb8b00-be3a-4d15-9b8b-47916e625762"},"vehicle_type_id":"4","last_reported":1726211339,"current_range_meters":28400,"station_id":"","pricing_plan_id":"cebpf4jnsgd1na2vs0mg"},{"bike_id":"bb7acf50-b6bc-4b2d-adf4-833abc23b24c","system_id":"levelo_inurba_marseille","lat":43.23198,"lon":5.35548,"is_reserved":false,"is_disabled":false,"rental_uris":{"android":"levelo://app?vid=bb7acf50-b6bc-4b2d-adf4-833abc23b24c","ios":"levelo://app?vid=bb7acf50-b6bc-4b2d-adf4-833abc23b24c"},"vehicle_type_id":"4","last_reported":1726211339,"current_range_meters":40000,"station_id":"ce4bhu92rcd13ifvqi70","pricing_plan_id":"cebpf4jnsgd1na2vs0mg"},{"bike_id":"498820e6-7992-4d70-9ee6-553108ccfbc3","system_id":"levelo_inurba_marseille","lat":43.24075,"lon":5.37759,"is_reserved":false,"is_disabled":false,"rental_uris":{"android":"levelo://app?vid=498820e6-7992-4d70-9ee6-553108ccfbc3","ios":"levelo://app?vid=498820e6-7992-4d70-9ee6-553108ccfbc3"},"vehicle_type_id":"4","last_reported":1726211339,"current_range_meters":31200,"station_id":"ce4bhnp2rcd13ifvqgvg","pricing_plan_id":"cebpf4jnsgd1na2vs0mg"},{"bike_id":"4d82deed-46f4-4ede-b400-33da4682094f","system_id":"levelo_inurba_marseille","lat":43.26057,"lon":5.39393,"is_reserved":false,"is_disabled":false,"rental_uris":{"android":"levelo://app?vid=4d82deed-46f4-4ede-b400-33da4682094f","ios":"levelo://app?vid=4d82deed-46f4-4ede-b400-33da4682094f"},"vehicle_type_id":"4","last_reported":1726211339,"current_range_meters":24400,"station_id":"ce4bhh92rcd13ifvqfj0","pricing_plan_id":"cebpf4jnsgd1na2vs0mg"},{"bike_id":"3704f8e4-f6e5-4d3e-afe0-b429d4828359","system_id":"levelo_inurba_marseille","lat":43.32288,"lon":5.38265,"is_reserved":false,"is_disabled":false,"rental_uris":{"android":"levelo://app?vid=3704f8e4-f6e5-4d3e-afe0-b429d4828359","ios":"levelo://app?vid=3704f8e4-f6e5-4d3e-afe0-b429d4828359"},"vehicle_type_id":"4","last_reported":1726211339,"current_range_meters":34800,"station_id":"ce4bhr12rcd13ifvqhqg","pricing_plan_id":"cebpf4jnsgd1na2vs0mg"},{"bike_id":"93f2f617-3790-497a-bb54-fc0eb2677a38","system_id":"levelo_inurba_marseille","lat":43.30463,"lon":5.379,"is_reserved":false,"is_disabled":false,"rental_uris":{"android":"levelo://app?vid=93f2f617-3790-497a-bb54-fc0eb2677a38","ios":"levelo://app?vid=93f2f617-3790-497a-bb54-fc0eb2677a38"},"vehicle_type_id":"4","last_reported":1726211339,"current_range_meters":20000,"station_id":"ce4bgup2rcd13ifvqcn0","pricing_plan_id":"cebpf4jnsgd1na2vs0mg"},{"bike_id":"ba1607c9-bad0-40d9-92f9-b0c8fe48efa1","system_id":"levelo_inurba_marseille","lat":43.24666,"lon":5.38163,"is_reserved":false,"is_disabled":false,"rental_uris":{"android":"levelo://app?vid=ba1607c9-bad0-40d9-92f9-b0c8fe48efa1","ios":"levelo://app?vid=ba1607c9-bad0-40d9-92f9-b0c8fe48efa1"},"vehicle_type_id":"4","last_reported":1726211339,"current_range_meters":5600,"station_id":"ce4bhih2rcd13ifvqfr0","pricing_plan_id":"cebpf4jnsgd1na2vs0mg"},{"bike_id":"c04c04ac-fca9-4798-8d8b-5b0f8777c95d","system_id":"levelo_inurba_marseille","lat":43.24183,"lon":5.39728,"is_reserved":false,"is_disabled":false,"rental_uris":{"android":"levelo://app?vid=c04c04ac-fca9-4798-8d8b-5b0f8777c95d","ios":"levelo://app?vid=c04c04ac-fca9-4798-8d8b-5b0f8777c95d"},"vehicle_type_id":"4","last_reported":1726211339,"current_range_meters":36000,"station_id":"ce4bhn12rcd13ifvqgpg","pricing_plan_id":"cebpf4jnsgd1na2vs0mg"},{"bike_id":"bad5d70e-f7a1-468a-9a94-b2bdd4c90749","system_id":"levelo_inurba_marseille","lat":43.2721,"lon":5.39179,"is_reserved":false,"is_disabled":false,"rental_uris":{"android":"levelo://app?vid=bad5d70e-f7a1-468a-9a94-b2bdd4c90749","ios":"levelo://app?vid=bad5d70e-f7a1-468a-9a94-b2bdd4c90749"},"vehicle_type_id":"4","last_reported":1726211339,"current_range_meters":28400,"station_id":"ce4bhhp2rcd13ifvqfm0","pricing_plan_id":"cebpf4jnsgd1na2vs0mg"},{"bike_id":"3c5a54c8-0cb8-400f-88dd-cd31f8c3c5ab","system_id":"levelo_inurba_marseille","lat":43.27571,"lon":5.38421,"is_reserved":false,"is_disabled":false,"rental_uris":{"android":"levelo://app?vid=3c5a54c8-0cb8-400f-88dd-cd31f8c3c5ab","ios":"levelo://app?vid=3c5a54c8-0cb8-400f-88dd-cd31f8c3c5ab"},"vehicle_type_id":"4","last_reported":1726211339,"current_range_meters":32400,"station_id":"ce4bhh92rcd13ifvqfi0","pricing_plan_id":"cebpf4jnsgd1na2vs0mg"},{"bike_id":"80a1e38e-0713-4fd0-b0c2-78281e4d4d93","system_id":"levelo_inurba_marseille","lat":43.31499,"lon":5.37299,"is_reserved":false,"is_disabled":false,"rental_uris":{"android":"levelo://app?vid=80a1e38e-0713-4fd0-b0c2-78281e4d4d93","ios":"levelo://app?vid=80a1e38e-0713-4fd0-b0c2-78281e4d4d93"},"vehicle_type_id":"4","last_reported":1726211339,"current_range_meters":35200,"station_id":"ce4bgt12rcd13ifvqcd0","pricing_plan_id":"cebpf4jnsgd1na2vs0mg"},{"bike_id":"fc5bc3fc-35d3-40e2-b34c-e87294cdac8e","system_id":"levelo_inurba_marseille","lat":43.325378,"lon":5.414229,"is_reserved":false,"is_disabled":false,"rental_uris":{"android":"levelo://app?vid=fc5bc3fc-35d3-40e2-b34c-e87294cdac8e","ios":"levelo://app?vid=fc5bc3fc-35d3-40e2-b34c-e87294cdac8e"},"vehicle_type_id":"4","last_reported":1726211339,"current_range_meters":8000,"station_id":"ce4bhq12rcd13ifvqhhg","pricing_plan_id":"cebpf4jnsgd1na2vs0mg"},{"bike_id":"9a98c20a-1bbb-4b09-a13d-2fc5d00cb29f","system_id":"levelo_inurba_marseille","lat":43.29554,"lon":5.42294,"is_reserved":false,"is_disabled":false,"rental_uris":{"android":"levelo://app?vid=9a98c20a-1bbb-4b09-a13d-2fc5d00cb29f","ios":"levelo://app?vid=9a98c20a-1bbb-4b09-a13d-2fc5d00cb29f"},"vehicle_type_id":"4","last_reported":1726211339,"current_range_meters":10800,"station_id":"ce4bhph2rcd13ifvqhdg","pricing_plan_id":"cebpf4jnsgd1na2vs0mg"},{"bike_id":"65c1412b-046f-4164-bac6-8d82df38fef4","system_id":"levelo_inurba_marseille","lat":43.30556,"lon":5.36536,"is_reserved":false,"is_disabled":false,"rental_uris":{"android":"levelo://app?vid=65c1412b-046f-4164-bac6-8d82df38fef4","ios":"levelo://app?vid=65c1412b-046f-4164-bac6-8d82df38fef4"},"vehicle_type_id":"4","last_reported":1726211339,"current_range_meters":8400,"station_id":"ce4bgs12rcd13ifvqcag","pricing_plan_id":"cebpf4jnsgd1na2vs0mg"},{"bike_id":"2e95f72b-c48e-49de-b6be-9dde9b7c9b57","system_id":"levelo_inurba_marseille","lat":43.30157,"lon":5.37408,"is_reserved":false,"is_disabled":false,"rental_uris":{"android":"levelo://app?vid=2e95f72b-c48e-49de-b6be-9dde9b7c9b57","ios":"levelo://app?vid=2e95f72b-c48e-49de-b6be-9dde9b7c9b57"},"vehicle_type_id":"4","last_reported":1726211339,"current_range_meters":9600,"station_id":"ce4bgs92rcd13ifvqcc0","pricing_plan_id":"cebpf4jnsgd1na2vs0mg"},{"bike_id":"c28ff0f1-1713-431a-bccf-4e7a21e8e39b","system_id":"levelo_inurba_marseille","lat":43.25505,"lon":5.37648,"is_reserved":false,"is_disabled":false,"rental_uris":{"android":"levelo://app?vid=c28ff0f1-1713-431a-bccf-4e7a21e8e39b","ios":"levelo://app?vid=c28ff0f1-1713-431a-bccf-4e7a21e8e39b"},"vehicle_type_id":"4","last_reported":1726211339,"current_range_meters":40000,"station_id":"ce4bhh12rcd13ifvqff0","pricing_plan_id":"cebpf4jnsgd1na2vs0mg"},{"bike_id":"99debd67-bb6d-43a9-8d90-d78301bb0e03","system_id":"levelo_inurba_marseille","lat":43.26061,"lon":5.39392,"is_reserved":false,"is_disabled":false,"rental_uris":{"android":"levelo://app?vid=99debd67-bb6d-43a9-8d90-d78301bb0e03","ios":"levelo://app?vid=99debd67-bb6d-43a9-8d90-d78301bb0e03"},"vehicle_type_id":"4","last_reported":1726211339,"current_range_meters":36000,"station_id":"ce4bhh92rcd13ifvqfj0","pricing_plan_id":"cebpf4jnsgd1na2vs0mg"},{"bike_id":"deaaae64-24a5-443f-ba91-de969d33fdb3","system_id":"levelo_inurba_marseille","lat":43.283386,"lon":5.381059,"is_reserved":false,"is_disabled":false,"rental_uris":{"android":"levelo://app?vid=deaaae64-24a5-443f-ba91-de969d33fdb3","ios":"levelo://app?vid=deaaae64-24a5-443f-ba91-de969d33fdb3"},"vehicle_type_id":"4","last_reported":1726211339,"current_range_meters":28800,"station_id":"ce4bh412rcd13ifvqdr0","pricing_plan_id":"cebpf4jnsgd1na2vs0mg"},{"bike_id":"d63b08fd-7716-422a-94e4-8f1dfff5bb11","system_id":"levelo_inurba_marseille","lat":43.28615,"lon":5.35097,"is_reserved":false,"is_disabled":false,"rental_uris":{"android":"levelo://app?vid=d63b08fd-7716-422a-94e4-8f1dfff5bb11","ios":"levelo://app?vid=d63b08fd-7716-422a-94e4-8f1dfff5bb11"},"vehicle_type_id":"4","last_reported":1726211339,"current_range_meters":15200,"station_id":"ce4bhch2rcd13ifvqeug","pricing_plan_id":"cebpf4jnsgd1na2vs0mg"},{"bike_id":"2d2a0049-051f-4b74-b370-9aacb4e4a381","system_id":"levelo_inurba_marseille","lat":43.27495,"lon":5.42455,"is_reserved":false,"is_disabled":false,"rental_uris":{"android":"levelo://app?vid=2d2a0049-051f-4b74-b370-9aacb4e4a381","ios":"levelo://app?vid=2d2a0049-051f-4b74-b370-9aacb4e4a381"},"vehicle_type_id":"4","last_reported":1726211339,"current_range_meters":38000,"station_id":"ce4bhn92rcd13ifvqgrg","pricing_plan_id":"cebpf4jnsgd1na2vs0mg"},{"bike_id":"1763571a-9954-433e-872e-ef6d6319dff6","system_id":"levelo_inurba_marseille","lat":43.3134,"lon":5.36716,"is_reserved":false,"is_disabled":false,"rental_uris":{"android":"levelo://app?vid=1763571a-9954-433e-872e-ef6d6319dff6","ios":"levelo://app?vid=1763571a-9954-433e-872e-ef6d6319dff6"},"vehicle_type_id":"4","last_reported":1726211339,"current_range_meters":27200,"station_id":"ce4bgr92rcd13ifvqc6g","pricing_plan_id":"cebpf4jnsgd1na2vs0mg"},{"bike_id":"e0106f75-1f65-4cae-80a7-8a5c4bec1203","system_id":"levelo_inurba_marseille","lat":43.23198,"lon":5.35551,"is_reserved":false,"is_disabled":false,"rental_uris":{"android":"levelo://app?vid=e0106f75-1f65-4cae-80a7-8a5c4bec1203","ios":"levelo://app?vid=e0106f75-1f65-4cae-80a7-8a5c4bec1203"},"vehicle_type_id":"4","last_reported":1726211339,"current_range_meters":4400,"station_id":"ce4bhu92rcd13ifvqi70","pricing_plan_id":"cebpf4jnsgd1na2vs0mg"},{"bike_id":"82b1dfac-d9fb-4416-a545-7fabacd6934e","system_id":"levelo_inurba_marseille","lat":43.28354,"lon":5.38107,"is_reserved":false,"is_disabled":false,"rental_uris":{"android":"levelo://app?vid=82b1dfac-d9fb-4416-a545-7fabacd6934e","ios":"levelo://app?vid=82b1dfac-d9fb-4416-a545-7fabacd6934e"},"vehicle_type_id":"4","last_reported":1726211339,"current_range_meters":33600,"station_id":"ce4bh412rcd13ifvqdr0","pricing_plan_id":"cebpf4jnsgd1na2vs0mg"},{"bike_id":"1e540333-4d9c-4f56-8ef4-2ba21bfee7a1","system_id":"levelo_inurba_marseille","lat":43.26507,"lon":5.39529,"is_reserved":false,"is_disabled":false,"rental_uris":{"android":"levelo://app?vid=1e540333-4d9c-4f56-8ef4-2ba21bfee7a1","ios":"levelo://app?vid=1e540333-4d9c-4f56-8ef4-2ba21bfee7a1"},"vehicle_type_id":"4","last_reported":1726211339,"current_range_meters":33600,"station_id":"ce4bhgp2rcd13ifvqfe0","pricing_plan_id":"cebpf4jnsgd1na2vs0mg"},{"bike_id":"86592e31-d195-4731-8e4b-a0f3d2ead51e","system_id":"levelo_inurba_marseille","lat":43.27499,"lon":5.42446,"is_reserved":false,"is_disabled":false,"rental_uris":{"android":"levelo://app?vid=86592e31-d195-4731-8e4b-a0f3d2ead51e","ios":"levelo://app?vid=86592e31-d195-4731-8e4b-a0f3d2ead51e"},"vehicle_type_id":"4","last_reported":1726211339,"current_range_meters":30000,"station_id":"ce4bhn92rcd13ifvqgrg","pricing_plan_id":"cebpf4jnsgd1na2vs0mg"},{"bike_id":"53ef2818-a055-47fd-abbf-0ca3cd85cef4","system_id":"levelo_inurba_marseille","lat":43.30911,"lon":5.36851,"is_reserved":false,"is_disabled":false,"rental_uris":{"android":"levelo://app?vid=53ef2818-a055-47fd-abbf-0ca3cd85cef4","ios":"levelo://app?vid=53ef2818-a055-47fd-abbf-0ca3cd85cef4"},"vehicle_type_id":"4","last_reported":1726211339,"current_range_meters":17200,"station_id":"ce4bgn92rcd13ifvqbvg","pricing_plan_id":"cebpf4jnsgd1na2vs0mg"},{"bike_id":"4a6156b1-fbee-47d9-b657-67ea13344c54","system_id":"levelo_inurba_marseille","lat":43.30162,"lon":5.37419,"is_reserved":false,"is_disabled":false,"rental_uris":{"android":"levelo://app?vid=4a6156b1-fbee-47d9-b657-67ea13344c54","ios":"levelo://app?vid=4a6156b1-fbee-47d9-b657-67ea13344c54"},"vehicle_type_id":"4","last_reported":1726211339,"current_range_meters":400,"station_id":"ce4bhi12rcd13ifvqfp0","pricing_plan_id":"cebpf4jnsgd1na2vs0mg"},{"bike_id":"71e5bd5f-9941-45ed-83eb-1729c01b5303","system_id":"levelo_inurba_marseille","lat":43.22929,"lon":5.35371,"is_reserved":false,"is_disabled":false,"rental_uris":{"android":"levelo://app?vid=71e5bd5f-9941-45ed-83eb-1729c01b5303","ios":"levelo://app?vid=71e5bd5f-9941-45ed-83eb-1729c01b5303"},"vehicle_type_id":"4","last_reported":1726211339,"current_range_meters":36400,"station_id":"cpo3532slgdg3j2ikp40","pricing_plan_id":"cebpf4jnsgd1na2vs0mg"},{"bike_id":"b67e29c2-a2fc-48c9-b091-a0aa3e618481","system_id":"levelo_inurba_marseille","lat":43.30552,"lon":5.36543,"is_reserved":false,"is_disabled":false,"rental_uris":{"android":"levelo://app?vid=b67e29c2-a2fc-48c9-b091-a0aa3e618481","ios":"levelo://app?vid=b67e29c2-a2fc-48c9-b091-a0aa3e618481"},"vehicle_type_id":"4","last_reported":1726211339,"current_range_meters":11200,"station_id":"ce4bgs12rcd13ifvqcag","pricing_plan_id":"cebpf4jnsgd1na2vs0mg"},{"bike_id":"83009555-c31e-4968-8dfb-8455a00fc6c9","system_id":"levelo_inurba_marseille","lat":43.24661,"lon":5.3816,"is_reserved":false,"is_disabled":false,"rental_uris":{"android":"levelo://app?vid=83009555-c31e-4968-8dfb-8455a00fc6c9","ios":"levelo://app?vid=83009555-c31e-4968-8dfb-8455a00fc6c9"},"vehicle_type_id":"4","last_reported":1726211339,"current_range_meters":27200,"station_id":"ce4bhih2rcd13ifvqfr0","pricing_plan_id":"cebpf4jnsgd1na2vs0mg"},{"bike_id":"32a88fa9-2e6f-472d-9fa2-2ef3c6517437","system_id":"levelo_inurba_marseille","lat":43.31688,"lon":5.40466,"is_reserved":false,"is_disabled":false,"rental_uris":{"android":"levelo://app?vid=32a88fa9-2e6f-472d-9fa2-2ef3c6517437","ios":"levelo://app?vid=32a88fa9-2e6f-472d-9fa2-2ef3c6517437"},"vehicle_type_id":"4","last_reported":1726211339,"current_range_meters":12400,"station_id":"ce4bh012rcd13ifvqd00","pricing_plan_id":"cebpf4jnsgd1na2vs0mg"},{"bike_id":"15a0f7a7-2801-4b64-a1cf-7b142c6ce92e","system_id":"levelo_inurba_marseille","lat":43.27498,"lon":5.42444,"is_reserved":false,"is_disabled":false,"rental_uris":{"android":"levelo://app?vid=15a0f7a7-2801-4b64-a1cf-7b142c6ce92e","ios":"levelo://app?vid=15a0f7a7-2801-4b64-a1cf-7b142c6ce92e"},"vehicle_type_id":"4","last_reported":1726211339,"current_range_meters":30800,"station_id":"ce4bhn92rcd13ifvqgrg","pricing_plan_id":"cebpf4jnsgd1na2vs0mg"},{"bike_id":"ffd70a77-c284-4424-967a-f18b173c279c","system_id":"levelo_inurba_marseille","lat":43.23158,"lon":5.43704,"is_reserved":false,"is_disabled":false,"rental_uris":{"android":"levelo://app?vid=ffd70a77-c284-4424-967a-f18b173c279c","ios":"levelo://app?vid=ffd70a77-c284-4424-967a-f18b173c279c"},"vehicle_type_id":"4","last_reported":1726211339,"current_range_meters":15200,"station_id":"ce4bhmp2rcd13ifvqgog","pricing_plan_id":"cebpf4jnsgd1na2vs0mg"},{"bike_id":"b4d74fee-6f89-4d61-89e1-dd9f2e020f3a","system_id":"levelo_inurba_marseille","lat":43.30458,"lon":5.37914,"is_reserved":false,"is_disabled":false,"rental_uris":{"android":"levelo://app?vid=b4d74fee-6f89-4d61-89e1-dd9f2e020f3a","ios":"levelo://app?vid=b4d74fee-6f89-4d61-89e1-dd9f2e020f3a"},"vehicle_type_id":"4","last_reported":1726211339,"current_range_meters":38000,"station_id":"ce4bgup2rcd13ifvqcn0","pricing_plan_id":"cebpf4jnsgd1na2vs0mg"},{"bike_id":"b5a5f6e1-1539-4a71-b339-763548ff1b87","system_id":"levelo_inurba_marseille","lat":43.31493,"lon":5.37304,"is_reserved":false,"is_disabled":false,"rental_uris":{"android":"levelo://app?vid=b5a5f6e1-1539-4a71-b339-763548ff1b87","ios":"levelo://app?vid=b5a5f6e1-1539-4a71-b339-763548ff1b87"},"vehicle_type_id":"4","last_reported":1726211339,"current_range_meters":19200,"station_id":"ce4bgt12rcd13ifvqcd0","pricing_plan_id":"cebpf4jnsgd1na2vs0mg"},{"bike_id":"91b36c15-8bb8-4d60-8c33-cdd8e0d267ed","system_id":"levelo_inurba_marseille","lat":43.23155,"lon":5.43718,"is_reserved":false,"is_disabled":false,"rental_uris":{"android":"levelo://app?vid=91b36c15-8bb8-4d60-8c33-cdd8e0d267ed","ios":"levelo://app?vid=91b36c15-8bb8-4d60-8c33-cdd8e0d267ed"},"vehicle_type_id":"4","last_reported":1726211339,"current_range_meters":12800,"station_id":"ce4bhmp2rcd13ifvqgog","pricing_plan_id":"cebpf4jnsgd1na2vs0mg"},{"bike_id":"a5fdf6a4-c851-46dd-b1fd-475692a26c68","system_id":"levelo_inurba_marseille","lat":43.28856,"lon":5.35843,"is_reserved":false,"is_disabled":false,"rental_uris":{"android":"levelo://app?vid=a5fdf6a4-c851-46dd-b1fd-475692a26c68","ios":"levelo://app?vid=a5fdf6a4-c851-46dd-b1fd-475692a26c68"},"vehicle_type_id":"4","last_reported":1726211339,"current_range_meters":36000,"station_id":"ce4bhb12rcd13ifvqem0","pricing_plan_id":"cebpf4jnsgd1na2vs0mg"},{"bike_id":"6c0b5ad9-f2ec-496b-a0e3-41dbf09fdbe0","system_id":"levelo_inurba_marseille","lat":43.283417,"lon":5.381043,"is_reserved":false,"is_disabled":false,"rental_uris":{"android":"levelo://app?vid=6c0b5ad9-f2ec-496b-a0e3-41dbf09fdbe0","ios":"levelo://app?vid=6c0b5ad9-f2ec-496b-a0e3-41dbf09fdbe0"},"vehicle_type_id":"4","last_reported":1726211339,"current_range_meters":37600,"station_id":"ce4bgj12rcd13ifvqbc0","pricing_plan_id":"cebpf4jnsgd1na2vs0mg"},{"bike_id":"8a887379-9865-482a-a5f3-9818897f4050","system_id":"levelo_inurba_marseille","lat":43.30461,"lon":5.37909,"is_reserved":false,"is_disabled":false,"rental_uris":{"android":"levelo://app?vid=8a887379-9865-482a-a5f3-9818897f4050","ios":"levelo://app?vid=8a887379-9865-482a-a5f3-9818897f4050"},"vehicle_type_id":"4","last_reported":1726211339,"current_range_meters":5600,"station_id":"ce4bgup2rcd13ifvqcn0","pricing_plan_id":"cebpf4jnsgd1na2vs0mg"},{"bike_id":"d525c3d5-35b0-4fee-8a32-4bf9e52da993","system_id":"levelo_inurba_marseille","lat":43.29031,"lon":5.38651,"is_reserved":false,"is_disabled":false,"rental_uris":{"android":"levelo://app?vid=d525c3d5-35b0-4fee-8a32-4bf9e52da993","ios":"levelo://app?vid=d525c3d5-35b0-4fee-8a32-4bf9e52da993"},"vehicle_type_id":"4","last_reported":1726211339,"current_range_meters":17600,"station_id":"ce4bh4p2rcd13ifvqe0g","pricing_plan_id":"cebpf4jnsgd1na2vs0mg"},{"bike_id":"21f4bdb7-d976-4839-a7fe-41e1e86c92e2","system_id":"levelo_inurba_marseille","lat":43.24083,"lon":5.37755,"is_reserved":false,"is_disabled":false,"rental_uris":{"android":"levelo://app?vid=21f4bdb7-d976-4839-a7fe-41e1e86c92e2","ios":"levelo://app?vid=21f4bdb7-d976-4839-a7fe-41e1e86c92e2"},"vehicle_type_id":"4","last_reported":1726211339,"current_range_meters":17600,"station_id":"ce4bhnp2rcd13ifvqgvg","pricing_plan_id":"cebpf4jnsgd1na2vs0mg"},{"bike_id":"6beb15ed-2c8d-4076-af9f-d4d302e6aee1","system_id":"levelo_inurba_marseille","lat":43.2408,"lon":5.37742,"is_reserved":false,"is_disabled":false,"rental_uris":{"android":"levelo://app?vid=6beb15ed-2c8d-4076-af9f-d4d302e6aee1","ios":"levelo://app?vid=6beb15ed-2c8d-4076-af9f-d4d302e6aee1"},"vehicle_type_id":"4","last_reported":1726211339,"current_range_meters":36000,"station_id":"ce4bhnp2rcd13ifvqgvg","pricing_plan_id":"cebpf4jnsgd1na2vs0mg"},{"bike_id":"954d2b54-362e-442e-bcaa-d17939d90e2d","system_id":"levelo_inurba_marseille","lat":43.25497,"lon":5.37646,"is_reserved":false,"is_disabled":false,"rental_uris":{"android":"levelo://app?vid=954d2b54-362e-442e-bcaa-d17939d90e2d","ios":"levelo://app?vid=954d2b54-362e-442e-bcaa-d17939d90e2d"},"vehicle_type_id":"4","last_reported":1726211339,"current_range_meters":39200,"station_id":"ce4bhh12rcd13ifvqff0","pricing_plan_id":"cebpf4jnsgd1na2vs0mg"},{"bike_id":"82dec1e1-c024-4a59-b080-1ca526441f94","system_id":"levelo_inurba_marseille","lat":43.337612,"lon":5.374504,"is_reserved":false,"is_disabled":false,"rental_uris":{"android":"levelo://app?vid=82dec1e1-c024-4a59-b080-1ca526441f94","ios":"levelo://app?vid=82dec1e1-c024-4a59-b080-1ca526441f94"},"vehicle_type_id":"4","last_reported":1726211339,"current_range_meters":16000,"station_id":"","pricing_plan_id":"cebpf4jnsgd1na2vs0mg"},{"bike_id":"c388f329-6f3c-470d-96b0-fb1532620c7b","system_id":"levelo_inurba_marseille","lat":43.23152,"lon":5.43718,"is_reserved":false,"is_disabled":false,"rental_uris":{"android":"levelo://app?vid=c388f329-6f3c-470d-96b0-fb1532620c7b","ios":"levelo://app?vid=c388f329-6f3c-470d-96b0-fb1532620c7b"},"vehicle_type_id":"4","last_reported":1726211339,"current_range_meters":22800,"station_id":"ce4bhmp2rcd13ifvqgog","pricing_plan_id":"cebpf4jnsgd1na2vs0mg"},{"bike_id":"58e1327d-64e6-43cf-91db-214255cc4e98","system_id":"levelo_inurba_marseille","lat":43.30467,"lon":5.3791,"is_reserved":false,"is_disabled":false,"rental_uris":{"android":"levelo://app?vid=58e1327d-64e6-43cf-91db-214255cc4e98","ios":"levelo://app?vid=58e1327d-64e6-43cf-91db-214255cc4e98"},"vehicle_type_id":"4","last_reported":1726211339,"current_range_meters":39200,"station_id":"ce4bgup2rcd13ifvqcn0","pricing_plan_id":"cebpf4jnsgd1na2vs0mg"},{"bike_id":"044665f6-c683-46f3-b67e-25a7e94a9acd","system_id":"levelo_inurba_marseille","lat":43.30252,"lon":5.40053,"is_reserved":false,"is_disabled":false,"rental_uris":{"android":"levelo://app?vid=044665f6-c683-46f3-b67e-25a7e94a9acd","ios":"levelo://app?vid=044665f6-c683-46f3-b67e-25a7e94a9acd"},"vehicle_type_id":"4","last_reported":1726211339,"current_range_meters":23200,"station_id":"ce4bgvh2rcd13ifvqcs0","pricing_plan_id":"cebpf4jnsgd1na2vs0mg"},{"bike_id":"e3b90e0b-4923-474e-90ac-7372ad6957cb","system_id":"levelo_inurba_marseille","lat":43.28341,"lon":5.38105,"is_reserved":false,"is_disabled":false,"rental_uris":{"android":"levelo://app?vid=e3b90e0b-4923-474e-90ac-7372ad6957cb","ios":"levelo://app?vid=e3b90e0b-4923-474e-90ac-7372ad6957cb"},"vehicle_type_id":"4","last_reported":1726211339,"current_range_meters":32000,"station_id":"ce4bh412rcd13ifvqdr0","pricing_plan_id":"cebpf4jnsgd1na2vs0mg"},{"bike_id":"2deeed66-456e-4f3b-be82-f36b0e3c9d4c","system_id":"levelo_inurba_marseille","lat":43.23147,"lon":5.437,"is_reserved":false,"is_disabled":false,"rental_uris":{"android":"levelo://app?vid=2deeed66-456e-4f3b-be82-f36b0e3c9d4c","ios":"levelo://app?vid=2deeed66-456e-4f3b-be82-f36b0e3c9d4c"},"vehicle_type_id":"4","last_reported":1726211339,"current_range_meters":19600,"station_id":"ce4bhmp2rcd13ifvqgog","pricing_plan_id":"cebpf4jnsgd1na2vs0mg"},{"bike_id":"09ba8945-a48c-4076-a723-c8b4a259d6ac","system_id":"levelo_inurba_marseille","lat":43.25582,"lon":5.38244,"is_reserved":false,"is_disabled":false,"rental_uris":{"android":"levelo://app?vid=09ba8945-a48c-4076-a723-c8b4a259d6ac","ios":"levelo://app?vid=09ba8945-a48c-4076-a723-c8b4a259d6ac"},"vehicle_type_id":"4","last_reported":1726211339,"current_range_meters":33600,"station_id":"ce4bhih2rcd13ifvqfs0","pricing_plan_id":"cebpf4jnsgd1na2vs0mg"},{"bike_id":"6b8972b7-e7de-4326-a45c-dcc210e21241","system_id":"levelo_inurba_marseille","lat":43.337668,"lon":5.374645,"is_reserved":false,"is_disabled":false,"rental_uris":{"android":"levelo://app?vid=6b8972b7-e7de-4326-a45c-dcc210e21241","ios":"levelo://app?vid=6b8972b7-e7de-4326-a45c-dcc210e21241"},"vehicle_type_id":"4","last_reported":1726211339,"current_range_meters":28800,"station_id":"","pricing_plan_id":"cebpf4jnsgd1na2vs0mg"},{"bike_id":"cf474362-9073-4411-8c5f-0ebb4873674f","system_id":"levelo_inurba_marseille","lat":43.299246,"lon":5.37463,"is_reserved":false,"is_disabled":false,"rental_uris":{"android":"levelo://app?vid=cf474362-9073-4411-8c5f-0ebb4873674f","ios":"levelo://app?vid=cf474362-9073-4411-8c5f-0ebb4873674f"},"vehicle_type_id":"4","last_reported":1726211339,"current_range_meters":38400,"station_id":"ce4bgjh2rcd13ifvqbg0","pricing_plan_id":"cebpf4jnsgd1na2vs0mg"},{"bike_id":"a24a32a7-16c3-4f2e-aa0c-8c797de05498","system_id":"levelo_inurba_marseille","lat":43.27495,"lon":5.42458,"is_reserved":false,"is_disabled":false,"rental_uris":{"android":"levelo://app?vid=a24a32a7-16c3-4f2e-aa0c-8c797de05498","ios":"levelo://app?vid=a24a32a7-16c3-4f2e-aa0c-8c797de05498"},"vehicle_type_id":"4","last_reported":1726211339,"current_range_meters":19200,"station_id":"ce4bhn92rcd13ifvqgrg","pricing_plan_id":"cebpf4jnsgd1na2vs0mg"},{"bike_id":"48d092ad-a333-47fc-807e-155c271c9095","system_id":"levelo_inurba_marseille","lat":43.24079,"lon":5.37753,"is_reserved":false,"is_disabled":false,"rental_uris":{"android":"levelo://app?vid=48d092ad-a333-47fc-807e-155c271c9095","ios":"levelo://app?vid=48d092ad-a333-47fc-807e-155c271c9095"},"vehicle_type_id":"4","last_reported":1726211339,"current_range_meters":30000,"station_id":"ce4bhnp2rcd13ifvqgvg","pricing_plan_id":"cebpf4jnsgd1na2vs0mg"},{"bike_id":"76088e27-c07e-42f3-b951-4021c657ea4d","system_id":"levelo_inurba_marseille","lat":43.28346,"lon":5.38102,"is_reserved":false,"is_disabled":false,"rental_uris":{"android":"levelo://app?vid=76088e27-c07e-42f3-b951-4021c657ea4d","ios":"levelo://app?vid=76088e27-c07e-42f3-b951-4021c657ea4d"},"vehicle_type_id":"4","last_reported":1726211339,"current_range_meters":23200,"station_id":"ce4bh412rcd13ifvqdr0","pricing_plan_id":"cebpf4jnsgd1na2vs0mg"},{"bike_id":"beed390f-5590-4e36-a920-552bcc39f2d8","system_id":"levelo_inurba_marseille","lat":43.30546,"lon":5.36545,"is_reserved":false,"is_disabled":false,"rental_uris":{"android":"levelo://app?vid=beed390f-5590-4e36-a920-552bcc39f2d8","ios":"levelo://app?vid=beed390f-5590-4e36-a920-552bcc39f2d8"},"vehicle_type_id":"4","last_reported":1726211339,"current_range_meters":38800,"station_id":"ce4bgs12rcd13ifvqcag","pricing_plan_id":"cebpf4jnsgd1na2vs0mg"},{"bike_id":"61e00977-be43-400f-99ea-3c33330f7657","system_id":"levelo_inurba_marseille","lat":43.25004,"lon":5.38915,"is_reserved":false,"is_disabled":false,"rental_uris":{"android":"levelo://app?vid=61e00977-be43-400f-99ea-3c33330f7657","ios":"levelo://app?vid=61e00977-be43-400f-99ea-3c33330f7657"},"vehicle_type_id":"4","last_reported":1726211339,"current_range_meters":26800,"station_id":"ce4bhgp2rcd13ifvqfd0","pricing_plan_id":"cebpf4jnsgd1na2vs0mg"},{"bike_id":"3286105a-ff42-4cdb-8a01-f2dcec295ec3","system_id":"levelo_inurba_marseille","lat":43.2407,"lon":5.37762,"is_reserved":false,"is_disabled":false,"rental_uris":{"android":"levelo://app?vid=3286105a-ff42-4cdb-8a01-f2dcec295ec3","ios":"levelo://app?vid=3286105a-ff42-4cdb-8a01-f2dcec295ec3"},"vehicle_type_id":"4","last_reported":1726211339,"current_range_meters":20800,"station_id":"ce4bhnp2rcd13ifvqgvg","pricing_plan_id":"cebpf4jnsgd1na2vs0mg"},{"bike_id":"244aeeda-27fc-4b45-94a3-af58d5f6bb1e","system_id":"levelo_inurba_marseille","lat":43.27497,"lon":5.42453,"is_reserved":false,"is_disabled":false,"rental_uris":{"android":"levelo://app?vid=244aeeda-27fc-4b45-94a3-af58d5f6bb1e","ios":"levelo://app?vid=244aeeda-27fc-4b45-94a3-af58d5f6bb1e"},"vehicle_type_id":"4","last_reported":1726211339,"current_range_meters":30400,"station_id":"ce4bhn92rcd13ifvqgrg","pricing_plan_id":"cebpf4jnsgd1na2vs0mg"},{"bike_id":"6f460960-ce1e-4b86-8066-4975ee77fdb2","system_id":"levelo_inurba_marseille","lat":43.3249,"lon":5.3656,"is_reserved":false,"is_disabled":false,"rental_uris":{"android":"levelo://app?vid=6f460960-ce1e-4b86-8066-4975ee77fdb2","ios":"levelo://app?vid=6f460960-ce1e-4b86-8066-4975ee77fdb2"},"vehicle_type_id":"4","last_reported":1726211339,"current_range_meters":6400,"station_id":"ce4bhs12rcd13ifvqhvg","pricing_plan_id":"cebpf4jnsgd1na2vs0mg"},{"bike_id":"5a1782e6-4f93-47be-9595-b9a4c593ed40","system_id":"levelo_inurba_marseille","lat":43.24088,"lon":5.37748,"is_reserved":false,"is_disabled":false,"rental_uris":{"android":"levelo://app?vid=5a1782e6-4f93-47be-9595-b9a4c593ed40","ios":"levelo://app?vid=5a1782e6-4f93-47be-9595-b9a4c593ed40"},"vehicle_type_id":"4","last_reported":1726211339,"current_range_meters":6400,"station_id":"ce4bhnp2rcd13ifvqgvg","pricing_plan_id":"cebpf4jnsgd1na2vs0mg"},{"bike_id":"682c9ee2-70a1-49c9-ba2e-5cb962b8a7c9","system_id":"levelo_inurba_marseille","lat":43.30607,"lon":5.37218,"is_reserved":false,"is_disabled":false,"rental_uris":{"android":"levelo://app?vid=682c9ee2-70a1-49c9-ba2e-5cb962b8a7c9","ios":"levelo://app?vid=682c9ee2-70a1-49c9-ba2e-5cb962b8a7c9"},"vehicle_type_id":"4","last_reported":1726211339,"current_range_meters":30800,"station_id":"ce4bgqh2rcd13ifvqc4g","pricing_plan_id":"cebpf4jnsgd1na2vs0mg"},{"bike_id":"a3520f5f-3103-4622-bc3c-d91a54f240eb","system_id":"levelo_inurba_marseille","lat":43.24552,"lon":5.39529,"is_reserved":false,"is_disabled":false,"rental_uris":{"android":"levelo://app?vid=a3520f5f-3103-4622-bc3c-d91a54f240eb","ios":"levelo://app?vid=a3520f5f-3103-4622-bc3c-d91a54f240eb"},"vehicle_type_id":"4","last_reported":1726211339,"current_range_meters":7200,"station_id":"ce4bhlp2rcd13ifvqgjg","pricing_plan_id":"cebpf4jnsgd1na2vs0mg"},{"bike_id":"68a92f23-359e-49cd-b3bb-1ed491ceb8ce","system_id":"levelo_inurba_marseille","lat":43.3375,"lon":5.37448,"is_reserved":false,"is_disabled":false,"rental_uris":{"android":"levelo://app?vid=68a92f23-359e-49cd-b3bb-1ed491ceb8ce","ios":"levelo://app?vid=68a92f23-359e-49cd-b3bb-1ed491ceb8ce"},"vehicle_type_id":"4","last_reported":1726211339,"current_range_meters":30000,"station_id":"","pricing_plan_id":"cebpf4jnsgd1na2vs0mg"},{"bike_id":"f693852a-8948-4696-aaad-b21d5bf42336","system_id":"levelo_inurba_marseille","lat":43.3015,"lon":5.38082,"is_reserved":false,"is_disabled":false,"rental_uris":{"android":"levelo://app?vid=f693852a-8948-4696-aaad-b21d5bf42336","ios":"levelo://app?vid=f693852a-8948-4696-aaad-b21d5bf42336"},"vehicle_type_id":"4","last_reported":1726211339,"current_range_meters":26800,"station_id":"ce4bgjp2rcd13ifvqbh0","pricing_plan_id":"cebpf4jnsgd1na2vs0mg"},{"bike_id":"cb6c815e-63a5-491d-989d-b5719408c6ea","system_id":"levelo_inurba_marseille","lat":43.26794,"lon":5.39404,"is_reserved":false,"is_disabled":false,"rental_uris":{"android":"levelo://app?vid=cb6c815e-63a5-491d-989d-b5719408c6ea","ios":"levelo://app?vid=cb6c815e-63a5-491d-989d-b5719408c6ea"},"vehicle_type_id":"4","last_reported":1726211339,"current_range_meters":10000,"station_id":"ce4bhh12rcd13ifvqfg0","pricing_plan_id":"cebpf4jnsgd1na2vs0mg"},{"bike_id":"1b7f12ab-d040-4727-8fe3-64351f98a9f6","system_id":"levelo_inurba_marseille","lat":43.3125,"lon":5.367944,"is_reserved":false,"is_disabled":false,"rental_uris":{"android":"levelo://app?vid=1b7f12ab-d040-4727-8fe3-64351f98a9f6","ios":"levelo://app?vid=1b7f12ab-d040-4727-8fe3-64351f98a9f6"},"vehicle_type_id":"4","last_reported":1726211339,"current_range_meters":12000,"station_id":"ce4bgr92rcd13ifvqc6g","pricing_plan_id":"cebpf4jnsgd1na2vs0mg"},