{"last_updated":1686870402,"ttl":30,"version":"2.2","data":{"bikes":[{"bike_id":"b31814f4-c247-41de-aba1-f777edc6184e","system_id":"levelo_inurba_marseille","lat":43.31341,"lon":5.367098,"is_reserved":false,"is_disabled":false,"rental_uris":{"android":"levelo://app?vid=b31814f4-c247-41de-aba1-f777edc6184e","ios":"levelo://app?vid=b31814f4-c247-41de-aba1-f777edc6184e"},"vehicle_type_id":"4","last_reported":1686870403,"current_range_meters":9600,"station_id":"ce4bgr92rcd13ifvqc6g","pricing_plan_id":"free"},{"bike_id":"a142fcc1-dd44-4e45-a4d3-f750f9811ffe","system_id":"levelo_inurba_marseille","lat":43.31226,"lon":5.36817,"is_reserved":false,"is_disabled":false,"rental_uris":{"android":"levelo://app?vid=a142fcc1-dd44-4e45-a4d3-f750f9811ffe","ios":"levelo://app?vid=a142fcc1-dd44-4e45-a4d3-f750f9811ffe"},"vehicle_type_id":"4","last_reported":1686870403,"current_range_meters":800,"station_id":"","pricing_plan_id":"free"},{"bike_id":"adef1745-816d-45d2-89e2-4ddabaab7dc6","system_id":"levelo_inurba_marseille","lat":43.312239,"lon":5.368562,"is_reserved":false,"is_disabled":false,"rental_uris":{"android":"levelo://app?vid=adef1745-816d-45d2-89e2-4ddabaab7dc6","ios":"levelo://app?vid=adef1745-816d-45d2-89e2-4ddabaab7dc6"},"vehicle_type_id":"4","last_reported":1686870403,"current_range_meters":28800,"station_id":"ce4bgl92rcd13ifvqbq0","pricing_plan_id":"free"},{"bike_id":"9b0c0ed0-5f71-4f91-a3fb-fcd988a84b25","system_id":"levelo_inurba_marseille","lat":43.312239,"lon":5.368562,"is_reserved":false,"is_disabled":false,"rental_uris":{"android":"levelo://app?vid=9b0c0ed0-5f71-4f91-a3fb-fcd988a84b25","ios":"levelo://app?vid=9b0c0ed0-5f71-4f91-a3fb-fcd988a84b25"},"vehicle_type_id":"4","last_reported":1686870403,"current_range_meters":17200,"station_id":"ce4bgl92rcd13ifvqbq0","pricing_plan_id":"free"},{"bike_id":"dd90b398-1dbe-4262-8d3c-67bfd11429c2","system_id":"levelo_inurba_marseille","lat":43.30894,"lon":5.37188,"is_reserved":false,"is_disabled":false,"rental_uris":{"android":"levelo://app?vid=dd90b398-1dbe-4262-8d3c-67bfd11429c2","ios":"levelo://app?vid=dd90b398-1dbe-4262-8d3c-67bfd11429c2"},"vehicle_type_id":"4","last_reported":1686870403,"current_range_meters":4000,"station_id":"","pricing_plan_id":"free"},{"bike_id":"1c636683-fe61-4c14-a7ef-11a158c4cca8","system_id":"levelo_inurba_marseille","lat":43.308614,"lon":5.372098,"is_reserved":false,"is_disabled":false,"rental_uris":{"android":"levelo://app?vid=1c636683-fe61-4c14-a7ef-11a158c4cca8","ios":"levelo://app?vid=1c636683-fe61-4c14-a7ef-11a158c4cca8"},"vehicle_type_id":"4","last_reported":1686870403,"current_range_meters":0,"station_id":"ce4bguh2rcd13ifvqckg","pricing_plan_id":"free"},{"bike_id":"ca207050-e72c-4a8f-8387-c7fc7ae87adc","system_id":"levelo_inurba_marseille","lat":43.305714,"lon":5.365633,"is_reserved":false,"is_disabled":false,"rental_uris":{"android":"levelo://app?vid=ca207050-e72c-4a8f-8387-c7fc7ae87adc","ios":"levelo://app?vid=ca207050-e72c-4a8f-8387-c7fc7ae87adc"},"vehicle_type_id":"4","last_reported":1686870403,"current_range_meters":8000,"station_id":"ce4bgs12rcd13ifvqcag","pricing_plan_id":"free"},{"bike_id":"aec72f3e-39fe-4a76-868e-4879c85266cd","system_id":"levelo_inurba_marseille","lat":43.305714,"lon":5.365633,"is_reserved":false,"is_disabled":false,"rental_uris":{"android":"levelo://app?vid=aec72f3e-39fe-4a76-868e-4879c85266cd","ios":"levelo://app?vid=aec72f3e-39fe-4a76-868e-4879c85266cd"},"vehicle_type_id":"4","last_reported":1686870403,"current_range_meters":12800,"station_id":"ce4bgs12rcd13ifvqcag","pricing_plan_id":"free"},{"bike_id":"3292a0b5-e4d8-40f6-bf2f-ae13616888fb","system_id":"levelo_inurba_marseille","lat":43.305368,"lon":5.367343,"is_reserved":false,"is_disabled":false,"rental_uris":{"android":"levelo://app?vid=3292a0b5-e4d8-40f6-bf2f-ae13616888fb","ios":"levelo://app?vid=3292a0b5-e4d8-40f6-bf2f-ae13616888fb"},"vehicle_type_id":"4","last_reported":1686870403,"current_range_meters":31200,"station_id":"ce4bgrp2rcd13ifvqc9g","pricing_plan_id":"free"},{"bike_id":"270c4965-4372-486b-a721-1075517359ae","system_id":"levelo_inurba_marseille","lat":43.317075,"lon":5.377367,"is_reserved":false,"is_disabled":false,"rental_uris":{"android":"levelo://app?vid=270c4965-4372-486b-a721-1075517359ae","ios":"levelo://app?vid=270c4965-4372-486b-a721-1075517359ae"},"vehicle_type_id":"4","last_reported":1686870403,"current_range_meters":10400,"station_id":"ce4bgth2rcd13ifvqch0","pricing_plan_id":"free"},{"bike_id":"2424216c-0462-4ad0-b127-d0366c91b61c","system_id":"levelo_inurba_marseille","lat":43.317075,"lon":5.377367,"is_reserved":false,"is_disabled":false,"rental_uris":{"android":"levelo://app?vid=2424216c-0462-4ad0-b127-d0366c91b61c","ios":"levelo://app?vid=2424216c-0462-4ad0-b127-d0366c91b61c"},"vehicle_type_id":"4","last_reported":1686870403,"current_range_meters":31600,"station_id":"ce4bgth2rcd13ifvqch0","pricing_plan_id":"free"},{"bike_id":"eeb5764e-c48c-4e48-b63d-b4252bde3605","system_id":"levelo_inurba_marseille","lat":43.317075,"lon":5.377367,"is_reserved":false,"is_disabled":false,"rental_uris":{"android":"levelo://app?vid=eeb5764e-c48c-4e48-b63d-b4252bde3605","ios":"levelo://app?vid=eeb5764e-c48c-4e48-b63d-b4252bde3605"},"vehicle_type_id":"4","last_reported":1686870403,"current_range_meters":30000,"station_id":"ce4bgth2rcd13ifvqch0","pricing_plan_id":"free"},{"bike_id":"9373f49a-c76c-48e9-9269-a34172ff3d05","system_id":"levelo_inurba_marseille","lat":43.303046,"lon":5.368981,"is_reserved":false,"is_disabled":false,"rental_uris":{"android":"levelo://app?vid=9373f49a-c76c-48e9-9269-a34172ff3d05","ios":"levelo://app?vid=9373f49a-c76c-48e9-9269-a34172ff3d05"},"vehicle_type_id":"4","last_reported":1686870403,"current_range_meters":18400,"station_id":"ce4bgqh2rcd13ifvqc5g","pricing_plan_id":"free"},{"bike_id":"1e6820bc-95d5-4047-89ae-5930b26c6412","system_id":"levelo_inurba_marseille","lat":43.303046,"lon":5.368981,"is_reserved":false,"is_disabled":false,"rental_uris":{"android":"levelo://app?vid=1e6820bc-95d5-4047-89ae-5930b26c6412","ios":"levelo://app?vid=1e6820bc-95d5-4047-89ae-5930b26c6412"},"vehicle_type_id":"4","last_reported":1686870403,"current_range_meters":10800,"station_id":"ce4bgqh2rcd13ifvqc5g","pricing_plan_id":"free"},{"bike_id":"e0491b37-684a-4998-bf76-acd7f0cc93fe","system_id":"levelo_inurba_marseille","lat":43.303046,"lon":5.368981,"is_reserved":false,"is_disabled":false,"rental_uris":{"android":"levelo://app?vid=e0491b37-684a-4998-bf76-acd7f0cc93fe","ios":"levelo://app?vid=e0491b37-684a-4998-bf76-acd7f0cc93fe"},"vehicle_type_id":"4","last_reported":1686870403,"current_range_meters":800,"station_id":"ce4bgqh2rcd13ifvqc5g","pricing_plan_id":"free"},{"bike_id":"7170a570-a6d0-47c4-aa28-4d171ddf30d1","system_id":"levelo_inurba_marseille","lat":43.315293,"lon":5.380349,"is_reserved":false,"is_disabled":false,"rental_uris":{"android":"levelo://app?vid=7170a570-a6d0-47c4-aa28-4d171ddf30d1","ios":"levelo://app?vid=7170a570-a6d0-47c4-aa28-4d171ddf30d1"},"vehicle_type_id":"4","last_reported":1686870403,"current_range_meters":16000,"station_id":"ce4bhsp2rcd13ifvqi50","pricing_plan_id":"free"},{"bike_id":"d615bec8-d16a-4c36-8850-371d4102df2f","system_id":"levelo_inurba_marseille","lat":43.315289,"lon":5.380349,"is_reserved":false,"is_disabled":false,"rental_uris":{"android":"levelo://app?vid=d615bec8-d16a-4c36-8850-371d4102df2f","ios":"levelo://app?vid=d615bec8-d16a-4c36-8850-371d4102df2f"},"vehicle_type_id":"4","last_reported":1686870403,"current_range_meters":31200,"station_id":"ce4bhsp2rcd13ifvqi50","pricing_plan_id":"free"},{"bike_id":"5ae2b31b-5738-4c93-a2fb-64e8edbc4b55","system_id":"levelo_inurba_marseille","lat":43.315289,"lon":5.380349,"is_reserved":false,"is_disabled":false,"rental_uris":{"android":"levelo://app?vid=5ae2b31b-5738-4c93-a2fb-64e8edbc4b55","ios":"levelo://app?vid=5ae2b31b-5738-4c93-a2fb-64e8edbc4b55"},"vehicle_type_id":"4","last_reported":1686870403,"current_range_meters":6000,"station_id":"ce4bhsp2rcd13ifvqi50","pricing_plan_id":"free"},{"bike_id":"df547573-eb08-4cca-a308-b38dcac13e1a","system_id":"levelo_inurba_marseille","lat":43.315289,"lon":5.380349,"is_reserved":false,"is_disabled":false,"rental_uris":{"android":"levelo://app?vid=df547573-eb08-4cca-a308-b38dcac13e1a","ios":"levelo://app?vid=df547573-eb08-4cca-a308-b38dcac13e1a"},"vehicle_type_id":"4","last_reported":1686870403,"current_range_meters":7600,"station_id":"ce4bhsp2rcd13ifvqi50","pricing_plan_id":"free"},{"bike_id":"cd8b6958-c31a-4a9d-8c48-cf838953f3b1","system_id":"levelo_inurba_marseille","lat":43.315289,"lon":5.380349,"is_reserved":false,"is_disabled":false,"rental_uris":{"android":"levelo://app?vid=cd8b6958-c31a-4a9d-8c48-cf838953f3b1","ios":"levelo://app?vid=cd8b6958-c31a-4a9d-8c48-cf838953f3b1"},"vehicle_type_id":"4","last_reported":1686870403,"current_range_meters":30400,"station_id":"ce4bhsp2rcd13ifvqi50","pricing_plan_id":"free"},{"bike_id":"ae33307b-fcd5-479b-9ae1-9002ed226c6e","system_id":"levelo_inurba_marseille","lat":43.308012,"lon":5.381511,"is_reserved":false,"is_disabled":false,"rental_uris":{"android":"levelo://app?vid=ae33307b-fcd5-479b-9ae1-9002ed226c6e","ios":"levelo://app?vid=ae33307b-fcd5-479b-9ae1-9002ed226c6e"},"vehicle_type_id":"4","last_reported":1686870403,"current_range_meters":18000,"station_id":"ce4bgt12rcd13ifvqce0","pricing_plan_id":"free"},{"bike_id":"4dd98c01-6678-4bd3-94e4-38a28d70a593","system_id":"levelo_inurba_marseille","lat":43.308012,"lon":5.381511,"is_reserved":false,"is_disabled":false,"rental_uris":{"android":"levelo://app?vid=4dd98c01-6678-4bd3-94e4-38a28d70a593","ios":"levelo://app?vid=4dd98c01-6678-4bd3-94e4-38a28d70a593"},"vehicle_type_id":"4","last_reported":1686870403,"current_range_meters":24000,"station_id":"ce4bgt12rcd13ifvqce0","pricing_plan_id":"free"},{"bike_id":"1bba4ef7-d8c2-40ec-9e77-981fe995b1fa","system_id":"levelo_inurba_marseille","lat":43.308012,"lon":5.381511,"is_reserved":false,"is_disabled":false,"rental_uris":{"android":"levelo://app?vid=1bba4ef7-d8c2-40ec-9e77-981fe995b1fa","ios":"levelo://app?vid=1bba4ef7-d8c2-40ec-9e77-981fe995b1fa"},"vehicle_type_id":"4","last_reported":1686870403,"current_range_meters":26000,"station_id":"ce4bgt12rcd13ifvqce0","pricing_plan_id":"free"},{"bike_id":"32827146-2d6b-4fb1-b00e-6b2f535ca544","system_id":"levelo_inurba_marseille","lat":43.304606,"lon":5.379026,"is_reserved":false,"is_disabled":false,"rental_uris":{"android":"levelo://app?vid=32827146-2d6b-4fb1-b00e-6b2f535ca544","ios":"levelo://app?vid=32827146-2d6b-4fb1-b00e-6b2f535ca544"},"vehicle_type_id":"4","last_reported":1686870403,"current_range_meters":31200,"station_id":"ce4bgup2rcd13ifvqcn0","pricing_plan_id":"free"},{"bike_id":"fc4a69da-5dee-4c68-8631-20ee11bc487b","system_id":"levelo_inurba_marseille","lat":43.304606,"lon":5.379026,"is_reserved":false,"is_disabled":false,"rental_uris":{"android":"levelo://app?vid=fc4a69da-5dee-4c68-8631-20ee11bc487b","ios":"levelo://app?vid=fc4a69da-5dee-4c68-8631-20ee11bc487b"},"vehicle_type_id":"4","last_reported":1686870403,"current_range_meters":31200,"station_id":"ce4bgup2rcd13ifvqcn0","pricing_plan_id":"free"},{"bike_id":"14a08899-349d-4c49-bd20-7204a0b2cd69","system_id":"levelo_inurba_marseille","lat":43.319935,"lon":5.381699,"is_reserved":false,"is_disabled":false,"rental_uris":{"android":"levelo://app?vid=14a08899-349d-4c49-bd20-7204a0b2cd69","ios":"levelo://app?vid=14a08899-349d-4c49-bd20-7204a0b2cd69"},"vehicle_type_id":"4","last_reported":1686870403,"current_range_meters":7200,"station_id":"ce4bhr12rcd13ifvqhpg","pricing_plan_id":"free"},{"bike_id":"7917de1b-4403-4a43-b30b-52ac43236b65","system_id":"levelo_inurba_marseille","lat":43.319935,"lon":5.381699,"is_reserved":false,"is_disabled":false,"rental_uris":{"android":"levelo://app?vid=7917de1b-4403-4a43-b30b-52ac43236b65","ios":"levelo://app?vid=7917de1b-4403-4a43-b30b-52ac43236b65"},"vehicle_type_id":"4","last_reported":1686870403,"current_range_meters":8800,"station_id":"ce4bhr12rcd13ifvqhpg","pricing_plan_id":"free"},{"bike_id":"c362f0e8-0431-494c-8f4e-329091583422","system_id":"levelo_inurba_marseille","lat":43.319935,"lon":5.381699,"is_reserved":false,"is_disabled":false,"rental_uris":{"android":"levelo://app?vid=c362f0e8-0431-494c-8f4e-329091583422","ios":"levelo://app?vid=c362f0e8-0431-494c-8f4e-329091583422"},"vehicle_type_id":"4","last_reported":1686870403,"current_range_meters":27200,"station_id":"ce4bhr12rcd13ifvqhpg","pricing_plan_id":"free"},{"bike_id":"9f66c586-36b8-410b-a384-4314decc6f7e","system_id":"levelo_inurba_marseille","lat":43.31994,"lon":5.38157,"is_reserved":false,"is_disabled":false,"rental_uris":{"android":"levelo://app?vid=9f66c586-36b8-410b-a384-4314decc6f7e","ios":"levelo://app?vid=9f66c586-36b8-410b-a384-4314decc6f7e"},"vehicle_type_id":"4","last_reported":1686870403,"current_range_meters":0,"station_id":"ce4bhr12rcd13ifvqhpg","pricing_plan_id":"free"},{"bike_id":"7327afa7-2fad-4a01-aeb9-a9d14bfbe769","system_id":"levelo_inurba_marseille","lat":43.319935,"lon":5.381699,"is_reserved":false,"is_disabled":false,"rental_uris":{"android":"levelo://app?vid=7327afa7-2fad-4a01-aeb9-a9d14bfbe769","ios":"levelo://app?vid=7327afa7-2fad-4a01-aeb9-a9d14bfbe769"},"vehicle_type_id":"4","last_reported":1686870403,"current_range_meters":14000,"station_id":"ce4bhr12rcd13ifvqhpg","pricing_plan_id":"free"},{"bike_id":"129465bc-f075-4ddd-8c4f-689abfa73175","system_id":"levelo_inurba_marseille","lat":43.319935,"lon":5.381699,"is_reserved":false,"is_disabled":false,"rental_uris":{"android":"levelo://app?vid=129465bc-f075-4ddd-8c4f-689abfa73175","ios":"levelo://app?vid=129465bc-f075-4ddd-8c4f-689abfa73175"},"vehicle_type_id":"4","last_reported":1686870403,"current_range_meters":0,"station_id":"ce4bhr12rcd13ifvqhpg","pricing_plan_id":"free"},{"bike_id":"973279cd-48b3-4da5-b019-6bde256ffa58","system_id":"levelo_inurba_marseille","lat":43.32009,"lon":5.38168,"is_reserved":false,"is_disabled":false,"rental_uris":{"android":"levelo://app?vid=973279cd-48b3-4da5-b019-6bde256ffa58","ios":"levelo://app?vid=973279cd-48b3-4da5-b019-6bde256ffa58"},"vehicle_type_id":"4","last_reported":1686870403,"current_range_meters":7600,"station_id":"ce4bhr12rcd13ifvqhpg","pricing_plan_id":"free"},{"bike_id":"2e33461f-dc2b-4d22-b759-51070afb30d5","system_id":"levelo_inurba_marseille","lat":43.299209,"lon":5.365547,"is_reserved":false,"is_disabled":false,"rental_uris":{"android":"levelo://app?vid=2e33461f-dc2b-4d22-b759-51070afb30d5","ios":"levelo://app?vid=2e33461f-dc2b-4d22-b759-51070afb30d5"},"vehicle_type_id":"4","last_reported":1686870403,"current_range_meters":17200,"station_id":"ce4bgm92rcd13ifvqbr0","pricing_plan_id":"free"},{"bike_id":"fa564a0c-8c66-4b95-a0fc-bbbe60ca563f","system_id":"levelo_inurba_marseille","lat":43.299243,"lon":5.37481,"is_reserved":false,"is_disabled":false,"rental_uris":{"android":"levelo://app?vid=fa564a0c-8c66-4b95-a0fc-bbbe60ca563f","ios":"levelo://app?vid=fa564a0c-8c66-4b95-a0fc-bbbe60ca563f"},"vehicle_type_id":"4","last_reported":1686870403,"current_range_meters":3200,"station_id":"ce4bgjh2rcd13ifvqbg0","pricing_plan_id":"free"},{"bike_id":"9c71d63d-b897-4d9b-9972-6521f350acf2","system_id":"levelo_inurba_marseille","lat":43.311722,"lon":5.387247,"is_reserved":false,"is_disabled":false,"rental_uris":{"android":"levelo://app?vid=9c71d63d-b897-4d9b-9972-6521f350acf2","ios":"levelo://app?vid=9c71d63d-b897-4d9b-9972-6521f350acf2"},"vehicle_type_id":"4","last_reported":1686870403,"current_range_meters":9600,"station_id":"ce4bgv12rcd13ifvqcp0","pricing_plan_id":"free"},{"bike_id":"702f3e3d-6bea-4416-a5ff-54d90b840ead","system_id":"levelo_inurba_marseille","lat":43.311722,"lon":5.387247,"is_reserved":false,"is_disabled":false,"rental_uris":{"android":"levelo://app?vid=702f3e3d-6bea-4416-a5ff-54d90b840ead","ios":"levelo://app?vid=702f3e3d-6bea-4416-a5ff-54d90b840ead"},"vehicle_type_id":"4","last_reported":1686870403,"current_range_meters":21600,"station_id":"ce4bgv12rcd13ifvqcp0","pricing_plan_id":"free"},{"bike_id":"6c139935-50f0-4a19-8f9a-1527e7d2732d","system_id":"levelo_inurba_marseille","lat":43.311722,"lon":5.387247,"is_reserved":false,"is_disabled":false,"rental_uris":{"android":"levelo://app?vid=6c139935-50f0-4a19-8f9a-1527e7d2732d","ios":"levelo://app?vid=6c139935-50f0-4a19-8f9a-1527e7d2732d"},"vehicle_type_id":"4","last_reported":1686870403,"current_range_meters":11200,"station_id":"ce4bgv12rcd13ifvqcp0","pricing_plan_id":"free"},{"bike_id":"e86261d5-6956-4f73-b101-d8250e26a8af","system_id":"levelo_inurba_marseille","lat":43.311722,"lon":5.387247,"is_reserved":false,"is_disabled":false,"rental_uris":{"android":"levelo://app?vid=e86261d5-6956-4f73-b101-d8250e26a8af","ios":"levelo://app?vid=e86261d5-6956-4f73-b101-d8250e26a8af"},"vehicle_type_id":"4","last_reported":1686870403,"current_range_meters":19200,"station_id":"ce4bgv12rcd13ifvqcp0","pricing_plan_id":"free"},{"bike_id":"2c9c1edb-398d-4c3e-8a4f-f2a9f2023577","system_id":"levelo_inurba_marseille","lat":43.311722,"lon":5.387247,"is_reserved":false,"is_disabled":false,"rental_uris":{"android":"levelo://app?vid=2c9c1edb-398d-4c3e-8a4f-f2a9f2023577","ios":"levelo://app?vid=2c9c1edb-398d-4c3e-8a4f-f2a9f2023577"},"vehicle_type_id":"4","last_reported":1686870403,"current_range_meters":11600,"station_id":"ce4bgv12rcd13ifvqcp0","pricing_plan_id":"free"},{"bike_id":"c192a1d3-1bef-4374-82bd-6f855d9f69e6","system_id":"levelo_inurba_marseille","lat":43.311722,"lon":5.387247,"is_reserved":false,"is_disabled":false,"rental_uris":{"android":"levelo://app?vid=c192a1d3-1bef-4374-82bd-6f855d9f69e6","ios":"levelo://app?vid=c192a1d3-1bef-4374-82bd-6f855d9f69e6"},"vehicle_type_id":"4","last_reported":1686870403,"current_range_meters":1200,"station_id":"ce4bgv12rcd13ifvqcp0","pricing_plan_id":"free"},{"bike_id":"55ed4837-c367-413a-8ede-340840901315","system_id":"levelo_inurba_marseille","lat":43.311722,"lon":5.387247,"is_reserved":false,"is_disabled":false,"rental_uris":{"android":"levelo://app?vid=55ed4837-c367-413a-8ede-340840901315","ios":"levelo://app?vid=55ed4837-c367-413a-8ede-340840901315"},"vehicle_type_id":"4","last_reported":1686870403,"current_range_meters":24400,"station_id":"ce4bgv12rcd13ifvqcp0","pricing_plan_id":"free"},{"bike_id":"541a18c9-7298-4513-bed2-18f45cd6b093","system_id":"levelo_inurba_marseille","lat":43.297794,"lon":5.370888,"is_reserved":false,"is_disabled":false,"rental_uris":{"android":"levelo://app?vid=541a18c9-7298-4513-bed2-18f45cd6b093","ios":"levelo://app?vid=541a18c9-7298-4513-bed2-18f45cd6b093"},"vehicle_type_id":"4","last_reported":1686870403,"current_range_meters":28800,"station_id":"ce4bgop2rcd13ifvqc1g","pricing_plan_id":"free"},{"bike_id":"91f14324-842b-403f-9f71-8e7444a5505e","system_id":"levelo_inurba_marseille","lat":43.297794,"lon":5.370888,"is_reserved":false,"is_disabled":false,"rental_uris":{"android":"levelo://app?vid=91f14324-842b-403f-9f71-8e7444a5505e","ios":"levelo://app?vid=91f14324-842b-403f-9f71-8e7444a5505e"},"vehicle_type_id":"4","last_reported":1686870403,"current_range_meters":31200,"station_id":"ce4bgop2rcd13ifvqc1g","pricing_plan_id":"free"},{"bike_id":"05dd1fcf-0a4e-4072-b72d-431740c0357f","system_id":"levelo_inurba_marseille","lat":43.297794,"lon":5.370888,"is_reserved":false,"is_disabled":false,"rental_uris":{"android":"levelo://app?vid=05dd1fcf-0a4e-4072-b72d-431740c0357f","ios":"levelo://app?vid=05dd1fcf-0a4e-4072-b72d-431740c0357f"},"vehicle_type_id":"4","last_reported":1686870403,"current_range_meters":31200,"station_id":"ce4bgop2rcd13ifvqc1g","pricing_plan_id":"free"},{"bike_id":"455411d1-a881-4ec5-b13f-0423d0db6dbe","system_id":"levelo_inurba_marseille","lat":43.297774,"lon":5.370875,"is_reserved":false,"is_disabled":false,"rental_uris":{"android":"levelo://app?vid=455411d1-a881-4ec5-b13f-0423d0db6dbe","ios":"levelo://app?vid=455411d1-a881-4ec5-b13f-0423d0db6dbe"},"vehicle_type_id":"4","last_reported":1686870403,"current_range_meters":31200,"station_id":"ce4bgop2rcd13ifvqc1g","pricing_plan_id":"free"},{"bike_id":"8015994a-a461-420b-8246-d135762abf06","system_id":"levelo_inurba_marseille","lat":43.32827,"lon":5.36694,"is_reserved":false,"is_disabled":false,"rental_uris":{"android":"levelo://app?vid=8015994a-a461-420b-8246-d135762abf06","ios":"levelo://app?vid=8015994a-a461-420b-8246-d135762abf06"},"vehicle_type_id":"4","last_reported":1686870403,"current_range_meters":2800,"station_id":"ce4bhs92rcd13ifvqi0g","pricing_plan_id":"free"},{"bike_id":"31ef9166-d9cf-46df-84f8-4d7b62fdc9fb","system_id":"levelo_inurba_marseille","lat":43.328371,"lon":5.366912,"is_reserved":false,"is_disabled":false,"rental_uris":{"android":"levelo://app?vid=31ef9166-d9cf-46df-84f8-4d7b62fdc9fb","ios":"levelo://app?vid=31ef9166-d9cf-46df-84f8-4d7b62fdc9fb"},"vehicle_type_id":"4","last_reported":1686870403,"current_range_meters":23600,"station_id":"ce4bhs92rcd13ifvqi0g","pricing_plan_id":"free"},{"bike_id":"1ea12a67-ede4-4ff8-a101-50b723846867","system_id":"levelo_inurba_marseille","lat":43.29705,"lon":5.36593,"is_reserved":false,"is_disabled":false,"rental_uris":{"android":"levelo://app?vid=1ea12a67-ede4-4ff8-a101-50b723846867","ios":"levelo://app?vid=1ea12a67-ede4-4ff8-a101-50b723846867"},"vehicle_type_id":"4","last_reported":1686870403,"current_range_meters":22400,"station_id":"","pricing_plan_id":"free"},{"bike_id":"88d0330c-5bb0-4a19-9b65-d4683b42e015","system_id":"levelo_inurba_marseille","lat":43.29683,"lon":5.36046,"is_reserved":false,"is_disabled":false,"rental_uris":{"android":"levelo://app?vid=88d0330c-5bb0-4a19-9b65-d4683b42e015","ios":"levelo://app?vid=88d0330c-5bb0-4a19-9b65-d4683b42e015"},"vehicle_type_id":"4","last_reported":1686870403,"current_range_meters":12400,"station_id":"ce4bgpp2rcd13ifvqc3g","pricing_plan_id":"free"},{"bike_id":"113d8f7e-ffd1-4394-aaba-49ba04306712","system_id":"levelo_inurba_marseille","lat":43.317557,"lon":5.390173,"is_reserved":false,"is_disabled":false,"rental_uris":{"android":"levelo://app?vid=113d8f7e-ffd1-4394-aaba-49ba04306712","ios":"levelo://app?vid=113d8f7e-ffd1-4394-aaba-49ba04306712"},"vehicle_type_id":"4","last_reported":1686870403,"current_range_meters":14000,"station_id":"ce4bhqp2rcd13ifvqhng","pricing_plan_id":"free"},{"bike_id":"1911e093-d8d6-46bd-9f70-1bed64e4c4f8","system_id":"levelo_inurba_marseille","lat":43.317557,"lon":5.390173,"is_reserved":false,"is_disabled":false,"rental_uris":{"android":"levelo://app?vid=1911e093-d8d6-46bd-9f70-1bed64e4c4f8","ios":"levelo://app?vid=1911e093-d8d6-46bd-9f70-1bed64e4c4f8"},"vehicle_type_id":"4","last_reported":1686870403,"current_range_meters":20800,"station_id":"ce4bhqp2rcd13ifvqhng","pricing_plan_id":"free"},{"bike_id":"ca0ef5eb-8bb2-4f91-83b6-3c573a28c588","system_id":"levelo_inurba_marseille","lat":43.317557,"lon":5.390173,"is_reserved":false,"is_disabled":false,"rental_uris":{"android":"levelo://app?vid=ca0ef5eb-8bb2-4f91-83b6-3c573a28c588","ios":"levelo://app?vid=ca0ef5eb-8bb2-4f91-83b6-3c573a28c588"},"vehicle_type_id":"4","last_reported":1686870403,"current_range_meters":26000,"station_id":"ce4bhqp2rcd13ifvqhng","pricing_plan_id":"free"},{"bike_id":"0a81dd22-07ed-4f98-a92f-01f059a69dca","system_id":"levelo_inurba_marseille","lat":43.30432,"lon":5.38881,"is_reserved":false,"is_disabled":false,"rental_uris":{"android":"levelo://app?vid=0a81dd22-07ed-4f98-a92f-01f059a69dca","ios":"levelo://app?vid=0a81dd22-07ed-4f98-a92f-01f059a69dca"},"vehicle_type_id":"4","last_reported":1686870403,"current_range_meters":19200,"station_id":"ce4bgk12rcd13ifvqbi0","pricing_plan_id":"free"},{"bike_id":"c94656f9-f64f-420b-95cf-b397deb065da","system_id":"levelo_inurba_marseille","lat":43.299703,"lon":5.384744,"is_reserved":false,"is_disabled":false,"rental_uris":{"android":"levelo://app?vid=c94656f9-f64f-420b-95cf-b397deb065da","ios":"levelo://app?vid=c94656f9-f64f-420b-95cf-b397deb065da"},"vehicle_type_id":"4","last_reported":1686870403,"current_range_meters":0,"station_id":"ce4bgj92rcd13ifvqbd0","pricing_plan_id":"free"},{"bike_id":"d607c2de-4233-42d6-8650-e226c8558c4b","system_id":"levelo_inurba_marseille","lat":43.295279,"lon":5.375048,"is_reserved":false,"is_disabled":false,"rental_uris":{"android":"levelo://app?vid=d607c2de-4233-42d6-8650-e226c8558c4b","ios":"levelo://app?vid=d607c2de-4233-42d6-8650-e226c8558c4b"},"vehicle_type_id":"4","last_reported":1686870403,"current_range_meters":22800,"station_id":"ce4bgkp2rcd13ifvqbmg","pricing_plan_id":"free"},{"bike_id":"4e91ec34-5f40-40d9-822b-7cbc23e0bc3d","system_id":"levelo_inurba_marseille","lat":43.299724,"lon":5.384848,"is_reserved":false,"is_disabled":false,"rental_uris":{"android":"levelo://app?vid=4e91ec34-5f40-40d9-822b-7cbc23e0bc3d","ios":"levelo://app?vid=4e91ec34-5f40-40d9-822b-7cbc23e0bc3d"},"vehicle_type_id":"4","last_reported":1686870403,"current_range_meters":1600,"station_id":"ce4bgj92rcd13ifvqbd0","pricing_plan_id":"free"},{"bike_id":"7d20d4af-4863-4cd8-8680-b63c04e66e8e","system_id":"levelo_inurba_marseille","lat":43.295279,"lon":5.375048,"is_reserved":false,"is_disabled":false,"rental_uris":{"android":"levelo://app?vid=7d20d4af-4863-4cd8-8680-b63c04e66e8e","ios":"levelo://app?vid=7d20d4af-4863-4cd8-8680-b63c04e66e8e"},"vehicle_type_id":"4","last_reported":1686870403,"current_range_meters":21200,"station_id":"ce4bgkp2rcd13ifvqbmg","pricing_plan_id":"free"},{"bike_id":"1c88d8f9-32ce-4cc2-9f72-0df2b5eb49d3","system_id":"levelo_inurba_marseille","lat":43.295279,"lon":5.375048,"is_reserved":false,"is_disabled":false,"rental_uris":{"android":"levelo://app?vid=1c88d8f9-32ce-4cc2-9f72-0df2b5eb49d3","ios":"levelo://app?vid=1c88d8f9-32ce-4cc2-9f72-0df2b5eb49d3"},"vehicle_type_id":"4","last_reported":1686870403,"current_range_meters":25600,"station_id":"ce4bgkp2rcd13ifvqbmg","pricing_plan_id":"free"},{"bike_id":"78215555-c896-40a2-aa66-c1d318a07622","system_id":"levelo_inurba_marseille","lat":43.32367,"lon":5.388836,"is_reserved":false,"is_disabled":false,"rental_uris":{"android":"levelo://app?vid=78215555-c896-40a2-aa66-c1d318a07622","ios":"levelo://app?vid=78215555-c896-40a2-aa66-c1d318a07622"},"vehicle_type_id":"4","last_reported":1686870403,"current_range_meters":13600,"station_id":"ce4bhqp2rcd13ifvqhog","pricing_plan_id":"free"},{"bike_id":"4e609ef0-2e17-4e6c-ba3b-29daedaa2e8a","system_id":"levelo_inurba_marseille","lat":43.32367,"lon":5.388836,"is_reserved":false,"is_disabled":false,"rental_uris":{"android":"levelo://app?vid=4e609ef0-2e17-4e6c-ba3b-29daedaa2e8a","ios":"levelo://app?vid=4e609ef0-2e17-4e6c-ba3b-29daedaa2e8a"},"vehicle_type_id":"4","last_reported":1686870403,"current_range_meters":22400,"station_id":"ce4bhqp2rcd13ifvqhog","pricing_plan_id":"free"},{"bike_id":"2c9ad911-25e0-4222-8751-d809dfadd582","system_id":"levelo_inurba_marseille","lat":43.32367,"lon":5.388836,"is_reserved":false,"is_disabled":false,"rental_uris":{"android":"levelo://app?vid=2c9ad911-25e0-4222-8751-d809dfadd582","ios":"levelo://app?vid=2c9ad911-25e0-4222-8751-d809dfadd582"},"vehicle_type_id":"4","last_reported":1686870403,"current_range_meters":9200,"station_id":"ce4bhqp2rcd13ifvqhog","pricing_plan_id":"free"},{"bike_id":"71deb49d-5864-4461-882a-e14e759319e0","system_id":"levelo_inurba_marseille","lat":43.32367,"lon":5.388836,"is_reserved":false,"is_disabled":false,"rental_uris":{"android":"levelo://app?vid=71deb49d-5864-4461-882a-e14e759319e0","ios":"levelo://app?vid=71deb49d-5864-4461-882a-e14e759319e0"},"vehicle_type_id":"4","last_reported":1686870403,"current_range_meters":7600,"station_id":"ce4bhqp2rcd13ifvqhog","pricing_plan_id":"free"},{"bike_id":"c153f200-368f-49ef-9cf0-3bef515e633e","system_id":"levelo_inurba_marseille","lat":43.32367,"lon":5.388836,"is_reserved":false,"is_disabled":false,"rental_uris":{"android":"levelo://app?vid=c153f200-368f-49ef-9cf0-3bef515e633e","ios":"levelo://app?vid=c153f200-368f-49ef-9cf0-3bef515e633e"},"vehicle_type_id":"4","last_reported":1686870403,"current_range_meters":31200,"station_id":"ce4bhqp2rcd13ifvqhog","pricing_plan_id":"free"},{"bike_id":"20a5b24d-b520-42df-8ac4-5a606a1b7de6","system_id":"levelo_inurba_marseille","lat":43.32367,"lon":5.388836,"is_reserved":false,"is_disabled":false,"rental_uris":{"android":"levelo://app?vid=20a5b24d-b520-42df-8ac4-5a606a1b7de6","ios":"levelo://app?vid=20a5b24d-b520-42df-8ac4-5a606a1b7de6"},"vehicle_type_id":"4","last_reported":1686870403,"current_range_meters":12800,"station_id":"ce4bhqp2rcd13ifvqhog","pricing_plan_id":"free"},{"bike_id":"206f83f1-b2c8-4c1d-9cd9-7f9571c502a7","system_id":"levelo_inurba_marseille","lat":43.292749,"lon":5.368398,"is_reserved":false,"is_disabled":false,"rental_uris":{"android":"levelo://app?vid=206f83f1-b2c8-4c1d-9cd9-7f9571c502a7","ios":"levelo://app?vid=206f83f1-b2c8-4c1d-9cd9-7f9571c502a7"},"vehicle_type_id":"4","last_reported":1686870403,"current_range_meters":8000,"station_id":"ce4bhbp2rcd13ifvqesg","pricing_plan_id":"free"},{"bike_id":"420e2f0f-3a70-47d3-93d6-00f1a5b946c7","system_id":"levelo_inurba_marseille","lat":43.303002,"lon":5.392142,"is_reserved":false,"is_disabled":false,"rental_uris":{"android":"levelo://app?vid=420e2f0f-3a70-47d3-93d6-00f1a5b946c7","ios":"levelo://app?vid=420e2f0f-3a70-47d3-93d6-00f1a5b946c7"},"vehicle_type_id":"4","last_reported":1686870403,"current_range_meters":23200,"station_id":"ce4bgkh2rcd13ifvqbk0","pricing_plan_id":"free"},{"bike_id":"4d0790bb-c682-4637-8a69-ce4fd7f568ec","system_id":"levelo_inurba_marseille","lat":43.303002,"lon":5.392142,"is_reserved":false,"is_disabled":false,"rental_uris":{"android":"levelo://app?vid=4d0790bb-c682-4637-8a69-ce4fd7f568ec","ios":"levelo://app?vid=4d0790bb-c682-4637-8a69-ce4fd7f568ec"},"vehicle_type_id":"4","last_reported":1686870403,"current_range_meters":0,"station_id":"ce4bgkh2rcd13ifvqbk0","pricing_plan_id":"free"},{"bike_id":"48c76701-a0a1-4342-a2c8-5a8c68af585f","system_id":"levelo_inurba_marseille","lat":43.2936,"lon":5.37835,"is_reserved":false,"is_disabled":false,"rental_uris":{"android":"levelo://app?vid=48c76701-a0a1-4342-a2c8-5a8c68af585f","ios":"levelo://app?vid=48c76701-a0a1-4342-a2c8-5a8c68af585f"},"vehicle_type_id":"4","last_reported":1686870403,"current_range_meters":19600,"station_id":"ce4bgjh2rcd13ifvqbf0","pricing_plan_id":"free"},{"bike_id":"d3e5ec50-cdd2-4dda-b3aa-56eb536bbb12","system_id":"levelo_inurba_marseille","lat":43.29262,"lon":5.35961,"is_reserved":false,"is_disabled":false,"rental_uris":{"android":"levelo://app?vid=d3e5ec50-cdd2-4dda-b3aa-56eb536bbb12","ios":"levelo://app?vid=d3e5ec50-cdd2-4dda-b3aa-56eb536bbb12"},"vehicle_type_id":"4","last_reported":1686870403,"current_range_meters":28400,"station_id":"","pricing_plan_id":"free"},{"bike_id":"ec17b2ef-809d-4aa1-82d9-02edc2db1058","system_id":"levelo_inurba_marseille","lat":43.300852,"lon":5.390859,"is_reserved":false,"is_disabled":false,"rental_uris":{"android":"levelo://app?vid=ec17b2ef-809d-4aa1-82d9-02edc2db1058","ios":"levelo://app?vid=ec17b2ef-809d-4aa1-82d9-02edc2db1058"},"vehicle_type_id":"4","last_reported":1686870403,"current_range_meters":7200,"station_id":"ce4bh192rcd13ifvqdb0","pricing_plan_id":"free"},{"bike_id":"2e536bfe-4dc6-4ec4-9399-027bb92aeb3a","system_id":"levelo_inurba_marseille","lat":43.2989,"lon":5.38896,"is_reserved":false,"is_disabled":false,"rental_uris":{"android":"levelo://app?vid=2e536bfe-4dc6-4ec4-9399-027bb92aeb3a","ios":"levelo://app?vid=2e536bfe-4dc6-4ec4-9399-027bb92aeb3a"},"vehicle_type_id":"4","last_reported":1686870403,"current_range_meters":29600,"station_id":"ce4bh392rcd13ifvqdl0","pricing_plan_id":"free"},{"bike_id":"095e39d0-76ba-49c1-88aa-324b360c08c5","system_id":"levelo_inurba_marseille","lat":43.29876,"lon":5.38907,"is_reserved":false,"is_disabled":false,"rental_uris":{"android":"levelo://app?vid=095e39d0-76ba-49c1-88aa-324b360c08c5","ios":"levelo://app?vid=095e39d0-76ba-49c1-88aa-324b360c08c5"},"vehicle_type_id":"4","last_reported":1686870403,"current_range_meters":30800,"station_id":"ce4bh392rcd13ifvqdl0","pricing_plan_id":"free"},{"bike_id":"2c9d65f5-039e-41f1-8215-c5dffbf34131","system_id":"levelo_inurba_marseille","lat":43.298727,"lon":5.389035,"is_reserved":false,"is_disabled":false,"rental_uris":{"android":"levelo://app?vid=2c9d65f5-039e-41f1-8215-c5dffbf34131","ios":"levelo://app?vid=2c9d65f5-039e-41f1-8215-c5dffbf34131"},"vehicle_type_id":"4","last_reported":1686870403,"current_range_meters":31200,"station_id":"ce4bh392rcd13ifvqdl0","pricing_plan_id":"free"},{"bike_id":"8ebc4b8f-b46f-48ac-9c33-6948f6b248fc","system_id":"levelo_inurba_marseille","lat":43.29875,"lon":5.3891,"is_reserved":false,"is_disabled":false,"rental_uris":{"android":"levelo://app?vid=8ebc4b8f-b46f-48ac-9c33-6948f6b248fc","ios":"levelo://app?vid=8ebc4b8f-b46f-48ac-9c33-6948f6b248fc"},"vehicle_type_id":"4","last_reported":1686870403,"current_range_meters":31200,"station_id":"ce4bh392rcd13ifvqdl0","pricing_plan_id":"free"},{"bike_id":"ff44794b-bd71-4da2-8587-e06f051f6a29","system_id":"levelo_inurba_marseille","lat":43.309038,"lon":5.396546,"is_reserved":false,"is_disabled":false,"rental_uris":{"android":"levelo://app?vid=ff44794b-bd71-4da2-8587-e06f051f6a29","ios":"levelo://app?vid=ff44794b-bd71-4da2-8587-e06f051f6a29"},"vehicle_type_id":"4","last_reported":1686870403,"current_range_meters":12800,"station_id":"ce4bh012rcd13ifvqcv0","pricing_plan_id":"free"},{"bike_id":"3c75d78a-8700-47ee-8b80-e96e0b0c5746","system_id":"levelo_inurba_marseille","lat":43.309038,"lon":5.396546,"is_reserved":false,"is_disabled":false,"rental_uris":{"android":"levelo://app?vid=3c75d78a-8700-47ee-8b80-e96e0b0c5746","ios":"levelo://app?vid=3c75d78a-8700-47ee-8b80-e96e0b0c5746"},"vehicle_type_id":"4","last_reported":1686870403,"current_range_meters":9600,"station_id":"ce4bh012rcd13ifvqcv0","pricing_plan_id":"free"},{"bike_id":"2dd353af-ef80-4638-9eff-f5b3704b2d42","system_id":"levelo_inurba_marseille","lat":43.309038,"lon":5.396546,"is_reserved":false,"is_disabled":false,"rental_uris":{"android":"levelo://app?vid=2dd353af-ef80-4638-9eff-f5b3704b2d42","ios":"levelo://app?vid=2dd353af-ef80-4638-9eff-f5b3704b2d42"},"vehicle_type_id":"4","last_reported":1686870403,"current_range_meters":31200,"station_id":"ce4bh012rcd13ifvqcv0","pricing_plan_id":"free"},{"bike_id":"a7b2a4df-0afa-4f2c-bb10-7b3e48d4e96a","system_id":"levelo_inurba_marseille","lat":43.309038,"lon":5.396546,"is_reserved":false,"is_disabled":false,"rental_uris":{"android":"levelo://app?vid=a7b2a4df-0afa-4f2c-bb10-7b3e48d4e96a","ios":"levelo://app?vid=a7b2a4df-0afa-4f2c-bb10-7b3e48d4e96a"},"vehicle_type_id":"4","last_reported":1686870403,"current_range_meters":19200,"station_id":"ce4bh012rcd13ifvqcv0","pricing_plan_id":"free"},{"bike_id":"5b433072-5fde-47a2-81f1-03acedbdb6f5","system_id":"levelo_inurba_marseille","lat":43.309038,"lon":5.396546,"is_reserved":false,"is_disabled":false,"rental_uris":{"android":"levelo://app?vid=5b433072-5fde-47a2-81f1-03acedbdb6f5","ios":"levelo://app?vid=5b433072-5fde-47a2-81f1-03acedbdb6f5"},"vehicle_type_id":"4","last_reported":1686870403,"current_range_meters":12000,"station_id":"ce4bh012rcd13ifvqcv0","pricing_plan_id":"free"},{"bike_id":"a048f125-c1a0-4b0d-8f4f-fc4ecbab79ec","system_id":"levelo_inurba_marseille","lat":43.309038,"lon":5.396546,"is_reserved":false,"is_disabled":false,"rental_uris":{"android":"levelo://app?vid=a048f125-c1a0-4b0d-8f4f-fc4ecbab79ec","ios":"levelo://app?vid=a048f125-c1a0-4b0d-8f4f-fc4ecbab79ec"},"vehicle_type_id":"4","last_reported":1686870403,"current_range_meters":0,"station_id":"ce4bh012rcd13ifvqcv0","pricing_plan_id":"free"},{"bike_id":"2a8983f8-0435-4302-a26c-47fadbb58632","system_id":"levelo_inurba_marseille","lat":43.309038,"lon":5.396546,"is_reserved":false,"is_disabled":false,"rental_uris":{"android":"levelo://app?vid=2a8983f8-0435-4302-a26c-47fadbb58632","ios":"levelo://app?vid=2a8983f8-0435-4302-a26c-47fadbb58632"},"vehicle_type_id":"4","last_reported":1686870403,"current_range_meters":17600,"station_id":"ce4bh012rcd13ifvqcv0","pricing_plan_id":"free"},{"bike_id":"304ef31a-6e3e-404a-81d7-e7bf591de05d","system_id":"levelo_inurba_marseille","lat":43.313291,"lon":5.396838,"is_reserved":false,"is_disabled":false,"rental_uris":{"android":"levelo://app?vid=304ef31a-6e3e-404a-81d7-e7bf591de05d","ios":"levelo://app?vid=304ef31a-6e3e-404a-81d7-e7bf591de05d"},"vehicle_type_id":"4","last_reported":1686870403,"current_range_meters":1600,"station_id":"ce4bgvp2rcd13ifvqcu0","pricing_plan_id":"free"},{"bike_id":"fc74dd52-c886-4a02-a504-693ef7a204aa","system_id":"levelo_inurba_marseille","lat":43.313291,"lon":5.396838,"is_reserved":false,"is_disabled":false,"rental_uris":{"android":"levelo://app?vid=fc74dd52-c886-4a02-a504-693ef7a204aa","ios":"levelo://app?vid=fc74dd52-c886-4a02-a504-693ef7a204aa"},"vehicle_type_id":"4","last_reported":1686870403,"current_range_meters":17600,"station_id":"ce4bgvp2rcd13ifvqcu0","pricing_plan_id":"free"},{"bike_id":"b11297a7-e645-4dbc-afb2-5a9ebeb21663","system_id":"levelo_inurba_marseille","lat":43.309038,"lon":5.396546,"is_reserved":false,"is_disabled":false,"rental_uris":{"android":"levelo://app?vid=b11297a7-e645-4dbc-afb2-5a9ebeb21663","ios":"levelo://app?vid=b11297a7-e645-4dbc-afb2-5a9ebeb21663"},"vehicle_type_id":"4","last_reported":1686870403,"current_range_meters":8000,"station_id":"ce4bh012rcd13ifvqcv0","pricing_plan_id":"free"},{"bike_id":"45d22024-432d-441e-9e98-3e28068202dd","system_id":"levelo_inurba_marseille","lat":43.313291,"lon":5.396838,"is_reserved":false,"is_disabled":false,"rental_uris":{"android":"levelo://app?vid=45d22024-432d-441e-9e98-3e28068202dd","ios":"levelo://app?vid=45d22024-432d-441e-9e98-3e28068202dd"},"vehicle_type_id":"4","last_reported":1686870403,"current_range_meters":4800,"station_id":"ce4bgvp2rcd13ifvqcu0","pricing_plan_id":"free"},{"bike_id":"72097416-7f45-450d-ad4e-28ca496e6d4f","system_id":"levelo_inurba_marseille","lat":43.313291,"lon":5.396838,"is_reserved":false,"is_disabled":false,"rental_uris":{"android":"levelo://app?vid=72097416-7f45-450d-ad4e-28ca496e6d4f","ios":"levelo://app?vid=72097416-7f45-450d-ad4e-28ca496e6d4f"},"vehicle_type_id":"4","last_reported":1686870403,"current_range_meters":3600,"station_id":"ce4bgvp2rcd13ifvqcu0","pricing_plan_id":"free"},{"bike_id":"ecdadcdd-8733-4ead-8c1e-8661ec40804c","system_id":"levelo_inurba_marseille","lat":43.309038,"lon":5.396546,"is_reserved":false,"is_disabled":false,"rental_uris":{"android":"levelo://app?vid=ecdadcdd-8733-4ead-8c1e-8661ec40804c","ios":"levelo://app?vid=ecdadcdd-8733-4ead-8c1e-8661ec40804c"},"vehicle_type_id":"4","last_reported":1686870403,"current_range_meters":0,"station_id":"ce4bh012rcd13ifvqcv0","pricing_plan_id":"free"},{"bike_id":"e275adb2-0c22-4ff3-bd7e-64b02de87a7d","system_id":"levelo_inurba_marseille","lat":43.313291,"lon":5.396838,"is_reserved":false,"is_disabled":false,"rental_uris":{"android":"levelo://app?vid=e275adb2-0c22-4ff3-bd7e-64b02de87a7d","ios":"levelo://app?vid=e275adb2-0c22-4ff3-bd7e-64b02de87a7d"},"vehicle_type_id":"4","last_reported":1686870403,"current_range_meters":3600,"station_id":"ce4bgvp2rcd13ifvqcu0","pricing_plan_id":"free"},{"bike_id":"490db307-a8ca-4fc4-a0c7-794d3f49d6d2","system_id":"levelo_inurba_marseille","lat":43.309038,"lon":5.396546,"is_reserved":false,"is_disabled":false,"rental_uris":{"android":"levelo://app?vid=490db307-a8ca-4fc4-a0c7-794d3f49d6d2","ios":"levelo://app?vid=490db307-a8ca-4fc4-a0c7-794d3f49d6d2"},"vehicle_type_id":"4","last_reported":1686870403,"current_range_meters":22800,"station_id":"ce4bh012rcd13ifvqcv0","pricing_plan_id":"free"},{"bike_id":"f13fbbd9-b0f0-4771-a6e9-1b7d6cd561c1","system_id":"levelo_inurba_marseille","lat":43.309038,"lon":5.396546,"is_reserved":false,"is_disabled":false,"rental_uris":{"android":"levelo://app?vid=f13fbbd9-b0f0-4771-a6e9-1b7d6cd561c1","ios":"levelo://app?vid=f13fbbd9-b0f0-4771-a6e9-1b7d6cd561c1"},"vehicle_type_id":"4","last_reported":1686870403,"current_range_meters":29600,"station_id":"ce4bh012rcd13ifvqcv0","pricing_plan_id":"free"},{"bike_id":"a8414a31-b306-4141-a194-429e4a575ed7","system_id":"levelo_inurba_marseille","lat":43.309038,"lon":5.396546,"is_reserved":false,"is_disabled":false,"rental_uris":{"android":"levelo://app?vid=a8414a31-b306-4141-a194-429e4a575ed7","ios":"levelo://app?vid=a8414a31-b306-4141-a194-429e4a575ed7"},"vehicle_type_id":"4","last_reported":1686870403,"current_range_meters":17600,"station_id":"ce4bh012rcd13ifvqcv0","pricing_plan_id":"free"},{"bike_id":"0fc5ed72-31f5-473a-b0cd-96dc82929c62","system_id":"levelo_inurba_marseille","lat":43.30875,"lon":5.3966,"is_reserved":false,"is_disabled":false,"rental_uris":{"android":"levelo://app?vid=0fc5ed72-31f5-473a-b0cd-96dc82929c62","ios":"levelo://app?vid=0fc5ed72-31f5-473a-b0cd-96dc82929c62"},"vehicle_type_id":"4","last_reported":1686870403,"current_range_meters":7200,"station_id":"","pricing_plan_id":"free"},{"bike_id":"b17037ac-3649-4446-8b7b-6aa079b8cd37","system_id":"levelo_inurba_marseille","lat":43.29529,"lon":5.385581,"is_reserved":false,"is_disabled":false,"rental_uris":{"android":"levelo://app?vid=b17037ac-3649-4446-8b7b-6aa079b8cd37","ios":"levelo://app?vid=b17037ac-3649-4446-8b7b-6aa079b8cd37"},"vehicle_type_id":"4","last_reported":1686870403,"current_range_meters":0,"station_id":"ce4bgih2rcd13ifvqba0","pricing_plan_id":"free"},{"bike_id":"513fdc56-deed-4cf1-968a-cf7e12b5136e","system_id":"levelo_inurba_marseille","lat":43.302008,"lon":5.394694,"is_reserved":false,"is_disabled":false,"rental_uris":{"android":"levelo://app?vid=513fdc56-deed-4cf1-968a-cf7e12b5136e","ios":"levelo://app?vid=513fdc56-deed-4cf1-968a-cf7e12b5136e"},"vehicle_type_id":"4","last_reported":1686870403,"current_range_meters":15200,"station_id":"ce4bh0p2rcd13ifvqd70","pricing_plan_id":"free"},{"bike_id":"f404b78e-addf-46d0-85ff-59b7c9915de9","system_id":"levelo_inurba_marseille","lat":43.302008,"lon":5.394694,"is_reserved":false,"is_disabled":false,"rental_uris":{"android":"levelo://app?vid=f404b78e-addf-46d0-85ff-59b7c9915de9","ios":"levelo://app?vid=f404b78e-addf-46d0-85ff-59b7c9915de9"},"vehicle_type_id":"4","last_reported":1686870403,"current_range_meters":13600,"station_id":"ce4bh0p2rcd13ifvqd70","pricing_plan_id":"free"},{"bike_id":"efc15d2d-8251-4450-a98e-5d1f21f084c8","system_id":"levelo_inurba_marseille","lat":43.292675,"lon":5.38447,"is_reserved":false,"is_disabled":false,"rental_uris":{"android":"levelo://app?vid=efc15d2d-8251-4450-a98e-5d1f21f084c8","ios":"levelo://app?vid=efc15d2d-8251-4450-a98e-5d1f21f084c8"},"vehicle_type_id":"4","last_reported":1686870403,"current_range_meters":31200,"station_id":"","pricing_plan_id":"free"},{"bike_id":"7491dcba-86f1-4392-b920-568064febec0","system_id":"levelo_inurba_marseille","lat":43.304274,"lon":5.397513,"is_reserved":false,"is_disabled":false,"rental_uris":{"android":"levelo://app?vid=7491dcba-86f1-4392-b920-568064febec0","ios":"levelo://app?vid=7491dcba-86f1-4392-b920-568064febec0"},"vehicle_type_id":"4","last_reported":1686870403,"current_range_meters":21200,"station_id":"ce4bh092rcd13ifvqd20","pricing_plan_id":"free"},{"bike_id":"9add8f45-ba19-4365-9c40-1bba0a103763","system_id":"levelo_inurba_marseille","lat":43.33044,"lon":5.38913,"is_reserved":false,"is_disabled":false,"rental_uris":{"android":"levelo://app?vid=9add8f45-ba19-4365-9c40-1bba0a103763","ios":"levelo://app?vid=9add8f45-ba19-4365-9c40-1bba0a103763"},"vehicle_type_id":"4","last_reported":1686870403,"current_range_meters":15200,"station_id":"ce4bhr92rcd13ifvqhrg","pricing_plan_id":"free"},{"bike_id":"a4d2814a-ff66-466e-b091-93a97eadc809","system_id":"levelo_inurba_marseille","lat":43.33046,"lon":5.38917,"is_reserved":false,"is_disabled":false,"rental_uris":{"android":"levelo://app?vid=a4d2814a-ff66-466e-b091-93a97eadc809","ios":"levelo://app?vid=a4d2814a-ff66-466e-b091-93a97eadc809"},"vehicle_type_id":"4","last_reported":1686870403,"current_range_meters":31200,"station_id":"ce4bhr92rcd13ifvqhrg","pricing_plan_id":"free"},{"bike_id":"13d5a42e-daac-4dee-b9dc-10feb0e254dc","system_id":"levelo_inurba_marseille","lat":43.29792,"lon":5.39344,"is_reserved":false,"is_disabled":false,"rental_uris":{"android":"levelo://app?vid=13d5a42e-daac-4dee-b9dc-10feb0e254dc","ios":"levelo://app?vid=13d5a42e-daac-4dee-b9dc-10feb0e254dc"},"vehicle_type_id":"4","last_reported":1686870403,"current_range_meters":2400,"station_id":"chh1huq6cuj3fo74tm60","pricing_plan_id":"free"},{"bike_id":"578765e9-6579-423d-b9a6-50a4dc515e79","system_id":"levelo_inurba_marseille","lat":43.29032,"lon":5.38127,"is_reserved":false,"is_disabled":false,"rental_uris":{"android":"levelo://app?vid=578765e9-6579-423d-b9a6-50a4dc515e79","ios":"levelo://app?vid=578765e9-6579-423d-b9a6-50a4dc515e79"},"vehicle_type_id":"4","last_reported":1686870403,"current_range_meters":19600,"station_id":"ce4bh4p2rcd13ifvqe1g","pricing_plan_id":"free"},{"bike_id":"c0fb8083-e02d-4dec-b1b9-fa095e6c5b75","system_id":"levelo_inurba_marseille","lat":43.337396,"lon":5.374526,"is_reserved":false,"is_disabled":false,"rental_uris":{"android":"levelo://app?vid=c0fb8083-e02d-4dec-b1b9-fa095e6c5b75","ios":"levelo://app?vid=c0fb8083-e02d-4dec-b1b9-fa095e6c5b75"},"vehicle_type_id":"4","last_reported":1686870403,"current_range_meters":3600,"station_id":"ce4bhp92rcd13ifvqhag","pricing_plan_id":"free"},{"bike_id":"386e58dc-6375-4dfe-81fe-a9c843389cef","system_id":"levelo_inurba_marseille","lat":43.309371,"lon":5.401449,"is_reserved":false,"is_disabled":false,"rental_uris":{"android":"levelo://app?vid=386e58dc-6375-4dfe-81fe-a9c843389cef","ios":"levelo://app?vid=386e58dc-6375-4dfe-81fe-a9c843389cef"},"vehicle_type_id":"4","last_reported":1686870403,"current_range_meters":22400,"station_id":"ce4bgvp2rcd13ifvqct0","pricing_plan_id":"free"},{"bike_id":"10cdb518-e270-4caa-b225-2f800bd44b58","system_id":"levelo_inurba_marseille","lat":43.33752,"lon":5.37423,"is_reserved":false,"is_disabled":false,"rental_uris":{"android":"levelo://app?vid=10cdb518-e270-4caa-b225-2f800bd44b58","ios":"levelo://app?vid=10cdb518-e270-4caa-b225-2f800bd44b58"},"vehicle_type_id":"4","last_reported":1686870403,"current_range_meters":23600,"station_id":"","pricing_plan_id":"free"},{"bike_id":"dd9fd1f4-dcd9-4d60-abf7-792a6ce7d812","system_id":"levelo_inurba_marseille","lat":43.309371,"lon":5.401449,"is_reserved":false,"is_disabled":false,"rental_uris":{"android":"levelo://app?vid=dd9fd1f4-dcd9-4d60-abf7-792a6ce7d812","ios":"levelo://app?vid=dd9fd1f4-dcd9-4d60-abf7-792a6ce7d812"},"vehicle_type_id":"4","last_reported":1686870403,"current_range_meters":16400,"station_id":"ce4bgvp2rcd13ifvqct0","pricing_plan_id":"free"},{"bike_id":"a2b90eef-33ca-458a-aaa5-7beae570bc6d","system_id":"levelo_inurba_marseille","lat":43.309371,"lon":5.401449,"is_reserved":false,"is_disabled":false,"rental_uris":{"android":"levelo://app?vid=a2b90eef-33ca-458a-aaa5-7beae570bc6d","ios":"levelo://app?vid=a2b90eef-33ca-458a-aaa5-7beae570bc6d"},"vehicle_type_id":"4","last_reported":1686870403,"current_range_meters":26800,"station_id":"ce4bgvp2rcd13ifvqct0","pricing_plan_id":"free"},{"bike_id":"f01cb20e-912b-40d2-ad57-b1c3e62cd7ba","system_id":"levelo_inurba_marseille","lat":43.309371,"lon":5.401449,"is_reserved":false,"is_disabled":false,"rental_uris":{"android":"levelo://app?vid=f01cb20e-912b-40d2-ad57-b1c3e62cd7ba","ios":"levelo://app?vid=f01cb20e-912b-40d2-ad57-b1c3e62cd7ba"},"vehicle_type_id":"4","last_reported":1686870403,"current_range_meters":17600,"station_id":"ce4bgvp2rcd13ifvqct0","pricing_plan_id":"free"},{"bike_id":"daf4d5e5-1b57-4407-8a94-ebeb2e475a9a","system_id":"levelo_inurba_marseille","lat":43.30631,"lon":5.40084,"is_reserved":false,"is_disabled":false,"rental_uris":{"android":"levelo://app?vid=daf4d5e5-1b57-4407-8a94-ebeb2e475a9a","ios":"levelo://app?vid=daf4d5e5-1b57-4407-8a94-ebeb2e475a9a"},"vehicle_type_id":"4","last_reported":1686870403,"current_range_meters":5600,"station_id":"","pricing_plan_id":"free"},{"bike_id":"e67b74df-a415-4444-a302-f71dae903bbb","system_id":"levelo_inurba_marseille","lat":43.30642,"lon":5.401031,"is_reserved":false,"is_disabled":false,"rental_uris":{"android":"levelo://app?vid=e67b74df-a415-4444-a302-f71dae903bbb","ios":"levelo://app?vid=e67b74df-a415-4444-a302-f71dae903bbb"},"vehicle_type_id":"4","last_reported":1686870403,"current_range_meters":1200,"station_id":"ce4bh112rcd13ifvqda0","pricing_plan_id":"free"},{"bike_id":"6f0ab6b2-32ad-4084-a8c9-04ef3aa45141","system_id":"levelo_inurba_marseille","lat":43.30642,"lon":5.401031,"is_reserved":false,"is_disabled":false,"rental_uris":{"android":"levelo://app?vid=6f0ab6b2-32ad-4084-a8c9-04ef3aa45141","ios":"levelo://app?vid=6f0ab6b2-32ad-4084-a8c9-04ef3aa45141"},"vehicle_type_id":"4","last_reported":1686870403,"current_range_meters":16800,"station_id":"ce4bh112rcd13ifvqda0","pricing_plan_id":"free"},{"bike_id":"6cb64abf-1f60-471f-a41a-62da3de1f982","system_id":"levelo_inurba_marseille","lat":43.30642,"lon":5.401031,"is_reserved":false,"is_disabled":false,"rental_uris":{"android":"levelo://app?vid=6cb64abf-1f60-471f-a41a-62da3de1f982","ios":"levelo://app?vid=6cb64abf-1f60-471f-a41a-62da3de1f982"},"vehicle_type_id":"4","last_reported":1686870403,"current_range_meters":0,"station_id":"ce4bh112rcd13ifvqda0","pricing_plan_id":"free"},{"bike_id":"760182f3-a557-42b8-846c-6b81536ad6d8","system_id":"levelo_inurba_marseille","lat":43.301117,"lon":5.398795,"is_reserved":false,"is_disabled":false,"rental_uris":{"android":"levelo://app?vid=760182f3-a557-42b8-846c-6b81536ad6d8","ios":"levelo://app?vid=760182f3-a557-42b8-846c-6b81536ad6d8"},"vehicle_type_id":"4","last_reported":1686870403,"current_range_meters":10800,"station_id":"ce4bh0h2rcd13ifvqd40","pricing_plan_id":"free"},{"bike_id":"83d88234-7aaa-406e-b7bb-701e258e9f01","system_id":"levelo_inurba_marseille","lat":43.286591,"lon":5.363346,"is_reserved":false,"is_disabled":false,"rental_uris":{"android":"levelo://app?vid=83d88234-7aaa-406e-b7bb-701e258e9f01","ios":"levelo://app?vid=83d88234-7aaa-406e-b7bb-701e258e9f01"},"vehicle_type_id":"4","last_reported":1686870403,"current_range_meters":31200,"station_id":"ce4bhah2rcd13ifvqej0","pricing_plan_id":"free"},{"bike_id":"f0854f7a-d39b-43a5-b9ec-26e38620cd67","system_id":"levelo_inurba_marseille","lat":43.28703,"lon":5.37388,"is_reserved":false,"is_disabled":false,"rental_uris":{"android":"levelo://app?vid=f0854f7a-d39b-43a5-b9ec-26e38620cd67","ios":"levelo://app?vid=f0854f7a-d39b-43a5-b9ec-26e38620cd67"},"vehicle_type_id":"4","last_reported":1686870403,"current_range_meters":800,"station_id":"","pricing_plan_id":"free"},{"bike_id":"05b5e554-ea24-4a8b-9576-3ba502a7fa03","system_id":"levelo_inurba_marseille","lat":43.287013,"lon":5.373851,"is_reserved":false,"is_disabled":false,"rental_uris":{"android":"levelo://app?vid=05b5e554-ea24-4a8b-9576-3ba502a7fa03","ios":"levelo://app?vid=05b5e554-ea24-4a8b-9576-3ba502a7fa03"},"vehicle_type_id":"4","last_reported":1686870403,"current_range_meters":0,"station_id":"","pricing_plan_id":"free"},{"bike_id":"1e0d8389-2452-4785-99aa-807c891e1e47","system_id":"levelo_inurba_marseille","lat":43.298681,"lon":5.397225,"is_reserved":false,"is_disabled":false,"rental_uris":{"android":"levelo://app?vid=1e0d8389-2452-4785-99aa-807c891e1e47","ios":"levelo://app?vid=1e0d8389-2452-4785-99aa-807c891e1e47"},"vehicle_type_id":"4","last_reported":1686870403,"current_range_meters":12800,"station_id":"ce4bh0h2rcd13ifvqd50","pricing_plan_id":"free"},{"bike_id":"2eca9e35-5a01-4680-989e-197769f7ece9","system_id":"levelo_inurba_marseille","lat":43.28663,"lon":5.36357,"is_reserved":false,"is_disabled":false,"rental_uris":{"android":"levelo://app?vid=2eca9e35-5a01-4680-989e-197769f7ece9","ios":"levelo://app?vid=2eca9e35-5a01-4680-989e-197769f7ece9"},"vehicle_type_id":"4","last_reported":1686870403,"current_range_meters":30800,"station_id":"ce4bhah2rcd13ifvqej0","pricing_plan_id":"free"},{"bike_id":"ece0fcd9-bc3b-4b06-9f82-f6545f6de1bb","system_id":"levelo_inurba_marseille","lat":43.28699,"lon":5.37375,"is_reserved":false,"is_disabled":false,"rental_uris":{"android":"levelo://app?vid=ece0fcd9-bc3b-4b06-9f82-f6545f6de1bb","ios":"levelo://app?vid=ece0fcd9-bc3b-4b06-9f82-f6545f6de1bb"},"vehicle_type_id":"4","last_reported":1686870403,"current_range_meters":11200,"station_id":"","pricing_plan_id":"free"},{"bike_id":"ac5d1a37-565e-4134-9ef4-0b22bbc173cd","system_id":"levelo_inurba_marseille","lat":43.28661,"lon":5.36362,"is_reserved":false,"is_disabled":false,"rental_uris":{"android":"levelo://app?vid=ac5d1a37-565e-4134-9ef4-0b22bbc173cd","ios":"levelo://app?vid=ac5d1a37-565e-4134-9ef4-0b22bbc173cd"},"vehicle_type_id":"4","last_reported":1686870403,"current_range_meters":17200,"station_id":"ce4bhah2rcd13ifvqej0","pricing_plan_id":"free"},{"bike_id":"a6f723c5-0a32-4cf3-bc81-89dc354fd6fc","system_id":"levelo_inurba_marseille","lat":43.295194,"lon":5.39397,"is_reserved":false,"is_disabled":false,"rental_uris":{"android":"levelo://app?vid=a6f723c5-0a32-4cf3-bc81-89dc354fd6fc","ios":"levelo://app?vid=a6f723c5-0a32-4cf3-bc81-89dc354fd6fc"},"vehicle_type_id":"4","last_reported":1686870403,"current_range_meters":3600,"station_id":"ce4bh292rcd13ifvqdf0","pricing_plan_id":"free"},{"bike_id":"b6b69f7d-7628-4480-8248-35c267d8d493","system_id":"levelo_inurba_marseille","lat":43.302759,"lon":5.400793,"is_reserved":false,"is_disabled":false,"rental_uris":{"android":"levelo://app?vid=b6b69f7d-7628-4480-8248-35c267d8d493","ios":"levelo://app?vid=b6b69f7d-7628-4480-8248-35c267d8d493"},"vehicle_type_id":"4","last_reported":1686870403,"current_range_meters":11600,"station_id":"ce4bgvh2rcd13ifvqcs0","pricing_plan_id":"free"},{"bike_id":"daf526b8-e3c0-42e9-915b-f6fe4c8c4d73","system_id":"levelo_inurba_marseille","lat":43.302759,"lon":5.400793,"is_reserved":false,"is_disabled":false,"rental_uris":{"android":"levelo://app?vid=daf526b8-e3c0-42e9-915b-f6fe4c8c4d73","ios":"levelo://app?vid=daf526b8-e3c0-42e9-915b-f6fe4c8c4d73"},"vehicle_type_id":"4","last_reported":1686870403,"current_range_meters":2400,"station_id":"ce4bgvh2rcd13ifvqcs0","pricing_plan_id":"free"},{"bike_id":"8ba05896-7080-4b26-9970-f900fcfcc3e1","system_id":"levelo_inurba_marseille","lat":43.290336,"lon":5.386425,"is_reserved":false,"is_disabled":false,"rental_uris":{"android":"levelo://app?vid=8ba05896-7080-4b26-9970-f900fcfcc3e1","ios":"levelo://app?vid=8ba05896-7080-4b26-9970-f900fcfcc3e1"},"vehicle_type_id":"4","last_reported":1686870403,"current_range_meters":28400,"station_id":"ce4bh4p2rcd13ifvqe0g","pricing_plan_id":"free"},{"bike_id":"8b860527-619c-46c5-bd8d-5a9d3eee74cd","system_id":"levelo_inurba_marseille","lat":43.302759,"lon":5.400793,"is_reserved":false,"is_disabled":false,"rental_uris":{"android":"levelo://app?vid=8b860527-619c-46c5-bd8d-5a9d3eee74cd","ios":"levelo://app?vid=8b860527-619c-46c5-bd8d-5a9d3eee74cd"},"vehicle_type_id":"4","last_reported":1686870403,"current_range_meters":9200,"station_id":"ce4bgvh2rcd13ifvqcs0","pricing_plan_id":"free"},{"bike_id":"5f8aeb5a-769f-4d9b-af33-efa6f8e455ed","system_id":"levelo_inurba_marseille","lat":43.302759,"lon":5.400793,"is_reserved":false,"is_disabled":false,"rental_uris":{"android":"levelo://app?vid=5f8aeb5a-769f-4d9b-af33-efa6f8e455ed","ios":"levelo://app?vid=5f8aeb5a-769f-4d9b-af33-efa6f8e455ed"},"vehicle_type_id":"4","last_reported":1686870403,"current_range_meters":2400,"station_id":"ce4bgvh2rcd13ifvqcs0","pricing_plan_id":"free"},{"bike_id":"415ad0f4-240f-45b1-9df1-2ffaa6211e66","system_id":"levelo_inurba_marseille","lat":43.287184,"lon":5.37937,"is_reserved":false,"is_disabled":false,"rental_uris":{"android":"levelo://app?vid=415ad0f4-240f-45b1-9df1-2ffaa6211e66","ios":"levelo://app?vid=415ad0f4-240f-45b1-9df1-2ffaa6211e66"},"vehicle_type_id":"4","last_reported":1686870403,"current_range_meters":2800,"station_id":"ce4bh9p2rcd13ifvqec0","pricing_plan_id":"free"},{"bike_id":"1d1721e8-ee0b-4e13-8e92-195492d62887","system_id":"levelo_inurba_marseille","lat":43.287184,"lon":5.37937,"is_reserved":false,"is_disabled":false,"rental_uris":{"android":"levelo://app?vid=1d1721e8-ee0b-4e13-8e92-195492d62887","ios":"levelo://app?vid=1d1721e8-ee0b-4e13-8e92-195492d62887"},"vehicle_type_id":"4","last_reported":1686870403,"current_range_meters":15200,"station_id":"ce4bh9p2rcd13ifvqec0","pricing_plan_id":"free"},{"bike_id":"d3be362a-e379-434a-8ab0-7fae3903de3c","system_id":"levelo_inurba_marseille","lat":43.287184,"lon":5.37937,"is_reserved":false,"is_disabled":false,"rental_uris":{"android":"levelo://app?vid=d3be362a-e379-434a-8ab0-7fae3903de3c","ios":"levelo://app?vid=d3be362a-e379-434a-8ab0-7fae3903de3c"},"vehicle_type_id":"4","last_reported":1686870403,"current_range_meters":8000,"station_id":"ce4bh9p2rcd13ifvqec0","pricing_plan_id":"free"},{"bike_id":"f540193a-09e4-489d-944b-2e71ff92dd2d","system_id":"levelo_inurba_marseille","lat":43.30066,"lon":5.40067,"is_reserved":false,"is_disabled":false,"rental_uris":{"android":"levelo://app?vid=f540193a-09e4-489d-944b-2e71ff92dd2d","ios":"levelo://app?vid=f540193a-09e4-489d-944b-2e71ff92dd2d"},"vehicle_type_id":"4","last_reported":1686870403,"current_range_meters":15200,"station_id":"","pricing_plan_id":"free"},{"bike_id":"98ce8bb1-baeb-492c-b322-d26bf95536fa","system_id":"levelo_inurba_marseille","lat":43.31644,"lon":5.40431,"is_reserved":false,"is_disabled":false,"rental_uris":{"android":"levelo://app?vid=98ce8bb1-baeb-492c-b322-d26bf95536fa","ios":"levelo://app?vid=98ce8bb1-baeb-492c-b322-d26bf95536fa"},"vehicle_type_id":"4","last_reported":1686870403,"current_range_meters":22400,"station_id":"ce4bh012rcd13ifvqd00","pricing_plan_id":"free"},{"bike_id":"8ec99640-e373-4c3c-b381-049d36b2cdf8","system_id":"levelo_inurba_marseille","lat":43.316517,"lon":5.404375,"is_reserved":false,"is_disabled":false,"rental_uris":{"android":"levelo://app?vid=8ec99640-e373-4c3c-b381-049d36b2cdf8","ios":"levelo://app?vid=8ec99640-e373-4c3c-b381-049d36b2cdf8"},"vehicle_type_id":"4","last_reported":1686870403,"current_range_meters":26400,"station_id":"ce4bh012rcd13ifvqd00","pricing_plan_id":"free"},{"bike_id":"7eab10a5-0d33-448d-889d-258dfeac63b3","system_id":"levelo_inurba_marseille","lat":43.31645,"lon":5.40438,"is_reserved":false,"is_disabled":false,"rental_uris":{"android":"levelo://app?vid=7eab10a5-0d33-448d-889d-258dfeac63b3","ios":"levelo://app?vid=7eab10a5-0d33-448d-889d-258dfeac63b3"},"vehicle_type_id":"4","last_reported":1686870403,"current_range_meters":0,"station_id":"ce4bh012rcd13ifvqd00","pricing_plan_id":"free"},{"bike_id":"f70c654b-3510-4090-9592-af42a701165f","system_id":"levelo_inurba_marseille","lat":43.291994,"lon":5.392907,"is_reserved":false,"is_disabled":false,"rental_uris":{"android":"levelo://app?vid=f70c654b-3510-4090-9592-af42a701165f","ios":"levelo://app?vid=f70c654b-3510-4090-9592-af42a701165f"},"vehicle_type_id":"4","last_reported":1686870403,"current_range_meters":10000,"station_id":"ce4bh192rcd13ifvqdd0","pricing_plan_id":"free"},{"bike_id":"3ebda91d-b6fa-42f7-91ff-eefdbd991f8f","system_id":"levelo_inurba_marseille","lat":43.291994,"lon":5.392907,"is_reserved":false,"is_disabled":false,"rental_uris":{"android":"levelo://app?vid=3ebda91d-b6fa-42f7-91ff-eefdbd991f8f","ios":"levelo://app?vid=3ebda91d-b6fa-42f7-91ff-eefdbd991f8f"},"vehicle_type_id":"4","last_reported":1686870403,"current_range_meters":5600,"station_id":"ce4bh192rcd13ifvqdd0","pricing_plan_id":"free"},{"bike_id":"21201f90-c16e-4e3b-8600-e96b91765947","system_id":"levelo_inurba_marseille","lat":43.284534,"lon":5.358662,"is_reserved":false,"is_disabled":false,"rental_uris":{"android":"levelo://app?vid=21201f90-c16e-4e3b-8600-e96b91765947","ios":"levelo://app?vid=21201f90-c16e-4e3b-8600-e96b91765947"},"vehicle_type_id":"4","last_reported":1686870403,"current_range_meters":8400,"station_id":"ce4bhah2rcd13ifvqei0","pricing_plan_id":"free"},{"bike_id":"a873eedf-271a-4a9c-aee7-24ebf383d22b","system_id":"levelo_inurba_marseille","lat":43.284534,"lon":5.358662,"is_reserved":false,"is_disabled":false,"rental_uris":{"android":"levelo://app?vid=a873eedf-271a-4a9c-aee7-24ebf383d22b","ios":"levelo://app?vid=a873eedf-271a-4a9c-aee7-24ebf383d22b"},"vehicle_type_id":"4","last_reported":1686870403,"current_range_meters":31200,"station_id":"ce4bhah2rcd13ifvqei0","pricing_plan_id":"free"},{"bike_id":"21d597f5-86d5-450b-bbf8-025b81962e38","system_id":"levelo_inurba_marseille","lat":43.284534,"lon":5.358662,"is_reserved":false,"is_disabled":false,"rental_uris":{"android":"levelo://app?vid=21d597f5-86d5-450b-bbf8-025b81962e38","ios":"levelo://app?vid=21d597f5-86d5-450b-bbf8-025b81962e38"},"vehicle_type_id":"4","last_reported":1686870403,"current_range_meters":18400,"station_id":"ce4bhah2rcd13ifvqei0","pricing_plan_id":"free"},{"bike_id":"8be1ee44-fbe9-4902-85f4-4833455b34a3","system_id":"levelo_inurba_marseille","lat":43.284534,"lon":5.358662,"is_reserved":false,"is_disabled":false,"rental_uris":{"android":"levelo://app?vid=8be1ee44-fbe9-4902-85f4-4833455b34a3","ios":"levelo://app?vid=8be1ee44-fbe9-4902-85f4-4833455b34a3"},"vehicle_type_id":"4","last_reported":1686870403,"current_range_meters":28400,"station_id":"ce4bhah2rcd13ifvqei0","pricing_plan_id":"free"},{"bike_id":"cebb2543-ef33-4b32-901a-aab9f12ea0fe","system_id":"levelo_inurba_marseille","lat":43.284534,"lon":5.358662,"is_reserved":false,"is_disabled":false,"rental_uris":{"android":"levelo://app?vid=cebb2543-ef33-4b32-901a-aab9f12ea0fe","ios":"levelo://app?vid=cebb2543-ef33-4b32-901a-aab9f12ea0fe"},"vehicle_type_id":"4","last_reported":1686870403,"current_range_meters":31600,"station_id":"ce4bhah2rcd13ifvqei0","pricing_plan_id":"free"},{"bike_id":"e902f926-22fb-4a55-8d81-7da308d4abf8","system_id":"levelo_inurba_marseille","lat":43.284534,"lon":5.358662,"is_reserved":false,"is_disabled":false,"rental_uris":{"android":"levelo://app?vid=e902f926-22fb-4a55-8d81-7da308d4abf8","ios":"levelo://app?vid=e902f926-22fb-4a55-8d81-7da308d4abf8"},"vehicle_type_id":"4","last_reported":1686870403,"current_range_meters":30400,"station_id":"ce4bhah2rcd13ifvqei0","pricing_plan_id":"free"},{"bike_id":"a7997a59-4e67-4ed9-a580-c29c79c5080c","system_id":"levelo_inurba_marseille","lat":43.284534,"lon":5.358662,"is_reserved":false,"is_disabled":false,"rental_uris":{"android":"levelo://app?vid=a7997a59-4e67-4ed9-a580-c29c79c5080c","ios":"levelo://app?vid=a7997a59-4e67-4ed9-a580-c29c79c5080c"},"vehicle_type_id":"4","last_reported":1686870403,"current_range_meters":28000,"station_id":"ce4bhah2rcd13ifvqei0","pricing_plan_id":"free"},{"bike_id":"39be0329-d71d-4a7b-b353-3752e89b79e9","system_id":"levelo_inurba_marseille","lat":43.284534,"lon":5.358662,"is_reserved":false,"is_disabled":false,"rental_uris":{"android":"levelo://app?vid=39be0329-d71d-4a7b-b353-3752e89b79e9","ios":"levelo://app?vid=39be0329-d71d-4a7b-b353-3752e89b79e9"},"vehicle_type_id":"4","last_reported":1686870403,"current_range_meters":30800,"station_id":"ce4bhah2rcd13ifvqei0","pricing_plan_id":"free"},{"bike_id":"914e440f-43d3-44d7-95d0-a9f35f787c25","system_id":"levelo_inurba_marseille","lat":43.284534,"lon":5.358662,"is_reserved":false,"is_disabled":false,"rental_uris":{"android":"levelo://app?vid=914e440f-43d3-44d7-95d0-a9f35f787c25","ios":"levelo://app?vid=914e440f-43d3-44d7-95d0-a9f35f787c25"},"vehicle_type_id":"4","last_reported":1686870403,"current_range_meters":13200,"station_id":"ce4bhah2rcd13ifvqei0","pricing_plan_id":"free"},{"bike_id":"d98fa9b1-bb56-47fc-99d9-1f827f8b4a0d","system_id":"levelo_inurba_marseille","lat":43.294314,"lon":5.397498,"is_reserved":false,"is_disabled":false,"rental_uris":{"android":"levelo://app?vid=d98fa9b1-bb56-47fc-99d9-1f827f8b4a0d","ios":"levelo://app?vid=d98fa9b1-bb56-47fc-99d9-1f827f8b4a0d"},"vehicle_type_id":"4","last_reported":1686870403,"current_range_meters":20000,"station_id":"ce4bh3h2rcd13ifvqdo0","pricing_plan_id":"free"},{"bike_id":"38315aba-add2-454b-a095-720ba9567da0","system_id":"levelo_inurba_marseille","lat":43.295713,"lon":5.399639,"is_reserved":false,"is_disabled":false,"rental_uris":{"android":"levelo://app?vid=38315aba-add2-454b-a095-720ba9567da0","ios":"levelo://app?vid=38315aba-add2-454b-a095-720ba9567da0"},"vehicle_type_id":"4","last_reported":1686870403,"current_range_meters":30000,"station_id":"ce4bh312rcd13ifvqdj0","pricing_plan_id":"free"},{"bike_id":"0824b79d-8a98-46b7-83cf-c0ed32c107b0","system_id":"levelo_inurba_marseille","lat":43.295713,"lon":5.399639,"is_reserved":false,"is_disabled":false,"rental_uris":{"android":"levelo://app?vid=0824b79d-8a98-46b7-83cf-c0ed32c107b0","ios":"levelo://app?vid=0824b79d-8a98-46b7-83cf-c0ed32c107b0"},"vehicle_type_id":"4","last_reported":1686870403,"current_range_meters":22400,"station_id":"ce4bh312rcd13ifvqdj0","pricing_plan_id":"free"},{"bike_id":"75b957c0-e5c1-4dcc-931a-2ebbfec4ee3f","system_id":"levelo_inurba_marseille","lat":43.295713,"lon":5.399639,"is_reserved":false,"is_disabled":false,"rental_uris":{"android":"levelo://app?vid=75b957c0-e5c1-4dcc-931a-2ebbfec4ee3f","ios":"levelo://app?vid=75b957c0-e5c1-4dcc-931a-2ebbfec4ee3f"},"vehicle_type_id":"4","last_reported":1686870403,"current_range_meters":20400,"station_id":"ce4bh312rcd13ifvqdj0","pricing_plan_id":"free"},{"bike_id":"35538741-e53a-48a2-b7cc-bb798c1d34f0","system_id":"levelo_inurba_marseille","lat":43.295713,"lon":5.399639,"is_reserved":false,"is_disabled":false,"rental_uris":{"android":"levelo://app?vid=35538741-e53a-48a2-b7cc-bb798c1d34f0","ios":"levelo://app?vid=35538741-e53a-48a2-b7cc-bb798c1d34f0"},"vehicle_type_id":"4","last_reported":1686870403,"current_range_meters":22400,"station_id":"ce4bh312rcd13ifvqdj0","pricing_plan_id":"free"},{"bike_id":"87cc5b16-46e4-4a8f-841d-3c4865b79d57","system_id":"levelo_inurba_marseille","lat":43.295713,"lon":5.399639,"is_reserved":false,"is_disabled":false,"rental_uris":{"android":"levelo://app?vid=87cc5b16-46e4-4a8f-841d-3c4865b79d57","ios":"levelo://app?vid=87cc5b16-46e4-4a8f-841d-3c4865b79d57"},"vehicle_type_id":"4","last_reported":1686870403,"current_range_meters":7600,"station_id":"ce4bh312rcd13ifvqdj0","pricing_plan_id":"free"},{"bike_id":"106362af-f187-4102-a57f-e17dc92ffeda","system_id":"levelo_inurba_marseille","lat":43.295713,"lon":5.399639,"is_reserved":false,"is_disabled":false,"rental_uris":{"android":"levelo://app?vid=106362af-f187-4102-a57f-e17dc92ffeda","ios":"levelo://app?vid=106362af-f187-4102-a57f-e17dc92ffeda"},"vehicle_type_id":"4","last_reported":1686870403,"current_range_meters":22000,"station_id":"ce4bh312rcd13ifvqdj0","pricing_plan_id":"free"},{"bike_id":"4715e304-e5f2-48fe-8f56-5ac6b6e2a2a4","system_id":"levelo_inurba_marseille","lat":43.295713,"lon":5.399639,"is_reserved":false,"is_disabled":false,"rental_uris":{"android":"levelo://app?vid=4715e304-e5f2-48fe-8f56-5ac6b6e2a2a4","ios":"levelo://app?vid=4715e304-e5f2-48fe-8f56-5ac6b6e2a2a4"},"vehicle_type_id":"4","last_reported":1686870403,"current_range_meters":10000,"station_id":"ce4bh312rcd13ifvqdj0","pricing_plan_id":"free"},{"bike_id":"6b8f9062-3c1b-48d1-98c8-be134fdaf7a1","system_id":"levelo_inurba_marseille","lat":43.28676,"lon":5.38663,"is_reserved":false,"is_disabled":false,"rental_uris":{"android":"levelo://app?vid=6b8f9062-3c1b-48d1-98c8-be134fdaf7a1","ios":"levelo://app?vid=6b8f9062-3c1b-48d1-98c8-be134fdaf7a1"},"vehicle_type_id":"4","last_reported":1686870403,"current_range_meters":8800,"station_id":"ce4bh492rcd13ifvqdug","pricing_plan_id":"free"},{"bike_id":"2520f31e-bbe8-4b18-89e8-6e49190947e1","system_id":"levelo_inurba_marseille","lat":43.286595,"lon":5.386795,"is_reserved":false,"is_disabled":false,"rental_uris":{"android":"levelo://app?vid=2520f31e-bbe8-4b18-89e8-6e49190947e1","ios":"levelo://app?vid=2520f31e-bbe8-4b18-89e8-6e49190947e1"},"vehicle_type_id":"4","last_reported":1686870403,"current_range_meters":27200,"station_id":"ce4bh492rcd13ifvqdug","pricing_plan_id":"free"},{"bike_id":"7b4fea20-34f1-498e-8afa-b4334aa24882","system_id":"levelo_inurba_marseille","lat":43.28666,"lon":5.38668,"is_reserved":false,"is_disabled":false,"rental_uris":{"android":"levelo://app?vid=7b4fea20-34f1-498e-8afa-b4334aa24882","ios":"levelo://app?vid=7b4fea20-34f1-498e-8afa-b4334aa24882"},"vehicle_type_id":"4","last_reported":1686870403,"current_range_meters":25200,"station_id":"ce4bh492rcd13ifvqdug","pricing_plan_id":"free"},{"bike_id":"ea069760-6567-4aa4-9cd4-46d3818c70e5","system_id":"levelo_inurba_marseille","lat":43.286595,"lon":5.386795,"is_reserved":false,"is_disabled":false,"rental_uris":{"android":"levelo://app?vid=ea069760-6567-4aa4-9cd4-46d3818c70e5","ios":"levelo://app?vid=ea069760-6567-4aa4-9cd4-46d3818c70e5"},"vehicle_type_id":"4","last_reported":1686870403,"current_range_meters":1600,"station_id":"ce4bh492rcd13ifvqdug","pricing_plan_id":"free"},{"bike_id":"495359c5-6118-4aff-aa1b-53ecfdc31252","system_id":"levelo_inurba_marseille","lat":43.286595,"lon":5.386795,"is_reserved":false,"is_disabled":false,"rental_uris":{"android":"levelo://app?vid=495359c5-6118-4aff-aa1b-53ecfdc31252","ios":"levelo://app?vid=495359c5-6118-4aff-aa1b-53ecfdc31252"},"vehicle_type_id":"4","last_reported":1686870403,"current_range_meters":31200,"station_id":"ce4bh492rcd13ifvqdug","pricing_plan_id":"free"},{"bike_id":"16e5fedd-6e86-436a-a0a2-72c7cd60a6ea","system_id":"levelo_inurba_marseille","lat":43.323464,"lon":5.406297,"is_reserved":false,"is_disabled":false,"rental_uris":{"android":"levelo://app?vid=16e5fedd-6e86-436a-a0a2-72c7cd60a6ea","ios":"levelo://app?vid=16e5fedd-6e86-436a-a0a2-72c7cd60a6ea"},"vehicle_type_id":"4","last_reported":1686870403,"current_range_meters":30800,"station_id":"ce4bhq92rcd13ifvqhjg","pricing_plan_id":"free"},{"bike_id":"39f6ae1d-0bf0-4d03-9bfa-2ea3bbbb992c","system_id":"levelo_inurba_marseille","lat":43.323464,"lon":5.406297,"is_reserved":false,"is_disabled":false,"rental_uris":{"android":"levelo://app?vid=39f6ae1d-0bf0-4d03-9bfa-2ea3bbbb992c","ios":"levelo://app?vid=39f6ae1d-0bf0-4d03-9bfa-2ea3bbbb992c"},"vehicle_type_id":"4","last_reported":1686870403,"current_range_meters":31200,"station_id":"ce4bhq92rcd13ifvqhjg","pricing_plan_id":"free"},{"bike_id":"07e0ff6d-6d44-4ac4-ae41-b30d37d75d89","system_id":"levelo_inurba_marseille","lat":43.323464,"lon":5.406297,"is_reserved":false,"is_disabled":false,"rental_uris":{"android":"levelo://app?vid=07e0ff6d-6d44-4ac4-ae41-b30d37d75d89","ios":"levelo://app?vid=07e0ff6d-6d44-4ac4-ae41-b30d37d75d89"},"vehicle_type_id":"4","last_reported":1686870403,"current_range_meters":22400,"station_id":"ce4bhq92rcd13ifvqhjg","pricing_plan_id":"free"},{"bike_id":"6a7adaaf-4b57-443b-9e54-2cf5bc569cdc","system_id":"levelo_inurba_marseille","lat":43.284793,"lon":5.384113,"is_reserved":false,"is_disabled":false,"rental_uris":{"android":"levelo://app?vid=6a7adaaf-4b57-443b-9e54-2cf5bc569cdc","ios":"levelo://app?vid=6a7adaaf-4b57-443b-9e54-2cf5bc569cdc"},"vehicle_type_id":"4","last_reported":1686870403,"current_range_meters":9600,"station_id":"ce4bh512rcd13ifvqe3g","pricing_plan_id":"free"},{"bike_id":"aa24bb74-92e1-4857-8293-6b5c161e0a7a","system_id":"levelo_inurba_marseille","lat":43.284793,"lon":5.384113,"is_reserved":false,"is_disabled":false,"rental_uris":{"android":"levelo://app?vid=aa24bb74-92e1-4857-8293-6b5c161e0a7a","ios":"levelo://app?vid=aa24bb74-92e1-4857-8293-6b5c161e0a7a"},"vehicle_type_id":"4","last_reported":1686870403,"current_range_meters":2400,"station_id":"ce4bh512rcd13ifvqe3g","pricing_plan_id":"free"},{"bike_id":"00b4d942-d645-4a17-a320-9c02b5ecca68","system_id":"levelo_inurba_marseille","lat":43.288497,"lon":5.393089,"is_reserved":false,"is_disabled":false,"rental_uris":{"android":"levelo://app?vid=00b4d942-d645-4a17-a320-9c02b5ecca68","ios":"levelo://app?vid=00b4d942-d645-4a17-a320-9c02b5ecca68"},"vehicle_type_id":"4","last_reported":1686870403,"current_range_meters":20000,"station_id":"ce4bh2p2rcd13ifvqdi0","pricing_plan_id":"free"},{"bike_id":"a0f26fca-78f7-410a-8e5d-a74d96eb4be1","system_id":"levelo_inurba_marseille","lat":43.284787,"lon":5.384116,"is_reserved":false,"is_disabled":false,"rental_uris":{"android":"levelo://app?vid=a0f26fca-78f7-410a-8e5d-a74d96eb4be1","ios":"levelo://app?vid=a0f26fca-78f7-410a-8e5d-a74d96eb4be1"},"vehicle_type_id":"4","last_reported":1686870403,"current_range_meters":28400,"station_id":"ce4bh512rcd13ifvqe3g","pricing_plan_id":"free"},{"bike_id":"7cb13420-4367-4e6a-8f43-3b6e6355bab3","system_id":"levelo_inurba_marseille","lat":43.288497,"lon":5.393089,"is_reserved":false,"is_disabled":false,"rental_uris":{"android":"levelo://app?vid=7cb13420-4367-4e6a-8f43-3b6e6355bab3","ios":"levelo://app?vid=7cb13420-4367-4e6a-8f43-3b6e6355bab3"},"vehicle_type_id":"4","last_reported":1686870403,"current_range_meters":20000,"station_id":"ce4bh2p2rcd13ifvqdi0","pricing_plan_id":"free"},{"bike_id":"13b623ff-f8cd-4b2e-a79d-1be928d078b6","system_id":"levelo_inurba_marseille","lat":43.283498,"lon":5.380948,"is_reserved":false,"is_disabled":false,"rental_uris":{"android":"levelo://app?vid=13b623ff-f8cd-4b2e-a79d-1be928d078b6","ios":"levelo://app?vid=13b623ff-f8cd-4b2e-a79d-1be928d078b6"},"vehicle_type_id":"4","last_reported":1686870403,"current_range_meters":16800,"station_id":"ce4bh412rcd13ifvqdr0","pricing_plan_id":"free"},{"bike_id":"8c4e3aeb-e1d6-46b0-b192-e32dcdb4518f","system_id":"levelo_inurba_marseille","lat":43.283494,"lon":5.380945,"is_reserved":false,"is_disabled":false,"rental_uris":{"android":"levelo://app?vid=8c4e3aeb-e1d6-46b0-b192-e32dcdb4518f","ios":"levelo://app?vid=8c4e3aeb-e1d6-46b0-b192-e32dcdb4518f"},"vehicle_type_id":"4","last_reported":1686870403,"current_range_meters":800,"station_id":"ce4bh412rcd13ifvqdr0","pricing_plan_id":"free"},{"bike_id":"badfb8e9-7680-48e3-b36a-628476a7f62a","system_id":"levelo_inurba_marseille","lat":43.283494,"lon":5.380945,"is_reserved":false,"is_disabled":false,"rental_uris":{"android":"levelo://app?vid=badfb8e9-7680-48e3-b36a-628476a7f62a","ios":"levelo://app?vid=badfb8e9-7680-48e3-b36a-628476a7f62a"},"vehicle_type_id":"4","last_reported":1686870403,"current_range_meters":18000,"station_id":"ce4bh412rcd13ifvqdr0","pricing_plan_id":"free"},{"bike_id":"9b9db7c9-6c68-44c0-b3b4-922d570abf41","system_id":"levelo_inurba_marseille","lat":43.283494,"lon":5.380945,"is_reserved":false,"is_disabled":false,"rental_uris":{"android":"levelo://app?vid=9b9db7c9-6c68-44c0-b3b4-922d570abf41","ios":"levelo://app?vid=9b9db7c9-6c68-44c0-b3b4-922d570abf41"},"vehicle_type_id":"4","last_reported":1686870403,"current_range_meters":13600,"station_id":"ce4bh412rcd13ifvqdr0","pricing_plan_id":"free"},{"bike_id":"8d259ba8-5fe4-4144-b59d-b4d7c110ac6a","system_id":"levelo_inurba_marseille","lat":43.283498,"lon":5.380948,"is_reserved":false,"is_disabled":false,"rental_uris":{"android":"levelo://app?vid=8d259ba8-5fe4-4144-b59d-b4d7c110ac6a","ios":"levelo://app?vid=8d259ba8-5fe4-4144-b59d-b4d7c110ac6a"},"vehicle_type_id":"4","last_reported":1686870403,"current_range_meters":21600,"station_id":"ce4bh412rcd13ifvqdr0","pricing_plan_id":"free"},{"bike_id":"3ce48866-e4ef-4775-ae02-38f87dacbc46","system_id":"levelo_inurba_marseille","lat":43.283494,"lon":5.380945,"is_reserved":false,"is_disabled":false,"rental_uris":{"android":"levelo://app?vid=3ce48866-e4ef-4775-ae02-38f87dacbc46","ios":"levelo://app?vid=3ce48866-e4ef-4775-ae02-38f87dacbc46"},"vehicle_type_id":"4","last_reported":1686870403,"current_range_meters":12000,"station_id":"ce4bh412rcd13ifvqdr0","pricing_plan_id":"free"},{"bike_id":"47eba72d-7908-4563-95af-9fb3a658415c","system_id":"levelo_inurba_marseille","lat":43.28346,"lon":5.38101,"is_reserved":false,"is_disabled":false,"rental_uris":{"android":"levelo://app?vid=47eba72d-7908-4563-95af-9fb3a658415c","ios":"levelo://app?vid=47eba72d-7908-4563-95af-9fb3a658415c"},"vehicle_type_id":"4","last_reported":1686870403,"current_range_meters":25600,"station_id":"ce4bh412rcd13ifvqdr0","pricing_plan_id":"free"},{"bike_id":"efda9132-d415-4570-b4b5-c690d7b08401","system_id":"levelo_inurba_marseille","lat":43.283494,"lon":5.380945,"is_reserved":false,"is_disabled":false,"rental_uris":{"android":"levelo://app?vid=efda9132-d415-4570-b4b5-c690d7b08401","ios":"levelo://app?vid=efda9132-d415-4570-b4b5-c690d7b08401"},"vehicle_type_id":"4","last_reported":1686870403,"current_range_meters":26000,"station_id":"ce4bh412rcd13ifvqdr0","pricing_plan_id":"free"},{"bike_id":"f690bed8-6d5b-4c87-892b-be321282541f","system_id":"levelo_inurba_marseille","lat":43.283498,"lon":5.380948,"is_reserved":false,"is_disabled":false,"rental_uris":{"android":"levelo://app?vid=f690bed8-6d5b-4c87-892b-be321282541f","ios":"levelo://app?vid=f690bed8-6d5b-4c87-892b-be321282541f"},"vehicle_type_id":"4","last_reported":1686870403,"current_range_meters":24400,"station_id":"ce4bh412rcd13ifvqdr0","pricing_plan_id":"free"},{"bike_id":"a20397d1-e067-4d41-82d4-c87dde52f0b0","system_id":"levelo_inurba_marseille","lat":43.289363,"lon":5.396322,"is_reserved":false,"is_disabled":false,"rental_uris":{"android":"levelo://app?vid=a20397d1-e067-4d41-82d4-c87dde52f0b0","ios":"levelo://app?vid=a20397d1-e067-4d41-82d4-c87dde52f0b0"},"vehicle_type_id":"4","last_reported":1686870403,"current_range_meters":20800,"station_id":"ce4bh3h2rcd13ifvqdn0","pricing_plan_id":"free"},{"bike_id":"f1bd3b93-8bcd-4c5a-a16a-f8bb97c55297","system_id":"levelo_inurba_marseille","lat":43.289363,"lon":5.396322,"is_reserved":false,"is_disabled":false,"rental_uris":{"android":"levelo://app?vid=f1bd3b93-8bcd-4c5a-a16a-f8bb97c55297","ios":"levelo://app?vid=f1bd3b93-8bcd-4c5a-a16a-f8bb97c55297"},"vehicle_type_id":"4","last_reported":1686870403,"current_range_meters":12400,"station_id":"ce4bh3h2rcd13ifvqdn0","pricing_plan_id":"free"},{"bike_id":"32ee5626-8ded-447d-8e93-bd71e2fbd0e5","system_id":"levelo_inurba_marseille","lat":43.280382,"lon":5.369291,"is_reserved":false,"is_disabled":false,"rental_uris":{"android":"levelo://app?vid=32ee5626-8ded-447d-8e93-bd71e2fbd0e5","ios":"levelo://app?vid=32ee5626-8ded-447d-8e93-bd71e2fbd0e5"},"vehicle_type_id":"4","last_reported":1686870403,"current_range_meters":15600,"station_id":"ce4bha12rcd13ifvqef0","pricing_plan_id":"free"},{"bike_id":"5bc543d5-dbbc-4856-9191-4beb587dc8ad","system_id":"levelo_inurba_marseille","lat":43.28039,"lon":5.369297,"is_reserved":false,"is_disabled":false,"rental_uris":{"android":"levelo://app?vid=5bc543d5-dbbc-4856-9191-4beb587dc8ad","ios":"levelo://app?vid=5bc543d5-dbbc-4856-9191-4beb587dc8ad"},"vehicle_type_id":"4","last_reported":1686870403,"current_range_meters":30800,"station_id":"ce4bha12rcd13ifvqef0","pricing_plan_id":"free"},{"bike_id":"199899a7-290c-4486-8ee7-5fd83d73d1cf","system_id":"levelo_inurba_marseille","lat":43.28039,"lon":5.369297,"is_reserved":false,"is_disabled":false,"rental_uris":{"android":"levelo://app?vid=199899a7-290c-4486-8ee7-5fd83d73d1cf","ios":"levelo://app?vid=199899a7-290c-4486-8ee7-5fd83d73d1cf"},"vehicle_type_id":"4","last_reported":1686870403,"current_range_meters":17200,"station_id":"ce4bha12rcd13ifvqef0","pricing_plan_id":"free"},{"bike_id":"8c48e428-3af3-4cfd-971e-8d4efeb347fc","system_id":"levelo_inurba_marseille","lat":43.290412,"lon":5.399633,"is_reserved":false,"is_disabled":false,"rental_uris":{"android":"levelo://app?vid=8c48e428-3af3-4cfd-971e-8d4efeb347fc","ios":"levelo://app?vid=8c48e428-3af3-4cfd-971e-8d4efeb347fc"},"vehicle_type_id":"4","last_reported":1686870403,"current_range_meters":2800,"station_id":"ce4bh392rcd13ifvqdm0","pricing_plan_id":"free"},{"bike_id":"cccad83f-12b5-43e5-948b-8a16cbfdd474","system_id":"levelo_inurba_marseille","lat":43.29033,"lon":5.39957,"is_reserved":false,"is_disabled":false,"rental_uris":{"android":"levelo://app?vid=cccad83f-12b5-43e5-948b-8a16cbfdd474","ios":"levelo://app?vid=cccad83f-12b5-43e5-948b-8a16cbfdd474"},"vehicle_type_id":"4","last_reported":1686870403,"current_range_meters":0,"station_id":"ce4bh392rcd13ifvqdm0","pricing_plan_id":"free"},{"bike_id":"be824bc5-10ad-4ae3-ac35-405df02cae14","system_id":"levelo_inurba_marseille","lat":43.29041,"lon":5.399634,"is_reserved":false,"is_disabled":false,"rental_uris":{"android":"levelo://app?vid=be824bc5-10ad-4ae3-ac35-405df02cae14","ios":"levelo://app?vid=be824bc5-10ad-4ae3-ac35-405df02cae14"},"vehicle_type_id":"4","last_reported":1686870403,"current_range_meters":29200,"station_id":"ce4bh392rcd13ifvqdm0","pricing_plan_id":"free"},{"bike_id":"74a8bca5-5841-4263-91fe-dcc7d8903341","system_id":"levelo_inurba_marseille","lat":43.281044,"lon":5.378308,"is_reserved":false,"is_disabled":false,"rental_uris":{"android":"levelo://app?vid=74a8bca5-5841-4263-91fe-dcc7d8903341","ios":"levelo://app?vid=74a8bca5-5841-4263-91fe-dcc7d8903341"},"vehicle_type_id":"4","last_reported":1686870403,"current_range_meters":31200,"station_id":"ce4bha12rcd13ifvqee0","pricing_plan_id":"free"},{"bike_id":"588bec76-897a-433a-a688-f34d011b71ac","system_id":"levelo_inurba_marseille","lat":43.29041,"lon":5.399634,"is_reserved":false,"is_disabled":false,"rental_uris":{"android":"levelo://app?vid=588bec76-897a-433a-a688-f34d011b71ac","ios":"levelo://app?vid=588bec76-897a-433a-a688-f34d011b71ac"},"vehicle_type_id":"4","last_reported":1686870403,"current_range_meters":11200,"station_id":"ce4bh392rcd13ifvqdm0","pricing_plan_id":"free"},{"bike_id":"d22173a7-32ec-48e1-9c0d-ad1730377144","system_id":"levelo_inurba_marseille","lat":43.281044,"lon":5.378308,"is_reserved":false,"is_disabled":false,"rental_uris":{"android":"levelo://app?vid=d22173a7-32ec-48e1-9c0d-ad1730377144","ios":"levelo://app?vid=d22173a7-32ec-48e1-9c0d-ad1730377144"},"vehicle_type_id":"4","last_reported":1686870403,"current_range_meters":19600,"station_id":"ce4bha12rcd13ifvqee0","pricing_plan_id":"free"},{"bike_id":"742fb553-e745-4249-8de8-dcc00781687c","system_id":"levelo_inurba_marseille","lat":43.281044,"lon":5.378308,"is_reserved":false,"is_disabled":false,"rental_uris":{"android":"levelo://app?vid=742fb553-e745-4249-8de8-dcc00781687c","ios":"levelo://app?vid=742fb553-e745-4249-8de8-dcc00781687c"},"vehicle_type_id":"4","last_reported":1686870403,"current_range_meters":30000,"station_id":"ce4bha12rcd13ifvqee0","pricing_plan_id":"free"},{"bike_id":"4c237c16-1d12-4041-892a-571d6fb6aed5","system_id":"levelo_inurba_marseille","lat":43.281044,"lon":5.378308,"is_reserved":false,"is_disabled":false,"rental_uris":{"android":"levelo://app?vid=4c237c16-1d12-4041-892a-571d6fb6aed5","ios":"levelo://app?vid=4c237c16-1d12-4041-892a-571d6fb6aed5"},"vehicle_type_id":"4","last_reported":1686870403,"current_range_meters":31200,"station_id":"ce4bha12rcd13ifvqee0","pricing_plan_id":"free"},{"bike_id":"aa81995d-6081-4a66-a6ec-75ba2ee3f6b8","system_id":"levelo_inurba_marseille","lat":43.281044,"lon":5.378308,"is_reserved":false,"is_disabled":false,"rental_uris":{"android":"levelo://app?vid=aa81995d-6081-4a66-a6ec-75ba2ee3f6b8","ios":"levelo://app?vid=aa81995d-6081-4a66-a6ec-75ba2ee3f6b8"},"vehicle_type_id":"4","last_reported":1686870403,"current_range_meters":31200,"station_id":"ce4bha12rcd13ifvqee0","pricing_plan_id":"free"},{"bike_id":"6db862b2-7e5b-43fc-ac3d-3ede5faee54c","system_id":"levelo_inurba_marseille","lat":43.281044,"lon":5.378308,"is_reserved":false,"is_disabled":false,"rental_uris":{"android":"levelo://app?vid=6db862b2-7e5b-43fc-ac3d-3ede5faee54c","ios":"levelo://app?vid=6db862b2-7e5b-43fc-ac3d-3ede5faee54c"},"vehicle_type_id":"4","last_reported":1686870403,"current_range_meters":16800,"station_id":"ce4bha12rcd13ifvqee0","pricing_plan_id":"free"},{"bike_id":"1c5f3ed6-5503-457f-b0da-3e97de99f3f6","system_id":"levelo_inurba_marseille","lat":43.284462,"lon":5.392121,"is_reserved":false,"is_disabled":false,"rental_uris":{"android":"levelo://app?vid=1c5f3ed6-5503-457f-b0da-3e97de99f3f6","ios":"levelo://app?vid=1c5f3ed6-5503-457f-b0da-3e97de99f3f6"},"vehicle_type_id":"4","last_reported":1686870403,"current_range_meters":10400,"station_id":"ce4bhoh2rcd13ifvqh5g","pricing_plan_id":"free"},{"bike_id":"61ae1735-18a4-4fa8-baa8-e7e4c3dc872d","system_id":"levelo_inurba_marseille","lat":43.284462,"lon":5.392121,"is_reserved":false,"is_disabled":false,"rental_uris":{"android":"levelo://app?vid=61ae1735-18a4-4fa8-baa8-e7e4c3dc872d","ios":"levelo://app?vid=61ae1735-18a4-4fa8-baa8-e7e4c3dc872d"},"vehicle_type_id":"4","last_reported":1686870403,"current_range_meters":29600,"station_id":"ce4bhoh2rcd13ifvqh5g","pricing_plan_id":"free"},{"bike_id":"7fb39ba9-a415-4801-8cb6-726f0b6dca69","system_id":"levelo_inurba_marseille","lat":43.284462,"lon":5.392121,"is_reserved":false,"is_disabled":false,"rental_uris":{"android":"levelo://app?vid=7fb39ba9-a415-4801-8cb6-726f0b6dca69","ios":"levelo://app?vid=7fb39ba9-a415-4801-8cb6-726f0b6dca69"},"vehicle_type_id":"4","last_reported":1686870403,"current_range_meters":22800,"station_id":"ce4bhoh2rcd13ifvqh5g","pricing_plan_id":"free"},{"bike_id":"b20ca1dc-7b4a-4a7b-814d-e42100e57ffd","system_id":"levelo_inurba_marseille","lat":43.284462,"lon":5.392121,"is_reserved":false,"is_disabled":false,"rental_uris":{"android":"levelo://app?vid=b20ca1dc-7b4a-4a7b-814d-e42100e57ffd","ios":"levelo://app?vid=b20ca1dc-7b4a-4a7b-814d-e42100e57ffd"},"vehicle_type_id":"4","last_reported":1686870403,"current_range_meters":25200,"station_id":"ce4bhoh2rcd13ifvqh5g","pricing_plan_id":"free"},{"bike_id":"8e32439b-b0c3-4e47-8b5a-6b2113afdcae","system_id":"levelo_inurba_marseille","lat":43.284462,"lon":5.392121,"is_reserved":false,"is_disabled":false,"rental_uris":{"android":"levelo://app?vid=8e32439b-b0c3-4e47-8b5a-6b2113afdcae","ios":"levelo://app?vid=8e32439b-b0c3-4e47-8b5a-6b2113afdcae"},"vehicle_type_id":"4","last_reported":1686870403,"current_range_meters":4800,"station_id":"ce4bhoh2rcd13ifvqh5g","pricing_plan_id":"free"},{"bike_id":"6f81be0f-6bb7-4aee-9f69-2e4d6178d53e","system_id":"levelo_inurba_marseille","lat":43.284462,"lon":5.392121,"is_reserved":false,"is_disabled":false,"rental_uris":{"android":"levelo://app?vid=6f81be0f-6bb7-4aee-9f69-2e4d6178d53e","ios":"levelo://app?vid=6f81be0f-6bb7-4aee-9f69-2e4d6178d53e"},"vehicle_type_id":"4","last_reported":1686870403,"current_range_meters":400,"station_id":"ce4bhoh2rcd13ifvqh5g","pricing_plan_id":"free"},{"bike_id":"81eef93a-a0be-46df-be13-a6121db1ea10","system_id":"levelo_inurba_marseille","lat":43.284462,"lon":5.392121,"is_reserved":false,"is_disabled":false,"rental_uris":{"android":"levelo://app?vid=81eef93a-a0be-46df-be13-a6121db1ea10","ios":"levelo://app?vid=81eef93a-a0be-46df-be13-a6121db1ea10"},"vehicle_type_id":"4","last_reported":1686870403,"current_range_meters":22400,"station_id":"ce4bhoh2rcd13ifvqh5g","pricing_plan_id":"free"},{"bike_id":"0cec1efc-5fdb-4389-8362-3076f5c23d4e","system_id":"levelo_inurba_marseille","lat":43.284462,"lon":5.392121,"is_reserved":false,"is_disabled":false,"rental_uris":{"android":"levelo://app?vid=0cec1efc-5fdb-4389-8362-3076f5c23d4e","ios":"levelo://app?vid=0cec1efc-5fdb-4389-8362-3076f5c23d4e"},"vehicle_type_id":"4","last_reported":1686870403,"current_range_meters":27200,"station_id":"ce4bhoh2rcd13ifvqh5g","pricing_plan_id":"free"},{"bike_id":"1d3ba9f1-e296-4afc-9937-a7cfa6e9b93d","system_id":"levelo_inurba_marseille","lat":43.285742,"lon":5.395004,"is_reserved":false,"is_disabled":false,"rental_uris":{"android":"levelo://app?vid=1d3ba9f1-e296-4afc-9937-a7cfa6e9b93d","ios":"levelo://app?vid=1d3ba9f1-e296-4afc-9937-a7cfa6e9b93d"},"vehicle_type_id":"4","last_reported":1686870403,"current_range_meters":26400,"station_id":"ce4bh292rcd13ifvqdg0","pricing_plan_id":"free"},{"bike_id":"54e83a07-881b-48aa-9994-dead08b5a6a9","system_id":"levelo_inurba_marseille","lat":43.285742,"lon":5.395004,"is_reserved":false,"is_disabled":false,"rental_uris":{"android":"levelo://app?vid=54e83a07-881b-48aa-9994-dead08b5a6a9","ios":"levelo://app?vid=54e83a07-881b-48aa-9994-dead08b5a6a9"},"vehicle_type_id":"4","last_reported":1686870403,"current_range_meters":26800,"station_id":"ce4bh292rcd13ifvqdg0","pricing_plan_id":"free"},{"bike_id":"54b0f0c4-72cf-4375-bd01-e2f23cd949af","system_id":"levelo_inurba_marseille","lat":43.326605,"lon":5.409903,"is_reserved":false,"is_disabled":false,"rental_uris":{"android":"levelo://app?vid=54b0f0c4-72cf-4375-bd01-e2f23cd949af","ios":"levelo://app?vid=54b0f0c4-72cf-4375-bd01-e2f23cd949af"},"vehicle_type_id":"4","last_reported":1686870403,"current_range_meters":23600,"station_id":"ce4bhpp2rcd13ifvqhgg","pricing_plan_id":"free"},{"bike_id":"04bdda83-11c6-4765-8dfd-f0185a804f64","system_id":"levelo_inurba_marseille","lat":43.27905,"lon":5.38006,"is_reserved":false,"is_disabled":false,"rental_uris":{"android":"levelo://app?vid=04bdda83-11c6-4765-8dfd-f0185a804f64","ios":"levelo://app?vid=04bdda83-11c6-4765-8dfd-f0185a804f64"},"vehicle_type_id":"4","last_reported":1686870403,"current_range_meters":25200,"station_id":"","pricing_plan_id":"free"},{"bike_id":"02f679b4-1c56-49dc-bec0-0d1ee2f42648","system_id":"levelo_inurba_marseille","lat":43.27903,"lon":5.38007,"is_reserved":false,"is_disabled":false,"rental_uris":{"android":"levelo://app?vid=02f679b4-1c56-49dc-bec0-0d1ee2f42648","ios":"levelo://app?vid=02f679b4-1c56-49dc-bec0-0d1ee2f42648"},"vehicle_type_id":"4","last_reported":1686870403,"current_range_meters":5600,"station_id":"","pricing_plan_id":"free"},{"bike_id":"6d8d703a-3e66-4c17-b231-f00df55bd81b","system_id":"levelo_inurba_marseille","lat":43.287154,"lon":5.399979,"is_reserved":false,"is_disabled":false,"rental_uris":{"android":"levelo://app?vid=6d8d703a-3e66-4c17-b231-f00df55bd81b","ios":"levelo://app?vid=6d8d703a-3e66-4c17-b231-f00df55bd81b"},"vehicle_type_id":"4","last_reported":1686870403,"current_range_meters":17200,"station_id":"ce4bho92rcd13ifvqh3g","pricing_plan_id":"free"},{"bike_id":"f24d3ad2-1227-428b-a307-a9f0cc607b8e","system_id":"levelo_inurba_marseille","lat":43.287154,"lon":5.399979,"is_reserved":false,"is_disabled":false,"rental_uris":{"android":"levelo://app?vid=f24d3ad2-1227-428b-a307-a9f0cc607b8e","ios":"levelo://app?vid=f24d3ad2-1227-428b-a307-a9f0cc607b8e"},"vehicle_type_id":"4","last_reported":1686870403,"current_range_meters":400,"station_id":"ce4bho92rcd13ifvqh3g","pricing_plan_id":"free"},{"bike_id":"3a0319dd-4ea7-42d7-bbcf-e0191d027470","system_id":"levelo_inurba_marseille","lat":43.28699,"lon":5.39969,"is_reserved":false,"is_disabled":false,"rental_uris":{"android":"levelo://app?vid=3a0319dd-4ea7-42d7-bbcf-e0191d027470","ios":"levelo://app?vid=3a0319dd-4ea7-42d7-bbcf-e0191d027470"},"vehicle_type_id":"4","last_reported":1686870403,"current_range_meters":400,"station_id":"","pricing_plan_id":"free"},{"bike_id":"8bd5e3ea-fb56-49a8-944e-8403d74d93af","system_id":"levelo_inurba_marseille","lat":43.287154,"lon":5.399979,"is_reserved":false,"is_disabled":false,"rental_uris":{"android":"levelo://app?vid=8bd5e3ea-fb56-49a8-944e-8403d74d93af","ios":"levelo://app?vid=8bd5e3ea-fb56-49a8-944e-8403d74d93af"},"vehicle_type_id":"4","last_reported":1686870403,"current_range_meters":21200,"station_id":"ce4bho92rcd13ifvqh3g","pricing_plan_id":"free"},{"bike_id":"ea967abb-a876-4c72-8bb9-16a10cde1264","system_id":"levelo_inurba_marseille","lat":43.28704,"lon":5.39977,"is_reserved":false,"is_disabled":false,"rental_uris":{"android":"levelo://app?vid=ea967abb-a876-4c72-8bb9-16a10cde1264","ios":"levelo://app?vid=ea967abb-a876-4c72-8bb9-16a10cde1264"},"vehicle_type_id":"4","last_reported":1686870403,"current_range_meters":6400,"station_id":"ce4bho92rcd13ifvqh3g","pricing_plan_id":"free"},{"bike_id":"c6d92e70-9343-4d93-b0cf-44e319992519","system_id":"levelo_inurba_marseille","lat":43.287154,"lon":5.399979,"is_reserved":false,"is_disabled":false,"rental_uris":{"android":"levelo://app?vid=c6d92e70-9343-4d93-b0cf-44e319992519","ios":"levelo://app?vid=c6d92e70-9343-4d93-b0cf-44e319992519"},"vehicle_type_id":"4","last_reported":1686870403,"current_range_meters":29200,"station_id":"ce4bho92rcd13ifvqh3g","pricing_plan_id":"free"},{"bike_id":"ca5ae337-77d1-42f6-9bb7-25723fbee9fb","system_id":"levelo_inurba_marseille","lat":43.27896,"lon":5.3801,"is_reserved":false,"is_disabled":false,"rental_uris":{"android":"levelo://app?vid=ca5ae337-77d1-42f6-9bb7-25723fbee9fb","ios":"levelo://app?vid=ca5ae337-77d1-42f6-9bb7-25723fbee9fb"},"vehicle_type_id":"4","last_reported":1686870403,"current_range_meters":0,"station_id":"","pricing_plan_id":"free"},{"bike_id":"573b7df6-0338-4c5f-9877-f181bd8a7848","system_id":"levelo_inurba_marseille","lat":43.287,"lon":5.39977,"is_reserved":false,"is_disabled":false,"rental_uris":{"android":"levelo://app?vid=573b7df6-0338-4c5f-9877-f181bd8a7848","ios":"levelo://app?vid=573b7df6-0338-4c5f-9877-f181bd8a7848"},"vehicle_type_id":"4","last_reported":1686870403,"current_range_meters":4400,"station_id":"ce4bho92rcd13ifvqh3g","pricing_plan_id":"free"},{"bike_id":"946de8b7-01be-4aad-9f0e-39fae7941628","system_id":"levelo_inurba_marseille","lat":43.287154,"lon":5.399979,"is_reserved":false,"is_disabled":false,"rental_uris":{"android":"levelo://app?vid=946de8b7-01be-4aad-9f0e-39fae7941628","ios":"levelo://app?vid=946de8b7-01be-4aad-9f0e-39fae7941628"},"vehicle_type_id":"4","last_reported":1686870403,"current_range_meters":8400,"station_id":"ce4bho92rcd13ifvqh3g","pricing_plan_id":"free"},{"bike_id":"6726f068-5eda-4898-8825-063024c01492","system_id":"levelo_inurba_marseille","lat":43.287154,"lon":5.399979,"is_reserved":false,"is_disabled":false,"rental_uris":{"android":"levelo://app?vid=6726f068-5eda-4898-8825-063024c01492","ios":"levelo://app?vid=6726f068-5eda-4898-8825-063024c01492"},"vehicle_type_id":"4","last_reported":1686870403,"current_range_meters":26000,"station_id":"ce4bho92rcd13ifvqh3g","pricing_plan_id":"free"},{"bike_id":"6d5cdc8c-7ccc-492d-a013-ffd02713685a","system_id":"levelo_inurba_marseille","lat":43.28697,"lon":5.39987,"is_reserved":false,"is_disabled":false,"rental_uris":{"android":"levelo://app?vid=6d5cdc8c-7ccc-492d-a013-ffd02713685a","ios":"levelo://app?vid=6d5cdc8c-7ccc-492d-a013-ffd02713685a"},"vehicle_type_id":"4","last_reported":1686870403,"current_range_meters":26000,"station_id":"ce4bho92rcd13ifvqh3g","pricing_plan_id":"free"},{"bike_id":"ef584c1f-1074-4570-8caa-59960306af3e","system_id":"levelo_inurba_marseille","lat":43.287154,"lon":5.399979,"is_reserved":false,"is_disabled":false,"rental_uris":{"android":"levelo://app?vid=ef584c1f-1074-4570-8caa-59960306af3e","ios":"levelo://app?vid=ef584c1f-1074-4570-8caa-59960306af3e"},"vehicle_type_id":"4","last_reported":1686870403,"current_range_meters":9600,"station_id":"ce4bho92rcd13ifvqh3g","pricing_plan_id":"free"},{"bike_id":"473b9a2c-60a6-4768-9a94-99a9be94ffa6","system_id":"levelo_inurba_marseille","lat":43.32538,"lon":5.41422,"is_reserved":false,"is_disabled":false,"rental_uris":{"android":"levelo://app?vid=473b9a2c-60a6-4768-9a94-99a9be94ffa6","ios":"levelo://app?vid=473b9a2c-60a6-4768-9a94-99a9be94ffa6"},"vehicle_type_id":"4","last_reported":1686870403,"current_range_meters":25600,"station_id":"ce4bhq12rcd13ifvqhhg","pricing_plan_id":"free"},{"bike_id":"eea870b0-f564-4e1b-bf4e-abcd6edc2f19","system_id":"levelo_inurba_marseille","lat":43.292571,"lon":5.409107,"is_reserved":false,"is_disabled":false,"rental_uris":{"android":"levelo://app?vid=eea870b0-f564-4e1b-bf4e-abcd6edc2f19","ios":"levelo://app?vid=eea870b0-f564-4e1b-bf4e-abcd6edc2f19"},"vehicle_type_id":"4","last_reported":1686870403,"current_range_meters":23200,"station_id":"ce4bh192rcd13ifvqdc0","pricing_plan_id":"free"},{"bike_id":"9bba3495-767a-414e-81af-ac0ab6b33320","system_id":"levelo_inurba_marseille","lat":43.325233,"lon":5.414318,"is_reserved":false,"is_disabled":false,"rental_uris":{"android":"levelo://app?vid=9bba3495-767a-414e-81af-ac0ab6b33320","ios":"levelo://app?vid=9bba3495-767a-414e-81af-ac0ab6b33320"},"vehicle_type_id":"4","last_reported":1686870403,"current_range_meters":29200,"station_id":"ce4bhq12rcd13ifvqhhg","pricing_plan_id":"free"},{"bike_id":"77b50fcd-03e2-4db0-a735-06c399454ce7","system_id":"levelo_inurba_marseille","lat":43.325243,"lon":5.414324,"is_reserved":false,"is_disabled":false,"rental_uris":{"android":"levelo://app?vid=77b50fcd-03e2-4db0-a735-06c399454ce7","ios":"levelo://app?vid=77b50fcd-03e2-4db0-a735-06c399454ce7"},"vehicle_type_id":"4","last_reported":1686870403,"current_range_meters":16800,"station_id":"","pricing_plan_id":"free"},{"bike_id":"42425702-0dd5-4c09-80b1-b35341e43931","system_id":"levelo_inurba_marseille","lat":43.292571,"lon":5.409107,"is_reserved":false,"is_disabled":false,"rental_uris":{"android":"levelo://app?vid=42425702-0dd5-4c09-80b1-b35341e43931","ios":"levelo://app?vid=42425702-0dd5-4c09-80b1-b35341e43931"},"vehicle_type_id":"4","last_reported":1686870403,"current_range_meters":17200,"station_id":"ce4bh192rcd13ifvqdc0","pricing_plan_id":"free"},{"bike_id":"dad94c9f-351e-4387-9420-bcbe1151a2ef","system_id":"levelo_inurba_marseille","lat":43.292571,"lon":5.409107,"is_reserved":false,"is_disabled":false,"rental_uris":{"android":"levelo://app?vid=dad94c9f-351e-4387-9420-bcbe1151a2ef","ios":"levelo://app?vid=dad94c9f-351e-4387-9420-bcbe1151a2ef"},"vehicle_type_id":"4","last_reported":1686870403,"current_range_meters":17600,"station_id":"ce4bh192rcd13ifvqdc0","pricing_plan_id":"free"},{"bike_id":"2f6c160d-0ccd-4cdb-b64f-d8d517e270ea","system_id":"levelo_inurba_marseille","lat":43.292571,"lon":5.409107,"is_reserved":false,"is_disabled":false,"rental_uris":{"android":"levelo://app?vid=2f6c160d-0ccd-4cdb-b64f-d8d517e270ea","ios":"levelo://app?vid=2f6c160d-0ccd-4cdb-b64f-d8d517e270ea"},"vehicle_type_id":"4","last_reported":1686870403,"current_range_meters":8800,"station_id":"ce4bh192rcd13ifvqdc0","pricing_plan_id":"free"},{"bike_id":"7446fad7-62fe-436d-848c-80026a7bd0db","system_id":"levelo_inurba_marseille","lat":43.292571,"lon":5.409107,"is_reserved":false,"is_disabled":false,"rental_uris":{"android":"levelo://app?vid=7446fad7-62fe-436d-848c-80026a7bd0db","ios":"levelo://app?vid=7446fad7-62fe-436d-848c-80026a7bd0db"},"vehicle_type_id":"4","last_reported":1686870403,"current_range_meters":20400,"station_id":"ce4bh192rcd13ifvqdc0","pricing_plan_id":"free"},{"bike_id":"27ae0813-1b6c-476e-b26e-7f8f4fc5b3d2","system_id":"levelo_inurba_marseille","lat":43.292571,"lon":5.409107,"is_reserved":false,"is_disabled":false,"rental_uris":{"android":"levelo://app?vid=27ae0813-1b6c-476e-b26e-7f8f4fc5b3d2","ios":"levelo://app?vid=27ae0813-1b6c-476e-b26e-7f8f4fc5b3d2"},"vehicle_type_id":"4","last_reported":1686870403,"current_range_meters":18400,"station_id":"ce4bh192rcd13ifvqdc0","pricing_plan_id":"free"},{"bike_id":"808a7b2e-b853-410d-a028-60d905433bc1","system_id":"levelo_inurba_marseille","lat":43.325233,"lon":5.414318,"is_reserved":false,"is_disabled":false,"rental_uris":{"android":"levelo://app?vid=808a7b2e-b853-410d-a028-60d905433bc1","ios":"levelo://app?vid=808a7b2e-b853-410d-a028-60d905433bc1"},"vehicle_type_id":"4","last_reported":1686870403,"current_range_meters":31600,"station_id":"ce4bhq12rcd13ifvqhhg","pricing_plan_id":"free"},{"bike_id":"5022f31c-3431-48c0-899d-4f3fa33c4729","system_id":"levelo_inurba_marseille","lat":43.325233,"lon":5.414318,"is_reserved":false,"is_disabled":false,"rental_uris":{"android":"levelo://app?vid=5022f31c-3431-48c0-899d-4f3fa33c4729","ios":"levelo://app?vid=5022f31c-3431-48c0-899d-4f3fa33c4729"},"vehicle_type_id":"4","last_reported":1686870403,"current_range_meters":31200,"station_id":"ce4bhq12rcd13ifvqhhg","pricing_plan_id":"free"},{"bike_id":"194f005f-d243-475b-b231-e2ca17435696","system_id":"levelo_inurba_marseille","lat":43.280784,"lon":5.396622,"is_reserved":false,"is_disabled":false,"rental_uris":{"android":"levelo://app?vid=194f005f-d243-475b-b231-e2ca17435696","ios":"levelo://app?vid=194f005f-d243-475b-b231-e2ca17435696"},"vehicle_type_id":"4","last_reported":1686870403,"current_range_meters":27600,"station_id":"ce4bho12rcd13ifvqh2g","pricing_plan_id":"free"},{"bike_id":"ea77134c-3f97-4991-891b-5154beb57fd2","system_id":"levelo_inurba_marseille","lat":43.336134,"lon":5.410341,"is_reserved":false,"is_disabled":false,"rental_uris":{"android":"levelo://app?vid=ea77134c-3f97-4991-891b-5154beb57fd2","ios":"levelo://app?vid=ea77134c-3f97-4991-891b-5154beb57fd2"},"vehicle_type_id":"4","last_reported":1686870403,"current_range_meters":30000,"station_id":"ce4bhqh2rcd13ifvqhmg","pricing_plan_id":"free"},{"bike_id":"bfbc8490-2ba5-46b4-bab9-8dfb63557449","system_id":"levelo_inurba_marseille","lat":43.303837,"lon":5.418724,"is_reserved":false,"is_disabled":false,"rental_uris":{"android":"levelo://app?vid=bfbc8490-2ba5-46b4-bab9-8dfb63557449","ios":"levelo://app?vid=bfbc8490-2ba5-46b4-bab9-8dfb63557449"},