{"last_updated":1747066369,"ttl":60,"version":"2.2","data":{"bikes":[{"bike_id":"c0b9fd4f-e181-46ce-b0bf-f5119973334f","system_id":"levelo_inurba_marseille","lat":43.33771,"lon":5.37424,"is_reserved":false,"is_disabled":false,"rental_uris":{"android":"levelo://app?vid=c0b9fd4f-e181-46ce-b0bf-f5119973334f","ios":"levelo://app?vid=c0b9fd4f-e181-46ce-b0bf-f5119973334f"},"vehicle_type_id":"4","last_reported":1747066369,"current_range_meters":27600,"station_id":"","pricing_plan_id":"cebpf4jnsgd1na2vs0mg"},{"bike_id":"229001d2-7627-43e0-aeea-2d75580fd339","system_id":"levelo_inurba_marseille","lat":43.3377,"lon":5.37469,"is_reserved":false,"is_disabled":true,"rental_uris":{"android":"levelo://app?vid=229001d2-7627-43e0-aeea-2d75580fd339","ios":"levelo://app?vid=229001d2-7627-43e0-aeea-2d75580fd339"},"vehicle_type_id":"4","last_reported":1747066369,"current_range_meters":0,"station_id":"","pricing_plan_id":"cebpf4jnsgd1na2vs0mg"},{"bike_id":"52fba427-deaf-4f65-a88b-95254ff1eff9","system_id":"levelo_inurba_marseille","lat":43.2509,"lon":5.40232,"is_reserved":false,"is_disabled":true,"rental_uris":{"android":"levelo://app?vid=52fba427-deaf-4f65-a88b-95254ff1eff9","ios":"levelo://app?vid=52fba427-deaf-4f65-a88b-95254ff1eff9"},"vehicle_type_id":"4","last_reported":1747066369,"current_range_meters":0,"station_id":"","pricing_plan_id":"cebpf4jnsgd1na2vs0mg"},{"bike_id":"0041870b-7fdb-4b81-913d-bf69896103c5","system_id":"levelo_inurba_marseille","lat":43.27813,"lon":5.40719,"is_reserved":false,"is_disabled":true,"rental_uris":{"android":"levelo://app?vid=0041870b-7fdb-4b81-913d-bf69896103c5","ios":"levelo://app?vid=0041870b-7fdb-4b81-913d-bf69896103c5"},"vehicle_type_id":"4","last_reported":1747066369,"current_range_meters":0,"station_id":"","pricing_plan_id":"cebpf4jnsgd1na2vs0mg"},{"bike_id":"828418bc-b6f3-4668-865d-c3a8b014b129","system_id":"levelo_inurba_marseille","lat":43.33772,"lon":5.3747,"is_reserved":false,"is_disabled":true,"rental_uris":{"android":"levelo://app?vid=828418bc-b6f3-4668-865d-c3a8b014b129","ios":"levelo://app?vid=828418bc-b6f3-4668-865d-c3a8b014b129"},"vehicle_type_id":"4","last_reported":1747066369,"current_range_meters":0,"station_id":"","pricing_plan_id":"cebpf4jnsgd1na2vs0mg"},{"bike_id":"96c72210-ffd5-494a-89c0-bed5ae154cce","system_id":"levelo_inurba_marseille","lat":43.268246,"lon":5.41097,"is_reserved":false,"is_disabled":true,"rental_uris":{"android":"levelo://app?vid=96c72210-ffd5-494a-89c0-bed5ae154cce","ios":"levelo://app?vid=96c72210-ffd5-494a-89c0-bed5ae154cce"},"vehicle_type_id":"4","last_reported":1747066369,"current_range_meters":0,"station_id":"","pricing_plan_id":"cebpf4jnsgd1na2vs0mg"},{"bike_id":"95468c42-5f37-4c2a-9d39-654eceb37e53","system_id":"levelo_inurba_marseille","lat":43.29287,"lon":5.3746,"is_reserved":false,"is_disabled":true,"rental_uris":{"android":"levelo://app?vid=95468c42-5f37-4c2a-9d39-654eceb37e53","ios":"levelo://app?vid=95468c42-5f37-4c2a-9d39-654eceb37e53"},"vehicle_type_id":"4","last_reported":1747066369,"current_range_meters":0,"station_id":"ce4bgi12rcd13ifvqb70","pricing_plan_id":"cebpf4jnsgd1na2vs0mg"},{"bike_id":"55e209da-2595-4e1b-bbf3-85cc416f3916","system_id":"levelo_inurba_marseille","lat":43.27605,"lon":5.36124,"is_reserved":false,"is_disabled":true,"rental_uris":{"android":"levelo://app?vid=55e209da-2595-4e1b-bbf3-85cc416f3916","ios":"levelo://app?vid=55e209da-2595-4e1b-bbf3-85cc416f3916"},"vehicle_type_id":"4","last_reported":1747066369,"current_range_meters":0,"station_id":"ce4bgj92rcd13ifvqbe0","pricing_plan_id":"cebpf4jnsgd1na2vs0mg"},{"bike_id":"793fefcd-a138-4e4f-9533-2e305cf8eab2","system_id":"levelo_inurba_marseille","lat":43.27619,"lon":5.3611,"is_reserved":false,"is_disabled":true,"rental_uris":{"android":"levelo://app?vid=793fefcd-a138-4e4f-9533-2e305cf8eab2","ios":"levelo://app?vid=793fefcd-a138-4e4f-9533-2e305cf8eab2"},"vehicle_type_id":"4","last_reported":1747066369,"current_range_meters":0,"station_id":"ce4bgj92rcd13ifvqbe0","pricing_plan_id":"cebpf4jnsgd1na2vs0mg"},{"bike_id":"8925312c-5fa1-40a8-882f-23cc9d62590e","system_id":"levelo_inurba_marseille","lat":43.29875,"lon":5.39732,"is_reserved":false,"is_disabled":true,"rental_uris":{"android":"levelo://app?vid=8925312c-5fa1-40a8-882f-23cc9d62590e","ios":"levelo://app?vid=8925312c-5fa1-40a8-882f-23cc9d62590e"},"vehicle_type_id":"4","last_reported":1747066369,"current_range_meters":0,"station_id":"ce4bh0h2rcd13ifvqd50","pricing_plan_id":"cebpf4jnsgd1na2vs0mg"},{"bike_id":"bdc02e91-90e0-49cc-b765-fa9884f37b7f","system_id":"levelo_inurba_marseille","lat":43.29258,"lon":5.40906,"is_reserved":false,"is_disabled":true,"rental_uris":{"android":"levelo://app?vid=bdc02e91-90e0-49cc-b765-fa9884f37b7f","ios":"levelo://app?vid=bdc02e91-90e0-49cc-b765-fa9884f37b7f"},"vehicle_type_id":"4","last_reported":1747066369,"current_range_meters":0,"station_id":"ce4bh192rcd13ifvqdc0","pricing_plan_id":"cebpf4jnsgd1na2vs0mg"},{"bike_id":"fcded865-1630-4482-845e-2fee07bcdf95","system_id":"levelo_inurba_marseille","lat":43.28837,"lon":5.39318,"is_reserved":false,"is_disabled":true,"rental_uris":{"android":"levelo://app?vid=fcded865-1630-4482-845e-2fee07bcdf95","ios":"levelo://app?vid=fcded865-1630-4482-845e-2fee07bcdf95"},"vehicle_type_id":"4","last_reported":1747066369,"current_range_meters":0,"station_id":"ce4bh2p2rcd13ifvqdi0","pricing_plan_id":"cebpf4jnsgd1na2vs0mg"},{"bike_id":"3b29520b-8e21-490d-b08a-e02df31599bb","system_id":"levelo_inurba_marseille","lat":43.28669,"lon":5.38668,"is_reserved":false,"is_disabled":true,"rental_uris":{"android":"levelo://app?vid=3b29520b-8e21-490d-b08a-e02df31599bb","ios":"levelo://app?vid=3b29520b-8e21-490d-b08a-e02df31599bb"},"vehicle_type_id":"4","last_reported":1747066369,"current_range_meters":0,"station_id":"ce4bh492rcd13ifvqdug","pricing_plan_id":"cebpf4jnsgd1na2vs0mg"},{"bike_id":"40417a61-f02a-426e-9740-9ca02122a0c1","system_id":"levelo_inurba_marseille","lat":43.27376,"lon":5.36269,"is_reserved":false,"is_disabled":true,"rental_uris":{"android":"levelo://app?vid=40417a61-f02a-426e-9740-9ca02122a0c1","ios":"levelo://app?vid=40417a61-f02a-426e-9740-9ca02122a0c1"},"vehicle_type_id":"4","last_reported":1747066369,"current_range_meters":0,"station_id":"ce4bhbh2rcd13ifvqeo0","pricing_plan_id":"cebpf4jnsgd1na2vs0mg"},{"bike_id":"0a00907e-4992-4cf6-b871-51cceceee59c","system_id":"levelo_inurba_marseille","lat":43.27316,"lon":5.3908,"is_reserved":false,"is_disabled":true,"rental_uris":{"android":"levelo://app?vid=0a00907e-4992-4cf6-b871-51cceceee59c","ios":"levelo://app?vid=0a00907e-4992-4cf6-b871-51cceceee59c"},"vehicle_type_id":"4","last_reported":1747066369,"current_range_meters":0,"station_id":"ce4bhgp2rcd13ifvqfe0","pricing_plan_id":"cebpf4jnsgd1na2vs0mg"},{"bike_id":"1b80c3b6-a672-4340-a80e-f9eb86f661a3","system_id":"levelo_inurba_marseille","lat":43.2703,"lon":5.40282,"is_reserved":false,"is_disabled":true,"rental_uris":{"android":"levelo://app?vid=1b80c3b6-a672-4340-a80e-f9eb86f661a3","ios":"levelo://app?vid=1b80c3b6-a672-4340-a80e-f9eb86f661a3"},"vehicle_type_id":"4","last_reported":1747066369,"current_range_meters":0,"station_id":"ce4bhk92rcd13ifvqgc0","pricing_plan_id":"cebpf4jnsgd1na2vs0mg"},{"bike_id":"72e0d1bb-65a0-44b9-b7d3-96e9f6412c0e","system_id":"levelo_inurba_marseille","lat":43.25121,"lon":5.39551,"is_reserved":false,"is_disabled":true,"rental_uris":{"android":"levelo://app?vid=72e0d1bb-65a0-44b9-b7d3-96e9f6412c0e","ios":"levelo://app?vid=72e0d1bb-65a0-44b9-b7d3-96e9f6412c0e"},"vehicle_type_id":"4","last_reported":1747066369,"current_range_meters":0,"station_id":"ce4bhm12rcd13ifvqgkg","pricing_plan_id":"cebpf4jnsgd1na2vs0mg"},{"bike_id":"d2802074-8f9d-40e3-b207-c89edb655a13","system_id":"levelo_inurba_marseille","lat":43.24177,"lon":5.39742,"is_reserved":false,"is_disabled":true,"rental_uris":{"android":"levelo://app?vid=d2802074-8f9d-40e3-b207-c89edb655a13","ios":"levelo://app?vid=d2802074-8f9d-40e3-b207-c89edb655a13"},"vehicle_type_id":"4","last_reported":1747066369,"current_range_meters":0,"station_id":"ce4bhn12rcd13ifvqgpg","pricing_plan_id":"cebpf4jnsgd1na2vs0mg"},{"bike_id":"a97939e3-62bf-44d7-9f69-a61d311e3f70","system_id":"levelo_inurba_marseille","lat":43.23182,"lon":5.39991,"is_reserved":false,"is_disabled":true,"rental_uris":{"android":"levelo://app?vid=a97939e3-62bf-44d7-9f69-a61d311e3f70","ios":"levelo://app?vid=a97939e3-62bf-44d7-9f69-a61d311e3f70"},"vehicle_type_id":"4","last_reported":1747066369,"current_range_meters":0,"station_id":"ce4bhn12rcd13ifvqgqg","pricing_plan_id":"cebpf4jnsgd1na2vs0mg"},{"bike_id":"5e7c9b6b-7695-49ad-8d53-ad1ae3069955","system_id":"levelo_inurba_marseille","lat":43.23192,"lon":5.35555,"is_reserved":false,"is_disabled":true,"rental_uris":{"android":"levelo://app?vid=5e7c9b6b-7695-49ad-8d53-ad1ae3069955","ios":"levelo://app?vid=5e7c9b6b-7695-49ad-8d53-ad1ae3069955"},"vehicle_type_id":"4","last_reported":1747066369,"current_range_meters":0,"station_id":"ce4bhu92rcd13ifvqi70","pricing_plan_id":"cebpf4jnsgd1na2vs0mg"},{"bike_id":"08f2e171-0db1-4ac3-909d-955c798686b2","system_id":"levelo_inurba_marseille","lat":43.26805,"lon":5.40271,"is_reserved":false,"is_disabled":true,"rental_uris":{"android":"levelo://app?vid=08f2e171-0db1-4ac3-909d-955c798686b2","ios":"levelo://app?vid=08f2e171-0db1-4ac3-909d-955c798686b2"},"vehicle_type_id":"4","last_reported":1747066369,"current_range_meters":0,"station_id":"ce501612rcd8frsf0b60","pricing_plan_id":"cebpf4jnsgd1na2vs0mg"},{"bike_id":"bcd174bf-57d4-488d-b31f-d9d855ac8bd0","system_id":"levelo_inurba_marseille","lat":43.29788,"lon":5.39349,"is_reserved":false,"is_disabled":true,"rental_uris":{"android":"levelo://app?vid=bcd174bf-57d4-488d-b31f-d9d855ac8bd0","ios":"levelo://app?vid=bcd174bf-57d4-488d-b31f-d9d855ac8bd0"},"vehicle_type_id":"4","last_reported":1747066369,"current_range_meters":0,"station_id":"chh1huq6cuj3fo74tm60","pricing_plan_id":"cebpf4jnsgd1na2vs0mg"},{"bike_id":"657a2dad-484c-40d6-af50-bdff79ef4583","system_id":"levelo_inurba_marseille","lat":43.29975,"lon":5.38487,"is_reserved":false,"is_disabled":true,"rental_uris":{"android":"levelo://app?vid=657a2dad-484c-40d6-af50-bdff79ef4583","ios":"levelo://app?vid=657a2dad-484c-40d6-af50-bdff79ef4583"},"vehicle_type_id":"4","last_reported":1747066369,"current_range_meters":400,"station_id":"ce4bgj92rcd13ifvqbd0","pricing_plan_id":"cebpf4jnsgd1na2vs0mg"},{"bike_id":"4cd6bbe1-fb7c-403f-a381-1ea5ff969af9","system_id":"levelo_inurba_marseille","lat":43.30426,"lon":5.39748,"is_reserved":false,"is_disabled":true,"rental_uris":{"android":"levelo://app?vid=4cd6bbe1-fb7c-403f-a381-1ea5ff969af9","ios":"levelo://app?vid=4cd6bbe1-fb7c-403f-a381-1ea5ff969af9"},"vehicle_type_id":"4","last_reported":1747066369,"current_range_meters":400,"station_id":"ce4bh092rcd13ifvqd20","pricing_plan_id":"cebpf4jnsgd1na2vs0mg"},{"bike_id":"a3e68df2-ec43-443c-a99b-4adafa748e5f","system_id":"levelo_inurba_marseille","lat":43.3013,"lon":5.39865,"is_reserved":false,"is_disabled":true,"rental_uris":{"android":"levelo://app?vid=a3e68df2-ec43-443c-a99b-4adafa748e5f","ios":"levelo://app?vid=a3e68df2-ec43-443c-a99b-4adafa748e5f"},"vehicle_type_id":"4","last_reported":1747066369,"current_range_meters":400,"station_id":"ce4bh0h2rcd13ifvqd40","pricing_plan_id":"cebpf4jnsgd1na2vs0mg"},{"bike_id":"0ce7d06e-7b40-4fd5-bfaa-27c2b06257a1","system_id":"levelo_inurba_marseille","lat":43.23963,"lon":5.36633,"is_reserved":false,"is_disabled":true,"rental_uris":{"android":"levelo://app?vid=0ce7d06e-7b40-4fd5-bfaa-27c2b06257a1","ios":"levelo://app?vid=0ce7d06e-7b40-4fd5-bfaa-27c2b06257a1"},"vehicle_type_id":"4","last_reported":1747066369,"current_range_meters":400,"station_id":"ce4bhi12rcd13ifvqfp0","pricing_plan_id":"cebpf4jnsgd1na2vs0mg"},{"bike_id":"df45e01e-b3cc-426e-949c-def2365df1f9","system_id":"levelo_inurba_marseille","lat":43.303808,"lon":5.378415,"is_reserved":false,"is_disabled":true,"rental_uris":{"android":"levelo://app?vid=df45e01e-b3cc-426e-949c-def2365df1f9","ios":"levelo://app?vid=df45e01e-b3cc-426e-949c-def2365df1f9"},"vehicle_type_id":"4","last_reported":1747066369,"current_range_meters":800,"station_id":"ce4bgup2rcd13ifvqcn0","pricing_plan_id":"cebpf4jnsgd1na2vs0mg"},{"bike_id":"0b3814f0-2ba3-4ebc-862a-5c880ce1d37b","system_id":"levelo_inurba_marseille","lat":43.28352,"lon":5.38101,"is_reserved":false,"is_disabled":true,"rental_uris":{"android":"levelo://app?vid=0b3814f0-2ba3-4ebc-862a-5c880ce1d37b","ios":"levelo://app?vid=0b3814f0-2ba3-4ebc-862a-5c880ce1d37b"},"vehicle_type_id":"4","last_reported":1747066369,"current_range_meters":800,"station_id":"ce4bh412rcd13ifvqdr0","pricing_plan_id":"cebpf4jnsgd1na2vs0mg"},{"bike_id":"86728f82-b19a-4ea5-9b25-aea09cc79ecd","system_id":"levelo_inurba_marseille","lat":43.2903,"lon":5.38651,"is_reserved":false,"is_disabled":true,"rental_uris":{"android":"levelo://app?vid=86728f82-b19a-4ea5-9b25-aea09cc79ecd","ios":"levelo://app?vid=86728f82-b19a-4ea5-9b25-aea09cc79ecd"},"vehicle_type_id":"4","last_reported":1747066369,"current_range_meters":800,"station_id":"ce4bh4p2rcd13ifvqe0g","pricing_plan_id":"cebpf4jnsgd1na2vs0mg"},{"bike_id":"ba06074a-0c82-4220-aaf7-380ad7c8b8ff","system_id":"levelo_inurba_marseille","lat":43.231903,"lon":5.355513,"is_reserved":false,"is_disabled":true,"rental_uris":{"android":"levelo://app?vid=ba06074a-0c82-4220-aaf7-380ad7c8b8ff","ios":"levelo://app?vid=ba06074a-0c82-4220-aaf7-380ad7c8b8ff"},"vehicle_type_id":"4","last_reported":1747066369,"current_range_meters":800,"station_id":"ce4bh692rcd13ifvqea0","pricing_plan_id":"cebpf4jnsgd1na2vs0mg"},{"bike_id":"06c42044-a613-4b8b-8bfb-cabea2182592","system_id":"levelo_inurba_marseille","lat":43.24665,"lon":5.38155,"is_reserved":false,"is_disabled":true,"rental_uris":{"android":"levelo://app?vid=06c42044-a613-4b8b-8bfb-cabea2182592","ios":"levelo://app?vid=06c42044-a613-4b8b-8bfb-cabea2182592"},"vehicle_type_id":"4","last_reported":1747066369,"current_range_meters":800,"station_id":"ce4bhih2rcd13ifvqfr0","pricing_plan_id":"cebpf4jnsgd1na2vs0mg"},{"bike_id":"be176304-4590-4f97-92d7-6e2ad5cf8495","system_id":"levelo_inurba_marseille","lat":43.24548,"lon":5.39526,"is_reserved":false,"is_disabled":true,"rental_uris":{"android":"levelo://app?vid=be176304-4590-4f97-92d7-6e2ad5cf8495","ios":"levelo://app?vid=be176304-4590-4f97-92d7-6e2ad5cf8495"},"vehicle_type_id":"4","last_reported":1747066369,"current_range_meters":800,"station_id":"ce4bhlp2rcd13ifvqgjg","pricing_plan_id":"cebpf4jnsgd1na2vs0mg"},{"bike_id":"b96e4101-34bc-4cf7-9bf4-f8e31aaa2b15","system_id":"levelo_inurba_marseille","lat":43.2818,"lon":5.38571,"is_reserved":false,"is_disabled":true,"rental_uris":{"android":"levelo://app?vid=b96e4101-34bc-4cf7-9bf4-f8e31aaa2b15","ios":"levelo://app?vid=b96e4101-34bc-4cf7-9bf4-f8e31aaa2b15"},"vehicle_type_id":"4","last_reported":1747066369,"current_range_meters":1200,"station_id":"","pricing_plan_id":"cebpf4jnsgd1na2vs0mg"},{"bike_id":"57669a8f-c702-472e-bcf0-4736bec80359","system_id":"levelo_inurba_marseille","lat":43.30945,"lon":5.39032,"is_reserved":false,"is_disabled":true,"rental_uris":{"android":"levelo://app?vid=57669a8f-c702-472e-bcf0-4736bec80359","ios":"levelo://app?vid=57669a8f-c702-472e-bcf0-4736bec80359"},"vehicle_type_id":"4","last_reported":1747066369,"current_range_meters":1200,"station_id":"","pricing_plan_id":"cebpf4jnsgd1na2vs0mg"},{"bike_id":"d399eac4-621a-4322-a006-70581e4be089","system_id":"levelo_inurba_marseille","lat":43.31234,"lon":5.38045,"is_reserved":false,"is_disabled":true,"rental_uris":{"android":"levelo://app?vid=d399eac4-621a-4322-a006-70581e4be089","ios":"levelo://app?vid=d399eac4-621a-4322-a006-70581e4be089"},"vehicle_type_id":"4","last_reported":1747066369,"current_range_meters":1200,"station_id":"","pricing_plan_id":"cebpf4jnsgd1na2vs0mg"},{"bike_id":"7aa9ae52-7577-4c6d-ac30-ffcc3def021d","system_id":"levelo_inurba_marseille","lat":43.26558,"lon":5.39012,"is_reserved":false,"is_disabled":true,"rental_uris":{"android":"levelo://app?vid=7aa9ae52-7577-4c6d-ac30-ffcc3def021d","ios":"levelo://app?vid=7aa9ae52-7577-4c6d-ac30-ffcc3def021d"},"vehicle_type_id":"4","last_reported":1747066369,"current_range_meters":1200,"station_id":"ce4bhe12rcd13ifvqf30","pricing_plan_id":"cebpf4jnsgd1na2vs0mg"},{"bike_id":"4e4ec88f-a409-4bf9-8154-739796cc08f3","system_id":"levelo_inurba_marseille","lat":43.27922,"lon":5.39587,"is_reserved":false,"is_disabled":true,"rental_uris":{"android":"levelo://app?vid=4e4ec88f-a409-4bf9-8154-739796cc08f3","ios":"levelo://app?vid=4e4ec88f-a409-4bf9-8154-739796cc08f3"},"vehicle_type_id":"4","last_reported":1747066369,"current_range_meters":1200,"station_id":"ce4bhf92rcd13ifvqf40","pricing_plan_id":"cebpf4jnsgd1na2vs0mg"},{"bike_id":"1f22d2be-149d-49a9-bb76-46d6fc8ad263","system_id":"levelo_inurba_marseille","lat":43.24658,"lon":5.38166,"is_reserved":false,"is_disabled":true,"rental_uris":{"android":"levelo://app?vid=1f22d2be-149d-49a9-bb76-46d6fc8ad263","ios":"levelo://app?vid=1f22d2be-149d-49a9-bb76-46d6fc8ad263"},"vehicle_type_id":"4","last_reported":1747066369,"current_range_meters":1200,"station_id":"ce4bhih2rcd13ifvqfr0","pricing_plan_id":"cebpf4jnsgd1na2vs0mg"},{"bike_id":"b25ddec0-1379-4904-a3a1-37acf4b7c2d6","system_id":"levelo_inurba_marseille","lat":43.25087,"lon":5.39527,"is_reserved":false,"is_disabled":true,"rental_uris":{"android":"levelo://app?vid=b25ddec0-1379-4904-a3a1-37acf4b7c2d6","ios":"levelo://app?vid=b25ddec0-1379-4904-a3a1-37acf4b7c2d6"},"vehicle_type_id":"4","last_reported":1747066369,"current_range_meters":1200,"station_id":"ce4bhm12rcd13ifvqgkg","pricing_plan_id":"cebpf4jnsgd1na2vs0mg"},{"bike_id":"e6d0a96a-a5ae-48bd-ad20-397a5c71089b","system_id":"levelo_inurba_marseille","lat":43.23184,"lon":5.39983,"is_reserved":false,"is_disabled":true,"rental_uris":{"android":"levelo://app?vid=e6d0a96a-a5ae-48bd-ad20-397a5c71089b","ios":"levelo://app?vid=e6d0a96a-a5ae-48bd-ad20-397a5c71089b"},"vehicle_type_id":"4","last_reported":1747066369,"current_range_meters":1200,"station_id":"ce4bhn12rcd13ifvqgqg","pricing_plan_id":"cebpf4jnsgd1na2vs0mg"},{"bike_id":"7f8c7345-d406-4807-af7f-35cfceed3814","system_id":"levelo_inurba_marseille","lat":43.22932,"lon":5.35377,"is_reserved":false,"is_disabled":true,"rental_uris":{"android":"levelo://app?vid=7f8c7345-d406-4807-af7f-35cfceed3814","ios":"levelo://app?vid=7f8c7345-d406-4807-af7f-35cfceed3814"},"vehicle_type_id":"4","last_reported":1747066369,"current_range_meters":1200,"station_id":"cpo3532slgdg3j2ikp40","pricing_plan_id":"cebpf4jnsgd1na2vs0mg"},{"bike_id":"de2e0eba-a246-4989-8222-cef341dea91e","system_id":"levelo_inurba_marseille","lat":43.2925,"lon":5.37602,"is_reserved":false,"is_disabled":true,"rental_uris":{"android":"levelo://app?vid=de2e0eba-a246-4989-8222-cef341dea91e","ios":"levelo://app?vid=de2e0eba-a246-4989-8222-cef341dea91e"},"vehicle_type_id":"4","last_reported":1747066369,"current_range_meters":1600,"station_id":"ce4bgi12rcd13ifvqb80","pricing_plan_id":"cebpf4jnsgd1na2vs0mg"},{"bike_id":"f0a04ece-d70c-42f9-8d4d-de0f3e0f393e","system_id":"levelo_inurba_marseille","lat":43.29848,"lon":5.36283,"is_reserved":false,"is_disabled":true,"rental_uris":{"android":"levelo://app?vid=f0a04ece-d70c-42f9-8d4d-de0f3e0f393e","ios":"levelo://app?vid=f0a04ece-d70c-42f9-8d4d-de0f3e0f393e"},"vehicle_type_id":"4","last_reported":1747066369,"current_range_meters":1600,"station_id":"ce4bgpp2rcd13ifvqc3g","pricing_plan_id":"cebpf4jnsgd1na2vs0mg"},{"bike_id":"cb27393e-a944-41cc-baef-2db59f6bc096","system_id":"levelo_inurba_marseille","lat":43.31487,"lon":5.37308,"is_reserved":false,"is_disabled":true,"rental_uris":{"android":"levelo://app?vid=cb27393e-a944-41cc-baef-2db59f6bc096","ios":"levelo://app?vid=cb27393e-a944-41cc-baef-2db59f6bc096"},"vehicle_type_id":"4","last_reported":1747066369,"current_range_meters":1600,"station_id":"ce4bgt12rcd13ifvqcd0","pricing_plan_id":"cebpf4jnsgd1na2vs0mg"},{"bike_id":"8d0a69f6-44f0-440d-8c53-a371c2fc6ef2","system_id":"levelo_inurba_marseille","lat":43.28849,"lon":5.35863,"is_reserved":false,"is_disabled":true,"rental_uris":{"android":"levelo://app?vid=8d0a69f6-44f0-440d-8c53-a371c2fc6ef2","ios":"levelo://app?vid=8d0a69f6-44f0-440d-8c53-a371c2fc6ef2"},"vehicle_type_id":"4","last_reported":1747066369,"current_range_meters":1600,"station_id":"ce4bhb12rcd13ifvqem0","pricing_plan_id":"cebpf4jnsgd1na2vs0mg"},{"bike_id":"0c48d3b7-b329-4bea-ad13-f08429f35cf4","system_id":"levelo_inurba_marseille","lat":43.26555,"lon":5.39007,"is_reserved":false,"is_disabled":true,"rental_uris":{"android":"levelo://app?vid=0c48d3b7-b329-4bea-ad13-f08429f35cf4","ios":"levelo://app?vid=0c48d3b7-b329-4bea-ad13-f08429f35cf4"},"vehicle_type_id":"4","last_reported":1747066369,"current_range_meters":1600,"station_id":"ce4bhe12rcd13ifvqf30","pricing_plan_id":"cebpf4jnsgd1na2vs0mg"},{"bike_id":"3b6965a8-9e17-46b0-9880-977f0aa1dd00","system_id":"levelo_inurba_marseille","lat":43.25111,"lon":5.40324,"is_reserved":false,"is_disabled":true,"rental_uris":{"android":"levelo://app?vid=3b6965a8-9e17-46b0-9880-977f0aa1dd00","ios":"levelo://app?vid=3b6965a8-9e17-46b0-9880-977f0aa1dd00"},"vehicle_type_id":"4","last_reported":1747066369,"current_range_meters":1600,"station_id":"ce4bhlh2rcd13ifvqgig","pricing_plan_id":"cebpf4jnsgd1na2vs0mg"},{"bike_id":"0c2395c3-b925-43d1-8b70-3e409b5ebab6","system_id":"levelo_inurba_marseille","lat":43.27992,"lon":5.41661,"is_reserved":false,"is_disabled":true,"rental_uris":{"android":"levelo://app?vid=0c2395c3-b925-43d1-8b70-3e409b5ebab6","ios":"levelo://app?vid=0c2395c3-b925-43d1-8b70-3e409b5ebab6"},"vehicle_type_id":"4","last_reported":1747066369,"current_range_meters":1600,"station_id":"ce4bho12rcd13ifvqh1g","pricing_plan_id":"cebpf4jnsgd1na2vs0mg"},{"bike_id":"a58e3ef2-b94d-4773-a327-b98df6ff3567","system_id":"levelo_inurba_marseille","lat":43.28352,"lon":5.38108,"is_reserved":false,"is_disabled":true,"rental_uris":{"android":"levelo://app?vid=a58e3ef2-b94d-4773-a327-b98df6ff3567","ios":"levelo://app?vid=a58e3ef2-b94d-4773-a327-b98df6ff3567"},"vehicle_type_id":"4","last_reported":1747066369,"current_range_meters":2000,"station_id":"ce4bh412rcd13ifvqdr0","pricing_plan_id":"cebpf4jnsgd1na2vs0mg"},{"bike_id":"269f89aa-b298-43f7-92d4-8b8347480011","system_id":"levelo_inurba_marseille","lat":43.28934,"lon":5.36635,"is_reserved":false,"is_disabled":true,"rental_uris":{"android":"levelo://app?vid=269f89aa-b298-43f7-92d4-8b8347480011","ios":"levelo://app?vid=269f89aa-b298-43f7-92d4-8b8347480011"},"vehicle_type_id":"4","last_reported":1747066369,"current_range_meters":2000,"station_id":"ce4bhap2rcd13ifvqek0","pricing_plan_id":"cebpf4jnsgd1na2vs0mg"},{"bike_id":"0d7c5854-8732-4c91-aff5-db64652737ee","system_id":"levelo_inurba_marseille","lat":43.25124,"lon":5.40301,"is_reserved":false,"is_disabled":false,"rental_uris":{"android":"levelo://app?vid=0d7c5854-8732-4c91-aff5-db64652737ee","ios":"levelo://app?vid=0d7c5854-8732-4c91-aff5-db64652737ee"},"vehicle_type_id":"4","last_reported":1747066369,"current_range_meters":2000,"station_id":"ce4bhlh2rcd13ifvqgig","pricing_plan_id":"cebpf4jnsgd1na2vs0mg"},{"bike_id":"015faae5-ea42-43df-907a-b6acab2e1315","system_id":"levelo_inurba_marseille","lat":43.296178,"lon":5.377165,"is_reserved":false,"is_disabled":false,"rental_uris":{"android":"levelo://app?vid=015faae5-ea42-43df-907a-b6acab2e1315","ios":"levelo://app?vid=015faae5-ea42-43df-907a-b6acab2e1315"},"vehicle_type_id":"4","last_reported":1747066369,"current_range_meters":2800,"station_id":"ce4bgi92rcd13ifvqb90","pricing_plan_id":"cebpf4jnsgd1na2vs0mg"},{"bike_id":"543b2781-44d2-44f9-9d27-fe724f29bd4a","system_id":"levelo_inurba_marseille","lat":43.29766,"lon":5.37115,"is_reserved":false,"is_disabled":false,"rental_uris":{"android":"levelo://app?vid=543b2781-44d2-44f9-9d27-fe724f29bd4a","ios":"levelo://app?vid=543b2781-44d2-44f9-9d27-fe724f29bd4a"},"vehicle_type_id":"4","last_reported":1747066369,"current_range_meters":2800,"station_id":"ce4bgop2rcd13ifvqc1g","pricing_plan_id":"cebpf4jnsgd1na2vs0mg"},{"bike_id":"7269f3c0-4335-4e08-9662-6daddd68d029","system_id":"levelo_inurba_marseille","lat":43.25086,"lon":5.3953,"is_reserved":false,"is_disabled":false,"rental_uris":{"android":"levelo://app?vid=7269f3c0-4335-4e08-9662-6daddd68d029","ios":"levelo://app?vid=7269f3c0-4335-4e08-9662-6daddd68d029"},"vehicle_type_id":"4","last_reported":1747066369,"current_range_meters":2800,"station_id":"ce4bhm12rcd13ifvqgkg","pricing_plan_id":"cebpf4jnsgd1na2vs0mg"},{"bike_id":"4fc2c597-abd3-4321-92ff-bbb79074998c","system_id":"levelo_inurba_marseille","lat":43.29977,"lon":5.38498,"is_reserved":false,"is_disabled":false,"rental_uris":{"android":"levelo://app?vid=4fc2c597-abd3-4321-92ff-bbb79074998c","ios":"levelo://app?vid=4fc2c597-abd3-4321-92ff-bbb79074998c"},"vehicle_type_id":"4","last_reported":1747066369,"current_range_meters":3200,"station_id":"ce4bgj92rcd13ifvqbd0","pricing_plan_id":"cebpf4jnsgd1na2vs0mg"},{"bike_id":"2a9bcd38-2ed5-46f9-be72-ba6869f47c8b","system_id":"levelo_inurba_marseille","lat":43.30296,"lon":5.39199,"is_reserved":false,"is_disabled":false,"rental_uris":{"android":"levelo://app?vid=2a9bcd38-2ed5-46f9-be72-ba6869f47c8b","ios":"levelo://app?vid=2a9bcd38-2ed5-46f9-be72-ba6869f47c8b"},"vehicle_type_id":"4","last_reported":1747066369,"current_range_meters":3200,"station_id":"ce4bgkh2rcd13ifvqbk0","pricing_plan_id":"cebpf4jnsgd1na2vs0mg"},{"bike_id":"33befa7e-ea89-46ba-89c3-b99e77d3cffb","system_id":"levelo_inurba_marseille","lat":43.29621,"lon":5.40595,"is_reserved":false,"is_disabled":false,"rental_uris":{"android":"levelo://app?vid=33befa7e-ea89-46ba-89c3-b99e77d3cffb","ios":"levelo://app?vid=33befa7e-ea89-46ba-89c3-b99e77d3cffb"},"vehicle_type_id":"4","last_reported":1747066369,"current_range_meters":3200,"station_id":"ce4bh0h2rcd13ifvqd60","pricing_plan_id":"cebpf4jnsgd1na2vs0mg"},{"bike_id":"07d5a95d-6410-4c97-82b8-55722515e61b","system_id":"levelo_inurba_marseille","lat":43.27828,"lon":5.39204,"is_reserved":false,"is_disabled":false,"rental_uris":{"android":"levelo://app?vid=07d5a95d-6410-4c97-82b8-55722515e61b","ios":"levelo://app?vid=07d5a95d-6410-4c97-82b8-55722515e61b"},"vehicle_type_id":"4","last_reported":1747066369,"current_range_meters":3200,"station_id":"ce4bhjp2rcd13ifvqga0","pricing_plan_id":"cebpf4jnsgd1na2vs0mg"},{"bike_id":"e542282e-b09a-43e4-a227-a44ca89bd147","system_id":"levelo_inurba_marseille","lat":43.29847,"lon":5.36271,"is_reserved":false,"is_disabled":false,"rental_uris":{"android":"levelo://app?vid=e542282e-b09a-43e4-a227-a44ca89bd147","ios":"levelo://app?vid=e542282e-b09a-43e4-a227-a44ca89bd147"},"vehicle_type_id":"4","last_reported":1747066369,"current_range_meters":3600,"station_id":"ce4bgpp2rcd13ifvqc3g","pricing_plan_id":"cebpf4jnsgd1na2vs0mg"},{"bike_id":"15293fee-05e2-467a-891e-c2c4df834419","system_id":"levelo_inurba_marseille","lat":43.29435,"lon":5.39753,"is_reserved":false,"is_disabled":false,"rental_uris":{"android":"levelo://app?vid=15293fee-05e2-467a-891e-c2c4df834419","ios":"levelo://app?vid=15293fee-05e2-467a-891e-c2c4df834419"},"vehicle_type_id":"4","last_reported":1747066369,"current_range_meters":3600,"station_id":"ce4bh3h2rcd13ifvqdo0","pricing_plan_id":"cebpf4jnsgd1na2vs0mg"},{"bike_id":"f3f30ef5-78ef-4805-8fb2-cbd995947f93","system_id":"levelo_inurba_marseille","lat":43.281532,"lon":5.426443,"is_reserved":false,"is_disabled":false,"rental_uris":{"android":"levelo://app?vid=f3f30ef5-78ef-4805-8fb2-cbd995947f93","ios":"levelo://app?vid=f3f30ef5-78ef-4805-8fb2-cbd995947f93"},"vehicle_type_id":"4","last_reported":1747066369,"current_range_meters":3600,"station_id":"ce4bhnh2rcd13ifvqgug","pricing_plan_id":"cebpf4jnsgd1na2vs0mg"},{"bike_id":"a4cd779f-42d3-4004-ace7-bc70fe281327","system_id":"levelo_inurba_marseille","lat":43.31713,"lon":5.3774,"is_reserved":false,"is_disabled":false,"rental_uris":{"android":"levelo://app?vid=a4cd779f-42d3-4004-ace7-bc70fe281327","ios":"levelo://app?vid=a4cd779f-42d3-4004-ace7-bc70fe281327"},"vehicle_type_id":"4","last_reported":1747066369,"current_range_meters":4000,"station_id":"ce4bgth2rcd13ifvqch0","pricing_plan_id":"cebpf4jnsgd1na2vs0mg"},{"bike_id":"43e99b09-46b6-468e-8750-fbe42290c985","system_id":"levelo_inurba_marseille","lat":43.28266,"lon":5.35065,"is_reserved":false,"is_disabled":false,"rental_uris":{"android":"levelo://app?vid=43e99b09-46b6-468e-8750-fbe42290c985","ios":"levelo://app?vid=43e99b09-46b6-468e-8750-fbe42290c985"},"vehicle_type_id":"4","last_reported":1747066369,"current_range_meters":4000,"station_id":"ce4bhbp2rcd13ifvqerg","pricing_plan_id":"cebpf4jnsgd1na2vs0mg"},{"bike_id":"7eaccfb5-e639-4093-870c-b28db357032b","system_id":"levelo_inurba_marseille","lat":43.25824,"lon":5.39432,"is_reserved":false,"is_disabled":false,"rental_uris":{"android":"levelo://app?vid=7eaccfb5-e639-4093-870c-b28db357032b","ios":"levelo://app?vid=7eaccfb5-e639-4093-870c-b28db357032b"},"vehicle_type_id":"4","last_reported":1747066369,"current_range_meters":4000,"station_id":"ce4bhip2rcd13ifvqft0","pricing_plan_id":"cebpf4jnsgd1na2vs0mg"},{"bike_id":"be5909b4-a68b-41b0-b085-b062a734cfee","system_id":"levelo_inurba_marseille","lat":43.28446,"lon":5.39197,"is_reserved":false,"is_disabled":false,"rental_uris":{"android":"levelo://app?vid=be5909b4-a68b-41b0-b085-b062a734cfee","ios":"levelo://app?vid=be5909b4-a68b-41b0-b085-b062a734cfee"},"vehicle_type_id":"4","last_reported":1747066369,"current_range_meters":4000,"station_id":"ce4bhoh2rcd13ifvqh5g","pricing_plan_id":"cebpf4jnsgd1na2vs0mg"},{"bike_id":"295a0221-a4e1-46be-b566-b445a9c648fc","system_id":"levelo_inurba_marseille","lat":43.28932,"lon":5.36633,"is_reserved":false,"is_disabled":false,"rental_uris":{"android":"levelo://app?vid=295a0221-a4e1-46be-b566-b445a9c648fc","ios":"levelo://app?vid=295a0221-a4e1-46be-b566-b445a9c648fc"},"vehicle_type_id":"4","last_reported":1747066369,"current_range_meters":4400,"station_id":"ce4bhap2rcd13ifvqek0","pricing_plan_id":"cebpf4jnsgd1na2vs0mg"},{"bike_id":"818157c7-da7c-4209-a445-8a2b3a8f277d","system_id":"levelo_inurba_marseille","lat":43.279,"lon":5.38012,"is_reserved":false,"is_disabled":false,"rental_uris":{"android":"levelo://app?vid=818157c7-da7c-4209-a445-8a2b3a8f277d","ios":"levelo://app?vid=818157c7-da7c-4209-a445-8a2b3a8f277d"},"vehicle_type_id":"4","last_reported":1747066369,"current_range_meters":4400,"station_id":"ce4bhf92rcd13ifvqf50","pricing_plan_id":"cebpf4jnsgd1na2vs0mg"},{"bike_id":"f5e0ae69-db15-4145-bf4a-8b1e67294202","system_id":"levelo_inurba_marseille","lat":43.25721,"lon":5.41117,"is_reserved":false,"is_disabled":false,"rental_uris":{"android":"levelo://app?vid=f5e0ae69-db15-4145-bf4a-8b1e67294202","ios":"levelo://app?vid=f5e0ae69-db15-4145-bf4a-8b1e67294202"},"vehicle_type_id":"4","last_reported":1747066369,"current_range_meters":4400,"station_id":"ce4bhkp2rcd13ifvqgd0","pricing_plan_id":"cebpf4jnsgd1na2vs0mg"},{"bike_id":"4a230c99-c729-493d-9f95-2eb78b3df34c","system_id":"levelo_inurba_marseille","lat":43.27943,"lon":5.41049,"is_reserved":false,"is_disabled":false,"rental_uris":{"android":"levelo://app?vid=4a230c99-c729-493d-9f95-2eb78b3df34c","ios":"levelo://app?vid=4a230c99-c729-493d-9f95-2eb78b3df34c"},"vehicle_type_id":"4","last_reported":1747066369,"current_range_meters":4400,"station_id":"ce4bhnp2rcd13ifvqh0g","pricing_plan_id":"cebpf4jnsgd1na2vs0mg"},{"bike_id":"fc2577e7-1497-425b-9d4f-ab8d7dc843c6","system_id":"levelo_inurba_marseille","lat":43.33771,"lon":5.37485,"is_reserved":false,"is_disabled":false,"rental_uris":{"android":"levelo://app?vid=fc2577e7-1497-425b-9d4f-ab8d7dc843c6","ios":"levelo://app?vid=fc2577e7-1497-425b-9d4f-ab8d7dc843c6"},"vehicle_type_id":"4","last_reported":1747066369,"current_range_meters":4800,"station_id":"","pricing_plan_id":"cebpf4jnsgd1na2vs0mg"},{"bike_id":"34d16631-9f36-4cad-81aa-11ab0ed5d199","system_id":"levelo_inurba_marseille","lat":43.28838,"lon":5.35854,"is_reserved":false,"is_disabled":false,"rental_uris":{"android":"levelo://app?vid=34d16631-9f36-4cad-81aa-11ab0ed5d199","ios":"levelo://app?vid=34d16631-9f36-4cad-81aa-11ab0ed5d199"},"vehicle_type_id":"4","last_reported":1747066369,"current_range_meters":4800,"station_id":"ce4bhb12rcd13ifvqem0","pricing_plan_id":"cebpf4jnsgd1na2vs0mg"},{"bike_id":"739c3252-ff1e-4429-96f2-1afe27d0df15","system_id":"levelo_inurba_marseille","lat":43.26556,"lon":5.37307,"is_reserved":false,"is_disabled":false,"rental_uris":{"android":"levelo://app?vid=739c3252-ff1e-4429-96f2-1afe27d0df15","ios":"levelo://app?vid=739c3252-ff1e-4429-96f2-1afe27d0df15"},"vehicle_type_id":"4","last_reported":1747066369,"current_range_meters":4800,"station_id":"ce4bhg12rcd13ifvqf70","pricing_plan_id":"cebpf4jnsgd1na2vs0mg"},{"bike_id":"92f847c9-72d2-4c58-a6e0-150ea83f7034","system_id":"levelo_inurba_marseille","lat":43.27571,"lon":5.38421,"is_reserved":false,"is_disabled":false,"rental_uris":{"android":"levelo://app?vid=92f847c9-72d2-4c58-a6e0-150ea83f7034","ios":"levelo://app?vid=92f847c9-72d2-4c58-a6e0-150ea83f7034"},"vehicle_type_id":"4","last_reported":1747066369,"current_range_meters":4800,"station_id":"ce4bhh92rcd13ifvqfi0","pricing_plan_id":"cebpf4jnsgd1na2vs0mg"},{"bike_id":"a96d5204-821c-4839-92a5-20f9161f8b5b","system_id":"levelo_inurba_marseille","lat":43.29569,"lon":5.39976,"is_reserved":false,"is_disabled":false,"rental_uris":{"android":"levelo://app?vid=a96d5204-821c-4839-92a5-20f9161f8b5b","ios":"levelo://app?vid=a96d5204-821c-4839-92a5-20f9161f8b5b"},"vehicle_type_id":"4","last_reported":1747066369,"current_range_meters":5600,"station_id":"ce4bh312rcd13ifvqdj0","pricing_plan_id":"cebpf4jnsgd1na2vs0mg"},{"bike_id":"9fa1a31a-85c0-42b5-ab74-f0fc1f7d028c","system_id":"levelo_inurba_marseille","lat":43.269501,"lon":5.386323,"is_reserved":false,"is_disabled":false,"rental_uris":{"android":"levelo://app?vid=9fa1a31a-85c0-42b5-ab74-f0fc1f7d028c","ios":"levelo://app?vid=9fa1a31a-85c0-42b5-ab74-f0fc1f7d028c"},"vehicle_type_id":"4","last_reported":1747066369,"current_range_meters":5600,"station_id":"ce4bhh92rcd13ifvqfh0","pricing_plan_id":"cebpf4jnsgd1na2vs0mg"},{"bike_id":"df0ea52b-6322-4166-8300-fbe48b067ed0","system_id":"levelo_inurba_marseille","lat":43.29033,"lon":5.39961,"is_reserved":false,"is_disabled":false,"rental_uris":{"android":"levelo://app?vid=df0ea52b-6322-4166-8300-fbe48b067ed0","ios":"levelo://app?vid=df0ea52b-6322-4166-8300-fbe48b067ed0"},"vehicle_type_id":"4","last_reported":1747066369,"current_range_meters":6000,"station_id":"ce4bh392rcd13ifvqdm0","pricing_plan_id":"cebpf4jnsgd1na2vs0mg"},{"bike_id":"33ac210f-8795-46c7-9fa4-d1769fcce17a","system_id":"levelo_inurba_marseille","lat":43.27998,"lon":5.40021,"is_reserved":false,"is_disabled":false,"rental_uris":{"android":"levelo://app?vid=33ac210f-8795-46c7-9fa4-d1769fcce17a","ios":"levelo://app?vid=33ac210f-8795-46c7-9fa4-d1769fcce17a"},"vehicle_type_id":"4","last_reported":1747066369,"current_range_meters":6000,"station_id":"ce4bho92rcd13ifvqh4g","pricing_plan_id":"cebpf4jnsgd1na2vs0mg"},{"bike_id":"5d8d9d93-d6f4-48b8-a891-3bdb84a02602","system_id":"levelo_inurba_marseille","lat":43.29521,"lon":5.39053,"is_reserved":false,"is_disabled":false,"rental_uris":{"android":"levelo://app?vid=5d8d9d93-d6f4-48b8-a891-3bdb84a02602","ios":"levelo://app?vid=5d8d9d93-d6f4-48b8-a891-3bdb84a02602"},"vehicle_type_id":"4","last_reported":1747066369,"current_range_meters":6400,"station_id":"","pricing_plan_id":"cebpf4jnsgd1na2vs0mg"},{"bike_id":"0ec9a37f-c03b-4cc0-889b-82cae9b2fbd4","system_id":"levelo_inurba_marseille","lat":43.28673,"lon":5.3866,"is_reserved":false,"is_disabled":false,"rental_uris":{"android":"levelo://app?vid=0ec9a37f-c03b-4cc0-889b-82cae9b2fbd4","ios":"levelo://app?vid=0ec9a37f-c03b-4cc0-889b-82cae9b2fbd4"},"vehicle_type_id":"4","last_reported":1747066369,"current_range_meters":6400,"station_id":"ce4bh492rcd13ifvqdug","pricing_plan_id":"cebpf4jnsgd1na2vs0mg"},{"bike_id":"9afee327-3dac-400b-8a97-1e60a0425384","system_id":"levelo_inurba_marseille","lat":43.29165,"lon":5.37166,"is_reserved":false,"is_disabled":false,"rental_uris":{"android":"levelo://app?vid=9afee327-3dac-400b-8a97-1e60a0425384","ios":"levelo://app?vid=9afee327-3dac-400b-8a97-1e60a0425384"},"vehicle_type_id":"4","last_reported":1747066369,"current_range_meters":6400,"station_id":"ce4bha92rcd13ifvqeh0","pricing_plan_id":"cebpf4jnsgd1na2vs0mg"},{"bike_id":"cb4aa7f8-5e58-4103-827e-f5aa7f653469","system_id":"levelo_inurba_marseille","lat":43.232,"lon":5.3555,"is_reserved":false,"is_disabled":false,"rental_uris":{"android":"levelo://app?vid=cb4aa7f8-5e58-4103-827e-f5aa7f653469","ios":"levelo://app?vid=cb4aa7f8-5e58-4103-827e-f5aa7f653469"},"vehicle_type_id":"4","last_reported":1747066369,"current_range_meters":6400,"station_id":"ce4bhu92rcd13ifvqi70","pricing_plan_id":"cebpf4jnsgd1na2vs0mg"},{"bike_id":"f16840fc-00bb-4ae7-97ef-cdd16c0982df","system_id":"levelo_inurba_marseille","lat":43.287251,"lon":5.360822,"is_reserved":false,"is_disabled":false,"rental_uris":{"android":"levelo://app?vid=f16840fc-00bb-4ae7-97ef-cdd16c0982df","ios":"levelo://app?vid=f16840fc-00bb-4ae7-97ef-cdd16c0982df"},"vehicle_type_id":"4","last_reported":1747066369,"current_range_meters":6400,"station_id":"cki0cbj6b192h4jlfktg","pricing_plan_id":"cebpf4jnsgd1na2vs0mg"},{"bike_id":"b4afbac9-902e-43a2-81d1-b967b5c8138a","system_id":"levelo_inurba_marseille","lat":43.29796,"lon":5.40411,"is_reserved":false,"is_disabled":false,"rental_uris":{"android":"levelo://app?vid=b4afbac9-902e-43a2-81d1-b967b5c8138a","ios":"levelo://app?vid=b4afbac9-902e-43a2-81d1-b967b5c8138a"},"vehicle_type_id":"4","last_reported":1747066369,"current_range_meters":6800,"station_id":"ce4bh112rcd13ifvqd90","pricing_plan_id":"cebpf4jnsgd1na2vs0mg"},{"bike_id":"de720535-b99b-4b64-8676-b96d0a144bfa","system_id":"levelo_inurba_marseille","lat":43.28372,"lon":5.38648,"is_reserved":false,"is_disabled":false,"rental_uris":{"android":"levelo://app?vid=de720535-b99b-4b64-8676-b96d0a144bfa","ios":"levelo://app?vid=de720535-b99b-4b64-8676-b96d0a144bfa"},"vehicle_type_id":"4","last_reported":1747066369,"current_range_meters":6800,"station_id":"ce4bh492rcd13ifvqdvg","pricing_plan_id":"cebpf4jnsgd1na2vs0mg"},{"bike_id":"7fd728bc-47f5-4a6c-8c78-0158201c136f","system_id":"levelo_inurba_marseille","lat":43.28486,"lon":5.38413,"is_reserved":false,"is_disabled":false,"rental_uris":{"android":"levelo://app?vid=7fd728bc-47f5-4a6c-8c78-0158201c136f","ios":"levelo://app?vid=7fd728bc-47f5-4a6c-8c78-0158201c136f"},"vehicle_type_id":"4","last_reported":1747066369,"current_range_meters":6800,"station_id":"ce4bh512rcd13ifvqe3g","pricing_plan_id":"cebpf4jnsgd1na2vs0mg"},{"bike_id":"2b7dafdc-9bf1-4b1a-8d0e-7adb297bc8bb","system_id":"levelo_inurba_marseille","lat":43.27576,"lon":5.38428,"is_reserved":false,"is_disabled":false,"rental_uris":{"android":"levelo://app?vid=2b7dafdc-9bf1-4b1a-8d0e-7adb297bc8bb","ios":"levelo://app?vid=2b7dafdc-9bf1-4b1a-8d0e-7adb297bc8bb"},"vehicle_type_id":"4","last_reported":1747066369,"current_range_meters":6800,"station_id":"ce4bhh92rcd13ifvqfi0","pricing_plan_id":"cebpf4jnsgd1na2vs0mg"},{"bike_id":"e5f71c09-a8da-4b9c-9ce7-6fd8a201c9de","system_id":"levelo_inurba_marseille","lat":43.27999,"lon":5.41664,"is_reserved":false,"is_disabled":false,"rental_uris":{"android":"levelo://app?vid=e5f71c09-a8da-4b9c-9ce7-6fd8a201c9de","ios":"levelo://app?vid=e5f71c09-a8da-4b9c-9ce7-6fd8a201c9de"},"vehicle_type_id":"4","last_reported":1747066369,"current_range_meters":6800,"station_id":"ce4bho12rcd13ifvqh1g","pricing_plan_id":"cebpf4jnsgd1na2vs0mg"},{"bike_id":"5f9b62df-1db7-4452-8caf-5538e3287ca8","system_id":"levelo_inurba_marseille","lat":43.293573,"lon":5.42844,"is_reserved":false,"is_disabled":false,"rental_uris":{"android":"levelo://app?vid=5f9b62df-1db7-4452-8caf-5538e3287ca8","ios":"levelo://app?vid=5f9b62df-1db7-4452-8caf-5538e3287ca8"},"vehicle_type_id":"4","last_reported":1747066369,"current_range_meters":7200,"station_id":"","pricing_plan_id":"cebpf4jnsgd1na2vs0mg"},{"bike_id":"406c648b-bad4-4e66-b7fd-14cf65b5d592","system_id":"levelo_inurba_marseille","lat":43.2953,"lon":5.38545,"is_reserved":false,"is_disabled":false,"rental_uris":{"android":"levelo://app?vid=406c648b-bad4-4e66-b7fd-14cf65b5d592","ios":"levelo://app?vid=406c648b-bad4-4e66-b7fd-14cf65b5d592"},"vehicle_type_id":"4","last_reported":1747066369,"current_range_meters":7200,"station_id":"ce4bgih2rcd13ifvqba0","pricing_plan_id":"cebpf4jnsgd1na2vs0mg"},{"bike_id":"566ab269-afb9-4cdc-af37-e63f37c2cf51","system_id":"levelo_inurba_marseille","lat":43.28351,"lon":5.3811,"is_reserved":false,"is_disabled":false,"rental_uris":{"android":"levelo://app?vid=566ab269-afb9-4cdc-af37-e63f37c2cf51","ios":"levelo://app?vid=566ab269-afb9-4cdc-af37-e63f37c2cf51"},"vehicle_type_id":"4","last_reported":1747066369,"current_range_meters":7200,"station_id":"ce4bh412rcd13ifvqdr0","pricing_plan_id":"cebpf4jnsgd1na2vs0mg"},{"bike_id":"7d4b82aa-3000-428c-81a0-19c11281041c","system_id":"levelo_inurba_marseille","lat":43.3229,"lon":5.38277,"is_reserved":false,"is_disabled":false,"rental_uris":{"android":"levelo://app?vid=7d4b82aa-3000-428c-81a0-19c11281041c","ios":"levelo://app?vid=7d4b82aa-3000-428c-81a0-19c11281041c"},"vehicle_type_id":"4","last_reported":1747066369,"current_range_meters":7200,"station_id":"ce4bhr12rcd13ifvqhqg","pricing_plan_id":"cebpf4jnsgd1na2vs0mg"},{"bike_id":"b6789d50-d1ec-43c3-8cf8-dae770ff6cd5","system_id":"levelo_inurba_marseille","lat":43.31565,"lon":5.389,"is_reserved":false,"is_disabled":false,"rental_uris":{"android":"levelo://app?vid=b6789d50-d1ec-43c3-8cf8-dae770ff6cd5","ios":"levelo://app?vid=b6789d50-d1ec-43c3-8cf8-dae770ff6cd5"},"vehicle_type_id":"4","last_reported":1747066369,"current_range_meters":8000,"station_id":"","pricing_plan_id":"cebpf4jnsgd1na2vs0mg"},{"bike_id":"e2e5a422-752a-4c9d-94cf-fb401c829bef","system_id":"levelo_inurba_marseille","lat":43.2998,"lon":5.38497,"is_reserved":false,"is_disabled":false,"rental_uris":{"android":"levelo://app?vid=e2e5a422-752a-4c9d-94cf-fb401c829bef","ios":"levelo://app?vid=e2e5a422-752a-4c9d-94cf-fb401c829bef"},"vehicle_type_id":"4","last_reported":1747066369,"current_range_meters":8000,"station_id":"ce4bgj92rcd13ifvqbd0","pricing_plan_id":"cebpf4jnsgd1na2vs0mg"},{"bike_id":"f5cf25f1-8d01-4c8e-9f1f-3ec6660df599","system_id":"levelo_inurba_marseille","lat":43.33605,"lon":5.41026,"is_reserved":false,"is_disabled":false,"rental_uris":{"android":"levelo://app?vid=f5cf25f1-8d01-4c8e-9f1f-3ec6660df599","ios":"levelo://app?vid=f5cf25f1-8d01-4c8e-9f1f-3ec6660df599"},"vehicle_type_id":"4","last_reported":1747066369,"current_range_meters":8000,"station_id":"ce4bhqh2rcd13ifvqhmg","pricing_plan_id":"cebpf4jnsgd1na2vs0mg"},{"bike_id":"e0372e11-e2d7-499e-bc01-d37180083c7d","system_id":"levelo_inurba_marseille","lat":43.323558,"lon":5.367484,"is_reserved":false,"is_disabled":false,"rental_uris":{"android":"levelo://app?vid=e0372e11-e2d7-499e-bc01-d37180083c7d","ios":"levelo://app?vid=e0372e11-e2d7-499e-bc01-d37180083c7d"},"vehicle_type_id":"4","last_reported":1747066369,"current_range_meters":8000,"station_id":"ce4bhsh2rcd13ifvqi2g","pricing_plan_id":"cebpf4jnsgd1na2vs0mg"},{"bike_id":"8e46c005-a5e1-4fce-9706-44911d1c08a6","system_id":"levelo_inurba_marseille","lat":43.231908,"lon":5.355494,"is_reserved":false,"is_disabled":false,"rental_uris":{"android":"levelo://app?vid=8e46c005-a5e1-4fce-9706-44911d1c08a6","ios":"levelo://app?vid=8e46c005-a5e1-4fce-9706-44911d1c08a6"},"vehicle_type_id":"4","last_reported":1747066369,"current_range_meters":8000,"station_id":"ce4bhu92rcd13ifvqi70","pricing_plan_id":"cebpf4jnsgd1na2vs0mg"},{"bike_id":"4d14c99b-5278-46ff-9ac3-53b65d48d25f","system_id":"levelo_inurba_marseille","lat":43.2417,"lon":5.36415,"is_reserved":false,"is_disabled":false,"rental_uris":{"android":"levelo://app?vid=4d14c99b-5278-46ff-9ac3-53b65d48d25f","ios":"levelo://app?vid=4d14c99b-5278-46ff-9ac3-53b65d48d25f"},"vehicle_type_id":"4","last_reported":1747066369,"current_range_meters":8000,"station_id":"cpo36qri1sfpv3e86is0","pricing_plan_id":"cebpf4jnsgd1na2vs0mg"},{"bike_id":"c0dc34ea-daeb-4de6-9107-483955a80cf2","system_id":"levelo_inurba_marseille","lat":43.27567,"lon":5.38428,"is_reserved":false,"is_disabled":false,"rental_uris":{"android":"levelo://app?vid=c0dc34ea-daeb-4de6-9107-483955a80cf2","ios":"levelo://app?vid=c0dc34ea-daeb-4de6-9107-483955a80cf2"},"vehicle_type_id":"4","last_reported":1747066369,"current_range_meters":8400,"station_id":"ce4bhh92rcd13ifvqfi0","pricing_plan_id":"cebpf4jnsgd1na2vs0mg"},{"bike_id":"009dd47b-b2eb-44ab-b26b-eec13d91283d","system_id":"levelo_inurba_marseille","lat":43.22932,"lon":5.35375,"is_reserved":false,"is_disabled":false,"rental_uris":{"android":"levelo://app?vid=009dd47b-b2eb-44ab-b26b-eec13d91283d","ios":"levelo://app?vid=009dd47b-b2eb-44ab-b26b-eec13d91283d"},"vehicle_type_id":"4","last_reported":1747066369,"current_range_meters":8400,"station_id":"cpo3532slgdg3j2ikp40","pricing_plan_id":"cebpf4jnsgd1na2vs0mg"},{"bike_id":"4193b3ff-7911-46cf-aafe-21c4ebe7fd24","system_id":"levelo_inurba_marseille","lat":43.23183,"lon":5.39988,"is_reserved":false,"is_disabled":false,"rental_uris":{"android":"levelo://app?vid=4193b3ff-7911-46cf-aafe-21c4ebe7fd24","ios":"levelo://app?vid=4193b3ff-7911-46cf-aafe-21c4ebe7fd24"},"vehicle_type_id":"4","last_reported":1747066369,"current_range_meters":8800,"station_id":"ce4bhn12rcd13ifvqgqg","pricing_plan_id":"cebpf4jnsgd1na2vs0mg"},{"bike_id":"8f7a8dbb-0932-40f5-9d00-eb8a7bebe40f","system_id":"levelo_inurba_marseille","lat":43.27997,"lon":5.4002,"is_reserved":false,"is_disabled":false,"rental_uris":{"android":"levelo://app?vid=8f7a8dbb-0932-40f5-9d00-eb8a7bebe40f","ios":"levelo://app?vid=8f7a8dbb-0932-40f5-9d00-eb8a7bebe40f"},"vehicle_type_id":"4","last_reported":1747066369,"current_range_meters":8800,"station_id":"ce4bho92rcd13ifvqh4g","pricing_plan_id":"cebpf4jnsgd1na2vs0mg"},{"bike_id":"de4a530f-3b17-41b9-bd98-d22e64d46bdc","system_id":"levelo_inurba_marseille","lat":43.3215,"lon":5.3678,"is_reserved":false,"is_disabled":false,"rental_uris":{"android":"levelo://app?vid=de4a530f-3b17-41b9-bd98-d22e64d46bdc","ios":"levelo://app?vid=de4a530f-3b17-41b9-bd98-d22e64d46bdc"},"vehicle_type_id":"4","last_reported":1747066369,"current_range_meters":8800,"station_id":"ce4bhrh2rcd13ifvqhug","pricing_plan_id":"cebpf4jnsgd1na2vs0mg"},{"bike_id":"ece81f57-557f-461f-9640-d29ffc4747d9","system_id":"levelo_inurba_marseille","lat":43.30926,"lon":5.40139,"is_reserved":false,"is_disabled":false,"rental_uris":{"android":"levelo://app?vid=ece81f57-557f-461f-9640-d29ffc4747d9","ios":"levelo://app?vid=ece81f57-557f-461f-9640-d29ffc4747d9"},"vehicle_type_id":"4","last_reported":1747066369,"current_range_meters":9200,"station_id":"ce4bgvp2rcd13ifvqct0","pricing_plan_id":"cebpf4jnsgd1na2vs0mg"},{"bike_id":"d44c12b8-c813-4486-92a0-76813c654532","system_id":"levelo_inurba_marseille","lat":43.29797,"lon":5.40403,"is_reserved":false,"is_disabled":false,"rental_uris":{"android":"levelo://app?vid=d44c12b8-c813-4486-92a0-76813c654532","ios":"levelo://app?vid=d44c12b8-c813-4486-92a0-76813c654532"},"vehicle_type_id":"4","last_reported":1747066369,"current_range_meters":9200,"station_id":"ce4bh112rcd13ifvqd90","pricing_plan_id":"cebpf4jnsgd1na2vs0mg"},{"bike_id":"496c06ca-b480-48e8-8151-4b1b0ee9bd4d","system_id":"levelo_inurba_marseille","lat":43.28931,"lon":5.36639,"is_reserved":false,"is_disabled":false,"rental_uris":{"android":"levelo://app?vid=496c06ca-b480-48e8-8151-4b1b0ee9bd4d","ios":"levelo://app?vid=496c06ca-b480-48e8-8151-4b1b0ee9bd4d"},"vehicle_type_id":"4","last_reported":1747066369,"current_range_meters":9200,"station_id":"ce4bhap2rcd13ifvqek0","pricing_plan_id":"cebpf4jnsgd1na2vs0mg"},{"bike_id":"9adb1fc9-313c-4afe-b723-95b1584113bb","system_id":"levelo_inurba_marseille","lat":43.28614,"lon":5.35107,"is_reserved":false,"is_disabled":false,"rental_uris":{"android":"levelo://app?vid=9adb1fc9-313c-4afe-b723-95b1584113bb","ios":"levelo://app?vid=9adb1fc9-313c-4afe-b723-95b1584113bb"},"vehicle_type_id":"4","last_reported":1747066369,"current_range_meters":9200,"station_id":"ce4bhch2rcd13ifvqeug","pricing_plan_id":"cebpf4jnsgd1na2vs0mg"},{"bike_id":"48d7fbc0-86f9-470d-b00c-1c648e8a0f63","system_id":"levelo_inurba_marseille","lat":43.28708,"lon":5.3995,"is_reserved":false,"is_disabled":false,"rental_uris":{"android":"levelo://app?vid=48d7fbc0-86f9-470d-b00c-1c648e8a0f63","ios":"levelo://app?vid=48d7fbc0-86f9-470d-b00c-1c648e8a0f63"},"vehicle_type_id":"4","last_reported":1747066369,"current_range_meters":9200,"station_id":"ce4bho92rcd13ifvqh3g","pricing_plan_id":"cebpf4jnsgd1na2vs0mg"},{"bike_id":"47d1412a-baaa-4068-91c4-e734560a4da3","system_id":"levelo_inurba_marseille","lat":43.28001,"lon":5.40014,"is_reserved":false,"is_disabled":false,"rental_uris":{"android":"levelo://app?vid=47d1412a-baaa-4068-91c4-e734560a4da3","ios":"levelo://app?vid=47d1412a-baaa-4068-91c4-e734560a4da3"},"vehicle_type_id":"4","last_reported":1747066369,"current_range_meters":9200,"station_id":"ce4bho92rcd13ifvqh4g","pricing_plan_id":"cebpf4jnsgd1na2vs0mg"},{"bike_id":"91e6febc-b2d9-491e-8ff9-81cb86456c5f","system_id":"levelo_inurba_marseille","lat":43.231945,"lon":5.355496,"is_reserved":false,"is_disabled":false,"rental_uris":{"android":"levelo://app?vid=91e6febc-b2d9-491e-8ff9-81cb86456c5f","ios":"levelo://app?vid=91e6febc-b2d9-491e-8ff9-81cb86456c5f"},"vehicle_type_id":"4","last_reported":1747066369,"current_range_meters":9200,"station_id":"ce4bhu92rcd13ifvqi70","pricing_plan_id":"cebpf4jnsgd1na2vs0mg"},{"bike_id":"a0ea4293-c2a1-4588-9a5a-de0921a9dfd8","system_id":"levelo_inurba_marseille","lat":43.29527,"lon":5.38541,"is_reserved":false,"is_disabled":false,"rental_uris":{"android":"levelo://app?vid=a0ea4293-c2a1-4588-9a5a-de0921a9dfd8","ios":"levelo://app?vid=a0ea4293-c2a1-4588-9a5a-de0921a9dfd8"},"vehicle_type_id":"4","last_reported":1747066369,"current_range_meters":9600,"station_id":"ce4bgih2rcd13ifvqba0","pricing_plan_id":"cebpf4jnsgd1na2vs0mg"},{"bike_id":"c39ffec0-bf54-4b94-892c-11b3ef277137","system_id":"levelo_inurba_marseille","lat":43.23189,"lon":5.39996,"is_reserved":false,"is_disabled":false,"rental_uris":{"android":"levelo://app?vid=c39ffec0-bf54-4b94-892c-11b3ef277137","ios":"levelo://app?vid=c39ffec0-bf54-4b94-892c-11b3ef277137"},"vehicle_type_id":"4","last_reported":1747066369,"current_range_meters":9600,"station_id":"ce4bhn12rcd13ifvqgqg","pricing_plan_id":"cebpf4jnsgd1na2vs0mg"},{"bike_id":"bbba9b2a-8e9d-4a1d-a5f2-90d259e41385","system_id":"levelo_inurba_marseille","lat":43.31781,"lon":5.39041,"is_reserved":false,"is_disabled":false,"rental_uris":{"android":"levelo://app?vid=bbba9b2a-8e9d-4a1d-a5f2-90d259e41385","ios":"levelo://app?vid=bbba9b2a-8e9d-4a1d-a5f2-90d259e41385"},"vehicle_type_id":"4","last_reported":1747066369,"current_range_meters":9600,"station_id":"ce4bhqp2rcd13ifvqhng","pricing_plan_id":"cebpf4jnsgd1na2vs0mg"},{"bike_id":"3ec115cc-2441-4e15-a356-7b19855e9178","system_id":"levelo_inurba_marseille","lat":43.286163,"lon":5.351091,"is_reserved":false,"is_disabled":false,"rental_uris":{"android":"levelo://app?vid=3ec115cc-2441-4e15-a356-7b19855e9178","ios":"levelo://app?vid=3ec115cc-2441-4e15-a356-7b19855e9178"},"vehicle_type_id":"4","last_reported":1747066369,"current_range_meters":10000,"station_id":"","pricing_plan_id":"cebpf4jnsgd1na2vs0mg"},{"bike_id":"2ee4d910-0ee1-4bc5-86c8-c77afad12b4f","system_id":"levelo_inurba_marseille","lat":43.32174,"lon":5.36829,"is_reserved":false,"is_disabled":false,"rental_uris":{"android":"levelo://app?vid=2ee4d910-0ee1-4bc5-86c8-c77afad12b4f","ios":"levelo://app?vid=2ee4d910-0ee1-4bc5-86c8-c77afad12b4f"},"vehicle_type_id":"4","last_reported":1747066369,"current_range_meters":10000,"station_id":"","pricing_plan_id":"cebpf4jnsgd1na2vs0mg"},{"bike_id":"cd33bf6c-be90-40b8-87bc-b6d9df5a8f0f","system_id":"levelo_inurba_marseille","lat":43.28407,"lon":5.3752,"is_reserved":false,"is_disabled":false,"rental_uris":{"android":"levelo://app?vid=cd33bf6c-be90-40b8-87bc-b6d9df5a8f0f","ios":"levelo://app?vid=cd33bf6c-be90-40b8-87bc-b6d9df5a8f0f"},"vehicle_type_id":"4","last_reported":1747066369,"current_range_meters":10000,"station_id":"ce4bh412rcd13ifvqds0","pricing_plan_id":"cebpf4jnsgd1na2vs0mg"},{"bike_id":"4ea20087-2f03-4442-87b6-da10a6d39029","system_id":"levelo_inurba_marseille","lat":43.28027,"lon":5.36949,"is_reserved":false,"is_disabled":false,"rental_uris":{"android":"levelo://app?vid=4ea20087-2f03-4442-87b6-da10a6d39029","ios":"levelo://app?vid=4ea20087-2f03-4442-87b6-da10a6d39029"},"vehicle_type_id":"4","last_reported":1747066369,"current_range_meters":10000,"station_id":"ce4bha12rcd13ifvqef0","pricing_plan_id":"cebpf4jnsgd1na2vs0mg"},{"bike_id":"414a0fa3-93f3-40f3-bbbe-73c3b87203c0","system_id":"levelo_inurba_marseille","lat":43.27929,"lon":5.41031,"is_reserved":false,"is_disabled":false,"rental_uris":{"android":"levelo://app?vid=414a0fa3-93f3-40f3-bbbe-73c3b87203c0","ios":"levelo://app?vid=414a0fa3-93f3-40f3-bbbe-73c3b87203c0"},"vehicle_type_id":"4","last_reported":1747066369,"current_range_meters":10000,"station_id":"ce4bhnp2rcd13ifvqh0g","pricing_plan_id":"cebpf4jnsgd1na2vs0mg"},{"bike_id":"08cf1eea-2e51-4b03-b6f2-1bc272e1117c","system_id":"levelo_inurba_marseille","lat":43.295667,"lon":5.422737,"is_reserved":false,"is_disabled":false,"rental_uris":{"android":"levelo://app?vid=08cf1eea-2e51-4b03-b6f2-1bc272e1117c","ios":"levelo://app?vid=08cf1eea-2e51-4b03-b6f2-1bc272e1117c"},"vehicle_type_id":"4","last_reported":1747066369,"current_range_meters":10000,"station_id":"ce4bhph2rcd13ifvqhdg","pricing_plan_id":"cebpf4jnsgd1na2vs0mg"},{"bike_id":"4d52036b-fa5c-45f0-9b26-f926c0617e1e","system_id":"levelo_inurba_marseille","lat":43.22931,"lon":5.35374,"is_reserved":false,"is_disabled":false,"rental_uris":{"android":"levelo://app?vid=4d52036b-fa5c-45f0-9b26-f926c0617e1e","ios":"levelo://app?vid=4d52036b-fa5c-45f0-9b26-f926c0617e1e"},"vehicle_type_id":"4","last_reported":1747066369,"current_range_meters":10000,"station_id":"cpo3532slgdg3j2ikp40","pricing_plan_id":"cebpf4jnsgd1na2vs0mg"},{"bike_id":"260e03c4-ef88-41c4-8608-b4610b850052","system_id":"levelo_inurba_marseille","lat":43.303348,"lon":5.394178,"is_reserved":false,"is_disabled":false,"rental_uris":{"android":"levelo://app?vid=260e03c4-ef88-41c4-8608-b4610b850052","ios":"levelo://app?vid=260e03c4-ef88-41c4-8608-b4610b850052"},"vehicle_type_id":"4","last_reported":1747066369,"current_range_meters":10800,"station_id":"ce4bh092rcd13ifvqd20","pricing_plan_id":"cebpf4jnsgd1na2vs0mg"},{"bike_id":"495e175f-824d-453e-967a-5c7df8890b94","system_id":"levelo_inurba_marseille","lat":43.28271,"lon":5.35076,"is_reserved":false,"is_disabled":false,"rental_uris":{"android":"levelo://app?vid=495e175f-824d-453e-967a-5c7df8890b94","ios":"levelo://app?vid=495e175f-824d-453e-967a-5c7df8890b94"},"vehicle_type_id":"4","last_reported":1747066369,"current_range_meters":10800,"station_id":"ce4bhbp2rcd13ifvqerg","pricing_plan_id":"cebpf4jnsgd1na2vs0mg"},{"bike_id":"0bf31d40-2ad2-494c-afdd-13acdb3f7f8d","system_id":"levelo_inurba_marseille","lat":43.29595,"lon":5.42293,"is_reserved":false,"is_disabled":false,"rental_uris":{"android":"levelo://app?vid=0bf31d40-2ad2-494c-afdd-13acdb3f7f8d","ios":"levelo://app?vid=0bf31d40-2ad2-494c-afdd-13acdb3f7f8d"},"vehicle_type_id":"4","last_reported":1747066369,"current_range_meters":11200,"station_id":"ce4bhph2rcd13ifvqhdg","pricing_plan_id":"cebpf4jnsgd1na2vs0mg"},{"bike_id":"f86e2d02-8379-4de9-894d-f9afef5acfc3","system_id":"levelo_inurba_marseille","lat":43.30604,"lon":5.37229,"is_reserved":false,"is_disabled":false,"rental_uris":{"android":"levelo://app?vid=f86e2d02-8379-4de9-894d-f9afef5acfc3","ios":"levelo://app?vid=f86e2d02-8379-4de9-894d-f9afef5acfc3"},"vehicle_type_id":"4","last_reported":1747066369,"current_range_meters":11600,"station_id":"ce4bgqh2rcd13ifvqc4g","pricing_plan_id":"cebpf4jnsgd1na2vs0mg"},{"bike_id":"d0d24055-42ca-480b-b7fa-9358c40ffe42","system_id":"levelo_inurba_marseille","lat":43.29274,"lon":5.40114,"is_reserved":false,"is_disabled":false,"rental_uris":{"android":"levelo://app?vid=d0d24055-42ca-480b-b7fa-9358c40ffe42","ios":"levelo://app?vid=d0d24055-42ca-480b-b7fa-9358c40ffe42"},"vehicle_type_id":"4","last_reported":1747066369,"current_range_meters":11600,"station_id":"ce4bh312rcd13ifvqdk0","pricing_plan_id":"cebpf4jnsgd1na2vs0mg"},{"bike_id":"14974396-773a-4225-b2c9-f2fca04895a5","system_id":"levelo_inurba_marseille","lat":43.28447,"lon":5.35898,"is_reserved":false,"is_disabled":false,"rental_uris":{"android":"levelo://app?vid=14974396-773a-4225-b2c9-f2fca04895a5","ios":"levelo://app?vid=14974396-773a-4225-b2c9-f2fca04895a5"},"vehicle_type_id":"4","last_reported":1747066369,"current_range_meters":11600,"station_id":"ce4bhah2rcd13ifvqei0","pricing_plan_id":"cebpf4jnsgd1na2vs0mg"},{"bike_id":"d196d2e3-29bb-4537-8e13-5beece745850","system_id":"levelo_inurba_marseille","lat":43.24798,"lon":5.3747,"is_reserved":false,"is_disabled":false,"rental_uris":{"android":"levelo://app?vid=d196d2e3-29bb-4537-8e13-5beece745850","ios":"levelo://app?vid=d196d2e3-29bb-4537-8e13-5beece745850"},"vehicle_type_id":"4","last_reported":1747066369,"current_range_meters":11600,"station_id":"ce4bhgh2rcd13ifvqfb0","pricing_plan_id":"cebpf4jnsgd1na2vs0mg"},{"bike_id":"14356f17-86e6-4c85-bc4b-980077300247","system_id":"levelo_inurba_marseille","lat":43.23177,"lon":5.39996,"is_reserved":false,"is_disabled":false,"rental_uris":{"android":"levelo://app?vid=14356f17-86e6-4c85-bc4b-980077300247","ios":"levelo://app?vid=14356f17-86e6-4c85-bc4b-980077300247"},"vehicle_type_id":"4","last_reported":1747066369,"current_range_meters":11600,"station_id":"ce4bhn12rcd13ifvqgqg","pricing_plan_id":"cebpf4jnsgd1na2vs0mg"},{"bike_id":"3a0b21c1-628a-40b2-b042-9358de453306","system_id":"levelo_inurba_marseille","lat":43.29875,"lon":5.38907,"is_reserved":false,"is_disabled":false,"rental_uris":{"android":"levelo://app?vid=3a0b21c1-628a-40b2-b042-9358de453306","ios":"levelo://app?vid=3a0b21c1-628a-40b2-b042-9358de453306"},"vehicle_type_id":"4","last_reported":1747066369,"current_range_meters":12000,"station_id":"ce4bh392rcd13ifvqdl0","pricing_plan_id":"cebpf4jnsgd1na2vs0mg"},{"bike_id":"4c037c9d-7042-499e-8931-ed91358ed246","system_id":"levelo_inurba_marseille","lat":43.31697,"lon":5.37748,"is_reserved":false,"is_disabled":false,"rental_uris":{"android":"levelo://app?vid=4c037c9d-7042-499e-8931-ed91358ed246","ios":"levelo://app?vid=4c037c9d-7042-499e-8931-ed91358ed246"},"vehicle_type_id":"4","last_reported":1747066369,"current_range_meters":12400,"station_id":"ce4bgth2rcd13ifvqch0","pricing_plan_id":"cebpf4jnsgd1na2vs0mg"},{"bike_id":"09667552-604c-472f-b05c-2be0e1fd2bf4","system_id":"levelo_inurba_marseille","lat":43.280297,"lon":5.369393,"is_reserved":false,"is_disabled":false,"rental_uris":{"android":"levelo://app?vid=09667552-604c-472f-b05c-2be0e1fd2bf4","ios":"levelo://app?vid=09667552-604c-472f-b05c-2be0e1fd2bf4"},"vehicle_type_id":"4","last_reported":1747066369,"current_range_meters":12400,"station_id":"ce4bha12rcd13ifvqef0","pricing_plan_id":"cebpf4jnsgd1na2vs0mg"},{"bike_id":"2426c398-e9ff-4bc6-af2e-6b6e8459674c","system_id":"levelo_inurba_marseille","lat":43.284197,"lon":5.349841,"is_reserved":false,"is_disabled":false,"rental_uris":{"android":"levelo://app?vid=2426c398-e9ff-4bc6-af2e-6b6e8459674c","ios":"levelo://app?vid=2426c398-e9ff-4bc6-af2e-6b6e8459674c"},"vehicle_type_id":"4","last_reported":1747066369,"current_range_meters":12400,"station_id":"ce4bhbh2rcd13ifvqepg","pricing_plan_id":"cebpf4jnsgd1na2vs0mg"},{"bike_id":"62766579-cfd2-43e0-bd67-89e454f1a60e","system_id":"levelo_inurba_marseille","lat":43.28268,"lon":5.35057,"is_reserved":false,"is_disabled":false,"rental_uris":{"android":"levelo://app?vid=62766579-cfd2-43e0-bd67-89e454f1a60e","ios":"levelo://app?vid=62766579-cfd2-43e0-bd67-89e454f1a60e"},"vehicle_type_id":"4","last_reported":1747066369,"current_range_meters":12400,"station_id":"ce4bhbp2rcd13ifvqerg","pricing_plan_id":"cebpf4jnsgd1na2vs0mg"},{"bike_id":"abe40d20-7e65-4db6-9aed-0757200ebe80","system_id":"levelo_inurba_marseille","lat":43.26565,"lon":5.39001,"is_reserved":false,"is_disabled":false,"rental_uris":{"android":"levelo://app?vid=abe40d20-7e65-4db6-9aed-0757200ebe80","ios":"levelo://app?vid=abe40d20-7e65-4db6-9aed-0757200ebe80"},"vehicle_type_id":"4","last_reported":1747066369,"current_range_meters":12400,"station_id":"ce4bhe12rcd13ifvqf30","pricing_plan_id":"cebpf4jnsgd1na2vs0mg"},{"bike_id":"5a3cb6d0-dea1-48f4-8a2f-b9498a9d0e11","system_id":"levelo_inurba_marseille","lat":43.2957,"lon":5.39978,"is_reserved":false,"is_disabled":false,"rental_uris":{"android":"levelo://app?vid=5a3cb6d0-dea1-48f4-8a2f-b9498a9d0e11","ios":"levelo://app?vid=5a3cb6d0-dea1-48f4-8a2f-b9498a9d0e11"},"vehicle_type_id":"4","last_reported":1747066369,"current_range_meters":12800,"station_id":"ce4bh312rcd13ifvqdj0","pricing_plan_id":"cebpf4jnsgd1na2vs0mg"},{"bike_id":"9e3c47f7-87ea-42bb-81e4-d17474e0efab","system_id":"levelo_inurba_marseille","lat":43.28086,"lon":5.39642,"is_reserved":false,"is_disabled":false,"rental_uris":{"android":"levelo://app?vid=9e3c47f7-87ea-42bb-81e4-d17474e0efab","ios":"levelo://app?vid=9e3c47f7-87ea-42bb-81e4-d17474e0efab"},"vehicle_type_id":"4","last_reported":1747066369,"current_range_meters":12800,"station_id":"ce4bho12rcd13ifvqh2g","pricing_plan_id":"cebpf4jnsgd1na2vs0mg"},{"bike_id":"03440c53-feec-47cf-9e86-db9452872601","system_id":"levelo_inurba_marseille","lat":43.29033,"lon":5.39963,"is_reserved":false,"is_disabled":false,"rental_uris":{"android":"levelo://app?vid=03440c53-feec-47cf-9e86-db9452872601","ios":"levelo://app?vid=03440c53-feec-47cf-9e86-db9452872601"},"vehicle_type_id":"4","last_reported":1747066369,"current_range_meters":13600,"station_id":"ce4bh392rcd13ifvqdm0","pricing_plan_id":"cebpf4jnsgd1na2vs0mg"},{"bike_id":"0f14aaef-9bbe-435f-9e9c-f8c999f1e857","system_id":"levelo_inurba_marseille","lat":43.23204,"lon":5.35593,"is_reserved":false,"is_disabled":false,"rental_uris":{"android":"levelo://app?vid=0f14aaef-9bbe-435f-9e9c-f8c999f1e857","ios":"levelo://app?vid=0f14aaef-9bbe-435f-9e9c-f8c999f1e857"},"vehicle_type_id":"4","last_reported":1747066369,"current_range_meters":13600,"station_id":"ce4bhu92rcd13ifvqi70","pricing_plan_id":"cebpf4jnsgd1na2vs0mg"},{"bike_id":"c2b2d3c5-e5f6-41b1-b5ba-61c3aa197436","system_id":"levelo_inurba_marseille","lat":43.22929,"lon":5.35373,"is_reserved":false,"is_disabled":false,"rental_uris":{"android":"levelo://app?vid=c2b2d3c5-e5f6-41b1-b5ba-61c3aa197436","ios":"levelo://app?vid=c2b2d3c5-e5f6-41b1-b5ba-61c3aa197436"},"vehicle_type_id":"4","last_reported":1747066369,"current_range_meters":13600,"station_id":"cpo3532slgdg3j2ikp40","pricing_plan_id":"cebpf4jnsgd1na2vs0mg"},{"bike_id":"89c550d1-b31b-49dc-bb41-cd52ba1ad9f2","system_id":"levelo_inurba_marseille","lat":43.24172,"lon":5.36429,"is_reserved":false,"is_disabled":false,"rental_uris":{"android":"levelo://app?vid=89c550d1-b31b-49dc-bb41-cd52ba1ad9f2","ios":"levelo://app?vid=89c550d1-b31b-49dc-bb41-cd52ba1ad9f2"},"vehicle_type_id":"4","last_reported":1747066369,"current_range_meters":13600,"station_id":"cpo36qri1sfpv3e86is0","pricing_plan_id":"cebpf4jnsgd1na2vs0mg"},{"bike_id":"a884c591-552d-4a73-9925-7dd69d84d5b6","system_id":"levelo_inurba_marseille","lat":43.29879,"lon":5.38898,"is_reserved":false,"is_disabled":false,"rental_uris":{"android":"levelo://app?vid=a884c591-552d-4a73-9925-7dd69d84d5b6","ios":"levelo://app?vid=a884c591-552d-4a73-9925-7dd69d84d5b6"},"vehicle_type_id":"4","last_reported":1747066369,"current_range_meters":14000,"station_id":"ce4bh392rcd13ifvqdl0","pricing_plan_id":"cebpf4jnsgd1na2vs0mg"},{"bike_id":"a1a993f5-7b9b-40b3-b905-0ed9d6d07369","system_id":"levelo_inurba_marseille","lat":43.2827,"lon":5.35066,"is_reserved":false,"is_disabled":false,"rental_uris":{"android":"levelo://app?vid=a1a993f5-7b9b-40b3-b905-0ed9d6d07369","ios":"levelo://app?vid=a1a993f5-7b9b-40b3-b905-0ed9d6d07369"},"vehicle_type_id":"4","last_reported":1747066369,"current_range_meters":14000,"station_id":"ce4bhbp2rcd13ifvqerg","pricing_plan_id":"cebpf4jnsgd1na2vs0mg"},{"bike_id":"2b84e408-8747-4be7-8c9f-6b500d15de52","system_id":"levelo_inurba_marseille","lat":43.28035,"lon":5.36953,"is_reserved":false,"is_disabled":false,"rental_uris":{"android":"levelo://app?vid=2b84e408-8747-4be7-8c9f-6b500d15de52","ios":"levelo://app?vid=2b84e408-8747-4be7-8c9f-6b500d15de52"},"vehicle_type_id":"4","last_reported":1747066369,"current_range_meters":15200,"station_id":"ce4bha12rcd13ifvqef0","pricing_plan_id":"cebpf4jnsgd1na2vs0mg"},{"bike_id":"61ceae1a-d3cf-4f89-8866-455f8891d979","system_id":"levelo_inurba_marseille","lat":43.26055,"lon":5.39396,"is_reserved":false,"is_disabled":false,"rental_uris":{"android":"levelo://app?vid=61ceae1a-d3cf-4f89-8866-455f8891d979","ios":"levelo://app?vid=61ceae1a-d3cf-4f89-8866-455f8891d979"},"vehicle_type_id":"4","last_reported":1747066369,"current_range_meters":15200,"station_id":"ce4bhh92rcd13ifvqfj0","pricing_plan_id":"cebpf4jnsgd1na2vs0mg"},{"bike_id":"3dc39aba-db38-4207-ab86-6512a2f6b506","system_id":"levelo_inurba_marseille","lat":43.32493,"lon":5.36584,"is_reserved":false,"is_disabled":false,"rental_uris":{"android":"levelo://app?vid=3dc39aba-db38-4207-ab86-6512a2f6b506","ios":"levelo://app?vid=3dc39aba-db38-4207-ab86-6512a2f6b506"},"vehicle_type_id":"4","last_reported":1747066369,"current_range_meters":15200,"station_id":"ce4bhs12rcd13ifvqhvg","pricing_plan_id":"cebpf4jnsgd1na2vs0mg"},{"bike_id":"07786a0e-8e9f-4b32-b517-d7262ccbafa1","system_id":"levelo_inurba_marseille","lat":43.28401,"lon":5.37501,"is_reserved":false,"is_disabled":false,"rental_uris":{"android":"levelo://app?vid=07786a0e-8e9f-4b32-b517-d7262ccbafa1","ios":"levelo://app?vid=07786a0e-8e9f-4b32-b517-d7262ccbafa1"},"vehicle_type_id":"4","last_reported":1747066369,"current_range_meters":16000,"station_id":"ce4bh412rcd13ifvqds0","pricing_plan_id":"cebpf4jnsgd1na2vs0mg"},{"bike_id":"c2398e68-0461-43bd-a293-31564da7f6ea","system_id":"levelo_inurba_marseille","lat":43.28378,"lon":5.38648,"is_reserved":false,"is_disabled":false,"rental_uris":{"android":"levelo://app?vid=c2398e68-0461-43bd-a293-31564da7f6ea","ios":"levelo://app?vid=c2398e68-0461-43bd-a293-31564da7f6ea"},"vehicle_type_id":"4","last_reported":1747066369,"current_range_meters":16000,"station_id":"ce4bh492rcd13ifvqdvg","pricing_plan_id":"cebpf4jnsgd1na2vs0mg"},{"bike_id":"33e12916-78fc-4cf2-9bab-83d69ddaf150","system_id":"levelo_inurba_marseille","lat":43.28934,"lon":5.36639,"is_reserved":false,"is_disabled":false,"rental_uris":{"android":"levelo://app?vid=33e12916-78fc-4cf2-9bab-83d69ddaf150","ios":"levelo://app?vid=33e12916-78fc-4cf2-9bab-83d69ddaf150"},"vehicle_type_id":"4","last_reported":1747066369,"current_range_meters":16000,"station_id":"ce4bhap2rcd13ifvqek0","pricing_plan_id":"cebpf4jnsgd1na2vs0mg"},{"bike_id":"db6b5e8c-4f4e-4bac-91be-8a2a91cd0ffd","system_id":"levelo_inurba_marseille","lat":43.299,"lon":5.36374,"is_reserved":false,"is_disabled":false,"rental_uris":{"android":"levelo://app?vid=db6b5e8c-4f4e-4bac-91be-8a2a91cd0ffd","ios":"levelo://app?vid=db6b5e8c-4f4e-4bac-91be-8a2a91cd0ffd"},"vehicle_type_id":"4","last_reported":1747066369,"current_range_meters":16400,"station_id":"","pricing_plan_id":"cebpf4jnsgd1na2vs0mg"},{"bike_id":"e6ad97f1-b73e-46fd-a80f-360ecb6587de","system_id":"levelo_inurba_marseille","lat":43.28003,"lon":5.40041,"is_reserved":false,"is_disabled":false,"rental_uris":{"android":"levelo://app?vid=e6ad97f1-b73e-46fd-a80f-360ecb6587de","ios":"levelo://app?vid=e6ad97f1-b73e-46fd-a80f-360ecb6587de"},"vehicle_type_id":"4","last_reported":1747066369,"current_range_meters":16400,"station_id":"ce4bho92rcd13ifvqh4g","pricing_plan_id":"cebpf4jnsgd1na2vs0mg"},{"bike_id":"825d3f1d-1408-4192-b5a2-873bd0f70d01","system_id":"levelo_inurba_marseille","lat":43.28461,"lon":5.35892,"is_reserved":false,"is_disabled":false,"rental_uris":{"android":"levelo://app?vid=825d3f1d-1408-4192-b5a2-873bd0f70d01","ios":"levelo://app?vid=825d3f1d-1408-4192-b5a2-873bd0f70d01"},"vehicle_type_id":"4","last_reported":1747066369,"current_range_meters":16800,"station_id":"ce4bhah2rcd13ifvqei0","pricing_plan_id":"cebpf4jnsgd1na2vs0mg"},{"bike_id":"04be18fb-28f2-4aaa-a90a-6b195a3f55a8","system_id":"levelo_inurba_marseille","lat":43.284,"lon":5.34981,"is_reserved":false,"is_disabled":false,"rental_uris":{"android":"levelo://app?vid=04be18fb-28f2-4aaa-a90a-6b195a3f55a8","ios":"levelo://app?vid=04be18fb-28f2-4aaa-a90a-6b195a3f55a8"},"vehicle_type_id":"4","last_reported":1747066369,"current_range_meters":16800,"station_id":"ce4bhbh2rcd13ifvqepg","pricing_plan_id":"cebpf4jnsgd1na2vs0mg"},{"bike_id":"d5ee8c68-7faa-45f0-a04a-8e9eee7aed9c","system_id":"levelo_inurba_marseille","lat":43.28265,"lon":5.35072,"is_reserved":false,"is_disabled":false,"rental_uris":{"android":"levelo://app?vid=d5ee8c68-7faa-45f0-a04a-8e9eee7aed9c","ios":"levelo://app?vid=d5ee8c68-7faa-45f0-a04a-8e9eee7aed9c"},"vehicle_type_id":"4","last_reported":1747066369,"current_range_meters":16800,"station_id":"ce4bhbp2rcd13ifvqerg","pricing_plan_id":"cebpf4jnsgd1na2vs0mg"},{"bike_id":"a4356a14-2403-48f1-93be-3961c7251c69","system_id":"levelo_inurba_marseille","lat":43.27992,"lon":5.40034,"is_reserved":false,"is_disabled":false,"rental_uris":{"android":"levelo://app?vid=a4356a14-2403-48f1-93be-3961c7251c69","ios":"levelo://app?vid=a4356a14-2403-48f1-93be-3961c7251c69"},"vehicle_type_id":"4","last_reported":1747066369,"current_range_meters":16800,"station_id":"ce4bho92rcd13ifvqh4g","pricing_plan_id":"cebpf4jnsgd1na2vs0mg"},{"bike_id":"b8df4a71-b9db-4d2a-bd1d-29f186b437fc","system_id":"levelo_inurba_marseille","lat":43.2872,"lon":5.36094,"is_reserved":false,"is_disabled":false,"rental_uris":{"android":"levelo://app?vid=b8df4a71-b9db-4d2a-bd1d-29f186b437fc","ios":"levelo://app?vid=b8df4a71-b9db-4d2a-bd1d-29f186b437fc"},"vehicle_type_id":"4","last_reported":1747066369,"current_range_meters":16800,"station_id":"cki0cbj6b192h4jlfktg","pricing_plan_id":"cebpf4jnsgd1na2vs0mg"},{"bike_id":"6d7ed44a-032c-4e57-9429-cfea954c5a6b","system_id":"levelo_inurba_marseille","lat":43.31323,"lon":5.3969,"is_reserved":false,"is_disabled":false,"rental_uris":{"android":"levelo://app?vid=6d7ed44a-032c-4e57-9429-cfea954c5a6b","ios":"levelo://app?vid=6d7ed44a-032c-4e57-9429-cfea954c5a6b"},"vehicle_type_id":"4","last_reported":1747066369,"current_range_meters":17200,"station_id":"ce4bgvp2rcd13ifvqcu0","pricing_plan_id":"cebpf4jnsgd1na2vs0mg"},{"bike_id":"08ea3a0c-b81f-40ee-a2e9-73646a5cd98b","system_id":"levelo_inurba_marseille","lat":43.29074,"lon":5.38189,"is_reserved":false,"is_disabled":false,"rental_uris":{"android":"levelo://app?vid=08ea3a0c-b81f-40ee-a2e9-73646a5cd98b","ios":"levelo://app?vid=08ea3a0c-b81f-40ee-a2e9-73646a5cd98b"},"vehicle_type_id":"4","last_reported":1747066369,"current_range_meters":17200,"station_id":"ce4bh512rcd13ifvqe2g","pricing_plan_id":"cebpf4jnsgd1na2vs0mg"},{"bike_id":"a13826dc-4acb-41da-9d3a-dd7605f1a8fb","system_id":"levelo_inurba_marseille","lat":43.28664,"lon":5.36347,"is_reserved":false,"is_disabled":false,"rental_uris":{"android":"levelo://app?vid=a13826dc-4acb-41da-9d3a-dd7605f1a8fb","ios":"levelo://app?vid=a13826dc-4acb-41da-9d3a-dd7605f1a8fb"},"vehicle_type_id":"4","last_reported":1747066369,"current_range_meters":17200,"station_id":"ce4bhah2rcd13ifvqej0","pricing_plan_id":"cebpf4jnsgd1na2vs0mg"},{"bike_id":"81ee0ff2-7672-4a52-9ecf-abf44c7a120d","system_id":"levelo_inurba_marseille","lat":43.28929,"lon":5.36643,"is_reserved":false,"is_disabled":false,"rental_uris":{"android":"levelo://app?vid=81ee0ff2-7672-4a52-9ecf-abf44c7a120d","ios":"levelo://app?vid=81ee0ff2-7672-4a52-9ecf-abf44c7a120d"},"vehicle_type_id":"4","last_reported":1747066369,"current_range_meters":17200,"station_id":"ce4bhap2rcd13ifvqek0","pricing_plan_id":"cebpf4jnsgd1na2vs0mg"},{"bike_id":"b6c1e430-8536-40f0-8ec6-6bce46897ee8","system_id":"levelo_inurba_marseille","lat":43.25725,"lon":5.41112,"is_reserved":false,"is_disabled":false,"rental_uris":{"android":"levelo://app?vid=b6c1e430-8536-40f0-8ec6-6bce46897ee8","ios":"levelo://app?vid=b6c1e430-8536-40f0-8ec6-6bce46897ee8"},"vehicle_type_id":"4","last_reported":1747066369,"current_range_meters":17200,"station_id":"ce4bhkp2rcd13ifvqgd0","pricing_plan_id":"cebpf4jnsgd1na2vs0mg"},{"bike_id":"43e423cb-b645-467e-b08a-491d7a5c436b","system_id":"levelo_inurba_marseille","lat":43.28462,"lon":5.35886,"is_reserved":false,"is_disabled":false,"rental_uris":{"android":"levelo://app?vid=43e423cb-b645-467e-b08a-491d7a5c436b","ios":"levelo://app?vid=43e423cb-b645-467e-b08a-491d7a5c436b"},"vehicle_type_id":"4","last_reported":1747066369,"current_range_meters":17600,"station_id":"ce4bhah2rcd13ifvqei0","pricing_plan_id":"cebpf4jnsgd1na2vs0mg"},{"bike_id":"86689108-8b6c-425a-98ae-946b288cf2c2","system_id":"levelo_inurba_marseille","lat":43.28461,"lon":5.35894,"is_reserved":false,"is_disabled":false,"rental_uris":{"android":"levelo://app?vid=86689108-8b6c-425a-98ae-946b288cf2c2","ios":"levelo://app?vid=86689108-8b6c-425a-98ae-946b288cf2c2"},"vehicle_type_id":"4","last_reported":1747066369,"current_range_meters":17600,"station_id":"ce4bhah2rcd13ifvqei0","pricing_plan_id":"cebpf4jnsgd1na2vs0mg"},{"bike_id":"78a336b2-7d28-4a19-a82c-6806dcf329c6","system_id":"levelo_inurba_marseille","lat":43.2863,"lon":5.35102,"is_reserved":false,"is_disabled":false,"rental_uris":{"android":"levelo://app?vid=78a336b2-7d28-4a19-a82c-6806dcf329c6","ios":"levelo://app?vid=78a336b2-7d28-4a19-a82c-6806dcf329c6"},"vehicle_type_id":"4","last_reported":1747066369,"current_range_meters":17600,"station_id":"ce4bhch2rcd13ifvqeug","pricing_plan_id":"cebpf4jnsgd1na2vs0mg"},{"bike_id":"be91a9bb-630e-4636-abd3-747fc7cf8c40","system_id":"levelo_inurba_marseille","lat":43.27173,"lon":5.40996,"is_reserved":false,"is_disabled":false,"rental_uris":{"android":"levelo://app?vid=be91a9bb-630e-4636-abd3-747fc7cf8c40","ios":"levelo://app?vid=be91a9bb-630e-4636-abd3-747fc7cf8c40"},"vehicle_type_id":"4","last_reported":1747066369,"current_range_meters":17600,"station_id":"ce4bhl12rcd13ifvqgf0","pricing_plan_id":"cebpf4jnsgd1na2vs0mg"},{"bike_id":"18cb3cb1-6210-453b-babf-714307623ee5","system_id":"levelo_inurba_marseille","lat":43.298958,"lon":5.436694,"is_reserved":false,"is_disabled":false,"rental_uris":{"android":"levelo://app?vid=18cb3cb1-6210-453b-babf-714307623ee5","ios":"levelo://app?vid=18cb3cb1-6210-453b-babf-714307623ee5"},"vehicle_type_id":"4","last_reported":1747066369,"current_range_meters":17600,"station_id":"ce4bhpp2rcd13ifvqhfg","pricing_plan_id":"cebpf4jnsgd1na2vs0mg"},{"bike_id":"691ad911-b1d0-47fc-a77d-e5e3db08d382","system_id":"levelo_inurba_marseille","lat":43.21691,"lon":5.34644,"is_reserved":false,"is_disabled":false,"rental_uris":{"android":"levelo://app?vid=691ad911-b1d0-47fc-a77d-e5e3db08d382","ios":"levelo://app?vid=691ad911-b1d0-47fc-a77d-e5e3db08d382"},"vehicle_type_id":"4","last_reported":1747066369,"current_range_meters":18000,"station_id":"","pricing_plan_id":"cebpf4jnsgd1na2vs0mg"},{"bike_id":"111998c6-70e8-4823-85aa-cbe0eb12546b","system_id":"levelo_inurba_marseille","lat":43.28421,"lon":5.349853,"is_reserved":false,"is_disabled":false,"rental_uris":{"android":"levelo://app?vid=111998c6-70e8-4823-85aa-cbe0eb12546b","ios":"levelo://app?vid=111998c6-70e8-4823-85aa-cbe0eb12546b"},"vehicle_type_id":"4","last_reported":1747066369,"current_range_meters":18000,"station_id":"ce4bhbh2rcd13ifvqepg","pricing_plan_id":"cebpf4jnsgd1na2vs0mg"},{"bike_id":"3b761f5e-f5aa-4839-a402-b2b54c108174","system_id":"levelo_inurba_marseille","lat":43.28272,"lon":5.35072,"is_reserved":false,"is_disabled":false,"rental_uris":{"android":"levelo://app?vid=3b761f5e-f5aa-4839-a402-b2b54c108174","ios":"levelo://app?vid=3b761f5e-f5aa-4839-a402-b2b54c108174"},"vehicle_type_id":"4","last_reported":1747066369,"current_range_meters":18000,"station_id":"ce4bhbp2rcd13ifvqerg","pricing_plan_id":"cebpf4jnsgd1na2vs0mg"},{"bike_id":"240768a6-b33c-4a9a-b27d-4c9147f41d62","system_id":"levelo_inurba_marseille","lat":43.32044,"lon":5.41545,"is_reserved":false,"is_disabled":false,"rental_uris":{"android":"levelo://app?vid=240768a6-b33c-4a9a-b27d-4c9147f41d62","ios":"levelo://app?vid=240768a6-b33c-4a9a-b27d-4c9147f41d62"},"vehicle_type_id":"4","last_reported":1747066369,"current_range_meters":18000,"station_id":"ce4bhq92rcd13ifvqhkg","pricing_plan_id":"cebpf4jnsgd1na2vs0mg"},{"bike_id":"e2c80733-19b7-4d31-aee0-dc716a34092b","system_id":"levelo_inurba_marseille","lat":43.28432,"lon":5.35057,"is_reserved":false,"is_disabled":false,"rental_uris":{"android":"levelo://app?vid=e2c80733-19b7-4d31-aee0-dc716a34092b","ios":"levelo://app?vid=e2c80733-19b7-4d31-aee0-dc716a34092b"},"vehicle_type_id":"4","last_reported":1747066369,"current_range_meters":18800,"station_id":"","pricing_plan_id":"cebpf4jnsgd1na2vs0mg"},{"bike_id":"052e8be5-756e-40b8-bf8d-fe2bdca2d830","system_id":"levelo_inurba_marseille","lat":43.2123,"lon":5.35084,"is_reserved":false,"is_disabled":false,"rental_uris":{"android":"levelo://app?vid=052e8be5-756e-40b8-bf8d-fe2bdca2d830","ios":"levelo://app?vid=052e8be5-756e-40b8-bf8d-fe2bdca2d830"},"vehicle_type_id":"4","last_reported":1747066369,"current_range_meters":18800,"station_id":"","pricing_plan_id":"cebpf4jnsgd1na2vs0mg"},{"bike_id":"f1c412b2-72a9-4ae9-9300-180b883f0c3d","system_id":"levelo_inurba_marseille","lat":43.27365,"lon":5.36237,"is_reserved":false,"is_disabled":false,"rental_uris":{"android":"levelo://app?vid=f1c412b2-72a9-4ae9-9300-180b883f0c3d","ios":"levelo://app?vid=f1c412b2-72a9-4ae9-9300-180b883f0c3d"},"vehicle_type_id":"4","last_reported":1747066369,"current_range_meters":18800,"station_id":"ce4bhbh2rcd13ifvqeo0","pricing_plan_id":"cebpf4jnsgd1na2vs0mg"},{"bike_id":"b716c534-ab9e-4c02-918c-1193c6594b9f","system_id":"levelo_inurba_marseille","lat":43.279167,"lon":5.395744,"is_reserved":false,"is_disabled":false,"rental_uris":{"android":"levelo://app?vid=b716c534-ab9e-4c02-918c-1193c6594b9f","ios":"levelo://app?vid=b716c534-ab9e-4c02-918c-1193c6594b9f"},"vehicle_type_id":"4","last_reported":1747066369,"current_range_meters":18800,"station_id":"ce4bhf92rcd13ifvqf40","pricing_plan_id":"cebpf4jnsgd1na2vs0mg"},{"bike_id":"ec3dbe7f-3c4f-4f90-a25c-cd5fbef2ea2a","system_id":"levelo_inurba_marseille","lat":43.25088,"lon":5.39521,"is_reserved":false,"is_disabled":false,"rental_uris":{"android":"levelo://app?vid=ec3dbe7f-3c4f-4f90-a25c-cd5fbef2ea2a","ios":"levelo://app?vid=ec3dbe7f-3c4f-4f90-a25c-cd5fbef2ea2a"},"vehicle_type_id":"4","last_reported":1747066369,"current_range_meters":18800,"station_id":"ce4bhm12rcd13ifvqgkg","pricing_plan_id":"cebpf4jnsgd1na2vs0mg"},{"bike_id":"8f898ea4-0b70-46db-b495-a08fd22223a4","system_id":"levelo_inurba_marseille","lat":43.22919,"lon":5.35388,"is_reserved":false,"is_disabled":false,"rental_uris":{"android":"levelo://app?vid=8f898ea4-0b70-46db-b495-a08fd22223a4","ios":"levelo://app?vid=8f898ea4-0b70-46db-b495-a08fd22223a4"},"vehicle_type_id":"4","last_reported":1747066369,"current_range_meters":18800,"station_id":"cpo3532slgdg3j2ikp40","pricing_plan_id":"cebpf4jnsgd1na2vs0mg"},{"bike_id":"38667599-d11f-4d45-a483-dbcd3cc0c45a","system_id":"levelo_inurba_marseille","lat":43.29798,"lon":5.40401,"is_reserved":false,"is_disabled":false,"rental_uris":{"android":"levelo://app?vid=38667599-d11f-4d45-a483-dbcd3cc0c45a","ios":"levelo://app?vid=38667599-d11f-4d45-a483-dbcd3cc0c45a"},"vehicle_type_id":"4","last_reported":1747066369,"current_range_meters":19200,"station_id":"ce4bh112rcd13ifvqd90","pricing_plan_id":"cebpf4jnsgd1na2vs0mg"},{"bike_id":"118cd84e-40a8-4993-88b2-1ac768b02024","system_id":"levelo_inurba_marseille","lat":43.23198,"lon":5.40016,"is_reserved":false,"is_disabled":false,"rental_uris":{"android":"levelo://app?vid=118cd84e-40a8-4993-88b2-1ac768b02024","ios":"levelo://app?vid=118cd84e-40a8-4993-88b2-1ac768b02024"},"vehicle_type_id":"4","last_reported":1747066369,"current_range_meters":19200,"station_id":"ce4bhn12rcd13ifvqgqg","pricing_plan_id":"cebpf4jnsgd1na2vs0mg"},{"bike_id":"0e1772d7-437a-4370-8233-1eed7ff02c6e","system_id":"levelo_inurba_marseille","lat":43.30518,"lon":5.38415,"is_reserved":false,"is_disabled":false,"rental_uris":{"android":"levelo://app?vid=0e1772d7-437a-4370-8233-1eed7ff02c6e","ios":"levelo://app?vid=0e1772d7-437a-4370-8233-1eed7ff02c6e"},"vehicle_type_id":"4","last_reported":1747066369,"current_range_meters":19600,"station_id":"ce4bgg92rcd13ifvqb30","pricing_plan_id":"cebpf4jnsgd1na2vs0mg"},{"bike_id":"8ef831d4-0dbc-4f70-892d-eef0645518c0","system_id":"levelo_inurba_marseille","lat":43.2846,"lon":5.35878,"is_reserved":false,"is_disabled":false,"rental_uris":{"android":"levelo://app?vid=8ef831d4-0dbc-4f70-892d-eef0645518c0","ios":"levelo://app?vid=8ef831d4-0dbc-4f70-892d-eef0645518c0"},"vehicle_type_id":"4","last_reported":1747066369,"current_range_meters":19600,"station_id":"ce4bhah2rcd13ifvqei0","pricing_plan_id":"cebpf4jnsgd1na2vs0mg"},{"bike_id":"6751c3af-2785-42de-bc81-f466abd046af","system_id":"levelo_inurba_marseille","lat":43.28429,"lon":5.349745,"is_reserved":false,"is_disabled":false,"rental_uris":{"android":"levelo://app?vid=6751c3af-2785-42de-bc81-f466abd046af","ios":"levelo://app?vid=6751c3af-2785-42de-bc81-f466abd046af"},"vehicle_type_id":"4","last_reported":1747066369,"current_range_meters":19600,"station_id":"ce4bhbh2rcd13ifvqepg","pricing_plan_id":"cebpf4jnsgd1na2vs0mg"},{"bike_id":"801d1e5c-5996-4104-b0a6-1ef647def6a5","system_id":"levelo_inurba_marseille","lat":43.25582,"lon":5.38245,"is_reserved":false,"is_disabled":false,"rental_uris":{"android":"levelo://app?vid=801d1e5c-5996-4104-b0a6-1ef647def6a5","ios":"levelo://app?vid=801d1e5c-5996-4104-b0a6-1ef647def6a5"},"vehicle_type_id":"4","last_reported":1747066369,"current_range_meters":19600,"station_id":"ce4bhih2rcd13ifvqfs0","pricing_plan_id":"cebpf4jnsgd1na2vs0mg"},{"bike_id":"7140f8de-f854-49c0-877d-f270a9d45b3d","system_id":"levelo_inurba_marseille","lat":43.29191,"lon":5.383074,"is_reserved":false,"is_disabled":false,"rental_uris":{"android":"levelo://app?vid=7140f8de-f854-49c0-877d-f270a9d45b3d","ios":"levelo://app?vid=7140f8de-f854-49c0-877d-f270a9d45b3d"},"vehicle_type_id":"4","last_reported":1747066369,"current_range_meters":20000,"station_id":"ce4bh692rcd13ifvqea0","pricing_plan_id":"cebpf4jnsgd1na2vs0mg"},{"bike_id":"82171c0d-e74b-441d-9785-ea5f1f55c2b9","system_id":"levelo_inurba_marseille","lat":43.2842,"lon":5.34997,"is_reserved":false,"is_disabled":false,"rental_uris":{"android":"levelo://app?vid=82171c0d-e74b-441d-9785-ea5f1f55c2b9","ios":"levelo://app?vid=82171c0d-e74b-441d-9785-ea5f1f55c2b9"},"vehicle_type_id":"4","last_reported":1747066369,"current_range_meters":20000,"station_id":"ce4bhbh2rcd13ifvqepg","pricing_plan_id":"cebpf4jnsgd1na2vs0mg"},{"bike_id":"b3695d1f-a405-4594-bd65-7454125e3234","system_id":"levelo_inurba_marseille","lat":43.27915,"lon":5.3959,"is_reserved":false,"is_disabled":false,"rental_uris":{"android":"levelo://app?vid=b3695d1f-a405-4594-bd65-7454125e3234","ios":"levelo://app?vid=b3695d1f-a405-4594-bd65-7454125e3234"},"vehicle_type_id":"4","last_reported":1747066369,"current_range_meters":20000,"station_id":"ce4bhf92rcd13ifvqf40","pricing_plan_id":"cebpf4jnsgd1na2vs0mg"},{"bike_id":"c4988c72-aa48-4869-83c4-79098cdbabed","system_id":"levelo_inurba_marseille","lat":43.28717,"lon":5.39994,"is_reserved":false,"is_disabled":false,"rental_uris":{"android":"levelo://app?vid=c4988c72-aa48-4869-83c4-79098cdbabed","ios":"levelo://app?vid=c4988c72-aa48-4869-83c4-79098cdbabed"},"vehicle_type_id":"4","last_reported":1747066369,"current_range_meters":20000,"station_id":"ce4bho92rcd13ifvqh3g","pricing_plan_id":"cebpf4jnsgd1na2vs0mg"},{"bike_id":"ee9711bb-60b9-45e3-abe3-db1afee53a9f","system_id":"levelo_inurba_marseille","lat":43.21752,"lon":5.34604,"is_reserved":false,"is_disabled":false,"rental_uris":{"android":"levelo://app?vid=ee9711bb-60b9-45e3-abe3-db1afee53a9f","ios":"levelo://app?vid=ee9711bb-60b9-45e3-abe3-db1afee53a9f"},"vehicle_type_id":"4","last_reported":1747066369,"current_range_meters":20000,"station_id":"st_cvj6r9ubvosntc0bgbag","pricing_plan_id":"cebpf4jnsgd1na2vs0mg"},{"bike_id":"d9504048-ca6d-46c6-8f68-5b46661a69ea","system_id":"levelo_inurba_marseille","lat":43.29963,"lon":5.38498,"is_reserved":false,"is_disabled":false,"rental_uris":{"android":"levelo://app?vid=d9504048-ca6d-46c6-8f68-5b46661a69ea","ios":"levelo://app?vid=d9504048-ca6d-46c6-8f68-5b46661a69ea"},"vehicle_type_id":"4","last_reported":1747066369,"current_range_meters":20400,"station_id":"ce4bgj92rcd13ifvqbd0","pricing_plan_id":"cebpf4jnsgd1na2vs0mg"},{"bike_id":"32b69422-01bf-438d-9ba7-5f1c49f62036","system_id":"levelo_inurba_marseille","lat":43.29028,"lon":5.38646,"is_reserved":false,"is_disabled":false,"rental_uris":{"android":"levelo://app?vid=32b69422-01bf-438d-9ba7-5f1c49f62036","ios":"levelo://app?vid=32b69422-01bf-438d-9ba7-5f1c49f62036"},"vehicle_type_id":"4","last_reported":1747066369,"current_range_meters":20400,"station_id":"ce4bh4p2rcd13ifvqe0g","pricing_plan_id":"cebpf4jnsgd1na2vs0mg"},{"bike_id":"704002d3-c78d-432a-a94f-18b02d75281a","system_id":"levelo_inurba_marseille","lat":43.23963,"lon":5.36629,"is_reserved":false,"is_disabled":false,"rental_uris":{"android":"levelo://app?vid=704002d3-c78d-432a-a94f-18b02d75281a","ios":"levelo://app?vid=704002d3-c78d-432a-a94f-18b02d75281a"},"vehicle_type_id":"4","last_reported":1747066369,"current_range_meters":20800,"station_id":"ce4bhi12rcd13ifvqfp0","pricing_plan_id":"cebpf4jnsgd1na2vs0mg"},{"bike_id":"2c2a2d36-fcd4-4908-b3fe-6a00f0b38b09","system_id":"levelo_inurba_marseille","lat":43.25077,"lon":5.39495,"is_reserved":false,"is_disabled":false,"rental_uris":{"android":"levelo://app?vid=2c2a2d36-fcd4-4908-b3fe-6a00f0b38b09","ios":"levelo://app?vid=2c2a2d36-fcd4-4908-b3fe-6a00f0b38b09"},"vehicle_type_id":"4","last_reported":1747066369,"current_range_meters":20800,"station_id":"ce4bhm12rcd13ifvqgkg","pricing_plan_id":"cebpf4jnsgd1na2vs0mg"},{"bike_id":"c1234833-9229-4e89-b9fe-8e9717a034dd","system_id":"levelo_inurba_marseille","lat":43.32365,"lon":5.38891,"is_reserved":false,"is_disabled":false,"rental_uris":{"android":"levelo://app?vid=c1234833-9229-4e89-b9fe-8e9717a034dd","ios":"levelo://app?vid=c1234833-9229-4e89-b9fe-8e9717a034dd"},"vehicle_type_id":"4","last_reported":1747066369,"current_range_meters":20800,"station_id":"ce4bhqp2rcd13ifvqhog","pricing_plan_id":"cebpf4jnsgd1na2vs0mg"},{"bike_id":"73327103-5b82-491d-8c66-63974d548961","system_id":"levelo_inurba_marseille","lat":43.3017,"lon":5.38017,"is_reserved":false,"is_disabled":false,"rental_uris":{"android":"levelo://app?vid=73327103-5b82-491d-8c66-63974d548961","ios":"levelo://app?vid=73327103-5b82-491d-8c66-63974d548961"},"vehicle_type_id":"4","last_reported":1747066369,"current_range_meters":21600,"station_id":"","pricing_plan_id":"cebpf4jnsgd1na2vs0mg"},{"bike_id":"50bfafaa-d718-4e3d-b4a4-4b5c3b3cc9b5","system_id":"levelo_inurba_marseille","lat":43.28461,"lon":5.35894,"is_reserved":false,"is_disabled":false,"rental_uris":{"android":"levelo://app?vid=50bfafaa-d718-4e3d-b4a4-4b5c3b3cc9b5","ios":"levelo://app?vid=50bfafaa-d718-4e3d-b4a4-4b5c3b3cc9b5"},"vehicle_type_id":"4","last_reported":1747066369,"current_range_meters":22000,"station_id":"ce4bhah2rcd13ifvqei0","pricing_plan_id":"cebpf4jnsgd1na2vs0mg"},{"bike_id":"1095b252-790e-4155-ab4e-86136a24d6fc","system_id":"levelo_inurba_marseille","lat":43.28486,"lon":5.35947,"is_reserved":false,"is_disabled":false,"rental_uris":{"android":"levelo://app?vid=1095b252-790e-4155-ab4e-86136a24d6fc","ios":"levelo://app?vid=1095b252-790e-4155-ab4e-86136a24d6fc"},"vehicle_type_id":"4","last_reported":1747066369,"current_range_meters":22000,"station_id":"ce4bhah2rcd13ifvqei0","pricing_plan_id":"cebpf4jnsgd1na2vs0mg"},{"bike_id":"f3899d8a-a80c-478a-bf65-190df06d38a0","system_id":"levelo_inurba_marseille","lat":43.29195,"lon":5.35805,"is_reserved":false,"is_disabled":false,"rental_uris":{"android":"levelo://app?vid=f3899d8a-a80c-478a-bf65-190df06d38a0","ios":"levelo://app?vid=f3899d8a-a80c-478a-bf65-190df06d38a0"},"vehicle_type_id":"4","last_reported":1747066369,"current_range_meters":22000,"station_id":"ce4bhb12rcd13ifvqel0","pricing_plan_id":"cebpf4jnsgd1na2vs0mg"},{"bike_id":"c8ff5852-fb77-4007-8011-c740c6c7757f","system_id":"levelo_inurba_marseille","lat":43.27903,"lon":5.38013,"is_reserved":false,"is_disabled":false,"rental_uris":{"android":"levelo://app?vid=c8ff5852-fb77-4007-8011-c740c6c7757f","ios":"levelo://app?vid=c8ff5852-fb77-4007-8011-c740c6c7757f"},"vehicle_type_id":"4","last_reported":1747066369,"current_range_meters":22000,"station_id":"ce4bhf92rcd13ifvqf50","pricing_plan_id":"cebpf4jnsgd1na2vs0mg"},{"bike_id":"c0a30689-2d55-45c5-b20f-25317ad99171","system_id":"levelo_inurba_marseille","lat":43.29865,"lon":5.39739,"is_reserved":false,"is_disabled":false,"rental_uris":{"android":"levelo://app?vid=c0a30689-2d55-45c5-b20f-25317ad99171","ios":"levelo://app?vid=c0a30689-2d55-45c5-b20f-25317ad99171"},"vehicle_type_id":"4","last_reported":1747066369,"current_range_meters":22400,"station_id":"ce4bh0h2rcd13ifvqd50","pricing_plan_id":"cebpf4jnsgd1na2vs0mg"},{"bike_id":"e83dcaca-181c-4b02-bf44-8d4da8809b5b","system_id":"levelo_inurba_marseille","lat":43.31723,"lon":5.43712,"is_reserved":false,"is_disabled":false,"rental_uris":{"android":"levelo://app?vid=e83dcaca-181c-4b02-bf44-8d4da8809b5b","ios":"levelo://app?vid=e83dcaca-181c-4b02-bf44-8d4da8809b5b"},"vehicle_type_id":"4","last_reported":1747066369,"current_range_meters":22400,"station_id":"ce4bhp92rcd13ifvqhcg","pricing_plan_id":"cebpf4jnsgd1na2vs0mg"},{"bike_id":"dc641743-b968-4496-812a-3b41120ce533","system_id":"levelo_inurba_marseille","lat":43.2848,"lon":5.35045,"is_reserved":false,"is_disabled":false,"rental_uris":{"android":"levelo://app?vid=dc641743-b968-4496-812a-3b41120ce533","ios":"levelo://app?vid=dc641743-b968-4496-812a-3b41120ce533"},"vehicle_type_id":"4","last_reported":1747066369,"current_range_meters":22800,"station_id":"","pricing_plan_id":"cebpf4jnsgd1na2vs0mg"},{"bike_id":"b360c250-e4bc-4678-bf55-57e92e66232a","system_id":"levelo_inurba_marseille","lat":43.29522,"lon":5.390388,"is_reserved":false,"is_disabled":false,"rental_uris":{"android":"levelo://app?vid=b360c250-e4bc-4678-bf55-57e92e66232a","ios":"levelo://app?vid=b360c250-e4bc-4678-bf55-57e92e66232a"},"vehicle_type_id":"4","last_reported":1747066369,"current_range_meters":22800,"station_id":"ce4bh3p2rcd13ifvqdp0","pricing_plan_id":"cebpf4jnsgd1na2vs0mg"},{"bike_id":"8fc3d979-6efd-4802-aea3-10c3b5553929","system_id":"levelo_inurba_marseille","lat":43.2841,"lon":5.37519,"is_reserved":false,"is_disabled":false,"rental_uris":{"android":"levelo://app?vid=8fc3d979-6efd-4802-aea3-10c3b5553929","ios":"levelo://app?vid=8fc3d979-6efd-4802-aea3-10c3b5553929"},"vehicle_type_id":"4","last_reported":1747066369,"current_range_meters":22800,"station_id":"ce4bh412rcd13ifvqds0","pricing_plan_id":"cebpf4jnsgd1na2vs0mg"},{"bike_id":"829d0fba-3a79-4b74-9fdb-0e216a4661e3","system_id":"levelo_inurba_marseille","lat":43.28666,"lon":5.38678,"is_reserved":false,"is_disabled":false,"rental_uris":{"android":"levelo://app?vid=829d0fba-3a79-4b74-9fdb-0e216a4661e3","ios":"levelo://app?vid=829d0fba-3a79-4b74-9fdb-0e216a4661e3"},"vehicle_type_id":"4","last_reported":1747066369,"current_range_meters":22800,"station_id":"ce4bh492rcd13ifvqdug","pricing_plan_id":"cebpf4jnsgd1na2vs0mg"},{"bike_id":"ded21d3b-017a-431c-a119-0da980f4a122","system_id":"levelo_inurba_marseille","lat":43.28421,"lon":5.35008,"is_reserved":false,"is_disabled":false,"rental_uris":{"android":"levelo://app?vid=ded21d3b-017a-431c-a119-0da980f4a122","ios":"levelo://app?vid=ded21d3b-017a-431c-a119-0da980f4a122"},"vehicle_type_id":"4","last_reported":1747066369,"current_range_meters":22800,"station_id":"ce4bhbh2rcd13ifvqepg","pricing_plan_id":"cebpf4jnsgd1na2vs0mg"},{"bike_id":"581a76c6-406f-436c-80cf-424046378536","system_id":"levelo_inurba_marseille","lat":43.2316,"lon":5.43699,"is_reserved":false,"is_disabled":false,"rental_uris":{"android":"levelo://app?vid=581a76c6-406f-436c-80cf-424046378536","ios":"levelo://app?vid=581a76c6-406f-436c-80cf-424046378536"},"vehicle_type_id":"4","last_reported":1747066369,"current_range_meters":22800,"station_id":"ce4bhmp2rcd13ifvqgog","pricing_plan_id":"cebpf4jnsgd1na2vs0mg"},{"bike_id":"711c3665-551b-4176-9dc3-d824e9806ffd","system_id":"levelo_inurba_marseille","lat":43.31331,"lon":5.38614,"is_reserved":false,"is_disabled":false,"rental_uris":{"android":"levelo://app?vid=711c3665-551b-4176-9dc3-d824e9806ffd","ios":"levelo://app?vid=711c3665-551b-4176-9dc3-d824e9806ffd"},"vehicle_type_id":"4","last_reported":1747066369,"current_range_meters":23200,"station_id":"","pricing_plan_id":"cebpf4jnsgd1na2vs0mg"},{"bike_id":"6df347ed-c861-48a7-8de9-6c66c37b6bb4","system_id":"levelo_inurba_marseille","lat":43.32149,"lon":5.36785,"is_reserved":false,"is_disabled":false,"rental_uris":{"android":"levelo://app?vid=6df347ed-c861-48a7-8de9-6c66c37b6bb4","ios":"levelo://app?vid=6df347ed-c861-48a7-8de9-6c66c37b6bb4"},"vehicle_type_id":"4","last_reported":1747066369,"current_range_meters":23200,"station_id":"","pricing_plan_id":"cebpf4jnsgd1na2vs0mg"},{"bike_id":"44751270-a5f2-4709-a1e5-77b44a97b812","system_id":"levelo_inurba_marseille","lat":43.30891,"lon":5.37196,"is_reserved":false,"is_disabled":false,"rental_uris":{"android":"levelo://app?vid=44751270-a5f2-4709-a1e5-77b44a97b812","ios":"levelo://app?vid=44751270-a5f2-4709-a1e5-77b44a97b812"},"vehicle_type_id":"4","last_reported":1747066369,"current_range_meters":23200,"station_id":"ce4bguh2rcd13ifvqckg","pricing_plan_id":"cebpf4jnsgd1na2vs0mg"},{"bike_id":"0bc08604-96f1-482e-81a7-a947274aed1b","system_id":"levelo_inurba_marseille","lat":43.29629,"lon":5.40594,"is_reserved":false,"is_disabled":false,"rental_uris":{"android":"levelo://app?vid=0bc08604-96f1-482e-81a7-a947274aed1b","ios":"levelo://app?vid=0bc08604-96f1-482e-81a7-a947274aed1b"},"vehicle_type_id":"4","last_reported":1747066369,"current_range_meters":23200,"station_id":"ce4bh0h2rcd13ifvqd60","pricing_plan_id":"cebpf4jnsgd1na2vs0mg"},{"bike_id":"ba10b1bd-af2c-46e7-8790-2443772bb301","system_id":"levelo_inurba_marseille","lat":43.29265,"lon":5.38447,"is_reserved":false,"is_disabled":false,"rental_uris":{"android":"levelo://app?vid=ba10b1bd-af2c-46e7-8790-2443772bb301","ios":"levelo://app?vid=ba10b1bd-af2c-46e7-8790-2443772bb301"},"vehicle_type_id":"4","last_reported":1747066369,"current_range_meters":23200,"station_id":"ce4bh692rcd13ifvqea0","pricing_plan_id":"cebpf4jnsgd1na2vs0mg"},{"bike_id":"54cf2874-33e0-4ad9-b377-97cf0697ab9f","system_id":"levelo_inurba_marseille","lat":43.29226,"lon":5.36074,"is_reserved":false,"is_disabled":false,"rental_uris":{"android":"levelo://app?vid=54cf2874-33e0-4ad9-b377-97cf0697ab9f","ios":"levelo://app?vid=54cf2874-33e0-4ad9-b377-97cf0697ab9f"},"vehicle_type_id":"4","last_reported":1747066369,"current_range_meters":23200,"station_id":"ce4bhbh2rcd13ifvqeqg","pricing_plan_id":"cebpf4jnsgd1na2vs0mg"},{"bike_id":"b0810d1c-ed01-4336-bb42-2212570c9cae","system_id":"levelo_inurba_marseille","lat":43.31329,"lon":5.39693,"is_reserved":false,"is_disabled":false,"rental_uris":{"android":"levelo://app?vid=b0810d1c-ed01-4336-bb42-2212570c9cae","ios":"levelo://app?vid=b0810d1c-ed01-4336-bb42-2212570c9cae"},"vehicle_type_id":"4","last_reported":1747066369,"current_range_meters":24000,"station_id":"ce4bgvp2rcd13ifvqcu0","pricing_plan_id":"cebpf4jnsgd1na2vs0mg"},{"bike_id":"4ae14bbd-a9fe-485a-9f75-889edf9c5ce4","system_id":"levelo_inurba_marseille","lat":43.29093,"lon":5.38137,"is_reserved":false,"is_disabled":false,"rental_uris":{"android":"levelo://app?vid=4ae14bbd-a9fe-485a-9f75-889edf9c5ce4","ios":"levelo://app?vid=4ae14bbd-a9fe-485a-9f75-889edf9c5ce4"},"vehicle_type_id":"4","last_reported":1747066369,"current_range_meters":24000,"station_id":"ce4bh512rcd13ifvqe2g","pricing_plan_id":"cebpf4jnsgd1na2vs0mg"},{"bike_id":"ee24bd6e-4db9-4f57-ada8-463889ab68f0","system_id":"levelo_inurba_marseille","lat":43.2717,"lon":5.40999,"is_reserved":false,"is_disabled":false,"rental_uris":{"android":"levelo://app?vid=ee24bd6e-4db9-4f57-ada8-463889ab68f0","ios":"levelo://app?vid=ee24bd6e-4db9-4f57-ada8-463889ab68f0"},"vehicle_type_id":"4","last_reported":1747066369,"current_range_meters":24000,"station_id":"ce4bhl12rcd13ifvqgf0","pricing_plan_id":"cebpf4jnsgd1na2vs0mg"},{"bike_id":"695b9512-2631-423a-b8b1-9da732512672","system_id":"levelo_inurba_marseille","lat":43.336182,"lon":5.410191,"is_reserved":false,"is_disabled":false,"rental_uris":{"android":"levelo://app?vid=695b9512-2631-423a-b8b1-9da732512672","ios":"levelo://app?vid=695b9512-2631-423a-b8b1-9da732512672"},"vehicle_type_id":"4","last_reported":1747066369,"current_range_meters":24000,"station_id":"ce4bhqh2rcd13ifvqhlg","pricing_plan_id":"cebpf4jnsgd1na2vs0mg"},{"bike_id":"fb6ac3ec-6d61-44f3-a6c9-05b0ee3dd238","system_id":"levelo_inurba_marseille","lat":43.293671,"lon":5.378511,"is_reserved":false,"is_disabled":false,"rental_uris":{"android":"levelo://app?vid=fb6ac3ec-6d61-44f3-a6c9-05b0ee3dd238","ios":"levelo://app?vid=fb6ac3ec-6d61-44f3-a6c9-05b0ee3dd238"},"vehicle_type_id":"4","last_reported":1747066369,"current_range_meters":24400,"station_id":"ce4bgjh2rcd13ifvqbf0","pricing_plan_id":"cebpf4jnsgd1na2vs0mg"},{"bike_id":"ae66fd72-58b1-4e13-af5b-1d1bac8a8d08","system_id":"levelo_inurba_marseille","lat":43.28425,"lon":5.35004,"is_reserved":false,"is_disabled":false,"rental_uris":{"android":"levelo://app?vid=ae66fd72-58b1-4e13-af5b-1d1bac8a8d08","ios":"levelo://app?vid=ae66fd72-58b1-4e13-af5b-1d1bac8a8d08"},"vehicle_type_id":"4","last_reported":1747066369,"current_range_meters":24400,"station_id":"ce4bhbh2rcd13ifvqepg","pricing_plan_id":"cebpf4jnsgd1na2vs0mg"},{"bike_id":"7209e8f8-da0e-4626-8688-f6d8cfbfc68f","system_id":"levelo_inurba_marseille","lat":43.2396,"lon":5.36639,"is_reserved":false,"is_disabled":false,"rental_uris":{"android":"levelo://app?vid=7209e8f8-da0e-4626-8688-f6d8cfbfc68f","ios":"levelo://app?vid=7209e8f8-da0e-4626-8688-f6d8cfbfc68f"},"vehicle_type_id":"4","last_reported":1747066369,"current_range_meters":24400,"station_id":"ce4bhi12rcd13ifvqfp0","pricing_plan_id":"cebpf4jnsgd1na2vs0mg"},{"bike_id":"baf96505-6a7a-48f0-83cd-1776c0df679e","system_id":"levelo_inurba_marseille","lat":43.231955,"lon":5.35546,"is_reserved":false,"is_disabled":false,"rental_uris":{"android":"levelo://app?vid=baf96505-6a7a-48f0-83cd-1776c0df679e","ios":"levelo://app?vid=baf96505-6a7a-48f0-83cd-1776c0df679e"},"vehicle_type_id":"4","last_reported":1747066369,"current_range_meters":24400,"station_id":"ce4bhu92rcd13ifvqi70","pricing_plan_id":"cebpf4jnsgd1na2vs0mg"},{"bike_id":"cd9f13fb-4000-4f07-a0b3-3b20214d9668","system_id":"levelo_inurba_marseille","lat":43.22931,"lon":5.3538,"is_reserved":false,"is_disabled":false,"rental_uris":{"android":"levelo://app?vid=cd9f13fb-4000-4f07-a0b3-3b20214d9668","ios":"levelo://app?vid=cd9f13fb-4000-4f07-a0b3-3b20214d9668"},"vehicle_type_id":"4","last_reported":1747066369,"current_range_meters":24400,"station_id":"cpo3532slgdg3j2ikp40","pricing_plan_id":"cebpf4jnsgd1na2vs0mg"},{"bike_id":"2aff00df-3d4f-4caa-90ca-4c8fb72f5c08","system_id":"levelo_inurba_marseille","lat":43.31313,"lon":5.37355,"is_reserved":false,"is_disabled":false,"rental_uris":{"android":"levelo://app?vid=2aff00df-3d4f-4caa-90ca-4c8fb72f5c08","ios":"levelo://app?vid=2aff00df-3d4f-4caa-90ca-4c8fb72f5c08"},"vehicle_type_id":"4","last_reported":1747066369,"current_range_meters":24800,"station_id":"","pricing_plan_id":"cebpf4jnsgd1na2vs0mg"},{"bike_id":"b319c881-9d3a-4766-bf39-fdb8deca6ec7","system_id":"levelo_inurba_marseille","lat":43.30139,"lon":5.38793,"is_reserved":false,"is_disabled":false,"rental_uris":{"android":"levelo://app?vid=b319c881-9d3a-4766-bf39-fdb8deca6ec7","ios":"levelo://app?vid=b319c881-9d3a-4766-bf39-fdb8deca6ec7"},"vehicle_type_id":"4","last_reported":1747066369,"current_range_meters":24800,"station_id":"ce4bghh2rcd13ifvqb60","pricing_plan_id":"cebpf4jnsgd1na2vs0mg"},