{"last_updated":1761266939,"ttl":60,"version":"2.2","data":{"bikes":[{"bike_id":"5dfb26f1-928a-4943-8d0f-6f7520bc9005","system_id":"levelo_inurba_marseille","lat":43.27908,"lon":5.38001,"is_reserved":false,"is_disabled":false,"rental_uris":{"android":"levelo://app?vid=5dfb26f1-928a-4943-8d0f-6f7520bc9005","ios":"levelo://app?vid=5dfb26f1-928a-4943-8d0f-6f7520bc9005"},"vehicle_type_id":"4","last_reported":1761266939,"current_range_meters":2800,"station_id":"ce4bhf92rcd13ifvqf50","pricing_plan_id":"cebpf4jnsgd1na2vs0mg"},{"bike_id":"9284d93a-9b08-4b67-aa5a-3a9eb3e24f49","system_id":"levelo_inurba_marseille","lat":43.21751,"lon":5.34608,"is_reserved":false,"is_disabled":false,"rental_uris":{"android":"levelo://app?vid=9284d93a-9b08-4b67-aa5a-3a9eb3e24f49","ios":"levelo://app?vid=9284d93a-9b08-4b67-aa5a-3a9eb3e24f49"},"vehicle_type_id":"4","last_reported":1761266939,"current_range_meters":3200,"station_id":"st_cvj6r9ubvosntc0bgbag","pricing_plan_id":"cebpf4jnsgd1na2vs0mg"},{"bike_id":"3167c122-43fa-497a-bf85-d0a6522abe7a","system_id":"levelo_inurba_marseille","lat":43.32763,"lon":5.3752,"is_reserved":false,"is_disabled":false,"rental_uris":{"android":"levelo://app?vid=3167c122-43fa-497a-bf85-d0a6522abe7a","ios":"levelo://app?vid=3167c122-43fa-497a-bf85-d0a6522abe7a"},"vehicle_type_id":"4","last_reported":1761266939,"current_range_meters":3200,"station_id":"","pricing_plan_id":"cebpf4jnsgd1na2vs0mg"},{"bike_id":"974a76dc-4cf0-4bef-aba9-126e20fc1633","system_id":"levelo_inurba_marseille","lat":43.29755,"lon":5.42777,"is_reserved":false,"is_disabled":false,"rental_uris":{"android":"levelo://app?vid=974a76dc-4cf0-4bef-aba9-126e20fc1633","ios":"levelo://app?vid=974a76dc-4cf0-4bef-aba9-126e20fc1633"},"vehicle_type_id":"4","last_reported":1761266939,"current_range_meters":3200,"station_id":"st_d3md5207bmas73dh9klg","pricing_plan_id":"cebpf4jnsgd1na2vs0mg"},{"bike_id":"a4eb7878-0dcd-46c6-8671-b9f2485ba1e9","system_id":"levelo_inurba_marseille","lat":43.290273,"lon":5.375546,"is_reserved":false,"is_disabled":false,"rental_uris":{"android":"levelo://app?vid=a4eb7878-0dcd-46c6-8671-b9f2485ba1e9","ios":"levelo://app?vid=a4eb7878-0dcd-46c6-8671-b9f2485ba1e9"},"vehicle_type_id":"4","last_reported":1761266939,"current_range_meters":3200,"station_id":"ce4bh692rcd13ifvqe90","pricing_plan_id":"cebpf4jnsgd1na2vs0mg"},{"bike_id":"092c4443-fb8c-40b7-ac56-8cb542b4143a","system_id":"levelo_inurba_marseille","lat":43.25873,"lon":5.39908,"is_reserved":false,"is_disabled":false,"rental_uris":{"android":"levelo://app?vid=092c4443-fb8c-40b7-ac56-8cb542b4143a","ios":"levelo://app?vid=092c4443-fb8c-40b7-ac56-8cb542b4143a"},"vehicle_type_id":"4","last_reported":1761266939,"current_range_meters":4000,"station_id":"ce4bhl92rcd13ifvqghg","pricing_plan_id":"cebpf4jnsgd1na2vs0mg"},{"bike_id":"02f7835e-8895-43db-bc46-dc0659a292d5","system_id":"levelo_inurba_marseille","lat":43.29331,"lon":5.3707,"is_reserved":false,"is_disabled":false,"rental_uris":{"android":"levelo://app?vid=02f7835e-8895-43db-bc46-dc0659a292d5","ios":"levelo://app?vid=02f7835e-8895-43db-bc46-dc0659a292d5"},"vehicle_type_id":"4","last_reported":1761266939,"current_range_meters":4000,"station_id":"","pricing_plan_id":"cebpf4jnsgd1na2vs0mg"},{"bike_id":"fb603a6e-d69a-4d51-bfd9-ff2268695f70","system_id":"levelo_inurba_marseille","lat":43.31171,"lon":5.38723,"is_reserved":false,"is_disabled":false,"rental_uris":{"android":"levelo://app?vid=fb603a6e-d69a-4d51-bfd9-ff2268695f70","ios":"levelo://app?vid=fb603a6e-d69a-4d51-bfd9-ff2268695f70"},"vehicle_type_id":"4","last_reported":1761266939,"current_range_meters":4000,"station_id":"ce4bgv12rcd13ifvqcp0","pricing_plan_id":"cebpf4jnsgd1na2vs0mg"},{"bike_id":"960a0451-559a-41d1-af46-94a056047301","system_id":"levelo_inurba_marseille","lat":43.2857,"lon":5.39502,"is_reserved":false,"is_disabled":true,"rental_uris":{"android":"levelo://app?vid=960a0451-559a-41d1-af46-94a056047301","ios":"levelo://app?vid=960a0451-559a-41d1-af46-94a056047301"},"vehicle_type_id":"4","last_reported":1761266939,"current_range_meters":4400,"station_id":"ce4bh292rcd13ifvqdg0","pricing_plan_id":"cebpf4jnsgd1na2vs0mg"},{"bike_id":"e6f4e10e-6d72-487a-8252-3250c4b27f98","system_id":"levelo_inurba_marseille","lat":43.21184,"lon":5.35076,"is_reserved":false,"is_disabled":false,"rental_uris":{"android":"levelo://app?vid=e6f4e10e-6d72-487a-8252-3250c4b27f98","ios":"levelo://app?vid=e6f4e10e-6d72-487a-8252-3250c4b27f98"},"vehicle_type_id":"4","last_reported":1761266939,"current_range_meters":4800,"station_id":"st_cvj6sg6p6f1abm77japg","pricing_plan_id":"cebpf4jnsgd1na2vs0mg"},{"bike_id":"dd20b52b-85a0-4775-a515-79686d351f1e","system_id":"levelo_inurba_marseille","lat":43.29484,"lon":5.43301,"is_reserved":false,"is_disabled":false,"rental_uris":{"android":"levelo://app?vid=dd20b52b-85a0-4775-a515-79686d351f1e","ios":"levelo://app?vid=dd20b52b-85a0-4775-a515-79686d351f1e"},"vehicle_type_id":"4","last_reported":1761266939,"current_range_meters":5600,"station_id":"st_d3j5ugp08ojc73fj9d10","pricing_plan_id":"cebpf4jnsgd1na2vs0mg"},{"bike_id":"2a0fabdf-efd8-46c4-aa46-d607efb41f23","system_id":"levelo_inurba_marseille","lat":43.28924,"lon":5.36621,"is_reserved":false,"is_disabled":false,"rental_uris":{"android":"levelo://app?vid=2a0fabdf-efd8-46c4-aa46-d607efb41f23","ios":"levelo://app?vid=2a0fabdf-efd8-46c4-aa46-d607efb41f23"},"vehicle_type_id":"4","last_reported":1761266939,"current_range_meters":5600,"station_id":"ce4bhap2rcd13ifvqek0","pricing_plan_id":"cebpf4jnsgd1na2vs0mg"},{"bike_id":"19a81ba3-8936-468a-9e73-f2451a2dbdad","system_id":"levelo_inurba_marseille","lat":43.29387,"lon":5.37611,"is_reserved":false,"is_disabled":false,"rental_uris":{"android":"levelo://app?vid=19a81ba3-8936-468a-9e73-f2451a2dbdad","ios":"levelo://app?vid=19a81ba3-8936-468a-9e73-f2451a2dbdad"},"vehicle_type_id":"4","last_reported":1761266939,"current_range_meters":5600,"station_id":"","pricing_plan_id":"cebpf4jnsgd1na2vs0mg"},{"bike_id":"955acde1-aeb3-4cd7-93a7-b8d05b61f5e0","system_id":"levelo_inurba_marseille","lat":43.260318,"lon":5.375487,"is_reserved":false,"is_disabled":false,"rental_uris":{"android":"levelo://app?vid=955acde1-aeb3-4cd7-93a7-b8d05b61f5e0","ios":"levelo://app?vid=955acde1-aeb3-4cd7-93a7-b8d05b61f5e0"},"vehicle_type_id":"4","last_reported":1761266939,"current_range_meters":5600,"station_id":"ce4bhgh2rcd13ifvqfa0","pricing_plan_id":"cebpf4jnsgd1na2vs0mg"},{"bike_id":"82576c51-8b9b-43eb-aa43-fc4a18c9ea5b","system_id":"levelo_inurba_marseille","lat":43.21733,"lon":5.34588,"is_reserved":false,"is_disabled":false,"rental_uris":{"android":"levelo://app?vid=82576c51-8b9b-43eb-aa43-fc4a18c9ea5b","ios":"levelo://app?vid=82576c51-8b9b-43eb-aa43-fc4a18c9ea5b"},"vehicle_type_id":"4","last_reported":1761266939,"current_range_meters":6000,"station_id":"st_cvj6r9ubvosntc0bgbag","pricing_plan_id":"cebpf4jnsgd1na2vs0mg"},{"bike_id":"1a97bebf-6873-47a1-9cae-8867f250ac18","system_id":"levelo_inurba_marseille","lat":43.250923,"lon":5.395271,"is_reserved":false,"is_disabled":false,"rental_uris":{"android":"levelo://app?vid=1a97bebf-6873-47a1-9cae-8867f250ac18","ios":"levelo://app?vid=1a97bebf-6873-47a1-9cae-8867f250ac18"},"vehicle_type_id":"4","last_reported":1761266939,"current_range_meters":6000,"station_id":"ce4bhm12rcd13ifvqgkg","pricing_plan_id":"cebpf4jnsgd1na2vs0mg"},{"bike_id":"ff3ba630-dc04-489c-b422-8721b9ddc862","system_id":"levelo_inurba_marseille","lat":43.2986,"lon":5.37752,"is_reserved":false,"is_disabled":false,"rental_uris":{"android":"levelo://app?vid=ff3ba630-dc04-489c-b422-8721b9ddc862","ios":"levelo://app?vid=ff3ba630-dc04-489c-b422-8721b9ddc862"},"vehicle_type_id":"4","last_reported":1761266939,"current_range_meters":6000,"station_id":"","pricing_plan_id":"cebpf4jnsgd1na2vs0mg"},{"bike_id":"dbdd9d47-e64b-4224-9854-54b667fbb57e","system_id":"levelo_inurba_marseille","lat":43.28474,"lon":5.35864,"is_reserved":false,"is_disabled":false,"rental_uris":{"android":"levelo://app?vid=dbdd9d47-e64b-4224-9854-54b667fbb57e","ios":"levelo://app?vid=dbdd9d47-e64b-4224-9854-54b667fbb57e"},"vehicle_type_id":"4","last_reported":1761266939,"current_range_meters":6400,"station_id":"ce4bhah2rcd13ifvqei0","pricing_plan_id":"cebpf4jnsgd1na2vs0mg"},{"bike_id":"16ea86f8-d34c-4222-9d2d-e608ddd6d62e","system_id":"levelo_inurba_marseille","lat":43.3378,"lon":5.37464,"is_reserved":false,"is_disabled":false,"rental_uris":{"android":"levelo://app?vid=16ea86f8-d34c-4222-9d2d-e608ddd6d62e","ios":"levelo://app?vid=16ea86f8-d34c-4222-9d2d-e608ddd6d62e"},"vehicle_type_id":"4","last_reported":1761266939,"current_range_meters":6400,"station_id":"","pricing_plan_id":"cebpf4jnsgd1na2vs0mg"},{"bike_id":"f3efb067-32db-4fd5-a6c7-ed1c6ebbf69d","system_id":"levelo_inurba_marseille","lat":43.21201,"lon":5.35059,"is_reserved":false,"is_disabled":true,"rental_uris":{"android":"levelo://app?vid=f3efb067-32db-4fd5-a6c7-ed1c6ebbf69d","ios":"levelo://app?vid=f3efb067-32db-4fd5-a6c7-ed1c6ebbf69d"},"vehicle_type_id":"4","last_reported":1761266939,"current_range_meters":6400,"station_id":"st_cvj6sg6p6f1abm77japg","pricing_plan_id":"cebpf4jnsgd1na2vs0mg"},{"bike_id":"71e83873-ed23-4193-9928-ec1553fe9c0b","system_id":"levelo_inurba_marseille","lat":43.24076,"lon":5.37749,"is_reserved":false,"is_disabled":false,"rental_uris":{"android":"levelo://app?vid=71e83873-ed23-4193-9928-ec1553fe9c0b","ios":"levelo://app?vid=71e83873-ed23-4193-9928-ec1553fe9c0b"},"vehicle_type_id":"4","last_reported":1761266939,"current_range_meters":6400,"station_id":"ce4bhnp2rcd13ifvqgvg","pricing_plan_id":"cebpf4jnsgd1na2vs0mg"},{"bike_id":"37d01fc8-4b4d-4652-a489-1254eb9d4c80","system_id":"levelo_inurba_marseille","lat":43.34076,"lon":5.40411,"is_reserved":false,"is_disabled":false,"rental_uris":{"android":"levelo://app?vid=37d01fc8-4b4d-4652-a489-1254eb9d4c80","ios":"levelo://app?vid=37d01fc8-4b4d-4652-a489-1254eb9d4c80"},"vehicle_type_id":"4","last_reported":1761266939,"current_range_meters":6400,"station_id":"","pricing_plan_id":"cebpf4jnsgd1na2vs0mg"},{"bike_id":"de88b060-a8d3-4631-9b2a-19bac33a1a68","system_id":"levelo_inurba_marseille","lat":43.30772,"lon":5.42434,"is_reserved":false,"is_disabled":false,"rental_uris":{"android":"levelo://app?vid=de88b060-a8d3-4631-9b2a-19bac33a1a68","ios":"levelo://app?vid=de88b060-a8d3-4631-9b2a-19bac33a1a68"},"vehicle_type_id":"4","last_reported":1761266939,"current_range_meters":6400,"station_id":"st_cvj6ca6bvosntc0bfgr0","pricing_plan_id":"cebpf4jnsgd1na2vs0mg"},{"bike_id":"78a25520-002d-48b2-9994-dde9bbc0fb70","system_id":"levelo_inurba_marseille","lat":43.280356,"lon":5.369453,"is_reserved":false,"is_disabled":false,"rental_uris":{"android":"levelo://app?vid=78a25520-002d-48b2-9994-dde9bbc0fb70","ios":"levelo://app?vid=78a25520-002d-48b2-9994-dde9bbc0fb70"},"vehicle_type_id":"4","last_reported":1761266939,"current_range_meters":6400,"station_id":"ce4bha12rcd13ifvqef0","pricing_plan_id":"cebpf4jnsgd1na2vs0mg"},{"bike_id":"ef6e3d61-5bf7-4555-9dfc-1bda28ba8e43","system_id":"levelo_inurba_marseille","lat":43.31514,"lon":5.37294,"is_reserved":false,"is_disabled":false,"rental_uris":{"android":"levelo://app?vid=ef6e3d61-5bf7-4555-9dfc-1bda28ba8e43","ios":"levelo://app?vid=ef6e3d61-5bf7-4555-9dfc-1bda28ba8e43"},"vehicle_type_id":"4","last_reported":1761266939,"current_range_meters":6800,"station_id":"ce4bgt12rcd13ifvqcd0","pricing_plan_id":"cebpf4jnsgd1na2vs0mg"},{"bike_id":"2087d38d-b561-42de-89f9-544970412313","system_id":"levelo_inurba_marseille","lat":43.26559,"lon":5.40324,"is_reserved":false,"is_disabled":false,"rental_uris":{"android":"levelo://app?vid=2087d38d-b561-42de-89f9-544970412313","ios":"levelo://app?vid=2087d38d-b561-42de-89f9-544970412313"},"vehicle_type_id":"4","last_reported":1761266939,"current_range_meters":6800,"station_id":"ce4bhmp2rcd13ifvqgng","pricing_plan_id":"cebpf4jnsgd1na2vs0mg"},{"bike_id":"5385651e-5d96-4b05-9e5e-8383228be157","system_id":"levelo_inurba_marseille","lat":43.27913,"lon":5.37989,"is_reserved":false,"is_disabled":true,"rental_uris":{"android":"levelo://app?vid=5385651e-5d96-4b05-9e5e-8383228be157","ios":"levelo://app?vid=5385651e-5d96-4b05-9e5e-8383228be157"},"vehicle_type_id":"4","last_reported":1761266939,"current_range_meters":6800,"station_id":"ce4bhf92rcd13ifvqf50","pricing_plan_id":"cebpf4jnsgd1na2vs0mg"},{"bike_id":"15fb03e4-6c16-4814-a34b-c6b62a456a89","system_id":"levelo_inurba_marseille","lat":43.26496,"lon":5.39553,"is_reserved":false,"is_disabled":false,"rental_uris":{"android":"levelo://app?vid=15fb03e4-6c16-4814-a34b-c6b62a456a89","ios":"levelo://app?vid=15fb03e4-6c16-4814-a34b-c6b62a456a89"},"vehicle_type_id":"4","last_reported":1761266939,"current_range_meters":7200,"station_id":"ce4bhi12rcd13ifvqfq0","pricing_plan_id":"cebpf4jnsgd1na2vs0mg"},{"bike_id":"fb0a437c-e341-431d-88c4-78a75538c142","system_id":"levelo_inurba_marseille","lat":43.28704,"lon":5.39961,"is_reserved":false,"is_disabled":false,"rental_uris":{"android":"levelo://app?vid=fb0a437c-e341-431d-88c4-78a75538c142","ios":"levelo://app?vid=fb0a437c-e341-431d-88c4-78a75538c142"},"vehicle_type_id":"4","last_reported":1761266939,"current_range_meters":7200,"station_id":"ce4bho92rcd13ifvqh3g","pricing_plan_id":"cebpf4jnsgd1na2vs0mg"},{"bike_id":"066d7904-f782-44f2-ad3a-1c9e5c07d120","system_id":"levelo_inurba_marseille","lat":43.31999,"lon":5.38141,"is_reserved":false,"is_disabled":false,"rental_uris":{"android":"levelo://app?vid=066d7904-f782-44f2-ad3a-1c9e5c07d120","ios":"levelo://app?vid=066d7904-f782-44f2-ad3a-1c9e5c07d120"},"vehicle_type_id":"4","last_reported":1761266939,"current_range_meters":7200,"station_id":"ce4bhr12rcd13ifvqhpg","pricing_plan_id":"cebpf4jnsgd1na2vs0mg"},{"bike_id":"3aa8c3e6-230d-4538-ac39-2b944611f536","system_id":"levelo_inurba_marseille","lat":43.31358,"lon":5.36699,"is_reserved":false,"is_disabled":true,"rental_uris":{"android":"levelo://app?vid=3aa8c3e6-230d-4538-ac39-2b944611f536","ios":"levelo://app?vid=3aa8c3e6-230d-4538-ac39-2b944611f536"},"vehicle_type_id":"4","last_reported":1761266939,"current_range_meters":7200,"station_id":"ce4bgr92rcd13ifvqc6g","pricing_plan_id":"cebpf4jnsgd1na2vs0mg"},{"bike_id":"cd0cadb0-3b2e-465b-9d15-7d593ef08f95","system_id":"levelo_inurba_marseille","lat":43.26319,"lon":5.39716,"is_reserved":false,"is_disabled":false,"rental_uris":{"android":"levelo://app?vid=cd0cadb0-3b2e-465b-9d15-7d593ef08f95","ios":"levelo://app?vid=cd0cadb0-3b2e-465b-9d15-7d593ef08f95"},"vehicle_type_id":"4","last_reported":1761266939,"current_range_meters":8000,"station_id":"","pricing_plan_id":"cebpf4jnsgd1na2vs0mg"},{"bike_id":"6fbe28b3-325b-46c6-9625-f20988936462","system_id":"levelo_inurba_marseille","lat":43.2467,"lon":5.38151,"is_reserved":false,"is_disabled":false,"rental_uris":{"android":"levelo://app?vid=6fbe28b3-325b-46c6-9625-f20988936462","ios":"levelo://app?vid=6fbe28b3-325b-46c6-9625-f20988936462"},"vehicle_type_id":"4","last_reported":1761266939,"current_range_meters":8000,"station_id":"ce4bhih2rcd13ifvqfr0","pricing_plan_id":"cebpf4jnsgd1na2vs0mg"},{"bike_id":"285dd874-bd16-44c1-9b43-116f4135f2c1","system_id":"levelo_inurba_marseille","lat":43.28865,"lon":5.42522,"is_reserved":false,"is_disabled":false,"rental_uris":{"android":"levelo://app?vid=285dd874-bd16-44c1-9b43-116f4135f2c1","ios":"levelo://app?vid=285dd874-bd16-44c1-9b43-116f4135f2c1"},"vehicle_type_id":"4","last_reported":1761266939,"current_range_meters":8000,"station_id":"st_d3b462108ojc7389ooeg","pricing_plan_id":"cebpf4jnsgd1na2vs0mg"},{"bike_id":"6a662624-d03e-45d5-964b-74ea5f67d032","system_id":"levelo_inurba_marseille","lat":43.31121,"lon":5.37763,"is_reserved":false,"is_disabled":true,"rental_uris":{"android":"levelo://app?vid=6a662624-d03e-45d5-964b-74ea5f67d032","ios":"levelo://app?vid=6a662624-d03e-45d5-964b-74ea5f67d032"},"vehicle_type_id":"4","last_reported":1761266939,"current_range_meters":8400,"station_id":"ce4bgt92rcd13ifvqcg0","pricing_plan_id":"cebpf4jnsgd1na2vs0mg"},{"bike_id":"aa5c39ca-5467-4d85-a1f8-b790dbb0979e","system_id":"levelo_inurba_marseille","lat":43.307111,"lon":5.37369,"is_reserved":false,"is_disabled":false,"rental_uris":{"android":"levelo://app?vid=aa5c39ca-5467-4d85-a1f8-b790dbb0979e","ios":"levelo://app?vid=aa5c39ca-5467-4d85-a1f8-b790dbb0979e"},"vehicle_type_id":"4","last_reported":1761266939,"current_range_meters":8400,"station_id":"","pricing_plan_id":"cebpf4jnsgd1na2vs0mg"},{"bike_id":"4eae2ec4-8862-466e-a3d9-395cca4276d0","system_id":"levelo_inurba_marseille","lat":43.3039,"lon":5.37584,"is_reserved":false,"is_disabled":false,"rental_uris":{"android":"levelo://app?vid=4eae2ec4-8862-466e-a3d9-395cca4276d0","ios":"levelo://app?vid=4eae2ec4-8862-466e-a3d9-395cca4276d0"},"vehicle_type_id":"4","last_reported":1761266939,"current_range_meters":8400,"station_id":"","pricing_plan_id":"cebpf4jnsgd1na2vs0mg"},{"bike_id":"7dc3a787-7b14-4505-8e32-0b28349ba8b9","system_id":"levelo_inurba_marseille","lat":43.287063,"lon":5.362525,"is_reserved":false,"is_disabled":false,"rental_uris":{"android":"levelo://app?vid=7dc3a787-7b14-4505-8e32-0b28349ba8b9","ios":"levelo://app?vid=7dc3a787-7b14-4505-8e32-0b28349ba8b9"},"vehicle_type_id":"4","last_reported":1761266939,"current_range_meters":8800,"station_id":"","pricing_plan_id":"cebpf4jnsgd1na2vs0mg"},{"bike_id":"2a831c85-1d91-4126-bca6-437c68626281","system_id":"levelo_inurba_marseille","lat":43.23776,"lon":5.36618,"is_reserved":false,"is_disabled":false,"rental_uris":{"android":"levelo://app?vid=2a831c85-1d91-4126-bca6-437c68626281","ios":"levelo://app?vid=2a831c85-1d91-4126-bca6-437c68626281"},"vehicle_type_id":"4","last_reported":1761266939,"current_range_meters":8800,"station_id":"st_d3nk18o9ro0c73en2l3g","pricing_plan_id":"cebpf4jnsgd1na2vs0mg"},{"bike_id":"c8c0fa58-a519-4343-9887-b0c694f93aef","system_id":"levelo_inurba_marseille","lat":43.2887,"lon":5.42511,"is_reserved":false,"is_disabled":false,"rental_uris":{"android":"levelo://app?vid=c8c0fa58-a519-4343-9887-b0c694f93aef","ios":"levelo://app?vid=c8c0fa58-a519-4343-9887-b0c694f93aef"},"vehicle_type_id":"4","last_reported":1761266939,"current_range_meters":9200,"station_id":"st_d3b462108ojc7389ooeg","pricing_plan_id":"cebpf4jnsgd1na2vs0mg"},{"bike_id":"d25ff4e2-3981-4699-8bf7-8200e048adca","system_id":"levelo_inurba_marseille","lat":43.30266,"lon":5.40039,"is_reserved":false,"is_disabled":false,"rental_uris":{"android":"levelo://app?vid=d25ff4e2-3981-4699-8bf7-8200e048adca","ios":"levelo://app?vid=d25ff4e2-3981-4699-8bf7-8200e048adca"},"vehicle_type_id":"4","last_reported":1761266939,"current_range_meters":9200,"station_id":"ce4bgvh2rcd13ifvqcs0","pricing_plan_id":"cebpf4jnsgd1na2vs0mg"},{"bike_id":"a6c8451c-f3a9-441b-82eb-cc51be3d60d9","system_id":"levelo_inurba_marseille","lat":43.31706,"lon":5.40451,"is_reserved":false,"is_disabled":false,"rental_uris":{"android":"levelo://app?vid=a6c8451c-f3a9-441b-82eb-cc51be3d60d9","ios":"levelo://app?vid=a6c8451c-f3a9-441b-82eb-cc51be3d60d9"},"vehicle_type_id":"4","last_reported":1761266939,"current_range_meters":9200,"station_id":"ce4bh012rcd13ifvqd00","pricing_plan_id":"cebpf4jnsgd1na2vs0mg"},{"bike_id":"853fa984-e6f7-4baa-80f8-6b9843013844","system_id":"levelo_inurba_marseille","lat":43.28223,"lon":5.37658,"is_reserved":false,"is_disabled":false,"rental_uris":{"android":"levelo://app?vid=853fa984-e6f7-4baa-80f8-6b9843013844","ios":"levelo://app?vid=853fa984-e6f7-4baa-80f8-6b9843013844"},"vehicle_type_id":"4","last_reported":1761266939,"current_range_meters":9600,"station_id":"","pricing_plan_id":"cebpf4jnsgd1na2vs0mg"},{"bike_id":"00fd3c6a-780c-49dc-9993-d4de69c9b57a","system_id":"levelo_inurba_marseille","lat":43.31046,"lon":5.37446,"is_reserved":false,"is_disabled":false,"rental_uris":{"android":"levelo://app?vid=00fd3c6a-780c-49dc-9993-d4de69c9b57a","ios":"levelo://app?vid=00fd3c6a-780c-49dc-9993-d4de69c9b57a"},"vehicle_type_id":"4","last_reported":1761266939,"current_range_meters":9600,"station_id":"","pricing_plan_id":"cebpf4jnsgd1na2vs0mg"},{"bike_id":"6e71dbf7-050a-4c6e-a779-bf0c2baa03e7","system_id":"levelo_inurba_marseille","lat":43.28856,"lon":5.35837,"is_reserved":false,"is_disabled":false,"rental_uris":{"android":"levelo://app?vid=6e71dbf7-050a-4c6e-a779-bf0c2baa03e7","ios":"levelo://app?vid=6e71dbf7-050a-4c6e-a779-bf0c2baa03e7"},"vehicle_type_id":"4","last_reported":1761266939,"current_range_meters":9600,"station_id":"ce4bhb12rcd13ifvqem0","pricing_plan_id":"cebpf4jnsgd1na2vs0mg"},{"bike_id":"2a72e4da-0ae2-4966-85bd-99e80081dd73","system_id":"levelo_inurba_marseille","lat":43.298,"lon":5.40403,"is_reserved":false,"is_disabled":false,"rental_uris":{"android":"levelo://app?vid=2a72e4da-0ae2-4966-85bd-99e80081dd73","ios":"levelo://app?vid=2a72e4da-0ae2-4966-85bd-99e80081dd73"},"vehicle_type_id":"4","last_reported":1761266939,"current_range_meters":10000,"station_id":"ce4bh112rcd13ifvqd90","pricing_plan_id":"cebpf4jnsgd1na2vs0mg"},{"bike_id":"ec9665a2-32ab-42b2-9bdf-cf94d158a9c2","system_id":"levelo_inurba_marseille","lat":43.30136,"lon":5.37075,"is_reserved":false,"is_disabled":false,"rental_uris":{"android":"levelo://app?vid=ec9665a2-32ab-42b2-9bdf-cf94d158a9c2","ios":"levelo://app?vid=ec9665a2-32ab-42b2-9bdf-cf94d158a9c2"},"vehicle_type_id":"4","last_reported":1761266939,"current_range_meters":10000,"station_id":"","pricing_plan_id":"cebpf4jnsgd1na2vs0mg"},{"bike_id":"e8a3abe2-c655-4bb0-9ffd-183b83814299","system_id":"levelo_inurba_marseille","lat":43.288506,"lon":5.393113,"is_reserved":false,"is_disabled":true,"rental_uris":{"android":"levelo://app?vid=e8a3abe2-c655-4bb0-9ffd-183b83814299","ios":"levelo://app?vid=e8a3abe2-c655-4bb0-9ffd-183b83814299"},"vehicle_type_id":"4","last_reported":1761266939,"current_range_meters":10000,"station_id":"ce4bh2p2rcd13ifvqdi0","pricing_plan_id":"cebpf4jnsgd1na2vs0mg"},{"bike_id":"9228c04f-83ea-4cee-b461-ac94abf87552","system_id":"levelo_inurba_marseille","lat":43.27455,"lon":5.39411,"is_reserved":false,"is_disabled":false,"rental_uris":{"android":"levelo://app?vid=9228c04f-83ea-4cee-b461-ac94abf87552","ios":"levelo://app?vid=9228c04f-83ea-4cee-b461-ac94abf87552"},"vehicle_type_id":"4","last_reported":1761266939,"current_range_meters":10000,"station_id":"ce4bhdp2rcd13ifvqf20","pricing_plan_id":"cebpf4jnsgd1na2vs0mg"},{"bike_id":"32e7919e-26d8-4f7d-b229-086147816fa4","system_id":"levelo_inurba_marseille","lat":43.301286,"lon":5.38775,"is_reserved":false,"is_disabled":false,"rental_uris":{"android":"levelo://app?vid=32e7919e-26d8-4f7d-b229-086147816fa4","ios":"levelo://app?vid=32e7919e-26d8-4f7d-b229-086147816fa4"},"vehicle_type_id":"4","last_reported":1761266939,"current_range_meters":10000,"station_id":"","pricing_plan_id":"cebpf4jnsgd1na2vs0mg"},{"bike_id":"1aaa028d-93d8-4a20-8355-7a4b17d8620a","system_id":"levelo_inurba_marseille","lat":43.27635,"lon":5.39195,"is_reserved":false,"is_disabled":false,"rental_uris":{"android":"levelo://app?vid=1aaa028d-93d8-4a20-8355-7a4b17d8620a","ios":"levelo://app?vid=1aaa028d-93d8-4a20-8355-7a4b17d8620a"},"vehicle_type_id":"4","last_reported":1761266939,"current_range_meters":10000,"station_id":"","pricing_plan_id":"cebpf4jnsgd1na2vs0mg"},{"bike_id":"76ee2b83-743b-46a3-b384-858d679258a7","system_id":"levelo_inurba_marseille","lat":43.270576,"lon":5.383032,"is_reserved":false,"is_disabled":false,"rental_uris":{"android":"levelo://app?vid=76ee2b83-743b-46a3-b384-858d679258a7","ios":"levelo://app?vid=76ee2b83-743b-46a3-b384-858d679258a7"},"vehicle_type_id":"4","last_reported":1761266939,"current_range_meters":10000,"station_id":"st_d3n2fo6cfp8s73cte1j0","pricing_plan_id":"cebpf4jnsgd1na2vs0mg"},{"bike_id":"667cdab5-a7f4-4ec2-880f-5e924f7bba3b","system_id":"levelo_inurba_marseille","lat":43.2895,"lon":5.36373,"is_reserved":false,"is_disabled":false,"rental_uris":{"android":"levelo://app?vid=667cdab5-a7f4-4ec2-880f-5e924f7bba3b","ios":"levelo://app?vid=667cdab5-a7f4-4ec2-880f-5e924f7bba3b"},"vehicle_type_id":"4","last_reported":1761266939,"current_range_meters":10000,"station_id":"ce4bhc92rcd13ifvqetg","pricing_plan_id":"cebpf4jnsgd1na2vs0mg"},{"bike_id":"2eae5363-8c5f-4e6c-b3a7-473f62f3a9a3","system_id":"levelo_inurba_marseille","lat":43.30322,"lon":5.36905,"is_reserved":false,"is_disabled":false,"rental_uris":{"android":"levelo://app?vid=2eae5363-8c5f-4e6c-b3a7-473f62f3a9a3","ios":"levelo://app?vid=2eae5363-8c5f-4e6c-b3a7-473f62f3a9a3"},"vehicle_type_id":"4","last_reported":1761266939,"current_range_meters":10800,"station_id":"ce4bgqh2rcd13ifvqc5g","pricing_plan_id":"cebpf4jnsgd1na2vs0mg"},{"bike_id":"2664108a-45d9-4754-a8c3-477f905cc003","system_id":"levelo_inurba_marseille","lat":43.27841,"lon":5.3921,"is_reserved":false,"is_disabled":false,"rental_uris":{"android":"levelo://app?vid=2664108a-45d9-4754-a8c3-477f905cc003","ios":"levelo://app?vid=2664108a-45d9-4754-a8c3-477f905cc003"},"vehicle_type_id":"4","last_reported":1761266939,"current_range_meters":10800,"station_id":"ce4bhjp2rcd13ifvqga0","pricing_plan_id":"cebpf4jnsgd1na2vs0mg"},{"bike_id":"0198280f-05b0-401c-b9f2-7586dff77353","system_id":"levelo_inurba_marseille","lat":43.289132,"lon":5.377825,"is_reserved":false,"is_disabled":false,"rental_uris":{"android":"levelo://app?vid=0198280f-05b0-401c-b9f2-7586dff77353","ios":"levelo://app?vid=0198280f-05b0-401c-b9f2-7586dff77353"},"vehicle_type_id":"4","last_reported":1761266939,"current_range_meters":10800,"station_id":"","pricing_plan_id":"cebpf4jnsgd1na2vs0mg"},{"bike_id":"91c55894-f90b-4c6a-9935-1ccd1665a401","system_id":"levelo_inurba_marseille","lat":43.296063,"lon":5.377115,"is_reserved":false,"is_disabled":true,"rental_uris":{"android":"levelo://app?vid=91c55894-f90b-4c6a-9935-1ccd1665a401","ios":"levelo://app?vid=91c55894-f90b-4c6a-9935-1ccd1665a401"},"vehicle_type_id":"4","last_reported":1761266939,"current_range_meters":10800,"station_id":"ce4bgi92rcd13ifvqb90","pricing_plan_id":"cebpf4jnsgd1na2vs0mg"},{"bike_id":"f30d474c-592d-470d-816b-bf7526dcf767","system_id":"levelo_inurba_marseille","lat":43.30853,"lon":5.38099,"is_reserved":false,"is_disabled":false,"rental_uris":{"android":"levelo://app?vid=f30d474c-592d-470d-816b-bf7526dcf767","ios":"levelo://app?vid=f30d474c-592d-470d-816b-bf7526dcf767"},"vehicle_type_id":"4","last_reported":1761266939,"current_range_meters":10800,"station_id":"","pricing_plan_id":"cebpf4jnsgd1na2vs0mg"},{"bike_id":"0773640e-24fb-492b-b167-d16d2b7c2899","system_id":"levelo_inurba_marseille","lat":43.28097,"lon":5.37857,"is_reserved":false,"is_disabled":false,"rental_uris":{"android":"levelo://app?vid=0773640e-24fb-492b-b167-d16d2b7c2899","ios":"levelo://app?vid=0773640e-24fb-492b-b167-d16d2b7c2899"},"vehicle_type_id":"4","last_reported":1761266939,"current_range_meters":10800,"station_id":"ce4bha12rcd13ifvqee0","pricing_plan_id":"cebpf4jnsgd1na2vs0mg"},{"bike_id":"fd8a470b-b82b-4f4a-b628-c7f4fc807ae1","system_id":"levelo_inurba_marseille","lat":43.28095,"lon":5.37843,"is_reserved":false,"is_disabled":false,"rental_uris":{"android":"levelo://app?vid=fd8a470b-b82b-4f4a-b628-c7f4fc807ae1","ios":"levelo://app?vid=fd8a470b-b82b-4f4a-b628-c7f4fc807ae1"},"vehicle_type_id":"4","last_reported":1761266939,"current_range_meters":10800,"station_id":"ce4bha12rcd13ifvqee0","pricing_plan_id":"cebpf4jnsgd1na2vs0mg"},{"bike_id":"ad301688-b14f-4af3-95f1-dcce66296b92","system_id":"levelo_inurba_marseille","lat":43.23996,"lon":5.37712,"is_reserved":false,"is_disabled":false,"rental_uris":{"android":"levelo://app?vid=ad301688-b14f-4af3-95f1-dcce66296b92","ios":"levelo://app?vid=ad301688-b14f-4af3-95f1-dcce66296b92"},"vehicle_type_id":"4","last_reported":1761266939,"current_range_meters":10800,"station_id":"ce4bhnp2rcd13ifvqgvg","pricing_plan_id":"cebpf4jnsgd1na2vs0mg"},{"bike_id":"6506219b-2ad4-4247-87ab-72caf243ed6b","system_id":"levelo_inurba_marseille","lat":43.30424,"lon":5.38881,"is_reserved":false,"is_disabled":false,"rental_uris":{"android":"levelo://app?vid=6506219b-2ad4-4247-87ab-72caf243ed6b","ios":"levelo://app?vid=6506219b-2ad4-4247-87ab-72caf243ed6b"},"vehicle_type_id":"4","last_reported":1761266939,"current_range_meters":11600,"station_id":"ce4bgk12rcd13ifvqbi0","pricing_plan_id":"cebpf4jnsgd1na2vs0mg"},{"bike_id":"bda3ed1a-3199-4eb8-8229-577855d09dbb","system_id":"levelo_inurba_marseille","lat":43.3163,"lon":5.37876,"is_reserved":false,"is_disabled":true,"rental_uris":{"android":"levelo://app?vid=bda3ed1a-3199-4eb8-8229-577855d09dbb","ios":"levelo://app?vid=bda3ed1a-3199-4eb8-8229-577855d09dbb"},"vehicle_type_id":"4","last_reported":1761266939,"current_range_meters":11600,"station_id":"","pricing_plan_id":"cebpf4jnsgd1na2vs0mg"},{"bike_id":"fe0309b9-8df9-4fef-a215-e3089f2279b2","system_id":"levelo_inurba_marseille","lat":43.23153,"lon":5.43718,"is_reserved":false,"is_disabled":false,"rental_uris":{"android":"levelo://app?vid=fe0309b9-8df9-4fef-a215-e3089f2279b2","ios":"levelo://app?vid=fe0309b9-8df9-4fef-a215-e3089f2279b2"},"vehicle_type_id":"4","last_reported":1761266939,"current_range_meters":11600,"station_id":"ce4bhmp2rcd13ifvqgog","pricing_plan_id":"cebpf4jnsgd1na2vs0mg"},{"bike_id":"323bf2de-3bb4-4b4c-b330-b19ea807dbf5","system_id":"levelo_inurba_marseille","lat":43.32997,"lon":5.42952,"is_reserved":false,"is_disabled":false,"rental_uris":{"android":"levelo://app?vid=323bf2de-3bb4-4b4c-b330-b19ea807dbf5","ios":"levelo://app?vid=323bf2de-3bb4-4b4c-b330-b19ea807dbf5"},"vehicle_type_id":"4","last_reported":1761266939,"current_range_meters":11600,"station_id":"","pricing_plan_id":"cebpf4jnsgd1na2vs0mg"},{"bike_id":"b284a5b8-145b-4b18-970a-f541b5c0ebef","system_id":"levelo_inurba_marseille","lat":43.285594,"lon":5.394618,"is_reserved":false,"is_disabled":false,"rental_uris":{"android":"levelo://app?vid=b284a5b8-145b-4b18-970a-f541b5c0ebef","ios":"levelo://app?vid=b284a5b8-145b-4b18-970a-f541b5c0ebef"},"vehicle_type_id":"4","last_reported":1761266939,"current_range_meters":11600,"station_id":"ce4bh292rcd13ifvqdg0","pricing_plan_id":"cebpf4jnsgd1na2vs0mg"},{"bike_id":"3cb1bc4c-33ce-44da-a3c2-1895cb2d1499","system_id":"levelo_inurba_marseille","lat":43.27357,"lon":5.41533,"is_reserved":false,"is_disabled":false,"rental_uris":{"android":"levelo://app?vid=3cb1bc4c-33ce-44da-a3c2-1895cb2d1499","ios":"levelo://app?vid=3cb1bc4c-33ce-44da-a3c2-1895cb2d1499"},"vehicle_type_id":"4","last_reported":1761266939,"current_range_meters":12000,"station_id":"","pricing_plan_id":"cebpf4jnsgd1na2vs0mg"},{"bike_id":"24a11c21-7b10-418d-bff0-9d96ea02cfae","system_id":"levelo_inurba_marseille","lat":43.30785,"lon":5.37662,"is_reserved":false,"is_disabled":true,"rental_uris":{"android":"levelo://app?vid=24a11c21-7b10-418d-bff0-9d96ea02cfae","ios":"levelo://app?vid=24a11c21-7b10-418d-bff0-9d96ea02cfae"},"vehicle_type_id":"4","last_reported":1761266939,"current_range_meters":12000,"station_id":"ce4bgv92rcd13ifvqcq0","pricing_plan_id":"cebpf4jnsgd1na2vs0mg"},{"bike_id":"3c338306-051e-4864-9d5e-73d858887959","system_id":"levelo_inurba_marseille","lat":43.28841,"lon":5.35861,"is_reserved":false,"is_disabled":false,"rental_uris":{"android":"levelo://app?vid=3c338306-051e-4864-9d5e-73d858887959","ios":"levelo://app?vid=3c338306-051e-4864-9d5e-73d858887959"},"vehicle_type_id":"4","last_reported":1761266939,"current_range_meters":12000,"station_id":"ce4bhb12rcd13ifvqem0","pricing_plan_id":"cebpf4jnsgd1na2vs0mg"},{"bike_id":"f0764640-ec1d-486f-9e1c-59043e66eb76","system_id":"levelo_inurba_marseille","lat":43.21745,"lon":5.34607,"is_reserved":false,"is_disabled":false,"rental_uris":{"android":"levelo://app?vid=f0764640-ec1d-486f-9e1c-59043e66eb76","ios":"levelo://app?vid=f0764640-ec1d-486f-9e1c-59043e66eb76"},"vehicle_type_id":"4","last_reported":1761266939,"current_range_meters":12400,"station_id":"st_cvj6r9ubvosntc0bgbag","pricing_plan_id":"cebpf4jnsgd1na2vs0mg"},{"bike_id":"95d66f62-0696-4f11-8ee9-6fe9c878dd8b","system_id":"levelo_inurba_marseille","lat":43.2794,"lon":5.4104,"is_reserved":false,"is_disabled":false,"rental_uris":{"android":"levelo://app?vid=95d66f62-0696-4f11-8ee9-6fe9c878dd8b","ios":"levelo://app?vid=95d66f62-0696-4f11-8ee9-6fe9c878dd8b"},"vehicle_type_id":"4","last_reported":1761266939,"current_range_meters":12400,"station_id":"ce4bhnp2rcd13ifvqh0g","pricing_plan_id":"cebpf4jnsgd1na2vs0mg"},{"bike_id":"731a1005-e3e7-44b5-bcd8-11e6532518ec","system_id":"levelo_inurba_marseille","lat":43.301876,"lon":5.366311,"is_reserved":false,"is_disabled":false,"rental_uris":{"android":"levelo://app?vid=731a1005-e3e7-44b5-bcd8-11e6532518ec","ios":"levelo://app?vid=731a1005-e3e7-44b5-bcd8-11e6532518ec"},"vehicle_type_id":"4","last_reported":1761266939,"current_range_meters":12400,"station_id":"ce4bh3h2rcd13ifvqdn0","pricing_plan_id":"cebpf4jnsgd1na2vs0mg"},{"bike_id":"247b044e-7e84-419c-a5fb-856b27f30701","system_id":"levelo_inurba_marseille","lat":43.2708,"lon":5.42273,"is_reserved":false,"is_disabled":false,"rental_uris":{"android":"levelo://app?vid=247b044e-7e84-419c-a5fb-856b27f30701","ios":"levelo://app?vid=247b044e-7e84-419c-a5fb-856b27f30701"},"vehicle_type_id":"4","last_reported":1761266939,"current_range_meters":12400,"station_id":"ce4bhk92rcd13ifvqgb0","pricing_plan_id":"cebpf4jnsgd1na2vs0mg"},{"bike_id":"3a7c302c-cc5f-4d7a-99e7-abf217acdee0","system_id":"levelo_inurba_marseille","lat":43.23733,"lon":5.36572,"is_reserved":false,"is_disabled":false,"rental_uris":{"android":"levelo://app?vid=3a7c302c-cc5f-4d7a-99e7-abf217acdee0","ios":"levelo://app?vid=3a7c302c-cc5f-4d7a-99e7-abf217acdee0"},"vehicle_type_id":"4","last_reported":1761266939,"current_range_meters":12400,"station_id":"","pricing_plan_id":"cebpf4jnsgd1na2vs0mg"},{"bike_id":"8d968a7a-3957-46c5-9580-35e9f96be907","system_id":"levelo_inurba_marseille","lat":43.27925,"lon":5.39574,"is_reserved":false,"is_disabled":false,"rental_uris":{"android":"levelo://app?vid=8d968a7a-3957-46c5-9580-35e9f96be907","ios":"levelo://app?vid=8d968a7a-3957-46c5-9580-35e9f96be907"},"vehicle_type_id":"4","last_reported":1761266939,"current_range_meters":12400,"station_id":"ce4bhf92rcd13ifvqf40","pricing_plan_id":"cebpf4jnsgd1na2vs0mg"},{"bike_id":"acf092bc-8319-46b9-b10b-08ede792385f","system_id":"levelo_inurba_marseille","lat":43.2871,"lon":5.37381,"is_reserved":false,"is_disabled":false,"rental_uris":{"android":"levelo://app?vid=acf092bc-8319-46b9-b10b-08ede792385f","ios":"levelo://app?vid=acf092bc-8319-46b9-b10b-08ede792385f"},"vehicle_type_id":"4","last_reported":1761266939,"current_range_meters":12400,"station_id":"ce4bh3p2rcd13ifvqdq0","pricing_plan_id":"cebpf4jnsgd1na2vs0mg"},{"bike_id":"3e4783b6-28d8-4737-a4ef-6a1b0da02476","system_id":"levelo_inurba_marseille","lat":43.29446,"lon":5.40704,"is_reserved":false,"is_disabled":false,"rental_uris":{"android":"levelo://app?vid=3e4783b6-28d8-4737-a4ef-6a1b0da02476","ios":"levelo://app?vid=3e4783b6-28d8-4737-a4ef-6a1b0da02476"},"vehicle_type_id":"4","last_reported":1761266939,"current_range_meters":12800,"station_id":"","pricing_plan_id":"cebpf4jnsgd1na2vs0mg"},{"bike_id":"d2b9dc00-f2bd-4779-bb2a-55b57cdd0b04","system_id":"levelo_inurba_marseille","lat":43.28613,"lon":5.370577,"is_reserved":false,"is_disabled":false,"rental_uris":{"android":"levelo://app?vid=d2b9dc00-f2bd-4779-bb2a-55b57cdd0b04","ios":"levelo://app?vid=d2b9dc00-f2bd-4779-bb2a-55b57cdd0b04"},"vehicle_type_id":"4","last_reported":1761266939,"current_range_meters":12800,"station_id":"ce4bht12rcd13ifvqi60","pricing_plan_id":"cebpf4jnsgd1na2vs0mg"},{"bike_id":"2f3a068c-1bff-44a7-a352-fd6d916a00a0","system_id":"levelo_inurba_marseille","lat":43.323613,"lon":5.388801,"is_reserved":false,"is_disabled":false,"rental_uris":{"android":"levelo://app?vid=2f3a068c-1bff-44a7-a352-fd6d916a00a0","ios":"levelo://app?vid=2f3a068c-1bff-44a7-a352-fd6d916a00a0"},"vehicle_type_id":"4","last_reported":1761266939,"current_range_meters":12800,"station_id":"ce4bhqp2rcd13ifvqhog","pricing_plan_id":"cebpf4jnsgd1na2vs0mg"},{"bike_id":"e23608a7-79c3-428d-8cba-f9c659a19500","system_id":"levelo_inurba_marseille","lat":43.24549,"lon":5.39539,"is_reserved":false,"is_disabled":false,"rental_uris":{"android":"levelo://app?vid=e23608a7-79c3-428d-8cba-f9c659a19500","ios":"levelo://app?vid=e23608a7-79c3-428d-8cba-f9c659a19500"},"vehicle_type_id":"4","last_reported":1761266939,"current_range_meters":12800,"station_id":"ce4bhlp2rcd13ifvqgjg","pricing_plan_id":"cebpf4jnsgd1na2vs0mg"},{"bike_id":"d78eb837-b102-4db4-b967-7e27e7618a15","system_id":"levelo_inurba_marseille","lat":43.229296,"lon":5.353809,"is_reserved":false,"is_disabled":false,"rental_uris":{"android":"levelo://app?vid=d78eb837-b102-4db4-b967-7e27e7618a15","ios":"levelo://app?vid=d78eb837-b102-4db4-b967-7e27e7618a15"},"vehicle_type_id":"4","last_reported":1761266939,"current_range_meters":12800,"station_id":"cpo3532slgdg3j2ikp40","pricing_plan_id":"cebpf4jnsgd1na2vs0mg"},{"bike_id":"316c843e-0abd-49e3-b3e9-3f61b02a5647","system_id":"levelo_inurba_marseille","lat":43.288719,"lon":5.425163,"is_reserved":false,"is_disabled":false,"rental_uris":{"android":"levelo://app?vid=316c843e-0abd-49e3-b3e9-3f61b02a5647","ios":"levelo://app?vid=316c843e-0abd-49e3-b3e9-3f61b02a5647"},"vehicle_type_id":"4","last_reported":1761266939,"current_range_meters":13600,"station_id":"st_d3b462108ojc7389ooeg","pricing_plan_id":"cebpf4jnsgd1na2vs0mg"},{"bike_id":"55aee02d-9c96-45d2-9d31-4545665d3ece","system_id":"levelo_inurba_marseille","lat":43.24663,"lon":5.38873,"is_reserved":false,"is_disabled":false,"rental_uris":{"android":"levelo://app?vid=55aee02d-9c96-45d2-9d31-4545665d3ece","ios":"levelo://app?vid=55aee02d-9c96-45d2-9d31-4545665d3ece"},"vehicle_type_id":"4","last_reported":1761266939,"current_range_meters":13600,"station_id":"ce4bhg12rcd13ifvqf60","pricing_plan_id":"cebpf4jnsgd1na2vs0mg"},{"bike_id":"4bb99ab7-f9cd-4fa5-b387-e243bec85e12","system_id":"levelo_inurba_marseille","lat":43.23792,"lon":5.36604,"is_reserved":false,"is_disabled":false,"rental_uris":{"android":"levelo://app?vid=4bb99ab7-f9cd-4fa5-b387-e243bec85e12","ios":"levelo://app?vid=4bb99ab7-f9cd-4fa5-b387-e243bec85e12"},"vehicle_type_id":"4","last_reported":1761266939,"current_range_meters":13600,"station_id":"st_d3nk18o9ro0c73en2l3g","pricing_plan_id":"cebpf4jnsgd1na2vs0mg"},{"bike_id":"bd586638-ea6d-40ae-9b77-099deb3448f7","system_id":"levelo_inurba_marseille","lat":43.255809,"lon":5.382279,"is_reserved":false,"is_disabled":false,"rental_uris":{"android":"levelo://app?vid=bd586638-ea6d-40ae-9b77-099deb3448f7","ios":"levelo://app?vid=bd586638-ea6d-40ae-9b77-099deb3448f7"},"vehicle_type_id":"4","last_reported":1761266939,"current_range_meters":13600,"station_id":"ce4bhih2rcd13ifvqfs0","pricing_plan_id":"cebpf4jnsgd1na2vs0mg"},{"bike_id":"b9764ed2-f91a-421e-b54e-d7527bd8af22","system_id":"levelo_inurba_marseille","lat":43.29811,"lon":5.36588,"is_reserved":false,"is_disabled":false,"rental_uris":{"android":"levelo://app?vid=b9764ed2-f91a-421e-b54e-d7527bd8af22","ios":"levelo://app?vid=b9764ed2-f91a-421e-b54e-d7527bd8af22"},"vehicle_type_id":"4","last_reported":1761266939,"current_range_meters":13600,"station_id":"","pricing_plan_id":"cebpf4jnsgd1na2vs0mg"},{"bike_id":"8bcacd78-80de-4026-af75-b37ebe3030fe","system_id":"levelo_inurba_marseille","lat":43.334756,"lon":5.404255,"is_reserved":false,"is_disabled":false,"rental_uris":{"android":"levelo://app?vid=8bcacd78-80de-4026-af75-b37ebe3030fe","ios":"levelo://app?vid=8bcacd78-80de-4026-af75-b37ebe3030fe"},"vehicle_type_id":"4","last_reported":1761266939,"current_range_meters":13600,"station_id":"","pricing_plan_id":"cebpf4jnsgd1na2vs0mg"},{"bike_id":"8793e32f-c4bf-4267-af34-be26cd2130be","system_id":"levelo_inurba_marseille","lat":43.31259,"lon":5.40164,"is_reserved":false,"is_disabled":false,"rental_uris":{"android":"levelo://app?vid=8793e32f-c4bf-4267-af34-be26cd2130be","ios":"levelo://app?vid=8793e32f-c4bf-4267-af34-be26cd2130be"},"vehicle_type_id":"4","last_reported":1761266939,"current_range_meters":13600,"station_id":"ce4bh092rcd13ifvqd30","pricing_plan_id":"cebpf4jnsgd1na2vs0mg"},{"bike_id":"ad9b21bf-1d8e-4c59-b4ec-eb248b4a471f","system_id":"levelo_inurba_marseille","lat":43.28699,"lon":5.37388,"is_reserved":false,"is_disabled":false,"rental_uris":{"android":"levelo://app?vid=ad9b21bf-1d8e-4c59-b4ec-eb248b4a471f","ios":"levelo://app?vid=ad9b21bf-1d8e-4c59-b4ec-eb248b4a471f"},"vehicle_type_id":"4","last_reported":1761266939,"current_range_meters":13600,"station_id":"ce4bh3p2rcd13ifvqdq0","pricing_plan_id":"cebpf4jnsgd1na2vs0mg"},{"bike_id":"3877e972-fe51-4197-a5b7-860377239f0f","system_id":"levelo_inurba_marseille","lat":43.24171,"lon":5.36397,"is_reserved":false,"is_disabled":false,"rental_uris":{"android":"levelo://app?vid=3877e972-fe51-4197-a5b7-860377239f0f","ios":"levelo://app?vid=3877e972-fe51-4197-a5b7-860377239f0f"},"vehicle_type_id":"4","last_reported":1761266939,"current_range_meters":13600,"station_id":"cpo36qri1sfpv3e86is0","pricing_plan_id":"cebpf4jnsgd1na2vs0mg"},{"bike_id":"59a90fc2-6b65-44f9-97da-18a57f6bd3e0","system_id":"levelo_inurba_marseille","lat":43.25861,"lon":5.39888,"is_reserved":false,"is_disabled":false,"rental_uris":{"android":"levelo://app?vid=59a90fc2-6b65-44f9-97da-18a57f6bd3e0","ios":"levelo://app?vid=59a90fc2-6b65-44f9-97da-18a57f6bd3e0"},"vehicle_type_id":"4","last_reported":1761266939,"current_range_meters":14000,"station_id":"ce4bhl92rcd13ifvqghg","pricing_plan_id":"cebpf4jnsgd1na2vs0mg"},{"bike_id":"5403bbb7-b780-4116-8b9d-0a9bd553ad20","system_id":"levelo_inurba_marseille","lat":43.241785,"lon":5.397338,"is_reserved":false,"is_disabled":false,"rental_uris":{"android":"levelo://app?vid=5403bbb7-b780-4116-8b9d-0a9bd553ad20","ios":"levelo://app?vid=5403bbb7-b780-4116-8b9d-0a9bd553ad20"},"vehicle_type_id":"4","last_reported":1761266939,"current_range_meters":14000,"station_id":"ce4bhn12rcd13ifvqgpg","pricing_plan_id":"cebpf4jnsgd1na2vs0mg"},{"bike_id":"2842f5fd-7b05-4b47-909c-5ee54d7d3bc5","system_id":"levelo_inurba_marseille","lat":43.32462,"lon":5.42815,"is_reserved":false,"is_disabled":false,"rental_uris":{"android":"levelo://app?vid=2842f5fd-7b05-4b47-909c-5ee54d7d3bc5","ios":"levelo://app?vid=2842f5fd-7b05-4b47-909c-5ee54d7d3bc5"},"vehicle_type_id":"4","last_reported":1761266939,"current_range_meters":14000,"station_id":"","pricing_plan_id":"cebpf4jnsgd1na2vs0mg"},{"bike_id":"882401c7-6650-4fc0-a6a7-b8536ac70367","system_id":"levelo_inurba_marseille","lat":43.27071,"lon":5.42275,"is_reserved":false,"is_disabled":false,"rental_uris":{"android":"levelo://app?vid=882401c7-6650-4fc0-a6a7-b8536ac70367","ios":"levelo://app?vid=882401c7-6650-4fc0-a6a7-b8536ac70367"},"vehicle_type_id":"4","last_reported":1761266939,"current_range_meters":14400,"station_id":"ce4bhk92rcd13ifvqgb0","pricing_plan_id":"cebpf4jnsgd1na2vs0mg"},{"bike_id":"e986eb56-ca00-4dbf-ada0-578bc3d8f529","system_id":"levelo_inurba_marseille","lat":43.27301,"lon":5.41452,"is_reserved":false,"is_disabled":false,"rental_uris":{"android":"levelo://app?vid=e986eb56-ca00-4dbf-ada0-578bc3d8f529","ios":"levelo://app?vid=e986eb56-ca00-4dbf-ada0-578bc3d8f529"},"vehicle_type_id":"4","last_reported":1761266939,"current_range_meters":14800,"station_id":"","pricing_plan_id":"cebpf4jnsgd1na2vs0mg"},{"bike_id":"93794b25-b6cd-4d1e-834f-d51e407c4143","system_id":"levelo_inurba_marseille","lat":43.23142,"lon":5.43717,"is_reserved":false,"is_disabled":false,"rental_uris":{"android":"levelo://app?vid=93794b25-b6cd-4d1e-834f-d51e407c4143","ios":"levelo://app?vid=93794b25-b6cd-4d1e-834f-d51e407c4143"},"vehicle_type_id":"4","last_reported":1761266939,"current_range_meters":14800,"station_id":"ce4bhmp2rcd13ifvqgog","pricing_plan_id":"cebpf4jnsgd1na2vs0mg"},{"bike_id":"c12a786b-d447-4373-876a-58fc20f19148","system_id":"levelo_inurba_marseille","lat":43.29897,"lon":5.43656,"is_reserved":false,"is_disabled":false,"rental_uris":{"android":"levelo://app?vid=c12a786b-d447-4373-876a-58fc20f19148","ios":"levelo://app?vid=c12a786b-d447-4373-876a-58fc20f19148"},"vehicle_type_id":"4","last_reported":1761266939,"current_range_meters":14800,"station_id":"ce4bhpp2rcd13ifvqhfg","pricing_plan_id":"cebpf4jnsgd1na2vs0mg"},{"bike_id":"bcfa44af-c6d3-4262-ac21-f6548431981e","system_id":"levelo_inurba_marseille","lat":43.28109,"lon":5.37835,"is_reserved":false,"is_disabled":false,"rental_uris":{"android":"levelo://app?vid=bcfa44af-c6d3-4262-ac21-f6548431981e","ios":"levelo://app?vid=bcfa44af-c6d3-4262-ac21-f6548431981e"},"vehicle_type_id":"4","last_reported":1761266939,"current_range_meters":15200,"station_id":"ce4bha12rcd13ifvqee0","pricing_plan_id":"cebpf4jnsgd1na2vs0mg"},{"bike_id":"ade7f6ab-5d08-41e3-ae43-67975e2998e9","system_id":"levelo_inurba_marseille","lat":43.29159,"lon":5.3714,"is_reserved":false,"is_disabled":false,"rental_uris":{"android":"levelo://app?vid=ade7f6ab-5d08-41e3-ae43-67975e2998e9","ios":"levelo://app?vid=ade7f6ab-5d08-41e3-ae43-67975e2998e9"},"vehicle_type_id":"4","last_reported":1761266939,"current_range_meters":15200,"station_id":"","pricing_plan_id":"cebpf4jnsgd1na2vs0mg"},{"bike_id":"b111dfa1-9315-4426-adb5-fef72e760996","system_id":"levelo_inurba_marseille","lat":43.25718,"lon":5.41079,"is_reserved":false,"is_disabled":false,"rental_uris":{"android":"levelo://app?vid=b111dfa1-9315-4426-adb5-fef72e760996","ios":"levelo://app?vid=b111dfa1-9315-4426-adb5-fef72e760996"},"vehicle_type_id":"4","last_reported":1761266939,"current_range_meters":15200,"station_id":"ce4bhkp2rcd13ifvqgd0","pricing_plan_id":"cebpf4jnsgd1na2vs0mg"},{"bike_id":"d9ecb998-ceaa-4a39-8aba-9f0e44069447","system_id":"levelo_inurba_marseille","lat":43.32147,"lon":5.38731,"is_reserved":false,"is_disabled":false,"rental_uris":{"android":"levelo://app?vid=d9ecb998-ceaa-4a39-8aba-9f0e44069447","ios":"levelo://app?vid=d9ecb998-ceaa-4a39-8aba-9f0e44069447"},"vehicle_type_id":"4","last_reported":1761266939,"current_range_meters":15200,"station_id":"","pricing_plan_id":"cebpf4jnsgd1na2vs0mg"},{"bike_id":"126be4bc-91ae-4641-893b-1b51eeff641d","system_id":"levelo_inurba_marseille","lat":43.30894,"lon":5.39624,"is_reserved":false,"is_disabled":false,"rental_uris":{"android":"levelo://app?vid=126be4bc-91ae-4641-893b-1b51eeff641d","ios":"levelo://app?vid=126be4bc-91ae-4641-893b-1b51eeff641d"},"vehicle_type_id":"4","last_reported":1761266939,"current_range_meters":16000,"station_id":"ce4bh012rcd13ifvqcv0","pricing_plan_id":"cebpf4jnsgd1na2vs0mg"},{"bike_id":"d7ee83eb-ff8f-46b0-9925-8298dbedac1a","system_id":"levelo_inurba_marseille","lat":43.32246,"lon":5.38357,"is_reserved":false,"is_disabled":false,"rental_uris":{"android":"levelo://app?vid=d7ee83eb-ff8f-46b0-9925-8298dbedac1a","ios":"levelo://app?vid=d7ee83eb-ff8f-46b0-9925-8298dbedac1a"},"vehicle_type_id":"4","last_reported":1761266939,"current_range_meters":16000,"station_id":"ce4bhr12rcd13ifvqhqg","pricing_plan_id":"cebpf4jnsgd1na2vs0mg"},{"bike_id":"2e516aa3-da3f-4cd4-8d7a-1dc8bf5d8ddd","system_id":"levelo_inurba_marseille","lat":43.32113,"lon":5.36724,"is_reserved":false,"is_disabled":false,"rental_uris":{"android":"levelo://app?vid=2e516aa3-da3f-4cd4-8d7a-1dc8bf5d8ddd","ios":"levelo://app?vid=2e516aa3-da3f-4cd4-8d7a-1dc8bf5d8ddd"},"vehicle_type_id":"4","last_reported":1761266939,"current_range_meters":16000,"station_id":"ce4bhrh2rcd13ifvqhug","pricing_plan_id":"cebpf4jnsgd1na2vs0mg"},{"bike_id":"5b9c9d8e-58d5-4099-935e-6fd56b5dba88","system_id":"levelo_inurba_marseille","lat":43.27559,"lon":5.38419,"is_reserved":false,"is_disabled":false,"rental_uris":{"android":"levelo://app?vid=5b9c9d8e-58d5-4099-935e-6fd56b5dba88","ios":"levelo://app?vid=5b9c9d8e-58d5-4099-935e-6fd56b5dba88"},"vehicle_type_id":"4","last_reported":1761266939,"current_range_meters":16000,"station_id":"ce4bhh92rcd13ifvqfi0","pricing_plan_id":"cebpf4jnsgd1na2vs0mg"},{"bike_id":"d2020332-5385-4af1-a5a5-2dbaa4662d83","system_id":"levelo_inurba_marseille","lat":43.30247,"lon":5.40055,"is_reserved":false,"is_disabled":false,"rental_uris":{"android":"levelo://app?vid=d2020332-5385-4af1-a5a5-2dbaa4662d83","ios":"levelo://app?vid=d2020332-5385-4af1-a5a5-2dbaa4662d83"},"vehicle_type_id":"4","last_reported":1761266939,"current_range_meters":16000,"station_id":"ce4bgvh2rcd13ifvqcs0","pricing_plan_id":"cebpf4jnsgd1na2vs0mg"},{"bike_id":"ef096c7f-2d04-45e7-91e4-52578045f579","system_id":"levelo_inurba_marseille","lat":43.23185,"lon":5.39989,"is_reserved":false,"is_disabled":true,"rental_uris":{"android":"levelo://app?vid=ef096c7f-2d04-45e7-91e4-52578045f579","ios":"levelo://app?vid=ef096c7f-2d04-45e7-91e4-52578045f579"},"vehicle_type_id":"4","last_reported":1761266939,"current_range_meters":16400,"station_id":"ce4bhn12rcd13ifvqgqg","pricing_plan_id":"cebpf4jnsgd1na2vs0mg"},{"bike_id":"3cb7792b-43db-41f0-96a4-9a586e0436bb","system_id":"levelo_inurba_marseille","lat":43.286021,"lon":5.370631,"is_reserved":false,"is_disabled":false,"rental_uris":{"android":"levelo://app?vid=3cb7792b-43db-41f0-96a4-9a586e0436bb","ios":"levelo://app?vid=3cb7792b-43db-41f0-96a4-9a586e0436bb"},"vehicle_type_id":"4","last_reported":1761266939,"current_range_meters":16400,"station_id":"ce4bht12rcd13ifvqi60","pricing_plan_id":"cebpf4jnsgd1na2vs0mg"},{"bike_id":"82a6ac02-8c08-4f93-844a-981cd0f715d0","system_id":"levelo_inurba_marseille","lat":43.255192,"lon":5.376436,"is_reserved":false,"is_disabled":false,"rental_uris":{"android":"levelo://app?vid=82a6ac02-8c08-4f93-844a-981cd0f715d0","ios":"levelo://app?vid=82a6ac02-8c08-4f93-844a-981cd0f715d0"},"vehicle_type_id":"4","last_reported":1761266939,"current_range_meters":16400,"station_id":"ce4bhh12rcd13ifvqff0","pricing_plan_id":"cebpf4jnsgd1na2vs0mg"},{"bike_id":"31bba6a2-74e1-45b2-afba-036b664be623","system_id":"levelo_inurba_marseille","lat":43.29622,"lon":5.40583,"is_reserved":false,"is_disabled":false,"rental_uris":{"android":"levelo://app?vid=31bba6a2-74e1-45b2-afba-036b664be623","ios":"levelo://app?vid=31bba6a2-74e1-45b2-afba-036b664be623"},"vehicle_type_id":"4","last_reported":1761266939,"current_range_meters":16400,"station_id":"ce4bh0h2rcd13ifvqd60","pricing_plan_id":"cebpf4jnsgd1na2vs0mg"},{"bike_id":"f4311ba3-7f0f-4f8e-a874-b0248cb41d85","system_id":"levelo_inurba_marseille","lat":43.281098,"lon":5.37831,"is_reserved":false,"is_disabled":false,"rental_uris":{"android":"levelo://app?vid=f4311ba3-7f0f-4f8e-a874-b0248cb41d85","ios":"levelo://app?vid=f4311ba3-7f0f-4f8e-a874-b0248cb41d85"},"vehicle_type_id":"4","last_reported":1761266939,"current_range_meters":16400,"station_id":"ce4bha12rcd13ifvqee0","pricing_plan_id":"cebpf4jnsgd1na2vs0mg"},{"bike_id":"de3d0665-7871-4028-a79c-1baf20b877dc","system_id":"levelo_inurba_marseille","lat":43.31175,"lon":5.38699,"is_reserved":false,"is_disabled":false,"rental_uris":{"android":"levelo://app?vid=de3d0665-7871-4028-a79c-1baf20b877dc","ios":"levelo://app?vid=de3d0665-7871-4028-a79c-1baf20b877dc"},"vehicle_type_id":"4","last_reported":1761266939,"current_range_meters":16400,"station_id":"ce4bgv12rcd13ifvqcp0","pricing_plan_id":"cebpf4jnsgd1na2vs0mg"},{"bike_id":"f8c755d7-1bb8-4fcd-bb3f-74aeb49951cc","system_id":"levelo_inurba_marseille","lat":43.313777,"lon":5.378984,"is_reserved":false,"is_disabled":false,"rental_uris":{"android":"levelo://app?vid=f8c755d7-1bb8-4fcd-bb3f-74aeb49951cc","ios":"levelo://app?vid=f8c755d7-1bb8-4fcd-bb3f-74aeb49951cc"},"vehicle_type_id":"4","last_reported":1761266939,"current_range_meters":16800,"station_id":"","pricing_plan_id":"cebpf4jnsgd1na2vs0mg"},{"bike_id":"75552eb5-38a2-43ca-9291-cacb859b6f73","system_id":"levelo_inurba_marseille","lat":43.284215,"lon":5.349847,"is_reserved":false,"is_disabled":false,"rental_uris":{"android":"levelo://app?vid=75552eb5-38a2-43ca-9291-cacb859b6f73","ios":"levelo://app?vid=75552eb5-38a2-43ca-9291-cacb859b6f73"},"vehicle_type_id":"4","last_reported":1761266939,"current_range_meters":16800,"station_id":"","pricing_plan_id":"cebpf4jnsgd1na2vs0mg"},{"bike_id":"7745c0c8-dc62-40a3-a2a8-7e4295db0edb","system_id":"levelo_inurba_marseille","lat":43.28852,"lon":5.39299,"is_reserved":false,"is_disabled":false,"rental_uris":{"android":"levelo://app?vid=7745c0c8-dc62-40a3-a2a8-7e4295db0edb","ios":"levelo://app?vid=7745c0c8-dc62-40a3-a2a8-7e4295db0edb"},"vehicle_type_id":"4","last_reported":1761266939,"current_range_meters":16800,"station_id":"ce4bh2p2rcd13ifvqdi0","pricing_plan_id":"cebpf4jnsgd1na2vs0mg"},{"bike_id":"0c216ec5-2d75-4ee4-a223-b0d23bee74b5","system_id":"levelo_inurba_marseille","lat":43.24646,"lon":5.38871,"is_reserved":false,"is_disabled":false,"rental_uris":{"android":"levelo://app?vid=0c216ec5-2d75-4ee4-a223-b0d23bee74b5","ios":"levelo://app?vid=0c216ec5-2d75-4ee4-a223-b0d23bee74b5"},"vehicle_type_id":"4","last_reported":1761266939,"current_range_meters":16800,"station_id":"ce4bhg12rcd13ifvqf60","pricing_plan_id":"cebpf4jnsgd1na2vs0mg"},{"bike_id":"0844e5e6-3b0e-4980-aac1-8e6b427398e3","system_id":"levelo_inurba_marseille","lat":43.31711,"lon":5.40429,"is_reserved":false,"is_disabled":false,"rental_uris":{"android":"levelo://app?vid=0844e5e6-3b0e-4980-aac1-8e6b427398e3","ios":"levelo://app?vid=0844e5e6-3b0e-4980-aac1-8e6b427398e3"},"vehicle_type_id":"4","last_reported":1761266939,"current_range_meters":16800,"station_id":"ce4bh012rcd13ifvqd00","pricing_plan_id":"cebpf4jnsgd1na2vs0mg"},{"bike_id":"75765de9-f740-4f58-8f2f-b0e28986759f","system_id":"levelo_inurba_marseille","lat":43.3094,"lon":5.39245,"is_reserved":false,"is_disabled":false,"rental_uris":{"android":"levelo://app?vid=75765de9-f740-4f58-8f2f-b0e28986759f","ios":"levelo://app?vid=75765de9-f740-4f58-8f2f-b0e28986759f"},"vehicle_type_id":"4","last_reported":1761266939,"current_range_meters":16800,"station_id":"","pricing_plan_id":"cebpf4jnsgd1na2vs0mg"},{"bike_id":"9745313b-cb2b-41dd-a7b8-6ee4c670106c","system_id":"levelo_inurba_marseille","lat":43.27826,"lon":5.39201,"is_reserved":false,"is_disabled":false,"rental_uris":{"android":"levelo://app?vid=9745313b-cb2b-41dd-a7b8-6ee4c670106c","ios":"levelo://app?vid=9745313b-cb2b-41dd-a7b8-6ee4c670106c"},"vehicle_type_id":"4","last_reported":1761266939,"current_range_meters":17200,"station_id":"ce4bhjp2rcd13ifvqga0","pricing_plan_id":"cebpf4jnsgd1na2vs0mg"},{"bike_id":"2339f010-c3e5-44a5-a7bb-4ca220fd6cca","system_id":"levelo_inurba_marseille","lat":43.28238,"lon":5.38687,"is_reserved":false,"is_disabled":true,"rental_uris":{"android":"levelo://app?vid=2339f010-c3e5-44a5-a7bb-4ca220fd6cca","ios":"levelo://app?vid=2339f010-c3e5-44a5-a7bb-4ca220fd6cca"},"vehicle_type_id":"4","last_reported":1761266939,"current_range_meters":17200,"station_id":"","pricing_plan_id":"cebpf4jnsgd1na2vs0mg"},{"bike_id":"f2a88201-ec4d-40e7-856a-1b850d1e932e","system_id":"levelo_inurba_marseille","lat":43.27807,"lon":5.40713,"is_reserved":false,"is_disabled":false,"rental_uris":{"android":"levelo://app?vid=f2a88201-ec4d-40e7-856a-1b850d1e932e","ios":"levelo://app?vid=f2a88201-ec4d-40e7-856a-1b850d1e932e"},"vehicle_type_id":"4","last_reported":1761266939,"current_range_meters":17200,"station_id":"ce4bhnh2rcd13ifvqgtg","pricing_plan_id":"cebpf4jnsgd1na2vs0mg"},{"bike_id":"a0a3e2e6-f6d9-4e27-a510-a2aa84830e78","system_id":"levelo_inurba_marseille","lat":43.30882,"lon":5.37856,"is_reserved":false,"is_disabled":false,"rental_uris":{"android":"levelo://app?vid=a0a3e2e6-f6d9-4e27-a510-a2aa84830e78","ios":"levelo://app?vid=a0a3e2e6-f6d9-4e27-a510-a2aa84830e78"},"vehicle_type_id":"4","last_reported":1761266939,"current_range_meters":17200,"station_id":"","pricing_plan_id":"cebpf4jnsgd1na2vs0mg"},{"bike_id":"47f09c0c-92a9-44eb-a23c-69934b3ff134","system_id":"levelo_inurba_marseille","lat":43.30114,"lon":5.43117,"is_reserved":false,"is_disabled":false,"rental_uris":{"android":"levelo://app?vid=47f09c0c-92a9-44eb-a23c-69934b3ff134","ios":"levelo://app?vid=47f09c0c-92a9-44eb-a23c-69934b3ff134"},"vehicle_type_id":"4","last_reported":1761266939,"current_range_meters":17200,"station_id":"st_d3js3co5814s73ftftug","pricing_plan_id":"cebpf4jnsgd1na2vs0mg"},{"bike_id":"77124793-d73a-43ea-8840-1a1b5476fa23","system_id":"levelo_inurba_marseille","lat":43.31023,"lon":5.38059,"is_reserved":false,"is_disabled":false,"rental_uris":{"android":"levelo://app?vid=77124793-d73a-43ea-8840-1a1b5476fa23","ios":"levelo://app?vid=77124793-d73a-43ea-8840-1a1b5476fa23"},"vehicle_type_id":"4","last_reported":1761266939,"current_range_meters":17200,"station_id":"","pricing_plan_id":"cebpf4jnsgd1na2vs0mg"},{"bike_id":"cb3d7dc1-8e3d-4533-9819-7d17aa244928","system_id":"levelo_inurba_marseille","lat":43.30315,"lon":5.40436,"is_reserved":false,"is_disabled":false,"rental_uris":{"android":"levelo://app?vid=cb3d7dc1-8e3d-4533-9819-7d17aa244928","ios":"levelo://app?vid=cb3d7dc1-8e3d-4533-9819-7d17aa244928"},"vehicle_type_id":"4","last_reported":1761266939,"current_range_meters":17600,"station_id":"ce4bh012rcd13ifvqd10","pricing_plan_id":"cebpf4jnsgd1na2vs0mg"},{"bike_id":"91d2b667-6e29-4e2c-b3b2-7030ced453fa","system_id":"levelo_inurba_marseille","lat":43.29199,"lon":5.40886,"is_reserved":false,"is_disabled":false,"rental_uris":{"android":"levelo://app?vid=91d2b667-6e29-4e2c-b3b2-7030ced453fa","ios":"levelo://app?vid=91d2b667-6e29-4e2c-b3b2-7030ced453fa"},"vehicle_type_id":"4","last_reported":1761266939,"current_range_meters":17600,"station_id":"ce4bh192rcd13ifvqdc0","pricing_plan_id":"cebpf4jnsgd1na2vs0mg"},{"bike_id":"764563dd-e368-48f5-a186-3a29a8a5295d","system_id":"levelo_inurba_marseille","lat":43.25915,"lon":5.40897,"is_reserved":false,"is_disabled":false,"rental_uris":{"android":"levelo://app?vid=764563dd-e368-48f5-a186-3a29a8a5295d","ios":"levelo://app?vid=764563dd-e368-48f5-a186-3a29a8a5295d"},"vehicle_type_id":"4","last_reported":1761266939,"current_range_meters":17600,"station_id":"ce4bhm92rcd13ifvqglg","pricing_plan_id":"cebpf4jnsgd1na2vs0mg"},{"bike_id":"41e21137-1e1a-4741-b195-1b98dc043b19","system_id":"levelo_inurba_marseille","lat":43.23967,"lon":5.36616,"is_reserved":false,"is_disabled":false,"rental_uris":{"android":"levelo://app?vid=41e21137-1e1a-4741-b195-1b98dc043b19","ios":"levelo://app?vid=41e21137-1e1a-4741-b195-1b98dc043b19"},"vehicle_type_id":"4","last_reported":1761266939,"current_range_meters":18000,"station_id":"ce4bhi12rcd13ifvqfp0","pricing_plan_id":"cebpf4jnsgd1na2vs0mg"},{"bike_id":"bc18986f-720e-4fb1-8991-ac16da488f75","system_id":"levelo_inurba_marseille","lat":43.27921,"lon":5.39589,"is_reserved":false,"is_disabled":false,"rental_uris":{"android":"levelo://app?vid=bc18986f-720e-4fb1-8991-ac16da488f75","ios":"levelo://app?vid=bc18986f-720e-4fb1-8991-ac16da488f75"},"vehicle_type_id":"4","last_reported":1761266939,"current_range_meters":18000,"station_id":"ce4bhf92rcd13ifvqf40","pricing_plan_id":"cebpf4jnsgd1na2vs0mg"},{"bike_id":"249615da-bae2-4bb3-9506-b338b9fb85b7","system_id":"levelo_inurba_marseille","lat":43.297353,"lon":5.37688,"is_reserved":false,"is_disabled":true,"rental_uris":{"android":"levelo://app?vid=249615da-bae2-4bb3-9506-b338b9fb85b7","ios":"levelo://app?vid=249615da-bae2-4bb3-9506-b338b9fb85b7"},"vehicle_type_id":"4","last_reported":1761266939,"current_range_meters":18000,"station_id":"ce4bgkh2rcd13ifvqbl0","pricing_plan_id":"cebpf4jnsgd1na2vs0mg"},{"bike_id":"f42c71f2-2f87-4e94-97f5-997a2b88a744","system_id":"levelo_inurba_marseille","lat":43.30368,"lon":5.3739,"is_reserved":false,"is_disabled":false,"rental_uris":{"android":"levelo://app?vid=f42c71f2-2f87-4e94-97f5-997a2b88a744","ios":"levelo://app?vid=f42c71f2-2f87-4e94-97f5-997a2b88a744"},"vehicle_type_id":"4","last_reported":1761266939,"current_range_meters":18000,"station_id":"","pricing_plan_id":"cebpf4jnsgd1na2vs0mg"},{"bike_id":"e4d9d28d-de5d-4eba-b45f-0315c6967297","system_id":"levelo_inurba_marseille","lat":43.2511,"lon":5.39501,"is_reserved":false,"is_disabled":false,"rental_uris":{"android":"levelo://app?vid=e4d9d28d-de5d-4eba-b45f-0315c6967297","ios":"levelo://app?vid=e4d9d28d-de5d-4eba-b45f-0315c6967297"},"vehicle_type_id":"4","last_reported":1761266939,"current_range_meters":18000,"station_id":"ce4bhm12rcd13ifvqgkg","pricing_plan_id":"cebpf4jnsgd1na2vs0mg"},{"bike_id":"e559161c-a2cd-4968-a410-2f6faa0a37df","system_id":"levelo_inurba_marseille","lat":43.30328,"lon":5.40442,"is_reserved":false,"is_disabled":false,"rental_uris":{"android":"levelo://app?vid=e559161c-a2cd-4968-a410-2f6faa0a37df","ios":"levelo://app?vid=e559161c-a2cd-4968-a410-2f6faa0a37df"},"vehicle_type_id":"4","last_reported":1761266939,"current_range_meters":18000,"station_id":"ce4bh012rcd13ifvqd10","pricing_plan_id":"cebpf4jnsgd1na2vs0mg"},{"bike_id":"49846689-0e6c-4f5a-9811-e66a070d89eb","system_id":"levelo_inurba_marseille","lat":43.28351,"lon":5.381,"is_reserved":false,"is_disabled":false,"rental_uris":{"android":"levelo://app?vid=49846689-0e6c-4f5a-9811-e66a070d89eb","ios":"levelo://app?vid=49846689-0e6c-4f5a-9811-e66a070d89eb"},"vehicle_type_id":"4","last_reported":1761266939,"current_range_meters":18000,"station_id":"ce4bh412rcd13ifvqdr0","pricing_plan_id":"cebpf4jnsgd1na2vs0mg"},{"bike_id":"dde114a4-8805-4784-b02d-0d744116457b","system_id":"levelo_inurba_marseille","lat":43.2294,"lon":5.35378,"is_reserved":false,"is_disabled":false,"rental_uris":{"android":"levelo://app?vid=dde114a4-8805-4784-b02d-0d744116457b","ios":"levelo://app?vid=dde114a4-8805-4784-b02d-0d744116457b"},"vehicle_type_id":"4","last_reported":1761266939,"current_range_meters":18000,"station_id":"cpo3532slgdg3j2ikp40","pricing_plan_id":"cebpf4jnsgd1na2vs0mg"},{"bike_id":"7f10cb41-4375-45db-98d0-5fae7c5c6b64","system_id":"levelo_inurba_marseille","lat":43.29053,"lon":5.35902,"is_reserved":false,"is_disabled":false,"rental_uris":{"android":"levelo://app?vid=7f10cb41-4375-45db-98d0-5fae7c5c6b64","ios":"levelo://app?vid=7f10cb41-4375-45db-98d0-5fae7c5c6b64"},"vehicle_type_id":"4","last_reported":1761266939,"current_range_meters":18800,"station_id":"ce4bha92rcd13ifvqeg0","pricing_plan_id":"cebpf4jnsgd1na2vs0mg"},{"bike_id":"45e2bc20-c1aa-4135-a212-24bd1aa6499b","system_id":"levelo_inurba_marseille","lat":43.31328,"lon":5.39692,"is_reserved":false,"is_disabled":false,"rental_uris":{"android":"levelo://app?vid=45e2bc20-c1aa-4135-a212-24bd1aa6499b","ios":"levelo://app?vid=45e2bc20-c1aa-4135-a212-24bd1aa6499b"},"vehicle_type_id":"4","last_reported":1761266939,"current_range_meters":18800,"station_id":"ce4bgvp2rcd13ifvqcu0","pricing_plan_id":"cebpf4jnsgd1na2vs0mg"},{"bike_id":"4f5c5045-2f2c-4ab7-ad8b-eeba1d52fe66","system_id":"levelo_inurba_marseille","lat":43.31574,"lon":5.37187,"is_reserved":false,"is_disabled":false,"rental_uris":{"android":"levelo://app?vid=4f5c5045-2f2c-4ab7-ad8b-eeba1d52fe66","ios":"levelo://app?vid=4f5c5045-2f2c-4ab7-ad8b-eeba1d52fe66"},"vehicle_type_id":"4","last_reported":1761266939,"current_range_meters":18800,"station_id":"","pricing_plan_id":"cebpf4jnsgd1na2vs0mg"},{"bike_id":"ce6cd538-c766-4c96-b93f-5b786164e4be","system_id":"levelo_inurba_marseille","lat":43.30891,"lon":5.37185,"is_reserved":false,"is_disabled":false,"rental_uris":{"android":"levelo://app?vid=ce6cd538-c766-4c96-b93f-5b786164e4be","ios":"levelo://app?vid=ce6cd538-c766-4c96-b93f-5b786164e4be"},"vehicle_type_id":"4","last_reported":1761266939,"current_range_meters":18800,"station_id":"ce4bguh2rcd13ifvqckg","pricing_plan_id":"cebpf4jnsgd1na2vs0mg"},{"bike_id":"3ca631e8-ee58-4447-9ffa-10b8c34e15a6","system_id":"levelo_inurba_marseille","lat":43.31161,"lon":5.38711,"is_reserved":false,"is_disabled":false,"rental_uris":{"android":"levelo://app?vid=3ca631e8-ee58-4447-9ffa-10b8c34e15a6","ios":"levelo://app?vid=3ca631e8-ee58-4447-9ffa-10b8c34e15a6"},"vehicle_type_id":"4","last_reported":1761266939,"current_range_meters":18800,"station_id":"ce4bgv12rcd13ifvqcp0","pricing_plan_id":"cebpf4jnsgd1na2vs0mg"},{"bike_id":"6409505c-b225-4ec6-8eec-790d19d244a1","system_id":"levelo_inurba_marseille","lat":43.31274,"lon":5.401692,"is_reserved":false,"is_disabled":false,"rental_uris":{"android":"levelo://app?vid=6409505c-b225-4ec6-8eec-790d19d244a1","ios":"levelo://app?vid=6409505c-b225-4ec6-8eec-790d19d244a1"},"vehicle_type_id":"4","last_reported":1761266939,"current_range_meters":18800,"station_id":"ce4bh092rcd13ifvqd30","pricing_plan_id":"cebpf4jnsgd1na2vs0mg"},{"bike_id":"be88eaa4-e674-44f9-9199-3901304dd644","system_id":"levelo_inurba_marseille","lat":43.2176,"lon":5.34593,"is_reserved":false,"is_disabled":false,"rental_uris":{"android":"levelo://app?vid=be88eaa4-e674-44f9-9199-3901304dd644","ios":"levelo://app?vid=be88eaa4-e674-44f9-9199-3901304dd644"},"vehicle_type_id":"4","last_reported":1761266939,"current_range_meters":19200,"station_id":"st_cvj6r9ubvosntc0bgbag","pricing_plan_id":"cebpf4jnsgd1na2vs0mg"},{"bike_id":"51f5c8c2-4020-440f-b660-182f7627d50e","system_id":"levelo_inurba_marseille","lat":43.27074,"lon":5.42277,"is_reserved":false,"is_disabled":true,"rental_uris":{"android":"levelo://app?vid=51f5c8c2-4020-440f-b660-182f7627d50e","ios":"levelo://app?vid=51f5c8c2-4020-440f-b660-182f7627d50e"},"vehicle_type_id":"4","last_reported":1761266939,"current_range_meters":19200,"station_id":"ce4bhk92rcd13ifvqgb0","pricing_plan_id":"cebpf4jnsgd1na2vs0mg"},{"bike_id":"2fff7e05-4e1f-4636-ac4e-598bbf28789a","system_id":"levelo_inurba_marseille","lat":43.31117,"lon":5.37783,"is_reserved":false,"is_disabled":false,"rental_uris":{"android":"levelo://app?vid=2fff7e05-4e1f-4636-ac4e-598bbf28789a","ios":"levelo://app?vid=2fff7e05-4e1f-4636-ac4e-598bbf28789a"},"vehicle_type_id":"4","last_reported":1761266939,"current_range_meters":19200,"station_id":"ce4bgt92rcd13ifvqcg0","pricing_plan_id":"cebpf4jnsgd1na2vs0mg"},{"bike_id":"17585014-36d0-4d96-ab97-1812e8c7fbe7","system_id":"levelo_inurba_marseille","lat":43.31667,"lon":5.38241,"is_reserved":false,"is_disabled":false,"rental_uris":{"android":"levelo://app?vid=17585014-36d0-4d96-ab97-1812e8c7fbe7","ios":"levelo://app?vid=17585014-36d0-4d96-ab97-1812e8c7fbe7"},"vehicle_type_id":"4","last_reported":1761266939,"current_range_meters":19200,"station_id":"","pricing_plan_id":"cebpf4jnsgd1na2vs0mg"},{"bike_id":"75eebb0f-2447-4bf8-b846-45b5b359059b","system_id":"levelo_inurba_marseille","lat":43.33769,"lon":5.37496,"is_reserved":false,"is_disabled":false,"rental_uris":{"android":"levelo://app?vid=75eebb0f-2447-4bf8-b846-45b5b359059b","ios":"levelo://app?vid=75eebb0f-2447-4bf8-b846-45b5b359059b"},"vehicle_type_id":"4","last_reported":1761266939,"current_range_meters":19200,"station_id":"","pricing_plan_id":"cebpf4jnsgd1na2vs0mg"},{"bike_id":"b8c97daa-9d25-46f3-82b1-f49b563fc2e4","system_id":"levelo_inurba_marseille","lat":43.2408,"lon":5.37758,"is_reserved":false,"is_disabled":false,"rental_uris":{"android":"levelo://app?vid=b8c97daa-9d25-46f3-82b1-f49b563fc2e4","ios":"levelo://app?vid=b8c97daa-9d25-46f3-82b1-f49b563fc2e4"},"vehicle_type_id":"4","last_reported":1761266939,"current_range_meters":19200,"station_id":"ce4bhnp2rcd13ifvqgvg","pricing_plan_id":"cebpf4jnsgd1na2vs0mg"},{"bike_id":"443169f7-d846-40c9-a7aa-fda85a0c675f","system_id":"levelo_inurba_marseille","lat":43.261897,"lon":5.374569,"is_reserved":false,"is_disabled":false,"rental_uris":{"android":"levelo://app?vid=443169f7-d846-40c9-a7aa-fda85a0c675f","ios":"levelo://app?vid=443169f7-d846-40c9-a7aa-fda85a0c675f"},"vehicle_type_id":"4","last_reported":1761266939,"current_range_meters":19200,"station_id":"ce4bhgp2rcd13ifvqfc0","pricing_plan_id":"cebpf4jnsgd1na2vs0mg"},{"bike_id":"2087b646-f196-4c5f-b880-88d0df9000fb","system_id":"levelo_inurba_marseille","lat":43.281511,"lon":5.426357,"is_reserved":false,"is_disabled":false,"rental_uris":{"android":"levelo://app?vid=2087b646-f196-4c5f-b880-88d0df9000fb","ios":"levelo://app?vid=2087b646-f196-4c5f-b880-88d0df9000fb"},"vehicle_type_id":"4","last_reported":1761266939,"current_range_meters":19200,"station_id":"ce4bhnh2rcd13ifvqgug","pricing_plan_id":"cebpf4jnsgd1na2vs0mg"},{"bike_id":"519982c8-1992-4e8d-913c-02da47bc29af","system_id":"levelo_inurba_marseille","lat":43.28952,"lon":5.36374,"is_reserved":false,"is_disabled":false,"rental_uris":{"android":"levelo://app?vid=519982c8-1992-4e8d-913c-02da47bc29af","ios":"levelo://app?vid=519982c8-1992-4e8d-913c-02da47bc29af"},"vehicle_type_id":"4","last_reported":1761266939,"current_range_meters":19200,"station_id":"ce4bhc92rcd13ifvqetg","pricing_plan_id":"cebpf4jnsgd1na2vs0mg"},{"bike_id":"50e91b0f-8d21-4b23-a982-6c0b89372582","system_id":"levelo_inurba_marseille","lat":43.27837,"lon":5.3921,"is_reserved":false,"is_disabled":false,"rental_uris":{"android":"levelo://app?vid=50e91b0f-8d21-4b23-a982-6c0b89372582","ios":"levelo://app?vid=50e91b0f-8d21-4b23-a982-6c0b89372582"},"vehicle_type_id":"4","last_reported":1761266939,"current_range_meters":19200,"station_id":"ce4bhjp2rcd13ifvqga0","pricing_plan_id":"cebpf4jnsgd1na2vs0mg"},{"bike_id":"9b2296fc-ca6d-4d31-a88a-f05fbee1212f","system_id":"levelo_inurba_marseille","lat":43.28711,"lon":5.3738,"is_reserved":false,"is_disabled":false,"rental_uris":{"android":"levelo://app?vid=9b2296fc-ca6d-4d31-a88a-f05fbee1212f","ios":"levelo://app?vid=9b2296fc-ca6d-4d31-a88a-f05fbee1212f"},"vehicle_type_id":"4","last_reported":1761266939,"current_range_meters":19600,"station_id":"ce4bh3p2rcd13ifvqdq0","pricing_plan_id":"cebpf4jnsgd1na2vs0mg"},{"bike_id":"6bb9dc57-5792-4922-bf25-15b0e5cda6e8","system_id":"levelo_inurba_marseille","lat":43.2401,"lon":5.3771,"is_reserved":false,"is_disabled":false,"rental_uris":{"android":"levelo://app?vid=6bb9dc57-5792-4922-bf25-15b0e5cda6e8","ios":"levelo://app?vid=6bb9dc57-5792-4922-bf25-15b0e5cda6e8"},"vehicle_type_id":"4","last_reported":1761266939,"current_range_meters":19600,"station_id":"","pricing_plan_id":"cebpf4jnsgd1na2vs0mg"},{"bike_id":"417d2345-c4c6-4ccd-bc5c-2eafc961607b","system_id":"levelo_inurba_marseille","lat":43.25534,"lon":5.37688,"is_reserved":false,"is_disabled":false,"rental_uris":{"android":"levelo://app?vid=417d2345-c4c6-4ccd-bc5c-2eafc961607b","ios":"levelo://app?vid=417d2345-c4c6-4ccd-bc5c-2eafc961607b"},"vehicle_type_id":"4","last_reported":1761266939,"current_range_meters":19600,"station_id":"ce4bhh12rcd13ifvqff0","pricing_plan_id":"cebpf4jnsgd1na2vs0mg"},{"bike_id":"348e7f1a-e0aa-4d12-90e2-0854b9c22a5c","system_id":"levelo_inurba_marseille","lat":43.265643,"lon":5.40319,"is_reserved":false,"is_disabled":false,"rental_uris":{"android":"levelo://app?vid=348e7f1a-e0aa-4d12-90e2-0854b9c22a5c","ios":"levelo://app?vid=348e7f1a-e0aa-4d12-90e2-0854b9c22a5c"},"vehicle_type_id":"4","last_reported":1761266939,"current_range_meters":19600,"station_id":"ce4bhmp2rcd13ifvqgng","pricing_plan_id":"cebpf4jnsgd1na2vs0mg"},{"bike_id":"57b679af-c7e3-4aef-aaf7-dad7584c2820","system_id":"levelo_inurba_marseille","lat":43.25519,"lon":5.37637,"is_reserved":false,"is_disabled":false,"rental_uris":{"android":"levelo://app?vid=57b679af-c7e3-4aef-aaf7-dad7584c2820","ios":"levelo://app?vid=57b679af-c7e3-4aef-aaf7-dad7584c2820"},"vehicle_type_id":"4","last_reported":1761266939,"current_range_meters":19600,"station_id":"ce4bhh12rcd13ifvqff0","pricing_plan_id":"cebpf4jnsgd1na2vs0mg"},{"bike_id":"a226f85a-9b8d-4151-b0e4-fc44f53407ee","system_id":"levelo_inurba_marseille","lat":43.27066,"lon":5.42272,"is_reserved":false,"is_disabled":false,"rental_uris":{"android":"levelo://app?vid=a226f85a-9b8d-4151-b0e4-fc44f53407ee","ios":"levelo://app?vid=a226f85a-9b8d-4151-b0e4-fc44f53407ee"},"vehicle_type_id":"4","last_reported":1761266939,"current_range_meters":19600,"station_id":"ce4bhk92rcd13ifvqgb0","pricing_plan_id":"cebpf4jnsgd1na2vs0mg"},{"bike_id":"56e46bd6-639a-4264-8565-cf6294d40da4","system_id":"levelo_inurba_marseille","lat":43.30599,"lon":5.39375,"is_reserved":false,"is_disabled":false,"rental_uris":{"android":"levelo://app?vid=56e46bd6-639a-4264-8565-cf6294d40da4","ios":"levelo://app?vid=56e46bd6-639a-4264-8565-cf6294d40da4"},"vehicle_type_id":"4","last_reported":1761266939,"current_range_meters":19600,"station_id":"ce4bh0p2rcd13ifvqd80","pricing_plan_id":"cebpf4jnsgd1na2vs0mg"},{"bike_id":"9d964ec4-c537-4f1d-b21c-451d3f46b1bf","system_id":"levelo_inurba_marseille","lat":43.29878,"lon":5.37841,"is_reserved":false,"is_disabled":false,"rental_uris":{"android":"levelo://app?vid=9d964ec4-c537-4f1d-b21c-451d3f46b1bf","ios":"levelo://app?vid=9d964ec4-c537-4f1d-b21c-451d3f46b1bf"},"vehicle_type_id":"4","last_reported":1761266939,"current_range_meters":19600,"station_id":"","pricing_plan_id":"cebpf4jnsgd1na2vs0mg"},{"bike_id":"cd4f6361-1a6c-4e12-b820-a5f924995015","system_id":"levelo_inurba_marseille","lat":43.27816,"lon":5.40712,"is_reserved":false,"is_disabled":false,"rental_uris":{"android":"levelo://app?vid=cd4f6361-1a6c-4e12-b820-a5f924995015","ios":"levelo://app?vid=cd4f6361-1a6c-4e12-b820-a5f924995015"},"vehicle_type_id":"4","last_reported":1761266939,"current_range_meters":20000,"station_id":"ce4bhnh2rcd13ifvqgtg","pricing_plan_id":"cebpf4jnsgd1na2vs0mg"},{"bike_id":"4c94584e-497f-4b1c-b5af-56f3db4eef2d","system_id":"levelo_inurba_marseille","lat":43.297228,"lon":5.371394,"is_reserved":false,"is_disabled":false,"rental_uris":{"android":"levelo://app?vid=4c94584e-497f-4b1c-b5af-56f3db4eef2d","ios":"levelo://app?vid=4c94584e-497f-4b1c-b5af-56f3db4eef2d"},"vehicle_type_id":"4","last_reported":1761266939,"current_range_meters":20000,"station_id":"","pricing_plan_id":"cebpf4jnsgd1na2vs0mg"},{"bike_id":"f8d4a75f-848b-40a7-b489-b7a8af25023c","system_id":"levelo_inurba_marseille","lat":43.30902,"lon":5.39613,"is_reserved":false,"is_disabled":false,"rental_uris":{"android":"levelo://app?vid=f8d4a75f-848b-40a7-b489-b7a8af25023c","ios":"levelo://app?vid=f8d4a75f-848b-40a7-b489-b7a8af25023c"},"vehicle_type_id":"4","last_reported":1761266939,"current_range_meters":20000,"station_id":"ce4bh012rcd13ifvqcv0","pricing_plan_id":"cebpf4jnsgd1na2vs0mg"},{"bike_id":"a14127e7-ec52-496b-b96f-8b9d112e3a33","system_id":"levelo_inurba_marseille","lat":43.28703,"lon":5.37368,"is_reserved":false,"is_disabled":true,"rental_uris":{"android":"levelo://app?vid=a14127e7-ec52-496b-b96f-8b9d112e3a33","ios":"levelo://app?vid=a14127e7-ec52-496b-b96f-8b9d112e3a33"},"vehicle_type_id":"4","last_reported":1761266939,"current_range_meters":20000,"station_id":"ce4bh3p2rcd13ifvqdq0","pricing_plan_id":"cebpf4jnsgd1na2vs0mg"},{"bike_id":"3c313c1b-fb8e-42af-ac57-4a639bfffb1d","system_id":"levelo_inurba_marseille","lat":43.28095,"lon":5.37823,"is_reserved":false,"is_disabled":false,"rental_uris":{"android":"levelo://app?vid=3c313c1b-fb8e-42af-ac57-4a639bfffb1d","ios":"levelo://app?vid=3c313c1b-fb8e-42af-ac57-4a639bfffb1d"},"vehicle_type_id":"4","last_reported":1761266939,"current_range_meters":20000,"station_id":"ce4bha12rcd13ifvqee0","pricing_plan_id":"cebpf4jnsgd1na2vs0mg"},{"bike_id":"bd46d065-b0be-4077-a3e8-a81190b0b2ef","system_id":"levelo_inurba_marseille","lat":43.28668,"lon":5.386678,"is_reserved":false,"is_disabled":false,"rental_uris":{"android":"levelo://app?vid=bd46d065-b0be-4077-a3e8-a81190b0b2ef","ios":"levelo://app?vid=bd46d065-b0be-4077-a3e8-a81190b0b2ef"},"vehicle_type_id":"4","last_reported":1761266939,"current_range_meters":20000,"station_id":"ce4bho92rcd13ifvqh3g","pricing_plan_id":"cebpf4jnsgd1na2vs0mg"},{"bike_id":"f403df9f-a552-493f-8a4f-1d5c0b3eb8c7","system_id":"levelo_inurba_marseille","lat":43.259255,"lon":5.408907,"is_reserved":false,"is_disabled":true,"rental_uris":{"android":"levelo://app?vid=f403df9f-a552-493f-8a4f-1d5c0b3eb8c7","ios":"levelo://app?vid=f403df9f-a552-493f-8a4f-1d5c0b3eb8c7"},"vehicle_type_id":"4","last_reported":1761266939,"current_range_meters":20400,"station_id":"ce4bhm92rcd13ifvqglg","pricing_plan_id":"cebpf4jnsgd1na2vs0mg"},{"bike_id":"468ea685-2f35-4772-9a1e-90437d909e9b","system_id":"levelo_inurba_marseille","lat":43.288462,"lon":5.358644,"is_reserved":false,"is_disabled":false,"rental_uris":{"android":"levelo://app?vid=468ea685-2f35-4772-9a1e-90437d909e9b","ios":"levelo://app?vid=468ea685-2f35-4772-9a1e-90437d909e9b"},"vehicle_type_id":"4","last_reported":1761266939,"current_range_meters":20400,"station_id":"ce4bhb12rcd13ifvqem0","pricing_plan_id":"cebpf4jnsgd1na2vs0mg"},{"bike_id":"4b9e7562-9522-4e30-8e7d-2c8520ef9dc6","system_id":"levelo_inurba_marseille","lat":43.25103,"lon":5.39513,"is_reserved":false,"is_disabled":false,"rental_uris":{"android":"levelo://app?vid=4b9e7562-9522-4e30-8e7d-2c8520ef9dc6","ios":"levelo://app?vid=4b9e7562-9522-4e30-8e7d-2c8520ef9dc6"},"vehicle_type_id":"4","last_reported":1761266939,"current_range_meters":20400,"station_id":"ce4bhm12rcd13ifvqgkg","pricing_plan_id":"cebpf4jnsgd1na2vs0mg"},{"bike_id":"1ff5ed0f-2a79-45a2-905f-643edf75a268","system_id":"levelo_inurba_marseille","lat":43.2406,"lon":5.37731,"is_reserved":false,"is_disabled":false,"rental_uris":{"android":"levelo://app?vid=1ff5ed0f-2a79-45a2-905f-643edf75a268","ios":"levelo://app?vid=1ff5ed0f-2a79-45a2-905f-643edf75a268"},"vehicle_type_id":"4","last_reported":1761266939,"current_range_meters":20400,"station_id":"ce4bhnp2rcd13ifvqgvg","pricing_plan_id":"cebpf4jnsgd1na2vs0mg"},{"bike_id":"94eca71f-d440-44a6-b841-9b8230a917a8","system_id":"levelo_inurba_marseille","lat":43.290351,"lon":5.375639,"is_reserved":false,"is_disabled":false,"rental_uris":{"android":"levelo://app?vid=94eca71f-d440-44a6-b841-9b8230a917a8","ios":"levelo://app?vid=94eca71f-d440-44a6-b841-9b8230a917a8"},"vehicle_type_id":"4","last_reported":1761266939,"current_range_meters":20400,"station_id":"","pricing_plan_id":"cebpf4jnsgd1na2vs0mg"},{"bike_id":"1e04bd5e-dba9-4c39-b5e3-df33312b1ae1","system_id":"levelo_inurba_marseille","lat":43.2707,"lon":5.38296,"is_reserved":false,"is_disabled":false,"rental_uris":{"android":"levelo://app?vid=1e04bd5e-dba9-4c39-b5e3-df33312b1ae1","ios":"levelo://app?vid=1e04bd5e-dba9-4c39-b5e3-df33312b1ae1"},"vehicle_type_id":"4","last_reported":1761266939,"current_range_meters":20400,"station_id":"st_d3n2fo6cfp8s73cte1j0","pricing_plan_id":"cebpf4jnsgd1na2vs0mg"},{"bike_id":"37d7af54-88ad-4b96-90ce-e02c0aeb4bc9","system_id":"levelo_inurba_marseille","lat":43.28952,"lon":5.3661,"is_reserved":false,"is_disabled":true,"rental_uris":{"android":"levelo://app?vid=37d7af54-88ad-4b96-90ce-e02c0aeb4bc9","ios":"levelo://app?vid=37d7af54-88ad-4b96-90ce-e02c0aeb4bc9"},"vehicle_type_id":"4","last_reported":1761266939,"current_range_meters":20400,"station_id":"ce4bhap2rcd13ifvqek0","pricing_plan_id":"cebpf4jnsgd1na2vs0mg"},{"bike_id":"c2b505db-1ab2-4cbc-8408-f48f35a4beb9","system_id":"levelo_inurba_marseille","lat":43.25866,"lon":5.39957,"is_reserved":false,"is_disabled":false,"rental_uris":{"android":"levelo://app?vid=c2b505db-1ab2-4cbc-8408-f48f35a4beb9","ios":"levelo://app?vid=c2b505db-1ab2-4cbc-8408-f48f35a4beb9"},"vehicle_type_id":"4","last_reported":1761266939,"current_range_meters":20400,"station_id":"","pricing_plan_id":"cebpf4jnsgd1na2vs0mg"},{"bike_id":"ab1dc6bf-d651-4056-ad23-b67254daea0b","system_id":"levelo_inurba_marseille","lat":43.337509,"lon":5.375088,"is_reserved":false,"is_disabled":false,"rental_uris":{"android":"levelo://app?vid=ab1dc6bf-d651-4056-ad23-b67254daea0b","ios":"levelo://app?vid=ab1dc6bf-d651-4056-ad23-b67254daea0b"},"vehicle_type_id":"4","last_reported":1761266939,"current_range_meters":20400,"station_id":"","pricing_plan_id":"cebpf4jnsgd1na2vs0mg"},{"bike_id":"55e3b968-e4bf-492a-862d-3075e6a79a88","system_id":"levelo_inurba_marseille","lat":43.29494,"lon":5.43306,"is_reserved":false,"is_disabled":false,"rental_uris":{"android":"levelo://app?vid=55e3b968-e4bf-492a-862d-3075e6a79a88","ios":"levelo://app?vid=55e3b968-e4bf-492a-862d-3075e6a79a88"},"vehicle_type_id":"4","last_reported":1761266939,"current_range_meters":20400,"station_id":"st_d3j5ugp08ojc73fj9d10","pricing_plan_id":"cebpf4jnsgd1na2vs0mg"},{"bike_id":"25c41e3b-519a-40ac-8edd-4141b9ca9f82","system_id":"levelo_inurba_marseille","lat":43.24066,"lon":5.37755,"is_reserved":false,"is_disabled":false,"rental_uris":{"android":"levelo://app?vid=25c41e3b-519a-40ac-8edd-4141b9ca9f82","ios":"levelo://app?vid=25c41e3b-519a-40ac-8edd-4141b9ca9f82"},"vehicle_type_id":"4","last_reported":1761266939,"current_range_meters":20400,"station_id":"ce4bhnp2rcd13ifvqgvg","pricing_plan_id":"cebpf4jnsgd1na2vs0mg"},{"bike_id":"a523e4d5-3644-4f62-a1d9-5ea926fd2cc8","system_id":"levelo_inurba_marseille","lat":43.311797,"lon":5.387219,"is_reserved":false,"is_disabled":false,"rental_uris":{"android":"levelo://app?vid=a523e4d5-3644-4f62-a1d9-5ea926fd2cc8","ios":"levelo://app?vid=a523e4d5-3644-4f62-a1d9-5ea926fd2cc8"},"vehicle_type_id":"4","last_reported":1761266939,"current_range_meters":20400,"station_id":"ce4bgv12rcd13ifvqcp0","pricing_plan_id":"cebpf4jnsgd1na2vs0mg"},{"bike_id":"8c8fb62c-ad3c-4fec-8adf-4fb548759c23","system_id":"levelo_inurba_marseille","lat":43.33026,"lon":5.39017,"is_reserved":false,"is_disabled":false,"rental_uris":{"android":"levelo://app?vid=8c8fb62c-ad3c-4fec-8adf-4fb548759c23","ios":"levelo://app?vid=8c8fb62c-ad3c-4fec-8adf-4fb548759c23"},"vehicle_type_id":"4","last_reported":1761266939,"current_range_meters":20400,"station_id":"ce4bhr92rcd13ifvqhrg","pricing_plan_id":"cebpf4jnsgd1na2vs0mg"},{"bike_id":"b833b32a-e372-4aa4-832f-4c5684cbb232","system_id":"levelo_inurba_marseille","lat":43.24958,"lon":5.40494,"is_reserved":false,"is_disabled":false,"rental_uris":{"android":"levelo://app?vid=b833b32a-e372-4aa4-832f-4c5684cbb232","ios":"levelo://app?vid=b833b32a-e372-4aa4-832f-4c5684cbb232"},"vehicle_type_id":"4","last_reported":1761266939,"current_range_meters":20800,"station_id":"st_d2ngiaodas8pm72gd1h0","pricing_plan_id":"cebpf4jnsgd1na2vs0mg"},{"bike_id":"1060fd7b-9e0d-427e-a00f-2040fd173c83","system_id":"levelo_inurba_marseille","lat":43.3393,"lon":5.40735,"is_reserved":false,"is_disabled":false,"rental_uris":{"android":"levelo://app?vid=1060fd7b-9e0d-427e-a00f-2040fd173c83","ios":"levelo://app?vid=1060fd7b-9e0d-427e-a00f-2040fd173c83"},"vehicle_type_id":"4","last_reported":1761266939,"current_range_meters":20800,"station_id":"ce4bhqh2rcd13ifvqhmg","pricing_plan_id":"cebpf4jnsgd1na2vs0mg"},{"bike_id":"8d881a98-71e9-421e-9e11-c692cd36b6d1","system_id":"levelo_inurba_marseille","lat":43.27829,"lon":5.40684,"is_reserved":false,"is_disabled":false,"rental_uris":{"android":"levelo://app?vid=8d881a98-71e9-421e-9e11-c692cd36b6d1","ios":"levelo://app?vid=8d881a98-71e9-421e-9e11-c692cd36b6d1"},"vehicle_type_id":"4","last_reported":1761266939,"current_range_meters":20800,"station_id":"ce4bhnh2rcd13ifvqgtg","pricing_plan_id":"cebpf4jnsgd1na2vs0mg"},{"bike_id":"b8b69515-c32d-4770-8c53-916d22df23a8","system_id":"levelo_inurba_marseille","lat":43.28702,"lon":5.37382,"is_reserved":false,"is_disabled":false,"rental_uris":{"android":"levelo://app?vid=b8b69515-c32d-4770-8c53-916d22df23a8","ios":"levelo://app?vid=b8b69515-c32d-4770-8c53-916d22df23a8"},"vehicle_type_id":"4","last_reported":1761266939,"current_range_meters":20800,"station_id":"ce4bh3p2rcd13ifvqdq0","pricing_plan_id":"cebpf4jnsgd1na2vs0mg"},{"bike_id":"36f30fea-bdb4-4f9d-8b2b-249c8a714098","system_id":"levelo_inurba_marseille","lat":43.31717,"lon":5.4241,"is_reserved":false,"is_disabled":false,"rental_uris":{"android":"levelo://app?vid=36f30fea-bdb4-4f9d-8b2b-249c8a714098","ios":"levelo://app?vid=36f30fea-bdb4-4f9d-8b2b-249c8a714098"},"vehicle_type_id":"4","last_reported":1761266939,"current_range_meters":20800,"station_id":"ce4bhp92rcd13ifvqhbg","pricing_plan_id":"cebpf4jnsgd1na2vs0mg"},{"bike_id":"984fab6f-d464-4307-88c6-9cb9049be542","system_id":"levelo_inurba_marseille","lat":43.29179,"lon":5.35761,"is_reserved":false,"is_disabled":false,"rental_uris":{"android":"levelo://app?vid=984fab6f-d464-4307-88c6-9cb9049be542","ios":"levelo://app?vid=984fab6f-d464-4307-88c6-9cb9049be542"},"vehicle_type_id":"4","last_reported":1761266939,"current_range_meters":20800,"station_id":"ce4bhb12rcd13ifvqel0","pricing_plan_id":"cebpf4jnsgd1na2vs0mg"},{"bike_id":"7b44cf15-ddd7-45af-813e-645d33369c48","system_id":"levelo_inurba_marseille","lat":43.29305,"lon":5.40071,"is_reserved":false,"is_disabled":false,"rental_uris":{"android":"levelo://app?vid=7b44cf15-ddd7-45af-813e-645d33369c48","ios":"levelo://app?vid=7b44cf15-ddd7-45af-813e-645d33369c48"},"vehicle_type_id":"4","last_reported":1761266939,"current_range_meters":20800,"station_id":"ce4bh312rcd13ifvqdk0","pricing_plan_id":"cebpf4jnsgd1na2vs0mg"},{"bike_id":"f5899999-6054-42c3-891f-bdfbc4d9c516","system_id":"levelo_inurba_marseille","lat":43.25336,"lon":5.42165,"is_reserved":false,"is_disabled":false,"rental_uris":{"android":"levelo://app?vid=f5899999-6054-42c3-891f-bdfbc4d9c516","ios":"levelo://app?vid=f5899999-6054-42c3-891f-bdfbc4d9c516"},"vehicle_type_id":"4","last_reported":1761266939,"current_range_meters":20800,"station_id":"st_d2m65c5bi1j21697t3ng","pricing_plan_id":"cebpf4jnsgd1na2vs0mg"},{"bike_id":"ebb39498-4a07-4e96-aa7d-f7098bbfce83","system_id":"levelo_inurba_marseille","lat":43.27825,"lon":5.40679,"is_reserved":false,"is_disabled":false,"rental_uris":{"android":"levelo://app?vid=ebb39498-4a07-4e96-aa7d-f7098bbfce83","ios":"levelo://app?vid=ebb39498-4a07-4e96-aa7d-f7098bbfce83"},"vehicle_type_id":"4","last_reported":1761266939,"current_range_meters":20800,"station_id":"ce4bhnh2rcd13ifvqgtg","pricing_plan_id":"cebpf4jnsgd1na2vs0mg"},{"bike_id":"9489737c-7c2c-4f83-bc76-e520af4d2990","system_id":"levelo_inurba_marseille","lat":43.32365,"lon":5.38866,"is_reserved":false,"is_disabled":false,"rental_uris":{"android":"levelo://app?vid=9489737c-7c2c-4f83-bc76-e520af4d2990","ios":"levelo://app?vid=9489737c-7c2c-4f83-bc76-e520af4d2990"},"vehicle_type_id":"4","last_reported":1761266939,"current_range_meters":20800,"station_id":"ce4bhqp2rcd13ifvqhog","pricing_plan_id":"cebpf4jnsgd1na2vs0mg"},{"bike_id":"92d55843-3f2f-4f67-b9fd-cb2d3a3f1823","system_id":"levelo_inurba_marseille","lat":43.24076,"lon":5.37751,"is_reserved":false,"is_disabled":false,"rental_uris":{"android":"levelo://app?vid=92d55843-3f2f-4f67-b9fd-cb2d3a3f1823","ios":"levelo://app?vid=92d55843-3f2f-4f67-b9fd-cb2d3a3f1823"},"vehicle_type_id":"4","last_reported":1761266939,"current_range_meters":20800,"station_id":"ce4bhnp2rcd13ifvqgvg","pricing_plan_id":"cebpf4jnsgd1na2vs0mg"},{"bike_id":"8e92164c-deff-4fbd-9f4e-43ff81933572","system_id":"levelo_inurba_marseille","lat":43.29827,"lon":5.42,"is_reserved":false,"is_disabled":false,"rental_uris":{"android":"levelo://app?vid=8e92164c-deff-4fbd-9f4e-43ff81933572","ios":"levelo://app?vid=8e92164c-deff-4fbd-9f4e-43ff81933572"},"vehicle_type_id":"4","last_reported":1761266939,"current_range_meters":20800,"station_id":"","pricing_plan_id":"cebpf4jnsgd1na2vs0mg"},{"bike_id":"3a778c7e-bf47-4cf2-8970-13230c721f9f","system_id":"levelo_inurba_marseille","lat":43.246643,"lon":5.381571,"is_reserved":false,"is_disabled":false,"rental_uris":{"android":"levelo://app?vid=3a778c7e-bf47-4cf2-8970-13230c721f9f","ios":"levelo://app?vid=3a778c7e-bf47-4cf2-8970-13230c721f9f"},"vehicle_type_id":"4","last_reported":1761266939,"current_range_meters":20800,"station_id":"ce4bhih2rcd13ifvqfr0","pricing_plan_id":"cebpf4jnsgd1na2vs0mg"},{"bike_id":"f34b1382-6891-4e13-892b-cd84608321c6","system_id":"levelo_inurba_marseille","lat":43.31731,"lon":5.42389,"is_reserved":false,"is_disabled":false,"rental_uris":{"android":"levelo://app?vid=f34b1382-6891-4e13-892b-cd84608321c6","ios":"levelo://app?vid=f34b1382-6891-4e13-892b-cd84608321c6"},"vehicle_type_id":"4","last_reported":1761266939,"current_range_meters":20800,"station_id":"ce4bhp92rcd13ifvqhbg","pricing_plan_id":"cebpf4jnsgd1na2vs0mg"},{"bike_id":"ab2c1daa-78f9-4827-99c3-d19ffd35e399","system_id":"levelo_inurba_marseille","lat":43.29469,"lon":5.43322,"is_reserved":false,"is_disabled":false,"rental_uris":{"android":"levelo://app?vid=ab2c1daa-78f9-4827-99c3-d19ffd35e399","ios":"levelo://app?vid=ab2c1daa-78f9-4827-99c3-d19ffd35e399"},"vehicle_type_id":"4","last_reported":1761266939,"current_range_meters":21600,"station_id":"st_d3j5ugp08ojc73fj9d10","pricing_plan_id":"cebpf4jnsgd1na2vs0mg"},{"bike_id":"abbf52bc-9bde-4a40-9d12-0ac531182ea6","system_id":"levelo_inurba_marseille","lat":43.24068,"lon":5.37767,"is_reserved":false,"is_disabled":false,"rental_uris":{"android":"levelo://app?vid=abbf52bc-9bde-4a40-9d12-0ac531182ea6","ios":"levelo://app?vid=abbf52bc-9bde-4a40-9d12-0ac531182ea6"},"vehicle_type_id":"4","last_reported":1761266939,"current_range_meters":21600,"station_id":"ce4bhnp2rcd13ifvqgvg","pricing_plan_id":"cebpf4jnsgd1na2vs0mg"},{"bike_id":"b9c8c43d-1621-4310-ac8a-831f9d693fc1","system_id":"levelo_inurba_marseille","lat":43.211954,"lon":5.350763,"is_reserved":false,"is_disabled":true,"rental_uris":{"android":"levelo://app?vid=b9c8c43d-1621-4310-ac8a-831f9d693fc1","ios":"levelo://app?vid=b9c8c43d-1621-4310-ac8a-831f9d693fc1"},"vehicle_type_id":"4","last_reported":1761266939,"current_range_meters":21600,"station_id":"st_cvj6sg6p6f1abm77japg","pricing_plan_id":"cebpf4jnsgd1na2vs0mg"},{"bike_id":"0bee0626-b9a8-413e-bed7-d82dc19927df","system_id":"levelo_inurba_marseille","lat":43.31489,"lon":5.37296,"is_reserved":false,"is_disabled":false,"rental_uris":{"android":"levelo://app?vid=0bee0626-b9a8-413e-bed7-d82dc19927df","ios":"levelo://app?vid=0bee0626-b9a8-413e-bed7-d82dc19927df"},"vehicle_type_id":"4","last_reported":1761266939,"current_range_meters":21600,"station_id":"ce4bgt12rcd13ifvqcd0","pricing_plan_id":"cebpf4jnsgd1na2vs0mg"},{"bike_id":"505e3cf9-e587-4a2c-8170-e3f1279949ce","system_id":"levelo_inurba_marseille","lat":43.28984,"lon":5.36618,"is_reserved":false,"is_disabled":false,"rental_uris":{"android":"levelo://app?vid=505e3cf9-e587-4a2c-8170-e3f1279949ce","ios":"levelo://app?vid=505e3cf9-e587-4a2c-8170-e3f1279949ce"},"vehicle_type_id":"4","last_reported":1761266939,"current_range_meters":21600,"station_id":"","pricing_plan_id":"cebpf4jnsgd1na2vs0mg"},{"bike_id":"8d5a95f9-1bfa-40ac-aec9-fd864a8e816e","system_id":"levelo_inurba_marseille","lat":43.308933,"lon":5.396568,"is_reserved":false,"is_disabled":false,"rental_uris":{"android":"levelo://app?vid=8d5a95f9-1bfa-40ac-aec9-fd864a8e816e","ios":"levelo://app?vid=8d5a95f9-1bfa-40ac-aec9-fd864a8e816e"},"vehicle_type_id":"4","last_reported":1761266939,"current_range_meters":21600,"station_id":"ce4bh012rcd13ifvqcv0","pricing_plan_id":"cebpf4jnsgd1na2vs0mg"},{"bike_id":"6ed5db16-815f-41f1-96da-9f4e2292b532","system_id":"levelo_inurba_marseille","lat":43.28099,"lon":5.37838,"is_reserved":false,"is_disabled":false,"rental_uris":{"android":"levelo://app?vid=6ed5db16-815f-41f1-96da-9f4e2292b532","ios":"levelo://app?vid=6ed5db16-815f-41f1-96da-9f4e2292b532"},"vehicle_type_id":"4","last_reported":1761266939,"current_range_meters":21600,"station_id":"ce4bha12rcd13ifvqee0","pricing_plan_id":"cebpf4jnsgd1na2vs0mg"},{"bike_id":"0673b98c-ff7c-4ddb-a025-1e929717cb60","system_id":"levelo_inurba_marseille","lat":43.291656,"lon":5.386209,"is_reserved":false,"is_disabled":false,"rental_uris":{"android":"levelo://app?vid=0673b98c-ff7c-4ddb-a025-1e929717cb60","ios":"levelo://app?vid=0673b98c-ff7c-4ddb-a025-1e929717cb60"},"vehicle_type_id":"4","last_reported":1761266939,"current_range_meters":21600,"station_id":"ce4bhgp2rcd13ifvqfd0","pricing_plan_id":"cebpf4jnsgd1na2vs0mg"},{"bike_id":"9edf1a42-1ca4-4079-811c-e14675f99717","system_id":"levelo_inurba_marseille","lat":43.27812,"lon":5.39565,"is_reserved":false,"is_disabled":false,"rental_uris":{"android":"levelo://app?vid=9edf1a42-1ca4-4079-811c-e14675f99717","ios":"levelo://app?vid=9edf1a42-1ca4-4079-811c-e14675f99717"},"vehicle_type_id":"4","last_reported":1761266939,"current_range_meters":21600,"station_id":"","pricing_plan_id":"cebpf4jnsgd1na2vs0mg"},{"bike_id":"4c4fe0a5-47de-4746-ab0e-a35df0320f25","system_id":"levelo_inurba_marseille","lat":43.308938,"lon":5.396598,"is_reserved":false,"is_disabled":false,"rental_uris":{"android":"levelo://app?vid=4c4fe0a5-47de-4746-ab0e-a35df0320f25","ios":"levelo://app?vid=4c4fe0a5-47de-4746-ab0e-a35df0320f25"},"vehicle_type_id":"4","last_reported":1761266939,"current_range_meters":21600,"station_id":"ce4bgv12rcd13ifvqcp0","pricing_plan_id":"cebpf4jnsgd1na2vs0mg"},{"bike_id":"73a84e4b-1dc4-4293-ac07-8c8f95c6e770","system_id":"levelo_inurba_marseille","lat":43.31122,"lon":5.37778,"is_reserved":false,"is_disabled":true,"rental_uris":{"android":"levelo://app?vid=73a84e4b-1dc4-4293-ac07-8c8f95c6e770","ios":"levelo://app?vid=73a84e4b-1dc4-4293-ac07-8c8f95c6e770"},"vehicle_type_id":"4","last_reported":1761266939,"current_range_meters":22000,"station_id":"ce4bgt92rcd13ifvqcg0","pricing_plan_id":"cebpf4jnsgd1na2vs0mg"},{"bike_id":"bfaea6f8-ccc6-44a7-83a6-9d7d9a7e60cc","system_id":"levelo_inurba_marseille","lat":43.26404,"lon":5.39745,"is_reserved":false,"is_disabled":false,"rental_uris":{"android":"levelo://app?vid=bfaea6f8-ccc6-44a7-83a6-9d7d9a7e60cc","ios":"levelo://app?vid=bfaea6f8-ccc6-44a7-83a6-9d7d9a7e60cc"},"vehicle_type_id":"4","last_reported":1761266939,"current_range_meters":22000,"station_id":"","pricing_plan_id":"cebpf4jnsgd1na2vs0mg"},{"bike_id":"85b42b4b-997e-4fbf-b50e-714fc05c6d7d","system_id":"levelo_inurba_marseille","lat":43.27806,"lon":5.37544,"is_reserved":false,"is_disabled":false,"rental_uris":{"android":"levelo://app?vid=85b42b4b-997e-4fbf-b50e-714fc05c6d7d","ios":"levelo://app?vid=85b42b4b-997e-4fbf-b50e-714fc05c6d7d"},"vehicle_type_id":"4","last_reported":1761266939,"current_range_meters":22000,"station_id":"","pricing_plan_id":"cebpf4jnsgd1na2vs0mg"},{"bike_id":"1d91d2c9-29d3-4c7d-a6a8-29c5c39d1cce","system_id":"levelo_inurba_marseille","lat":43.21758,"lon":5.3459,"is_reserved":false,"is_disabled":false,"rental_uris":{"android":"levelo://app?vid=1d91d2c9-29d3-4c7d-a6a8-29c5c39d1cce","ios":"levelo://app?vid=1d91d2c9-29d3-4c7d-a6a8-29c5c39d1cce"},"vehicle_type_id":"4","last_reported":1761266939,"current_range_meters":22000,"station_id":"st_cvj6r9ubvosntc0bgbag","pricing_plan_id":"cebpf4jnsgd1na2vs0mg"},{"bike_id":"d917453a-01a3-4404-a5f1-4fe28d26bd67","system_id":"levelo_inurba_marseille","lat":43.30256,"lon":5.40055,"is_reserved":false,"is_disabled":false,"rental_uris":{"android":"levelo://app?vid=d917453a-01a3-4404-a5f1-4fe28d26bd67","ios":"levelo://app?vid=d917453a-01a3-4404-a5f1-4fe28d26bd67"},"vehicle_type_id":"4","last_reported":1761266939,"current_range_meters":22000,"station_id":"ce4bgvh2rcd13ifvqcs0","pricing_plan_id":"cebpf4jnsgd1na2vs0mg"},{"bike_id":"43897e44-4efb-4568-810b-25daf8b4cdaa","system_id":"levelo_inurba_marseille","lat":43.24073,"lon":5.37757,"is_reserved":false,"is_disabled":false,"rental_uris":{"android":"levelo://app?vid=43897e44-4efb-4568-810b-25daf8b4cdaa","ios":"levelo://app?vid=43897e44-4efb-4568-810b-25daf8b4cdaa"},"vehicle_type_id":"4","last_reported":1761266939,"current_range_meters":22000,"station_id":"ce4bhnp2rcd13ifvqgvg","pricing_plan_id":"cebpf4jnsgd1na2vs0mg"},{"bike_id":"369c4303-b9fa-4965-80f3-84a1c0c05bfc","system_id":"levelo_inurba_marseille","lat":43.31157,"lon":5.3872,"is_reserved":false,"is_disabled":false,"rental_uris":{"android":"levelo://app?vid=369c4303-b9fa-4965-80f3-84a1c0c05bfc","ios":"levelo://app?vid=369c4303-b9fa-4965-80f3-84a1c0c05bfc"},"vehicle_type_id":"4","last_reported":1761266939,"current_range_meters":22400,"station_id":"ce4bgv12rcd13ifvqcp0","pricing_plan_id":"cebpf4jnsgd1na2vs0mg"},{"bike_id":"8f18294b-1060-41ba-99d6-9eb3d9468920","system_id":"levelo_inurba_marseille","lat":43.27175,"lon":5.40993,"is_reserved":false,"is_disabled":false,"rental_uris":{"android":"levelo://app?vid=8f18294b-1060-41ba-99d6-9eb3d9468920","ios":"levelo://app?vid=8f18294b-1060-41ba-99d6-9eb3d9468920"},"vehicle_type_id":"4","last_reported":1761266939,"current_range_meters":22400,"station_id":"ce4bhl12rcd13ifvqgf0","pricing_plan_id":"cebpf4jnsgd1na2vs0mg"},{"bike_id":"d10b22fa-7672-4128-97f0-5cbf4295b17c","system_id":"levelo_inurba_marseille","lat":43.2942,"lon":5.3858,"is_reserved":false,"is_disabled":false,"rental_uris":{"android":"levelo://app?vid=d10b22fa-7672-4128-97f0-5cbf4295b17c","ios":"levelo://app?vid=d10b22fa-7672-4128-97f0-5cbf4295b17c"},"vehicle_type_id":"4","last_reported":1761266939,"current_range_meters":22400,"station_id":"","pricing_plan_id":"cebpf4jnsgd1na2vs0mg"},{"bike_id":"85831b0c-ac03-4a31-ad4b-6acd383c62ca","system_id":"levelo_inurba_marseille","lat":43.27698,"lon":5.38821,"is_reserved":false,"is_disabled":false,"rental_uris":{"android":"levelo://app?vid=85831b0c-ac03-4a31-ad4b-6acd383c62ca","ios":"levelo://app?vid=85831b0c-ac03-4a31-ad4b-6acd383c62ca"},"vehicle_type_id":"4","last_reported":1761266939,"current_range_meters":22400,"station_id":"","pricing_plan_id":"cebpf4jnsgd1na2vs0mg"},{"bike_id":"2b927774-d5c4-4f29-9e7d-871d8cfd6e3e","system_id":"levelo_inurba_marseille","lat":43.28617,"lon":5.35106,"is_reserved":false,"is_disabled":false,"rental_uris":{"android":"levelo://app?vid=2b927774-d5c4-4f29-9e7d-871d8cfd6e3e","ios":"levelo://app?vid=2b927774-d5c4-4f29-9e7d-871d8cfd6e3e"},"vehicle_type_id":"4","last_reported":1761266939,"current_range_meters":22400,"station_id":"ce4bhch2rcd13ifvqeug","pricing_plan_id":"cebpf4jnsgd1na2vs0mg"},{"bike_id":"05a41d5b-5136-4a4d-ad6a-882394cf4af1","system_id":"levelo_inurba_marseille","lat":43.27947,"lon":5.41038,"is_reserved":false,"is_disabled":false,"rental_uris":{"android":"levelo://app?vid=05a41d5b-5136-4a4d-ad6a-882394cf4af1","ios":"levelo://app?vid=05a41d5b-5136-4a4d-ad6a-882394cf4af1"},"vehicle_type_id":"4","last_reported":1761266939,"current_range_meters":22400,"station_id":"ce4bhnp2rcd13ifvqh0g","pricing_plan_id":"cebpf4jnsgd1na2vs0mg"},{"bike_id":"8091e7b3-9d7e-4720-b282-d13f220b78d1","system_id":"levelo_inurba_marseille","lat":43.268066,"lon":5.402648,"is_reserved":false,"is_disabled":false,"rental_uris":{"android":"levelo://app?vid=8091e7b3-9d7e-4720-b282-d13f220b78d1","ios":"levelo://app?vid=8091e7b3-9d7e-4720-b282-d13f220b78d1"},"vehicle_type_id":"4","last_reported":1761266939,"current_range_meters":22400,"station_id":"ce501612rcd8frsf0b60","pricing_plan_id":"cebpf4jnsgd1na2vs0mg"},{"bike_id":"ee033b22-31da-48a8-88d3-8b8e42a29a72","system_id":"levelo_inurba_marseille","lat":43.28632,"lon":5.35099,"is_reserved":false,"is_disabled":false,"rental_uris":{"android":"levelo://app?vid=ee033b22-31da-48a8-88d3-8b8e42a29a72","ios":"levelo://app?vid=ee033b22-31da-48a8-88d3-8b8e42a29a72"},"vehicle_type_id":"4","last_reported":1761266939,"current_range_meters":22400,"station_id":"ce4bhch2rcd13ifvqeug","pricing_plan_id":"cebpf4jnsgd1na2vs0mg"},{"bike_id":"eec197c3-9146-4942-bfc2-b26b699ad249","system_id":"levelo_inurba_marseille","lat":43.27948,"lon":5.41034,"is_reserved":false,"is_disabled":false,"rental_uris":{"android":"levelo://app?vid=eec197c3-9146-4942-bfc2-b26b699ad249","ios":"levelo://app?vid=eec197c3-9146-4942-bfc2-b26b699ad249"},"vehicle_type_id":"4","last_reported":1761266939,"current_range_meters":22400,"station_id":"ce4bhnp2rcd13ifvqh0g","pricing_plan_id":"cebpf4jnsgd1na2vs0mg"},{"bike_id":"f54b135b-f9d6-4b33-ab9d-0e311463ae0e","system_id":"levelo_inurba_marseille","lat":43.31693,"lon":5.40476,"is_reserved":false,"is_disabled":false,"rental_uris":{"android":"levelo://app?vid=f54b135b-f9d6-4b33-ab9d-0e311463ae0e","ios":"levelo://app?vid=f54b135b-f9d6-4b33-ab9d-0e311463ae0e"},"vehicle_type_id":"4","last_reported":1761266939,"current_range_meters":22400,"station_id":"ce4bh012rcd13ifvqd00","pricing_plan_id":"cebpf4jnsgd1na2vs0mg"},{"bike_id":"7b780362-b3ee-434c-9c61-9d1a307e3f56","system_id":"levelo_inurba_marseille","lat":43.287074,"lon":5.373785,"is_reserved":false,"is_disabled":false,"rental_uris":{"android":"levelo://app?vid=7b780362-b3ee-434c-9c61-9d1a307e3f56","ios":"levelo://app?vid=7b780362-b3ee-434c-9c61-9d1a307e3f56"},"vehicle_type_id":"4","last_reported":1761266939,"current_range_meters":22800,"station_id":"","pricing_plan_id":"cebpf4jnsgd1na2vs0mg"},{"bike_id":"194ca333-2416-42ab-8747-a3292b66d625","system_id":"levelo_inurba_marseille","lat":43.31323,"lon":5.39688,"is_reserved":false,"is_disabled":false,"rental_uris":{"android":"levelo://app?vid=194ca333-2416-42ab-8747-a3292b66d625","ios":"levelo://app?vid=194ca333-2416-42ab-8747-a3292b66d625"},"vehicle_type_id":"4","last_reported":1761266939,"current_range_meters":22800,"station_id":"ce4bgvp2rcd13ifvqcu0","pricing_plan_id":"cebpf4jnsgd1na2vs0mg"},{"bike_id":"b2e20cd2-c54c-4e77-b03f-069ffaf8b17b","system_id":"levelo_inurba_marseille","lat":43.21746,"lon":5.34607,"is_reserved":false,"is_disabled":false,"rental_uris":{"android":"levelo://app?vid=b2e20cd2-c54c-4e77-b03f-069ffaf8b17b","ios":"levelo://app?vid=b2e20cd2-c54c-4e77-b03f-069ffaf8b17b"},