{"last_updated":1746205724,"ttl":60,"version":"2.2","data":{"bikes":[{"bike_id":"587033e8-9114-4237-990e-deafe4f5ad79","system_id":"levelo_inurba_marseille","lat":43.24285,"lon":5.37067,"is_reserved":false,"is_disabled":true,"rental_uris":{"android":"levelo://app?vid=587033e8-9114-4237-990e-deafe4f5ad79","ios":"levelo://app?vid=587033e8-9114-4237-990e-deafe4f5ad79"},"vehicle_type_id":"4","last_reported":1746205724,"current_range_meters":0,"station_id":"","pricing_plan_id":"cebpf4jnsgd1na2vs0mg"},{"bike_id":"76c1809e-b03a-4489-8d04-2161a1946c9d","system_id":"levelo_inurba_marseille","lat":43.279596,"lon":5.371646,"is_reserved":false,"is_disabled":true,"rental_uris":{"android":"levelo://app?vid=76c1809e-b03a-4489-8d04-2161a1946c9d","ios":"levelo://app?vid=76c1809e-b03a-4489-8d04-2161a1946c9d"},"vehicle_type_id":"4","last_reported":1746205724,"current_range_meters":0,"station_id":"","pricing_plan_id":"cebpf4jnsgd1na2vs0mg"},{"bike_id":"a92351c9-e3af-4cc4-ba59-57d551b22d5e","system_id":"levelo_inurba_marseille","lat":43.24809,"lon":5.37458,"is_reserved":false,"is_disabled":true,"rental_uris":{"android":"levelo://app?vid=a92351c9-e3af-4cc4-ba59-57d551b22d5e","ios":"levelo://app?vid=a92351c9-e3af-4cc4-ba59-57d551b22d5e"},"vehicle_type_id":"4","last_reported":1746205724,"current_range_meters":0,"station_id":"","pricing_plan_id":"cebpf4jnsgd1na2vs0mg"},{"bike_id":"98e592b3-5fa3-4a83-b8d7-4600d55d353f","system_id":"levelo_inurba_marseille","lat":43.24657,"lon":5.43632,"is_reserved":false,"is_disabled":true,"rental_uris":{"android":"levelo://app?vid=98e592b3-5fa3-4a83-b8d7-4600d55d353f","ios":"levelo://app?vid=98e592b3-5fa3-4a83-b8d7-4600d55d353f"},"vehicle_type_id":"4","last_reported":1746205724,"current_range_meters":0,"station_id":"","pricing_plan_id":"cebpf4jnsgd1na2vs0mg"},{"bike_id":"f35a4c3e-288c-46e6-a156-ce98b822e31c","system_id":"levelo_inurba_marseille","lat":43.26037,"lon":5.37526,"is_reserved":false,"is_disabled":true,"rental_uris":{"android":"levelo://app?vid=f35a4c3e-288c-46e6-a156-ce98b822e31c","ios":"levelo://app?vid=f35a4c3e-288c-46e6-a156-ce98b822e31c"},"vehicle_type_id":"4","last_reported":1746205724,"current_range_meters":0,"station_id":"","pricing_plan_id":"cebpf4jnsgd1na2vs0mg"},{"bike_id":"27c926f4-2e8c-4fe5-8d0a-ce234b43b164","system_id":"levelo_inurba_marseille","lat":43.27876,"lon":5.38808,"is_reserved":false,"is_disabled":true,"rental_uris":{"android":"levelo://app?vid=27c926f4-2e8c-4fe5-8d0a-ce234b43b164","ios":"levelo://app?vid=27c926f4-2e8c-4fe5-8d0a-ce234b43b164"},"vehicle_type_id":"4","last_reported":1746205724,"current_range_meters":0,"station_id":"","pricing_plan_id":"cebpf4jnsgd1na2vs0mg"},{"bike_id":"de5e8179-b7d9-445c-86ef-4f3f2bda04a1","system_id":"levelo_inurba_marseille","lat":43.27892,"lon":5.38778,"is_reserved":false,"is_disabled":true,"rental_uris":{"android":"levelo://app?vid=de5e8179-b7d9-445c-86ef-4f3f2bda04a1","ios":"levelo://app?vid=de5e8179-b7d9-445c-86ef-4f3f2bda04a1"},"vehicle_type_id":"4","last_reported":1746205724,"current_range_meters":0,"station_id":"","pricing_plan_id":"cebpf4jnsgd1na2vs0mg"},{"bike_id":"eefa78c8-4f9d-4d38-a7d3-c880870c89cc","system_id":"levelo_inurba_marseille","lat":43.281085,"lon":5.398624,"is_reserved":false,"is_disabled":true,"rental_uris":{"android":"levelo://app?vid=eefa78c8-4f9d-4d38-a7d3-c880870c89cc","ios":"levelo://app?vid=eefa78c8-4f9d-4d38-a7d3-c880870c89cc"},"vehicle_type_id":"4","last_reported":1746205724,"current_range_meters":0,"station_id":"","pricing_plan_id":"cebpf4jnsgd1na2vs0mg"},{"bike_id":"f1838310-e644-4cc5-b131-598db146ee41","system_id":"levelo_inurba_marseille","lat":43.33763,"lon":5.37471,"is_reserved":false,"is_disabled":true,"rental_uris":{"android":"levelo://app?vid=f1838310-e644-4cc5-b131-598db146ee41","ios":"levelo://app?vid=f1838310-e644-4cc5-b131-598db146ee41"},"vehicle_type_id":"4","last_reported":1746205724,"current_range_meters":0,"station_id":"","pricing_plan_id":"cebpf4jnsgd1na2vs0mg"},{"bike_id":"e93b949e-1738-47f2-ad13-8f512df2ffaf","system_id":"levelo_inurba_marseille","lat":43.281455,"lon":5.443432,"is_reserved":false,"is_disabled":true,"rental_uris":{"android":"levelo://app?vid=e93b949e-1738-47f2-ad13-8f512df2ffaf","ios":"levelo://app?vid=e93b949e-1738-47f2-ad13-8f512df2ffaf"},"vehicle_type_id":"4","last_reported":1746205724,"current_range_meters":0,"station_id":"","pricing_plan_id":"cebpf4jnsgd1na2vs0mg"},{"bike_id":"5a454c36-9f9b-46d8-bfb2-9cd440271202","system_id":"levelo_inurba_marseille","lat":43.29533,"lon":5.38547,"is_reserved":false,"is_disabled":true,"rental_uris":{"android":"levelo://app?vid=5a454c36-9f9b-46d8-bfb2-9cd440271202","ios":"levelo://app?vid=5a454c36-9f9b-46d8-bfb2-9cd440271202"},"vehicle_type_id":"4","last_reported":1746205724,"current_range_meters":0,"station_id":"ce4bgih2rcd13ifvqba0","pricing_plan_id":"cebpf4jnsgd1na2vs0mg"},{"bike_id":"8102be00-3794-41c7-ac42-5f3c9795f031","system_id":"levelo_inurba_marseille","lat":43.29721,"lon":5.37709,"is_reserved":false,"is_disabled":true,"rental_uris":{"android":"levelo://app?vid=8102be00-3794-41c7-ac42-5f3c9795f031","ios":"levelo://app?vid=8102be00-3794-41c7-ac42-5f3c9795f031"},"vehicle_type_id":"4","last_reported":1746205724,"current_range_meters":0,"station_id":"ce4bgkh2rcd13ifvqbl0","pricing_plan_id":"cebpf4jnsgd1na2vs0mg"},{"bike_id":"8d6ca6b5-a486-4da1-ab74-0a1351bf042b","system_id":"levelo_inurba_marseille","lat":43.29508,"lon":5.37506,"is_reserved":false,"is_disabled":true,"rental_uris":{"android":"levelo://app?vid=8d6ca6b5-a486-4da1-ab74-0a1351bf042b","ios":"levelo://app?vid=8d6ca6b5-a486-4da1-ab74-0a1351bf042b"},"vehicle_type_id":"4","last_reported":1746205724,"current_range_meters":0,"station_id":"ce4bgkp2rcd13ifvqbmg","pricing_plan_id":"cebpf4jnsgd1na2vs0mg"},{"bike_id":"002bc463-d6b4-40f2-877d-75d37268a6dd","system_id":"levelo_inurba_marseille","lat":43.29603,"lon":5.38104,"is_reserved":false,"is_disabled":true,"rental_uris":{"android":"levelo://app?vid=002bc463-d6b4-40f2-877d-75d37268a6dd","ios":"levelo://app?vid=002bc463-d6b4-40f2-877d-75d37268a6dd"},"vehicle_type_id":"4","last_reported":1746205724,"current_range_meters":0,"station_id":"ce4bgl12rcd13ifvqbo0","pricing_plan_id":"cebpf4jnsgd1na2vs0mg"},{"bike_id":"6cc62b74-7a98-4f93-92d3-03dcffa0dccd","system_id":"levelo_inurba_marseille","lat":43.30615,"lon":5.37248,"is_reserved":false,"is_disabled":true,"rental_uris":{"android":"levelo://app?vid=6cc62b74-7a98-4f93-92d3-03dcffa0dccd","ios":"levelo://app?vid=6cc62b74-7a98-4f93-92d3-03dcffa0dccd"},"vehicle_type_id":"4","last_reported":1746205724,"current_range_meters":0,"station_id":"ce4bgqh2rcd13ifvqc4g","pricing_plan_id":"cebpf4jnsgd1na2vs0mg"},{"bike_id":"98230a92-51cd-4252-9884-5c4551b53620","system_id":"levelo_inurba_marseille","lat":43.309262,"lon":5.401368,"is_reserved":false,"is_disabled":true,"rental_uris":{"android":"levelo://app?vid=98230a92-51cd-4252-9884-5c4551b53620","ios":"levelo://app?vid=98230a92-51cd-4252-9884-5c4551b53620"},"vehicle_type_id":"4","last_reported":1746205724,"current_range_meters":0,"station_id":"ce4bgvp2rcd13ifvqct0","pricing_plan_id":"cebpf4jnsgd1na2vs0mg"},{"bike_id":"9260751d-3763-4083-bd82-e7475b7a3aeb","system_id":"levelo_inurba_marseille","lat":43.29889,"lon":5.38895,"is_reserved":false,"is_disabled":true,"rental_uris":{"android":"levelo://app?vid=9260751d-3763-4083-bd82-e7475b7a3aeb","ios":"levelo://app?vid=9260751d-3763-4083-bd82-e7475b7a3aeb"},"vehicle_type_id":"4","last_reported":1746205724,"current_range_meters":0,"station_id":"ce4bh392rcd13ifvqdl0","pricing_plan_id":"cebpf4jnsgd1na2vs0mg"},{"bike_id":"aac75b35-0a93-4930-90e0-5f98bb3bfc7f","system_id":"levelo_inurba_marseille","lat":43.28938,"lon":5.39625,"is_reserved":false,"is_disabled":true,"rental_uris":{"android":"levelo://app?vid=aac75b35-0a93-4930-90e0-5f98bb3bfc7f","ios":"levelo://app?vid=aac75b35-0a93-4930-90e0-5f98bb3bfc7f"},"vehicle_type_id":"4","last_reported":1746205724,"current_range_meters":0,"station_id":"ce4bh3h2rcd13ifvqdn0","pricing_plan_id":"cebpf4jnsgd1na2vs0mg"},{"bike_id":"4372efb8-950b-40b6-a9e8-8984bf2c690b","system_id":"levelo_inurba_marseille","lat":43.2868,"lon":5.38677,"is_reserved":false,"is_disabled":true,"rental_uris":{"android":"levelo://app?vid=4372efb8-950b-40b6-a9e8-8984bf2c690b","ios":"levelo://app?vid=4372efb8-950b-40b6-a9e8-8984bf2c690b"},"vehicle_type_id":"4","last_reported":1746205724,"current_range_meters":0,"station_id":"ce4bh492rcd13ifvqdug","pricing_plan_id":"cebpf4jnsgd1na2vs0mg"},{"bike_id":"49335357-7ab2-4ae2-9700-2677e6670c78","system_id":"levelo_inurba_marseille","lat":43.2868,"lon":5.38658,"is_reserved":false,"is_disabled":true,"rental_uris":{"android":"levelo://app?vid=49335357-7ab2-4ae2-9700-2677e6670c78","ios":"levelo://app?vid=49335357-7ab2-4ae2-9700-2677e6670c78"},"vehicle_type_id":"4","last_reported":1746205724,"current_range_meters":0,"station_id":"ce4bh492rcd13ifvqdug","pricing_plan_id":"cebpf4jnsgd1na2vs0mg"},{"bike_id":"70168eb7-748c-4080-bd44-b1be348c2cb5","system_id":"levelo_inurba_marseille","lat":43.29268,"lon":5.38437,"is_reserved":false,"is_disabled":true,"rental_uris":{"android":"levelo://app?vid=70168eb7-748c-4080-bd44-b1be348c2cb5","ios":"levelo://app?vid=70168eb7-748c-4080-bd44-b1be348c2cb5"},"vehicle_type_id":"4","last_reported":1746205724,"current_range_meters":0,"station_id":"ce4bh692rcd13ifvqea0","pricing_plan_id":"cebpf4jnsgd1na2vs0mg"},{"bike_id":"87549940-cf44-43a1-a482-765eb076f496","system_id":"levelo_inurba_marseille","lat":43.28484,"lon":5.38557,"is_reserved":false,"is_disabled":true,"rental_uris":{"android":"levelo://app?vid=87549940-cf44-43a1-a482-765eb076f496","ios":"levelo://app?vid=87549940-cf44-43a1-a482-765eb076f496"},"vehicle_type_id":"4","last_reported":1746205724,"current_range_meters":0,"station_id":"ce4bh8p2rcd13ifvqeb0","pricing_plan_id":"cebpf4jnsgd1na2vs0mg"},{"bike_id":"1dfc628e-588e-497c-b877-b12f0cb28723","system_id":"levelo_inurba_marseille","lat":43.28416,"lon":5.34983,"is_reserved":false,"is_disabled":true,"rental_uris":{"android":"levelo://app?vid=1dfc628e-588e-497c-b877-b12f0cb28723","ios":"levelo://app?vid=1dfc628e-588e-497c-b877-b12f0cb28723"},"vehicle_type_id":"4","last_reported":1746205724,"current_range_meters":0,"station_id":"ce4bhbh2rcd13ifvqepg","pricing_plan_id":"cebpf4jnsgd1na2vs0mg"},{"bike_id":"cfec35ea-f25b-471f-8f6b-0b2570616ef2","system_id":"levelo_inurba_marseille","lat":43.28616,"lon":5.35113,"is_reserved":false,"is_disabled":true,"rental_uris":{"android":"levelo://app?vid=cfec35ea-f25b-471f-8f6b-0b2570616ef2","ios":"levelo://app?vid=cfec35ea-f25b-471f-8f6b-0b2570616ef2"},"vehicle_type_id":"4","last_reported":1746205724,"current_range_meters":0,"station_id":"ce4bhch2rcd13ifvqeug","pricing_plan_id":"cebpf4jnsgd1na2vs0mg"},{"bike_id":"db00c2d1-180b-4f33-b04e-308a5556de26","system_id":"levelo_inurba_marseille","lat":43.27896,"lon":5.38004,"is_reserved":false,"is_disabled":true,"rental_uris":{"android":"levelo://app?vid=db00c2d1-180b-4f33-b04e-308a5556de26","ios":"levelo://app?vid=db00c2d1-180b-4f33-b04e-308a5556de26"},"vehicle_type_id":"4","last_reported":1746205724,"current_range_meters":0,"station_id":"ce4bhf92rcd13ifvqf50","pricing_plan_id":"cebpf4jnsgd1na2vs0mg"},{"bike_id":"26d9ad43-bf0f-4d2c-8179-c315554452ba","system_id":"levelo_inurba_marseille","lat":43.26552,"lon":5.3731,"is_reserved":false,"is_disabled":true,"rental_uris":{"android":"levelo://app?vid=26d9ad43-bf0f-4d2c-8179-c315554452ba","ios":"levelo://app?vid=26d9ad43-bf0f-4d2c-8179-c315554452ba"},"vehicle_type_id":"4","last_reported":1746205724,"current_range_meters":0,"station_id":"ce4bhg12rcd13ifvqf70","pricing_plan_id":"cebpf4jnsgd1na2vs0mg"},{"bike_id":"37b73915-5096-49c3-a9a8-a4ff7947ae13","system_id":"levelo_inurba_marseille","lat":43.27971,"lon":5.38709,"is_reserved":false,"is_disabled":true,"rental_uris":{"android":"levelo://app?vid=37b73915-5096-49c3-a9a8-a4ff7947ae13","ios":"levelo://app?vid=37b73915-5096-49c3-a9a8-a4ff7947ae13"},"vehicle_type_id":"4","last_reported":1746205724,"current_range_meters":0,"station_id":"ce4bhg12rcd13ifvqf80","pricing_plan_id":"cebpf4jnsgd1na2vs0mg"},{"bike_id":"de1c7e5d-28a6-4799-9d18-bcb33056906e","system_id":"levelo_inurba_marseille","lat":43.26209,"lon":5.37451,"is_reserved":false,"is_disabled":true,"rental_uris":{"android":"levelo://app?vid=de1c7e5d-28a6-4799-9d18-bcb33056906e","ios":"levelo://app?vid=de1c7e5d-28a6-4799-9d18-bcb33056906e"},"vehicle_type_id":"4","last_reported":1746205724,"current_range_meters":0,"station_id":"ce4bhgp2rcd13ifvqfc0","pricing_plan_id":"cebpf4jnsgd1na2vs0mg"},{"bike_id":"ddb8f148-f63f-48f7-bd79-74cf967801d3","system_id":"levelo_inurba_marseille","lat":43.26206,"lon":5.37466,"is_reserved":false,"is_disabled":true,"rental_uris":{"android":"levelo://app?vid=ddb8f148-f63f-48f7-bd79-74cf967801d3","ios":"levelo://app?vid=ddb8f148-f63f-48f7-bd79-74cf967801d3"},"vehicle_type_id":"4","last_reported":1746205724,"current_range_meters":0,"station_id":"ce4bhgp2rcd13ifvqfc0","pricing_plan_id":"cebpf4jnsgd1na2vs0mg"},{"bike_id":"f9c04a17-f1c6-46ec-9e57-af47f3420156","system_id":"levelo_inurba_marseille","lat":43.26195,"lon":5.37477,"is_reserved":false,"is_disabled":true,"rental_uris":{"android":"levelo://app?vid=f9c04a17-f1c6-46ec-9e57-af47f3420156","ios":"levelo://app?vid=f9c04a17-f1c6-46ec-9e57-af47f3420156"},"vehicle_type_id":"4","last_reported":1746205724,"current_range_meters":0,"station_id":"ce4bhgp2rcd13ifvqfc0","pricing_plan_id":"cebpf4jnsgd1na2vs0mg"},{"bike_id":"a47a1459-e4a3-4542-92dc-c28dfd8866ba","system_id":"levelo_inurba_marseille","lat":43.27321,"lon":5.39095,"is_reserved":false,"is_disabled":true,"rental_uris":{"android":"levelo://app?vid=a47a1459-e4a3-4542-92dc-c28dfd8866ba","ios":"levelo://app?vid=a47a1459-e4a3-4542-92dc-c28dfd8866ba"},"vehicle_type_id":"4","last_reported":1746205724,"current_range_meters":0,"station_id":"ce4bhgp2rcd13ifvqfe0","pricing_plan_id":"cebpf4jnsgd1na2vs0mg"},{"bike_id":"034e3b9f-57be-4ed5-a354-96a75fe54216","system_id":"levelo_inurba_marseille","lat":43.25518,"lon":5.37668,"is_reserved":false,"is_disabled":true,"rental_uris":{"android":"levelo://app?vid=034e3b9f-57be-4ed5-a354-96a75fe54216","ios":"levelo://app?vid=034e3b9f-57be-4ed5-a354-96a75fe54216"},"vehicle_type_id":"4","last_reported":1746205724,"current_range_meters":0,"station_id":"ce4bhh12rcd13ifvqff0","pricing_plan_id":"cebpf4jnsgd1na2vs0mg"},{"bike_id":"1f8898e7-bea5-41b2-a434-3be3c4f37cd8","system_id":"levelo_inurba_marseille","lat":43.25832,"lon":5.39434,"is_reserved":false,"is_disabled":true,"rental_uris":{"android":"levelo://app?vid=1f8898e7-bea5-41b2-a434-3be3c4f37cd8","ios":"levelo://app?vid=1f8898e7-bea5-41b2-a434-3be3c4f37cd8"},"vehicle_type_id":"4","last_reported":1746205724,"current_range_meters":0,"station_id":"ce4bhip2rcd13ifvqft0","pricing_plan_id":"cebpf4jnsgd1na2vs0mg"},{"bike_id":"6af8a34e-6c33-41ce-9b46-65ef56065b8a","system_id":"levelo_inurba_marseille","lat":43.27068,"lon":5.42283,"is_reserved":false,"is_disabled":true,"rental_uris":{"android":"levelo://app?vid=6af8a34e-6c33-41ce-9b46-65ef56065b8a","ios":"levelo://app?vid=6af8a34e-6c33-41ce-9b46-65ef56065b8a"},"vehicle_type_id":"4","last_reported":1746205724,"current_range_meters":0,"station_id":"ce4bhk92rcd13ifvqgb0","pricing_plan_id":"cebpf4jnsgd1na2vs0mg"},{"bike_id":"46d0cdf1-6ea4-4933-a5c2-7054c944ac7e","system_id":"levelo_inurba_marseille","lat":43.27048,"lon":5.40264,"is_reserved":false,"is_disabled":true,"rental_uris":{"android":"levelo://app?vid=46d0cdf1-6ea4-4933-a5c2-7054c944ac7e","ios":"levelo://app?vid=46d0cdf1-6ea4-4933-a5c2-7054c944ac7e"},"vehicle_type_id":"4","last_reported":1746205724,"current_range_meters":0,"station_id":"ce4bhk92rcd13ifvqgc0","pricing_plan_id":"cebpf4jnsgd1na2vs0mg"},{"bike_id":"055b5ebf-ad6b-4357-ac60-44d1ff77d865","system_id":"levelo_inurba_marseille","lat":43.25729,"lon":5.41109,"is_reserved":false,"is_disabled":true,"rental_uris":{"android":"levelo://app?vid=055b5ebf-ad6b-4357-ac60-44d1ff77d865","ios":"levelo://app?vid=055b5ebf-ad6b-4357-ac60-44d1ff77d865"},"vehicle_type_id":"4","last_reported":1746205724,"current_range_meters":0,"station_id":"ce4bhkp2rcd13ifvqgd0","pricing_plan_id":"cebpf4jnsgd1na2vs0mg"},{"bike_id":"a7da839c-8cd7-4858-8d63-a5c3fb97170a","system_id":"levelo_inurba_marseille","lat":43.25671,"lon":5.41111,"is_reserved":false,"is_disabled":true,"rental_uris":{"android":"levelo://app?vid=a7da839c-8cd7-4858-8d63-a5c3fb97170a","ios":"levelo://app?vid=a7da839c-8cd7-4858-8d63-a5c3fb97170a"},"vehicle_type_id":"4","last_reported":1746205724,"current_range_meters":0,"station_id":"ce4bhkp2rcd13ifvqgd0","pricing_plan_id":"cebpf4jnsgd1na2vs0mg"},{"bike_id":"3c76e53e-9aa2-4c7e-ae93-8b833d54d3a9","system_id":"levelo_inurba_marseille","lat":43.2587,"lon":5.39902,"is_reserved":false,"is_disabled":true,"rental_uris":{"android":"levelo://app?vid=3c76e53e-9aa2-4c7e-ae93-8b833d54d3a9","ios":"levelo://app?vid=3c76e53e-9aa2-4c7e-ae93-8b833d54d3a9"},"vehicle_type_id":"4","last_reported":1746205724,"current_range_meters":0,"station_id":"ce4bhl92rcd13ifvqghg","pricing_plan_id":"cebpf4jnsgd1na2vs0mg"},{"bike_id":"848ed649-836b-4f42-af8d-5b11b102dc56","system_id":"levelo_inurba_marseille","lat":43.24204,"lon":5.39763,"is_reserved":false,"is_disabled":true,"rental_uris":{"android":"levelo://app?vid=848ed649-836b-4f42-af8d-5b11b102dc56","ios":"levelo://app?vid=848ed649-836b-4f42-af8d-5b11b102dc56"},"vehicle_type_id":"4","last_reported":1746205724,"current_range_meters":0,"station_id":"ce4bhn12rcd13ifvqgpg","pricing_plan_id":"cebpf4jnsgd1na2vs0mg"},{"bike_id":"8b49ec6f-88be-45e4-bbfc-a0f511c2133b","system_id":"levelo_inurba_marseille","lat":43.3041,"lon":5.410707,"is_reserved":false,"is_disabled":true,"rental_uris":{"android":"levelo://app?vid=8b49ec6f-88be-45e4-bbfc-a0f511c2133b","ios":"levelo://app?vid=8b49ec6f-88be-45e4-bbfc-a0f511c2133b"},"vehicle_type_id":"4","last_reported":1746205724,"current_range_meters":0,"station_id":"ce4bhop2rcd13ifvqh8g","pricing_plan_id":"cebpf4jnsgd1na2vs0mg"},{"bike_id":"6e04917b-145a-4a0a-8f23-9524c7dc068c","system_id":"levelo_inurba_marseille","lat":43.31749,"lon":5.39026,"is_reserved":false,"is_disabled":true,"rental_uris":{"android":"levelo://app?vid=6e04917b-145a-4a0a-8f23-9524c7dc068c","ios":"levelo://app?vid=6e04917b-145a-4a0a-8f23-9524c7dc068c"},"vehicle_type_id":"4","last_reported":1746205724,"current_range_meters":0,"station_id":"ce4bhqp2rcd13ifvqhng","pricing_plan_id":"cebpf4jnsgd1na2vs0mg"},{"bike_id":"1cc70f5c-2626-4e08-ae4e-42a1969550bd","system_id":"levelo_inurba_marseille","lat":43.28721,"lon":5.36093,"is_reserved":false,"is_disabled":true,"rental_uris":{"android":"levelo://app?vid=1cc70f5c-2626-4e08-ae4e-42a1969550bd","ios":"levelo://app?vid=1cc70f5c-2626-4e08-ae4e-42a1969550bd"},"vehicle_type_id":"4","last_reported":1746205724,"current_range_meters":0,"station_id":"cki0cbj6b192h4jlfktg","pricing_plan_id":"cebpf4jnsgd1na2vs0mg"},{"bike_id":"e336b0c2-a2be-4eca-b6c2-a513a8ae7843","system_id":"levelo_inurba_marseille","lat":43.21756,"lon":5.34602,"is_reserved":false,"is_disabled":true,"rental_uris":{"android":"levelo://app?vid=e336b0c2-a2be-4eca-b6c2-a513a8ae7843","ios":"levelo://app?vid=e336b0c2-a2be-4eca-b6c2-a513a8ae7843"},"vehicle_type_id":"4","last_reported":1746205724,"current_range_meters":0,"station_id":"st_cvj6r9ubvosntc0bgbag","pricing_plan_id":"cebpf4jnsgd1na2vs0mg"},{"bike_id":"3ecf66e2-44b6-472c-af09-0855bf590a80","system_id":"levelo_inurba_marseille","lat":43.21752,"lon":5.34646,"is_reserved":false,"is_disabled":true,"rental_uris":{"android":"levelo://app?vid=3ecf66e2-44b6-472c-af09-0855bf590a80","ios":"levelo://app?vid=3ecf66e2-44b6-472c-af09-0855bf590a80"},"vehicle_type_id":"4","last_reported":1746205724,"current_range_meters":0,"station_id":"st_cvj6r9ubvosntc0bgbag","pricing_plan_id":"cebpf4jnsgd1na2vs0mg"},{"bike_id":"02ef3096-14c5-4060-a88c-c36fcdf56e5a","system_id":"levelo_inurba_marseille","lat":43.21759,"lon":5.34604,"is_reserved":false,"is_disabled":true,"rental_uris":{"android":"levelo://app?vid=02ef3096-14c5-4060-a88c-c36fcdf56e5a","ios":"levelo://app?vid=02ef3096-14c5-4060-a88c-c36fcdf56e5a"},"vehicle_type_id":"4","last_reported":1746205724,"current_range_meters":0,"station_id":"st_cvj6r9ubvosntc0bgbag","pricing_plan_id":"cebpf4jnsgd1na2vs0mg"},{"bike_id":"dcf471e5-50d7-4c6d-8c76-01b9d58b8521","system_id":"levelo_inurba_marseille","lat":43.21753,"lon":5.34611,"is_reserved":false,"is_disabled":true,"rental_uris":{"android":"levelo://app?vid=dcf471e5-50d7-4c6d-8c76-01b9d58b8521","ios":"levelo://app?vid=dcf471e5-50d7-4c6d-8c76-01b9d58b8521"},"vehicle_type_id":"4","last_reported":1746205724,"current_range_meters":400,"station_id":"","pricing_plan_id":"cebpf4jnsgd1na2vs0mg"},{"bike_id":"d44b8e4c-0f01-4fe3-93fe-f4ef355acc04","system_id":"levelo_inurba_marseille","lat":43.29845,"lon":5.36275,"is_reserved":false,"is_disabled":true,"rental_uris":{"android":"levelo://app?vid=d44b8e4c-0f01-4fe3-93fe-f4ef355acc04","ios":"levelo://app?vid=d44b8e4c-0f01-4fe3-93fe-f4ef355acc04"},"vehicle_type_id":"4","last_reported":1746205724,"current_range_meters":400,"station_id":"ce4bgpp2rcd13ifvqc3g","pricing_plan_id":"cebpf4jnsgd1na2vs0mg"},{"bike_id":"45c4ef28-b139-49c0-8e20-f728fdd58d93","system_id":"levelo_inurba_marseille","lat":43.31076,"lon":5.38354,"is_reserved":false,"is_disabled":true,"rental_uris":{"android":"levelo://app?vid=45c4ef28-b139-49c0-8e20-f728fdd58d93","ios":"levelo://app?vid=45c4ef28-b139-49c0-8e20-f728fdd58d93"},"vehicle_type_id":"4","last_reported":1746205724,"current_range_meters":400,"station_id":"ce4bgv92rcd13ifvqcr0","pricing_plan_id":"cebpf4jnsgd1na2vs0mg"},{"bike_id":"5d236ce3-2ace-45e4-a680-c9db3beb1983","system_id":"levelo_inurba_marseille","lat":43.29413,"lon":5.38622,"is_reserved":false,"is_disabled":true,"rental_uris":{"android":"levelo://app?vid=5d236ce3-2ace-45e4-a680-c9db3beb1983","ios":"levelo://app?vid=5d236ce3-2ace-45e4-a680-c9db3beb1983"},"vehicle_type_id":"4","last_reported":1746205724,"current_range_meters":400,"station_id":"ce4bh2h2rcd13ifvqdh0","pricing_plan_id":"cebpf4jnsgd1na2vs0mg"},{"bike_id":"b796af8a-dab7-41fd-9b38-76f7b69d4711","system_id":"levelo_inurba_marseille","lat":43.29027,"lon":5.3865,"is_reserved":false,"is_disabled":true,"rental_uris":{"android":"levelo://app?vid=b796af8a-dab7-41fd-9b38-76f7b69d4711","ios":"levelo://app?vid=b796af8a-dab7-41fd-9b38-76f7b69d4711"},"vehicle_type_id":"4","last_reported":1746205724,"current_range_meters":400,"station_id":"ce4bh4p2rcd13ifvqe0g","pricing_plan_id":"cebpf4jnsgd1na2vs0mg"},{"bike_id":"42c30a78-73d9-4cf1-a729-f9c6f19ccb80","system_id":"levelo_inurba_marseille","lat":43.2927,"lon":5.38433,"is_reserved":false,"is_disabled":true,"rental_uris":{"android":"levelo://app?vid=42c30a78-73d9-4cf1-a729-f9c6f19ccb80","ios":"levelo://app?vid=42c30a78-73d9-4cf1-a729-f9c6f19ccb80"},"vehicle_type_id":"4","last_reported":1746205724,"current_range_meters":400,"station_id":"ce4bh692rcd13ifvqea0","pricing_plan_id":"cebpf4jnsgd1na2vs0mg"},{"bike_id":"66892b27-e310-48b0-9b88-176b66bb5558","system_id":"levelo_inurba_marseille","lat":43.28463,"lon":5.35895,"is_reserved":false,"is_disabled":true,"rental_uris":{"android":"levelo://app?vid=66892b27-e310-48b0-9b88-176b66bb5558","ios":"levelo://app?vid=66892b27-e310-48b0-9b88-176b66bb5558"},"vehicle_type_id":"4","last_reported":1746205724,"current_range_meters":400,"station_id":"ce4bhah2rcd13ifvqei0","pricing_plan_id":"cebpf4jnsgd1na2vs0mg"},{"bike_id":"6362d660-4560-4995-9041-63ec95d5390c","system_id":"levelo_inurba_marseille","lat":43.27924,"lon":5.39569,"is_reserved":false,"is_disabled":true,"rental_uris":{"android":"levelo://app?vid=6362d660-4560-4995-9041-63ec95d5390c","ios":"levelo://app?vid=6362d660-4560-4995-9041-63ec95d5390c"},"vehicle_type_id":"4","last_reported":1746205724,"current_range_meters":400,"station_id":"ce4bhf92rcd13ifvqf40","pricing_plan_id":"cebpf4jnsgd1na2vs0mg"},{"bike_id":"d29a6ac2-df21-4546-8a48-9bdef78a8008","system_id":"levelo_inurba_marseille","lat":43.27316,"lon":5.39125,"is_reserved":false,"is_disabled":true,"rental_uris":{"android":"levelo://app?vid=d29a6ac2-df21-4546-8a48-9bdef78a8008","ios":"levelo://app?vid=d29a6ac2-df21-4546-8a48-9bdef78a8008"},"vehicle_type_id":"4","last_reported":1746205724,"current_range_meters":400,"station_id":"ce4bhgp2rcd13ifvqfe0","pricing_plan_id":"cebpf4jnsgd1na2vs0mg"},{"bike_id":"a9271c4c-cb08-419c-89df-c865809695a8","system_id":"levelo_inurba_marseille","lat":43.21759,"lon":5.34574,"is_reserved":false,"is_disabled":true,"rental_uris":{"android":"levelo://app?vid=a9271c4c-cb08-419c-89df-c865809695a8","ios":"levelo://app?vid=a9271c4c-cb08-419c-89df-c865809695a8"},"vehicle_type_id":"4","last_reported":1746205724,"current_range_meters":400,"station_id":"st_cvj6r9ubvosntc0bgbag","pricing_plan_id":"cebpf4jnsgd1na2vs0mg"},{"bike_id":"5836f629-42a0-453c-af9f-2034d1c8e33f","system_id":"levelo_inurba_marseille","lat":43.2991,"lon":5.37476,"is_reserved":false,"is_disabled":true,"rental_uris":{"android":"levelo://app?vid=5836f629-42a0-453c-af9f-2034d1c8e33f","ios":"levelo://app?vid=5836f629-42a0-453c-af9f-2034d1c8e33f"},"vehicle_type_id":"4","last_reported":1746205724,"current_range_meters":800,"station_id":"ce4bgjh2rcd13ifvqbg0","pricing_plan_id":"cebpf4jnsgd1na2vs0mg"},{"bike_id":"eff93a86-4266-4c4a-98db-7a8b421bf4da","system_id":"levelo_inurba_marseille","lat":43.30541,"lon":5.36551,"is_reserved":false,"is_disabled":true,"rental_uris":{"android":"levelo://app?vid=eff93a86-4266-4c4a-98db-7a8b421bf4da","ios":"levelo://app?vid=eff93a86-4266-4c4a-98db-7a8b421bf4da"},"vehicle_type_id":"4","last_reported":1746205724,"current_range_meters":800,"station_id":"ce4bgs12rcd13ifvqcag","pricing_plan_id":"cebpf4jnsgd1na2vs0mg"},{"bike_id":"df59d905-cea2-476b-8028-11899283be50","system_id":"levelo_inurba_marseille","lat":43.29528,"lon":5.39398,"is_reserved":false,"is_disabled":true,"rental_uris":{"android":"levelo://app?vid=df59d905-cea2-476b-8028-11899283be50","ios":"levelo://app?vid=df59d905-cea2-476b-8028-11899283be50"},"vehicle_type_id":"4","last_reported":1746205724,"current_range_meters":800,"station_id":"ce4bh292rcd13ifvqdf0","pricing_plan_id":"cebpf4jnsgd1na2vs0mg"},{"bike_id":"7e137d42-1fcf-48af-b213-b431f03c5aa2","system_id":"levelo_inurba_marseille","lat":43.29221,"lon":5.36074,"is_reserved":false,"is_disabled":true,"rental_uris":{"android":"levelo://app?vid=7e137d42-1fcf-48af-b213-b431f03c5aa2","ios":"levelo://app?vid=7e137d42-1fcf-48af-b213-b431f03c5aa2"},"vehicle_type_id":"4","last_reported":1746205724,"current_range_meters":800,"station_id":"ce4bhbh2rcd13ifvqeqg","pricing_plan_id":"cebpf4jnsgd1na2vs0mg"},{"bike_id":"b1df04ab-06bd-4724-b4bb-23cb9a36c2af","system_id":"levelo_inurba_marseille","lat":43.24659,"lon":5.3816,"is_reserved":false,"is_disabled":true,"rental_uris":{"android":"levelo://app?vid=b1df04ab-06bd-4724-b4bb-23cb9a36c2af","ios":"levelo://app?vid=b1df04ab-06bd-4724-b4bb-23cb9a36c2af"},"vehicle_type_id":"4","last_reported":1746205724,"current_range_meters":800,"station_id":"ce4bhih2rcd13ifvqfr0","pricing_plan_id":"cebpf4jnsgd1na2vs0mg"},{"bike_id":"57feff72-88ab-4326-8b3b-1491a262d53a","system_id":"levelo_inurba_marseille","lat":43.25579,"lon":5.38251,"is_reserved":false,"is_disabled":true,"rental_uris":{"android":"levelo://app?vid=57feff72-88ab-4326-8b3b-1491a262d53a","ios":"levelo://app?vid=57feff72-88ab-4326-8b3b-1491a262d53a"},"vehicle_type_id":"4","last_reported":1746205724,"current_range_meters":800,"station_id":"ce4bhih2rcd13ifvqfs0","pricing_plan_id":"cebpf4jnsgd1na2vs0mg"},{"bike_id":"0ed35af7-da66-4d8d-b595-f5e067c98b15","system_id":"levelo_inurba_marseille","lat":43.27092,"lon":5.40291,"is_reserved":false,"is_disabled":true,"rental_uris":{"android":"levelo://app?vid=0ed35af7-da66-4d8d-b595-f5e067c98b15","ios":"levelo://app?vid=0ed35af7-da66-4d8d-b595-f5e067c98b15"},"vehicle_type_id":"4","last_reported":1746205724,"current_range_meters":800,"station_id":"ce4bhk92rcd13ifvqgc0","pricing_plan_id":"cebpf4jnsgd1na2vs0mg"},{"bike_id":"7f770ba9-2e48-47c9-8bb4-942855273bad","system_id":"levelo_inurba_marseille","lat":43.25351,"lon":5.4241,"is_reserved":false,"is_disabled":true,"rental_uris":{"android":"levelo://app?vid=7f770ba9-2e48-47c9-8bb4-942855273bad","ios":"levelo://app?vid=7f770ba9-2e48-47c9-8bb4-942855273bad"},"vehicle_type_id":"4","last_reported":1746205724,"current_range_meters":1200,"station_id":"","pricing_plan_id":"cebpf4jnsgd1na2vs0mg"},{"bike_id":"969072b9-6424-40ed-bea6-08fe64752c8c","system_id":"levelo_inurba_marseille","lat":43.30955,"lon":5.39037,"is_reserved":false,"is_disabled":true,"rental_uris":{"android":"levelo://app?vid=969072b9-6424-40ed-bea6-08fe64752c8c","ios":"levelo://app?vid=969072b9-6424-40ed-bea6-08fe64752c8c"},"vehicle_type_id":"4","last_reported":1746205724,"current_range_meters":1200,"station_id":"ce4bgup2rcd13ifvqco0","pricing_plan_id":"cebpf4jnsgd1na2vs0mg"},{"bike_id":"190f5542-e0b9-43ec-a8f6-713dccc993eb","system_id":"levelo_inurba_marseille","lat":43.28453,"lon":5.35905,"is_reserved":false,"is_disabled":true,"rental_uris":{"android":"levelo://app?vid=190f5542-e0b9-43ec-a8f6-713dccc993eb","ios":"levelo://app?vid=190f5542-e0b9-43ec-a8f6-713dccc993eb"},"vehicle_type_id":"4","last_reported":1746205724,"current_range_meters":1200,"station_id":"ce4bhah2rcd13ifvqei0","pricing_plan_id":"cebpf4jnsgd1na2vs0mg"},{"bike_id":"f4535027-7c5b-445f-8dbc-49c08bfd408a","system_id":"levelo_inurba_marseille","lat":43.27808,"lon":5.40708,"is_reserved":false,"is_disabled":true,"rental_uris":{"android":"levelo://app?vid=f4535027-7c5b-445f-8dbc-49c08bfd408a","ios":"levelo://app?vid=f4535027-7c5b-445f-8dbc-49c08bfd408a"},"vehicle_type_id":"4","last_reported":1746205724,"current_range_meters":1200,"station_id":"ce4bhnh2rcd13ifvqgtg","pricing_plan_id":"cebpf4jnsgd1na2vs0mg"},{"bike_id":"a55fd52f-b9fe-4820-804e-96116d09ab21","system_id":"levelo_inurba_marseille","lat":43.28451,"lon":5.39207,"is_reserved":false,"is_disabled":true,"rental_uris":{"android":"levelo://app?vid=a55fd52f-b9fe-4820-804e-96116d09ab21","ios":"levelo://app?vid=a55fd52f-b9fe-4820-804e-96116d09ab21"},"vehicle_type_id":"4","last_reported":1746205724,"current_range_meters":1200,"station_id":"ce4bhoh2rcd13ifvqh5g","pricing_plan_id":"cebpf4jnsgd1na2vs0mg"},{"bike_id":"6c46ef9c-d03a-4386-a9f6-fbf102c1de23","system_id":"levelo_inurba_marseille","lat":43.30128,"lon":5.38783,"is_reserved":false,"is_disabled":true,"rental_uris":{"android":"levelo://app?vid=6c46ef9c-d03a-4386-a9f6-fbf102c1de23","ios":"levelo://app?vid=6c46ef9c-d03a-4386-a9f6-fbf102c1de23"},"vehicle_type_id":"4","last_reported":1746205724,"current_range_meters":1600,"station_id":"ce4bghh2rcd13ifvqb60","pricing_plan_id":"cebpf4jnsgd1na2vs0mg"},{"bike_id":"74cbac0c-8072-4106-8d6a-cf4074bdec56","system_id":"levelo_inurba_marseille","lat":43.293744,"lon":5.376653,"is_reserved":false,"is_disabled":true,"rental_uris":{"android":"levelo://app?vid=74cbac0c-8072-4106-8d6a-cf4074bdec56","ios":"levelo://app?vid=74cbac0c-8072-4106-8d6a-cf4074bdec56"},"vehicle_type_id":"4","last_reported":1746205724,"current_range_meters":1600,"station_id":"ce4bgi92rcd13ifvqb90","pricing_plan_id":"cebpf4jnsgd1na2vs0mg"},{"bike_id":"4abbb307-98c6-462c-96e7-71fa9b6619ba","system_id":"levelo_inurba_marseille","lat":43.29918,"lon":5.37483,"is_reserved":false,"is_disabled":true,"rental_uris":{"android":"levelo://app?vid=4abbb307-98c6-462c-96e7-71fa9b6619ba","ios":"levelo://app?vid=4abbb307-98c6-462c-96e7-71fa9b6619ba"},"vehicle_type_id":"4","last_reported":1746205724,"current_range_meters":1600,"station_id":"ce4bgjh2rcd13ifvqbg0","pricing_plan_id":"cebpf4jnsgd1na2vs0mg"},{"bike_id":"10831e8f-0482-423c-98de-f101b43c51e4","system_id":"levelo_inurba_marseille","lat":43.30431,"lon":5.38889,"is_reserved":false,"is_disabled":true,"rental_uris":{"android":"levelo://app?vid=10831e8f-0482-423c-98de-f101b43c51e4","ios":"levelo://app?vid=10831e8f-0482-423c-98de-f101b43c51e4"},"vehicle_type_id":"4","last_reported":1746205724,"current_range_meters":1600,"station_id":"ce4bgk12rcd13ifvqbi0","pricing_plan_id":"cebpf4jnsgd1na2vs0mg"},{"bike_id":"b761fdfa-e11c-4065-95dd-8518c757b085","system_id":"levelo_inurba_marseille","lat":43.29702,"lon":5.36611,"is_reserved":false,"is_disabled":true,"rental_uris":{"android":"levelo://app?vid=b761fdfa-e11c-4065-95dd-8518c757b085","ios":"levelo://app?vid=b761fdfa-e11c-4065-95dd-8518c757b085"},"vehicle_type_id":"4","last_reported":1746205724,"current_range_meters":1600,"station_id":"ce4bgn12rcd13ifvqbt0","pricing_plan_id":"cebpf4jnsgd1na2vs0mg"},{"bike_id":"5132b8ee-88fd-4f36-8b36-5ab09db28d4b","system_id":"levelo_inurba_marseille","lat":43.284895,"lon":5.384127,"is_reserved":false,"is_disabled":true,"rental_uris":{"android":"levelo://app?vid=5132b8ee-88fd-4f36-8b36-5ab09db28d4b","ios":"levelo://app?vid=5132b8ee-88fd-4f36-8b36-5ab09db28d4b"},"vehicle_type_id":"4","last_reported":1746205724,"current_range_meters":1600,"station_id":"ce4bh512rcd13ifvqe3g","pricing_plan_id":"cebpf4jnsgd1na2vs0mg"},{"bike_id":"ae0f02af-c3cd-4e13-b9f6-4a21593eece8","system_id":"levelo_inurba_marseille","lat":43.28933,"lon":5.36642,"is_reserved":false,"is_disabled":true,"rental_uris":{"android":"levelo://app?vid=ae0f02af-c3cd-4e13-b9f6-4a21593eece8","ios":"levelo://app?vid=ae0f02af-c3cd-4e13-b9f6-4a21593eece8"},"vehicle_type_id":"4","last_reported":1746205724,"current_range_meters":1600,"station_id":"ce4bhap2rcd13ifvqek0","pricing_plan_id":"cebpf4jnsgd1na2vs0mg"},{"bike_id":"9cf7ec43-f4b8-4562-b808-b3f66c875f54","system_id":"levelo_inurba_marseille","lat":43.292768,"lon":5.368444,"is_reserved":false,"is_disabled":true,"rental_uris":{"android":"levelo://app?vid=9cf7ec43-f4b8-4562-b808-b3f66c875f54","ios":"levelo://app?vid=9cf7ec43-f4b8-4562-b808-b3f66c875f54"},"vehicle_type_id":"4","last_reported":1746205724,"current_range_meters":1600,"station_id":"ce4bhbh2rcd13ifvqeqg","pricing_plan_id":"cebpf4jnsgd1na2vs0mg"},{"bike_id":"76abcc51-d24a-4c1b-8df3-cc5f57315a25","system_id":"levelo_inurba_marseille","lat":43.28269,"lon":5.35064,"is_reserved":false,"is_disabled":true,"rental_uris":{"android":"levelo://app?vid=76abcc51-d24a-4c1b-8df3-cc5f57315a25","ios":"levelo://app?vid=76abcc51-d24a-4c1b-8df3-cc5f57315a25"},"vehicle_type_id":"4","last_reported":1746205724,"current_range_meters":1600,"station_id":"ce4bhbp2rcd13ifvqerg","pricing_plan_id":"cebpf4jnsgd1na2vs0mg"},{"bike_id":"2575a826-3e21-4da6-9273-d9a4fb1afd62","system_id":"levelo_inurba_marseille","lat":43.27564,"lon":5.38412,"is_reserved":false,"is_disabled":true,"rental_uris":{"android":"levelo://app?vid=2575a826-3e21-4da6-9273-d9a4fb1afd62","ios":"levelo://app?vid=2575a826-3e21-4da6-9273-d9a4fb1afd62"},"vehicle_type_id":"4","last_reported":1746205724,"current_range_meters":1600,"station_id":"ce4bhh92rcd13ifvqfi0","pricing_plan_id":"cebpf4jnsgd1na2vs0mg"},{"bike_id":"bfb0598e-6ea9-4895-8ff7-3d5817b05008","system_id":"levelo_inurba_marseille","lat":43.25112,"lon":5.40323,"is_reserved":false,"is_disabled":true,"rental_uris":{"android":"levelo://app?vid=bfb0598e-6ea9-4895-8ff7-3d5817b05008","ios":"levelo://app?vid=bfb0598e-6ea9-4895-8ff7-3d5817b05008"},"vehicle_type_id":"4","last_reported":1746205724,"current_range_meters":1600,"station_id":"ce4bhlh2rcd13ifvqgig","pricing_plan_id":"cebpf4jnsgd1na2vs0mg"},{"bike_id":"4e4c45ad-719e-46bd-aa4b-448236c5ef0e","system_id":"levelo_inurba_marseille","lat":43.23184,"lon":5.39997,"is_reserved":false,"is_disabled":true,"rental_uris":{"android":"levelo://app?vid=4e4c45ad-719e-46bd-aa4b-448236c5ef0e","ios":"levelo://app?vid=4e4c45ad-719e-46bd-aa4b-448236c5ef0e"},"vehicle_type_id":"4","last_reported":1746205724,"current_range_meters":1600,"station_id":"ce4bhn12rcd13ifvqgqg","pricing_plan_id":"cebpf4jnsgd1na2vs0mg"},{"bike_id":"718b6a82-24d3-4529-8e04-1196dbaf2857","system_id":"levelo_inurba_marseille","lat":43.31168,"lon":5.38717,"is_reserved":false,"is_disabled":true,"rental_uris":{"android":"levelo://app?vid=718b6a82-24d3-4529-8e04-1196dbaf2857","ios":"levelo://app?vid=718b6a82-24d3-4529-8e04-1196dbaf2857"},"vehicle_type_id":"4","last_reported":1746205724,"current_range_meters":2000,"station_id":"ce4bgv12rcd13ifvqcp0","pricing_plan_id":"cebpf4jnsgd1na2vs0mg"},{"bike_id":"415418a9-fe48-450e-9d65-e60a50d801fc","system_id":"levelo_inurba_marseille","lat":43.30652,"lon":5.40105,"is_reserved":false,"is_disabled":true,"rental_uris":{"android":"levelo://app?vid=415418a9-fe48-450e-9d65-e60a50d801fc","ios":"levelo://app?vid=415418a9-fe48-450e-9d65-e60a50d801fc"},"vehicle_type_id":"4","last_reported":1746205724,"current_range_meters":2000,"station_id":"ce4bh112rcd13ifvqda0","pricing_plan_id":"cebpf4jnsgd1na2vs0mg"},{"bike_id":"19cc76b4-1ecd-4bf4-86ec-c0fc62ad3152","system_id":"levelo_inurba_marseille","lat":43.29418,"lon":5.38631,"is_reserved":false,"is_disabled":true,"rental_uris":{"android":"levelo://app?vid=19cc76b4-1ecd-4bf4-86ec-c0fc62ad3152","ios":"levelo://app?vid=19cc76b4-1ecd-4bf4-86ec-c0fc62ad3152"},"vehicle_type_id":"4","last_reported":1746205724,"current_range_meters":2000,"station_id":"ce4bh2h2rcd13ifvqdh0","pricing_plan_id":"cebpf4jnsgd1na2vs0mg"},{"bike_id":"03c1e5ce-3258-47d9-a90b-e6151cb1dfb7","system_id":"levelo_inurba_marseille","lat":43.29535,"lon":5.38559,"is_reserved":false,"is_disabled":false,"rental_uris":{"android":"levelo://app?vid=03c1e5ce-3258-47d9-a90b-e6151cb1dfb7","ios":"levelo://app?vid=03c1e5ce-3258-47d9-a90b-e6151cb1dfb7"},"vehicle_type_id":"4","last_reported":1746205724,"current_range_meters":2800,"station_id":"ce4bgih2rcd13ifvqba0","pricing_plan_id":"cebpf4jnsgd1na2vs0mg"},{"bike_id":"feea5c31-c725-4c4f-b34b-56e9ee8452d1","system_id":"levelo_inurba_marseille","lat":43.29787,"lon":5.37105,"is_reserved":false,"is_disabled":false,"rental_uris":{"android":"levelo://app?vid=feea5c31-c725-4c4f-b34b-56e9ee8452d1","ios":"levelo://app?vid=feea5c31-c725-4c4f-b34b-56e9ee8452d1"},"vehicle_type_id":"4","last_reported":1746205724,"current_range_meters":2800,"station_id":"ce4bgop2rcd13ifvqc1g","pricing_plan_id":"cebpf4jnsgd1na2vs0mg"},{"bike_id":"cf06bd73-c1ab-45bf-813d-46666b994258","system_id":"levelo_inurba_marseille","lat":43.290015,"lon":5.381489,"is_reserved":false,"is_disabled":false,"rental_uris":{"android":"levelo://app?vid=cf06bd73-c1ab-45bf-813d-46666b994258","ios":"levelo://app?vid=cf06bd73-c1ab-45bf-813d-46666b994258"},"vehicle_type_id":"4","last_reported":1746205724,"current_range_meters":2800,"station_id":"ce4bh4p2rcd13ifvqe1g","pricing_plan_id":"cebpf4jnsgd1na2vs0mg"},{"bike_id":"fdee573b-fa8e-4ac5-a29b-cd45430a021d","system_id":"levelo_inurba_marseille","lat":43.243909,"lon":5.370618,"is_reserved":false,"is_disabled":false,"rental_uris":{"android":"levelo://app?vid=fdee573b-fa8e-4ac5-a29b-cd45430a021d","ios":"levelo://app?vid=fdee573b-fa8e-4ac5-a29b-cd45430a021d"},"vehicle_type_id":"4","last_reported":1746205724,"current_range_meters":2800,"station_id":"ce4bhhh2rcd13ifvqfk0","pricing_plan_id":"cebpf4jnsgd1na2vs0mg"},{"bike_id":"41649255-c38b-42cb-ae7f-67f2787c354c","system_id":"levelo_inurba_marseille","lat":43.237676,"lon":5.435712,"is_reserved":false,"is_disabled":false,"rental_uris":{"android":"levelo://app?vid=41649255-c38b-42cb-ae7f-67f2787c354c","ios":"levelo://app?vid=41649255-c38b-42cb-ae7f-67f2787c354c"},"vehicle_type_id":"4","last_reported":1746205724,"current_range_meters":3200,"station_id":"","pricing_plan_id":"cebpf4jnsgd1na2vs0mg"},{"bike_id":"2b1fd6b7-24ff-4233-94aa-bcdad69aeead","system_id":"levelo_inurba_marseille","lat":43.30596,"lon":5.37232,"is_reserved":false,"is_disabled":false,"rental_uris":{"android":"levelo://app?vid=2b1fd6b7-24ff-4233-94aa-bcdad69aeead","ios":"levelo://app?vid=2b1fd6b7-24ff-4233-94aa-bcdad69aeead"},"vehicle_type_id":"4","last_reported":1746205724,"current_range_meters":3200,"station_id":"ce4bgqh2rcd13ifvqc4g","pricing_plan_id":"cebpf4jnsgd1na2vs0mg"},{"bike_id":"5610c778-f8ff-4c65-b91e-890f4d551c0f","system_id":"levelo_inurba_marseille","lat":43.25577,"lon":5.38225,"is_reserved":false,"is_disabled":false,"rental_uris":{"android":"levelo://app?vid=5610c778-f8ff-4c65-b91e-890f4d551c0f","ios":"levelo://app?vid=5610c778-f8ff-4c65-b91e-890f4d551c0f"},"vehicle_type_id":"4","last_reported":1746205724,"current_range_meters":3200,"station_id":"ce4bhih2rcd13ifvqfs0","pricing_plan_id":"cebpf4jnsgd1na2vs0mg"},{"bike_id":"ada01c74-8feb-475d-a023-bdcfc9153166","system_id":"levelo_inurba_marseille","lat":43.2756,"lon":5.38432,"is_reserved":false,"is_disabled":false,"rental_uris":{"android":"levelo://app?vid=ada01c74-8feb-475d-a023-bdcfc9153166","ios":"levelo://app?vid=ada01c74-8feb-475d-a023-bdcfc9153166"},"vehicle_type_id":"4","last_reported":1746205724,"current_range_meters":3600,"station_id":"ce4bhh92rcd13ifvqfi0","pricing_plan_id":"cebpf4jnsgd1na2vs0mg"},{"bike_id":"25d0e5ab-e8b9-47db-8200-da8ee672b149","system_id":"levelo_inurba_marseille","lat":43.25847,"lon":5.39434,"is_reserved":false,"is_disabled":false,"rental_uris":{"android":"levelo://app?vid=25d0e5ab-e8b9-47db-8200-da8ee672b149","ios":"levelo://app?vid=25d0e5ab-e8b9-47db-8200-da8ee672b149"},"vehicle_type_id":"4","last_reported":1746205724,"current_range_meters":3600,"station_id":"ce4bhip2rcd13ifvqft0","pricing_plan_id":"cebpf4jnsgd1na2vs0mg"},{"bike_id":"c4acbc0e-ad09-4638-b222-b9c9e7054fb8","system_id":"levelo_inurba_marseille","lat":43.25823,"lon":5.39437,"is_reserved":false,"is_disabled":false,"rental_uris":{"android":"levelo://app?vid=c4acbc0e-ad09-4638-b222-b9c9e7054fb8","ios":"levelo://app?vid=c4acbc0e-ad09-4638-b222-b9c9e7054fb8"},"vehicle_type_id":"4","last_reported":1746205724,"current_range_meters":3600,"station_id":"ce4bhip2rcd13ifvqft0","pricing_plan_id":"cebpf4jnsgd1na2vs0mg"},{"bike_id":"2820c1c7-edb2-4cfb-9987-8c5001e193cd","system_id":"levelo_inurba_marseille","lat":43.2978,"lon":5.37123,"is_reserved":false,"is_disabled":false,"rental_uris":{"android":"levelo://app?vid=2820c1c7-edb2-4cfb-9987-8c5001e193cd","ios":"levelo://app?vid=2820c1c7-edb2-4cfb-9987-8c5001e193cd"},"vehicle_type_id":"4","last_reported":1746205724,"current_range_meters":4000,"station_id":"ce4bgop2rcd13ifvqc1g","pricing_plan_id":"cebpf4jnsgd1na2vs0mg"},{"bike_id":"ff755c39-c9c5-43d3-a978-aee85d58ec40","system_id":"levelo_inurba_marseille","lat":43.30186,"lon":5.36624,"is_reserved":false,"is_disabled":false,"rental_uris":{"android":"levelo://app?vid=ff755c39-c9c5-43d3-a978-aee85d58ec40","ios":"levelo://app?vid=ff755c39-c9c5-43d3-a978-aee85d58ec40"},"vehicle_type_id":"4","last_reported":1746205724,"current_range_meters":4000,"station_id":"ce4bgrh2rcd13ifvqc8g","pricing_plan_id":"cebpf4jnsgd1na2vs0mg"},{"bike_id":"3e42cc89-643e-417f-bd14-31db6bc92bf9","system_id":"levelo_inurba_marseille","lat":43.29026,"lon":5.38649,"is_reserved":false,"is_disabled":false,"rental_uris":{"android":"levelo://app?vid=3e42cc89-643e-417f-bd14-31db6bc92bf9","ios":"levelo://app?vid=3e42cc89-643e-417f-bd14-31db6bc92bf9"},"vehicle_type_id":"4","last_reported":1746205724,"current_range_meters":4000,"station_id":"ce4bh4p2rcd13ifvqe0g","pricing_plan_id":"cebpf4jnsgd1na2vs0mg"},{"bike_id":"15fac6a5-e401-4922-9c1c-202e59c9214a","system_id":"levelo_inurba_marseille","lat":43.291992,"lon":5.357941,"is_reserved":false,"is_disabled":false,"rental_uris":{"android":"levelo://app?vid=15fac6a5-e401-4922-9c1c-202e59c9214a","ios":"levelo://app?vid=15fac6a5-e401-4922-9c1c-202e59c9214a"},"vehicle_type_id":"4","last_reported":1746205724,"current_range_meters":4000,"station_id":"ce4bhb12rcd13ifvqel0","pricing_plan_id":"cebpf4jnsgd1na2vs0mg"},{"bike_id":"5909d7d8-3c45-48b4-a719-9cc435e0234a","system_id":"levelo_inurba_marseille","lat":43.24809,"lon":5.37458,"is_reserved":false,"is_disabled":false,"rental_uris":{"android":"levelo://app?vid=5909d7d8-3c45-48b4-a719-9cc435e0234a","ios":"levelo://app?vid=5909d7d8-3c45-48b4-a719-9cc435e0234a"},"vehicle_type_id":"4","last_reported":1746205724,"current_range_meters":4000,"station_id":"ce4bhgh2rcd13ifvqfb0","pricing_plan_id":"cebpf4jnsgd1na2vs0mg"},{"bike_id":"265c6b13-d207-41dd-8345-ff30e054c3f8","system_id":"levelo_inurba_marseille","lat":43.26062,"lon":5.39398,"is_reserved":false,"is_disabled":false,"rental_uris":{"android":"levelo://app?vid=265c6b13-d207-41dd-8345-ff30e054c3f8","ios":"levelo://app?vid=265c6b13-d207-41dd-8345-ff30e054c3f8"},"vehicle_type_id":"4","last_reported":1746205724,"current_range_meters":4400,"station_id":"ce4bhh92rcd13ifvqfj0","pricing_plan_id":"cebpf4jnsgd1na2vs0mg"},{"bike_id":"9c8d46af-2015-4fc1-8041-ac6992883a91","system_id":"levelo_inurba_marseille","lat":43.25117,"lon":5.40312,"is_reserved":false,"is_disabled":false,"rental_uris":{"android":"levelo://app?vid=9c8d46af-2015-4fc1-8041-ac6992883a91","ios":"levelo://app?vid=9c8d46af-2015-4fc1-8041-ac6992883a91"},"vehicle_type_id":"4","last_reported":1746205724,"current_range_meters":4400,"station_id":"ce4bhlh2rcd13ifvqgig","pricing_plan_id":"cebpf4jnsgd1na2vs0mg"},{"bike_id":"1b59ab88-613f-431f-8aa3-d426e09b2c71","system_id":"levelo_inurba_marseille","lat":43.27812,"lon":5.40717,"is_reserved":false,"is_disabled":false,"rental_uris":{"android":"levelo://app?vid=1b59ab88-613f-431f-8aa3-d426e09b2c71","ios":"levelo://app?vid=1b59ab88-613f-431f-8aa3-d426e09b2c71"},"vehicle_type_id":"4","last_reported":1746205724,"current_range_meters":4400,"station_id":"ce4bhnh2rcd13ifvqgtg","pricing_plan_id":"cebpf4jnsgd1na2vs0mg"},{"bike_id":"bc440754-8793-4cec-b577-260ee128ec47","system_id":"levelo_inurba_marseille","lat":43.29969,"lon":5.38385,"is_reserved":false,"is_disabled":false,"rental_uris":{"android":"levelo://app?vid=bc440754-8793-4cec-b577-260ee128ec47","ios":"levelo://app?vid=bc440754-8793-4cec-b577-260ee128ec47"},"vehicle_type_id":"4","last_reported":1746205724,"current_range_meters":4800,"station_id":"","pricing_plan_id":"cebpf4jnsgd1na2vs0mg"},{"bike_id":"04663982-38ed-47e1-8079-7d9c01fdbbf2","system_id":"levelo_inurba_marseille","lat":43.30792,"lon":5.3816,"is_reserved":false,"is_disabled":false,"rental_uris":{"android":"levelo://app?vid=04663982-38ed-47e1-8079-7d9c01fdbbf2","ios":"levelo://app?vid=04663982-38ed-47e1-8079-7d9c01fdbbf2"},"vehicle_type_id":"4","last_reported":1746205724,"current_range_meters":4800,"station_id":"ce4bgt12rcd13ifvqce0","pricing_plan_id":"cebpf4jnsgd1na2vs0mg"},{"bike_id":"affd7c48-35d3-4aa6-a71c-8bb84d3b5921","system_id":"levelo_inurba_marseille","lat":43.28939,"lon":5.39633,"is_reserved":false,"is_disabled":false,"rental_uris":{"android":"levelo://app?vid=affd7c48-35d3-4aa6-a71c-8bb84d3b5921","ios":"levelo://app?vid=affd7c48-35d3-4aa6-a71c-8bb84d3b5921"},"vehicle_type_id":"4","last_reported":1746205724,"current_range_meters":4800,"station_id":"ce4bh3h2rcd13ifvqdn0","pricing_plan_id":"cebpf4jnsgd1na2vs0mg"},{"bike_id":"522e1b17-d1f3-4fd5-9aee-11f021ba2928","system_id":"levelo_inurba_marseille","lat":43.27668,"lon":5.38879,"is_reserved":false,"is_disabled":false,"rental_uris":{"android":"levelo://app?vid=522e1b17-d1f3-4fd5-9aee-11f021ba2928","ios":"levelo://app?vid=522e1b17-d1f3-4fd5-9aee-11f021ba2928"},"vehicle_type_id":"4","last_reported":1746205724,"current_range_meters":4800,"station_id":"ce4bhi12rcd13ifvqfo0","pricing_plan_id":"cebpf4jnsgd1na2vs0mg"},{"bike_id":"e0c4142d-ff6f-42f2-9bd6-5cd5278aa3a6","system_id":"levelo_inurba_marseille","lat":43.25948,"lon":5.40912,"is_reserved":false,"is_disabled":false,"rental_uris":{"android":"levelo://app?vid=e0c4142d-ff6f-42f2-9bd6-5cd5278aa3a6","ios":"levelo://app?vid=e0c4142d-ff6f-42f2-9bd6-5cd5278aa3a6"},"vehicle_type_id":"4","last_reported":1746205724,"current_range_meters":4800,"station_id":"ce4bhm92rcd13ifvqglg","pricing_plan_id":"cebpf4jnsgd1na2vs0mg"},{"bike_id":"13271b31-0975-4417-82f7-d4442132d16f","system_id":"levelo_inurba_marseille","lat":43.22928,"lon":5.35395,"is_reserved":false,"is_disabled":false,"rental_uris":{"android":"levelo://app?vid=13271b31-0975-4417-82f7-d4442132d16f","ios":"levelo://app?vid=13271b31-0975-4417-82f7-d4442132d16f"},"vehicle_type_id":"4","last_reported":1746205724,"current_range_meters":4800,"station_id":"cpo3532slgdg3j2ikp40","pricing_plan_id":"cebpf4jnsgd1na2vs0mg"},{"bike_id":"51ef9827-05d4-4f72-abc3-c6fec8c5a095","system_id":"levelo_inurba_marseille","lat":43.23139,"lon":5.43755,"is_reserved":false,"is_disabled":false,"rental_uris":{"android":"levelo://app?vid=51ef9827-05d4-4f72-abc3-c6fec8c5a095","ios":"levelo://app?vid=51ef9827-05d4-4f72-abc3-c6fec8c5a095"},"vehicle_type_id":"4","last_reported":1746205724,"current_range_meters":5600,"station_id":"","pricing_plan_id":"cebpf4jnsgd1na2vs0mg"},{"bike_id":"623746ca-f5a2-4a5a-b52d-e37c86e05d37","system_id":"levelo_inurba_marseille","lat":43.28843,"lon":5.39311,"is_reserved":false,"is_disabled":false,"rental_uris":{"android":"levelo://app?vid=623746ca-f5a2-4a5a-b52d-e37c86e05d37","ios":"levelo://app?vid=623746ca-f5a2-4a5a-b52d-e37c86e05d37"},"vehicle_type_id":"4","last_reported":1746205724,"current_range_meters":5600,"station_id":"ce4bh2p2rcd13ifvqdi0","pricing_plan_id":"cebpf4jnsgd1na2vs0mg"},{"bike_id":"f4cebd13-1e80-43da-9172-534060777762","system_id":"levelo_inurba_marseille","lat":43.25727,"lon":5.41105,"is_reserved":false,"is_disabled":false,"rental_uris":{"android":"levelo://app?vid=f4cebd13-1e80-43da-9172-534060777762","ios":"levelo://app?vid=f4cebd13-1e80-43da-9172-534060777762"},"vehicle_type_id":"4","last_reported":1746205724,"current_range_meters":5600,"station_id":"ce4bhkp2rcd13ifvqgd0","pricing_plan_id":"cebpf4jnsgd1na2vs0mg"},{"bike_id":"fb31fec4-bf2c-4316-bb9b-b50bc3fb7f72","system_id":"levelo_inurba_marseille","lat":43.31167,"lon":5.38718,"is_reserved":false,"is_disabled":false,"rental_uris":{"android":"levelo://app?vid=fb31fec4-bf2c-4316-bb9b-b50bc3fb7f72","ios":"levelo://app?vid=fb31fec4-bf2c-4316-bb9b-b50bc3fb7f72"},"vehicle_type_id":"4","last_reported":1746205724,"current_range_meters":6400,"station_id":"ce4bgv12rcd13ifvqcp0","pricing_plan_id":"cebpf4jnsgd1na2vs0mg"},{"bike_id":"b450f33d-2cda-4ee8-ab28-3afed1d46bad","system_id":"levelo_inurba_marseille","lat":43.30322,"lon":5.40441,"is_reserved":false,"is_disabled":false,"rental_uris":{"android":"levelo://app?vid=b450f33d-2cda-4ee8-ab28-3afed1d46bad","ios":"levelo://app?vid=b450f33d-2cda-4ee8-ab28-3afed1d46bad"},"vehicle_type_id":"4","last_reported":1746205724,"current_range_meters":6400,"station_id":"ce4bh012rcd13ifvqd10","pricing_plan_id":"cebpf4jnsgd1na2vs0mg"},{"bike_id":"9a2801b4-9f9f-4a02-a40a-1009056ad555","system_id":"levelo_inurba_marseille","lat":43.29167,"lon":5.37164,"is_reserved":false,"is_disabled":false,"rental_uris":{"android":"levelo://app?vid=9a2801b4-9f9f-4a02-a40a-1009056ad555","ios":"levelo://app?vid=9a2801b4-9f9f-4a02-a40a-1009056ad555"},"vehicle_type_id":"4","last_reported":1746205724,"current_range_meters":6400,"station_id":"ce4bha92rcd13ifvqeh0","pricing_plan_id":"cebpf4jnsgd1na2vs0mg"},{"bike_id":"f5cba4e4-8161-4be8-8ace-5b796e8e094d","system_id":"levelo_inurba_marseille","lat":43.2623,"lon":5.4045,"is_reserved":false,"is_disabled":false,"rental_uris":{"android":"levelo://app?vid=f5cba4e4-8161-4be8-8ace-5b796e8e094d","ios":"levelo://app?vid=f5cba4e4-8161-4be8-8ace-5b796e8e094d"},"vehicle_type_id":"4","last_reported":1746205724,"current_range_meters":6400,"station_id":"ce4bhmh2rcd13ifvqgmg","pricing_plan_id":"cebpf4jnsgd1na2vs0mg"},{"bike_id":"dbd75423-5a03-4962-9531-2e32e19729e6","system_id":"levelo_inurba_marseille","lat":43.23179,"lon":5.39987,"is_reserved":false,"is_disabled":false,"rental_uris":{"android":"levelo://app?vid=dbd75423-5a03-4962-9531-2e32e19729e6","ios":"levelo://app?vid=dbd75423-5a03-4962-9531-2e32e19729e6"},"vehicle_type_id":"4","last_reported":1746205724,"current_range_meters":6400,"station_id":"ce4bhn12rcd13ifvqgqg","pricing_plan_id":"cebpf4jnsgd1na2vs0mg"},{"bike_id":"8fb04209-e3a1-47f5-82f4-48d16f99b32a","system_id":"levelo_inurba_marseille","lat":43.32291,"lon":5.38274,"is_reserved":false,"is_disabled":false,"rental_uris":{"android":"levelo://app?vid=8fb04209-e3a1-47f5-82f4-48d16f99b32a","ios":"levelo://app?vid=8fb04209-e3a1-47f5-82f4-48d16f99b32a"},"vehicle_type_id":"4","last_reported":1746205724,"current_range_meters":6400,"station_id":"ce4bhr12rcd13ifvqhqg","pricing_plan_id":"cebpf4jnsgd1na2vs0mg"},{"bike_id":"7ce421db-13ba-480b-8c9a-cd87a0be2377","system_id":"levelo_inurba_marseille","lat":43.26733,"lon":5.39754,"is_reserved":false,"is_disabled":false,"rental_uris":{"android":"levelo://app?vid=7ce421db-13ba-480b-8c9a-cd87a0be2377","ios":"levelo://app?vid=7ce421db-13ba-480b-8c9a-cd87a0be2377"},"vehicle_type_id":"4","last_reported":1746205724,"current_range_meters":6800,"station_id":"","pricing_plan_id":"cebpf4jnsgd1na2vs0mg"},{"bike_id":"278719a7-6d55-479d-aa66-1100c3cff98c","system_id":"levelo_inurba_marseille","lat":43.29938,"lon":5.36522,"is_reserved":false,"is_disabled":false,"rental_uris":{"android":"levelo://app?vid=278719a7-6d55-479d-aa66-1100c3cff98c","ios":"levelo://app?vid=278719a7-6d55-479d-aa66-1100c3cff98c"},"vehicle_type_id":"4","last_reported":1746205724,"current_range_meters":6800,"station_id":"ce4bgm92rcd13ifvqbr0","pricing_plan_id":"cebpf4jnsgd1na2vs0mg"},{"bike_id":"1b8ccf22-3d13-4a46-9e1a-2f3054dde5ed","system_id":"levelo_inurba_marseille","lat":43.29023,"lon":5.3864,"is_reserved":false,"is_disabled":false,"rental_uris":{"android":"levelo://app?vid=1b8ccf22-3d13-4a46-9e1a-2f3054dde5ed","ios":"levelo://app?vid=1b8ccf22-3d13-4a46-9e1a-2f3054dde5ed"},"vehicle_type_id":"4","last_reported":1746205724,"current_range_meters":6800,"station_id":"ce4bh4p2rcd13ifvqe0g","pricing_plan_id":"cebpf4jnsgd1na2vs0mg"},{"bike_id":"94997c0d-3409-4bad-a141-a42243a64d4f","system_id":"levelo_inurba_marseille","lat":43.25085,"lon":5.39514,"is_reserved":false,"is_disabled":false,"rental_uris":{"android":"levelo://app?vid=94997c0d-3409-4bad-a141-a42243a64d4f","ios":"levelo://app?vid=94997c0d-3409-4bad-a141-a42243a64d4f"},"vehicle_type_id":"4","last_reported":1746205724,"current_range_meters":6800,"station_id":"ce4bhm12rcd13ifvqgkg","pricing_plan_id":"cebpf4jnsgd1na2vs0mg"},{"bike_id":"6612056a-7851-4639-b5ce-6acb597d405c","system_id":"levelo_inurba_marseille","lat":43.28152,"lon":5.42645,"is_reserved":false,"is_disabled":false,"rental_uris":{"android":"levelo://app?vid=6612056a-7851-4639-b5ce-6acb597d405c","ios":"levelo://app?vid=6612056a-7851-4639-b5ce-6acb597d405c"},"vehicle_type_id":"4","last_reported":1746205724,"current_range_meters":6800,"station_id":"ce4bhnh2rcd13ifvqgug","pricing_plan_id":"cebpf4jnsgd1na2vs0mg"},{"bike_id":"2f312909-9909-47bf-87d5-85b52924fc17","system_id":"levelo_inurba_marseille","lat":43.30787,"lon":5.37661,"is_reserved":false,"is_disabled":false,"rental_uris":{"android":"levelo://app?vid=2f312909-9909-47bf-87d5-85b52924fc17","ios":"levelo://app?vid=2f312909-9909-47bf-87d5-85b52924fc17"},"vehicle_type_id":"4","last_reported":1746205724,"current_range_meters":7200,"station_id":"ce4bgv92rcd13ifvqcq0","pricing_plan_id":"cebpf4jnsgd1na2vs0mg"},{"bike_id":"c772c20a-83b2-43c4-80e5-225872d79cfd","system_id":"levelo_inurba_marseille","lat":43.29264,"lon":5.38444,"is_reserved":false,"is_disabled":false,"rental_uris":{"android":"levelo://app?vid=c772c20a-83b2-43c4-80e5-225872d79cfd","ios":"levelo://app?vid=c772c20a-83b2-43c4-80e5-225872d79cfd"},"vehicle_type_id":"4","last_reported":1746205724,"current_range_meters":7200,"station_id":"ce4bh692rcd13ifvqea0","pricing_plan_id":"cebpf4jnsgd1na2vs0mg"},{"bike_id":"7971fe93-5f1d-4a59-8508-b415e64fcb18","system_id":"levelo_inurba_marseille","lat":43.30958,"lon":5.37359,"is_reserved":false,"is_disabled":false,"rental_uris":{"android":"levelo://app?vid=7971fe93-5f1d-4a59-8508-b415e64fcb18","ios":"levelo://app?vid=7971fe93-5f1d-4a59-8508-b415e64fcb18"},"vehicle_type_id":"4","last_reported":1746205724,"current_range_meters":8000,"station_id":"","pricing_plan_id":"cebpf4jnsgd1na2vs0mg"},{"bike_id":"91250f7b-f31c-4bf5-9f25-535e6c8fb809","system_id":"levelo_inurba_marseille","lat":43.3117,"lon":5.3872,"is_reserved":false,"is_disabled":false,"rental_uris":{"android":"levelo://app?vid=91250f7b-f31c-4bf5-9f25-535e6c8fb809","ios":"levelo://app?vid=91250f7b-f31c-4bf5-9f25-535e6c8fb809"},"vehicle_type_id":"4","last_reported":1746205724,"current_range_meters":8000,"station_id":"ce4bgv12rcd13ifvqcp0","pricing_plan_id":"cebpf4jnsgd1na2vs0mg"},{"bike_id":"38e4b783-90bb-4f26-a64e-5fc4e08a6b2d","system_id":"levelo_inurba_marseille","lat":43.29038,"lon":5.37565,"is_reserved":false,"is_disabled":false,"rental_uris":{"android":"levelo://app?vid=38e4b783-90bb-4f26-a64e-5fc4e08a6b2d","ios":"levelo://app?vid=38e4b783-90bb-4f26-a64e-5fc4e08a6b2d"},"vehicle_type_id":"4","last_reported":1746205724,"current_range_meters":8000,"station_id":"ce4bh692rcd13ifvqe90","pricing_plan_id":"cebpf4jnsgd1na2vs0mg"},{"bike_id":"d9fd1b04-9d4c-45dd-95b7-943203a3f665","system_id":"levelo_inurba_marseille","lat":43.265582,"lon":5.372819,"is_reserved":false,"is_disabled":false,"rental_uris":{"android":"levelo://app?vid=d9fd1b04-9d4c-45dd-95b7-943203a3f665","ios":"levelo://app?vid=d9fd1b04-9d4c-45dd-95b7-943203a3f665"},"vehicle_type_id":"4","last_reported":1746205724,"current_range_meters":8000,"station_id":"ce4bhg12rcd13ifvqf70","pricing_plan_id":"cebpf4jnsgd1na2vs0mg"},{"bike_id":"f895bee1-8198-4959-adb7-c48e4fbdcbf6","system_id":"levelo_inurba_marseille","lat":43.23966,"lon":5.36635,"is_reserved":false,"is_disabled":false,"rental_uris":{"android":"levelo://app?vid=f895bee1-8198-4959-adb7-c48e4fbdcbf6","ios":"levelo://app?vid=f895bee1-8198-4959-adb7-c48e4fbdcbf6"},"vehicle_type_id":"4","last_reported":1746205724,"current_range_meters":8000,"station_id":"ce4bhi12rcd13ifvqfp0","pricing_plan_id":"cebpf4jnsgd1na2vs0mg"},{"bike_id":"9c6032bb-f4b5-4f89-8a49-988b0f67cf43","system_id":"levelo_inurba_marseille","lat":43.25723,"lon":5.41121,"is_reserved":false,"is_disabled":false,"rental_uris":{"android":"levelo://app?vid=9c6032bb-f4b5-4f89-8a49-988b0f67cf43","ios":"levelo://app?vid=9c6032bb-f4b5-4f89-8a49-988b0f67cf43"},"vehicle_type_id":"4","last_reported":1746205724,"current_range_meters":8000,"station_id":"ce4bhkp2rcd13ifvqgd0","pricing_plan_id":"cebpf4jnsgd1na2vs0mg"},{"bike_id":"0d6c5100-7db5-44d0-b9d6-cf2b96014798","system_id":"levelo_inurba_marseille","lat":43.31011,"lon":5.374917,"is_reserved":false,"is_disabled":false,"rental_uris":{"android":"levelo://app?vid=0d6c5100-7db5-44d0-b9d6-cf2b96014798","ios":"levelo://app?vid=0d6c5100-7db5-44d0-b9d6-cf2b96014798"},"vehicle_type_id":"4","last_reported":1746205724,"current_range_meters":8400,"station_id":"","pricing_plan_id":"cebpf4jnsgd1na2vs0mg"},{"bike_id":"ba1291bf-568d-477b-8e17-c284858000b8","system_id":"levelo_inurba_marseille","lat":43.337833,"lon":5.37468,"is_reserved":false,"is_disabled":false,"rental_uris":{"android":"levelo://app?vid=ba1291bf-568d-477b-8e17-c284858000b8","ios":"levelo://app?vid=ba1291bf-568d-477b-8e17-c284858000b8"},"vehicle_type_id":"4","last_reported":1746205724,"current_range_meters":8400,"station_id":"","pricing_plan_id":"cebpf4jnsgd1na2vs0mg"},{"bike_id":"48169830-a75f-4138-95e7-d72062131835","system_id":"levelo_inurba_marseille","lat":43.30244,"lon":5.40035,"is_reserved":false,"is_disabled":false,"rental_uris":{"android":"levelo://app?vid=48169830-a75f-4138-95e7-d72062131835","ios":"levelo://app?vid=48169830-a75f-4138-95e7-d72062131835"},"vehicle_type_id":"4","last_reported":1746205724,"current_range_meters":8400,"station_id":"ce4bgvh2rcd13ifvqcs0","pricing_plan_id":"cebpf4jnsgd1na2vs0mg"},{"bike_id":"c3ab4282-de5d-4522-b957-4648d1f6fbe7","system_id":"levelo_inurba_marseille","lat":43.30132,"lon":5.39861,"is_reserved":false,"is_disabled":false,"rental_uris":{"android":"levelo://app?vid=c3ab4282-de5d-4522-b957-4648d1f6fbe7","ios":"levelo://app?vid=c3ab4282-de5d-4522-b957-4648d1f6fbe7"},"vehicle_type_id":"4","last_reported":1746205724,"current_range_meters":8400,"station_id":"ce4bh0h2rcd13ifvqd40","pricing_plan_id":"cebpf4jnsgd1na2vs0mg"},{"bike_id":"02d0bc8c-e756-4ce9-903c-d6c6e41b006c","system_id":"levelo_inurba_marseille","lat":43.30801,"lon":5.43529,"is_reserved":false,"is_disabled":false,"rental_uris":{"android":"levelo://app?vid=02d0bc8c-e756-4ce9-903c-d6c6e41b006c","ios":"levelo://app?vid=02d0bc8c-e756-4ce9-903c-d6c6e41b006c"},"vehicle_type_id":"4","last_reported":1746205724,"current_range_meters":8400,"station_id":"ce4bhph2rcd13ifvqheg","pricing_plan_id":"cebpf4jnsgd1na2vs0mg"},{"bike_id":"4a6851f9-34fb-48f6-8387-4b9c13325bed","system_id":"levelo_inurba_marseille","lat":43.3213,"lon":5.3681,"is_reserved":false,"is_disabled":false,"rental_uris":{"android":"levelo://app?vid=4a6851f9-34fb-48f6-8387-4b9c13325bed","ios":"levelo://app?vid=4a6851f9-34fb-48f6-8387-4b9c13325bed"},"vehicle_type_id":"4","last_reported":1746205724,"current_range_meters":8400,"station_id":"ce4bhrh2rcd13ifvqhug","pricing_plan_id":"cebpf4jnsgd1na2vs0mg"},{"bike_id":"ea2e63ee-73f6-447d-ad71-3fd265affe26","system_id":"levelo_inurba_marseille","lat":43.31171,"lon":5.38727,"is_reserved":false,"is_disabled":false,"rental_uris":{"android":"levelo://app?vid=ea2e63ee-73f6-447d-ad71-3fd265affe26","ios":"levelo://app?vid=ea2e63ee-73f6-447d-ad71-3fd265affe26"},"vehicle_type_id":"4","last_reported":1746205724,"current_range_meters":8800,"station_id":"ce4bgv12rcd13ifvqcp0","pricing_plan_id":"cebpf4jnsgd1na2vs0mg"},{"bike_id":"da9deef2-4185-4b6d-9ce2-d8ea15e1f82b","system_id":"levelo_inurba_marseille","lat":43.29009,"lon":5.35619,"is_reserved":false,"is_disabled":false,"rental_uris":{"android":"levelo://app?vid=da9deef2-4185-4b6d-9ce2-d8ea15e1f82b","ios":"levelo://app?vid=da9deef2-4185-4b6d-9ce2-d8ea15e1f82b"},"vehicle_type_id":"4","last_reported":1746205724,"current_range_meters":8800,"station_id":"ce4bhb92rcd13ifvqen0","pricing_plan_id":"cebpf4jnsgd1na2vs0mg"},{"bike_id":"44c3d719-a088-41cb-92e3-8fa7f7cc1285","system_id":"levelo_inurba_marseille","lat":43.24648,"lon":5.38895,"is_reserved":false,"is_disabled":false,"rental_uris":{"android":"levelo://app?vid=44c3d719-a088-41cb-92e3-8fa7f7cc1285","ios":"levelo://app?vid=44c3d719-a088-41cb-92e3-8fa7f7cc1285"},"vehicle_type_id":"4","last_reported":1746205724,"current_range_meters":8800,"station_id":"ce4bhg12rcd13ifvqf60","pricing_plan_id":"cebpf4jnsgd1na2vs0mg"},{"bike_id":"9d6d86fe-71cc-4da4-abc6-f668389cbf78","system_id":"levelo_inurba_marseille","lat":43.24545,"lon":5.395287,"is_reserved":false,"is_disabled":false,"rental_uris":{"android":"levelo://app?vid=9d6d86fe-71cc-4da4-abc6-f668389cbf78","ios":"levelo://app?vid=9d6d86fe-71cc-4da4-abc6-f668389cbf78"},"vehicle_type_id":"4","last_reported":1746205724,"current_range_meters":8800,"station_id":"ce4bhlp2rcd13ifvqgjg","pricing_plan_id":"cebpf4jnsgd1na2vs0mg"},{"bike_id":"dfc5a068-38d1-43f6-ac45-e004d5e23339","system_id":"levelo_inurba_marseille","lat":43.28428,"lon":5.39195,"is_reserved":false,"is_disabled":false,"rental_uris":{"android":"levelo://app?vid=dfc5a068-38d1-43f6-ac45-e004d5e23339","ios":"levelo://app?vid=dfc5a068-38d1-43f6-ac45-e004d5e23339"},"vehicle_type_id":"4","last_reported":1746205724,"current_range_meters":8800,"station_id":"ce4bhoh2rcd13ifvqh5g","pricing_plan_id":"cebpf4jnsgd1na2vs0mg"},{"bike_id":"5285069c-b7b2-4825-9502-42c0cbb9498d","system_id":"levelo_inurba_marseille","lat":43.28443,"lon":5.39194,"is_reserved":false,"is_disabled":false,"rental_uris":{"android":"levelo://app?vid=5285069c-b7b2-4825-9502-42c0cbb9498d","ios":"levelo://app?vid=5285069c-b7b2-4825-9502-42c0cbb9498d"},"vehicle_type_id":"4","last_reported":1746205724,"current_range_meters":8800,"station_id":"ce4bhoh2rcd13ifvqh5g","pricing_plan_id":"cebpf4jnsgd1na2vs0mg"},{"bike_id":"5b094917-c175-4b9b-abeb-88fd43cf31ed","system_id":"levelo_inurba_marseille","lat":43.29558,"lon":5.42296,"is_reserved":false,"is_disabled":false,"rental_uris":{"android":"levelo://app?vid=5b094917-c175-4b9b-abeb-88fd43cf31ed","ios":"levelo://app?vid=5b094917-c175-4b9b-abeb-88fd43cf31ed"},"vehicle_type_id":"4","last_reported":1746205724,"current_range_meters":8800,"station_id":"ce4bhph2rcd13ifvqhdg","pricing_plan_id":"cebpf4jnsgd1na2vs0mg"},{"bike_id":"2cbe9895-b61a-4e10-84d6-1db3b08d20aa","system_id":"levelo_inurba_marseille","lat":43.31751,"lon":5.39028,"is_reserved":false,"is_disabled":false,"rental_uris":{"android":"levelo://app?vid=2cbe9895-b61a-4e10-84d6-1db3b08d20aa","ios":"levelo://app?vid=2cbe9895-b61a-4e10-84d6-1db3b08d20aa"},"vehicle_type_id":"4","last_reported":1746205724,"current_range_meters":8800,"station_id":"ce4bhqp2rcd13ifvqhng","pricing_plan_id":"cebpf4jnsgd1na2vs0mg"},{"bike_id":"045b2767-67d3-41b7-8618-6d27646a5585","system_id":"levelo_inurba_marseille","lat":43.314012,"lon":5.386094,"is_reserved":false,"is_disabled":false,"rental_uris":{"android":"levelo://app?vid=045b2767-67d3-41b7-8618-6d27646a5585","ios":"levelo://app?vid=045b2767-67d3-41b7-8618-6d27646a5585"},"vehicle_type_id":"4","last_reported":1746205724,"current_range_meters":9200,"station_id":"","pricing_plan_id":"cebpf4jnsgd1na2vs0mg"},{"bike_id":"6789f728-458b-4466-90c1-b1ee273fb919","system_id":"levelo_inurba_marseille","lat":43.31706,"lon":5.40433,"is_reserved":false,"is_disabled":false,"rental_uris":{"android":"levelo://app?vid=6789f728-458b-4466-90c1-b1ee273fb919","ios":"levelo://app?vid=6789f728-458b-4466-90c1-b1ee273fb919"},"vehicle_type_id":"4","last_reported":1746205724,"current_range_meters":9200,"station_id":"ce4bh012rcd13ifvqd00","pricing_plan_id":"cebpf4jnsgd1na2vs0mg"},{"bike_id":"6a3828c6-0109-4c0c-9970-57abb5fb7559","system_id":"levelo_inurba_marseille","lat":43.30657,"lon":5.40076,"is_reserved":false,"is_disabled":false,"rental_uris":{"android":"levelo://app?vid=6a3828c6-0109-4c0c-9970-57abb5fb7559","ios":"levelo://app?vid=6a3828c6-0109-4c0c-9970-57abb5fb7559"},"vehicle_type_id":"4","last_reported":1746205724,"current_range_meters":9200,"station_id":"ce4bh112rcd13ifvqda0","pricing_plan_id":"cebpf4jnsgd1na2vs0mg"},{"bike_id":"fcb3404e-af30-412b-abdd-52b867b173d5","system_id":"levelo_inurba_marseille","lat":43.24544,"lon":5.39523,"is_reserved":false,"is_disabled":false,"rental_uris":{"android":"levelo://app?vid=fcb3404e-af30-412b-abdd-52b867b173d5","ios":"levelo://app?vid=fcb3404e-af30-412b-abdd-52b867b173d5"},"vehicle_type_id":"4","last_reported":1746205724,"current_range_meters":9200,"station_id":"ce4bhlp2rcd13ifvqgjg","pricing_plan_id":"cebpf4jnsgd1na2vs0mg"},{"bike_id":"239c3981-0525-468e-81a5-3577f7a85fc6","system_id":"levelo_inurba_marseille","lat":43.25104,"lon":5.39507,"is_reserved":false,"is_disabled":false,"rental_uris":{"android":"levelo://app?vid=239c3981-0525-468e-81a5-3577f7a85fc6","ios":"levelo://app?vid=239c3981-0525-468e-81a5-3577f7a85fc6"},"vehicle_type_id":"4","last_reported":1746205724,"current_range_meters":9200,"station_id":"ce4bhm12rcd13ifvqgkg","pricing_plan_id":"cebpf4jnsgd1na2vs0mg"},{"bike_id":"1d7b6ae0-2914-4718-9359-9dc1b5a0be52","system_id":"levelo_inurba_marseille","lat":43.29557,"lon":5.42295,"is_reserved":false,"is_disabled":false,"rental_uris":{"android":"levelo://app?vid=1d7b6ae0-2914-4718-9359-9dc1b5a0be52","ios":"levelo://app?vid=1d7b6ae0-2914-4718-9359-9dc1b5a0be52"},"vehicle_type_id":"4","last_reported":1746205724,"current_range_meters":9200,"station_id":"ce4bhph2rcd13ifvqhdg","pricing_plan_id":"cebpf4jnsgd1na2vs0mg"},{"bike_id":"5f4e6cc3-91d2-48f9-8249-129d5d1c6879","system_id":"levelo_inurba_marseille","lat":43.32483,"lon":5.36563,"is_reserved":false,"is_disabled":false,"rental_uris":{"android":"levelo://app?vid=5f4e6cc3-91d2-48f9-8249-129d5d1c6879","ios":"levelo://app?vid=5f4e6cc3-91d2-48f9-8249-129d5d1c6879"},"vehicle_type_id":"4","last_reported":1746205724,"current_range_meters":9200,"station_id":"ce4bhs12rcd13ifvqhvg","pricing_plan_id":"cebpf4jnsgd1na2vs0mg"},{"bike_id":"29a83445-0753-40f4-8ed7-c02207f310e3","system_id":"levelo_inurba_marseille","lat":43.28317,"lon":5.38499,"is_reserved":false,"is_disabled":false,"rental_uris":{"android":"levelo://app?vid=29a83445-0753-40f4-8ed7-c02207f310e3","ios":"levelo://app?vid=29a83445-0753-40f4-8ed7-c02207f310e3"},"vehicle_type_id":"4","last_reported":1746205724,"current_range_meters":9600,"station_id":"","pricing_plan_id":"cebpf4jnsgd1na2vs0mg"},{"bike_id":"249e7cb9-94ae-40da-8f7b-be8ea80281e5","system_id":"levelo_inurba_marseille","lat":43.29956,"lon":5.36548,"is_reserved":false,"is_disabled":false,"rental_uris":{"android":"levelo://app?vid=249e7cb9-94ae-40da-8f7b-be8ea80281e5","ios":"levelo://app?vid=249e7cb9-94ae-40da-8f7b-be8ea80281e5"},"vehicle_type_id":"4","last_reported":1746205724,"current_range_meters":9600,"station_id":"ce4bgm92rcd13ifvqbr0","pricing_plan_id":"cebpf4jnsgd1na2vs0mg"},{"bike_id":"1ba3e7f6-f40f-4c5b-9a2d-4493a9a6a5e7","system_id":"levelo_inurba_marseille","lat":43.28613,"lon":5.35103,"is_reserved":false,"is_disabled":false,"rental_uris":{"android":"levelo://app?vid=1ba3e7f6-f40f-4c5b-9a2d-4493a9a6a5e7","ios":"levelo://app?vid=1ba3e7f6-f40f-4c5b-9a2d-4493a9a6a5e7"},"vehicle_type_id":"4","last_reported":1746205724,"current_range_meters":9600,"station_id":"ce4bhch2rcd13ifvqeug","pricing_plan_id":"cebpf4jnsgd1na2vs0mg"},{"bike_id":"db23465b-15ff-42be-95c0-032741c4cce0","system_id":"levelo_inurba_marseille","lat":43.25824,"lon":5.39435,"is_reserved":false,"is_disabled":false,"rental_uris":{"android":"levelo://app?vid=db23465b-15ff-42be-95c0-032741c4cce0","ios":"levelo://app?vid=db23465b-15ff-42be-95c0-032741c4cce0"},"vehicle_type_id":"4","last_reported":1746205724,"current_range_meters":9600,"station_id":"ce4bhip2rcd13ifvqft0","pricing_plan_id":"cebpf4jnsgd1na2vs0mg"},{"bike_id":"1600c9da-b908-4757-bbb0-3f5bc73d8729","system_id":"levelo_inurba_marseille","lat":43.28614,"lon":5.37074,"is_reserved":false,"is_disabled":false,"rental_uris":{"android":"levelo://app?vid=1600c9da-b908-4757-bbb0-3f5bc73d8729","ios":"levelo://app?vid=1600c9da-b908-4757-bbb0-3f5bc73d8729"},"vehicle_type_id":"4","last_reported":1746205724,"current_range_meters":9600,"station_id":"ce4bht12rcd13ifvqi60","pricing_plan_id":"cebpf4jnsgd1na2vs0mg"},{"bike_id":"db896046-9665-404d-8701-c82d909da654","system_id":"levelo_inurba_marseille","lat":43.31696,"lon":5.40462,"is_reserved":false,"is_disabled":false,"rental_uris":{"android":"levelo://app?vid=db896046-9665-404d-8701-c82d909da654","ios":"levelo://app?vid=db896046-9665-404d-8701-c82d909da654"},"vehicle_type_id":"4","last_reported":1746205724,"current_range_meters":10000,"station_id":"ce4bh012rcd13ifvqd00","pricing_plan_id":"cebpf4jnsgd1na2vs0mg"},{"bike_id":"2bba3e15-be5d-4ad2-8d09-4784eeba9bea","system_id":"levelo_inurba_marseille","lat":43.298615,"lon":5.397253,"is_reserved":false,"is_disabled":false,"rental_uris":{"android":"levelo://app?vid=2bba3e15-be5d-4ad2-8d09-4784eeba9bea","ios":"levelo://app?vid=2bba3e15-be5d-4ad2-8d09-4784eeba9bea"},"vehicle_type_id":"4","last_reported":1746205724,"current_range_meters":10000,"station_id":"ce4bh0h2rcd13ifvqd50","pricing_plan_id":"cebpf4jnsgd1na2vs0mg"},{"bike_id":"e618fcca-7be1-4a83-a28c-81bcf9403ab6","system_id":"levelo_inurba_marseille","lat":43.29793,"lon":5.40414,"is_reserved":false,"is_disabled":false,"rental_uris":{"android":"levelo://app?vid=e618fcca-7be1-4a83-a28c-81bcf9403ab6","ios":"levelo://app?vid=e618fcca-7be1-4a83-a28c-81bcf9403ab6"},"vehicle_type_id":"4","last_reported":1746205724,"current_range_meters":10000,"station_id":"ce4bh112rcd13ifvqd90","pricing_plan_id":"cebpf4jnsgd1na2vs0mg"},{"bike_id":"fac00c0e-1b69-4c9c-b9f4-6ece8aba77d5","system_id":"levelo_inurba_marseille","lat":43.32662,"lon":5.40987,"is_reserved":false,"is_disabled":false,"rental_uris":{"android":"levelo://app?vid=fac00c0e-1b69-4c9c-b9f4-6ece8aba77d5","ios":"levelo://app?vid=fac00c0e-1b69-4c9c-b9f4-6ece8aba77d5"},"vehicle_type_id":"4","last_reported":1746205724,"current_range_meters":10000,"station_id":"ce4bhpp2rcd13ifvqhgg","pricing_plan_id":"cebpf4jnsgd1na2vs0mg"},{"bike_id":"52653438-d935-4f61-a0a5-dc59b768eafc","system_id":"levelo_inurba_marseille","lat":43.32375,"lon":5.36773,"is_reserved":false,"is_disabled":false,"rental_uris":{"android":"levelo://app?vid=52653438-d935-4f61-a0a5-dc59b768eafc","ios":"levelo://app?vid=52653438-d935-4f61-a0a5-dc59b768eafc"},"vehicle_type_id":"4","last_reported":1746205724,"current_range_meters":10000,"station_id":"ce4bhsh2rcd13ifvqi2g","pricing_plan_id":"cebpf4jnsgd1na2vs0mg"},{"bike_id":"80cee7d3-d51f-46d3-9db2-cce9d197ca75","system_id":"levelo_inurba_marseille","lat":43.32872,"lon":5.3999,"is_reserved":false,"is_disabled":false,"rental_uris":{"android":"levelo://app?vid=80cee7d3-d51f-46d3-9db2-cce9d197ca75","ios":"levelo://app?vid=80cee7d3-d51f-46d3-9db2-cce9d197ca75"},"vehicle_type_id":"4","last_reported":1746205724,"current_range_meters":10800,"station_id":"","pricing_plan_id":"cebpf4jnsgd1na2vs0mg"},{"bike_id":"17c3f72d-840e-48b9-961a-c2c7b1072419","system_id":"levelo_inurba_marseille","lat":43.2997,"lon":5.38498,"is_reserved":false,"is_disabled":false,"rental_uris":{"android":"levelo://app?vid=17c3f72d-840e-48b9-961a-c2c7b1072419","ios":"levelo://app?vid=17c3f72d-840e-48b9-961a-c2c7b1072419"},"vehicle_type_id":"4","last_reported":1746205724,"current_range_meters":10800,"station_id":"ce4bgj92rcd13ifvqbd0","pricing_plan_id":"cebpf4jnsgd1na2vs0mg"},{"bike_id":"3b7545e9-d1d6-4d52-9c8b-7949cbab79d9","system_id":"levelo_inurba_marseille","lat":43.292023,"lon":5.357955,"is_reserved":false,"is_disabled":false,"rental_uris":{"android":"levelo://app?vid=3b7545e9-d1d6-4d52-9c8b-7949cbab79d9","ios":"levelo://app?vid=3b7545e9-d1d6-4d52-9c8b-7949cbab79d9"},"vehicle_type_id":"4","last_reported":1746205724,"current_range_meters":10800,"station_id":"ce4bhb12rcd13ifvqel0","pricing_plan_id":"cebpf4jnsgd1na2vs0mg"},{"bike_id":"f4f6a382-5e61-4aad-aafc-2553948c6f6c","system_id":"levelo_inurba_marseille","lat":43.24672,"lon":5.38146,"is_reserved":false,"is_disabled":false,"rental_uris":{"android":"levelo://app?vid=f4f6a382-5e61-4aad-aafc-2553948c6f6c","ios":"levelo://app?vid=f4f6a382-5e61-4aad-aafc-2553948c6f6c"},"vehicle_type_id":"4","last_reported":1746205724,"current_range_meters":10800,"station_id":"ce4bhih2rcd13ifvqfr0","pricing_plan_id":"cebpf4jnsgd1na2vs0mg"},{"bike_id":"00a090c2-ef5c-4f77-aa70-e468ee45a302","system_id":"levelo_inurba_marseille","lat":43.30414,"lon":5.41288,"is_reserved":false,"is_disabled":false,"rental_uris":{"android":"levelo://app?vid=00a090c2-ef5c-4f77-aa70-e468ee45a302","ios":"levelo://app?vid=00a090c2-ef5c-4f77-aa70-e468ee45a302"},"vehicle_type_id":"4","last_reported":1746205724,"current_range_meters":10800,"station_id":"ce4bhop2rcd13ifvqh8g","pricing_plan_id":"cebpf4jnsgd1na2vs0mg"},{"bike_id":"ef66268b-8347-44ab-afc4-f8d89cf26def","system_id":"levelo_inurba_marseille","lat":43.33612,"lon":5.4104,"is_reserved":false,"is_disabled":false,"rental_uris":{"android":"levelo://app?vid=ef66268b-8347-44ab-afc4-f8d89cf26def","ios":"levelo://app?vid=ef66268b-8347-44ab-afc4-f8d89cf26def"},"vehicle_type_id":"4","last_reported":1746205724,"current_range_meters":10800,"station_id":"ce4bhqh2rcd13ifvqhmg","pricing_plan_id":"cebpf4jnsgd1na2vs0mg"},{"bike_id":"ba609e02-660a-4f40-965c-2d0046818c6d","system_id":"levelo_inurba_marseille","lat":43.24388,"lon":5.3706,"is_reserved":false,"is_disabled":false,"rental_uris":{"android":"levelo://app?vid=ba609e02-660a-4f40-965c-2d0046818c6d","ios":"levelo://app?vid=ba609e02-660a-4f40-965c-2d0046818c6d"},"vehicle_type_id":"4","last_reported":1746205724,"current_range_meters":11200,"station_id":"ce4bhhh2rcd13ifvqfk0","pricing_plan_id":"cebpf4jnsgd1na2vs0mg"},{"bike_id":"44390933-b2e6-4995-acd1-96486611fd4c","system_id":"levelo_inurba_marseille","lat":43.308,"lon":5.43533,"is_reserved":false,"is_disabled":false,"rental_uris":{"android":"levelo://app?vid=44390933-b2e6-4995-acd1-96486611fd4c","ios":"levelo://app?vid=44390933-b2e6-4995-acd1-96486611fd4c"},"vehicle_type_id":"4","last_reported":1746205724,"current_range_meters":11200,"station_id":"ce4bhph2rcd13ifvqheg","pricing_plan_id":"cebpf4jnsgd1na2vs0mg"},{"bike_id":"6d74a9f5-3f03-4e8e-aa3b-29a84082925f","system_id":"levelo_inurba_marseille","lat":43.229343,"lon":5.353747,"is_reserved":false,"is_disabled":false,"rental_uris":{"android":"levelo://app?vid=6d74a9f5-3f03-4e8e-aa3b-29a84082925f","ios":"levelo://app?vid=6d74a9f5-3f03-4e8e-aa3b-29a84082925f"},"vehicle_type_id":"4","last_reported":1746205724,"current_range_meters":11200,"station_id":"cpo3532slgdg3j2ikp40","pricing_plan_id":"cebpf4jnsgd1na2vs0mg"},{"bike_id":"b8fc371c-6090-4c7e-9a69-9a61f613af5f","system_id":"levelo_inurba_marseille","lat":43.28671,"lon":5.36341,"is_reserved":false,"is_disabled":false,"rental_uris":{"android":"levelo://app?vid=b8fc371c-6090-4c7e-9a69-9a61f613af5f","ios":"levelo://app?vid=b8fc371c-6090-4c7e-9a69-9a61f613af5f"},"vehicle_type_id":"4","last_reported":1746205724,"current_range_meters":11600,"station_id":"ce4bhah2rcd13ifvqej0","pricing_plan_id":"cebpf4jnsgd1na2vs0mg"},{"bike_id":"f48f6a8a-46ce-4c79-8fb0-19652a738d42","system_id":"levelo_inurba_marseille","lat":43.3608,"lon":5.44243,"is_reserved":false,"is_disabled":false,"rental_uris":{"android":"levelo://app?vid=f48f6a8a-46ce-4c79-8fb0-19652a738d42","ios":"levelo://app?vid=f48f6a8a-46ce-4c79-8fb0-19652a738d42"},"vehicle_type_id":"4","last_reported":1746205724,"current_range_meters":12000,"station_id":"","pricing_plan_id":"cebpf4jnsgd1na2vs0mg"},{"bike_id":"e5e2f0b2-853b-44f8-8edd-7b24d61b6328","system_id":"levelo_inurba_marseille","lat":43.31482,"lon":5.37306,"is_reserved":false,"is_disabled":false,"rental_uris":{"android":"levelo://app?vid=e5e2f0b2-853b-44f8-8edd-7b24d61b6328","ios":"levelo://app?vid=e5e2f0b2-853b-44f8-8edd-7b24d61b6328"},"vehicle_type_id":"4","last_reported":1746205724,"current_range_meters":12000,"station_id":"ce4bgt12rcd13ifvqcd0","pricing_plan_id":"cebpf4jnsgd1na2vs0mg"},{"bike_id":"0d3bcae3-7e24-4ca7-8c01-52d25e51ab57","system_id":"levelo_inurba_marseille","lat":43.29282,"lon":5.36853,"is_reserved":false,"is_disabled":false,"rental_uris":{"android":"levelo://app?vid=0d3bcae3-7e24-4ca7-8c01-52d25e51ab57","ios":"levelo://app?vid=0d3bcae3-7e24-4ca7-8c01-52d25e51ab57"},"vehicle_type_id":"4","last_reported":1746205724,"current_range_meters":12000,"station_id":"ce4bhbp2rcd13ifvqesg","pricing_plan_id":"cebpf4jnsgd1na2vs0mg"},{"bike_id":"023270b3-698b-4f93-8358-6cfe3317c86a","system_id":"levelo_inurba_marseille","lat":43.25089,"lon":5.39516,"is_reserved":false,"is_disabled":false,"rental_uris":{"android":"levelo://app?vid=023270b3-698b-4f93-8358-6cfe3317c86a","ios":"levelo://app?vid=023270b3-698b-4f93-8358-6cfe3317c86a"},"vehicle_type_id":"4","last_reported":1746205724,"current_range_meters":12000,"station_id":"ce4bhm12rcd13ifvqgkg","pricing_plan_id":"cebpf4jnsgd1na2vs0mg"},{"bike_id":"e0e163c0-b70c-478b-a240-966060226969","system_id":"levelo_inurba_marseille","lat":43.29242,"lon":5.36235,"is_reserved":false,"is_disabled":false,"rental_uris":{"android":"levelo://app?vid=e0e163c0-b70c-478b-a240-966060226969","ios":"levelo://app?vid=e0e163c0-b70c-478b-a240-966060226969"},"vehicle_type_id":"4","last_reported":1746205724,"current_range_meters":12400,"station_id":"","pricing_plan_id":"cebpf4jnsgd1na2vs0mg"},{"bike_id":"4443c328-203b-4e54-b950-2dbba55131da","system_id":"levelo_inurba_marseille","lat":43.303317,"lon":5.404294,"is_reserved":false,"is_disabled":false,"rental_uris":{"android":"levelo://app?vid=4443c328-203b-4e54-b950-2dbba55131da","ios":"levelo://app?vid=4443c328-203b-4e54-b950-2dbba55131da"},"vehicle_type_id":"4","last_reported":1746205724,"current_range_meters":12400,"station_id":"ce4bh012rcd13ifvqd10","pricing_plan_id":"cebpf4jnsgd1na2vs0mg"},{"bike_id":"e194c4f4-c70d-4c07-82e0-bdb6a07bf0e8","system_id":"levelo_inurba_marseille","lat":43.29084,"lon":5.37163,"is_reserved":false,"is_disabled":false,"rental_uris":{"android":"levelo://app?vid=e194c4f4-c70d-4c07-82e0-bdb6a07bf0e8","ios":"levelo://app?vid=e194c4f4-c70d-4c07-82e0-bdb6a07bf0e8"},"vehicle_type_id":"4","last_reported":1746205724,"current_range_meters":12400,"station_id":"ce4bh5p2rcd13ifvqe4g","pricing_plan_id":"cebpf4jnsgd1na2vs0mg"},{"bike_id":"6477d804-73e7-4cb6-84b2-71e934cc5f72","system_id":"levelo_inurba_marseille","lat":43.25093,"lon":5.39505,"is_reserved":false,"is_disabled":false,"rental_uris":{"android":"levelo://app?vid=6477d804-73e7-4cb6-84b2-71e934cc5f72","ios":"levelo://app?vid=6477d804-73e7-4cb6-84b2-71e934cc5f72"},"vehicle_type_id":"4","last_reported":1746205724,"current_range_meters":12400,"station_id":"ce4bhm12rcd13ifvqgkg","pricing_plan_id":"cebpf4jnsgd1na2vs0mg"},{"bike_id":"2cce8745-f47d-491d-9776-93cf9f036027","system_id":"levelo_inurba_marseille","lat":43.30834,"lon":5.43508,"is_reserved":false,"is_disabled":false,"rental_uris":{"android":"levelo://app?vid=2cce8745-f47d-491d-9776-93cf9f036027","ios":"levelo://app?vid=2cce8745-f47d-491d-9776-93cf9f036027"},"vehicle_type_id":"4","last_reported":1746205724,"current_range_meters":12400,"station_id":"ce4bhph2rcd13ifvqheg","pricing_plan_id":"cebpf4jnsgd1na2vs0mg"},{"bike_id":"17114580-27f2-4da7-bc54-eb1b7fbcd0eb","system_id":"levelo_inurba_marseille","lat":43.29043,"lon":5.35917,"is_reserved":false,"is_disabled":false,"rental_uris":{"android":"levelo://app?vid=17114580-27f2-4da7-bc54-eb1b7fbcd0eb","ios":"levelo://app?vid=17114580-27f2-4da7-bc54-eb1b7fbcd0eb"},"vehicle_type_id":"4","last_reported":1746205724,"current_range_meters":12800,"station_id":"ce4bha92rcd13ifvqeg0","pricing_plan_id":"cebpf4jnsgd1na2vs0mg"},{"bike_id":"ce645ed6-dfb5-479c-b05e-5d0031c4254f","system_id":"levelo_inurba_marseille","lat":43.26782,"lon":5.39419,"is_reserved":false,"is_disabled":false,"rental_uris":{"android":"levelo://app?vid=ce645ed6-dfb5-479c-b05e-5d0031c4254f","ios":"levelo://app?vid=ce645ed6-dfb5-479c-b05e-5d0031c4254f"},"vehicle_type_id":"4","last_reported":1746205724,"current_range_meters":12800,"station_id":"ce4bhh12rcd13ifvqfg0","pricing_plan_id":"cebpf4jnsgd1na2vs0mg"},{"bike_id":"01de1bd6-a2e6-489a-9a9b-8c9e1ea6b48d","system_id":"levelo_inurba_marseille","lat":43.30648,"lon":5.40093,"is_reserved":false,"is_disabled":false,"rental_uris":{"android":"levelo://app?vid=01de1bd6-a2e6-489a-9a9b-8c9e1ea6b48d","ios":"levelo://app?vid=01de1bd6-a2e6-489a-9a9b-8c9e1ea6b48d"},"vehicle_type_id":"4","last_reported":1746205724,"current_range_meters":13600,"station_id":"ce4bh112rcd13ifvqda0","pricing_plan_id":"cebpf4jnsgd1na2vs0mg"},{"bike_id":"5a0c0985-76a1-44c5-976a-a8dcae1ecd9d","system_id":"levelo_inurba_marseille","lat":43.28425,"lon":5.37511,"is_reserved":false,"is_disabled":false,"rental_uris":{"android":"levelo://app?vid=5a0c0985-76a1-44c5-976a-a8dcae1ecd9d","ios":"levelo://app?vid=5a0c0985-76a1-44c5-976a-a8dcae1ecd9d"},"vehicle_type_id":"4","last_reported":1746205724,"current_range_meters":14000,"station_id":"ce4bh412rcd13ifvqds0","pricing_plan_id":"cebpf4jnsgd1na2vs0mg"},{"bike_id":"fd2c3c67-23a6-4380-b7ca-8f23c8f78921","system_id":"levelo_inurba_marseille","lat":43.3236,"lon":5.36765,"is_reserved":false,"is_disabled":false,"rental_uris":{"android":"levelo://app?vid=fd2c3c67-23a6-4380-b7ca-8f23c8f78921","ios":"levelo://app?vid=fd2c3c67-23a6-4380-b7ca-8f23c8f78921"},"vehicle_type_id":"4","last_reported":1746205724,"current_range_meters":14000,"station_id":"ce4bhsh2rcd13ifvqi2g","pricing_plan_id":"cebpf4jnsgd1na2vs0mg"},{"bike_id":"0e92527a-c94e-47a1-b0a2-d66d87d1ede2","system_id":"levelo_inurba_marseille","lat":43.28611,"lon":5.37075,"is_reserved":false,"is_disabled":false,"rental_uris":{"android":"levelo://app?vid=0e92527a-c94e-47a1-b0a2-d66d87d1ede2","ios":"levelo://app?vid=0e92527a-c94e-47a1-b0a2-d66d87d1ede2"},"vehicle_type_id":"4","last_reported":1746205724,"current_range_meters":14000,"station_id":"ce4bht12rcd13ifvqi60","pricing_plan_id":"cebpf4jnsgd1na2vs0mg"},{"bike_id":"cfc5f69c-169a-4dba-b60a-03c696edbc40","system_id":"levelo_inurba_marseille","lat":43.334626,"lon":5.400247,"is_reserved":false,"is_disabled":false,"rental_uris":{"android":"levelo://app?vid=cfc5f69c-169a-4dba-b60a-03c696edbc40","ios":"levelo://app?vid=cfc5f69c-169a-4dba-b60a-03c696edbc40"},"vehicle_type_id":"4","last_reported":1746205724,"current_range_meters":14400,"station_id":"","pricing_plan_id":"cebpf4jnsgd1na2vs0mg"},{"bike_id":"f07ee3c8-68d9-4efe-861b-2092a50b3714","system_id":"levelo_inurba_marseille","lat":43.298,"lon":5.40403,"is_reserved":false,"is_disabled":false,"rental_uris":{"android":"levelo://app?vid=f07ee3c8-68d9-4efe-861b-2092a50b3714","ios":"levelo://app?vid=f07ee3c8-68d9-4efe-861b-2092a50b3714"},"vehicle_type_id":"4","last_reported":1746205724,"current_range_meters":14400,"station_id":"ce4bh112rcd13ifvqd90","pricing_plan_id":"cebpf4jnsgd1na2vs0mg"},{"bike_id":"f8353d51-0aa8-44fb-8168-20b5e891de68","system_id":"levelo_inurba_marseille","lat":43.3064,"lon":5.40071,"is_reserved":false,"is_disabled":false,"rental_uris":{"android":"levelo://app?vid=f8353d51-0aa8-44fb-8168-20b5e891de68","ios":"levelo://app?vid=f8353d51-0aa8-44fb-8168-20b5e891de68"},"vehicle_type_id":"4","last_reported":1746205724,"current_range_meters":14400,"station_id":"ce4bh112rcd13ifvqda0","pricing_plan_id":"cebpf4jnsgd1na2vs0mg"},{"bike_id":"c8e16fcb-5510-4723-b6e7-2aa49c1b3b8d","system_id":"levelo_inurba_marseille","lat":43.29258,"lon":5.3615,"is_reserved":false,"is_disabled":false,"rental_uris":{"android":"levelo://app?vid=c8e16fcb-5510-4723-b6e7-2aa49c1b3b8d","ios":"levelo://app?vid=c8e16fcb-5510-4723-b6e7-2aa49c1b3b8d"},"vehicle_type_id":"4","last_reported":1746205724,"current_range_meters":14800,"station_id":"","pricing_plan_id":"cebpf4jnsgd1na2vs0mg"},{"bike_id":"64eeca37-7212-4853-b3a9-fb66c6703db4","system_id":"levelo_inurba_marseille","lat":43.29966,"lon":5.38492,"is_reserved":false,"is_disabled":false,"rental_uris":{"android":"levelo://app?vid=64eeca37-7212-4853-b3a9-fb66c6703db4","ios":"levelo://app?vid=64eeca37-7212-4853-b3a9-fb66c6703db4"},"vehicle_type_id":"4","last_reported":1746205724,"current_range_meters":14800,"station_id":"ce4bgj92rcd13ifvqbd0","pricing_plan_id":"cebpf4jnsgd1na2vs0mg"},{"bike_id":"e18fc6aa-df09-4874-a1a1-ce30c5ef6f89","system_id":"levelo_inurba_marseille","lat":43.28669,"lon":5.36364,"is_reserved":false,"is_disabled":false,"rental_uris":{"android":"levelo://app?vid=e18fc6aa-df09-4874-a1a1-ce30c5ef6f89","ios":"levelo://app?vid=e18fc6aa-df09-4874-a1a1-ce30c5ef6f89"},"vehicle_type_id":"4","last_reported":1746205724,"current_range_meters":14800,"station_id":"ce4bhah2rcd13ifvqej0","pricing_plan_id":"cebpf4jnsgd1na2vs0mg"},{"bike_id":"f73daf93-45c7-48c0-a61a-2d28ac89db8d","system_id":"levelo_inurba_marseille","lat":43.35403,"lon":5.43831,"is_reserved":false,"is_disabled":false,"rental_uris":{"android":"levelo://app?vid=f73daf93-45c7-48c0-a61a-2d28ac89db8d","ios":"levelo://app?vid=f73daf93-45c7-48c0-a61a-2d28ac89db8d"},"vehicle_type_id":"4","last_reported":1746205724,"current_range_meters":15200,"station_id":"","pricing_plan_id":"cebpf4jnsgd1na2vs0mg"},{"bike_id":"e5dec0cd-1652-44a8-a78f-beb3b3f03f4b","system_id":"levelo_inurba_marseille","lat":43.30315,"lon":5.40404,"is_reserved":false,"is_disabled":false,"rental_uris":{"android":"levelo://app?vid=e5dec0cd-1652-44a8-a78f-beb3b3f03f4b","ios":"levelo://app?vid=e5dec0cd-1652-44a8-a78f-beb3b3f03f4b"},"vehicle_type_id":"4","last_reported":1746205724,"current_range_meters":15200,"station_id":"ce4bh012rcd13ifvqd10","pricing_plan_id":"cebpf4jnsgd1na2vs0mg"},{"bike_id":"c0acf942-c244-40c0-a070-e5f001dc9908","system_id":"levelo_inurba_marseille","lat":43.29423,"lon":5.38624,"is_reserved":false,"is_disabled":false,"rental_uris":{"android":"levelo://app?vid=c0acf942-c244-40c0-a070-e5f001dc9908","ios":"levelo://app?vid=c0acf942-c244-40c0-a070-e5f001dc9908"},"vehicle_type_id":"4","last_reported":1746205724,"current_range_meters":15200,"station_id":"ce4bh2h2rcd13ifvqdh0","pricing_plan_id":"cebpf4jnsgd1na2vs0mg"},{"bike_id":"2fc7066a-3168-4b00-a4fc-ece640118f70","system_id":"levelo_inurba_marseille","lat":43.28408,"lon":5.37511,"is_reserved":false,"is_disabled":false,"rental_uris":{"android":"levelo://app?vid=2fc7066a-3168-4b00-a4fc-ece640118f70","ios":"levelo://app?vid=2fc7066a-3168-4b00-a4fc-ece640118f70"},"vehicle_type_id":"4","last_reported":1746205724,"current_range_meters":15200,"station_id":"ce4bh412rcd13ifvqds0","pricing_plan_id":"cebpf4jnsgd1na2vs0mg"},{"bike_id":"5ff4d41e-bb5d-41ca-8bc8-724e1a966f6d","system_id":"levelo_inurba_marseille","lat":43.27559,"lon":5.38415,"is_reserved":false,"is_disabled":false,"rental_uris":{"android":"levelo://app?vid=5ff4d41e-bb5d-41ca-8bc8-724e1a966f6d","ios":"levelo://app?vid=5ff4d41e-bb5d-41ca-8bc8-724e1a966f6d"},"vehicle_type_id":"4","last_reported":1746205724,"current_range_meters":15200,"station_id":"ce4bhh92rcd13ifvqfi0","pricing_plan_id":"cebpf4jnsgd1na2vs0mg"},{"bike_id":"b460f147-0f1d-4e55-9519-16392487807b","system_id":"levelo_inurba_marseille","lat":43.26804,"lon":5.4027,"is_reserved":false,"is_disabled":false,"rental_uris":{"android":"levelo://app?vid=b460f147-0f1d-4e55-9519-16392487807b","ios":"levelo://app?vid=b460f147-0f1d-4e55-9519-16392487807b"},"vehicle_type_id":"4","last_reported":1746205724,"current_range_meters":15200,"station_id":"ce501612rcd8frsf0b60","pricing_plan_id":"cebpf4jnsgd1na2vs0mg"},{"bike_id":"570b486c-50df-4f1f-97df-caa86c0d419e","system_id":"levelo_inurba_marseille","lat":43.32905,"lon":5.3551,"is_reserved":false,"is_disabled":false,"rental_uris":{"android":"levelo://app?vid=570b486c-50df-4f1f-97df-caa86c0d419e","ios":"levelo://app?vid=570b486c-50df-4f1f-97df-caa86c0d419e"},"vehicle_type_id":"4","last_reported":1746205724,"current_range_meters":16000,"station_id":"","pricing_plan_id":"cebpf4jnsgd1na2vs0mg"},{"bike_id":"ca5fabd5-2041-49f7-8efa-5b1e1a132dfc","system_id":"levelo_inurba_marseille","lat":43.32972,"lon":5.35899,"is_reserved":false,"is_disabled":false,"rental_uris":{"android":"levelo://app?vid=ca5fabd5-2041-49f7-8efa-5b1e1a132dfc","ios":"levelo://app?vid=ca5fabd5-2041-49f7-8efa-5b1e1a132dfc"},"vehicle_type_id":"4","last_reported":1746205724,"current_range_meters":16000,"station_id":"","pricing_plan_id":"cebpf4jnsgd1na2vs0mg"},{"bike_id":"35181604-8656-4b2d-a138-eee5c67dad54","system_id":"levelo_inurba_marseille","lat":43.29024,"lon":5.38132,"is_reserved":false,"is_disabled":false,"rental_uris":{"android":"levelo://app?vid=35181604-8656-4b2d-a138-eee5c67dad54","ios":"levelo://app?vid=35181604-8656-4b2d-a138-eee5c67dad54"},"vehicle_type_id":"4","last_reported":1746205724,"current_range_meters":16000,"station_id":"ce4bh4p2rcd13ifvqe1g","pricing_plan_id":"cebpf4jnsgd1na2vs0mg"},{"bike_id":"6661890e-8572-4704-83af-a03715fbd123","system_id":"levelo_inurba_marseille","lat":43.26932,"lon":5.38922,"is_reserved":false,"is_disabled":false,"rental_uris":{"android":"levelo://app?vid=6661890e-8572-4704-83af-a03715fbd123","ios":"levelo://app?vid=6661890e-8572-4704-83af-a03715fbd123"},"vehicle_type_id":"4","last_reported":1746205724,"current_range_meters":16000,"station_id":"ce4bhhh2rcd13ifvqfl0","pricing_plan_id":"cebpf4jnsgd1na2vs0mg"},{"bike_id":"8bfa9e34-5328-49ec-adc2-75df9286490d","system_id":"levelo_inurba_marseille","lat":43.2558,"lon":5.38246,"is_reserved":false,"is_disabled":false,"rental_uris":{"android":"levelo://app?vid=8bfa9e34-5328-49ec-adc2-75df9286490d","ios":"levelo://app?vid=8bfa9e34-5328-49ec-adc2-75df9286490d"},"vehicle_type_id":"4","last_reported":1746205724,"current_range_meters":16000,"station_id":"ce4bhih2rcd13ifvqfs0","pricing_plan_id":"cebpf4jnsgd1na2vs0mg"},{"bike_id":"fb80c1da-d845-467b-9c3b-2f591f4d56ae","system_id":"levelo_inurba_marseille","lat":43.31898,"lon":5.37432,"is_reserved":false,"is_disabled":false,"rental_uris":{"android":"levelo://app?vid=fb80c1da-d845-467b-9c3b-2f591f4d56ae","ios":"levelo://app?vid=fb80c1da-d845-467b-9c3b-2f591f4d56ae"},"vehicle_type_id":"4","last_reported":1746205724,"current_range_meters":16400,"station_id":"","pricing_plan_id":"cebpf4jnsgd1na2vs0mg"},{"bike_id":"2236f100-3d57-4d5d-a168-71489a6734f9","system_id":"levelo_inurba_marseille","lat":43.298794,"lon":5.389031,"is_reserved":false,"is_disabled":false,"rental_uris":{"android":"levelo://app?vid=2236f100-3d57-4d5d-a168-71489a6734f9","ios":"levelo://app?vid=2236f100-3d57-4d5d-a168-71489a6734f9"},"vehicle_type_id":"4","last_reported":1746205724,"current_range_meters":16400,"station_id":"ce4bh392rcd13ifvqdl0","pricing_plan_id":"cebpf4jnsgd1na2vs0mg"},{"bike_id":"2d49ba29-0d24-4ec1-9ac2-a48e6987f9bc","system_id":"levelo_inurba_marseille","lat":43.299709,"lon":5.384833,"is_reserved":false,"is_disabled":false,"rental_uris":{"android":"levelo://app?vid=2d49ba29-0d24-4ec1-9ac2-a48e6987f9bc","ios":"levelo://app?vid=2d49ba29-0d24-4ec1-9ac2-a48e6987f9bc"},"vehicle_type_id":"4","last_reported":1746205724,"current_range_meters":16400,"station_id":"ce4bh612rcd13ifvqe6g","pricing_plan_id":"cebpf4jnsgd1na2vs0mg"},{"bike_id":"606118d3-fbc3-46d2-9186-85db9f0d665b","system_id":"levelo_inurba_marseille","lat":43.23059,"lon":5.35491,"is_reserved":false,"is_disabled":false,"rental_uris":{"android":"levelo://app?vid=606118d3-fbc3-46d2-9186-85db9f0d665b","ios":"levelo://app?vid=606118d3-fbc3-46d2-9186-85db9f0d665b"},"vehicle_type_id":"4","last_reported":1746205724,"current_range_meters":16400,"station_id":"cpo3342slgdg3j2ifvpg","pricing_plan_id":"cebpf4jnsgd1na2vs0mg"},{"bike_id":"121badf3-6119-41b0-8d6b-251b1de37db5","system_id":"levelo_inurba_marseille","lat":43.29631,"lon":5.371735,"is_reserved":false,"is_disabled":false,"rental_uris":{"android":"levelo://app?vid=121badf3-6119-41b0-8d6b-251b1de37db5","ios":"levelo://app?vid=121badf3-6119-41b0-8d6b-251b1de37db5"},"vehicle_type_id":"4","last_reported":1746205724,"current_range_meters":16800,"station_id":"ce4bgnh2rcd13ifvqc0g","pricing_plan_id":"cebpf4jnsgd1na2vs0mg"},{"bike_id":"acbb6641-2026-488f-9159-977ad264cf28","system_id":"levelo_inurba_marseille","lat":43.29389,"lon":5.38574,"is_reserved":false,"is_disabled":false,"rental_uris":{"android":"levelo://app?vid=acbb6641-2026-488f-9159-977ad264cf28","ios":"levelo://app?vid=acbb6641-2026-488f-9159-977ad264cf28"},"vehicle_type_id":"4","last_reported":1746205724,"current_range_meters":16800,"station_id":"ce4bh2h2rcd13ifvqdh0","pricing_plan_id":"cebpf4jnsgd1na2vs0mg"},{"bike_id":"741a724d-3771-453f-98eb-ac677da99429","system_id":"levelo_inurba_marseille","lat":43.25118,"lon":5.40324,"is_reserved":false,"is_disabled":false,"rental_uris":{"android":"levelo://app?vid=741a724d-3771-453f-98eb-ac677da99429","ios":"levelo://app?vid=741a724d-3771-453f-98eb-ac677da99429"},"vehicle_type_id":"4","last_reported":1746205724,"current_range_meters":16800,"station_id":"ce4bhlh2rcd13ifvqgig","pricing_plan_id":"cebpf4jnsgd1na2vs0mg"},{"bike_id":"ced72ea2-f0fc-42cf-8efe-ac2fb413ce4c","system_id":"levelo_inurba_marseille","lat":43.342245,"lon":5.408357,"is_reserved":false,"is_disabled":false,"rental_uris":{"android":"levelo://app?vid=ced72ea2-f0fc-42cf-8efe-ac2fb413ce4c","ios":"levelo://app?vid=ced72ea2-f0fc-42cf-8efe-ac2fb413ce4c"},"vehicle_type_id":"4","last_reported":1746205724,"current_range_meters":16800,"station_id":"ce4bhqh2rcd13ifvqhmg","pricing_plan_id":"cebpf4jnsgd1na2vs0mg"},{"bike_id":"6280e322-3bf2-409d-95c4-cdc2be579263","system_id":"levelo_inurba_marseille","lat":43.29937,"lon":5.36536,"is_reserved":false,"is_disabled":false,"rental_uris":{"android":"levelo://app?vid=6280e322-3bf2-409d-95c4-cdc2be579263","ios":"levelo://app?vid=6280e322-3bf2-409d-95c4-cdc2be579263"},"vehicle_type_id":"4","last_reported":1746205724,"current_range_meters":17200,"station_id":"ce4bgm92rcd13ifvqbr0","pricing_plan_id":"cebpf4jnsgd1na2vs0mg"},{"bike_id":"51a18b90-065b-4909-8f7a-2f6cc49624c3","system_id":"levelo_inurba_marseille","lat":43.29935,"lon":5.3654,"is_reserved":false,"is_disabled":false,"rental_uris":{"android":"levelo://app?vid=51a18b90-065b-4909-8f7a-2f6cc49624c3","ios":"levelo://app?vid=51a18b90-065b-4909-8f7a-2f6cc49624c3"},"vehicle_type_id":"4","last_reported":1746205724,"current_range_meters":17600,"station_id":"ce4bgm92rcd13ifvqbr0","pricing_plan_id":"cebpf4jnsgd1na2vs0mg"},{"bike_id":"732563fc-7b82-403b-9020-e937fff6b0b8","system_id":"levelo_inurba_marseille","lat":43.28665,"lon":5.36357,"is_reserved":false,"is_disabled":false,"rental_uris":{"android":"levelo://app?vid=732563fc-7b82-403b-9020-e937fff6b0b8","ios":"levelo://app?vid=732563fc-7b82-403b-9020-e937fff6b0b8"},"vehicle_type_id":"4","last_reported":1746205724,"current_range_meters":17600,"station_id":"ce4bhah2rcd13ifvqej0","pricing_plan_id":"cebpf4jnsgd1na2vs0mg"},{"bike_id":"71db9127-0889-455a-a211-d44792ebd64e","system_id":"levelo_inurba_marseille","lat":43.25727,"lon":5.41111,"is_reserved":false,"is_disabled":false,"rental_uris":{"android":"levelo://app?vid=71db9127-0889-455a-a211-d44792ebd64e","ios":"levelo://app?vid=71db9127-0889-455a-a211-d44792ebd64e"},"vehicle_type_id":"4","last_reported":1746205724,"current_range_meters":17600,"station_id":"ce4bhkp2rcd13ifvqgd0","pricing_plan_id":"cebpf4jnsgd1na2vs0mg"},{"bike_id":"3fa05eab-bd38-4e51-9d14-fab3387355a7","system_id":"levelo_inurba_marseille","lat":43.32283,"lon":5.38301,"is_reserved":false,"is_disabled":false,"rental_uris":{"android":"levelo://app?vid=3fa05eab-bd38-4e51-9d14-fab3387355a7","ios":"levelo://app?vid=3fa05eab-bd38-4e51-9d14-fab3387355a7"},"vehicle_type_id":"4","last_reported":1746205724,"current_range_meters":17600,"station_id":"ce4bhr12rcd13ifvqhqg","pricing_plan_id":"cebpf4jnsgd1na2vs0mg"},{"bike_id":"8358e3d0-6639-4ac2-ba04-8477e18cc50d","system_id":"levelo_inurba_marseille","lat":43.33244,"lon":5.38552,"is_reserved":false,"is_disabled":false,"rental_uris":{"android":"levelo://app?vid=8358e3d0-6639-4ac2-ba04-8477e18cc50d","ios":"levelo://app?vid=8358e3d0-6639-4ac2-ba04-8477e18cc50d"},"vehicle_type_id":"4","last_reported":1746205724,"current_range_meters":18000,"station_id":"","pricing_plan_id":"cebpf4jnsgd1na2vs0mg"},{"bike_id":"a8c7aa00-2d3a-4a2d-8706-e0f307574cfe","system_id":"levelo_inurba_marseille","lat":43.31278,"lon":5.40165,"is_reserved":false,"is_disabled":false,"rental_uris":{"android":"levelo://app?vid=a8c7aa00-2d3a-4a2d-8706-e0f307574cfe","ios":"levelo://app?vid=a8c7aa00-2d3a-4a2d-8706-e0f307574cfe"},"vehicle_type_id":"4","last_reported":1746205724,"current_range_meters":18000,"station_id":"ce4bh092rcd13ifvqd30","pricing_plan_id":"cebpf4jnsgd1na2vs0mg"},{"bike_id":"f865679e-f937-4f10-80ff-b75e530158e5","system_id":"levelo_inurba_marseille","lat":43.24653,"lon":5.38896,"is_reserved":false,"is_disabled":false,"rental_uris":{"android":"levelo://app?vid=f865679e-f937-4f10-80ff-b75e530158e5","ios":"levelo://app?vid=f865679e-f937-4f10-80ff-b75e530158e5"},"vehicle_type_id":"4","last_reported":1746205724,"current_range_meters":18000,"station_id":"ce4bhg12rcd13ifvqf60","pricing_plan_id":"cebpf4jnsgd1na2vs0mg"},{"bike_id":"9a59d77d-13ff-40c9-80cb-641515f30f15","system_id":"levelo_inurba_marseille","lat":43.2873,"lon":5.36088,"is_reserved":false,"is_disabled":false,"rental_uris":{"android":"levelo://app?vid=9a59d77d-13ff-40c9-80cb-641515f30f15","ios":"levelo://app?vid=9a59d77d-13ff-40c9-80cb-641515f30f15"},"vehicle_type_id":"4","last_reported":1746205724,"current_range_meters":18000,"station_id":"cki0cbj6b192h4jlfktg","pricing_plan_id":"cebpf4jnsgd1na2vs0mg"},{"bike_id":"c972a30b-2661-4a91-8597-08c8ed1d472a","system_id":"levelo_inurba_marseille","lat":43.30463,"lon":5.379,"is_reserved":false,"is_disabled":false,"rental_uris":{"android":"levelo://app?vid=c972a30b-2661-4a91-8597-08c8ed1d472a","ios":"levelo://app?vid=c972a30b-2661-4a91-8597-08c8ed1d472a"},"vehicle_type_id":"4","last_reported":1746205724,"current_range_meters":18800,"station_id":"ce4bgup2rcd13ifvqcn0","pricing_plan_id":"cebpf4jnsgd1na2vs0mg"},{"bike_id":"24582913-e5c1-4395-a0b7-e55533f8e799","system_id":"levelo_inurba_marseille","lat":43.29441,"lon":5.39755,"is_reserved":false,"is_disabled":false,"rental_uris":{"android":"levelo://app?vid=24582913-e5c1-4395-a0b7-e55533f8e799","ios":"levelo://app?vid=24582913-e5c1-4395-a0b7-e55533f8e799"},"vehicle_type_id":"4","last_reported":1746205724,"current_range_meters":18800,"station_id":"ce4bh3h2rcd13ifvqdo0","pricing_plan_id":"cebpf4jnsgd1na2vs0mg"},{"bike_id":"dd3413d4-126e-4a5e-83a9-08c10ab80480","system_id":"levelo_inurba_marseille","lat":43.32047,"lon":5.41544,"is_reserved":false,"is_disabled":false,"rental_uris":{"android":"levelo://app?vid=dd3413d4-126e-4a5e-83a9-08c10ab80480","ios":"levelo://app?vid=dd3413d4-126e-4a5e-83a9-08c10ab80480"},