{"last_updated":1768445753,"ttl":60,"version":"2.2","data":{"bikes":[{"bike_id":"12b01a91-f62d-4b10-aaf5-a2f39cd66b09","system_id":"levelo_inurba_marseille","lat":43.253325,"lon":5.421694,"is_reserved":false,"is_disabled":false,"rental_uris":{"android":"levelo://app?vid=12b01a91-f62d-4b10-aaf5-a2f39cd66b09","ios":"levelo://app?vid=12b01a91-f62d-4b10-aaf5-a2f39cd66b09"},"vehicle_type_id":"4","last_reported":1768445753,"current_range_meters":2800,"station_id":"st_d2m65c5bi1j21697t3ng","pricing_plan_id":"cebpf4jnsgd1na2vs0mg"},{"bike_id":"ccdb5bc0-bf26-4007-9051-5fa4d360a0b0","system_id":"levelo_inurba_marseille","lat":43.279397,"lon":5.387373,"is_reserved":false,"is_disabled":false,"rental_uris":{"android":"levelo://app?vid=ccdb5bc0-bf26-4007-9051-5fa4d360a0b0","ios":"levelo://app?vid=ccdb5bc0-bf26-4007-9051-5fa4d360a0b0"},"vehicle_type_id":"4","last_reported":1768445753,"current_range_meters":2800,"station_id":"ce4bhg12rcd13ifvqf80","pricing_plan_id":"cebpf4jnsgd1na2vs0mg"},{"bike_id":"ba85af87-7851-4c5c-98b7-f712feb6351c","system_id":"levelo_inurba_marseille","lat":43.30248,"lon":5.40075,"is_reserved":false,"is_disabled":false,"rental_uris":{"android":"levelo://app?vid=ba85af87-7851-4c5c-98b7-f712feb6351c","ios":"levelo://app?vid=ba85af87-7851-4c5c-98b7-f712feb6351c"},"vehicle_type_id":"4","last_reported":1768445753,"current_range_meters":2800,"station_id":"ce4bgvh2rcd13ifvqcs0","pricing_plan_id":"cebpf4jnsgd1na2vs0mg"},{"bike_id":"cb91171a-b433-4d62-9e48-7aa16e13fdf7","system_id":"levelo_inurba_marseille","lat":43.29764,"lon":5.42778,"is_reserved":false,"is_disabled":false,"rental_uris":{"android":"levelo://app?vid=cb91171a-b433-4d62-9e48-7aa16e13fdf7","ios":"levelo://app?vid=cb91171a-b433-4d62-9e48-7aa16e13fdf7"},"vehicle_type_id":"4","last_reported":1768445753,"current_range_meters":2800,"station_id":"st_d3md5207bmas73dh9klg","pricing_plan_id":"cebpf4jnsgd1na2vs0mg"},{"bike_id":"ea1bcd63-6e60-4c60-b76c-128de953eb64","system_id":"levelo_inurba_marseille","lat":43.28678,"lon":5.39999,"is_reserved":false,"is_disabled":false,"rental_uris":{"android":"levelo://app?vid=ea1bcd63-6e60-4c60-b76c-128de953eb64","ios":"levelo://app?vid=ea1bcd63-6e60-4c60-b76c-128de953eb64"},"vehicle_type_id":"4","last_reported":1768445753,"current_range_meters":2800,"station_id":"ce4bho92rcd13ifvqh3g","pricing_plan_id":"cebpf4jnsgd1na2vs0mg"},{"bike_id":"0c051b49-c337-496f-95f2-306c76414e4b","system_id":"levelo_inurba_marseille","lat":43.27987,"lon":5.41675,"is_reserved":false,"is_disabled":false,"rental_uris":{"android":"levelo://app?vid=0c051b49-c337-496f-95f2-306c76414e4b","ios":"levelo://app?vid=0c051b49-c337-496f-95f2-306c76414e4b"},"vehicle_type_id":"4","last_reported":1768445753,"current_range_meters":2800,"station_id":"ce4bho12rcd13ifvqh1g","pricing_plan_id":"cebpf4jnsgd1na2vs0mg"},{"bike_id":"538132f1-a7e8-42ab-81f7-d609cde77aa6","system_id":"levelo_inurba_marseille","lat":43.33247,"lon":5.35875,"is_reserved":false,"is_disabled":false,"rental_uris":{"android":"levelo://app?vid=538132f1-a7e8-42ab-81f7-d609cde77aa6","ios":"levelo://app?vid=538132f1-a7e8-42ab-81f7-d609cde77aa6"},"vehicle_type_id":"4","last_reported":1768445753,"current_range_meters":2800,"station_id":"","pricing_plan_id":"cebpf4jnsgd1na2vs0mg"},{"bike_id":"27f242f3-3ae7-4945-8a79-3968179ff814","system_id":"levelo_inurba_marseille","lat":43.32463,"lon":5.36577,"is_reserved":false,"is_disabled":false,"rental_uris":{"android":"levelo://app?vid=27f242f3-3ae7-4945-8a79-3968179ff814","ios":"levelo://app?vid=27f242f3-3ae7-4945-8a79-3968179ff814"},"vehicle_type_id":"4","last_reported":1768445753,"current_range_meters":2800,"station_id":"ce4bhs12rcd13ifvqhvg","pricing_plan_id":"cebpf4jnsgd1na2vs0mg"},{"bike_id":"8b0f36f9-b5f1-473d-ae2e-674fd5242d05","system_id":"levelo_inurba_marseille","lat":43.28477,"lon":5.38542,"is_reserved":false,"is_disabled":false,"rental_uris":{"android":"levelo://app?vid=8b0f36f9-b5f1-473d-ae2e-674fd5242d05","ios":"levelo://app?vid=8b0f36f9-b5f1-473d-ae2e-674fd5242d05"},"vehicle_type_id":"4","last_reported":1768445753,"current_range_meters":2800,"station_id":"ce4bh8p2rcd13ifvqeb0","pricing_plan_id":"cebpf4jnsgd1na2vs0mg"},{"bike_id":"930363ba-9cbb-46d1-a32b-70e4ab288c9d","system_id":"levelo_inurba_marseille","lat":43.28215,"lon":5.3906,"is_reserved":false,"is_disabled":false,"rental_uris":{"android":"levelo://app?vid=930363ba-9cbb-46d1-a32b-70e4ab288c9d","ios":"levelo://app?vid=930363ba-9cbb-46d1-a32b-70e4ab288c9d"},"vehicle_type_id":"4","last_reported":1768445753,"current_range_meters":2800,"station_id":"ce4bhn92rcd13ifvqgsg","pricing_plan_id":"cebpf4jnsgd1na2vs0mg"},{"bike_id":"a48ab850-1f6d-4591-9a7c-f7d3148f9bf5","system_id":"levelo_inurba_marseille","lat":43.30331,"lon":5.40456,"is_reserved":false,"is_disabled":false,"rental_uris":{"android":"levelo://app?vid=a48ab850-1f6d-4591-9a7c-f7d3148f9bf5","ios":"levelo://app?vid=a48ab850-1f6d-4591-9a7c-f7d3148f9bf5"},"vehicle_type_id":"4","last_reported":1768445753,"current_range_meters":2800,"station_id":"ce4bh012rcd13ifvqd10","pricing_plan_id":"cebpf4jnsgd1na2vs0mg"},{"bike_id":"81dc6096-3df8-4d56-9d00-0a8704382a47","system_id":"levelo_inurba_marseille","lat":43.25525,"lon":5.37656,"is_reserved":false,"is_disabled":false,"rental_uris":{"android":"levelo://app?vid=81dc6096-3df8-4d56-9d00-0a8704382a47","ios":"levelo://app?vid=81dc6096-3df8-4d56-9d00-0a8704382a47"},"vehicle_type_id":"4","last_reported":1768445753,"current_range_meters":3200,"station_id":"ce4bhh12rcd13ifvqff0","pricing_plan_id":"cebpf4jnsgd1na2vs0mg"},{"bike_id":"5d461127-0d9d-4718-9666-e3feb9c391b3","system_id":"levelo_inurba_marseille","lat":43.28554,"lon":5.44131,"is_reserved":false,"is_disabled":false,"rental_uris":{"android":"levelo://app?vid=5d461127-0d9d-4718-9666-e3feb9c391b3","ios":"levelo://app?vid=5d461127-0d9d-4718-9666-e3feb9c391b3"},"vehicle_type_id":"4","last_reported":1768445753,"current_range_meters":3200,"station_id":"st_d3j3df2ikq2c7380ej80","pricing_plan_id":"cebpf4jnsgd1na2vs0mg"},{"bike_id":"291a2485-de9c-4293-a68c-54db7c6fb941","system_id":"levelo_inurba_marseille","lat":43.30121,"lon":5.43122,"is_reserved":false,"is_disabled":false,"rental_uris":{"android":"levelo://app?vid=291a2485-de9c-4293-a68c-54db7c6fb941","ios":"levelo://app?vid=291a2485-de9c-4293-a68c-54db7c6fb941"},"vehicle_type_id":"4","last_reported":1768445753,"current_range_meters":3200,"station_id":"st_d3js3co5814s73ftftug","pricing_plan_id":"cebpf4jnsgd1na2vs0mg"},{"bike_id":"a0b3c393-788e-427a-ba12-453c908bd9de","system_id":"levelo_inurba_marseille","lat":43.22925,"lon":5.3538,"is_reserved":false,"is_disabled":false,"rental_uris":{"android":"levelo://app?vid=a0b3c393-788e-427a-ba12-453c908bd9de","ios":"levelo://app?vid=a0b3c393-788e-427a-ba12-453c908bd9de"},"vehicle_type_id":"4","last_reported":1768445753,"current_range_meters":3200,"station_id":"cpo3532slgdg3j2ikp40","pricing_plan_id":"cebpf4jnsgd1na2vs0mg"},{"bike_id":"0fc190e9-b1ca-4830-804f-6df5163742c8","system_id":"levelo_inurba_marseille","lat":43.32467,"lon":5.36579,"is_reserved":false,"is_disabled":false,"rental_uris":{"android":"levelo://app?vid=0fc190e9-b1ca-4830-804f-6df5163742c8","ios":"levelo://app?vid=0fc190e9-b1ca-4830-804f-6df5163742c8"},"vehicle_type_id":"4","last_reported":1768445753,"current_range_meters":3200,"station_id":"ce4bhs12rcd13ifvqhvg","pricing_plan_id":"cebpf4jnsgd1na2vs0mg"},{"bike_id":"ecf8cb8a-a92c-4fef-b938-1a1e2d6ebde6","system_id":"levelo_inurba_marseille","lat":43.29498,"lon":5.43333,"is_reserved":false,"is_disabled":false,"rental_uris":{"android":"levelo://app?vid=ecf8cb8a-a92c-4fef-b938-1a1e2d6ebde6","ios":"levelo://app?vid=ecf8cb8a-a92c-4fef-b938-1a1e2d6ebde6"},"vehicle_type_id":"4","last_reported":1768445753,"current_range_meters":3200,"station_id":"st_d3j5ugp08ojc73fj9d10","pricing_plan_id":"cebpf4jnsgd1na2vs0mg"},{"bike_id":"60b8bb3a-0af8-4a92-9ab8-8253a03c193b","system_id":"levelo_inurba_marseille","lat":43.2932,"lon":5.37559,"is_reserved":false,"is_disabled":false,"rental_uris":{"android":"levelo://app?vid=60b8bb3a-0af8-4a92-9ab8-8253a03c193b","ios":"levelo://app?vid=60b8bb3a-0af8-4a92-9ab8-8253a03c193b"},"vehicle_type_id":"4","last_reported":1768445753,"current_range_meters":3200,"station_id":"","pricing_plan_id":"cebpf4jnsgd1na2vs0mg"},{"bike_id":"aad9ddb6-4043-42c1-a476-34e529a50bbf","system_id":"levelo_inurba_marseille","lat":43.26684,"lon":5.38268,"is_reserved":false,"is_disabled":false,"rental_uris":{"android":"levelo://app?vid=aad9ddb6-4043-42c1-a476-34e529a50bbf","ios":"levelo://app?vid=aad9ddb6-4043-42c1-a476-34e529a50bbf"},"vehicle_type_id":"4","last_reported":1768445753,"current_range_meters":3200,"station_id":"ce4bhg92rcd13ifvqf90","pricing_plan_id":"cebpf4jnsgd1na2vs0mg"},{"bike_id":"d10c3e03-17c1-4a18-84d3-e167ce7531e2","system_id":"levelo_inurba_marseille","lat":43.323594,"lon":5.367643,"is_reserved":false,"is_disabled":false,"rental_uris":{"android":"levelo://app?vid=d10c3e03-17c1-4a18-84d3-e167ce7531e2","ios":"levelo://app?vid=d10c3e03-17c1-4a18-84d3-e167ce7531e2"},"vehicle_type_id":"4","last_reported":1768445753,"current_range_meters":3200,"station_id":"ce4bhsh2rcd13ifvqi2g","pricing_plan_id":"cebpf4jnsgd1na2vs0mg"},{"bike_id":"21d0f55f-4a12-4445-a787-9d5f2abef579","system_id":"levelo_inurba_marseille","lat":43.26559,"lon":5.40326,"is_reserved":false,"is_disabled":false,"rental_uris":{"android":"levelo://app?vid=21d0f55f-4a12-4445-a787-9d5f2abef579","ios":"levelo://app?vid=21d0f55f-4a12-4445-a787-9d5f2abef579"},"vehicle_type_id":"4","last_reported":1768445753,"current_range_meters":3200,"station_id":"ce4bhmp2rcd13ifvqgng","pricing_plan_id":"cebpf4jnsgd1na2vs0mg"},{"bike_id":"7fb92e6f-a424-4ffc-abb2-da7fcf05d915","system_id":"levelo_inurba_marseille","lat":43.27807,"lon":5.40721,"is_reserved":false,"is_disabled":false,"rental_uris":{"android":"levelo://app?vid=7fb92e6f-a424-4ffc-abb2-da7fcf05d915","ios":"levelo://app?vid=7fb92e6f-a424-4ffc-abb2-da7fcf05d915"},"vehicle_type_id":"4","last_reported":1768445753,"current_range_meters":3600,"station_id":"ce4bhnh2rcd13ifvqgtg","pricing_plan_id":"cebpf4jnsgd1na2vs0mg"},{"bike_id":"2ee0fab5-7040-4975-9414-0b1e23a72b5b","system_id":"levelo_inurba_marseille","lat":43.32341,"lon":5.36729,"is_reserved":false,"is_disabled":false,"rental_uris":{"android":"levelo://app?vid=2ee0fab5-7040-4975-9414-0b1e23a72b5b","ios":"levelo://app?vid=2ee0fab5-7040-4975-9414-0b1e23a72b5b"},"vehicle_type_id":"4","last_reported":1768445753,"current_range_meters":3600,"station_id":"ce4bhsh2rcd13ifvqi2g","pricing_plan_id":"cebpf4jnsgd1na2vs0mg"},{"bike_id":"2663c4b7-8968-4f97-b018-c26b8a7be62f","system_id":"levelo_inurba_marseille","lat":43.27378,"lon":5.36248,"is_reserved":false,"is_disabled":false,"rental_uris":{"android":"levelo://app?vid=2663c4b7-8968-4f97-b018-c26b8a7be62f","ios":"levelo://app?vid=2663c4b7-8968-4f97-b018-c26b8a7be62f"},"vehicle_type_id":"4","last_reported":1768445753,"current_range_meters":3600,"station_id":"ce4bhbh2rcd13ifvqeo0","pricing_plan_id":"cebpf4jnsgd1na2vs0mg"},{"bike_id":"323bdf5a-fc85-45ab-8b18-361a392bbea5","system_id":"levelo_inurba_marseille","lat":43.29948,"lon":5.37912,"is_reserved":false,"is_disabled":false,"rental_uris":{"android":"levelo://app?vid=323bdf5a-fc85-45ab-8b18-361a392bbea5","ios":"levelo://app?vid=323bdf5a-fc85-45ab-8b18-361a392bbea5"},"vehicle_type_id":"4","last_reported":1768445753,"current_range_meters":3600,"station_id":"","pricing_plan_id":"cebpf4jnsgd1na2vs0mg"},{"bike_id":"0f5f4915-35b7-4639-ab63-f51a53ac94b7","system_id":"levelo_inurba_marseille","lat":43.30221,"lon":5.39307,"is_reserved":false,"is_disabled":false,"rental_uris":{"android":"levelo://app?vid=0f5f4915-35b7-4639-ab63-f51a53ac94b7","ios":"levelo://app?vid=0f5f4915-35b7-4639-ab63-f51a53ac94b7"},"vehicle_type_id":"4","last_reported":1768445753,"current_range_meters":3600,"station_id":"","pricing_plan_id":"cebpf4jnsgd1na2vs0mg"},{"bike_id":"67c67945-91bb-4bb5-b2e1-22bf6d48bee4","system_id":"levelo_inurba_marseille","lat":43.31316,"lon":5.39718,"is_reserved":false,"is_disabled":false,"rental_uris":{"android":"levelo://app?vid=67c67945-91bb-4bb5-b2e1-22bf6d48bee4","ios":"levelo://app?vid=67c67945-91bb-4bb5-b2e1-22bf6d48bee4"},"vehicle_type_id":"4","last_reported":1768445753,"current_range_meters":3600,"station_id":"ce4bgvp2rcd13ifvqcu0","pricing_plan_id":"cebpf4jnsgd1na2vs0mg"},{"bike_id":"6009104c-31f9-43b2-a50d-d12419701de2","system_id":"levelo_inurba_marseille","lat":43.27052,"lon":5.38307,"is_reserved":false,"is_disabled":false,"rental_uris":{"android":"levelo://app?vid=6009104c-31f9-43b2-a50d-d12419701de2","ios":"levelo://app?vid=6009104c-31f9-43b2-a50d-d12419701de2"},"vehicle_type_id":"4","last_reported":1768445753,"current_range_meters":3600,"station_id":"st_d3n2fo6cfp8s73cte1j0","pricing_plan_id":"cebpf4jnsgd1na2vs0mg"},{"bike_id":"d169c4ba-2a03-4d6d-8762-0ba9df3953bf","system_id":"levelo_inurba_marseille","lat":43.21186,"lon":5.3507,"is_reserved":false,"is_disabled":false,"rental_uris":{"android":"levelo://app?vid=d169c4ba-2a03-4d6d-8762-0ba9df3953bf","ios":"levelo://app?vid=d169c4ba-2a03-4d6d-8762-0ba9df3953bf"},"vehicle_type_id":"4","last_reported":1768445753,"current_range_meters":3600,"station_id":"st_cvj6sg6p6f1abm77japg","pricing_plan_id":"cebpf4jnsgd1na2vs0mg"},{"bike_id":"ff1e20fa-84b0-41c9-9d49-6081e242e43e","system_id":"levelo_inurba_marseille","lat":43.24805,"lon":5.3746,"is_reserved":false,"is_disabled":false,"rental_uris":{"android":"levelo://app?vid=ff1e20fa-84b0-41c9-9d49-6081e242e43e","ios":"levelo://app?vid=ff1e20fa-84b0-41c9-9d49-6081e242e43e"},"vehicle_type_id":"4","last_reported":1768445753,"current_range_meters":4000,"station_id":"ce4bhgh2rcd13ifvqfb0","pricing_plan_id":"cebpf4jnsgd1na2vs0mg"},{"bike_id":"2dcbaafa-dc26-4d5a-9923-60da74220ab7","system_id":"levelo_inurba_marseille","lat":43.263705,"lon":5.410836,"is_reserved":false,"is_disabled":false,"rental_uris":{"android":"levelo://app?vid=2dcbaafa-dc26-4d5a-9923-60da74220ab7","ios":"levelo://app?vid=2dcbaafa-dc26-4d5a-9923-60da74220ab7"},"vehicle_type_id":"4","last_reported":1768445753,"current_range_meters":4000,"station_id":"","pricing_plan_id":"cebpf4jnsgd1na2vs0mg"},{"bike_id":"dc322333-4210-467d-8d9e-d322d0c44168","system_id":"levelo_inurba_marseille","lat":43.2501,"lon":5.38932,"is_reserved":false,"is_disabled":false,"rental_uris":{"android":"levelo://app?vid=dc322333-4210-467d-8d9e-d322d0c44168","ios":"levelo://app?vid=dc322333-4210-467d-8d9e-d322d0c44168"},"vehicle_type_id":"4","last_reported":1768445753,"current_range_meters":4000,"station_id":"ce4bhgp2rcd13ifvqfd0","pricing_plan_id":"cebpf4jnsgd1na2vs0mg"},{"bike_id":"1c368511-4dc5-413e-9320-5c9141f9acf7","system_id":"levelo_inurba_marseille","lat":43.26401,"lon":5.39882,"is_reserved":false,"is_disabled":true,"rental_uris":{"android":"levelo://app?vid=1c368511-4dc5-413e-9320-5c9141f9acf7","ios":"levelo://app?vid=1c368511-4dc5-413e-9320-5c9141f9acf7"},"vehicle_type_id":"4","last_reported":1768445753,"current_range_meters":4000,"station_id":"","pricing_plan_id":"cebpf4jnsgd1na2vs0mg"},{"bike_id":"f90b66d8-7ec0-4b35-997a-ab70de47e1d5","system_id":"levelo_inurba_marseille","lat":43.324686,"lon":5.365804,"is_reserved":false,"is_disabled":false,"rental_uris":{"android":"levelo://app?vid=f90b66d8-7ec0-4b35-997a-ab70de47e1d5","ios":"levelo://app?vid=f90b66d8-7ec0-4b35-997a-ab70de47e1d5"},"vehicle_type_id":"4","last_reported":1768445753,"current_range_meters":4000,"station_id":"ce4bhs12rcd13ifvqhvg","pricing_plan_id":"cebpf4jnsgd1na2vs0mg"},{"bike_id":"0496460c-cd9f-43fd-8720-c5e183ef0a0e","system_id":"levelo_inurba_marseille","lat":43.23806,"lon":5.36651,"is_reserved":false,"is_disabled":false,"rental_uris":{"android":"levelo://app?vid=0496460c-cd9f-43fd-8720-c5e183ef0a0e","ios":"levelo://app?vid=0496460c-cd9f-43fd-8720-c5e183ef0a0e"},"vehicle_type_id":"4","last_reported":1768445753,"current_range_meters":4000,"station_id":"st_d3nk18o9ro0c73en2l3g","pricing_plan_id":"cebpf4jnsgd1na2vs0mg"},{"bike_id":"a2c3fda5-fb1e-4329-88c2-2e7960229574","system_id":"levelo_inurba_marseille","lat":43.31203,"lon":5.40305,"is_reserved":false,"is_disabled":false,"rental_uris":{"android":"levelo://app?vid=a2c3fda5-fb1e-4329-88c2-2e7960229574","ios":"levelo://app?vid=a2c3fda5-fb1e-4329-88c2-2e7960229574"},"vehicle_type_id":"4","last_reported":1768445753,"current_range_meters":4000,"station_id":"","pricing_plan_id":"cebpf4jnsgd1na2vs0mg"},{"bike_id":"f680f50c-74ae-434a-9907-5a62e8f7d3ec","system_id":"levelo_inurba_marseille","lat":43.30514,"lon":5.36785,"is_reserved":false,"is_disabled":false,"rental_uris":{"android":"levelo://app?vid=f680f50c-74ae-434a-9907-5a62e8f7d3ec","ios":"levelo://app?vid=f680f50c-74ae-434a-9907-5a62e8f7d3ec"},"vehicle_type_id":"4","last_reported":1768445753,"current_range_meters":4000,"station_id":"ce4bgrp2rcd13ifvqc9g","pricing_plan_id":"cebpf4jnsgd1na2vs0mg"},{"bike_id":"8b02a200-1d1b-433b-929d-ae0dd3c70aa8","system_id":"levelo_inurba_marseille","lat":43.253363,"lon":5.421685,"is_reserved":false,"is_disabled":false,"rental_uris":{"android":"levelo://app?vid=8b02a200-1d1b-433b-929d-ae0dd3c70aa8","ios":"levelo://app?vid=8b02a200-1d1b-433b-929d-ae0dd3c70aa8"},"vehicle_type_id":"4","last_reported":1768445753,"current_range_meters":4400,"station_id":"st_d2m65c5bi1j21697t3ng","pricing_plan_id":"cebpf4jnsgd1na2vs0mg"},{"bike_id":"27eb7b0b-b99b-457d-9436-07428978b732","system_id":"levelo_inurba_marseille","lat":43.30931,"lon":5.40143,"is_reserved":false,"is_disabled":false,"rental_uris":{"android":"levelo://app?vid=27eb7b0b-b99b-457d-9436-07428978b732","ios":"levelo://app?vid=27eb7b0b-b99b-457d-9436-07428978b732"},"vehicle_type_id":"4","last_reported":1768445753,"current_range_meters":4400,"station_id":"ce4bgvp2rcd13ifvqct0","pricing_plan_id":"cebpf4jnsgd1na2vs0mg"},{"bike_id":"d8e03ef6-0c5e-49db-943c-98c26bf654da","system_id":"levelo_inurba_marseille","lat":43.2999,"lon":5.3741,"is_reserved":false,"is_disabled":false,"rental_uris":{"android":"levelo://app?vid=d8e03ef6-0c5e-49db-943c-98c26bf654da","ios":"levelo://app?vid=d8e03ef6-0c5e-49db-943c-98c26bf654da"},"vehicle_type_id":"4","last_reported":1768445753,"current_range_meters":4400,"station_id":"","pricing_plan_id":"cebpf4jnsgd1na2vs0mg"},{"bike_id":"f3eefd84-65d4-4ce5-a621-e7e7d135fbf1","system_id":"levelo_inurba_marseille","lat":43.308016,"lon":5.381474,"is_reserved":false,"is_disabled":false,"rental_uris":{"android":"levelo://app?vid=f3eefd84-65d4-4ce5-a621-e7e7d135fbf1","ios":"levelo://app?vid=f3eefd84-65d4-4ce5-a621-e7e7d135fbf1"},"vehicle_type_id":"4","last_reported":1768445753,"current_range_meters":4400,"station_id":"ce4bgt12rcd13ifvqce0","pricing_plan_id":"cebpf4jnsgd1na2vs0mg"},{"bike_id":"06696d2b-7b10-4489-8142-fa420e113b04","system_id":"levelo_inurba_marseille","lat":43.31363,"lon":5.38491,"is_reserved":false,"is_disabled":false,"rental_uris":{"android":"levelo://app?vid=06696d2b-7b10-4489-8142-fa420e113b04","ios":"levelo://app?vid=06696d2b-7b10-4489-8142-fa420e113b04"},"vehicle_type_id":"4","last_reported":1768445753,"current_range_meters":4400,"station_id":"ce4bgt92rcd13ifvqcf0","pricing_plan_id":"cebpf4jnsgd1na2vs0mg"},{"bike_id":"3b8c8a0b-4403-4774-ac15-61e3b8ca695c","system_id":"levelo_inurba_marseille","lat":43.27998,"lon":5.40014,"is_reserved":false,"is_disabled":false,"rental_uris":{"android":"levelo://app?vid=3b8c8a0b-4403-4774-ac15-61e3b8ca695c","ios":"levelo://app?vid=3b8c8a0b-4403-4774-ac15-61e3b8ca695c"},"vehicle_type_id":"4","last_reported":1768445753,"current_range_meters":4400,"station_id":"ce4bho92rcd13ifvqh4g","pricing_plan_id":"cebpf4jnsgd1na2vs0mg"},{"bike_id":"dbd86f85-5b5f-4ae9-8c1d-698ae30b47da","system_id":"levelo_inurba_marseille","lat":43.297038,"lon":5.366104,"is_reserved":false,"is_disabled":false,"rental_uris":{"android":"levelo://app?vid=dbd86f85-5b5f-4ae9-8c1d-698ae30b47da","ios":"levelo://app?vid=dbd86f85-5b5f-4ae9-8c1d-698ae30b47da"},"vehicle_type_id":"4","last_reported":1768445753,"current_range_meters":4400,"station_id":"ce4bgn12rcd13ifvqbt0","pricing_plan_id":"cebpf4jnsgd1na2vs0mg"},{"bike_id":"f04f4335-e06f-412d-a464-1723aa4c86a4","system_id":"levelo_inurba_marseille","lat":43.29814,"lon":5.44074,"is_reserved":false,"is_disabled":true,"rental_uris":{"android":"levelo://app?vid=f04f4335-e06f-412d-a464-1723aa4c86a4","ios":"levelo://app?vid=f04f4335-e06f-412d-a464-1723aa4c86a4"},"vehicle_type_id":"4","last_reported":1768445753,"current_range_meters":4400,"station_id":"st_d3jp68qikq2c7381ktn0","pricing_plan_id":"cebpf4jnsgd1na2vs0mg"},{"bike_id":"af615fb4-c1ed-4a4e-9e5f-56eb7f844106","system_id":"levelo_inurba_marseille","lat":43.297096,"lon":5.366072,"is_reserved":false,"is_disabled":false,"rental_uris":{"android":"levelo://app?vid=af615fb4-c1ed-4a4e-9e5f-56eb7f844106","ios":"levelo://app?vid=af615fb4-c1ed-4a4e-9e5f-56eb7f844106"},"vehicle_type_id":"4","last_reported":1768445753,"current_range_meters":4400,"station_id":"ce4bgn12rcd13ifvqbt0","pricing_plan_id":"cebpf4jnsgd1na2vs0mg"},{"bike_id":"611cbb73-54c4-4011-a401-b601214ce58b","system_id":"levelo_inurba_marseille","lat":43.25568,"lon":5.38248,"is_reserved":false,"is_disabled":false,"rental_uris":{"android":"levelo://app?vid=611cbb73-54c4-4011-a401-b601214ce58b","ios":"levelo://app?vid=611cbb73-54c4-4011-a401-b601214ce58b"},"vehicle_type_id":"4","last_reported":1768445753,"current_range_meters":4400,"station_id":"ce4bhih2rcd13ifvqfs0","pricing_plan_id":"cebpf4jnsgd1na2vs0mg"},{"bike_id":"f1a18278-64db-4726-8766-9c4203f0f39a","system_id":"levelo_inurba_marseille","lat":43.28664,"lon":5.36349,"is_reserved":false,"is_disabled":false,"rental_uris":{"android":"levelo://app?vid=f1a18278-64db-4726-8766-9c4203f0f39a","ios":"levelo://app?vid=f1a18278-64db-4726-8766-9c4203f0f39a"},"vehicle_type_id":"4","last_reported":1768445753,"current_range_meters":4400,"station_id":"ce4bhah2rcd13ifvqej0","pricing_plan_id":"cebpf4jnsgd1na2vs0mg"},{"bike_id":"5d7ebc84-6cbc-444a-98cd-1089c41e4417","system_id":"levelo_inurba_marseille","lat":43.2848,"lon":5.38436,"is_reserved":false,"is_disabled":false,"rental_uris":{"android":"levelo://app?vid=5d7ebc84-6cbc-444a-98cd-1089c41e4417","ios":"levelo://app?vid=5d7ebc84-6cbc-444a-98cd-1089c41e4417"},"vehicle_type_id":"4","last_reported":1768445753,"current_range_meters":4800,"station_id":"ce4bh512rcd13ifvqe3g","pricing_plan_id":"cebpf4jnsgd1na2vs0mg"},{"bike_id":"c6e9de66-6afd-4a9f-9bd8-25d46ddbfedb","system_id":"levelo_inurba_marseille","lat":43.290057,"lon":5.356025,"is_reserved":false,"is_disabled":false,"rental_uris":{"android":"levelo://app?vid=c6e9de66-6afd-4a9f-9bd8-25d46ddbfedb","ios":"levelo://app?vid=c6e9de66-6afd-4a9f-9bd8-25d46ddbfedb"},"vehicle_type_id":"4","last_reported":1768445753,"current_range_meters":4800,"station_id":"ce4bhb92rcd13ifvqen0","pricing_plan_id":"cebpf4jnsgd1na2vs0mg"},{"bike_id":"dd449814-efe1-440a-9793-04c9bf8e3b5c","system_id":"levelo_inurba_marseille","lat":43.29896,"lon":5.39746,"is_reserved":false,"is_disabled":false,"rental_uris":{"android":"levelo://app?vid=dd449814-efe1-440a-9793-04c9bf8e3b5c","ios":"levelo://app?vid=dd449814-efe1-440a-9793-04c9bf8e3b5c"},"vehicle_type_id":"4","last_reported":1768445753,"current_range_meters":4800,"station_id":"ce4bh0h2rcd13ifvqd50","pricing_plan_id":"cebpf4jnsgd1na2vs0mg"},{"bike_id":"326fd45d-11eb-4826-92b5-835d5b4d7fbd","system_id":"levelo_inurba_marseille","lat":43.300324,"lon":5.388794,"is_reserved":false,"is_disabled":false,"rental_uris":{"android":"levelo://app?vid=326fd45d-11eb-4826-92b5-835d5b4d7fbd","ios":"levelo://app?vid=326fd45d-11eb-4826-92b5-835d5b4d7fbd"},"vehicle_type_id":"4","last_reported":1768445753,"current_range_meters":4800,"station_id":"","pricing_plan_id":"cebpf4jnsgd1na2vs0mg"},{"bike_id":"6f06e6b3-a869-4347-9525-e6cdc60f369a","system_id":"levelo_inurba_marseille","lat":43.30217,"lon":5.39466,"is_reserved":false,"is_disabled":false,"rental_uris":{"android":"levelo://app?vid=6f06e6b3-a869-4347-9525-e6cdc60f369a","ios":"levelo://app?vid=6f06e6b3-a869-4347-9525-e6cdc60f369a"},"vehicle_type_id":"4","last_reported":1768445753,"current_range_meters":4800,"station_id":"ce4bh0p2rcd13ifvqd70","pricing_plan_id":"cebpf4jnsgd1na2vs0mg"},{"bike_id":"c584537b-62c7-4948-a162-60dcd0d33c4c","system_id":"levelo_inurba_marseille","lat":43.32354,"lon":5.36744,"is_reserved":false,"is_disabled":false,"rental_uris":{"android":"levelo://app?vid=c584537b-62c7-4948-a162-60dcd0d33c4c","ios":"levelo://app?vid=c584537b-62c7-4948-a162-60dcd0d33c4c"},"vehicle_type_id":"4","last_reported":1768445753,"current_range_meters":4800,"station_id":"ce4bhsh2rcd13ifvqi2g","pricing_plan_id":"cebpf4jnsgd1na2vs0mg"},{"bike_id":"32a6fb2e-0d07-41f5-98d9-49c5a72b9745","system_id":"levelo_inurba_marseille","lat":43.25828,"lon":5.39435,"is_reserved":false,"is_disabled":false,"rental_uris":{"android":"levelo://app?vid=32a6fb2e-0d07-41f5-98d9-49c5a72b9745","ios":"levelo://app?vid=32a6fb2e-0d07-41f5-98d9-49c5a72b9745"},"vehicle_type_id":"4","last_reported":1768445753,"current_range_meters":4800,"station_id":"ce4bhip2rcd13ifvqft0","pricing_plan_id":"cebpf4jnsgd1na2vs0mg"},{"bike_id":"85d8609f-a9f2-4108-9148-c3a77a8ea538","system_id":"levelo_inurba_marseille","lat":43.30135,"lon":5.37426,"is_reserved":false,"is_disabled":false,"rental_uris":{"android":"levelo://app?vid=85d8609f-a9f2-4108-9148-c3a77a8ea538","ios":"levelo://app?vid=85d8609f-a9f2-4108-9148-c3a77a8ea538"},"vehicle_type_id":"4","last_reported":1768445753,"current_range_meters":4800,"station_id":"ce4bgs92rcd13ifvqcc0","pricing_plan_id":"cebpf4jnsgd1na2vs0mg"},{"bike_id":"6e7b3ff7-be7d-4af1-950e-0b44673521c5","system_id":"levelo_inurba_marseille","lat":43.2668,"lon":5.38268,"is_reserved":false,"is_disabled":false,"rental_uris":{"android":"levelo://app?vid=6e7b3ff7-be7d-4af1-950e-0b44673521c5","ios":"levelo://app?vid=6e7b3ff7-be7d-4af1-950e-0b44673521c5"},"vehicle_type_id":"4","last_reported":1768445753,"current_range_meters":4800,"station_id":"ce4bhg92rcd13ifvqf90","pricing_plan_id":"cebpf4jnsgd1na2vs0mg"},{"bike_id":"c2e2cf7b-f452-4452-98fb-1edf19685bbb","system_id":"levelo_inurba_marseille","lat":43.29058,"lon":5.37159,"is_reserved":false,"is_disabled":false,"rental_uris":{"android":"levelo://app?vid=c2e2cf7b-f452-4452-98fb-1edf19685bbb","ios":"levelo://app?vid=c2e2cf7b-f452-4452-98fb-1edf19685bbb"},"vehicle_type_id":"4","last_reported":1768445753,"current_range_meters":4800,"station_id":"ce4bh5p2rcd13ifvqe4g","pricing_plan_id":"cebpf4jnsgd1na2vs0mg"},{"bike_id":"ab641631-9b71-48d5-95c3-b71e22be3c9a","system_id":"levelo_inurba_marseille","lat":43.28097,"lon":5.37841,"is_reserved":false,"is_disabled":false,"rental_uris":{"android":"levelo://app?vid=ab641631-9b71-48d5-95c3-b71e22be3c9a","ios":"levelo://app?vid=ab641631-9b71-48d5-95c3-b71e22be3c9a"},"vehicle_type_id":"4","last_reported":1768445753,"current_range_meters":4800,"station_id":"ce4bha12rcd13ifvqee0","pricing_plan_id":"cebpf4jnsgd1na2vs0mg"},{"bike_id":"21aa9c4f-92f7-4bce-94f9-8216900fb876","system_id":"levelo_inurba_marseille","lat":43.303142,"lon":5.369028,"is_reserved":false,"is_disabled":false,"rental_uris":{"android":"levelo://app?vid=21aa9c4f-92f7-4bce-94f9-8216900fb876","ios":"levelo://app?vid=21aa9c4f-92f7-4bce-94f9-8216900fb876"},"vehicle_type_id":"4","last_reported":1768445753,"current_range_meters":5600,"station_id":"ce4bgqh2rcd13ifvqc5g","pricing_plan_id":"cebpf4jnsgd1na2vs0mg"},{"bike_id":"c75b139b-6977-457c-8fab-86c172554976","system_id":"levelo_inurba_marseille","lat":43.25103,"lon":5.40455,"is_reserved":false,"is_disabled":false,"rental_uris":{"android":"levelo://app?vid=c75b139b-6977-457c-8fab-86c172554976","ios":"levelo://app?vid=c75b139b-6977-457c-8fab-86c172554976"},"vehicle_type_id":"4","last_reported":1768445753,"current_range_meters":5600,"station_id":"","pricing_plan_id":"cebpf4jnsgd1na2vs0mg"},{"bike_id":"c42c2125-a5dc-4254-83f5-ba053c9cc743","system_id":"levelo_inurba_marseille","lat":43.3092,"lon":5.40138,"is_reserved":false,"is_disabled":false,"rental_uris":{"android":"levelo://app?vid=c42c2125-a5dc-4254-83f5-ba053c9cc743","ios":"levelo://app?vid=c42c2125-a5dc-4254-83f5-ba053c9cc743"},"vehicle_type_id":"4","last_reported":1768445753,"current_range_meters":5600,"station_id":"ce4bgvp2rcd13ifvqct0","pricing_plan_id":"cebpf4jnsgd1na2vs0mg"},{"bike_id":"2b8cac29-3b87-42b5-ae6f-5e604ece2311","system_id":"levelo_inurba_marseille","lat":43.28554,"lon":5.3955,"is_reserved":false,"is_disabled":false,"rental_uris":{"android":"levelo://app?vid=2b8cac29-3b87-42b5-ae6f-5e604ece2311","ios":"levelo://app?vid=2b8cac29-3b87-42b5-ae6f-5e604ece2311"},"vehicle_type_id":"4","last_reported":1768445753,"current_range_meters":5600,"station_id":"ce4bh292rcd13ifvqdg0","pricing_plan_id":"cebpf4jnsgd1na2vs0mg"},{"bike_id":"06897417-f925-403b-9b53-83cb77fb311f","system_id":"levelo_inurba_marseille","lat":43.2288,"lon":5.35463,"is_reserved":false,"is_disabled":false,"rental_uris":{"android":"levelo://app?vid=06897417-f925-403b-9b53-83cb77fb311f","ios":"levelo://app?vid=06897417-f925-403b-9b53-83cb77fb311f"},"vehicle_type_id":"4","last_reported":1768445753,"current_range_meters":5600,"station_id":"","pricing_plan_id":"cebpf4jnsgd1na2vs0mg"},{"bike_id":"cfb63e50-a409-4cab-8013-6bb57bfec7c6","system_id":"levelo_inurba_marseille","lat":43.2903,"lon":5.38652,"is_reserved":false,"is_disabled":false,"rental_uris":{"android":"levelo://app?vid=cfb63e50-a409-4cab-8013-6bb57bfec7c6","ios":"levelo://app?vid=cfb63e50-a409-4cab-8013-6bb57bfec7c6"},"vehicle_type_id":"4","last_reported":1768445753,"current_range_meters":5600,"station_id":"ce4bh4p2rcd13ifvqe0g","pricing_plan_id":"cebpf4jnsgd1na2vs0mg"},{"bike_id":"6a2cea38-a98b-4ded-ab60-20d113ce05e0","system_id":"levelo_inurba_marseille","lat":43.25511,"lon":5.37651,"is_reserved":false,"is_disabled":false,"rental_uris":{"android":"levelo://app?vid=6a2cea38-a98b-4ded-ab60-20d113ce05e0","ios":"levelo://app?vid=6a2cea38-a98b-4ded-ab60-20d113ce05e0"},"vehicle_type_id":"4","last_reported":1768445753,"current_range_meters":5600,"station_id":"ce4bhh12rcd13ifvqff0","pricing_plan_id":"cebpf4jnsgd1na2vs0mg"},{"bike_id":"8ba98a42-fc93-44b2-846e-f07060cc21ef","system_id":"levelo_inurba_marseille","lat":43.25089,"lon":5.40327,"is_reserved":false,"is_disabled":false,"rental_uris":{"android":"levelo://app?vid=8ba98a42-fc93-44b2-846e-f07060cc21ef","ios":"levelo://app?vid=8ba98a42-fc93-44b2-846e-f07060cc21ef"},"vehicle_type_id":"4","last_reported":1768445753,"current_range_meters":5600,"station_id":"","pricing_plan_id":"cebpf4jnsgd1na2vs0mg"},{"bike_id":"217bd7c8-17b6-47d2-974c-0c95d327eb81","system_id":"levelo_inurba_marseille","lat":43.24954,"lon":5.4049,"is_reserved":false,"is_disabled":false,"rental_uris":{"android":"levelo://app?vid=217bd7c8-17b6-47d2-974c-0c95d327eb81","ios":"levelo://app?vid=217bd7c8-17b6-47d2-974c-0c95d327eb81"},"vehicle_type_id":"4","last_reported":1768445753,"current_range_meters":5600,"station_id":"st_d2ngiaodas8pm72gd1h0","pricing_plan_id":"cebpf4jnsgd1na2vs0mg"},{"bike_id":"86aaef4b-aac1-4248-ac79-0d9f37b8c62f","system_id":"levelo_inurba_marseille","lat":43.27317,"lon":5.41682,"is_reserved":false,"is_disabled":false,"rental_uris":{"android":"levelo://app?vid=86aaef4b-aac1-4248-ac79-0d9f37b8c62f","ios":"levelo://app?vid=86aaef4b-aac1-4248-ac79-0d9f37b8c62f"},"vehicle_type_id":"4","last_reported":1768445753,"current_range_meters":5600,"station_id":"","pricing_plan_id":"cebpf4jnsgd1na2vs0mg"},{"bike_id":"80b352ca-1491-4dc8-9324-4da162ab79a2","system_id":"levelo_inurba_marseille","lat":43.27925,"lon":5.39552,"is_reserved":false,"is_disabled":false,"rental_uris":{"android":"levelo://app?vid=80b352ca-1491-4dc8-9324-4da162ab79a2","ios":"levelo://app?vid=80b352ca-1491-4dc8-9324-4da162ab79a2"},"vehicle_type_id":"4","last_reported":1768445753,"current_range_meters":5600,"station_id":"ce4bhf92rcd13ifvqf40","pricing_plan_id":"cebpf4jnsgd1na2vs0mg"},{"bike_id":"e7d502f9-ee09-4b2b-b4e9-231066f0a411","system_id":"levelo_inurba_marseille","lat":43.26935,"lon":5.40268,"is_reserved":false,"is_disabled":false,"rental_uris":{"android":"levelo://app?vid=e7d502f9-ee09-4b2b-b4e9-231066f0a411","ios":"levelo://app?vid=e7d502f9-ee09-4b2b-b4e9-231066f0a411"},"vehicle_type_id":"4","last_reported":1768445753,"current_range_meters":5600,"station_id":"cjm6bp8fraef2m0cb0m0","pricing_plan_id":"cebpf4jnsgd1na2vs0mg"},{"bike_id":"ae1d99b1-82a1-460d-bd96-dc1d194fe893","system_id":"levelo_inurba_marseille","lat":43.29823,"lon":5.37648,"is_reserved":false,"is_disabled":false,"rental_uris":{"android":"levelo://app?vid=ae1d99b1-82a1-460d-bd96-dc1d194fe893","ios":"levelo://app?vid=ae1d99b1-82a1-460d-bd96-dc1d194fe893"},"vehicle_type_id":"4","last_reported":1768445753,"current_range_meters":5600,"station_id":"","pricing_plan_id":"cebpf4jnsgd1na2vs0mg"},{"bike_id":"bb9395d0-2f48-4d2f-8856-7a33136bd5ca","system_id":"levelo_inurba_marseille","lat":43.28236,"lon":5.35088,"is_reserved":false,"is_disabled":false,"rental_uris":{"android":"levelo://app?vid=bb9395d0-2f48-4d2f-8856-7a33136bd5ca","ios":"levelo://app?vid=bb9395d0-2f48-4d2f-8856-7a33136bd5ca"},"vehicle_type_id":"4","last_reported":1768445753,"current_range_meters":5600,"station_id":"","pricing_plan_id":"cebpf4jnsgd1na2vs0mg"},{"bike_id":"2dfb6b27-1a9d-4365-8ea3-5579df8f7297","system_id":"levelo_inurba_marseille","lat":43.249965,"lon":5.389361,"is_reserved":false,"is_disabled":false,"rental_uris":{"android":"levelo://app?vid=2dfb6b27-1a9d-4365-8ea3-5579df8f7297","ios":"levelo://app?vid=2dfb6b27-1a9d-4365-8ea3-5579df8f7297"},"vehicle_type_id":"4","last_reported":1768445753,"current_range_meters":5600,"station_id":"ce4bhgp2rcd13ifvqfd0","pricing_plan_id":"cebpf4jnsgd1na2vs0mg"},{"bike_id":"bd4b15a9-002c-4633-885a-3535a5835aff","system_id":"levelo_inurba_marseille","lat":43.27303,"lon":5.39946,"is_reserved":false,"is_disabled":false,"rental_uris":{"android":"levelo://app?vid=bd4b15a9-002c-4633-885a-3535a5835aff","ios":"levelo://app?vid=bd4b15a9-002c-4633-885a-3535a5835aff"},"vehicle_type_id":"4","last_reported":1768445753,"current_range_meters":5600,"station_id":"","pricing_plan_id":"cebpf4jnsgd1na2vs0mg"},{"bike_id":"57116829-dc11-4ffc-b2b1-1d9f33456c9f","system_id":"levelo_inurba_marseille","lat":43.28781,"lon":5.38853,"is_reserved":false,"is_disabled":false,"rental_uris":{"android":"levelo://app?vid=57116829-dc11-4ffc-b2b1-1d9f33456c9f","ios":"levelo://app?vid=57116829-dc11-4ffc-b2b1-1d9f33456c9f"},"vehicle_type_id":"4","last_reported":1768445753,"current_range_meters":5600,"station_id":"","pricing_plan_id":"cebpf4jnsgd1na2vs0mg"},{"bike_id":"660f8d3d-996c-4d0c-a098-476ebc30f600","system_id":"levelo_inurba_marseille","lat":43.22557,"lon":5.41625,"is_reserved":false,"is_disabled":false,"rental_uris":{"android":"levelo://app?vid=660f8d3d-996c-4d0c-a098-476ebc30f600","ios":"levelo://app?vid=660f8d3d-996c-4d0c-a098-476ebc30f600"},"vehicle_type_id":"4","last_reported":1768445753,"current_range_meters":6000,"station_id":"st_d2o4gvlbi1j2169b742g","pricing_plan_id":"cebpf4jnsgd1na2vs0mg"},{"bike_id":"7445f670-7827-4e99-80df-37c19e7cc9ec","system_id":"levelo_inurba_marseille","lat":43.320977,"lon":5.367881,"is_reserved":false,"is_disabled":false,"rental_uris":{"android":"levelo://app?vid=7445f670-7827-4e99-80df-37c19e7cc9ec","ios":"levelo://app?vid=7445f670-7827-4e99-80df-37c19e7cc9ec"},"vehicle_type_id":"4","last_reported":1768445753,"current_range_meters":6000,"station_id":"ce4bhrh2rcd13ifvqhug","pricing_plan_id":"cebpf4jnsgd1na2vs0mg"},{"bike_id":"12ef29d4-08f0-41ff-ab71-dda1f2c22c5f","system_id":"levelo_inurba_marseille","lat":43.30121,"lon":5.39869,"is_reserved":false,"is_disabled":false,"rental_uris":{"android":"levelo://app?vid=12ef29d4-08f0-41ff-ab71-dda1f2c22c5f","ios":"levelo://app?vid=12ef29d4-08f0-41ff-ab71-dda1f2c22c5f"},"vehicle_type_id":"4","last_reported":1768445753,"current_range_meters":6000,"station_id":"ce4bh0h2rcd13ifvqd40","pricing_plan_id":"cebpf4jnsgd1na2vs0mg"},{"bike_id":"52dc7a23-02b1-49ea-88fe-a1d65ef8f548","system_id":"levelo_inurba_marseille","lat":43.22927,"lon":5.35383,"is_reserved":false,"is_disabled":false,"rental_uris":{"android":"levelo://app?vid=52dc7a23-02b1-49ea-88fe-a1d65ef8f548","ios":"levelo://app?vid=52dc7a23-02b1-49ea-88fe-a1d65ef8f548"},"vehicle_type_id":"4","last_reported":1768445753,"current_range_meters":6000,"station_id":"cpo3532slgdg3j2ikp40","pricing_plan_id":"cebpf4jnsgd1na2vs0mg"},{"bike_id":"8803a6e9-67a3-479e-b849-a893754260d5","system_id":"levelo_inurba_marseille","lat":43.22929,"lon":5.35378,"is_reserved":false,"is_disabled":false,"rental_uris":{"android":"levelo://app?vid=8803a6e9-67a3-479e-b849-a893754260d5","ios":"levelo://app?vid=8803a6e9-67a3-479e-b849-a893754260d5"},"vehicle_type_id":"4","last_reported":1768445753,"current_range_meters":6000,"station_id":"cpo3532slgdg3j2ikp40","pricing_plan_id":"cebpf4jnsgd1na2vs0mg"},{"bike_id":"091c8081-61de-43ac-bb2c-74077a5d4149","system_id":"levelo_inurba_marseille","lat":43.22577,"lon":5.41595,"is_reserved":false,"is_disabled":false,"rental_uris":{"android":"levelo://app?vid=091c8081-61de-43ac-bb2c-74077a5d4149","ios":"levelo://app?vid=091c8081-61de-43ac-bb2c-74077a5d4149"},"vehicle_type_id":"4","last_reported":1768445753,"current_range_meters":6000,"station_id":"st_d2o4gvlbi1j2169b742g","pricing_plan_id":"cebpf4jnsgd1na2vs0mg"},{"bike_id":"5d13ff00-22b5-4755-aceb-a0d2d3b8372a","system_id":"levelo_inurba_marseille","lat":43.2848,"lon":5.38549,"is_reserved":false,"is_disabled":false,"rental_uris":{"android":"levelo://app?vid=5d13ff00-22b5-4755-aceb-a0d2d3b8372a","ios":"levelo://app?vid=5d13ff00-22b5-4755-aceb-a0d2d3b8372a"},"vehicle_type_id":"4","last_reported":1768445753,"current_range_meters":6000,"station_id":"ce4bh8p2rcd13ifvqeb0","pricing_plan_id":"cebpf4jnsgd1na2vs0mg"},{"bike_id":"e3711e41-0161-46aa-9164-7f9c4fb49d5a","system_id":"levelo_inurba_marseille","lat":43.21187,"lon":5.35069,"is_reserved":false,"is_disabled":false,"rental_uris":{"android":"levelo://app?vid=e3711e41-0161-46aa-9164-7f9c4fb49d5a","ios":"levelo://app?vid=e3711e41-0161-46aa-9164-7f9c4fb49d5a"},"vehicle_type_id":"4","last_reported":1768445753,"current_range_meters":6000,"station_id":"st_cvj6sg6p6f1abm77japg","pricing_plan_id":"cebpf4jnsgd1na2vs0mg"},{"bike_id":"d4e4844e-6dd4-4273-a2ed-efc37f233326","system_id":"levelo_inurba_marseille","lat":43.29534,"lon":5.38561,"is_reserved":false,"is_disabled":false,"rental_uris":{"android":"levelo://app?vid=d4e4844e-6dd4-4273-a2ed-efc37f233326","ios":"levelo://app?vid=d4e4844e-6dd4-4273-a2ed-efc37f233326"},"vehicle_type_id":"4","last_reported":1768445753,"current_range_meters":6000,"station_id":"ce4bgih2rcd13ifvqba0","pricing_plan_id":"cebpf4jnsgd1na2vs0mg"},{"bike_id":"037a0099-1ded-43c7-8e30-7e3e2a0dc4bc","system_id":"levelo_inurba_marseille","lat":43.24963,"lon":5.40504,"is_reserved":false,"is_disabled":false,"rental_uris":{"android":"levelo://app?vid=037a0099-1ded-43c7-8e30-7e3e2a0dc4bc","ios":"levelo://app?vid=037a0099-1ded-43c7-8e30-7e3e2a0dc4bc"},"vehicle_type_id":"4","last_reported":1768445753,"current_range_meters":6000,"station_id":"st_d2ngiaodas8pm72gd1h0","pricing_plan_id":"cebpf4jnsgd1na2vs0mg"},{"bike_id":"9446f974-9aa4-4917-8d61-91db3b380eef","system_id":"levelo_inurba_marseille","lat":43.29876,"lon":5.36254,"is_reserved":false,"is_disabled":false,"rental_uris":{"android":"levelo://app?vid=9446f974-9aa4-4917-8d61-91db3b380eef","ios":"levelo://app?vid=9446f974-9aa4-4917-8d61-91db3b380eef"},"vehicle_type_id":"4","last_reported":1768445753,"current_range_meters":6400,"station_id":"ce4bgpp2rcd13ifvqc3g","pricing_plan_id":"cebpf4jnsgd1na2vs0mg"},{"bike_id":"03e9f015-73ba-4c3e-a345-a62206b593d1","system_id":"levelo_inurba_marseille","lat":43.32493,"lon":5.36558,"is_reserved":false,"is_disabled":false,"rental_uris":{"android":"levelo://app?vid=03e9f015-73ba-4c3e-a345-a62206b593d1","ios":"levelo://app?vid=03e9f015-73ba-4c3e-a345-a62206b593d1"},"vehicle_type_id":"4","last_reported":1768445753,"current_range_meters":6400,"station_id":"ce4bhs12rcd13ifvqhvg","pricing_plan_id":"cebpf4jnsgd1na2vs0mg"},{"bike_id":"48e1370e-6b52-4ec1-971f-7c1a4445b804","system_id":"levelo_inurba_marseille","lat":43.25579,"lon":5.38223,"is_reserved":false,"is_disabled":false,"rental_uris":{"android":"levelo://app?vid=48e1370e-6b52-4ec1-971f-7c1a4445b804","ios":"levelo://app?vid=48e1370e-6b52-4ec1-971f-7c1a4445b804"},"vehicle_type_id":"4","last_reported":1768445753,"current_range_meters":6400,"station_id":"ce4bhih2rcd13ifvqfs0","pricing_plan_id":"cebpf4jnsgd1na2vs0mg"},{"bike_id":"c8c9f1e3-cfb9-4095-8d70-4c877ea7f0b9","system_id":"levelo_inurba_marseille","lat":43.31679,"lon":5.38286,"is_reserved":false,"is_disabled":false,"rental_uris":{"android":"levelo://app?vid=c8c9f1e3-cfb9-4095-8d70-4c877ea7f0b9","ios":"levelo://app?vid=c8c9f1e3-cfb9-4095-8d70-4c877ea7f0b9"},"vehicle_type_id":"4","last_reported":1768445753,"current_range_meters":6400,"station_id":"","pricing_plan_id":"cebpf4jnsgd1na2vs0mg"},{"bike_id":"5410fd45-b8b4-470d-9bd7-ad1acafbc363","system_id":"levelo_inurba_marseille","lat":43.28477,"lon":5.48396,"is_reserved":false,"is_disabled":false,"rental_uris":{"android":"levelo://app?vid=5410fd45-b8b4-470d-9bd7-ad1acafbc363","ios":"levelo://app?vid=5410fd45-b8b4-470d-9bd7-ad1acafbc363"},"vehicle_type_id":"4","last_reported":1768445753,"current_range_meters":6400,"station_id":"","pricing_plan_id":"cebpf4jnsgd1na2vs0mg"},{"bike_id":"b16c0fde-3570-452f-a37a-d567538e6b84","system_id":"levelo_inurba_marseille","lat":43.29054,"lon":5.37521,"is_reserved":false,"is_disabled":false,"rental_uris":{"android":"levelo://app?vid=b16c0fde-3570-452f-a37a-d567538e6b84","ios":"levelo://app?vid=b16c0fde-3570-452f-a37a-d567538e6b84"},"vehicle_type_id":"4","last_reported":1768445753,"current_range_meters":6400,"station_id":"ce4bh692rcd13ifvqe90","pricing_plan_id":"cebpf4jnsgd1na2vs0mg"},{"bike_id":"b54d7711-f055-409c-950d-e2c8bc74d3bc","system_id":"levelo_inurba_marseille","lat":43.24814,"lon":5.37437,"is_reserved":false,"is_disabled":false,"rental_uris":{"android":"levelo://app?vid=b54d7711-f055-409c-950d-e2c8bc74d3bc","ios":"levelo://app?vid=b54d7711-f055-409c-950d-e2c8bc74d3bc"},"vehicle_type_id":"4","last_reported":1768445753,"current_range_meters":6400,"station_id":"ce4bhgh2rcd13ifvqfb0","pricing_plan_id":"cebpf4jnsgd1na2vs0mg"},{"bike_id":"4beb922c-2cd5-4d84-aec5-64e45b18556f","system_id":"levelo_inurba_marseille","lat":43.29877,"lon":5.38912,"is_reserved":false,"is_disabled":false,"rental_uris":{"android":"levelo://app?vid=4beb922c-2cd5-4d84-aec5-64e45b18556f","ios":"levelo://app?vid=4beb922c-2cd5-4d84-aec5-64e45b18556f"},"vehicle_type_id":"4","last_reported":1768445753,"current_range_meters":6400,"station_id":"ce4bh392rcd13ifvqdl0","pricing_plan_id":"cebpf4jnsgd1na2vs0mg"},{"bike_id":"f7f1290b-7f50-4f22-9097-2ad496d483af","system_id":"levelo_inurba_marseille","lat":43.25733,"lon":5.41088,"is_reserved":false,"is_disabled":false,"rental_uris":{"android":"levelo://app?vid=f7f1290b-7f50-4f22-9097-2ad496d483af","ios":"levelo://app?vid=f7f1290b-7f50-4f22-9097-2ad496d483af"},"vehicle_type_id":"4","last_reported":1768445753,"current_range_meters":6400,"station_id":"ce4bhkp2rcd13ifvqgd0","pricing_plan_id":"cebpf4jnsgd1na2vs0mg"},{"bike_id":"41321a9d-8afe-4af2-821f-6ca020f22555","system_id":"levelo_inurba_marseille","lat":43.28697,"lon":5.37384,"is_reserved":false,"is_disabled":false,"rental_uris":{"android":"levelo://app?vid=41321a9d-8afe-4af2-821f-6ca020f22555","ios":"levelo://app?vid=41321a9d-8afe-4af2-821f-6ca020f22555"},"vehicle_type_id":"4","last_reported":1768445753,"current_range_meters":6400,"station_id":"ce4bh3p2rcd13ifvqdq0","pricing_plan_id":"cebpf4jnsgd1na2vs0mg"},{"bike_id":"55194f29-42dd-4454-96b2-a5d4401446b6","system_id":"levelo_inurba_marseille","lat":43.299406,"lon":5.427523,"is_reserved":false,"is_disabled":false,"rental_uris":{"android":"levelo://app?vid=55194f29-42dd-4454-96b2-a5d4401446b6","ios":"levelo://app?vid=55194f29-42dd-4454-96b2-a5d4401446b6"},"vehicle_type_id":"4","last_reported":1768445753,"current_range_meters":6400,"station_id":"","pricing_plan_id":"cebpf4jnsgd1na2vs0mg"},{"bike_id":"c2354b44-17c1-478f-94d4-6c400a3bd0b6","system_id":"levelo_inurba_marseille","lat":43.24163,"lon":5.36394,"is_reserved":false,"is_disabled":false,"rental_uris":{"android":"levelo://app?vid=c2354b44-17c1-478f-94d4-6c400a3bd0b6","ios":"levelo://app?vid=c2354b44-17c1-478f-94d4-6c400a3bd0b6"},"vehicle_type_id":"4","last_reported":1768445753,"current_range_meters":6400,"station_id":"cpo36qri1sfpv3e86is0","pricing_plan_id":"cebpf4jnsgd1na2vs0mg"},{"bike_id":"99e09e4c-4502-4829-ba5b-8e0123e41d14","system_id":"levelo_inurba_marseille","lat":43.31982,"lon":5.38131,"is_reserved":false,"is_disabled":false,"rental_uris":{"android":"levelo://app?vid=99e09e4c-4502-4829-ba5b-8e0123e41d14","ios":"levelo://app?vid=99e09e4c-4502-4829-ba5b-8e0123e41d14"},"vehicle_type_id":"4","last_reported":1768445753,"current_range_meters":6400,"station_id":"ce4bhr12rcd13ifvqhpg","pricing_plan_id":"cebpf4jnsgd1na2vs0mg"},{"bike_id":"880c69e6-d51d-4239-9e42-68197473a439","system_id":"levelo_inurba_marseille","lat":43.28487,"lon":5.39137,"is_reserved":false,"is_disabled":false,"rental_uris":{"android":"levelo://app?vid=880c69e6-d51d-4239-9e42-68197473a439","ios":"levelo://app?vid=880c69e6-d51d-4239-9e42-68197473a439"},"vehicle_type_id":"4","last_reported":1768445753,"current_range_meters":6400,"station_id":"","pricing_plan_id":"cebpf4jnsgd1na2vs0mg"},{"bike_id":"51d690d5-8b8d-4383-a47a-b8a5e83da85a","system_id":"levelo_inurba_marseille","lat":43.28251,"lon":5.35086,"is_reserved":false,"is_disabled":false,"rental_uris":{"android":"levelo://app?vid=51d690d5-8b8d-4383-a47a-b8a5e83da85a","ios":"levelo://app?vid=51d690d5-8b8d-4383-a47a-b8a5e83da85a"},"vehicle_type_id":"4","last_reported":1768445753,"current_range_meters":6800,"station_id":"ce4bhbp2rcd13ifvqerg","pricing_plan_id":"cebpf4jnsgd1na2vs0mg"},{"bike_id":"2f317efe-a01b-468a-9036-21dfc4cc3358","system_id":"levelo_inurba_marseille","lat":43.25824,"lon":5.39422,"is_reserved":false,"is_disabled":false,"rental_uris":{"android":"levelo://app?vid=2f317efe-a01b-468a-9036-21dfc4cc3358","ios":"levelo://app?vid=2f317efe-a01b-468a-9036-21dfc4cc3358"},"vehicle_type_id":"4","last_reported":1768445753,"current_range_meters":6800,"station_id":"ce4bhip2rcd13ifvqft0","pricing_plan_id":"cebpf4jnsgd1na2vs0mg"},{"bike_id":"2a682e48-4901-4884-af44-aaa6a8d2add6","system_id":"levelo_inurba_marseille","lat":43.24058,"lon":5.37754,"is_reserved":false,"is_disabled":false,"rental_uris":{"android":"levelo://app?vid=2a682e48-4901-4884-af44-aaa6a8d2add6","ios":"levelo://app?vid=2a682e48-4901-4884-af44-aaa6a8d2add6"},"vehicle_type_id":"4","last_reported":1768445753,"current_range_meters":6800,"station_id":"ce4bhnp2rcd13ifvqgvg","pricing_plan_id":"cebpf4jnsgd1na2vs0mg"},{"bike_id":"f63481b5-3ad0-432d-95f2-2d5edb2a79b9","system_id":"levelo_inurba_marseille","lat":43.25085,"lon":5.39512,"is_reserved":false,"is_disabled":false,"rental_uris":{"android":"levelo://app?vid=f63481b5-3ad0-432d-95f2-2d5edb2a79b9","ios":"levelo://app?vid=f63481b5-3ad0-432d-95f2-2d5edb2a79b9"},"vehicle_type_id":"4","last_reported":1768445753,"current_range_meters":6800,"station_id":"ce4bhm12rcd13ifvqgkg","pricing_plan_id":"cebpf4jnsgd1na2vs0mg"},{"bike_id":"e11889a7-dd00-4680-82ad-dc48c0a7f8b9","system_id":"levelo_inurba_marseille","lat":43.22926,"lon":5.35398,"is_reserved":false,"is_disabled":false,"rental_uris":{"android":"levelo://app?vid=e11889a7-dd00-4680-82ad-dc48c0a7f8b9","ios":"levelo://app?vid=e11889a7-dd00-4680-82ad-dc48c0a7f8b9"},"vehicle_type_id":"4","last_reported":1768445753,"current_range_meters":6800,"station_id":"cpo3532slgdg3j2ikp40","pricing_plan_id":"cebpf4jnsgd1na2vs0mg"},{"bike_id":"ab4c7e8d-c082-49f2-ad38-3b04b1436978","system_id":"levelo_inurba_marseille","lat":43.22563,"lon":5.41636,"is_reserved":false,"is_disabled":false,"rental_uris":{"android":"levelo://app?vid=ab4c7e8d-c082-49f2-ad38-3b04b1436978","ios":"levelo://app?vid=ab4c7e8d-c082-49f2-ad38-3b04b1436978"},"vehicle_type_id":"4","last_reported":1768445753,"current_range_meters":6800,"station_id":"st_d2o4gvlbi1j2169b742g","pricing_plan_id":"cebpf4jnsgd1na2vs0mg"},{"bike_id":"554c04e7-941a-4c22-b472-97e077e3a312","system_id":"levelo_inurba_marseille","lat":43.301337,"lon":5.403835,"is_reserved":false,"is_disabled":false,"rental_uris":{"android":"levelo://app?vid=554c04e7-941a-4c22-b472-97e077e3a312","ios":"levelo://app?vid=554c04e7-941a-4c22-b472-97e077e3a312"},"vehicle_type_id":"4","last_reported":1768445753,"current_range_meters":6800,"station_id":"","pricing_plan_id":"cebpf4jnsgd1na2vs0mg"},{"bike_id":"7420a463-05be-48d3-a089-82560d5ea99f","system_id":"levelo_inurba_marseille","lat":43.251164,"lon":5.403155,"is_reserved":false,"is_disabled":false,"rental_uris":{"android":"levelo://app?vid=7420a463-05be-48d3-a089-82560d5ea99f","ios":"levelo://app?vid=7420a463-05be-48d3-a089-82560d5ea99f"},"vehicle_type_id":"4","last_reported":1768445753,"current_range_meters":6800,"station_id":"ce4bhlh2rcd13ifvqgig","pricing_plan_id":"cebpf4jnsgd1na2vs0mg"},{"bike_id":"961fd59e-d441-42f0-a67c-7f68ed43d155","system_id":"levelo_inurba_marseille","lat":43.26015,"lon":5.41735,"is_reserved":false,"is_disabled":false,"rental_uris":{"android":"levelo://app?vid=961fd59e-d441-42f0-a67c-7f68ed43d155","ios":"levelo://app?vid=961fd59e-d441-42f0-a67c-7f68ed43d155"},"vehicle_type_id":"4","last_reported":1768445753,"current_range_meters":6800,"station_id":"","pricing_plan_id":"cebpf4jnsgd1na2vs0mg"},{"bike_id":"c8fd2661-ffed-44f1-96f4-fbda7837362a","system_id":"levelo_inurba_marseille","lat":43.298418,"lon":5.362712,"is_reserved":false,"is_disabled":false,"rental_uris":{"android":"levelo://app?vid=c8fd2661-ffed-44f1-96f4-fbda7837362a","ios":"levelo://app?vid=c8fd2661-ffed-44f1-96f4-fbda7837362a"},"vehicle_type_id":"4","last_reported":1768445753,"current_range_meters":6800,"station_id":"ce4bgpp2rcd13ifvqc3g","pricing_plan_id":"cebpf4jnsgd1na2vs0mg"},{"bike_id":"c98051db-5841-432c-a36b-9ad9148725d8","system_id":"levelo_inurba_marseille","lat":43.298941,"lon":5.436654,"is_reserved":false,"is_disabled":false,"rental_uris":{"android":"levelo://app?vid=c98051db-5841-432c-a36b-9ad9148725d8","ios":"levelo://app?vid=c98051db-5841-432c-a36b-9ad9148725d8"},"vehicle_type_id":"4","last_reported":1768445753,"current_range_meters":6800,"station_id":"ce4bhpp2rcd13ifvqhfg","pricing_plan_id":"cebpf4jnsgd1na2vs0mg"},{"bike_id":"699c6bb0-1655-47f0-86fb-78256d649744","system_id":"levelo_inurba_marseille","lat":43.27825,"lon":5.40704,"is_reserved":false,"is_disabled":false,"rental_uris":{"android":"levelo://app?vid=699c6bb0-1655-47f0-86fb-78256d649744","ios":"levelo://app?vid=699c6bb0-1655-47f0-86fb-78256d649744"},"vehicle_type_id":"4","last_reported":1768445753,"current_range_meters":6800,"station_id":"ce4bhnh2rcd13ifvqgtg","pricing_plan_id":"cebpf4jnsgd1na2vs0mg"},{"bike_id":"96056386-d9a6-4636-bb5c-976733254508","system_id":"levelo_inurba_marseille","lat":43.21192,"lon":5.35082,"is_reserved":false,"is_disabled":false,"rental_uris":{"android":"levelo://app?vid=96056386-d9a6-4636-bb5c-976733254508","ios":"levelo://app?vid=96056386-d9a6-4636-bb5c-976733254508"},"vehicle_type_id":"4","last_reported":1768445753,"current_range_meters":6800,"station_id":"","pricing_plan_id":"cebpf4jnsgd1na2vs0mg"},{"bike_id":"2fd51f60-58e0-4232-ba97-2c8a3ff26cf5","system_id":"levelo_inurba_marseille","lat":43.31078,"lon":5.38345,"is_reserved":false,"is_disabled":false,"rental_uris":{"android":"levelo://app?vid=2fd51f60-58e0-4232-ba97-2c8a3ff26cf5","ios":"levelo://app?vid=2fd51f60-58e0-4232-ba97-2c8a3ff26cf5"},"vehicle_type_id":"4","last_reported":1768445753,"current_range_meters":6800,"station_id":"ce4bgv92rcd13ifvqcr0","pricing_plan_id":"cebpf4jnsgd1na2vs0mg"},{"bike_id":"ff28faa0-8783-4c97-9c47-36d61ced7d6d","system_id":"levelo_inurba_marseille","lat":43.2945,"lon":5.39755,"is_reserved":false,"is_disabled":false,"rental_uris":{"android":"levelo://app?vid=ff28faa0-8783-4c97-9c47-36d61ced7d6d","ios":"levelo://app?vid=ff28faa0-8783-4c97-9c47-36d61ced7d6d"},"vehicle_type_id":"4","last_reported":1768445753,"current_range_meters":6800,"station_id":"ce4bh3h2rcd13ifvqdo0","pricing_plan_id":"cebpf4jnsgd1na2vs0mg"},{"bike_id":"0e7f877c-657f-4ed6-b108-38dcfff66a80","system_id":"levelo_inurba_marseille","lat":43.26352,"lon":5.4107,"is_reserved":false,"is_disabled":false,"rental_uris":{"android":"levelo://app?vid=0e7f877c-657f-4ed6-b108-38dcfff66a80","ios":"levelo://app?vid=0e7f877c-657f-4ed6-b108-38dcfff66a80"},"vehicle_type_id":"4","last_reported":1768445753,"current_range_meters":6800,"station_id":"st_d4e5ca6na9uc73bfl5fg","pricing_plan_id":"cebpf4jnsgd1na2vs0mg"},{"bike_id":"cf088183-b1ff-4035-9dc1-cb493bb7abb6","system_id":"levelo_inurba_marseille","lat":43.28,"lon":5.41665,"is_reserved":false,"is_disabled":false,"rental_uris":{"android":"levelo://app?vid=cf088183-b1ff-4035-9dc1-cb493bb7abb6","ios":"levelo://app?vid=cf088183-b1ff-4035-9dc1-cb493bb7abb6"},"vehicle_type_id":"4","last_reported":1768445753,"current_range_meters":6800,"station_id":"ce4bho12rcd13ifvqh1g","pricing_plan_id":"cebpf4jnsgd1na2vs0mg"},{"bike_id":"d969dc06-74de-4e11-bf39-9e12c3807e44","system_id":"levelo_inurba_marseille","lat":43.26562,"lon":5.40338,"is_reserved":false,"is_disabled":false,"rental_uris":{"android":"levelo://app?vid=d969dc06-74de-4e11-bf39-9e12c3807e44","ios":"levelo://app?vid=d969dc06-74de-4e11-bf39-9e12c3807e44"},"vehicle_type_id":"4","last_reported":1768445753,"current_range_meters":7200,"station_id":"ce4bhmp2rcd13ifvqgng","pricing_plan_id":"cebpf4jnsgd1na2vs0mg"},{"bike_id":"5ba4945e-cd85-4bdc-87d5-6bc29d2218f0","system_id":"levelo_inurba_marseille","lat":43.30631,"lon":5.4007,"is_reserved":false,"is_disabled":false,"rental_uris":{"android":"levelo://app?vid=5ba4945e-cd85-4bdc-87d5-6bc29d2218f0","ios":"levelo://app?vid=5ba4945e-cd85-4bdc-87d5-6bc29d2218f0"},"vehicle_type_id":"4","last_reported":1768445753,"current_range_meters":7200,"station_id":"ce4bh112rcd13ifvqda0","pricing_plan_id":"cebpf4jnsgd1na2vs0mg"},{"bike_id":"634a5032-07c2-4ad0-b886-0e21c013fdce","system_id":"levelo_inurba_marseille","lat":43.25565,"lon":5.38242,"is_reserved":false,"is_disabled":false,"rental_uris":{"android":"levelo://app?vid=634a5032-07c2-4ad0-b886-0e21c013fdce","ios":"levelo://app?vid=634a5032-07c2-4ad0-b886-0e21c013fdce"},"vehicle_type_id":"4","last_reported":1768445753,"current_range_meters":7200,"station_id":"ce4bhih2rcd13ifvqfs0","pricing_plan_id":"cebpf4jnsgd1na2vs0mg"},{"bike_id":"18e1df7d-36bb-4ff7-a83a-8c39685374ad","system_id":"levelo_inurba_marseille","lat":43.28207,"lon":5.39038,"is_reserved":false,"is_disabled":false,"rental_uris":{"android":"levelo://app?vid=18e1df7d-36bb-4ff7-a83a-8c39685374ad","ios":"levelo://app?vid=18e1df7d-36bb-4ff7-a83a-8c39685374ad"},"vehicle_type_id":"4","last_reported":1768445753,"current_range_meters":7200,"station_id":"ce4bhn92rcd13ifvqgsg","pricing_plan_id":"cebpf4jnsgd1na2vs0mg"},{"bike_id":"d8b52035-9107-4203-ba3b-8ab85229defc","system_id":"levelo_inurba_marseille","lat":43.25627,"lon":5.40029,"is_reserved":false,"is_disabled":false,"rental_uris":{"android":"levelo://app?vid=d8b52035-9107-4203-ba3b-8ab85229defc","ios":"levelo://app?vid=d8b52035-9107-4203-ba3b-8ab85229defc"},"vehicle_type_id":"4","last_reported":1768445753,"current_range_meters":7200,"station_id":"","pricing_plan_id":"cebpf4jnsgd1na2vs0mg"},{"bike_id":"1c751fc0-0d04-4771-bc12-1ec910172770","system_id":"levelo_inurba_marseille","lat":43.29272,"lon":5.40138,"is_reserved":false,"is_disabled":false,"rental_uris":{"android":"levelo://app?vid=1c751fc0-0d04-4771-bc12-1ec910172770","ios":"levelo://app?vid=1c751fc0-0d04-4771-bc12-1ec910172770"},"vehicle_type_id":"4","last_reported":1768445753,"current_range_meters":7200,"station_id":"ce4bh312rcd13ifvqdk0","pricing_plan_id":"cebpf4jnsgd1na2vs0mg"},{"bike_id":"6d5b743f-0d0d-4728-9aac-92cae33bf20c","system_id":"levelo_inurba_marseille","lat":43.25577,"lon":5.38217,"is_reserved":false,"is_disabled":false,"rental_uris":{"android":"levelo://app?vid=6d5b743f-0d0d-4728-9aac-92cae33bf20c","ios":"levelo://app?vid=6d5b743f-0d0d-4728-9aac-92cae33bf20c"},"vehicle_type_id":"4","last_reported":1768445753,"current_range_meters":7200,"station_id":"ce4bhih2rcd13ifvqfs0","pricing_plan_id":"cebpf4jnsgd1na2vs0mg"},{"bike_id":"0b8f588c-5718-4485-a505-d9e9d4b9d64a","system_id":"levelo_inurba_marseille","lat":43.26575,"lon":5.4032,"is_reserved":false,"is_disabled":false,"rental_uris":{"android":"levelo://app?vid=0b8f588c-5718-4485-a505-d9e9d4b9d64a","ios":"levelo://app?vid=0b8f588c-5718-4485-a505-d9e9d4b9d64a"},"vehicle_type_id":"4","last_reported":1768445753,"current_range_meters":7200,"station_id":"ce4bhmp2rcd13ifvqgng","pricing_plan_id":"cebpf4jnsgd1na2vs0mg"},{"bike_id":"f1177697-24b8-4122-96be-92006a04ddc7","system_id":"levelo_inurba_marseille","lat":43.27813,"lon":5.407,"is_reserved":false,"is_disabled":false,"rental_uris":{"android":"levelo://app?vid=f1177697-24b8-4122-96be-92006a04ddc7","ios":"levelo://app?vid=f1177697-24b8-4122-96be-92006a04ddc7"},"vehicle_type_id":"4","last_reported":1768445753,"current_range_meters":7200,"station_id":"ce4bhnh2rcd13ifvqgtg","pricing_plan_id":"cebpf4jnsgd1na2vs0mg"},{"bike_id":"aac02660-451c-4466-97cc-03bd6873da26","system_id":"levelo_inurba_marseille","lat":43.24808,"lon":5.37464,"is_reserved":false,"is_disabled":false,"rental_uris":{"android":"levelo://app?vid=aac02660-451c-4466-97cc-03bd6873da26","ios":"levelo://app?vid=aac02660-451c-4466-97cc-03bd6873da26"},"vehicle_type_id":"4","last_reported":1768445753,"current_range_meters":7200,"station_id":"ce4bhgh2rcd13ifvqfb0","pricing_plan_id":"cebpf4jnsgd1na2vs0mg"},{"bike_id":"3b326f81-b0c4-4b16-a9c9-f528a517d078","system_id":"levelo_inurba_marseille","lat":43.23201,"lon":5.35562,"is_reserved":false,"is_disabled":false,"rental_uris":{"android":"levelo://app?vid=3b326f81-b0c4-4b16-a9c9-f528a517d078","ios":"levelo://app?vid=3b326f81-b0c4-4b16-a9c9-f528a517d078"},"vehicle_type_id":"4","last_reported":1768445753,"current_range_meters":7200,"station_id":"ce4bhu92rcd13ifvqi70","pricing_plan_id":"cebpf4jnsgd1na2vs0mg"},{"bike_id":"ec7cfe69-ce17-4347-9607-bf42e20090ad","system_id":"levelo_inurba_marseille","lat":43.32354,"lon":5.36744,"is_reserved":false,"is_disabled":false,"rental_uris":{"android":"levelo://app?vid=ec7cfe69-ce17-4347-9607-bf42e20090ad","ios":"levelo://app?vid=ec7cfe69-ce17-4347-9607-bf42e20090ad"},"vehicle_type_id":"4","last_reported":1768445753,"current_range_meters":7200,"station_id":"ce4bhsh2rcd13ifvqi2g","pricing_plan_id":"cebpf4jnsgd1na2vs0mg"},{"bike_id":"0c10e763-537e-4349-bed5-58c5048433a6","system_id":"levelo_inurba_marseille","lat":43.290077,"lon":5.356067,"is_reserved":false,"is_disabled":false,"rental_uris":{"android":"levelo://app?vid=0c10e763-537e-4349-bed5-58c5048433a6","ios":"levelo://app?vid=0c10e763-537e-4349-bed5-58c5048433a6"},"vehicle_type_id":"4","last_reported":1768445753,"current_range_meters":7200,"station_id":"ce4bhb92rcd13ifvqen0","pricing_plan_id":"cebpf4jnsgd1na2vs0mg"},{"bike_id":"4a0910bc-2cb8-4117-a88f-aa517b88b474","system_id":"levelo_inurba_marseille","lat":43.34422,"lon":5.39969,"is_reserved":false,"is_disabled":false,"rental_uris":{"android":"levelo://app?vid=4a0910bc-2cb8-4117-a88f-aa517b88b474","ios":"levelo://app?vid=4a0910bc-2cb8-4117-a88f-aa517b88b474"},"vehicle_type_id":"4","last_reported":1768445753,"current_range_meters":7200,"station_id":"","pricing_plan_id":"cebpf4jnsgd1na2vs0mg"},{"bike_id":"83b24877-4fa1-4cbc-9729-5d9b1f26a09d","system_id":"levelo_inurba_marseille","lat":43.2965,"lon":5.39156,"is_reserved":false,"is_disabled":false,"rental_uris":{"android":"levelo://app?vid=83b24877-4fa1-4cbc-9729-5d9b1f26a09d","ios":"levelo://app?vid=83b24877-4fa1-4cbc-9729-5d9b1f26a09d"},"vehicle_type_id":"4","last_reported":1768445753,"current_range_meters":7200,"station_id":"","pricing_plan_id":"cebpf4jnsgd1na2vs0mg"},{"bike_id":"03bea929-ded9-4f0a-b535-3ced67ddbf39","system_id":"levelo_inurba_marseille","lat":43.24638,"lon":5.43157,"is_reserved":false,"is_disabled":false,"rental_uris":{"android":"levelo://app?vid=03bea929-ded9-4f0a-b535-3ced67ddbf39","ios":"levelo://app?vid=03bea929-ded9-4f0a-b535-3ced67ddbf39"},"vehicle_type_id":"4","last_reported":1768445753,"current_range_meters":7200,"station_id":"st_d2m6c4gdas8pm72e190g","pricing_plan_id":"cebpf4jnsgd1na2vs0mg"},{"bike_id":"815c0b22-45a5-4b1e-95ee-7d2fbb32648f","system_id":"levelo_inurba_marseille","lat":43.29272,"lon":5.40127,"is_reserved":false,"is_disabled":false,"rental_uris":{"android":"levelo://app?vid=815c0b22-45a5-4b1e-95ee-7d2fbb32648f","ios":"levelo://app?vid=815c0b22-45a5-4b1e-95ee-7d2fbb32648f"},"vehicle_type_id":"4","last_reported":1768445753,"current_range_meters":7200,"station_id":"ce4bh312rcd13ifvqdk0","pricing_plan_id":"cebpf4jnsgd1na2vs0mg"},{"bike_id":"26fa4c58-493f-4d6e-be2d-78b8d3f85e57","system_id":"levelo_inurba_marseille","lat":43.31763,"lon":5.39014,"is_reserved":false,"is_disabled":false,"rental_uris":{"android":"levelo://app?vid=26fa4c58-493f-4d6e-be2d-78b8d3f85e57","ios":"levelo://app?vid=26fa4c58-493f-4d6e-be2d-78b8d3f85e57"},"vehicle_type_id":"4","last_reported":1768445753,"current_range_meters":7200,"station_id":"ce4bhqp2rcd13ifvqhng","pricing_plan_id":"cebpf4jnsgd1na2vs0mg"},{"bike_id":"42d943ae-7617-4c53-bcea-8d4a81f83185","system_id":"levelo_inurba_marseille","lat":43.22563,"lon":5.41621,"is_reserved":false,"is_disabled":false,"rental_uris":{"android":"levelo://app?vid=42d943ae-7617-4c53-bcea-8d4a81f83185","ios":"levelo://app?vid=42d943ae-7617-4c53-bcea-8d4a81f83185"},"vehicle_type_id":"4","last_reported":1768445753,"current_range_meters":7200,"station_id":"st_d2o4gvlbi1j2169b742g","pricing_plan_id":"cebpf4jnsgd1na2vs0mg"},{"bike_id":"68ae23aa-b332-4f3e-8a51-bb845df82b9e","system_id":"levelo_inurba_marseille","lat":43.25577,"lon":5.38236,"is_reserved":false,"is_disabled":false,"rental_uris":{"android":"levelo://app?vid=68ae23aa-b332-4f3e-8a51-bb845df82b9e","ios":"levelo://app?vid=68ae23aa-b332-4f3e-8a51-bb845df82b9e"},"vehicle_type_id":"4","last_reported":1768445753,"current_range_meters":7200,"station_id":"","pricing_plan_id":"cebpf4jnsgd1na2vs0mg"},{"bike_id":"10e580fb-3a4d-48aa-a18d-73ca6a776e6c","system_id":"levelo_inurba_marseille","lat":43.26855,"lon":5.40684,"is_reserved":false,"is_disabled":false,"rental_uris":{"android":"levelo://app?vid=10e580fb-3a4d-48aa-a18d-73ca6a776e6c","ios":"levelo://app?vid=10e580fb-3a4d-48aa-a18d-73ca6a776e6c"},"vehicle_type_id":"4","last_reported":1768445753,"current_range_meters":7200,"station_id":"","pricing_plan_id":"cebpf4jnsgd1na2vs0mg"},{"bike_id":"39991ed9-63ac-4208-af07-0c392532b42a","system_id":"levelo_inurba_marseille","lat":43.303203,"lon":5.404407,"is_reserved":false,"is_disabled":false,"rental_uris":{"android":"levelo://app?vid=39991ed9-63ac-4208-af07-0c392532b42a","ios":"levelo://app?vid=39991ed9-63ac-4208-af07-0c392532b42a"},"vehicle_type_id":"4","last_reported":1768445753,"current_range_meters":7200,"station_id":"ce4bh012rcd13ifvqd10","pricing_plan_id":"cebpf4jnsgd1na2vs0mg"},{"bike_id":"4810dca0-bad6-47b5-b7db-2f7125b3e022","system_id":"levelo_inurba_marseille","lat":43.21185,"lon":5.35078,"is_reserved":false,"is_disabled":false,"rental_uris":{"android":"levelo://app?vid=4810dca0-bad6-47b5-b7db-2f7125b3e022","ios":"levelo://app?vid=4810dca0-bad6-47b5-b7db-2f7125b3e022"},"vehicle_type_id":"4","last_reported":1768445753,"current_range_meters":7200,"station_id":"st_cvj6sg6p6f1abm77japg","pricing_plan_id":"cebpf4jnsgd1na2vs0mg"},{"bike_id":"18050ce6-4cef-4c47-b14c-7e31263d6406","system_id":"levelo_inurba_marseille","lat":43.26563,"lon":5.39044,"is_reserved":false,"is_disabled":false,"rental_uris":{"android":"levelo://app?vid=18050ce6-4cef-4c47-b14c-7e31263d6406","ios":"levelo://app?vid=18050ce6-4cef-4c47-b14c-7e31263d6406"},"vehicle_type_id":"4","last_reported":1768445753,"current_range_meters":7200,"station_id":"ce4bhe12rcd13ifvqf30","pricing_plan_id":"cebpf4jnsgd1na2vs0mg"},{"bike_id":"f26e9a9c-efcf-4817-ad70-c481de1d89b3","system_id":"levelo_inurba_marseille","lat":43.25581,"lon":5.38231,"is_reserved":false,"is_disabled":false,"rental_uris":{"android":"levelo://app?vid=f26e9a9c-efcf-4817-ad70-c481de1d89b3","ios":"levelo://app?vid=f26e9a9c-efcf-4817-ad70-c481de1d89b3"},"vehicle_type_id":"4","last_reported":1768445753,"current_range_meters":8000,"station_id":"ce4bhih2rcd13ifvqfs0","pricing_plan_id":"cebpf4jnsgd1na2vs0mg"},{"bike_id":"b3817e2e-cdb9-4c8a-ac4e-2553b766e5fa","system_id":"levelo_inurba_marseille","lat":43.27803,"lon":5.4072,"is_reserved":false,"is_disabled":false,"rental_uris":{"android":"levelo://app?vid=b3817e2e-cdb9-4c8a-ac4e-2553b766e5fa","ios":"levelo://app?vid=b3817e2e-cdb9-4c8a-ac4e-2553b766e5fa"},"vehicle_type_id":"4","last_reported":1768445753,"current_range_meters":8000,"station_id":"ce4bhnh2rcd13ifvqgtg","pricing_plan_id":"cebpf4jnsgd1na2vs0mg"},{"bike_id":"87a1fc3a-bcb6-4a5c-877a-e3a1ba5af635","system_id":"levelo_inurba_marseille","lat":43.26489,"lon":5.39551,"is_reserved":false,"is_disabled":false,"rental_uris":{"android":"levelo://app?vid=87a1fc3a-bcb6-4a5c-877a-e3a1ba5af635","ios":"levelo://app?vid=87a1fc3a-bcb6-4a5c-877a-e3a1ba5af635"},"vehicle_type_id":"4","last_reported":1768445753,"current_range_meters":8000,"station_id":"ce4bhi12rcd13ifvqfq0","pricing_plan_id":"cebpf4jnsgd1na2vs0mg"},{"bike_id":"a91a986f-611b-4f2d-a755-d3c91591c10f","system_id":"levelo_inurba_marseille","lat":43.25138,"lon":5.40305,"is_reserved":false,"is_disabled":false,"rental_uris":{"android":"levelo://app?vid=a91a986f-611b-4f2d-a755-d3c91591c10f","ios":"levelo://app?vid=a91a986f-611b-4f2d-a755-d3c91591c10f"},"vehicle_type_id":"4","last_reported":1768445753,"current_range_meters":8000,"station_id":"ce4bhlh2rcd13ifvqgig","pricing_plan_id":"cebpf4jnsgd1na2vs0mg"},{"bike_id":"2315190d-539e-4e83-a2fa-9f74c66b8350","system_id":"levelo_inurba_marseille","lat":43.25582,"lon":5.38224,"is_reserved":false,"is_disabled":false,"rental_uris":{"android":"levelo://app?vid=2315190d-539e-4e83-a2fa-9f74c66b8350","ios":"levelo://app?vid=2315190d-539e-4e83-a2fa-9f74c66b8350"},"vehicle_type_id":"4","last_reported":1768445753,"current_range_meters":8000,"station_id":"ce4bhih2rcd13ifvqfs0","pricing_plan_id":"cebpf4jnsgd1na2vs0mg"},{"bike_id":"5cfd03cf-24a1-4762-9fb7-26a053abe44f","system_id":"levelo_inurba_marseille","lat":43.25837,"lon":5.39432,"is_reserved":false,"is_disabled":false,"rental_uris":{"android":"levelo://app?vid=5cfd03cf-24a1-4762-9fb7-26a053abe44f","ios":"levelo://app?vid=5cfd03cf-24a1-4762-9fb7-26a053abe44f"},"vehicle_type_id":"4","last_reported":1768445753,"current_range_meters":8000,"station_id":"ce4bhip2rcd13ifvqft0","pricing_plan_id":"cebpf4jnsgd1na2vs0mg"},{"bike_id":"a3a68054-3a27-4a78-8534-42fd98fd0061","system_id":"levelo_inurba_marseille","lat":43.25606,"lon":5.38234,"is_reserved":false,"is_disabled":false,"rental_uris":{"android":"levelo://app?vid=a3a68054-3a27-4a78-8534-42fd98fd0061","ios":"levelo://app?vid=a3a68054-3a27-4a78-8534-42fd98fd0061"},"vehicle_type_id":"4","last_reported":1768445753,"current_range_meters":8000,"station_id":"ce4bhih2rcd13ifvqfs0","pricing_plan_id":"cebpf4jnsgd1na2vs0mg"},{"bike_id":"6401aa41-6bee-43ab-9d0f-c8866252b2bc","system_id":"levelo_inurba_marseille","lat":43.26563,"lon":5.4032,"is_reserved":false,"is_disabled":false,"rental_uris":{"android":"levelo://app?vid=6401aa41-6bee-43ab-9d0f-c8866252b2bc","ios":"levelo://app?vid=6401aa41-6bee-43ab-9d0f-c8866252b2bc"},"vehicle_type_id":"4","last_reported":1768445753,"current_range_meters":8000,"station_id":"ce4bhmp2rcd13ifvqgng","pricing_plan_id":"cebpf4jnsgd1na2vs0mg"},{"bike_id":"eb2a3d06-662c-47c9-9aeb-5180e30b106b","system_id":"levelo_inurba_marseille","lat":43.26941,"lon":5.38911,"is_reserved":false,"is_disabled":false,"rental_uris":{"android":"levelo://app?vid=eb2a3d06-662c-47c9-9aeb-5180e30b106b","ios":"levelo://app?vid=eb2a3d06-662c-47c9-9aeb-5180e30b106b"},"vehicle_type_id":"4","last_reported":1768445753,"current_range_meters":8000,"station_id":"ce4bhhh2rcd13ifvqfl0","pricing_plan_id":"cebpf4jnsgd1na2vs0mg"},{"bike_id":"c0a5d608-f773-426f-b5c6-179247e68c03","system_id":"levelo_inurba_marseille","lat":43.26699,"lon":5.38244,"is_reserved":false,"is_disabled":false,"rental_uris":{"android":"levelo://app?vid=c0a5d608-f773-426f-b5c6-179247e68c03","ios":"levelo://app?vid=c0a5d608-f773-426f-b5c6-179247e68c03"},"vehicle_type_id":"4","last_reported":1768445753,"current_range_meters":8000,"station_id":"ce4bhg92rcd13ifvqf90","pricing_plan_id":"cebpf4jnsgd1na2vs0mg"},{"bike_id":"03458de3-2aac-45d6-b0b1-99d79cbd4d77","system_id":"levelo_inurba_marseille","lat":43.30322,"lon":5.40434,"is_reserved":false,"is_disabled":false,"rental_uris":{"android":"levelo://app?vid=03458de3-2aac-45d6-b0b1-99d79cbd4d77","ios":"levelo://app?vid=03458de3-2aac-45d6-b0b1-99d79cbd4d77"},"vehicle_type_id":"4","last_reported":1768445753,"current_range_meters":8000,"station_id":"ce4bh012rcd13ifvqd10","pricing_plan_id":"cebpf4jnsgd1na2vs0mg"},{"bike_id":"9b27e695-d26a-4e76-b04f-5a29a605a6af","system_id":"levelo_inurba_marseille","lat":43.29072,"lon":5.37129,"is_reserved":false,"is_disabled":false,"rental_uris":{"android":"levelo://app?vid=9b27e695-d26a-4e76-b04f-5a29a605a6af","ios":"levelo://app?vid=9b27e695-d26a-4e76-b04f-5a29a605a6af"},"vehicle_type_id":"4","last_reported":1768445753,"current_range_meters":8000,"station_id":"ce4bh5p2rcd13ifvqe4g","pricing_plan_id":"cebpf4jnsgd1na2vs0mg"},{"bike_id":"98fbf9ce-a7fa-45a9-abe3-701336e482e9","system_id":"levelo_inurba_marseille","lat":43.28436,"lon":5.3919,"is_reserved":false,"is_disabled":false,"rental_uris":{"android":"levelo://app?vid=98fbf9ce-a7fa-45a9-abe3-701336e482e9","ios":"levelo://app?vid=98fbf9ce-a7fa-45a9-abe3-701336e482e9"},"vehicle_type_id":"4","last_reported":1768445753,"current_range_meters":8000,"station_id":"ce4bhoh2rcd13ifvqh5g","pricing_plan_id":"cebpf4jnsgd1na2vs0mg"},{"bike_id":"f3bf9c6b-2121-4515-973b-6d1ba92a1368","system_id":"levelo_inurba_marseille","lat":43.28681,"lon":5.4003,"is_reserved":false,"is_disabled":false,"rental_uris":{"android":"levelo://app?vid=f3bf9c6b-2121-4515-973b-6d1ba92a1368","ios":"levelo://app?vid=f3bf9c6b-2121-4515-973b-6d1ba92a1368"},"vehicle_type_id":"4","last_reported":1768445753,"current_range_meters":8000,"station_id":"ce4bho92rcd13ifvqh3g","pricing_plan_id":"cebpf4jnsgd1na2vs0mg"},{"bike_id":"23694f2c-b2d4-4d58-b373-d1c7186e4244","system_id":"levelo_inurba_marseille","lat":43.29752,"lon":5.4279,"is_reserved":false,"is_disabled":false,"rental_uris":{"android":"levelo://app?vid=23694f2c-b2d4-4d58-b373-d1c7186e4244","ios":"levelo://app?vid=23694f2c-b2d4-4d58-b373-d1c7186e4244"},"vehicle_type_id":"4","last_reported":1768445753,"current_range_meters":8000,"station_id":"st_d3md5207bmas73dh9klg","pricing_plan_id":"cebpf4jnsgd1na2vs0mg"},{"bike_id":"f9fdbb48-1798-4538-9bda-de4b35ab0ad4","system_id":"levelo_inurba_marseille","lat":43.281291,"lon":5.383306,"is_reserved":false,"is_disabled":false,"rental_uris":{"android":"levelo://app?vid=f9fdbb48-1798-4538-9bda-de4b35ab0ad4","ios":"levelo://app?vid=f9fdbb48-1798-4538-9bda-de4b35ab0ad4"},"vehicle_type_id":"4","last_reported":1768445753,"current_range_meters":8000,"station_id":"","pricing_plan_id":"cebpf4jnsgd1na2vs0mg"},{"bike_id":"eff77066-f22b-44b8-ac43-67405141765f","system_id":"levelo_inurba_marseille","lat":43.30872,"lon":5.39657,"is_reserved":false,"is_disabled":false,"rental_uris":{"android":"levelo://app?vid=eff77066-f22b-44b8-ac43-67405141765f","ios":"levelo://app?vid=eff77066-f22b-44b8-ac43-67405141765f"},"vehicle_type_id":"4","last_reported":1768445753,"current_range_meters":8000,"station_id":"ce4bh012rcd13ifvqcv0","pricing_plan_id":"cebpf4jnsgd1na2vs0mg"},{"bike_id":"774ca479-5bb9-49b9-8ea6-99c5cf896279","system_id":"levelo_inurba_marseille","lat":43.24617,"lon":5.43153,"is_reserved":false,"is_disabled":false,"rental_uris":{"android":"levelo://app?vid=774ca479-5bb9-49b9-8ea6-99c5cf896279","ios":"levelo://app?vid=774ca479-5bb9-49b9-8ea6-99c5cf896279"},"vehicle_type_id":"4","last_reported":1768445753,"current_range_meters":8000,"station_id":"st_d2m6c4gdas8pm72e190g","pricing_plan_id":"cebpf4jnsgd1na2vs0mg"},{"bike_id":"18dc8c62-b29b-42f7-9621-fffcbbc18a5c","system_id":"levelo_inurba_marseille","lat":43.2397,"lon":5.36625,"is_reserved":false,"is_disabled":false,"rental_uris":{"android":"levelo://app?vid=18dc8c62-b29b-42f7-9621-fffcbbc18a5c","ios":"levelo://app?vid=18dc8c62-b29b-42f7-9621-fffcbbc18a5c"},"vehicle_type_id":"4","last_reported":1768445753,"current_range_meters":8000,"station_id":"ce4bhi12rcd13ifvqfp0","pricing_plan_id":"cebpf4jnsgd1na2vs0mg"},{"bike_id":"13c9bdb3-8b57-498a-9b60-59055deabbb0","system_id":"levelo_inurba_marseille","lat":43.2984,"lon":5.36285,"is_reserved":false,"is_disabled":false,"rental_uris":{"android":"levelo://app?vid=13c9bdb3-8b57-498a-9b60-59055deabbb0","ios":"levelo://app?vid=13c9bdb3-8b57-498a-9b60-59055deabbb0"},"vehicle_type_id":"4","last_reported":1768445753,"current_range_meters":8000,"station_id":"ce4bgpp2rcd13ifvqc3g","pricing_plan_id":"cebpf4jnsgd1na2vs0mg"},{"bike_id":"b5ad29a0-462d-4d07-9a18-d87946a4398c","system_id":"levelo_inurba_marseille","lat":43.31146,"lon":5.38057,"is_reserved":false,"is_disabled":false,"rental_uris":{"android":"levelo://app?vid=b5ad29a0-462d-4d07-9a18-d87946a4398c","ios":"levelo://app?vid=b5ad29a0-462d-4d07-9a18-d87946a4398c"},"vehicle_type_id":"4","last_reported":1768445753,"current_range_meters":8000,"station_id":"","pricing_plan_id":"cebpf4jnsgd1na2vs0mg"},{"bike_id":"a260a234-ce31-4baa-8e52-6784291f4823","system_id":"levelo_inurba_marseille","lat":43.23809,"lon":5.36607,"is_reserved":false,"is_disabled":false,"rental_uris":{"android":"levelo://app?vid=a260a234-ce31-4baa-8e52-6784291f4823","ios":"levelo://app?vid=a260a234-ce31-4baa-8e52-6784291f4823"},"vehicle_type_id":"4","last_reported":1768445753,"current_range_meters":8000,"station_id":"st_d3nk18o9ro0c73en2l3g","pricing_plan_id":"cebpf4jnsgd1na2vs0mg"},{"bike_id":"b02e7b3d-bfa1-4a73-bfb4-3a8d24b24cf4","system_id":"levelo_inurba_marseille","lat":43.25507,"lon":5.37657,"is_reserved":false,"is_disabled":false,"rental_uris":{"android":"levelo://app?vid=b02e7b3d-bfa1-4a73-bfb4-3a8d24b24cf4","ios":"levelo://app?vid=b02e7b3d-bfa1-4a73-bfb4-3a8d24b24cf4"},"vehicle_type_id":"4","last_reported":1768445753,"current_range_meters":8400,"station_id":"ce4bhh12rcd13ifvqff0","pricing_plan_id":"cebpf4jnsgd1na2vs0mg"},{"bike_id":"54ae17d3-f972-4236-b447-fa76bd8f3f82","system_id":"levelo_inurba_marseille","lat":43.24827,"lon":5.37464,"is_reserved":false,"is_disabled":false,"rental_uris":{"android":"levelo://app?vid=54ae17d3-f972-4236-b447-fa76bd8f3f82","ios":"levelo://app?vid=54ae17d3-f972-4236-b447-fa76bd8f3f82"},"vehicle_type_id":"4","last_reported":1768445753,"current_range_meters":8400,"station_id":"ce4bhgh2rcd13ifvqfb0","pricing_plan_id":"cebpf4jnsgd1na2vs0mg"},{"bike_id":"c03cd309-c737-47c4-a7e9-06a2667d9dfa","system_id":"levelo_inurba_marseille","lat":43.28528,"lon":5.44095,"is_reserved":false,"is_disabled":false,"rental_uris":{"android":"levelo://app?vid=c03cd309-c737-47c4-a7e9-06a2667d9dfa","ios":"levelo://app?vid=c03cd309-c737-47c4-a7e9-06a2667d9dfa"},"vehicle_type_id":"4","last_reported":1768445753,"current_range_meters":8400,"station_id":"st_d3j3df2ikq2c7380ej80","pricing_plan_id":"cebpf4jnsgd1na2vs0mg"},{"bike_id":"5c9cf652-9ff1-4da0-9873-4f32753db2aa","system_id":"levelo_inurba_marseille","lat":43.271831,"lon":5.40976,"is_reserved":false,"is_disabled":false,"rental_uris":{"android":"levelo://app?vid=5c9cf652-9ff1-4da0-9873-4f32753db2aa","ios":"levelo://app?vid=5c9cf652-9ff1-4da0-9873-4f32753db2aa"},"vehicle_type_id":"4","last_reported":1768445753,"current_range_meters":8400,"station_id":"ce4bhl12rcd13ifvqgf0","pricing_plan_id":"cebpf4jnsgd1na2vs0mg"},{"bike_id":"2cf04024-654b-4f56-b8cf-21b3dca3b544","system_id":"levelo_inurba_marseille","lat":43.28218,"lon":5.39061,"is_reserved":false,"is_disabled":false,"rental_uris":{"android":"levelo://app?vid=2cf04024-654b-4f56-b8cf-21b3dca3b544","ios":"levelo://app?vid=2cf04024-654b-4f56-b8cf-21b3dca3b544"},"vehicle_type_id":"4","last_reported":1768445753,"current_range_meters":8400,"station_id":"ce4bhn92rcd13ifvqgsg","pricing_plan_id":"cebpf4jnsgd1na2vs0mg"},{"bike_id":"7f64d895-eee2-4e62-9b98-77e809492590","system_id":"levelo_inurba_marseille","lat":43.24844,"lon":5.3743,"is_reserved":false,"is_disabled":false,"rental_uris":{"android":"levelo://app?vid=7f64d895-eee2-4e62-9b98-77e809492590","ios":"levelo://app?vid=7f64d895-eee2-4e62-9b98-77e809492590"},"vehicle_type_id":"4","last_reported":1768445753,"current_range_meters":8400,"station_id":"","pricing_plan_id":"cebpf4jnsgd1na2vs0mg"},{"bike_id":"3865b7a6-124d-4943-9654-d9a1ea1febe4","system_id":"levelo_inurba_marseille","lat":43.25818,"lon":5.39427,"is_reserved":false,"is_disabled":false,"rental_uris":{"android":"levelo://app?vid=3865b7a6-124d-4943-9654-d9a1ea1febe4","ios":"levelo://app?vid=3865b7a6-124d-4943-9654-d9a1ea1febe4"},"vehicle_type_id":"4","last_reported":1768445753,"current_range_meters":8400,"station_id":"ce4bhip2rcd13ifvqft0","pricing_plan_id":"cebpf4jnsgd1na2vs0mg"},{"bike_id":"7cccb604-f149-4e8e-9ee8-78300c58372e","system_id":"levelo_inurba_marseille","lat":43.23189,"lon":5.4,"is_reserved":false,"is_disabled":false,"rental_uris":{"android":"levelo://app?vid=7cccb604-f149-4e8e-9ee8-78300c58372e","ios":"levelo://app?vid=7cccb604-f149-4e8e-9ee8-78300c58372e"},"vehicle_type_id":"4","last_reported":1768445753,"current_range_meters":8400,"station_id":"ce4bhn12rcd13ifvqgqg","pricing_plan_id":"cebpf4jnsgd1na2vs0mg"},{"bike_id":"26454b05-30a5-446d-92f5-95364ffede98","system_id":"levelo_inurba_marseille","lat":43.3377,"lon":5.37474,"is_reserved":false,"is_disabled":false,"rental_uris":{"android":"levelo://app?vid=26454b05-30a5-446d-92f5-95364ffede98","ios":"levelo://app?vid=26454b05-30a5-446d-92f5-95364ffede98"},"vehicle_type_id":"4","last_reported":1768445753,"current_range_meters":8400,"station_id":"","pricing_plan_id":"cebpf4jnsgd1na2vs0mg"},{"bike_id":"ca04775f-f625-4137-b342-f30728a81c5a","system_id":"levelo_inurba_marseille","lat":43.262308,"lon":5.404532,"is_reserved":false,"is_disabled":false,"rental_uris":{"android":"levelo://app?vid=ca04775f-f625-4137-b342-f30728a81c5a","ios":"levelo://app?vid=ca04775f-f625-4137-b342-f30728a81c5a"},"vehicle_type_id":"4","last_reported":1768445753,"current_range_meters":8400,"station_id":"ce4bhmh2rcd13ifvqgmg","pricing_plan_id":"cebpf4jnsgd1na2vs0mg"},{"bike_id":"76971c30-a8f6-4a00-b030-b14396b1d766","system_id":"levelo_inurba_marseille","lat":43.28486,"lon":5.38443,"is_reserved":false,"is_disabled":false,"rental_uris":{"android":"levelo://app?vid=76971c30-a8f6-4a00-b030-b14396b1d766","ios":"levelo://app?vid=76971c30-a8f6-4a00-b030-b14396b1d766"},"vehicle_type_id":"4","last_reported":1768445753,"current_range_meters":8400,"station_id":"ce4bh512rcd13ifvqe3g","pricing_plan_id":"cebpf4jnsgd1na2vs0mg"},{"bike_id":"968a7c31-8abb-44ff-8684-b6ce69018367","system_id":"levelo_inurba_marseille","lat":43.23189,"lon":5.39996,"is_reserved":false,"is_disabled":false,"rental_uris":{"android":"levelo://app?vid=968a7c31-8abb-44ff-8684-b6ce69018367","ios":"levelo://app?vid=968a7c31-8abb-44ff-8684-b6ce69018367"},"vehicle_type_id":"4","last_reported":1768445753,"current_range_meters":8400,"station_id":"ce4bhn12rcd13ifvqgqg","pricing_plan_id":"cebpf4jnsgd1na2vs0mg"},{"bike_id":"153daeb6-1ced-443a-8511-9ccae5c5d53f","system_id":"levelo_inurba_marseille","lat":43.31706,"lon":5.37567,"is_reserved":false,"is_disabled":false,"rental_uris":{"android":"levelo://app?vid=153daeb6-1ced-443a-8511-9ccae5c5d53f","ios":"levelo://app?vid=153daeb6-1ced-443a-8511-9ccae5c5d53f"},"vehicle_type_id":"4","last_reported":1768445753,"current_range_meters":8400,"station_id":"","pricing_plan_id":"cebpf4jnsgd1na2vs0mg"},{"bike_id":"1101d0d5-0629-4ad1-91b4-fe8c7892e906","system_id":"levelo_inurba_marseille","lat":43.28218,"lon":5.39044,"is_reserved":false,"is_disabled":false,"rental_uris":{"android":"levelo://app?vid=1101d0d5-0629-4ad1-91b4-fe8c7892e906","ios":"levelo://app?vid=1101d0d5-0629-4ad1-91b4-fe8c7892e906"},"vehicle_type_id":"4","last_reported":1768445753,"current_range_meters":8400,"station_id":"ce4bhn92rcd13ifvqgsg","pricing_plan_id":"cebpf4jnsgd1na2vs0mg"},{"bike_id":"59c7db35-4f80-4d92-a2c5-8e7c452bb31e","system_id":"levelo_inurba_marseille","lat":43.28654,"lon":5.36371,"is_reserved":false,"is_disabled":false,"rental_uris":{"android":"levelo://app?vid=59c7db35-4f80-4d92-a2c5-8e7c452bb31e","ios":"levelo://app?vid=59c7db35-4f80-4d92-a2c5-8e7c452bb31e"},"vehicle_type_id":"4","last_reported":1768445753,"current_range_meters":8400,"station_id":"ce4bhah2rcd13ifvqej0","pricing_plan_id":"cebpf4jnsgd1na2vs0mg"},{"bike_id":"595536f1-7b73-4b76-a191-21e44ae56efc","system_id":"levelo_inurba_marseille","lat":43.3009,"lon":5.39084,"is_reserved":false,"is_disabled":false,"rental_uris":{"android":"levelo://app?vid=595536f1-7b73-4b76-a191-21e44ae56efc","ios":"levelo://app?vid=595536f1-7b73-4b76-a191-21e44ae56efc"},"vehicle_type_id":"4","last_reported":1768445753,"current_range_meters":8400,"station_id":"ce4bh192rcd13ifvqdb0","pricing_plan_id":"cebpf4jnsgd1na2vs0mg"},{"bike_id":"bbca5a78-1ee0-4dab-ba7e-f05d9beea402","system_id":"levelo_inurba_marseille","lat":43.24156,"lon":5.36403,"is_reserved":false,"is_disabled":false,"rental_uris":{"android":"levelo://app?vid=bbca5a78-1ee0-4dab-ba7e-f05d9beea402","ios":"levelo://app?vid=bbca5a78-1ee0-4dab-ba7e-f05d9beea402"},"vehicle_type_id":"4","last_reported":1768445753,"current_range_meters":8400,"station_id":"cpo36qri1sfpv3e86is0","pricing_plan_id":"cebpf4jnsgd1na2vs0mg"},{"bike_id":"45560b8c-0e05-4e12-aadd-6d4f84ae2310","system_id":"levelo_inurba_marseille","lat":43.2687,"lon":5.38911,"is_reserved":false,"is_disabled":false,"rental_uris":{"android":"levelo://app?vid=45560b8c-0e05-4e12-aadd-6d4f84ae2310","ios":"levelo://app?vid=45560b8c-0e05-4e12-aadd-6d4f84ae2310"},"vehicle_type_id":"4","last_reported":1768445753,"current_range_meters":8400,"station_id":"","pricing_plan_id":"cebpf4jnsgd1na2vs0mg"},{"bike_id":"a5a4117f-68bb-46bf-8479-ef68e34db54a","system_id":"levelo_inurba_marseille","lat":43.29892,"lon":5.38934,"is_reserved":false,"is_disabled":false,"rental_uris":{"android":"levelo://app?vid=a5a4117f-68bb-46bf-8479-ef68e34db54a","ios":"levelo://app?vid=a5a4117f-68bb-46bf-8479-ef68e34db54a"},"vehicle_type_id":"4","last_reported":1768445753,"current_range_meters":8400,"station_id":"ce4bh392rcd13ifvqdl0","pricing_plan_id":"cebpf4jnsgd1na2vs0mg"},{"bike_id":"f1d328ec-8a2c-4647-8162-9531bcbcb299","system_id":"levelo_inurba_marseille","lat":43.24456,"lon":5.41091,"is_reserved":false,"is_disabled":false,"rental_uris":{"android":"levelo://app?vid=f1d328ec-8a2c-4647-8162-9531bcbcb299","ios":"levelo://app?vid=f1d328ec-8a2c-4647-8162-9531bcbcb299"},"vehicle_type_id":"4","last_reported":1768445753,"current_range_meters":8400,"station_id":"","pricing_plan_id":"cebpf4jnsgd1na2vs0mg"},{"bike_id":"b5627413-9935-4487-aa7d-7a30160ebdf9","system_id":"levelo_inurba_marseille","lat":43.30314,"lon":5.40451,"is_reserved":false,"is_disabled":false,"rental_uris":{"android":"levelo://app?vid=b5627413-9935-4487-aa7d-7a30160ebdf9","ios":"levelo://app?vid=b5627413-9935-4487-aa7d-7a30160ebdf9"},"vehicle_type_id":"4","last_reported":1768445753,"current_range_meters":8400,"station_id":"ce4bh012rcd13ifvqd10","pricing_plan_id":"cebpf4jnsgd1na2vs0mg"},{"bike_id":"5d3f123c-3f55-4795-93ce-d87d4af2eb95","system_id":"levelo_inurba_marseille","lat":43.27065,"lon":5.42307,"is_reserved":false,"is_disabled":false,"rental_uris":{"android":"levelo://app?vid=5d3f123c-3f55-4795-93ce-d87d4af2eb95","ios":"levelo://app?vid=5d3f123c-3f55-4795-93ce-d87d4af2eb95"},"vehicle_type_id":"4","last_reported":1768445753,"current_range_meters":8400,"station_id":"ce4bhk92rcd13ifvqgb0","pricing_plan_id":"cebpf4jnsgd1na2vs0mg"},{"bike_id":"c2363ba3-644f-497c-984f-a69dd5e93016","system_id":"levelo_inurba_marseille","lat":43.330242,"lon":5.390391,"is_reserved":false,"is_disabled":false,"rental_uris":{"android":"levelo://app?vid=c2363ba3-644f-497c-984f-a69dd5e93016","ios":"levelo://app?vid=c2363ba3-644f-497c-984f-a69dd5e93016"},"vehicle_type_id":"4","last_reported":1768445753,"current_range_meters":8400,"station_id":"ce4bhr92rcd13ifvqhrg","pricing_plan_id":"cebpf4jnsgd1na2vs0mg"},{"bike_id":"83b68795-8b22-4e48-a611-62aaaaeb51c2","system_id":"levelo_inurba_marseille","lat":43.23781,"lon":5.36635,"is_reserved":false,"is_disabled":false,"rental_uris":{"android":"levelo://app?vid=83b68795-8b22-4e48-a611-62aaaaeb51c2","ios":"levelo://app?vid=83b68795-8b22-4e48-a611-62aaaaeb51c2"},"vehicle_type_id":"4","last_reported":1768445753,"current_range_meters":8400,"station_id":"st_d3nk18o9ro0c73en2l3g","pricing_plan_id":"cebpf4jnsgd1na2vs0mg"},{"bike_id":"ce33b389-ebe4-4168-b5ed-f09b86ae2988","system_id":"levelo_inurba_marseille","lat":43.23184,"lon":5.39981,"is_reserved":false,"is_disabled":false,"rental_uris":{"android":"levelo://app?vid=ce33b389-ebe4-4168-b5ed-f09b86ae2988","ios":"levelo://app?vid=ce33b389-ebe4-4168-b5ed-f09b86ae2988"},"vehicle_type_id":"4","last_reported":1768445753,"current_range_meters":8800,"station_id":"ce4bhn12rcd13ifvqgqg","pricing_plan_id":"cebpf4jnsgd1na2vs0mg"},{"bike_id":"cd045744-f363-4a91-a377-5d94adc43f63","system_id":"levelo_inurba_marseille","lat":43.311827,"lon":5.387198,"is_reserved":false,"is_disabled":false,"rental_uris":{"android":"levelo://app?vid=cd045744-f363-4a91-a377-5d94adc43f63","ios":"levelo://app?vid=cd045744-f363-4a91-a377-5d94adc43f63"},"vehicle_type_id":"4","last_reported":1768445753,"current_range_meters":8800,"station_id":"ce4bgv12rcd13ifvqcp0","pricing_plan_id":"cebpf4jnsgd1na2vs0mg"},{"bike_id":"0cdf751e-50be-4213-adcd-ec4933b84284","system_id":"levelo_inurba_marseille","lat":43.28531,"lon":5.44113,"is_reserved":false,"is_disabled":false,"rental_uris":{"android":"levelo://app?vid=0cdf751e-50be-4213-adcd-ec4933b84284","ios":"levelo://app?vid=0cdf751e-50be-4213-adcd-ec4933b84284"},"vehicle_type_id":"4","last_reported":1768445753,"current_range_meters":8800,"station_id":"st_d3j3df2ikq2c7380ej80","pricing_plan_id":"cebpf4jnsgd1na2vs0mg"},{"bike_id":"f3f40066-b405-498d-b130-36f36699d4a3","system_id":"levelo_inurba_marseille","lat":43.25112,"lon":5.40323,"is_reserved":false,"is_disabled":false,"rental_uris":{"android":"levelo://app?vid=f3f40066-b405-498d-b130-36f36699d4a3","ios":"levelo://app?vid=f3f40066-b405-498d-b130-36f36699d4a3"},"vehicle_type_id":"4","last_reported":1768445753,"current_range_meters":8800,"station_id":"ce4bhlh2rcd13ifvqgig","pricing_plan_id":"cebpf4jnsgd1na2vs0mg"},{"bike_id":"b0af1aeb-c4d6-4641-bc9e-da7e6c1db235","system_id":"levelo_inurba_marseille","lat":43.3211,"lon":5.36762,"is_reserved":false,"is_disabled":false,"rental_uris":{"android":"levelo://app?vid=b0af1aeb-c4d6-4641-bc9e-da7e6c1db235","ios":"levelo://app?vid=b0af1aeb-c4d6-4641-bc9e-da7e6c1db235"},"vehicle_type_id":"4","last_reported":1768445753,"current_range_meters":8800,"station_id":"ce4bhrh2rcd13ifvqhug","pricing_plan_id":"cebpf4jnsgd1na2vs0mg"},{"bike_id":"f72ff0b3-21fd-4323-887c-dc6d700dcad6","system_id":"levelo_inurba_marseille","lat":43.303197,"lon":5.404418,"is_reserved":false,"is_disabled":false,"rental_uris":{"android":"levelo://app?vid=f72ff0b3-21fd-4323-887c-dc6d700dcad6","ios":"levelo://app?vid=f72ff0b3-21fd-4323-887c-dc6d700dcad6"},"vehicle_type_id":"4","last_reported":1768445753,"current_range_meters":8800,"station_id":"ce4bh012rcd13ifvqd10","pricing_plan_id":"cebpf4jnsgd1na2vs0mg"},{"bike_id":"9a0980c4-cb9c-4b7e-a1bf-4a7abd5be180","system_id":"levelo_inurba_marseille","lat":43.29979,"lon":5.38499,"is_reserved":false,"is_disabled":false,"rental_uris":{"android":"levelo://app?vid=9a0980c4-cb9c-4b7e-a1bf-4a7abd5be180","ios":"levelo://app?vid=9a0980c4-cb9c-4b7e-a1bf-4a7abd5be180"},"vehicle_type_id":"4","last_reported":1768445753,"current_range_meters":8800,"station_id":"ce4bgj92rcd13ifvqbd0","pricing_plan_id":"cebpf4jnsgd1na2vs0mg"},{"bike_id":"e1006462-68a0-4ccc-a6ad-e2bac9c35aea","system_id":"levelo_inurba_marseille","lat":43.253329,"lon":5.421744,"is_reserved":false,"is_disabled":false,"rental_uris":{"android":"levelo://app?vid=e1006462-68a0-4ccc-a6ad-e2bac9c35aea","ios":"levelo://app?vid=e1006462-68a0-4ccc-a6ad-e2bac9c35aea"},"vehicle_type_id":"4","last_reported":1768445753,"current_range_meters":8800,"station_id":"st_d2m65c5bi1j21697t3ng","pricing_plan_id":"cebpf4jnsgd1na2vs0mg"},{"bike_id":"b16db95a-1eae-47ad-b2e3-882874b3d4d4","system_id":"levelo_inurba_marseille","lat":43.28477,"lon":5.48413,"is_reserved":false,"is_disabled":false,"rental_uris":{"android":"levelo://app?vid=b16db95a-1eae-47ad-b2e3-882874b3d4d4","ios":"levelo://app?vid=b16db95a-1eae-47ad-b2e3-882874b3d4d4"},"vehicle_type_id":"4","last_reported":1768445753,"current_range_meters":8800,"station_id":"st_d3svhcjqgbts73a3dn0g","pricing_plan_id":"cebpf4jnsgd1na2vs0mg"},{"bike_id":"a6ae2c00-78f0-4524-bf91-2d1d1a71a4eb","system_id":"levelo_inurba_marseille","lat":43.27804,"lon":5.39221,"is_reserved":false,"is_disabled":false,"rental_uris":{"android":"levelo://app?vid=a6ae2c00-78f0-4524-bf91-2d1d1a71a4eb","ios":"levelo://app?vid=a6ae2c00-78f0-4524-bf91-2d1d1a71a4eb"},"vehicle_type_id":"4","last_reported":1768445753,"current_range_meters":8800,"station_id":"ce4bhjp2rcd13ifvqga0","pricing_plan_id":"cebpf4jnsgd1na2vs0mg"},{"bike_id":"b0591438-4f8b-458b-95d3-396e832bb098","system_id":"levelo_inurba_marseille","lat":43.22563,"lon":5.41629,"is_reserved":false,"is_disabled":false,"rental_uris":{"android":"levelo://app?vid=b0591438-4f8b-458b-95d3-396e832bb098","ios":"levelo://app?vid=b0591438-4f8b-458b-95d3-396e832bb098"},"vehicle_type_id":"4","last_reported":1768445753,"current_range_meters":8800,"station_id":"st_d2o4gvlbi1j2169b742g","pricing_plan_id":"cebpf4jnsgd1na2vs0mg"},{"bike_id":"52a567cd-be86-4c75-a69c-1e8c4816646e","system_id":"levelo_inurba_marseille","lat":43.31318,"lon":5.39707,"is_reserved":false,"is_disabled":false,"rental_uris":{"android":"levelo://app?vid=52a567cd-be86-4c75-a69c-1e8c4816646e","ios":"levelo://app?vid=52a567cd-be86-4c75-a69c-1e8c4816646e"},"vehicle_type_id":"4","last_reported":1768445753,"current_range_meters":8800,"station_id":"ce4bgvp2rcd13ifvqcu0","pricing_plan_id":"cebpf4jnsgd1na2vs0mg"},{"bike_id":"41ce6660-486c-4160-8cf7-0ec19caa5c58","system_id":"levelo_inurba_marseille","lat":43.32258,"lon":5.36711,"is_reserved":false,"is_disabled":false,"rental_uris":{"android":"levelo://app?vid=41ce6660-486c-4160-8cf7-0ec19caa5c58","ios":"levelo://app?vid=41ce6660-486c-4160-8cf7-0ec19caa5c58"},"vehicle_type_id":"4","last_reported":1768445753,"current_range_meters":8800,"station_id":"","pricing_plan_id":"cebpf4jnsgd1na2vs0mg"},{"bike_id":"1e7237c5-5c4e-4fb9-a9f1-5b1eac27bb7b","system_id":"levelo_inurba_marseille","lat":43.30362,"lon":5.41874,"is_reserved":false,"is_disabled":false,"rental_uris":{"android":"levelo://app?vid=1e7237c5-5c4e-4fb9-a9f1-5b1eac27bb7b","ios":"levelo://app?vid=1e7237c5-5c4e-4fb9-a9f1-5b1eac27bb7b"},"vehicle_type_id":"4","last_reported":1768445753,"current_range_meters":8800,"station_id":"ce4bhop2rcd13ifvqh7g","pricing_plan_id":"cebpf4jnsgd1na2vs0mg"},{"bike_id":"9bcd64ec-0147-45ef-8911-27bb4d94049a","system_id":"levelo_inurba_marseille","lat":43.31758,"lon":5.39014,"is_reserved":false,"is_disabled":false,"rental_uris":{"android":"levelo://app?vid=9bcd64ec-0147-45ef-8911-27bb4d94049a","ios":"levelo://app?vid=9bcd64ec-0147-45ef-8911-27bb4d94049a"},"vehicle_type_id":"4","last_reported":1768445753,"current_range_meters":8800,"station_id":"ce4bhqp2rcd13ifvqhng","pricing_plan_id":"cebpf4jnsgd1na2vs0mg"},{"bike_id":"a1fa7ae1-5daf-4a6d-847a-31d32f1ae7fd","system_id":"levelo_inurba_marseille","lat":43.31702,"lon":5.42448,"is_reserved":false,"is_disabled":false,"rental_uris":{"android":"levelo://app?vid=a1fa7ae1-5daf-4a6d-847a-31d32f1ae7fd","ios":"levelo://app?vid=a1fa7ae1-5daf-4a6d-847a-31d32f1ae7fd"},"vehicle_type_id":"4","last_reported":1768445753,"current_range_meters":9200,"station_id":"ce4bhp92rcd13ifvqhbg","pricing_plan_id":"cebpf4jnsgd1na2vs0mg"},{"bike_id":"9fe431b0-b1c5-43e5-8649-44739bde642c","system_id":"levelo_inurba_marseille","lat":43.31358,"lon":5.38494,"is_reserved":false,"is_disabled":false,"rental_uris":{"android":"levelo://app?vid=9fe431b0-b1c5-43e5-8649-44739bde642c","ios":"levelo://app?vid=9fe431b0-b1c5-43e5-8649-44739bde642c"},"vehicle_type_id":"4","last_reported":1768445753,"current_range_meters":9200,"station_id":"ce4bgt92rcd13ifvqcf0","pricing_plan_id":"cebpf4jnsgd1na2vs0mg"},{"bike_id":"d1437624-7325-4411-87ce-3009f56ae813","system_id":"levelo_inurba_marseille","lat":43.27815,"lon":5.40713,"is_reserved":false,"is_disabled":false,"rental_uris":{"android":"levelo://app?vid=d1437624-7325-4411-87ce-3009f56ae813","ios":"levelo://app?vid=d1437624-7325-4411-87ce-3009f56ae813"},"vehicle_type_id":"4","last_reported":1768445753,"current_range_meters":9200,"station_id":"ce4bhnh2rcd13ifvqgtg","pricing_plan_id":"cebpf4jnsgd1na2vs0mg"},{"bike_id":"b64b455e-be80-42fe-9f2c-680efd02c86b","system_id":"levelo_inurba_marseille","lat":43.285357,"lon":5.440959,"is_reserved":false,"is_disabled":false,"rental_uris":{"android":"levelo://app?vid=b64b455e-be80-42fe-9f2c-680efd02c86b","ios":"levelo://app?vid=b64b455e-be80-42fe-9f2c-680efd02c86b"},"vehicle_type_id":"4","last_reported":1768445753,"current_range_meters":9200,"station_id":"st_d3j3df2ikq2c7380ej80","pricing_plan_id":"cebpf4jnsgd1na2vs0mg"},{"bike_id":"90c64ab6-178d-435d-a653-927559c34206","system_id":"levelo_inurba_marseille","lat":43.28264,"lon":5.35088,"is_reserved":false,"is_disabled":false,"rental_uris":{"android":"levelo://app?vid=90c64ab6-178d-435d-a653-927559c34206","ios":"levelo://app?vid=90c64ab6-178d-435d-a653-927559c34206"},"vehicle_type_id":"4","last_reported":1768445753,"current_range_meters":9200,"station_id":"ce4bhbp2rcd13ifvqerg","pricing_plan_id":"cebpf4jnsgd1na2vs0mg"},{"bike_id":"de053820-f473-4d4f-8be6-7eb46f3d1ea3","system_id":"levelo_inurba_marseille","lat":43.31056,"lon":5.39353,"is_reserved":false,"is_disabled":false,"rental_uris":{"android":"levelo://app?vid=de053820-f473-4d4f-8be6-7eb46f3d1ea3","ios":"levelo://app?vid=de053820-f473-4d4f-8be6-7eb46f3d1ea3"},"vehicle_type_id":"4","last_reported":1768445753,"current_range_meters":9200,"station_id":"","pricing_plan_id":"cebpf4jnsgd1na2vs0mg"},{"bike_id":"24395efb-a997-4494-bcc1-e1dfa17547b3","system_id":"levelo_inurba_marseille","lat":43.22931,"lon":5.35384,"is_reserved":false,"is_disabled":false,"rental_uris":{"android":"levelo://app?vid=24395efb-a997-4494-bcc1-e1dfa17547b3","ios":"levelo://app?vid=24395efb-a997-4494-bcc1-e1dfa17547b3"},"vehicle_type_id":"4","last_reported":1768445753,"current_range_meters":9200,"station_id":"cpo3532slgdg3j2ikp40","pricing_plan_id":"cebpf4jnsgd1na2vs0mg"},{"bike_id":"c5538688-8bbe-429d-93c8-273b5fcf8dfb","system_id":"levelo_inurba_marseille","lat":43.26568,"lon":5.39014,"is_reserved":false,"is_disabled":false,"rental_uris":{"android":"levelo://app?vid=c5538688-8bbe-429d-93c8-273b5fcf8dfb","ios":"levelo://app?vid=c5538688-8bbe-429d-93c8-273b5fcf8dfb"},"vehicle_type_id":"4","last_reported":1768445753,"current_range_meters":9200,"station_id":"ce4bhe12rcd13ifvqf30","pricing_plan_id":"cebpf4jnsgd1na2vs0mg"},{"bike_id":"9c05b402-e2ee-48d4-95f4-d4c7aaea64f3","system_id":"levelo_inurba_marseille","lat":43.29282,"lon":5.37157,"is_reserved":false,"is_disabled":true,"rental_uris":{"android":"levelo://app?vid=9c05b402-e2ee-48d4-95f4-d4c7aaea64f3","ios":"levelo://app?vid=9c05b402-e2ee-48d4-95f4-d4c7aaea64f3"},"vehicle_type_id":"4","last_reported":1768445753,"current_range_meters":9200,"station_id":"ce4bgh92rcd13ifvqb40","pricing_plan_id":"cebpf4jnsgd1na2vs0mg"},{"bike_id":"81ae1cad-44e6-424d-ae79-de6638e7beb9","system_id":"levelo_inurba_marseille","lat":43.21196,"lon":5.3507,"is_reserved":false,"is_disabled":false,"rental_uris":{"android":"levelo://app?vid=81ae1cad-44e6-424d-ae79-de6638e7beb9","ios":"levelo://app?vid=81ae1cad-44e6-424d-ae79-de6638e7beb9"},"vehicle_type_id":"4","last_reported":1768445753,"current_range_meters":9200,"station_id":"","pricing_plan_id":"cebpf4jnsgd1na2vs0mg"},{"bike_id":"2972054a-6cc6-4eed-9d68-aeb343420e89","system_id":"levelo_inurba_marseille","lat":43.28686,"lon":5.37391,"is_reserved":false,"is_disabled":false,"rental_uris":{"android":"levelo://app?vid=2972054a-6cc6-4eed-9d68-aeb343420e89","ios":"levelo://app?vid=2972054a-6cc6-4eed-9d68-aeb343420e89"},"vehicle_type_id":"4","last_reported":1768445753,"current_range_meters":9200,"station_id":"ce4bh3p2rcd13ifvqdq0","pricing_plan_id":"cebpf4jnsgd1na2vs0mg"},{"bike_id":"ac0e6836-ddd1-474b-97b1-e56e399f8b04","system_id":"levelo_inurba_marseille","lat":43.26937,"lon":5.402517,"is_reserved":false,"is_disabled":false,"rental_uris":{"android":"levelo://app?vid=ac0e6836-ddd1-474b-97b1-e56e399f8b04","ios":"levelo://app?vid=ac0e6836-ddd1-474b-97b1-e56e399f8b04"},"vehicle_type_id":"4","last_reported":1768445753,"current_range_meters":9200,"station_id":"","pricing_plan_id":"cebpf4jnsgd1na2vs0mg"},{"bike_id":"766b6315-d0e9-4f21-99cc-ac73caf0d81f","system_id":"levelo_inurba_marseille","lat":43.267659,"lon":5.39443,"is_reserved":false,"is_disabled":false,"rental_uris":{"android":"levelo://app?vid=766b6315-d0e9-4f21-99cc-ac73caf0d81f","ios":"levelo://app?vid=766b6315-d0e9-4f21-99cc-ac73caf0d81f"},"vehicle_type_id":"4","last_reported":1768445753,"current_range_meters":9200,"station_id":"","pricing_plan_id":"cebpf4jnsgd1na2vs0mg"},{"bike_id":"d14c563e-7d81-4312-b6b2-f8e7e772a5f6","system_id":"levelo_inurba_marseille","lat":43.24168,"lon":5.36402,"is_reserved":false,"is_disabled":false,"rental_uris":{"android":"levelo://app?vid=d14c563e-7d81-4312-b6b2-f8e7e772a5f6","ios":"levelo://app?vid=d14c563e-7d81-4312-b6b2-f8e7e772a5f6"},"vehicle_type_id":"4","last_reported":1768445753,"current_range_meters":9200,"station_id":"cpo36qri1sfpv3e86is0","pricing_plan_id":"cebpf4jnsgd1na2vs0mg"},{"bike_id":"81926c9d-c981-46cd-aacf-0b7c2a9af18c","system_id":"levelo_inurba_marseille","lat":43.28857,"lon":5.35848,"is_reserved":false,"is_disabled":false,"rental_uris":{"android":"levelo://app?vid=81926c9d-c981-46cd-aacf-0b7c2a9af18c","ios":"levelo://app?vid=81926c9d-c981-46cd-aacf-0b7c2a9af18c"},"vehicle_type_id":"4","last_reported":1768445753,"current_range_meters":9200,"station_id":"ce4bhb12rcd13ifvqem0","pricing_plan_id":"cebpf4jnsgd1na2vs0mg"},{"bike_id":"9798252a-9361-46ce-9695-59458b1329bc","system_id":"levelo_inurba_marseille","lat":43.23189,"lon":5.35549,"is_reserved":false,"is_disabled":false,"rental_uris":{"android":"levelo://app?vid=9798252a-9361-46ce-9695-59458b1329bc","ios":"levelo://app?vid=9798252a-9361-46ce-9695-59458b1329bc"},"vehicle_type_id":"4","last_reported":1768445753,"current_range_meters":9600,"station_id":"ce4bhu92rcd13ifvqi70","pricing_plan_id":"cebpf4jnsgd1na2vs0mg"},{"bike_id":"6f5bac51-1804-4cd4-beeb-e05c41221d16","system_id":"levelo_inurba_marseille","lat":43.30518,"lon":5.36715,"is_reserved":false,"is_disabled":false,"rental_uris":{"android":"levelo://app?vid=6f5bac51-1804-4cd4-beeb-e05c41221d16","ios":"levelo://app?vid=6f5bac51-1804-4cd4-beeb-e05c41221d16"},"vehicle_type_id":"4","last_reported":1768445753,"current_range_meters":9600,"station_id":"ce4bgrp2rcd13ifvqc9g","pricing_plan_id":"cebpf4jnsgd1na2vs0mg"},{"bike_id":"311fd6a9-6bc8-41d0-ac40-a89fb207f919","system_id":"levelo_inurba_marseille","lat":43.26969,"lon":5.40294,"is_reserved":false,"is_disabled":false,"rental_uris":{"android":"levelo://app?vid=311fd6a9-6bc8-41d0-ac40-a89fb207f919","ios":"levelo://app?vid=311fd6a9-6bc8-41d0-ac40-a89fb207f919"},"vehicle_type_id":"4","last_reported":1768445753,"current_range_meters":9600,"station_id":"cjm6bp8fraef2m0cb0m0","pricing_plan_id":"cebpf4jnsgd1na2vs0mg"},{"bike_id":"b51c6372-d6f8-4f60-88ea-74da3246daef","system_id":"levelo_inurba_marseille","lat":43.28839,"lon":5.35802,"is_reserved":false,"is_disabled":false,"rental_uris":{"android":"levelo://app?vid=b51c6372-d6f8-4f60-88ea-74da3246daef","ios":"levelo://app?vid=b51c6372-d6f8-4f60-88ea-74da3246daef"},