{"last_updated":1762020765,"ttl":60,"version":"2.2","data":{"bikes":[{"bike_id":"c0ae0d17-7845-43be-9cca-93029e93d43f","system_id":"levelo_inurba_marseille","lat":43.25117,"lon":5.40319,"is_reserved":false,"is_disabled":false,"rental_uris":{"android":"levelo://app?vid=c0ae0d17-7845-43be-9cca-93029e93d43f","ios":"levelo://app?vid=c0ae0d17-7845-43be-9cca-93029e93d43f"},"vehicle_type_id":"4","last_reported":1762020765,"current_range_meters":2800,"station_id":"ce4bhlh2rcd13ifvqgig","pricing_plan_id":"cebpf4jnsgd1na2vs0mg"},{"bike_id":"4fae8757-269e-48d9-803c-e55b39457fcc","system_id":"levelo_inurba_marseille","lat":43.297025,"lon":5.381162,"is_reserved":false,"is_disabled":false,"rental_uris":{"android":"levelo://app?vid=4fae8757-269e-48d9-803c-e55b39457fcc","ios":"levelo://app?vid=4fae8757-269e-48d9-803c-e55b39457fcc"},"vehicle_type_id":"4","last_reported":1762020765,"current_range_meters":2800,"station_id":"","pricing_plan_id":"cebpf4jnsgd1na2vs0mg"},{"bike_id":"957a7591-9f19-41cd-9a71-43522968720b","system_id":"levelo_inurba_marseille","lat":43.26071,"lon":5.39391,"is_reserved":false,"is_disabled":false,"rental_uris":{"android":"levelo://app?vid=957a7591-9f19-41cd-9a71-43522968720b","ios":"levelo://app?vid=957a7591-9f19-41cd-9a71-43522968720b"},"vehicle_type_id":"4","last_reported":1762020765,"current_range_meters":3200,"station_id":"ce4bhh92rcd13ifvqfj0","pricing_plan_id":"cebpf4jnsgd1na2vs0mg"},{"bike_id":"688e0991-23bb-4f67-a97d-b9bb7704a66a","system_id":"levelo_inurba_marseille","lat":43.29255,"lon":5.39101,"is_reserved":false,"is_disabled":false,"rental_uris":{"android":"levelo://app?vid=688e0991-23bb-4f67-a97d-b9bb7704a66a","ios":"levelo://app?vid=688e0991-23bb-4f67-a97d-b9bb7704a66a"},"vehicle_type_id":"4","last_reported":1762020765,"current_range_meters":3200,"station_id":"","pricing_plan_id":"cebpf4jnsgd1na2vs0mg"},{"bike_id":"dbe5a017-5f48-48a9-a30c-d753021d6208","system_id":"levelo_inurba_marseille","lat":43.297353,"lon":5.396589,"is_reserved":false,"is_disabled":false,"rental_uris":{"android":"levelo://app?vid=dbe5a017-5f48-48a9-a30c-d753021d6208","ios":"levelo://app?vid=dbe5a017-5f48-48a9-a30c-d753021d6208"},"vehicle_type_id":"4","last_reported":1762020765,"current_range_meters":3200,"station_id":"","pricing_plan_id":"cebpf4jnsgd1na2vs0mg"},{"bike_id":"57e1b04a-5761-41b7-81e2-1a8b2076c2d1","system_id":"levelo_inurba_marseille","lat":43.26559,"lon":5.3728,"is_reserved":false,"is_disabled":false,"rental_uris":{"android":"levelo://app?vid=57e1b04a-5761-41b7-81e2-1a8b2076c2d1","ios":"levelo://app?vid=57e1b04a-5761-41b7-81e2-1a8b2076c2d1"},"vehicle_type_id":"4","last_reported":1762020765,"current_range_meters":3200,"station_id":"ce4bhg12rcd13ifvqf70","pricing_plan_id":"cebpf4jnsgd1na2vs0mg"},{"bike_id":"712e3ed2-d8a6-49bf-a6c7-87c1ff499946","system_id":"levelo_inurba_marseille","lat":43.30252,"lon":5.4008,"is_reserved":false,"is_disabled":false,"rental_uris":{"android":"levelo://app?vid=712e3ed2-d8a6-49bf-a6c7-87c1ff499946","ios":"levelo://app?vid=712e3ed2-d8a6-49bf-a6c7-87c1ff499946"},"vehicle_type_id":"4","last_reported":1762020765,"current_range_meters":3200,"station_id":"ce4bgvh2rcd13ifvqcs0","pricing_plan_id":"cebpf4jnsgd1na2vs0mg"},{"bike_id":"4dfe6b76-2f36-4d98-9d45-fa88283df910","system_id":"levelo_inurba_marseille","lat":43.292044,"lon":5.358551,"is_reserved":false,"is_disabled":false,"rental_uris":{"android":"levelo://app?vid=4dfe6b76-2f36-4d98-9d45-fa88283df910","ios":"levelo://app?vid=4dfe6b76-2f36-4d98-9d45-fa88283df910"},"vehicle_type_id":"4","last_reported":1762020765,"current_range_meters":3200,"station_id":"ce4bhb12rcd13ifvqel0","pricing_plan_id":"cebpf4jnsgd1na2vs0mg"},{"bike_id":"7f3e6b2f-79c6-4108-9056-f3a0b31445ef","system_id":"levelo_inurba_marseille","lat":43.262095,"lon":5.39755,"is_reserved":false,"is_disabled":false,"rental_uris":{"android":"levelo://app?vid=7f3e6b2f-79c6-4108-9056-f3a0b31445ef","ios":"levelo://app?vid=7f3e6b2f-79c6-4108-9056-f3a0b31445ef"},"vehicle_type_id":"4","last_reported":1762020765,"current_range_meters":3600,"station_id":"ce4bhi12rcd13ifvqfq0","pricing_plan_id":"cebpf4jnsgd1na2vs0mg"},{"bike_id":"0c5a8f2e-d830-4f1a-ae7f-95a1ee3376ee","system_id":"levelo_inurba_marseille","lat":43.28846,"lon":5.35866,"is_reserved":false,"is_disabled":false,"rental_uris":{"android":"levelo://app?vid=0c5a8f2e-d830-4f1a-ae7f-95a1ee3376ee","ios":"levelo://app?vid=0c5a8f2e-d830-4f1a-ae7f-95a1ee3376ee"},"vehicle_type_id":"4","last_reported":1762020765,"current_range_meters":3600,"station_id":"ce4bhb12rcd13ifvqem0","pricing_plan_id":"cebpf4jnsgd1na2vs0mg"},{"bike_id":"7f9b086a-33d9-43ce-a669-eef0d62003dd","system_id":"levelo_inurba_marseille","lat":43.25788,"lon":5.410483,"is_reserved":false,"is_disabled":false,"rental_uris":{"android":"levelo://app?vid=7f9b086a-33d9-43ce-a669-eef0d62003dd","ios":"levelo://app?vid=7f9b086a-33d9-43ce-a669-eef0d62003dd"},"vehicle_type_id":"4","last_reported":1762020765,"current_range_meters":3600,"station_id":"ce4bhkp2rcd13ifvqgd0","pricing_plan_id":"cebpf4jnsgd1na2vs0mg"},{"bike_id":"85b4330b-1ca7-4dd2-b63a-4f0fa412e1ed","system_id":"levelo_inurba_marseille","lat":43.30934,"lon":5.40137,"is_reserved":false,"is_disabled":false,"rental_uris":{"android":"levelo://app?vid=85b4330b-1ca7-4dd2-b63a-4f0fa412e1ed","ios":"levelo://app?vid=85b4330b-1ca7-4dd2-b63a-4f0fa412e1ed"},"vehicle_type_id":"4","last_reported":1762020765,"current_range_meters":4000,"station_id":"ce4bgvp2rcd13ifvqct0","pricing_plan_id":"cebpf4jnsgd1na2vs0mg"},{"bike_id":"49674421-b2af-4baa-ba7e-db0f229500a4","system_id":"levelo_inurba_marseille","lat":43.2998,"lon":5.39894,"is_reserved":false,"is_disabled":false,"rental_uris":{"android":"levelo://app?vid=49674421-b2af-4baa-ba7e-db0f229500a4","ios":"levelo://app?vid=49674421-b2af-4baa-ba7e-db0f229500a4"},"vehicle_type_id":"4","last_reported":1762020765,"current_range_meters":4000,"station_id":"","pricing_plan_id":"cebpf4jnsgd1na2vs0mg"},{"bike_id":"82a1362f-b61a-46be-a663-3fcb37750770","system_id":"levelo_inurba_marseille","lat":43.28483,"lon":5.48383,"is_reserved":false,"is_disabled":false,"rental_uris":{"android":"levelo://app?vid=82a1362f-b61a-46be-a663-3fcb37750770","ios":"levelo://app?vid=82a1362f-b61a-46be-a663-3fcb37750770"},"vehicle_type_id":"4","last_reported":1762020765,"current_range_meters":4000,"station_id":"st_d3svhcjqgbts73a3dn0g","pricing_plan_id":"cebpf4jnsgd1na2vs0mg"},{"bike_id":"7964de6c-fad0-4fd1-8a21-0815ea287c4c","system_id":"levelo_inurba_marseille","lat":43.281549,"lon":5.426403,"is_reserved":false,"is_disabled":true,"rental_uris":{"android":"levelo://app?vid=7964de6c-fad0-4fd1-8a21-0815ea287c4c","ios":"levelo://app?vid=7964de6c-fad0-4fd1-8a21-0815ea287c4c"},"vehicle_type_id":"4","last_reported":1762020765,"current_range_meters":4400,"station_id":"ce4bhnh2rcd13ifvqgug","pricing_plan_id":"cebpf4jnsgd1na2vs0mg"},{"bike_id":"62abd13e-0080-4c11-aa48-0622edddda05","system_id":"levelo_inurba_marseille","lat":43.29936,"lon":5.36551,"is_reserved":false,"is_disabled":false,"rental_uris":{"android":"levelo://app?vid=62abd13e-0080-4c11-aa48-0622edddda05","ios":"levelo://app?vid=62abd13e-0080-4c11-aa48-0622edddda05"},"vehicle_type_id":"4","last_reported":1762020765,"current_range_meters":4400,"station_id":"ce4bgm92rcd13ifvqbr0","pricing_plan_id":"cebpf4jnsgd1na2vs0mg"},{"bike_id":"2e7fb6e1-53df-44e0-b982-e1dc93472382","system_id":"levelo_inurba_marseille","lat":43.24992,"lon":5.38907,"is_reserved":false,"is_disabled":false,"rental_uris":{"android":"levelo://app?vid=2e7fb6e1-53df-44e0-b982-e1dc93472382","ios":"levelo://app?vid=2e7fb6e1-53df-44e0-b982-e1dc93472382"},"vehicle_type_id":"4","last_reported":1762020765,"current_range_meters":4400,"station_id":"ce4bhgp2rcd13ifvqfd0","pricing_plan_id":"cebpf4jnsgd1na2vs0mg"},{"bike_id":"00698853-0628-4928-853c-36a4dc2829b9","system_id":"levelo_inurba_marseille","lat":43.29529,"lon":5.38548,"is_reserved":false,"is_disabled":false,"rental_uris":{"android":"levelo://app?vid=00698853-0628-4928-853c-36a4dc2829b9","ios":"levelo://app?vid=00698853-0628-4928-853c-36a4dc2829b9"},"vehicle_type_id":"4","last_reported":1762020765,"current_range_meters":4400,"station_id":"ce4bgih2rcd13ifvqba0","pricing_plan_id":"cebpf4jnsgd1na2vs0mg"},{"bike_id":"b589548c-d4e9-48ab-a365-ad773727cbae","system_id":"levelo_inurba_marseille","lat":43.24072,"lon":5.37758,"is_reserved":false,"is_disabled":false,"rental_uris":{"android":"levelo://app?vid=b589548c-d4e9-48ab-a365-ad773727cbae","ios":"levelo://app?vid=b589548c-d4e9-48ab-a365-ad773727cbae"},"vehicle_type_id":"4","last_reported":1762020765,"current_range_meters":4800,"station_id":"ce4bhnp2rcd13ifvqgvg","pricing_plan_id":"cebpf4jnsgd1na2vs0mg"},{"bike_id":"a18dbf48-2c4d-4fa4-a4c5-c9871d73c9a0","system_id":"levelo_inurba_marseille","lat":43.301994,"lon":5.383462,"is_reserved":false,"is_disabled":false,"rental_uris":{"android":"levelo://app?vid=a18dbf48-2c4d-4fa4-a4c5-c9871d73c9a0","ios":"levelo://app?vid=a18dbf48-2c4d-4fa4-a4c5-c9871d73c9a0"},"vehicle_type_id":"4","last_reported":1762020765,"current_range_meters":4800,"station_id":"ce4bgup2rcd13ifvqcn0","pricing_plan_id":"cebpf4jnsgd1na2vs0mg"},{"bike_id":"d62a4e30-2a8a-47de-9d7a-fd92f829db09","system_id":"levelo_inurba_marseille","lat":43.311741,"lon":5.378773,"is_reserved":false,"is_disabled":false,"rental_uris":{"android":"levelo://app?vid=d62a4e30-2a8a-47de-9d7a-fd92f829db09","ios":"levelo://app?vid=d62a4e30-2a8a-47de-9d7a-fd92f829db09"},"vehicle_type_id":"4","last_reported":1762020765,"current_range_meters":4800,"station_id":"","pricing_plan_id":"cebpf4jnsgd1na2vs0mg"},{"bike_id":"498a6f1d-2bd9-4337-a1c3-928c718efdb9","system_id":"levelo_inurba_marseille","lat":43.29788,"lon":5.39336,"is_reserved":false,"is_disabled":false,"rental_uris":{"android":"levelo://app?vid=498a6f1d-2bd9-4337-a1c3-928c718efdb9","ios":"levelo://app?vid=498a6f1d-2bd9-4337-a1c3-928c718efdb9"},"vehicle_type_id":"4","last_reported":1762020765,"current_range_meters":4800,"station_id":"chh1huq6cuj3fo74tm60","pricing_plan_id":"cebpf4jnsgd1na2vs0mg"},{"bike_id":"3fa18913-7a63-4a4d-b8e8-5a2fd575ad7b","system_id":"levelo_inurba_marseille","lat":43.24628,"lon":5.43145,"is_reserved":false,"is_disabled":false,"rental_uris":{"android":"levelo://app?vid=3fa18913-7a63-4a4d-b8e8-5a2fd575ad7b","ios":"levelo://app?vid=3fa18913-7a63-4a4d-b8e8-5a2fd575ad7b"},"vehicle_type_id":"4","last_reported":1762020765,"current_range_meters":4800,"station_id":"st_d2m6c4gdas8pm72e190g","pricing_plan_id":"cebpf4jnsgd1na2vs0mg"},{"bike_id":"d1115023-885c-4ff5-9380-4b5edbb22f60","system_id":"levelo_inurba_marseille","lat":43.267886,"lon":5.394092,"is_reserved":false,"is_disabled":false,"rental_uris":{"android":"levelo://app?vid=d1115023-885c-4ff5-9380-4b5edbb22f60","ios":"levelo://app?vid=d1115023-885c-4ff5-9380-4b5edbb22f60"},"vehicle_type_id":"4","last_reported":1762020765,"current_range_meters":4800,"station_id":"ce4bhh12rcd13ifvqfg0","pricing_plan_id":"cebpf4jnsgd1na2vs0mg"},{"bike_id":"9af815f6-9b99-4a6f-9cda-b459c9720d2c","system_id":"levelo_inurba_marseille","lat":43.27945,"lon":5.41042,"is_reserved":false,"is_disabled":false,"rental_uris":{"android":"levelo://app?vid=9af815f6-9b99-4a6f-9cda-b459c9720d2c","ios":"levelo://app?vid=9af815f6-9b99-4a6f-9cda-b459c9720d2c"},"vehicle_type_id":"4","last_reported":1762020765,"current_range_meters":5600,"station_id":"ce4bhnp2rcd13ifvqh0g","pricing_plan_id":"cebpf4jnsgd1na2vs0mg"},{"bike_id":"d3dccf69-44a1-4624-b9e9-503f97267acd","system_id":"levelo_inurba_marseille","lat":43.269403,"lon":5.402534,"is_reserved":false,"is_disabled":false,"rental_uris":{"android":"levelo://app?vid=d3dccf69-44a1-4624-b9e9-503f97267acd","ios":"levelo://app?vid=d3dccf69-44a1-4624-b9e9-503f97267acd"},"vehicle_type_id":"4","last_reported":1762020765,"current_range_meters":5600,"station_id":"","pricing_plan_id":"cebpf4jnsgd1na2vs0mg"},{"bike_id":"b415d42e-33dd-4ebb-b132-4dd72bb09efc","system_id":"levelo_inurba_marseille","lat":43.3015,"lon":5.38779,"is_reserved":false,"is_disabled":false,"rental_uris":{"android":"levelo://app?vid=b415d42e-33dd-4ebb-b132-4dd72bb09efc","ios":"levelo://app?vid=b415d42e-33dd-4ebb-b132-4dd72bb09efc"},"vehicle_type_id":"4","last_reported":1762020765,"current_range_meters":5600,"station_id":"ce4bghh2rcd13ifvqb60","pricing_plan_id":"cebpf4jnsgd1na2vs0mg"},{"bike_id":"96e49c8c-1094-46d5-abf7-ee36f7f61f25","system_id":"levelo_inurba_marseille","lat":43.267676,"lon":5.394239,"is_reserved":false,"is_disabled":false,"rental_uris":{"android":"levelo://app?vid=96e49c8c-1094-46d5-abf7-ee36f7f61f25","ios":"levelo://app?vid=96e49c8c-1094-46d5-abf7-ee36f7f61f25"},"vehicle_type_id":"4","last_reported":1762020765,"current_range_meters":5600,"station_id":"ce4bhh12rcd13ifvqfg0","pricing_plan_id":"cebpf4jnsgd1na2vs0mg"},{"bike_id":"d1311481-3a07-4834-996f-5229084d4b23","system_id":"levelo_inurba_marseille","lat":43.30732,"lon":5.4244,"is_reserved":false,"is_disabled":false,"rental_uris":{"android":"levelo://app?vid=d1311481-3a07-4834-996f-5229084d4b23","ios":"levelo://app?vid=d1311481-3a07-4834-996f-5229084d4b23"},"vehicle_type_id":"4","last_reported":1762020765,"current_range_meters":5600,"station_id":"st_cvj6ca6bvosntc0bfgr0","pricing_plan_id":"cebpf4jnsgd1na2vs0mg"},{"bike_id":"ae7c40b0-eaf4-4d39-8f70-343c2a02e899","system_id":"levelo_inurba_marseille","lat":43.30544,"lon":5.36551,"is_reserved":false,"is_disabled":false,"rental_uris":{"android":"levelo://app?vid=ae7c40b0-eaf4-4d39-8f70-343c2a02e899","ios":"levelo://app?vid=ae7c40b0-eaf4-4d39-8f70-343c2a02e899"},"vehicle_type_id":"4","last_reported":1762020765,"current_range_meters":5600,"station_id":"ce4bgs12rcd13ifvqcag","pricing_plan_id":"cebpf4jnsgd1na2vs0mg"},{"bike_id":"9b93b5e1-c939-4745-bf85-2d21945442dc","system_id":"levelo_inurba_marseille","lat":43.299896,"lon":5.364032,"is_reserved":false,"is_disabled":false,"rental_uris":{"android":"levelo://app?vid=9b93b5e1-c939-4745-bf85-2d21945442dc","ios":"levelo://app?vid=9b93b5e1-c939-4745-bf85-2d21945442dc"},"vehicle_type_id":"4","last_reported":1762020765,"current_range_meters":6000,"station_id":"","pricing_plan_id":"cebpf4jnsgd1na2vs0mg"},{"bike_id":"9895cd03-d147-4538-8383-e78a2e0f89ee","system_id":"levelo_inurba_marseille","lat":43.29884,"lon":5.38905,"is_reserved":false,"is_disabled":false,"rental_uris":{"android":"levelo://app?vid=9895cd03-d147-4538-8383-e78a2e0f89ee","ios":"levelo://app?vid=9895cd03-d147-4538-8383-e78a2e0f89ee"},"vehicle_type_id":"4","last_reported":1762020765,"current_range_meters":6000,"station_id":"ce4bh392rcd13ifvqdl0","pricing_plan_id":"cebpf4jnsgd1na2vs0mg"},{"bike_id":"58e6d52c-9af6-4996-9014-f9944b07bd47","system_id":"levelo_inurba_marseille","lat":43.30145,"lon":5.39853,"is_reserved":false,"is_disabled":false,"rental_uris":{"android":"levelo://app?vid=58e6d52c-9af6-4996-9014-f9944b07bd47","ios":"levelo://app?vid=58e6d52c-9af6-4996-9014-f9944b07bd47"},"vehicle_type_id":"4","last_reported":1762020765,"current_range_meters":6000,"station_id":"ce4bh0h2rcd13ifvqd40","pricing_plan_id":"cebpf4jnsgd1na2vs0mg"},{"bike_id":"ce062449-8813-4cad-b9e3-856e6e3a8c6d","system_id":"levelo_inurba_marseille","lat":43.25581,"lon":5.38225,"is_reserved":false,"is_disabled":false,"rental_uris":{"android":"levelo://app?vid=ce062449-8813-4cad-b9e3-856e6e3a8c6d","ios":"levelo://app?vid=ce062449-8813-4cad-b9e3-856e6e3a8c6d"},"vehicle_type_id":"4","last_reported":1762020765,"current_range_meters":6000,"station_id":"ce4bhih2rcd13ifvqfs0","pricing_plan_id":"cebpf4jnsgd1na2vs0mg"},{"bike_id":"e9c61fc6-6a17-4a07-af96-4adc87fda196","system_id":"levelo_inurba_marseille","lat":43.25337,"lon":5.42176,"is_reserved":false,"is_disabled":false,"rental_uris":{"android":"levelo://app?vid=e9c61fc6-6a17-4a07-af96-4adc87fda196","ios":"levelo://app?vid=e9c61fc6-6a17-4a07-af96-4adc87fda196"},"vehicle_type_id":"4","last_reported":1762020765,"current_range_meters":6400,"station_id":"st_d2m65c5bi1j21697t3ng","pricing_plan_id":"cebpf4jnsgd1na2vs0mg"},{"bike_id":"038c01ba-602c-4669-a262-660a34fb0c63","system_id":"levelo_inurba_marseille","lat":43.290741,"lon":5.371682,"is_reserved":false,"is_disabled":false,"rental_uris":{"android":"levelo://app?vid=038c01ba-602c-4669-a262-660a34fb0c63","ios":"levelo://app?vid=038c01ba-602c-4669-a262-660a34fb0c63"},"vehicle_type_id":"4","last_reported":1762020765,"current_range_meters":6400,"station_id":"","pricing_plan_id":"cebpf4jnsgd1na2vs0mg"},{"bike_id":"57ce5104-4f5e-4384-82e1-0b1a3b91d36f","system_id":"levelo_inurba_marseille","lat":43.30941,"lon":5.40142,"is_reserved":false,"is_disabled":false,"rental_uris":{"android":"levelo://app?vid=57ce5104-4f5e-4384-82e1-0b1a3b91d36f","ios":"levelo://app?vid=57ce5104-4f5e-4384-82e1-0b1a3b91d36f"},"vehicle_type_id":"4","last_reported":1762020765,"current_range_meters":6400,"station_id":"ce4bgvp2rcd13ifvqct0","pricing_plan_id":"cebpf4jnsgd1na2vs0mg"},{"bike_id":"e866eab0-536f-4780-83bd-9243ac25a752","system_id":"levelo_inurba_marseille","lat":43.28134,"lon":5.38321,"is_reserved":false,"is_disabled":false,"rental_uris":{"android":"levelo://app?vid=e866eab0-536f-4780-83bd-9243ac25a752","ios":"levelo://app?vid=e866eab0-536f-4780-83bd-9243ac25a752"},"vehicle_type_id":"4","last_reported":1762020765,"current_range_meters":6400,"station_id":"","pricing_plan_id":"cebpf4jnsgd1na2vs0mg"},{"bike_id":"6c54887f-baba-4773-91fd-3e36c130b837","system_id":"levelo_inurba_marseille","lat":43.28521,"lon":5.44103,"is_reserved":false,"is_disabled":false,"rental_uris":{"android":"levelo://app?vid=6c54887f-baba-4773-91fd-3e36c130b837","ios":"levelo://app?vid=6c54887f-baba-4773-91fd-3e36c130b837"},"vehicle_type_id":"4","last_reported":1762020765,"current_range_meters":6800,"station_id":"st_d3j3df2ikq2c7380ej80","pricing_plan_id":"cebpf4jnsgd1na2vs0mg"},{"bike_id":"a5a70f19-3fc8-4c12-bb0a-a4981516897d","system_id":"levelo_inurba_marseille","lat":43.26538,"lon":5.39052,"is_reserved":false,"is_disabled":false,"rental_uris":{"android":"levelo://app?vid=a5a70f19-3fc8-4c12-bb0a-a4981516897d","ios":"levelo://app?vid=a5a70f19-3fc8-4c12-bb0a-a4981516897d"},"vehicle_type_id":"4","last_reported":1762020765,"current_range_meters":6800,"station_id":"ce4bhe12rcd13ifvqf30","pricing_plan_id":"cebpf4jnsgd1na2vs0mg"},{"bike_id":"421898f5-6c6d-4850-a304-3c0cc5951bee","system_id":"levelo_inurba_marseille","lat":43.285,"lon":5.42185,"is_reserved":false,"is_disabled":false,"rental_uris":{"android":"levelo://app?vid=421898f5-6c6d-4850-a304-3c0cc5951bee","ios":"levelo://app?vid=421898f5-6c6d-4850-a304-3c0cc5951bee"},"vehicle_type_id":"4","last_reported":1762020765,"current_range_meters":6800,"station_id":"","pricing_plan_id":"cebpf4jnsgd1na2vs0mg"},{"bike_id":"f643c35b-c5a7-43c4-92a7-c4e52bde8db9","system_id":"levelo_inurba_marseille","lat":43.28156,"lon":5.42642,"is_reserved":false,"is_disabled":false,"rental_uris":{"android":"levelo://app?vid=f643c35b-c5a7-43c4-92a7-c4e52bde8db9","ios":"levelo://app?vid=f643c35b-c5a7-43c4-92a7-c4e52bde8db9"},"vehicle_type_id":"4","last_reported":1762020765,"current_range_meters":6800,"station_id":"ce4bhnh2rcd13ifvqgug","pricing_plan_id":"cebpf4jnsgd1na2vs0mg"},{"bike_id":"ed96bc79-b337-4c35-b0a0-8507fdcb07ed","system_id":"levelo_inurba_marseille","lat":43.29686,"lon":5.36605,"is_reserved":false,"is_disabled":false,"rental_uris":{"android":"levelo://app?vid=ed96bc79-b337-4c35-b0a0-8507fdcb07ed","ios":"levelo://app?vid=ed96bc79-b337-4c35-b0a0-8507fdcb07ed"},"vehicle_type_id":"4","last_reported":1762020765,"current_range_meters":6800,"station_id":"ce4bgn12rcd13ifvqbt0","pricing_plan_id":"cebpf4jnsgd1na2vs0mg"},{"bike_id":"3eeef30f-40ef-43d9-82f2-2f37fbdb7090","system_id":"levelo_inurba_marseille","lat":43.28566,"lon":5.39502,"is_reserved":false,"is_disabled":false,"rental_uris":{"android":"levelo://app?vid=3eeef30f-40ef-43d9-82f2-2f37fbdb7090","ios":"levelo://app?vid=3eeef30f-40ef-43d9-82f2-2f37fbdb7090"},"vehicle_type_id":"4","last_reported":1762020765,"current_range_meters":6800,"station_id":"ce4bh292rcd13ifvqdg0","pricing_plan_id":"cebpf4jnsgd1na2vs0mg"},{"bike_id":"7c325eac-ecdc-4119-aab4-6e55f64a7504","system_id":"levelo_inurba_marseille","lat":43.25336,"lon":5.42171,"is_reserved":false,"is_disabled":false,"rental_uris":{"android":"levelo://app?vid=7c325eac-ecdc-4119-aab4-6e55f64a7504","ios":"levelo://app?vid=7c325eac-ecdc-4119-aab4-6e55f64a7504"},"vehicle_type_id":"4","last_reported":1762020765,"current_range_meters":6800,"station_id":"st_d2m65c5bi1j21697t3ng","pricing_plan_id":"cebpf4jnsgd1na2vs0mg"},{"bike_id":"5fb987d7-0fd0-4ae4-b81e-29cf312b29a5","system_id":"levelo_inurba_marseille","lat":43.28957,"lon":5.39041,"is_reserved":false,"is_disabled":false,"rental_uris":{"android":"levelo://app?vid=5fb987d7-0fd0-4ae4-b81e-29cf312b29a5","ios":"levelo://app?vid=5fb987d7-0fd0-4ae4-b81e-29cf312b29a5"},"vehicle_type_id":"4","last_reported":1762020765,"current_range_meters":7200,"station_id":"","pricing_plan_id":"cebpf4jnsgd1na2vs0mg"},{"bike_id":"70b7527d-67eb-4818-84c6-51aae343ca97","system_id":"levelo_inurba_marseille","lat":43.28474,"lon":5.48399,"is_reserved":false,"is_disabled":false,"rental_uris":{"android":"levelo://app?vid=70b7527d-67eb-4818-84c6-51aae343ca97","ios":"levelo://app?vid=70b7527d-67eb-4818-84c6-51aae343ca97"},"vehicle_type_id":"4","last_reported":1762020765,"current_range_meters":7200,"station_id":"st_d3svhcjqgbts73a3dn0g","pricing_plan_id":"cebpf4jnsgd1na2vs0mg"},{"bike_id":"583989ba-91ed-4082-bd58-b3a892107758","system_id":"levelo_inurba_marseille","lat":43.29794,"lon":5.40397,"is_reserved":false,"is_disabled":false,"rental_uris":{"android":"levelo://app?vid=583989ba-91ed-4082-bd58-b3a892107758","ios":"levelo://app?vid=583989ba-91ed-4082-bd58-b3a892107758"},"vehicle_type_id":"4","last_reported":1762020765,"current_range_meters":7200,"station_id":"ce4bh112rcd13ifvqd90","pricing_plan_id":"cebpf4jnsgd1na2vs0mg"},{"bike_id":"a48c4f2e-4164-42fe-934b-e3ab45cf3f68","system_id":"levelo_inurba_marseille","lat":43.29784,"lon":5.39335,"is_reserved":false,"is_disabled":false,"rental_uris":{"android":"levelo://app?vid=a48c4f2e-4164-42fe-934b-e3ab45cf3f68","ios":"levelo://app?vid=a48c4f2e-4164-42fe-934b-e3ab45cf3f68"},"vehicle_type_id":"4","last_reported":1762020765,"current_range_meters":7200,"station_id":"chh1huq6cuj3fo74tm60","pricing_plan_id":"cebpf4jnsgd1na2vs0mg"},{"bike_id":"ea9405ce-d6ee-4462-84c2-83e46c318aa7","system_id":"levelo_inurba_marseille","lat":43.25588,"lon":5.38241,"is_reserved":false,"is_disabled":false,"rental_uris":{"android":"levelo://app?vid=ea9405ce-d6ee-4462-84c2-83e46c318aa7","ios":"levelo://app?vid=ea9405ce-d6ee-4462-84c2-83e46c318aa7"},"vehicle_type_id":"4","last_reported":1762020765,"current_range_meters":7200,"station_id":"ce4bhih2rcd13ifvqfs0","pricing_plan_id":"cebpf4jnsgd1na2vs0mg"},{"bike_id":"3a98c2e8-ceee-4661-bee3-f79eaae9a039","system_id":"levelo_inurba_marseille","lat":43.28533,"lon":5.44099,"is_reserved":false,"is_disabled":false,"rental_uris":{"android":"levelo://app?vid=3a98c2e8-ceee-4661-bee3-f79eaae9a039","ios":"levelo://app?vid=3a98c2e8-ceee-4661-bee3-f79eaae9a039"},"vehicle_type_id":"4","last_reported":1762020765,"current_range_meters":7200,"station_id":"st_d3j3df2ikq2c7380ej80","pricing_plan_id":"cebpf4jnsgd1na2vs0mg"},{"bike_id":"df4d91e2-f5d7-41f4-ae09-8161d06b9d54","system_id":"levelo_inurba_marseille","lat":43.292983,"lon":5.374652,"is_reserved":false,"is_disabled":false,"rental_uris":{"android":"levelo://app?vid=df4d91e2-f5d7-41f4-ae09-8161d06b9d54","ios":"levelo://app?vid=df4d91e2-f5d7-41f4-ae09-8161d06b9d54"},"vehicle_type_id":"4","last_reported":1762020765,"current_range_meters":8000,"station_id":"","pricing_plan_id":"cebpf4jnsgd1na2vs0mg"},{"bike_id":"5b2fa7e3-eb6c-45be-9093-a740803cd6aa","system_id":"levelo_inurba_marseille","lat":43.28613,"lon":5.35104,"is_reserved":false,"is_disabled":false,"rental_uris":{"android":"levelo://app?vid=5b2fa7e3-eb6c-45be-9093-a740803cd6aa","ios":"levelo://app?vid=5b2fa7e3-eb6c-45be-9093-a740803cd6aa"},"vehicle_type_id":"4","last_reported":1762020765,"current_range_meters":8000,"station_id":"ce4bhch2rcd13ifvqeug","pricing_plan_id":"cebpf4jnsgd1na2vs0mg"},{"bike_id":"ddb2809d-43f0-45b0-8e3c-da908afbe9c1","system_id":"levelo_inurba_marseille","lat":43.287015,"lon":5.37378,"is_reserved":false,"is_disabled":false,"rental_uris":{"android":"levelo://app?vid=ddb2809d-43f0-45b0-8e3c-da908afbe9c1","ios":"levelo://app?vid=ddb2809d-43f0-45b0-8e3c-da908afbe9c1"},"vehicle_type_id":"4","last_reported":1762020765,"current_range_meters":8000,"station_id":"ce4bh3p2rcd13ifvqdq0","pricing_plan_id":"cebpf4jnsgd1na2vs0mg"},{"bike_id":"c1584138-2966-4cb4-a284-6054a230949c","system_id":"levelo_inurba_marseille","lat":43.33717,"lon":5.39194,"is_reserved":false,"is_disabled":false,"rental_uris":{"android":"levelo://app?vid=c1584138-2966-4cb4-a284-6054a230949c","ios":"levelo://app?vid=c1584138-2966-4cb4-a284-6054a230949c"},"vehicle_type_id":"4","last_reported":1762020765,"current_range_meters":8000,"station_id":"ce4bhr92rcd13ifvqhsg","pricing_plan_id":"cebpf4jnsgd1na2vs0mg"},{"bike_id":"a4dac4fa-66e6-48be-a654-6e17cdc7ca0b","system_id":"levelo_inurba_marseille","lat":43.337571,"lon":5.374323,"is_reserved":false,"is_disabled":false,"rental_uris":{"android":"levelo://app?vid=a4dac4fa-66e6-48be-a654-6e17cdc7ca0b","ios":"levelo://app?vid=a4dac4fa-66e6-48be-a654-6e17cdc7ca0b"},"vehicle_type_id":"4","last_reported":1762020765,"current_range_meters":8400,"station_id":"","pricing_plan_id":"cebpf4jnsgd1na2vs0mg"},{"bike_id":"7c18d7f9-9267-4833-9196-cad4d9a80323","system_id":"levelo_inurba_marseille","lat":43.28338,"lon":5.37535,"is_reserved":false,"is_disabled":false,"rental_uris":{"android":"levelo://app?vid=7c18d7f9-9267-4833-9196-cad4d9a80323","ios":"levelo://app?vid=7c18d7f9-9267-4833-9196-cad4d9a80323"},"vehicle_type_id":"4","last_reported":1762020765,"current_range_meters":8400,"station_id":"","pricing_plan_id":"cebpf4jnsgd1na2vs0mg"},{"bike_id":"eb284ad2-56e5-45ad-a81f-d1bcf68a8e6b","system_id":"levelo_inurba_marseille","lat":43.28155,"lon":5.42642,"is_reserved":false,"is_disabled":false,"rental_uris":{"android":"levelo://app?vid=eb284ad2-56e5-45ad-a81f-d1bcf68a8e6b","ios":"levelo://app?vid=eb284ad2-56e5-45ad-a81f-d1bcf68a8e6b"},"vehicle_type_id":"4","last_reported":1762020765,"current_range_meters":8400,"station_id":"ce4bhnh2rcd13ifvqgug","pricing_plan_id":"cebpf4jnsgd1na2vs0mg"},{"bike_id":"f36777ae-eb55-4c72-b8e4-7b114d79d983","system_id":"levelo_inurba_marseille","lat":43.28924,"lon":5.36397,"is_reserved":false,"is_disabled":false,"rental_uris":{"android":"levelo://app?vid=f36777ae-eb55-4c72-b8e4-7b114d79d983","ios":"levelo://app?vid=f36777ae-eb55-4c72-b8e4-7b114d79d983"},"vehicle_type_id":"4","last_reported":1762020765,"current_range_meters":8400,"station_id":"ce4bhc92rcd13ifvqetg","pricing_plan_id":"cebpf4jnsgd1na2vs0mg"},{"bike_id":"b70bd611-7c5d-42d8-9537-81f3893174db","system_id":"levelo_inurba_marseille","lat":43.24644,"lon":5.38907,"is_reserved":false,"is_disabled":false,"rental_uris":{"android":"levelo://app?vid=b70bd611-7c5d-42d8-9537-81f3893174db","ios":"levelo://app?vid=b70bd611-7c5d-42d8-9537-81f3893174db"},"vehicle_type_id":"4","last_reported":1762020765,"current_range_meters":8400,"station_id":"ce4bhg12rcd13ifvqf60","pricing_plan_id":"cebpf4jnsgd1na2vs0mg"},{"bike_id":"f05e0d49-2641-485e-b85a-042781dd45a2","system_id":"levelo_inurba_marseille","lat":43.30087,"lon":5.39082,"is_reserved":false,"is_disabled":false,"rental_uris":{"android":"levelo://app?vid=f05e0d49-2641-485e-b85a-042781dd45a2","ios":"levelo://app?vid=f05e0d49-2641-485e-b85a-042781dd45a2"},"vehicle_type_id":"4","last_reported":1762020765,"current_range_meters":8800,"station_id":"ce4bh192rcd13ifvqdb0","pricing_plan_id":"cebpf4jnsgd1na2vs0mg"},{"bike_id":"0663472c-8b90-4341-bc05-5c8b26cabfc8","system_id":"levelo_inurba_marseille","lat":43.2679,"lon":5.39414,"is_reserved":false,"is_disabled":false,"rental_uris":{"android":"levelo://app?vid=0663472c-8b90-4341-bc05-5c8b26cabfc8","ios":"levelo://app?vid=0663472c-8b90-4341-bc05-5c8b26cabfc8"},"vehicle_type_id":"4","last_reported":1762020765,"current_range_meters":8800,"station_id":"ce4bhh12rcd13ifvqfg0","pricing_plan_id":"cebpf4jnsgd1na2vs0mg"},{"bike_id":"73702b6f-d7f2-4585-ab2a-f9e5c646fe00","system_id":"levelo_inurba_marseille","lat":43.26063,"lon":5.39397,"is_reserved":false,"is_disabled":false,"rental_uris":{"android":"levelo://app?vid=73702b6f-d7f2-4585-ab2a-f9e5c646fe00","ios":"levelo://app?vid=73702b6f-d7f2-4585-ab2a-f9e5c646fe00"},"vehicle_type_id":"4","last_reported":1762020765,"current_range_meters":8800,"station_id":"ce4bhh92rcd13ifvqfj0","pricing_plan_id":"cebpf4jnsgd1na2vs0mg"},{"bike_id":"27abc7d1-dd85-495f-9415-aa00cef4846e","system_id":"levelo_inurba_marseille","lat":43.27768,"lon":5.39564,"is_reserved":false,"is_disabled":false,"rental_uris":{"android":"levelo://app?vid=27abc7d1-dd85-495f-9415-aa00cef4846e","ios":"levelo://app?vid=27abc7d1-dd85-495f-9415-aa00cef4846e"},"vehicle_type_id":"4","last_reported":1762020765,"current_range_meters":8800,"station_id":"","pricing_plan_id":"cebpf4jnsgd1na2vs0mg"},{"bike_id":"17b245c1-b903-4822-8a14-0c675d765b73","system_id":"levelo_inurba_marseille","lat":43.27375,"lon":5.36255,"is_reserved":false,"is_disabled":false,"rental_uris":{"android":"levelo://app?vid=17b245c1-b903-4822-8a14-0c675d765b73","ios":"levelo://app?vid=17b245c1-b903-4822-8a14-0c675d765b73"},"vehicle_type_id":"4","last_reported":1762020765,"current_range_meters":8800,"station_id":"ce4bhbh2rcd13ifvqeo0","pricing_plan_id":"cebpf4jnsgd1na2vs0mg"},{"bike_id":"52b117f2-4c01-4f66-887d-006722496528","system_id":"levelo_inurba_marseille","lat":43.30857,"lon":5.37147,"is_reserved":false,"is_disabled":false,"rental_uris":{"android":"levelo://app?vid=52b117f2-4c01-4f66-887d-006722496528","ios":"levelo://app?vid=52b117f2-4c01-4f66-887d-006722496528"},"vehicle_type_id":"4","last_reported":1762020765,"current_range_meters":9200,"station_id":"","pricing_plan_id":"cebpf4jnsgd1na2vs0mg"},{"bike_id":"d86df79c-4d65-47cc-aa88-9f0f48f9ea00","system_id":"levelo_inurba_marseille","lat":43.30795,"lon":5.40552,"is_reserved":false,"is_disabled":false,"rental_uris":{"android":"levelo://app?vid=d86df79c-4d65-47cc-aa88-9f0f48f9ea00","ios":"levelo://app?vid=d86df79c-4d65-47cc-aa88-9f0f48f9ea00"},"vehicle_type_id":"4","last_reported":1762020765,"current_range_meters":9200,"station_id":"","pricing_plan_id":"cebpf4jnsgd1na2vs0mg"},{"bike_id":"8ebd38a9-0935-45eb-a970-06b90f5f71d5","system_id":"levelo_inurba_marseille","lat":43.2853,"lon":5.44091,"is_reserved":false,"is_disabled":false,"rental_uris":{"android":"levelo://app?vid=8ebd38a9-0935-45eb-a970-06b90f5f71d5","ios":"levelo://app?vid=8ebd38a9-0935-45eb-a970-06b90f5f71d5"},"vehicle_type_id":"4","last_reported":1762020765,"current_range_meters":9600,"station_id":"st_d3j3df2ikq2c7380ej80","pricing_plan_id":"cebpf4jnsgd1na2vs0mg"},{"bike_id":"dcb5f4d6-a57a-45ea-b185-de3fe952058c","system_id":"levelo_inurba_marseille","lat":43.280969,"lon":5.378416,"is_reserved":false,"is_disabled":true,"rental_uris":{"android":"levelo://app?vid=dcb5f4d6-a57a-45ea-b185-de3fe952058c","ios":"levelo://app?vid=dcb5f4d6-a57a-45ea-b185-de3fe952058c"},"vehicle_type_id":"4","last_reported":1762020765,"current_range_meters":9600,"station_id":"ce4bha12rcd13ifvqee0","pricing_plan_id":"cebpf4jnsgd1na2vs0mg"},{"bike_id":"07d9cad5-27e5-45b1-8100-dec66cdbf239","system_id":"levelo_inurba_marseille","lat":43.321114,"lon":5.367796,"is_reserved":false,"is_disabled":false,"rental_uris":{"android":"levelo://app?vid=07d9cad5-27e5-45b1-8100-dec66cdbf239","ios":"levelo://app?vid=07d9cad5-27e5-45b1-8100-dec66cdbf239"},"vehicle_type_id":"4","last_reported":1762020765,"current_range_meters":9600,"station_id":"ce4bhrh2rcd13ifvqhug","pricing_plan_id":"cebpf4jnsgd1na2vs0mg"},{"bike_id":"971695fc-d405-4a3f-b30c-46841150c913","system_id":"levelo_inurba_marseille","lat":43.28533,"lon":5.44104,"is_reserved":false,"is_disabled":false,"rental_uris":{"android":"levelo://app?vid=971695fc-d405-4a3f-b30c-46841150c913","ios":"levelo://app?vid=971695fc-d405-4a3f-b30c-46841150c913"},"vehicle_type_id":"4","last_reported":1762020765,"current_range_meters":9600,"station_id":"st_d3j3df2ikq2c7380ej80","pricing_plan_id":"cebpf4jnsgd1na2vs0mg"},{"bike_id":"0e3d6ad4-bb70-4495-b4ca-40a3bd264147","system_id":"levelo_inurba_marseille","lat":43.28036,"lon":5.36942,"is_reserved":false,"is_disabled":false,"rental_uris":{"android":"levelo://app?vid=0e3d6ad4-bb70-4495-b4ca-40a3bd264147","ios":"levelo://app?vid=0e3d6ad4-bb70-4495-b4ca-40a3bd264147"},"vehicle_type_id":"4","last_reported":1762020765,"current_range_meters":10000,"station_id":"ce4bha12rcd13ifvqef0","pricing_plan_id":"cebpf4jnsgd1na2vs0mg"},{"bike_id":"ef3c599f-c4ca-4eb8-aa71-b3f4816507b8","system_id":"levelo_inurba_marseille","lat":43.29493,"lon":5.43316,"is_reserved":false,"is_disabled":false,"rental_uris":{"android":"levelo://app?vid=ef3c599f-c4ca-4eb8-aa71-b3f4816507b8","ios":"levelo://app?vid=ef3c599f-c4ca-4eb8-aa71-b3f4816507b8"},"vehicle_type_id":"4","last_reported":1762020765,"current_range_meters":10000,"station_id":"st_d3j5ugp08ojc73fj9d10","pricing_plan_id":"cebpf4jnsgd1na2vs0mg"},{"bike_id":"71ea6660-844e-4ffa-bc1d-4c7d59c906bf","system_id":"levelo_inurba_marseille","lat":43.24951,"lon":5.40483,"is_reserved":false,"is_disabled":false,"rental_uris":{"android":"levelo://app?vid=71ea6660-844e-4ffa-bc1d-4c7d59c906bf","ios":"levelo://app?vid=71ea6660-844e-4ffa-bc1d-4c7d59c906bf"},"vehicle_type_id":"4","last_reported":1762020765,"current_range_meters":10000,"station_id":"st_d2ngiaodas8pm72gd1h0","pricing_plan_id":"cebpf4jnsgd1na2vs0mg"},{"bike_id":"61d00f38-b7f4-4d85-a582-16765b15660f","system_id":"levelo_inurba_marseille","lat":43.26208,"lon":5.37444,"is_reserved":false,"is_disabled":false,"rental_uris":{"android":"levelo://app?vid=61d00f38-b7f4-4d85-a582-16765b15660f","ios":"levelo://app?vid=61d00f38-b7f4-4d85-a582-16765b15660f"},"vehicle_type_id":"4","last_reported":1762020765,"current_range_meters":10000,"station_id":"ce4bhgp2rcd13ifvqfc0","pricing_plan_id":"cebpf4jnsgd1na2vs0mg"},{"bike_id":"fe211fee-df04-4312-bc0a-d625bf6086ab","system_id":"levelo_inurba_marseille","lat":43.29174,"lon":5.40318,"is_reserved":false,"is_disabled":true,"rental_uris":{"android":"levelo://app?vid=fe211fee-df04-4312-bc0a-d625bf6086ab","ios":"levelo://app?vid=fe211fee-df04-4312-bc0a-d625bf6086ab"},"vehicle_type_id":"4","last_reported":1762020765,"current_range_meters":10000,"station_id":"","pricing_plan_id":"cebpf4jnsgd1na2vs0mg"},{"bike_id":"74b15735-564b-4f09-952a-ba8cccb96884","system_id":"levelo_inurba_marseille","lat":43.29816,"lon":5.44067,"is_reserved":false,"is_disabled":false,"rental_uris":{"android":"levelo://app?vid=74b15735-564b-4f09-952a-ba8cccb96884","ios":"levelo://app?vid=74b15735-564b-4f09-952a-ba8cccb96884"},"vehicle_type_id":"4","last_reported":1762020765,"current_range_meters":10000,"station_id":"st_d3jp68qikq2c7381ktn0","pricing_plan_id":"cebpf4jnsgd1na2vs0mg"},{"bike_id":"5ceb606b-3fbd-4428-b7c8-0cb447006872","system_id":"levelo_inurba_marseille","lat":43.272136,"lon":5.391804,"is_reserved":false,"is_disabled":false,"rental_uris":{"android":"levelo://app?vid=5ceb606b-3fbd-4428-b7c8-0cb447006872","ios":"levelo://app?vid=5ceb606b-3fbd-4428-b7c8-0cb447006872"},"vehicle_type_id":"4","last_reported":1762020765,"current_range_meters":10800,"station_id":"","pricing_plan_id":"cebpf4jnsgd1na2vs0mg"},{"bike_id":"e04f332d-b41c-47fd-b12f-6fdc7d63f429","system_id":"levelo_inurba_marseille","lat":43.30887,"lon":5.38192,"is_reserved":false,"is_disabled":false,"rental_uris":{"android":"levelo://app?vid=e04f332d-b41c-47fd-b12f-6fdc7d63f429","ios":"levelo://app?vid=e04f332d-b41c-47fd-b12f-6fdc7d63f429"},"vehicle_type_id":"4","last_reported":1762020765,"current_range_meters":10800,"station_id":"","pricing_plan_id":"cebpf4jnsgd1na2vs0mg"},{"bike_id":"995c398a-192b-4e7d-923c-0e5720d4a0ab","system_id":"levelo_inurba_marseille","lat":43.217489,"lon":5.345995,"is_reserved":false,"is_disabled":false,"rental_uris":{"android":"levelo://app?vid=995c398a-192b-4e7d-923c-0e5720d4a0ab","ios":"levelo://app?vid=995c398a-192b-4e7d-923c-0e5720d4a0ab"},"vehicle_type_id":"4","last_reported":1762020765,"current_range_meters":10800,"station_id":"","pricing_plan_id":"cebpf4jnsgd1na2vs0mg"},{"bike_id":"4f0aa1ca-9cc8-4915-b83a-c1e6da01bf89","system_id":"levelo_inurba_marseille","lat":43.30418,"lon":5.41285,"is_reserved":false,"is_disabled":false,"rental_uris":{"android":"levelo://app?vid=4f0aa1ca-9cc8-4915-b83a-c1e6da01bf89","ios":"levelo://app?vid=4f0aa1ca-9cc8-4915-b83a-c1e6da01bf89"},"vehicle_type_id":"4","last_reported":1762020765,"current_range_meters":10800,"station_id":"ce4bhop2rcd13ifvqh8g","pricing_plan_id":"cebpf4jnsgd1na2vs0mg"},{"bike_id":"b1e81361-2b17-4ef1-8a58-6def5753471b","system_id":"levelo_inurba_marseille","lat":43.33753,"lon":5.37484,"is_reserved":false,"is_disabled":false,"rental_uris":{"android":"levelo://app?vid=b1e81361-2b17-4ef1-8a58-6def5753471b","ios":"levelo://app?vid=b1e81361-2b17-4ef1-8a58-6def5753471b"},"vehicle_type_id":"4","last_reported":1762020765,"current_range_meters":11200,"station_id":"","pricing_plan_id":"cebpf4jnsgd1na2vs0mg"},{"bike_id":"c2807477-fd8d-44ed-9bdc-b3f90f0cbde0","system_id":"levelo_inurba_marseille","lat":43.31884,"lon":5.39986,"is_reserved":false,"is_disabled":false,"rental_uris":{"android":"levelo://app?vid=c2807477-fd8d-44ed-9bdc-b3f90f0cbde0","ios":"levelo://app?vid=c2807477-fd8d-44ed-9bdc-b3f90f0cbde0"},"vehicle_type_id":"4","last_reported":1762020765,"current_range_meters":11200,"station_id":"","pricing_plan_id":"cebpf4jnsgd1na2vs0mg"},{"bike_id":"c6928ce8-0a2e-421f-aff2-3fc5518a662a","system_id":"levelo_inurba_marseille","lat":43.28619,"lon":5.351,"is_reserved":false,"is_disabled":false,"rental_uris":{"android":"levelo://app?vid=c6928ce8-0a2e-421f-aff2-3fc5518a662a","ios":"levelo://app?vid=c6928ce8-0a2e-421f-aff2-3fc5518a662a"},"vehicle_type_id":"4","last_reported":1762020765,"current_range_meters":11600,"station_id":"ce4bhch2rcd13ifvqeug","pricing_plan_id":"cebpf4jnsgd1na2vs0mg"},{"bike_id":"b5bba5ea-dc74-459e-a82e-98dbcdcb1f12","system_id":"levelo_inurba_marseille","lat":43.2534,"lon":5.42172,"is_reserved":false,"is_disabled":false,"rental_uris":{"android":"levelo://app?vid=b5bba5ea-dc74-459e-a82e-98dbcdcb1f12","ios":"levelo://app?vid=b5bba5ea-dc74-459e-a82e-98dbcdcb1f12"},"vehicle_type_id":"4","last_reported":1762020765,"current_range_meters":11600,"station_id":"st_d2m65c5bi1j21697t3ng","pricing_plan_id":"cebpf4jnsgd1na2vs0mg"},{"bike_id":"b3677075-235d-410b-bfa9-38d8f2858226","system_id":"levelo_inurba_marseille","lat":43.28616,"lon":5.35098,"is_reserved":false,"is_disabled":false,"rental_uris":{"android":"levelo://app?vid=b3677075-235d-410b-bfa9-38d8f2858226","ios":"levelo://app?vid=b3677075-235d-410b-bfa9-38d8f2858226"},"vehicle_type_id":"4","last_reported":1762020765,"current_range_meters":11600,"station_id":"ce4bhch2rcd13ifvqeug","pricing_plan_id":"cebpf4jnsgd1na2vs0mg"},{"bike_id":"1a2efa1a-bf57-4041-a313-428fa4179c7e","system_id":"levelo_inurba_marseille","lat":43.22928,"lon":5.35384,"is_reserved":false,"is_disabled":false,"rental_uris":{"android":"levelo://app?vid=1a2efa1a-bf57-4041-a313-428fa4179c7e","ios":"levelo://app?vid=1a2efa1a-bf57-4041-a313-428fa4179c7e"},"vehicle_type_id":"4","last_reported":1762020765,"current_range_meters":11600,"station_id":"cpo3532slgdg3j2ikp40","pricing_plan_id":"cebpf4jnsgd1na2vs0mg"},{"bike_id":"5c1c0f2e-c364-4c6d-acee-b2dfe1d030f5","system_id":"levelo_inurba_marseille","lat":43.330257,"lon":5.390397,"is_reserved":false,"is_disabled":false,"rental_uris":{"android":"levelo://app?vid=5c1c0f2e-c364-4c6d-acee-b2dfe1d030f5","ios":"levelo://app?vid=5c1c0f2e-c364-4c6d-acee-b2dfe1d030f5"},"vehicle_type_id":"4","last_reported":1762020765,"current_range_meters":11600,"station_id":"ce4bhr92rcd13ifvqhrg","pricing_plan_id":"cebpf4jnsgd1na2vs0mg"},{"bike_id":"32930fa7-75ba-450f-a5f2-796bb2c0be5c","system_id":"levelo_inurba_marseille","lat":43.29974,"lon":5.38528,"is_reserved":false,"is_disabled":false,"rental_uris":{"android":"levelo://app?vid=32930fa7-75ba-450f-a5f2-796bb2c0be5c","ios":"levelo://app?vid=32930fa7-75ba-450f-a5f2-796bb2c0be5c"},"vehicle_type_id":"4","last_reported":1762020765,"current_range_meters":12000,"station_id":"ce4bgj92rcd13ifvqbd0","pricing_plan_id":"cebpf4jnsgd1na2vs0mg"},{"bike_id":"f47639d1-dc87-40e9-95c2-d02d15010cb1","system_id":"levelo_inurba_marseille","lat":43.30136,"lon":5.38772,"is_reserved":false,"is_disabled":false,"rental_uris":{"android":"levelo://app?vid=f47639d1-dc87-40e9-95c2-d02d15010cb1","ios":"levelo://app?vid=f47639d1-dc87-40e9-95c2-d02d15010cb1"},"vehicle_type_id":"4","last_reported":1762020765,"current_range_meters":12000,"station_id":"ce4bghh2rcd13ifvqb60","pricing_plan_id":"cebpf4jnsgd1na2vs0mg"},{"bike_id":"62afdfb7-c998-4706-8158-4b5933b655bd","system_id":"levelo_inurba_marseille","lat":43.27054,"lon":5.40263,"is_reserved":false,"is_disabled":false,"rental_uris":{"android":"levelo://app?vid=62afdfb7-c998-4706-8158-4b5933b655bd","ios":"levelo://app?vid=62afdfb7-c998-4706-8158-4b5933b655bd"},"vehicle_type_id":"4","last_reported":1762020765,"current_range_meters":12000,"station_id":"ce4bhk92rcd13ifvqgc0","pricing_plan_id":"cebpf4jnsgd1na2vs0mg"},{"bike_id":"bae6d45b-da2b-4919-9a1b-ccf783d9611e","system_id":"levelo_inurba_marseille","lat":43.29197,"lon":5.35801,"is_reserved":false,"is_disabled":false,"rental_uris":{"android":"levelo://app?vid=bae6d45b-da2b-4919-9a1b-ccf783d9611e","ios":"levelo://app?vid=bae6d45b-da2b-4919-9a1b-ccf783d9611e"},"vehicle_type_id":"4","last_reported":1762020765,"current_range_meters":12000,"station_id":"ce4bhb12rcd13ifvqel0","pricing_plan_id":"cebpf4jnsgd1na2vs0mg"},{"bike_id":"1b3bb9cc-b988-4a88-98f2-1e1f5432d2d1","system_id":"levelo_inurba_marseille","lat":43.2953,"lon":5.3855,"is_reserved":false,"is_disabled":false,"rental_uris":{"android":"levelo://app?vid=1b3bb9cc-b988-4a88-98f2-1e1f5432d2d1","ios":"levelo://app?vid=1b3bb9cc-b988-4a88-98f2-1e1f5432d2d1"},"vehicle_type_id":"4","last_reported":1762020765,"current_range_meters":12000,"station_id":"ce4bgih2rcd13ifvqba0","pricing_plan_id":"cebpf4jnsgd1na2vs0mg"},{"bike_id":"ecb626e6-19e8-488a-804e-2fa958e526a4","system_id":"levelo_inurba_marseille","lat":43.29111,"lon":5.37517,"is_reserved":false,"is_disabled":false,"rental_uris":{"android":"levelo://app?vid=ecb626e6-19e8-488a-804e-2fa958e526a4","ios":"levelo://app?vid=ecb626e6-19e8-488a-804e-2fa958e526a4"},"vehicle_type_id":"4","last_reported":1762020765,"current_range_meters":12000,"station_id":"","pricing_plan_id":"cebpf4jnsgd1na2vs0mg"},{"bike_id":"ae3598c3-d5d8-4133-922b-9187802cb4d8","system_id":"levelo_inurba_marseille","lat":43.321055,"lon":5.367997,"is_reserved":false,"is_disabled":false,"rental_uris":{"android":"levelo://app?vid=ae3598c3-d5d8-4133-922b-9187802cb4d8","ios":"levelo://app?vid=ae3598c3-d5d8-4133-922b-9187802cb4d8"},"vehicle_type_id":"4","last_reported":1762020765,"current_range_meters":12000,"station_id":"ce4bhrh2rcd13ifvqhug","pricing_plan_id":"cebpf4jnsgd1na2vs0mg"},{"bike_id":"c04ea6ec-c85d-4b9a-aa74-f0de2415a6d2","system_id":"levelo_inurba_marseille","lat":43.31561,"lon":5.38367,"is_reserved":false,"is_disabled":false,"rental_uris":{"android":"levelo://app?vid=c04ea6ec-c85d-4b9a-aa74-f0de2415a6d2","ios":"levelo://app?vid=c04ea6ec-c85d-4b9a-aa74-f0de2415a6d2"},"vehicle_type_id":"4","last_reported":1762020765,"current_range_meters":12000,"station_id":"","pricing_plan_id":"cebpf4jnsgd1na2vs0mg"},{"bike_id":"8f5c9efd-15ee-434d-ba0c-83d2595550e6","system_id":"levelo_inurba_marseille","lat":43.28486,"lon":5.38401,"is_reserved":false,"is_disabled":false,"rental_uris":{"android":"levelo://app?vid=8f5c9efd-15ee-434d-ba0c-83d2595550e6","ios":"levelo://app?vid=8f5c9efd-15ee-434d-ba0c-83d2595550e6"},"vehicle_type_id":"4","last_reported":1762020765,"current_range_meters":12000,"station_id":"ce4bh512rcd13ifvqe3g","pricing_plan_id":"cebpf4jnsgd1na2vs0mg"},{"bike_id":"e980a7cf-a190-48ed-8134-8c3b5453eddc","system_id":"levelo_inurba_marseille","lat":43.29197,"lon":5.40189,"is_reserved":false,"is_disabled":false,"rental_uris":{"android":"levelo://app?vid=e980a7cf-a190-48ed-8134-8c3b5453eddc","ios":"levelo://app?vid=e980a7cf-a190-48ed-8134-8c3b5453eddc"},"vehicle_type_id":"4","last_reported":1762020765,"current_range_meters":12000,"station_id":"","pricing_plan_id":"cebpf4jnsgd1na2vs0mg"},{"bike_id":"22ba1cb8-fcc3-4262-974b-0a45b76310e7","system_id":"levelo_inurba_marseille","lat":43.28698,"lon":5.39983,"is_reserved":false,"is_disabled":false,"rental_uris":{"android":"levelo://app?vid=22ba1cb8-fcc3-4262-974b-0a45b76310e7","ios":"levelo://app?vid=22ba1cb8-fcc3-4262-974b-0a45b76310e7"},"vehicle_type_id":"4","last_reported":1762020765,"current_range_meters":12000,"station_id":"ce4bho92rcd13ifvqh3g","pricing_plan_id":"cebpf4jnsgd1na2vs0mg"},{"bike_id":"9fb49a8c-1e3d-4497-834a-bcbe1a7f29cc","system_id":"levelo_inurba_marseille","lat":43.28477,"lon":5.38412,"is_reserved":false,"is_disabled":false,"rental_uris":{"android":"levelo://app?vid=9fb49a8c-1e3d-4497-834a-bcbe1a7f29cc","ios":"levelo://app?vid=9fb49a8c-1e3d-4497-834a-bcbe1a7f29cc"},"vehicle_type_id":"4","last_reported":1762020765,"current_range_meters":12000,"station_id":"ce4bh512rcd13ifvqe3g","pricing_plan_id":"cebpf4jnsgd1na2vs0mg"},{"bike_id":"c11d71f6-6418-4777-b9d2-29132ae76e19","system_id":"levelo_inurba_marseille","lat":43.22926,"lon":5.35379,"is_reserved":false,"is_disabled":false,"rental_uris":{"android":"levelo://app?vid=c11d71f6-6418-4777-b9d2-29132ae76e19","ios":"levelo://app?vid=c11d71f6-6418-4777-b9d2-29132ae76e19"},"vehicle_type_id":"4","last_reported":1762020765,"current_range_meters":12400,"station_id":"cpo3532slgdg3j2ikp40","pricing_plan_id":"cebpf4jnsgd1na2vs0mg"},{"bike_id":"f4c38a56-4a35-49a9-bdea-5d14ae1ba768","system_id":"levelo_inurba_marseille","lat":43.29773,"lon":5.42771,"is_reserved":false,"is_disabled":false,"rental_uris":{"android":"levelo://app?vid=f4c38a56-4a35-49a9-bdea-5d14ae1ba768","ios":"levelo://app?vid=f4c38a56-4a35-49a9-bdea-5d14ae1ba768"},"vehicle_type_id":"4","last_reported":1762020765,"current_range_meters":12400,"station_id":"st_d3md5207bmas73dh9klg","pricing_plan_id":"cebpf4jnsgd1na2vs0mg"},{"bike_id":"b8ebd8da-21d9-42e8-bb5f-906340bf2793","system_id":"levelo_inurba_marseille","lat":43.2534,"lon":5.42168,"is_reserved":false,"is_disabled":false,"rental_uris":{"android":"levelo://app?vid=b8ebd8da-21d9-42e8-bb5f-906340bf2793","ios":"levelo://app?vid=b8ebd8da-21d9-42e8-bb5f-906340bf2793"},"vehicle_type_id":"4","last_reported":1762020765,"current_range_meters":12400,"station_id":"st_d2m65c5bi1j21697t3ng","pricing_plan_id":"cebpf4jnsgd1na2vs0mg"},{"bike_id":"68dfe5bf-96d8-40ed-a701-d1cafa21ceb7","system_id":"levelo_inurba_marseille","lat":43.30573,"lon":5.39002,"is_reserved":false,"is_disabled":false,"rental_uris":{"android":"levelo://app?vid=68dfe5bf-96d8-40ed-a701-d1cafa21ceb7","ios":"levelo://app?vid=68dfe5bf-96d8-40ed-a701-d1cafa21ceb7"},"vehicle_type_id":"4","last_reported":1762020765,"current_range_meters":12400,"station_id":"ce4bgk12rcd13ifvqbi0","pricing_plan_id":"cebpf4jnsgd1na2vs0mg"},{"bike_id":"b4cb0cf7-f8c5-4677-91c1-154973aab3fd","system_id":"levelo_inurba_marseille","lat":43.28408,"lon":5.34977,"is_reserved":false,"is_disabled":false,"rental_uris":{"android":"levelo://app?vid=b4cb0cf7-f8c5-4677-91c1-154973aab3fd","ios":"levelo://app?vid=b4cb0cf7-f8c5-4677-91c1-154973aab3fd"},"vehicle_type_id":"4","last_reported":1762020765,"current_range_meters":12400,"station_id":"ce4bhbh2rcd13ifvqepg","pricing_plan_id":"cebpf4jnsgd1na2vs0mg"},{"bike_id":"7a9e1e86-52dc-42e4-a53b-236a591ba00d","system_id":"levelo_inurba_marseille","lat":43.28813,"lon":5.36381,"is_reserved":false,"is_disabled":false,"rental_uris":{"android":"levelo://app?vid=7a9e1e86-52dc-42e4-a53b-236a591ba00d","ios":"levelo://app?vid=7a9e1e86-52dc-42e4-a53b-236a591ba00d"},"vehicle_type_id":"4","last_reported":1762020765,"current_range_meters":12800,"station_id":"","pricing_plan_id":"cebpf4jnsgd1na2vs0mg"},{"bike_id":"e6cb7c33-4e1d-444a-93dc-f44007b0546c","system_id":"levelo_inurba_marseille","lat":43.28622,"lon":5.35096,"is_reserved":false,"is_disabled":false,"rental_uris":{"android":"levelo://app?vid=e6cb7c33-4e1d-444a-93dc-f44007b0546c","ios":"levelo://app?vid=e6cb7c33-4e1d-444a-93dc-f44007b0546c"},"vehicle_type_id":"4","last_reported":1762020765,"current_range_meters":12800,"station_id":"ce4bhch2rcd13ifvqeug","pricing_plan_id":"cebpf4jnsgd1na2vs0mg"},{"bike_id":"24d20744-77d9-44b0-a51a-bee3fdce2bbf","system_id":"levelo_inurba_marseille","lat":43.2905,"lon":5.3717,"is_reserved":false,"is_disabled":false,"rental_uris":{"android":"levelo://app?vid=24d20744-77d9-44b0-a51a-bee3fdce2bbf","ios":"levelo://app?vid=24d20744-77d9-44b0-a51a-bee3fdce2bbf"},"vehicle_type_id":"4","last_reported":1762020765,"current_range_meters":12800,"station_id":"ce4bh5p2rcd13ifvqe4g","pricing_plan_id":"cebpf4jnsgd1na2vs0mg"},{"bike_id":"1da464de-a87c-49fb-939a-9732a97a4ebd","system_id":"levelo_inurba_marseille","lat":43.32109,"lon":5.36765,"is_reserved":false,"is_disabled":false,"rental_uris":{"android":"levelo://app?vid=1da464de-a87c-49fb-939a-9732a97a4ebd","ios":"levelo://app?vid=1da464de-a87c-49fb-939a-9732a97a4ebd"},"vehicle_type_id":"4","last_reported":1762020765,"current_range_meters":13600,"station_id":"ce4bhrh2rcd13ifvqhug","pricing_plan_id":"cebpf4jnsgd1na2vs0mg"},{"bike_id":"a23073fd-ad44-48bd-8b1a-be42b2510241","system_id":"levelo_inurba_marseille","lat":43.298086,"lon":5.381061,"is_reserved":false,"is_disabled":false,"rental_uris":{"android":"levelo://app?vid=a23073fd-ad44-48bd-8b1a-be42b2510241","ios":"levelo://app?vid=a23073fd-ad44-48bd-8b1a-be42b2510241"},"vehicle_type_id":"4","last_reported":1762020765,"current_range_meters":13600,"station_id":"ce4bgip2rcd13ifvqbb0","pricing_plan_id":"cebpf4jnsgd1na2vs0mg"},{"bike_id":"35c5eff1-6c48-49f5-b44e-1b2d21fe3798","system_id":"levelo_inurba_marseille","lat":43.32117,"lon":5.36791,"is_reserved":false,"is_disabled":false,"rental_uris":{"android":"levelo://app?vid=35c5eff1-6c48-49f5-b44e-1b2d21fe3798","ios":"levelo://app?vid=35c5eff1-6c48-49f5-b44e-1b2d21fe3798"},"vehicle_type_id":"4","last_reported":1762020765,"current_range_meters":13600,"station_id":"ce4bhrh2rcd13ifvqhug","pricing_plan_id":"cebpf4jnsgd1na2vs0mg"},{"bike_id":"96cbfedc-d9e0-46b4-9278-ed5bad333296","system_id":"levelo_inurba_marseille","lat":43.29264,"lon":5.36834,"is_reserved":false,"is_disabled":false,"rental_uris":{"android":"levelo://app?vid=96cbfedc-d9e0-46b4-9278-ed5bad333296","ios":"levelo://app?vid=96cbfedc-d9e0-46b4-9278-ed5bad333296"},"vehicle_type_id":"4","last_reported":1762020765,"current_range_meters":13600,"station_id":"ce4bhbp2rcd13ifvqesg","pricing_plan_id":"cebpf4jnsgd1na2vs0mg"},{"bike_id":"0089665c-d050-4f0d-8d27-e9a6af9208fc","system_id":"levelo_inurba_marseille","lat":43.30189,"lon":5.38039,"is_reserved":false,"is_disabled":false,"rental_uris":{"android":"levelo://app?vid=0089665c-d050-4f0d-8d27-e9a6af9208fc","ios":"levelo://app?vid=0089665c-d050-4f0d-8d27-e9a6af9208fc"},"vehicle_type_id":"4","last_reported":1762020765,"current_range_meters":13600,"station_id":"","pricing_plan_id":"cebpf4jnsgd1na2vs0mg"},{"bike_id":"0c3bfe72-1bfa-4fe4-8ec1-abc531b0b6c5","system_id":"levelo_inurba_marseille","lat":43.26557,"lon":5.37294,"is_reserved":false,"is_disabled":true,"rental_uris":{"android":"levelo://app?vid=0c3bfe72-1bfa-4fe4-8ec1-abc531b0b6c5","ios":"levelo://app?vid=0c3bfe72-1bfa-4fe4-8ec1-abc531b0b6c5"},"vehicle_type_id":"4","last_reported":1762020765,"current_range_meters":13600,"station_id":"ce4bhg12rcd13ifvqf70","pricing_plan_id":"cebpf4jnsgd1na2vs0mg"},{"bike_id":"e77c5960-d5d2-49a0-a2fb-59d019c7b022","system_id":"levelo_inurba_marseille","lat":43.28707,"lon":5.37395,"is_reserved":false,"is_disabled":false,"rental_uris":{"android":"levelo://app?vid=e77c5960-d5d2-49a0-a2fb-59d019c7b022","ios":"levelo://app?vid=e77c5960-d5d2-49a0-a2fb-59d019c7b022"},"vehicle_type_id":"4","last_reported":1762020765,"current_range_meters":13600,"station_id":"ce4bh3p2rcd13ifvqdq0","pricing_plan_id":"cebpf4jnsgd1na2vs0mg"},{"bike_id":"10d9b79b-1554-4d38-8c45-45e893255f48","system_id":"levelo_inurba_marseille","lat":43.29855,"lon":5.36294,"is_reserved":false,"is_disabled":false,"rental_uris":{"android":"levelo://app?vid=10d9b79b-1554-4d38-8c45-45e893255f48","ios":"levelo://app?vid=10d9b79b-1554-4d38-8c45-45e893255f48"},"vehicle_type_id":"4","last_reported":1762020765,"current_range_meters":13600,"station_id":"ce4bgpp2rcd13ifvqc3g","pricing_plan_id":"cebpf4jnsgd1na2vs0mg"},{"bike_id":"9e2ebaa3-d2f1-4b38-92e0-5b58f1b1a2f8","system_id":"levelo_inurba_marseille","lat":43.30598,"lon":5.39357,"is_reserved":false,"is_disabled":false,"rental_uris":{"android":"levelo://app?vid=9e2ebaa3-d2f1-4b38-92e0-5b58f1b1a2f8","ios":"levelo://app?vid=9e2ebaa3-d2f1-4b38-92e0-5b58f1b1a2f8"},"vehicle_type_id":"4","last_reported":1762020765,"current_range_meters":14000,"station_id":"ce4bh0p2rcd13ifvqd80","pricing_plan_id":"cebpf4jnsgd1na2vs0mg"},{"bike_id":"5224dfc5-e8f6-493a-a7c3-4cc676f55caf","system_id":"levelo_inurba_marseille","lat":43.239625,"lon":5.366331,"is_reserved":false,"is_disabled":false,"rental_uris":{"android":"levelo://app?vid=5224dfc5-e8f6-493a-a7c3-4cc676f55caf","ios":"levelo://app?vid=5224dfc5-e8f6-493a-a7c3-4cc676f55caf"},"vehicle_type_id":"4","last_reported":1762020765,"current_range_meters":14000,"station_id":"ce4bhi12rcd13ifvqfp0","pricing_plan_id":"cebpf4jnsgd1na2vs0mg"},{"bike_id":"12b89ece-18be-4453-8c29-6add71db19ac","system_id":"levelo_inurba_marseille","lat":43.26553,"lon":5.37285,"is_reserved":false,"is_disabled":false,"rental_uris":{"android":"levelo://app?vid=12b89ece-18be-4453-8c29-6add71db19ac","ios":"levelo://app?vid=12b89ece-18be-4453-8c29-6add71db19ac"},"vehicle_type_id":"4","last_reported":1762020765,"current_range_meters":14000,"station_id":"ce4bhg12rcd13ifvqf70","pricing_plan_id":"cebpf4jnsgd1na2vs0mg"},{"bike_id":"6fa2bb71-42fe-43dd-93bc-71c938195672","system_id":"levelo_inurba_marseille","lat":43.29278,"lon":5.36845,"is_reserved":false,"is_disabled":false,"rental_uris":{"android":"levelo://app?vid=6fa2bb71-42fe-43dd-93bc-71c938195672","ios":"levelo://app?vid=6fa2bb71-42fe-43dd-93bc-71c938195672"},"vehicle_type_id":"4","last_reported":1762020765,"current_range_meters":14000,"station_id":"ce4bhbp2rcd13ifvqesg","pricing_plan_id":"cebpf4jnsgd1na2vs0mg"},{"bike_id":"25b8b9c6-92a5-43d3-8767-0700e7c7de1c","system_id":"levelo_inurba_marseille","lat":43.33789,"lon":5.37431,"is_reserved":false,"is_disabled":false,"rental_uris":{"android":"levelo://app?vid=25b8b9c6-92a5-43d3-8767-0700e7c7de1c","ios":"levelo://app?vid=25b8b9c6-92a5-43d3-8767-0700e7c7de1c"},"vehicle_type_id":"4","last_reported":1762020765,"current_range_meters":14000,"station_id":"","pricing_plan_id":"cebpf4jnsgd1na2vs0mg"},{"bike_id":"769e9f08-d61c-4253-b1a4-ec58f411020c","system_id":"levelo_inurba_marseille","lat":43.248116,"lon":5.374656,"is_reserved":false,"is_disabled":false,"rental_uris":{"android":"levelo://app?vid=769e9f08-d61c-4253-b1a4-ec58f411020c","ios":"levelo://app?vid=769e9f08-d61c-4253-b1a4-ec58f411020c"},"vehicle_type_id":"4","last_reported":1762020765,"current_range_meters":14000,"station_id":"ce4bhgh2rcd13ifvqfb0","pricing_plan_id":"cebpf4jnsgd1na2vs0mg"},{"bike_id":"42b4bcb1-f0b9-4826-91c3-91a6d7da8add","system_id":"levelo_inurba_marseille","lat":43.29088,"lon":5.38153,"is_reserved":false,"is_disabled":false,"rental_uris":{"android":"levelo://app?vid=42b4bcb1-f0b9-4826-91c3-91a6d7da8add","ios":"levelo://app?vid=42b4bcb1-f0b9-4826-91c3-91a6d7da8add"},"vehicle_type_id":"4","last_reported":1762020765,"current_range_meters":14000,"station_id":"ce4bh512rcd13ifvqe2g","pricing_plan_id":"cebpf4jnsgd1na2vs0mg"},{"bike_id":"e757de7d-039d-4bd6-9cce-c8dd2d2566c4","system_id":"levelo_inurba_marseille","lat":43.2481,"lon":5.37457,"is_reserved":false,"is_disabled":false,"rental_uris":{"android":"levelo://app?vid=e757de7d-039d-4bd6-9cce-c8dd2d2566c4","ios":"levelo://app?vid=e757de7d-039d-4bd6-9cce-c8dd2d2566c4"},"vehicle_type_id":"4","last_reported":1762020765,"current_range_meters":14400,"station_id":"ce4bhgh2rcd13ifvqfb0","pricing_plan_id":"cebpf4jnsgd1na2vs0mg"},{"bike_id":"6f55c2df-5461-4f13-8308-6d7dd6f86eb4","system_id":"levelo_inurba_marseille","lat":43.22926,"lon":5.35375,"is_reserved":false,"is_disabled":false,"rental_uris":{"android":"levelo://app?vid=6f55c2df-5461-4f13-8308-6d7dd6f86eb4","ios":"levelo://app?vid=6f55c2df-5461-4f13-8308-6d7dd6f86eb4"},"vehicle_type_id":"4","last_reported":1762020765,"current_range_meters":14400,"station_id":"cpo3532slgdg3j2ikp40","pricing_plan_id":"cebpf4jnsgd1na2vs0mg"},{"bike_id":"9afcdb32-a4c2-4a7e-a65b-f4ba624db730","system_id":"levelo_inurba_marseille","lat":43.290942,"lon":5.381274,"is_reserved":false,"is_disabled":false,"rental_uris":{"android":"levelo://app?vid=9afcdb32-a4c2-4a7e-a65b-f4ba624db730","ios":"levelo://app?vid=9afcdb32-a4c2-4a7e-a65b-f4ba624db730"},"vehicle_type_id":"4","last_reported":1762020765,"current_range_meters":14400,"station_id":"ce4bh512rcd13ifvqe2g","pricing_plan_id":"cebpf4jnsgd1na2vs0mg"},{"bike_id":"2ea8b295-6a13-47c7-8965-8106cf796d7e","system_id":"levelo_inurba_marseille","lat":43.3133,"lon":5.37651,"is_reserved":false,"is_disabled":false,"rental_uris":{"android":"levelo://app?vid=2ea8b295-6a13-47c7-8965-8106cf796d7e","ios":"levelo://app?vid=2ea8b295-6a13-47c7-8965-8106cf796d7e"},"vehicle_type_id":"4","last_reported":1762020765,"current_range_meters":14400,"station_id":"","pricing_plan_id":"cebpf4jnsgd1na2vs0mg"},{"bike_id":"19d6fb00-c822-4b06-86f9-32662647d89f","system_id":"levelo_inurba_marseille","lat":43.25343,"lon":5.42165,"is_reserved":false,"is_disabled":false,"rental_uris":{"android":"levelo://app?vid=19d6fb00-c822-4b06-86f9-32662647d89f","ios":"levelo://app?vid=19d6fb00-c822-4b06-86f9-32662647d89f"},"vehicle_type_id":"4","last_reported":1762020765,"current_range_meters":14400,"station_id":"st_d2m65c5bi1j21697t3ng","pricing_plan_id":"cebpf4jnsgd1na2vs0mg"},{"bike_id":"c21acc90-8ce5-485f-9e97-07dc74facb9b","system_id":"levelo_inurba_marseille","lat":43.28455,"lon":5.35892,"is_reserved":false,"is_disabled":false,"rental_uris":{"android":"levelo://app?vid=c21acc90-8ce5-485f-9e97-07dc74facb9b","ios":"levelo://app?vid=c21acc90-8ce5-485f-9e97-07dc74facb9b"},"vehicle_type_id":"4","last_reported":1762020765,"current_range_meters":14400,"station_id":"ce4bhah2rcd13ifvqei0","pricing_plan_id":"cebpf4jnsgd1na2vs0mg"},{"bike_id":"33d00fec-9dc8-453f-a318-b05d18d1b454","system_id":"levelo_inurba_marseille","lat":43.231573,"lon":5.437072,"is_reserved":false,"is_disabled":false,"rental_uris":{"android":"levelo://app?vid=33d00fec-9dc8-453f-a318-b05d18d1b454","ios":"levelo://app?vid=33d00fec-9dc8-453f-a318-b05d18d1b454"},"vehicle_type_id":"4","last_reported":1762020765,"current_range_meters":14400,"station_id":"ce4bhmp2rcd13ifvqgog","pricing_plan_id":"cebpf4jnsgd1na2vs0mg"},{"bike_id":"5800f61d-a775-492a-aa3d-2824e55131a9","system_id":"levelo_inurba_marseille","lat":43.29954,"lon":5.41318,"is_reserved":false,"is_disabled":false,"rental_uris":{"android":"levelo://app?vid=5800f61d-a775-492a-aa3d-2824e55131a9","ios":"levelo://app?vid=5800f61d-a775-492a-aa3d-2824e55131a9"},"vehicle_type_id":"4","last_reported":1762020765,"current_range_meters":14400,"station_id":"ce4bhp12rcd13ifvqh9g","pricing_plan_id":"cebpf4jnsgd1na2vs0mg"},{"bike_id":"b4f0a66d-8ef1-4dfa-9065-e7453049a832","system_id":"levelo_inurba_marseille","lat":43.29308,"lon":5.37164,"is_reserved":false,"is_disabled":false,"rental_uris":{"android":"levelo://app?vid=b4f0a66d-8ef1-4dfa-9065-e7453049a832","ios":"levelo://app?vid=b4f0a66d-8ef1-4dfa-9065-e7453049a832"},"vehicle_type_id":"4","last_reported":1762020765,"current_range_meters":14400,"station_id":"ce4bgh92rcd13ifvqb40","pricing_plan_id":"cebpf4jnsgd1na2vs0mg"},{"bike_id":"87f35eb6-fdd4-48cb-aac4-3bc58afdac22","system_id":"levelo_inurba_marseille","lat":43.24819,"lon":5.37455,"is_reserved":false,"is_disabled":false,"rental_uris":{"android":"levelo://app?vid=87f35eb6-fdd4-48cb-aac4-3bc58afdac22","ios":"levelo://app?vid=87f35eb6-fdd4-48cb-aac4-3bc58afdac22"},"vehicle_type_id":"4","last_reported":1762020765,"current_range_meters":14400,"station_id":"ce4bhgh2rcd13ifvqfb0","pricing_plan_id":"cebpf4jnsgd1na2vs0mg"},{"bike_id":"274f4ef4-9065-48c2-a27d-519850c69395","system_id":"levelo_inurba_marseille","lat":43.25106,"lon":5.40324,"is_reserved":false,"is_disabled":false,"rental_uris":{"android":"levelo://app?vid=274f4ef4-9065-48c2-a27d-519850c69395","ios":"levelo://app?vid=274f4ef4-9065-48c2-a27d-519850c69395"},"vehicle_type_id":"4","last_reported":1762020765,"current_range_meters":14800,"station_id":"ce4bhlh2rcd13ifvqgig","pricing_plan_id":"cebpf4jnsgd1na2vs0mg"},{"bike_id":"705f7d67-c203-4d2c-9e3c-1d3f6a2a032b","system_id":"levelo_inurba_marseille","lat":43.3059,"lon":5.393557,"is_reserved":false,"is_disabled":false,"rental_uris":{"android":"levelo://app?vid=705f7d67-c203-4d2c-9e3c-1d3f6a2a032b","ios":"levelo://app?vid=705f7d67-c203-4d2c-9e3c-1d3f6a2a032b"},"vehicle_type_id":"4","last_reported":1762020765,"current_range_meters":14800,"station_id":"ce4bh0p2rcd13ifvqd80","pricing_plan_id":"cebpf4jnsgd1na2vs0mg"},{"bike_id":"6b175adf-ec6b-4ac9-a3ab-e48bdd8f28ec","system_id":"levelo_inurba_marseille","lat":43.29598,"lon":5.38105,"is_reserved":false,"is_disabled":false,"rental_uris":{"android":"levelo://app?vid=6b175adf-ec6b-4ac9-a3ab-e48bdd8f28ec","ios":"levelo://app?vid=6b175adf-ec6b-4ac9-a3ab-e48bdd8f28ec"},"vehicle_type_id":"4","last_reported":1762020765,"current_range_meters":14800,"station_id":"ce4bgl12rcd13ifvqbo0","pricing_plan_id":"cebpf4jnsgd1na2vs0mg"},{"bike_id":"38f37426-b361-45a4-bb48-a286391ed974","system_id":"levelo_inurba_marseille","lat":43.28938,"lon":5.36629,"is_reserved":false,"is_disabled":false,"rental_uris":{"android":"levelo://app?vid=38f37426-b361-45a4-bb48-a286391ed974","ios":"levelo://app?vid=38f37426-b361-45a4-bb48-a286391ed974"},"vehicle_type_id":"4","last_reported":1762020765,"current_range_meters":14800,"station_id":"ce4bhap2rcd13ifvqek0","pricing_plan_id":"cebpf4jnsgd1na2vs0mg"},{"bike_id":"03c8011c-fd6f-45ac-b703-ab5771f29f1d","system_id":"levelo_inurba_marseille","lat":43.28103,"lon":5.3785,"is_reserved":false,"is_disabled":false,"rental_uris":{"android":"levelo://app?vid=03c8011c-fd6f-45ac-b703-ab5771f29f1d","ios":"levelo://app?vid=03c8011c-fd6f-45ac-b703-ab5771f29f1d"},"vehicle_type_id":"4","last_reported":1762020765,"current_range_meters":14800,"station_id":"ce4bha12rcd13ifvqee0","pricing_plan_id":"cebpf4jnsgd1na2vs0mg"},{"bike_id":"8cebc1be-5261-4988-a478-99bd96371b95","system_id":"levelo_inurba_marseille","lat":43.28412,"lon":5.37515,"is_reserved":false,"is_disabled":false,"rental_uris":{"android":"levelo://app?vid=8cebc1be-5261-4988-a478-99bd96371b95","ios":"levelo://app?vid=8cebc1be-5261-4988-a478-99bd96371b95"},"vehicle_type_id":"4","last_reported":1762020765,"current_range_meters":14800,"station_id":"ce4bh412rcd13ifvqds0","pricing_plan_id":"cebpf4jnsgd1na2vs0mg"},{"bike_id":"50c2c89c-4a9b-41f6-af05-b4e430e07029","system_id":"levelo_inurba_marseille","lat":43.24641,"lon":5.4314,"is_reserved":false,"is_disabled":false,"rental_uris":{"android":"levelo://app?vid=50c2c89c-4a9b-41f6-af05-b4e430e07029","ios":"levelo://app?vid=50c2c89c-4a9b-41f6-af05-b4e430e07029"},"vehicle_type_id":"4","last_reported":1762020765,"current_range_meters":14800,"station_id":"st_d2m6c4gdas8pm72e190g","pricing_plan_id":"cebpf4jnsgd1na2vs0mg"},{"bike_id":"1d29646a-da1f-4f66-b008-0838ffb2fa84","system_id":"levelo_inurba_marseille","lat":43.30002,"lon":5.37229,"is_reserved":false,"is_disabled":false,"rental_uris":{"android":"levelo://app?vid=1d29646a-da1f-4f66-b008-0838ffb2fa84","ios":"levelo://app?vid=1d29646a-da1f-4f66-b008-0838ffb2fa84"},"vehicle_type_id":"4","last_reported":1762020765,"current_range_meters":14800,"station_id":"ce4bgr92rcd13ifvqc7g","pricing_plan_id":"cebpf4jnsgd1na2vs0mg"},{"bike_id":"f4673c5b-49a3-4e44-b77b-aa02cfd1ddfd","system_id":"levelo_inurba_marseille","lat":43.28489,"lon":5.38464,"is_reserved":false,"is_disabled":false,"rental_uris":{"android":"levelo://app?vid=f4673c5b-49a3-4e44-b77b-aa02cfd1ddfd","ios":"levelo://app?vid=f4673c5b-49a3-4e44-b77b-aa02cfd1ddfd"},"vehicle_type_id":"4","last_reported":1762020765,"current_range_meters":15200,"station_id":"ce4bh512rcd13ifvqe3g","pricing_plan_id":"cebpf4jnsgd1na2vs0mg"},{"bike_id":"41598790-345d-414f-9e87-720cb432f278","system_id":"levelo_inurba_marseille","lat":43.29477,"lon":5.36227,"is_reserved":false,"is_disabled":false,"rental_uris":{"android":"levelo://app?vid=41598790-345d-414f-9e87-720cb432f278","ios":"levelo://app?vid=41598790-345d-414f-9e87-720cb432f278"},"vehicle_type_id":"4","last_reported":1762020765,"current_range_meters":15200,"station_id":"","pricing_plan_id":"cebpf4jnsgd1na2vs0mg"},{"bike_id":"9332a87c-d76e-4236-8d1a-66684f5623ae","system_id":"levelo_inurba_marseille","lat":43.24804,"lon":5.37457,"is_reserved":false,"is_disabled":false,"rental_uris":{"android":"levelo://app?vid=9332a87c-d76e-4236-8d1a-66684f5623ae","ios":"levelo://app?vid=9332a87c-d76e-4236-8d1a-66684f5623ae"},"vehicle_type_id":"4","last_reported":1762020765,"current_range_meters":15200,"station_id":"ce4bhgh2rcd13ifvqfb0","pricing_plan_id":"cebpf4jnsgd1na2vs0mg"},{"bike_id":"fd26b8bd-a398-45ff-9b0d-f3f792368007","system_id":"levelo_inurba_marseille","lat":43.28569,"lon":5.39499,"is_reserved":false,"is_disabled":false,"rental_uris":{"android":"levelo://app?vid=fd26b8bd-a398-45ff-9b0d-f3f792368007","ios":"levelo://app?vid=fd26b8bd-a398-45ff-9b0d-f3f792368007"},"vehicle_type_id":"4","last_reported":1762020765,"current_range_meters":15200,"station_id":"ce4bh292rcd13ifvqdg0","pricing_plan_id":"cebpf4jnsgd1na2vs0mg"},{"bike_id":"52b04612-cd38-411f-a68e-6bb9cb24a90a","system_id":"levelo_inurba_marseille","lat":43.24143,"lon":5.36421,"is_reserved":false,"is_disabled":false,"rental_uris":{"android":"levelo://app?vid=52b04612-cd38-411f-a68e-6bb9cb24a90a","ios":"levelo://app?vid=52b04612-cd38-411f-a68e-6bb9cb24a90a"},"vehicle_type_id":"4","last_reported":1762020765,"current_range_meters":16000,"station_id":"cpo36qri1sfpv3e86is0","pricing_plan_id":"cebpf4jnsgd1na2vs0mg"},{"bike_id":"079d2352-ba60-4c63-b7a4-6ec0ccf76dcc","system_id":"levelo_inurba_marseille","lat":43.25679,"lon":5.41089,"is_reserved":false,"is_disabled":false,"rental_uris":{"android":"levelo://app?vid=079d2352-ba60-4c63-b7a4-6ec0ccf76dcc","ios":"levelo://app?vid=079d2352-ba60-4c63-b7a4-6ec0ccf76dcc"},"vehicle_type_id":"4","last_reported":1762020765,"current_range_meters":16000,"station_id":"ce4bhkp2rcd13ifvqgd0","pricing_plan_id":"cebpf4jnsgd1na2vs0mg"},{"bike_id":"528e3c88-b623-43f9-a15b-cba9eb4d6f1a","system_id":"levelo_inurba_marseille","lat":43.284802,"lon":5.483929,"is_reserved":false,"is_disabled":false,"rental_uris":{"android":"levelo://app?vid=528e3c88-b623-43f9-a15b-cba9eb4d6f1a","ios":"levelo://app?vid=528e3c88-b623-43f9-a15b-cba9eb4d6f1a"},"vehicle_type_id":"4","last_reported":1762020765,"current_range_meters":16000,"station_id":"st_d3svhcjqgbts73a3dn0g","pricing_plan_id":"cebpf4jnsgd1na2vs0mg"},{"bike_id":"d9d9257a-0965-4794-be68-084f488ba926","system_id":"levelo_inurba_marseille","lat":43.26558,"lon":5.37279,"is_reserved":false,"is_disabled":false,"rental_uris":{"android":"levelo://app?vid=d9d9257a-0965-4794-be68-084f488ba926","ios":"levelo://app?vid=d9d9257a-0965-4794-be68-084f488ba926"},"vehicle_type_id":"4","last_reported":1762020765,"current_range_meters":16000,"station_id":"ce4bhg12rcd13ifvqf70","pricing_plan_id":"cebpf4jnsgd1na2vs0mg"},{"bike_id":"1d97fdb4-c313-4bbb-bb27-f7e595d257c1","system_id":"levelo_inurba_marseille","lat":43.29606,"lon":5.38099,"is_reserved":false,"is_disabled":false,"rental_uris":{"android":"levelo://app?vid=1d97fdb4-c313-4bbb-bb27-f7e595d257c1","ios":"levelo://app?vid=1d97fdb4-c313-4bbb-bb27-f7e595d257c1"},"vehicle_type_id":"4","last_reported":1762020765,"current_range_meters":16000,"station_id":"ce4bgl12rcd13ifvqbo0","pricing_plan_id":"cebpf4jnsgd1na2vs0mg"},{"bike_id":"aad6a064-c048-4ba9-a156-1745b89548aa","system_id":"levelo_inurba_marseille","lat":43.28309,"lon":5.41096,"is_reserved":false,"is_disabled":false,"rental_uris":{"android":"levelo://app?vid=aad6a064-c048-4ba9-a156-1745b89548aa","ios":"levelo://app?vid=aad6a064-c048-4ba9-a156-1745b89548aa"},"vehicle_type_id":"4","last_reported":1762020765,"current_range_meters":16000,"station_id":"","pricing_plan_id":"cebpf4jnsgd1na2vs0mg"},{"bike_id":"e86e06c1-2882-44d5-946f-fd8eaf3688ac","system_id":"levelo_inurba_marseille","lat":43.29096,"lon":5.3813,"is_reserved":false,"is_disabled":false,"rental_uris":{"android":"levelo://app?vid=e86e06c1-2882-44d5-946f-fd8eaf3688ac","ios":"levelo://app?vid=e86e06c1-2882-44d5-946f-fd8eaf3688ac"},"vehicle_type_id":"4","last_reported":1762020765,"current_range_meters":16000,"station_id":"ce4bh512rcd13ifvqe2g","pricing_plan_id":"cebpf4jnsgd1na2vs0mg"},{"bike_id":"fe0d9130-fcde-41f7-b0e4-ced5ca4d2174","system_id":"levelo_inurba_marseille","lat":43.29266,"lon":5.37625,"is_reserved":false,"is_disabled":false,"rental_uris":{"android":"levelo://app?vid=fe0d9130-fcde-41f7-b0e4-ced5ca4d2174","ios":"levelo://app?vid=fe0d9130-fcde-41f7-b0e4-ced5ca4d2174"},"vehicle_type_id":"4","last_reported":1762020765,"current_range_meters":16000,"station_id":"ce4bgi12rcd13ifvqb80","pricing_plan_id":"cebpf4jnsgd1na2vs0mg"},{"bike_id":"7cfd7689-47bd-4077-a9da-ab93864c2e2f","system_id":"levelo_inurba_marseille","lat":43.29257,"lon":5.38438,"is_reserved":false,"is_disabled":false,"rental_uris":{"android":"levelo://app?vid=7cfd7689-47bd-4077-a9da-ab93864c2e2f","ios":"levelo://app?vid=7cfd7689-47bd-4077-a9da-ab93864c2e2f"},"vehicle_type_id":"4","last_reported":1762020765,"current_range_meters":16000,"station_id":"ce4bh692rcd13ifvqea0","pricing_plan_id":"cebpf4jnsgd1na2vs0mg"},{"bike_id":"012cf7fa-49a9-4b38-8cee-eac0151b6eea","system_id":"levelo_inurba_marseille","lat":43.29302,"lon":5.37444,"is_reserved":false,"is_disabled":false,"rental_uris":{"android":"levelo://app?vid=012cf7fa-49a9-4b38-8cee-eac0151b6eea","ios":"levelo://app?vid=012cf7fa-49a9-4b38-8cee-eac0151b6eea"},"vehicle_type_id":"4","last_reported":1762020765,"current_range_meters":16000,"station_id":"ce4bgi12rcd13ifvqb70","pricing_plan_id":"cebpf4jnsgd1na2vs0mg"},{"bike_id":"559dd85a-7aa9-44d9-a59a-779baf8c5c22","system_id":"levelo_inurba_marseille","lat":43.29491,"lon":5.43305,"is_reserved":false,"is_disabled":false,"rental_uris":{"android":"levelo://app?vid=559dd85a-7aa9-44d9-a59a-779baf8c5c22","ios":"levelo://app?vid=559dd85a-7aa9-44d9-a59a-779baf8c5c22"},"vehicle_type_id":"4","last_reported":1762020765,"current_range_meters":16400,"station_id":"st_d3j5ugp08ojc73fj9d10","pricing_plan_id":"cebpf4jnsgd1na2vs0mg"},{"bike_id":"661c73f8-1eea-4583-ad2c-51d14455a822","system_id":"levelo_inurba_marseille","lat":43.29784,"lon":5.3709,"is_reserved":false,"is_disabled":false,"rental_uris":{"android":"levelo://app?vid=661c73f8-1eea-4583-ad2c-51d14455a822","ios":"levelo://app?vid=661c73f8-1eea-4583-ad2c-51d14455a822"},"vehicle_type_id":"4","last_reported":1762020765,"current_range_meters":16400,"station_id":"ce4bgop2rcd13ifvqc1g","pricing_plan_id":"cebpf4jnsgd1na2vs0mg"},{"bike_id":"aa41fd7d-bf99-4d0c-9895-a6e020af9bf8","system_id":"levelo_inurba_marseille","lat":43.28078,"lon":5.3964,"is_reserved":false,"is_disabled":false,"rental_uris":{"android":"levelo://app?vid=aa41fd7d-bf99-4d0c-9895-a6e020af9bf8","ios":"levelo://app?vid=aa41fd7d-bf99-4d0c-9895-a6e020af9bf8"},"vehicle_type_id":"4","last_reported":1762020765,"current_range_meters":16400,"station_id":"ce4bho12rcd13ifvqh2g","pricing_plan_id":"cebpf4jnsgd1na2vs0mg"},{"bike_id":"137b611e-0d30-42e5-bd0e-4ca1b1f19b3a","system_id":"levelo_inurba_marseille","lat":43.28006,"lon":5.40007,"is_reserved":false,"is_disabled":false,"rental_uris":{"android":"levelo://app?vid=137b611e-0d30-42e5-bd0e-4ca1b1f19b3a","ios":"levelo://app?vid=137b611e-0d30-42e5-bd0e-4ca1b1f19b3a"},"vehicle_type_id":"4","last_reported":1762020765,"current_range_meters":16400,"station_id":"ce4bho92rcd13ifvqh4g","pricing_plan_id":"cebpf4jnsgd1na2vs0mg"},{"bike_id":"a599ea86-16bb-4d79-89fe-01c4b3b42dc5","system_id":"levelo_inurba_marseille","lat":43.32115,"lon":5.36766,"is_reserved":false,"is_disabled":false,"rental_uris":{"android":"levelo://app?vid=a599ea86-16bb-4d79-89fe-01c4b3b42dc5","ios":"levelo://app?vid=a599ea86-16bb-4d79-89fe-01c4b3b42dc5"},"vehicle_type_id":"4","last_reported":1762020765,"current_range_meters":16400,"station_id":"ce4bhrh2rcd13ifvqhug","pricing_plan_id":"cebpf4jnsgd1na2vs0mg"},{"bike_id":"45833a00-bb86-4c87-99c2-814a719ac317","system_id":"levelo_inurba_marseille","lat":43.22936,"lon":5.35373,"is_reserved":false,"is_disabled":false,"rental_uris":{"android":"levelo://app?vid=45833a00-bb86-4c87-99c2-814a719ac317","ios":"levelo://app?vid=45833a00-bb86-4c87-99c2-814a719ac317"},"vehicle_type_id":"4","last_reported":1762020765,"current_range_meters":16400,"station_id":"cpo3532slgdg3j2ikp40","pricing_plan_id":"cebpf4jnsgd1na2vs0mg"},{"bike_id":"e303dce7-e174-46a2-aa6b-8e322f17c707","system_id":"levelo_inurba_marseille","lat":43.229318,"lon":5.353768,"is_reserved":false,"is_disabled":false,"rental_uris":{"android":"levelo://app?vid=e303dce7-e174-46a2-aa6b-8e322f17c707","ios":"levelo://app?vid=e303dce7-e174-46a2-aa6b-8e322f17c707"},"vehicle_type_id":"4","last_reported":1762020765,"current_range_meters":16400,"station_id":"cpo3532slgdg3j2ikp40","pricing_plan_id":"cebpf4jnsgd1na2vs0mg"},{"bike_id":"f3c62589-5016-4c56-9ee8-1413efe7441e","system_id":"levelo_inurba_marseille","lat":43.29266,"lon":5.38424,"is_reserved":false,"is_disabled":false,"rental_uris":{"android":"levelo://app?vid=f3c62589-5016-4c56-9ee8-1413efe7441e","ios":"levelo://app?vid=f3c62589-5016-4c56-9ee8-1413efe7441e"},"vehicle_type_id":"4","last_reported":1762020765,"current_range_meters":16400,"station_id":"","pricing_plan_id":"cebpf4jnsgd1na2vs0mg"},{"bike_id":"8c012b23-487b-40a4-918b-48177c668ac5","system_id":"levelo_inurba_marseille","lat":43.240682,"lon":5.377621,"is_reserved":false,"is_disabled":false,"rental_uris":{"android":"levelo://app?vid=8c012b23-487b-40a4-918b-48177c668ac5","ios":"levelo://app?vid=8c012b23-487b-40a4-918b-48177c668ac5"},"vehicle_type_id":"4","last_reported":1762020765,"current_range_meters":16400,"station_id":"ce4bhnp2rcd13ifvqgvg","pricing_plan_id":"cebpf4jnsgd1na2vs0mg"},{"bike_id":"ba541a52-7e4e-4241-9791-ae6f1fb03dcd","system_id":"levelo_inurba_marseille","lat":43.31996,"lon":5.41593,"is_reserved":false,"is_disabled":false,"rental_uris":{"android":"levelo://app?vid=ba541a52-7e4e-4241-9791-ae6f1fb03dcd","ios":"levelo://app?vid=ba541a52-7e4e-4241-9791-ae6f1fb03dcd"},"vehicle_type_id":"4","last_reported":1762020765,"current_range_meters":16400,"station_id":"","pricing_plan_id":"cebpf4jnsgd1na2vs0mg"},{"bike_id":"0d9a62d7-b384-4c88-85e6-74a05d441f7e","system_id":"levelo_inurba_marseille","lat":43.28666,"lon":5.36359,"is_reserved":false,"is_disabled":false,"rental_uris":{"android":"levelo://app?vid=0d9a62d7-b384-4c88-85e6-74a05d441f7e","ios":"levelo://app?vid=0d9a62d7-b384-4c88-85e6-74a05d441f7e"},"vehicle_type_id":"4","last_reported":1762020765,"current_range_meters":16400,"station_id":"ce4bhah2rcd13ifvqej0","pricing_plan_id":"cebpf4jnsgd1na2vs0mg"},{"bike_id":"890f669d-89b4-4a83-a9a1-0f966368f2d0","system_id":"levelo_inurba_marseille","lat":43.25493,"lon":5.37647,"is_reserved":false,"is_disabled":false,"rental_uris":{"android":"levelo://app?vid=890f669d-89b4-4a83-a9a1-0f966368f2d0","ios":"levelo://app?vid=890f669d-89b4-4a83-a9a1-0f966368f2d0"},"vehicle_type_id":"4","last_reported":1762020765,"current_range_meters":16800,"station_id":"ce4bhh12rcd13ifvqff0","pricing_plan_id":"cebpf4jnsgd1na2vs0mg"},{"bike_id":"7b0eaa70-7657-4098-8e47-f6fae1ad1d21","system_id":"levelo_inurba_marseille","lat":43.25857,"lon":5.39901,"is_reserved":false,"is_disabled":false,"rental_uris":{"android":"levelo://app?vid=7b0eaa70-7657-4098-8e47-f6fae1ad1d21","ios":"levelo://app?vid=7b0eaa70-7657-4098-8e47-f6fae1ad1d21"},"vehicle_type_id":"4","last_reported":1762020765,"current_range_meters":16800,"station_id":"ce4bhl92rcd13ifvqghg","pricing_plan_id":"cebpf4jnsgd1na2vs0mg"},{"bike_id":"13118509-59e3-48df-ace7-ddf558aedb42","system_id":"levelo_inurba_marseille","lat":43.2862,"lon":5.35091,"is_reserved":false,"is_disabled":false,"rental_uris":{"android":"levelo://app?vid=13118509-59e3-48df-ace7-ddf558aedb42","ios":"levelo://app?vid=13118509-59e3-48df-ace7-ddf558aedb42"},"vehicle_type_id":"4","last_reported":1762020765,"current_range_meters":16800,"station_id":"ce4bhch2rcd13ifvqeug","pricing_plan_id":"cebpf4jnsgd1na2vs0mg"},{"bike_id":"aece0d93-f34d-44bc-a360-3250b39dd52e","system_id":"levelo_inurba_marseille","lat":43.26213,"lon":5.40449,"is_reserved":false,"is_disabled":false,"rental_uris":{"android":"levelo://app?vid=aece0d93-f34d-44bc-a360-3250b39dd52e","ios":"levelo://app?vid=aece0d93-f34d-44bc-a360-3250b39dd52e"},"vehicle_type_id":"4","last_reported":1762020765,"current_range_meters":16800,"station_id":"ce4bhmh2rcd13ifvqgmg","pricing_plan_id":"cebpf4jnsgd1na2vs0mg"},{"bike_id":"cdcfa7af-5c53-4a1e-bd12-22de38b14978","system_id":"levelo_inurba_marseille","lat":43.24619,"lon":5.4315,"is_reserved":false,"is_disabled":false,"rental_uris":{"android":"levelo://app?vid=cdcfa7af-5c53-4a1e-bd12-22de38b14978","ios":"levelo://app?vid=cdcfa7af-5c53-4a1e-bd12-22de38b14978"},"vehicle_type_id":"4","last_reported":1762020765,"current_range_meters":17200,"station_id":"st_d2m6c4gdas8pm72e190g","pricing_plan_id":"cebpf4jnsgd1na2vs0mg"},{"bike_id":"12a18d4a-7b67-4876-88d1-1820554fc400","system_id":"levelo_inurba_marseille","lat":43.29724,"lon":5.38083,"is_reserved":false,"is_disabled":false,"rental_uris":{"android":"levelo://app?vid=12a18d4a-7b67-4876-88d1-1820554fc400","ios":"levelo://app?vid=12a18d4a-7b67-4876-88d1-1820554fc400"},"vehicle_type_id":"4","last_reported":1762020765,"current_range_meters":17200,"station_id":"","pricing_plan_id":"cebpf4jnsgd1na2vs0mg"},{"bike_id":"8f5b7018-f455-4dee-b4e4-32b28c35267c","system_id":"levelo_inurba_marseille","lat":43.29275,"lon":5.36837,"is_reserved":false,"is_disabled":false,"rental_uris":{"android":"levelo://app?vid=8f5b7018-f455-4dee-b4e4-32b28c35267c","ios":"levelo://app?vid=8f5b7018-f455-4dee-b4e4-32b28c35267c"},"vehicle_type_id":"4","last_reported":1762020765,"current_range_meters":17200,"station_id":"ce4bhbp2rcd13ifvqesg","pricing_plan_id":"cebpf4jnsgd1na2vs0mg"},{"bike_id":"c7d57f9b-8ba9-4435-ac3b-54d333c0b4c7","system_id":"levelo_inurba_marseille","lat":43.32369,"lon":5.36754,"is_reserved":false,"is_disabled":false,"rental_uris":{"android":"levelo://app?vid=c7d57f9b-8ba9-4435-ac3b-54d333c0b4c7","ios":"levelo://app?vid=c7d57f9b-8ba9-4435-ac3b-54d333c0b4c7"},"vehicle_type_id":"4","last_reported":1762020765,"current_range_meters":17200,"station_id":"ce4bhsh2rcd13ifvqi2g","pricing_plan_id":"cebpf4jnsgd1na2vs0mg"},{"bike_id":"cd8a9530-5492-4008-9752-ef825b1cbbf9","system_id":"levelo_inurba_marseille","lat":43.29977,"lon":5.38493,"is_reserved":false,"is_disabled":false,"rental_uris":{"android":"levelo://app?vid=cd8a9530-5492-4008-9752-ef825b1cbbf9","ios":"levelo://app?vid=cd8a9530-5492-4008-9752-ef825b1cbbf9"},"vehicle_type_id":"4","last_reported":1762020765,"current_range_meters":17200,"station_id":"ce4bgj92rcd13ifvqbd0","pricing_plan_id":"cebpf4jnsgd1na2vs0mg"},{"bike_id":"1dff0eba-7b24-4e9e-b26e-371189c08022","system_id":"levelo_inurba_marseille","lat":43.24819,"lon":5.37455,"is_reserved":false,"is_disabled":false,"rental_uris":{"android":"levelo://app?vid=1dff0eba-7b24-4e9e-b26e-371189c08022","ios":"levelo://app?vid=1dff0eba-7b24-4e9e-b26e-371189c08022"},"vehicle_type_id":"4","last_reported":1762020765,"current_range_meters":17200,"station_id":"ce4bhgh2rcd13ifvqfb0","pricing_plan_id":"cebpf4jnsgd1na2vs0mg"},{"bike_id":"84f1bfac-8d21-499b-b8e1-fdc8049e10ac","system_id":"levelo_inurba_marseille","lat":43.31281,"lon":5.37741,"is_reserved":false,"is_disabled":false,"rental_uris":{"android":"levelo://app?vid=84f1bfac-8d21-499b-b8e1-fdc8049e10ac","ios":"levelo://app?vid=84f1bfac-8d21-499b-b8e1-fdc8049e10ac"},"vehicle_type_id":"4","last_reported":1762020765,"current_range_meters":17200,"station_id":"","pricing_plan_id":"cebpf4jnsgd1na2vs0mg"},{"bike_id":"92560a53-2562-4f22-a519-49289bade97a","system_id":"levelo_inurba_marseille","lat":43.28488,"lon":5.3842,"is_reserved":false,"is_disabled":false,"rental_uris":{"android":"levelo://app?vid=92560a53-2562-4f22-a519-49289bade97a","ios":"levelo://app?vid=92560a53-2562-4f22-a519-49289bade97a"},"vehicle_type_id":"4","last_reported":1762020765,"current_range_meters":17200,"station_id":"ce4bh512rcd13ifvqe3g","pricing_plan_id":"cebpf4jnsgd1na2vs0mg"},{"bike_id":"915550c8-6945-423a-8eff-8c9569a0fc93","system_id":"levelo_inurba_marseille","lat":43.280384,"lon":5.369453,"is_reserved":false,"is_disabled":false,"rental_uris":{"android":"levelo://app?vid=915550c8-6945-423a-8eff-8c9569a0fc93","ios":"levelo://app?vid=915550c8-6945-423a-8eff-8c9569a0fc93"},"vehicle_type_id":"4","last_reported":1762020765,"current_range_meters":17200,"station_id":"ce4bha12rcd13ifvqef0","pricing_plan_id":"cebpf4jnsgd1na2vs0mg"},{"bike_id":"a4f1de79-b39a-4085-8dc5-8275f11b844b","system_id":"levelo_inurba_marseille","lat":43.290328,"lon":5.38145,"is_reserved":false,"is_disabled":false,"rental_uris":{"android":"levelo://app?vid=a4f1de79-b39a-4085-8dc5-8275f11b844b","ios":"levelo://app?vid=a4f1de79-b39a-4085-8dc5-8275f11b844b"},"vehicle_type_id":"4","last_reported":1762020765,"current_range_meters":17200,"station_id":"ce4bh4p2rcd13ifvqe1g","pricing_plan_id":"cebpf4jnsgd1na2vs0mg"},{"bike_id":"d10274d7-9694-438b-9a71-4540622b27db","system_id":"levelo_inurba_marseille","lat":43.24654,"lon":5.38884,"is_reserved":false,"is_disabled":false,"rental_uris":{"android":"levelo://app?vid=d10274d7-9694-438b-9a71-4540622b27db","ios":"levelo://app?vid=d10274d7-9694-438b-9a71-4540622b27db"},"vehicle_type_id":"4","last_reported":1762020765,"current_range_meters":17200,"station_id":"ce4bhg12rcd13ifvqf60","pricing_plan_id":"cebpf4jnsgd1na2vs0mg"},{"bike_id":"e69c6f22-92da-4521-bd1f-a4e9361284f9","system_id":"levelo_inurba_marseille","lat":43.29066,"lon":5.37168,"is_reserved":false,"is_disabled":false,"rental_uris":{"android":"levelo://app?vid=e69c6f22-92da-4521-bd1f-a4e9361284f9","ios":"levelo://app?vid=e69c6f22-92da-4521-bd1f-a4e9361284f9"},"vehicle_type_id":"4","last_reported":1762020765,"current_range_meters":17200,"station_id":"ce4bh5p2rcd13ifvqe4g","pricing_plan_id":"cebpf4jnsgd1na2vs0mg"},{"bike_id":"193eac5d-e557-4171-9864-859d1bed4f7f","system_id":"levelo_inurba_marseille","lat":43.23782,"lon":5.36628,"is_reserved":false,"is_disabled":false,"rental_uris":{"android":"levelo://app?vid=193eac5d-e557-4171-9864-859d1bed4f7f","ios":"levelo://app?vid=193eac5d-e557-4171-9864-859d1bed4f7f"},"vehicle_type_id":"4","last_reported":1762020765,"current_range_meters":17600,"station_id":"st_d3nk18o9ro0c73en2l3g","pricing_plan_id":"cebpf4jnsgd1na2vs0mg"},{"bike_id":"e718eb19-1ff9-4674-92c2-56321ad9eee9","system_id":"levelo_inurba_marseille","lat":43.25324,"lon":5.42141,"is_reserved":false,"is_disabled":false,"rental_uris":{"android":"levelo://app?vid=e718eb19-1ff9-4674-92c2-56321ad9eee9","ios":"levelo://app?vid=e718eb19-1ff9-4674-92c2-56321ad9eee9"},"vehicle_type_id":"4","last_reported":1762020765,"current_range_meters":17600,"station_id":"st_d2m65c5bi1j21697t3ng","pricing_plan_id":"cebpf4jnsgd1na2vs0mg"},{"bike_id":"3b016740-4579-423e-9f71-ea5cd7188157","system_id":"levelo_inurba_marseille","lat":43.32048,"lon":5.4154,"is_reserved":false,"is_disabled":false,"rental_uris":{"android":"levelo://app?vid=3b016740-4579-423e-9f71-ea5cd7188157","ios":"levelo://app?vid=3b016740-4579-423e-9f71-ea5cd7188157"},"vehicle_type_id":"4","last_reported":1762020765,"current_range_meters":17600,"station_id":"ce4bhq92rcd13ifvqhkg","pricing_plan_id":"cebpf4jnsgd1na2vs0mg"},{"bike_id":"6fe8defd-7365-4870-9fd8-a61adc4c20bd","system_id":"levelo_inurba_marseille","lat":43.29922,"lon":5.39744,"is_reserved":false,"is_disabled":true,"rental_uris":{"android":"levelo://app?vid=6fe8defd-7365-4870-9fd8-a61adc4c20bd","ios":"levelo://app?vid=6fe8defd-7365-4870-9fd8-a61adc4c20bd"},"vehicle_type_id":"4","last_reported":1762020765,"current_range_meters":17600,"station_id":"ce4bh0h2rcd13ifvqd50","pricing_plan_id":"cebpf4jnsgd1na2vs0mg"},{"bike_id":"11a60e67-f1ad-4925-9122-90141e5881f1","system_id":"levelo_inurba_marseille","lat":43.26934,"lon":5.3892,"is_reserved":false,"is_disabled":false,"rental_uris":{"android":"levelo://app?vid=11a60e67-f1ad-4925-9122-90141e5881f1","ios":"levelo://app?vid=11a60e67-f1ad-4925-9122-90141e5881f1"},"vehicle_type_id":"4","last_reported":1762020765,"current_range_meters":17600,"station_id":"ce4bhhh2rcd13ifvqfl0","pricing_plan_id":"cebpf4jnsgd1na2vs0mg"},{"bike_id":"3a94f032-382f-4e78-a618-f9c45b332dd8","system_id":"levelo_inurba_marseille","lat":43.25586,"lon":5.38234,"is_reserved":false,"is_disabled":false,"rental_uris":{"android":"levelo://app?vid=3a94f032-382f-4e78-a618-f9c45b332dd8","ios":"levelo://app?vid=3a94f032-382f-4e78-a618-f9c45b332dd8"},"vehicle_type_id":"4","last_reported":1762020765,"current_range_meters":17600,"station_id":"ce4bhih2rcd13ifvqfs0","pricing_plan_id":"cebpf4jnsgd1na2vs0mg"},{"bike_id":"eb17bb6e-57bb-41d0-b19f-4021920bf258","system_id":"levelo_inurba_marseille","lat":43.29526,"lon":5.38546,"is_reserved":false,"is_disabled":false,"rental_uris":{"android":"levelo://app?vid=eb17bb6e-57bb-41d0-b19f-4021920bf258","ios":"levelo://app?vid=eb17bb6e-57bb-41d0-b19f-4021920bf258"},"vehicle_type_id":"4","last_reported":1762020765,"current_range_meters":17600,"station_id":"ce4bgih2rcd13ifvqba0","pricing_plan_id":"cebpf4jnsgd1na2vs0mg"},{"bike_id":"594a8d33-9746-4637-b600-dc850be9fdcb","system_id":"levelo_inurba_marseille","lat":43.304314,"lon":5.38891,"is_reserved":false,"is_disabled":false,"rental_uris":{"android":"levelo://app?vid=594a8d33-9746-4637-b600-dc850be9fdcb","ios":"levelo://app?vid=594a8d33-9746-4637-b600-dc850be9fdcb"},"vehicle_type_id":"4","last_reported":1762020765,"current_range_meters":17600,"station_id":"ce4bgk12rcd13ifvqbi0","pricing_plan_id":"cebpf4jnsgd1na2vs0mg"},{"bike_id":"ebf85bdb-1a2b-49af-a88d-03e90d4c31b8","system_id":"levelo_inurba_marseille","lat":43.23955,"lon":5.36648,"is_reserved":false,"is_disabled":true,"rental_uris":{"android":"levelo://app?vid=ebf85bdb-1a2b-49af-a88d-03e90d4c31b8","ios":"levelo://app?vid=ebf85bdb-1a2b-49af-a88d-03e90d4c31b8"},"vehicle_type_id":"4","last_reported":1762020765,"current_range_meters":18000,"station_id":"ce4bhi12rcd13ifvqfp0","pricing_plan_id":"cebpf4jnsgd1na2vs0mg"},{"bike_id":"de0ca7a8-116a-46c8-8c50-6b445a473423","system_id":"levelo_inurba_marseille","lat":43.28892,"lon":5.42547,"is_reserved":false,"is_disabled":false,"rental_uris":{"android":"levelo://app?vid=de0ca7a8-116a-46c8-8c50-6b445a473423","ios":"levelo://app?vid=de0ca7a8-116a-46c8-8c50-6b445a473423"},"vehicle_type_id":"4","last_reported":1762020765,"current_range_meters":18000,"station_id":"st_d3b462108ojc7389ooeg","pricing_plan_id":"cebpf4jnsgd1na2vs0mg"},{"bike_id":"04fc897c-88f0-4d4c-8495-10c2a55538e9","system_id":"levelo_inurba_marseille","lat":43.30742,"lon":5.42429,"is_reserved":false,"is_disabled":false,"rental_uris":{"android":"levelo://app?vid=04fc897c-88f0-4d4c-8495-10c2a55538e9","ios":"levelo://app?vid=04fc897c-88f0-4d4c-8495-10c2a55538e9"},"vehicle_type_id":"4","last_reported":1762020765,"current_range_meters":18000,"station_id":"st_cvj6ca6bvosntc0bfgr0","pricing_plan_id":"cebpf4jnsgd1na2vs0mg"},{"bike_id":"3a6d9928-8808-46df-83f3-e0eb6bed494d","system_id":"levelo_inurba_marseille","lat":43.23779,"lon":5.36633,"is_reserved":false,"is_disabled":false,"rental_uris":{"android":"levelo://app?vid=3a6d9928-8808-46df-83f3-e0eb6bed494d","ios":"levelo://app?vid=3a6d9928-8808-46df-83f3-e0eb6bed494d"},"vehicle_type_id":"4","last_reported":1762020765,"current_range_meters":18000,"station_id":"st_d3nk18o9ro0c73en2l3g","pricing_plan_id":"cebpf4jnsgd1na2vs0mg"},{"bike_id":"8adef542-af60-4b61-8a5b-4b604c3bcfe4","system_id":"levelo_inurba_marseille","lat":43.24639,"lon":5.43144,"is_reserved":false,"is_disabled":false,"rental_uris":{"android":"levelo://app?vid=8adef542-af60-4b61-8a5b-4b604c3bcfe4","ios":"levelo://app?vid=8adef542-af60-4b61-8a5b-4b604c3bcfe4"},"vehicle_type_id":"4","last_reported":1762020765,"current_range_meters":18000,"station_id":"st_d2m6c4gdas8pm72e190g","pricing_plan_id":"cebpf4jnsgd1na2vs0mg"},{"bike_id":"4f194b36-6704-4141-8ffd-d4d6f0534545","system_id":"levelo_inurba_marseille","lat":43.28532,"lon":5.44099,"is_reserved":false,"is_disabled":false,"rental_uris":{"android":"levelo://app?vid=4f194b36-6704-4141-8ffd-d4d6f0534545","ios":"levelo://app?vid=4f194b36-6704-4141-8ffd-d4d6f0534545"},"vehicle_type_id":"4","last_reported":1762020765,"current_range_meters":18000,"station_id":"st_d3j3df2ikq2c7380ej80","pricing_plan_id":"cebpf4jnsgd1na2vs0mg"},{"bike_id":"6fccd274-252d-4eeb-acba-716bc0711a35","system_id":"levelo_inurba_marseille","lat":43.246554,"lon":5.381714,"is_reserved":false,"is_disabled":false,"rental_uris":{"android":"levelo://app?vid=6fccd274-252d-4eeb-acba-716bc0711a35","ios":"levelo://app?vid=6fccd274-252d-4eeb-acba-716bc0711a35"},"vehicle_type_id":"4","last_reported":1762020765,"current_range_meters":18000,"station_id":"ce4bgjp2rcd13ifvqbh0","pricing_plan_id":"cebpf4jnsgd1na2vs0mg"},{"bike_id":"0d3e0b55-eff8-448b-8988-99ff4e704c13","system_id":"levelo_inurba_marseille","lat":43.28879,"lon":5.37862,"is_reserved":false,"is_disabled":false,"rental_uris":{"android":"levelo://app?vid=0d3e0b55-eff8-448b-8988-99ff4e704c13","ios":"levelo://app?vid=0d3e0b55-eff8-448b-8988-99ff4e704c13"},"vehicle_type_id":"4","last_reported":1762020765,"current_range_meters":18000,"station_id":"","pricing_plan_id":"cebpf4jnsgd1na2vs0mg"},{"bike_id":"eeef6708-09e5-472f-a4a7-de2d20ef382f","system_id":"levelo_inurba_marseille","lat":43.2407,"lon":5.37767,"is_reserved":false,"is_disabled":false,"rental_uris":{"android":"levelo://app?vid=eeef6708-09e5-472f-a4a7-de2d20ef382f","ios":"levelo://app?vid=eeef6708-09e5-472f-a4a7-de2d20ef382f"},"vehicle_type_id":"4","last_reported":1762020765,"current_range_meters":18000,"station_id":"ce4bhnp2rcd13ifvqgvg","pricing_plan_id":"cebpf4jnsgd1na2vs0mg"},{"bike_id":"423802bb-722e-4533-9018-c0f75cce34a6","system_id":"levelo_inurba_marseille","lat":43.30677,"lon":5.38213,"is_reserved":false,"is_disabled":false,"rental_uris":{"android":"levelo://app?vid=423802bb-722e-4533-9018-c0f75cce34a6","ios":"levelo://app?vid=423802bb-722e-4533-9018-c0f75cce34a6"},"vehicle_type_id":"4","last_reported":1762020765,"current_range_meters":18800,"station_id":"","pricing_plan_id":"cebpf4jnsgd1na2vs0mg"},{"bike_id":"e6d7b950-f107-4150-96c9-469b4723c1ae","system_id":"levelo_inurba_marseille","lat":43.29075,"lon":5.38105,"is_reserved":false,"is_disabled":false,"rental_uris":{"android":"levelo://app?vid=e6d7b950-f107-4150-96c9-469b4723c1ae","ios":"levelo://app?vid=e6d7b950-f107-4150-96c9-469b4723c1ae"},"vehicle_type_id":"4","last_reported":1762020765,"current_range_meters":18800,"station_id":"ce4bh512rcd13ifvqe2g","pricing_plan_id":"cebpf4jnsgd1na2vs0mg"},{"bike_id":"7ad8ab5c-b379-4536-9589-1ed148fa86b6","system_id":"levelo_inurba_marseille","lat":43.29533,"lon":5.38548,"is_reserved":false,"is_disabled":false,"rental_uris":{"android":"levelo://app?vid=7ad8ab5c-b379-4536-9589-1ed148fa86b6","ios":"levelo://app?vid=7ad8ab5c-b379-4536-9589-1ed148fa86b6"},"vehicle_type_id":"4","last_reported":1762020765,"current_range_meters":18800,"station_id":"ce4bgih2rcd13ifvqba0","pricing_plan_id":"cebpf4jnsgd1na2vs0mg"},{"bike_id":"74bd312f-d43c-4cb9-9e7d-cebb2e18ae11","system_id":"levelo_inurba_marseille","lat":43.29716,"lon":5.36604,"is_reserved":false,"is_disabled":false,"rental_uris":{"android":"levelo://app?vid=74bd312f-d43c-4cb9-9e7d-cebb2e18ae11","ios":"levelo://app?vid=74bd312f-d43c-4cb9-9e7d-cebb2e18ae11"},"vehicle_type_id":"4","last_reported":1762020765,"current_range_meters":18800,"station_id":"ce4bgn12rcd13ifvqbt0","pricing_plan_id":"cebpf4jnsgd1na2vs0mg"},{"bike_id":"dd70bcc2-2e6b-447f-adc2-e0826cf93554","system_id":"levelo_inurba_marseille","lat":43.31912,"lon":5.40159,"is_reserved":false,"is_disabled":false,"rental_uris":{"android":"levelo://app?vid=dd70bcc2-2e6b-447f-adc2-e0826cf93554","ios":"levelo://app?vid=dd70bcc2-2e6b-447f-adc2-e0826cf93554"},"vehicle_type_id":"4","last_reported":1762020765,"current_range_meters":18800,"station_id":"","pricing_plan_id":"cebpf4jnsgd1na2vs0mg"},{"bike_id":"320e1c85-e694-4a9d-acdf-71c08f3bea6d","system_id":"levelo_inurba_marseille","lat":43.297866,"lon":5.381136,"is_reserved":false,"is_disabled":false,"rental_uris":{"android":"levelo://app?vid=320e1c85-e694-4a9d-acdf-71c08f3bea6d","ios":"levelo://app?vid=320e1c85-e694-4a9d-acdf-71c08f3bea6d"},"vehicle_type_id":"4","last_reported":1762020765,"current_range_meters":18800,"station_id":"ce4bgvp2rcd13ifvqcu0","pricing_plan_id":"cebpf4jnsgd1na2vs0mg"},{"bike_id":"d4aa9896-a8e4-4460-b933-b42226612648","system_id":"levelo_inurba_marseille","lat":43.30122,"lon":5.4312,"is_reserved":false,"is_disabled":false,"rental_uris":{"android":"levelo://app?vid=d4aa9896-a8e4-4460-b933-b42226612648","ios":"levelo://app?vid=d4aa9896-a8e4-4460-b933-b42226612648"},"vehicle_type_id":"4","last_reported":1762020765,"current_range_meters":19200,"station_id":"st_d3js3co5814s73ftftug","pricing_plan_id":"cebpf4jnsgd1na2vs0mg"},{"bike_id":"641244de-664d-454b-8dd1-5d15c61abe65","system_id":"levelo_inurba_marseille","lat":43.2927,"lon":5.36841,"is_reserved":false,"is_disabled":false,"rental_uris":{"android":"levelo://app?vid=641244de-664d-454b-8dd1-5d15c61abe65","ios":"levelo://app?vid=641244de-664d-454b-8dd1-5d15c61abe65"},"vehicle_type_id":"4","last_reported":1762020765,"current_range_meters":19200,"station_id":"ce4bhbp2rcd13ifvqesg","pricing_plan_id":"cebpf4jnsgd1na2vs0mg"},{"bike_id":"fad0bbc2-e4e8-4924-8675-8adfce3aa6e1","system_id":"levelo_inurba_marseille","lat":43.26936,"lon":5.40273,"is_reserved":false,"is_disabled":false,"rental_uris":{"android":"levelo://app?vid=fad0bbc2-e4e8-4924-8675-8adfce3aa6e1","ios":"levelo://app?vid=fad0bbc2-e4e8-4924-8675-8adfce3aa6e1"},"vehicle_type_id":"4","last_reported":1762020765,"current_range_meters":19200,"station_id":"cjm6bp8fraef2m0cb0m0","pricing_plan_id":"cebpf4jnsgd1na2vs0mg"},{"bike_id":"14b92a7a-0805-475a-abfd-8c979184b42b","system_id":"levelo_inurba_marseille","lat":43.30995,"lon":5.37018,"is_reserved":false,"is_disabled":false,"rental_uris":{"android":"levelo://app?vid=14b92a7a-0805-475a-abfd-8c979184b42b","ios":"levelo://app?vid=14b92a7a-0805-475a-abfd-8c979184b42b"},"vehicle_type_id":"4","last_reported":1762020765,"current_range_meters":19200,"station_id":"","pricing_plan_id":"cebpf4jnsgd1na2vs0mg"},{"bike_id":"d8c90b03-e026-44f1-bd0d-f35a924aad7e","system_id":"levelo_inurba_marseille","lat":43.27812,"lon":5.40716,"is_reserved":false,"is_disabled":false,"rental_uris":{"android":"levelo://app?vid=d8c90b03-e026-44f1-bd0d-f35a924aad7e","ios":"levelo://app?vid=d8c90b03-e026-44f1-bd0d-f35a924aad7e"},"vehicle_type_id":"4","last_reported":1762020765,"current_range_meters":19200,"station_id":"ce4bhnh2rcd13ifvqgtg","pricing_plan_id":"cebpf4jnsgd1na2vs0mg"},{"bike_id":"23964231-9294-40d2-9d81-16e99ab01d5b","system_id":"levelo_inurba_marseille","lat":43.25332,"lon":5.42157,"is_reserved":false,"is_disabled":false,"rental_uris":{"android":"levelo://app?vid=23964231-9294-40d2-9d81-16e99ab01d5b","ios":"levelo://app?vid=23964231-9294-40d2-9d81-16e99ab01d5b"},"vehicle_type_id":"4","last_reported":1762020765,"current_range_meters":19200,"station_id":"st_d2m65c5bi1j21697t3ng","pricing_plan_id":"cebpf4jnsgd1na2vs0mg"},{"bike_id":"54fc613e-6387-455d-88a8-3304a7216832","system_id":"levelo_inurba_marseille","lat":43.30152,"lon":5.38099,"is_reserved":false,"is_disabled":false,"rental_uris":{"android":"levelo://app?vid=54fc613e-6387-455d-88a8-3304a7216832","ios":"levelo://app?vid=54fc613e-6387-455d-88a8-3304a7216832"},"vehicle_type_id":"4","last_reported":1762020765,"current_range_meters":19200,"station_id":"ce4bgjp2rcd13ifvqbh0","pricing_plan_id":"cebpf4jnsgd1na2vs0mg"},{"bike_id":"83275e6d-e660-4783-81c8-48c1e954a1eb","system_id":"levelo_inurba_marseille","lat":43.3012,"lon":5.43107,"is_reserved":false,"is_disabled":false,"rental_uris":{"android":"levelo://app?vid=83275e6d-e660-4783-81c8-48c1e954a1eb","ios":"levelo://app?vid=83275e6d-e660-4783-81c8-48c1e954a1eb"},"vehicle_type_id":"4","last_reported":1762020765,"current_range_meters":19200,"station_id":"st_d3js3co5814s73ftftug","pricing_plan_id":"cebpf4jnsgd1na2vs0mg"},{"bike_id":"23c078ec-3cd4-4f85-802c-3aa61b56ce15","system_id":"levelo_inurba_marseille","lat":43.28718,"lon":5.37932,"is_reserved":false,"is_disabled":false,"rental_uris":{"android":"levelo://app?vid=23c078ec-3cd4-4f85-802c-3aa61b56ce15","ios":"levelo://app?vid=23c078ec-3cd4-4f85-802c-3aa61b56ce15"},"vehicle_type_id":"4","last_reported":1762020765,"current_range_meters":19200,"station_id":"ce4bh9p2rcd13ifvqec0","pricing_plan_id":"cebpf4jnsgd1na2vs0mg"},{"bike_id":"c125c561-318d-4d89-9a66-1eec7508059d","system_id":"levelo_inurba_marseille","lat":43.30883,"lon":5.37173,"is_reserved":false,"is_disabled":false,"rental_uris":{"android":"levelo://app?vid=c125c561-318d-4d89-9a66-1eec7508059d","ios":"levelo://app?vid=c125c561-318d-4d89-9a66-1eec7508059d"},"vehicle_type_id":"4","last_reported":1762020765,"current_range_meters":19200,"station_id":"ce4bguh2rcd13ifvqckg","pricing_plan_id":"cebpf4jnsgd1na2vs0mg"},{"bike_id":"79cec186-94a7-4b8b-b811-fd6921a48a2b","system_id":"levelo_inurba_marseille","lat":43.31529,"lon":5.372887,"is_reserved":false,"is_disabled":false,"rental_uris":{"android":"levelo://app?vid=79cec186-94a7-4b8b-b811-fd6921a48a2b","ios":"levelo://app?vid=79cec186-94a7-4b8b-b811-fd6921a48a2b"},"vehicle_type_id":"4","last_reported":1762020765,"current_range_meters":19600,"station_id":"ce4bgth2rcd13ifvqch0","pricing_plan_id":"cebpf4jnsgd1na2vs0mg"},{"bike_id":"066ede02-47a2-4c83-bcb1-7eb633a370fb","system_id":"levelo_inurba_marseille","lat":43.31278,"lon":5.37746,"is_reserved":false,"is_disabled":false,"rental_uris":{"android":"levelo://app?vid=066ede02-47a2-4c83-bcb1-7eb633a370fb","ios":"levelo://app?vid=066ede02-47a2-4c83-bcb1-7eb633a370fb"},"vehicle_type_id":"4","last_reported":1762020765,"current_range_meters":19600,"station_id":"","pricing_plan_id":"cebpf4jnsgd1na2vs0mg"},{"bike_id":"77679107-31f6-4769-888c-bfa8b6d2bccd","system_id":"levelo_inurba_marseille","lat":43.2886,"lon":5.42527,"is_reserved":false,"is_disabled":false,"rental_uris":{"android":"levelo://app?vid=77679107-31f6-4769-888c-bfa8b6d2bccd","ios":"levelo://app?vid=77679107-31f6-4769-888c-bfa8b6d2bccd"},"vehicle_type_id":"4","last_reported":1762020765,"current_range_meters":19600,"station_id":"st_d3b462108ojc7389ooeg","pricing_plan_id":"cebpf4jnsgd1na2vs0mg"},{"bike_id":"9afa5fe2-31ea-43ee-95b9-1b5fff5a574f","system_id":"levelo_inurba_marseille","lat":43.30189,"lon":5.36627,"is_reserved":false,"is_disabled":false,"rental_uris":{"android":"levelo://app?vid=9afa5fe2-31ea-43ee-95b9-1b5fff5a574f","ios":"levelo://app?vid=9afa5fe2-31ea-43ee-95b9-1b5fff5a574f"},"vehicle_type_id":"4","last_reported":1762020765,"current_range_meters":19600,"station_id":"ce4bgrh2rcd13ifvqc8g","pricing_plan_id":"cebpf4jnsgd1na2vs0mg"},{"bike_id":"c79658ae-b6a1-477c-a583-798964dc95f2","system_id":"levelo_inurba_marseille","lat":43.28615,"lon":5.35106,"is_reserved":false,"is_disabled":false,"rental_uris":{"android":"levelo://app?vid=c79658ae-b6a1-477c-a583-798964dc95f2","ios":"levelo://app?vid=c79658ae-b6a1-477c-a583-798964dc95f2"},"vehicle_type_id":"4","last_reported":1762020765,"current_range_meters":19600,"station_id":"ce4bhch2rcd13ifvqeug","pricing_plan_id":"cebpf4jnsgd1na2vs0mg"},