{"last_updated":1781310817,"ttl":60,"version":"2.2","data":{"bikes":[{"bike_id":"ec12d144-24c8-4071-abf6-197e520eae96","system_id":"levelo_inurba_marseille","lat":43.337444,"lon":5.374475,"is_reserved":false,"is_disabled":false,"rental_uris":{"android":"levelo://app?vid=ec12d144-24c8-4071-abf6-197e520eae96","ios":"levelo://app?vid=ec12d144-24c8-4071-abf6-197e520eae96"},"vehicle_type_id":"4","last_reported":1781310818,"current_range_meters":0,"station_id":"","pricing_plan_id":"cebpf4jnsgd1na2vs0mg"},{"bike_id":"cfca987a-456e-47df-a095-b63382c88e43","system_id":"levelo_inurba_marseille","lat":43.23202,"lon":5.35572,"is_reserved":false,"is_disabled":false,"rental_uris":{"android":"levelo://app?vid=cfca987a-456e-47df-a095-b63382c88e43","ios":"levelo://app?vid=cfca987a-456e-47df-a095-b63382c88e43"},"vehicle_type_id":"4","last_reported":1781310818,"current_range_meters":2800,"station_id":"ce4bhu92rcd13ifvqi70","pricing_plan_id":"cebpf4jnsgd1na2vs0mg"},{"bike_id":"4455f9dc-edb8-4f4d-8f1e-7e5a3158e46f","system_id":"levelo_inurba_marseille","lat":43.29897,"lon":5.38137,"is_reserved":false,"is_disabled":false,"rental_uris":{"android":"levelo://app?vid=4455f9dc-edb8-4f4d-8f1e-7e5a3158e46f","ios":"levelo://app?vid=4455f9dc-edb8-4f4d-8f1e-7e5a3158e46f"},"vehicle_type_id":"4","last_reported":1781310818,"current_range_meters":2800,"station_id":"ce4bgj12rcd13ifvqbc0","pricing_plan_id":"cebpf4jnsgd1na2vs0mg"},{"bike_id":"44670461-af02-4ddf-9cf5-8d935373ad66","system_id":"levelo_inurba_marseille","lat":43.33765,"lon":5.37481,"is_reserved":false,"is_disabled":true,"rental_uris":{"android":"levelo://app?vid=44670461-af02-4ddf-9cf5-8d935373ad66","ios":"levelo://app?vid=44670461-af02-4ddf-9cf5-8d935373ad66"},"vehicle_type_id":"4","last_reported":1781310818,"current_range_meters":2800,"station_id":"","pricing_plan_id":"cebpf4jnsgd1na2vs0mg"},{"bike_id":"9108273f-df45-442b-a08a-d72d87842045","system_id":"levelo_inurba_marseille","lat":43.25119,"lon":5.40339,"is_reserved":false,"is_disabled":false,"rental_uris":{"android":"levelo://app?vid=9108273f-df45-442b-a08a-d72d87842045","ios":"levelo://app?vid=9108273f-df45-442b-a08a-d72d87842045"},"vehicle_type_id":"4","last_reported":1781310818,"current_range_meters":2800,"station_id":"ce4bhlh2rcd13ifvqgig","pricing_plan_id":"cebpf4jnsgd1na2vs0mg"},{"bike_id":"7c307ebc-aea8-4c74-801b-203d11055b3c","system_id":"levelo_inurba_marseille","lat":43.29924,"lon":5.42779,"is_reserved":false,"is_disabled":false,"rental_uris":{"android":"levelo://app?vid=7c307ebc-aea8-4c74-801b-203d11055b3c","ios":"levelo://app?vid=7c307ebc-aea8-4c74-801b-203d11055b3c"},"vehicle_type_id":"4","last_reported":1781310818,"current_range_meters":2800,"station_id":"","pricing_plan_id":"cebpf4jnsgd1na2vs0mg"},{"bike_id":"f1a562e5-8cff-449a-bdbb-a7b0c70c969e","system_id":"levelo_inurba_marseille","lat":43.29032,"lon":5.3812,"is_reserved":false,"is_disabled":true,"rental_uris":{"android":"levelo://app?vid=f1a562e5-8cff-449a-bdbb-a7b0c70c969e","ios":"levelo://app?vid=f1a562e5-8cff-449a-bdbb-a7b0c70c969e"},"vehicle_type_id":"4","last_reported":1781310818,"current_range_meters":2800,"station_id":"ce4bh4p2rcd13ifvqe1g","pricing_plan_id":"cebpf4jnsgd1na2vs0mg"},{"bike_id":"2c9f6970-46c6-41f3-9271-078d6bcad1b3","system_id":"levelo_inurba_marseille","lat":43.30596,"lon":5.37199,"is_reserved":false,"is_disabled":false,"rental_uris":{"android":"levelo://app?vid=2c9f6970-46c6-41f3-9271-078d6bcad1b3","ios":"levelo://app?vid=2c9f6970-46c6-41f3-9271-078d6bcad1b3"},"vehicle_type_id":"4","last_reported":1781310818,"current_range_meters":2800,"station_id":"ce4bgqh2rcd13ifvqc4g","pricing_plan_id":"cebpf4jnsgd1na2vs0mg"},{"bike_id":"5a98cce2-d8f9-4712-a4e0-13f9b7570e5b","system_id":"levelo_inurba_marseille","lat":43.30134,"lon":5.37428,"is_reserved":false,"is_disabled":false,"rental_uris":{"android":"levelo://app?vid=5a98cce2-d8f9-4712-a4e0-13f9b7570e5b","ios":"levelo://app?vid=5a98cce2-d8f9-4712-a4e0-13f9b7570e5b"},"vehicle_type_id":"4","last_reported":1781310818,"current_range_meters":2800,"station_id":"ce4bgs92rcd13ifvqcc0","pricing_plan_id":"cebpf4jnsgd1na2vs0mg"},{"bike_id":"84aa4b4d-be5a-4310-a9ec-be57bc4215d0","system_id":"levelo_inurba_marseille","lat":43.23715,"lon":5.40133,"is_reserved":false,"is_disabled":false,"rental_uris":{"android":"levelo://app?vid=84aa4b4d-be5a-4310-a9ec-be57bc4215d0","ios":"levelo://app?vid=84aa4b4d-be5a-4310-a9ec-be57bc4215d0"},"vehicle_type_id":"4","last_reported":1781310818,"current_range_meters":2800,"station_id":"","pricing_plan_id":"cebpf4jnsgd1na2vs0mg"},{"bike_id":"06665522-e7ad-443d-a614-914f66301216","system_id":"levelo_inurba_marseille","lat":43.33727,"lon":5.39203,"is_reserved":false,"is_disabled":false,"rental_uris":{"android":"levelo://app?vid=06665522-e7ad-443d-a614-914f66301216","ios":"levelo://app?vid=06665522-e7ad-443d-a614-914f66301216"},"vehicle_type_id":"4","last_reported":1781310818,"current_range_meters":2800,"station_id":"ce4bhr92rcd13ifvqhsg","pricing_plan_id":"cebpf4jnsgd1na2vs0mg"},{"bike_id":"8682f4e8-0798-4b4f-8fef-c4dc002ea1c8","system_id":"levelo_inurba_marseille","lat":43.29142,"lon":5.46123,"is_reserved":false,"is_disabled":false,"rental_uris":{"android":"levelo://app?vid=8682f4e8-0798-4b4f-8fef-c4dc002ea1c8","ios":"levelo://app?vid=8682f4e8-0798-4b4f-8fef-c4dc002ea1c8"},"vehicle_type_id":"4","last_reported":1781310818,"current_range_meters":2800,"station_id":"","pricing_plan_id":"cebpf4jnsgd1na2vs0mg"},{"bike_id":"e632022f-4f65-47c1-8198-129543b7d41b","system_id":"levelo_inurba_marseille","lat":43.24673,"lon":5.38159,"is_reserved":false,"is_disabled":false,"rental_uris":{"android":"levelo://app?vid=e632022f-4f65-47c1-8198-129543b7d41b","ios":"levelo://app?vid=e632022f-4f65-47c1-8198-129543b7d41b"},"vehicle_type_id":"4","last_reported":1781310818,"current_range_meters":2800,"station_id":"ce4bhih2rcd13ifvqfr0","pricing_plan_id":"cebpf4jnsgd1na2vs0mg"},{"bike_id":"ee62bb71-0b13-474e-a3e7-f54e7b9d1d69","system_id":"levelo_inurba_marseille","lat":43.30469,"lon":5.38861,"is_reserved":false,"is_disabled":false,"rental_uris":{"android":"levelo://app?vid=ee62bb71-0b13-474e-a3e7-f54e7b9d1d69","ios":"levelo://app?vid=ee62bb71-0b13-474e-a3e7-f54e7b9d1d69"},"vehicle_type_id":"4","last_reported":1781310818,"current_range_meters":3200,"station_id":"","pricing_plan_id":"cebpf4jnsgd1na2vs0mg"},{"bike_id":"644f2068-906c-4129-b259-67583ff3fd49","system_id":"levelo_inurba_marseille","lat":43.25091,"lon":5.39532,"is_reserved":false,"is_disabled":false,"rental_uris":{"android":"levelo://app?vid=644f2068-906c-4129-b259-67583ff3fd49","ios":"levelo://app?vid=644f2068-906c-4129-b259-67583ff3fd49"},"vehicle_type_id":"4","last_reported":1781310818,"current_range_meters":3200,"station_id":"ce4bhm12rcd13ifvqgkg","pricing_plan_id":"cebpf4jnsgd1na2vs0mg"},{"bike_id":"3643eb2e-b0e4-40f6-9aa2-b567c4963540","system_id":"levelo_inurba_marseille","lat":43.32113,"lon":5.36772,"is_reserved":false,"is_disabled":false,"rental_uris":{"android":"levelo://app?vid=3643eb2e-b0e4-40f6-9aa2-b567c4963540","ios":"levelo://app?vid=3643eb2e-b0e4-40f6-9aa2-b567c4963540"},"vehicle_type_id":"4","last_reported":1781310818,"current_range_meters":3200,"station_id":"ce4bhrh2rcd13ifvqhug","pricing_plan_id":"cebpf4jnsgd1na2vs0mg"},{"bike_id":"f63e0e69-6a54-4e19-8d8e-f67680de3ed1","system_id":"levelo_inurba_marseille","lat":43.24608,"lon":5.43142,"is_reserved":false,"is_disabled":false,"rental_uris":{"android":"levelo://app?vid=f63e0e69-6a54-4e19-8d8e-f67680de3ed1","ios":"levelo://app?vid=f63e0e69-6a54-4e19-8d8e-f67680de3ed1"},"vehicle_type_id":"4","last_reported":1781310818,"current_range_meters":3200,"station_id":"st_d2m6c4gdas8pm72e190g","pricing_plan_id":"cebpf4jnsgd1na2vs0mg"},{"bike_id":"8b6b68f1-e508-4aca-8408-2e25b4d6ced5","system_id":"levelo_inurba_marseille","lat":43.21203,"lon":5.35053,"is_reserved":false,"is_disabled":false,"rental_uris":{"android":"levelo://app?vid=8b6b68f1-e508-4aca-8408-2e25b4d6ced5","ios":"levelo://app?vid=8b6b68f1-e508-4aca-8408-2e25b4d6ced5"},"vehicle_type_id":"4","last_reported":1781310818,"current_range_meters":3200,"station_id":"st_cvj6sg6p6f1abm77japg","pricing_plan_id":"cebpf4jnsgd1na2vs0mg"},{"bike_id":"91127671-348d-48fa-8e16-debe2eed689f","system_id":"levelo_inurba_marseille","lat":43.27817,"lon":5.39258,"is_reserved":false,"is_disabled":false,"rental_uris":{"android":"levelo://app?vid=91127671-348d-48fa-8e16-debe2eed689f","ios":"levelo://app?vid=91127671-348d-48fa-8e16-debe2eed689f"},"vehicle_type_id":"4","last_reported":1781310818,"current_range_meters":3200,"station_id":"ce4bhjp2rcd13ifvqga0","pricing_plan_id":"cebpf4jnsgd1na2vs0mg"},{"bike_id":"3a44773b-a64a-45f6-9197-56969bf49878","system_id":"levelo_inurba_marseille","lat":43.29708,"lon":5.37009,"is_reserved":false,"is_disabled":false,"rental_uris":{"android":"levelo://app?vid=3a44773b-a64a-45f6-9197-56969bf49878","ios":"levelo://app?vid=3a44773b-a64a-45f6-9197-56969bf49878"},"vehicle_type_id":"4","last_reported":1781310818,"current_range_meters":3200,"station_id":"","pricing_plan_id":"cebpf4jnsgd1na2vs0mg"},{"bike_id":"7afe9ebe-4321-4ff4-92ff-e6570b47a153","system_id":"levelo_inurba_marseille","lat":43.27148,"lon":5.41464,"is_reserved":false,"is_disabled":false,"rental_uris":{"android":"levelo://app?vid=7afe9ebe-4321-4ff4-92ff-e6570b47a153","ios":"levelo://app?vid=7afe9ebe-4321-4ff4-92ff-e6570b47a153"},"vehicle_type_id":"4","last_reported":1781310818,"current_range_meters":3200,"station_id":"","pricing_plan_id":"cebpf4jnsgd1na2vs0mg"},{"bike_id":"15fc56fc-294c-406d-b298-e6517f81b737","system_id":"levelo_inurba_marseille","lat":43.24625,"lon":5.43144,"is_reserved":false,"is_disabled":false,"rental_uris":{"android":"levelo://app?vid=15fc56fc-294c-406d-b298-e6517f81b737","ios":"levelo://app?vid=15fc56fc-294c-406d-b298-e6517f81b737"},"vehicle_type_id":"4","last_reported":1781310818,"current_range_meters":3200,"station_id":"st_d2m6c4gdas8pm72e190g","pricing_plan_id":"cebpf4jnsgd1na2vs0mg"},{"bike_id":"bd8e8f33-12b1-4c8d-8011-a25262fca44e","system_id":"levelo_inurba_marseille","lat":43.32487,"lon":5.38276,"is_reserved":false,"is_disabled":false,"rental_uris":{"android":"levelo://app?vid=bd8e8f33-12b1-4c8d-8011-a25262fca44e","ios":"levelo://app?vid=bd8e8f33-12b1-4c8d-8011-a25262fca44e"},"vehicle_type_id":"4","last_reported":1781310818,"current_range_meters":3200,"station_id":"st_d4asgbiv49dc73anf9m0","pricing_plan_id":"cebpf4jnsgd1na2vs0mg"},{"bike_id":"d96d04db-3a46-41d7-a5cf-29ee2408a116","system_id":"levelo_inurba_marseille","lat":43.23961,"lon":5.36643,"is_reserved":false,"is_disabled":false,"rental_uris":{"android":"levelo://app?vid=d96d04db-3a46-41d7-a5cf-29ee2408a116","ios":"levelo://app?vid=d96d04db-3a46-41d7-a5cf-29ee2408a116"},"vehicle_type_id":"4","last_reported":1781310818,"current_range_meters":3200,"station_id":"ce4bhi12rcd13ifvqfp0","pricing_plan_id":"cebpf4jnsgd1na2vs0mg"},{"bike_id":"bf125194-af87-428c-83ab-9ff811b7e91f","system_id":"levelo_inurba_marseille","lat":43.299334,"lon":5.365563,"is_reserved":false,"is_disabled":false,"rental_uris":{"android":"levelo://app?vid=bf125194-af87-428c-83ab-9ff811b7e91f","ios":"levelo://app?vid=bf125194-af87-428c-83ab-9ff811b7e91f"},"vehicle_type_id":"4","last_reported":1781310818,"current_range_meters":3600,"station_id":"ce4bgm92rcd13ifvqbr0","pricing_plan_id":"cebpf4jnsgd1na2vs0mg"},{"bike_id":"877744f0-b878-43b2-af8c-0218323aa55c","system_id":"levelo_inurba_marseille","lat":43.28858,"lon":5.39327,"is_reserved":false,"is_disabled":false,"rental_uris":{"android":"levelo://app?vid=877744f0-b878-43b2-af8c-0218323aa55c","ios":"levelo://app?vid=877744f0-b878-43b2-af8c-0218323aa55c"},"vehicle_type_id":"4","last_reported":1781310818,"current_range_meters":3600,"station_id":"ce4bh2p2rcd13ifvqdi0","pricing_plan_id":"cebpf4jnsgd1na2vs0mg"},{"bike_id":"b71af7c2-4d98-4630-86ae-a4a165ba23e9","system_id":"levelo_inurba_marseille","lat":43.28868,"lon":5.37658,"is_reserved":false,"is_disabled":false,"rental_uris":{"android":"levelo://app?vid=b71af7c2-4d98-4630-86ae-a4a165ba23e9","ios":"levelo://app?vid=b71af7c2-4d98-4630-86ae-a4a165ba23e9"},"vehicle_type_id":"4","last_reported":1781310818,"current_range_meters":3600,"station_id":"","pricing_plan_id":"cebpf4jnsgd1na2vs0mg"},{"bike_id":"1962cd80-1948-45bd-a5c0-ff35fc23ed03","system_id":"levelo_inurba_marseille","lat":43.28509,"lon":5.38473,"is_reserved":false,"is_disabled":true,"rental_uris":{"android":"levelo://app?vid=1962cd80-1948-45bd-a5c0-ff35fc23ed03","ios":"levelo://app?vid=1962cd80-1948-45bd-a5c0-ff35fc23ed03"},"vehicle_type_id":"4","last_reported":1781310818,"current_range_meters":3600,"station_id":"","pricing_plan_id":"cebpf4jnsgd1na2vs0mg"},{"bike_id":"35fd3bba-f953-494c-a66b-6bdf2b9bea1d","system_id":"levelo_inurba_marseille","lat":43.30368,"lon":5.42486,"is_reserved":false,"is_disabled":false,"rental_uris":{"android":"levelo://app?vid=35fd3bba-f953-494c-a66b-6bdf2b9bea1d","ios":"levelo://app?vid=35fd3bba-f953-494c-a66b-6bdf2b9bea1d"},"vehicle_type_id":"4","last_reported":1781310818,"current_range_meters":3600,"station_id":"ce4bhoh2rcd13ifvqh6g","pricing_plan_id":"cebpf4jnsgd1na2vs0mg"},{"bike_id":"169fc709-a125-46fe-8911-12746f151c1d","system_id":"levelo_inurba_marseille","lat":43.31906,"lon":5.36781,"is_reserved":false,"is_disabled":false,"rental_uris":{"android":"levelo://app?vid=169fc709-a125-46fe-8911-12746f151c1d","ios":"levelo://app?vid=169fc709-a125-46fe-8911-12746f151c1d"},"vehicle_type_id":"4","last_reported":1781310818,"current_range_meters":3600,"station_id":"st_d6o2h0d0559c73evc1b0","pricing_plan_id":"cebpf4jnsgd1na2vs0mg"},{"bike_id":"40de0209-043c-4ed6-84c3-7ac1da5cf58d","system_id":"levelo_inurba_marseille","lat":43.32101,"lon":5.36788,"is_reserved":false,"is_disabled":false,"rental_uris":{"android":"levelo://app?vid=40de0209-043c-4ed6-84c3-7ac1da5cf58d","ios":"levelo://app?vid=40de0209-043c-4ed6-84c3-7ac1da5cf58d"},"vehicle_type_id":"4","last_reported":1781310818,"current_range_meters":3600,"station_id":"ce4bhrh2rcd13ifvqhug","pricing_plan_id":"cebpf4jnsgd1na2vs0mg"},{"bike_id":"08fbc0bc-0d78-4646-a316-9a416607340a","system_id":"levelo_inurba_marseille","lat":43.25341,"lon":5.42183,"is_reserved":false,"is_disabled":false,"rental_uris":{"android":"levelo://app?vid=08fbc0bc-0d78-4646-a316-9a416607340a","ios":"levelo://app?vid=08fbc0bc-0d78-4646-a316-9a416607340a"},"vehicle_type_id":"4","last_reported":1781310818,"current_range_meters":3600,"station_id":"st_d2m65c5bi1j21697t3ng","pricing_plan_id":"cebpf4jnsgd1na2vs0mg"},{"bike_id":"d5b3bfa0-71d5-4a82-8f8f-cb1eaca4b418","system_id":"levelo_inurba_marseille","lat":43.24964,"lon":5.40496,"is_reserved":false,"is_disabled":false,"rental_uris":{"android":"levelo://app?vid=d5b3bfa0-71d5-4a82-8f8f-cb1eaca4b418","ios":"levelo://app?vid=d5b3bfa0-71d5-4a82-8f8f-cb1eaca4b418"},"vehicle_type_id":"4","last_reported":1781310818,"current_range_meters":3600,"station_id":"st_d2ngiaodas8pm72gd1h0","pricing_plan_id":"cebpf4jnsgd1na2vs0mg"},{"bike_id":"ba206600-9054-41c4-8fa5-29f0fd034efd","system_id":"levelo_inurba_marseille","lat":43.3132,"lon":5.39811,"is_reserved":false,"is_disabled":false,"rental_uris":{"android":"levelo://app?vid=ba206600-9054-41c4-8fa5-29f0fd034efd","ios":"levelo://app?vid=ba206600-9054-41c4-8fa5-29f0fd034efd"},"vehicle_type_id":"4","last_reported":1781310818,"current_range_meters":3600,"station_id":"","pricing_plan_id":"cebpf4jnsgd1na2vs0mg"},{"bike_id":"f7698676-1932-4dbf-ab9d-6c907c9bbe14","system_id":"levelo_inurba_marseille","lat":43.31886,"lon":5.37143,"is_reserved":false,"is_disabled":false,"rental_uris":{"android":"levelo://app?vid=f7698676-1932-4dbf-ab9d-6c907c9bbe14","ios":"levelo://app?vid=f7698676-1932-4dbf-ab9d-6c907c9bbe14"},"vehicle_type_id":"4","last_reported":1781310818,"current_range_meters":3600,"station_id":"","pricing_plan_id":"cebpf4jnsgd1na2vs0mg"},{"bike_id":"ded1694e-4844-4deb-b7ce-2d3c1f98417a","system_id":"levelo_inurba_marseille","lat":43.290314,"lon":5.399591,"is_reserved":false,"is_disabled":false,"rental_uris":{"android":"levelo://app?vid=ded1694e-4844-4deb-b7ce-2d3c1f98417a","ios":"levelo://app?vid=ded1694e-4844-4deb-b7ce-2d3c1f98417a"},"vehicle_type_id":"4","last_reported":1781310818,"current_range_meters":3600,"station_id":"ce4bh392rcd13ifvqdm0","pricing_plan_id":"cebpf4jnsgd1na2vs0mg"},{"bike_id":"4efb1857-7c3c-4f03-b985-34f4958b46fe","system_id":"levelo_inurba_marseille","lat":43.28952,"lon":5.36623,"is_reserved":false,"is_disabled":false,"rental_uris":{"android":"levelo://app?vid=4efb1857-7c3c-4f03-b985-34f4958b46fe","ios":"levelo://app?vid=4efb1857-7c3c-4f03-b985-34f4958b46fe"},"vehicle_type_id":"4","last_reported":1781310818,"current_range_meters":3600,"station_id":"ce4bhap2rcd13ifvqek0","pricing_plan_id":"cebpf4jnsgd1na2vs0mg"},{"bike_id":"d85159cc-5412-4ec7-a2aa-ba7268a83cd9","system_id":"levelo_inurba_marseille","lat":43.28576,"lon":5.3996,"is_reserved":false,"is_disabled":false,"rental_uris":{"android":"levelo://app?vid=d85159cc-5412-4ec7-a2aa-ba7268a83cd9","ios":"levelo://app?vid=d85159cc-5412-4ec7-a2aa-ba7268a83cd9"},"vehicle_type_id":"4","last_reported":1781310818,"current_range_meters":3600,"station_id":"","pricing_plan_id":"cebpf4jnsgd1na2vs0mg"},{"bike_id":"7b5684ba-17bf-4260-b129-c7302c65a905","system_id":"levelo_inurba_marseille","lat":43.29493,"lon":5.4332,"is_reserved":false,"is_disabled":false,"rental_uris":{"android":"levelo://app?vid=7b5684ba-17bf-4260-b129-c7302c65a905","ios":"levelo://app?vid=7b5684ba-17bf-4260-b129-c7302c65a905"},"vehicle_type_id":"4","last_reported":1781310818,"current_range_meters":3600,"station_id":"st_d3j5ugp08ojc73fj9d10","pricing_plan_id":"cebpf4jnsgd1na2vs0mg"},{"bike_id":"dbcda9ae-c30a-47f2-91a8-8dac9b33d85e","system_id":"levelo_inurba_marseille","lat":43.28021,"lon":5.36098,"is_reserved":false,"is_disabled":false,"rental_uris":{"android":"levelo://app?vid=dbcda9ae-c30a-47f2-91a8-8dac9b33d85e","ios":"levelo://app?vid=dbcda9ae-c30a-47f2-91a8-8dac9b33d85e"},"vehicle_type_id":"4","last_reported":1781310818,"current_range_meters":3600,"station_id":"","pricing_plan_id":"cebpf4jnsgd1na2vs0mg"},{"bike_id":"251f2ed3-be7d-4e96-8818-497dd3d98d48","system_id":"levelo_inurba_marseille","lat":43.31341,"lon":5.39689,"is_reserved":false,"is_disabled":false,"rental_uris":{"android":"levelo://app?vid=251f2ed3-be7d-4e96-8818-497dd3d98d48","ios":"levelo://app?vid=251f2ed3-be7d-4e96-8818-497dd3d98d48"},"vehicle_type_id":"4","last_reported":1781310818,"current_range_meters":4000,"station_id":"ce4bgvp2rcd13ifvqcu0","pricing_plan_id":"cebpf4jnsgd1na2vs0mg"},{"bike_id":"b83be4d3-06f4-4b3e-9ba2-a6d47abaf96e","system_id":"levelo_inurba_marseille","lat":43.29254,"lon":5.37627,"is_reserved":false,"is_disabled":true,"rental_uris":{"android":"levelo://app?vid=b83be4d3-06f4-4b3e-9ba2-a6d47abaf96e","ios":"levelo://app?vid=b83be4d3-06f4-4b3e-9ba2-a6d47abaf96e"},"vehicle_type_id":"4","last_reported":1781310818,"current_range_meters":4000,"station_id":"ce4bgi12rcd13ifvqb80","pricing_plan_id":"cebpf4jnsgd1na2vs0mg"},{"bike_id":"71e673c1-4feb-446e-b58c-e0535f27ae14","system_id":"levelo_inurba_marseille","lat":43.31765,"lon":5.39025,"is_reserved":false,"is_disabled":false,"rental_uris":{"android":"levelo://app?vid=71e673c1-4feb-446e-b58c-e0535f27ae14","ios":"levelo://app?vid=71e673c1-4feb-446e-b58c-e0535f27ae14"},"vehicle_type_id":"4","last_reported":1781310818,"current_range_meters":4000,"station_id":"ce4bhqp2rcd13ifvqhng","pricing_plan_id":"cebpf4jnsgd1na2vs0mg"},{"bike_id":"318c2327-cd61-4b3a-8efa-5ff92eb9038b","system_id":"levelo_inurba_marseille","lat":43.34771,"lon":5.36645,"is_reserved":false,"is_disabled":false,"rental_uris":{"android":"levelo://app?vid=318c2327-cd61-4b3a-8efa-5ff92eb9038b","ios":"levelo://app?vid=318c2327-cd61-4b3a-8efa-5ff92eb9038b"},"vehicle_type_id":"4","last_reported":1781310818,"current_range_meters":4000,"station_id":"","pricing_plan_id":"cebpf4jnsgd1na2vs0mg"},{"bike_id":"102a2fa4-60b6-44ce-93d7-4c2bd2e2e714","system_id":"levelo_inurba_marseille","lat":43.2827,"lon":5.3508,"is_reserved":false,"is_disabled":false,"rental_uris":{"android":"levelo://app?vid=102a2fa4-60b6-44ce-93d7-4c2bd2e2e714","ios":"levelo://app?vid=102a2fa4-60b6-44ce-93d7-4c2bd2e2e714"},"vehicle_type_id":"4","last_reported":1781310818,"current_range_meters":4000,"station_id":"ce4bhbp2rcd13ifvqerg","pricing_plan_id":"cebpf4jnsgd1na2vs0mg"},{"bike_id":"696ffd7d-90f2-4962-a226-c170e838fc3a","system_id":"levelo_inurba_marseille","lat":43.23787,"lon":5.36619,"is_reserved":false,"is_disabled":false,"rental_uris":{"android":"levelo://app?vid=696ffd7d-90f2-4962-a226-c170e838fc3a","ios":"levelo://app?vid=696ffd7d-90f2-4962-a226-c170e838fc3a"},"vehicle_type_id":"4","last_reported":1781310818,"current_range_meters":4000,"station_id":"st_d3nk18o9ro0c73en2l3g","pricing_plan_id":"cebpf4jnsgd1na2vs0mg"},{"bike_id":"8bf99202-0aa0-4c45-a06d-a3fa999fbea6","system_id":"levelo_inurba_marseille","lat":43.3112,"lon":5.37139,"is_reserved":false,"is_disabled":true,"rental_uris":{"android":"levelo://app?vid=8bf99202-0aa0-4c45-a06d-a3fa999fbea6","ios":"levelo://app?vid=8bf99202-0aa0-4c45-a06d-a3fa999fbea6"},"vehicle_type_id":"4","last_reported":1781310818,"current_range_meters":4000,"station_id":"","pricing_plan_id":"cebpf4jnsgd1na2vs0mg"},{"bike_id":"666b8dbd-361a-46f5-bbb8-8f732323f07b","system_id":"levelo_inurba_marseille","lat":43.23898,"lon":5.3746,"is_reserved":false,"is_disabled":false,"rental_uris":{"android":"levelo://app?vid=666b8dbd-361a-46f5-bbb8-8f732323f07b","ios":"levelo://app?vid=666b8dbd-361a-46f5-bbb8-8f732323f07b"},"vehicle_type_id":"4","last_reported":1781310818,"current_range_meters":4000,"station_id":"st_d6sm7csbq4hs73f8fpjg","pricing_plan_id":"cebpf4jnsgd1na2vs0mg"},{"bike_id":"edd7f6cf-c00d-4334-ba4f-ddda86c6a12e","system_id":"levelo_inurba_marseille","lat":43.3027,"lon":5.37655,"is_reserved":false,"is_disabled":false,"rental_uris":{"android":"levelo://app?vid=edd7f6cf-c00d-4334-ba4f-ddda86c6a12e","ios":"levelo://app?vid=edd7f6cf-c00d-4334-ba4f-ddda86c6a12e"},"vehicle_type_id":"4","last_reported":1781310818,"current_range_meters":4000,"station_id":"","pricing_plan_id":"cebpf4jnsgd1na2vs0mg"},{"bike_id":"b4c0f195-58a3-456c-9ed4-e0663f1468e6","system_id":"levelo_inurba_marseille","lat":43.28271,"lon":5.37409,"is_reserved":false,"is_disabled":false,"rental_uris":{"android":"levelo://app?vid=b4c0f195-58a3-456c-9ed4-e0663f1468e6","ios":"levelo://app?vid=b4c0f195-58a3-456c-9ed4-e0663f1468e6"},"vehicle_type_id":"4","last_reported":1781310818,"current_range_meters":4000,"station_id":"","pricing_plan_id":"cebpf4jnsgd1na2vs0mg"},{"bike_id":"9630d3ba-86dc-4eac-8fb4-727bd51e94df","system_id":"levelo_inurba_marseille","lat":43.30939,"lon":5.40141,"is_reserved":false,"is_disabled":false,"rental_uris":{"android":"levelo://app?vid=9630d3ba-86dc-4eac-8fb4-727bd51e94df","ios":"levelo://app?vid=9630d3ba-86dc-4eac-8fb4-727bd51e94df"},"vehicle_type_id":"4","last_reported":1781310818,"current_range_meters":4000,"station_id":"ce4bgvp2rcd13ifvqct0","pricing_plan_id":"cebpf4jnsgd1na2vs0mg"},{"bike_id":"cdb51552-946c-4f57-8807-f1cfa55d450c","system_id":"levelo_inurba_marseille","lat":43.31473,"lon":5.37296,"is_reserved":false,"is_disabled":true,"rental_uris":{"android":"levelo://app?vid=cdb51552-946c-4f57-8807-f1cfa55d450c","ios":"levelo://app?vid=cdb51552-946c-4f57-8807-f1cfa55d450c"},"vehicle_type_id":"4","last_reported":1781310818,"current_range_meters":4000,"station_id":"ce4bgt12rcd13ifvqcd0","pricing_plan_id":"cebpf4jnsgd1na2vs0mg"},{"bike_id":"a0734b08-b134-476e-83d5-9ad05daee3b7","system_id":"levelo_inurba_marseille","lat":43.30433,"lon":5.39753,"is_reserved":false,"is_disabled":false,"rental_uris":{"android":"levelo://app?vid=a0734b08-b134-476e-83d5-9ad05daee3b7","ios":"levelo://app?vid=a0734b08-b134-476e-83d5-9ad05daee3b7"},"vehicle_type_id":"4","last_reported":1781310818,"current_range_meters":4000,"station_id":"ce4bh092rcd13ifvqd20","pricing_plan_id":"cebpf4jnsgd1na2vs0mg"},{"bike_id":"096a1c1b-0315-4bbb-85e1-13b0de168848","system_id":"levelo_inurba_marseille","lat":43.28845,"lon":5.39332,"is_reserved":false,"is_disabled":false,"rental_uris":{"android":"levelo://app?vid=096a1c1b-0315-4bbb-85e1-13b0de168848","ios":"levelo://app?vid=096a1c1b-0315-4bbb-85e1-13b0de168848"},"vehicle_type_id":"4","last_reported":1781310818,"current_range_meters":4000,"station_id":"ce4bh2p2rcd13ifvqdi0","pricing_plan_id":"cebpf4jnsgd1na2vs0mg"},{"bike_id":"41eb6a40-5c9c-4ae0-95cb-ec8052428c3d","system_id":"levelo_inurba_marseille","lat":43.26043,"lon":5.3938,"is_reserved":false,"is_disabled":false,"rental_uris":{"android":"levelo://app?vid=41eb6a40-5c9c-4ae0-95cb-ec8052428c3d","ios":"levelo://app?vid=41eb6a40-5c9c-4ae0-95cb-ec8052428c3d"},"vehicle_type_id":"4","last_reported":1781310818,"current_range_meters":4400,"station_id":"ce4bhh92rcd13ifvqfj0","pricing_plan_id":"cebpf4jnsgd1na2vs0mg"},{"bike_id":"4d449b42-c79a-4aa4-ac01-6066903c1d03","system_id":"levelo_inurba_marseille","lat":43.23143,"lon":5.43712,"is_reserved":false,"is_disabled":false,"rental_uris":{"android":"levelo://app?vid=4d449b42-c79a-4aa4-ac01-6066903c1d03","ios":"levelo://app?vid=4d449b42-c79a-4aa4-ac01-6066903c1d03"},"vehicle_type_id":"4","last_reported":1781310818,"current_range_meters":4400,"station_id":"ce4bhmp2rcd13ifvqgog","pricing_plan_id":"cebpf4jnsgd1na2vs0mg"},{"bike_id":"52e0ca30-f6db-4b40-a595-fe3e1b7ca10e","system_id":"levelo_inurba_marseille","lat":43.25117,"lon":5.40309,"is_reserved":false,"is_disabled":true,"rental_uris":{"android":"levelo://app?vid=52e0ca30-f6db-4b40-a595-fe3e1b7ca10e","ios":"levelo://app?vid=52e0ca30-f6db-4b40-a595-fe3e1b7ca10e"},"vehicle_type_id":"4","last_reported":1781310818,"current_range_meters":4400,"station_id":"ce4bhlh2rcd13ifvqgig","pricing_plan_id":"cebpf4jnsgd1na2vs0mg"},{"bike_id":"1eedcdc6-46e0-4011-9d0c-bd94836b6b76","system_id":"levelo_inurba_marseille","lat":43.29504,"lon":5.43303,"is_reserved":false,"is_disabled":false,"rental_uris":{"android":"levelo://app?vid=1eedcdc6-46e0-4011-9d0c-bd94836b6b76","ios":"levelo://app?vid=1eedcdc6-46e0-4011-9d0c-bd94836b6b76"},"vehicle_type_id":"4","last_reported":1781310818,"current_range_meters":4400,"station_id":"st_d3j5ugp08ojc73fj9d10","pricing_plan_id":"cebpf4jnsgd1na2vs0mg"},{"bike_id":"98cc6fbd-dd2b-4f6b-921a-1dc4b5225f70","system_id":"levelo_inurba_marseille","lat":43.2905,"lon":5.3993,"is_reserved":false,"is_disabled":false,"rental_uris":{"android":"levelo://app?vid=98cc6fbd-dd2b-4f6b-921a-1dc4b5225f70","ios":"levelo://app?vid=98cc6fbd-dd2b-4f6b-921a-1dc4b5225f70"},"vehicle_type_id":"4","last_reported":1781310818,"current_range_meters":4400,"station_id":"ce4bh392rcd13ifvqdm0","pricing_plan_id":"cebpf4jnsgd1na2vs0mg"},{"bike_id":"35106298-0896-41b5-a402-74907c9d3bd3","system_id":"levelo_inurba_marseille","lat":43.31874,"lon":5.36815,"is_reserved":false,"is_disabled":false,"rental_uris":{"android":"levelo://app?vid=35106298-0896-41b5-a402-74907c9d3bd3","ios":"levelo://app?vid=35106298-0896-41b5-a402-74907c9d3bd3"},"vehicle_type_id":"4","last_reported":1781310818,"current_range_meters":4400,"station_id":"st_d6o2h0d0559c73evc1b0","pricing_plan_id":"cebpf4jnsgd1na2vs0mg"},{"bike_id":"0e737488-eea1-4c79-a09b-4e4182d3e90a","system_id":"levelo_inurba_marseille","lat":43.2623,"lon":5.38772,"is_reserved":false,"is_disabled":false,"rental_uris":{"android":"levelo://app?vid=0e737488-eea1-4c79-a09b-4e4182d3e90a","ios":"levelo://app?vid=0e737488-eea1-4c79-a09b-4e4182d3e90a"},"vehicle_type_id":"4","last_reported":1781310818,"current_range_meters":4400,"station_id":"st_d8gjfg747rts73coq3b0","pricing_plan_id":"cebpf4jnsgd1na2vs0mg"},{"bike_id":"caec6e5d-97d4-4d14-a7d1-afc0739031c8","system_id":"levelo_inurba_marseille","lat":43.29571,"lon":5.39969,"is_reserved":false,"is_disabled":false,"rental_uris":{"android":"levelo://app?vid=caec6e5d-97d4-4d14-a7d1-afc0739031c8","ios":"levelo://app?vid=caec6e5d-97d4-4d14-a7d1-afc0739031c8"},"vehicle_type_id":"4","last_reported":1781310818,"current_range_meters":4400,"station_id":"ce4bh312rcd13ifvqdj0","pricing_plan_id":"cebpf4jnsgd1na2vs0mg"},{"bike_id":"0d1f6c8f-daf5-49b7-b85d-39b65c9ed163","system_id":"levelo_inurba_marseille","lat":43.31403,"lon":5.36663,"is_reserved":false,"is_disabled":false,"rental_uris":{"android":"levelo://app?vid=0d1f6c8f-daf5-49b7-b85d-39b65c9ed163","ios":"levelo://app?vid=0d1f6c8f-daf5-49b7-b85d-39b65c9ed163"},"vehicle_type_id":"4","last_reported":1781310818,"current_range_meters":4400,"station_id":"ce4bgr92rcd13ifvqc6g","pricing_plan_id":"cebpf4jnsgd1na2vs0mg"},{"bike_id":"193e1006-9335-49a8-bba4-d06d716c1154","system_id":"levelo_inurba_marseille","lat":43.32099,"lon":5.36787,"is_reserved":false,"is_disabled":false,"rental_uris":{"android":"levelo://app?vid=193e1006-9335-49a8-bba4-d06d716c1154","ios":"levelo://app?vid=193e1006-9335-49a8-bba4-d06d716c1154"},"vehicle_type_id":"4","last_reported":1781310818,"current_range_meters":4400,"station_id":"ce4bhrh2rcd13ifvqhug","pricing_plan_id":"cebpf4jnsgd1na2vs0mg"},{"bike_id":"6edb1571-ff0e-41be-86f6-ab57a8172f99","system_id":"levelo_inurba_marseille","lat":43.32096,"lon":5.36805,"is_reserved":false,"is_disabled":false,"rental_uris":{"android":"levelo://app?vid=6edb1571-ff0e-41be-86f6-ab57a8172f99","ios":"levelo://app?vid=6edb1571-ff0e-41be-86f6-ab57a8172f99"},"vehicle_type_id":"4","last_reported":1781310818,"current_range_meters":4400,"station_id":"ce4bhrh2rcd13ifvqhug","pricing_plan_id":"cebpf4jnsgd1na2vs0mg"},{"bike_id":"8d28d019-8767-4f71-85f4-781d76ee9ae2","system_id":"levelo_inurba_marseille","lat":43.30234,"lon":5.40063,"is_reserved":false,"is_disabled":false,"rental_uris":{"android":"levelo://app?vid=8d28d019-8767-4f71-85f4-781d76ee9ae2","ios":"levelo://app?vid=8d28d019-8767-4f71-85f4-781d76ee9ae2"},"vehicle_type_id":"4","last_reported":1781310818,"current_range_meters":4400,"station_id":"ce4bgvh2rcd13ifvqcs0","pricing_plan_id":"cebpf4jnsgd1na2vs0mg"},{"bike_id":"24f02d56-4cb2-4734-b396-c4353be9b86c","system_id":"levelo_inurba_marseille","lat":43.32089,"lon":5.36833,"is_reserved":false,"is_disabled":false,"rental_uris":{"android":"levelo://app?vid=24f02d56-4cb2-4734-b396-c4353be9b86c","ios":"levelo://app?vid=24f02d56-4cb2-4734-b396-c4353be9b86c"},"vehicle_type_id":"4","last_reported":1781310818,"current_range_meters":4400,"station_id":"ce4bhrh2rcd13ifvqhug","pricing_plan_id":"cebpf4jnsgd1na2vs0mg"},{"bike_id":"a848a5d1-feb4-4560-89e7-b2ad298b123f","system_id":"levelo_inurba_marseille","lat":43.24637,"lon":5.4315,"is_reserved":false,"is_disabled":false,"rental_uris":{"android":"levelo://app?vid=a848a5d1-feb4-4560-89e7-b2ad298b123f","ios":"levelo://app?vid=a848a5d1-feb4-4560-89e7-b2ad298b123f"},"vehicle_type_id":"4","last_reported":1781310818,"current_range_meters":4400,"station_id":"st_d2m6c4gdas8pm72e190g","pricing_plan_id":"cebpf4jnsgd1na2vs0mg"},{"bike_id":"6c149b80-daf1-4dc6-b899-1e8147e8b6f7","system_id":"levelo_inurba_marseille","lat":43.25081,"lon":5.40453,"is_reserved":false,"is_disabled":false,"rental_uris":{"android":"levelo://app?vid=6c149b80-daf1-4dc6-b899-1e8147e8b6f7","ios":"levelo://app?vid=6c149b80-daf1-4dc6-b899-1e8147e8b6f7"},"vehicle_type_id":"4","last_reported":1781310818,"current_range_meters":4400,"station_id":"","pricing_plan_id":"cebpf4jnsgd1na2vs0mg"},{"bike_id":"1b5c879f-cbe6-4043-a408-375cebce0695","system_id":"levelo_inurba_marseille","lat":43.25076,"lon":5.40362,"is_reserved":false,"is_disabled":false,"rental_uris":{"android":"levelo://app?vid=1b5c879f-cbe6-4043-a408-375cebce0695","ios":"levelo://app?vid=1b5c879f-cbe6-4043-a408-375cebce0695"},"vehicle_type_id":"4","last_reported":1781310818,"current_range_meters":4400,"station_id":"ce4bhlh2rcd13ifvqgig","pricing_plan_id":"cebpf4jnsgd1na2vs0mg"},{"bike_id":"3eb1ee37-e347-41f2-8d65-873e103ae57e","system_id":"levelo_inurba_marseille","lat":43.26488,"lon":5.39558,"is_reserved":false,"is_disabled":false,"rental_uris":{"android":"levelo://app?vid=3eb1ee37-e347-41f2-8d65-873e103ae57e","ios":"levelo://app?vid=3eb1ee37-e347-41f2-8d65-873e103ae57e"},"vehicle_type_id":"4","last_reported":1781310818,"current_range_meters":4400,"station_id":"ce4bhi12rcd13ifvqfq0","pricing_plan_id":"cebpf4jnsgd1na2vs0mg"},{"bike_id":"f380c408-831a-4f7a-a023-b7d0f539e6dd","system_id":"levelo_inurba_marseille","lat":43.27431,"lon":5.39411,"is_reserved":false,"is_disabled":false,"rental_uris":{"android":"levelo://app?vid=f380c408-831a-4f7a-a023-b7d0f539e6dd","ios":"levelo://app?vid=f380c408-831a-4f7a-a023-b7d0f539e6dd"},"vehicle_type_id":"4","last_reported":1781310818,"current_range_meters":4400,"station_id":"ce4bhdp2rcd13ifvqf20","pricing_plan_id":"cebpf4jnsgd1na2vs0mg"},{"bike_id":"2786d7b2-51b5-4c34-84af-9eb1766c0378","system_id":"levelo_inurba_marseille","lat":43.28551,"lon":5.39513,"is_reserved":false,"is_disabled":false,"rental_uris":{"android":"levelo://app?vid=2786d7b2-51b5-4c34-84af-9eb1766c0378","ios":"levelo://app?vid=2786d7b2-51b5-4c34-84af-9eb1766c0378"},"vehicle_type_id":"4","last_reported":1781310818,"current_range_meters":4400,"station_id":"ce4bh292rcd13ifvqdg0","pricing_plan_id":"cebpf4jnsgd1na2vs0mg"},{"bike_id":"95a6a820-080c-4047-9edc-2eab85cc3ea0","system_id":"levelo_inurba_marseille","lat":43.31244,"lon":5.37272,"is_reserved":false,"is_disabled":false,"rental_uris":{"android":"levelo://app?vid=95a6a820-080c-4047-9edc-2eab85cc3ea0","ios":"levelo://app?vid=95a6a820-080c-4047-9edc-2eab85cc3ea0"},"vehicle_type_id":"4","last_reported":1781310818,"current_range_meters":4400,"station_id":"","pricing_plan_id":"cebpf4jnsgd1na2vs0mg"},{"bike_id":"0ae8ab1a-ec7d-45cd-9dc2-29f20e4d53f4","system_id":"levelo_inurba_marseille","lat":43.3169,"lon":5.40474,"is_reserved":false,"is_disabled":false,"rental_uris":{"android":"levelo://app?vid=0ae8ab1a-ec7d-45cd-9dc2-29f20e4d53f4","ios":"levelo://app?vid=0ae8ab1a-ec7d-45cd-9dc2-29f20e4d53f4"},"vehicle_type_id":"4","last_reported":1781310818,"current_range_meters":4400,"station_id":"ce4bh012rcd13ifvqd00","pricing_plan_id":"cebpf4jnsgd1na2vs0mg"},{"bike_id":"d7d3a34e-fef7-4e2f-9a5e-0bb38ae4419f","system_id":"levelo_inurba_marseille","lat":43.29958,"lon":5.37196,"is_reserved":false,"is_disabled":false,"rental_uris":{"android":"levelo://app?vid=d7d3a34e-fef7-4e2f-9a5e-0bb38ae4419f","ios":"levelo://app?vid=d7d3a34e-fef7-4e2f-9a5e-0bb38ae4419f"},"vehicle_type_id":"4","last_reported":1781310818,"current_range_meters":4400,"station_id":"ce4bgr92rcd13ifvqc7g","pricing_plan_id":"cebpf4jnsgd1na2vs0mg"},{"bike_id":"76a9dea3-4151-4f2d-addc-92255c50dcd7","system_id":"levelo_inurba_marseille","lat":43.3095,"lon":5.39031,"is_reserved":false,"is_disabled":false,"rental_uris":{"android":"levelo://app?vid=76a9dea3-4151-4f2d-addc-92255c50dcd7","ios":"levelo://app?vid=76a9dea3-4151-4f2d-addc-92255c50dcd7"},"vehicle_type_id":"4","last_reported":1781310818,"current_range_meters":4400,"station_id":"ce4bgup2rcd13ifvqco0","pricing_plan_id":"cebpf4jnsgd1na2vs0mg"},{"bike_id":"a70cc9d0-8c18-4493-8a97-b7df9d495e9b","system_id":"levelo_inurba_marseille","lat":43.25131,"lon":5.40317,"is_reserved":false,"is_disabled":false,"rental_uris":{"android":"levelo://app?vid=a70cc9d0-8c18-4493-8a97-b7df9d495e9b","ios":"levelo://app?vid=a70cc9d0-8c18-4493-8a97-b7df9d495e9b"},"vehicle_type_id":"4","last_reported":1781310818,"current_range_meters":4400,"station_id":"ce4bhlh2rcd13ifvqgig","pricing_plan_id":"cebpf4jnsgd1na2vs0mg"},{"bike_id":"497db4fe-414c-4f3e-9d03-238169542317","system_id":"levelo_inurba_marseille","lat":43.35066,"lon":5.35054,"is_reserved":false,"is_disabled":false,"rental_uris":{"android":"levelo://app?vid=497db4fe-414c-4f3e-9d03-238169542317","ios":"levelo://app?vid=497db4fe-414c-4f3e-9d03-238169542317"},"vehicle_type_id":"4","last_reported":1781310818,"current_range_meters":4800,"station_id":"","pricing_plan_id":"cebpf4jnsgd1na2vs0mg"},{"bike_id":"6859e872-f5de-49b6-9665-a4075fb23877","system_id":"levelo_inurba_marseille","lat":43.29449,"lon":5.39752,"is_reserved":false,"is_disabled":false,"rental_uris":{"android":"levelo://app?vid=6859e872-f5de-49b6-9665-a4075fb23877","ios":"levelo://app?vid=6859e872-f5de-49b6-9665-a4075fb23877"},"vehicle_type_id":"4","last_reported":1781310818,"current_range_meters":4800,"station_id":"ce4bh3h2rcd13ifvqdo0","pricing_plan_id":"cebpf4jnsgd1na2vs0mg"},{"bike_id":"9355951e-b041-446b-b93e-73dce11071c1","system_id":"levelo_inurba_marseille","lat":43.30313,"lon":5.37336,"is_reserved":false,"is_disabled":false,"rental_uris":{"android":"levelo://app?vid=9355951e-b041-446b-b93e-73dce11071c1","ios":"levelo://app?vid=9355951e-b041-446b-b93e-73dce11071c1"},"vehicle_type_id":"4","last_reported":1781310818,"current_range_meters":4800,"station_id":"","pricing_plan_id":"cebpf4jnsgd1na2vs0mg"},{"bike_id":"88295d74-d80b-4b1c-81ee-61cee1d8d5f8","system_id":"levelo_inurba_marseille","lat":43.28869,"lon":5.35889,"is_reserved":false,"is_disabled":false,"rental_uris":{"android":"levelo://app?vid=88295d74-d80b-4b1c-81ee-61cee1d8d5f8","ios":"levelo://app?vid=88295d74-d80b-4b1c-81ee-61cee1d8d5f8"},"vehicle_type_id":"4","last_reported":1781310818,"current_range_meters":4800,"station_id":"ce4bhb12rcd13ifvqem0","pricing_plan_id":"cebpf4jnsgd1na2vs0mg"},{"bike_id":"a8ef3066-891a-4acb-8593-42313ad649c6","system_id":"levelo_inurba_marseille","lat":43.29964,"lon":5.38504,"is_reserved":false,"is_disabled":false,"rental_uris":{"android":"levelo://app?vid=a8ef3066-891a-4acb-8593-42313ad649c6","ios":"levelo://app?vid=a8ef3066-891a-4acb-8593-42313ad649c6"},"vehicle_type_id":"4","last_reported":1781310818,"current_range_meters":4800,"station_id":"ce4bgj92rcd13ifvqbd0","pricing_plan_id":"cebpf4jnsgd1na2vs0mg"},{"bike_id":"fbfc1cca-6af7-4bc0-ad22-b6fdac3724d4","system_id":"levelo_inurba_marseille","lat":43.292988,"lon":5.374738,"is_reserved":false,"is_disabled":false,"rental_uris":{"android":"levelo://app?vid=fbfc1cca-6af7-4bc0-ad22-b6fdac3724d4","ios":"levelo://app?vid=fbfc1cca-6af7-4bc0-ad22-b6fdac3724d4"},"vehicle_type_id":"4","last_reported":1781310818,"current_range_meters":4800,"station_id":"","pricing_plan_id":"cebpf4jnsgd1na2vs0mg"},{"bike_id":"b105e559-ad92-41ad-9bdf-4bd2f454dd68","system_id":"levelo_inurba_marseille","lat":43.30149,"lon":5.44967,"is_reserved":false,"is_disabled":false,"rental_uris":{"android":"levelo://app?vid=b105e559-ad92-41ad-9bdf-4bd2f454dd68","ios":"levelo://app?vid=b105e559-ad92-41ad-9bdf-4bd2f454dd68"},"vehicle_type_id":"4","last_reported":1781310818,"current_range_meters":4800,"station_id":"","pricing_plan_id":"cebpf4jnsgd1na2vs0mg"},{"bike_id":"8a9f3474-1ba5-4fc3-b4e6-1d2f8579f9d1","system_id":"levelo_inurba_marseille","lat":43.26552,"lon":5.39038,"is_reserved":false,"is_disabled":true,"rental_uris":{"android":"levelo://app?vid=8a9f3474-1ba5-4fc3-b4e6-1d2f8579f9d1","ios":"levelo://app?vid=8a9f3474-1ba5-4fc3-b4e6-1d2f8579f9d1"},"vehicle_type_id":"4","last_reported":1781310818,"current_range_meters":4800,"station_id":"ce4bhe12rcd13ifvqf30","pricing_plan_id":"cebpf4jnsgd1na2vs0mg"},{"bike_id":"48a1118a-f7e6-40e6-9008-e75804c90e76","system_id":"levelo_inurba_marseille","lat":43.24072,"lon":5.37765,"is_reserved":false,"is_disabled":false,"rental_uris":{"android":"levelo://app?vid=48a1118a-f7e6-40e6-9008-e75804c90e76","ios":"levelo://app?vid=48a1118a-f7e6-40e6-9008-e75804c90e76"},"vehicle_type_id":"4","last_reported":1781310818,"current_range_meters":4800,"station_id":"ce4bhnp2rcd13ifvqgvg","pricing_plan_id":"cebpf4jnsgd1na2vs0mg"},{"bike_id":"1345c154-16ee-4ed3-b4f1-947a1b328d12","system_id":"levelo_inurba_marseille","lat":43.26222,"lon":5.38775,"is_reserved":false,"is_disabled":false,"rental_uris":{"android":"levelo://app?vid=1345c154-16ee-4ed3-b4f1-947a1b328d12","ios":"levelo://app?vid=1345c154-16ee-4ed3-b4f1-947a1b328d12"},"vehicle_type_id":"4","last_reported":1781310818,"current_range_meters":4800,"station_id":"st_d8gjfg747rts73coq3b0","pricing_plan_id":"cebpf4jnsgd1na2vs0mg"},{"bike_id":"5ede7d61-6f6d-4ca5-a198-eff5a45e04ce","system_id":"levelo_inurba_marseille","lat":43.27068,"lon":5.38301,"is_reserved":false,"is_disabled":false,"rental_uris":{"android":"levelo://app?vid=5ede7d61-6f6d-4ca5-a198-eff5a45e04ce","ios":"levelo://app?vid=5ede7d61-6f6d-4ca5-a198-eff5a45e04ce"},"vehicle_type_id":"4","last_reported":1781310818,"current_range_meters":4800,"station_id":"st_d3n2fo6cfp8s73cte1j0","pricing_plan_id":"cebpf4jnsgd1na2vs0mg"},{"bike_id":"246ae3dc-a47d-4d5c-b55b-33a21570cec9","system_id":"levelo_inurba_marseille","lat":43.29563,"lon":5.40011,"is_reserved":false,"is_disabled":false,"rental_uris":{"android":"levelo://app?vid=246ae3dc-a47d-4d5c-b55b-33a21570cec9","ios":"levelo://app?vid=246ae3dc-a47d-4d5c-b55b-33a21570cec9"},"vehicle_type_id":"4","last_reported":1781310818,"current_range_meters":4800,"station_id":"ce4bh312rcd13ifvqdj0","pricing_plan_id":"cebpf4jnsgd1na2vs0mg"},{"bike_id":"a4b5c841-081f-4864-9ad4-e1c7a6e60416","system_id":"levelo_inurba_marseille","lat":43.23781,"lon":5.36615,"is_reserved":false,"is_disabled":true,"rental_uris":{"android":"levelo://app?vid=a4b5c841-081f-4864-9ad4-e1c7a6e60416","ios":"levelo://app?vid=a4b5c841-081f-4864-9ad4-e1c7a6e60416"},"vehicle_type_id":"4","last_reported":1781310818,"current_range_meters":4800,"station_id":"st_d3nk18o9ro0c73en2l3g","pricing_plan_id":"cebpf4jnsgd1na2vs0mg"},{"bike_id":"756be92d-af1c-49d9-ae9a-ff6fd4662f11","system_id":"levelo_inurba_marseille","lat":43.28756,"lon":5.39981,"is_reserved":false,"is_disabled":false,"rental_uris":{"android":"levelo://app?vid=756be92d-af1c-49d9-ae9a-ff6fd4662f11","ios":"levelo://app?vid=756be92d-af1c-49d9-ae9a-ff6fd4662f11"},"vehicle_type_id":"4","last_reported":1781310818,"current_range_meters":4800,"station_id":"ce4bho92rcd13ifvqh3g","pricing_plan_id":"cebpf4jnsgd1na2vs0mg"},{"bike_id":"ee494397-ad1c-4b5e-80ed-9cc6e888762d","system_id":"levelo_inurba_marseille","lat":43.319,"lon":5.42478,"is_reserved":false,"is_disabled":false,"rental_uris":{"android":"levelo://app?vid=ee494397-ad1c-4b5e-80ed-9cc6e888762d","ios":"levelo://app?vid=ee494397-ad1c-4b5e-80ed-9cc6e888762d"},"vehicle_type_id":"4","last_reported":1781310818,"current_range_meters":4800,"station_id":"","pricing_plan_id":"cebpf4jnsgd1na2vs0mg"},{"bike_id":"76ff20aa-c2bd-4fa2-8dca-7099f4d9bbe6","system_id":"levelo_inurba_marseille","lat":43.21159,"lon":5.35118,"is_reserved":false,"is_disabled":false,"rental_uris":{"android":"levelo://app?vid=76ff20aa-c2bd-4fa2-8dca-7099f4d9bbe6","ios":"levelo://app?vid=76ff20aa-c2bd-4fa2-8dca-7099f4d9bbe6"},"vehicle_type_id":"4","last_reported":1781310818,"current_range_meters":4800,"station_id":"st_cvj6sg6p6f1abm77japg","pricing_plan_id":"cebpf4jnsgd1na2vs0mg"},{"bike_id":"190298f8-155f-480c-805d-a9055da3c578","system_id":"levelo_inurba_marseille","lat":43.2919,"lon":5.39309,"is_reserved":false,"is_disabled":false,"rental_uris":{"android":"levelo://app?vid=190298f8-155f-480c-805d-a9055da3c578","ios":"levelo://app?vid=190298f8-155f-480c-805d-a9055da3c578"},"vehicle_type_id":"4","last_reported":1781310818,"current_range_meters":4800,"station_id":"ce4bh192rcd13ifvqdd0","pricing_plan_id":"cebpf4jnsgd1na2vs0mg"},{"bike_id":"4bbd9026-ac9b-4dc1-97ad-6610089734db","system_id":"levelo_inurba_marseille","lat":43.31532,"lon":5.38836,"is_reserved":false,"is_disabled":false,"rental_uris":{"android":"levelo://app?vid=4bbd9026-ac9b-4dc1-97ad-6610089734db","ios":"levelo://app?vid=4bbd9026-ac9b-4dc1-97ad-6610089734db"},"vehicle_type_id":"4","last_reported":1781310818,"current_range_meters":5600,"station_id":"","pricing_plan_id":"cebpf4jnsgd1na2vs0mg"},{"bike_id":"f7a00853-d0d2-4b3e-9319-84b1c278835c","system_id":"levelo_inurba_marseille","lat":43.29882,"lon":5.38888,"is_reserved":false,"is_disabled":false,"rental_uris":{"android":"levelo://app?vid=f7a00853-d0d2-4b3e-9319-84b1c278835c","ios":"levelo://app?vid=f7a00853-d0d2-4b3e-9319-84b1c278835c"},"vehicle_type_id":"4","last_reported":1781310818,"current_range_meters":5600,"station_id":"ce4bh392rcd13ifvqdl0","pricing_plan_id":"cebpf4jnsgd1na2vs0mg"},{"bike_id":"5868bc47-e30d-49b5-b51a-7a8a5eb4eb1b","system_id":"levelo_inurba_marseille","lat":43.3149,"lon":5.37292,"is_reserved":false,"is_disabled":false,"rental_uris":{"android":"levelo://app?vid=5868bc47-e30d-49b5-b51a-7a8a5eb4eb1b","ios":"levelo://app?vid=5868bc47-e30d-49b5-b51a-7a8a5eb4eb1b"},"vehicle_type_id":"4","last_reported":1781310818,"current_range_meters":5600,"station_id":"ce4bgt12rcd13ifvqcd0","pricing_plan_id":"cebpf4jnsgd1na2vs0mg"},{"bike_id":"ff9c0470-9736-4526-8384-50d1f6cff0a2","system_id":"levelo_inurba_marseille","lat":43.23891,"lon":5.37458,"is_reserved":false,"is_disabled":false,"rental_uris":{"android":"levelo://app?vid=ff9c0470-9736-4526-8384-50d1f6cff0a2","ios":"levelo://app?vid=ff9c0470-9736-4526-8384-50d1f6cff0a2"},"vehicle_type_id":"4","last_reported":1781310818,"current_range_meters":5600,"station_id":"st_d6sm7csbq4hs73f8fpjg","pricing_plan_id":"cebpf4jnsgd1na2vs0mg"},{"bike_id":"16f6a1af-6b24-4230-a397-afaf7aed42f8","system_id":"levelo_inurba_marseille","lat":43.30135,"lon":5.38075,"is_reserved":false,"is_disabled":false,"rental_uris":{"android":"levelo://app?vid=16f6a1af-6b24-4230-a397-afaf7aed42f8","ios":"levelo://app?vid=16f6a1af-6b24-4230-a397-afaf7aed42f8"},"vehicle_type_id":"4","last_reported":1781310818,"current_range_meters":5600,"station_id":"ce4bgjp2rcd13ifvqbh0","pricing_plan_id":"cebpf4jnsgd1na2vs0mg"},{"bike_id":"8549ed76-d067-4e8e-8122-bf5cc7918ab0","system_id":"levelo_inurba_marseille","lat":43.2782,"lon":5.40713,"is_reserved":false,"is_disabled":false,"rental_uris":{"android":"levelo://app?vid=8549ed76-d067-4e8e-8122-bf5cc7918ab0","ios":"levelo://app?vid=8549ed76-d067-4e8e-8122-bf5cc7918ab0"},"vehicle_type_id":"4","last_reported":1781310818,"current_range_meters":5600,"station_id":"ce4bhnh2rcd13ifvqgtg","pricing_plan_id":"cebpf4jnsgd1na2vs0mg"},{"bike_id":"ead19067-a25f-4489-92c0-fa90dbbbd4c6","system_id":"levelo_inurba_marseille","lat":43.29526,"lon":5.38542,"is_reserved":false,"is_disabled":false,"rental_uris":{"android":"levelo://app?vid=ead19067-a25f-4489-92c0-fa90dbbbd4c6","ios":"levelo://app?vid=ead19067-a25f-4489-92c0-fa90dbbbd4c6"},"vehicle_type_id":"4","last_reported":1781310818,"current_range_meters":5600,"station_id":"ce4bgih2rcd13ifvqba0","pricing_plan_id":"cebpf4jnsgd1na2vs0mg"},{"bike_id":"44a5ef51-d680-412c-83f6-10778670a0fe","system_id":"levelo_inurba_marseille","lat":43.24799,"lon":5.37462,"is_reserved":false,"is_disabled":false,"rental_uris":{"android":"levelo://app?vid=44a5ef51-d680-412c-83f6-10778670a0fe","ios":"levelo://app?vid=44a5ef51-d680-412c-83f6-10778670a0fe"},"vehicle_type_id":"4","last_reported":1781310818,"current_range_meters":5600,"station_id":"ce4bhgh2rcd13ifvqfb0","pricing_plan_id":"cebpf4jnsgd1na2vs0mg"},{"bike_id":"5fe816be-adb0-4ccc-a8a6-ac6bd0711409","system_id":"levelo_inurba_marseille","lat":43.24947,"lon":5.40494,"is_reserved":false,"is_disabled":false,"rental_uris":{"android":"levelo://app?vid=5fe816be-adb0-4ccc-a8a6-ac6bd0711409","ios":"levelo://app?vid=5fe816be-adb0-4ccc-a8a6-ac6bd0711409"},"vehicle_type_id":"4","last_reported":1781310818,"current_range_meters":5600,"station_id":"st_d2ngiaodas8pm72gd1h0","pricing_plan_id":"cebpf4jnsgd1na2vs0mg"},{"bike_id":"a318bc01-9889-445e-ad9e-b36118278119","system_id":"levelo_inurba_marseille","lat":43.28619,"lon":5.35109,"is_reserved":false,"is_disabled":true,"rental_uris":{"android":"levelo://app?vid=a318bc01-9889-445e-ad9e-b36118278119","ios":"levelo://app?vid=a318bc01-9889-445e-ad9e-b36118278119"},"vehicle_type_id":"4","last_reported":1781310818,"current_range_meters":5600,"station_id":"ce4bhch2rcd13ifvqeug","pricing_plan_id":"cebpf4jnsgd1na2vs0mg"},{"bike_id":"2b5fcc1a-df65-4a46-a663-ec673f17d621","system_id":"levelo_inurba_marseille","lat":43.286685,"lon":5.386724,"is_reserved":false,"is_disabled":false,"rental_uris":{"android":"levelo://app?vid=2b5fcc1a-df65-4a46-a663-ec673f17d621","ios":"levelo://app?vid=2b5fcc1a-df65-4a46-a663-ec673f17d621"},"vehicle_type_id":"4","last_reported":1781310818,"current_range_meters":5600,"station_id":"ce4bh492rcd13ifvqdug","pricing_plan_id":"cebpf4jnsgd1na2vs0mg"},{"bike_id":"a8c687f7-c110-425a-b698-2935ed58f0f5","system_id":"levelo_inurba_marseille","lat":43.28464,"lon":5.35884,"is_reserved":false,"is_disabled":false,"rental_uris":{"android":"levelo://app?vid=a8c687f7-c110-425a-b698-2935ed58f0f5","ios":"levelo://app?vid=a8c687f7-c110-425a-b698-2935ed58f0f5"},"vehicle_type_id":"4","last_reported":1781310818,"current_range_meters":5600,"station_id":"ce4bhah2rcd13ifvqei0","pricing_plan_id":"cebpf4jnsgd1na2vs0mg"},{"bike_id":"b154e503-5e6b-4b2c-aea8-7afe1c19122c","system_id":"levelo_inurba_marseille","lat":43.28098,"lon":5.42646,"is_reserved":false,"is_disabled":false,"rental_uris":{"android":"levelo://app?vid=b154e503-5e6b-4b2c-aea8-7afe1c19122c","ios":"levelo://app?vid=b154e503-5e6b-4b2c-aea8-7afe1c19122c"},"vehicle_type_id":"4","last_reported":1781310818,"current_range_meters":5600,"station_id":"","pricing_plan_id":"cebpf4jnsgd1na2vs0mg"},{"bike_id":"ff76b3a6-9291-4c73-966d-df7fa3bf9b47","system_id":"levelo_inurba_marseille","lat":43.28442,"lon":5.39198,"is_reserved":false,"is_disabled":false,"rental_uris":{"android":"levelo://app?vid=ff76b3a6-9291-4c73-966d-df7fa3bf9b47","ios":"levelo://app?vid=ff76b3a6-9291-4c73-966d-df7fa3bf9b47"},"vehicle_type_id":"4","last_reported":1781310818,"current_range_meters":5600,"station_id":"ce4bhoh2rcd13ifvqh5g","pricing_plan_id":"cebpf4jnsgd1na2vs0mg"},{"bike_id":"58e38786-a619-47c4-8493-e9a168bebca4","system_id":"levelo_inurba_marseille","lat":43.30115,"lon":5.38785,"is_reserved":false,"is_disabled":false,"rental_uris":{"android":"levelo://app?vid=58e38786-a619-47c4-8493-e9a168bebca4","ios":"levelo://app?vid=58e38786-a619-47c4-8493-e9a168bebca4"},"vehicle_type_id":"4","last_reported":1781310818,"current_range_meters":6000,"station_id":"ce4bghh2rcd13ifvqb60","pricing_plan_id":"cebpf4jnsgd1na2vs0mg"},{"bike_id":"ba9e662c-c195-4d37-b478-8ff41eecf68d","system_id":"levelo_inurba_marseille","lat":43.2945,"lon":5.39745,"is_reserved":false,"is_disabled":false,"rental_uris":{"android":"levelo://app?vid=ba9e662c-c195-4d37-b478-8ff41eecf68d","ios":"levelo://app?vid=ba9e662c-c195-4d37-b478-8ff41eecf68d"},"vehicle_type_id":"4","last_reported":1781310818,"current_range_meters":6000,"station_id":"ce4bh3h2rcd13ifvqdo0","pricing_plan_id":"cebpf4jnsgd1na2vs0mg"},{"bike_id":"d39db183-6bf7-420a-96f5-b25822544857","system_id":"levelo_inurba_marseille","lat":43.32336,"lon":5.36746,"is_reserved":false,"is_disabled":false,"rental_uris":{"android":"levelo://app?vid=d39db183-6bf7-420a-96f5-b25822544857","ios":"levelo://app?vid=d39db183-6bf7-420a-96f5-b25822544857"},"vehicle_type_id":"4","last_reported":1781310818,"current_range_meters":6000,"station_id":"ce4bhsh2rcd13ifvqi2g","pricing_plan_id":"cebpf4jnsgd1na2vs0mg"},{"bike_id":"230061da-db6c-4e60-aaec-ac7bd8df3baf","system_id":"levelo_inurba_marseille","lat":43.307918,"lon":5.38162,"is_reserved":false,"is_disabled":false,"rental_uris":{"android":"levelo://app?vid=230061da-db6c-4e60-aaec-ac7bd8df3baf","ios":"levelo://app?vid=230061da-db6c-4e60-aaec-ac7bd8df3baf"},"vehicle_type_id":"4","last_reported":1781310818,"current_range_meters":6000,"station_id":"ce4bgt12rcd13ifvqce0","pricing_plan_id":"cebpf4jnsgd1na2vs0mg"},{"bike_id":"ef95c250-9b06-45a5-a042-179938269e70","system_id":"levelo_inurba_marseille","lat":43.29195,"lon":5.39295,"is_reserved":false,"is_disabled":false,"rental_uris":{"android":"levelo://app?vid=ef95c250-9b06-45a5-a042-179938269e70","ios":"levelo://app?vid=ef95c250-9b06-45a5-a042-179938269e70"},"vehicle_type_id":"4","last_reported":1781310818,"current_range_meters":6000,"station_id":"ce4bh192rcd13ifvqdd0","pricing_plan_id":"cebpf4jnsgd1na2vs0mg"},{"bike_id":"1ca3a914-a55c-4637-a9ca-4ffd36fbecad","system_id":"levelo_inurba_marseille","lat":43.262214,"lon":5.387661,"is_reserved":false,"is_disabled":true,"rental_uris":{"android":"levelo://app?vid=1ca3a914-a55c-4637-a9ca-4ffd36fbecad","ios":"levelo://app?vid=1ca3a914-a55c-4637-a9ca-4ffd36fbecad"},"vehicle_type_id":"4","last_reported":1781310818,"current_range_meters":6000,"station_id":"st_d8gjfg747rts73coq3b0","pricing_plan_id":"cebpf4jnsgd1na2vs0mg"},{"bike_id":"6efeecbb-e546-4fe2-bf59-3437be745866","system_id":"levelo_inurba_marseille","lat":43.30928,"lon":5.4014,"is_reserved":false,"is_disabled":false,"rental_uris":{"android":"levelo://app?vid=6efeecbb-e546-4fe2-bf59-3437be745866","ios":"levelo://app?vid=6efeecbb-e546-4fe2-bf59-3437be745866"},"vehicle_type_id":"4","last_reported":1781310818,"current_range_meters":6000,"station_id":"ce4bgvp2rcd13ifvqct0","pricing_plan_id":"cebpf4jnsgd1na2vs0mg"},{"bike_id":"5ab25b28-e35d-4f10-9ca9-7d658cce4ea9","system_id":"levelo_inurba_marseille","lat":43.29017,"lon":5.38437,"is_reserved":false,"is_disabled":true,"rental_uris":{"android":"levelo://app?vid=5ab25b28-e35d-4f10-9ca9-7d658cce4ea9","ios":"levelo://app?vid=5ab25b28-e35d-4f10-9ca9-7d658cce4ea9"},"vehicle_type_id":"4","last_reported":1781310818,"current_range_meters":6000,"station_id":"","pricing_plan_id":"cebpf4jnsgd1na2vs0mg"},{"bike_id":"8afeb7a8-b686-4611-8220-2ade2d33c717","system_id":"levelo_inurba_marseille","lat":43.29605,"lon":5.37697,"is_reserved":false,"is_disabled":true,"rental_uris":{"android":"levelo://app?vid=8afeb7a8-b686-4611-8220-2ade2d33c717","ios":"levelo://app?vid=8afeb7a8-b686-4611-8220-2ade2d33c717"},"vehicle_type_id":"4","last_reported":1781310818,"current_range_meters":6000,"station_id":"ce4bgi92rcd13ifvqb90","pricing_plan_id":"cebpf4jnsgd1na2vs0mg"},{"bike_id":"7af5dc62-7a31-4d7c-a26c-927a2cb82321","system_id":"levelo_inurba_marseille","lat":43.32109,"lon":5.36763,"is_reserved":false,"is_disabled":false,"rental_uris":{"android":"levelo://app?vid=7af5dc62-7a31-4d7c-a26c-927a2cb82321","ios":"levelo://app?vid=7af5dc62-7a31-4d7c-a26c-927a2cb82321"},"vehicle_type_id":"4","last_reported":1781310818,"current_range_meters":6000,"station_id":"ce4bhrh2rcd13ifvqhug","pricing_plan_id":"cebpf4jnsgd1na2vs0mg"},{"bike_id":"9e36cfa1-09fe-4bd5-9827-624ec281fd82","system_id":"levelo_inurba_marseille","lat":43.26043,"lon":5.37556,"is_reserved":false,"is_disabled":false,"rental_uris":{"android":"levelo://app?vid=9e36cfa1-09fe-4bd5-9827-624ec281fd82","ios":"levelo://app?vid=9e36cfa1-09fe-4bd5-9827-624ec281fd82"},"vehicle_type_id":"4","last_reported":1781310818,"current_range_meters":6000,"station_id":"ce4bhgh2rcd13ifvqfa0","pricing_plan_id":"cebpf4jnsgd1na2vs0mg"},{"bike_id":"7717390a-9f55-4678-b2a5-ba0a73b8a548","system_id":"levelo_inurba_marseille","lat":43.31585,"lon":5.36966,"is_reserved":false,"is_disabled":false,"rental_uris":{"android":"levelo://app?vid=7717390a-9f55-4678-b2a5-ba0a73b8a548","ios":"levelo://app?vid=7717390a-9f55-4678-b2a5-ba0a73b8a548"},"vehicle_type_id":"4","last_reported":1781310818,"current_range_meters":6000,"station_id":"","pricing_plan_id":"cebpf4jnsgd1na2vs0mg"},{"bike_id":"3e6d8bd8-ecda-47bb-9209-82b012d7e98b","system_id":"levelo_inurba_marseille","lat":43.30928,"lon":5.4014,"is_reserved":false,"is_disabled":false,"rental_uris":{"android":"levelo://app?vid=3e6d8bd8-ecda-47bb-9209-82b012d7e98b","ios":"levelo://app?vid=3e6d8bd8-ecda-47bb-9209-82b012d7e98b"},"vehicle_type_id":"4","last_reported":1781310818,"current_range_meters":6000,"station_id":"ce4bgvp2rcd13ifvqct0","pricing_plan_id":"cebpf4jnsgd1na2vs0mg"},{"bike_id":"858f9e38-938a-40ca-b2a1-5ca11eac23b4","system_id":"levelo_inurba_marseille","lat":43.29212,"lon":5.39311,"is_reserved":false,"is_disabled":false,"rental_uris":{"android":"levelo://app?vid=858f9e38-938a-40ca-b2a1-5ca11eac23b4","ios":"levelo://app?vid=858f9e38-938a-40ca-b2a1-5ca11eac23b4"},"vehicle_type_id":"4","last_reported":1781310818,"current_range_meters":6000,"station_id":"ce4bh192rcd13ifvqdd0","pricing_plan_id":"cebpf4jnsgd1na2vs0mg"},{"bike_id":"67d79504-0563-4610-907f-80e12b8075dc","system_id":"levelo_inurba_marseille","lat":43.244,"lon":5.37082,"is_reserved":false,"is_disabled":false,"rental_uris":{"android":"levelo://app?vid=67d79504-0563-4610-907f-80e12b8075dc","ios":"levelo://app?vid=67d79504-0563-4610-907f-80e12b8075dc"},"vehicle_type_id":"4","last_reported":1781310818,"current_range_meters":6400,"station_id":"ce4bhhh2rcd13ifvqfk0","pricing_plan_id":"cebpf4jnsgd1na2vs0mg"},{"bike_id":"f4bd0ae9-9a5e-4f7b-b865-f24efdefb544","system_id":"levelo_inurba_marseille","lat":43.31181,"lon":5.38723,"is_reserved":false,"is_disabled":false,"rental_uris":{"android":"levelo://app?vid=f4bd0ae9-9a5e-4f7b-b865-f24efdefb544","ios":"levelo://app?vid=f4bd0ae9-9a5e-4f7b-b865-f24efdefb544"},"vehicle_type_id":"4","last_reported":1781310818,"current_range_meters":6400,"station_id":"","pricing_plan_id":"cebpf4jnsgd1na2vs0mg"},{"bike_id":"7c56fbf2-b06b-4ad4-bd6e-fb0ad9ba401c","system_id":"levelo_inurba_marseille","lat":43.2869,"lon":5.37961,"is_reserved":false,"is_disabled":true,"rental_uris":{"android":"levelo://app?vid=7c56fbf2-b06b-4ad4-bd6e-fb0ad9ba401c","ios":"levelo://app?vid=7c56fbf2-b06b-4ad4-bd6e-fb0ad9ba401c"},"vehicle_type_id":"4","last_reported":1781310818,"current_range_meters":6400,"station_id":"ce4bh9p2rcd13ifvqec0","pricing_plan_id":"cebpf4jnsgd1na2vs0mg"},{"bike_id":"f312a474-3688-43e4-8515-a784a5c48528","system_id":"levelo_inurba_marseille","lat":43.21192,"lon":5.35074,"is_reserved":false,"is_disabled":true,"rental_uris":{"android":"levelo://app?vid=f312a474-3688-43e4-8515-a784a5c48528","ios":"levelo://app?vid=f312a474-3688-43e4-8515-a784a5c48528"},"vehicle_type_id":"4","last_reported":1781310818,"current_range_meters":6400,"station_id":"st_cvj6sg6p6f1abm77japg","pricing_plan_id":"cebpf4jnsgd1na2vs0mg"},{"bike_id":"f75e1397-df03-4490-8426-06adfce3481e","system_id":"levelo_inurba_marseille","lat":43.30351,"lon":5.4188,"is_reserved":false,"is_disabled":false,"rental_uris":{"android":"levelo://app?vid=f75e1397-df03-4490-8426-06adfce3481e","ios":"levelo://app?vid=f75e1397-df03-4490-8426-06adfce3481e"},"vehicle_type_id":"4","last_reported":1781310818,"current_range_meters":6400,"station_id":"ce4bhop2rcd13ifvqh7g","pricing_plan_id":"cebpf4jnsgd1na2vs0mg"},{"bike_id":"925c1e70-5a7e-4c96-b774-c6af84642d7b","system_id":"levelo_inurba_marseille","lat":43.25126,"lon":5.40325,"is_reserved":false,"is_disabled":false,"rental_uris":{"android":"levelo://app?vid=925c1e70-5a7e-4c96-b774-c6af84642d7b","ios":"levelo://app?vid=925c1e70-5a7e-4c96-b774-c6af84642d7b"},"vehicle_type_id":"4","last_reported":1781310818,"current_range_meters":6400,"station_id":"ce4bhlh2rcd13ifvqgig","pricing_plan_id":"cebpf4jnsgd1na2vs0mg"},{"bike_id":"254c5a85-6bb8-49f9-b4e0-0e7c78d5df49","system_id":"levelo_inurba_marseille","lat":43.30874,"lon":5.39657,"is_reserved":false,"is_disabled":false,"rental_uris":{"android":"levelo://app?vid=254c5a85-6bb8-49f9-b4e0-0e7c78d5df49","ios":"levelo://app?vid=254c5a85-6bb8-49f9-b4e0-0e7c78d5df49"},"vehicle_type_id":"4","last_reported":1781310818,"current_range_meters":6400,"station_id":"ce4bh012rcd13ifvqcv0","pricing_plan_id":"cebpf4jnsgd1na2vs0mg"},{"bike_id":"2e8ce59b-b694-478c-936c-bb1374f707b7","system_id":"levelo_inurba_marseille","lat":43.28683,"lon":5.36351,"is_reserved":false,"is_disabled":false,"rental_uris":{"android":"levelo://app?vid=2e8ce59b-b694-478c-936c-bb1374f707b7","ios":"levelo://app?vid=2e8ce59b-b694-478c-936c-bb1374f707b7"},"vehicle_type_id":"4","last_reported":1781310818,"current_range_meters":6400,"station_id":"ce4bhah2rcd13ifvqej0","pricing_plan_id":"cebpf4jnsgd1na2vs0mg"},{"bike_id":"3c5a0376-a52f-4f93-a3fd-09042c6f5d13","system_id":"levelo_inurba_marseille","lat":43.23626,"lon":5.37746,"is_reserved":false,"is_disabled":false,"rental_uris":{"android":"levelo://app?vid=3c5a0376-a52f-4f93-a3fd-09042c6f5d13","ios":"levelo://app?vid=3c5a0376-a52f-4f93-a3fd-09042c6f5d13"},"vehicle_type_id":"4","last_reported":1781310818,"current_range_meters":6400,"station_id":"","pricing_plan_id":"cebpf4jnsgd1na2vs0mg"},{"bike_id":"a0d2ac5f-fff6-43f6-831d-dfa81e9c3981","system_id":"levelo_inurba_marseille","lat":43.29591,"lon":5.36419,"is_reserved":false,"is_disabled":false,"rental_uris":{"android":"levelo://app?vid=a0d2ac5f-fff6-43f6-831d-dfa81e9c3981","ios":"levelo://app?vid=a0d2ac5f-fff6-43f6-831d-dfa81e9c3981"},"vehicle_type_id":"4","last_reported":1781310818,"current_range_meters":6400,"station_id":"","pricing_plan_id":"cebpf4jnsgd1na2vs0mg"},{"bike_id":"3fdd1312-7e1e-4656-9740-ccf4e39a3cce","system_id":"levelo_inurba_marseille","lat":43.30154,"lon":5.38095,"is_reserved":false,"is_disabled":false,"rental_uris":{"android":"levelo://app?vid=3fdd1312-7e1e-4656-9740-ccf4e39a3cce","ios":"levelo://app?vid=3fdd1312-7e1e-4656-9740-ccf4e39a3cce"},"vehicle_type_id":"4","last_reported":1781310818,"current_range_meters":6400,"station_id":"ce4bgjp2rcd13ifvqbh0","pricing_plan_id":"cebpf4jnsgd1na2vs0mg"},{"bike_id":"e37613eb-2b80-45f6-8be7-6bbc2d17cf64","system_id":"levelo_inurba_marseille","lat":43.24811,"lon":5.37456,"is_reserved":false,"is_disabled":true,"rental_uris":{"android":"levelo://app?vid=e37613eb-2b80-45f6-8be7-6bbc2d17cf64","ios":"levelo://app?vid=e37613eb-2b80-45f6-8be7-6bbc2d17cf64"},"vehicle_type_id":"4","last_reported":1781310818,"current_range_meters":6400,"station_id":"ce4bhgh2rcd13ifvqfb0","pricing_plan_id":"cebpf4jnsgd1na2vs0mg"},{"bike_id":"2d65b860-94da-4574-a20f-82b65ca5f84b","system_id":"levelo_inurba_marseille","lat":43.22567,"lon":5.41634,"is_reserved":false,"is_disabled":false,"rental_uris":{"android":"levelo://app?vid=2d65b860-94da-4574-a20f-82b65ca5f84b","ios":"levelo://app?vid=2d65b860-94da-4574-a20f-82b65ca5f84b"},"vehicle_type_id":"4","last_reported":1781310818,"current_range_meters":6400,"station_id":"st_d2o4gvlbi1j2169b742g","pricing_plan_id":"cebpf4jnsgd1na2vs0mg"},{"bike_id":"f57ddc5d-b3ad-43f3-bbc4-226ea7be866d","system_id":"levelo_inurba_marseille","lat":43.29853,"lon":5.42272,"is_reserved":false,"is_disabled":false,"rental_uris":{"android":"levelo://app?vid=f57ddc5d-b3ad-43f3-bbc4-226ea7be866d","ios":"levelo://app?vid=f57ddc5d-b3ad-43f3-bbc4-226ea7be866d"},"vehicle_type_id":"4","last_reported":1781310818,"current_range_meters":6400,"station_id":"","pricing_plan_id":"cebpf4jnsgd1na2vs0mg"},{"bike_id":"567cba28-8825-400e-9759-026e2c132743","system_id":"levelo_inurba_marseille","lat":43.3088,"lon":5.37204,"is_reserved":false,"is_disabled":false,"rental_uris":{"android":"levelo://app?vid=567cba28-8825-400e-9759-026e2c132743","ios":"levelo://app?vid=567cba28-8825-400e-9759-026e2c132743"},"vehicle_type_id":"4","last_reported":1781310818,"current_range_meters":6400,"station_id":"ce4bguh2rcd13ifvqckg","pricing_plan_id":"cebpf4jnsgd1na2vs0mg"},{"bike_id":"fb2a1f7d-f7e9-4d12-bb3c-32e8cd55f82d","system_id":"levelo_inurba_marseille","lat":43.29068,"lon":5.4426,"is_reserved":false,"is_disabled":false,"rental_uris":{"android":"levelo://app?vid=fb2a1f7d-f7e9-4d12-bb3c-32e8cd55f82d","ios":"levelo://app?vid=fb2a1f7d-f7e9-4d12-bb3c-32e8cd55f82d"},"vehicle_type_id":"4","last_reported":1781310818,"current_range_meters":6400,"station_id":"","pricing_plan_id":"cebpf4jnsgd1na2vs0mg"},{"bike_id":"3cb9a99c-8475-44b5-a414-f58b937c5317","system_id":"levelo_inurba_marseille","lat":43.28501,"lon":5.35879,"is_reserved":false,"is_disabled":false,"rental_uris":{"android":"levelo://app?vid=3cb9a99c-8475-44b5-a414-f58b937c5317","ios":"levelo://app?vid=3cb9a99c-8475-44b5-a414-f58b937c5317"},"vehicle_type_id":"4","last_reported":1781310818,"current_range_meters":6400,"station_id":"","pricing_plan_id":"cebpf4jnsgd1na2vs0mg"},{"bike_id":"6823f9a2-8013-4e26-94c8-72b20fcbdb61","system_id":"levelo_inurba_marseille","lat":43.30325,"lon":5.4043,"is_reserved":false,"is_disabled":false,"rental_uris":{"android":"levelo://app?vid=6823f9a2-8013-4e26-94c8-72b20fcbdb61","ios":"levelo://app?vid=6823f9a2-8013-4e26-94c8-72b20fcbdb61"},"vehicle_type_id":"4","last_reported":1781310818,"current_range_meters":6400,"station_id":"ce4bh012rcd13ifvqd10","pricing_plan_id":"cebpf4jnsgd1na2vs0mg"},{"bike_id":"5bc93fa4-047c-40e2-94fd-52abf60188ac","system_id":"levelo_inurba_marseille","lat":43.25068,"lon":5.3949,"is_reserved":false,"is_disabled":false,"rental_uris":{"android":"levelo://app?vid=5bc93fa4-047c-40e2-94fd-52abf60188ac","ios":"levelo://app?vid=5bc93fa4-047c-40e2-94fd-52abf60188ac"},"vehicle_type_id":"4","last_reported":1781310818,"current_range_meters":6400,"station_id":"ce4bhm12rcd13ifvqgkg","pricing_plan_id":"cebpf4jnsgd1na2vs0mg"},{"bike_id":"29f89edd-ea47-4769-ba03-c94739969a4f","system_id":"levelo_inurba_marseille","lat":43.29392,"lon":5.40176,"is_reserved":false,"is_disabled":false,"rental_uris":{"android":"levelo://app?vid=29f89edd-ea47-4769-ba03-c94739969a4f","ios":"levelo://app?vid=29f89edd-ea47-4769-ba03-c94739969a4f"},"vehicle_type_id":"4","last_reported":1781310818,"current_range_meters":6400,"station_id":"","pricing_plan_id":"cebpf4jnsgd1na2vs0mg"},{"bike_id":"3999f077-e2f1-4df0-b37c-2be9b2484926","system_id":"levelo_inurba_marseille","lat":43.28466,"lon":5.35889,"is_reserved":false,"is_disabled":false,"rental_uris":{"android":"levelo://app?vid=3999f077-e2f1-4df0-b37c-2be9b2484926","ios":"levelo://app?vid=3999f077-e2f1-4df0-b37c-2be9b2484926"},"vehicle_type_id":"4","last_reported":1781310818,"current_range_meters":6400,"station_id":"ce4bhah2rcd13ifvqei0","pricing_plan_id":"cebpf4jnsgd1na2vs0mg"},{"bike_id":"11eab373-7d93-4bf9-ac55-040066b1b025","system_id":"levelo_inurba_marseille","lat":43.24171,"lon":5.39733,"is_reserved":false,"is_disabled":false,"rental_uris":{"android":"levelo://app?vid=11eab373-7d93-4bf9-ac55-040066b1b025","ios":"levelo://app?vid=11eab373-7d93-4bf9-ac55-040066b1b025"},"vehicle_type_id":"4","last_reported":1781310818,"current_range_meters":6400,"station_id":"ce4bhn12rcd13ifvqgpg","pricing_plan_id":"cebpf4jnsgd1na2vs0mg"},{"bike_id":"61b7a27c-4633-4433-8d95-fae8968731e7","system_id":"levelo_inurba_marseille","lat":43.27518,"lon":5.4156,"is_reserved":false,"is_disabled":false,"rental_uris":{"android":"levelo://app?vid=61b7a27c-4633-4433-8d95-fae8968731e7","ios":"levelo://app?vid=61b7a27c-4633-4433-8d95-fae8968731e7"},"vehicle_type_id":"4","last_reported":1781310818,"current_range_meters":6400,"station_id":"st_d6im8g6chgec73a5pndg","pricing_plan_id":"cebpf4jnsgd1na2vs0mg"},{"bike_id":"c40c4ead-d8dd-4ab4-8b7c-8c735c9c1613","system_id":"levelo_inurba_marseille","lat":43.31885,"lon":5.36813,"is_reserved":false,"is_disabled":false,"rental_uris":{"android":"levelo://app?vid=c40c4ead-d8dd-4ab4-8b7c-8c735c9c1613","ios":"levelo://app?vid=c40c4ead-d8dd-4ab4-8b7c-8c735c9c1613"},"vehicle_type_id":"4","last_reported":1781310818,"current_range_meters":6400,"station_id":"st_d6o2h0d0559c73evc1b0","pricing_plan_id":"cebpf4jnsgd1na2vs0mg"},{"bike_id":"45da2e15-63c6-484c-9189-3cbd6cd15476","system_id":"levelo_inurba_marseille","lat":43.2893,"lon":5.39615,"is_reserved":false,"is_disabled":false,"rental_uris":{"android":"levelo://app?vid=45da2e15-63c6-484c-9189-3cbd6cd15476","ios":"levelo://app?vid=45da2e15-63c6-484c-9189-3cbd6cd15476"},"vehicle_type_id":"4","last_reported":1781310818,"current_range_meters":6400,"station_id":"ce4bh3h2rcd13ifvqdn0","pricing_plan_id":"cebpf4jnsgd1na2vs0mg"},{"bike_id":"b13b703d-2d1b-47c4-a7b2-0027e92685e3","system_id":"levelo_inurba_marseille","lat":43.23158,"lon":5.43708,"is_reserved":false,"is_disabled":false,"rental_uris":{"android":"levelo://app?vid=b13b703d-2d1b-47c4-a7b2-0027e92685e3","ios":"levelo://app?vid=b13b703d-2d1b-47c4-a7b2-0027e92685e3"},"vehicle_type_id":"4","last_reported":1781310818,"current_range_meters":6400,"station_id":"ce4bhmp2rcd13ifvqgog","pricing_plan_id":"cebpf4jnsgd1na2vs0mg"},{"bike_id":"3ea61c54-5ae4-4ec5-8d1e-95c813254f6e","system_id":"levelo_inurba_marseille","lat":43.24467,"lon":5.42528,"is_reserved":false,"is_disabled":false,"rental_uris":{"android":"levelo://app?vid=3ea61c54-5ae4-4ec5-8d1e-95c813254f6e","ios":"levelo://app?vid=3ea61c54-5ae4-4ec5-8d1e-95c813254f6e"},"vehicle_type_id":"4","last_reported":1781310818,"current_range_meters":6400,"station_id":"st_d4a3vfp97mjs738cd8kg","pricing_plan_id":"cebpf4jnsgd1na2vs0mg"},{"bike_id":"a5e77653-46b7-42be-ae06-dd075d05a062","system_id":"levelo_inurba_marseille","lat":43.32477,"lon":5.36599,"is_reserved":false,"is_disabled":false,"rental_uris":{"android":"levelo://app?vid=a5e77653-46b7-42be-ae06-dd075d05a062","ios":"levelo://app?vid=a5e77653-46b7-42be-ae06-dd075d05a062"},"vehicle_type_id":"4","last_reported":1781310818,"current_range_meters":6800,"station_id":"ce4bhs12rcd13ifvqhvg","pricing_plan_id":"cebpf4jnsgd1na2vs0mg"},{"bike_id":"932afb10-d230-406f-a6e2-098fe36a2de4","system_id":"levelo_inurba_marseille","lat":43.25338,"lon":5.42172,"is_reserved":false,"is_disabled":false,"rental_uris":{"android":"levelo://app?vid=932afb10-d230-406f-a6e2-098fe36a2de4","ios":"levelo://app?vid=932afb10-d230-406f-a6e2-098fe36a2de4"},"vehicle_type_id":"4","last_reported":1781310818,"current_range_meters":6800,"station_id":"st_d2m65c5bi1j21697t3ng","pricing_plan_id":"cebpf4jnsgd1na2vs0mg"},{"bike_id":"7ec5ac6c-1ad1-484e-b1ac-0dd6240aeac8","system_id":"levelo_inurba_marseille","lat":43.32111,"lon":5.36777,"is_reserved":false,"is_disabled":false,"rental_uris":{"android":"levelo://app?vid=7ec5ac6c-1ad1-484e-b1ac-0dd6240aeac8","ios":"levelo://app?vid=7ec5ac6c-1ad1-484e-b1ac-0dd6240aeac8"},"vehicle_type_id":"4","last_reported":1781310818,"current_range_meters":6800,"station_id":"ce4bhrh2rcd13ifvqhug","pricing_plan_id":"cebpf4jnsgd1na2vs0mg"},{"bike_id":"c1e8e119-2908-4d9d-b95d-1b5ff3a9e5e3","system_id":"levelo_inurba_marseille","lat":43.24546,"lon":5.39529,"is_reserved":false,"is_disabled":false,"rental_uris":{"android":"levelo://app?vid=c1e8e119-2908-4d9d-b95d-1b5ff3a9e5e3","ios":"levelo://app?vid=c1e8e119-2908-4d9d-b95d-1b5ff3a9e5e3"},"vehicle_type_id":"4","last_reported":1781310818,"current_range_meters":6800,"station_id":"ce4bhlp2rcd13ifvqgjg","pricing_plan_id":"cebpf4jnsgd1na2vs0mg"},{"bike_id":"116e7e79-df73-459e-bb6d-922ab4ccb8bd","system_id":"levelo_inurba_marseille","lat":43.21169,"lon":5.3511,"is_reserved":false,"is_disabled":false,"rental_uris":{"android":"levelo://app?vid=116e7e79-df73-459e-bb6d-922ab4ccb8bd","ios":"levelo://app?vid=116e7e79-df73-459e-bb6d-922ab4ccb8bd"},"vehicle_type_id":"4","last_reported":1781310818,"current_range_meters":6800,"station_id":"st_cvj6sg6p6f1abm77japg","pricing_plan_id":"cebpf4jnsgd1na2vs0mg"},{"bike_id":"9cfbc086-b806-4f9a-85f1-a67e0e5e4f6c","system_id":"levelo_inurba_marseille","lat":43.29504,"lon":5.39409,"is_reserved":false,"is_disabled":false,"rental_uris":{"android":"levelo://app?vid=9cfbc086-b806-4f9a-85f1-a67e0e5e4f6c","ios":"levelo://app?vid=9cfbc086-b806-4f9a-85f1-a67e0e5e4f6c"},"vehicle_type_id":"4","last_reported":1781310818,"current_range_meters":6800,"station_id":"ce4bh292rcd13ifvqdf0","pricing_plan_id":"cebpf4jnsgd1na2vs0mg"},{"bike_id":"a90bbcb8-06c1-42c2-8c69-f41f53024121","system_id":"levelo_inurba_marseille","lat":43.31133,"lon":5.37775,"is_reserved":false,"is_disabled":false,"rental_uris":{"android":"levelo://app?vid=a90bbcb8-06c1-42c2-8c69-f41f53024121","ios":"levelo://app?vid=a90bbcb8-06c1-42c2-8c69-f41f53024121"},"vehicle_type_id":"4","last_reported":1781310818,"current_range_meters":6800,"station_id":"ce4bgt92rcd13ifvqcg0","pricing_plan_id":"cebpf4jnsgd1na2vs0mg"},{"bike_id":"61abc050-794c-43f3-96ae-15565612cd1b","system_id":"levelo_inurba_marseille","lat":43.28693,"lon":5.46673,"is_reserved":false,"is_disabled":false,"rental_uris":{"android":"levelo://app?vid=61abc050-794c-43f3-96ae-15565612cd1b","ios":"levelo://app?vid=61abc050-794c-43f3-96ae-15565612cd1b"},"vehicle_type_id":"4","last_reported":1781310818,"current_range_meters":6800,"station_id":"st_d6tc3vkotcvc738tfjhg","pricing_plan_id":"cebpf4jnsgd1na2vs0mg"},{"bike_id":"93ca94a7-4675-440c-8074-9bccb52052af","system_id":"levelo_inurba_marseille","lat":43.23961,"lon":5.36632,"is_reserved":false,"is_disabled":false,"rental_uris":{"android":"levelo://app?vid=93ca94a7-4675-440c-8074-9bccb52052af","ios":"levelo://app?vid=93ca94a7-4675-440c-8074-9bccb52052af"},"vehicle_type_id":"4","last_reported":1781310818,"current_range_meters":6800,"station_id":"ce4bhi12rcd13ifvqfp0","pricing_plan_id":"cebpf4jnsgd1na2vs0mg"},{"bike_id":"e128b65e-1a46-4b25-bad3-8ba661209936","system_id":"levelo_inurba_marseille","lat":43.29279,"lon":5.40136,"is_reserved":false,"is_disabled":false,"rental_uris":{"android":"levelo://app?vid=e128b65e-1a46-4b25-bad3-8ba661209936","ios":"levelo://app?vid=e128b65e-1a46-4b25-bad3-8ba661209936"},"vehicle_type_id":"4","last_reported":1781310818,"current_range_meters":6800,"station_id":"ce4bh312rcd13ifvqdk0","pricing_plan_id":"cebpf4jnsgd1na2vs0mg"},{"bike_id":"641f7e7c-96b1-4542-9c7d-7c36bcfd4993","system_id":"levelo_inurba_marseille","lat":43.28684,"lon":5.36349,"is_reserved":false,"is_disabled":false,"rental_uris":{"android":"levelo://app?vid=641f7e7c-96b1-4542-9c7d-7c36bcfd4993","ios":"levelo://app?vid=641f7e7c-96b1-4542-9c7d-7c36bcfd4993"},"vehicle_type_id":"4","last_reported":1781310818,"current_range_meters":6800,"station_id":"ce4bhah2rcd13ifvqej0","pricing_plan_id":"cebpf4jnsgd1na2vs0mg"},{"bike_id":"382516a2-b7cc-447c-b818-5986759b8735","system_id":"levelo_inurba_marseille","lat":43.30529,"lon":5.36714,"is_reserved":false,"is_disabled":false,"rental_uris":{"android":"levelo://app?vid=382516a2-b7cc-447c-b818-5986759b8735","ios":"levelo://app?vid=382516a2-b7cc-447c-b818-5986759b8735"},"vehicle_type_id":"4","last_reported":1781310818,"current_range_meters":6800,"station_id":"ce4bgrp2rcd13ifvqc9g","pricing_plan_id":"cebpf4jnsgd1na2vs0mg"},{"bike_id":"75a8d4bb-5b93-4cf3-8f56-e58ee660da96","system_id":"levelo_inurba_marseille","lat":43.24193,"lon":5.408,"is_reserved":false,"is_disabled":false,"rental_uris":{"android":"levelo://app?vid=75a8d4bb-5b93-4cf3-8f56-e58ee660da96","ios":"levelo://app?vid=75a8d4bb-5b93-4cf3-8f56-e58ee660da96"},"vehicle_type_id":"4","last_reported":1781310818,"current_range_meters":6800,"station_id":"","pricing_plan_id":"cebpf4jnsgd1na2vs0mg"},{"bike_id":"cf2ecc12-f863-46e8-a4d9-61a8831aafb1","system_id":"levelo_inurba_marseille","lat":43.28694,"lon":5.40007,"is_reserved":false,"is_disabled":false,"rental_uris":{"android":"levelo://app?vid=cf2ecc12-f863-46e8-a4d9-61a8831aafb1","ios":"levelo://app?vid=cf2ecc12-f863-46e8-a4d9-61a8831aafb1"},"vehicle_type_id":"4","last_reported":1781310818,"current_range_meters":6800,"station_id":"ce4bho92rcd13ifvqh3g","pricing_plan_id":"cebpf4jnsgd1na2vs0mg"},{"bike_id":"1fb31589-9c06-4d3c-8aa7-8e17f1618f2c","system_id":"levelo_inurba_marseille","lat":43.28857,"lon":5.4252,"is_reserved":false,"is_disabled":false,"rental_uris":{"android":"levelo://app?vid=1fb31589-9c06-4d3c-8aa7-8e17f1618f2c","ios":"levelo://app?vid=1fb31589-9c06-4d3c-8aa7-8e17f1618f2c"},"vehicle_type_id":"4","last_reported":1781310818,"current_range_meters":6800,"station_id":"st_d3b462108ojc7389ooeg","pricing_plan_id":"cebpf4jnsgd1na2vs0mg"},{"bike_id":"01974ce9-2ce7-4184-9698-03768bec9bb4","system_id":"levelo_inurba_marseille","lat":43.28677,"lon":5.46641,"is_reserved":false,"is_disabled":false,"rental_uris":{"android":"levelo://app?vid=01974ce9-2ce7-4184-9698-03768bec9bb4","ios":"levelo://app?vid=01974ce9-2ce7-4184-9698-03768bec9bb4"},"vehicle_type_id":"4","last_reported":1781310818,"current_range_meters":6800,"station_id":"st_d6tc3vkotcvc738tfjhg","pricing_plan_id":"cebpf4jnsgd1na2vs0mg"},{"bike_id":"aa5e46d9-0b78-4d46-8ce3-bb217dce7736","system_id":"levelo_inurba_marseille","lat":43.28604,"lon":5.39891,"is_reserved":false,"is_disabled":false,"rental_uris":{"android":"levelo://app?vid=aa5e46d9-0b78-4d46-8ce3-bb217dce7736","ios":"levelo://app?vid=aa5e46d9-0b78-4d46-8ce3-bb217dce7736"},"vehicle_type_id":"4","last_reported":1781310818,"current_range_meters":6800,"station_id":"st_d4a7ka997mjs738ck50g","pricing_plan_id":"cebpf4jnsgd1na2vs0mg"},{"bike_id":"051f88e0-4e5f-4e8b-b12b-757e976783e6","system_id":"levelo_inurba_marseille","lat":43.31908,"lon":5.36809,"is_reserved":false,"is_disabled":false,"rental_uris":{"android":"levelo://app?vid=051f88e0-4e5f-4e8b-b12b-757e976783e6","ios":"levelo://app?vid=051f88e0-4e5f-4e8b-b12b-757e976783e6"},"vehicle_type_id":"4","last_reported":1781310818,"current_range_meters":6800,"station_id":"st_d6o2h0d0559c73evc1b0","pricing_plan_id":"cebpf4jnsgd1na2vs0mg"},{"bike_id":"a48ddd59-740a-46d1-a488-52db0b6c8054","system_id":"levelo_inurba_marseille","lat":43.24163,"lon":5.39725,"is_reserved":false,"is_disabled":false,"rental_uris":{"android":"levelo://app?vid=a48ddd59-740a-46d1-a488-52db0b6c8054","ios":"levelo://app?vid=a48ddd59-740a-46d1-a488-52db0b6c8054"},"vehicle_type_id":"4","last_reported":1781310818,"current_range_meters":6800,"station_id":"ce4bhn12rcd13ifvqgpg","pricing_plan_id":"cebpf4jnsgd1na2vs0mg"},{"bike_id":"db8c5b68-a2ae-4ccd-8b82-df47b61ade41","system_id":"levelo_inurba_marseille","lat":43.24623,"lon":5.37996,"is_reserved":false,"is_disabled":false,"rental_uris":{"android":"levelo://app?vid=db8c5b68-a2ae-4ccd-8b82-df47b61ade41","ios":"levelo://app?vid=db8c5b68-a2ae-4ccd-8b82-df47b61ade41"},"vehicle_type_id":"4","last_reported":1781310818,"current_range_meters":6800,"station_id":"","pricing_plan_id":"cebpf4jnsgd1na2vs0mg"},{"bike_id":"dc8c31a5-8c85-464e-91d8-ea1cdf0fe35b","system_id":"levelo_inurba_marseille","lat":43.2869,"lon":5.37379,"is_reserved":false,"is_disabled":false,"rental_uris":{"android":"levelo://app?vid=dc8c31a5-8c85-464e-91d8-ea1cdf0fe35b","ios":"levelo://app?vid=dc8c31a5-8c85-464e-91d8-ea1cdf0fe35b"},"vehicle_type_id":"4","last_reported":1781310818,"current_range_meters":6800,"station_id":"ce4bh3p2rcd13ifvqdq0","pricing_plan_id":"cebpf4jnsgd1na2vs0mg"},{"bike_id":"9baebc47-9a21-445a-b575-5e8cc4ed7549","system_id":"levelo_inurba_marseille","lat":43.28481,"lon":5.48411,"is_reserved":false,"is_disabled":false,"rental_uris":{"android":"levelo://app?vid=9baebc47-9a21-445a-b575-5e8cc4ed7549","ios":"levelo://app?vid=9baebc47-9a21-445a-b575-5e8cc4ed7549"},"vehicle_type_id":"4","last_reported":1781310818,"current_range_meters":6800,"station_id":"st_d3svhcjqgbts73a3dn0g","pricing_plan_id":"cebpf4jnsgd1na2vs0mg"},{"bike_id":"cdaa4188-ec22-4134-8a24-557ae2e107d4","system_id":"levelo_inurba_marseille","lat":43.29024,"lon":5.38645,"is_reserved":false,"is_disabled":true,"rental_uris":{"android":"levelo://app?vid=cdaa4188-ec22-4134-8a24-557ae2e107d4","ios":"levelo://app?vid=cdaa4188-ec22-4134-8a24-557ae2e107d4"},"vehicle_type_id":"4","last_reported":1781310818,"current_range_meters":6800,"station_id":"ce4bh4p2rcd13ifvqe0g","pricing_plan_id":"cebpf4jnsgd1na2vs0mg"},{"bike_id":"6e4387d7-bd16-4a30-af78-71416e460c6d","system_id":"levelo_inurba_marseille","lat":43.30849,"lon":5.38414,"is_reserved":false,"is_disabled":false,"rental_uris":{"android":"levelo://app?vid=6e4387d7-bd16-4a30-af78-71416e460c6d","ios":"levelo://app?vid=6e4387d7-bd16-4a30-af78-71416e460c6d"},"vehicle_type_id":"4","last_reported":1781310818,"current_range_meters":6800,"station_id":"","pricing_plan_id":"cebpf4jnsgd1na2vs0mg"},{"bike_id":"c204c8ea-e90e-4d5e-9e5f-316b4c7758ae","system_id":"levelo_inurba_marseille","lat":43.30938,"lon":5.40134,"is_reserved":false,"is_disabled":false,"rental_uris":{"android":"levelo://app?vid=c204c8ea-e90e-4d5e-9e5f-316b4c7758ae","ios":"levelo://app?vid=c204c8ea-e90e-4d5e-9e5f-316b4c7758ae"},"vehicle_type_id":"4","last_reported":1781310818,"current_range_meters":6800,"station_id":"ce4bgvp2rcd13ifvqct0","pricing_plan_id":"cebpf4jnsgd1na2vs0mg"},{"bike_id":"eb3a5926-f5c9-43f8-8864-b29a578efbd9","system_id":"levelo_inurba_marseille","lat":43.24638,"lon":5.43144,"is_reserved":false,"is_disabled":false,"rental_uris":{"android":"levelo://app?vid=eb3a5926-f5c9-43f8-8864-b29a578efbd9","ios":"levelo://app?vid=eb3a5926-f5c9-43f8-8864-b29a578efbd9"},"vehicle_type_id":"4","last_reported":1781310818,"current_range_meters":6800,"station_id":"st_d2m6c4gdas8pm72e190g","pricing_plan_id":"cebpf4jnsgd1na2vs0mg"},{"bike_id":"ed1b8ea2-ecf3-46da-8352-26963074c835","system_id":"levelo_inurba_marseille","lat":43.24468,"lon":5.42553,"is_reserved":false,"is_disabled":false,"rental_uris":{"android":"levelo://app?vid=ed1b8ea2-ecf3-46da-8352-26963074c835","ios":"levelo://app?vid=ed1b8ea2-ecf3-46da-8352-26963074c835"},"vehicle_type_id":"4","last_reported":1781310818,"current_range_meters":6800,"station_id":"st_d4a3vfp97mjs738cd8kg","pricing_plan_id":"cebpf4jnsgd1na2vs0mg"},{"bike_id":"6a7afd93-57ec-47a1-be55-6cce2f341269","system_id":"levelo_inurba_marseille","lat":43.28464,"lon":5.35895,"is_reserved":false,"is_disabled":false,"rental_uris":{"android":"levelo://app?vid=6a7afd93-57ec-47a1-be55-6cce2f341269","ios":"levelo://app?vid=6a7afd93-57ec-47a1-be55-6cce2f341269"},"vehicle_type_id":"4","last_reported":1781310818,"current_range_meters":6800,"station_id":"ce4bhah2rcd13ifvqei0","pricing_plan_id":"cebpf4jnsgd1na2vs0mg"},{"bike_id":"9b3dd12b-1253-4c03-9cbb-820ea1a8b5d2","system_id":"levelo_inurba_marseille","lat":43.24804,"lon":5.37466,"is_reserved":false,"is_disabled":false,"rental_uris":{"android":"levelo://app?vid=9b3dd12b-1253-4c03-9cbb-820ea1a8b5d2","ios":"levelo://app?vid=9b3dd12b-1253-4c03-9cbb-820ea1a8b5d2"},"vehicle_type_id":"4","last_reported":1781310818,"current_range_meters":6800,"station_id":"ce4bhgh2rcd13ifvqfb0","pricing_plan_id":"cebpf4jnsgd1na2vs0mg"},{"bike_id":"ccef7772-8059-4e3a-88cf-a0002be85477","system_id":"levelo_inurba_marseille","lat":43.27949,"lon":5.41042,"is_reserved":false,"is_disabled":false,"rental_uris":{"android":"levelo://app?vid=ccef7772-8059-4e3a-88cf-a0002be85477","ios":"levelo://app?vid=ccef7772-8059-4e3a-88cf-a0002be85477"},"vehicle_type_id":"4","last_reported":1781310818,"current_range_meters":6800,"station_id":"ce4bhnp2rcd13ifvqh0g","pricing_plan_id":"cebpf4jnsgd1na2vs0mg"},{"bike_id":"78f96ec0-3651-40e0-9064-540398d155f5","system_id":"levelo_inurba_marseille","lat":43.24464,"lon":5.42559,"is_reserved":false,"is_disabled":false,"rental_uris":{"android":"levelo://app?vid=78f96ec0-3651-40e0-9064-540398d155f5","ios":"levelo://app?vid=78f96ec0-3651-40e0-9064-540398d155f5"},"vehicle_type_id":"4","last_reported":1781310818,"current_range_meters":6800,"station_id":"st_d4a3vfp97mjs738cd8kg","pricing_plan_id":"cebpf4jnsgd1na2vs0mg"},{"bike_id":"9f069751-295a-496b-b19c-281f4491a5fd","system_id":"levelo_inurba_marseille","lat":43.35049,"lon":5.35055,"is_reserved":false,"is_disabled":false,"rental_uris":{"android":"levelo://app?vid=9f069751-295a-496b-b19c-281f4491a5fd","ios":"levelo://app?vid=9f069751-295a-496b-b19c-281f4491a5fd"},"vehicle_type_id":"4","last_reported":1781310818,"current_range_meters":7200,"station_id":"","pricing_plan_id":"cebpf4jnsgd1na2vs0mg"},{"bike_id":"07c324e0-802f-4c76-b0d7-b4b21897a43b","system_id":"levelo_inurba_marseille","lat":43.2897,"lon":5.37847,"is_reserved":false,"is_disabled":false,"rental_uris":{"android":"levelo://app?vid=07c324e0-802f-4c76-b0d7-b4b21897a43b","ios":"levelo://app?vid=07c324e0-802f-4c76-b0d7-b4b21897a43b"},"vehicle_type_id":"4","last_reported":1781310818,"current_range_meters":7200,"station_id":"ce4bh9p2rcd13ifvqed0","pricing_plan_id":"cebpf4jnsgd1na2vs0mg"},{"bike_id":"b250cbdb-4d15-48f1-8d3b-9f0804befd16","system_id":"levelo_inurba_marseille","lat":43.2534,"lon":5.42157,"is_reserved":false,"is_disabled":false,"rental_uris":{"android":"levelo://app?vid=b250cbdb-4d15-48f1-8d3b-9f0804befd16","ios":"levelo://app?vid=b250cbdb-4d15-48f1-8d3b-9f0804befd16"},"vehicle_type_id":"4","last_reported":1781310818,"current_range_meters":7200,"station_id":"st_d2m65c5bi1j21697t3ng","pricing_plan_id":"cebpf4jnsgd1na2vs0mg"},{"bike_id":"db775758-d98c-416a-b7d1-5bd50c21d14d","system_id":"levelo_inurba_marseille","lat":43.30787,"lon":5.37646,"is_reserved":false,"is_disabled":false,"rental_uris":{"android":"levelo://app?vid=db775758-d98c-416a-b7d1-5bd50c21d14d","ios":"levelo://app?vid=db775758-d98c-416a-b7d1-5bd50c21d14d"},"vehicle_type_id":"4","last_reported":1781310818,"current_range_meters":7200,"station_id":"ce4bgv92rcd13ifvqcq0","pricing_plan_id":"cebpf4jnsgd1na2vs0mg"},{"bike_id":"44577758-9781-4e26-a98a-6f13509dbbf8","system_id":"levelo_inurba_marseille","lat":43.33726,"lon":5.39183,"is_reserved":false,"is_disabled":false,"rental_uris":{"android":"levelo://app?vid=44577758-9781-4e26-a98a-6f13509dbbf8","ios":"levelo://app?vid=44577758-9781-4e26-a98a-6f13509dbbf8"},"vehicle_type_id":"4","last_reported":1781310818,"current_range_meters":7200,"station_id":"ce4bhr92rcd13ifvqhsg","pricing_plan_id":"cebpf4jnsgd1na2vs0mg"},{"bike_id":"6a27404a-fd45-46ef-b0c6-d19df52b0472","system_id":"levelo_inurba_marseille","lat":43.3007,"lon":5.37781,"is_reserved":false,"is_disabled":false,"rental_uris":{"android":"levelo://app?vid=6a27404a-fd45-46ef-b0c6-d19df52b0472","ios":"levelo://app?vid=6a27404a-fd45-46ef-b0c6-d19df52b0472"},"vehicle_type_id":"4","last_reported":1781310818,"current_range_meters":7200,"station_id":"","pricing_plan_id":"cebpf4jnsgd1na2vs0mg"},{"bike_id":"d43d82bc-dd66-4ccb-ba98-7fe9c5e7c015","system_id":"levelo_inurba_marseille","lat":43.27203,"lon":5.39196,"is_reserved":false,"is_disabled":true,"rental_uris":{"android":"levelo://app?vid=d43d82bc-dd66-4ccb-ba98-7fe9c5e7c015","ios":"levelo://app?vid=d43d82bc-dd66-4ccb-ba98-7fe9c5e7c015"},"vehicle_type_id":"4","last_reported":1781310818,"current_range_meters":7200,"station_id":"ce4bhhp2rcd13ifvqfm0","pricing_plan_id":"cebpf4jnsgd1na2vs0mg"},{"bike_id":"a88c18f7-a05b-424b-a2e6-87c48e40dd60","system_id":"levelo_inurba_marseille","lat":43.23898,"lon":5.37462,"is_reserved":false,"is_disabled":true,"rental_uris":{"android":"levelo://app?vid=a88c18f7-a05b-424b-a2e6-87c48e40dd60","ios":"levelo://app?vid=a88c18f7-a05b-424b-a2e6-87c48e40dd60"},"vehicle_type_id":"4","last_reported":1781310818,"current_range_meters":7200,"station_id":"st_d6sm7csbq4hs73f8fpjg","pricing_plan_id":"cebpf4jnsgd1na2vs0mg"},{"bike_id":"b94500b0-c8e7-4697-a363-e6426899264d","system_id":"levelo_inurba_marseille","lat":43.26364,"lon":5.41053,"is_reserved":false,"is_disabled":false,"rental_uris":{"android":"levelo://app?vid=b94500b0-c8e7-4697-a363-e6426899264d","ios":"levelo://app?vid=b94500b0-c8e7-4697-a363-e6426899264d"},"vehicle_type_id":"4","last_reported":1781310818,"current_range_meters":7200,"station_id":"st_d4e5ca6na9uc73bfl5fg","pricing_plan_id":"cebpf4jnsgd1na2vs0mg"},{"bike_id":"8a9787a5-9a28-427a-a205-4aa9d9212c91","system_id":"levelo_inurba_marseille","lat":43.28816,"lon":5.35542,"is_reserved":false,"is_disabled":false,"rental_uris":{"android":"levelo://app?vid=8a9787a5-9a28-427a-a205-4aa9d9212c91","ios":"levelo://app?vid=8a9787a5-9a28-427a-a205-4aa9d9212c91"},"vehicle_type_id":"4","last_reported":1781310818,"current_range_meters":7200,"station_id":"","pricing_plan_id":"cebpf4jnsgd1na2vs0mg"},{"bike_id":"1bd36802-444b-47b8-b6d5-5854caf6a4a9","system_id":"levelo_inurba_marseille","lat":43.31507,"lon":5.37303,"is_reserved":false,"is_disabled":false,"rental_uris":{"android":"levelo://app?vid=1bd36802-444b-47b8-b6d5-5854caf6a4a9","ios":"levelo://app?vid=1bd36802-444b-47b8-b6d5-5854caf6a4a9"},"vehicle_type_id":"4","last_reported":1781310818,"current_range_meters":7200,"station_id":"ce4bgt12rcd13ifvqcd0","pricing_plan_id":"cebpf4jnsgd1na2vs0mg"},{"bike_id":"5fa0803f-a07a-4a76-ad02-b61eab93f34b","system_id":"levelo_inurba_marseille","lat":43.30371,"lon":5.42474,"is_reserved":false,"is_disabled":false,"rental_uris":{"android":"levelo://app?vid=5fa0803f-a07a-4a76-ad02-b61eab93f34b","ios":"levelo://app?vid=5fa0803f-a07a-4a76-ad02-b61eab93f34b"},"vehicle_type_id":"4","last_reported":1781310818,"current_range_meters":7200,"station_id":"ce4bhoh2rcd13ifvqh6g","pricing_plan_id":"cebpf4jnsgd1na2vs0mg"},{"bike_id":"66267d4d-bc82-4d4a-87c4-85620c8e7130","system_id":"levelo_inurba_marseille","lat":43.27912,"lon":5.39587,"is_reserved":false,"is_disabled":false,"rental_uris":{"android":"levelo://app?vid=66267d4d-bc82-4d4a-87c4-85620c8e7130","ios":"levelo://app?vid=66267d4d-bc82-4d4a-87c4-85620c8e7130"},"vehicle_type_id":"4","last_reported":1781310818,"current_range_meters":7200,"station_id":"ce4bhf92rcd13ifvqf40","pricing_plan_id":"cebpf4jnsgd1na2vs0mg"},{"bike_id":"3fecc821-51d5-4af9-a878-ef82294a97c4","system_id":"levelo_inurba_marseille","lat":43.28409,"lon":5.375,"is_reserved":false,"is_disabled":false,"rental_uris":{"android":"levelo://app?vid=3fecc821-51d5-4af9-a878-ef82294a97c4","ios":"levelo://app?vid=3fecc821-51d5-4af9-a878-ef82294a97c4"},"vehicle_type_id":"4","last_reported":1781310818,"current_range_meters":7200,"station_id":"ce4bh412rcd13ifvqds0","pricing_plan_id":"cebpf4jnsgd1na2vs0mg"},{"bike_id":"1f4cf7cf-98e2-40ce-8e0b-c74ae682295d","system_id":"levelo_inurba_marseille","lat":43.26241,"lon":5.38767,"is_reserved":false,"is_disabled":false,"rental_uris":{"android":"levelo://app?vid=1f4cf7cf-98e2-40ce-8e0b-c74ae682295d","ios":"levelo://app?vid=1f4cf7cf-98e2-40ce-8e0b-c74ae682295d"},"vehicle_type_id":"4","last_reported":1781310818,"current_range_meters":7200,"station_id":"st_d8gjfg747rts73coq3b0","pricing_plan_id":"cebpf4jnsgd1na2vs0mg"},{"bike_id":"0c3e00b0-1145-4a94-9a9d-eabaea8f21a5","system_id":"levelo_inurba_marseille","lat":43.29119,"lon":5.40103,"is_reserved":false,"is_disabled":false,"rental_uris":{"android":"levelo://app?vid=0c3e00b0-1145-4a94-9a9d-eabaea8f21a5","ios":"levelo://app?vid=0c3e00b0-1145-4a94-9a9d-eabaea8f21a5"},"vehicle_type_id":"4","last_reported":1781310818,"current_range_meters":7200,"station_id":"","pricing_plan_id":"cebpf4jnsgd1na2vs0mg"},{"bike_id":"4d77753f-2320-404c-93a2-094e7eff83c5","system_id":"levelo_inurba_marseille","lat":43.28704,"lon":5.37382,"is_reserved":false,"is_disabled":false,"rental_uris":{"android":"levelo://app?vid=4d77753f-2320-404c-93a2-094e7eff83c5","ios":"levelo://app?vid=4d77753f-2320-404c-93a2-094e7eff83c5"},"vehicle_type_id":"4","last_reported":1781310818,"current_range_meters":7200,"station_id":"ce4bh3p2rcd13ifvqdq0","pricing_plan_id":"cebpf4jnsgd1na2vs0mg"},{"bike_id":"f82d7e82-1304-4c4f-8694-78d8eec4f6cb","system_id":"levelo_inurba_marseille","lat":43.27832,"lon":5.39209,"is_reserved":false,"is_disabled":false,"rental_uris":{"android":"levelo://app?vid=f82d7e82-1304-4c4f-8694-78d8eec4f6cb","ios":"levelo://app?vid=f82d7e82-1304-4c4f-8694-78d8eec4f6cb"},"vehicle_type_id":"4","last_reported":1781310818,"current_range_meters":7200,"station_id":"ce4bhjp2rcd13ifvqga0","pricing_plan_id":"cebpf4jnsgd1na2vs0mg"},{"bike_id":"1fdd923e-e961-41f9-8f3c-11f5303c0850","system_id":"levelo_inurba_marseille","lat":43.287,"lon":5.37375,"is_reserved":false,"is_disabled":false,"rental_uris":{"android":"levelo://app?vid=1fdd923e-e961-41f9-8f3c-11f5303c0850","ios":"levelo://app?vid=1fdd923e-e961-41f9-8f3c-11f5303c0850"},"vehicle_type_id":"4","last_reported":1781310818,"current_range_meters":7200,"station_id":"ce4bh3p2rcd13ifvqdq0","pricing_plan_id":"cebpf4jnsgd1na2vs0mg"},{"bike_id":"292ba82b-0dab-46c1-b4a2-48a52268ff1c","system_id":"levelo_inurba_marseille","lat":43.26553,"lon":5.39015,"is_reserved":false,"is_disabled":true,"rental_uris":{"android":"levelo://app?vid=292ba82b-0dab-46c1-b4a2-48a52268ff1c","ios":"levelo://app?vid=292ba82b-0dab-46c1-b4a2-48a52268ff1c"},"vehicle_type_id":"4","last_reported":1781310818,"current_range_meters":7200,"station_id":"ce4bhe12rcd13ifvqf30","pricing_plan_id":"cebpf4jnsgd1na2vs0mg"},{"bike_id":"6238fcf5-9640-4daf-a7e9-dad5928f2be9","system_id":"levelo_inurba_marseille","lat":43.24822,"lon":5.37456,"is_reserved":false,"is_disabled":false,"rental_uris":{"android":"levelo://app?vid=6238fcf5-9640-4daf-a7e9-dad5928f2be9","ios":"levelo://app?vid=6238fcf5-9640-4daf-a7e9-dad5928f2be9"},"vehicle_type_id":"4","last_reported":1781310818,"current_range_meters":7200,"station_id":"ce4bhgh2rcd13ifvqfb0","pricing_plan_id":"cebpf4jnsgd1na2vs0mg"},{"bike_id":"b0e1c627-e366-414e-b921-4572a58307db","system_id":"levelo_inurba_marseille","lat":43.28593,"lon":5.35077,"is_reserved":false,"is_disabled":true,"rental_uris":{"android":"levelo://app?vid=b0e1c627-e366-414e-b921-4572a58307db","ios":"levelo://app?vid=b0e1c627-e366-414e-b921-4572a58307db"},"vehicle_type_id":"4","last_reported":1781310818,"current_range_meters":7200,"station_id":"ce4bhch2rcd13ifvqeug","pricing_plan_id":"cebpf4jnsgd1na2vs0mg"},{"bike_id":"eda98293-5c91-4dae-89c6-486a45b00f60","system_id":"levelo_inurba_marseille","lat":43.23271,"lon":5.4009,"is_reserved":false,"is_disabled":false,"rental_uris":{"android":"levelo://app?vid=eda98293-5c91-4dae-89c6-486a45b00f60","ios":"levelo://app?vid=eda98293-5c91-4dae-89c6-486a45b00f60"},"vehicle_type_id":"4","last_reported":1781310818,"current_range_meters":7200,"station_id":"","pricing_plan_id":"cebpf4jnsgd1na2vs0mg"},{"bike_id":"899fc967-7875-4bbe-9778-4c7d3ea1d62e","system_id":"levelo_inurba_marseille","lat":43.29102,"lon":5.38803,"is_reserved":false,"is_disabled":false,"rental_uris":{"android":"levelo://app?vid=899fc967-7875-4bbe-9778-4c7d3ea1d62e","ios":"levelo://app?vid=899fc967-7875-4bbe-9778-4c7d3ea1d62e"},"vehicle_type_id":"4","last_reported":1781310818,"current_range_meters":7200,"station_id":"","pricing_plan_id":"cebpf4jnsgd1na2vs0mg"},{"bike_id":"f2f41311-bb5c-4ea3-b093-81b210f508fb","system_id":"levelo_inurba_marseille","lat":43.32461,"lon":5.36557,"is_reserved":false,"is_disabled":false,"rental_uris":{"android":"levelo://app?vid=f2f41311-bb5c-4ea3-b093-81b210f508fb","ios":"levelo://app?vid=f2f41311-bb5c-4ea3-b093-81b210f508fb"},"vehicle_type_id":"4","last_reported":1781310818,"current_range_meters":7200,"station_id":"ce4bhs12rcd13ifvqhvg","pricing_plan_id":"cebpf4jnsgd1na2vs0mg"},{"bike_id":"b91d9fa1-4fec-403b-8038-57eb8aa275ac","system_id":"levelo_inurba_marseille","lat":43.24408,"lon":5.37054,"is_reserved":false,"is_disabled":false,"rental_uris":{"android":"levelo://app?vid=b91d9fa1-4fec-403b-8038-57eb8aa275ac","ios":"levelo://app?vid=b91d9fa1-4fec-403b-8038-57eb8aa275ac"},"vehicle_type_id":"4","last_reported":1781310818,"current_range_meters":7200,"station_id":"ce4bhhh2rcd13ifvqfk0","pricing_plan_id":"cebpf4jnsgd1na2vs0mg"},{"bike_id":"2f5a2eb1-a60a-4fe8-a5aa-002259731410","system_id":"levelo_inurba_marseille","lat":43.31028,"lon":5.37193,"is_reserved":false,"is_disabled":true,"rental_uris":{"android":"levelo://app?vid=2f5a2eb1-a60a-4fe8-a5aa-002259731410","ios":"levelo://app?vid=2f5a2eb1-a60a-4fe8-a5aa-002259731410"},"vehicle_type_id":"4","last_reported":1781310818,"current_range_meters":7200,"station_id":"st_d4kl2rp97mjs73e7tdfg","pricing_plan_id":"cebpf4jnsgd1na2vs0mg"},{"bike_id":"8150589d-aa57-493e-b46c-c7049ac03237","system_id":"levelo_inurba_marseille","lat":43.32486,"lon":5.39117,"is_reserved":false,"is_disabled":false,"rental_uris":{"android":"levelo://app?vid=8150589d-aa57-493e-b46c-c7049ac03237","ios":"levelo://app?vid=8150589d-aa57-493e-b46c-c7049ac03237"},"vehicle_type_id":"4","last_reported":1781310818,"current_range_meters":7200,"station_id":"","pricing_plan_id":"cebpf4jnsgd1na2vs0mg"},{"bike_id":"263da845-97bb-476a-b58b-c1db1ba25e78","system_id":"levelo_inurba_marseille","lat":43.28734,"lon":5.39959,"is_reserved":false,"is_disabled":false,"rental_uris":{"android":"levelo://app?vid=263da845-97bb-476a-b58b-c1db1ba25e78","ios":"levelo://app?vid=263da845-97bb-476a-b58b-c1db1ba25e78"},"vehicle_type_id":"4","last_reported":1781310818,"current_range_meters":7200,"station_id":"ce4bho92rcd13ifvqh3g","pricing_plan_id":"cebpf4jnsgd1na2vs0mg"},{"bike_id":"9e5dca86-cea8-4464-8ef4-356b17b3a843","system_id":"levelo_inurba_marseille","lat":43.28822,"lon":5.39328,"is_reserved":false,"is_disabled":false,"rental_uris":{"android":"levelo://app?vid=9e5dca86-cea8-4464-8ef4-356b17b3a843","ios":"levelo://app?vid=9e5dca86-cea8-4464-8ef4-356b17b3a843"},"vehicle_type_id":"4","last_reported":1781310818,"current_range_meters":7200,"station_id":"ce4bh2p2rcd13ifvqdi0","pricing_plan_id":"cebpf4jnsgd1na2vs0mg"},{"bike_id":"eda0da1b-1e21-4711-8a0b-2f4b083c116d","system_id":"levelo_inurba_marseille","lat":43.285,"lon":5.39575,"is_reserved":false,"is_disabled":false,"rental_uris":{"android":"levelo://app?vid=eda0da1b-1e21-4711-8a0b-2f4b083c116d","ios":"levelo://app?vid=eda0da1b-1e21-4711-8a0b-2f4b083c116d"},"vehicle_type_id":"4","last_reported":1781310818,"current_range_meters":8000,"station_id":"","pricing_plan_id":"cebpf4jnsgd1na2vs0mg"},{"bike_id":"b9d1843a-d85f-480b-9e0d-ac8e9afe5d9f","system_id":"levelo_inurba_marseille","lat":43.337444,"lon":5.374475,"is_reserved":false,"is_disabled":false,"rental_uris":{"android":"levelo://app?vid=b9d1843a-d85f-480b-9e0d-ac8e9afe5d9f","ios":"levelo://app?vid=b9d1843a-d85f-480b-9e0d-ac8e9afe5d9f"},"vehicle_type_id":"4","last_reported":1781310818,"current_range_meters":8000,"station_id":"","pricing_plan_id":"cebpf4jnsgd1na2vs0mg"},{"bike_id":"2d8a047b-0411-40fc-a69f-3169f78c4ee9","system_id":"levelo_inurba_marseille","lat":43.32353,"lon":5.36739,"is_reserved":false,"is_disabled":false,"rental_uris":{"android":"levelo://app?vid=2d8a047b-0411-40fc-a69f-3169f78c4ee9","ios":"levelo://app?vid=2d8a047b-0411-40fc-a69f-3169f78c4ee9"},"vehicle_type_id":"4","last_reported":1781310818,"current_range_meters":8000,"station_id":"ce4bhsh2rcd13ifvqi2g","pricing_plan_id":"cebpf4jnsgd1na2vs0mg"},{"bike_id":"98c0a183-7ee6-4b0b-b809-46c8824508e7","system_id":"levelo_inurba_marseille","lat":43.29593,"lon":5.41934,"is_reserved":false,"is_disabled":false,"rental_uris":{"android":"levelo://app?vid=98c0a183-7ee6-4b0b-b809-46c8824508e7","ios":"levelo://app?vid=98c0a183-7ee6-4b0b-b809-46c8824508e7"},"vehicle_type_id":"4","last_reported":1781310818,"current_range_meters":8000,"station_id":"","pricing_plan_id":"cebpf4jnsgd1na2vs0mg"},{"bike_id":"5b5ea2fb-3ba8-4c10-841c-ca34891a615c","system_id":"levelo_inurba_marseille","lat":43.29361,"lon":5.36359,"is_reserved":false,"is_disabled":false,"rental_uris":{"android":"levelo://app?vid=5b5ea2fb-3ba8-4c10-841c-ca34891a615c","ios":"levelo://app?vid=5b5ea2fb-3ba8-4c10-841c-ca34891a615c"},"vehicle_type_id":"4","last_reported":1781310818,"current_range_meters":8000,"station_id":"","pricing_plan_id":"cebpf4jnsgd1na2vs0mg"},{"bike_id":"a303e4db-b9ba-4d63-9eff-f7e5a8e536c2","system_id":"levelo_inurba_marseille","lat":43.28024,"lon":5.40898,"is_reserved":false,"is_disabled":false,"rental_uris":{"android":"levelo://app?vid=a303e4db-b9ba-4d63-9eff-f7e5a8e536c2","ios":"levelo://app?vid=a303e4db-b9ba-4d63-9eff-f7e5a8e536c2"},"vehicle_type_id":"4","last_reported":1781310818,"current_range_meters":8000,"station_id":"","pricing_plan_id":"cebpf4jnsgd1na2vs0mg"},{"bike_id":"b75b860e-f642-4d57-ae10-a57f8b9673f2","system_id":"levelo_inurba_marseille","lat":43.26217,"lon":5.38788,"is_reserved":false,"is_disabled":false,"rental_uris":{"android":"levelo://app?vid=b75b860e-f642-4d57-ae10-a57f8b9673f2","ios":"levelo://app?vid=b75b860e-f642-4d57-ae10-a57f8b9673f2"},"vehicle_type_id":"4","last_reported":1781310818,"current_range_meters":8000,"station_id":"st_d8gjfg747rts73coq3b0","pricing_plan_id":"cebpf4jnsgd1na2vs0mg"},{"bike_id":"3e0e61b2-028e-48c8-a21d-fe5880a99474","system_id":"levelo_inurba_marseille","lat":43.23968,"lon":5.36636,"is_reserved":false,"is_disabled":false,"rental_uris":{"android":"levelo://app?vid=3e0e61b2-028e-48c8-a21d-fe5880a99474","ios":"levelo://app?vid=3e0e61b2-028e-48c8-a21d-fe5880a99474"},"vehicle_type_id":"4","last_reported":1781310818,"current_range_meters":8000,"station_id":"ce4bhi12rcd13ifvqfp0","pricing_plan_id":"cebpf4jnsgd1na2vs0mg"},{"bike_id":"09d9c6f1-ccd6-4075-9a03-4634c196f8cd","system_id":"levelo_inurba_marseille","lat":43.24184,"lon":5.36398,"is_reserved":false,"is_disabled":true,"rental_uris":{"android":"levelo://app?vid=09d9c6f1-ccd6-4075-9a03-4634c196f8cd","ios":"levelo://app?vid=09d9c6f1-ccd6-4075-9a03-4634c196f8cd"},"vehicle_type_id":"4","last_reported":1781310818,"current_range_meters":8000,"station_id":"cpo36qri1sfpv3e86is0","pricing_plan_id":"cebpf4jnsgd1na2vs0mg"},{"bike_id":"e756caa5-ad44-425c-bc88-baef1adf01b9","system_id":"levelo_inurba_marseille","lat":43.2175,"lon":5.34603,"is_reserved":false,"is_disabled":false,"rental_uris":{"android":"levelo://app?vid=e756caa5-ad44-425c-bc88-baef1adf01b9","ios":"levelo://app?vid=e756caa5-ad44-425c-bc88-baef1adf01b9"},"vehicle_type_id":"4","last_reported":1781310818,"current_range_meters":8000,"station_id":"st_cvj6r9ubvosntc0bgbag","pricing_plan_id":"cebpf4jnsgd1na2vs0mg"},