{"last_updated":1723392544,"ttl":30,"version":"2.2","data":{"bikes":[{"bike_id":"a6efa690-d075-43e9-9b2b-35338be97c2c","system_id":"levelo_inurba_marseille","lat":43.312239,"lon":5.368562,"is_reserved":false,"is_disabled":false,"rental_uris":{"android":"levelo://app?vid=a6efa690-d075-43e9-9b2b-35338be97c2c","ios":"levelo://app?vid=a6efa690-d075-43e9-9b2b-35338be97c2c"},"vehicle_type_id":"4","last_reported":1723392544,"current_range_meters":24400,"station_id":"ce4bgl92rcd13ifvqbq0","pricing_plan_id":"cebpf4jnsgd1na2vs0mg"},{"bike_id":"0a0d1504-0816-45d1-a14b-7aedf3610e22","system_id":"levelo_inurba_marseille","lat":43.31472,"lon":5.37389,"is_reserved":false,"is_disabled":false,"rental_uris":{"android":"levelo://app?vid=0a0d1504-0816-45d1-a14b-7aedf3610e22","ios":"levelo://app?vid=0a0d1504-0816-45d1-a14b-7aedf3610e22"},"vehicle_type_id":"4","last_reported":1723392544,"current_range_meters":6000,"station_id":"","pricing_plan_id":"cebpf4jnsgd1na2vs0mg"},{"bike_id":"80f9f110-4ffc-4297-bf57-2bf2a710da39","system_id":"levelo_inurba_marseille","lat":43.319177,"lon":5.367857,"is_reserved":false,"is_disabled":false,"rental_uris":{"android":"levelo://app?vid=80f9f110-4ffc-4297-bf57-2bf2a710da39","ios":"levelo://app?vid=80f9f110-4ffc-4297-bf57-2bf2a710da39"},"vehicle_type_id":"4","last_reported":1723392544,"current_range_meters":12800,"station_id":"","pricing_plan_id":"cebpf4jnsgd1na2vs0mg"},{"bike_id":"357db71f-265e-4d8c-acaa-da3267c73e8f","system_id":"levelo_inurba_marseille","lat":43.305714,"lon":5.365633,"is_reserved":false,"is_disabled":false,"rental_uris":{"android":"levelo://app?vid=357db71f-265e-4d8c-acaa-da3267c73e8f","ios":"levelo://app?vid=357db71f-265e-4d8c-acaa-da3267c73e8f"},"vehicle_type_id":"4","last_reported":1723392544,"current_range_meters":0,"station_id":"ce4bgs12rcd13ifvqcag","pricing_plan_id":"cebpf4jnsgd1na2vs0mg"},{"bike_id":"8e2221a4-bcd3-462a-b97f-bc01568d144d","system_id":"levelo_inurba_marseille","lat":43.305989,"lon":5.37225,"is_reserved":false,"is_disabled":false,"rental_uris":{"android":"levelo://app?vid=8e2221a4-bcd3-462a-b97f-bc01568d144d","ios":"levelo://app?vid=8e2221a4-bcd3-462a-b97f-bc01568d144d"},"vehicle_type_id":"4","last_reported":1723392544,"current_range_meters":23200,"station_id":"ce4bgqh2rcd13ifvqc4g","pricing_plan_id":"cebpf4jnsgd1na2vs0mg"},{"bike_id":"6ed2b9f6-d173-44aa-96a3-14f5c7ed2dba","system_id":"levelo_inurba_marseille","lat":43.305989,"lon":5.37225,"is_reserved":false,"is_disabled":false,"rental_uris":{"android":"levelo://app?vid=6ed2b9f6-d173-44aa-96a3-14f5c7ed2dba","ios":"levelo://app?vid=6ed2b9f6-d173-44aa-96a3-14f5c7ed2dba"},"vehicle_type_id":"4","last_reported":1723392544,"current_range_meters":13200,"station_id":"ce4bgqh2rcd13ifvqc4g","pricing_plan_id":"cebpf4jnsgd1na2vs0mg"},{"bike_id":"9dc74615-d423-45c0-9367-fc1f94c1a8e3","system_id":"levelo_inurba_marseille","lat":43.30783,"lon":5.37647,"is_reserved":false,"is_disabled":false,"rental_uris":{"android":"levelo://app?vid=9dc74615-d423-45c0-9367-fc1f94c1a8e3","ios":"levelo://app?vid=9dc74615-d423-45c0-9367-fc1f94c1a8e3"},"vehicle_type_id":"4","last_reported":1723392544,"current_range_meters":800,"station_id":"ce4bgv92rcd13ifvqcq0","pricing_plan_id":"cebpf4jnsgd1na2vs0mg"},{"bike_id":"9b0599f3-ae77-4535-98e6-cad8b1260dea","system_id":"levelo_inurba_marseille","lat":43.301939,"lon":5.366286,"is_reserved":false,"is_disabled":false,"rental_uris":{"android":"levelo://app?vid=9b0599f3-ae77-4535-98e6-cad8b1260dea","ios":"levelo://app?vid=9b0599f3-ae77-4535-98e6-cad8b1260dea"},"vehicle_type_id":"4","last_reported":1723392544,"current_range_meters":22800,"station_id":"ce4bgrh2rcd13ifvqc8g","pricing_plan_id":"cebpf4jnsgd1na2vs0mg"},{"bike_id":"34515076-6584-49ec-9ab6-eea0af1a74f8","system_id":"levelo_inurba_marseille","lat":43.308012,"lon":5.381511,"is_reserved":false,"is_disabled":false,"rental_uris":{"android":"levelo://app?vid=34515076-6584-49ec-9ab6-eea0af1a74f8","ios":"levelo://app?vid=34515076-6584-49ec-9ab6-eea0af1a74f8"},"vehicle_type_id":"4","last_reported":1723392544,"current_range_meters":18400,"station_id":"ce4bgt12rcd13ifvqce0","pricing_plan_id":"cebpf4jnsgd1na2vs0mg"},{"bike_id":"10a374c3-8761-42ff-aeff-4058a38a558a","system_id":"levelo_inurba_marseille","lat":43.308012,"lon":5.381511,"is_reserved":false,"is_disabled":false,"rental_uris":{"android":"levelo://app?vid=10a374c3-8761-42ff-aeff-4058a38a558a","ios":"levelo://app?vid=10a374c3-8761-42ff-aeff-4058a38a558a"},"vehicle_type_id":"4","last_reported":1723392544,"current_range_meters":7600,"station_id":"ce4bgt12rcd13ifvqce0","pricing_plan_id":"cebpf4jnsgd1na2vs0mg"},{"bike_id":"de90276a-b973-44d0-9b56-ac13bb3ca2e1","system_id":"levelo_inurba_marseille","lat":43.308012,"lon":5.381511,"is_reserved":false,"is_disabled":false,"rental_uris":{"android":"levelo://app?vid=de90276a-b973-44d0-9b56-ac13bb3ca2e1","ios":"levelo://app?vid=de90276a-b973-44d0-9b56-ac13bb3ca2e1"},"vehicle_type_id":"4","last_reported":1723392544,"current_range_meters":14000,"station_id":"ce4bgt12rcd13ifvqce0","pricing_plan_id":"cebpf4jnsgd1na2vs0mg"},{"bike_id":"fd860e35-20e7-4aca-a4ff-2f46d4591ceb","system_id":"levelo_inurba_marseille","lat":43.308012,"lon":5.381511,"is_reserved":false,"is_disabled":false,"rental_uris":{"android":"levelo://app?vid=fd860e35-20e7-4aca-a4ff-2f46d4591ceb","ios":"levelo://app?vid=fd860e35-20e7-4aca-a4ff-2f46d4591ceb"},"vehicle_type_id":"4","last_reported":1723392544,"current_range_meters":2400,"station_id":"ce4bgt12rcd13ifvqce0","pricing_plan_id":"cebpf4jnsgd1na2vs0mg"},{"bike_id":"e8803a35-3852-43c9-b1f6-6e463b552c3f","system_id":"levelo_inurba_marseille","lat":43.304606,"lon":5.379026,"is_reserved":false,"is_disabled":false,"rental_uris":{"android":"levelo://app?vid=e8803a35-3852-43c9-b1f6-6e463b552c3f","ios":"levelo://app?vid=e8803a35-3852-43c9-b1f6-6e463b552c3f"},"vehicle_type_id":"4","last_reported":1723392544,"current_range_meters":28000,"station_id":"ce4bgup2rcd13ifvqcn0","pricing_plan_id":"cebpf4jnsgd1na2vs0mg"},{"bike_id":"081007f9-31dc-4b77-b8f2-8dffedab8808","system_id":"levelo_inurba_marseille","lat":43.324771,"lon":5.36557,"is_reserved":false,"is_disabled":false,"rental_uris":{"android":"levelo://app?vid=081007f9-31dc-4b77-b8f2-8dffedab8808","ios":"levelo://app?vid=081007f9-31dc-4b77-b8f2-8dffedab8808"},"vehicle_type_id":"4","last_reported":1723392544,"current_range_meters":16800,"station_id":"ce4bhs12rcd13ifvqhvg","pricing_plan_id":"cebpf4jnsgd1na2vs0mg"},{"bike_id":"6274f13f-6fa8-4269-aefd-7938f85eec7d","system_id":"levelo_inurba_marseille","lat":43.324816,"lon":5.3657,"is_reserved":false,"is_disabled":false,"rental_uris":{"android":"levelo://app?vid=6274f13f-6fa8-4269-aefd-7938f85eec7d","ios":"levelo://app?vid=6274f13f-6fa8-4269-aefd-7938f85eec7d"},"vehicle_type_id":"4","last_reported":1723392544,"current_range_meters":10400,"station_id":"ce4bhs12rcd13ifvqhvg","pricing_plan_id":"cebpf4jnsgd1na2vs0mg"},{"bike_id":"e808a47c-f1ab-49c8-9868-162ce164be9e","system_id":"levelo_inurba_marseille","lat":43.324771,"lon":5.36557,"is_reserved":false,"is_disabled":false,"rental_uris":{"android":"levelo://app?vid=e808a47c-f1ab-49c8-9868-162ce164be9e","ios":"levelo://app?vid=e808a47c-f1ab-49c8-9868-162ce164be9e"},"vehicle_type_id":"4","last_reported":1723392544,"current_range_meters":31600,"station_id":"ce4bhs12rcd13ifvqhvg","pricing_plan_id":"cebpf4jnsgd1na2vs0mg"},{"bike_id":"e5000063-db07-4064-adf1-e6b77f0e18ee","system_id":"levelo_inurba_marseille","lat":43.324771,"lon":5.36557,"is_reserved":false,"is_disabled":false,"rental_uris":{"android":"levelo://app?vid=e5000063-db07-4064-adf1-e6b77f0e18ee","ios":"levelo://app?vid=e5000063-db07-4064-adf1-e6b77f0e18ee"},"vehicle_type_id":"4","last_reported":1723392544,"current_range_meters":31600,"station_id":"ce4bhs12rcd13ifvqhvg","pricing_plan_id":"cebpf4jnsgd1na2vs0mg"},{"bike_id":"4bf5be37-0c95-48b4-b540-09fa58a1f6ed","system_id":"levelo_inurba_marseille","lat":43.324771,"lon":5.36557,"is_reserved":false,"is_disabled":false,"rental_uris":{"android":"levelo://app?vid=4bf5be37-0c95-48b4-b540-09fa58a1f6ed","ios":"levelo://app?vid=4bf5be37-0c95-48b4-b540-09fa58a1f6ed"},"vehicle_type_id":"4","last_reported":1723392544,"current_range_meters":28000,"station_id":"ce4bhs12rcd13ifvqhvg","pricing_plan_id":"cebpf4jnsgd1na2vs0mg"},{"bike_id":"19361ee9-48d5-412d-ac99-d0c97d7bccb4","system_id":"levelo_inurba_marseille","lat":43.324852,"lon":5.365646,"is_reserved":false,"is_disabled":false,"rental_uris":{"android":"levelo://app?vid=19361ee9-48d5-412d-ac99-d0c97d7bccb4","ios":"levelo://app?vid=19361ee9-48d5-412d-ac99-d0c97d7bccb4"},"vehicle_type_id":"4","last_reported":1723392544,"current_range_meters":24000,"station_id":"ce4bhs12rcd13ifvqhvg","pricing_plan_id":"cebpf4jnsgd1na2vs0mg"},{"bike_id":"75a43ee6-e251-4740-af8e-bff42a826b72","system_id":"levelo_inurba_marseille","lat":43.324771,"lon":5.36557,"is_reserved":false,"is_disabled":false,"rental_uris":{"android":"levelo://app?vid=75a43ee6-e251-4740-af8e-bff42a826b72","ios":"levelo://app?vid=75a43ee6-e251-4740-af8e-bff42a826b72"},"vehicle_type_id":"4","last_reported":1723392544,"current_range_meters":6800,"station_id":"ce4bhs12rcd13ifvqhvg","pricing_plan_id":"cebpf4jnsgd1na2vs0mg"},{"bike_id":"57e8995c-1fc9-4244-abcf-1bf85026f973","system_id":"levelo_inurba_marseille","lat":43.324864,"lon":5.365707,"is_reserved":false,"is_disabled":false,"rental_uris":{"android":"levelo://app?vid=57e8995c-1fc9-4244-abcf-1bf85026f973","ios":"levelo://app?vid=57e8995c-1fc9-4244-abcf-1bf85026f973"},"vehicle_type_id":"4","last_reported":1723392544,"current_range_meters":9600,"station_id":"ce4bhs12rcd13ifvqhvg","pricing_plan_id":"cebpf4jnsgd1na2vs0mg"},{"bike_id":"96833736-fc93-41f4-9f57-29abd38591b1","system_id":"levelo_inurba_marseille","lat":43.310804,"lon":5.38359,"is_reserved":false,"is_disabled":false,"rental_uris":{"android":"levelo://app?vid=96833736-fc93-41f4-9f57-29abd38591b1","ios":"levelo://app?vid=96833736-fc93-41f4-9f57-29abd38591b1"},"vehicle_type_id":"4","last_reported":1723392544,"current_range_meters":19200,"station_id":"ce4bgv92rcd13ifvqcr0","pricing_plan_id":"cebpf4jnsgd1na2vs0mg"},{"bike_id":"bfc67050-e6ac-48f9-a10e-fbc8c2066364","system_id":"levelo_inurba_marseille","lat":43.302784,"lon":5.377158,"is_reserved":false,"is_disabled":false,"rental_uris":{"android":"levelo://app?vid=bfc67050-e6ac-48f9-a10e-fbc8c2066364","ios":"levelo://app?vid=bfc67050-e6ac-48f9-a10e-fbc8c2066364"},"vehicle_type_id":"4","last_reported":1723392544,"current_range_meters":23200,"station_id":"ce4bguh2rcd13ifvqcj0","pricing_plan_id":"cebpf4jnsgd1na2vs0mg"},{"bike_id":"057ccf9f-39fa-445b-aa8c-1553727eb8e1","system_id":"levelo_inurba_marseille","lat":43.31994,"lon":5.38152,"is_reserved":false,"is_disabled":false,"rental_uris":{"android":"levelo://app?vid=057ccf9f-39fa-445b-aa8c-1553727eb8e1","ios":"levelo://app?vid=057ccf9f-39fa-445b-aa8c-1553727eb8e1"},"vehicle_type_id":"4","last_reported":1723392544,"current_range_meters":30400,"station_id":"ce4bhr12rcd13ifvqhpg","pricing_plan_id":"cebpf4jnsgd1na2vs0mg"},{"bike_id":"ff39d0c8-ba61-4ae1-abef-c721ee1fd9c8","system_id":"levelo_inurba_marseille","lat":43.313997,"lon":5.384644,"is_reserved":false,"is_disabled":false,"rental_uris":{"android":"levelo://app?vid=ff39d0c8-ba61-4ae1-abef-c721ee1fd9c8","ios":"levelo://app?vid=ff39d0c8-ba61-4ae1-abef-c721ee1fd9c8"},"vehicle_type_id":"4","last_reported":1723392544,"current_range_meters":8000,"station_id":"ce4bgt92rcd13ifvqcf0","pricing_plan_id":"cebpf4jnsgd1na2vs0mg"},{"bike_id":"023fb21d-ea79-4c7f-8755-51a4fa542c08","system_id":"levelo_inurba_marseille","lat":43.313571,"lon":5.384829,"is_reserved":false,"is_disabled":false,"rental_uris":{"android":"levelo://app?vid=023fb21d-ea79-4c7f-8755-51a4fa542c08","ios":"levelo://app?vid=023fb21d-ea79-4c7f-8755-51a4fa542c08"},"vehicle_type_id":"4","last_reported":1723392544,"current_range_meters":28800,"station_id":"ce4bgt92rcd13ifvqcf0","pricing_plan_id":"cebpf4jnsgd1na2vs0mg"},{"bike_id":"a021cc8c-a9c5-401a-b2d4-cc91035326fa","system_id":"levelo_inurba_marseille","lat":43.29851,"lon":5.36285,"is_reserved":false,"is_disabled":false,"rental_uris":{"android":"levelo://app?vid=a021cc8c-a9c5-401a-b2d4-cc91035326fa","ios":"levelo://app?vid=a021cc8c-a9c5-401a-b2d4-cc91035326fa"},"vehicle_type_id":"4","last_reported":1723392544,"current_range_meters":0,"station_id":"ce4bgpp2rcd13ifvqc3g","pricing_plan_id":"cebpf4jnsgd1na2vs0mg"},{"bike_id":"f849e93d-68a9-4d40-a736-3d0c5b5a2cb4","system_id":"levelo_inurba_marseille","lat":43.298433,"lon":5.362774,"is_reserved":false,"is_disabled":false,"rental_uris":{"android":"levelo://app?vid=f849e93d-68a9-4d40-a736-3d0c5b5a2cb4","ios":"levelo://app?vid=f849e93d-68a9-4d40-a736-3d0c5b5a2cb4"},"vehicle_type_id":"4","last_reported":1723392544,"current_range_meters":800,"station_id":"ce4bgpp2rcd13ifvqc3g","pricing_plan_id":"cebpf4jnsgd1na2vs0mg"},{"bike_id":"11e1be2a-63cd-4c61-a7e1-685fb334beb3","system_id":"levelo_inurba_marseille","lat":43.311722,"lon":5.387247,"is_reserved":false,"is_disabled":false,"rental_uris":{"android":"levelo://app?vid=11e1be2a-63cd-4c61-a7e1-685fb334beb3","ios":"levelo://app?vid=11e1be2a-63cd-4c61-a7e1-685fb334beb3"},"vehicle_type_id":"4","last_reported":1723392544,"current_range_meters":2000,"station_id":"ce4bgv12rcd13ifvqcp0","pricing_plan_id":"cebpf4jnsgd1na2vs0mg"},{"bike_id":"be4c0ea2-9589-49a3-a1c4-8574c535af5d","system_id":"levelo_inurba_marseille","lat":43.311722,"lon":5.387247,"is_reserved":false,"is_disabled":false,"rental_uris":{"android":"levelo://app?vid=be4c0ea2-9589-49a3-a1c4-8574c535af5d","ios":"levelo://app?vid=be4c0ea2-9589-49a3-a1c4-8574c535af5d"},"vehicle_type_id":"4","last_reported":1723392544,"current_range_meters":13600,"station_id":"ce4bgv12rcd13ifvqcp0","pricing_plan_id":"cebpf4jnsgd1na2vs0mg"},{"bike_id":"67398fdd-90b4-4b8c-91a6-88cd67f6faca","system_id":"levelo_inurba_marseille","lat":43.297774,"lon":5.370875,"is_reserved":false,"is_disabled":false,"rental_uris":{"android":"levelo://app?vid=67398fdd-90b4-4b8c-91a6-88cd67f6faca","ios":"levelo://app?vid=67398fdd-90b4-4b8c-91a6-88cd67f6faca"},"vehicle_type_id":"4","last_reported":1723392544,"current_range_meters":0,"station_id":"ce4bgop2rcd13ifvqc1g","pricing_plan_id":"cebpf4jnsgd1na2vs0mg"},{"bike_id":"77fa85f0-d993-4301-b7ed-38b06370819a","system_id":"levelo_inurba_marseille","lat":43.322872,"lon":5.382756,"is_reserved":false,"is_disabled":false,"rental_uris":{"android":"levelo://app?vid=77fa85f0-d993-4301-b7ed-38b06370819a","ios":"levelo://app?vid=77fa85f0-d993-4301-b7ed-38b06370819a"},"vehicle_type_id":"4","last_reported":1723392544,"current_range_meters":1200,"station_id":"ce4bhr12rcd13ifvqhqg","pricing_plan_id":"cebpf4jnsgd1na2vs0mg"},{"bike_id":"7a4cf4b7-cbae-4298-95dd-808bd8cb7ba7","system_id":"levelo_inurba_marseille","lat":43.322872,"lon":5.382756,"is_reserved":false,"is_disabled":false,"rental_uris":{"android":"levelo://app?vid=7a4cf4b7-cbae-4298-95dd-808bd8cb7ba7","ios":"levelo://app?vid=7a4cf4b7-cbae-4298-95dd-808bd8cb7ba7"},"vehicle_type_id":"4","last_reported":1723392544,"current_range_meters":22800,"station_id":"ce4bhr12rcd13ifvqhqg","pricing_plan_id":"cebpf4jnsgd1na2vs0mg"},{"bike_id":"1a308fda-724f-4330-ba27-ac1c82a8acbc","system_id":"levelo_inurba_marseille","lat":43.323426,"lon":5.382378,"is_reserved":false,"is_disabled":false,"rental_uris":{"android":"levelo://app?vid=1a308fda-724f-4330-ba27-ac1c82a8acbc","ios":"levelo://app?vid=1a308fda-724f-4330-ba27-ac1c82a8acbc"},"vehicle_type_id":"4","last_reported":1723392544,"current_range_meters":3600,"station_id":"","pricing_plan_id":"cebpf4jnsgd1na2vs0mg"},{"bike_id":"ed788100-5403-4e53-b131-ed76e6e22485","system_id":"levelo_inurba_marseille","lat":43.32202,"lon":5.38562,"is_reserved":false,"is_disabled":false,"rental_uris":{"android":"levelo://app?vid=ed788100-5403-4e53-b131-ed76e6e22485","ios":"levelo://app?vid=ed788100-5403-4e53-b131-ed76e6e22485"},"vehicle_type_id":"4","last_reported":1723392544,"current_range_meters":0,"station_id":"","pricing_plan_id":"cebpf4jnsgd1na2vs0mg"},{"bike_id":"fe6306bb-daf3-4f25-a771-1a31d6f73ccc","system_id":"levelo_inurba_marseille","lat":43.296131,"lon":5.370791,"is_reserved":false,"is_disabled":false,"rental_uris":{"android":"levelo://app?vid=fe6306bb-daf3-4f25-a771-1a31d6f73ccc","ios":"levelo://app?vid=fe6306bb-daf3-4f25-a771-1a31d6f73ccc"},"vehicle_type_id":"4","last_reported":1723392544,"current_range_meters":4800,"station_id":"ce4bgnh2rcd13ifvqc0g","pricing_plan_id":"cebpf4jnsgd1na2vs0mg"},{"bike_id":"c568f253-f437-40d7-91e0-8a0c20115011","system_id":"levelo_inurba_marseille","lat":43.323224,"lon":5.385124,"is_reserved":false,"is_disabled":false,"rental_uris":{"android":"levelo://app?vid=c568f253-f437-40d7-91e0-8a0c20115011","ios":"levelo://app?vid=c568f253-f437-40d7-91e0-8a0c20115011"},"vehicle_type_id":"4","last_reported":1723392544,"current_range_meters":13200,"station_id":"","pricing_plan_id":"cebpf4jnsgd1na2vs0mg"},{"bike_id":"4e095d59-69e3-4b37-8aef-13e36e4c478b","system_id":"levelo_inurba_marseille","lat":43.296921,"lon":5.376579,"is_reserved":false,"is_disabled":false,"rental_uris":{"android":"levelo://app?vid=4e095d59-69e3-4b37-8aef-13e36e4c478b","ios":"levelo://app?vid=4e095d59-69e3-4b37-8aef-13e36e4c478b"},"vehicle_type_id":"4","last_reported":1723392544,"current_range_meters":0,"station_id":"ce4bgkh2rcd13ifvqbl0","pricing_plan_id":"cebpf4jnsgd1na2vs0mg"},{"bike_id":"ea884fd0-1279-4cb4-8500-ff1d7f52c9a9","system_id":"levelo_inurba_marseille","lat":43.309589,"lon":5.390258,"is_reserved":false,"is_disabled":false,"rental_uris":{"android":"levelo://app?vid=ea884fd0-1279-4cb4-8500-ff1d7f52c9a9","ios":"levelo://app?vid=ea884fd0-1279-4cb4-8500-ff1d7f52c9a9"},"vehicle_type_id":"4","last_reported":1723392544,"current_range_meters":24000,"station_id":"ce4bgup2rcd13ifvqco0","pricing_plan_id":"cebpf4jnsgd1na2vs0mg"},{"bike_id":"7a5cc826-35b9-4b31-a8a8-4be8cb80fd07","system_id":"levelo_inurba_marseille","lat":43.309589,"lon":5.390258,"is_reserved":false,"is_disabled":false,"rental_uris":{"android":"levelo://app?vid=7a5cc826-35b9-4b31-a8a8-4be8cb80fd07","ios":"levelo://app?vid=7a5cc826-35b9-4b31-a8a8-4be8cb80fd07"},"vehicle_type_id":"4","last_reported":1723392544,"current_range_meters":4000,"station_id":"ce4bgup2rcd13ifvqco0","pricing_plan_id":"cebpf4jnsgd1na2vs0mg"},{"bike_id":"2c574271-7e72-4704-99f6-4eba49055d20","system_id":"levelo_inurba_marseille","lat":43.309589,"lon":5.390258,"is_reserved":false,"is_disabled":false,"rental_uris":{"android":"levelo://app?vid=2c574271-7e72-4704-99f6-4eba49055d20","ios":"levelo://app?vid=2c574271-7e72-4704-99f6-4eba49055d20"},"vehicle_type_id":"4","last_reported":1723392544,"current_range_meters":4800,"station_id":"ce4bgup2rcd13ifvqco0","pricing_plan_id":"cebpf4jnsgd1na2vs0mg"},{"bike_id":"131e2421-fd83-4bc0-9ac2-f80944490ee6","system_id":"levelo_inurba_marseille","lat":43.309589,"lon":5.390258,"is_reserved":false,"is_disabled":false,"rental_uris":{"android":"levelo://app?vid=131e2421-fd83-4bc0-9ac2-f80944490ee6","ios":"levelo://app?vid=131e2421-fd83-4bc0-9ac2-f80944490ee6"},"vehicle_type_id":"4","last_reported":1723392544,"current_range_meters":19200,"station_id":"ce4bgup2rcd13ifvqco0","pricing_plan_id":"cebpf4jnsgd1na2vs0mg"},{"bike_id":"b3dcbc26-4d59-4f94-b18c-ad6779f71da6","system_id":"levelo_inurba_marseille","lat":43.3176,"lon":5.39013,"is_reserved":false,"is_disabled":false,"rental_uris":{"android":"levelo://app?vid=b3dcbc26-4d59-4f94-b18c-ad6779f71da6","ios":"levelo://app?vid=b3dcbc26-4d59-4f94-b18c-ad6779f71da6"},"vehicle_type_id":"4","last_reported":1723392544,"current_range_meters":28000,"station_id":"ce4bhqp2rcd13ifvqhng","pricing_plan_id":"cebpf4jnsgd1na2vs0mg"},{"bike_id":"e1259cf0-5315-4a28-8c0a-7a4a8874d815","system_id":"levelo_inurba_marseille","lat":43.29584,"lon":5.37499,"is_reserved":false,"is_disabled":false,"rental_uris":{"android":"levelo://app?vid=e1259cf0-5315-4a28-8c0a-7a4a8874d815","ios":"levelo://app?vid=e1259cf0-5315-4a28-8c0a-7a4a8874d815"},"vehicle_type_id":"4","last_reported":1723392544,"current_range_meters":24000,"station_id":"ce4bgh92rcd13ifvqb50","pricing_plan_id":"cebpf4jnsgd1na2vs0mg"},{"bike_id":"a5687976-c1a9-4983-98b7-2ef535bba2dc","system_id":"levelo_inurba_marseille","lat":43.295748,"lon":5.37522,"is_reserved":false,"is_disabled":false,"rental_uris":{"android":"levelo://app?vid=a5687976-c1a9-4983-98b7-2ef535bba2dc","ios":"levelo://app?vid=a5687976-c1a9-4983-98b7-2ef535bba2dc"},"vehicle_type_id":"4","last_reported":1723392544,"current_range_meters":22800,"station_id":"ce4bgh92rcd13ifvqb50","pricing_plan_id":"cebpf4jnsgd1na2vs0mg"},{"bike_id":"72c33b6d-d270-47d6-b838-00538618dd9d","system_id":"levelo_inurba_marseille","lat":43.295279,"lon":5.375048,"is_reserved":false,"is_disabled":false,"rental_uris":{"android":"levelo://app?vid=72c33b6d-d270-47d6-b838-00538618dd9d","ios":"levelo://app?vid=72c33b6d-d270-47d6-b838-00538618dd9d"},"vehicle_type_id":"4","last_reported":1723392544,"current_range_meters":0,"station_id":"ce4bgkp2rcd13ifvqbmg","pricing_plan_id":"cebpf4jnsgd1na2vs0mg"},{"bike_id":"77192461-172c-4d40-8ca2-f5aa19dcb034","system_id":"levelo_inurba_marseille","lat":43.330477,"lon":5.35871,"is_reserved":false,"is_disabled":false,"rental_uris":{"android":"levelo://app?vid=77192461-172c-4d40-8ca2-f5aa19dcb034","ios":"levelo://app?vid=77192461-172c-4d40-8ca2-f5aa19dcb034"},"vehicle_type_id":"4","last_reported":1723392544,"current_range_meters":10800,"station_id":"","pricing_plan_id":"cebpf4jnsgd1na2vs0mg"},{"bike_id":"d570398b-1f5d-4784-8af0-7b6605886013","system_id":"levelo_inurba_marseille","lat":43.2963,"lon":5.38054,"is_reserved":false,"is_disabled":false,"rental_uris":{"android":"levelo://app?vid=d570398b-1f5d-4784-8af0-7b6605886013","ios":"levelo://app?vid=d570398b-1f5d-4784-8af0-7b6605886013"},"vehicle_type_id":"4","last_reported":1723392544,"current_range_meters":24800,"station_id":"","pricing_plan_id":"cebpf4jnsgd1na2vs0mg"},{"bike_id":"4df4010f-8efd-4818-a321-22f8ae9fdbab","system_id":"levelo_inurba_marseille","lat":43.29602,"lon":5.381084,"is_reserved":false,"is_disabled":false,"rental_uris":{"android":"levelo://app?vid=4df4010f-8efd-4818-a321-22f8ae9fdbab","ios":"levelo://app?vid=4df4010f-8efd-4818-a321-22f8ae9fdbab"},"vehicle_type_id":"4","last_reported":1723392544,"current_range_meters":7200,"station_id":"ce4bgl12rcd13ifvqbo0","pricing_plan_id":"cebpf4jnsgd1na2vs0mg"},{"bike_id":"01ed8253-84b6-4043-8e07-a71772044701","system_id":"levelo_inurba_marseille","lat":43.293259,"lon":5.371586,"is_reserved":false,"is_disabled":false,"rental_uris":{"android":"levelo://app?vid=01ed8253-84b6-4043-8e07-a71772044701","ios":"levelo://app?vid=01ed8253-84b6-4043-8e07-a71772044701"},"vehicle_type_id":"4","last_reported":1723392544,"current_range_meters":30000,"station_id":"ce4bgh92rcd13ifvqb40","pricing_plan_id":"cebpf4jnsgd1na2vs0mg"},{"bike_id":"a4e6d708-667d-488d-ac98-dd2b2a234211","system_id":"levelo_inurba_marseille","lat":43.293249,"lon":5.371578,"is_reserved":false,"is_disabled":false,"rental_uris":{"android":"levelo://app?vid=a4e6d708-667d-488d-ac98-dd2b2a234211","ios":"levelo://app?vid=a4e6d708-667d-488d-ac98-dd2b2a234211"},"vehicle_type_id":"4","last_reported":1723392544,"current_range_meters":3600,"station_id":"ce4bgh92rcd13ifvqb40","pricing_plan_id":"cebpf4jnsgd1na2vs0mg"},{"bike_id":"0860502f-4154-4cbe-9722-ee510d0169d4","system_id":"levelo_inurba_marseille","lat":43.293259,"lon":5.371586,"is_reserved":false,"is_disabled":false,"rental_uris":{"android":"levelo://app?vid=0860502f-4154-4cbe-9722-ee510d0169d4","ios":"levelo://app?vid=0860502f-4154-4cbe-9722-ee510d0169d4"},"vehicle_type_id":"4","last_reported":1723392544,"current_range_meters":4800,"station_id":"ce4bgh92rcd13ifvqb40","pricing_plan_id":"cebpf4jnsgd1na2vs0mg"},{"bike_id":"155d0e87-9ad5-4c5b-aee3-3be494427ea6","system_id":"levelo_inurba_marseille","lat":43.293259,"lon":5.371586,"is_reserved":false,"is_disabled":false,"rental_uris":{"android":"levelo://app?vid=155d0e87-9ad5-4c5b-aee3-3be494427ea6","ios":"levelo://app?vid=155d0e87-9ad5-4c5b-aee3-3be494427ea6"},"vehicle_type_id":"4","last_reported":1723392544,"current_range_meters":4400,"station_id":"ce4bgh92rcd13ifvqb40","pricing_plan_id":"cebpf4jnsgd1na2vs0mg"},{"bike_id":"396da3e3-a34d-4a39-9f0f-60a55941031f","system_id":"levelo_inurba_marseille","lat":43.29306,"lon":5.37453,"is_reserved":false,"is_disabled":false,"rental_uris":{"android":"levelo://app?vid=396da3e3-a34d-4a39-9f0f-60a55941031f","ios":"levelo://app?vid=396da3e3-a34d-4a39-9f0f-60a55941031f"},"vehicle_type_id":"4","last_reported":1723392544,"current_range_meters":26800,"station_id":"ce4bgi12rcd13ifvqb70","pricing_plan_id":"cebpf4jnsgd1na2vs0mg"},{"bike_id":"a11dcb88-b8dd-45da-85a7-ea16932b4e18","system_id":"levelo_inurba_marseille","lat":43.305994,"lon":5.393687,"is_reserved":false,"is_disabled":false,"rental_uris":{"android":"levelo://app?vid=a11dcb88-b8dd-45da-85a7-ea16932b4e18","ios":"levelo://app?vid=a11dcb88-b8dd-45da-85a7-ea16932b4e18"},"vehicle_type_id":"4","last_reported":1723392544,"current_range_meters":4800,"station_id":"ce4bh0p2rcd13ifvqd80","pricing_plan_id":"cebpf4jnsgd1na2vs0mg"},{"bike_id":"8d37495d-9961-45f8-ba67-ee81725ae3ae","system_id":"levelo_inurba_marseille","lat":43.29228,"lon":5.36363,"is_reserved":false,"is_disabled":false,"rental_uris":{"android":"levelo://app?vid=8d37495d-9961-45f8-ba67-ee81725ae3ae","ios":"levelo://app?vid=8d37495d-9961-45f8-ba67-ee81725ae3ae"},"vehicle_type_id":"4","last_reported":1723392544,"current_range_meters":4800,"station_id":"","pricing_plan_id":"cebpf4jnsgd1na2vs0mg"},{"bike_id":"ded76622-ccad-4cf6-9932-d3ae3bf2c86b","system_id":"levelo_inurba_marseille","lat":43.293009,"lon":5.374584,"is_reserved":false,"is_disabled":false,"rental_uris":{"android":"levelo://app?vid=ded76622-ccad-4cf6-9932-d3ae3bf2c86b","ios":"levelo://app?vid=ded76622-ccad-4cf6-9932-d3ae3bf2c86b"},"vehicle_type_id":"4","last_reported":1723392544,"current_range_meters":6800,"station_id":"ce4bgi12rcd13ifvqb70","pricing_plan_id":"cebpf4jnsgd1na2vs0mg"},{"bike_id":"75a13690-9b0b-4ed3-9758-ba5f84d1f84f","system_id":"levelo_inurba_marseille","lat":43.292311,"lon":5.360731,"is_reserved":false,"is_disabled":false,"rental_uris":{"android":"levelo://app?vid=75a13690-9b0b-4ed3-9758-ba5f84d1f84f","ios":"levelo://app?vid=75a13690-9b0b-4ed3-9758-ba5f84d1f84f"},"vehicle_type_id":"4","last_reported":1723392544,"current_range_meters":10000,"station_id":"ce4bhbh2rcd13ifvqeqg","pricing_plan_id":"cebpf4jnsgd1na2vs0mg"},{"bike_id":"575c8f27-1337-4c33-9540-0bf9af1568b1","system_id":"levelo_inurba_marseille","lat":43.292117,"lon":5.36055,"is_reserved":false,"is_disabled":false,"rental_uris":{"android":"levelo://app?vid=575c8f27-1337-4c33-9540-0bf9af1568b1","ios":"levelo://app?vid=575c8f27-1337-4c33-9540-0bf9af1568b1"},"vehicle_type_id":"4","last_reported":1723392544,"current_range_meters":27600,"station_id":"ce4bhbh2rcd13ifvqeqg","pricing_plan_id":"cebpf4jnsgd1na2vs0mg"},{"bike_id":"8669c215-f64f-4991-918a-38e605b47e3d","system_id":"levelo_inurba_marseille","lat":43.29291,"lon":5.35553,"is_reserved":false,"is_disabled":false,"rental_uris":{"android":"levelo://app?vid=8669c215-f64f-4991-918a-38e605b47e3d","ios":"levelo://app?vid=8669c215-f64f-4991-918a-38e605b47e3d"},"vehicle_type_id":"4","last_reported":1723392544,"current_range_meters":2400,"station_id":"","pricing_plan_id":"cebpf4jnsgd1na2vs0mg"},{"bike_id":"26c76689-6b1f-4e17-a0df-99abf64ff57f","system_id":"levelo_inurba_marseille","lat":43.292005,"lon":5.357875,"is_reserved":false,"is_disabled":false,"rental_uris":{"android":"levelo://app?vid=26c76689-6b1f-4e17-a0df-99abf64ff57f","ios":"levelo://app?vid=26c76689-6b1f-4e17-a0df-99abf64ff57f"},"vehicle_type_id":"4","last_reported":1723392544,"current_range_meters":0,"station_id":"ce4bhb12rcd13ifvqel0","pricing_plan_id":"cebpf4jnsgd1na2vs0mg"},{"bike_id":"9d4b68a5-c93f-4844-a235-5ff4a055b660","system_id":"levelo_inurba_marseille","lat":43.292385,"lon":5.37767,"is_reserved":false,"is_disabled":false,"rental_uris":{"android":"levelo://app?vid=9d4b68a5-c93f-4844-a235-5ff4a055b660","ios":"levelo://app?vid=9d4b68a5-c93f-4844-a235-5ff4a055b660"},"vehicle_type_id":"4","last_reported":1723392544,"current_range_meters":7600,"station_id":"","pricing_plan_id":"cebpf4jnsgd1na2vs0mg"},{"bike_id":"93a10018-59b8-4e2e-a4cb-34eceaff167e","system_id":"levelo_inurba_marseille","lat":43.29187,"lon":5.35801,"is_reserved":false,"is_disabled":false,"rental_uris":{"android":"levelo://app?vid=93a10018-59b8-4e2e-a4cb-34eceaff167e","ios":"levelo://app?vid=93a10018-59b8-4e2e-a4cb-34eceaff167e"},"vehicle_type_id":"4","last_reported":1723392544,"current_range_meters":21200,"station_id":"ce4bhb12rcd13ifvqel0","pricing_plan_id":"cebpf4jnsgd1na2vs0mg"},{"bike_id":"97b7a944-a4f2-48ce-b4a9-93e405d37a08","system_id":"levelo_inurba_marseille","lat":43.29529,"lon":5.385581,"is_reserved":false,"is_disabled":false,"rental_uris":{"android":"levelo://app?vid=97b7a944-a4f2-48ce-b4a9-93e405d37a08","ios":"levelo://app?vid=97b7a944-a4f2-48ce-b4a9-93e405d37a08"},"vehicle_type_id":"4","last_reported":1723392544,"current_range_meters":1600,"station_id":"ce4bgih2rcd13ifvqba0","pricing_plan_id":"cebpf4jnsgd1na2vs0mg"},{"bike_id":"da72e1c6-be4a-4103-8b46-eda17dfee657","system_id":"levelo_inurba_marseille","lat":43.29529,"lon":5.385581,"is_reserved":false,"is_disabled":false,"rental_uris":{"android":"levelo://app?vid=da72e1c6-be4a-4103-8b46-eda17dfee657","ios":"levelo://app?vid=da72e1c6-be4a-4103-8b46-eda17dfee657"},"vehicle_type_id":"4","last_reported":1723392544,"current_range_meters":0,"station_id":"ce4bgih2rcd13ifvqba0","pricing_plan_id":"cebpf4jnsgd1na2vs0mg"},{"bike_id":"5e42ff82-5c37-4ed7-8492-08d7e203e122","system_id":"levelo_inurba_marseille","lat":43.290779,"lon":5.371482,"is_reserved":false,"is_disabled":false,"rental_uris":{"android":"levelo://app?vid=5e42ff82-5c37-4ed7-8492-08d7e203e122","ios":"levelo://app?vid=5e42ff82-5c37-4ed7-8492-08d7e203e122"},"vehicle_type_id":"4","last_reported":1723392544,"current_range_meters":6000,"station_id":"ce4bh5p2rcd13ifvqe4g","pricing_plan_id":"cebpf4jnsgd1na2vs0mg"},{"bike_id":"f487b378-cf2d-4387-b118-1081f1938911","system_id":"levelo_inurba_marseille","lat":43.2929,"lon":5.38248,"is_reserved":false,"is_disabled":false,"rental_uris":{"android":"levelo://app?vid=f487b378-cf2d-4387-b118-1081f1938911","ios":"levelo://app?vid=f487b378-cf2d-4387-b118-1081f1938911"},"vehicle_type_id":"4","last_reported":1723392544,"current_range_meters":800,"station_id":"","pricing_plan_id":"cebpf4jnsgd1na2vs0mg"},{"bike_id":"f63dd493-ebbf-4b48-a019-d4b8a0c70d29","system_id":"levelo_inurba_marseille","lat":43.289468,"lon":5.363719,"is_reserved":false,"is_disabled":false,"rental_uris":{"android":"levelo://app?vid=f63dd493-ebbf-4b48-a019-d4b8a0c70d29","ios":"levelo://app?vid=f63dd493-ebbf-4b48-a019-d4b8a0c70d29"},"vehicle_type_id":"4","last_reported":1723392544,"current_range_meters":800,"station_id":"ce4bhc92rcd13ifvqetg","pricing_plan_id":"cebpf4jnsgd1na2vs0mg"},{"bike_id":"f8b0e07f-83ee-4afc-805c-bd50a98ba6b0","system_id":"levelo_inurba_marseille","lat":43.28931,"lon":5.36633,"is_reserved":false,"is_disabled":false,"rental_uris":{"android":"levelo://app?vid=f8b0e07f-83ee-4afc-805c-bd50a98ba6b0","ios":"levelo://app?vid=f8b0e07f-83ee-4afc-805c-bd50a98ba6b0"},"vehicle_type_id":"4","last_reported":1723392544,"current_range_meters":5200,"station_id":"ce4bhap2rcd13ifvqek0","pricing_plan_id":"cebpf4jnsgd1na2vs0mg"},{"bike_id":"83c2a4f1-868f-460e-b405-3c17be4f9699","system_id":"levelo_inurba_marseille","lat":43.289468,"lon":5.363719,"is_reserved":false,"is_disabled":false,"rental_uris":{"android":"levelo://app?vid=83c2a4f1-868f-460e-b405-3c17be4f9699","ios":"levelo://app?vid=83c2a4f1-868f-460e-b405-3c17be4f9699"},"vehicle_type_id":"4","last_reported":1723392544,"current_range_meters":18000,"station_id":"ce4bhc92rcd13ifvqetg","pricing_plan_id":"cebpf4jnsgd1na2vs0mg"},{"bike_id":"7b56ea57-1200-4d5d-abf8-480f7cbdcb13","system_id":"levelo_inurba_marseille","lat":43.292642,"lon":5.384254,"is_reserved":false,"is_disabled":false,"rental_uris":{"android":"levelo://app?vid=7b56ea57-1200-4d5d-abf8-480f7cbdcb13","ios":"levelo://app?vid=7b56ea57-1200-4d5d-abf8-480f7cbdcb13"},"vehicle_type_id":"4","last_reported":1723392544,"current_range_meters":5200,"station_id":"ce4bh692rcd13ifvqea0","pricing_plan_id":"cebpf4jnsgd1na2vs0mg"},{"bike_id":"4d873f96-c65d-4e83-ad81-13316172632d","system_id":"levelo_inurba_marseille","lat":43.292644,"lon":5.384257,"is_reserved":false,"is_disabled":false,"rental_uris":{"android":"levelo://app?vid=4d873f96-c65d-4e83-ad81-13316172632d","ios":"levelo://app?vid=4d873f96-c65d-4e83-ad81-13316172632d"},"vehicle_type_id":"4","last_reported":1723392544,"current_range_meters":9200,"station_id":"ce4bh692rcd13ifvqea0","pricing_plan_id":"cebpf4jnsgd1na2vs0mg"},{"bike_id":"eef5ecc0-c7c2-4b27-bcd6-14a8dd18867e","system_id":"levelo_inurba_marseille","lat":43.292642,"lon":5.384254,"is_reserved":false,"is_disabled":false,"rental_uris":{"android":"levelo://app?vid=eef5ecc0-c7c2-4b27-bcd6-14a8dd18867e","ios":"levelo://app?vid=eef5ecc0-c7c2-4b27-bcd6-14a8dd18867e"},"vehicle_type_id":"4","last_reported":1723392544,"current_range_meters":2000,"station_id":"ce4bh692rcd13ifvqea0","pricing_plan_id":"cebpf4jnsgd1na2vs0mg"},{"bike_id":"9129ed28-3039-47b6-a901-e287a78c8843","system_id":"levelo_inurba_marseille","lat":43.292644,"lon":5.384257,"is_reserved":false,"is_disabled":false,"rental_uris":{"android":"levelo://app?vid=9129ed28-3039-47b6-a901-e287a78c8843","ios":"levelo://app?vid=9129ed28-3039-47b6-a901-e287a78c8843"},"vehicle_type_id":"4","last_reported":1723392544,"current_range_meters":7200,"station_id":"ce4bh692rcd13ifvqea0","pricing_plan_id":"cebpf4jnsgd1na2vs0mg"},{"bike_id":"3820c2c2-1b21-450b-a77e-d3d9aa3b58a4","system_id":"levelo_inurba_marseille","lat":43.292644,"lon":5.384257,"is_reserved":false,"is_disabled":false,"rental_uris":{"android":"levelo://app?vid=3820c2c2-1b21-450b-a77e-d3d9aa3b58a4","ios":"levelo://app?vid=3820c2c2-1b21-450b-a77e-d3d9aa3b58a4"},"vehicle_type_id":"4","last_reported":1723392544,"current_range_meters":4800,"station_id":"ce4bh692rcd13ifvqea0","pricing_plan_id":"cebpf4jnsgd1na2vs0mg"},{"bike_id":"7d259e43-5534-4130-9bf5-6db39db7b116","system_id":"levelo_inurba_marseille","lat":43.292642,"lon":5.384254,"is_reserved":false,"is_disabled":false,"rental_uris":{"android":"levelo://app?vid=7d259e43-5534-4130-9bf5-6db39db7b116","ios":"levelo://app?vid=7d259e43-5534-4130-9bf5-6db39db7b116"},"vehicle_type_id":"4","last_reported":1723392544,"current_range_meters":13600,"station_id":"ce4bh692rcd13ifvqea0","pricing_plan_id":"cebpf4jnsgd1na2vs0mg"},{"bike_id":"6cc4c5db-cfa7-41db-84b2-49c574a28adb","system_id":"levelo_inurba_marseille","lat":43.290103,"lon":5.356114,"is_reserved":false,"is_disabled":false,"rental_uris":{"android":"levelo://app?vid=6cc4c5db-cfa7-41db-84b2-49c574a28adb","ios":"levelo://app?vid=6cc4c5db-cfa7-41db-84b2-49c574a28adb"},"vehicle_type_id":"4","last_reported":1723392544,"current_range_meters":26000,"station_id":"ce4bhb92rcd13ifvqen0","pricing_plan_id":"cebpf4jnsgd1na2vs0mg"},{"bike_id":"d95aa384-566e-4fd2-a909-6301f9faade0","system_id":"levelo_inurba_marseille","lat":43.295169,"lon":5.390426,"is_reserved":false,"is_disabled":false,"rental_uris":{"android":"levelo://app?vid=d95aa384-566e-4fd2-a909-6301f9faade0","ios":"levelo://app?vid=d95aa384-566e-4fd2-a909-6301f9faade0"},"vehicle_type_id":"4","last_reported":1723392544,"current_range_meters":13200,"station_id":"ce4bh3p2rcd13ifvqdp0","pricing_plan_id":"cebpf4jnsgd1na2vs0mg"},{"bike_id":"1106a82b-d335-4b30-a88f-57b72e1972f8","system_id":"levelo_inurba_marseille","lat":43.289743,"lon":5.378304,"is_reserved":false,"is_disabled":false,"rental_uris":{"android":"levelo://app?vid=1106a82b-d335-4b30-a88f-57b72e1972f8","ios":"levelo://app?vid=1106a82b-d335-4b30-a88f-57b72e1972f8"},"vehicle_type_id":"4","last_reported":1723392544,"current_range_meters":22800,"station_id":"ce4bh9p2rcd13ifvqed0","pricing_plan_id":"cebpf4jnsgd1na2vs0mg"},{"bike_id":"14edec5b-2449-4e93-8713-e33d1f449955","system_id":"levelo_inurba_marseille","lat":43.289743,"lon":5.378304,"is_reserved":false,"is_disabled":false,"rental_uris":{"android":"levelo://app?vid=14edec5b-2449-4e93-8713-e33d1f449955","ios":"levelo://app?vid=14edec5b-2449-4e93-8713-e33d1f449955"},"vehicle_type_id":"4","last_reported":1723392544,"current_range_meters":0,"station_id":"ce4bh9p2rcd13ifvqed0","pricing_plan_id":"cebpf4jnsgd1na2vs0mg"},{"bike_id":"f80d8f9b-a73b-4dc4-b36e-e492b4674522","system_id":"levelo_inurba_marseille","lat":43.289743,"lon":5.378304,"is_reserved":false,"is_disabled":false,"rental_uris":{"android":"levelo://app?vid=f80d8f9b-a73b-4dc4-b36e-e492b4674522","ios":"levelo://app?vid=f80d8f9b-a73b-4dc4-b36e-e492b4674522"},"vehicle_type_id":"4","last_reported":1723392544,"current_range_meters":2000,"station_id":"ce4bh9p2rcd13ifvqed0","pricing_plan_id":"cebpf4jnsgd1na2vs0mg"},{"bike_id":"4f078104-f06f-421d-9a4c-24c718ebcba6","system_id":"levelo_inurba_marseille","lat":43.295169,"lon":5.390426,"is_reserved":false,"is_disabled":false,"rental_uris":{"android":"levelo://app?vid=4f078104-f06f-421d-9a4c-24c718ebcba6","ios":"levelo://app?vid=4f078104-f06f-421d-9a4c-24c718ebcba6"},"vehicle_type_id":"4","last_reported":1723392544,"current_range_meters":6800,"station_id":"ce4bh3p2rcd13ifvqdp0","pricing_plan_id":"cebpf4jnsgd1na2vs0mg"},{"bike_id":"743d1aeb-28f9-42d4-a7a4-30d3b11fa42e","system_id":"levelo_inurba_marseille","lat":43.33024,"lon":5.39046,"is_reserved":false,"is_disabled":false,"rental_uris":{"android":"levelo://app?vid=743d1aeb-28f9-42d4-a7a4-30d3b11fa42e","ios":"levelo://app?vid=743d1aeb-28f9-42d4-a7a4-30d3b11fa42e"},"vehicle_type_id":"4","last_reported":1723392544,"current_range_meters":6000,"station_id":"ce4bhr92rcd13ifvqhrg","pricing_plan_id":"cebpf4jnsgd1na2vs0mg"},{"bike_id":"6715abe0-ca66-4259-8338-0e2d8d2cfcdd","system_id":"levelo_inurba_marseille","lat":43.295169,"lon":5.390426,"is_reserved":false,"is_disabled":false,"rental_uris":{"android":"levelo://app?vid=6715abe0-ca66-4259-8338-0e2d8d2cfcdd","ios":"levelo://app?vid=6715abe0-ca66-4259-8338-0e2d8d2cfcdd"},"vehicle_type_id":"4","last_reported":1723392544,"current_range_meters":2800,"station_id":"ce4bh3p2rcd13ifvqdp0","pricing_plan_id":"cebpf4jnsgd1na2vs0mg"},{"bike_id":"559f5bea-e52e-47b3-b17a-1eb1e74b3d1c","system_id":"levelo_inurba_marseille","lat":43.297815,"lon":5.393548,"is_reserved":false,"is_disabled":false,"rental_uris":{"android":"levelo://app?vid=559f5bea-e52e-47b3-b17a-1eb1e74b3d1c","ios":"levelo://app?vid=559f5bea-e52e-47b3-b17a-1eb1e74b3d1c"},"vehicle_type_id":"4","last_reported":1723392544,"current_range_meters":0,"station_id":"chh1huq6cuj3fo74tm60","pricing_plan_id":"cebpf4jnsgd1na2vs0mg"},{"bike_id":"cb0dd8e7-ef2b-448e-89da-d4c9a7725ce5","system_id":"levelo_inurba_marseille","lat":43.2901,"lon":5.381269,"is_reserved":false,"is_disabled":false,"rental_uris":{"android":"levelo://app?vid=cb0dd8e7-ef2b-448e-89da-d4c9a7725ce5","ios":"levelo://app?vid=cb0dd8e7-ef2b-448e-89da-d4c9a7725ce5"},"vehicle_type_id":"4","last_reported":1723392544,"current_range_meters":12800,"station_id":"ce4bh4p2rcd13ifvqe1g","pricing_plan_id":"cebpf4jnsgd1na2vs0mg"},{"bike_id":"6735f05d-bf8e-4134-87b0-3f2fae0f9150","system_id":"levelo_inurba_marseille","lat":43.28856,"lon":5.358371,"is_reserved":false,"is_disabled":false,"rental_uris":{"android":"levelo://app?vid=6735f05d-bf8e-4134-87b0-3f2fae0f9150","ios":"levelo://app?vid=6735f05d-bf8e-4134-87b0-3f2fae0f9150"},"vehicle_type_id":"4","last_reported":1723392544,"current_range_meters":2400,"station_id":"ce4bhb12rcd13ifvqem0","pricing_plan_id":"cebpf4jnsgd1na2vs0mg"},{"bike_id":"b2b7b91e-64bc-4632-8d1d-3790c056ee1f","system_id":"levelo_inurba_marseille","lat":43.28855,"lon":5.35864,"is_reserved":false,"is_disabled":false,"rental_uris":{"android":"levelo://app?vid=b2b7b91e-64bc-4632-8d1d-3790c056ee1f","ios":"levelo://app?vid=b2b7b91e-64bc-4632-8d1d-3790c056ee1f"},"vehicle_type_id":"4","last_reported":1723392544,"current_range_meters":20400,"station_id":"ce4bhb12rcd13ifvqem0","pricing_plan_id":"cebpf4jnsgd1na2vs0mg"},{"bike_id":"e4d61cbb-fd6f-439d-9561-c57290014a0a","system_id":"levelo_inurba_marseille","lat":43.31264,"lon":5.40162,"is_reserved":false,"is_disabled":false,"rental_uris":{"android":"levelo://app?vid=e4d61cbb-fd6f-439d-9561-c57290014a0a","ios":"levelo://app?vid=e4d61cbb-fd6f-439d-9561-c57290014a0a"},"vehicle_type_id":"4","last_reported":1723392544,"current_range_meters":0,"station_id":"ce4bh092rcd13ifvqd30","pricing_plan_id":"cebpf4jnsgd1na2vs0mg"},{"bike_id":"c3cf305c-692c-41ed-b07c-7ebbc13f240d","system_id":"levelo_inurba_marseille","lat":43.337405,"lon":5.374624,"is_reserved":false,"is_disabled":false,"rental_uris":{"android":"levelo://app?vid=c3cf305c-692c-41ed-b07c-7ebbc13f240d","ios":"levelo://app?vid=c3cf305c-692c-41ed-b07c-7ebbc13f240d"},"vehicle_type_id":"4","last_reported":1723392544,"current_range_meters":14000,"station_id":"","pricing_plan_id":"cebpf4jnsgd1na2vs0mg"},{"bike_id":"ac75d8e5-5139-4e43-a64e-51e7994c2517","system_id":"levelo_inurba_marseille","lat":43.337444,"lon":5.374475,"is_reserved":false,"is_disabled":false,"rental_uris":{"android":"levelo://app?vid=ac75d8e5-5139-4e43-a64e-51e7994c2517","ios":"levelo://app?vid=ac75d8e5-5139-4e43-a64e-51e7994c2517"},"vehicle_type_id":"3","last_reported":1723392544,"current_range_meters":24800,"station_id":"","pricing_plan_id":"cebpf4jnsgd1na2vs0mg"},{"bike_id":"43f21911-683d-4ba4-93d3-8a7e20e1c78c","system_id":"levelo_inurba_marseille","lat":43.337428,"lon":5.374595,"is_reserved":false,"is_disabled":false,"rental_uris":{"android":"levelo://app?vid=43f21911-683d-4ba4-93d3-8a7e20e1c78c","ios":"levelo://app?vid=43f21911-683d-4ba4-93d3-8a7e20e1c78c"},"vehicle_type_id":"4","last_reported":1723392544,"current_range_meters":26400,"station_id":"","pricing_plan_id":"cebpf4jnsgd1na2vs0mg"},{"bike_id":"8b5f6228-3582-497c-9919-c849c8ef0c9b","system_id":"levelo_inurba_marseille","lat":43.337436,"lon":5.374589,"is_reserved":false,"is_disabled":false,"rental_uris":{"android":"levelo://app?vid=8b5f6228-3582-497c-9919-c849c8ef0c9b","ios":"levelo://app?vid=8b5f6228-3582-497c-9919-c849c8ef0c9b"},"vehicle_type_id":"4","last_reported":1723392544,"current_range_meters":0,"station_id":"","pricing_plan_id":"cebpf4jnsgd1na2vs0mg"},{"bike_id":"a99690a8-3e4f-41a1-9b6a-5b43249a269f","system_id":"levelo_inurba_marseille","lat":43.33746,"lon":5.37457,"is_reserved":false,"is_disabled":false,"rental_uris":{"android":"levelo://app?vid=a99690a8-3e4f-41a1-9b6a-5b43249a269f","ios":"levelo://app?vid=a99690a8-3e4f-41a1-9b6a-5b43249a269f"},"vehicle_type_id":"4","last_reported":1723392544,"current_range_meters":800,"station_id":"","pricing_plan_id":"cebpf4jnsgd1na2vs0mg"},{"bike_id":"c4c606dd-5554-4916-a36e-53036a0baaf1","system_id":"levelo_inurba_marseille","lat":43.309371,"lon":5.401449,"is_reserved":false,"is_disabled":false,"rental_uris":{"android":"levelo://app?vid=c4c606dd-5554-4916-a36e-53036a0baaf1","ios":"levelo://app?vid=c4c606dd-5554-4916-a36e-53036a0baaf1"},"vehicle_type_id":"4","last_reported":1723392544,"current_range_meters":0,"station_id":"ce4bgvp2rcd13ifvqct0","pricing_plan_id":"cebpf4jnsgd1na2vs0mg"},{"bike_id":"f77fef59-c64f-44b0-82cc-852945d747e5","system_id":"levelo_inurba_marseille","lat":43.309371,"lon":5.401449,"is_reserved":false,"is_disabled":false,"rental_uris":{"android":"levelo://app?vid=f77fef59-c64f-44b0-82cc-852945d747e5","ios":"levelo://app?vid=f77fef59-c64f-44b0-82cc-852945d747e5"},"vehicle_type_id":"4","last_reported":1723392544,"current_range_meters":800,"station_id":"ce4bgvp2rcd13ifvqct0","pricing_plan_id":"cebpf4jnsgd1na2vs0mg"},{"bike_id":"7553d7c6-8eef-4b21-9dca-534ec43256a6","system_id":"levelo_inurba_marseille","lat":43.33749,"lon":5.37459,"is_reserved":false,"is_disabled":false,"rental_uris":{"android":"levelo://app?vid=7553d7c6-8eef-4b21-9dca-534ec43256a6","ios":"levelo://app?vid=7553d7c6-8eef-4b21-9dca-534ec43256a6"},"vehicle_type_id":"4","last_reported":1723392544,"current_range_meters":9200,"station_id":"","pricing_plan_id":"cebpf4jnsgd1na2vs0mg"},{"bike_id":"6137b86e-8de9-4c4f-94ef-bfa372175031","system_id":"levelo_inurba_marseille","lat":43.337513,"lon":5.37454,"is_reserved":false,"is_disabled":false,"rental_uris":{"android":"levelo://app?vid=6137b86e-8de9-4c4f-94ef-bfa372175031","ios":"levelo://app?vid=6137b86e-8de9-4c4f-94ef-bfa372175031"},"vehicle_type_id":"4","last_reported":1723392544,"current_range_meters":11600,"station_id":"","pricing_plan_id":"cebpf4jnsgd1na2vs0mg"},{"bike_id":"4dd3df97-f042-4ef0-9fba-47ec4b401346","system_id":"levelo_inurba_marseille","lat":43.28773,"lon":5.37307,"is_reserved":false,"is_disabled":false,"rental_uris":{"android":"levelo://app?vid=4dd3df97-f042-4ef0-9fba-47ec4b401346","ios":"levelo://app?vid=4dd3df97-f042-4ef0-9fba-47ec4b401346"},"vehicle_type_id":"4","last_reported":1723392544,"current_range_meters":20000,"station_id":"","pricing_plan_id":"cebpf4jnsgd1na2vs0mg"},{"bike_id":"6f8a75ef-cfde-4da5-99c7-85f9ae9b026b","system_id":"levelo_inurba_marseille","lat":43.3376,"lon":5.3744,"is_reserved":false,"is_disabled":false,"rental_uris":{"android":"levelo://app?vid=6f8a75ef-cfde-4da5-99c7-85f9ae9b026b","ios":"levelo://app?vid=6f8a75ef-cfde-4da5-99c7-85f9ae9b026b"},"vehicle_type_id":"4","last_reported":1723392544,"current_range_meters":21200,"station_id":"","pricing_plan_id":"cebpf4jnsgd1na2vs0mg"},{"bike_id":"1ece39e8-5ec5-465b-b0d5-bdea3554c74d","system_id":"levelo_inurba_marseille","lat":43.337621,"lon":5.374495,"is_reserved":false,"is_disabled":false,"rental_uris":{"android":"levelo://app?vid=1ece39e8-5ec5-465b-b0d5-bdea3554c74d","ios":"levelo://app?vid=1ece39e8-5ec5-465b-b0d5-bdea3554c74d"},"vehicle_type_id":"4","last_reported":1723392544,"current_range_meters":20800,"station_id":"","pricing_plan_id":"cebpf4jnsgd1na2vs0mg"},{"bike_id":"ea1cc1bc-b3f0-4093-8f5f-6dfff1fa63d9","system_id":"levelo_inurba_marseille","lat":43.337575,"lon":5.37485,"is_reserved":false,"is_disabled":false,"rental_uris":{"android":"levelo://app?vid=ea1cc1bc-b3f0-4093-8f5f-6dfff1fa63d9","ios":"levelo://app?vid=ea1cc1bc-b3f0-4093-8f5f-6dfff1fa63d9"},"vehicle_type_id":"4","last_reported":1723392544,"current_range_meters":31200,"station_id":"","pricing_plan_id":"cebpf4jnsgd1na2vs0mg"},{"bike_id":"e0da458e-1309-458b-956b-aab617b2ea05","system_id":"levelo_inurba_marseille","lat":43.3376,"lon":5.37473,"is_reserved":false,"is_disabled":false,"rental_uris":{"android":"levelo://app?vid=e0da458e-1309-458b-956b-aab617b2ea05","ios":"levelo://app?vid=e0da458e-1309-458b-956b-aab617b2ea05"},"vehicle_type_id":"4","last_reported":1723392544,"current_range_meters":23200,"station_id":"","pricing_plan_id":"cebpf4jnsgd1na2vs0mg"},{"bike_id":"a7e71684-8757-4c0e-98c0-cd5b05cd0ba7","system_id":"levelo_inurba_marseille","lat":43.337583,"lon":5.374932,"is_reserved":false,"is_disabled":false,"rental_uris":{"android":"levelo://app?vid=a7e71684-8757-4c0e-98c0-cd5b05cd0ba7","ios":"levelo://app?vid=a7e71684-8757-4c0e-98c0-cd5b05cd0ba7"},"vehicle_type_id":"4","last_reported":1723392544,"current_range_meters":29200,"station_id":"","pricing_plan_id":"cebpf4jnsgd1na2vs0mg"},{"bike_id":"5cb0d0f3-eacc-40eb-a46e-542fc59e15f6","system_id":"levelo_inurba_marseille","lat":43.337614,"lon":5.374927,"is_reserved":false,"is_disabled":false,"rental_uris":{"android":"levelo://app?vid=5cb0d0f3-eacc-40eb-a46e-542fc59e15f6","ios":"levelo://app?vid=5cb0d0f3-eacc-40eb-a46e-542fc59e15f6"},"vehicle_type_id":"4","last_reported":1723392544,"current_range_meters":29200,"station_id":"","pricing_plan_id":"cebpf4jnsgd1na2vs0mg"},{"bike_id":"475ed14f-5d86-4ce1-9e44-9d4d1bef7035","system_id":"levelo_inurba_marseille","lat":43.33765,"lon":5.37486,"is_reserved":false,"is_disabled":false,"rental_uris":{"android":"levelo://app?vid=475ed14f-5d86-4ce1-9e44-9d4d1bef7035","ios":"levelo://app?vid=475ed14f-5d86-4ce1-9e44-9d4d1bef7035"},"vehicle_type_id":"4","last_reported":1723392544,"current_range_meters":21200,"station_id":"","pricing_plan_id":"cebpf4jnsgd1na2vs0mg"},{"bike_id":"57da0337-159a-4148-be4f-fc6e9aca3c31","system_id":"levelo_inurba_marseille","lat":43.337049,"lon":5.355825,"is_reserved":false,"is_disabled":false,"rental_uris":{"android":"levelo://app?vid=57da0337-159a-4148-be4f-fc6e9aca3c31","ios":"levelo://app?vid=57da0337-159a-4148-be4f-fc6e9aca3c31"},"vehicle_type_id":"4","last_reported":1723392544,"current_range_meters":4400,"station_id":"","pricing_plan_id":"cebpf4jnsgd1na2vs0mg"},{"bike_id":"7020ee32-48b6-4184-b81b-9532331a5dc3","system_id":"levelo_inurba_marseille","lat":43.28727,"lon":5.36078,"is_reserved":false,"is_disabled":false,"rental_uris":{"android":"levelo://app?vid=7020ee32-48b6-4184-b81b-9532331a5dc3","ios":"levelo://app?vid=7020ee32-48b6-4184-b81b-9532331a5dc3"},"vehicle_type_id":"4","last_reported":1723392544,"current_range_meters":16000,"station_id":"cki0cbj6b192h4jlfktg","pricing_plan_id":"cebpf4jnsgd1na2vs0mg"},{"bike_id":"8336b5cc-23f5-4973-9a2f-247456791e47","system_id":"levelo_inurba_marseille","lat":43.298681,"lon":5.397225,"is_reserved":false,"is_disabled":false,"rental_uris":{"android":"levelo://app?vid=8336b5cc-23f5-4973-9a2f-247456791e47","ios":"levelo://app?vid=8336b5cc-23f5-4973-9a2f-247456791e47"},"vehicle_type_id":"4","last_reported":1723392544,"current_range_meters":2400,"station_id":"ce4bh0h2rcd13ifvqd50","pricing_plan_id":"cebpf4jnsgd1na2vs0mg"},{"bike_id":"8d7e7aa0-d522-49fd-803a-f9f75e709ff9","system_id":"levelo_inurba_marseille","lat":43.298681,"lon":5.397225,"is_reserved":false,"is_disabled":false,"rental_uris":{"android":"levelo://app?vid=8d7e7aa0-d522-49fd-803a-f9f75e709ff9","ios":"levelo://app?vid=8d7e7aa0-d522-49fd-803a-f9f75e709ff9"},"vehicle_type_id":"4","last_reported":1723392544,"current_range_meters":22400,"station_id":"ce4bh0h2rcd13ifvqd50","pricing_plan_id":"cebpf4jnsgd1na2vs0mg"},{"bike_id":"976d0109-9de7-4d45-bd81-5491eb52ebe8","system_id":"levelo_inurba_marseille","lat":43.33034,"lon":5.39356,"is_reserved":false,"is_disabled":false,"rental_uris":{"android":"levelo://app?vid=976d0109-9de7-4d45-bd81-5491eb52ebe8","ios":"levelo://app?vid=976d0109-9de7-4d45-bd81-5491eb52ebe8"},"vehicle_type_id":"4","last_reported":1723392544,"current_range_meters":6000,"station_id":"","pricing_plan_id":"cebpf4jnsgd1na2vs0mg"},{"bike_id":"c5a98ffe-f85b-467a-8e47-ed63661a466d","system_id":"levelo_inurba_marseille","lat":43.28666,"lon":5.36345,"is_reserved":false,"is_disabled":false,"rental_uris":{"android":"levelo://app?vid=c5a98ffe-f85b-467a-8e47-ed63661a466d","ios":"levelo://app?vid=c5a98ffe-f85b-467a-8e47-ed63661a466d"},"vehicle_type_id":"4","last_reported":1723392544,"current_range_meters":30000,"station_id":"ce4bhah2rcd13ifvqej0","pricing_plan_id":"cebpf4jnsgd1na2vs0mg"},{"bike_id":"0947cd95-ec0f-4d7a-a791-41ce8fc078d9","system_id":"levelo_inurba_marseille","lat":43.290336,"lon":5.386425,"is_reserved":false,"is_disabled":false,"rental_uris":{"android":"levelo://app?vid=0947cd95-ec0f-4d7a-a791-41ce8fc078d9","ios":"levelo://app?vid=0947cd95-ec0f-4d7a-a791-41ce8fc078d9"},"vehicle_type_id":"4","last_reported":1723392544,"current_range_meters":28800,"station_id":"ce4bh4p2rcd13ifvqe0g","pricing_plan_id":"cebpf4jnsgd1na2vs0mg"},{"bike_id":"ddfd3618-4326-418c-abd0-c568af644ed0","system_id":"levelo_inurba_marseille","lat":43.28719,"lon":5.37935,"is_reserved":false,"is_disabled":false,"rental_uris":{"android":"levelo://app?vid=ddfd3618-4326-418c-abd0-c568af644ed0","ios":"levelo://app?vid=ddfd3618-4326-418c-abd0-c568af644ed0"},"vehicle_type_id":"4","last_reported":1723392544,"current_range_meters":1600,"station_id":"ce4bh9p2rcd13ifvqec0","pricing_plan_id":"cebpf4jnsgd1na2vs0mg"},{"bike_id":"6d492d8a-6773-4516-a51b-8e43000fc597","system_id":"levelo_inurba_marseille","lat":43.291994,"lon":5.392907,"is_reserved":false,"is_disabled":false,"rental_uris":{"android":"levelo://app?vid=6d492d8a-6773-4516-a51b-8e43000fc597","ios":"levelo://app?vid=6d492d8a-6773-4516-a51b-8e43000fc597"},"vehicle_type_id":"4","last_reported":1723392544,"current_range_meters":0,"station_id":"ce4bh192rcd13ifvqdd0","pricing_plan_id":"cebpf4jnsgd1na2vs0mg"},{"bike_id":"13bdf896-a77f-4b1a-9cd2-ef464a8c2424","system_id":"levelo_inurba_marseille","lat":43.294314,"lon":5.397498,"is_reserved":false,"is_disabled":false,"rental_uris":{"android":"levelo://app?vid=13bdf896-a77f-4b1a-9cd2-ef464a8c2424","ios":"levelo://app?vid=13bdf896-a77f-4b1a-9cd2-ef464a8c2424"},"vehicle_type_id":"4","last_reported":1723392544,"current_range_meters":24800,"station_id":"ce4bh3h2rcd13ifvqdo0","pricing_plan_id":"cebpf4jnsgd1na2vs0mg"},{"bike_id":"646d9369-3a2e-4cbc-aedc-51e9c937bd4e","system_id":"levelo_inurba_marseille","lat":43.294314,"lon":5.397498,"is_reserved":false,"is_disabled":false,"rental_uris":{"android":"levelo://app?vid=646d9369-3a2e-4cbc-aedc-51e9c937bd4e","ios":"levelo://app?vid=646d9369-3a2e-4cbc-aedc-51e9c937bd4e"},"vehicle_type_id":"4","last_reported":1723392544,"current_range_meters":16800,"station_id":"ce4bh3h2rcd13ifvqdo0","pricing_plan_id":"cebpf4jnsgd1na2vs0mg"},{"bike_id":"458f2e26-acc1-4998-9311-456293789ac5","system_id":"levelo_inurba_marseille","lat":43.28624,"lon":5.35107,"is_reserved":false,"is_disabled":false,"rental_uris":{"android":"levelo://app?vid=458f2e26-acc1-4998-9311-456293789ac5","ios":"levelo://app?vid=458f2e26-acc1-4998-9311-456293789ac5"},"vehicle_type_id":"4","last_reported":1723392544,"current_range_meters":24800,"station_id":"ce4bhch2rcd13ifvqeug","pricing_plan_id":"cebpf4jnsgd1na2vs0mg"},{"bike_id":"f2f292c2-b888-45c4-b814-4fe0b2e5d3f0","system_id":"levelo_inurba_marseille","lat":43.28618,"lon":5.35105,"is_reserved":false,"is_disabled":false,"rental_uris":{"android":"levelo://app?vid=f2f292c2-b888-45c4-b814-4fe0b2e5d3f0","ios":"levelo://app?vid=f2f292c2-b888-45c4-b814-4fe0b2e5d3f0"},"vehicle_type_id":"4","last_reported":1723392544,"current_range_meters":0,"station_id":"ce4bhch2rcd13ifvqeug","pricing_plan_id":"cebpf4jnsgd1na2vs0mg"},{"bike_id":"410f19ea-3eff-44d6-9c5b-c530f6987ea7","system_id":"levelo_inurba_marseille","lat":43.28617,"lon":5.35106,"is_reserved":false,"is_disabled":false,"rental_uris":{"android":"levelo://app?vid=410f19ea-3eff-44d6-9c5b-c530f6987ea7","ios":"levelo://app?vid=410f19ea-3eff-44d6-9c5b-c530f6987ea7"},"vehicle_type_id":"4","last_reported":1723392544,"current_range_meters":7600,"station_id":"ce4bhch2rcd13ifvqeug","pricing_plan_id":"cebpf4jnsgd1na2vs0mg"},{"bike_id":"4d7dc9f1-daa9-4cef-9616-a2de006951db","system_id":"levelo_inurba_marseille","lat":43.28616,"lon":5.35106,"is_reserved":false,"is_disabled":false,"rental_uris":{"android":"levelo://app?vid=4d7dc9f1-daa9-4cef-9616-a2de006951db","ios":"levelo://app?vid=4d7dc9f1-daa9-4cef-9616-a2de006951db"},"vehicle_type_id":"4","last_reported":1723392544,"current_range_meters":18800,"station_id":"ce4bhch2rcd13ifvqeug","pricing_plan_id":"cebpf4jnsgd1na2vs0mg"},{"bike_id":"0fb9cc56-3a3a-4eb6-88e5-3c039d165525","system_id":"levelo_inurba_marseille","lat":43.28617,"lon":5.35102,"is_reserved":false,"is_disabled":false,"rental_uris":{"android":"levelo://app?vid=0fb9cc56-3a3a-4eb6-88e5-3c039d165525","ios":"levelo://app?vid=0fb9cc56-3a3a-4eb6-88e5-3c039d165525"},"vehicle_type_id":"4","last_reported":1723392544,"current_range_meters":25200,"station_id":"ce4bhch2rcd13ifvqeug","pricing_plan_id":"cebpf4jnsgd1na2vs0mg"},{"bike_id":"656aaf4c-3afb-43e4-92af-8ba99bd629dd","system_id":"levelo_inurba_marseille","lat":43.283998,"lon":5.375062,"is_reserved":false,"is_disabled":false,"rental_uris":{"android":"levelo://app?vid=656aaf4c-3afb-43e4-92af-8ba99bd629dd","ios":"levelo://app?vid=656aaf4c-3afb-43e4-92af-8ba99bd629dd"},"vehicle_type_id":"4","last_reported":1723392544,"current_range_meters":0,"station_id":"ce4bh412rcd13ifvqds0","pricing_plan_id":"cebpf4jnsgd1na2vs0mg"},{"bike_id":"f2e7eb68-10dd-4a3f-be0a-e14bca2ac6e8","system_id":"levelo_inurba_marseille","lat":43.283998,"lon":5.375062,"is_reserved":false,"is_disabled":false,"rental_uris":{"android":"levelo://app?vid=f2e7eb68-10dd-4a3f-be0a-e14bca2ac6e8","ios":"levelo://app?vid=f2e7eb68-10dd-4a3f-be0a-e14bca2ac6e8"},"vehicle_type_id":"4","last_reported":1723392544,"current_range_meters":2800,"station_id":"ce4bh412rcd13ifvqds0","pricing_plan_id":"cebpf4jnsgd1na2vs0mg"},{"bike_id":"95008af7-9e9a-4a47-b9c8-e6d093439d62","system_id":"levelo_inurba_marseille","lat":43.286595,"lon":5.386795,"is_reserved":false,"is_disabled":false,"rental_uris":{"android":"levelo://app?vid=95008af7-9e9a-4a47-b9c8-e6d093439d62","ios":"levelo://app?vid=95008af7-9e9a-4a47-b9c8-e6d093439d62"},"vehicle_type_id":"4","last_reported":1723392544,"current_range_meters":0,"station_id":"ce4bh492rcd13ifvqdug","pricing_plan_id":"cebpf4jnsgd1na2vs0mg"},{"bike_id":"eacf47d1-16af-4807-80af-71403d29e5c1","system_id":"levelo_inurba_marseille","lat":43.32339,"lon":5.40616,"is_reserved":false,"is_disabled":false,"rental_uris":{"android":"levelo://app?vid=eacf47d1-16af-4807-80af-71403d29e5c1","ios":"levelo://app?vid=eacf47d1-16af-4807-80af-71403d29e5c1"},"vehicle_type_id":"4","last_reported":1723392544,"current_range_meters":3200,"station_id":"ce4bhq92rcd13ifvqhjg","pricing_plan_id":"cebpf4jnsgd1na2vs0mg"},{"bike_id":"b2dfd3d7-c223-4a7e-8936-90c1aa03c4b1","system_id":"levelo_inurba_marseille","lat":43.284787,"lon":5.384116,"is_reserved":false,"is_disabled":false,"rental_uris":{"android":"levelo://app?vid=b2dfd3d7-c223-4a7e-8936-90c1aa03c4b1","ios":"levelo://app?vid=b2dfd3d7-c223-4a7e-8936-90c1aa03c4b1"},"vehicle_type_id":"4","last_reported":1723392544,"current_range_meters":22800,"station_id":"ce4bh512rcd13ifvqe3g","pricing_plan_id":"cebpf4jnsgd1na2vs0mg"},{"bike_id":"80979a8a-24f7-405b-829c-79ca686a0f1a","system_id":"levelo_inurba_marseille","lat":43.284776,"lon":5.385603,"is_reserved":false,"is_disabled":false,"rental_uris":{"android":"levelo://app?vid=80979a8a-24f7-405b-829c-79ca686a0f1a","ios":"levelo://app?vid=80979a8a-24f7-405b-829c-79ca686a0f1a"},"vehicle_type_id":"4","last_reported":1723392544,"current_range_meters":4000,"station_id":"ce4bh8p2rcd13ifvqeb0","pricing_plan_id":"cebpf4jnsgd1na2vs0mg"},{"bike_id":"d30dff41-7911-43ee-a226-3ac383a0119b","system_id":"levelo_inurba_marseille","lat":43.288759,"lon":5.393799,"is_reserved":false,"is_disabled":false,"rental_uris":{"android":"levelo://app?vid=d30dff41-7911-43ee-a226-3ac383a0119b","ios":"levelo://app?vid=d30dff41-7911-43ee-a226-3ac383a0119b"},"vehicle_type_id":"4","last_reported":1723392544,"current_range_meters":0,"station_id":"ce4bh392rcd13ifvqdm0","pricing_plan_id":"cebpf4jnsgd1na2vs0mg"},{"bike_id":"438e5f4d-bd09-464d-aad9-6ae674004695","system_id":"levelo_inurba_marseille","lat":43.284776,"lon":5.385603,"is_reserved":false,"is_disabled":false,"rental_uris":{"android":"levelo://app?vid=438e5f4d-bd09-464d-aad9-6ae674004695","ios":"levelo://app?vid=438e5f4d-bd09-464d-aad9-6ae674004695"},"vehicle_type_id":"4","last_reported":1723392544,"current_range_meters":5200,"station_id":"ce4bh8p2rcd13ifvqeb0","pricing_plan_id":"cebpf4jnsgd1na2vs0mg"},{"bike_id":"88a869aa-9c8c-4862-adc5-f50729dc8f01","system_id":"levelo_inurba_marseille","lat":43.2842,"lon":5.34979,"is_reserved":false,"is_disabled":false,"rental_uris":{"android":"levelo://app?vid=88a869aa-9c8c-4862-adc5-f50729dc8f01","ios":"levelo://app?vid=88a869aa-9c8c-4862-adc5-f50729dc8f01"},"vehicle_type_id":"4","last_reported":1723392544,"current_range_meters":0,"station_id":"ce4bhbh2rcd13ifvqepg","pricing_plan_id":"cebpf4jnsgd1na2vs0mg"},{"bike_id":"b4da50dc-5007-4d94-9e88-ae6b886f1311","system_id":"levelo_inurba_marseille","lat":43.28417,"lon":5.34982,"is_reserved":false,"is_disabled":false,"rental_uris":{"android":"levelo://app?vid=b4da50dc-5007-4d94-9e88-ae6b886f1311","ios":"levelo://app?vid=b4da50dc-5007-4d94-9e88-ae6b886f1311"},"vehicle_type_id":"4","last_reported":1723392544,"current_range_meters":15600,"station_id":"ce4bhbh2rcd13ifvqepg","pricing_plan_id":"cebpf4jnsgd1na2vs0mg"},{"bike_id":"ddf95f7b-5eaa-46d5-b4b3-db65e8a30e62","system_id":"levelo_inurba_marseille","lat":43.28412,"lon":5.349763,"is_reserved":false,"is_disabled":false,"rental_uris":{"android":"levelo://app?vid=ddf95f7b-5eaa-46d5-b4b3-db65e8a30e62","ios":"levelo://app?vid=ddf95f7b-5eaa-46d5-b4b3-db65e8a30e62"},"vehicle_type_id":"4","last_reported":1723392544,"current_range_meters":23600,"station_id":"ce4bhbh2rcd13ifvqepg","pricing_plan_id":"cebpf4jnsgd1na2vs0mg"},{"bike_id":"2d4585ec-c57b-4fa3-8571-548f46be3a92","system_id":"levelo_inurba_marseille","lat":43.294111,"lon":5.402674,"is_reserved":false,"is_disabled":false,"rental_uris":{"android":"levelo://app?vid=2d4585ec-c57b-4fa3-8571-548f46be3a92","ios":"levelo://app?vid=2d4585ec-c57b-4fa3-8571-548f46be3a92"},"vehicle_type_id":"4","last_reported":1723392544,"current_range_meters":6000,"station_id":"","pricing_plan_id":"cebpf4jnsgd1na2vs0mg"},{"bike_id":"70453759-6de3-4208-be85-5a5e13b428f2","system_id":"levelo_inurba_marseille","lat":43.28277,"lon":5.3507,"is_reserved":false,"is_disabled":false,"rental_uris":{"android":"levelo://app?vid=70453759-6de3-4208-be85-5a5e13b428f2","ios":"levelo://app?vid=70453759-6de3-4208-be85-5a5e13b428f2"},"vehicle_type_id":"4","last_reported":1723392544,"current_range_meters":16000,"station_id":"ce4bhbp2rcd13ifvqerg","pricing_plan_id":"cebpf4jnsgd1na2vs0mg"},{"bike_id":"970020d1-7b3c-44b2-af4d-9a24fac1f237","system_id":"levelo_inurba_marseille","lat":43.28276,"lon":5.35067,"is_reserved":false,"is_disabled":false,"rental_uris":{"android":"levelo://app?vid=970020d1-7b3c-44b2-af4d-9a24fac1f237","ios":"levelo://app?vid=970020d1-7b3c-44b2-af4d-9a24fac1f237"},"vehicle_type_id":"4","last_reported":1723392544,"current_range_meters":0,"station_id":"ce4bhbp2rcd13ifvqerg","pricing_plan_id":"cebpf4jnsgd1na2vs0mg"},{"bike_id":"e4616583-46f6-4a45-bb0f-f401bbc5b282","system_id":"levelo_inurba_marseille","lat":43.28274,"lon":5.35068,"is_reserved":false,"is_disabled":false,"rental_uris":{"android":"levelo://app?vid=e4616583-46f6-4a45-bb0f-f401bbc5b282","ios":"levelo://app?vid=e4616583-46f6-4a45-bb0f-f401bbc5b282"},"vehicle_type_id":"4","last_reported":1723392544,"current_range_meters":0,"station_id":"ce4bhbp2rcd13ifvqerg","pricing_plan_id":"cebpf4jnsgd1na2vs0mg"},{"bike_id":"11dffdc3-6353-4c4f-9e17-e50c1c295cc6","system_id":"levelo_inurba_marseille","lat":43.282754,"lon":5.350519,"is_reserved":false,"is_disabled":false,"rental_uris":{"android":"levelo://app?vid=11dffdc3-6353-4c4f-9e17-e50c1c295cc6","ios":"levelo://app?vid=11dffdc3-6353-4c4f-9e17-e50c1c295cc6"},"vehicle_type_id":"4","last_reported":1723392544,"current_range_meters":5600,"station_id":"ce4bhbp2rcd13ifvqerg","pricing_plan_id":"cebpf4jnsgd1na2vs0mg"},{"bike_id":"eaf08411-d795-4ae6-b9b2-88d14df18ad4","system_id":"levelo_inurba_marseille","lat":43.280373,"lon":5.36938,"is_reserved":false,"is_disabled":false,"rental_uris":{"android":"levelo://app?vid=eaf08411-d795-4ae6-b9b2-88d14df18ad4","ios":"levelo://app?vid=eaf08411-d795-4ae6-b9b2-88d14df18ad4"},"vehicle_type_id":"4","last_reported":1723392544,"current_range_meters":20400,"station_id":"ce4bha12rcd13ifvqef0","pricing_plan_id":"cebpf4jnsgd1na2vs0mg"},{"bike_id":"b0eeb6ff-5aa3-49a5-b47a-af4db07f2184","system_id":"levelo_inurba_marseille","lat":43.284462,"lon":5.392121,"is_reserved":false,"is_disabled":false,"rental_uris":{"android":"levelo://app?vid=b0eeb6ff-5aa3-49a5-b47a-af4db07f2184","ios":"levelo://app?vid=b0eeb6ff-5aa3-49a5-b47a-af4db07f2184"},"vehicle_type_id":"4","last_reported":1723392544,"current_range_meters":6400,"station_id":"ce4bhoh2rcd13ifvqh5g","pricing_plan_id":"cebpf4jnsgd1na2vs0mg"},{"bike_id":"189238c4-be98-4fa4-85e1-82019efe37b3","system_id":"levelo_inurba_marseille","lat":43.304188,"lon":5.412904,"is_reserved":false,"is_disabled":false,"rental_uris":{"android":"levelo://app?vid=189238c4-be98-4fa4-85e1-82019efe37b3","ios":"levelo://app?vid=189238c4-be98-4fa4-85e1-82019efe37b3"},"vehicle_type_id":"4","last_reported":1723392544,"current_range_meters":4000,"station_id":"ce4bhop2rcd13ifvqh8g","pricing_plan_id":"cebpf4jnsgd1na2vs0mg"},{"bike_id":"f81a1333-c56a-4d0b-a0a2-bb9674ad95d7","system_id":"levelo_inurba_marseille","lat":43.304188,"lon":5.412904,"is_reserved":false,"is_disabled":false,"rental_uris":{"android":"levelo://app?vid=f81a1333-c56a-4d0b-a0a2-bb9674ad95d7","ios":"levelo://app?vid=f81a1333-c56a-4d0b-a0a2-bb9674ad95d7"},"vehicle_type_id":"4","last_reported":1723392544,"current_range_meters":0,"station_id":"ce4bhop2rcd13ifvqh8g","pricing_plan_id":"cebpf4jnsgd1na2vs0mg"},{"bike_id":"d3286d14-0abc-4118-9759-8430db0d579c","system_id":"levelo_inurba_marseille","lat":43.280778,"lon":5.347589,"is_reserved":false,"is_disabled":false,"rental_uris":{"android":"levelo://app?vid=d3286d14-0abc-4118-9759-8430db0d579c","ios":"levelo://app?vid=d3286d14-0abc-4118-9759-8430db0d579c"},"vehicle_type_id":"4","last_reported":1723392544,"current_range_meters":18000,"station_id":"","pricing_plan_id":"cebpf4jnsgd1na2vs0mg"},{"bike_id":"1cf4a72a-f4dd-4431-8cc0-2f5ffe76340f","system_id":"levelo_inurba_marseille","lat":43.27903,"lon":5.37996,"is_reserved":false,"is_disabled":false,"rental_uris":{"android":"levelo://app?vid=1cf4a72a-f4dd-4431-8cc0-2f5ffe76340f","ios":"levelo://app?vid=1cf4a72a-f4dd-4431-8cc0-2f5ffe76340f"},"vehicle_type_id":"4","last_reported":1723392544,"current_range_meters":0,"station_id":"ce4bhf92rcd13ifvqf50","pricing_plan_id":"cebpf4jnsgd1na2vs0mg"},{"bike_id":"8948e793-f35d-4a69-a72e-8059cb74c05d","system_id":"levelo_inurba_marseille","lat":43.28063,"lon":5.34766,"is_reserved":false,"is_disabled":false,"rental_uris":{"android":"levelo://app?vid=8948e793-f35d-4a69-a72e-8059cb74c05d","ios":"levelo://app?vid=8948e793-f35d-4a69-a72e-8059cb74c05d"},"vehicle_type_id":"4","last_reported":1723392544,"current_range_meters":16400,"station_id":"","pricing_plan_id":"cebpf4jnsgd1na2vs0mg"},{"bike_id":"75a98cde-2481-4ce8-8361-befebb9e2390","system_id":"levelo_inurba_marseille","lat":43.279742,"lon":5.38744,"is_reserved":false,"is_disabled":false,"rental_uris":{"android":"levelo://app?vid=75a98cde-2481-4ce8-8361-befebb9e2390","ios":"levelo://app?vid=75a98cde-2481-4ce8-8361-befebb9e2390"},"vehicle_type_id":"4","last_reported":1723392544,"current_range_meters":18400,"station_id":"ce4bhg12rcd13ifvqf80","pricing_plan_id":"cebpf4jnsgd1na2vs0mg"},{"bike_id":"9781b074-cae7-4f42-ad09-f5ef6fdebcc4","system_id":"levelo_inurba_marseille","lat":43.320045,"lon":5.415048,"is_reserved":false,"is_disabled":false,"rental_uris":{"android":"levelo://app?vid=9781b074-cae7-4f42-ad09-f5ef6fdebcc4","ios":"levelo://app?vid=9781b074-cae7-4f42-ad09-f5ef6fdebcc4"},"vehicle_type_id":"4","last_reported":1723392544,"current_range_meters":23200,"station_id":"ce4bhq92rcd13ifvqhkg","pricing_plan_id":"cebpf4jnsgd1na2vs0mg"},{"bike_id":"4a19e543-9aa2-42b5-b96c-569429e76172","system_id":"levelo_inurba_marseille","lat":43.292569,"lon":5.409107,"is_reserved":false,"is_disabled":false,"rental_uris":{"android":"levelo://app?vid=4a19e543-9aa2-42b5-b96c-569429e76172","ios":"levelo://app?vid=4a19e543-9aa2-42b5-b96c-569429e76172"},"vehicle_type_id":"4","last_reported":1723392544,"current_range_meters":20400,"station_id":"ce4bh192rcd13ifvqdc0","pricing_plan_id":"cebpf4jnsgd1na2vs0mg"},{"bike_id":"c21fcd9d-8f44-44cc-a435-8cb34a31cf12","system_id":"levelo_inurba_marseille","lat":43.292571,"lon":5.409107,"is_reserved":false,"is_disabled":false,"rental_uris":{"android":"levelo://app?vid=c21fcd9d-8f44-44cc-a435-8cb34a31cf12","ios":"levelo://app?vid=c21fcd9d-8f44-44cc-a435-8cb34a31cf12"},"vehicle_type_id":"4","last_reported":1723392544,"current_range_meters":21200,"station_id":"ce4bh192rcd13ifvqdc0","pricing_plan_id":"cebpf4jnsgd1na2vs0mg"},{"bike_id":"3ea444ea-8543-42bb-b29e-d2c35069e110","system_id":"levelo_inurba_marseille","lat":43.27619,"lon":5.36117,"is_reserved":false,"is_disabled":false,"rental_uris":{"android":"levelo://app?vid=3ea444ea-8543-42bb-b29e-d2c35069e110","ios":"levelo://app?vid=3ea444ea-8543-42bb-b29e-d2c35069e110"},"vehicle_type_id":"4","last_reported":1723392544,"current_range_meters":9200,"station_id":"ce4bgj92rcd13ifvqbe0","pricing_plan_id":"cebpf4jnsgd1na2vs0mg"},{"bike_id":"6b6e83d9-3dbd-427e-af34-f72f7eb2e088","system_id":"levelo_inurba_marseille","lat":43.27618,"lon":5.361009,"is_reserved":false,"is_disabled":false,"rental_uris":{"android":"levelo://app?vid=6b6e83d9-3dbd-427e-af34-f72f7eb2e088","ios":"levelo://app?vid=6b6e83d9-3dbd-427e-af34-f72f7eb2e088"},"vehicle_type_id":"4","last_reported":1723392544,"current_range_meters":30000,"station_id":"ce4bgj92rcd13ifvqbe0","pricing_plan_id":"cebpf4jnsgd1na2vs0mg"},{"bike_id":"fe5d1b0e-0c3b-4b7d-95ff-df00a654765a","system_id":"levelo_inurba_marseille","lat":43.276179,"lon":5.361009,"is_reserved":false,"is_disabled":false,"rental_uris":{"android":"levelo://app?vid=fe5d1b0e-0c3b-4b7d-95ff-df00a654765a","ios":"levelo://app?vid=fe5d1b0e-0c3b-4b7d-95ff-df00a654765a"},"vehicle_type_id":"4","last_reported":1723392544,"current_range_meters":30800,"station_id":"ce4bgj92rcd13ifvqbe0","pricing_plan_id":"cebpf4jnsgd1na2vs0mg"},{"bike_id":"3772a8ba-4756-4b6f-b79d-715fc20cb742","system_id":"levelo_inurba_marseille","lat":43.325243,"lon":5.414326,"is_reserved":false,"is_disabled":false,"rental_uris":{"android":"levelo://app?vid=3772a8ba-4756-4b6f-b79d-715fc20cb742","ios":"levelo://app?vid=3772a8ba-4756-4b6f-b79d-715fc20cb742"},"vehicle_type_id":"4","last_reported":1723392544,"current_range_meters":30800,"station_id":"ce4bhq12rcd13ifvqhhg","pricing_plan_id":"cebpf4jnsgd1na2vs0mg"},{"bike_id":"a4b40448-6591-4a27-8c15-b13938e02059","system_id":"levelo_inurba_marseille","lat":43.273613,"lon":5.362705,"is_reserved":false,"is_disabled":false,"rental_uris":{"android":"levelo://app?vid=a4b40448-6591-4a27-8c15-b13938e02059","ios":"levelo://app?vid=a4b40448-6591-4a27-8c15-b13938e02059"},"vehicle_type_id":"4","last_reported":1723392544,"current_range_meters":12000,"station_id":"ce4bhbh2rcd13ifvqeo0","pricing_plan_id":"cebpf4jnsgd1na2vs0mg"},{"bike_id":"67621353-9dcc-4bdb-ae0f-bf1d40cf3aa7","system_id":"levelo_inurba_marseille","lat":43.2738,"lon":5.36252,"is_reserved":false,"is_disabled":false,"rental_uris":{"android":"levelo://app?vid=67621353-9dcc-4bdb-ae0f-bf1d40cf3aa7","ios":"levelo://app?vid=67621353-9dcc-4bdb-ae0f-bf1d40cf3aa7"},"vehicle_type_id":"4","last_reported":1723392544,"current_range_meters":16400,"station_id":"ce4bhbh2rcd13ifvqeo0","pricing_plan_id":"cebpf4jnsgd1na2vs0mg"},{"bike_id":"837da155-264e-4ee6-8b8a-48ae386cce6f","system_id":"levelo_inurba_marseille","lat":43.273613,"lon":5.362705,"is_reserved":false,"is_disabled":false,"rental_uris":{"android":"levelo://app?vid=837da155-264e-4ee6-8b8a-48ae386cce6f","ios":"levelo://app?vid=837da155-264e-4ee6-8b8a-48ae386cce6f"},"vehicle_type_id":"4","last_reported":1723392544,"current_range_meters":15200,"station_id":"ce4bhbh2rcd13ifvqeo0","pricing_plan_id":"cebpf4jnsgd1na2vs0mg"},{"bike_id":"a4809b46-f74d-4f4e-a4fd-35821f4fc456","system_id":"levelo_inurba_marseille","lat":43.273613,"lon":5.362705,"is_reserved":false,"is_disabled":false,"rental_uris":{"android":"levelo://app?vid=a4809b46-f74d-4f4e-a4fd-35821f4fc456","ios":"levelo://app?vid=a4809b46-f74d-4f4e-a4fd-35821f4fc456"},"vehicle_type_id":"4","last_reported":1723392544,"current_range_meters":31200,"station_id":"ce4bhbh2rcd13ifvqeo0","pricing_plan_id":"cebpf4jnsgd1na2vs0mg"},{"bike_id":"890bd2c4-32dd-415f-8557-5acd8f754a32","system_id":"levelo_inurba_marseille","lat":43.273613,"lon":5.362705,"is_reserved":false,"is_disabled":false,"rental_uris":{"android":"levelo://app?vid=890bd2c4-32dd-415f-8557-5acd8f754a32","ios":"levelo://app?vid=890bd2c4-32dd-415f-8557-5acd8f754a32"},"vehicle_type_id":"4","last_reported":1723392544,"current_range_meters":4000,"station_id":"ce4bhbh2rcd13ifvqeo0","pricing_plan_id":"cebpf4jnsgd1na2vs0mg"},{"bike_id":"9c5ed5fc-7734-481f-a66e-9ab1b1f95509","system_id":"levelo_inurba_marseille","lat":43.273613,"lon":5.362705,"is_reserved":false,"is_disabled":false,"rental_uris":{"android":"levelo://app?vid=9c5ed5fc-7734-481f-a66e-9ab1b1f95509","ios":"levelo://app?vid=9c5ed5fc-7734-481f-a66e-9ab1b1f95509"},"vehicle_type_id":"4","last_reported":1723392544,"current_range_meters":0,"station_id":"ce4bhbh2rcd13ifvqeo0","pricing_plan_id":"cebpf4jnsgd1na2vs0mg"},{"bike_id":"22cfee06-df15-4c3d-add3-9b4a9b406913","system_id":"levelo_inurba_marseille","lat":43.27376,"lon":5.36245,"is_reserved":false,"is_disabled":false,"rental_uris":{"android":"levelo://app?vid=22cfee06-df15-4c3d-add3-9b4a9b406913","ios":"levelo://app?vid=22cfee06-df15-4c3d-add3-9b4a9b406913"},"vehicle_type_id":"4","last_reported":1723392544,"current_range_meters":31200,"station_id":"ce4bhbh2rcd13ifvqeo0","pricing_plan_id":"cebpf4jnsgd1na2vs0mg"},{"bike_id":"e7c0d4ec-91bf-4c4d-a1b4-427f0d35ee5e","system_id":"levelo_inurba_marseille","lat":43.273613,"lon":5.362705,"is_reserved":false,"is_disabled":false,"rental_uris":{"android":"levelo://app?vid=e7c0d4ec-91bf-4c4d-a1b4-427f0d35ee5e","ios":"levelo://app?vid=e7c0d4ec-91bf-4c4d-a1b4-427f0d35ee5e"},"vehicle_type_id":"4","last_reported":1723392544,"current_range_meters":15200,"station_id":"ce4bhbh2rcd13ifvqeo0","pricing_plan_id":"cebpf4jnsgd1na2vs0mg"},{"bike_id":"2c00f1d0-2788-4127-98b4-0ff8e3ccc256","system_id":"levelo_inurba_marseille","lat":43.273724,"lon":5.362635,"is_reserved":false,"is_disabled":false,"rental_uris":{"android":"levelo://app?vid=2c00f1d0-2788-4127-98b4-0ff8e3ccc256","ios":"levelo://app?vid=2c00f1d0-2788-4127-98b4-0ff8e3ccc256"},"vehicle_type_id":"4","last_reported":1723392544,"current_range_meters":0,"station_id":"ce4bhbh2rcd13ifvqeo0","pricing_plan_id":"cebpf4jnsgd1na2vs0mg"},{"bike_id":"11bbdaa9-dfc8-4e82-bf22-5b7f92d4c20b","system_id":"levelo_inurba_marseille","lat":43.27373,"lon":5.3625,"is_reserved":false,"is_disabled":false,"rental_uris":{"android":"levelo://app?vid=11bbdaa9-dfc8-4e82-bf22-5b7f92d4c20b","ios":"levelo://app?vid=11bbdaa9-dfc8-4e82-bf22-5b7f92d4c20b"},"vehicle_type_id":"4","last_reported":1723392544,"current_range_meters":16800,"station_id":"ce4bhbh2rcd13ifvqeo0","pricing_plan_id":"cebpf4jnsgd1na2vs0mg"},{"bike_id":"1d9eb6e8-8622-4e13-b4b6-e02a0ee770f4","system_id":"levelo_inurba_marseille","lat":43.27373,"lon":5.36248,"is_reserved":false,"is_disabled":false,"rental_uris":{"android":"levelo://app?vid=1d9eb6e8-8622-4e13-b4b6-e02a0ee770f4","ios":"levelo://app?vid=1d9eb6e8-8622-4e13-b4b6-e02a0ee770f4"},"vehicle_type_id":"4","last_reported":1723392544,"current_range_meters":0,"station_id":"ce4bhbh2rcd13ifvqeo0","pricing_plan_id":"cebpf4jnsgd1na2vs0mg"},{"bike_id":"50242c01-3fe5-4699-9c32-a99af03253de","system_id":"levelo_inurba_marseille","lat":43.33601,"lon":5.41033,"is_reserved":false,"is_disabled":false,"rental_uris":{"android":"levelo://app?vid=50242c01-3fe5-4699-9c32-a99af03253de","ios":"levelo://app?vid=50242c01-3fe5-4699-9c32-a99af03253de"},"vehicle_type_id":"4","last_reported":1723392544,"current_range_meters":0,"station_id":"ce4bhqh2rcd13ifvqhmg","pricing_plan_id":"cebpf4jnsgd1na2vs0mg"},{"bike_id":"f2449319-fd27-42cf-b231-84507061f58f","system_id":"levelo_inurba_marseille","lat":43.33612,"lon":5.410321,"is_reserved":false,"is_disabled":false,"rental_uris":{"android":"levelo://app?vid=f2449319-fd27-42cf-b231-84507061f58f","ios":"levelo://app?vid=f2449319-fd27-42cf-b231-84507061f58f"},"vehicle_type_id":"4","last_reported":1723392544,"current_range_meters":20800,"station_id":"ce4bhqh2rcd13ifvqhmg","pricing_plan_id":"cebpf4jnsgd1na2vs0mg"},{"bike_id":"b06ca05d-c118-4021-8ce4-f5bd8ae519f0","system_id":"levelo_inurba_marseille","lat":43.279185,"lon":5.395692,"is_reserved":false,"is_disabled":false,"rental_uris":{"android":"levelo://app?vid=b06ca05d-c118-4021-8ce4-f5bd8ae519f0","ios":"levelo://app?vid=b06ca05d-c118-4021-8ce4-f5bd8ae519f0"},"vehicle_type_id":"4","last_reported":1723392544,"current_range_meters":5200,"station_id":"ce4bhf92rcd13ifvqf40","pricing_plan_id":"cebpf4jnsgd1na2vs0mg"},{"bike_id":"abd86009-9905-4fe6-ac33-93b720710f55","system_id":"levelo_inurba_marseille","lat":43.279952,"lon":5.400085,"is_reserved":false,"is_disabled":false,"rental_uris":{"android":"levelo://app?vid=abd86009-9905-4fe6-ac33-93b720710f55","ios":"levelo://app?vid=abd86009-9905-4fe6-ac33-93b720710f55"},"vehicle_type_id":"4","last_reported":1723392544,"current_range_meters":0,"station_id":"ce4bho92rcd13ifvqh4g","pricing_plan_id":"cebpf4jnsgd1na2vs0mg"},{"bike_id":"3cb0a2f6-b6a9-4746-8c52-fc939242702a","system_id":"levelo_inurba_marseille","lat":43.29825,"lon":5.41997,"is_reserved":false,"is_disabled":false,"rental_uris":{"android":"levelo://app?vid=3cb0a2f6-b6a9-4746-8c52-fc939242702a","ios":"levelo://app?vid=3cb0a2f6-b6a9-4746-8c52-fc939242702a"},"vehicle_type_id":"4","last_reported":1723392544,"current_range_meters":7600,"station_id":"","pricing_plan_id":"cebpf4jnsgd1na2vs0mg"},{"bike_id":"b4a52e09-2a89-48bf-9939-22b905479969","system_id":"levelo_inurba_marseille","lat":43.317121,"lon":5.423936,"is_reserved":false,"is_disabled":false,"rental_uris":{"android":"levelo://app?vid=b4a52e09-2a89-48bf-9939-22b905479969","ios":"levelo://app?vid=b4a52e09-2a89-48bf-9939-22b905479969"},"vehicle_type_id":"4","last_reported":1723392544,"current_range_meters":31200,"station_id":"ce4bhp92rcd13ifvqhbg","pricing_plan_id":"cebpf4jnsgd1na2vs0mg"},{"bike_id":"6396528a-d774-42a8-9d20-eb3e6f88c5a4","system_id":"levelo_inurba_marseille","lat":43.317121,"lon":5.423936,"is_reserved":false,"is_disabled":false,"rental_uris":{"android":"levelo://app?vid=6396528a-d774-42a8-9d20-eb3e6f88c5a4","ios":"levelo://app?vid=6396528a-d774-42a8-9d20-eb3e6f88c5a4"},"vehicle_type_id":"4","last_reported":1723392544,"current_range_meters":9600,"station_id":"ce4bhp92rcd13ifvqhbg","pricing_plan_id":"cebpf4jnsgd1na2vs0mg"},{"bike_id":"2ea5a0ff-f8b9-411b-8d89-e81f5fb23743","system_id":"levelo_inurba_marseille","lat":43.31085,"lon":5.424297,"is_reserved":false,"is_disabled":false,"rental_uris":{"android":"levelo://app?vid=2ea5a0ff-f8b9-411b-8d89-e81f5fb23743","ios":"levelo://app?vid=2ea5a0ff-f8b9-411b-8d89-e81f5fb23743"},"vehicle_type_id":"4","last_reported":1723392544,"current_range_meters":1200,"station_id":"ce4bhp92rcd13ifvqhag","pricing_plan_id":"cebpf4jnsgd1na2vs0mg"},{"bike_id":"edcf2423-2f08-4b13-8a32-62f1ecde4d01","system_id":"levelo_inurba_marseille","lat":43.310785,"lon":5.424305,"is_reserved":false,"is_disabled":false,"rental_uris":{"android":"levelo://app?vid=edcf2423-2f08-4b13-8a32-62f1ecde4d01","ios":"levelo://app?vid=edcf2423-2f08-4b13-8a32-62f1ecde4d01"},"vehicle_type_id":"4","last_reported":1723392544,"current_range_meters":16000,"station_id":"ce4bhp92rcd13ifvqhag","pricing_plan_id":"cebpf4jnsgd1na2vs0mg"},{"bike_id":"01f13860-3c4f-4b04-befc-cea82b2b6e0f","system_id":"levelo_inurba_marseille","lat":43.340804,"lon":5.410219,"is_reserved":false,"is_disabled":false,"rental_uris":{"android":"levelo://app?vid=01f13860-3c4f-4b04-befc-cea82b2b6e0f","ios":"levelo://app?vid=01f13860-3c4f-4b04-befc-cea82b2b6e0f"},"vehicle_type_id":"4","last_reported":1723392544,"current_range_meters":17200,"station_id":"ce4bhqh2rcd13ifvqhlg","pricing_plan_id":"cebpf4jnsgd1na2vs0mg"},{"bike_id":"b9739f0e-7a96-493b-bc2f-7a7cff529d86","system_id":"levelo_inurba_marseille","lat":43.273125,"lon":5.390731,"is_reserved":false,"is_disabled":false,"rental_uris":{"android":"levelo://app?vid=b9739f0e-7a96-493b-bc2f-7a7cff529d86","ios":"levelo://app?vid=b9739f0e-7a96-493b-bc2f-7a7cff529d86"},"vehicle_type_id":"4","last_reported":1723392544,"current_range_meters":400,"station_id":"ce4bhgp2rcd13ifvqfe0","pricing_plan_id":"cebpf4jnsgd1na2vs0mg"},{"bike_id":"7ba2c908-1b91-4a33-9650-df85daf0f3bd","system_id":"levelo_inurba_marseille","lat":43.29553,"lon":5.42281,"is_reserved":false,"is_disabled":false,"rental_uris":{"android":"levelo://app?vid=7ba2c908-1b91-4a33-9650-df85daf0f3bd","ios":"levelo://app?vid=7ba2c908-1b91-4a33-9650-df85daf0f3bd"},"vehicle_type_id":"4","last_reported":1723392544,"current_range_meters":19200,"station_id":"ce4bhph2rcd13ifvqhdg","pricing_plan_id":"cebpf4jnsgd1na2vs0mg"},{"bike_id":"e7fd0ed3-4673-437b-ad47-e8048fa989dd","system_id":"levelo_inurba_marseille","lat":43.295511,"lon":5.422926,"is_reserved":false,"is_disabled":false,"rental_uris":{"android":"levelo://app?vid=e7fd0ed3-4673-437b-ad47-e8048fa989dd","ios":"levelo://app?vid=e7fd0ed3-4673-437b-ad47-e8048fa989dd"},"vehicle_type_id":"4","last_reported":1723392544,"current_range_meters":1600,"station_id":"ce4bhph2rcd13ifvqhdg","pricing_plan_id":"cebpf4jnsgd1na2vs0mg"},{"bike_id":"25fcb529-2309-4135-b6d8-98172a3eae7d","system_id":"levelo_inurba_marseille","lat":43.29553,"lon":5.42295,"is_reserved":false,"is_disabled":false,"rental_uris":{"android":"levelo://app?vid=25fcb529-2309-4135-b6d8-98172a3eae7d","ios":"levelo://app?vid=25fcb529-2309-4135-b6d8-98172a3eae7d"},"vehicle_type_id":"4","last_reported":1723392544,"current_range_meters":14800,"station_id":"ce4bhph2rcd13ifvqhdg","pricing_plan_id":"cebpf4jnsgd1na2vs0mg"},{"bike_id":"48f97002-72ad-42f6-b66a-0b4e8f203c30","system_id":"levelo_inurba_marseille","lat":43.295226,"lon":5.423037,"is_reserved":false,"is_disabled":false,"rental_uris":{"android":"levelo://app?vid=48f97002-72ad-42f6-b66a-0b4e8f203c30","ios":"levelo://app?vid=48f97002-72ad-42f6-b66a-0b4e8f203c30"},"vehicle_type_id":"4","last_reported":1723392544,"current_range_meters":16800,"station_id":"","pricing_plan_id":"cebpf4jnsgd1na2vs0mg"},{"bike_id":"f9ef8dc2-c9bb-4793-ae18-3aa4aff85bb8","system_id":"levelo_inurba_marseille","lat":43.2721,"lon":5.39165,"is_reserved":false,"is_disabled":false,"rental_uris":{"android":"levelo://app?vid=f9ef8dc2-c9bb-4793-ae18-3aa4aff85bb8","ios":"levelo://app?vid=f9ef8dc2-c9bb-4793-ae18-3aa4aff85bb8"},"vehicle_type_id":"4","last_reported":1723392544,"current_range_meters":0,"station_id":"ce4bhhp2rcd13ifvqfm0","pricing_plan_id":"cebpf4jnsgd1na2vs0mg"},{"bike_id":"0ee1251b-2bb1-4a31-8c5d-e5f28d94e2dc","system_id":"levelo_inurba_marseille","lat":43.272118,"lon":5.391758,"is_reserved":false,"is_disabled":false,"rental_uris":{"android":"levelo://app?vid=0ee1251b-2bb1-4a31-8c5d-e5f28d94e2dc","ios":"levelo://app?vid=0ee1251b-2bb1-4a31-8c5d-e5f28d94e2dc"},"vehicle_type_id":"4","last_reported":1723392544,"current_range_meters":10800,"station_id":"ce4bhhp2rcd13ifvqfm0","pricing_plan_id":"cebpf4jnsgd1na2vs0mg"},{"bike_id":"cf4f1387-fccc-427d-a8b0-b8cd2cc52a2b","system_id":"levelo_inurba_marseille","lat":43.272116,"lon":5.391747,"is_reserved":false,"is_disabled":false,"rental_uris":{"android":"levelo://app?vid=cf4f1387-fccc-427d-a8b0-b8cd2cc52a2b","ios":"levelo://app?vid=cf4f1387-fccc-427d-a8b0-b8cd2cc52a2b"},"vehicle_type_id":"4","last_reported":1723392544,"current_range_meters":28400,"station_id":"ce4bhhp2rcd13ifvqfm0","pricing_plan_id":"cebpf4jnsgd1na2vs0mg"},{"bike_id":"e8b0f462-0fcb-4205-aaf7-8b38cc90ff20","system_id":"levelo_inurba_marseille","lat":43.272118,"lon":5.391758,"is_reserved":false,"is_disabled":false,"rental_uris":{"android":"levelo://app?vid=e8b0f462-0fcb-4205-aaf7-8b38cc90ff20","ios":"levelo://app?vid=e8b0f462-0fcb-4205-aaf7-8b38cc90ff20"},"vehicle_type_id":"4","last_reported":1723392544,"current_range_meters":800,"station_id":"ce4bhhp2rcd13ifvqfm0","pricing_plan_id":"cebpf4jnsgd1na2vs0mg"},{"bike_id":"a8803dd2-2fba-496b-9b62-7bccfb19093a","system_id":"levelo_inurba_marseille","lat":43.27813,"lon":5.40704,"is_reserved":false,"is_disabled":false,"rental_uris":{"android":"levelo://app?vid=a8803dd2-2fba-496b-9b62-7bccfb19093a","ios":"levelo://app?vid=a8803dd2-2fba-496b-9b62-7bccfb19093a"},"vehicle_type_id":"4","last_reported":1723392544,"current_range_meters":26800,"station_id":"ce4bhnh2rcd13ifvqgtg","pricing_plan_id":"cebpf4jnsgd1na2vs0mg"},{"bike_id":"abcefb5a-f433-4a5b-b359-271aaf8fc5a4","system_id":"levelo_inurba_marseille","lat":43.269467,"lon":5.386439,"is_reserved":false,"is_disabled":false,"rental_uris":{"android":"levelo://app?vid=abcefb5a-f433-4a5b-b359-271aaf8fc5a4","ios":"levelo://app?vid=abcefb5a-f433-4a5b-b359-271aaf8fc5a4"},"vehicle_type_id":"4","last_reported":1723392544,"current_range_meters":4000,"station_id":"ce4bhh92rcd13ifvqfh0","pricing_plan_id":"cebpf4jnsgd1na2vs0mg"},{"bike_id":"d5345389-b8c4-4462-9b53-bdec357fc5ff","system_id":"levelo_inurba_marseille","lat":43.279465,"lon":5.410561,"is_reserved":false,"is_disabled":false,"rental_uris":{"android":"levelo://app?vid=d5345389-b8c4-4462-9b53-bdec357fc5ff","ios":"levelo://app?vid=d5345389-b8c4-4462-9b53-bdec357fc5ff"},"vehicle_type_id":"4","last_reported":1723392544,"current_range_meters":1200,"station_id":"ce4bhnp2rcd13ifvqh0g","pricing_plan_id":"cebpf4jnsgd1na2vs0mg"},{"bike_id":"b46f3a9b-2e65-4781-b32d-f0bfd16a9917","system_id":"levelo_inurba_marseille","lat":43.279465,"lon":5.410561,"is_reserved":false,"is_disabled":false,"rental_uris":{"android":"levelo://app?vid=b46f3a9b-2e65-4781-b32d-f0bfd16a9917","ios":"levelo://app?vid=b46f3a9b-2e65-4781-b32d-f0bfd16a9917"},"vehicle_type_id":"4","last_reported":1723392544,"current_range_meters":18000,"station_id":"ce4bhnp2rcd13ifvqh0g","pricing_plan_id":"cebpf4jnsgd1na2vs0mg"},{"bike_id":"03161ea8-5959-4716-a9bf-86bd1d1313ed","system_id":"levelo_inurba_marseille","lat":43.279465,"lon":5.410561,"is_reserved":false,"is_disabled":false,"rental_uris":{"android":"levelo://app?vid=03161ea8-5959-4716-a9bf-86bd1d1313ed","ios":"levelo://app?vid=03161ea8-5959-4716-a9bf-86bd1d1313ed"},"vehicle_type_id":"4","last_reported":1723392544,"current_range_meters":20400,"station_id":"ce4bhnp2rcd13ifvqh0g","pricing_plan_id":"cebpf4jnsgd1na2vs0mg"},{"bike_id":"9438ff43-7116-43cd-9bef-768f9e81a00b","system_id":"levelo_inurba_marseille","lat":43.267966,"lon":5.393976,"is_reserved":false,"is_disabled":false,"rental_uris":{"android":"levelo://app?vid=9438ff43-7116-43cd-9bef-768f9e81a00b","ios":"levelo://app?vid=9438ff43-7116-43cd-9bef-768f9e81a00b"},"vehicle_type_id":"4","last_reported":1723392544,"current_range_meters":20400,"station_id":"ce4bhh12rcd13ifvqfg0","pricing_plan_id":"cebpf4jnsgd1na2vs0mg"},{"bike_id":"d568f026-def7-4366-96b2-dd0797c9b0a4","system_id":"levelo_inurba_marseille","lat":43.267966,"lon":5.393976,"is_reserved":false,"is_disabled":false,"rental_uris":{"android":"levelo://app?vid=d568f026-def7-4366-96b2-dd0797c9b0a4","ios":"levelo://app?vid=d568f026-def7-4366-96b2-dd0797c9b0a4"},"vehicle_type_id":"4","last_reported":1723392544,"current_range_meters":7200,"station_id":"ce4bhh12rcd13ifvqfg0","pricing_plan_id":"cebpf4jnsgd1na2vs0mg"},{"bike_id":"d6a53c57-d55a-4ffa-9deb-7ec2a8279b59","system_id":"levelo_inurba_marseille","lat":43.307935,"lon":5.435245,"is_reserved":false,"is_disabled":false,"rental_uris":{"android":"levelo://app?vid=d6a53c57-d55a-4ffa-9deb-7ec2a8279b59","ios":"levelo://app?vid=d6a53c57-d55a-4ffa-9deb-7ec2a8279b59"},"vehicle_type_id":"4","last_reported":1723392544,"current_range_meters":31200,"station_id":"ce4bhph2rcd13ifvqheg","pricing_plan_id":"cebpf4jnsgd1na2vs0mg"},{"bike_id":"322c7f84-50aa-413a-bb08-521acbd4a264","system_id":"levelo_inurba_marseille","lat":43.308017,"lon":5.435264,"is_reserved":false,"is_disabled":false,"rental_uris":{"android":"levelo://app?vid=322c7f84-50aa-413a-bb08-521acbd4a264","ios":"levelo://app?vid=322c7f84-50aa-413a-bb08-521acbd4a264"},"vehicle_type_id":"4","last_reported":1723392544,"current_range_meters":30800,"station_id":"ce4bhph2rcd13ifvqheg","pricing_plan_id":"cebpf4jnsgd1na2vs0mg"},{"bike_id":"97e3cb42-bfc5-420e-987a-a89ce9d72e9e","system_id":"levelo_inurba_marseille","lat":43.265569,"lon":5.390047,"is_reserved":false,"is_disabled":false,"rental_uris":{"android":"levelo://app?vid=97e3cb42-bfc5-420e-987a-a89ce9d72e9e","ios":"levelo://app?vid=97e3cb42-bfc5-420e-987a-a89ce9d72e9e"},"vehicle_type_id":"4","last_reported":1723392544,"current_range_meters":4000,"station_id":"ce4bhe12rcd13ifvqf30","pricing_plan_id":"cebpf4jnsgd1na2vs0mg"},{"bike_id":"bc797801-01f8-4b2e-97ad-e174b84a8b24","system_id":"levelo_inurba_marseille","lat":43.265569,"lon":5.390047,"is_reserved":false,"is_disabled":false,"rental_uris":{"android":"levelo://app?vid=bc797801-01f8-4b2e-97ad-e174b84a8b24","ios":"levelo://app?vid=bc797801-01f8-4b2e-97ad-e174b84a8b24"},"vehicle_type_id":"4","last_reported":1723392544,"current_range_meters":4000,"station_id":"ce4bhe12rcd13ifvqf30","pricing_plan_id":"cebpf4jnsgd1na2vs0mg"},{"bike_id":"74d75b18-400f-4f21-82d0-296bad585e57","system_id":"levelo_inurba_marseille","lat":43.26949,"lon":5.40262,"is_reserved":false,"is_disabled":false,"rental_uris":{"android":"levelo://app?vid=74d75b18-400f-4f21-82d0-296bad585e57","ios":"levelo://app?vid=74d75b18-400f-4f21-82d0-296bad585e57"},"vehicle_type_id":"4","last_reported":1723392544,"current_range_meters":18800,"station_id":"cjm6bp8fraef2m0cb0m0","pricing_plan_id":"cebpf4jnsgd1na2vs0mg"},{"bike_id":"15f1a1c2-6cae-4679-afb2-a8c6c2dc9a46","system_id":"levelo_inurba_marseille","lat":43.26217,"lon":5.37444,"is_reserved":false,"is_disabled":false,"rental_uris":{"android":"levelo://app?vid=15f1a1c2-6cae-4679-afb2-a8c6c2dc9a46","ios":"levelo://app?vid=15f1a1c2-6cae-4679-afb2-a8c6c2dc9a46"},"vehicle_type_id":"4","last_reported":1723392544,"current_range_meters":30800,"station_id":"ce4bhgp2rcd13ifvqfc0","pricing_plan_id":"cebpf4jnsgd1na2vs0mg"},{"bike_id":"dfa7111f-285a-49b4-ba93-f8e20089baee","system_id":"levelo_inurba_marseille","lat":43.261782,"lon":5.374515,"is_reserved":false,"is_disabled":false,"rental_uris":{"android":"levelo://app?vid=dfa7111f-285a-49b4-ba93-f8e20089baee","ios":"levelo://app?vid=dfa7111f-285a-49b4-ba93-f8e20089baee"},"vehicle_type_id":"4","last_reported":1723392544,"current_range_meters":0,"station_id":"ce4bhgp2rcd13ifvqfc0","pricing_plan_id":"cebpf4jnsgd1na2vs0mg"},{"bike_id":"4d01494e-acdb-4e60-82c0-8af6198eada6","system_id":"levelo_inurba_marseille","lat":43.26214,"lon":5.37437,"is_reserved":false,"is_disabled":false,"rental_uris":{"android":"levelo://app?vid=4d01494e-acdb-4e60-82c0-8af6198eada6","ios":"levelo://app?vid=4d01494e-acdb-4e60-82c0-8af6198eada6"},"vehicle_type_id":"4","last_reported":1723392544,"current_range_meters":11200,"station_id":"ce4bhgp2rcd13ifvqfc0","pricing_plan_id":"cebpf4jnsgd1na2vs0mg"},{"bike_id":"fda3c208-48fc-475a-80d9-db1732a92172","system_id":"levelo_inurba_marseille","lat":43.261782,"lon":5.374515,"is_reserved":false,"is_disabled":false,"rental_uris":{"android":"levelo://app?vid=fda3c208-48fc-475a-80d9-db1732a92172","ios":"levelo://app?vid=fda3c208-48fc-475a-80d9-db1732a92172"},"vehicle_type_id":"4","last_reported":1723392544,"current_range_meters":31200,"station_id":"ce4bhgp2rcd13ifvqfc0","pricing_plan_id":"cebpf4jnsgd1na2vs0mg"},{"bike_id":"803f64ad-24ca-46da-9849-a22adea47e9a","system_id":"levelo_inurba_marseille","lat":43.26197,"lon":5.37446,"is_reserved":false,"is_disabled":false,"rental_uris":{"android":"levelo://app?vid=803f64ad-24ca-46da-9849-a22adea47e9a","ios":"levelo://app?vid=803f64ad-24ca-46da-9849-a22adea47e9a"},"vehicle_type_id":"4","last_reported":1723392544,"current_range_meters":25200,"station_id":"ce4bhgp2rcd13ifvqfc0","pricing_plan_id":"cebpf4jnsgd1na2vs0mg"},{"bike_id":"280f073a-f63d-4c7d-a9a6-718e6ab2bcd6","system_id":"levelo_inurba_marseille","lat":43.26192,"lon":5.37441,"is_reserved":false,"is_disabled":false,"rental_uris":{"android":"levelo://app?vid=280f073a-f63d-4c7d-a9a6-718e6ab2bcd6","ios":"levelo://app?vid=280f073a-f63d-4c7d-a9a6-718e6ab2bcd6"},"vehicle_type_id":"4","last_reported":1723392544,"current_range_meters":30000,"station_id":"ce4bhgp2rcd13ifvqfc0","pricing_plan_id":"cebpf4jnsgd1na2vs0mg"},{"bike_id":"1cb880ca-9dbc-4bdf-8f0d-d3de79f054eb","system_id":"levelo_inurba_marseille","lat":43.317104,"lon":5.436818,"is_reserved":false,"is_disabled":false,"rental_uris":{"android":"levelo://app?vid=1cb880ca-9dbc-4bdf-8f0d-d3de79f054eb","ios":"levelo://app?vid=1cb880ca-9dbc-4bdf-8f0d-d3de79f054eb"},"vehicle_type_id":"4","last_reported":1723392544,"current_range_meters":1200,"station_id":"ce4bhp92rcd13ifvqhcg","pricing_plan_id":"cebpf4jnsgd1na2vs0mg"},{"bike_id":"10acb278-6f4d-4bdb-b791-f07f4200c49d","system_id":"levelo_inurba_marseille","lat":43.2619,"lon":5.37449,"is_reserved":false,"is_disabled":false,"rental_uris":{"android":"levelo://app?vid=10acb278-6f4d-4bdb-b791-f07f4200c49d","ios":"levelo://app?vid=10acb278-6f4d-4bdb-b791-f07f4200c49d"},"vehicle_type_id":"4","last_reported":1723392544,"current_range_meters":24400,"station_id":"ce4bhgp2rcd13ifvqfc0","pricing_plan_id":"cebpf4jnsgd1na2vs0mg"},{"bike_id":"443e1b19-7832-4598-a1bf-e90f8bba5c6d","system_id":"levelo_inurba_marseille","lat":43.26189,"lon":5.37447,"is_reserved":false,"is_disabled":false,"rental_uris":{"android":"levelo://app?vid=443e1b19-7832-4598-a1bf-e90f8bba5c6d","ios":"levelo://app?vid=443e1b19-7832-4598-a1bf-e90f8bba5c6d"},"vehicle_type_id":"4","last_reported":1723392544,"current_range_meters":21200,"station_id":"ce4bhgp2rcd13ifvqfc0","pricing_plan_id":"cebpf4jnsgd1na2vs0mg"},{"bike_id":"319ade0d-d0d1-4df3-8ac9-48e69e7696aa","system_id":"levelo_inurba_marseille","lat":43.317104,"lon":5.436818,"is_reserved":false,"is_disabled":false,"rental_uris":{"android":"levelo://app?vid=319ade0d-d0d1-4df3-8ac9-48e69e7696aa","ios":"levelo://app?vid=319ade0d-d0d1-4df3-8ac9-48e69e7696aa"},"vehicle_type_id":"4","last_reported":1723392544,"current_range_meters":11200,"station_id":"ce4bhp92rcd13ifvqhcg","pricing_plan_id":"cebpf4jnsgd1na2vs0mg"},{"bike_id":"1a9275cf-3980-4b59-ba5d-acf129004ade","system_id":"levelo_inurba_marseille","lat":43.317104,"lon":5.436818,"is_reserved":false,"is_disabled":false,"rental_uris":{"android":"levelo://app?vid=1a9275cf-3980-4b59-ba5d-acf129004ade","ios":"levelo://app?vid=1a9275cf-3980-4b59-ba5d-acf129004ade"},"vehicle_type_id":"4","last_reported":1723392544,"current_range_meters":31200,"station_id":"ce4bhp92rcd13ifvqhcg","pricing_plan_id":"cebpf4jnsgd1na2vs0mg"},{"bike_id":"a656ba86-0ae3-4e12-9239-741eb0ed552a","system_id":"levelo_inurba_marseille","lat":43.317164,"lon":5.437036,"is_reserved":false,"is_disabled":false,"rental_uris":{"android":"levelo://app?vid=a656ba86-0ae3-4e12-9239-741eb0ed552a","ios":"levelo://app?vid=a656ba86-0ae3-4e12-9239-741eb0ed552a"},"vehicle_type_id":"4","last_reported":1723392544,"current_range_meters":4800,"station_id":"ce4bhp92rcd13ifvqhcg","pricing_plan_id":"cebpf4jnsgd1na2vs0mg"},{"bike_id":"94a87db9-50d6-4d64-b14e-5b414ebe18a1","system_id":"levelo_inurba_marseille","lat":43.261782,"lon":5.374515,"is_reserved":false,"is_disabled":false,"rental_uris":{"android":"levelo://app?vid=94a87db9-50d6-4d64-b14e-5b414ebe18a1","ios":"levelo://app?vid=94a87db9-50d6-4d64-b14e-5b414ebe18a1"},"vehicle_type_id":"4","last_reported":1723392544,"current_range_meters":31200,"station_id":"ce4bhgp2rcd13ifvqfc0","pricing_plan_id":"cebpf4jnsgd1na2vs0mg"},{"bike_id":"61900e8a-2e6b-4630-8f88-9095afa0c048","system_id":"levelo_inurba_marseille","lat":43.28009,"lon":5.42135,"is_reserved":false,"is_disabled":false,"rental_uris":{"android":"levelo://app?vid=61900e8a-2e6b-4630-8f88-9095afa0c048","ios":"levelo://app?vid=61900e8a-2e6b-4630-8f88-9095afa0c048"},"vehicle_type_id":"4","last_reported":1723392544,"current_range_meters":1200,"station_id":"","pricing_plan_id":"cebpf4jnsgd1na2vs0mg"},{"bike_id":"9f4c2743-4e27-4cb1-a68a-d56c26559cb0","system_id":"levelo_inurba_marseille","lat":43.26199,"lon":5.37931,"is_reserved":false,"is_disabled":false,"rental_uris":{"android":"levelo://app?vid=9f4c2743-4e27-4cb1-a68a-d56c26559cb0","ios":"levelo://app?vid=9f4c2743-4e27-4cb1-a68a-d56c26559cb0"},"vehicle_type_id":"4","last_reported":1723392544,"current_range_meters":1600,"station_id":"ce4bhjp2rcd13ifvqg90","pricing_plan_id":"cebpf4jnsgd1na2vs0mg"},{"bike_id":"ecfe357a-5dfd-4345-bcf5-20dae552741a","system_id":"levelo_inurba_marseille","lat":43.271368,"lon":5.40928,"is_reserved":false,"is_disabled":false,"rental_uris":{"android":"levelo://app?vid=ecfe357a-5dfd-4345-bcf5-20dae552741a","ios":"levelo://app?vid=ecfe357a-5dfd-4345-bcf5-20dae552741a"},"vehicle_type_id":"4","last_reported":1723392544,"current_range_meters":26800,"station_id":"ce4bhl12rcd13ifvqgf0","pricing_plan_id":"cebpf4jnsgd1na2vs0mg"},{"bike_id":"afaf5fad-8ded-4155-b385-f073b4c3ad03","system_id":"levelo_inurba_marseille","lat":43.271388,"lon":5.409269,"is_reserved":false,"is_disabled":false,"rental_uris":{"android":"levelo://app?vid=afaf5fad-8ded-4155-b385-f073b4c3ad03","ios":"levelo://app?vid=afaf5fad-8ded-4155-b385-f073b4c3ad03"},"vehicle_type_id":"4","last_reported":1723392544,"current_range_meters":11600,"station_id":"ce4bhl12rcd13ifvqgf0","pricing_plan_id":"cebpf4jnsgd1na2vs0mg"},{"bike_id":"90e393f7-4157-4239-8ad9-61e0a88d0799","system_id":"levelo_inurba_marseille","lat":43.271368,"lon":5.40928,"is_reserved":false,"is_disabled":false,"rental_uris":{"android":"levelo://app?vid=90e393f7-4157-4239-8ad9-61e0a88d0799","ios":"levelo://app?vid=90e393f7-4157-4239-8ad9-61e0a88d0799"},"vehicle_type_id":"4","last_reported":1723392544,"current_range_meters":19200,"station_id":"ce4bhl12rcd13ifvqgf0","pricing_plan_id":"cebpf4jnsgd1na2vs0mg"},{"bike_id":"01b3291d-2d40-4b56-9335-2251d0dc74ad","system_id":"levelo_inurba_marseille","lat":43.267959,"lon":5.402685,"is_reserved":false,"is_disabled":false,"rental_uris":{"android":"levelo://app?vid=01b3291d-2d40-4b56-9335-2251d0dc74ad","ios":"levelo://app?vid=01b3291d-2d40-4b56-9335-2251d0dc74ad"},"vehicle_type_id":"4","last_reported":1723392544,"current_range_meters":21200,"station_id":"ce501612rcd8frsf0b60","pricing_plan_id":"cebpf4jnsgd1na2vs0mg"},{"bike_id":"c4b21385-7cd9-4bcb-b72c-dd8ad30761f1","system_id":"levelo_inurba_marseille","lat":43.29901,"lon":5.4365,"is_reserved":false,"is_disabled":false,"rental_uris":{"android":"levelo://app?vid=c4b21385-7cd9-4bcb-b72c-dd8ad30761f1","ios":"levelo://app?vid=c4b21385-7cd9-4bcb-b72c-dd8ad30761f1"},"vehicle_type_id":"4","last_reported":1723392544,"current_range_meters":29200,"station_id":"ce4bhpp2rcd13ifvqhfg","pricing_plan_id":"cebpf4jnsgd1na2vs0mg"},{"bike_id":"d984c32b-7046-414f-9689-86a2f283a3a1","system_id":"levelo_inurba_marseille","lat":43.298768,"lon":5.43643,"is_reserved":false,"is_disabled":false,"rental_uris":{"android":"levelo://app?vid=d984c32b-7046-414f-9689-86a2f283a3a1","ios":"levelo://app?vid=d984c32b-7046-414f-9689-86a2f283a3a1"},"vehicle_type_id":"4","last_reported":1723392544,"current_range_meters":0,"station_id":"ce4bhpp2rcd13ifvqhfg","pricing_plan_id":"cebpf4jnsgd1na2vs0mg"},{"bike_id":"ee5c6c11-a03e-4fd8-bdf5-03bcaa76bc62","system_id":"levelo_inurba_marseille","lat":43.298953,"lon":5.436648,"is_reserved":false,"is_disabled":false,"rental_uris":{"android":"levelo://app?vid=ee5c6c11-a03e-4fd8-bdf5-03bcaa76bc62","ios":"levelo://app?vid=ee5c6c11-a03e-4fd8-bdf5-03bcaa76bc62"},"vehicle_type_id":"4","last_reported":1723392544,"current_range_meters":28400,"station_id":"ce4bhpp2rcd13ifvqhfg","pricing_plan_id":"cebpf4jnsgd1na2vs0mg"},{"bike_id":"80e46a58-32ed-4155-8426-5a5f381c127f","system_id":"levelo_inurba_marseille","lat":43.298768,"lon":5.43643,"is_reserved":false,"is_disabled":false,"rental_uris":{"android":"levelo://app?vid=80e46a58-32ed-4155-8426-5a5f381c127f","ios":"levelo://app?vid=80e46a58-32ed-4155-8426-5a5f381c127f"},"vehicle_type_id":"4","last_reported":1723392544,"current_range_meters":30000,"station_id":"ce4bhpp2rcd13ifvqhfg","pricing_plan_id":"cebpf4jnsgd1na2vs0mg"},{"bike_id":"e8900488-051f-4149-afe4-9aa44caf6e07","system_id":"levelo_inurba_marseille","lat":43.26027,"lon":5.37549,"is_reserved":false,"is_disabled":false,"rental_uris":{"android":"levelo://app?vid=e8900488-051f-4149-afe4-9aa44caf6e07","ios":"levelo://app?vid=e8900488-051f-4149-afe4-9aa44caf6e07"},"vehicle_type_id":"4","last_reported":1723392544,"current_range_meters":31200,"station_id":"ce4bhgh2rcd13ifvqfa0","pricing_plan_id":"cebpf4jnsgd1na2vs0mg"},{"bike_id":"dd2932c0-aaa3-4bbb-8909-5d9c5e550656","system_id":"levelo_inurba_marseille","lat":43.281548,"lon":5.42643,"is_reserved":false,"is_disabled":false,"rental_uris":{"android":"levelo://app?vid=dd2932c0-aaa3-4bbb-8909-5d9c5e550656","ios":"levelo://app?vid=dd2932c0-aaa3-4bbb-8909-5d9c5e550656"},"vehicle_type_id":"4","last_reported":1723392544,"current_range_meters":19600,"station_id":"ce4bhnh2rcd13ifvqgug","pricing_plan_id":"cebpf4jnsgd1na2vs0mg"},