{"last_updated":1733369323,"ttl":60,"version":"2.2","data":{"bikes":[{"bike_id":"ecd81b9c-f0d4-4035-a3f0-a74e44da2ebd","system_id":"levelo_inurba_marseille","lat":43.31071,"lon":5.38351,"is_reserved":false,"is_disabled":false,"rental_uris":{"android":"levelo://app?vid=ecd81b9c-f0d4-4035-a3f0-a74e44da2ebd","ios":"levelo://app?vid=ecd81b9c-f0d4-4035-a3f0-a74e44da2ebd"},"vehicle_type_id":"4","last_reported":1733369323,"current_range_meters":20800,"station_id":"ce4bgv92rcd13ifvqcr0","pricing_plan_id":"cebpf4jnsgd1na2vs0mg"},{"bike_id":"77c14c1e-737a-4a68-a295-68645babb56c","system_id":"levelo_inurba_marseille","lat":43.27494,"lon":5.42458,"is_reserved":false,"is_disabled":false,"rental_uris":{"android":"levelo://app?vid=77c14c1e-737a-4a68-a295-68645babb56c","ios":"levelo://app?vid=77c14c1e-737a-4a68-a295-68645babb56c"},"vehicle_type_id":"4","last_reported":1733369323,"current_range_meters":38000,"station_id":"ce4bhn92rcd13ifvqgrg","pricing_plan_id":"cebpf4jnsgd1na2vs0mg"},{"bike_id":"a97ff103-80f4-4af0-ab5e-92bafcd223d0","system_id":"levelo_inurba_marseille","lat":43.27913,"lon":5.3959,"is_reserved":false,"is_disabled":false,"rental_uris":{"android":"levelo://app?vid=a97ff103-80f4-4af0-ab5e-92bafcd223d0","ios":"levelo://app?vid=a97ff103-80f4-4af0-ab5e-92bafcd223d0"},"vehicle_type_id":"4","last_reported":1733369323,"current_range_meters":38400,"station_id":"ce4bhf92rcd13ifvqf40","pricing_plan_id":"cebpf4jnsgd1na2vs0mg"},{"bike_id":"df479c2c-35ac-44ad-b9d6-81c89ed769ce","system_id":"levelo_inurba_marseille","lat":43.29699,"lon":5.37054,"is_reserved":false,"is_disabled":true,"rental_uris":{"android":"levelo://app?vid=df479c2c-35ac-44ad-b9d6-81c89ed769ce","ios":"levelo://app?vid=df479c2c-35ac-44ad-b9d6-81c89ed769ce"},"vehicle_type_id":"4","last_reported":1733369323,"current_range_meters":0,"station_id":"","pricing_plan_id":"cebpf4jnsgd1na2vs0mg"},{"bike_id":"8e029eaf-e104-4c5d-858d-6cd39de73d09","system_id":"levelo_inurba_marseille","lat":43.241701,"lon":5.363891,"is_reserved":false,"is_disabled":false,"rental_uris":{"android":"levelo://app?vid=8e029eaf-e104-4c5d-858d-6cd39de73d09","ios":"levelo://app?vid=8e029eaf-e104-4c5d-858d-6cd39de73d09"},"vehicle_type_id":"4","last_reported":1733369323,"current_range_meters":8000,"station_id":"cpo36qri1sfpv3e86is0","pricing_plan_id":"cebpf4jnsgd1na2vs0mg"},{"bike_id":"c85ad4de-6412-4438-aec5-85d8df3a3ba7","system_id":"levelo_inurba_marseille","lat":43.28938,"lon":5.39633,"is_reserved":false,"is_disabled":false,"rental_uris":{"android":"levelo://app?vid=c85ad4de-6412-4438-aec5-85d8df3a3ba7","ios":"levelo://app?vid=c85ad4de-6412-4438-aec5-85d8df3a3ba7"},"vehicle_type_id":"4","last_reported":1733369323,"current_range_meters":37600,"station_id":"ce4bh3h2rcd13ifvqdn0","pricing_plan_id":"cebpf4jnsgd1na2vs0mg"},{"bike_id":"fd85f247-bc9f-4512-8957-89e7641ccdee","system_id":"levelo_inurba_marseille","lat":43.32476,"lon":5.36575,"is_reserved":false,"is_disabled":false,"rental_uris":{"android":"levelo://app?vid=fd85f247-bc9f-4512-8957-89e7641ccdee","ios":"levelo://app?vid=fd85f247-bc9f-4512-8957-89e7641ccdee"},"vehicle_type_id":"4","last_reported":1733369323,"current_range_meters":32000,"station_id":"ce4bhs12rcd13ifvqhvg","pricing_plan_id":"cebpf4jnsgd1na2vs0mg"},{"bike_id":"2b3abd02-dc37-4d98-8425-83c48f853bb9","system_id":"levelo_inurba_marseille","lat":43.27811,"lon":5.40711,"is_reserved":false,"is_disabled":false,"rental_uris":{"android":"levelo://app?vid=2b3abd02-dc37-4d98-8425-83c48f853bb9","ios":"levelo://app?vid=2b3abd02-dc37-4d98-8425-83c48f853bb9"},"vehicle_type_id":"4","last_reported":1733369323,"current_range_meters":30000,"station_id":"ce4bhnh2rcd13ifvqgtg","pricing_plan_id":"cebpf4jnsgd1na2vs0mg"},{"bike_id":"4f001944-ebd8-4c49-90db-2d6f9239e64d","system_id":"levelo_inurba_marseille","lat":43.26559,"lon":5.37292,"is_reserved":false,"is_disabled":false,"rental_uris":{"android":"levelo://app?vid=4f001944-ebd8-4c49-90db-2d6f9239e64d","ios":"levelo://app?vid=4f001944-ebd8-4c49-90db-2d6f9239e64d"},"vehicle_type_id":"4","last_reported":1733369323,"current_range_meters":13600,"station_id":"ce4bhg12rcd13ifvqf70","pricing_plan_id":"cebpf4jnsgd1na2vs0mg"},{"bike_id":"09016331-8199-4b96-8644-9fffcf138801","system_id":"levelo_inurba_marseille","lat":43.28156,"lon":5.42649,"is_reserved":false,"is_disabled":false,"rental_uris":{"android":"levelo://app?vid=09016331-8199-4b96-8644-9fffcf138801","ios":"levelo://app?vid=09016331-8199-4b96-8644-9fffcf138801"},"vehicle_type_id":"4","last_reported":1733369323,"current_range_meters":15200,"station_id":"ce4bhnh2rcd13ifvqgug","pricing_plan_id":"cebpf4jnsgd1na2vs0mg"},{"bike_id":"b03a6a4e-535b-4e1a-a28b-ae3d5f12709c","system_id":"levelo_inurba_marseille","lat":43.30275,"lon":5.38924,"is_reserved":false,"is_disabled":false,"rental_uris":{"android":"levelo://app?vid=b03a6a4e-535b-4e1a-a28b-ae3d5f12709c","ios":"levelo://app?vid=b03a6a4e-535b-4e1a-a28b-ae3d5f12709c"},"vehicle_type_id":"4","last_reported":1733369323,"current_range_meters":17600,"station_id":"","pricing_plan_id":"cebpf4jnsgd1na2vs0mg"},{"bike_id":"be407bbe-d1ce-48de-8db2-09114af9efd7","system_id":"levelo_inurba_marseille","lat":43.32365,"lon":5.36762,"is_reserved":false,"is_disabled":false,"rental_uris":{"android":"levelo://app?vid=be407bbe-d1ce-48de-8db2-09114af9efd7","ios":"levelo://app?vid=be407bbe-d1ce-48de-8db2-09114af9efd7"},"vehicle_type_id":"4","last_reported":1733369323,"current_range_meters":30800,"station_id":"ce4bhsh2rcd13ifvqi2g","pricing_plan_id":"cebpf4jnsgd1na2vs0mg"},{"bike_id":"2deb87bb-c3ca-431b-995a-86ed2e6ed434","system_id":"levelo_inurba_marseille","lat":43.2841,"lon":5.37523,"is_reserved":false,"is_disabled":false,"rental_uris":{"android":"levelo://app?vid=2deb87bb-c3ca-431b-995a-86ed2e6ed434","ios":"levelo://app?vid=2deb87bb-c3ca-431b-995a-86ed2e6ed434"},"vehicle_type_id":"4","last_reported":1733369323,"current_range_meters":8000,"station_id":"ce4bh412rcd13ifvqds0","pricing_plan_id":"cebpf4jnsgd1na2vs0mg"},{"bike_id":"5d7199bc-3f87-41ac-b957-9e7426ef323e","system_id":"levelo_inurba_marseille","lat":43.27997,"lon":5.41657,"is_reserved":false,"is_disabled":false,"rental_uris":{"android":"levelo://app?vid=5d7199bc-3f87-41ac-b957-9e7426ef323e","ios":"levelo://app?vid=5d7199bc-3f87-41ac-b957-9e7426ef323e"},"vehicle_type_id":"4","last_reported":1733369323,"current_range_meters":38800,"station_id":"ce4bho12rcd13ifvqh1g","pricing_plan_id":"cebpf4jnsgd1na2vs0mg"},{"bike_id":"d15f865a-2215-4241-a130-e2aef5448854","system_id":"levelo_inurba_marseille","lat":43.27615,"lon":5.36112,"is_reserved":false,"is_disabled":false,"rental_uris":{"android":"levelo://app?vid=d15f865a-2215-4241-a130-e2aef5448854","ios":"levelo://app?vid=d15f865a-2215-4241-a130-e2aef5448854"},"vehicle_type_id":"4","last_reported":1733369323,"current_range_meters":36000,"station_id":"ce4bgj92rcd13ifvqbe0","pricing_plan_id":"cebpf4jnsgd1na2vs0mg"},{"bike_id":"9af68dd8-43e3-42f5-baeb-b051cdb8a37f","system_id":"levelo_inurba_marseille","lat":43.28452,"lon":5.35901,"is_reserved":false,"is_disabled":false,"rental_uris":{"android":"levelo://app?vid=9af68dd8-43e3-42f5-baeb-b051cdb8a37f","ios":"levelo://app?vid=9af68dd8-43e3-42f5-baeb-b051cdb8a37f"},"vehicle_type_id":"4","last_reported":1733369323,"current_range_meters":19200,"station_id":"ce4bhah2rcd13ifvqei0","pricing_plan_id":"cebpf4jnsgd1na2vs0mg"},{"bike_id":"8bd642b2-0279-44c7-9ee2-fc3b57332c83","system_id":"levelo_inurba_marseille","lat":43.27455,"lon":5.40073,"is_reserved":false,"is_disabled":true,"rental_uris":{"android":"levelo://app?vid=8bd642b2-0279-44c7-9ee2-fc3b57332c83","ios":"levelo://app?vid=8bd642b2-0279-44c7-9ee2-fc3b57332c83"},"vehicle_type_id":"4","last_reported":1733369323,"current_range_meters":0,"station_id":"","pricing_plan_id":"cebpf4jnsgd1na2vs0mg"},{"bike_id":"e092f375-5b54-4e37-b620-820befc91920","system_id":"levelo_inurba_marseille","lat":43.2573,"lon":5.41111,"is_reserved":false,"is_disabled":false,"rental_uris":{"android":"levelo://app?vid=e092f375-5b54-4e37-b620-820befc91920","ios":"levelo://app?vid=e092f375-5b54-4e37-b620-820befc91920"},"vehicle_type_id":"4","last_reported":1733369323,"current_range_meters":39200,"station_id":"ce4bhkp2rcd13ifvqgd0","pricing_plan_id":"cebpf4jnsgd1na2vs0mg"},{"bike_id":"24a99494-69c1-4fef-879e-b2c2d85c80a1","system_id":"levelo_inurba_marseille","lat":43.30658,"lon":5.40076,"is_reserved":false,"is_disabled":false,"rental_uris":{"android":"levelo://app?vid=24a99494-69c1-4fef-879e-b2c2d85c80a1","ios":"levelo://app?vid=24a99494-69c1-4fef-879e-b2c2d85c80a1"},"vehicle_type_id":"4","last_reported":1733369323,"current_range_meters":25600,"station_id":"ce4bh112rcd13ifvqda0","pricing_plan_id":"cebpf4jnsgd1na2vs0mg"},{"bike_id":"2beaa8cc-584c-47bc-90b5-73036e8362a8","system_id":"levelo_inurba_marseille","lat":43.30423,"lon":5.41294,"is_reserved":false,"is_disabled":false,"rental_uris":{"android":"levelo://app?vid=2beaa8cc-584c-47bc-90b5-73036e8362a8","ios":"levelo://app?vid=2beaa8cc-584c-47bc-90b5-73036e8362a8"},"vehicle_type_id":"4","last_reported":1733369323,"current_range_meters":23200,"station_id":"ce4bhop2rcd13ifvqh8g","pricing_plan_id":"cebpf4jnsgd1na2vs0mg"},{"bike_id":"d388679b-ab2a-4818-b7c1-c42d71da239b","system_id":"levelo_inurba_marseille","lat":43.25717,"lon":5.4112,"is_reserved":false,"is_disabled":false,"rental_uris":{"android":"levelo://app?vid=d388679b-ab2a-4818-b7c1-c42d71da239b","ios":"levelo://app?vid=d388679b-ab2a-4818-b7c1-c42d71da239b"},"vehicle_type_id":"4","last_reported":1733369323,"current_range_meters":4800,"station_id":"ce4bhkp2rcd13ifvqgd0","pricing_plan_id":"cebpf4jnsgd1na2vs0mg"},{"bike_id":"1cc0f07d-da32-4337-a111-c49c0dc81e69","system_id":"levelo_inurba_marseille","lat":43.29971,"lon":5.38172,"is_reserved":false,"is_disabled":false,"rental_uris":{"android":"levelo://app?vid=1cc0f07d-da32-4337-a111-c49c0dc81e69","ios":"levelo://app?vid=1cc0f07d-da32-4337-a111-c49c0dc81e69"},"vehicle_type_id":"4","last_reported":1733369323,"current_range_meters":32400,"station_id":"","pricing_plan_id":"cebpf4jnsgd1na2vs0mg"},{"bike_id":"a18b4934-8c0c-4c61-b008-883eebb45560","system_id":"levelo_inurba_marseille","lat":43.23197,"lon":5.39982,"is_reserved":false,"is_disabled":false,"rental_uris":{"android":"levelo://app?vid=a18b4934-8c0c-4c61-b008-883eebb45560","ios":"levelo://app?vid=a18b4934-8c0c-4c61-b008-883eebb45560"},"vehicle_type_id":"4","last_reported":1733369323,"current_range_meters":37600,"station_id":"ce4bhn12rcd13ifvqgqg","pricing_plan_id":"cebpf4jnsgd1na2vs0mg"},{"bike_id":"276dc8d0-d07c-4097-ade0-8d3c2e00a69d","system_id":"levelo_inurba_marseille","lat":43.30976,"lon":5.3753,"is_reserved":false,"is_disabled":true,"rental_uris":{"android":"levelo://app?vid=276dc8d0-d07c-4097-ade0-8d3c2e00a69d","ios":"levelo://app?vid=276dc8d0-d07c-4097-ade0-8d3c2e00a69d"},"vehicle_type_id":"4","last_reported":1733369323,"current_range_meters":0,"station_id":"","pricing_plan_id":"cebpf4jnsgd1na2vs0mg"},{"bike_id":"40dcf171-1099-407f-8442-baa4766cbae6","system_id":"levelo_inurba_marseille","lat":43.28074,"lon":5.39641,"is_reserved":false,"is_disabled":false,"rental_uris":{"android":"levelo://app?vid=40dcf171-1099-407f-8442-baa4766cbae6","ios":"levelo://app?vid=40dcf171-1099-407f-8442-baa4766cbae6"},"vehicle_type_id":"4","last_reported":1733369323,"current_range_meters":38000,"station_id":"ce4bho12rcd13ifvqh2g","pricing_plan_id":"cebpf4jnsgd1na2vs0mg"},{"bike_id":"c529a87f-8cbd-4a8f-adc0-6bfbdfeae49a","system_id":"levelo_inurba_marseille","lat":43.30433,"lon":5.38892,"is_reserved":false,"is_disabled":false,"rental_uris":{"android":"levelo://app?vid=c529a87f-8cbd-4a8f-adc0-6bfbdfeae49a","ios":"levelo://app?vid=c529a87f-8cbd-4a8f-adc0-6bfbdfeae49a"},"vehicle_type_id":"4","last_reported":1733369323,"current_range_meters":38800,"station_id":"ce4bgk12rcd13ifvqbi0","pricing_plan_id":"cebpf4jnsgd1na2vs0mg"},{"bike_id":"28b52837-d828-49e4-b4be-cfbac010c328","system_id":"levelo_inurba_marseille","lat":43.3373,"lon":5.39187,"is_reserved":false,"is_disabled":false,"rental_uris":{"android":"levelo://app?vid=28b52837-d828-49e4-b4be-cfbac010c328","ios":"levelo://app?vid=28b52837-d828-49e4-b4be-cfbac010c328"},"vehicle_type_id":"4","last_reported":1733369323,"current_range_meters":32400,"station_id":"ce4bhr92rcd13ifvqhsg","pricing_plan_id":"cebpf4jnsgd1na2vs0mg"},{"bike_id":"b3f478ac-3b05-4edf-bdbf-76399090f8e9","system_id":"levelo_inurba_marseille","lat":43.29994,"lon":5.37639,"is_reserved":false,"is_disabled":true,"rental_uris":{"android":"levelo://app?vid=b3f478ac-3b05-4edf-bdbf-76399090f8e9","ios":"levelo://app?vid=b3f478ac-3b05-4edf-bdbf-76399090f8e9"},"vehicle_type_id":"4","last_reported":1733369323,"current_range_meters":0,"station_id":"","pricing_plan_id":"cebpf4jnsgd1na2vs0mg"},{"bike_id":"c3587c28-5435-41c6-a9b7-aa468e6b19aa","system_id":"levelo_inurba_marseille","lat":43.29746,"lon":5.37916,"is_reserved":false,"is_disabled":true,"rental_uris":{"android":"levelo://app?vid=c3587c28-5435-41c6-a9b7-aa468e6b19aa","ios":"levelo://app?vid=c3587c28-5435-41c6-a9b7-aa468e6b19aa"},"vehicle_type_id":"4","last_reported":1733369323,"current_range_meters":0,"station_id":"","pricing_plan_id":"cebpf4jnsgd1na2vs0mg"},{"bike_id":"75c4f34a-89f4-4145-a2e2-7dafbc1cdf90","system_id":"levelo_inurba_marseille","lat":43.29006,"lon":5.37263,"is_reserved":false,"is_disabled":true,"rental_uris":{"android":"levelo://app?vid=75c4f34a-89f4-4145-a2e2-7dafbc1cdf90","ios":"levelo://app?vid=75c4f34a-89f4-4145-a2e2-7dafbc1cdf90"},"vehicle_type_id":"4","last_reported":1733369323,"current_range_meters":0,"station_id":"","pricing_plan_id":"cebpf4jnsgd1na2vs0mg"},{"bike_id":"c65db16c-e810-4d3a-bd65-1dac7e477222","system_id":"levelo_inurba_marseille","lat":43.31717,"lon":5.43711,"is_reserved":false,"is_disabled":false,"rental_uris":{"android":"levelo://app?vid=c65db16c-e810-4d3a-bd65-1dac7e477222","ios":"levelo://app?vid=c65db16c-e810-4d3a-bd65-1dac7e477222"},"vehicle_type_id":"4","last_reported":1733369323,"current_range_meters":38000,"station_id":"ce4bhp92rcd13ifvqhcg","pricing_plan_id":"cebpf4jnsgd1na2vs0mg"},{"bike_id":"2055a716-8890-43aa-97b9-7cf5d2d2e20d","system_id":"levelo_inurba_marseille","lat":43.2837,"lon":5.38639,"is_reserved":false,"is_disabled":false,"rental_uris":{"android":"levelo://app?vid=2055a716-8890-43aa-97b9-7cf5d2d2e20d","ios":"levelo://app?vid=2055a716-8890-43aa-97b9-7cf5d2d2e20d"},"vehicle_type_id":"4","last_reported":1733369323,"current_range_meters":37600,"station_id":"ce4bh492rcd13ifvqdvg","pricing_plan_id":"cebpf4jnsgd1na2vs0mg"},{"bike_id":"e8d9fcd3-6c4c-4c2e-a87e-41c5e4dfa6d0","system_id":"levelo_inurba_marseille","lat":43.25438,"lon":5.38158,"is_reserved":false,"is_disabled":true,"rental_uris":{"android":"levelo://app?vid=e8d9fcd3-6c4c-4c2e-a87e-41c5e4dfa6d0","ios":"levelo://app?vid=e8d9fcd3-6c4c-4c2e-a87e-41c5e4dfa6d0"},"vehicle_type_id":"4","last_reported":1733369323,"current_range_meters":0,"station_id":"","pricing_plan_id":"cebpf4jnsgd1na2vs0mg"},{"bike_id":"e7c2b082-ef91-42b1-9ef0-9e4329cee9cb","system_id":"levelo_inurba_marseille","lat":43.2992,"lon":5.40347,"is_reserved":false,"is_disabled":true,"rental_uris":{"android":"levelo://app?vid=e7c2b082-ef91-42b1-9ef0-9e4329cee9cb","ios":"levelo://app?vid=e7c2b082-ef91-42b1-9ef0-9e4329cee9cb"},"vehicle_type_id":"4","last_reported":1733369323,"current_range_meters":0,"station_id":"","pricing_plan_id":"cebpf4jnsgd1na2vs0mg"},{"bike_id":"1193e2de-f4a1-40ed-9859-1770abcb2343","system_id":"levelo_inurba_marseille","lat":43.29551,"lon":5.42291,"is_reserved":false,"is_disabled":false,"rental_uris":{"android":"levelo://app?vid=1193e2de-f4a1-40ed-9859-1770abcb2343","ios":"levelo://app?vid=1193e2de-f4a1-40ed-9859-1770abcb2343"},"vehicle_type_id":"4","last_reported":1733369323,"current_range_meters":16000,"station_id":"ce4bhph2rcd13ifvqhdg","pricing_plan_id":"cebpf4jnsgd1na2vs0mg"},{"bike_id":"7e8fc6cf-f0f2-4700-8557-beaab027395f","system_id":"levelo_inurba_marseille","lat":43.31481,"lon":5.37299,"is_reserved":false,"is_disabled":false,"rental_uris":{"android":"levelo://app?vid=7e8fc6cf-f0f2-4700-8557-beaab027395f","ios":"levelo://app?vid=7e8fc6cf-f0f2-4700-8557-beaab027395f"},"vehicle_type_id":"4","last_reported":1733369323,"current_range_meters":11200,"station_id":"ce4bgt12rcd13ifvqcd0","pricing_plan_id":"cebpf4jnsgd1na2vs0mg"},{"bike_id":"0fefa0dc-edeb-4cf0-b2e7-27e58965422f","system_id":"levelo_inurba_marseille","lat":43.3118,"lon":5.38716,"is_reserved":false,"is_disabled":false,"rental_uris":{"android":"levelo://app?vid=0fefa0dc-edeb-4cf0-b2e7-27e58965422f","ios":"levelo://app?vid=0fefa0dc-edeb-4cf0-b2e7-27e58965422f"},"vehicle_type_id":"4","last_reported":1733369323,"current_range_meters":39200,"station_id":"ce4bgv12rcd13ifvqcp0","pricing_plan_id":"cebpf4jnsgd1na2vs0mg"},{"bike_id":"63bbf9db-f670-4808-82d3-3fbcefc33022","system_id":"levelo_inurba_marseille","lat":43.25582,"lon":5.38239,"is_reserved":false,"is_disabled":false,"rental_uris":{"android":"levelo://app?vid=63bbf9db-f670-4808-82d3-3fbcefc33022","ios":"levelo://app?vid=63bbf9db-f670-4808-82d3-3fbcefc33022"},"vehicle_type_id":"4","last_reported":1733369323,"current_range_meters":38800,"station_id":"ce4bhih2rcd13ifvqfs0","pricing_plan_id":"cebpf4jnsgd1na2vs0mg"},{"bike_id":"21c22579-77f8-4f8e-9d69-9c4a44008a3b","system_id":"levelo_inurba_marseille","lat":43.287094,"lon":5.399758,"is_reserved":false,"is_disabled":false,"rental_uris":{"android":"levelo://app?vid=21c22579-77f8-4f8e-9d69-9c4a44008a3b","ios":"levelo://app?vid=21c22579-77f8-4f8e-9d69-9c4a44008a3b"},"vehicle_type_id":"4","last_reported":1733369323,"current_range_meters":25600,"station_id":"ce4bho92rcd13ifvqh3g","pricing_plan_id":"cebpf4jnsgd1na2vs0mg"},{"bike_id":"0e362fdf-2190-4f82-92dc-6596ff333c58","system_id":"levelo_inurba_marseille","lat":43.30314,"lon":5.36897,"is_reserved":false,"is_disabled":false,"rental_uris":{"android":"levelo://app?vid=0e362fdf-2190-4f82-92dc-6596ff333c58","ios":"levelo://app?vid=0e362fdf-2190-4f82-92dc-6596ff333c58"},"vehicle_type_id":"4","last_reported":1733369323,"current_range_meters":3200,"station_id":"ce4bgqh2rcd13ifvqc5g","pricing_plan_id":"cebpf4jnsgd1na2vs0mg"},{"bike_id":"47446314-3377-4eeb-ac99-7c7c1d340bea","system_id":"levelo_inurba_marseille","lat":43.27806,"lon":5.40713,"is_reserved":false,"is_disabled":true,"rental_uris":{"android":"levelo://app?vid=47446314-3377-4eeb-ac99-7c7c1d340bea","ios":"levelo://app?vid=47446314-3377-4eeb-ac99-7c7c1d340bea"},"vehicle_type_id":"4","last_reported":1733369323,"current_range_meters":0,"station_id":"ce4bhnh2rcd13ifvqgtg","pricing_plan_id":"cebpf4jnsgd1na2vs0mg"},{"bike_id":"7be0917b-6b6c-4f69-857b-55d25ccd42f4","system_id":"levelo_inurba_marseille","lat":43.30953,"lon":5.39059,"is_reserved":false,"is_disabled":false,"rental_uris":{"android":"levelo://app?vid=7be0917b-6b6c-4f69-857b-55d25ccd42f4","ios":"levelo://app?vid=7be0917b-6b6c-4f69-857b-55d25ccd42f4"},"vehicle_type_id":"4","last_reported":1733369323,"current_range_meters":33200,"station_id":"ce4bgup2rcd13ifvqco0","pricing_plan_id":"cebpf4jnsgd1na2vs0mg"},{"bike_id":"0f30e837-871f-4a2c-aeff-7fec469dda07","system_id":"levelo_inurba_marseille","lat":43.299024,"lon":5.436589,"is_reserved":false,"is_disabled":false,"rental_uris":{"android":"levelo://app?vid=0f30e837-871f-4a2c-aeff-7fec469dda07","ios":"levelo://app?vid=0f30e837-871f-4a2c-aeff-7fec469dda07"},"vehicle_type_id":"4","last_reported":1733369323,"current_range_meters":8400,"station_id":"ce4bhpp2rcd13ifvqhfg","pricing_plan_id":"cebpf4jnsgd1na2vs0mg"},{"bike_id":"dfdab842-6863-4af8-9afd-054176295b2d","system_id":"levelo_inurba_marseille","lat":43.2467,"lon":5.38171,"is_reserved":false,"is_disabled":false,"rental_uris":{"android":"levelo://app?vid=dfdab842-6863-4af8-9afd-054176295b2d","ios":"levelo://app?vid=dfdab842-6863-4af8-9afd-054176295b2d"},"vehicle_type_id":"4","last_reported":1733369323,"current_range_meters":37600,"station_id":"ce4bhih2rcd13ifvqfr0","pricing_plan_id":"cebpf4jnsgd1na2vs0mg"},{"bike_id":"132970a3-ee02-48dc-a0cb-b3140e3325a4","system_id":"levelo_inurba_marseille","lat":43.26682,"lon":5.38276,"is_reserved":false,"is_disabled":false,"rental_uris":{"android":"levelo://app?vid=132970a3-ee02-48dc-a0cb-b3140e3325a4","ios":"levelo://app?vid=132970a3-ee02-48dc-a0cb-b3140e3325a4"},"vehicle_type_id":"4","last_reported":1733369323,"current_range_meters":38800,"station_id":"ce4bhg92rcd13ifvqf90","pricing_plan_id":"cebpf4jnsgd1na2vs0mg"},{"bike_id":"2f3968e7-9336-4ee4-ba78-8e92c0a818cc","system_id":"levelo_inurba_marseille","lat":43.31322,"lon":5.36647,"is_reserved":false,"is_disabled":true,"rental_uris":{"android":"levelo://app?vid=2f3968e7-9336-4ee4-ba78-8e92c0a818cc","ios":"levelo://app?vid=2f3968e7-9336-4ee4-ba78-8e92c0a818cc"},"vehicle_type_id":"4","last_reported":1733369323,"current_range_meters":400,"station_id":"","pricing_plan_id":"cebpf4jnsgd1na2vs0mg"},{"bike_id":"2c43b9b6-72f3-4f56-8966-abacd134a219","system_id":"levelo_inurba_marseille","lat":43.30801,"lon":5.3815,"is_reserved":false,"is_disabled":false,"rental_uris":{"android":"levelo://app?vid=2c43b9b6-72f3-4f56-8966-abacd134a219","ios":"levelo://app?vid=2c43b9b6-72f3-4f56-8966-abacd134a219"},"vehicle_type_id":"4","last_reported":1733369323,"current_range_meters":38800,"station_id":"ce4bgt12rcd13ifvqce0","pricing_plan_id":"cebpf4jnsgd1na2vs0mg"},{"bike_id":"16bea42d-3248-41fd-8b51-39fb3d7ec2c4","system_id":"levelo_inurba_marseille","lat":43.26471,"lon":5.38525,"is_reserved":false,"is_disabled":true,"rental_uris":{"android":"levelo://app?vid=16bea42d-3248-41fd-8b51-39fb3d7ec2c4","ios":"levelo://app?vid=16bea42d-3248-41fd-8b51-39fb3d7ec2c4"},"vehicle_type_id":"4","last_reported":1733369323,"current_range_meters":0,"station_id":"","pricing_plan_id":"cebpf4jnsgd1na2vs0mg"},{"bike_id":"c3e5569f-7c48-4ae2-aa1a-b9bb23c0f500","system_id":"levelo_inurba_marseille","lat":43.28406,"lon":5.37531,"is_reserved":false,"is_disabled":false,"rental_uris":{"android":"levelo://app?vid=c3e5569f-7c48-4ae2-aa1a-b9bb23c0f500","ios":"levelo://app?vid=c3e5569f-7c48-4ae2-aa1a-b9bb23c0f500"},"vehicle_type_id":"4","last_reported":1733369323,"current_range_meters":14000,"station_id":"ce4bh412rcd13ifvqds0","pricing_plan_id":"cebpf4jnsgd1na2vs0mg"},{"bike_id":"46abd456-a608-490b-ad32-48b13f8b3891","system_id":"levelo_inurba_marseille","lat":43.287243,"lon":5.36096,"is_reserved":false,"is_disabled":false,"rental_uris":{"android":"levelo://app?vid=46abd456-a608-490b-ad32-48b13f8b3891","ios":"levelo://app?vid=46abd456-a608-490b-ad32-48b13f8b3891"},"vehicle_type_id":"4","last_reported":1733369323,"current_range_meters":38000,"station_id":"cki0cbj6b192h4jlfktg","pricing_plan_id":"cebpf4jnsgd1na2vs0mg"},{"bike_id":"fefed06f-f77c-4003-83aa-4b7097b9e66e","system_id":"levelo_inurba_marseille","lat":43.25561,"lon":5.40982,"is_reserved":false,"is_disabled":false,"rental_uris":{"android":"levelo://app?vid=fefed06f-f77c-4003-83aa-4b7097b9e66e","ios":"levelo://app?vid=fefed06f-f77c-4003-83aa-4b7097b9e66e"},"vehicle_type_id":"4","last_reported":1733369323,"current_range_meters":35200,"station_id":"","pricing_plan_id":"cebpf4jnsgd1na2vs0mg"},{"bike_id":"7e00f221-e10c-4cec-94db-d74cfbedeac9","system_id":"levelo_inurba_marseille","lat":43.31528,"lon":5.38038,"is_reserved":false,"is_disabled":false,"rental_uris":{"android":"levelo://app?vid=7e00f221-e10c-4cec-94db-d74cfbedeac9","ios":"levelo://app?vid=7e00f221-e10c-4cec-94db-d74cfbedeac9"},"vehicle_type_id":"4","last_reported":1733369323,"current_range_meters":19600,"station_id":"ce4bhsp2rcd13ifvqi50","pricing_plan_id":"cebpf4jnsgd1na2vs0mg"},{"bike_id":"46865911-cde1-4521-bcd4-daccf5547995","system_id":"levelo_inurba_marseille","lat":43.31529,"lon":5.38036,"is_reserved":false,"is_disabled":false,"rental_uris":{"android":"levelo://app?vid=46865911-cde1-4521-bcd4-daccf5547995","ios":"levelo://app?vid=46865911-cde1-4521-bcd4-daccf5547995"},"vehicle_type_id":"4","last_reported":1733369323,"current_range_meters":37600,"station_id":"ce4bhsp2rcd13ifvqi50","pricing_plan_id":"cebpf4jnsgd1na2vs0mg"},{"bike_id":"5cc8c754-8826-4cbd-9278-2bfeb85ea349","system_id":"levelo_inurba_marseille","lat":43.29456,"lon":5.39744,"is_reserved":false,"is_disabled":false,"rental_uris":{"android":"levelo://app?vid=5cc8c754-8826-4cbd-9278-2bfeb85ea349","ios":"levelo://app?vid=5cc8c754-8826-4cbd-9278-2bfeb85ea349"},"vehicle_type_id":"4","last_reported":1733369323,"current_range_meters":37600,"station_id":"ce4bh3h2rcd13ifvqdo0","pricing_plan_id":"cebpf4jnsgd1na2vs0mg"},{"bike_id":"f45c703b-b87d-46fa-90a3-9d7c5303af9a","system_id":"levelo_inurba_marseille","lat":43.30799,"lon":5.38165,"is_reserved":false,"is_disabled":false,"rental_uris":{"android":"levelo://app?vid=f45c703b-b87d-46fa-90a3-9d7c5303af9a","ios":"levelo://app?vid=f45c703b-b87d-46fa-90a3-9d7c5303af9a"},"vehicle_type_id":"4","last_reported":1733369323,"current_range_meters":37600,"station_id":"ce4bgt12rcd13ifvqce0","pricing_plan_id":"cebpf4jnsgd1na2vs0mg"},{"bike_id":"bc17f359-3933-45c8-ad56-9925f6a38dca","system_id":"levelo_inurba_marseille","lat":43.32348,"lon":5.40622,"is_reserved":false,"is_disabled":false,"rental_uris":{"android":"levelo://app?vid=bc17f359-3933-45c8-ad56-9925f6a38dca","ios":"levelo://app?vid=bc17f359-3933-45c8-ad56-9925f6a38dca"},"vehicle_type_id":"4","last_reported":1733369323,"current_range_meters":24800,"station_id":"ce4bhq92rcd13ifvqhjg","pricing_plan_id":"cebpf4jnsgd1na2vs0mg"},{"bike_id":"0dae1dd7-012e-4f88-bf1b-c853f4239823","system_id":"levelo_inurba_marseille","lat":43.28413,"lon":5.37522,"is_reserved":false,"is_disabled":false,"rental_uris":{"android":"levelo://app?vid=0dae1dd7-012e-4f88-bf1b-c853f4239823","ios":"levelo://app?vid=0dae1dd7-012e-4f88-bf1b-c853f4239823"},"vehicle_type_id":"4","last_reported":1733369323,"current_range_meters":4400,"station_id":"ce4bh412rcd13ifvqds0","pricing_plan_id":"cebpf4jnsgd1na2vs0mg"},{"bike_id":"b0025f03-f4b7-4e1f-b2ae-d738bfb01f75","system_id":"levelo_inurba_marseille","lat":43.31365,"lon":5.39733,"is_reserved":false,"is_disabled":false,"rental_uris":{"android":"levelo://app?vid=b0025f03-f4b7-4e1f-b2ae-d738bfb01f75","ios":"levelo://app?vid=b0025f03-f4b7-4e1f-b2ae-d738bfb01f75"},"vehicle_type_id":"4","last_reported":1733369323,"current_range_meters":38000,"station_id":"","pricing_plan_id":"cebpf4jnsgd1na2vs0mg"},{"bike_id":"f414f406-3c0e-4948-b1a8-40f60759094e","system_id":"levelo_inurba_marseille","lat":43.286972,"lon":5.373961,"is_reserved":false,"is_disabled":false,"rental_uris":{"android":"levelo://app?vid=f414f406-3c0e-4948-b1a8-40f60759094e","ios":"levelo://app?vid=f414f406-3c0e-4948-b1a8-40f60759094e"},"vehicle_type_id":"4","last_reported":1733369323,"current_range_meters":37600,"station_id":"ce4bh3p2rcd13ifvqdq0","pricing_plan_id":"cebpf4jnsgd1na2vs0mg"},{"bike_id":"6f1f4c8f-b22d-4d1d-88ae-6f2707bae092","system_id":"levelo_inurba_marseille","lat":43.26939,"lon":5.40249,"is_reserved":false,"is_disabled":false,"rental_uris":{"android":"levelo://app?vid=6f1f4c8f-b22d-4d1d-88ae-6f2707bae092","ios":"levelo://app?vid=6f1f4c8f-b22d-4d1d-88ae-6f2707bae092"},"vehicle_type_id":"4","last_reported":1733369323,"current_range_meters":38800,"station_id":"cjm6bp8fraef2m0cb0m0","pricing_plan_id":"cebpf4jnsgd1na2vs0mg"},{"bike_id":"4156462a-4735-45ee-8da0-a9945ed8f6d7","system_id":"levelo_inurba_marseille","lat":43.30635,"lon":5.40092,"is_reserved":false,"is_disabled":false,"rental_uris":{"android":"levelo://app?vid=4156462a-4735-45ee-8da0-a9945ed8f6d7","ios":"levelo://app?vid=4156462a-4735-45ee-8da0-a9945ed8f6d7"},"vehicle_type_id":"4","last_reported":1733369323,"current_range_meters":28000,"station_id":"ce4bh112rcd13ifvqda0","pricing_plan_id":"cebpf4jnsgd1na2vs0mg"},{"bike_id":"360e6e30-e776-44bf-9d86-62236c7bc39f","system_id":"levelo_inurba_marseille","lat":43.31274,"lon":5.40166,"is_reserved":false,"is_disabled":false,"rental_uris":{"android":"levelo://app?vid=360e6e30-e776-44bf-9d86-62236c7bc39f","ios":"levelo://app?vid=360e6e30-e776-44bf-9d86-62236c7bc39f"},"vehicle_type_id":"4","last_reported":1733369323,"current_range_meters":28800,"station_id":"ce4bh092rcd13ifvqd30","pricing_plan_id":"cebpf4jnsgd1na2vs0mg"},{"bike_id":"5a50557a-331c-47f8-82cc-e12807c908db","system_id":"levelo_inurba_marseille","lat":43.33022,"lon":5.3904,"is_reserved":false,"is_disabled":false,"rental_uris":{"android":"levelo://app?vid=5a50557a-331c-47f8-82cc-e12807c908db","ios":"levelo://app?vid=5a50557a-331c-47f8-82cc-e12807c908db"},"vehicle_type_id":"4","last_reported":1733369323,"current_range_meters":37600,"station_id":"ce4bhr92rcd13ifvqhrg","pricing_plan_id":"cebpf4jnsgd1na2vs0mg"},{"bike_id":"366d0bb1-a271-494d-9d9f-fc3c7c162cdd","system_id":"levelo_inurba_marseille","lat":43.26563,"lon":5.39011,"is_reserved":false,"is_disabled":false,"rental_uris":{"android":"levelo://app?vid=366d0bb1-a271-494d-9d9f-fc3c7c162cdd","ios":"levelo://app?vid=366d0bb1-a271-494d-9d9f-fc3c7c162cdd"},"vehicle_type_id":"4","last_reported":1733369323,"current_range_meters":32000,"station_id":"ce4bhe12rcd13ifvqf30","pricing_plan_id":"cebpf4jnsgd1na2vs0mg"},{"bike_id":"64cef5ac-e0ad-43ec-8d81-ef1e6eb0acd4","system_id":"levelo_inurba_marseille","lat":43.29967,"lon":5.37013,"is_reserved":false,"is_disabled":false,"rental_uris":{"android":"levelo://app?vid=64cef5ac-e0ad-43ec-8d81-ef1e6eb0acd4","ios":"levelo://app?vid=64cef5ac-e0ad-43ec-8d81-ef1e6eb0acd4"},"vehicle_type_id":"4","last_reported":1733369323,"current_range_meters":6000,"station_id":"","pricing_plan_id":"cebpf4jnsgd1na2vs0mg"},{"bike_id":"9108fa6d-fa85-4a83-a690-1bbae5f75069","system_id":"levelo_inurba_marseille","lat":43.28069,"lon":5.39657,"is_reserved":false,"is_disabled":false,"rental_uris":{"android":"levelo://app?vid=9108fa6d-fa85-4a83-a690-1bbae5f75069","ios":"levelo://app?vid=9108fa6d-fa85-4a83-a690-1bbae5f75069"},"vehicle_type_id":"4","last_reported":1733369323,"current_range_meters":39200,"station_id":"ce4bho12rcd13ifvqh2g","pricing_plan_id":"cebpf4jnsgd1na2vs0mg"},{"bike_id":"083c0f74-65cd-4a47-a359-33d01e265a9c","system_id":"levelo_inurba_marseille","lat":43.287018,"lon":5.379439,"is_reserved":false,"is_disabled":true,"rental_uris":{"android":"levelo://app?vid=083c0f74-65cd-4a47-a359-33d01e265a9c","ios":"levelo://app?vid=083c0f74-65cd-4a47-a359-33d01e265a9c"},"vehicle_type_id":"4","last_reported":1733369323,"current_range_meters":27600,"station_id":"ce4bh9p2rcd13ifvqec0","pricing_plan_id":"cebpf4jnsgd1na2vs0mg"},{"bike_id":"e14bb60d-52dc-49c6-8312-cecc6af9d01f","system_id":"levelo_inurba_marseille","lat":43.31328,"lon":5.39684,"is_reserved":false,"is_disabled":false,"rental_uris":{"android":"levelo://app?vid=e14bb60d-52dc-49c6-8312-cecc6af9d01f","ios":"levelo://app?vid=e14bb60d-52dc-49c6-8312-cecc6af9d01f"},"vehicle_type_id":"4","last_reported":1733369323,"current_range_meters":8400,"station_id":"ce4bgvp2rcd13ifvqcu0","pricing_plan_id":"cebpf4jnsgd1na2vs0mg"},{"bike_id":"ef8dccf7-5c02-4648-910c-2c64ce488a65","system_id":"levelo_inurba_marseille","lat":43.281508,"lon":5.42783,"is_reserved":false,"is_disabled":false,"rental_uris":{"android":"levelo://app?vid=ef8dccf7-5c02-4648-910c-2c64ce488a65","ios":"levelo://app?vid=ef8dccf7-5c02-4648-910c-2c64ce488a65"},"vehicle_type_id":"4","last_reported":1733369323,"current_range_meters":8400,"station_id":"","pricing_plan_id":"cebpf4jnsgd1na2vs0mg"},{"bike_id":"afddb0ff-7658-4984-b285-b427f08dacd1","system_id":"levelo_inurba_marseille","lat":43.25109,"lon":5.403257,"is_reserved":false,"is_disabled":false,"rental_uris":{"android":"levelo://app?vid=afddb0ff-7658-4984-b285-b427f08dacd1","ios":"levelo://app?vid=afddb0ff-7658-4984-b285-b427f08dacd1"},"vehicle_type_id":"4","last_reported":1733369323,"current_range_meters":38400,"station_id":"ce4bhlh2rcd13ifvqgig","pricing_plan_id":"cebpf4jnsgd1na2vs0mg"},{"bike_id":"b73386f2-fa04-4fae-98be-ff0e17efea9c","system_id":"levelo_inurba_marseille","lat":43.32364,"lon":5.38882,"is_reserved":false,"is_disabled":false,"rental_uris":{"android":"levelo://app?vid=b73386f2-fa04-4fae-98be-ff0e17efea9c","ios":"levelo://app?vid=b73386f2-fa04-4fae-98be-ff0e17efea9c"},"vehicle_type_id":"4","last_reported":1733369323,"current_range_meters":38800,"station_id":"ce4bhqp2rcd13ifvqhog","pricing_plan_id":"cebpf4jnsgd1na2vs0mg"},{"bike_id":"dfa76f4c-3d3f-4fb1-90ed-007fee43e839","system_id":"levelo_inurba_marseille","lat":43.28444,"lon":5.39185,"is_reserved":false,"is_disabled":false,"rental_uris":{"android":"levelo://app?vid=dfa76f4c-3d3f-4fb1-90ed-007fee43e839","ios":"levelo://app?vid=dfa76f4c-3d3f-4fb1-90ed-007fee43e839"},"vehicle_type_id":"4","last_reported":1733369323,"current_range_meters":19200,"station_id":"ce4bhoh2rcd13ifvqh5g","pricing_plan_id":"cebpf4jnsgd1na2vs0mg"},{"bike_id":"5cef358c-4d33-4f46-b1a1-56f6f4f255fd","system_id":"levelo_inurba_marseille","lat":43.295708,"lon":5.439271,"is_reserved":false,"is_disabled":true,"rental_uris":{"android":"levelo://app?vid=5cef358c-4d33-4f46-b1a1-56f6f4f255fd","ios":"levelo://app?vid=5cef358c-4d33-4f46-b1a1-56f6f4f255fd"},"vehicle_type_id":"4","last_reported":1733369323,"current_range_meters":0,"station_id":"","pricing_plan_id":"cebpf4jnsgd1na2vs0mg"},{"bike_id":"ea1954bd-411b-45a7-99ea-739a18e3eb98","system_id":"levelo_inurba_marseille","lat":43.25111,"lon":5.40324,"is_reserved":false,"is_disabled":false,"rental_uris":{"android":"levelo://app?vid=ea1954bd-411b-45a7-99ea-739a18e3eb98","ios":"levelo://app?vid=ea1954bd-411b-45a7-99ea-739a18e3eb98"},"vehicle_type_id":"4","last_reported":1733369323,"current_range_meters":23200,"station_id":"ce4bhlh2rcd13ifvqgig","pricing_plan_id":"cebpf4jnsgd1na2vs0mg"},{"bike_id":"734d07dc-217f-41dd-93a2-1bef235667d0","system_id":"levelo_inurba_marseille","lat":43.24392,"lon":5.37063,"is_reserved":false,"is_disabled":true,"rental_uris":{"android":"levelo://app?vid=734d07dc-217f-41dd-93a2-1bef235667d0","ios":"levelo://app?vid=734d07dc-217f-41dd-93a2-1bef235667d0"},"vehicle_type_id":"4","last_reported":1733369323,"current_range_meters":8000,"station_id":"ce4bhhh2rcd13ifvqfk0","pricing_plan_id":"cebpf4jnsgd1na2vs0mg"},{"bike_id":"a7d859c0-78c7-463e-ab07-a585b3e37645","system_id":"levelo_inurba_marseille","lat":43.33024,"lon":5.39042,"is_reserved":false,"is_disabled":false,"rental_uris":{"android":"levelo://app?vid=a7d859c0-78c7-463e-ab07-a585b3e37645","ios":"levelo://app?vid=a7d859c0-78c7-463e-ab07-a585b3e37645"},"vehicle_type_id":"4","last_reported":1733369323,"current_range_meters":38800,"station_id":"ce4bhr92rcd13ifvqhrg","pricing_plan_id":"cebpf4jnsgd1na2vs0mg"},{"bike_id":"1d70f409-b50f-4206-b677-42f317569530","system_id":"levelo_inurba_marseille","lat":43.26681,"lon":5.38269,"is_reserved":false,"is_disabled":false,"rental_uris":{"android":"levelo://app?vid=1d70f409-b50f-4206-b677-42f317569530","ios":"levelo://app?vid=1d70f409-b50f-4206-b677-42f317569530"},"vehicle_type_id":"4","last_reported":1733369323,"current_range_meters":36000,"station_id":"ce4bhg92rcd13ifvqf90","pricing_plan_id":"cebpf4jnsgd1na2vs0mg"},{"bike_id":"129a4210-2541-4275-959b-7a3a4cdc5c56","system_id":"levelo_inurba_marseille","lat":43.308836,"lon":5.396345,"is_reserved":false,"is_disabled":false,"rental_uris":{"android":"levelo://app?vid=129a4210-2541-4275-959b-7a3a4cdc5c56","ios":"levelo://app?vid=129a4210-2541-4275-959b-7a3a4cdc5c56"},"vehicle_type_id":"4","last_reported":1733369323,"current_range_meters":39200,"station_id":"ce4bh012rcd13ifvqcv0","pricing_plan_id":"cebpf4jnsgd1na2vs0mg"},{"bike_id":"c4f8bc1f-6186-4b67-be08-a149c4ecdce7","system_id":"levelo_inurba_marseille","lat":43.28574,"lon":5.395,"is_reserved":false,"is_disabled":false,"rental_uris":{"android":"levelo://app?vid=c4f8bc1f-6186-4b67-be08-a149c4ecdce7","ios":"levelo://app?vid=c4f8bc1f-6186-4b67-be08-a149c4ecdce7"},"vehicle_type_id":"4","last_reported":1733369323,"current_range_meters":35600,"station_id":"ce4bh292rcd13ifvqdg0","pricing_plan_id":"cebpf4jnsgd1na2vs0mg"},{"bike_id":"cdfe6590-4984-4014-86c8-6dd70747c27a","system_id":"levelo_inurba_marseille","lat":43.29737,"lon":5.37434,"is_reserved":false,"is_disabled":true,"rental_uris":{"android":"levelo://app?vid=cdfe6590-4984-4014-86c8-6dd70747c27a","ios":"levelo://app?vid=cdfe6590-4984-4014-86c8-6dd70747c27a"},"vehicle_type_id":"4","last_reported":1733369323,"current_range_meters":0,"station_id":"","pricing_plan_id":"cebpf4jnsgd1na2vs0mg"},{"bike_id":"2c494ab0-5e4c-43e9-96eb-82c7ed0a30e3","system_id":"levelo_inurba_marseille","lat":43.26811,"lon":5.40271,"is_reserved":false,"is_disabled":false,"rental_uris":{"android":"levelo://app?vid=2c494ab0-5e4c-43e9-96eb-82c7ed0a30e3","ios":"levelo://app?vid=2c494ab0-5e4c-43e9-96eb-82c7ed0a30e3"},"vehicle_type_id":"4","last_reported":1733369323,"current_range_meters":28800,"station_id":"ce501612rcd8frsf0b60","pricing_plan_id":"cebpf4jnsgd1na2vs0mg"},{"bike_id":"9309313e-316d-4707-816e-67df9a39a867","system_id":"levelo_inurba_marseille","lat":43.2894,"lon":5.36402,"is_reserved":false,"is_disabled":true,"rental_uris":{"android":"levelo://app?vid=9309313e-316d-4707-816e-67df9a39a867","ios":"levelo://app?vid=9309313e-316d-4707-816e-67df9a39a867"},"vehicle_type_id":"4","last_reported":1733369323,"current_range_meters":6400,"station_id":"ce4bhc92rcd13ifvqetg","pricing_plan_id":"cebpf4jnsgd1na2vs0mg"},{"bike_id":"22afe0c7-1925-4dd9-b606-f466a1f3c103","system_id":"levelo_inurba_marseille","lat":43.30809,"lon":5.38164,"is_reserved":false,"is_disabled":false,"rental_uris":{"android":"levelo://app?vid=22afe0c7-1925-4dd9-b606-f466a1f3c103","ios":"levelo://app?vid=22afe0c7-1925-4dd9-b606-f466a1f3c103"},"vehicle_type_id":"4","last_reported":1733369323,"current_range_meters":24000,"station_id":"ce4bgt12rcd13ifvqce0","pricing_plan_id":"cebpf4jnsgd1na2vs0mg"},{"bike_id":"189d41e8-50bb-4f05-9a34-8bbecbbc54a5","system_id":"levelo_inurba_marseille","lat":43.26029,"lon":5.37553,"is_reserved":false,"is_disabled":false,"rental_uris":{"android":"levelo://app?vid=189d41e8-50bb-4f05-9a34-8bbecbbc54a5","ios":"levelo://app?vid=189d41e8-50bb-4f05-9a34-8bbecbbc54a5"},"vehicle_type_id":"4","last_reported":1733369323,"current_range_meters":20400,"station_id":"ce4bhgh2rcd13ifvqfa0","pricing_plan_id":"cebpf4jnsgd1na2vs0mg"},{"bike_id":"987a5ab4-d60c-480c-94b6-7cab38975402","system_id":"levelo_inurba_marseille","lat":43.29748,"lon":5.37971,"is_reserved":false,"is_disabled":true,"rental_uris":{"android":"levelo://app?vid=987a5ab4-d60c-480c-94b6-7cab38975402","ios":"levelo://app?vid=987a5ab4-d60c-480c-94b6-7cab38975402"},"vehicle_type_id":"4","last_reported":1733369323,"current_range_meters":0,"station_id":"","pricing_plan_id":"cebpf4jnsgd1na2vs0mg"},{"bike_id":"2c4596ad-0ad9-4016-b92b-0093349de2b4","system_id":"levelo_inurba_marseille","lat":43.30755,"lon":5.38187,"is_reserved":false,"is_disabled":true,"rental_uris":{"android":"levelo://app?vid=2c4596ad-0ad9-4016-b92b-0093349de2b4","ios":"levelo://app?vid=2c4596ad-0ad9-4016-b92b-0093349de2b4"},"vehicle_type_id":"4","last_reported":1733369323,"current_range_meters":0,"station_id":"","pricing_plan_id":"cebpf4jnsgd1na2vs0mg"},{"bike_id":"61d7f8a2-cc7f-478c-ae5e-d1637cbbf728","system_id":"levelo_inurba_marseille","lat":43.2512,"lon":5.40326,"is_reserved":false,"is_disabled":false,"rental_uris":{"android":"levelo://app?vid=61d7f8a2-cc7f-478c-ae5e-d1637cbbf728","ios":"levelo://app?vid=61d7f8a2-cc7f-478c-ae5e-d1637cbbf728"},"vehicle_type_id":"4","last_reported":1733369323,"current_range_meters":38400,"station_id":"ce4bhlh2rcd13ifvqgig","pricing_plan_id":"cebpf4jnsgd1na2vs0mg"},{"bike_id":"a672da76-8052-47c4-9703-2dbdba0bf9fc","system_id":"levelo_inurba_marseille","lat":43.309262,"lon":5.401576,"is_reserved":false,"is_disabled":false,"rental_uris":{"android":"levelo://app?vid=a672da76-8052-47c4-9703-2dbdba0bf9fc","ios":"levelo://app?vid=a672da76-8052-47c4-9703-2dbdba0bf9fc"},"vehicle_type_id":"4","last_reported":1733369323,"current_range_meters":31200,"station_id":"ce4bgvp2rcd13ifvqct0","pricing_plan_id":"cebpf4jnsgd1na2vs0mg"},{"bike_id":"b7ab8c01-033f-4395-8276-23c850ad3d02","system_id":"levelo_inurba_marseille","lat":43.30348,"lon":5.36626,"is_reserved":false,"is_disabled":true,"rental_uris":{"android":"levelo://app?vid=b7ab8c01-033f-4395-8276-23c850ad3d02","ios":"levelo://app?vid=b7ab8c01-033f-4395-8276-23c850ad3d02"},"vehicle_type_id":"4","last_reported":1733369323,"current_range_meters":0,"station_id":"","pricing_plan_id":"cebpf4jnsgd1na2vs0mg"},{"bike_id":"3e5094fe-36c8-4f4a-9a18-d38d46ff20f4","system_id":"levelo_inurba_marseille","lat":43.32364,"lon":5.38886,"is_reserved":false,"is_disabled":false,"rental_uris":{"android":"levelo://app?vid=3e5094fe-36c8-4f4a-9a18-d38d46ff20f4","ios":"levelo://app?vid=3e5094fe-36c8-4f4a-9a18-d38d46ff20f4"},"vehicle_type_id":"4","last_reported":1733369323,"current_range_meters":9600,"station_id":"ce4bhqp2rcd13ifvqhog","pricing_plan_id":"cebpf4jnsgd1na2vs0mg"},{"bike_id":"ddafa27c-f89b-4fc5-b3c3-a6b5e0f1f975","system_id":"levelo_inurba_marseille","lat":43.258263,"lon":5.39433,"is_reserved":false,"is_disabled":false,"rental_uris":{"android":"levelo://app?vid=ddafa27c-f89b-4fc5-b3c3-a6b5e0f1f975","ios":"levelo://app?vid=ddafa27c-f89b-4fc5-b3c3-a6b5e0f1f975"},"vehicle_type_id":"4","last_reported":1733369323,"current_range_meters":38400,"station_id":"ce4bhip2rcd13ifvqft0","pricing_plan_id":"cebpf4jnsgd1na2vs0mg"},{"bike_id":"d25acaba-d8d4-43f2-8aeb-8bfae5e50811","system_id":"levelo_inurba_marseille","lat":43.25108,"lon":5.40326,"is_reserved":false,"is_disabled":false,"rental_uris":{"android":"levelo://app?vid=d25acaba-d8d4-43f2-8aeb-8bfae5e50811","ios":"levelo://app?vid=d25acaba-d8d4-43f2-8aeb-8bfae5e50811"},"vehicle_type_id":"4","last_reported":1733369323,"current_range_meters":38800,"station_id":"ce4bhlh2rcd13ifvqgig","pricing_plan_id":"cebpf4jnsgd1na2vs0mg"},{"bike_id":"19d2ce59-2b75-48a1-9810-172e15ca151e","system_id":"levelo_inurba_marseille","lat":43.23198,"lon":5.35544,"is_reserved":false,"is_disabled":false,"rental_uris":{"android":"levelo://app?vid=19d2ce59-2b75-48a1-9810-172e15ca151e","ios":"levelo://app?vid=19d2ce59-2b75-48a1-9810-172e15ca151e"},"vehicle_type_id":"4","last_reported":1733369323,"current_range_meters":6000,"station_id":"ce4bhu92rcd13ifvqi70","pricing_plan_id":"cebpf4jnsgd1na2vs0mg"},{"bike_id":"7354429a-2e7e-44b8-97f6-def08b2096af","system_id":"levelo_inurba_marseille","lat":43.33621,"lon":5.4098,"is_reserved":false,"is_disabled":false,"rental_uris":{"android":"levelo://app?vid=7354429a-2e7e-44b8-97f6-def08b2096af","ios":"levelo://app?vid=7354429a-2e7e-44b8-97f6-def08b2096af"},"vehicle_type_id":"4","last_reported":1733369323,"current_range_meters":27600,"station_id":"ce4bhqh2rcd13ifvqhmg","pricing_plan_id":"cebpf4jnsgd1na2vs0mg"},{"bike_id":"fa2aaae2-9d60-4403-857a-340eb96269a4","system_id":"levelo_inurba_marseille","lat":43.24669,"lon":5.381703,"is_reserved":false,"is_disabled":false,"rental_uris":{"android":"levelo://app?vid=fa2aaae2-9d60-4403-857a-340eb96269a4","ios":"levelo://app?vid=fa2aaae2-9d60-4403-857a-340eb96269a4"},"vehicle_type_id":"4","last_reported":1733369323,"current_range_meters":34800,"station_id":"ce4bhih2rcd13ifvqfr0","pricing_plan_id":"cebpf4jnsgd1na2vs0mg"},{"bike_id":"d5673f8c-8ef4-4027-a873-748885221965","system_id":"levelo_inurba_marseille","lat":43.28262,"lon":5.35082,"is_reserved":false,"is_disabled":false,"rental_uris":{"android":"levelo://app?vid=d5673f8c-8ef4-4027-a873-748885221965","ios":"levelo://app?vid=d5673f8c-8ef4-4027-a873-748885221965"},"vehicle_type_id":"4","last_reported":1733369323,"current_range_meters":38000,"station_id":"ce4bhbp2rcd13ifvqerg","pricing_plan_id":"cebpf4jnsgd1na2vs0mg"},{"bike_id":"21b56b2e-fd94-4a3a-b1a2-bdbe6900866e","system_id":"levelo_inurba_marseille","lat":43.31331,"lon":5.39696,"is_reserved":false,"is_disabled":false,"rental_uris":{"android":"levelo://app?vid=21b56b2e-fd94-4a3a-b1a2-bdbe6900866e","ios":"levelo://app?vid=21b56b2e-fd94-4a3a-b1a2-bdbe6900866e"},"vehicle_type_id":"4","last_reported":1733369323,"current_range_meters":38800,"station_id":"ce4bgvp2rcd13ifvqcu0","pricing_plan_id":"cebpf4jnsgd1na2vs0mg"},{"bike_id":"6cc6805f-c0ca-4585-bdf1-b5a0339762b0","system_id":"levelo_inurba_marseille","lat":43.29022,"lon":5.42798,"is_reserved":false,"is_disabled":true,"rental_uris":{"android":"levelo://app?vid=6cc6805f-c0ca-4585-bdf1-b5a0339762b0","ios":"levelo://app?vid=6cc6805f-c0ca-4585-bdf1-b5a0339762b0"},"vehicle_type_id":"4","last_reported":1733369323,"current_range_meters":0,"station_id":"","pricing_plan_id":"cebpf4jnsgd1na2vs0mg"},{"bike_id":"7b4d4437-e3ba-4779-80c2-def8c06c14d8","system_id":"levelo_inurba_marseille","lat":43.27909,"lon":5.3801,"is_reserved":false,"is_disabled":false,"rental_uris":{"android":"levelo://app?vid=7b4d4437-e3ba-4779-80c2-def8c06c14d8","ios":"levelo://app?vid=7b4d4437-e3ba-4779-80c2-def8c06c14d8"},"vehicle_type_id":"4","last_reported":1733369323,"current_range_meters":38800,"station_id":"ce4bhf92rcd13ifvqf50","pricing_plan_id":"cebpf4jnsgd1na2vs0mg"},{"bike_id":"0bfb3d4e-359d-4927-881b-5e84aa873cc8","system_id":"levelo_inurba_marseille","lat":43.32356,"lon":5.36758,"is_reserved":false,"is_disabled":false,"rental_uris":{"android":"levelo://app?vid=0bfb3d4e-359d-4927-881b-5e84aa873cc8","ios":"levelo://app?vid=0bfb3d4e-359d-4927-881b-5e84aa873cc8"},"vehicle_type_id":"4","last_reported":1733369323,"current_range_meters":16400,"station_id":"ce4bhsh2rcd13ifvqi2g","pricing_plan_id":"cebpf4jnsgd1na2vs0mg"},{"bike_id":"8d1c8b92-79bb-4181-b0d2-5e94db1a14d0","system_id":"levelo_inurba_marseille","lat":43.300115,"lon":5.382636,"is_reserved":false,"is_disabled":true,"rental_uris":{"android":"levelo://app?vid=8d1c8b92-79bb-4181-b0d2-5e94db1a14d0","ios":"levelo://app?vid=8d1c8b92-79bb-4181-b0d2-5e94db1a14d0"},"vehicle_type_id":"4","last_reported":1733369323,"current_range_meters":0,"station_id":"","pricing_plan_id":"cebpf4jnsgd1na2vs0mg"},{"bike_id":"fb5d3d84-2a9a-4652-a461-f86ac70bf0ac","system_id":"levelo_inurba_marseille","lat":43.24663,"lon":5.38176,"is_reserved":false,"is_disabled":false,"rental_uris":{"android":"levelo://app?vid=fb5d3d84-2a9a-4652-a461-f86ac70bf0ac","ios":"levelo://app?vid=fb5d3d84-2a9a-4652-a461-f86ac70bf0ac"},"vehicle_type_id":"4","last_reported":1733369323,"current_range_meters":35200,"station_id":"ce4bhih2rcd13ifvqfr0","pricing_plan_id":"cebpf4jnsgd1na2vs0mg"},{"bike_id":"61c40bd2-6da6-4b59-9b84-22d70b5e4ddf","system_id":"levelo_inurba_marseille","lat":43.31539,"lon":5.38038,"is_reserved":false,"is_disabled":false,"rental_uris":{"android":"levelo://app?vid=61c40bd2-6da6-4b59-9b84-22d70b5e4ddf","ios":"levelo://app?vid=61c40bd2-6da6-4b59-9b84-22d70b5e4ddf"},"vehicle_type_id":"4","last_reported":1733369323,"current_range_meters":25200,"station_id":"ce4bhsp2rcd13ifvqi50","pricing_plan_id":"cebpf4jnsgd1na2vs0mg"},{"bike_id":"0fde8238-d2ea-4b89-ac83-1aece1727b11","system_id":"levelo_inurba_marseille","lat":43.2707,"lon":5.42277,"is_reserved":false,"is_disabled":false,"rental_uris":{"android":"levelo://app?vid=0fde8238-d2ea-4b89-ac83-1aece1727b11","ios":"levelo://app?vid=0fde8238-d2ea-4b89-ac83-1aece1727b11"},"vehicle_type_id":"4","last_reported":1733369323,"current_range_meters":35600,"station_id":"ce4bhk92rcd13ifvqgb0","pricing_plan_id":"cebpf4jnsgd1na2vs0mg"},{"bike_id":"1d327b1b-12d4-4ffc-95ec-43f973a2cb6c","system_id":"levelo_inurba_marseille","lat":43.2396,"lon":5.36639,"is_reserved":false,"is_disabled":false,"rental_uris":{"android":"levelo://app?vid=1d327b1b-12d4-4ffc-95ec-43f973a2cb6c","ios":"levelo://app?vid=1d327b1b-12d4-4ffc-95ec-43f973a2cb6c"},"vehicle_type_id":"4","last_reported":1733369323,"current_range_meters":14400,"station_id":"ce4bhi12rcd13ifvqfp0","pricing_plan_id":"cebpf4jnsgd1na2vs0mg"},{"bike_id":"8e60d928-fa91-4dca-8f4f-5745e666577c","system_id":"levelo_inurba_marseille","lat":43.28439,"lon":5.39187,"is_reserved":false,"is_disabled":false,"rental_uris":{"android":"levelo://app?vid=8e60d928-fa91-4dca-8f4f-5745e666577c","ios":"levelo://app?vid=8e60d928-fa91-4dca-8f4f-5745e666577c"},"vehicle_type_id":"4","last_reported":1733369323,"current_range_meters":22000,"station_id":"ce4bhoh2rcd13ifvqh5g","pricing_plan_id":"cebpf4jnsgd1na2vs0mg"},{"bike_id":"f99c98c7-6fcb-4f53-a391-e37ebd732f79","system_id":"levelo_inurba_marseille","lat":43.30936,"lon":5.40152,"is_reserved":false,"is_disabled":false,"rental_uris":{"android":"levelo://app?vid=f99c98c7-6fcb-4f53-a391-e37ebd732f79","ios":"levelo://app?vid=f99c98c7-6fcb-4f53-a391-e37ebd732f79"},"vehicle_type_id":"4","last_reported":1733369323,"current_range_meters":29600,"station_id":"ce4bgvp2rcd13ifvqct0","pricing_plan_id":"cebpf4jnsgd1na2vs0mg"},{"bike_id":"7f43cefb-5210-48cf-bf38-e6e32eddcac6","system_id":"levelo_inurba_marseille","lat":43.28457,"lon":5.35902,"is_reserved":false,"is_disabled":false,"rental_uris":{"android":"levelo://app?vid=7f43cefb-5210-48cf-bf38-e6e32eddcac6","ios":"levelo://app?vid=7f43cefb-5210-48cf-bf38-e6e32eddcac6"},"vehicle_type_id":"4","last_reported":1733369323,"current_range_meters":16800,"station_id":"ce4bhah2rcd13ifvqei0","pricing_plan_id":"cebpf4jnsgd1na2vs0mg"},{"bike_id":"a9e4e6c1-371c-48c2-a3c3-04f2bcfd31a1","system_id":"levelo_inurba_marseille","lat":43.29535,"lon":5.38549,"is_reserved":false,"is_disabled":true,"rental_uris":{"android":"levelo://app?vid=a9e4e6c1-371c-48c2-a3c3-04f2bcfd31a1","ios":"levelo://app?vid=a9e4e6c1-371c-48c2-a3c3-04f2bcfd31a1"},"vehicle_type_id":"4","last_reported":1733369323,"current_range_meters":6000,"station_id":"ce4bgih2rcd13ifvqba0","pricing_plan_id":"cebpf4jnsgd1na2vs0mg"},{"bike_id":"b3ed838e-36ad-4325-824a-a738f0ef27dd","system_id":"levelo_inurba_marseille","lat":43.2656,"lon":5.3729,"is_reserved":false,"is_disabled":false,"rental_uris":{"android":"levelo://app?vid=b3ed838e-36ad-4325-824a-a738f0ef27dd","ios":"levelo://app?vid=b3ed838e-36ad-4325-824a-a738f0ef27dd"},"vehicle_type_id":"4","last_reported":1733369323,"current_range_meters":22800,"station_id":"ce4bhg12rcd13ifvqf70","pricing_plan_id":"cebpf4jnsgd1na2vs0mg"},{"bike_id":"e363ccb5-732d-42f5-a57c-4cdb48ebb22f","system_id":"levelo_inurba_marseille","lat":43.23959,"lon":5.36641,"is_reserved":false,"is_disabled":false,"rental_uris":{"android":"levelo://app?vid=e363ccb5-732d-42f5-a57c-4cdb48ebb22f","ios":"levelo://app?vid=e363ccb5-732d-42f5-a57c-4cdb48ebb22f"},"vehicle_type_id":"4","last_reported":1733369323,"current_range_meters":26000,"station_id":"ce4bhi12rcd13ifvqfp0","pricing_plan_id":"cebpf4jnsgd1na2vs0mg"},{"bike_id":"1ca0aca0-4ca4-4bf8-9b1d-054345c3a341","system_id":"levelo_inurba_marseille","lat":43.28884,"lon":5.39998,"is_reserved":false,"is_disabled":false,"rental_uris":{"android":"levelo://app?vid=1ca0aca0-4ca4-4bf8-9b1d-054345c3a341","ios":"levelo://app?vid=1ca0aca0-4ca4-4bf8-9b1d-054345c3a341"},"vehicle_type_id":"4","last_reported":1733369323,"current_range_meters":25600,"station_id":"","pricing_plan_id":"cebpf4jnsgd1na2vs0mg"},{"bike_id":"b59b1f3b-114f-40a5-a7c7-20476d80dcf7","system_id":"levelo_inurba_marseille","lat":43.27941,"lon":5.41045,"is_reserved":false,"is_disabled":false,"rental_uris":{"android":"levelo://app?vid=b59b1f3b-114f-40a5-a7c7-20476d80dcf7","ios":"levelo://app?vid=b59b1f3b-114f-40a5-a7c7-20476d80dcf7"},"vehicle_type_id":"4","last_reported":1733369323,"current_range_meters":26000,"station_id":"ce4bhnp2rcd13ifvqh0g","pricing_plan_id":"cebpf4jnsgd1na2vs0mg"},{"bike_id":"b18eb3bb-eb3e-4729-aa22-60070211bacb","system_id":"levelo_inurba_marseille","lat":43.30802,"lon":5.38158,"is_reserved":false,"is_disabled":false,"rental_uris":{"android":"levelo://app?vid=b18eb3bb-eb3e-4729-aa22-60070211bacb","ios":"levelo://app?vid=b18eb3bb-eb3e-4729-aa22-60070211bacb"},"vehicle_type_id":"4","last_reported":1733369323,"current_range_meters":25200,"station_id":"ce4bgt12rcd13ifvqce0","pricing_plan_id":"cebpf4jnsgd1na2vs0mg"},{"bike_id":"fbcb3ea9-4a15-4ba8-82fb-a0348ff2b258","system_id":"levelo_inurba_marseille","lat":43.28154,"lon":5.42666,"is_reserved":false,"is_disabled":false,"rental_uris":{"android":"levelo://app?vid=fbcb3ea9-4a15-4ba8-82fb-a0348ff2b258","ios":"levelo://app?vid=fbcb3ea9-4a15-4ba8-82fb-a0348ff2b258"},"vehicle_type_id":"4","last_reported":1733369323,"current_range_meters":25200,"station_id":"","pricing_plan_id":"cebpf4jnsgd1na2vs0mg"},{"bike_id":"31e6fc3b-f821-47c0-8265-070531f4b97c","system_id":"levelo_inurba_marseille","lat":43.24178,"lon":5.39729,"is_reserved":false,"is_disabled":false,"rental_uris":{"android":"levelo://app?vid=31e6fc3b-f821-47c0-8265-070531f4b97c","ios":"levelo://app?vid=31e6fc3b-f821-47c0-8265-070531f4b97c"},"vehicle_type_id":"4","last_reported":1733369323,"current_range_meters":37600,"station_id":"ce4bhn12rcd13ifvqgpg","pricing_plan_id":"cebpf4jnsgd1na2vs0mg"},{"bike_id":"eafd2cab-5ced-4422-81d0-d3d803524573","system_id":"levelo_inurba_marseille","lat":43.308879,"lon":5.396444,"is_reserved":false,"is_disabled":false,"rental_uris":{"android":"levelo://app?vid=eafd2cab-5ced-4422-81d0-d3d803524573","ios":"levelo://app?vid=eafd2cab-5ced-4422-81d0-d3d803524573"},"vehicle_type_id":"4","last_reported":1733369323,"current_range_meters":20400,"station_id":"ce4bh012rcd13ifvqcv0","pricing_plan_id":"cebpf4jnsgd1na2vs0mg"},{"bike_id":"cc97291d-dd54-42f5-bf82-a33e785df71f","system_id":"levelo_inurba_marseille","lat":43.29217,"lon":5.36066,"is_reserved":false,"is_disabled":false,"rental_uris":{"android":"levelo://app?vid=cc97291d-dd54-42f5-bf82-a33e785df71f","ios":"levelo://app?vid=cc97291d-dd54-42f5-bf82-a33e785df71f"},"vehicle_type_id":"4","last_reported":1733369323,"current_range_meters":26000,"station_id":"ce4bhbh2rcd13ifvqeqg","pricing_plan_id":"cebpf4jnsgd1na2vs0mg"},{"bike_id":"ab05039b-da25-4171-883f-dbeac8d952e7","system_id":"levelo_inurba_marseille","lat":43.3237,"lon":5.38916,"is_reserved":false,"is_disabled":false,"rental_uris":{"android":"levelo://app?vid=ab05039b-da25-4171-883f-dbeac8d952e7","ios":"levelo://app?vid=ab05039b-da25-4171-883f-dbeac8d952e7"},"vehicle_type_id":"4","last_reported":1733369323,"current_range_meters":24000,"station_id":"ce4bhqp2rcd13ifvqhog","pricing_plan_id":"cebpf4jnsgd1na2vs0mg"},{"bike_id":"fabe9ee1-41e3-4884-8c7e-baeae1d862e2","system_id":"levelo_inurba_marseille","lat":43.28943,"lon":5.36402,"is_reserved":false,"is_disabled":false,"rental_uris":{"android":"levelo://app?vid=fabe9ee1-41e3-4884-8c7e-baeae1d862e2","ios":"levelo://app?vid=fabe9ee1-41e3-4884-8c7e-baeae1d862e2"},"vehicle_type_id":"4","last_reported":1733369323,"current_range_meters":32800,"station_id":"ce4bhc92rcd13ifvqetg","pricing_plan_id":"cebpf4jnsgd1na2vs0mg"},{"bike_id":"bb6b53dd-4494-4182-a216-6003a45ab165","system_id":"levelo_inurba_marseille","lat":43.25001,"lon":5.38926,"is_reserved":false,"is_disabled":false,"rental_uris":{"android":"levelo://app?vid=bb6b53dd-4494-4182-a216-6003a45ab165","ios":"levelo://app?vid=bb6b53dd-4494-4182-a216-6003a45ab165"},"vehicle_type_id":"4","last_reported":1733369323,"current_range_meters":36800,"station_id":"ce4bhgp2rcd13ifvqfd0","pricing_plan_id":"cebpf4jnsgd1na2vs0mg"},{"bike_id":"9c77a68d-2e99-44e9-b903-950fb6644d35","system_id":"levelo_inurba_marseille","lat":43.25265,"lon":5.39465,"is_reserved":false,"is_disabled":true,"rental_uris":{"android":"levelo://app?vid=9c77a68d-2e99-44e9-b903-950fb6644d35","ios":"levelo://app?vid=9c77a68d-2e99-44e9-b903-950fb6644d35"},"vehicle_type_id":"4","last_reported":1733369323,"current_range_meters":0,"station_id":"","pricing_plan_id":"cebpf4jnsgd1na2vs0mg"},{"bike_id":"92de2224-b907-44de-b12d-bbdb80c3adbb","system_id":"levelo_inurba_marseille","lat":43.27977,"lon":5.38752,"is_reserved":false,"is_disabled":false,"rental_uris":{"android":"levelo://app?vid=92de2224-b907-44de-b12d-bbdb80c3adbb","ios":"levelo://app?vid=92de2224-b907-44de-b12d-bbdb80c3adbb"},"vehicle_type_id":"4","last_reported":1733369323,"current_range_meters":38800,"station_id":"ce4bhg12rcd13ifvqf80","pricing_plan_id":"cebpf4jnsgd1na2vs0mg"},{"bike_id":"dce3be87-90c1-4c6d-92e0-cf09314d921e","system_id":"levelo_inurba_marseille","lat":43.29797,"lon":5.38118,"is_reserved":false,"is_disabled":true,"rental_uris":{"android":"levelo://app?vid=dce3be87-90c1-4c6d-92e0-cf09314d921e","ios":"levelo://app?vid=dce3be87-90c1-4c6d-92e0-cf09314d921e"},"vehicle_type_id":"4","last_reported":1733369323,"current_range_meters":23200,"station_id":"ce4bgip2rcd13ifvqbb0","pricing_plan_id":"cebpf4jnsgd1na2vs0mg"},{"bike_id":"58650582-f8e9-49b9-8dc5-fce796e3df79","system_id":"levelo_inurba_marseille","lat":43.2572,"lon":5.41107,"is_reserved":false,"is_disabled":false,"rental_uris":{"android":"levelo://app?vid=58650582-f8e9-49b9-8dc5-fce796e3df79","ios":"levelo://app?vid=58650582-f8e9-49b9-8dc5-fce796e3df79"},"vehicle_type_id":"4","last_reported":1733369323,"current_range_meters":16000,"station_id":"ce4bhkp2rcd13ifvqgd0","pricing_plan_id":"cebpf4jnsgd1na2vs0mg"},{"bike_id":"440d7dd7-8c77-43eb-bfd9-d6f4e1e4a6e4","system_id":"levelo_inurba_marseille","lat":43.30888,"lon":5.39644,"is_reserved":false,"is_disabled":true,"rental_uris":{"android":"levelo://app?vid=440d7dd7-8c77-43eb-bfd9-d6f4e1e4a6e4","ios":"levelo://app?vid=440d7dd7-8c77-43eb-bfd9-d6f4e1e4a6e4"},"vehicle_type_id":"4","last_reported":1733369323,"current_range_meters":0,"station_id":"ce4bh012rcd13ifvqcv0","pricing_plan_id":"cebpf4jnsgd1na2vs0mg"},{"bike_id":"6ed6104a-cb7d-4889-82fa-acac97c6f644","system_id":"levelo_inurba_marseille","lat":43.32335,"lon":5.406227,"is_reserved":false,"is_disabled":false,"rental_uris":{"android":"levelo://app?vid=6ed6104a-cb7d-4889-82fa-acac97c6f644","ios":"levelo://app?vid=6ed6104a-cb7d-4889-82fa-acac97c6f644"},"vehicle_type_id":"4","last_reported":1733369323,"current_range_meters":35600,"station_id":"ce4bhq92rcd13ifvqhjg","pricing_plan_id":"cebpf4jnsgd1na2vs0mg"},{"bike_id":"83985555-c848-4b28-808f-8a7e7cf8519e","system_id":"levelo_inurba_marseille","lat":43.28115,"lon":5.43955,"is_reserved":false,"is_disabled":true,"rental_uris":{"android":"levelo://app?vid=83985555-c848-4b28-808f-8a7e7cf8519e","ios":"levelo://app?vid=83985555-c848-4b28-808f-8a7e7cf8519e"},"vehicle_type_id":"4","last_reported":1733369323,"current_range_meters":0,"station_id":"","pricing_plan_id":"cebpf4jnsgd1na2vs0mg"},{"bike_id":"9335af8a-9a1c-4d10-bb2f-50a1da6cfe52","system_id":"levelo_inurba_marseille","lat":43.3133,"lon":5.39693,"is_reserved":false,"is_disabled":false,"rental_uris":{"android":"levelo://app?vid=9335af8a-9a1c-4d10-bb2f-50a1da6cfe52","ios":"levelo://app?vid=9335af8a-9a1c-4d10-bb2f-50a1da6cfe52"},"vehicle_type_id":"4","last_reported":1733369323,"current_range_meters":24000,"station_id":"ce4bgvp2rcd13ifvqcu0","pricing_plan_id":"cebpf4jnsgd1na2vs0mg"},{"bike_id":"daf264e1-1131-47f2-a065-9eb6add9ede3","system_id":"levelo_inurba_marseille","lat":43.28694,"lon":5.3739,"is_reserved":false,"is_disabled":true,"rental_uris":{"android":"levelo://app?vid=daf264e1-1131-47f2-a065-9eb6add9ede3","ios":"levelo://app?vid=daf264e1-1131-47f2-a065-9eb6add9ede3"},"vehicle_type_id":"4","last_reported":1733369323,"current_range_meters":1600,"station_id":"ce4bh3p2rcd13ifvqdq0","pricing_plan_id":"cebpf4jnsgd1na2vs0mg"},{"bike_id":"903ec8f1-f4c3-441f-a117-ff7454fcb959","system_id":"levelo_inurba_marseille","lat":43.29467,"lon":5.39434,"is_reserved":false,"is_disabled":true,"rental_uris":{"android":"levelo://app?vid=903ec8f1-f4c3-441f-a117-ff7454fcb959","ios":"levelo://app?vid=903ec8f1-f4c3-441f-a117-ff7454fcb959"},"vehicle_type_id":"4","last_reported":1733369323,"current_range_meters":0,"station_id":"","pricing_plan_id":"cebpf4jnsgd1na2vs0mg"},{"bike_id":"07a60b7f-80b7-470a-9515-22fa33d21dee","system_id":"levelo_inurba_marseille","lat":43.302775,"lon":5.396498,"is_reserved":false,"is_disabled":true,"rental_uris":{"android":"levelo://app?vid=07a60b7f-80b7-470a-9515-22fa33d21dee","ios":"levelo://app?vid=07a60b7f-80b7-470a-9515-22fa33d21dee"},"vehicle_type_id":"4","last_reported":1733369323,"current_range_meters":0,"station_id":"","pricing_plan_id":"cebpf4jnsgd1na2vs0mg"},{"bike_id":"15851dbe-baab-4737-adcd-0fbd265038e4","system_id":"levelo_inurba_marseille","lat":43.25577,"lon":5.38242,"is_reserved":false,"is_disabled":false,"rental_uris":{"android":"levelo://app?vid=15851dbe-baab-4737-adcd-0fbd265038e4","ios":"levelo://app?vid=15851dbe-baab-4737-adcd-0fbd265038e4"},"vehicle_type_id":"4","last_reported":1733369323,"current_range_meters":30800,"station_id":"ce4bhih2rcd13ifvqfs0","pricing_plan_id":"cebpf4jnsgd1na2vs0mg"},{"bike_id":"47aa3a4c-c572-4770-b78e-a70e304e4d39","system_id":"levelo_inurba_marseille","lat":43.25084,"lon":5.39515,"is_reserved":false,"is_disabled":false,"rental_uris":{"android":"levelo://app?vid=47aa3a4c-c572-4770-b78e-a70e304e4d39","ios":"levelo://app?vid=47aa3a4c-c572-4770-b78e-a70e304e4d39"},"vehicle_type_id":"4","last_reported":1733369323,"current_range_meters":11200,"station_id":"ce4bhm12rcd13ifvqgkg","pricing_plan_id":"cebpf4jnsgd1na2vs0mg"},{"bike_id":"69c3c435-a250-4180-bdeb-d5747c470a1a","system_id":"levelo_inurba_marseille","lat":43.28038,"lon":5.36949,"is_reserved":false,"is_disabled":false,"rental_uris":{"android":"levelo://app?vid=69c3c435-a250-4180-bdeb-d5747c470a1a","ios":"levelo://app?vid=69c3c435-a250-4180-bdeb-d5747c470a1a"},"vehicle_type_id":"4","last_reported":1733369323,"current_range_meters":38800,"station_id":"ce4bha12rcd13ifvqef0","pricing_plan_id":"cebpf4jnsgd1na2vs0mg"},{"bike_id":"0ec757e7-0315-41b2-8511-1ce3016f1897","system_id":"levelo_inurba_marseille","lat":43.31359,"lon":5.38499,"is_reserved":false,"is_disabled":false,"rental_uris":{"android":"levelo://app?vid=0ec757e7-0315-41b2-8511-1ce3016f1897","ios":"levelo://app?vid=0ec757e7-0315-41b2-8511-1ce3016f1897"},"vehicle_type_id":"4","last_reported":1733369323,"current_range_meters":18000,"station_id":"ce4bgt92rcd13ifvqcf0","pricing_plan_id":"cebpf4jnsgd1na2vs0mg"},{"bike_id":"eb21963f-de7e-4534-aca6-bda405f0be1e","system_id":"levelo_inurba_marseille","lat":43.29877,"lon":5.39747,"is_reserved":false,"is_disabled":false,"rental_uris":{"android":"levelo://app?vid=eb21963f-de7e-4534-aca6-bda405f0be1e","ios":"levelo://app?vid=eb21963f-de7e-4534-aca6-bda405f0be1e"},"vehicle_type_id":"4","last_reported":1733369323,"current_range_meters":33200,"station_id":"ce4bh0h2rcd13ifvqd50","pricing_plan_id":"cebpf4jnsgd1na2vs0mg"},{"bike_id":"020719d4-c29b-4e35-be4b-81ca932ddaa9","system_id":"levelo_inurba_marseille","lat":43.30243,"lon":5.40057,"is_reserved":false,"is_disabled":true,"rental_uris":{"android":"levelo://app?vid=020719d4-c29b-4e35-be4b-81ca932ddaa9","ios":"levelo://app?vid=020719d4-c29b-4e35-be4b-81ca932ddaa9"},"vehicle_type_id":"4","last_reported":1733369323,"current_range_meters":33200,"station_id":"ce4bgvh2rcd13ifvqcs0","pricing_plan_id":"cebpf4jnsgd1na2vs0mg"},{"bike_id":"890eb10a-f73d-4de8-8bdf-80b07d254f3c","system_id":"levelo_inurba_marseille","lat":43.26203,"lon":5.37908,"is_reserved":false,"is_disabled":false,"rental_uris":{"android":"levelo://app?vid=890eb10a-f73d-4de8-8bdf-80b07d254f3c","ios":"levelo://app?vid=890eb10a-f73d-4de8-8bdf-80b07d254f3c"},"vehicle_type_id":"4","last_reported":1733369323,"current_range_meters":39200,"station_id":"ce4bhjp2rcd13ifvqg90","pricing_plan_id":"cebpf4jnsgd1na2vs0mg"},{"bike_id":"3528fd4b-5ec4-4b84-abeb-a0397152ce8a","system_id":"levelo_inurba_marseille","lat":43.29961,"lon":5.41323,"is_reserved":false,"is_disabled":false,"rental_uris":{"android":"levelo://app?vid=3528fd4b-5ec4-4b84-abeb-a0397152ce8a","ios":"levelo://app?vid=3528fd4b-5ec4-4b84-abeb-a0397152ce8a"},"vehicle_type_id":"4","last_reported":1733369323,"current_range_meters":38000,"station_id":"ce4bhp12rcd13ifvqh9g","pricing_plan_id":"cebpf4jnsgd1na2vs0mg"},{"bike_id":"2cd8bcc2-6973-4bbb-a4df-236cf5858163","system_id":"levelo_inurba_marseille","lat":43.23197,"lon":5.35545,"is_reserved":false,"is_disabled":false,"rental_uris":{"android":"levelo://app?vid=2cd8bcc2-6973-4bbb-a4df-236cf5858163","ios":"levelo://app?vid=2cd8bcc2-6973-4bbb-a4df-236cf5858163"},"vehicle_type_id":"4","last_reported":1733369323,"current_range_meters":38800,"station_id":"ce4bhu92rcd13ifvqi70","pricing_plan_id":"cebpf4jnsgd1na2vs0mg"},{"bike_id":"bc355e08-5dbf-4adb-a402-88d99158c2fe","system_id":"levelo_inurba_marseille","lat":43.28445,"lon":5.39191,"is_reserved":false,"is_disabled":false,"rental_uris":{"android":"levelo://app?vid=bc355e08-5dbf-4adb-a402-88d99158c2fe","ios":"levelo://app?vid=bc355e08-5dbf-4adb-a402-88d99158c2fe"},"vehicle_type_id":"4","last_reported":1733369323,"current_range_meters":26800,"station_id":"ce4bhoh2rcd13ifvqh5g","pricing_plan_id":"cebpf4jnsgd1na2vs0mg"},{"bike_id":"791686e6-811e-43c8-ba63-00aeb6e257fa","system_id":"levelo_inurba_marseille","lat":43.2737,"lon":5.36259,"is_reserved":false,"is_disabled":false,"rental_uris":{"android":"levelo://app?vid=791686e6-811e-43c8-ba63-00aeb6e257fa","ios":"levelo://app?vid=791686e6-811e-43c8-ba63-00aeb6e257fa"},"vehicle_type_id":"4","last_reported":1733369323,"current_range_meters":7200,"station_id":"ce4bhbh2rcd13ifvqeo0","pricing_plan_id":"cebpf4jnsgd1na2vs0mg"},{"bike_id":"86e0770a-7d53-4f07-bfce-77b15f85fac6","system_id":"levelo_inurba_marseille","lat":43.296031,"lon":5.381014,"is_reserved":false,"is_disabled":true,"rental_uris":{"android":"levelo://app?vid=86e0770a-7d53-4f07-bfce-77b15f85fac6","ios":"levelo://app?vid=86e0770a-7d53-4f07-bfce-77b15f85fac6"},"vehicle_type_id":"4","last_reported":1733369323,"current_range_meters":4800,"station_id":"ce4bgl12rcd13ifvqbo0","pricing_plan_id":"cebpf4jnsgd1na2vs0mg"},{"bike_id":"dc24279f-f126-4126-97d7-1ef0fe43b4e9","system_id":"levelo_inurba_marseille","lat":43.27368,"lon":5.36258,"is_reserved":false,"is_disabled":false,"rental_uris":{"android":"levelo://app?vid=dc24279f-f126-4126-97d7-1ef0fe43b4e9","ios":"levelo://app?vid=dc24279f-f126-4126-97d7-1ef0fe43b4e9"},"vehicle_type_id":"4","last_reported":1733369323,"current_range_meters":24800,"station_id":"ce4bhbh2rcd13ifvqeo0","pricing_plan_id":"cebpf4jnsgd1na2vs0mg"},{"bike_id":"1a9c3581-331f-42e7-8b9f-2cdd7828100c","system_id":"levelo_inurba_marseille","lat":43.269467,"lon":5.386354,"is_reserved":false,"is_disabled":false,"rental_uris":{"android":"levelo://app?vid=1a9c3581-331f-42e7-8b9f-2cdd7828100c","ios":"levelo://app?vid=1a9c3581-331f-42e7-8b9f-2cdd7828100c"},"vehicle_type_id":"4","last_reported":1733369323,"current_range_meters":38000,"station_id":"ce4bhh92rcd13ifvqfh0","pricing_plan_id":"cebpf4jnsgd1na2vs0mg"},{"bike_id":"506c09f4-6c9b-4fb3-996c-4c7f86dd75a8","system_id":"levelo_inurba_marseille","lat":43.25492,"lon":5.37652,"is_reserved":false,"is_disabled":true,"rental_uris":{"android":"levelo://app?vid=506c09f4-6c9b-4fb3-996c-4c7f86dd75a8","ios":"levelo://app?vid=506c09f4-6c9b-4fb3-996c-4c7f86dd75a8"},"vehicle_type_id":"4","last_reported":1733369323,"current_range_meters":0,"station_id":"","pricing_plan_id":"cebpf4jnsgd1na2vs0mg"},{"bike_id":"91ce04db-2714-450f-b5b6-ab07058eade5","system_id":"levelo_inurba_marseille","lat":43.29631,"lon":5.40597,"is_reserved":false,"is_disabled":true,"rental_uris":{"android":"levelo://app?vid=91ce04db-2714-450f-b5b6-ab07058eade5","ios":"levelo://app?vid=91ce04db-2714-450f-b5b6-ab07058eade5"},"vehicle_type_id":"4","last_reported":1733369323,"current_range_meters":0,"station_id":"ce4bh0h2rcd13ifvqd60","pricing_plan_id":"cebpf4jnsgd1na2vs0mg"},{"bike_id":"a238b26e-b75e-43b6-ad05-5b7e6543ce25","system_id":"levelo_inurba_marseille","lat":43.31082,"lon":5.42431,"is_reserved":false,"is_disabled":false,"rental_uris":{"android":"levelo://app?vid=a238b26e-b75e-43b6-ad05-5b7e6543ce25","ios":"levelo://app?vid=a238b26e-b75e-43b6-ad05-5b7e6543ce25"},"vehicle_type_id":"4","last_reported":1733369323,"current_range_meters":37600,"station_id":"ce4bhp92rcd13ifvqhag","pricing_plan_id":"cebpf4jnsgd1na2vs0mg"},{"bike_id":"9202c63e-372c-4469-a5c1-8e35757d1940","system_id":"levelo_inurba_marseille","lat":43.30053,"lon":5.38832,"is_reserved":false,"is_disabled":true,"rental_uris":{"android":"levelo://app?vid=9202c63e-372c-4469-a5c1-8e35757d1940","ios":"levelo://app?vid=9202c63e-372c-4469-a5c1-8e35757d1940"},"vehicle_type_id":"4","last_reported":1733369323,"current_range_meters":0,"station_id":"","pricing_plan_id":"cebpf4jnsgd1na2vs0mg"},{"bike_id":"fb669fc9-1ad6-46f8-9a6e-c301ceec0398","system_id":"levelo_inurba_marseille","lat":43.25081,"lon":5.39514,"is_reserved":false,"is_disabled":false,"rental_uris":{"android":"levelo://app?vid=fb669fc9-1ad6-46f8-9a6e-c301ceec0398","ios":"levelo://app?vid=fb669fc9-1ad6-46f8-9a6e-c301ceec0398"},"vehicle_type_id":"4","last_reported":1733369323,"current_range_meters":39200,"station_id":"ce4bhm12rcd13ifvqgkg","pricing_plan_id":"cebpf4jnsgd1na2vs0mg"},{"bike_id":"617d4afb-21bc-4c51-b858-96b4318c6d67","system_id":"levelo_inurba_marseille","lat":43.32069,"lon":5.41542,"is_reserved":false,"is_disabled":false,"rental_uris":{"android":"levelo://app?vid=617d4afb-21bc-4c51-b858-96b4318c6d67","ios":"levelo://app?vid=617d4afb-21bc-4c51-b858-96b4318c6d67"},"vehicle_type_id":"4","last_reported":1733369323,"current_range_meters":38000,"station_id":"ce4bhq92rcd13ifvqhkg","pricing_plan_id":"cebpf4jnsgd1na2vs0mg"},{"bike_id":"75d0abab-06bc-437f-955e-17ad8bc515a7","system_id":"levelo_inurba_marseille","lat":43.30884,"lon":5.39647,"is_reserved":false,"is_disabled":false,"rental_uris":{"android":"levelo://app?vid=75d0abab-06bc-437f-955e-17ad8bc515a7","ios":"levelo://app?vid=75d0abab-06bc-437f-955e-17ad8bc515a7"},"vehicle_type_id":"4","last_reported":1733369323,"current_range_meters":28000,"station_id":"ce4bh012rcd13ifvqcv0","pricing_plan_id":"cebpf4jnsgd1na2vs0mg"},{"bike_id":"9d4c14dd-e2d3-413c-b94a-d2f6cb7c1141","system_id":"levelo_inurba_marseille","lat":43.28115,"lon":5.37917,"is_reserved":false,"is_disabled":false,"rental_uris":{"android":"levelo://app?vid=9d4c14dd-e2d3-413c-b94a-d2f6cb7c1141","ios":"levelo://app?vid=9d4c14dd-e2d3-413c-b94a-d2f6cb7c1141"},"vehicle_type_id":"4","last_reported":1733369323,"current_range_meters":24800,"station_id":"ce4bha12rcd13ifvqee0","pricing_plan_id":"cebpf4jnsgd1na2vs0mg"},{"bike_id":"617ae246-a2b4-4e1a-a737-88537a672a91","system_id":"levelo_inurba_marseille","lat":43.28679,"lon":5.38671,"is_reserved":false,"is_disabled":true,"rental_uris":{"android":"levelo://app?vid=617ae246-a2b4-4e1a-a737-88537a672a91","ios":"levelo://app?vid=617ae246-a2b4-4e1a-a737-88537a672a91"},"vehicle_type_id":"4","last_reported":1733369323,"current_range_meters":1200,"station_id":"ce4bh492rcd13ifvqdug","pricing_plan_id":"cebpf4jnsgd1na2vs0mg"},{"bike_id":"cf3e6ea0-09ff-406c-b357-28a6a6117f94","system_id":"levelo_inurba_marseille","lat":43.22933,"lon":5.35383,"is_reserved":false,"is_disabled":false,"rental_uris":{"android":"levelo://app?vid=cf3e6ea0-09ff-406c-b357-28a6a6117f94","ios":"levelo://app?vid=cf3e6ea0-09ff-406c-b357-28a6a6117f94"},"vehicle_type_id":"4","last_reported":1733369323,"current_range_meters":38800,"station_id":"cpo3532slgdg3j2ikp40","pricing_plan_id":"cebpf4jnsgd1na2vs0mg"},{"bike_id":"fd7dea6a-aa83-4656-baae-4085b6e7d8d6","system_id":"levelo_inurba_marseille","lat":43.33727,"lon":5.39183,"is_reserved":false,"is_disabled":false,"rental_uris":{"android":"levelo://app?vid=fd7dea6a-aa83-4656-baae-4085b6e7d8d6","ios":"levelo://app?vid=fd7dea6a-aa83-4656-baae-4085b6e7d8d6"},"vehicle_type_id":"4","last_reported":1733369323,"current_range_meters":19200,"station_id":"ce4bhr92rcd13ifvqhsg","pricing_plan_id":"cebpf4jnsgd1na2vs0mg"},{"bike_id":"33b6defc-0259-40c1-8c7c-b5f4200fa144","system_id":"levelo_inurba_marseille","lat":43.23961,"lon":5.36644,"is_reserved":false,"is_disabled":false,"rental_uris":{"android":"levelo://app?vid=33b6defc-0259-40c1-8c7c-b5f4200fa144","ios":"levelo://app?vid=33b6defc-0259-40c1-8c7c-b5f4200fa144"},"vehicle_type_id":"4","last_reported":1733369323,"current_range_meters":9600,"station_id":"ce4bhi12rcd13ifvqfp0","pricing_plan_id":"cebpf4jnsgd1na2vs0mg"},{"bike_id":"14ce0945-4a24-4444-9f1e-7194f83f3f58","system_id":"levelo_inurba_marseille","lat":43.28943,"lon":5.36398,"is_reserved":false,"is_disabled":false,"rental_uris":{"android":"levelo://app?vid=14ce0945-4a24-4444-9f1e-7194f83f3f58","ios":"levelo://app?vid=14ce0945-4a24-4444-9f1e-7194f83f3f58"},"vehicle_type_id":"4","last_reported":1733369323,"current_range_meters":6800,"station_id":"ce4bhc92rcd13ifvqetg","pricing_plan_id":"cebpf4jnsgd1na2vs0mg"},{"bike_id":"32e3b939-48c3-4ea5-b418-6c25d78f8737","system_id":"levelo_inurba_marseille","lat":43.23963,"lon":5.36638,"is_reserved":false,"is_disabled":false,"rental_uris":{"android":"levelo://app?vid=32e3b939-48c3-4ea5-b418-6c25d78f8737","ios":"levelo://app?vid=32e3b939-48c3-4ea5-b418-6c25d78f8737"},"vehicle_type_id":"4","last_reported":1733369323,"current_range_meters":3200,"station_id":"ce4bhi12rcd13ifvqfp0","pricing_plan_id":"cebpf4jnsgd1na2vs0mg"},{"bike_id":"719e509a-25e4-4b1b-9830-f708d85d7593","system_id":"levelo_inurba_marseille","lat":43.29283,"lon":5.37397,"is_reserved":false,"is_disabled":true,"rental_uris":{"android":"levelo://app?vid=719e509a-25e4-4b1b-9830-f708d85d7593","ios":"levelo://app?vid=719e509a-25e4-4b1b-9830-f708d85d7593"},"vehicle_type_id":"4","last_reported":1733369323,"current_range_meters":0,"station_id":"","pricing_plan_id":"cebpf4jnsgd1na2vs0mg"},{"bike_id":"8a6ce156-fe49-4fd1-a519-eafefc6fe177","system_id":"levelo_inurba_marseille","lat":43.271756,"lon":5.409919,"is_reserved":false,"is_disabled":false,"rental_uris":{"android":"levelo://app?vid=8a6ce156-fe49-4fd1-a519-eafefc6fe177","ios":"levelo://app?vid=8a6ce156-fe49-4fd1-a519-eafefc6fe177"},"vehicle_type_id":"4","last_reported":1733369323,"current_range_meters":18000,"station_id":"ce4bhl12rcd13ifvqgf0","pricing_plan_id":"cebpf4jnsgd1na2vs0mg"},{"bike_id":"9524b159-b4ce-452d-96ec-e3d7294532ae","system_id":"levelo_inurba_marseille","lat":43.30778,"lon":5.37643,"is_reserved":false,"is_disabled":false,"rental_uris":{"android":"levelo://app?vid=9524b159-b4ce-452d-96ec-e3d7294532ae","ios":"levelo://app?vid=9524b159-b4ce-452d-96ec-e3d7294532ae"},"vehicle_type_id":"4","last_reported":1733369323,"current_range_meters":38800,"station_id":"ce4bgv92rcd13ifvqcq0","pricing_plan_id":"cebpf4jnsgd1na2vs0mg"},{"bike_id":"83eb17d7-c008-4521-987c-0050c2229dde","system_id":"levelo_inurba_marseille","lat":43.28693,"lon":5.37384,"is_reserved":false,"is_disabled":false,"rental_uris":{"android":"levelo://app?vid=83eb17d7-c008-4521-987c-0050c2229dde","ios":"levelo://app?vid=83eb17d7-c008-4521-987c-0050c2229dde"},"vehicle_type_id":"4","last_reported":1733369323,"current_range_meters":33600,"station_id":"ce4bh3p2rcd13ifvqdq0","pricing_plan_id":"cebpf4jnsgd1na2vs0mg"},{"bike_id":"8f29d0b4-a369-4bf4-a7e4-66462f797d71","system_id":"levelo_inurba_marseille","lat":43.30546,"lon":5.38427,"is_reserved":false,"is_disabled":true,"rental_uris":{"android":"levelo://app?vid=8f29d0b4-a369-4bf4-a7e4-66462f797d71","ios":"levelo://app?vid=8f29d0b4-a369-4bf4-a7e4-66462f797d71"},"vehicle_type_id":"4","last_reported":1733369323,"current_range_meters":0,"station_id":"ce4bgg92rcd13ifvqb30","pricing_plan_id":"cebpf4jnsgd1na2vs0mg"},{"bike_id":"8d825ab3-a9cd-4865-97d2-0dacf9994034","system_id":"levelo_inurba_marseille","lat":43.26198,"lon":5.37929,"is_reserved":false,"is_disabled":false,"rental_uris":{"android":"levelo://app?vid=8d825ab3-a9cd-4865-97d2-0dacf9994034","ios":"levelo://app?vid=8d825ab3-a9cd-4865-97d2-0dacf9994034"},"vehicle_type_id":"4","last_reported":1733369323,"current_range_meters":39200,"station_id":"ce4bhjp2rcd13ifvqg90","pricing_plan_id":"cebpf4jnsgd1na2vs0mg"},{"bike_id":"72a10fc3-397f-43c3-878e-ac242a0d793c","system_id":"levelo_inurba_marseille","lat":43.2656,"lon":5.37293,"is_reserved":false,"is_disabled":false,"rental_uris":{"android":"levelo://app?vid=72a10fc3-397f-43c3-878e-ac242a0d793c","ios":"levelo://app?vid=72a10fc3-397f-43c3-878e-ac242a0d793c"},"vehicle_type_id":"4","last_reported":1733369323,"current_range_meters":36000,"station_id":"ce4bhg12rcd13ifvqf70","pricing_plan_id":"cebpf4jnsgd1na2vs0mg"},{"bike_id":"e2313035-0a27-419c-b06b-36a49898f917","system_id":"levelo_inurba_marseille","lat":43.27995,"lon":5.41667,"is_reserved":false,"is_disabled":false,"rental_uris":{"android":"levelo://app?vid=e2313035-0a27-419c-b06b-36a49898f917","ios":"levelo://app?vid=e2313035-0a27-419c-b06b-36a49898f917"},"vehicle_type_id":"4","last_reported":1733369323,"current_range_meters":14800,"station_id":"ce4bho12rcd13ifvqh1g","pricing_plan_id":"cebpf4jnsgd1na2vs0mg"},{"bike_id":"21f26508-a7b8-4e21-ae23-6bae799b0b4e","system_id":"levelo_inurba_marseille","lat":43.3066,"lon":5.40046,"is_reserved":false,"is_disabled":false,"rental_uris":{"android":"levelo://app?vid=21f26508-a7b8-4e21-ae23-6bae799b0b4e","ios":"levelo://app?vid=21f26508-a7b8-4e21-ae23-6bae799b0b4e"},"vehicle_type_id":"4","last_reported":1733369323,"current_range_meters":37600,"station_id":"ce4bh112rcd13ifvqda0","pricing_plan_id":"cebpf4jnsgd1na2vs0mg"},{"bike_id":"91d392a2-2fa0-4138-844b-2778296cb275","system_id":"levelo_inurba_marseille","lat":43.28435,"lon":5.39192,"is_reserved":false,"is_disabled":false,"rental_uris":{"android":"levelo://app?vid=91d392a2-2fa0-4138-844b-2778296cb275","ios":"levelo://app?vid=91d392a2-2fa0-4138-844b-2778296cb275"},"vehicle_type_id":"4","last_reported":1733369323,"current_range_meters":39200,"station_id":"ce4bhoh2rcd13ifvqh5g","pricing_plan_id":"cebpf4jnsgd1na2vs0mg"},{"bike_id":"417a239a-7f58-4756-b21f-36ef0f311ef4","system_id":"levelo_inurba_marseille","lat":43.28102,"lon":5.37844,"is_reserved":false,"is_disabled":false,"rental_uris":{"android":"levelo://app?vid=417a239a-7f58-4756-b21f-36ef0f311ef4","ios":"levelo://app?vid=417a239a-7f58-4756-b21f-36ef0f311ef4"},"vehicle_type_id":"4","last_reported":1733369323,"current_range_meters":24000,"station_id":"ce4bha12rcd13ifvqee0","pricing_plan_id":"cebpf4jnsgd1na2vs0mg"},{"bike_id":"84143cd6-1baa-4afc-adaf-6f8d04a0c1bc","system_id":"levelo_inurba_marseille","lat":43.310719,"lon":5.383524,"is_reserved":false,"is_disabled":false,"rental_uris":{"android":"levelo://app?vid=84143cd6-1baa-4afc-adaf-6f8d04a0c1bc","ios":"levelo://app?vid=84143cd6-1baa-4afc-adaf-6f8d04a0c1bc"},"vehicle_type_id":"4","last_reported":1733369323,"current_range_meters":21600,"station_id":"ce4bgv92rcd13ifvqcr0","pricing_plan_id":"cebpf4jnsgd1na2vs0mg"},{"bike_id":"aa05ffce-7802-40fa-8839-82c436772416","system_id":"levelo_inurba_marseille","lat":43.29253,"lon":5.40898,"is_reserved":false,"is_disabled":false,"rental_uris":{"android":"levelo://app?vid=aa05ffce-7802-40fa-8839-82c436772416","ios":"levelo://app?vid=aa05ffce-7802-40fa-8839-82c436772416"},"vehicle_type_id":"4","last_reported":1733369323,"current_range_meters":24800,"station_id":"ce4bh192rcd13ifvqdc0","pricing_plan_id":"cebpf4jnsgd1na2vs0mg"},{"bike_id":"b01ba929-1580-401b-973d-e4a15d746d4a","system_id":"levelo_inurba_marseille","lat":43.22931,"lon":5.3538,"is_reserved":false,"is_disabled":false,"rental_uris":{"android":"levelo://app?vid=b01ba929-1580-401b-973d-e4a15d746d4a","ios":"levelo://app?vid=b01ba929-1580-401b-973d-e4a15d746d4a"},"vehicle_type_id":"4","last_reported":1733369323,"current_range_meters":18000,"station_id":"cpo3532slgdg3j2ikp40","pricing_plan_id":"cebpf4jnsgd1na2vs0mg"},{"bike_id":"726abc6e-2003-49a0-a34b-6f7f86ad3459","system_id":"levelo_inurba_marseille","lat":43.27069,"lon":5.42271,"is_reserved":false,"is_disabled":false,"rental_uris":{"android":"levelo://app?vid=726abc6e-2003-49a0-a34b-6f7f86ad3459","ios":"levelo://app?vid=726abc6e-2003-49a0-a34b-6f7f86ad3459"},"vehicle_type_id":"4","last_reported":1733369323,"current_range_meters":34000,"station_id":"ce4bhk92rcd13ifvqgb0","pricing_plan_id":"cebpf4jnsgd1na2vs0mg"},{"bike_id":"b02af8cf-9ff3-43bd-9365-217723b289e3","system_id":"levelo_inurba_marseille","lat":43.31363,"lon":5.38499,"is_reserved":false,"is_disabled":false,"rental_uris":{"android":"levelo://app?vid=b02af8cf-9ff3-43bd-9365-217723b289e3","ios":"levelo://app?vid=b02af8cf-9ff3-43bd-9365-217723b289e3"},"vehicle_type_id":"4","last_reported":1733369323,"current_range_meters":28800,"station_id":"ce4bgt92rcd13ifvqcf0","pricing_plan_id":"cebpf4jnsgd1na2vs0mg"},{"bike_id":"7421c3ba-1a99-44e9-abab-694b1418d897","system_id":"levelo_inurba_marseille","lat":43.27946,"lon":5.41044,"is_reserved":false,"is_disabled":false,"rental_uris":{"android":"levelo://app?vid=7421c3ba-1a99-44e9-abab-694b1418d897","ios":"levelo://app?vid=7421c3ba-1a99-44e9-abab-694b1418d897"},"vehicle_type_id":"4","last_reported":1733369323,"current_range_meters":8800,"station_id":"ce4bhnp2rcd13ifvqh0g","pricing_plan_id":"cebpf4jnsgd1na2vs0mg"},{"bike_id":"b5d215dc-6fe1-43b1-a5b0-f1031ea82c0a","system_id":"levelo_inurba_marseille","lat":43.28935,"lon":5.36409,"is_reserved":false,"is_disabled":false,"rental_uris":{"android":"levelo://app?vid=b5d215dc-6fe1-43b1-a5b0-f1031ea82c0a","ios":"levelo://app?vid=b5d215dc-6fe1-43b1-a5b0-f1031ea82c0a"},"vehicle_type_id":"4","last_reported":1733369323,"current_range_meters":33600,"station_id":"ce4bhc92rcd13ifvqetg","pricing_plan_id":"cebpf4jnsgd1na2vs0mg"},{"bike_id":"39fb8aca-6d92-4bb3-a3d5-ec93bb1cad52","system_id":"levelo_inurba_marseille","lat":43.24676,"lon":5.38165,"is_reserved":false,"is_disabled":false,"rental_uris":{"android":"levelo://app?vid=39fb8aca-6d92-4bb3-a3d5-ec93bb1cad52","ios":"levelo://app?vid=39fb8aca-6d92-4bb3-a3d5-ec93bb1cad52"},"vehicle_type_id":"4","last_reported":1733369323,"current_range_meters":38400,"station_id":"ce4bhih2rcd13ifvqfr0","pricing_plan_id":"cebpf4jnsgd1na2vs0mg"},{"bike_id":"010f1ddc-a5dd-4595-9905-ebf82317a65f","system_id":"levelo_inurba_marseille","lat":43.33022,"lon":5.39049,"is_reserved":false,"is_disabled":false,"rental_uris":{"android":"levelo://app?vid=010f1ddc-a5dd-4595-9905-ebf82317a65f","ios":"levelo://app?vid=010f1ddc-a5dd-4595-9905-ebf82317a65f"},"vehicle_type_id":"4","last_reported":1733369323,"current_range_meters":39200,"station_id":"ce4bhr92rcd13ifvqhrg","pricing_plan_id":"cebpf4jnsgd1na2vs0mg"},{"bike_id":"02aec379-ba4b-413a-88b8-9855ec612467","system_id":"levelo_inurba_marseille","lat":43.29913,"lon":5.37479,"is_reserved":false,"is_disabled":false,"rental_uris":{"android":"levelo://app?vid=02aec379-ba4b-413a-88b8-9855ec612467","ios":"levelo://app?vid=02aec379-ba4b-413a-88b8-9855ec612467"},"vehicle_type_id":"4","last_reported":1733369323,"current_range_meters":37600,"station_id":"ce4bgjh2rcd13ifvqbg0","pricing_plan_id":"cebpf4jnsgd1na2vs0mg"},{"bike_id":"13a7f40b-b270-485b-af20-999740871f73","system_id":"levelo_inurba_marseille","lat":43.30929,"lon":5.40144,"is_reserved":false,"is_disabled":false,"rental_uris":{"android":"levelo://app?vid=13a7f40b-b270-485b-af20-999740871f73","ios":"levelo://app?vid=13a7f40b-b270-485b-af20-999740871f73"},"vehicle_type_id":"4","last_reported":1733369323,"current_range_meters":34000,"station_id":"ce4bgvp2rcd13ifvqct0","pricing_plan_id":"cebpf4jnsgd1na2vs0mg"},{"bike_id":"cfd39d08-d2f6-4226-83a0-16cbe3a28b33","system_id":"levelo_inurba_marseille","lat":43.31171,"lon":5.38716,"is_reserved":false,"is_disabled":false,"rental_uris":{"android":"levelo://app?vid=cfd39d08-d2f6-4226-83a0-16cbe3a28b33","ios":"levelo://app?vid=cfd39d08-d2f6-4226-83a0-16cbe3a28b33"},"vehicle_type_id":"4","last_reported":1733369323,"current_range_meters":34000,"station_id":"ce4bgv12rcd13ifvqcp0","pricing_plan_id":"cebpf4jnsgd1na2vs0mg"},{"bike_id":"d5d85f9f-a0ad-420c-b735-16273f277a96","system_id":"levelo_inurba_marseille","lat":43.22931,"lon":5.35377,"is_reserved":false,"is_disabled":false,"rental_uris":{"android":"levelo://app?vid=d5d85f9f-a0ad-420c-b735-16273f277a96","ios":"levelo://app?vid=d5d85f9f-a0ad-420c-b735-16273f277a96"},"vehicle_type_id":"4","last_reported":1733369323,"current_range_meters":27200,"station_id":"cpo3532slgdg3j2ikp40","pricing_plan_id":"cebpf4jnsgd1na2vs0mg"},{"bike_id":"41776b6e-9d3f-445f-b068-5523c904169f","system_id":"levelo_inurba_marseille","lat":43.26944,"lon":5.40245,"is_reserved":false,"is_disabled":false,"rental_uris":{"android":"levelo://app?vid=41776b6e-9d3f-445f-b068-5523c904169f","ios":"levelo://app?vid=41776b6e-9d3f-445f-b068-5523c904169f"},"vehicle_type_id":"4","last_reported":1733369323,"current_range_meters":38400,"station_id":"cjm6bp8fraef2m0cb0m0","pricing_plan_id":"cebpf4jnsgd1na2vs0mg"},{"bike_id":"79c8ea6d-5102-4a1e-b941-afdabc095945","system_id":"levelo_inurba_marseille","lat":43.29086,"lon":5.38359,"is_reserved":false,"is_disabled":true,"rental_uris":{"android":"levelo://app?vid=79c8ea6d-5102-4a1e-b941-afdabc095945","ios":"levelo://app?vid=79c8ea6d-5102-4a1e-b941-afdabc095945"},"vehicle_type_id":"4","last_reported":1733369323,"current_range_meters":16400,"station_id":"","pricing_plan_id":"cebpf4jnsgd1na2vs0mg"},{"bike_id":"84a2915d-c6ef-4af0-8c6d-2fcd615fa6c7","system_id":"levelo_inurba_marseille","lat":43.33341,"lon":5.42018,"is_reserved":false,"is_disabled":true,"rental_uris":{"android":"levelo://app?vid=84a2915d-c6ef-4af0-8c6d-2fcd615fa6c7","ios":"levelo://app?vid=84a2915d-c6ef-4af0-8c6d-2fcd615fa6c7"},"vehicle_type_id":"4","last_reported":1733369323,"current_range_meters":0,"station_id":"","pricing_plan_id":"cebpf4jnsgd1na2vs0mg"},{"bike_id":"e5f69d8c-fd1c-40c2-a503-d983b5feae4a","system_id":"levelo_inurba_marseille","lat":43.30317,"lon":5.40445,"is_reserved":false,"is_disabled":false,"rental_uris":{"android":"levelo://app?vid=e5f69d8c-fd1c-40c2-a503-d983b5feae4a","ios":"levelo://app?vid=e5f69d8c-fd1c-40c2-a503-d983b5feae4a"},"vehicle_type_id":"4","last_reported":1733369323,"current_range_meters":20400,"station_id":"ce4bh012rcd13ifvqd10","pricing_plan_id":"cebpf4jnsgd1na2vs0mg"},{"bike_id":"db6c3c15-f860-4ed9-a653-670dca70a50a","system_id":"levelo_inurba_marseille","lat":43.31512,"lon":5.37275,"is_reserved":false,"is_disabled":false,"rental_uris":{"android":"levelo://app?vid=db6c3c15-f860-4ed9-a653-670dca70a50a","ios":"levelo://app?vid=db6c3c15-f860-4ed9-a653-670dca70a50a"},"vehicle_type_id":"4","last_reported":1733369323,"current_range_meters":25200,"station_id":"ce4bgt12rcd13ifvqcd0","pricing_plan_id":"cebpf4jnsgd1na2vs0mg"},{"bike_id":"f9af7297-60c8-43d7-a968-0426c218f11f","system_id":"levelo_inurba_marseille","lat":43.25483,"lon":5.37701,"is_reserved":false,"is_disabled":true,"rental_uris":{"android":"levelo://app?vid=f9af7297-60c8-43d7-a968-0426c218f11f","ios":"levelo://app?vid=f9af7297-60c8-43d7-a968-0426c218f11f"},"vehicle_type_id":"4","last_reported":1733369323,"current_range_meters":12400,"station_id":"ce4bhh12rcd13ifvqff0","pricing_plan_id":"cebpf4jnsgd1na2vs0mg"},{"bike_id":"c1bd2f3c-72a5-4288-9456-79b212a65b19","system_id":"levelo_inurba_marseille","lat":43.25931,"lon":5.40899,"is_reserved":false,"is_disabled":false,"rental_uris":{"android":"levelo://app?vid=c1bd2f3c-72a5-4288-9456-79b212a65b19","ios":"levelo://app?vid=c1bd2f3c-72a5-4288-9456-79b212a65b19"},"vehicle_type_id":"4","last_reported":1733369323,"current_range_meters":38800,"station_id":"ce4bhm92rcd13ifvqglg","pricing_plan_id":"cebpf4jnsgd1na2vs0mg"},{"bike_id":"88b95d6c-e256-42ff-a989-9a319113e7cb","system_id":"levelo_inurba_marseille","lat":43.28078,"lon":5.39654,"is_reserved":false,"is_disabled":false,"rental_uris":{"android":"levelo://app?vid=88b95d6c-e256-42ff-a989-9a319113e7cb","ios":"levelo://app?vid=88b95d6c-e256-42ff-a989-9a319113e7cb"},"vehicle_type_id":"4","last_reported":1733369323,"current_range_meters":38000,"station_id":"ce4bho12rcd13ifvqh2g","pricing_plan_id":"cebpf4jnsgd1na2vs0mg"},{"bike_id":"e3a0c7b3-9cbe-4191-84c4-9cd8f64fe8c8","system_id":"levelo_inurba_marseille","lat":43.28418,"lon":5.34987,"is_reserved":false,"is_disabled":false,"rental_uris":{"android":"levelo://app?vid=e3a0c7b3-9cbe-4191-84c4-9cd8f64fe8c8","ios":"levelo://app?vid=e3a0c7b3-9cbe-4191-84c4-9cd8f64fe8c8"},"vehicle_type_id":"4","last_reported":1733369323,"current_range_meters":38800,"station_id":"ce4bhbh2rcd13ifvqepg","pricing_plan_id":"cebpf4jnsgd1na2vs0mg"},{"bike_id":"78f27d57-2bc9-4ace-bee5-4bfa35944afd","system_id":"levelo_inurba_marseille","lat":43.28437,"lon":5.39196,"is_reserved":false,"is_disabled":false,"rental_uris":{"android":"levelo://app?vid=78f27d57-2bc9-4ace-bee5-4bfa35944afd","ios":"levelo://app?vid=78f27d57-2bc9-4ace-bee5-4bfa35944afd"},"vehicle_type_id":"4","last_reported":1733369323,"current_range_meters":39200,"station_id":"ce4bhoh2rcd13ifvqh5g","pricing_plan_id":"cebpf4jnsgd1na2vs0mg"},{"bike_id":"704edf0a-9774-4ca2-8fd4-44a2b86045e9","system_id":"levelo_inurba_marseille","lat":43.27377,"lon":5.36262,"is_reserved":false,"is_disabled":false,"rental_uris":{"android":"levelo://app?vid=704edf0a-9774-4ca2-8fd4-44a2b86045e9","ios":"levelo://app?vid=704edf0a-9774-4ca2-8fd4-44a2b86045e9"},"vehicle_type_id":"4","last_reported":1733369323,"current_range_meters":22400,"station_id":"ce4bhbh2rcd13ifvqeo0","pricing_plan_id":"cebpf4jnsgd1na2vs0mg"},{"bike_id":"6cbba370-4cb2-4753-957d-8c3113d16189","system_id":"levelo_inurba_marseille","lat":43.32481,"lon":5.36564,"is_reserved":false,"is_disabled":false,"rental_uris":{"android":"levelo://app?vid=6cbba370-4cb2-4753-957d-8c3113d16189","ios":"levelo://app?vid=6cbba370-4cb2-4753-957d-8c3113d16189"},"vehicle_type_id":"4","last_reported":1733369323,"current_range_meters":38800,"station_id":"ce4bhs12rcd13ifvqhvg","pricing_plan_id":"cebpf4jnsgd1na2vs0mg"},{"bike_id":"a0d5a94e-aa69-479b-aabb-c319c34ff52e","system_id":"levelo_inurba_marseille","lat":43.31362,"lon":5.38493,"is_reserved":false,"is_disabled":false,"rental_uris":{"android":"levelo://app?vid=a0d5a94e-aa69-479b-aabb-c319c34ff52e","ios":"levelo://app?vid=a0d5a94e-aa69-479b-aabb-c319c34ff52e"},"vehicle_type_id":"4","last_reported":1733369323,"current_range_meters":22400,"station_id":"ce4bgt92rcd13ifvqcf0","pricing_plan_id":"cebpf4jnsgd1na2vs0mg"},{"bike_id":"a4b9e425-64b8-4ce2-a5ab-5fcc5d1230a4","system_id":"levelo_inurba_marseille","lat":43.32109,"lon":5.3678,"is_reserved":false,"is_disabled":false,"rental_uris":{"android":"levelo://app?vid=a4b9e425-64b8-4ce2-a5ab-5fcc5d1230a4","ios":"levelo://app?vid=a4b9e425-64b8-4ce2-a5ab-5fcc5d1230a4"},"vehicle_type_id":"4","last_reported":1733369323,"current_range_meters":36800,"station_id":"ce4bhrh2rcd13ifvqhug","pricing_plan_id":"cebpf4jnsgd1na2vs0mg"},{"bike_id":"c2c60ae5-8a06-46dd-8518-74b6fd30f85e","system_id":"levelo_inurba_marseille","lat":43.26575,"lon":5.39019,"is_reserved":false,"is_disabled":false,"rental_uris":{"android":"levelo://app?vid=c2c60ae5-8a06-46dd-8518-74b6fd30f85e","ios":"levelo://app?vid=c2c60ae5-8a06-46dd-8518-74b6fd30f85e"},"vehicle_type_id":"4","last_reported":1733369323,"current_range_meters":30000,"station_id":"ce4bhe12rcd13ifvqf30","pricing_plan_id":"cebpf4jnsgd1na2vs0mg"},{"bike_id":"b4460782-1b14-4d20-bfb1-42d0a60d64f7","system_id":"levelo_inurba_marseille","lat":43.28461,"lon":5.3589,"is_reserved":false,"is_disabled":false,"rental_uris":{"android":"levelo://app?vid=b4460782-1b14-4d20-bfb1-42d0a60d64f7","ios":"levelo://app?vid=b4460782-1b14-4d20-bfb1-42d0a60d64f7"},"vehicle_type_id":"4","last_reported":1733369323,"current_range_meters":38800,"station_id":"ce4bhah2rcd13ifvqei0","pricing_plan_id":"cebpf4jnsgd1na2vs0mg"},{"bike_id":"e9825e22-a219-4419-9c42-05f082b516ed","system_id":"levelo_inurba_marseille","lat":43.29794,"lon":5.39351,"is_reserved":false,"is_disabled":true,"rental_uris":{"android":"levelo://app?vid=e9825e22-a219-4419-9c42-05f082b516ed","ios":"levelo://app?vid=e9825e22-a219-4419-9c42-05f082b516ed"},"vehicle_type_id":"4","last_reported":1733369323,"current_range_meters":0,"station_id":"chh1huq6cuj3fo74tm60","pricing_plan_id":"cebpf4jnsgd1na2vs0mg"},{"bike_id":"4d1af05b-ec97-4a6e-909f-18d1b0d39a77","system_id":"levelo_inurba_marseille","lat":43.28676,"lon":5.38655,"is_reserved":false,"is_disabled":false,"rental_uris":{"android":"levelo://app?vid=4d1af05b-ec97-4a6e-909f-18d1b0d39a77","ios":"levelo://app?vid=4d1af05b-ec97-4a6e-909f-18d1b0d39a77"},"vehicle_type_id":"4","last_reported":1733369323,"current_range_meters":34800,"station_id":"ce4bh492rcd13ifvqdug","pricing_plan_id":"cebpf4jnsgd1na2vs0mg"},{"bike_id":"fc02bf7c-fa30-4850-9eb4-c1c04eeef081","system_id":"levelo_inurba_marseille","lat":43.33028,"lon":5.39052,"is_reserved":false,"is_disabled":false,"rental_uris":{"android":"levelo://app?vid=fc02bf7c-fa30-4850-9eb4-c1c04eeef081","ios":"levelo://app?vid=fc02bf7c-fa30-4850-9eb4-c1c04eeef081"},"vehicle_type_id":"4","last_reported":1733369323,"current_range_meters":26800,"station_id":"ce4bhr92rcd13ifvqhrg","pricing_plan_id":"cebpf4jnsgd1na2vs0mg"},{"bike_id":"c2d8a1c2-d166-4a36-b32f-beec95c93bd5","system_id":"levelo_inurba_marseille","lat":43.33756,"lon":5.37459,"is_reserved":false,"is_disabled":false,"rental_uris":{"android":"levelo://app?vid=c2d8a1c2-d166-4a36-b32f-beec95c93bd5","ios":"levelo://app?vid=c2d8a1c2-d166-4a36-b32f-beec95c93bd5"},"vehicle_type_id":"4","last_reported":1733369323,"current_range_meters":11200,"station_id":"","pricing_plan_id":"cebpf4jnsgd1na2vs0mg"},{"bike_id":"2db4be0d-e5b1-419d-9d05-fd435531bf32","system_id":"levelo_inurba_marseille","lat":43.28717,"lon":5.3796,"is_reserved":false,"is_disabled":false,"rental_uris":{"android":"levelo://app?vid=2db4be0d-e5b1-419d-9d05-fd435531bf32","ios":"levelo://app?vid=2db4be0d-e5b1-419d-9d05-fd435531bf32"},"vehicle_type_id":"4","last_reported":1733369323,"current_range_meters":34000,"station_id":"ce4bh9p2rcd13ifvqec0","pricing_plan_id":"cebpf4jnsgd1na2vs0mg"},{"bike_id":"6fa0e8b3-75cc-49ca-b10f-cd9cb83b8878","system_id":"levelo_inurba_marseille","lat":43.31064,"lon":5.38371,"is_reserved":false,"is_disabled":false,"rental_uris":{"android":"levelo://app?vid=6fa0e8b3-75cc-49ca-b10f-cd9cb83b8878","ios":"levelo://app?vid=6fa0e8b3-75cc-49ca-b10f-cd9cb83b8878"},"vehicle_type_id":"4","last_reported":1733369323,"current_range_meters":6800,"station_id":"ce4bgv92rcd13ifvqcr0","pricing_plan_id":"cebpf4jnsgd1na2vs0mg"},{"bike_id":"135a61d9-0198-4325-86b0-f76226ad33d8","system_id":"levelo_inurba_marseille","lat":43.24387,"lon":5.37054,"is_reserved":false,"is_disabled":false,"rental_uris":{"android":"levelo://app?vid=135a61d9-0198-4325-86b0-f76226ad33d8","ios":"levelo://app?vid=135a61d9-0198-4325-86b0-f76226ad33d8"},"vehicle_type_id":"4","last_reported":1733369323,"current_range_meters":37600,"station_id":"ce4bhhh2rcd13ifvqfk0","pricing_plan_id":"cebpf4jnsgd1na2vs0mg"},{"bike_id":"ac7c0fd0-227a-4d27-9f8c-a68fe4cc48be","system_id":"levelo_inurba_marseille","lat":43.31056,"lon":5.38372,"is_reserved":false,"is_disabled":false,"rental_uris":{"android":"levelo://app?vid=ac7c0fd0-227a-4d27-9f8c-a68fe4cc48be","ios":"levelo://app?vid=ac7c0fd0-227a-4d27-9f8c-a68fe4cc48be"},"vehicle_type_id":"4","last_reported":1733369323,"current_range_meters":30000,"station_id":"ce4bgv92rcd13ifvqcr0","pricing_plan_id":"cebpf4jnsgd1na2vs0mg"},{"bike_id":"5f4b7b33-9066-484c-9c20-b70c39338231","system_id":"levelo_inurba_marseille","lat":43.26804,"lon":5.40268,"is_reserved":false,"is_disabled":false,"rental_uris":{"android":"levelo://app?vid=5f4b7b33-9066-484c-9c20-b70c39338231","ios":"levelo://app?vid=5f4b7b33-9066-484c-9c20-b70c39338231"},"vehicle_type_id":"4","last_reported":1733369323,"current_range_meters":6400,"station_id":"ce501612rcd8frsf0b60","pricing_plan_id":"cebpf4jnsgd1na2vs0mg"},{"bike_id":"6cb0d7b1-f509-4b8f-a2d8-e08152953ff5","system_id":"levelo_inurba_marseille","lat":43.24808,"lon":5.37458,"is_reserved":false,"is_disabled":false,"rental_uris":{"android":"levelo://app?vid=6cb0d7b1-f509-4b8f-a2d8-e08152953ff5","ios":"levelo://app?vid=6cb0d7b1-f509-4b8f-a2d8-e08152953ff5"},"vehicle_type_id":"4","last_reported":1733369323,"current_range_meters":38800,"station_id":"ce4bhgh2rcd13ifvqfb0","pricing_plan_id":"cebpf4jnsgd1na2vs0mg"},{"bike_id":"5605d362-7a6b-439d-b82f-b1eebcb406f8","system_id":"levelo_inurba_marseille","lat":43.26687,"lon":5.38266,"is_reserved":false,"is_disabled":false,"rental_uris":{"android":"levelo://app?vid=5605d362-7a6b-439d-b82f-b1eebcb406f8","ios":"levelo://app?vid=5605d362-7a6b-439d-b82f-b1eebcb406f8"},"vehicle_type_id":"4","last_reported":1733369323,"current_range_meters":38800,"station_id":"ce4bhg92rcd13ifvqf90","pricing_plan_id":"cebpf4jnsgd1na2vs0mg"},{"bike_id":"eb670d23-f40a-48c6-89e8-aaf1982cb889","system_id":"levelo_inurba_marseille","lat":43.26802,"lon":5.40268,"is_reserved":false,"is_disabled":false,"rental_uris":{"android":"levelo://app?vid=eb670d23-f40a-48c6-89e8-aaf1982cb889","ios":"levelo://app?vid=eb670d23-f40a-48c6-89e8-aaf1982cb889"},"vehicle_type_id":"4","last_reported":1733369323,"current_range_meters":38800,"station_id":"ce501612rcd8frsf0b60","pricing_plan_id":"cebpf4jnsgd1na2vs0mg"},{"bike_id":"231a2f04-6b02-4b32-9c96-7adb5a02d7e6","system_id":"levelo_inurba_marseille","lat":43.31174,"lon":5.3871,"is_reserved":false,"is_disabled":false,"rental_uris":{"android":"levelo://app?vid=231a2f04-6b02-4b32-9c96-7adb5a02d7e6","ios":"levelo://app?vid=231a2f04-6b02-4b32-9c96-7adb5a02d7e6"},"vehicle_type_id":"4","last_reported":1733369323,"current_range_meters":27200,"station_id":"ce4bgv12rcd13ifvqcp0","pricing_plan_id":"cebpf4jnsgd1na2vs0mg"},{"bike_id":"cd0eaa41-1235-44ff-ad90-46e68c1bc335","system_id":"levelo_inurba_marseille","lat":43.33008,"lon":5.39096,"is_reserved":false,"is_disabled":false,"rental_uris":{"android":"levelo://app?vid=cd0eaa41-1235-44ff-ad90-46e68c1bc335","ios":"levelo://app?vid=cd0eaa41-1235-44ff-ad90-46e68c1bc335"},"vehicle_type_id":"4","last_reported":1733369323,"current_range_meters":16800,"station_id":"","pricing_plan_id":"cebpf4jnsgd1na2vs0mg"},{"bike_id":"062c48bc-ce6b-4e53-bc0e-240815d75010","system_id":"levelo_inurba_marseille","lat":43.2846,"lon":5.35893,"is_reserved":false,"is_disabled":false,"rental_uris":{"android":"levelo://app?vid=062c48bc-ce6b-4e53-bc0e-240815d75010","ios":"levelo://app?vid=062c48bc-ce6b-4e53-bc0e-240815d75010"},"vehicle_type_id":"4","last_reported":1733369323,"current_range_meters":29600,"station_id":"ce4bhah2rcd13ifvqei0","pricing_plan_id":"cebpf4jnsgd1na2vs0mg"},{"bike_id":"2a08b841-4bc8-40d2-b375-8f79b071085c","system_id":"levelo_inurba_marseille","lat":43.3149,"lon":5.37289,"is_reserved":false,"is_disabled":false,"rental_uris":{"android":"levelo://app?vid=2a08b841-4bc8-40d2-b375-8f79b071085c","ios":"levelo://app?vid=2a08b841-4bc8-40d2-b375-8f79b071085c"},"vehicle_type_id":"4","last_reported":1733369323,"current_range_meters":38800,"station_id":"ce4bgt12rcd13ifvqcd0","pricing_plan_id":"cebpf4jnsgd1na2vs0mg"},{"bike_id":"261220fd-5dcf-4647-a7b7-e8a521af2bec","system_id":"levelo_inurba_marseille","lat":43.27901,"lon":5.38009,"is_reserved":false,"is_disabled":false,"rental_uris":{"android":"levelo://app?vid=261220fd-5dcf-4647-a7b7-e8a521af2bec","ios":"levelo://app?vid=261220fd-5dcf-4647-a7b7-e8a521af2bec"},"vehicle_type_id":"4","last_reported":1733369323,"current_range_meters":38800,"station_id":"ce4bhf92rcd13ifvqf50","pricing_plan_id":"cebpf4jnsgd1na2vs0mg"},{"bike_id":"f423e0a3-fc0c-4e8c-a742-55c7b9f5f0ba","system_id":"levelo_inurba_marseille","lat":43.32364,"lon":5.38884,"is_reserved":false,"is_disabled":false,"rental_uris":{"android":"levelo://app?vid=f423e0a3-fc0c-4e8c-a742-55c7b9f5f0ba","ios":"levelo://app?vid=f423e0a3-fc0c-4e8c-a742-55c7b9f5f0ba"},"vehicle_type_id":"4","last_reported":1733369323,"current_range_meters":37600,"station_id":"ce4bhqp2rcd13ifvqhog","pricing_plan_id":"cebpf4jnsgd1na2vs0mg"},{"bike_id":"637a2191-0b99-4ddd-8d5c-313c825e67ee","system_id":"levelo_inurba_marseille","lat":43.33021,"lon":5.39039,"is_reserved":false,"is_disabled":false,"rental_uris":{"android":"levelo://app?vid=637a2191-0b99-4ddd-8d5c-313c825e67ee","ios":"levelo://app?vid=637a2191-0b99-4ddd-8d5c-313c825e67ee"},"vehicle_type_id":"4","last_reported":1733369323,"current_range_meters":38800,"station_id":"ce4bhr92rcd13ifvqhrg","pricing_plan_id":"cebpf4jnsgd1na2vs0mg"},{"bike_id":"6540d285-f6ec-4e02-bb9c-fbaf602d8fe9","system_id":"levelo_inurba_marseille","lat":43.27913,"lon":5.3959,"is_reserved":false,"is_disabled":false,"rental_uris":{"android":"levelo://app?vid=6540d285-f6ec-4e02-bb9c-fbaf602d8fe9","ios":"levelo://app?vid=6540d285-f6ec-4e02-bb9c-fbaf602d8fe9"},"vehicle_type_id":"4","last_reported":1733369323,"current_range_meters":17200,"station_id":"ce4bhf92rcd13ifvqf40","pricing_plan_id":"cebpf4jnsgd1na2vs0mg"},