{"last_updated":1740899273,"ttl":60,"version":"2.2","data":{"bikes":[{"bike_id":"498c2ace-4821-4676-a9ac-9368b02a49b6","system_id":"levelo_inurba_marseille","lat":43.33799,"lon":5.37386,"is_reserved":false,"is_disabled":false,"rental_uris":{"android":"levelo://app?vid=498c2ace-4821-4676-a9ac-9368b02a49b6","ios":"levelo://app?vid=498c2ace-4821-4676-a9ac-9368b02a49b6"},"vehicle_type_id":"4","last_reported":1740899274,"current_range_meters":26800,"station_id":"","pricing_plan_id":"cebpf4jnsgd1na2vs0mg"},{"bike_id":"819fc6fd-4768-4c11-82f9-0b5fd0b62d4a","system_id":"levelo_inurba_marseille","lat":43.342461,"lon":5.377984,"is_reserved":false,"is_disabled":true,"rental_uris":{"android":"levelo://app?vid=819fc6fd-4768-4c11-82f9-0b5fd0b62d4a","ios":"levelo://app?vid=819fc6fd-4768-4c11-82f9-0b5fd0b62d4a"},"vehicle_type_id":"4","last_reported":1740899274,"current_range_meters":0,"station_id":"","pricing_plan_id":"cebpf4jnsgd1na2vs0mg"},{"bike_id":"d5458f89-73a3-43f1-9894-000389f52995","system_id":"levelo_inurba_marseille","lat":43.27612,"lon":5.41488,"is_reserved":false,"is_disabled":true,"rental_uris":{"android":"levelo://app?vid=d5458f89-73a3-43f1-9894-000389f52995","ios":"levelo://app?vid=d5458f89-73a3-43f1-9894-000389f52995"},"vehicle_type_id":"4","last_reported":1740899274,"current_range_meters":0,"station_id":"","pricing_plan_id":"cebpf4jnsgd1na2vs0mg"},{"bike_id":"ea6a02cb-3810-403c-ab47-423df20fff9f","system_id":"levelo_inurba_marseille","lat":43.27725,"lon":5.4153,"is_reserved":false,"is_disabled":true,"rental_uris":{"android":"levelo://app?vid=ea6a02cb-3810-403c-ab47-423df20fff9f","ios":"levelo://app?vid=ea6a02cb-3810-403c-ab47-423df20fff9f"},"vehicle_type_id":"4","last_reported":1740899274,"current_range_meters":0,"station_id":"","pricing_plan_id":"cebpf4jnsgd1na2vs0mg"},{"bike_id":"afcec8eb-28d8-4889-8879-0897cb5957e3","system_id":"levelo_inurba_marseille","lat":43.27994,"lon":5.40568,"is_reserved":false,"is_disabled":true,"rental_uris":{"android":"levelo://app?vid=afcec8eb-28d8-4889-8879-0897cb5957e3","ios":"levelo://app?vid=afcec8eb-28d8-4889-8879-0897cb5957e3"},"vehicle_type_id":"4","last_reported":1740899274,"current_range_meters":0,"station_id":"","pricing_plan_id":"cebpf4jnsgd1na2vs0mg"},{"bike_id":"f7f343e5-f77e-4860-b384-ff3fd1e5a522","system_id":"levelo_inurba_marseille","lat":43.299,"lon":5.38145,"is_reserved":false,"is_disabled":true,"rental_uris":{"android":"levelo://app?vid=f7f343e5-f77e-4860-b384-ff3fd1e5a522","ios":"levelo://app?vid=f7f343e5-f77e-4860-b384-ff3fd1e5a522"},"vehicle_type_id":"4","last_reported":1740899274,"current_range_meters":0,"station_id":"ce4bgj12rcd13ifvqbc0","pricing_plan_id":"cebpf4jnsgd1na2vs0mg"},{"bike_id":"51d56388-b867-49cd-8113-bbdedf81da0d","system_id":"levelo_inurba_marseille","lat":43.28566,"lon":5.3949,"is_reserved":false,"is_disabled":true,"rental_uris":{"android":"levelo://app?vid=51d56388-b867-49cd-8113-bbdedf81da0d","ios":"levelo://app?vid=51d56388-b867-49cd-8113-bbdedf81da0d"},"vehicle_type_id":"4","last_reported":1740899274,"current_range_meters":0,"station_id":"ce4bh292rcd13ifvqdg0","pricing_plan_id":"cebpf4jnsgd1na2vs0mg"},{"bike_id":"e230f143-782a-4f9a-a34f-d3286418c5b5","system_id":"levelo_inurba_marseille","lat":43.27398,"lon":5.39408,"is_reserved":false,"is_disabled":true,"rental_uris":{"android":"levelo://app?vid=e230f143-782a-4f9a-a34f-d3286418c5b5","ios":"levelo://app?vid=e230f143-782a-4f9a-a34f-d3286418c5b5"},"vehicle_type_id":"4","last_reported":1740899274,"current_range_meters":0,"station_id":"ce4bhdp2rcd13ifvqf20","pricing_plan_id":"cebpf4jnsgd1na2vs0mg"},{"bike_id":"5436cbb2-8984-4ba2-b474-b72f609ae74e","system_id":"levelo_inurba_marseille","lat":43.24557,"lon":5.39514,"is_reserved":false,"is_disabled":true,"rental_uris":{"android":"levelo://app?vid=5436cbb2-8984-4ba2-b474-b72f609ae74e","ios":"levelo://app?vid=5436cbb2-8984-4ba2-b474-b72f609ae74e"},"vehicle_type_id":"4","last_reported":1740899274,"current_range_meters":400,"station_id":"ce4bhlp2rcd13ifvqgjg","pricing_plan_id":"cebpf4jnsgd1na2vs0mg"},{"bike_id":"303c2b96-5131-48b9-8dd0-e5a82865f4bc","system_id":"levelo_inurba_marseille","lat":43.35334,"lon":5.36564,"is_reserved":false,"is_disabled":true,"rental_uris":{"android":"levelo://app?vid=303c2b96-5131-48b9-8dd0-e5a82865f4bc","ios":"levelo://app?vid=303c2b96-5131-48b9-8dd0-e5a82865f4bc"},"vehicle_type_id":"4","last_reported":1740899274,"current_range_meters":1200,"station_id":"","pricing_plan_id":"cebpf4jnsgd1na2vs0mg"},{"bike_id":"4158652d-2d32-4317-8051-32076bbfd62f","system_id":"levelo_inurba_marseille","lat":43.28485,"lon":5.38418,"is_reserved":false,"is_disabled":true,"rental_uris":{"android":"levelo://app?vid=4158652d-2d32-4317-8051-32076bbfd62f","ios":"levelo://app?vid=4158652d-2d32-4317-8051-32076bbfd62f"},"vehicle_type_id":"4","last_reported":1740899274,"current_range_meters":1200,"station_id":"ce4bh512rcd13ifvqe3g","pricing_plan_id":"cebpf4jnsgd1na2vs0mg"},{"bike_id":"70d8c7b3-610a-419e-b50d-afe9250d43ba","system_id":"levelo_inurba_marseille","lat":43.29559,"lon":5.42278,"is_reserved":false,"is_disabled":true,"rental_uris":{"android":"levelo://app?vid=70d8c7b3-610a-419e-b50d-afe9250d43ba","ios":"levelo://app?vid=70d8c7b3-610a-419e-b50d-afe9250d43ba"},"vehicle_type_id":"4","last_reported":1740899274,"current_range_meters":1200,"station_id":"ce4bhph2rcd13ifvqhdg","pricing_plan_id":"cebpf4jnsgd1na2vs0mg"},{"bike_id":"b1e39aeb-3ed2-4034-959a-f2122aaef359","system_id":"levelo_inurba_marseille","lat":43.23185,"lon":5.39977,"is_reserved":false,"is_disabled":false,"rental_uris":{"android":"levelo://app?vid=b1e39aeb-3ed2-4034-959a-f2122aaef359","ios":"levelo://app?vid=b1e39aeb-3ed2-4034-959a-f2122aaef359"},"vehicle_type_id":"4","last_reported":1740899274,"current_range_meters":2800,"station_id":"ce4bhn12rcd13ifvqgqg","pricing_plan_id":"cebpf4jnsgd1na2vs0mg"},{"bike_id":"bf539502-6044-4aa2-acf9-ffbcdaefd787","system_id":"levelo_inurba_marseille","lat":43.279625,"lon":5.387445,"is_reserved":false,"is_disabled":false,"rental_uris":{"android":"levelo://app?vid=bf539502-6044-4aa2-acf9-ffbcdaefd787","ios":"levelo://app?vid=bf539502-6044-4aa2-acf9-ffbcdaefd787"},"vehicle_type_id":"4","last_reported":1740899274,"current_range_meters":3200,"station_id":"ce4bhg12rcd13ifvqf80","pricing_plan_id":"cebpf4jnsgd1na2vs0mg"},{"bike_id":"a65cb524-c756-42a0-9639-a6505770c05b","system_id":"levelo_inurba_marseille","lat":43.35056,"lon":5.366104,"is_reserved":false,"is_disabled":false,"rental_uris":{"android":"levelo://app?vid=a65cb524-c756-42a0-9639-a6505770c05b","ios":"levelo://app?vid=a65cb524-c756-42a0-9639-a6505770c05b"},"vehicle_type_id":"4","last_reported":1740899274,"current_range_meters":3600,"station_id":"","pricing_plan_id":"cebpf4jnsgd1na2vs0mg"},{"bike_id":"f6184735-5b0f-4260-b18c-79d71768ac93","system_id":"levelo_inurba_marseille","lat":43.28683,"lon":5.38659,"is_reserved":false,"is_disabled":false,"rental_uris":{"android":"levelo://app?vid=f6184735-5b0f-4260-b18c-79d71768ac93","ios":"levelo://app?vid=f6184735-5b0f-4260-b18c-79d71768ac93"},"vehicle_type_id":"4","last_reported":1740899274,"current_range_meters":3600,"station_id":"ce4bh492rcd13ifvqdug","pricing_plan_id":"cebpf4jnsgd1na2vs0mg"},{"bike_id":"bb466852-6aa2-4b6b-b87c-39a91f50818d","system_id":"levelo_inurba_marseille","lat":43.30106,"lon":5.36475,"is_reserved":false,"is_disabled":false,"rental_uris":{"android":"levelo://app?vid=bb466852-6aa2-4b6b-b87c-39a91f50818d","ios":"levelo://app?vid=bb466852-6aa2-4b6b-b87c-39a91f50818d"},"vehicle_type_id":"4","last_reported":1740899274,"current_range_meters":4000,"station_id":"","pricing_plan_id":"cebpf4jnsgd1na2vs0mg"},{"bike_id":"c40fc13e-1c97-4952-9af0-30ae574d48da","system_id":"levelo_inurba_marseille","lat":43.3088,"lon":5.3965,"is_reserved":false,"is_disabled":false,"rental_uris":{"android":"levelo://app?vid=c40fc13e-1c97-4952-9af0-30ae574d48da","ios":"levelo://app?vid=c40fc13e-1c97-4952-9af0-30ae574d48da"},"vehicle_type_id":"4","last_reported":1740899274,"current_range_meters":4000,"station_id":"ce4bh012rcd13ifvqcv0","pricing_plan_id":"cebpf4jnsgd1na2vs0mg"},{"bike_id":"0d3dca6a-d590-4e72-a1ae-af700e6dffe8","system_id":"levelo_inurba_marseille","lat":43.30881,"lon":5.39654,"is_reserved":false,"is_disabled":false,"rental_uris":{"android":"levelo://app?vid=0d3dca6a-d590-4e72-a1ae-af700e6dffe8","ios":"levelo://app?vid=0d3dca6a-d590-4e72-a1ae-af700e6dffe8"},"vehicle_type_id":"4","last_reported":1740899274,"current_range_meters":4400,"station_id":"ce4bh012rcd13ifvqcv0","pricing_plan_id":"cebpf4jnsgd1na2vs0mg"},{"bike_id":"93bfbf50-fc08-41b5-84de-fc2e92ed89e8","system_id":"levelo_inurba_marseille","lat":43.30587,"lon":5.39353,"is_reserved":false,"is_disabled":false,"rental_uris":{"android":"levelo://app?vid=93bfbf50-fc08-41b5-84de-fc2e92ed89e8","ios":"levelo://app?vid=93bfbf50-fc08-41b5-84de-fc2e92ed89e8"},"vehicle_type_id":"4","last_reported":1740899274,"current_range_meters":4400,"station_id":"ce4bh0p2rcd13ifvqd80","pricing_plan_id":"cebpf4jnsgd1na2vs0mg"},{"bike_id":"89fb1ae9-3cfa-4523-b435-403d5912d4ea","system_id":"levelo_inurba_marseille","lat":43.27496,"lon":5.42459,"is_reserved":false,"is_disabled":false,"rental_uris":{"android":"levelo://app?vid=89fb1ae9-3cfa-4523-b435-403d5912d4ea","ios":"levelo://app?vid=89fb1ae9-3cfa-4523-b435-403d5912d4ea"},"vehicle_type_id":"4","last_reported":1740899274,"current_range_meters":4400,"station_id":"ce4bhn92rcd13ifvqgrg","pricing_plan_id":"cebpf4jnsgd1na2vs0mg"},{"bike_id":"970fabf8-267c-4623-8511-400e39614930","system_id":"levelo_inurba_marseille","lat":43.2678,"lon":5.39419,"is_reserved":false,"is_disabled":false,"rental_uris":{"android":"levelo://app?vid=970fabf8-267c-4623-8511-400e39614930","ios":"levelo://app?vid=970fabf8-267c-4623-8511-400e39614930"},"vehicle_type_id":"4","last_reported":1740899274,"current_range_meters":4800,"station_id":"ce4bhh12rcd13ifvqfg0","pricing_plan_id":"cebpf4jnsgd1na2vs0mg"},{"bike_id":"d947c992-5ce1-4d7d-a1b7-026667fb9813","system_id":"levelo_inurba_marseille","lat":43.25105,"lon":5.40339,"is_reserved":false,"is_disabled":false,"rental_uris":{"android":"levelo://app?vid=d947c992-5ce1-4d7d-a1b7-026667fb9813","ios":"levelo://app?vid=d947c992-5ce1-4d7d-a1b7-026667fb9813"},"vehicle_type_id":"4","last_reported":1740899274,"current_range_meters":5600,"station_id":"ce4bhlh2rcd13ifvqgig","pricing_plan_id":"cebpf4jnsgd1na2vs0mg"},{"bike_id":"d0d0993b-54aa-432c-932c-eaa437846780","system_id":"levelo_inurba_marseille","lat":43.30236,"lon":5.38632,"is_reserved":false,"is_disabled":false,"rental_uris":{"android":"levelo://app?vid=d0d0993b-54aa-432c-932c-eaa437846780","ios":"levelo://app?vid=d0d0993b-54aa-432c-932c-eaa437846780"},"vehicle_type_id":"4","last_reported":1740899274,"current_range_meters":6000,"station_id":"","pricing_plan_id":"cebpf4jnsgd1na2vs0mg"},{"bike_id":"14144dff-7421-4064-b353-0584b513eb4b","system_id":"levelo_inurba_marseille","lat":43.28916,"lon":5.38407,"is_reserved":false,"is_disabled":false,"rental_uris":{"android":"levelo://app?vid=14144dff-7421-4064-b353-0584b513eb4b","ios":"levelo://app?vid=14144dff-7421-4064-b353-0584b513eb4b"},"vehicle_type_id":"4","last_reported":1740899274,"current_range_meters":6000,"station_id":"ce4bh612rcd13ifvqe6g","pricing_plan_id":"cebpf4jnsgd1na2vs0mg"},{"bike_id":"67a0de88-ba36-4298-b13d-b95a224ba097","system_id":"levelo_inurba_marseille","lat":43.27072,"lon":5.42279,"is_reserved":false,"is_disabled":false,"rental_uris":{"android":"levelo://app?vid=67a0de88-ba36-4298-b13d-b95a224ba097","ios":"levelo://app?vid=67a0de88-ba36-4298-b13d-b95a224ba097"},"vehicle_type_id":"4","last_reported":1740899274,"current_range_meters":6000,"station_id":"ce4bhk92rcd13ifvqgb0","pricing_plan_id":"cebpf4jnsgd1na2vs0mg"},{"bike_id":"2bcf0ef7-cc4d-4f0c-8f2b-2f0e50cbea7e","system_id":"levelo_inurba_marseille","lat":43.27937,"lon":5.41055,"is_reserved":false,"is_disabled":false,"rental_uris":{"android":"levelo://app?vid=2bcf0ef7-cc4d-4f0c-8f2b-2f0e50cbea7e","ios":"levelo://app?vid=2bcf0ef7-cc4d-4f0c-8f2b-2f0e50cbea7e"},"vehicle_type_id":"4","last_reported":1740899274,"current_range_meters":6000,"station_id":"ce4bhnp2rcd13ifvqh0g","pricing_plan_id":"cebpf4jnsgd1na2vs0mg"},{"bike_id":"6cab3ccf-906e-49bc-8c04-4783fcea4279","system_id":"levelo_inurba_marseille","lat":43.2761,"lon":5.36118,"is_reserved":false,"is_disabled":false,"rental_uris":{"android":"levelo://app?vid=6cab3ccf-906e-49bc-8c04-4783fcea4279","ios":"levelo://app?vid=6cab3ccf-906e-49bc-8c04-4783fcea4279"},"vehicle_type_id":"4","last_reported":1740899274,"current_range_meters":6400,"station_id":"ce4bgj92rcd13ifvqbe0","pricing_plan_id":"cebpf4jnsgd1na2vs0mg"},{"bike_id":"04ff383e-28af-4ce4-9e93-467c66c0e8eb","system_id":"levelo_inurba_marseille","lat":43.3043,"lon":5.38886,"is_reserved":false,"is_disabled":false,"rental_uris":{"android":"levelo://app?vid=04ff383e-28af-4ce4-9e93-467c66c0e8eb","ios":"levelo://app?vid=04ff383e-28af-4ce4-9e93-467c66c0e8eb"},"vehicle_type_id":"4","last_reported":1740899274,"current_range_meters":6400,"station_id":"ce4bgk12rcd13ifvqbi0","pricing_plan_id":"cebpf4jnsgd1na2vs0mg"},{"bike_id":"30f3d885-beb9-4876-986f-766d0fcd74ba","system_id":"levelo_inurba_marseille","lat":43.28697,"lon":5.37383,"is_reserved":false,"is_disabled":false,"rental_uris":{"android":"levelo://app?vid=30f3d885-beb9-4876-986f-766d0fcd74ba","ios":"levelo://app?vid=30f3d885-beb9-4876-986f-766d0fcd74ba"},"vehicle_type_id":"4","last_reported":1740899274,"current_range_meters":6400,"station_id":"ce4bh3p2rcd13ifvqdq0","pricing_plan_id":"cebpf4jnsgd1na2vs0mg"},{"bike_id":"5d400628-6942-4692-924b-707edb439f1f","system_id":"levelo_inurba_marseille","lat":43.28689,"lon":5.374,"is_reserved":false,"is_disabled":false,"rental_uris":{"android":"levelo://app?vid=5d400628-6942-4692-924b-707edb439f1f","ios":"levelo://app?vid=5d400628-6942-4692-924b-707edb439f1f"},"vehicle_type_id":"4","last_reported":1740899274,"current_range_meters":6400,"station_id":"ce4bh3p2rcd13ifvqdq0","pricing_plan_id":"cebpf4jnsgd1na2vs0mg"},{"bike_id":"280b288b-3188-456f-bfed-46e32d89bb5e","system_id":"levelo_inurba_marseille","lat":43.29213,"lon":5.36049,"is_reserved":false,"is_disabled":false,"rental_uris":{"android":"levelo://app?vid=280b288b-3188-456f-bfed-46e32d89bb5e","ios":"levelo://app?vid=280b288b-3188-456f-bfed-46e32d89bb5e"},"vehicle_type_id":"4","last_reported":1740899274,"current_range_meters":6400,"station_id":"ce4bhbh2rcd13ifvqeqg","pricing_plan_id":"cebpf4jnsgd1na2vs0mg"},{"bike_id":"10a09f4b-928d-42e1-87c7-1996117e3d26","system_id":"levelo_inurba_marseille","lat":43.30945,"lon":5.39025,"is_reserved":false,"is_disabled":false,"rental_uris":{"android":"levelo://app?vid=10a09f4b-928d-42e1-87c7-1996117e3d26","ios":"levelo://app?vid=10a09f4b-928d-42e1-87c7-1996117e3d26"},"vehicle_type_id":"4","last_reported":1740899274,"current_range_meters":6800,"station_id":"ce4bgup2rcd13ifvqco0","pricing_plan_id":"cebpf4jnsgd1na2vs0mg"},{"bike_id":"b9f74bbf-61ba-4dad-839e-3b0704b491f4","system_id":"levelo_inurba_marseille","lat":43.26214,"lon":5.40467,"is_reserved":false,"is_disabled":false,"rental_uris":{"android":"levelo://app?vid=b9f74bbf-61ba-4dad-839e-3b0704b491f4","ios":"levelo://app?vid=b9f74bbf-61ba-4dad-839e-3b0704b491f4"},"vehicle_type_id":"4","last_reported":1740899274,"current_range_meters":6800,"station_id":"ce4bhmh2rcd13ifvqgmg","pricing_plan_id":"cebpf4jnsgd1na2vs0mg"},{"bike_id":"3e993898-cdfc-4bc6-9f78-9ed206eb2b40","system_id":"levelo_inurba_marseille","lat":43.27497,"lon":5.42461,"is_reserved":false,"is_disabled":false,"rental_uris":{"android":"levelo://app?vid=3e993898-cdfc-4bc6-9f78-9ed206eb2b40","ios":"levelo://app?vid=3e993898-cdfc-4bc6-9f78-9ed206eb2b40"},"vehicle_type_id":"4","last_reported":1740899274,"current_range_meters":6800,"station_id":"ce4bhn92rcd13ifvqgrg","pricing_plan_id":"cebpf4jnsgd1na2vs0mg"},{"bike_id":"364b209e-752e-45ea-b26c-06b2552c1833","system_id":"levelo_inurba_marseille","lat":43.231885,"lon":5.355652,"is_reserved":false,"is_disabled":false,"rental_uris":{"android":"levelo://app?vid=364b209e-752e-45ea-b26c-06b2552c1833","ios":"levelo://app?vid=364b209e-752e-45ea-b26c-06b2552c1833"},"vehicle_type_id":"4","last_reported":1740899274,"current_range_meters":6800,"station_id":"ce4bhu92rcd13ifvqi70","pricing_plan_id":"cebpf4jnsgd1na2vs0mg"},{"bike_id":"49cf196d-46c2-4b6a-b1ce-adef85481502","system_id":"levelo_inurba_marseille","lat":43.241643,"lon":5.36394,"is_reserved":false,"is_disabled":false,"rental_uris":{"android":"levelo://app?vid=49cf196d-46c2-4b6a-b1ce-adef85481502","ios":"levelo://app?vid=49cf196d-46c2-4b6a-b1ce-adef85481502"},"vehicle_type_id":"4","last_reported":1740899274,"current_range_meters":6800,"station_id":"cpo36qri1sfpv3e86is0","pricing_plan_id":"cebpf4jnsgd1na2vs0mg"},{"bike_id":"49e9cdc7-76a5-4b66-ae2d-61c73beb73a8","system_id":"levelo_inurba_marseille","lat":43.24168,"lon":5.36424,"is_reserved":false,"is_disabled":false,"rental_uris":{"android":"levelo://app?vid=49e9cdc7-76a5-4b66-ae2d-61c73beb73a8","ios":"levelo://app?vid=49e9cdc7-76a5-4b66-ae2d-61c73beb73a8"},"vehicle_type_id":"4","last_reported":1740899274,"current_range_meters":6800,"station_id":"cpo36qri1sfpv3e86is0","pricing_plan_id":"cebpf4jnsgd1na2vs0mg"},{"bike_id":"9b596371-d612-49f2-b81f-de4bef0d4e5a","system_id":"levelo_inurba_marseille","lat":43.24166,"lon":5.36405,"is_reserved":false,"is_disabled":false,"rental_uris":{"android":"levelo://app?vid=9b596371-d612-49f2-b81f-de4bef0d4e5a","ios":"levelo://app?vid=9b596371-d612-49f2-b81f-de4bef0d4e5a"},"vehicle_type_id":"4","last_reported":1740899274,"current_range_meters":6800,"station_id":"cpo36qri1sfpv3e86is0","pricing_plan_id":"cebpf4jnsgd1na2vs0mg"},{"bike_id":"5b73c424-717f-4e99-be2f-9bee1e715131","system_id":"levelo_inurba_marseille","lat":43.31692,"lon":5.40453,"is_reserved":false,"is_disabled":false,"rental_uris":{"android":"levelo://app?vid=5b73c424-717f-4e99-be2f-9bee1e715131","ios":"levelo://app?vid=5b73c424-717f-4e99-be2f-9bee1e715131"},"vehicle_type_id":"4","last_reported":1740899274,"current_range_meters":7200,"station_id":"ce4bh012rcd13ifvqd00","pricing_plan_id":"cebpf4jnsgd1na2vs0mg"},{"bike_id":"e6bb96b3-3160-495b-92cd-e149dc1f395e","system_id":"levelo_inurba_marseille","lat":43.2791,"lon":5.39578,"is_reserved":false,"is_disabled":false,"rental_uris":{"android":"levelo://app?vid=e6bb96b3-3160-495b-92cd-e149dc1f395e","ios":"levelo://app?vid=e6bb96b3-3160-495b-92cd-e149dc1f395e"},"vehicle_type_id":"4","last_reported":1740899274,"current_range_meters":7200,"station_id":"ce4bhf92rcd13ifvqf40","pricing_plan_id":"cebpf4jnsgd1na2vs0mg"},{"bike_id":"03a302fb-b187-4fdc-b649-695431f73b06","system_id":"levelo_inurba_marseille","lat":43.26499,"lon":5.39558,"is_reserved":false,"is_disabled":false,"rental_uris":{"android":"levelo://app?vid=03a302fb-b187-4fdc-b649-695431f73b06","ios":"levelo://app?vid=03a302fb-b187-4fdc-b649-695431f73b06"},"vehicle_type_id":"4","last_reported":1740899274,"current_range_meters":7200,"station_id":"ce4bhi12rcd13ifvqfq0","pricing_plan_id":"cebpf4jnsgd1na2vs0mg"},{"bike_id":"bddf37d4-a2ae-4c74-bcad-602e7e9ee614","system_id":"levelo_inurba_marseille","lat":43.24666,"lon":5.38149,"is_reserved":false,"is_disabled":false,"rental_uris":{"android":"levelo://app?vid=bddf37d4-a2ae-4c74-bcad-602e7e9ee614","ios":"levelo://app?vid=bddf37d4-a2ae-4c74-bcad-602e7e9ee614"},"vehicle_type_id":"4","last_reported":1740899274,"current_range_meters":7200,"station_id":"ce4bhih2rcd13ifvqfr0","pricing_plan_id":"cebpf4jnsgd1na2vs0mg"},{"bike_id":"593edb3c-7add-4a3d-9dbe-95cef549de0d","system_id":"levelo_inurba_marseille","lat":43.230639,"lon":5.354904,"is_reserved":false,"is_disabled":false,"rental_uris":{"android":"levelo://app?vid=593edb3c-7add-4a3d-9dbe-95cef549de0d","ios":"levelo://app?vid=593edb3c-7add-4a3d-9dbe-95cef549de0d"},"vehicle_type_id":"4","last_reported":1740899274,"current_range_meters":7200,"station_id":"cpo3342slgdg3j2ifvpg","pricing_plan_id":"cebpf4jnsgd1na2vs0mg"},{"bike_id":"2465d0f3-b53e-4158-b58b-297ce0ef79a6","system_id":"levelo_inurba_marseille","lat":43.2815,"lon":5.42638,"is_reserved":false,"is_disabled":false,"rental_uris":{"android":"levelo://app?vid=2465d0f3-b53e-4158-b58b-297ce0ef79a6","ios":"levelo://app?vid=2465d0f3-b53e-4158-b58b-297ce0ef79a6"},"vehicle_type_id":"4","last_reported":1740899274,"current_range_meters":8000,"station_id":"","pricing_plan_id":"cebpf4jnsgd1na2vs0mg"},{"bike_id":"ce5b717b-8065-41cb-ac73-ea554cd5c020","system_id":"levelo_inurba_marseille","lat":43.265588,"lon":5.390135,"is_reserved":false,"is_disabled":false,"rental_uris":{"android":"levelo://app?vid=ce5b717b-8065-41cb-ac73-ea554cd5c020","ios":"levelo://app?vid=ce5b717b-8065-41cb-ac73-ea554cd5c020"},"vehicle_type_id":"4","last_reported":1740899274,"current_range_meters":8000,"station_id":"ce4bhe12rcd13ifvqf30","pricing_plan_id":"cebpf4jnsgd1na2vs0mg"},{"bike_id":"24b426ec-114a-4cca-b485-1331408dda43","system_id":"levelo_inurba_marseille","lat":43.24069,"lon":5.37766,"is_reserved":false,"is_disabled":false,"rental_uris":{"android":"levelo://app?vid=24b426ec-114a-4cca-b485-1331408dda43","ios":"levelo://app?vid=24b426ec-114a-4cca-b485-1331408dda43"},"vehicle_type_id":"4","last_reported":1740899274,"current_range_meters":8000,"station_id":"ce4bhnp2rcd13ifvqgvg","pricing_plan_id":"cebpf4jnsgd1na2vs0mg"},{"bike_id":"53ebed9a-fd1a-4d94-96e3-0c8bc5887ace","system_id":"levelo_inurba_marseille","lat":43.31428,"lon":5.39397,"is_reserved":false,"is_disabled":false,"rental_uris":{"android":"levelo://app?vid=53ebed9a-fd1a-4d94-96e3-0c8bc5887ace","ios":"levelo://app?vid=53ebed9a-fd1a-4d94-96e3-0c8bc5887ace"},"vehicle_type_id":"4","last_reported":1740899274,"current_range_meters":8400,"station_id":"","pricing_plan_id":"cebpf4jnsgd1na2vs0mg"},{"bike_id":"28507a75-2eef-4eed-8ffb-e0a33e674a22","system_id":"levelo_inurba_marseille","lat":43.3031,"lon":5.40448,"is_reserved":false,"is_disabled":false,"rental_uris":{"android":"levelo://app?vid=28507a75-2eef-4eed-8ffb-e0a33e674a22","ios":"levelo://app?vid=28507a75-2eef-4eed-8ffb-e0a33e674a22"},"vehicle_type_id":"4","last_reported":1740899274,"current_range_meters":8400,"station_id":"ce4bh012rcd13ifvqd10","pricing_plan_id":"cebpf4jnsgd1na2vs0mg"},{"bike_id":"b811c60a-6933-40a7-84ba-ba9cab9803d2","system_id":"levelo_inurba_marseille","lat":43.24988,"lon":5.38939,"is_reserved":false,"is_disabled":false,"rental_uris":{"android":"levelo://app?vid=b811c60a-6933-40a7-84ba-ba9cab9803d2","ios":"levelo://app?vid=b811c60a-6933-40a7-84ba-ba9cab9803d2"},"vehicle_type_id":"4","last_reported":1740899274,"current_range_meters":8400,"station_id":"ce4bhgp2rcd13ifvqfd0","pricing_plan_id":"cebpf4jnsgd1na2vs0mg"},{"bike_id":"fd4ceb47-7745-40bf-b9f8-cbc3ab65ca1f","system_id":"levelo_inurba_marseille","lat":43.23181,"lon":5.40008,"is_reserved":false,"is_disabled":false,"rental_uris":{"android":"levelo://app?vid=fd4ceb47-7745-40bf-b9f8-cbc3ab65ca1f","ios":"levelo://app?vid=fd4ceb47-7745-40bf-b9f8-cbc3ab65ca1f"},"vehicle_type_id":"4","last_reported":1740899274,"current_range_meters":8400,"station_id":"ce4bhn12rcd13ifvqgqg","pricing_plan_id":"cebpf4jnsgd1na2vs0mg"},{"bike_id":"cbd3b7da-1333-4458-b6f2-7065ce830ca2","system_id":"levelo_inurba_marseille","lat":43.280673,"lon":5.396411,"is_reserved":false,"is_disabled":false,"rental_uris":{"android":"levelo://app?vid=cbd3b7da-1333-4458-b6f2-7065ce830ca2","ios":"levelo://app?vid=cbd3b7da-1333-4458-b6f2-7065ce830ca2"},"vehicle_type_id":"4","last_reported":1740899274,"current_range_meters":8400,"station_id":"ce4bho12rcd13ifvqh2g","pricing_plan_id":"cebpf4jnsgd1na2vs0mg"},{"bike_id":"63bd5179-e096-4fc2-9ddf-a04ead103bc0","system_id":"levelo_inurba_marseille","lat":43.28272,"lon":5.39095,"is_reserved":false,"is_disabled":false,"rental_uris":{"android":"levelo://app?vid=63bd5179-e096-4fc2-9ddf-a04ead103bc0","ios":"levelo://app?vid=63bd5179-e096-4fc2-9ddf-a04ead103bc0"},"vehicle_type_id":"4","last_reported":1740899274,"current_range_meters":8800,"station_id":"","pricing_plan_id":"cebpf4jnsgd1na2vs0mg"},{"bike_id":"72d5c2f2-1535-4b22-8c95-be92ef5d7d32","system_id":"levelo_inurba_marseille","lat":43.29513,"lon":5.37509,"is_reserved":false,"is_disabled":false,"rental_uris":{"android":"levelo://app?vid=72d5c2f2-1535-4b22-8c95-be92ef5d7d32","ios":"levelo://app?vid=72d5c2f2-1535-4b22-8c95-be92ef5d7d32"},"vehicle_type_id":"4","last_reported":1740899274,"current_range_meters":8800,"station_id":"ce4bgkp2rcd13ifvqbmg","pricing_plan_id":"cebpf4jnsgd1na2vs0mg"},{"bike_id":"4de73d77-5231-4cde-a932-554e4e4d2724","system_id":"levelo_inurba_marseille","lat":43.29919,"lon":5.36509,"is_reserved":false,"is_disabled":false,"rental_uris":{"android":"levelo://app?vid=4de73d77-5231-4cde-a932-554e4e4d2724","ios":"levelo://app?vid=4de73d77-5231-4cde-a932-554e4e4d2724"},"vehicle_type_id":"4","last_reported":1740899274,"current_range_meters":8800,"station_id":"ce4bgm92rcd13ifvqbr0","pricing_plan_id":"cebpf4jnsgd1na2vs0mg"},{"bike_id":"72ff5b47-6584-466f-b94c-365470641023","system_id":"levelo_inurba_marseille","lat":43.31158,"lon":5.38721,"is_reserved":false,"is_disabled":false,"rental_uris":{"android":"levelo://app?vid=72ff5b47-6584-466f-b94c-365470641023","ios":"levelo://app?vid=72ff5b47-6584-466f-b94c-365470641023"},"vehicle_type_id":"4","last_reported":1740899274,"current_range_meters":8800,"station_id":"ce4bgv12rcd13ifvqcp0","pricing_plan_id":"cebpf4jnsgd1na2vs0mg"},{"bike_id":"23cab17d-b6bb-40e7-9520-7101829b0f11","system_id":"levelo_inurba_marseille","lat":43.284559,"lon":5.358891,"is_reserved":false,"is_disabled":false,"rental_uris":{"android":"levelo://app?vid=23cab17d-b6bb-40e7-9520-7101829b0f11","ios":"levelo://app?vid=23cab17d-b6bb-40e7-9520-7101829b0f11"},"vehicle_type_id":"4","last_reported":1740899274,"current_range_meters":8800,"station_id":"ce4bhah2rcd13ifvqei0","pricing_plan_id":"cebpf4jnsgd1na2vs0mg"},{"bike_id":"4a01e614-9a34-4e70-9e02-4e744008ae90","system_id":"levelo_inurba_marseille","lat":43.31382,"lon":5.39194,"is_reserved":false,"is_disabled":false,"rental_uris":{"android":"levelo://app?vid=4a01e614-9a34-4e70-9e02-4e744008ae90","ios":"levelo://app?vid=4a01e614-9a34-4e70-9e02-4e744008ae90"},"vehicle_type_id":"4","last_reported":1740899274,"current_range_meters":9200,"station_id":"","pricing_plan_id":"cebpf4jnsgd1na2vs0mg"},{"bike_id":"52ef3aa4-5f13-4be7-b2ea-94c69c4bc5ae","system_id":"levelo_inurba_marseille","lat":43.30427,"lon":5.3889,"is_reserved":false,"is_disabled":false,"rental_uris":{"android":"levelo://app?vid=52ef3aa4-5f13-4be7-b2ea-94c69c4bc5ae","ios":"levelo://app?vid=52ef3aa4-5f13-4be7-b2ea-94c69c4bc5ae"},"vehicle_type_id":"4","last_reported":1740899274,"current_range_meters":9200,"station_id":"ce4bgk12rcd13ifvqbi0","pricing_plan_id":"cebpf4jnsgd1na2vs0mg"},{"bike_id":"ddf90109-4572-4b1a-a4f2-eae9f9d34937","system_id":"levelo_inurba_marseille","lat":43.24396,"lon":5.37066,"is_reserved":false,"is_disabled":false,"rental_uris":{"android":"levelo://app?vid=ddf90109-4572-4b1a-a4f2-eae9f9d34937","ios":"levelo://app?vid=ddf90109-4572-4b1a-a4f2-eae9f9d34937"},"vehicle_type_id":"4","last_reported":1740899274,"current_range_meters":9200,"station_id":"ce4bhhh2rcd13ifvqfk0","pricing_plan_id":"cebpf4jnsgd1na2vs0mg"},{"bike_id":"0693b9d6-4a9d-4e38-bfa2-80f934bcc2e3","system_id":"levelo_inurba_marseille","lat":43.241649,"lon":5.364011,"is_reserved":false,"is_disabled":false,"rental_uris":{"android":"levelo://app?vid=0693b9d6-4a9d-4e38-bfa2-80f934bcc2e3","ios":"levelo://app?vid=0693b9d6-4a9d-4e38-bfa2-80f934bcc2e3"},"vehicle_type_id":"4","last_reported":1740899274,"current_range_meters":9200,"station_id":"cpo36qri1sfpv3e86is0","pricing_plan_id":"cebpf4jnsgd1na2vs0mg"},{"bike_id":"e28469c8-88b6-48eb-a0c4-75070d65fa9b","system_id":"levelo_inurba_marseille","lat":43.297125,"lon":5.365959,"is_reserved":false,"is_disabled":false,"rental_uris":{"android":"levelo://app?vid=e28469c8-88b6-48eb-a0c4-75070d65fa9b","ios":"levelo://app?vid=e28469c8-88b6-48eb-a0c4-75070d65fa9b"},"vehicle_type_id":"4","last_reported":1740899274,"current_range_meters":9600,"station_id":"ce4bgn12rcd13ifvqbt0","pricing_plan_id":"cebpf4jnsgd1na2vs0mg"},{"bike_id":"3aebfc4a-b79b-400f-91ae-dad88b04ca31","system_id":"levelo_inurba_marseille","lat":43.28674,"lon":5.36351,"is_reserved":false,"is_disabled":false,"rental_uris":{"android":"levelo://app?vid=3aebfc4a-b79b-400f-91ae-dad88b04ca31","ios":"levelo://app?vid=3aebfc4a-b79b-400f-91ae-dad88b04ca31"},"vehicle_type_id":"4","last_reported":1740899274,"current_range_meters":9600,"station_id":"ce4bhah2rcd13ifvqej0","pricing_plan_id":"cebpf4jnsgd1na2vs0mg"},{"bike_id":"3b2662a5-424c-4217-a420-af728284556d","system_id":"levelo_inurba_marseille","lat":43.25709,"lon":5.41105,"is_reserved":false,"is_disabled":false,"rental_uris":{"android":"levelo://app?vid=3b2662a5-424c-4217-a420-af728284556d","ios":"levelo://app?vid=3b2662a5-424c-4217-a420-af728284556d"},"vehicle_type_id":"4","last_reported":1740899274,"current_range_meters":9600,"station_id":"ce4bhkp2rcd13ifvqgd0","pricing_plan_id":"cebpf4jnsgd1na2vs0mg"},{"bike_id":"0e4d5d36-7d5d-4fbf-9597-759cc9a1b223","system_id":"levelo_inurba_marseille","lat":43.30563,"lon":5.37246,"is_reserved":false,"is_disabled":false,"rental_uris":{"android":"levelo://app?vid=0e4d5d36-7d5d-4fbf-9597-759cc9a1b223","ios":"levelo://app?vid=0e4d5d36-7d5d-4fbf-9597-759cc9a1b223"},"vehicle_type_id":"4","last_reported":1740899274,"current_range_meters":10000,"station_id":"","pricing_plan_id":"cebpf4jnsgd1na2vs0mg"},{"bike_id":"ae1d8787-92da-4c3d-997e-cbc036cd8572","system_id":"levelo_inurba_marseille","lat":43.3116,"lon":5.38723,"is_reserved":false,"is_disabled":false,"rental_uris":{"android":"levelo://app?vid=ae1d8787-92da-4c3d-997e-cbc036cd8572","ios":"levelo://app?vid=ae1d8787-92da-4c3d-997e-cbc036cd8572"},"vehicle_type_id":"4","last_reported":1740899274,"current_range_meters":10000,"station_id":"ce4bgv12rcd13ifvqcp0","pricing_plan_id":"cebpf4jnsgd1na2vs0mg"},{"bike_id":"fb18759c-f3ca-4612-8704-baf08a44bab2","system_id":"levelo_inurba_marseille","lat":43.28412,"lon":5.34988,"is_reserved":false,"is_disabled":false,"rental_uris":{"android":"levelo://app?vid=fb18759c-f3ca-4612-8704-baf08a44bab2","ios":"levelo://app?vid=fb18759c-f3ca-4612-8704-baf08a44bab2"},"vehicle_type_id":"4","last_reported":1740899274,"current_range_meters":10000,"station_id":"ce4bhbh2rcd13ifvqepg","pricing_plan_id":"cebpf4jnsgd1na2vs0mg"},{"bike_id":"98d30ac8-3bd7-4aef-a008-2521b117e221","system_id":"levelo_inurba_marseille","lat":43.26532,"lon":5.39029,"is_reserved":false,"is_disabled":false,"rental_uris":{"android":"levelo://app?vid=98d30ac8-3bd7-4aef-a008-2521b117e221","ios":"levelo://app?vid=98d30ac8-3bd7-4aef-a008-2521b117e221"},"vehicle_type_id":"4","last_reported":1740899274,"current_range_meters":10000,"station_id":"ce4bhe12rcd13ifvqf30","pricing_plan_id":"cebpf4jnsgd1na2vs0mg"},{"bike_id":"94fa0b73-5864-4665-bdbb-eb6df01414c8","system_id":"levelo_inurba_marseille","lat":43.2466,"lon":5.38167,"is_reserved":false,"is_disabled":false,"rental_uris":{"android":"levelo://app?vid=94fa0b73-5864-4665-bdbb-eb6df01414c8","ios":"levelo://app?vid=94fa0b73-5864-4665-bdbb-eb6df01414c8"},"vehicle_type_id":"4","last_reported":1740899274,"current_range_meters":10000,"station_id":"ce4bhih2rcd13ifvqfr0","pricing_plan_id":"cebpf4jnsgd1na2vs0mg"},{"bike_id":"1697087c-3a15-4d2b-8fbc-57126afe45c3","system_id":"levelo_inurba_marseille","lat":43.23134,"lon":5.43711,"is_reserved":false,"is_disabled":false,"rental_uris":{"android":"levelo://app?vid=1697087c-3a15-4d2b-8fbc-57126afe45c3","ios":"levelo://app?vid=1697087c-3a15-4d2b-8fbc-57126afe45c3"},"vehicle_type_id":"4","last_reported":1740899274,"current_range_meters":10000,"station_id":"ce4bhmp2rcd13ifvqgog","pricing_plan_id":"cebpf4jnsgd1na2vs0mg"},{"bike_id":"08b66ead-5970-4c42-aef8-8434df652915","system_id":"levelo_inurba_marseille","lat":43.27611,"lon":5.36121,"is_reserved":false,"is_disabled":false,"rental_uris":{"android":"levelo://app?vid=08b66ead-5970-4c42-aef8-8434df652915","ios":"levelo://app?vid=08b66ead-5970-4c42-aef8-8434df652915"},"vehicle_type_id":"4","last_reported":1740899274,"current_range_meters":10800,"station_id":"ce4bgj92rcd13ifvqbe0","pricing_plan_id":"cebpf4jnsgd1na2vs0mg"},{"bike_id":"3ba7bed1-3305-440d-a97c-7e9401981732","system_id":"levelo_inurba_marseille","lat":43.29196,"lon":5.39334,"is_reserved":false,"is_disabled":false,"rental_uris":{"android":"levelo://app?vid=3ba7bed1-3305-440d-a97c-7e9401981732","ios":"levelo://app?vid=3ba7bed1-3305-440d-a97c-7e9401981732"},"vehicle_type_id":"4","last_reported":1740899274,"current_range_meters":10800,"station_id":"ce4bh192rcd13ifvqdd0","pricing_plan_id":"cebpf4jnsgd1na2vs0mg"},{"bike_id":"cbeff9af-2821-498e-8353-cbbe4b72cc62","system_id":"levelo_inurba_marseille","lat":43.24997,"lon":5.38954,"is_reserved":false,"is_disabled":false,"rental_uris":{"android":"levelo://app?vid=cbeff9af-2821-498e-8353-cbbe4b72cc62","ios":"levelo://app?vid=cbeff9af-2821-498e-8353-cbbe4b72cc62"},"vehicle_type_id":"4","last_reported":1740899274,"current_range_meters":10800,"station_id":"ce4bhgp2rcd13ifvqfd0","pricing_plan_id":"cebpf4jnsgd1na2vs0mg"},{"bike_id":"f711a177-8c95-4e96-bcaf-e6e0dc33f59e","system_id":"levelo_inurba_marseille","lat":43.24391,"lon":5.37057,"is_reserved":false,"is_disabled":false,"rental_uris":{"android":"levelo://app?vid=f711a177-8c95-4e96-bcaf-e6e0dc33f59e","ios":"levelo://app?vid=f711a177-8c95-4e96-bcaf-e6e0dc33f59e"},"vehicle_type_id":"4","last_reported":1740899274,"current_range_meters":10800,"station_id":"ce4bhhh2rcd13ifvqfk0","pricing_plan_id":"cebpf4jnsgd1na2vs0mg"},{"bike_id":"bbcad7a0-3558-4710-b9fc-e88f0b23aeac","system_id":"levelo_inurba_marseille","lat":43.25713,"lon":5.41124,"is_reserved":false,"is_disabled":false,"rental_uris":{"android":"levelo://app?vid=bbcad7a0-3558-4710-b9fc-e88f0b23aeac","ios":"levelo://app?vid=bbcad7a0-3558-4710-b9fc-e88f0b23aeac"},"vehicle_type_id":"4","last_reported":1740899274,"current_range_meters":10800,"station_id":"ce4bhkp2rcd13ifvqgd0","pricing_plan_id":"cebpf4jnsgd1na2vs0mg"},{"bike_id":"dca47370-0af2-4b83-9276-f3814af3b64b","system_id":"levelo_inurba_marseille","lat":43.24532,"lon":5.3955,"is_reserved":false,"is_disabled":false,"rental_uris":{"android":"levelo://app?vid=dca47370-0af2-4b83-9276-f3814af3b64b","ios":"levelo://app?vid=dca47370-0af2-4b83-9276-f3814af3b64b"},"vehicle_type_id":"4","last_reported":1740899274,"current_range_meters":10800,"station_id":"ce4bhlp2rcd13ifvqgjg","pricing_plan_id":"cebpf4jnsgd1na2vs0mg"},{"bike_id":"86dd6f08-624d-41d0-a5d0-1247711ab12d","system_id":"levelo_inurba_marseille","lat":43.24071,"lon":5.37757,"is_reserved":false,"is_disabled":false,"rental_uris":{"android":"levelo://app?vid=86dd6f08-624d-41d0-a5d0-1247711ab12d","ios":"levelo://app?vid=86dd6f08-624d-41d0-a5d0-1247711ab12d"},"vehicle_type_id":"4","last_reported":1740899274,"current_range_meters":10800,"station_id":"ce4bhnp2rcd13ifvqgvg","pricing_plan_id":"cebpf4jnsgd1na2vs0mg"},{"bike_id":"cb06de29-252c-45ff-969f-f14eca72f5f5","system_id":"levelo_inurba_marseille","lat":43.28431,"lon":5.39185,"is_reserved":false,"is_disabled":false,"rental_uris":{"android":"levelo://app?vid=cb06de29-252c-45ff-969f-f14eca72f5f5","ios":"levelo://app?vid=cb06de29-252c-45ff-969f-f14eca72f5f5"},"vehicle_type_id":"4","last_reported":1740899274,"current_range_meters":10800,"station_id":"ce4bhoh2rcd13ifvqh5g","pricing_plan_id":"cebpf4jnsgd1na2vs0mg"},{"bike_id":"49740944-d3c3-4593-a80d-2aff0de21358","system_id":"levelo_inurba_marseille","lat":43.299594,"lon":5.370149,"is_reserved":false,"is_disabled":false,"rental_uris":{"android":"levelo://app?vid=49740944-d3c3-4593-a80d-2aff0de21358","ios":"levelo://app?vid=49740944-d3c3-4593-a80d-2aff0de21358"},"vehicle_type_id":"4","last_reported":1740899274,"current_range_meters":11200,"station_id":"","pricing_plan_id":"cebpf4jnsgd1na2vs0mg"},{"bike_id":"6d56352d-b599-405b-812c-cff82b78bb6e","system_id":"levelo_inurba_marseille","lat":43.33785,"lon":5.37425,"is_reserved":false,"is_disabled":false,"rental_uris":{"android":"levelo://app?vid=6d56352d-b599-405b-812c-cff82b78bb6e","ios":"levelo://app?vid=6d56352d-b599-405b-812c-cff82b78bb6e"},"vehicle_type_id":"4","last_reported":1740899274,"current_range_meters":11200,"station_id":"","pricing_plan_id":"cebpf4jnsgd1na2vs0mg"},{"bike_id":"d2c363b3-bacf-4359-85f2-7dc9f8b4aa4d","system_id":"levelo_inurba_marseille","lat":43.31684,"lon":5.4047,"is_reserved":false,"is_disabled":false,"rental_uris":{"android":"levelo://app?vid=d2c363b3-bacf-4359-85f2-7dc9f8b4aa4d","ios":"levelo://app?vid=d2c363b3-bacf-4359-85f2-7dc9f8b4aa4d"},"vehicle_type_id":"4","last_reported":1740899274,"current_range_meters":11600,"station_id":"ce4bh012rcd13ifvqd00","pricing_plan_id":"cebpf4jnsgd1na2vs0mg"},{"bike_id":"370c4868-a594-4085-88b8-164b41c30fea","system_id":"levelo_inurba_marseille","lat":43.29005,"lon":5.35609,"is_reserved":false,"is_disabled":false,"rental_uris":{"android":"levelo://app?vid=370c4868-a594-4085-88b8-164b41c30fea","ios":"levelo://app?vid=370c4868-a594-4085-88b8-164b41c30fea"},"vehicle_type_id":"4","last_reported":1740899274,"current_range_meters":11600,"station_id":"ce4bhb92rcd13ifvqen0","pricing_plan_id":"cebpf4jnsgd1na2vs0mg"},{"bike_id":"e2b1a97c-05f9-4994-8c76-5c4c26614832","system_id":"levelo_inurba_marseille","lat":43.265571,"lon":5.372896,"is_reserved":false,"is_disabled":false,"rental_uris":{"android":"levelo://app?vid=e2b1a97c-05f9-4994-8c76-5c4c26614832","ios":"levelo://app?vid=e2b1a97c-05f9-4994-8c76-5c4c26614832"},"vehicle_type_id":"4","last_reported":1740899274,"current_range_meters":11600,"station_id":"ce4bhg12rcd13ifvqf70","pricing_plan_id":"cebpf4jnsgd1na2vs0mg"},{"bike_id":"97efda35-6204-44de-b93b-817189a09671","system_id":"levelo_inurba_marseille","lat":43.25576,"lon":5.38255,"is_reserved":false,"is_disabled":false,"rental_uris":{"android":"levelo://app?vid=97efda35-6204-44de-b93b-817189a09671","ios":"levelo://app?vid=97efda35-6204-44de-b93b-817189a09671"},"vehicle_type_id":"4","last_reported":1740899274,"current_range_meters":11600,"station_id":"ce4bhih2rcd13ifvqfs0","pricing_plan_id":"cebpf4jnsgd1na2vs0mg"},{"bike_id":"27d57ba8-cb2b-4da3-bcfc-1efd3956d0fa","system_id":"levelo_inurba_marseille","lat":43.29547,"lon":5.42286,"is_reserved":false,"is_disabled":false,"rental_uris":{"android":"levelo://app?vid=27d57ba8-cb2b-4da3-bcfc-1efd3956d0fa","ios":"levelo://app?vid=27d57ba8-cb2b-4da3-bcfc-1efd3956d0fa"},"vehicle_type_id":"4","last_reported":1740899274,"current_range_meters":11600,"station_id":"ce4bhph2rcd13ifvqhdg","pricing_plan_id":"cebpf4jnsgd1na2vs0mg"},{"bike_id":"e43f4f71-054c-410e-9efa-c6d5ef79ac61","system_id":"levelo_inurba_marseille","lat":43.24157,"lon":5.39746,"is_reserved":false,"is_disabled":false,"rental_uris":{"android":"levelo://app?vid=e43f4f71-054c-410e-9efa-c6d5ef79ac61","ios":"levelo://app?vid=e43f4f71-054c-410e-9efa-c6d5ef79ac61"},"vehicle_type_id":"4","last_reported":1740899274,"current_range_meters":12000,"station_id":"ce4bhn12rcd13ifvqgpg","pricing_plan_id":"cebpf4jnsgd1na2vs0mg"},{"bike_id":"b98067e1-b08a-4374-a620-5d56e9f060ee","system_id":"levelo_inurba_marseille","lat":43.30152,"lon":5.38083,"is_reserved":false,"is_disabled":false,"rental_uris":{"android":"levelo://app?vid=b98067e1-b08a-4374-a620-5d56e9f060ee","ios":"levelo://app?vid=b98067e1-b08a-4374-a620-5d56e9f060ee"},"vehicle_type_id":"4","last_reported":1740899274,"current_range_meters":12400,"station_id":"ce4bgjp2rcd13ifvqbh0","pricing_plan_id":"cebpf4jnsgd1na2vs0mg"},{"bike_id":"abdce9a5-165a-430d-93c6-b1980bc72eea","system_id":"levelo_inurba_marseille","lat":43.31316,"lon":5.397099,"is_reserved":false,"is_disabled":false,"rental_uris":{"android":"levelo://app?vid=abdce9a5-165a-430d-93c6-b1980bc72eea","ios":"levelo://app?vid=abdce9a5-165a-430d-93c6-b1980bc72eea"},"vehicle_type_id":"4","last_reported":1740899274,"current_range_meters":12400,"station_id":"ce4bgvp2rcd13ifvqcu0","pricing_plan_id":"cebpf4jnsgd1na2vs0mg"},{"bike_id":"c272f144-1302-4356-8d7d-046dcce3b360","system_id":"levelo_inurba_marseille","lat":43.26195,"lon":5.37931,"is_reserved":false,"is_disabled":false,"rental_uris":{"android":"levelo://app?vid=c272f144-1302-4356-8d7d-046dcce3b360","ios":"levelo://app?vid=c272f144-1302-4356-8d7d-046dcce3b360"},"vehicle_type_id":"4","last_reported":1740899274,"current_range_meters":12400,"station_id":"ce4bhjp2rcd13ifvqg90","pricing_plan_id":"cebpf4jnsgd1na2vs0mg"},{"bike_id":"bc8aa798-f930-448d-990e-f5b91ae1768e","system_id":"levelo_inurba_marseille","lat":43.28739,"lon":5.36085,"is_reserved":false,"is_disabled":false,"rental_uris":{"android":"levelo://app?vid=bc8aa798-f930-448d-990e-f5b91ae1768e","ios":"levelo://app?vid=bc8aa798-f930-448d-990e-f5b91ae1768e"},"vehicle_type_id":"4","last_reported":1740899274,"current_range_meters":12400,"station_id":"cki0cbj6b192h4jlfktg","pricing_plan_id":"cebpf4jnsgd1na2vs0mg"},{"bike_id":"3dbda65d-1313-43f8-8c84-be95cd45e7a1","system_id":"levelo_inurba_marseille","lat":43.30141,"lon":5.38771,"is_reserved":false,"is_disabled":false,"rental_uris":{"android":"levelo://app?vid=3dbda65d-1313-43f8-8c84-be95cd45e7a1","ios":"levelo://app?vid=3dbda65d-1313-43f8-8c84-be95cd45e7a1"},"vehicle_type_id":"4","last_reported":1740899274,"current_range_meters":12800,"station_id":"ce4bghh2rcd13ifvqb60","pricing_plan_id":"cebpf4jnsgd1na2vs0mg"},{"bike_id":"39c1dd7d-9a10-44b7-9513-368af5f5261b","system_id":"levelo_inurba_marseille","lat":43.303067,"lon":5.368885,"is_reserved":false,"is_disabled":false,"rental_uris":{"android":"levelo://app?vid=39c1dd7d-9a10-44b7-9513-368af5f5261b","ios":"levelo://app?vid=39c1dd7d-9a10-44b7-9513-368af5f5261b"},"vehicle_type_id":"4","last_reported":1740899274,"current_range_meters":12800,"station_id":"ce4bgqh2rcd13ifvqc5g","pricing_plan_id":"cebpf4jnsgd1na2vs0mg"},{"bike_id":"858a6eb2-839d-41c4-88c1-2befe0b73ee6","system_id":"levelo_inurba_marseille","lat":43.30884,"lon":5.39634,"is_reserved":false,"is_disabled":false,"rental_uris":{"android":"levelo://app?vid=858a6eb2-839d-41c4-88c1-2befe0b73ee6","ios":"levelo://app?vid=858a6eb2-839d-41c4-88c1-2befe0b73ee6"},"vehicle_type_id":"4","last_reported":1740899274,"current_range_meters":12800,"station_id":"ce4bh012rcd13ifvqcv0","pricing_plan_id":"cebpf4jnsgd1na2vs0mg"},{"bike_id":"14da2a3a-0d3b-4102-84c6-346945a4b8ae","system_id":"levelo_inurba_marseille","lat":43.312731,"lon":5.401652,"is_reserved":false,"is_disabled":false,"rental_uris":{"android":"levelo://app?vid=14da2a3a-0d3b-4102-84c6-346945a4b8ae","ios":"levelo://app?vid=14da2a3a-0d3b-4102-84c6-346945a4b8ae"},"vehicle_type_id":"4","last_reported":1740899274,"current_range_meters":12800,"station_id":"ce4bh092rcd13ifvqd30","pricing_plan_id":"cebpf4jnsgd1na2vs0mg"},{"bike_id":"d1e57ba5-c32d-4587-a341-c2139f6d0723","system_id":"levelo_inurba_marseille","lat":43.28028,"lon":5.36949,"is_reserved":false,"is_disabled":false,"rental_uris":{"android":"levelo://app?vid=d1e57ba5-c32d-4587-a341-c2139f6d0723","ios":"levelo://app?vid=d1e57ba5-c32d-4587-a341-c2139f6d0723"},"vehicle_type_id":"4","last_reported":1740899274,"current_range_meters":12800,"station_id":"ce4bha12rcd13ifvqef0","pricing_plan_id":"cebpf4jnsgd1na2vs0mg"},{"bike_id":"4013bc6c-c7f7-4089-af65-618d0eeef3f4","system_id":"levelo_inurba_marseille","lat":43.24551,"lon":5.39527,"is_reserved":false,"is_disabled":false,"rental_uris":{"android":"levelo://app?vid=4013bc6c-c7f7-4089-af65-618d0eeef3f4","ios":"levelo://app?vid=4013bc6c-c7f7-4089-af65-618d0eeef3f4"},"vehicle_type_id":"4","last_reported":1740899274,"current_range_meters":12800,"station_id":"ce4bhlp2rcd13ifvqgjg","pricing_plan_id":"cebpf4jnsgd1na2vs0mg"},{"bike_id":"ed8bb562-d048-4d97-a62c-052cc210d3b2","system_id":"levelo_inurba_marseille","lat":43.317115,"lon":5.437089,"is_reserved":false,"is_disabled":false,"rental_uris":{"android":"levelo://app?vid=ed8bb562-d048-4d97-a62c-052cc210d3b2","ios":"levelo://app?vid=ed8bb562-d048-4d97-a62c-052cc210d3b2"},"vehicle_type_id":"4","last_reported":1740899274,"current_range_meters":12800,"station_id":"ce4bhp92rcd13ifvqhcg","pricing_plan_id":"cebpf4jnsgd1na2vs0mg"},{"bike_id":"3c9c65ff-a2a8-4c52-a6f4-62bcc77556ef","system_id":"levelo_inurba_marseille","lat":43.241655,"lon":5.363913,"is_reserved":false,"is_disabled":false,"rental_uris":{"android":"levelo://app?vid=3c9c65ff-a2a8-4c52-a6f4-62bcc77556ef","ios":"levelo://app?vid=3c9c65ff-a2a8-4c52-a6f4-62bcc77556ef"},"vehicle_type_id":"4","last_reported":1740899274,"current_range_meters":12800,"station_id":"cpo36qri1sfpv3e86is0","pricing_plan_id":"cebpf4jnsgd1na2vs0mg"},{"bike_id":"88d09cbc-1497-4fea-99b9-c1fe29ff58f0","system_id":"levelo_inurba_marseille","lat":43.28037,"lon":5.366,"is_reserved":false,"is_disabled":false,"rental_uris":{"android":"levelo://app?vid=88d09cbc-1497-4fea-99b9-c1fe29ff58f0","ios":"levelo://app?vid=88d09cbc-1497-4fea-99b9-c1fe29ff58f0"},"vehicle_type_id":"4","last_reported":1740899274,"current_range_meters":13600,"station_id":"","pricing_plan_id":"cebpf4jnsgd1na2vs0mg"},{"bike_id":"28094c26-ebf7-4f10-9752-a86036fd897f","system_id":"levelo_inurba_marseille","lat":43.284204,"lon":5.349898,"is_reserved":false,"is_disabled":false,"rental_uris":{"android":"levelo://app?vid=28094c26-ebf7-4f10-9752-a86036fd897f","ios":"levelo://app?vid=28094c26-ebf7-4f10-9752-a86036fd897f"},"vehicle_type_id":"4","last_reported":1740899274,"current_range_meters":13600,"station_id":"ce4bhbh2rcd13ifvqepg","pricing_plan_id":"cebpf4jnsgd1na2vs0mg"},{"bike_id":"8fd6e265-67e3-4ac3-8b33-e46f35485ff3","system_id":"levelo_inurba_marseille","lat":43.27909,"lon":5.39588,"is_reserved":false,"is_disabled":false,"rental_uris":{"android":"levelo://app?vid=8fd6e265-67e3-4ac3-8b33-e46f35485ff3","ios":"levelo://app?vid=8fd6e265-67e3-4ac3-8b33-e46f35485ff3"},"vehicle_type_id":"4","last_reported":1740899274,"current_range_meters":13600,"station_id":"ce4bhf92rcd13ifvqf40","pricing_plan_id":"cebpf4jnsgd1na2vs0mg"},{"bike_id":"49645587-4897-47af-80cb-ea0df5af90cc","system_id":"levelo_inurba_marseille","lat":43.262123,"lon":5.374396,"is_reserved":false,"is_disabled":false,"rental_uris":{"android":"levelo://app?vid=49645587-4897-47af-80cb-ea0df5af90cc","ios":"levelo://app?vid=49645587-4897-47af-80cb-ea0df5af90cc"},"vehicle_type_id":"4","last_reported":1740899274,"current_range_meters":13600,"station_id":"ce4bhgp2rcd13ifvqfc0","pricing_plan_id":"cebpf4jnsgd1na2vs0mg"},{"bike_id":"cdc94510-961c-4d34-af09-7d4fad5c31aa","system_id":"levelo_inurba_marseille","lat":43.30588,"lon":5.3721,"is_reserved":false,"is_disabled":false,"rental_uris":{"android":"levelo://app?vid=cdc94510-961c-4d34-af09-7d4fad5c31aa","ios":"levelo://app?vid=cdc94510-961c-4d34-af09-7d4fad5c31aa"},"vehicle_type_id":"4","last_reported":1740899274,"current_range_meters":14000,"station_id":"ce4bgqh2rcd13ifvqc4g","pricing_plan_id":"cebpf4jnsgd1na2vs0mg"},{"bike_id":"3f1c5b0e-6cb1-4bd0-b31c-4fcbb4650943","system_id":"levelo_inurba_marseille","lat":43.28843,"lon":5.35828,"is_reserved":false,"is_disabled":false,"rental_uris":{"android":"levelo://app?vid=3f1c5b0e-6cb1-4bd0-b31c-4fcbb4650943","ios":"levelo://app?vid=3f1c5b0e-6cb1-4bd0-b31c-4fcbb4650943"},"vehicle_type_id":"4","last_reported":1740899274,"current_range_meters":14000,"station_id":"ce4bhb12rcd13ifvqem0","pricing_plan_id":"cebpf4jnsgd1na2vs0mg"},{"bike_id":"8c528749-43df-40d6-b9b4-e80d7e8bda23","system_id":"levelo_inurba_marseille","lat":43.2656,"lon":5.37326,"is_reserved":false,"is_disabled":false,"rental_uris":{"android":"levelo://app?vid=8c528749-43df-40d6-b9b4-e80d7e8bda23","ios":"levelo://app?vid=8c528749-43df-40d6-b9b4-e80d7e8bda23"},"vehicle_type_id":"4","last_reported":1740899274,"current_range_meters":14000,"station_id":"ce4bhg12rcd13ifvqf70","pricing_plan_id":"cebpf4jnsgd1na2vs0mg"},{"bike_id":"b466ac6c-4189-4354-953d-b28a544699b5","system_id":"levelo_inurba_marseille","lat":43.25114,"lon":5.40314,"is_reserved":false,"is_disabled":false,"rental_uris":{"android":"levelo://app?vid=b466ac6c-4189-4354-953d-b28a544699b5","ios":"levelo://app?vid=b466ac6c-4189-4354-953d-b28a544699b5"},"vehicle_type_id":"4","last_reported":1740899274,"current_range_meters":14000,"station_id":"ce4bhlh2rcd13ifvqgig","pricing_plan_id":"cebpf4jnsgd1na2vs0mg"},{"bike_id":"04374387-317f-463f-bfc7-2e3d3c3c7b98","system_id":"levelo_inurba_marseille","lat":43.24177,"lon":5.39734,"is_reserved":false,"is_disabled":false,"rental_uris":{"android":"levelo://app?vid=04374387-317f-463f-bfc7-2e3d3c3c7b98","ios":"levelo://app?vid=04374387-317f-463f-bfc7-2e3d3c3c7b98"},"vehicle_type_id":"4","last_reported":1740899274,"current_range_meters":14000,"station_id":"ce4bhn12rcd13ifvqgpg","pricing_plan_id":"cebpf4jnsgd1na2vs0mg"},{"bike_id":"848e1728-4a39-474c-b550-8bc497cd3e33","system_id":"levelo_inurba_marseille","lat":43.3238,"lon":5.36572,"is_reserved":false,"is_disabled":false,"rental_uris":{"android":"levelo://app?vid=848e1728-4a39-474c-b550-8bc497cd3e33","ios":"levelo://app?vid=848e1728-4a39-474c-b550-8bc497cd3e33"},"vehicle_type_id":"4","last_reported":1740899274,"current_range_meters":14000,"station_id":"ce4bhs12rcd13ifvqhvg","pricing_plan_id":"cebpf4jnsgd1na2vs0mg"},{"bike_id":"b89b9e97-65c4-4473-a19f-c73995b54f7e","system_id":"levelo_inurba_marseille","lat":43.230608,"lon":5.354943,"is_reserved":false,"is_disabled":false,"rental_uris":{"android":"levelo://app?vid=b89b9e97-65c4-4473-a19f-c73995b54f7e","ios":"levelo://app?vid=b89b9e97-65c4-4473-a19f-c73995b54f7e"},"vehicle_type_id":"4","last_reported":1740899274,"current_range_meters":14000,"station_id":"cpo3342slgdg3j2ifvpg","pricing_plan_id":"cebpf4jnsgd1na2vs0mg"},{"bike_id":"2e9c27d3-7345-4cf1-8b14-d9496e0e96ab","system_id":"levelo_inurba_marseille","lat":43.30887,"lon":5.39627,"is_reserved":false,"is_disabled":false,"rental_uris":{"android":"levelo://app?vid=2e9c27d3-7345-4cf1-8b14-d9496e0e96ab","ios":"levelo://app?vid=2e9c27d3-7345-4cf1-8b14-d9496e0e96ab"},"vehicle_type_id":"4","last_reported":1740899274,"current_range_meters":14400,"station_id":"ce4bh012rcd13ifvqcv0","pricing_plan_id":"cebpf4jnsgd1na2vs0mg"},{"bike_id":"298b9c6f-efc6-4afd-adcc-46c832b63bfb","system_id":"levelo_inurba_marseille","lat":43.30137,"lon":5.39891,"is_reserved":false,"is_disabled":false,"rental_uris":{"android":"levelo://app?vid=298b9c6f-efc6-4afd-adcc-46c832b63bfb","ios":"levelo://app?vid=298b9c6f-efc6-4afd-adcc-46c832b63bfb"},"vehicle_type_id":"4","last_reported":1740899274,"current_range_meters":14400,"station_id":"ce4bh0h2rcd13ifvqd40","pricing_plan_id":"cebpf4jnsgd1na2vs0mg"},{"bike_id":"6641d379-f97c-46bc-9a0d-767526e51f5d","system_id":"levelo_inurba_marseille","lat":43.2511,"lon":5.40337,"is_reserved":false,"is_disabled":false,"rental_uris":{"android":"levelo://app?vid=6641d379-f97c-46bc-9a0d-767526e51f5d","ios":"levelo://app?vid=6641d379-f97c-46bc-9a0d-767526e51f5d"},"vehicle_type_id":"4","last_reported":1740899274,"current_range_meters":14400,"station_id":"ce4bhlh2rcd13ifvqgig","pricing_plan_id":"cebpf4jnsgd1na2vs0mg"},{"bike_id":"61e3c74e-7012-4cb6-8ef4-17db5d82fdf7","system_id":"levelo_inurba_marseille","lat":43.25297,"lon":5.39298,"is_reserved":false,"is_disabled":false,"rental_uris":{"android":"levelo://app?vid=61e3c74e-7012-4cb6-8ef4-17db5d82fdf7","ios":"levelo://app?vid=61e3c74e-7012-4cb6-8ef4-17db5d82fdf7"},"vehicle_type_id":"4","last_reported":1740899274,"current_range_meters":14800,"station_id":"","pricing_plan_id":"cebpf4jnsgd1na2vs0mg"},{"bike_id":"8c41848f-4779-43e5-81a6-bbcb1f8bd000","system_id":"levelo_inurba_marseille","lat":43.27319,"lon":5.39078,"is_reserved":false,"is_disabled":false,"rental_uris":{"android":"levelo://app?vid=8c41848f-4779-43e5-81a6-bbcb1f8bd000","ios":"levelo://app?vid=8c41848f-4779-43e5-81a6-bbcb1f8bd000"},"vehicle_type_id":"4","last_reported":1740899274,"current_range_meters":14800,"station_id":"ce4bhgp2rcd13ifvqfe0","pricing_plan_id":"cebpf4jnsgd1na2vs0mg"},{"bike_id":"bff943d6-157c-4fde-8a62-68c660481aa5","system_id":"levelo_inurba_marseille","lat":43.25112,"lon":5.40336,"is_reserved":false,"is_disabled":false,"rental_uris":{"android":"levelo://app?vid=bff943d6-157c-4fde-8a62-68c660481aa5","ios":"levelo://app?vid=bff943d6-157c-4fde-8a62-68c660481aa5"},"vehicle_type_id":"4","last_reported":1740899274,"current_range_meters":14800,"station_id":"ce4bhlh2rcd13ifvqgig","pricing_plan_id":"cebpf4jnsgd1na2vs0mg"},{"bike_id":"d582d420-ad76-4943-9aaa-ec3ad66c7cfa","system_id":"levelo_inurba_marseille","lat":43.240675,"lon":5.377633,"is_reserved":false,"is_disabled":false,"rental_uris":{"android":"levelo://app?vid=d582d420-ad76-4943-9aaa-ec3ad66c7cfa","ios":"levelo://app?vid=d582d420-ad76-4943-9aaa-ec3ad66c7cfa"},"vehicle_type_id":"4","last_reported":1740899274,"current_range_meters":14800,"station_id":"ce4bhnp2rcd13ifvqgvg","pricing_plan_id":"cebpf4jnsgd1na2vs0mg"},{"bike_id":"8e886d15-f7c9-408d-8ce6-c26a75e0d003","system_id":"levelo_inurba_marseille","lat":43.31707,"lon":5.40458,"is_reserved":false,"is_disabled":false,"rental_uris":{"android":"levelo://app?vid=8e886d15-f7c9-408d-8ce6-c26a75e0d003","ios":"levelo://app?vid=8e886d15-f7c9-408d-8ce6-c26a75e0d003"},"vehicle_type_id":"4","last_reported":1740899274,"current_range_meters":15200,"station_id":"ce4bh012rcd13ifvqd00","pricing_plan_id":"cebpf4jnsgd1na2vs0mg"},{"bike_id":"7a2dc981-8a85-486c-920c-c6247ab857fd","system_id":"levelo_inurba_marseille","lat":43.23151,"lon":5.43715,"is_reserved":false,"is_disabled":false,"rental_uris":{"android":"levelo://app?vid=7a2dc981-8a85-486c-920c-c6247ab857fd","ios":"levelo://app?vid=7a2dc981-8a85-486c-920c-c6247ab857fd"},"vehicle_type_id":"4","last_reported":1740899274,"current_range_meters":15200,"station_id":"ce4bhmp2rcd13ifvqgog","pricing_plan_id":"cebpf4jnsgd1na2vs0mg"},{"bike_id":"1b2a055e-ea37-482f-853e-c714e4fa336c","system_id":"levelo_inurba_marseille","lat":43.28082,"lon":5.39645,"is_reserved":false,"is_disabled":false,"rental_uris":{"android":"levelo://app?vid=1b2a055e-ea37-482f-853e-c714e4fa336c","ios":"levelo://app?vid=1b2a055e-ea37-482f-853e-c714e4fa336c"},"vehicle_type_id":"4","last_reported":1740899274,"current_range_meters":15200,"station_id":"ce4bho12rcd13ifvqh2g","pricing_plan_id":"cebpf4jnsgd1na2vs0mg"},{"bike_id":"96090500-e92b-4618-a8ce-3e71815df01c","system_id":"levelo_inurba_marseille","lat":43.31073,"lon":5.382295,"is_reserved":false,"is_disabled":false,"rental_uris":{"android":"levelo://app?vid=96090500-e92b-4618-a8ce-3e71815df01c","ios":"levelo://app?vid=96090500-e92b-4618-a8ce-3e71815df01c"},"vehicle_type_id":"4","last_reported":1740899274,"current_range_meters":16000,"station_id":"","pricing_plan_id":"cebpf4jnsgd1na2vs0mg"},{"bike_id":"3435514d-ac1e-4be3-a87f-54af706bc07c","system_id":"levelo_inurba_marseille","lat":43.30441,"lon":5.3793,"is_reserved":false,"is_disabled":false,"rental_uris":{"android":"levelo://app?vid=3435514d-ac1e-4be3-a87f-54af706bc07c","ios":"levelo://app?vid=3435514d-ac1e-4be3-a87f-54af706bc07c"},"vehicle_type_id":"4","last_reported":1740899274,"current_range_meters":16000,"station_id":"ce4bgup2rcd13ifvqcn0","pricing_plan_id":"cebpf4jnsgd1na2vs0mg"},{"bike_id":"ce65d6bd-a604-4431-8ded-0f122584d950","system_id":"levelo_inurba_marseille","lat":43.30865,"lon":5.39672,"is_reserved":false,"is_disabled":false,"rental_uris":{"android":"levelo://app?vid=ce65d6bd-a604-4431-8ded-0f122584d950","ios":"levelo://app?vid=ce65d6bd-a604-4431-8ded-0f122584d950"},"vehicle_type_id":"4","last_reported":1740899274,"current_range_meters":16000,"station_id":"ce4bh012rcd13ifvqcv0","pricing_plan_id":"cebpf4jnsgd1na2vs0mg"},{"bike_id":"61a68250-08f6-4c4d-b5cd-c6750baf57e5","system_id":"levelo_inurba_marseille","lat":43.24169,"lon":5.3973,"is_reserved":false,"is_disabled":false,"rental_uris":{"android":"levelo://app?vid=61a68250-08f6-4c4d-b5cd-c6750baf57e5","ios":"levelo://app?vid=61a68250-08f6-4c4d-b5cd-c6750baf57e5"},"vehicle_type_id":"4","last_reported":1740899274,"current_range_meters":16000,"station_id":"ce4bhn12rcd13ifvqgpg","pricing_plan_id":"cebpf4jnsgd1na2vs0mg"},{"bike_id":"6d13a634-3969-4704-8104-ef55e819d437","system_id":"levelo_inurba_marseille","lat":43.275,"lon":5.42458,"is_reserved":false,"is_disabled":false,"rental_uris":{"android":"levelo://app?vid=6d13a634-3969-4704-8104-ef55e819d437","ios":"levelo://app?vid=6d13a634-3969-4704-8104-ef55e819d437"},"vehicle_type_id":"4","last_reported":1740899274,"current_range_meters":16000,"station_id":"ce4bhn92rcd13ifvqgrg","pricing_plan_id":"cebpf4jnsgd1na2vs0mg"},{"bike_id":"18ed809a-93be-4ceb-a90d-b4661309b51d","system_id":"levelo_inurba_marseille","lat":43.309509,"lon":5.374324,"is_reserved":false,"is_disabled":false,"rental_uris":{"android":"levelo://app?vid=18ed809a-93be-4ceb-a90d-b4661309b51d","ios":"levelo://app?vid=18ed809a-93be-4ceb-a90d-b4661309b51d"},"vehicle_type_id":"4","last_reported":1740899274,"current_range_meters":16400,"station_id":"","pricing_plan_id":"cebpf4jnsgd1na2vs0mg"},{"bike_id":"2c61996a-507a-4480-822d-eacdcb7cade2","system_id":"levelo_inurba_marseille","lat":43.313056,"lon":5.373249,"is_reserved":false,"is_disabled":false,"rental_uris":{"android":"levelo://app?vid=2c61996a-507a-4480-822d-eacdcb7cade2","ios":"levelo://app?vid=2c61996a-507a-4480-822d-eacdcb7cade2"},"vehicle_type_id":"4","last_reported":1740899274,"current_range_meters":16400,"station_id":"","pricing_plan_id":"cebpf4jnsgd1na2vs0mg"},{"bike_id":"fd2a23d4-87bf-4c92-a29f-6fc7c6c5fc9b","system_id":"levelo_inurba_marseille","lat":43.29921,"lon":5.3746,"is_reserved":false,"is_disabled":false,"rental_uris":{"android":"levelo://app?vid=fd2a23d4-87bf-4c92-a29f-6fc7c6c5fc9b","ios":"levelo://app?vid=fd2a23d4-87bf-4c92-a29f-6fc7c6c5fc9b"},"vehicle_type_id":"4","last_reported":1740899274,"current_range_meters":16400,"station_id":"ce4bgjh2rcd13ifvqbg0","pricing_plan_id":"cebpf4jnsgd1na2vs0mg"},{"bike_id":"43057aba-8187-4c96-8143-13581bc0bc91","system_id":"levelo_inurba_marseille","lat":43.30422,"lon":5.38888,"is_reserved":false,"is_disabled":false,"rental_uris":{"android":"levelo://app?vid=43057aba-8187-4c96-8143-13581bc0bc91","ios":"levelo://app?vid=43057aba-8187-4c96-8143-13581bc0bc91"},"vehicle_type_id":"4","last_reported":1740899274,"current_range_meters":16400,"station_id":"ce4bgk12rcd13ifvqbi0","pricing_plan_id":"cebpf4jnsgd1na2vs0mg"},{"bike_id":"7aee8f5d-2d14-456e-9b70-39df79503130","system_id":"levelo_inurba_marseille","lat":43.303055,"lon":5.36904,"is_reserved":false,"is_disabled":false,"rental_uris":{"android":"levelo://app?vid=7aee8f5d-2d14-456e-9b70-39df79503130","ios":"levelo://app?vid=7aee8f5d-2d14-456e-9b70-39df79503130"},"vehicle_type_id":"4","last_reported":1740899274,"current_range_meters":16400,"station_id":"ce4bgqh2rcd13ifvqc5g","pricing_plan_id":"cebpf4jnsgd1na2vs0mg"},{"bike_id":"f74b8b26-1cd7-4baf-bb77-96ed6c914855","system_id":"levelo_inurba_marseille","lat":43.30792,"lon":5.38149,"is_reserved":false,"is_disabled":false,"rental_uris":{"android":"levelo://app?vid=f74b8b26-1cd7-4baf-bb77-96ed6c914855","ios":"levelo://app?vid=f74b8b26-1cd7-4baf-bb77-96ed6c914855"},"vehicle_type_id":"4","last_reported":1740899274,"current_range_meters":16400,"station_id":"ce4bgt12rcd13ifvqce0","pricing_plan_id":"cebpf4jnsgd1na2vs0mg"},{"bike_id":"021024b2-d7f2-4303-ad4b-64d047e1cf29","system_id":"levelo_inurba_marseille","lat":43.30932,"lon":5.40146,"is_reserved":false,"is_disabled":false,"rental_uris":{"android":"levelo://app?vid=021024b2-d7f2-4303-ad4b-64d047e1cf29","ios":"levelo://app?vid=021024b2-d7f2-4303-ad4b-64d047e1cf29"},"vehicle_type_id":"4","last_reported":1740899274,"current_range_meters":16400,"station_id":"ce4bgvp2rcd13ifvqct0","pricing_plan_id":"cebpf4jnsgd1na2vs0mg"},{"bike_id":"9f754028-8b59-402a-9897-3fe7785c0d59","system_id":"levelo_inurba_marseille","lat":43.28687,"lon":5.3739,"is_reserved":false,"is_disabled":false,"rental_uris":{"android":"levelo://app?vid=9f754028-8b59-402a-9897-3fe7785c0d59","ios":"levelo://app?vid=9f754028-8b59-402a-9897-3fe7785c0d59"},"vehicle_type_id":"4","last_reported":1740899274,"current_range_meters":16400,"station_id":"ce4bh3p2rcd13ifvqdq0","pricing_plan_id":"cebpf4jnsgd1na2vs0mg"},{"bike_id":"1f032e84-7711-40fd-8090-2bcd4a29cb28","system_id":"levelo_inurba_marseille","lat":43.2835,"lon":5.3864,"is_reserved":false,"is_disabled":false,"rental_uris":{"android":"levelo://app?vid=1f032e84-7711-40fd-8090-2bcd4a29cb28","ios":"levelo://app?vid=1f032e84-7711-40fd-8090-2bcd4a29cb28"},"vehicle_type_id":"4","last_reported":1740899274,"current_range_meters":16400,"station_id":"ce4bh492rcd13ifvqdvg","pricing_plan_id":"cebpf4jnsgd1na2vs0mg"},{"bike_id":"86eaf335-11b7-40e5-aeb8-dc4ff2cf4e40","system_id":"levelo_inurba_marseille","lat":43.28024,"lon":5.36939,"is_reserved":false,"is_disabled":false,"rental_uris":{"android":"levelo://app?vid=86eaf335-11b7-40e5-aeb8-dc4ff2cf4e40","ios":"levelo://app?vid=86eaf335-11b7-40e5-aeb8-dc4ff2cf4e40"},"vehicle_type_id":"4","last_reported":1740899274,"current_range_meters":16400,"station_id":"ce4bha12rcd13ifvqef0","pricing_plan_id":"cebpf4jnsgd1na2vs0mg"},{"bike_id":"9181a5ec-449b-4ace-941b-8b0c1362c76f","system_id":"levelo_inurba_marseille","lat":43.26549,"lon":5.37299,"is_reserved":false,"is_disabled":false,"rental_uris":{"android":"levelo://app?vid=9181a5ec-449b-4ace-941b-8b0c1362c76f","ios":"levelo://app?vid=9181a5ec-449b-4ace-941b-8b0c1362c76f"},"vehicle_type_id":"4","last_reported":1740899274,"current_range_meters":16400,"station_id":"ce4bhg12rcd13ifvqf70","pricing_plan_id":"cebpf4jnsgd1na2vs0mg"},{"bike_id":"d66b749a-0808-469e-b143-0787b08d816b","system_id":"levelo_inurba_marseille","lat":43.262118,"lon":5.374581,"is_reserved":false,"is_disabled":false,"rental_uris":{"android":"levelo://app?vid=d66b749a-0808-469e-b143-0787b08d816b","ios":"levelo://app?vid=d66b749a-0808-469e-b143-0787b08d816b"},"vehicle_type_id":"4","last_reported":1740899274,"current_range_meters":16400,"station_id":"ce4bhgp2rcd13ifvqfc0","pricing_plan_id":"cebpf4jnsgd1na2vs0mg"},{"bike_id":"0f05a555-e598-43c7-bb27-5b9b48daab9f","system_id":"levelo_inurba_marseille","lat":43.24387,"lon":5.37048,"is_reserved":false,"is_disabled":false,"rental_uris":{"android":"levelo://app?vid=0f05a555-e598-43c7-bb27-5b9b48daab9f","ios":"levelo://app?vid=0f05a555-e598-43c7-bb27-5b9b48daab9f"},"vehicle_type_id":"4","last_reported":1740899274,"current_range_meters":16400,"station_id":"ce4bhhh2rcd13ifvqfk0","pricing_plan_id":"cebpf4jnsgd1na2vs0mg"},{"bike_id":"83c87a3f-f875-4ca6-b287-fd750606da22","system_id":"levelo_inurba_marseille","lat":43.231912,"lon":5.400008,"is_reserved":false,"is_disabled":false,"rental_uris":{"android":"levelo://app?vid=83c87a3f-f875-4ca6-b287-fd750606da22","ios":"levelo://app?vid=83c87a3f-f875-4ca6-b287-fd750606da22"},"vehicle_type_id":"4","last_reported":1740899274,"current_range_meters":16400,"station_id":"ce4bhn12rcd13ifvqgqg","pricing_plan_id":"cebpf4jnsgd1na2vs0mg"},{"bike_id":"78224188-dc58-4b68-82ec-3174e18e9fe2","system_id":"levelo_inurba_marseille","lat":43.272075,"lon":5.391814,"is_reserved":false,"is_disabled":false,"rental_uris":{"android":"levelo://app?vid=78224188-dc58-4b68-82ec-3174e18e9fe2","ios":"levelo://app?vid=78224188-dc58-4b68-82ec-3174e18e9fe2"},"vehicle_type_id":"4","last_reported":1740899274,"current_range_meters":16800,"station_id":"","pricing_plan_id":"cebpf4jnsgd1na2vs0mg"},{"bike_id":"cc836fe0-3cfd-4fe9-beb4-1fec15d76872","system_id":"levelo_inurba_marseille","lat":43.30416,"lon":5.37342,"is_reserved":false,"is_disabled":false,"rental_uris":{"android":"levelo://app?vid=cc836fe0-3cfd-4fe9-beb4-1fec15d76872","ios":"levelo://app?vid=cc836fe0-3cfd-4fe9-beb4-1fec15d76872"},"vehicle_type_id":"4","last_reported":1740899274,"current_range_meters":16800,"station_id":"","pricing_plan_id":"cebpf4jnsgd1na2vs0mg"},{"bike_id":"deffce95-b5c0-417b-9e47-20e943ab4dfb","system_id":"levelo_inurba_marseille","lat":43.31347,"lon":5.36727,"is_reserved":false,"is_disabled":false,"rental_uris":{"android":"levelo://app?vid=deffce95-b5c0-417b-9e47-20e943ab4dfb","ios":"levelo://app?vid=deffce95-b5c0-417b-9e47-20e943ab4dfb"},"vehicle_type_id":"4","last_reported":1740899274,"current_range_meters":16800,"station_id":"ce4bgr92rcd13ifvqc6g","pricing_plan_id":"cebpf4jnsgd1na2vs0mg"},{"bike_id":"319abd2e-fb1d-4d18-9162-7ce610338051","system_id":"levelo_inurba_marseille","lat":43.31062,"lon":5.38357,"is_reserved":false,"is_disabled":false,"rental_uris":{"android":"levelo://app?vid=319abd2e-fb1d-4d18-9162-7ce610338051","ios":"levelo://app?vid=319abd2e-fb1d-4d18-9162-7ce610338051"},"vehicle_type_id":"4","last_reported":1740899274,"current_range_meters":16800,"station_id":"ce4bgv92rcd13ifvqcr0","pricing_plan_id":"cebpf4jnsgd1na2vs0mg"},{"bike_id":"35de5d9e-453d-4b6e-a49a-d72de279088a","system_id":"levelo_inurba_marseille","lat":43.26192,"lon":5.37468,"is_reserved":false,"is_disabled":false,"rental_uris":{"android":"levelo://app?vid=35de5d9e-453d-4b6e-a49a-d72de279088a","ios":"levelo://app?vid=35de5d9e-453d-4b6e-a49a-d72de279088a"},"vehicle_type_id":"4","last_reported":1740899274,"current_range_meters":16800,"station_id":"ce4bhgp2rcd13ifvqfc0","pricing_plan_id":"cebpf4jnsgd1na2vs0mg"},{"bike_id":"5394a918-4b01-4a8a-88ce-d3c6273f3a78","system_id":"levelo_inurba_marseille","lat":43.23181,"lon":5.39994,"is_reserved":false,"is_disabled":false,"rental_uris":{"android":"levelo://app?vid=5394a918-4b01-4a8a-88ce-d3c6273f3a78","ios":"levelo://app?vid=5394a918-4b01-4a8a-88ce-d3c6273f3a78"},"vehicle_type_id":"4","last_reported":1740899274,"current_range_meters":16800,"station_id":"ce4bhn12rcd13ifvqgqg","pricing_plan_id":"cebpf4jnsgd1na2vs0mg"},{"bike_id":"32cadf37-c41d-4a35-803f-aff9c8c2019b","system_id":"levelo_inurba_marseille","lat":43.28696,"lon":5.40012,"is_reserved":false,"is_disabled":false,"rental_uris":{"android":"levelo://app?vid=32cadf37-c41d-4a35-803f-aff9c8c2019b","ios":"levelo://app?vid=32cadf37-c41d-4a35-803f-aff9c8c2019b"},"vehicle_type_id":"4","last_reported":1740899274,"current_range_meters":16800,"station_id":"ce4bho92rcd13ifvqh3g","pricing_plan_id":"cebpf4jnsgd1na2vs0mg"},{"bike_id":"c5b35fc3-133b-4fcd-9bc1-000b1b46221f","system_id":"levelo_inurba_marseille","lat":43.24166,"lon":5.36398,"is_reserved":false,"is_disabled":false,"rental_uris":{"android":"levelo://app?vid=c5b35fc3-133b-4fcd-9bc1-000b1b46221f","ios":"levelo://app?vid=c5b35fc3-133b-4fcd-9bc1-000b1b46221f"},"vehicle_type_id":"4","last_reported":1740899274,"current_range_meters":16800,"station_id":"cpo36qri1sfpv3e86is0","pricing_plan_id":"cebpf4jnsgd1na2vs0mg"},{"bike_id":"d29e82e5-442b-4177-903e-3742ab7d0a8c","system_id":"levelo_inurba_marseille","lat":43.300314,"lon":5.374185,"is_reserved":false,"is_disabled":false,"rental_uris":{"android":"levelo://app?vid=d29e82e5-442b-4177-903e-3742ab7d0a8c","ios":"levelo://app?vid=d29e82e5-442b-4177-903e-3742ab7d0a8c"},"vehicle_type_id":"4","last_reported":1740899274,"current_range_meters":17200,"station_id":"","pricing_plan_id":"cebpf4jnsgd1na2vs0mg"},{"bike_id":"719ef6db-c414-43d3-8272-8f3b5ad61202","system_id":"levelo_inurba_marseille","lat":43.29505,"lon":5.37514,"is_reserved":false,"is_disabled":false,"rental_uris":{"android":"levelo://app?vid=719ef6db-c414-43d3-8272-8f3b5ad61202","ios":"levelo://app?vid=719ef6db-c414-43d3-8272-8f3b5ad61202"},"vehicle_type_id":"4","last_reported":1740899274,"current_range_meters":17200,"station_id":"ce4bgkp2rcd13ifvqbmg","pricing_plan_id":"cebpf4jnsgd1na2vs0mg"},{"bike_id":"e69260b5-1711-443e-b6f4-5183d73c03cb","system_id":"levelo_inurba_marseille","lat":43.3135,"lon":5.38505,"is_reserved":false,"is_disabled":false,"rental_uris":{"android":"levelo://app?vid=e69260b5-1711-443e-b6f4-5183d73c03cb","ios":"levelo://app?vid=e69260b5-1711-443e-b6f4-5183d73c03cb"},"vehicle_type_id":"4","last_reported":1740899274,"current_range_meters":17200,"station_id":"ce4bgt92rcd13ifvqcf0","pricing_plan_id":"cebpf4jnsgd1na2vs0mg"},{"bike_id":"fad345b1-40f6-4e7e-bc52-54e554ce612c","system_id":"levelo_inurba_marseille","lat":43.28724,"lon":5.37941,"is_reserved":false,"is_disabled":false,"rental_uris":{"android":"levelo://app?vid=fad345b1-40f6-4e7e-bc52-54e554ce612c","ios":"levelo://app?vid=fad345b1-40f6-4e7e-bc52-54e554ce612c"},"vehicle_type_id":"4","last_reported":1740899274,"current_range_meters":17200,"station_id":"ce4bh9p2rcd13ifvqec0","pricing_plan_id":"cebpf4jnsgd1na2vs0mg"},{"bike_id":"46b42730-9dd3-44c5-91a9-d6d931f385c3","system_id":"levelo_inurba_marseille","lat":43.254854,"lon":5.376517,"is_reserved":false,"is_disabled":false,"rental_uris":{"android":"levelo://app?vid=46b42730-9dd3-44c5-91a9-d6d931f385c3","ios":"levelo://app?vid=46b42730-9dd3-44c5-91a9-d6d931f385c3"},"vehicle_type_id":"4","last_reported":1740899274,"current_range_meters":17200,"station_id":"ce4bhh12rcd13ifvqff0","pricing_plan_id":"cebpf4jnsgd1na2vs0mg"},{"bike_id":"670122a3-157a-4ef1-82d1-a5574649dac0","system_id":"levelo_inurba_marseille","lat":43.23964,"lon":5.36657,"is_reserved":false,"is_disabled":false,"rental_uris":{"android":"levelo://app?vid=670122a3-157a-4ef1-82d1-a5574649dac0","ios":"levelo://app?vid=670122a3-157a-4ef1-82d1-a5574649dac0"},"vehicle_type_id":"4","last_reported":1740899274,"current_range_meters":17200,"station_id":"ce4bhi12rcd13ifvqfp0","pricing_plan_id":"cebpf4jnsgd1na2vs0mg"},{"bike_id":"d741aaf3-6062-460e-b109-b5b0486e37ac","system_id":"levelo_inurba_marseille","lat":43.2954,"lon":5.4229,"is_reserved":false,"is_disabled":false,"rental_uris":{"android":"levelo://app?vid=d741aaf3-6062-460e-b109-b5b0486e37ac","ios":"levelo://app?vid=d741aaf3-6062-460e-b109-b5b0486e37ac"},"vehicle_type_id":"4","last_reported":1740899274,"current_range_meters":17200,"station_id":"ce4bhph2rcd13ifvqhdg","pricing_plan_id":"cebpf4jnsgd1na2vs0mg"},{"bike_id":"982a6c2e-2f14-45e6-81c3-569abb57b097","system_id":"levelo_inurba_marseille","lat":43.230604,"lon":5.354878,"is_reserved":false,"is_disabled":false,"rental_uris":{"android":"levelo://app?vid=982a6c2e-2f14-45e6-81c3-569abb57b097","ios":"levelo://app?vid=982a6c2e-2f14-45e6-81c3-569abb57b097"},"vehicle_type_id":"4","last_reported":1740899274,"current_range_meters":17200,"station_id":"cpo3342slgdg3j2ifvpg","pricing_plan_id":"cebpf4jnsgd1na2vs0mg"},{"bike_id":"7677f52e-c269-4ae6-9a4d-a36f51bf4aea","system_id":"levelo_inurba_marseille","lat":43.27935,"lon":5.38704,"is_reserved":false,"is_disabled":false,"rental_uris":{"android":"levelo://app?vid=7677f52e-c269-4ae6-9a4d-a36f51bf4aea","ios":"levelo://app?vid=7677f52e-c269-4ae6-9a4d-a36f51bf4aea"},"vehicle_type_id":"4","last_reported":1740899274,"current_range_meters":17600,"station_id":"","pricing_plan_id":"cebpf4jnsgd1na2vs0mg"},{"bike_id":"820c8b76-0cf5-4dee-be14-6b64711321ad","system_id":"levelo_inurba_marseille","lat":43.284668,"lon":5.358805,"is_reserved":false,"is_disabled":false,"rental_uris":{"android":"levelo://app?vid=820c8b76-0cf5-4dee-be14-6b64711321ad","ios":"levelo://app?vid=820c8b76-0cf5-4dee-be14-6b64711321ad"},"vehicle_type_id":"4","last_reported":1740899274,"current_range_meters":17600,"station_id":"ce4bhah2rcd13ifvqei0","pricing_plan_id":"cebpf4jnsgd1na2vs0mg"},{"bike_id":"b7bc7bab-d4be-4174-a464-7dffb7fd3700","system_id":"levelo_inurba_marseille","lat":43.27913,"lon":5.39584,"is_reserved":false,"is_disabled":false,"rental_uris":{"android":"levelo://app?vid=b7bc7bab-d4be-4174-a464-7dffb7fd3700","ios":"levelo://app?vid=b7bc7bab-d4be-4174-a464-7dffb7fd3700"},"vehicle_type_id":"4","last_reported":1740899274,"current_range_meters":17600,"station_id":"ce4bhf92rcd13ifvqf40","pricing_plan_id":"cebpf4jnsgd1na2vs0mg"},{"bike_id":"8c418afa-4a43-45d0-83c2-1c17c420fa81","system_id":"levelo_inurba_marseille","lat":43.262083,"lon":5.37448,"is_reserved":false,"is_disabled":false,"rental_uris":{"android":"levelo://app?vid=8c418afa-4a43-45d0-83c2-1c17c420fa81","ios":"levelo://app?vid=8c418afa-4a43-45d0-83c2-1c17c420fa81"},"vehicle_type_id":"4","last_reported":1740899274,"current_range_meters":17600,"station_id":"ce4bhgp2rcd13ifvqfc0","pricing_plan_id":"cebpf4jnsgd1na2vs0mg"},{"bike_id":"0b85d778-5f42-41f6-99e6-93c2062ce94d","system_id":"levelo_inurba_marseille","lat":43.31699,"lon":5.43702,"is_reserved":false,"is_disabled":false,"rental_uris":{"android":"levelo://app?vid=0b85d778-5f42-41f6-99e6-93c2062ce94d","ios":"levelo://app?vid=0b85d778-5f42-41f6-99e6-93c2062ce94d"},"vehicle_type_id":"4","last_reported":1740899274,"current_range_meters":17600,"station_id":"ce4bhp92rcd13ifvqhcg","pricing_plan_id":"cebpf4jnsgd1na2vs0mg"},{"bike_id":"b30004cc-fcf2-4209-9032-c1b9b157b35a","system_id":"levelo_inurba_marseille","lat":43.29548,"lon":5.42271,"is_reserved":false,"is_disabled":false,"rental_uris":{"android":"levelo://app?vid=b30004cc-fcf2-4209-9032-c1b9b157b35a","ios":"levelo://app?vid=b30004cc-fcf2-4209-9032-c1b9b157b35a"},"vehicle_type_id":"4","last_reported":1740899274,"current_range_meters":17600,"station_id":"ce4bhph2rcd13ifvqhdg","pricing_plan_id":"cebpf4jnsgd1na2vs0mg"},{"bike_id":"23418860-f591-46dc-a2d5-0cc5111bf86a","system_id":"levelo_inurba_marseille","lat":43.26178,"lon":5.42077,"is_reserved":false,"is_disabled":false,"rental_uris":{"android":"levelo://app?vid=23418860-f591-46dc-a2d5-0cc5111bf86a","ios":"levelo://app?vid=23418860-f591-46dc-a2d5-0cc5111bf86a"},"vehicle_type_id":"4","last_reported":1740899274,"current_range_meters":18000,"station_id":"","pricing_plan_id":"cebpf4jnsgd1na2vs0mg"},{"bike_id":"ad3f9331-e2cd-4bf0-845a-bfb8a08a858f","system_id":"levelo_inurba_marseille","lat":43.30165,"lon":5.3977,"is_reserved":false,"is_disabled":false,"rental_uris":{"android":"levelo://app?vid=ad3f9331-e2cd-4bf0-845a-bfb8a08a858f","ios":"levelo://app?vid=ad3f9331-e2cd-4bf0-845a-bfb8a08a858f"},"vehicle_type_id":"4","last_reported":1740899274,"current_range_meters":18000,"station_id":"","pricing_plan_id":"cebpf4jnsgd1na2vs0mg"},{"bike_id":"d7455ef1-0ce2-47d7-a2ab-1379fc9a165f","system_id":"levelo_inurba_marseille","lat":43.27591,"lon":5.36124,"is_reserved":false,"is_disabled":false,"rental_uris":{"android":"levelo://app?vid=d7455ef1-0ce2-47d7-a2ab-1379fc9a165f","ios":"levelo://app?vid=d7455ef1-0ce2-47d7-a2ab-1379fc9a165f"},"vehicle_type_id":"4","last_reported":1740899274,"current_range_meters":18000,"station_id":"ce4bgj92rcd13ifvqbe0","pricing_plan_id":"cebpf4jnsgd1na2vs0mg"},{"bike_id":"ed3fdd04-4f01-4dec-bae0-dc817c8e7da9","system_id":"levelo_inurba_marseille","lat":43.30628,"lon":5.372,"is_reserved":false,"is_disabled":false,"rental_uris":{"android":"levelo://app?vid=ed3fdd04-4f01-4dec-bae0-dc817c8e7da9","ios":"levelo://app?vid=ed3fdd04-4f01-4dec-bae0-dc817c8e7da9"},"vehicle_type_id":"4","last_reported":1740899274,"current_range_meters":18000,"station_id":"ce4bgqh2rcd13ifvqc4g","pricing_plan_id":"cebpf4jnsgd1na2vs0mg"},{"bike_id":"ae8b146d-daad-47c5-8235-24ea2da30b35","system_id":"levelo_inurba_marseille","lat":43.31123,"lon":5.3774,"is_reserved":false,"is_disabled":false,"rental_uris":{"android":"levelo://app?vid=ae8b146d-daad-47c5-8235-24ea2da30b35","ios":"levelo://app?vid=ae8b146d-daad-47c5-8235-24ea2da30b35"},"vehicle_type_id":"4","last_reported":1740899274,"current_range_meters":18000,"station_id":"ce4bgt92rcd13ifvqcg0","pricing_plan_id":"cebpf4jnsgd1na2vs0mg"},{"bike_id":"a0203017-7af2-42d1-8cbe-20465dd07b9e","system_id":"levelo_inurba_marseille","lat":43.3169,"lon":5.4047,"is_reserved":false,"is_disabled":false,"rental_uris":{"android":"levelo://app?vid=a0203017-7af2-42d1-8cbe-20465dd07b9e","ios":"levelo://app?vid=a0203017-7af2-42d1-8cbe-20465dd07b9e"},"vehicle_type_id":"4","last_reported":1740899274,"current_range_meters":18000,"station_id":"ce4bh012rcd13ifvqd00","pricing_plan_id":"cebpf4jnsgd1na2vs0mg"},{"bike_id":"eaa57fee-06ba-46a7-9e6a-dc1c754f60a1","system_id":"levelo_inurba_marseille","lat":43.30646,"lon":5.40092,"is_reserved":false,"is_disabled":false,"rental_uris":{"android":"levelo://app?vid=eaa57fee-06ba-46a7-9e6a-dc1c754f60a1","ios":"levelo://app?vid=eaa57fee-06ba-46a7-9e6a-dc1c754f60a1"},"vehicle_type_id":"4","last_reported":1740899274,"current_range_meters":18000,"station_id":"ce4bh112rcd13ifvqda0","pricing_plan_id":"cebpf4jnsgd1na2vs0mg"},{"bike_id":"417fbd7d-d6d8-4c3a-98dd-ce0156edb9f1","system_id":"levelo_inurba_marseille","lat":43.284234,"lon":5.349944,"is_reserved":false,"is_disabled":false,"rental_uris":{"android":"levelo://app?vid=417fbd7d-d6d8-4c3a-98dd-ce0156edb9f1","ios":"levelo://app?vid=417fbd7d-d6d8-4c3a-98dd-ce0156edb9f1"},"vehicle_type_id":"4","last_reported":1740899274,"current_range_meters":18000,"station_id":"ce4bhbh2rcd13ifvqepg","pricing_plan_id":"cebpf4jnsgd1na2vs0mg"},{"bike_id":"426a327e-17c2-4196-b926-96fb1c073c2b","system_id":"levelo_inurba_marseille","lat":43.27313,"lon":5.39127,"is_reserved":false,"is_disabled":false,"rental_uris":{"android":"levelo://app?vid=426a327e-17c2-4196-b926-96fb1c073c2b","ios":"levelo://app?vid=426a327e-17c2-4196-b926-96fb1c073c2b"},"vehicle_type_id":"4","last_reported":1740899274,"current_range_meters":18000,"station_id":"ce4bhgp2rcd13ifvqfe0","pricing_plan_id":"cebpf4jnsgd1na2vs0mg"},{"bike_id":"aa6a3d6e-55a5-4093-b598-d24e4a99a410","system_id":"levelo_inurba_marseille","lat":43.275563,"lon":5.384162,"is_reserved":false,"is_disabled":false,"rental_uris":{"android":"levelo://app?vid=aa6a3d6e-55a5-4093-b598-d24e4a99a410","ios":"levelo://app?vid=aa6a3d6e-55a5-4093-b598-d24e4a99a410"},"vehicle_type_id":"4","last_reported":1740899274,"current_range_meters":18000,"station_id":"ce4bhh92rcd13ifvqfi0","pricing_plan_id":"cebpf4jnsgd1na2vs0mg"},{"bike_id":"59cc738c-021b-45a9-8981-dff8c811c822","system_id":"levelo_inurba_marseille","lat":43.26216,"lon":5.40464,"is_reserved":false,"is_disabled":false,"rental_uris":{"android":"levelo://app?vid=59cc738c-021b-45a9-8981-dff8c811c822","ios":"levelo://app?vid=59cc738c-021b-45a9-8981-dff8c811c822"},"vehicle_type_id":"4","last_reported":1740899274,"current_range_meters":18000,"station_id":"ce4bhmh2rcd13ifvqgmg","pricing_plan_id":"cebpf4jnsgd1na2vs0mg"},{"bike_id":"52c30768-823c-4f29-9a33-bf074f73acb0","system_id":"levelo_inurba_marseille","lat":43.280778,"lon":5.396726,"is_reserved":false,"is_disabled":false,"rental_uris":{"android":"levelo://app?vid=52c30768-823c-4f29-9a33-bf074f73acb0","ios":"levelo://app?vid=52c30768-823c-4f29-9a33-bf074f73acb0"},"vehicle_type_id":"4","last_reported":1740899274,"current_range_meters":18000,"station_id":"ce4bho12rcd13ifvqh2g","pricing_plan_id":"cebpf4jnsgd1na2vs0mg"},{"bike_id":"f272d3eb-5b50-4b03-a07b-597d54e42bc1","system_id":"levelo_inurba_marseille","lat":43.31143,"lon":5.3872,"is_reserved":false,"is_disabled":false,"rental_uris":{"android":"levelo://app?vid=f272d3eb-5b50-4b03-a07b-597d54e42bc1","ios":"levelo://app?vid=f272d3eb-5b50-4b03-a07b-597d54e42bc1"},"vehicle_type_id":"4","last_reported":1740899274,"current_range_meters":18800,"station_id":"ce4bgv12rcd13ifvqcp0","pricing_plan_id":"cebpf4jnsgd1na2vs0mg"},{"bike_id":"b58db059-3276-43ce-bdfe-55757589d75b","system_id":"levelo_inurba_marseille","lat":43.31158,"lon":5.38724,"is_reserved":false,"is_disabled":false,"rental_uris":{"android":"levelo://app?vid=b58db059-3276-43ce-bdfe-55757589d75b","ios":"levelo://app?vid=b58db059-3276-43ce-bdfe-55757589d75b"},"vehicle_type_id":"4","last_reported":1740899274,"current_range_meters":18800,"station_id":"ce4bgv12rcd13ifvqcp0","pricing_plan_id":"cebpf4jnsgd1na2vs0mg"},{"bike_id":"ffdcdbfc-09a4-45b1-9bf2-534681bcb080","system_id":"levelo_inurba_marseille","lat":43.26177,"lon":5.37467,"is_reserved":false,"is_disabled":false,"rental_uris":{"android":"levelo://app?vid=ffdcdbfc-09a4-45b1-9bf2-534681bcb080","ios":"levelo://app?vid=ffdcdbfc-09a4-45b1-9bf2-534681bcb080"},"vehicle_type_id":"4","last_reported":1740899274,"current_range_meters":18800,"station_id":"ce4bhgp2rcd13ifvqfc0","pricing_plan_id":"cebpf4jnsgd1na2vs0mg"},{"bike_id":"878e906e-1a37-4565-a00a-568de2ee6d31","system_id":"levelo_inurba_marseille","lat":43.24379,"lon":5.3707,"is_reserved":false,"is_disabled":false,"rental_uris":{"android":"levelo://app?vid=878e906e-1a37-4565-a00a-568de2ee6d31","ios":"levelo://app?vid=878e906e-1a37-4565-a00a-568de2ee6d31"},"vehicle_type_id":"4","last_reported":1740899274,"current_range_meters":18800,"station_id":"ce4bhhh2rcd13ifvqfk0","pricing_plan_id":"cebpf4jnsgd1na2vs0mg"},{"bike_id":"e060039f-bbd9-42ae-8c39-601117440931","system_id":"levelo_inurba_marseille","lat":43.24658,"lon":5.38171,"is_reserved":false,"is_disabled":false,"rental_uris":{"android":"levelo://app?vid=e060039f-bbd9-42ae-8c39-601117440931","ios":"levelo://app?vid=e060039f-bbd9-42ae-8c39-601117440931"},"vehicle_type_id":"4","last_reported":1740899274,"current_range_meters":18800,"station_id":"ce4bhih2rcd13ifvqfr0","pricing_plan_id":"cebpf4jnsgd1na2vs0mg"},{"bike_id":"453068aa-c17d-43bf-9cdd-03e2ddd93a1e","system_id":"levelo_inurba_marseille","lat":43.30907,"lon":5.36853,"is_reserved":false,"is_disabled":false,"rental_uris":{"android":"levelo://app?vid=453068aa-c17d-43bf-9cdd-03e2ddd93a1e","ios":"levelo://app?vid=453068aa-c17d-43bf-9cdd-03e2ddd93a1e"},"vehicle_type_id":"4","last_reported":1740899274,"current_range_meters":19200,"station_id":"ce4bgn92rcd13ifvqbvg","pricing_plan_id":"cebpf4jnsgd1na2vs0mg"},{"bike_id":"d7d5621a-531b-4f63-99b0-ea5b09b24407","system_id":"levelo_inurba_marseille","lat":43.24648,"lon":5.38901,"is_reserved":false,"is_disabled":false,"rental_uris":{"android":"levelo://app?vid=d7d5621a-531b-4f63-99b0-ea5b09b24407","ios":"levelo://app?vid=d7d5621a-531b-4f63-99b0-ea5b09b24407"},"vehicle_type_id":"4","last_reported":1740899274,"current_range_meters":19200,"station_id":"ce4bhg12rcd13ifvqf60","pricing_plan_id":"cebpf4jnsgd1na2vs0mg"},{"bike_id":"d683c862-f80a-4b49-8f1e-7d7abb8585bc","system_id":"levelo_inurba_marseille","lat":43.25109,"lon":5.4032,"is_reserved":false,"is_disabled":false,"rental_uris":{"android":"levelo://app?vid=d683c862-f80a-4b49-8f1e-7d7abb8585bc","ios":"levelo://app?vid=d683c862-f80a-4b49-8f1e-7d7abb8585bc"},"vehicle_type_id":"4","last_reported":1740899274,"current_range_meters":19200,"station_id":"ce4bhlh2rcd13ifvqgig","pricing_plan_id":"cebpf4jnsgd1na2vs0mg"},{"bike_id":"32fae168-5de4-475a-bd55-4a77931437e4","system_id":"levelo_inurba_marseille","lat":43.24537,"lon":5.39534,"is_reserved":false,"is_disabled":false,"rental_uris":{"android":"levelo://app?vid=32fae168-5de4-475a-bd55-4a77931437e4","ios":"levelo://app?vid=32fae168-5de4-475a-bd55-4a77931437e4"},"vehicle_type_id":"4","last_reported":1740899274,"current_range_meters":19200,"station_id":"ce4bhlp2rcd13ifvqgjg","pricing_plan_id":"cebpf4jnsgd1na2vs0mg"},{"bike_id":"f56e7994-6710-417d-bccf-005d7f12f8b8","system_id":"levelo_inurba_marseille","lat":43.276269,"lon":5.361116,"is_reserved":false,"is_disabled":false,"rental_uris":{"android":"levelo://app?vid=f56e7994-6710-417d-bccf-005d7f12f8b8","ios":"levelo://app?vid=f56e7994-6710-417d-bccf-005d7f12f8b8"},"vehicle_type_id":"4","last_reported":1740899274,"current_range_meters":19600,"station_id":"ce4bgj92rcd13ifvqbe0","pricing_plan_id":"cebpf4jnsgd1na2vs0mg"},{"bike_id":"069c1166-5158-41b3-9977-e5085ec6d73e","system_id":"levelo_inurba_marseille","lat":43.30416,"lon":5.38903,"is_reserved":false,"is_disabled":false,"rental_uris":{"android":"levelo://app?vid=069c1166-5158-41b3-9977-e5085ec6d73e","ios":"levelo://app?vid=069c1166-5158-41b3-9977-e5085ec6d73e"},"vehicle_type_id":"4","last_reported":1740899274,"current_range_meters":19600,"station_id":"ce4bgk12rcd13ifvqbi0","pricing_plan_id":"cebpf4jnsgd1na2vs0mg"},{"bike_id":"d1c0e715-6329-4d33-8e66-23065f23123c","system_id":"levelo_inurba_marseille","lat":43.284141,"lon":5.349949,"is_reserved":false,"is_disabled":false,"rental_uris":{"android":"levelo://app?vid=d1c0e715-6329-4d33-8e66-23065f23123c","ios":"levelo://app?vid=d1c0e715-6329-4d33-8e66-23065f23123c"},"vehicle_type_id":"4","last_reported":1740899274,"current_range_meters":19600,"station_id":"ce4bhbh2rcd13ifvqepg","pricing_plan_id":"cebpf4jnsgd1na2vs0mg"},{"bike_id":"d77bb8e4-a9b4-4507-b334-f19a9671fd03","system_id":"levelo_inurba_marseille","lat":43.2397,"lon":5.36624,"is_reserved":false,"is_disabled":false,"rental_uris":{"android":"levelo://app?vid=d77bb8e4-a9b4-4507-b334-f19a9671fd03","ios":"levelo://app?vid=d77bb8e4-a9b4-4507-b334-f19a9671fd03"},"vehicle_type_id":"4","last_reported":1740899274,"current_range_meters":19600,"station_id":"ce4bhi12rcd13ifvqfp0","pricing_plan_id":"cebpf4jnsgd1na2vs0mg"},{"bike_id":"c998d71d-70fb-4a65-865b-053b01eba41f","system_id":"levelo_inurba_marseille","lat":43.27485,"lon":5.42463,"is_reserved":false,"is_disabled":false,"rental_uris":{"android":"levelo://app?vid=c998d71d-70fb-4a65-865b-053b01eba41f","ios":"levelo://app?vid=c998d71d-70fb-4a65-865b-053b01eba41f"},"vehicle_type_id":"4","last_reported":1740899274,"current_range_meters":19600,"station_id":"ce4bhn92rcd13ifvqgrg","pricing_plan_id":"cebpf4jnsgd1na2vs0mg"},{"bike_id":"76394e5b-b5d3-409a-954a-e09b2559a295","system_id":"levelo_inurba_marseille","lat":43.23194,"lon":5.35558,"is_reserved":false,"is_disabled":false,"rental_uris":{"android":"levelo://app?vid=76394e5b-b5d3-409a-954a-e09b2559a295","ios":"levelo://app?vid=76394e5b-b5d3-409a-954a-e09b2559a295"},"vehicle_type_id":"4","last_reported":1740899274,"current_range_meters":19600,"station_id":"ce4bhu92rcd13ifvqi70","pricing_plan_id":"cebpf4jnsgd1na2vs0mg"},{"bike_id":"76f0ecc2-74d2-4458-9089-c4bdf8553e65","system_id":"levelo_inurba_marseille","lat":43.27181,"lon":5.41866,"is_reserved":false,"is_disabled":false,"rental_uris":{"android":"levelo://app?vid=76f0ecc2-74d2-4458-9089-c4bdf8553e65","ios":"levelo://app?vid=76f0ecc2-74d2-4458-9089-c4bdf8553e65"},"vehicle_type_id":"4","last_reported":1740899274,"current_range_meters":20000,"station_id":"","pricing_plan_id":"cebpf4jnsgd1na2vs0mg"},{"bike_id":"724aa8a6-9860-420a-85a8-0833ed500836","system_id":"levelo_inurba_marseille","lat":43.31142,"lon":5.37763,"is_reserved":false,"is_disabled":false,"rental_uris":{"android":"levelo://app?vid=724aa8a6-9860-420a-85a8-0833ed500836","ios":"levelo://app?vid=724aa8a6-9860-420a-85a8-0833ed500836"},"vehicle_type_id":"4","last_reported":1740899274,"current_range_meters":20000,"station_id":"ce4bgt92rcd13ifvqcg0","pricing_plan_id":"cebpf4jnsgd1na2vs0mg"},{"bike_id":"3b77ce11-c991-41c5-aaeb-e13aac4b5826","system_id":"levelo_inurba_marseille","lat":43.31733,"lon":5.4045,"is_reserved":false,"is_disabled":false,"rental_uris":{"android":"levelo://app?vid=3b77ce11-c991-41c5-aaeb-e13aac4b5826","ios":"levelo://app?vid=3b77ce11-c991-41c5-aaeb-e13aac4b5826"},"vehicle_type_id":"4","last_reported":1740899274,"current_range_meters":20000,"station_id":"ce4bh012rcd13ifvqd00","pricing_plan_id":"cebpf4jnsgd1na2vs0mg"},{"bike_id":"5a71e13e-40a0-47fd-8e3c-cc516c9f5be6","system_id":"levelo_inurba_marseille","lat":43.29252,"lon":5.40906,"is_reserved":false,"is_disabled":false,"rental_uris":{"android":"levelo://app?vid=5a71e13e-40a0-47fd-8e3c-cc516c9f5be6","ios":"levelo://app?vid=5a71e13e-40a0-47fd-8e3c-cc516c9f5be6"},"vehicle_type_id":"4","last_reported":1740899274,"current_range_meters":20000,"station_id":"ce4bh192rcd13ifvqdc0","pricing_plan_id":"cebpf4jnsgd1na2vs0mg"},{"bike_id":"897cce72-1188-41df-a86c-af5ae19f2048","system_id":"levelo_inurba_marseille","lat":43.29051,"lon":5.35938,"is_reserved":false,"is_disabled":false,"rental_uris":{"android":"levelo://app?vid=897cce72-1188-41df-a86c-af5ae19f2048","ios":"levelo://app?vid=897cce72-1188-41df-a86c-af5ae19f2048"},"vehicle_type_id":"4","last_reported":1740899274,"current_range_meters":20000,"station_id":"ce4bha92rcd13ifvqeg0","pricing_plan_id":"cebpf4jnsgd1na2vs0mg"},{"bike_id":"8b8dac59-5a32-461f-b294-2e7dfb0d9559","system_id":"levelo_inurba_marseille","lat":43.24775,"lon":5.37469,"is_reserved":false,"is_disabled":false,"rental_uris":{"android":"levelo://app?vid=8b8dac59-5a32-461f-b294-2e7dfb0d9559","ios":"levelo://app?vid=8b8dac59-5a32-461f-b294-2e7dfb0d9559"},"vehicle_type_id":"4","last_reported":1740899274,"current_range_meters":20000,"station_id":"ce4bhgh2rcd13ifvqfb0","pricing_plan_id":"cebpf4jnsgd1na2vs0mg"},{"bike_id":"7102e443-24e0-4597-865d-0d8a0e456234","system_id":"levelo_inurba_marseille","lat":43.25115,"lon":5.40331,"is_reserved":false,"is_disabled":false,"rental_uris":{"android":"levelo://app?vid=7102e443-24e0-4597-865d-0d8a0e456234","ios":"levelo://app?vid=7102e443-24e0-4597-865d-0d8a0e456234"},"vehicle_type_id":"4","last_reported":1740899274,"current_range_meters":20000,"station_id":"ce4bhlh2rcd13ifvqgig","pricing_plan_id":"cebpf4jnsgd1na2vs0mg"},{"bike_id":"af96de68-672c-4869-9dea-d06f90b00b70","system_id":"levelo_inurba_marseille","lat":43.26214,"lon":5.40464,"is_reserved":false,"is_disabled":false,"rental_uris":{"android":"levelo://app?vid=af96de68-672c-4869-9dea-d06f90b00b70","ios":"levelo://app?vid=af96de68-672c-4869-9dea-d06f90b00b70"},"vehicle_type_id":"4","last_reported":1740899274,"current_range_meters":20000,"station_id":"ce4bhmh2rcd13ifvqgmg","pricing_plan_id":"cebpf4jnsgd1na2vs0mg"},{"bike_id":"bdcb3a76-1fb1-4027-8ea9-2f7950d1e77a","system_id":"levelo_inurba_marseille","lat":43.23189,"lon":5.39977,"is_reserved":false,"is_disabled":false,"rental_uris":{"android":"levelo://app?vid=bdcb3a76-1fb1-4027-8ea9-2f7950d1e77a","ios":"levelo://app?vid=bdcb3a76-1fb1-4027-8ea9-2f7950d1e77a"},"vehicle_type_id":"4","last_reported":1740899274,"current_range_meters":20000,"station_id":"ce4bhn12rcd13ifvqgqg","pricing_plan_id":"cebpf4jnsgd1na2vs0mg"},{"bike_id":"ee64b076-db53-4a07-8a61-f790fb3d7f18","system_id":"levelo_inurba_marseille","lat":43.29598,"lon":5.37335,"is_reserved":false,"is_disabled":false,"rental_uris":{"android":"levelo://app?vid=ee64b076-db53-4a07-8a61-f790fb3d7f18","ios":"levelo://app?vid=ee64b076-db53-4a07-8a61-f790fb3d7f18"},"vehicle_type_id":"4","last_reported":1740899274,"current_range_meters":20400,"station_id":"","pricing_plan_id":"cebpf4jnsgd1na2vs0mg"},{"bike_id":"fc340232-711b-42bd-877d-07c90d091e4a","system_id":"levelo_inurba_marseille","lat":43.30536,"lon":5.3653,"is_reserved":false,"is_disabled":false,"rental_uris":{"android":"levelo://app?vid=fc340232-711b-42bd-877d-07c90d091e4a","ios":"levelo://app?vid=fc340232-711b-42bd-877d-07c90d091e4a"},"vehicle_type_id":"4","last_reported":1740899274,"current_range_meters":20400,"station_id":"ce4bgs12rcd13ifvqcag","pricing_plan_id":"cebpf4jnsgd1na2vs0mg"},{"bike_id":"6bb507ed-81ef-4820-85a8-c7226219068f","system_id":"levelo_inurba_marseille","lat":43.30269,"lon":5.37725,"is_reserved":false,"is_disabled":false,"rental_uris":{"android":"levelo://app?vid=6bb507ed-81ef-4820-85a8-c7226219068f","ios":"levelo://app?vid=6bb507ed-81ef-4820-85a8-c7226219068f"},"vehicle_type_id":"4","last_reported":1740899274,"current_range_meters":20400,"station_id":"ce4bguh2rcd13ifvqcj0","pricing_plan_id":"cebpf4jnsgd1na2vs0mg"},{"bike_id":"a06ffb0f-b127-4dfb-b837-a459af22c2c9","system_id":"levelo_inurba_marseille","lat":43.28495,"lon":5.38542,"is_reserved":false,"is_disabled":false,"rental_uris":{"android":"levelo://app?vid=a06ffb0f-b127-4dfb-b837-a459af22c2c9","ios":"levelo://app?vid=a06ffb0f-b127-4dfb-b837-a459af22c2c9"},"vehicle_type_id":"4","last_reported":1740899274,"current_range_meters":20400,"station_id":"ce4bh8p2rcd13ifvqeb0","pricing_plan_id":"cebpf4jnsgd1na2vs0mg"},{"bike_id":"5830cc6e-a7dc-483d-9aa2-51039e8ce5f6","system_id":"levelo_inurba_marseille","lat":43.27872,"lon":5.37987,"is_reserved":false,"is_disabled":false,"rental_uris":{"android":"levelo://app?vid=5830cc6e-a7dc-483d-9aa2-51039e8ce5f6","ios":"levelo://app?vid=5830cc6e-a7dc-483d-9aa2-51039e8ce5f6"},"vehicle_type_id":"4","last_reported":1740899274,"current_range_meters":20400,"station_id":"ce4bhf92rcd13ifvqf50","pricing_plan_id":"cebpf4jnsgd1na2vs0mg"},{"bike_id":"0426b467-687f-4f85-94ac-c3a52f78d7ff","system_id":"levelo_inurba_marseille","lat":43.26677,"lon":5.38265,"is_reserved":false,"is_disabled":false,"rental_uris":{"android":"levelo://app?vid=0426b467-687f-4f85-94ac-c3a52f78d7ff","ios":"levelo://app?vid=0426b467-687f-4f85-94ac-c3a52f78d7ff"},"vehicle_type_id":"4","last_reported":1740899274,"current_range_meters":20400,"station_id":"ce4bhg92rcd13ifvqf90","pricing_plan_id":"cebpf4jnsgd1na2vs0mg"},{"bike_id":"2f6d9005-3f35-4b00-9bcc-f9a72fab2aa5","system_id":"levelo_inurba_marseille","lat":43.3188,"lon":5.4074,"is_reserved":false,"is_disabled":false,"rental_uris":{"android":"levelo://app?vid=2f6d9005-3f35-4b00-9bcc-f9a72fab2aa5","ios":"levelo://app?vid=2f6d9005-3f35-4b00-9bcc-f9a72fab2aa5"},"vehicle_type_id":"4","last_reported":1740899274,"current_range_meters":20400,"station_id":"ce4bhq12rcd13ifvqhig","pricing_plan_id":"cebpf4jnsgd1na2vs0mg"},{"bike_id":"ed491b15-6729-4f2a-a719-7dd0cae3ca78","system_id":"levelo_inurba_marseille","lat":43.30582,"lon":5.3727,"is_reserved":false,"is_disabled":false,"rental_uris":{"android":"levelo://app?vid=ed491b15-6729-4f2a-a719-7dd0cae3ca78","ios":"levelo://app?vid=ed491b15-6729-4f2a-a719-7dd0cae3ca78"},"vehicle_type_id":"4","last_reported":1740899274,"current_range_meters":20800,"station_id":"ce4bgqh2rcd13ifvqc4g","pricing_plan_id":"cebpf4jnsgd1na2vs0mg"},{"bike_id":"6fb59163-66b4-464b-81f5-e58e89bd56a3","system_id":"levelo_inurba_marseille","lat":43.30458,"lon":5.37906,"is_reserved":false,"is_disabled":false,"rental_uris":{"android":"levelo://app?vid=6fb59163-66b4-464b-81f5-e58e89bd56a3","ios":"levelo://app?vid=6fb59163-66b4-464b-81f5-e58e89bd56a3"},"vehicle_type_id":"4","last_reported":1740899274,"current_range_meters":20800,"station_id":"ce4bgup2rcd13ifvqcn0","pricing_plan_id":"cebpf4jnsgd1na2vs0mg"},{"bike_id":"f259daad-c89f-444d-aefc-c4cdbeff563d","system_id":"levelo_inurba_marseille","lat":43.30648,"lon":5.40078,"is_reserved":false,"is_disabled":false,"rental_uris":{"android":"levelo://app?vid=f259daad-c89f-444d-aefc-c4cdbeff563d","ios":"levelo://app?vid=f259daad-c89f-444d-aefc-c4cdbeff563d"},"vehicle_type_id":"4","last_reported":1740899274,"current_range_meters":20800,"station_id":"ce4bh112rcd13ifvqda0","pricing_plan_id":"cebpf4jnsgd1na2vs0mg"},{"bike_id":"360cb8fb-ae2d-4942-a777-0b20fe1843ea","system_id":"levelo_inurba_marseille","lat":43.265509,"lon":5.372796,"is_reserved":false,"is_disabled":false,"rental_uris":{"android":"levelo://app?vid=360cb8fb-ae2d-4942-a777-0b20fe1843ea","ios":"levelo://app?vid=360cb8fb-ae2d-4942-a777-0b20fe1843ea"},"vehicle_type_id":"4","last_reported":1740899274,"current_range_meters":20800,"station_id":"ce4bhg12rcd13ifvqf70","pricing_plan_id":"cebpf4jnsgd1na2vs0mg"},{"bike_id":"fd351392-8b14-4c01-8023-5ff7d23da5cf","system_id":"levelo_inurba_marseille","lat":43.26561,"lon":5.37302,"is_reserved":false,"is_disabled":false,"rental_uris":{"android":"levelo://app?vid=fd351392-8b14-4c01-8023-5ff7d23da5cf","ios":"levelo://app?vid=fd351392-8b14-4c01-8023-5ff7d23da5cf"},"vehicle_type_id":"4","last_reported":1740899274,"current_range_meters":20800,"station_id":"ce4bhg12rcd13ifvqf70","pricing_plan_id":"cebpf4jnsgd1na2vs0mg"},{"bike_id":"bc916fbe-3905-4d9c-b367-4f1dbc4aac09","system_id":"levelo_inurba_marseille","lat":43.27311,"lon":5.39124,"is_reserved":false,"is_disabled":false,"rental_uris":{"android":"levelo://app?vid=bc916fbe-3905-4d9c-b367-4f1dbc4aac09","ios":"levelo://app?vid=bc916fbe-3905-4d9c-b367-4f1dbc4aac09"},"vehicle_type_id":"4","last_reported":1740899274,"current_range_meters":20800,"station_id":"ce4bhgp2rcd13ifvqfe0","pricing_plan_id":"cebpf4jnsgd1na2vs0mg"},{"bike_id":"81389cd8-51fb-45ff-ad9c-7bca8b462d46","system_id":"levelo_inurba_marseille","lat":43.25922,"lon":5.40906,"is_reserved":false,"is_disabled":false,"rental_uris":{"android":"levelo://app?vid=81389cd8-51fb-45ff-ad9c-7bca8b462d46","ios":"levelo://app?vid=81389cd8-51fb-45ff-ad9c-7bca8b462d46"},"vehicle_type_id":"4","last_reported":1740899274,"current_range_meters":20800,"station_id":"ce4bhm92rcd13ifvqglg","pricing_plan_id":"cebpf4jnsgd1na2vs0mg"},{"bike_id":"78161bf6-54be-4660-9185-dd97c4ac7322","system_id":"levelo_inurba_marseille","lat":43.26217,"lon":5.40456,"is_reserved":false,"is_disabled":false,"rental_uris":{"android":"levelo://app?vid=78161bf6-54be-4660-9185-dd97c4ac7322","ios":"levelo://app?vid=78161bf6-54be-4660-9185-dd97c4ac7322"},"vehicle_type_id":"4","last_reported":1740899274,"current_range_meters":20800,"station_id":"ce4bhmh2rcd13ifvqgmg","pricing_plan_id":"cebpf4jnsgd1na2vs0mg"},{"bike_id":"8a247025-ec00-48d3-824a-482c59b16425","system_id":"levelo_inurba_marseille","lat":43.31008,"lon":5.38347,"is_reserved":false,"is_disabled":false,"rental_uris":{"android":"levelo://app?vid=8a247025-ec00-48d3-824a-482c59b16425","ios":"levelo://app?vid=8a247025-ec00-48d3-824a-482c59b16425"},"vehicle_type_id":"4","last_reported":1740899274,"current_range_meters":21600,"station_id":"","pricing_plan_id":"cebpf4jnsgd1na2vs0mg"},{"bike_id":"4fb82f53-d921-4e34-9bfd-63bd8822c151","system_id":"levelo_inurba_marseille","lat":43.302879,"lon":5.377024,"is_reserved":false,"is_disabled":false,"rental_uris":{"android":"levelo://app?vid=4fb82f53-d921-4e34-9bfd-63bd8822c151","ios":"levelo://app?vid=4fb82f53-d921-4e34-9bfd-63bd8822c151"},"vehicle_type_id":"4","last_reported":1740899274,"current_range_meters":21600,"station_id":"ce4bguh2rcd13ifvqcj0","pricing_plan_id":"cebpf4jnsgd1na2vs0mg"},{"bike_id":"9b7999f1-4bc6-4c0c-be0a-2bd0edeaf0d4","system_id":"levelo_inurba_marseille","lat":43.288414,"lon":5.358436,"is_reserved":false,"is_disabled":false,"rental_uris":{"android":"levelo://app?vid=9b7999f1-4bc6-4c0c-be0a-2bd0edeaf0d4","ios":"levelo://app?vid=9b7999f1-4bc6-4c0c-be0a-2bd0edeaf0d4"},"vehicle_type_id":"4","last_reported":1740899274,"current_range_meters":21600,"station_id":"ce4bhb12rcd13ifvqem0","pricing_plan_id":"cebpf4jnsgd1na2vs0mg"},{"bike_id":"123d5adf-8e93-46cc-93b8-80cd2a012f7c","system_id":"levelo_inurba_marseille","lat":43.27094,"lon":5.42257,"is_reserved":false,"is_disabled":false,"rental_uris":{"android":"levelo://app?vid=123d5adf-8e93-46cc-93b8-80cd2a012f7c","ios":"levelo://app?vid=123d5adf-8e93-46cc-93b8-80cd2a012f7c"},"vehicle_type_id":"4","last_reported":1740899274,"current_range_meters":21600,"station_id":"ce4bhk92rcd13ifvqgb0","pricing_plan_id":"cebpf4jnsgd1na2vs0mg"},{"bike_id":"01e049af-0789-4a36-bd5f-ff83f6dddbf2","system_id":"levelo_inurba_marseille","lat":43.2511,"lon":5.4033,"is_reserved":false,"is_disabled":false,"rental_uris":{"android":"levelo://app?vid=01e049af-0789-4a36-bd5f-ff83f6dddbf2","ios":"levelo://app?vid=01e049af-0789-4a36-bd5f-ff83f6dddbf2"},"vehicle_type_id":"4","last_reported":1740899274,"current_range_meters":21600,"station_id":"ce4bhlh2rcd13ifvqgig","pricing_plan_id":"cebpf4jnsgd1na2vs0mg"},{"bike_id":"e0f1ca5c-551f-4d15-b901-627ce4482eed","system_id":"levelo_inurba_marseille","lat":43.28735,"lon":5.36085,"is_reserved":false,"is_disabled":false,"rental_uris":{"android":"levelo://app?vid=e0f1ca5c-551f-4d15-b901-627ce4482eed","ios":"levelo://app?vid=e0f1ca5c-551f-4d15-b901-627ce4482eed"},"vehicle_type_id":"4","last_reported":1740899274,"current_range_meters":21600,"station_id":"cki0cbj6b192h4jlfktg","pricing_plan_id":"cebpf4jnsgd1na2vs0mg"},{"bike_id":"5fbf0ed4-e0de-4916-a211-f4961d20e0d4","system_id":"levelo_inurba_marseille","lat":43.290194,"lon":5.381324,"is_reserved":false,"is_disabled":false,"rental_uris":{"android":"levelo://app?vid=5fbf0ed4-e0de-4916-a211-f4961d20e0d4","ios":"levelo://app?vid=5fbf0ed4-e0de-4916-a211-f4961d20e0d4"},"vehicle_type_id":"4","last_reported":1740899274,"current_range_meters":22000,"station_id":"ce4bh2p2rcd13ifvqdi0","pricing_plan_id":"cebpf4jnsgd1na2vs0mg"},{"bike_id":"f468e213-926e-470a-8e79-e04571cf82e6","system_id":"levelo_inurba_marseille","lat":43.28433,"lon":5.35927,"is_reserved":false,"is_disabled":false,"rental_uris":{"android":"levelo://app?vid=f468e213-926e-470a-8e79-e04571cf82e6","ios":"levelo://app?vid=f468e213-926e-470a-8e79-e04571cf82e6"},"vehicle_type_id":"4","last_reported":1740899274,"current_range_meters":22000,"station_id":"ce4bhah2rcd13ifvqei0","pricing_plan_id":"cebpf4jnsgd1na2vs0mg"},{"bike_id":"3bc08441-4826-48b6-a7e2-7e3821e381df","system_id":"levelo_inurba_marseille","lat":43.28418,"lon":5.34996,"is_reserved":false,"is_disabled":false,"rental_uris":{"android":"levelo://app?vid=3bc08441-4826-48b6-a7e2-7e3821e381df","ios":"levelo://app?vid=3bc08441-4826-48b6-a7e2-7e3821e381df"},"vehicle_type_id":"4","last_reported":1740899274,"current_range_meters":22000,"station_id":"ce4bhbh2rcd13ifvqepg","pricing_plan_id":"cebpf4jnsgd1na2vs0mg"},