{"last_updated":1726884389,"ttl":30,"version":"2.2","data":{"bikes":[{"bike_id":"e769845e-e44b-4332-afb8-e64ecf4e8b70","system_id":"levelo_inurba_marseille","lat":43.28852,"lon":5.39318,"is_reserved":false,"is_disabled":false,"rental_uris":{"android":"levelo://app?vid=e769845e-e44b-4332-afb8-e64ecf4e8b70","ios":"levelo://app?vid=e769845e-e44b-4332-afb8-e64ecf4e8b70"},"vehicle_type_id":"4","last_reported":1726884389,"current_range_meters":38800,"station_id":"ce4bh2p2rcd13ifvqdi0","pricing_plan_id":"cebpf4jnsgd1na2vs0mg"},{"bike_id":"0bbee90f-8502-443f-ba84-24be626a4a28","system_id":"levelo_inurba_marseille","lat":43.28172,"lon":5.42618,"is_reserved":false,"is_disabled":false,"rental_uris":{"android":"levelo://app?vid=0bbee90f-8502-443f-ba84-24be626a4a28","ios":"levelo://app?vid=0bbee90f-8502-443f-ba84-24be626a4a28"},"vehicle_type_id":"4","last_reported":1726884389,"current_range_meters":11200,"station_id":"ce4bhnh2rcd13ifvqgug","pricing_plan_id":"cebpf4jnsgd1na2vs0mg"},{"bike_id":"49179981-9681-4c43-86b6-a87d0ab4704f","system_id":"levelo_inurba_marseille","lat":43.27998,"lon":5.40009,"is_reserved":false,"is_disabled":false,"rental_uris":{"android":"levelo://app?vid=49179981-9681-4c43-86b6-a87d0ab4704f","ios":"levelo://app?vid=49179981-9681-4c43-86b6-a87d0ab4704f"},"vehicle_type_id":"4","last_reported":1726884389,"current_range_meters":34800,"station_id":"ce4bho92rcd13ifvqh4g","pricing_plan_id":"cebpf4jnsgd1na2vs0mg"},{"bike_id":"f7c34fc3-9eaa-4df1-b9d8-07dee8a7fadd","system_id":"levelo_inurba_marseille","lat":43.2847,"lon":5.35881,"is_reserved":false,"is_disabled":false,"rental_uris":{"android":"levelo://app?vid=f7c34fc3-9eaa-4df1-b9d8-07dee8a7fadd","ios":"levelo://app?vid=f7c34fc3-9eaa-4df1-b9d8-07dee8a7fadd"},"vehicle_type_id":"4","last_reported":1726884389,"current_range_meters":38800,"station_id":"ce4bhah2rcd13ifvqei0","pricing_plan_id":"cebpf4jnsgd1na2vs0mg"},{"bike_id":"50f77829-1fd0-4e61-83e8-39a2571134ad","system_id":"levelo_inurba_marseille","lat":43.26568,"lon":5.39009,"is_reserved":false,"is_disabled":false,"rental_uris":{"android":"levelo://app?vid=50f77829-1fd0-4e61-83e8-39a2571134ad","ios":"levelo://app?vid=50f77829-1fd0-4e61-83e8-39a2571134ad"},"vehicle_type_id":"4","last_reported":1726884389,"current_range_meters":12800,"station_id":"ce4bhe12rcd13ifvqf30","pricing_plan_id":"cebpf4jnsgd1na2vs0mg"},{"bike_id":"587d7b37-4b14-4f39-b381-441766fdc403","system_id":"levelo_inurba_marseille","lat":43.28154,"lon":5.42647,"is_reserved":false,"is_disabled":false,"rental_uris":{"android":"levelo://app?vid=587d7b37-4b14-4f39-b381-441766fdc403","ios":"levelo://app?vid=587d7b37-4b14-4f39-b381-441766fdc403"},"vehicle_type_id":"4","last_reported":1726884389,"current_range_meters":32400,"station_id":"ce4bhnh2rcd13ifvqgug","pricing_plan_id":"cebpf4jnsgd1na2vs0mg"},{"bike_id":"c943e2f3-933e-4efb-97de-45246d483f08","system_id":"levelo_inurba_marseille","lat":43.2656,"lon":5.37288,"is_reserved":false,"is_disabled":false,"rental_uris":{"android":"levelo://app?vid=c943e2f3-933e-4efb-97de-45246d483f08","ios":"levelo://app?vid=c943e2f3-933e-4efb-97de-45246d483f08"},"vehicle_type_id":"4","last_reported":1726884389,"current_range_meters":12800,"station_id":"ce4bhg12rcd13ifvqf70","pricing_plan_id":"cebpf4jnsgd1na2vs0mg"},{"bike_id":"caeb01e1-f6ca-4785-8d66-d5a031a43aa7","system_id":"levelo_inurba_marseille","lat":43.25089,"lon":5.39508,"is_reserved":false,"is_disabled":false,"rental_uris":{"android":"levelo://app?vid=caeb01e1-f6ca-4785-8d66-d5a031a43aa7","ios":"levelo://app?vid=caeb01e1-f6ca-4785-8d66-d5a031a43aa7"},"vehicle_type_id":"4","last_reported":1726884389,"current_range_meters":33600,"station_id":"ce4bhm12rcd13ifvqgkg","pricing_plan_id":"cebpf4jnsgd1na2vs0mg"},{"bike_id":"f6ef3552-3f9a-4d61-acb2-a4d0e1d60976","system_id":"levelo_inurba_marseille","lat":43.30935,"lon":5.40158,"is_reserved":false,"is_disabled":false,"rental_uris":{"android":"levelo://app?vid=f6ef3552-3f9a-4d61-acb2-a4d0e1d60976","ios":"levelo://app?vid=f6ef3552-3f9a-4d61-acb2-a4d0e1d60976"},"vehicle_type_id":"4","last_reported":1726884389,"current_range_meters":19600,"station_id":"ce4bgvp2rcd13ifvqct0","pricing_plan_id":"cebpf4jnsgd1na2vs0mg"},{"bike_id":"ce176230-2a5f-4ff6-b56e-d284477422aa","system_id":"levelo_inurba_marseille","lat":43.31088,"lon":5.38367,"is_reserved":false,"is_disabled":false,"rental_uris":{"android":"levelo://app?vid=ce176230-2a5f-4ff6-b56e-d284477422aa","ios":"levelo://app?vid=ce176230-2a5f-4ff6-b56e-d284477422aa"},"vehicle_type_id":"4","last_reported":1726884389,"current_range_meters":35200,"station_id":"ce4bgv92rcd13ifvqcr0","pricing_plan_id":"cebpf4jnsgd1na2vs0mg"},{"bike_id":"9709b754-0f7e-4cdd-828f-ce7d6859c431","system_id":"levelo_inurba_marseille","lat":43.29261,"lon":5.40928,"is_reserved":false,"is_disabled":false,"rental_uris":{"android":"levelo://app?vid=9709b754-0f7e-4cdd-828f-ce7d6859c431","ios":"levelo://app?vid=9709b754-0f7e-4cdd-828f-ce7d6859c431"},"vehicle_type_id":"4","last_reported":1726884389,"current_range_meters":38800,"station_id":"ce4bh192rcd13ifvqdc0","pricing_plan_id":"cebpf4jnsgd1na2vs0mg"},{"bike_id":"c7578a98-3e33-46e3-8817-30f14b194cac","system_id":"levelo_inurba_marseille","lat":43.27498,"lon":5.42444,"is_reserved":false,"is_disabled":false,"rental_uris":{"android":"levelo://app?vid=c7578a98-3e33-46e3-8817-30f14b194cac","ios":"levelo://app?vid=c7578a98-3e33-46e3-8817-30f14b194cac"},"vehicle_type_id":"4","last_reported":1726884389,"current_range_meters":16800,"station_id":"ce4bhn92rcd13ifvqgrg","pricing_plan_id":"cebpf4jnsgd1na2vs0mg"},{"bike_id":"e24ec35c-a6fd-4e4d-86e7-6c421a88fb24","system_id":"levelo_inurba_marseille","lat":43.28099,"lon":5.3784,"is_reserved":false,"is_disabled":false,"rental_uris":{"android":"levelo://app?vid=e24ec35c-a6fd-4e4d-86e7-6c421a88fb24","ios":"levelo://app?vid=e24ec35c-a6fd-4e4d-86e7-6c421a88fb24"},"vehicle_type_id":"4","last_reported":1726884389,"current_range_meters":37600,"station_id":"ce4bha12rcd13ifvqee0","pricing_plan_id":"cebpf4jnsgd1na2vs0mg"},{"bike_id":"ce0f4ebe-c6f4-43f8-958e-af9ec114cf5f","system_id":"levelo_inurba_marseille","lat":43.28828,"lon":5.35876,"is_reserved":false,"is_disabled":false,"rental_uris":{"android":"levelo://app?vid=ce0f4ebe-c6f4-43f8-958e-af9ec114cf5f","ios":"levelo://app?vid=ce0f4ebe-c6f4-43f8-958e-af9ec114cf5f"},"vehicle_type_id":"4","last_reported":1726884389,"current_range_meters":38800,"station_id":"ce4bhb12rcd13ifvqem0","pricing_plan_id":"cebpf4jnsgd1na2vs0mg"},{"bike_id":"ee901733-221f-45e9-8403-c57240140d10","system_id":"levelo_inurba_marseille","lat":43.33602,"lon":5.41036,"is_reserved":false,"is_disabled":false,"rental_uris":{"android":"levelo://app?vid=ee901733-221f-45e9-8403-c57240140d10","ios":"levelo://app?vid=ee901733-221f-45e9-8403-c57240140d10"},"vehicle_type_id":"4","last_reported":1726884389,"current_range_meters":2800,"station_id":"ce4bhqh2rcd13ifvqhmg","pricing_plan_id":"cebpf4jnsgd1na2vs0mg"},{"bike_id":"a93e6372-1954-4033-be8e-f284dd6ded89","system_id":"levelo_inurba_marseille","lat":43.28102,"lon":5.37838,"is_reserved":false,"is_disabled":false,"rental_uris":{"android":"levelo://app?vid=a93e6372-1954-4033-be8e-f284dd6ded89","ios":"levelo://app?vid=a93e6372-1954-4033-be8e-f284dd6ded89"},"vehicle_type_id":"4","last_reported":1726884389,"current_range_meters":27600,"station_id":"ce4bha12rcd13ifvqee0","pricing_plan_id":"cebpf4jnsgd1na2vs0mg"},{"bike_id":"03ad0926-1bc9-4ffb-8ecf-df1db6f2a3cb","system_id":"levelo_inurba_marseille","lat":43.30324,"lon":5.36907,"is_reserved":false,"is_disabled":false,"rental_uris":{"android":"levelo://app?vid=03ad0926-1bc9-4ffb-8ecf-df1db6f2a3cb","ios":"levelo://app?vid=03ad0926-1bc9-4ffb-8ecf-df1db6f2a3cb"},"vehicle_type_id":"4","last_reported":1726884389,"current_range_meters":9600,"station_id":"ce4bgqh2rcd13ifvqc5g","pricing_plan_id":"cebpf4jnsgd1na2vs0mg"},{"bike_id":"5f3f2703-e50a-4bcd-94e9-7b782bdf49ca","system_id":"levelo_inurba_marseille","lat":43.25934,"lon":5.4089,"is_reserved":false,"is_disabled":false,"rental_uris":{"android":"levelo://app?vid=5f3f2703-e50a-4bcd-94e9-7b782bdf49ca","ios":"levelo://app?vid=5f3f2703-e50a-4bcd-94e9-7b782bdf49ca"},"vehicle_type_id":"4","last_reported":1726884389,"current_range_meters":38800,"station_id":"ce4bhm92rcd13ifvqglg","pricing_plan_id":"cebpf4jnsgd1na2vs0mg"},{"bike_id":"3fad8533-0341-469f-8cac-7801c9551436","system_id":"levelo_inurba_marseille","lat":43.34155,"lon":5.40912,"is_reserved":false,"is_disabled":false,"rental_uris":{"android":"levelo://app?vid=3fad8533-0341-469f-8cac-7801c9551436","ios":"levelo://app?vid=3fad8533-0341-469f-8cac-7801c9551436"},"vehicle_type_id":"4","last_reported":1726884389,"current_range_meters":30000,"station_id":"ce4bhqh2rcd13ifvqhlg","pricing_plan_id":"cebpf4jnsgd1na2vs0mg"},{"bike_id":"952727d5-10c0-49c8-a6ee-a4efa34b8c23","system_id":"levelo_inurba_marseille","lat":43.23968,"lon":5.36625,"is_reserved":false,"is_disabled":false,"rental_uris":{"android":"levelo://app?vid=952727d5-10c0-49c8-a6ee-a4efa34b8c23","ios":"levelo://app?vid=952727d5-10c0-49c8-a6ee-a4efa34b8c23"},"vehicle_type_id":"4","last_reported":1726884389,"current_range_meters":28000,"station_id":"ce4bhi12rcd13ifvqfp0","pricing_plan_id":"cebpf4jnsgd1na2vs0mg"},{"bike_id":"4fad5d21-3b69-47b0-8238-a453fb3176dc","system_id":"levelo_inurba_marseille","lat":43.30784,"lon":5.37654,"is_reserved":false,"is_disabled":false,"rental_uris":{"android":"levelo://app?vid=4fad5d21-3b69-47b0-8238-a453fb3176dc","ios":"levelo://app?vid=4fad5d21-3b69-47b0-8238-a453fb3176dc"},"vehicle_type_id":"4","last_reported":1726884389,"current_range_meters":26000,"station_id":"ce4bgv92rcd13ifvqcq0","pricing_plan_id":"cebpf4jnsgd1na2vs0mg"},{"bike_id":"d013d7f0-ca41-499b-a43a-d2a4d80ea6cc","system_id":"levelo_inurba_marseille","lat":43.29961,"lon":5.41319,"is_reserved":false,"is_disabled":false,"rental_uris":{"android":"levelo://app?vid=d013d7f0-ca41-499b-a43a-d2a4d80ea6cc","ios":"levelo://app?vid=d013d7f0-ca41-499b-a43a-d2a4d80ea6cc"},"vehicle_type_id":"4","last_reported":1726884389,"current_range_meters":39200,"station_id":"ce4bhp12rcd13ifvqh9g","pricing_plan_id":"cebpf4jnsgd1na2vs0mg"},{"bike_id":"df5e993e-296b-4f33-baf5-eb5fbb9ac75e","system_id":"levelo_inurba_marseille","lat":43.30419,"lon":5.41288,"is_reserved":false,"is_disabled":false,"rental_uris":{"android":"levelo://app?vid=df5e993e-296b-4f33-baf5-eb5fbb9ac75e","ios":"levelo://app?vid=df5e993e-296b-4f33-baf5-eb5fbb9ac75e"},"vehicle_type_id":"4","last_reported":1726884389,"current_range_meters":38000,"station_id":"ce4bhop2rcd13ifvqh8g","pricing_plan_id":"cebpf4jnsgd1na2vs0mg"},{"bike_id":"88aef844-3d5d-4355-afa4-98056f2807be","system_id":"levelo_inurba_marseille","lat":43.32656,"lon":5.40994,"is_reserved":false,"is_disabled":false,"rental_uris":{"android":"levelo://app?vid=88aef844-3d5d-4355-afa4-98056f2807be","ios":"levelo://app?vid=88aef844-3d5d-4355-afa4-98056f2807be"},"vehicle_type_id":"4","last_reported":1726884389,"current_range_meters":38800,"station_id":"ce4bhpp2rcd13ifvqhgg","pricing_plan_id":"cebpf4jnsgd1na2vs0mg"},{"bike_id":"671b7a04-8d95-4060-9f18-c007f432e530","system_id":"levelo_inurba_marseille","lat":43.28857,"lon":5.39305,"is_reserved":false,"is_disabled":false,"rental_uris":{"android":"levelo://app?vid=671b7a04-8d95-4060-9f18-c007f432e530","ios":"levelo://app?vid=671b7a04-8d95-4060-9f18-c007f432e530"},"vehicle_type_id":"4","last_reported":1726884389,"current_range_meters":20800,"station_id":"ce4bh2p2rcd13ifvqdi0","pricing_plan_id":"cebpf4jnsgd1na2vs0mg"},{"bike_id":"75b9a238-0902-4923-870c-463b74d203bd","system_id":"levelo_inurba_marseille","lat":43.2467,"lon":5.38177,"is_reserved":false,"is_disabled":false,"rental_uris":{"android":"levelo://app?vid=75b9a238-0902-4923-870c-463b74d203bd","ios":"levelo://app?vid=75b9a238-0902-4923-870c-463b74d203bd"},"vehicle_type_id":"4","last_reported":1726884389,"current_range_meters":38400,"station_id":"ce4bhih2rcd13ifvqfr0","pricing_plan_id":"cebpf4jnsgd1na2vs0mg"},{"bike_id":"787888e2-6206-46d5-a768-f37fbf332ec0","system_id":"levelo_inurba_marseille","lat":43.25112,"lon":5.40311,"is_reserved":false,"is_disabled":false,"rental_uris":{"android":"levelo://app?vid=787888e2-6206-46d5-a768-f37fbf332ec0","ios":"levelo://app?vid=787888e2-6206-46d5-a768-f37fbf332ec0"},"vehicle_type_id":"4","last_reported":1726884389,"current_range_meters":28400,"station_id":"ce4bhlh2rcd13ifvqgig","pricing_plan_id":"cebpf4jnsgd1na2vs0mg"},{"bike_id":"3cea86a1-9a58-478d-b244-957f4139aef0","system_id":"levelo_inurba_marseille","lat":43.33609,"lon":5.41025,"is_reserved":false,"is_disabled":false,"rental_uris":{"android":"levelo://app?vid=3cea86a1-9a58-478d-b244-957f4139aef0","ios":"levelo://app?vid=3cea86a1-9a58-478d-b244-957f4139aef0"},"vehicle_type_id":"4","last_reported":1726884389,"current_range_meters":39200,"station_id":"ce4bhqh2rcd13ifvqhmg","pricing_plan_id":"cebpf4jnsgd1na2vs0mg"},{"bike_id":"4688c789-e271-4691-8ae6-46b92b1e6e9b","system_id":"levelo_inurba_marseille","lat":43.25573,"lon":5.38261,"is_reserved":false,"is_disabled":false,"rental_uris":{"android":"levelo://app?vid=4688c789-e271-4691-8ae6-46b92b1e6e9b","ios":"levelo://app?vid=4688c789-e271-4691-8ae6-46b92b1e6e9b"},"vehicle_type_id":"4","last_reported":1726884389,"current_range_meters":32400,"station_id":"ce4bhih2rcd13ifvqfs0","pricing_plan_id":"cebpf4jnsgd1na2vs0mg"},{"bike_id":"940f1153-bbd0-42fd-adb3-2c90a460d70b","system_id":"levelo_inurba_marseille","lat":43.27681,"lon":5.38901,"is_reserved":false,"is_disabled":false,"rental_uris":{"android":"levelo://app?vid=940f1153-bbd0-42fd-adb3-2c90a460d70b","ios":"levelo://app?vid=940f1153-bbd0-42fd-adb3-2c90a460d70b"},"vehicle_type_id":"4","last_reported":1726884389,"current_range_meters":24400,"station_id":"ce4bhi12rcd13ifvqfo0","pricing_plan_id":"cebpf4jnsgd1na2vs0mg"},{"bike_id":"257a419d-0eb9-4304-bf32-b7ae767798e2","system_id":"levelo_inurba_marseille","lat":43.28696,"lon":5.39976,"is_reserved":false,"is_disabled":false,"rental_uris":{"android":"levelo://app?vid=257a419d-0eb9-4304-bf32-b7ae767798e2","ios":"levelo://app?vid=257a419d-0eb9-4304-bf32-b7ae767798e2"},"vehicle_type_id":"4","last_reported":1726884389,"current_range_meters":38800,"station_id":"ce4bho92rcd13ifvqh3g","pricing_plan_id":"cebpf4jnsgd1na2vs0mg"},{"bike_id":"83e5d7e1-b7a2-47dc-871d-a20fbcd4f395","system_id":"levelo_inurba_marseille","lat":43.26577,"lon":5.38984,"is_reserved":false,"is_disabled":false,"rental_uris":{"android":"levelo://app?vid=83e5d7e1-b7a2-47dc-871d-a20fbcd4f395","ios":"levelo://app?vid=83e5d7e1-b7a2-47dc-871d-a20fbcd4f395"},"vehicle_type_id":"4","last_reported":1726884389,"current_range_meters":34000,"station_id":"ce4bhe12rcd13ifvqf30","pricing_plan_id":"cebpf4jnsgd1na2vs0mg"},{"bike_id":"548ff5e8-4be6-4fa2-b210-beb1ef8053de","system_id":"levelo_inurba_marseille","lat":43.33023,"lon":5.39043,"is_reserved":false,"is_disabled":false,"rental_uris":{"android":"levelo://app?vid=548ff5e8-4be6-4fa2-b210-beb1ef8053de","ios":"levelo://app?vid=548ff5e8-4be6-4fa2-b210-beb1ef8053de"},"vehicle_type_id":"4","last_reported":1726884389,"current_range_meters":18800,"station_id":"ce4bhr92rcd13ifvqhrg","pricing_plan_id":"cebpf4jnsgd1na2vs0mg"},{"bike_id":"3f133c78-0fe0-41df-9f9a-759a5497f987","system_id":"levelo_inurba_marseille","lat":43.30872,"lon":5.37184,"is_reserved":false,"is_disabled":false,"rental_uris":{"android":"levelo://app?vid=3f133c78-0fe0-41df-9f9a-759a5497f987","ios":"levelo://app?vid=3f133c78-0fe0-41df-9f9a-759a5497f987"},"vehicle_type_id":"4","last_reported":1726884389,"current_range_meters":39200,"station_id":"ce4bguh2rcd13ifvqckg","pricing_plan_id":"cebpf4jnsgd1na2vs0mg"},{"bike_id":"b44f3cd0-6668-407e-84bc-7a73e32c0c41","system_id":"levelo_inurba_marseille","lat":43.27179,"lon":5.4099,"is_reserved":false,"is_disabled":false,"rental_uris":{"android":"levelo://app?vid=b44f3cd0-6668-407e-84bc-7a73e32c0c41","ios":"levelo://app?vid=b44f3cd0-6668-407e-84bc-7a73e32c0c41"},"vehicle_type_id":"4","last_reported":1726884389,"current_range_meters":35600,"station_id":"ce4bhl12rcd13ifvqgf0","pricing_plan_id":"cebpf4jnsgd1na2vs0mg"},{"bike_id":"41a2b490-767a-4eef-80db-88a86b57be07","system_id":"levelo_inurba_marseille","lat":43.30895,"lon":5.39637,"is_reserved":false,"is_disabled":false,"rental_uris":{"android":"levelo://app?vid=41a2b490-767a-4eef-80db-88a86b57be07","ios":"levelo://app?vid=41a2b490-767a-4eef-80db-88a86b57be07"},"vehicle_type_id":"4","last_reported":1726884389,"current_range_meters":24800,"station_id":"ce4bh012rcd13ifvqcv0","pricing_plan_id":"cebpf4jnsgd1na2vs0mg"},{"bike_id":"bca93d5a-66c2-4450-b572-3af58629453b","system_id":"levelo_inurba_marseille","lat":43.28464,"lon":5.38396,"is_reserved":false,"is_disabled":false,"rental_uris":{"android":"levelo://app?vid=bca93d5a-66c2-4450-b572-3af58629453b","ios":"levelo://app?vid=bca93d5a-66c2-4450-b572-3af58629453b"},"vehicle_type_id":"4","last_reported":1726884389,"current_range_meters":28400,"station_id":"ce4bh512rcd13ifvqe3g","pricing_plan_id":"cebpf4jnsgd1na2vs0mg"},{"bike_id":"ee7da271-2586-49b9-8b27-7c1d2ffc4c67","system_id":"levelo_inurba_marseille","lat":43.25114,"lon":5.4032,"is_reserved":false,"is_disabled":false,"rental_uris":{"android":"levelo://app?vid=ee7da271-2586-49b9-8b27-7c1d2ffc4c67","ios":"levelo://app?vid=ee7da271-2586-49b9-8b27-7c1d2ffc4c67"},"vehicle_type_id":"4","last_reported":1726884389,"current_range_meters":30400,"station_id":"ce4bhlh2rcd13ifvqgig","pricing_plan_id":"cebpf4jnsgd1na2vs0mg"},{"bike_id":"395e7bf1-ef0f-4e7e-8553-0ab6663d872d","system_id":"levelo_inurba_marseille","lat":43.28932,"lon":5.36634,"is_reserved":false,"is_disabled":false,"rental_uris":{"android":"levelo://app?vid=395e7bf1-ef0f-4e7e-8553-0ab6663d872d","ios":"levelo://app?vid=395e7bf1-ef0f-4e7e-8553-0ab6663d872d"},"vehicle_type_id":"4","last_reported":1726884389,"current_range_meters":38800,"station_id":"ce4bhap2rcd13ifvqek0","pricing_plan_id":"cebpf4jnsgd1na2vs0mg"},{"bike_id":"46b66742-8367-4779-8589-b1fd80c508c3","system_id":"levelo_inurba_marseille","lat":43.27834,"lon":5.39202,"is_reserved":false,"is_disabled":false,"rental_uris":{"android":"levelo://app?vid=46b66742-8367-4779-8589-b1fd80c508c3","ios":"levelo://app?vid=46b66742-8367-4779-8589-b1fd80c508c3"},"vehicle_type_id":"4","last_reported":1726884389,"current_range_meters":38800,"station_id":"ce4bhjp2rcd13ifvqga0","pricing_plan_id":"cebpf4jnsgd1na2vs0mg"},{"bike_id":"5ad68b21-42f9-465d-b5fc-d8834da799a7","system_id":"levelo_inurba_marseille","lat":43.28702,"lon":5.39972,"is_reserved":false,"is_disabled":false,"rental_uris":{"android":"levelo://app?vid=5ad68b21-42f9-465d-b5fc-d8834da799a7","ios":"levelo://app?vid=5ad68b21-42f9-465d-b5fc-d8834da799a7"},"vehicle_type_id":"4","last_reported":1726884389,"current_range_meters":25600,"station_id":"ce4bho92rcd13ifvqh3g","pricing_plan_id":"cebpf4jnsgd1na2vs0mg"},{"bike_id":"9f3abbd1-86cc-47c8-95de-8dd0cd07bcd7","system_id":"levelo_inurba_marseille","lat":43.30527,"lon":5.36553,"is_reserved":false,"is_disabled":false,"rental_uris":{"android":"levelo://app?vid=9f3abbd1-86cc-47c8-95de-8dd0cd07bcd7","ios":"levelo://app?vid=9f3abbd1-86cc-47c8-95de-8dd0cd07bcd7"},"vehicle_type_id":"4","last_reported":1726884389,"current_range_meters":31200,"station_id":"ce4bgs12rcd13ifvqcag","pricing_plan_id":"cebpf4jnsgd1na2vs0mg"},{"bike_id":"acfd38db-e93b-4b83-9afa-11e828273dc3","system_id":"levelo_inurba_marseille","lat":43.33022,"lon":5.39038,"is_reserved":false,"is_disabled":false,"rental_uris":{"android":"levelo://app?vid=acfd38db-e93b-4b83-9afa-11e828273dc3","ios":"levelo://app?vid=acfd38db-e93b-4b83-9afa-11e828273dc3"},"vehicle_type_id":"4","last_reported":1726884389,"current_range_meters":4800,"station_id":"ce4bhr92rcd13ifvqhrg","pricing_plan_id":"cebpf4jnsgd1na2vs0mg"},{"bike_id":"4054ff49-dc3a-424d-9e09-451ef9607aae","system_id":"levelo_inurba_marseille","lat":43.29373,"lon":5.40869,"is_reserved":false,"is_disabled":false,"rental_uris":{"android":"levelo://app?vid=4054ff49-dc3a-424d-9e09-451ef9607aae","ios":"levelo://app?vid=4054ff49-dc3a-424d-9e09-451ef9607aae"},"vehicle_type_id":"4","last_reported":1726884389,"current_range_meters":6400,"station_id":"","pricing_plan_id":"cebpf4jnsgd1na2vs0mg"},{"bike_id":"66275b8c-4851-4d18-a4a5-380e9fa79d13","system_id":"levelo_inurba_marseille","lat":43.2904,"lon":5.3585,"is_reserved":false,"is_disabled":false,"rental_uris":{"android":"levelo://app?vid=66275b8c-4851-4d18-a4a5-380e9fa79d13","ios":"levelo://app?vid=66275b8c-4851-4d18-a4a5-380e9fa79d13"},"vehicle_type_id":"4","last_reported":1726884389,"current_range_meters":37600,"station_id":"ce4bha92rcd13ifvqeg0","pricing_plan_id":"cebpf4jnsgd1na2vs0mg"},{"bike_id":"dcae2268-a29f-4f09-9355-c9605b71386d","system_id":"levelo_inurba_marseille","lat":43.31335,"lon":5.39684,"is_reserved":false,"is_disabled":false,"rental_uris":{"android":"levelo://app?vid=dcae2268-a29f-4f09-9355-c9605b71386d","ios":"levelo://app?vid=dcae2268-a29f-4f09-9355-c9605b71386d"},"vehicle_type_id":"4","last_reported":1726884389,"current_range_meters":8000,"station_id":"ce4bgvp2rcd13ifvqcu0","pricing_plan_id":"cebpf4jnsgd1na2vs0mg"},{"bike_id":"f2fdefcd-a050-4065-a802-75d2680309bd","system_id":"levelo_inurba_marseille","lat":43.2319,"lon":5.39986,"is_reserved":false,"is_disabled":false,"rental_uris":{"android":"levelo://app?vid=f2fdefcd-a050-4065-a802-75d2680309bd","ios":"levelo://app?vid=f2fdefcd-a050-4065-a802-75d2680309bd"},"vehicle_type_id":"4","last_reported":1726884389,"current_range_meters":24400,"station_id":"ce4bhn12rcd13ifvqgqg","pricing_plan_id":"cebpf4jnsgd1na2vs0mg"},{"bike_id":"2e500453-4f8f-49e2-8bf2-b2eee74029b8","system_id":"levelo_inurba_marseille","lat":43.29258,"lon":5.40129,"is_reserved":false,"is_disabled":false,"rental_uris":{"android":"levelo://app?vid=2e500453-4f8f-49e2-8bf2-b2eee74029b8","ios":"levelo://app?vid=2e500453-4f8f-49e2-8bf2-b2eee74029b8"},"vehicle_type_id":"4","last_reported":1726884389,"current_range_meters":35600,"station_id":"ce4bh312rcd13ifvqdk0","pricing_plan_id":"cebpf4jnsgd1na2vs0mg"},{"bike_id":"8599327e-7a38-42cc-bae8-5460e681ba0a","system_id":"levelo_inurba_marseille","lat":43.31751,"lon":5.39012,"is_reserved":false,"is_disabled":false,"rental_uris":{"android":"levelo://app?vid=8599327e-7a38-42cc-bae8-5460e681ba0a","ios":"levelo://app?vid=8599327e-7a38-42cc-bae8-5460e681ba0a"},"vehicle_type_id":"4","last_reported":1726884389,"current_range_meters":37600,"station_id":"ce4bhqp2rcd13ifvqhng","pricing_plan_id":"cebpf4jnsgd1na2vs0mg"},{"bike_id":"39a2ab1a-7c49-4add-8dec-5efebd8dc7f4","system_id":"levelo_inurba_marseille","lat":43.27907,"lon":5.39586,"is_reserved":false,"is_disabled":false,"rental_uris":{"android":"levelo://app?vid=39a2ab1a-7c49-4add-8dec-5efebd8dc7f4","ios":"levelo://app?vid=39a2ab1a-7c49-4add-8dec-5efebd8dc7f4"},"vehicle_type_id":"4","last_reported":1726884389,"current_range_meters":30400,"station_id":"ce4bhf92rcd13ifvqf40","pricing_plan_id":"cebpf4jnsgd1na2vs0mg"},{"bike_id":"2a7db943-6265-4479-9604-043d344eb7a6","system_id":"levelo_inurba_marseille","lat":43.30286,"lon":5.38399,"is_reserved":false,"is_disabled":false,"rental_uris":{"android":"levelo://app?vid=2a7db943-6265-4479-9604-043d344eb7a6","ios":"levelo://app?vid=2a7db943-6265-4479-9604-043d344eb7a6"},"vehicle_type_id":"4","last_reported":1726884389,"current_range_meters":25200,"station_id":"","pricing_plan_id":"cebpf4jnsgd1na2vs0mg"},{"bike_id":"ba9fd23e-e8af-47ba-9ee1-69acdbae2956","system_id":"levelo_inurba_marseille","lat":43.30777,"lon":5.3765,"is_reserved":false,"is_disabled":false,"rental_uris":{"android":"levelo://app?vid=ba9fd23e-e8af-47ba-9ee1-69acdbae2956","ios":"levelo://app?vid=ba9fd23e-e8af-47ba-9ee1-69acdbae2956"},"vehicle_type_id":"4","last_reported":1726884389,"current_range_meters":38000,"station_id":"ce4bgv92rcd13ifvqcq0","pricing_plan_id":"cebpf4jnsgd1na2vs0mg"},{"bike_id":"1ac0a20c-401d-4777-af73-d334affd0e09","system_id":"levelo_inurba_marseille","lat":43.25096,"lon":5.3952,"is_reserved":false,"is_disabled":false,"rental_uris":{"android":"levelo://app?vid=1ac0a20c-401d-4777-af73-d334affd0e09","ios":"levelo://app?vid=1ac0a20c-401d-4777-af73-d334affd0e09"},"vehicle_type_id":"4","last_reported":1726884389,"current_range_meters":38800,"station_id":"ce4bhm12rcd13ifvqgkg","pricing_plan_id":"cebpf4jnsgd1na2vs0mg"},{"bike_id":"b8afe22f-c0f3-483c-bb5f-6071483e5e25","system_id":"levelo_inurba_marseille","lat":43.25932,"lon":5.409,"is_reserved":false,"is_disabled":false,"rental_uris":{"android":"levelo://app?vid=b8afe22f-c0f3-483c-bb5f-6071483e5e25","ios":"levelo://app?vid=b8afe22f-c0f3-483c-bb5f-6071483e5e25"},"vehicle_type_id":"4","last_reported":1726884389,"current_range_meters":32800,"station_id":"ce4bhm92rcd13ifvqglg","pricing_plan_id":"cebpf4jnsgd1na2vs0mg"},{"bike_id":"43daa915-2a7b-4baf-a258-ed76c346effe","system_id":"levelo_inurba_marseille","lat":43.31726,"lon":5.42402,"is_reserved":false,"is_disabled":false,"rental_uris":{"android":"levelo://app?vid=43daa915-2a7b-4baf-a258-ed76c346effe","ios":"levelo://app?vid=43daa915-2a7b-4baf-a258-ed76c346effe"},"vehicle_type_id":"4","last_reported":1726884389,"current_range_meters":26000,"station_id":"ce4bhp92rcd13ifvqhbg","pricing_plan_id":"cebpf4jnsgd1na2vs0mg"},{"bike_id":"b8c4fb30-143a-40da-a94d-ac106aff7dd4","system_id":"levelo_inurba_marseille","lat":43.31275,"lon":5.40161,"is_reserved":false,"is_disabled":false,"rental_uris":{"android":"levelo://app?vid=b8c4fb30-143a-40da-a94d-ac106aff7dd4","ios":"levelo://app?vid=b8c4fb30-143a-40da-a94d-ac106aff7dd4"},"vehicle_type_id":"4","last_reported":1726884389,"current_range_meters":6800,"station_id":"ce4bh092rcd13ifvqd30","pricing_plan_id":"cebpf4jnsgd1na2vs0mg"},{"bike_id":"edfb1ff5-b81b-4225-8da9-100a9115b1e3","system_id":"levelo_inurba_marseille","lat":43.29735,"lon":5.36561,"is_reserved":false,"is_disabled":false,"rental_uris":{"android":"levelo://app?vid=edfb1ff5-b81b-4225-8da9-100a9115b1e3","ios":"levelo://app?vid=edfb1ff5-b81b-4225-8da9-100a9115b1e3"},"vehicle_type_id":"4","last_reported":1726884389,"current_range_meters":10000,"station_id":"","pricing_plan_id":"cebpf4jnsgd1na2vs0mg"},{"bike_id":"4538c702-8de4-4b33-9ab0-2b4d17415cc2","system_id":"levelo_inurba_marseille","lat":43.24806,"lon":5.37452,"is_reserved":false,"is_disabled":false,"rental_uris":{"android":"levelo://app?vid=4538c702-8de4-4b33-9ab0-2b4d17415cc2","ios":"levelo://app?vid=4538c702-8de4-4b33-9ab0-2b4d17415cc2"},"vehicle_type_id":"4","last_reported":1726884389,"current_range_meters":18000,"station_id":"ce4bhgh2rcd13ifvqfb0","pricing_plan_id":"cebpf4jnsgd1na2vs0mg"},{"bike_id":"0df805ca-5348-4169-979d-f0b036f1fe02","system_id":"levelo_inurba_marseille","lat":43.31999,"lon":5.38187,"is_reserved":false,"is_disabled":false,"rental_uris":{"android":"levelo://app?vid=0df805ca-5348-4169-979d-f0b036f1fe02","ios":"levelo://app?vid=0df805ca-5348-4169-979d-f0b036f1fe02"},"vehicle_type_id":"4","last_reported":1726884389,"current_range_meters":19600,"station_id":"ce4bhr12rcd13ifvqhpg","pricing_plan_id":"cebpf4jnsgd1na2vs0mg"},{"bike_id":"9b593e1a-bf66-49e3-9157-adba3e02bd78","system_id":"levelo_inurba_marseille","lat":43.30132,"lon":5.39182,"is_reserved":false,"is_disabled":false,"rental_uris":{"android":"levelo://app?vid=9b593e1a-bf66-49e3-9157-adba3e02bd78","ios":"levelo://app?vid=9b593e1a-bf66-49e3-9157-adba3e02bd78"},"vehicle_type_id":"4","last_reported":1726884389,"current_range_meters":24000,"station_id":"","pricing_plan_id":"cebpf4jnsgd1na2vs0mg"},{"bike_id":"35de92f8-d509-4165-a969-76652f8aba59","system_id":"levelo_inurba_marseille","lat":43.30914,"lon":5.40146,"is_reserved":false,"is_disabled":false,"rental_uris":{"android":"levelo://app?vid=35de92f8-d509-4165-a969-76652f8aba59","ios":"levelo://app?vid=35de92f8-d509-4165-a969-76652f8aba59"},"vehicle_type_id":"4","last_reported":1726884389,"current_range_meters":8000,"station_id":"ce4bgvp2rcd13ifvqct0","pricing_plan_id":"cebpf4jnsgd1na2vs0mg"},{"bike_id":"a46f474a-57e8-44f2-96d1-7f0a8dde5b54","system_id":"levelo_inurba_marseille","lat":43.24064,"lon":5.37748,"is_reserved":false,"is_disabled":false,"rental_uris":{"android":"levelo://app?vid=a46f474a-57e8-44f2-96d1-7f0a8dde5b54","ios":"levelo://app?vid=a46f474a-57e8-44f2-96d1-7f0a8dde5b54"},"vehicle_type_id":"4","last_reported":1726884389,"current_range_meters":37600,"station_id":"ce4bhnp2rcd13ifvqgvg","pricing_plan_id":"cebpf4jnsgd1na2vs0mg"},{"bike_id":"9c208db1-30c6-4806-afc7-303597cc7eff","system_id":"levelo_inurba_marseille","lat":43.28661,"lon":5.36338,"is_reserved":false,"is_disabled":false,"rental_uris":{"android":"levelo://app?vid=9c208db1-30c6-4806-afc7-303597cc7eff","ios":"levelo://app?vid=9c208db1-30c6-4806-afc7-303597cc7eff"},"vehicle_type_id":"4","last_reported":1726884389,"current_range_meters":38400,"station_id":"ce4bhah2rcd13ifvqej0","pricing_plan_id":"cebpf4jnsgd1na2vs0mg"},{"bike_id":"569ff18e-9975-467c-9c41-e82126f03fcb","system_id":"levelo_inurba_marseille","lat":43.2605,"lon":5.39392,"is_reserved":false,"is_disabled":false,"rental_uris":{"android":"levelo://app?vid=569ff18e-9975-467c-9c41-e82126f03fcb","ios":"levelo://app?vid=569ff18e-9975-467c-9c41-e82126f03fcb"},"vehicle_type_id":"4","last_reported":1726884389,"current_range_meters":39200,"station_id":"ce4bhh92rcd13ifvqfj0","pricing_plan_id":"cebpf4jnsgd1na2vs0mg"},{"bike_id":"c47aba76-dd8d-4b6e-9b2b-3c45cf9e5115","system_id":"levelo_inurba_marseille","lat":43.31076,"lon":5.38375,"is_reserved":false,"is_disabled":false,"rental_uris":{"android":"levelo://app?vid=c47aba76-dd8d-4b6e-9b2b-3c45cf9e5115","ios":"levelo://app?vid=c47aba76-dd8d-4b6e-9b2b-3c45cf9e5115"},"vehicle_type_id":"4","last_reported":1726884389,"current_range_meters":25200,"station_id":"ce4bgv92rcd13ifvqcr0","pricing_plan_id":"cebpf4jnsgd1na2vs0mg"},{"bike_id":"e4cd288b-58e9-4c73-81ff-0e54d332441e","system_id":"levelo_inurba_marseille","lat":43.33022,"lon":5.39049,"is_reserved":false,"is_disabled":false,"rental_uris":{"android":"levelo://app?vid=e4cd288b-58e9-4c73-81ff-0e54d332441e","ios":"levelo://app?vid=e4cd288b-58e9-4c73-81ff-0e54d332441e"},"vehicle_type_id":"4","last_reported":1726884389,"current_range_meters":18000,"station_id":"ce4bhr92rcd13ifvqhrg","pricing_plan_id":"cebpf4jnsgd1na2vs0mg"},{"bike_id":"72964c67-6aed-4707-911d-186df8a12b64","system_id":"levelo_inurba_marseille","lat":43.32343,"lon":5.40617,"is_reserved":false,"is_disabled":false,"rental_uris":{"android":"levelo://app?vid=72964c67-6aed-4707-911d-186df8a12b64","ios":"levelo://app?vid=72964c67-6aed-4707-911d-186df8a12b64"},"vehicle_type_id":"4","last_reported":1726884389,"current_range_meters":39200,"station_id":"ce4bhq92rcd13ifvqhjg","pricing_plan_id":"cebpf4jnsgd1na2vs0mg"},{"bike_id":"b4d8cc2f-08fa-447c-98aa-3fb508700768","system_id":"levelo_inurba_marseille","lat":43.2897,"lon":5.35781,"is_reserved":false,"is_disabled":false,"rental_uris":{"android":"levelo://app?vid=b4d8cc2f-08fa-447c-98aa-3fb508700768","ios":"levelo://app?vid=b4d8cc2f-08fa-447c-98aa-3fb508700768"},"vehicle_type_id":"4","last_reported":1726884389,"current_range_meters":6000,"station_id":"","pricing_plan_id":"cebpf4jnsgd1na2vs0mg"},{"bike_id":"a1110c0e-ff10-4328-aae2-5b52cd8cd3a7","system_id":"levelo_inurba_marseille","lat":43.28529,"lon":5.3861,"is_reserved":false,"is_disabled":false,"rental_uris":{"android":"levelo://app?vid=a1110c0e-ff10-4328-aae2-5b52cd8cd3a7","ios":"levelo://app?vid=a1110c0e-ff10-4328-aae2-5b52cd8cd3a7"},"vehicle_type_id":"4","last_reported":1726884389,"current_range_meters":27200,"station_id":"ce4bh8p2rcd13ifvqeb0","pricing_plan_id":"cebpf4jnsgd1na2vs0mg"},{"bike_id":"f21eab61-d138-4b2f-83ff-2d501b8fe47e","system_id":"levelo_inurba_marseille","lat":43.27495,"lon":5.42441,"is_reserved":false,"is_disabled":false,"rental_uris":{"android":"levelo://app?vid=f21eab61-d138-4b2f-83ff-2d501b8fe47e","ios":"levelo://app?vid=f21eab61-d138-4b2f-83ff-2d501b8fe47e"},"vehicle_type_id":"4","last_reported":1726884389,"current_range_meters":39200,"station_id":"ce4bhn92rcd13ifvqgrg","pricing_plan_id":"cebpf4jnsgd1na2vs0mg"},{"bike_id":"53b0d88c-3ddb-4e2e-a1d5-9ea3b0a5c6d1","system_id":"levelo_inurba_marseille","lat":43.31331,"lon":5.39692,"is_reserved":false,"is_disabled":false,"rental_uris":{"android":"levelo://app?vid=53b0d88c-3ddb-4e2e-a1d5-9ea3b0a5c6d1","ios":"levelo://app?vid=53b0d88c-3ddb-4e2e-a1d5-9ea3b0a5c6d1"},"vehicle_type_id":"4","last_reported":1726884389,"current_range_meters":28400,"station_id":"ce4bgvp2rcd13ifvqcu0","pricing_plan_id":"cebpf4jnsgd1na2vs0mg"},{"bike_id":"56acf405-8a38-44b1-92cd-b90e5c6ff518","system_id":"levelo_inurba_marseille","lat":43.26593,"lon":5.38962,"is_reserved":false,"is_disabled":false,"rental_uris":{"android":"levelo://app?vid=56acf405-8a38-44b1-92cd-b90e5c6ff518","ios":"levelo://app?vid=56acf405-8a38-44b1-92cd-b90e5c6ff518"},"vehicle_type_id":"4","last_reported":1726884389,"current_range_meters":28000,"station_id":"ce4bhe12rcd13ifvqf30","pricing_plan_id":"cebpf4jnsgd1na2vs0mg"},{"bike_id":"7aaa3322-a030-48e3-8a01-9ab1bcfe7553","system_id":"levelo_inurba_marseille","lat":43.29763,"lon":5.37682,"is_reserved":false,"is_disabled":false,"rental_uris":{"android":"levelo://app?vid=7aaa3322-a030-48e3-8a01-9ab1bcfe7553","ios":"levelo://app?vid=7aaa3322-a030-48e3-8a01-9ab1bcfe7553"},"vehicle_type_id":"4","last_reported":1726884389,"current_range_meters":20000,"station_id":"ce4bgkh2rcd13ifvqbl0","pricing_plan_id":"cebpf4jnsgd1na2vs0mg"},{"bike_id":"bcd9d067-b093-4910-baae-4106d4c6d258","system_id":"levelo_inurba_marseille","lat":43.2921,"lon":5.36052,"is_reserved":false,"is_disabled":false,"rental_uris":{"android":"levelo://app?vid=bcd9d067-b093-4910-baae-4106d4c6d258","ios":"levelo://app?vid=bcd9d067-b093-4910-baae-4106d4c6d258"},"vehicle_type_id":"4","last_reported":1726884389,"current_range_meters":38000,"station_id":"ce4bhbh2rcd13ifvqeqg","pricing_plan_id":"cebpf4jnsgd1na2vs0mg"},{"bike_id":"8db99277-90a2-45d9-aafa-536ff23cacde","system_id":"levelo_inurba_marseille","lat":43.31328,"lon":5.39692,"is_reserved":false,"is_disabled":false,"rental_uris":{"android":"levelo://app?vid=8db99277-90a2-45d9-aafa-536ff23cacde","ios":"levelo://app?vid=8db99277-90a2-45d9-aafa-536ff23cacde"},"vehicle_type_id":"4","last_reported":1726884389,"current_range_meters":40000,"station_id":"ce4bgvp2rcd13ifvqcu0","pricing_plan_id":"cebpf4jnsgd1na2vs0mg"},{"bike_id":"330482f2-d873-4633-9ec5-b762c61cd676","system_id":"levelo_inurba_marseille","lat":43.30542,"lon":5.38429,"is_reserved":false,"is_disabled":false,"rental_uris":{"android":"levelo://app?vid=330482f2-d873-4633-9ec5-b762c61cd676","ios":"levelo://app?vid=330482f2-d873-4633-9ec5-b762c61cd676"},"vehicle_type_id":"4","last_reported":1726884389,"current_range_meters":29600,"station_id":"ce4bgg92rcd13ifvqb30","pricing_plan_id":"cebpf4jnsgd1na2vs0mg"},{"bike_id":"c4ffebf7-570f-4e93-a597-25b4f6edf95e","system_id":"levelo_inurba_marseille","lat":43.28715,"lon":5.39969,"is_reserved":false,"is_disabled":false,"rental_uris":{"android":"levelo://app?vid=c4ffebf7-570f-4e93-a597-25b4f6edf95e","ios":"levelo://app?vid=c4ffebf7-570f-4e93-a597-25b4f6edf95e"},"vehicle_type_id":"4","last_reported":1726884389,"current_range_meters":38000,"station_id":"ce4bho92rcd13ifvqh3g","pricing_plan_id":"cebpf4jnsgd1na2vs0mg"},{"bike_id":"a551c994-df60-4a90-b372-694301157325","system_id":"levelo_inurba_marseille","lat":43.29264,"lon":5.40929,"is_reserved":false,"is_disabled":false,"rental_uris":{"android":"levelo://app?vid=a551c994-df60-4a90-b372-694301157325","ios":"levelo://app?vid=a551c994-df60-4a90-b372-694301157325"},"vehicle_type_id":"4","last_reported":1726884389,"current_range_meters":38800,"station_id":"ce4bh192rcd13ifvqdc0","pricing_plan_id":"cebpf4jnsgd1na2vs0mg"},{"bike_id":"8e9dbe47-337f-4dc5-a191-5ff772ee52d9","system_id":"levelo_inurba_marseille","lat":43.30882,"lon":5.37179,"is_reserved":false,"is_disabled":false,"rental_uris":{"android":"levelo://app?vid=8e9dbe47-337f-4dc5-a191-5ff772ee52d9","ios":"levelo://app?vid=8e9dbe47-337f-4dc5-a191-5ff772ee52d9"},"vehicle_type_id":"4","last_reported":1726884389,"current_range_meters":2800,"station_id":"ce4bguh2rcd13ifvqckg","pricing_plan_id":"cebpf4jnsgd1na2vs0mg"},{"bike_id":"6247911d-3b1a-4b71-bb29-f64d3346857c","system_id":"levelo_inurba_marseille","lat":43.30784,"lon":5.37652,"is_reserved":false,"is_disabled":false,"rental_uris":{"android":"levelo://app?vid=6247911d-3b1a-4b71-bb29-f64d3346857c","ios":"levelo://app?vid=6247911d-3b1a-4b71-bb29-f64d3346857c"},"vehicle_type_id":"4","last_reported":1726884389,"current_range_meters":23200,"station_id":"ce4bgv92rcd13ifvqcq0","pricing_plan_id":"cebpf4jnsgd1na2vs0mg"},{"bike_id":"f7ad2e7a-a575-4361-994a-0ff95a85d018","system_id":"levelo_inurba_marseille","lat":43.30646,"lon":5.37186,"is_reserved":false,"is_disabled":false,"rental_uris":{"android":"levelo://app?vid=f7ad2e7a-a575-4361-994a-0ff95a85d018","ios":"levelo://app?vid=f7ad2e7a-a575-4361-994a-0ff95a85d018"},"vehicle_type_id":"4","last_reported":1726884389,"current_range_meters":3600,"station_id":"","pricing_plan_id":"cebpf4jnsgd1na2vs0mg"},{"bike_id":"6dc6f439-d4f1-41c9-b6a4-732401976389","system_id":"levelo_inurba_marseille","lat":43.26689,"lon":5.38277,"is_reserved":false,"is_disabled":false,"rental_uris":{"android":"levelo://app?vid=6dc6f439-d4f1-41c9-b6a4-732401976389","ios":"levelo://app?vid=6dc6f439-d4f1-41c9-b6a4-732401976389"},"vehicle_type_id":"4","last_reported":1726884389,"current_range_meters":32000,"station_id":"ce4bhg92rcd13ifvqf90","pricing_plan_id":"cebpf4jnsgd1na2vs0mg"},{"bike_id":"9dcf5450-9a2a-40a7-becc-03f318c91936","system_id":"levelo_inurba_marseille","lat":43.29882,"lon":5.39736,"is_reserved":false,"is_disabled":false,"rental_uris":{"android":"levelo://app?vid=9dcf5450-9a2a-40a7-becc-03f318c91936","ios":"levelo://app?vid=9dcf5450-9a2a-40a7-becc-03f318c91936"},"vehicle_type_id":"4","last_reported":1726884389,"current_range_meters":8000,"station_id":"ce4bh0h2rcd13ifvqd50","pricing_plan_id":"cebpf4jnsgd1na2vs0mg"},{"bike_id":"382b83cf-ea4e-4bb0-8ac1-627f9b837cc0","system_id":"levelo_inurba_marseille","lat":43.3058,"lon":5.37245,"is_reserved":false,"is_disabled":false,"rental_uris":{"android":"levelo://app?vid=382b83cf-ea4e-4bb0-8ac1-627f9b837cc0","ios":"levelo://app?vid=382b83cf-ea4e-4bb0-8ac1-627f9b837cc0"},"vehicle_type_id":"4","last_reported":1726884389,"current_range_meters":25200,"station_id":"ce4bgqh2rcd13ifvqc4g","pricing_plan_id":"cebpf4jnsgd1na2vs0mg"},{"bike_id":"5a375672-8adf-4f3f-b8a0-82973eabacfd","system_id":"levelo_inurba_marseille","lat":43.31251,"lon":5.40183,"is_reserved":false,"is_disabled":false,"rental_uris":{"android":"levelo://app?vid=5a375672-8adf-4f3f-b8a0-82973eabacfd","ios":"levelo://app?vid=5a375672-8adf-4f3f-b8a0-82973eabacfd"},"vehicle_type_id":"4","last_reported":1726884389,"current_range_meters":39200,"station_id":"ce4bh092rcd13ifvqd30","pricing_plan_id":"cebpf4jnsgd1na2vs0mg"},{"bike_id":"841546c0-6dca-4af6-955b-6e5b4bf0d05c","system_id":"levelo_inurba_marseille","lat":43.29257,"lon":5.40907,"is_reserved":false,"is_disabled":false,"rental_uris":{"android":"levelo://app?vid=841546c0-6dca-4af6-955b-6e5b4bf0d05c","ios":"levelo://app?vid=841546c0-6dca-4af6-955b-6e5b4bf0d05c"},"vehicle_type_id":"4","last_reported":1726884389,"current_range_meters":33600,"station_id":"ce4bh192rcd13ifvqdc0","pricing_plan_id":"cebpf4jnsgd1na2vs0mg"},{"bike_id":"cc1442f2-df9d-4ef9-a449-bab001c25afc","system_id":"levelo_inurba_marseille","lat":43.28035,"lon":5.36945,"is_reserved":false,"is_disabled":false,"rental_uris":{"android":"levelo://app?vid=cc1442f2-df9d-4ef9-a449-bab001c25afc","ios":"levelo://app?vid=cc1442f2-df9d-4ef9-a449-bab001c25afc"},"vehicle_type_id":"4","last_reported":1726884389,"current_range_meters":38400,"station_id":"ce4bha12rcd13ifvqef0","pricing_plan_id":"cebpf4jnsgd1na2vs0mg"},{"bike_id":"99db5d1c-1989-4768-8f9d-6ce5484e24bc","system_id":"levelo_inurba_marseille","lat":43.272864,"lon":5.391771,"is_reserved":false,"is_disabled":false,"rental_uris":{"android":"levelo://app?vid=99db5d1c-1989-4768-8f9d-6ce5484e24bc","ios":"levelo://app?vid=99db5d1c-1989-4768-8f9d-6ce5484e24bc"},"vehicle_type_id":"4","last_reported":1726884389,"current_range_meters":35600,"station_id":"ce4bgr92rcd13ifvqc7g","pricing_plan_id":"cebpf4jnsgd1na2vs0mg"},{"bike_id":"5840a821-7b4a-4179-8856-92a74917e83c","system_id":"levelo_inurba_marseille","lat":43.25007,"lon":5.38928,"is_reserved":false,"is_disabled":false,"rental_uris":{"android":"levelo://app?vid=5840a821-7b4a-4179-8856-92a74917e83c","ios":"levelo://app?vid=5840a821-7b4a-4179-8856-92a74917e83c"},"vehicle_type_id":"4","last_reported":1726884389,"current_range_meters":40000,"station_id":"ce4bhgp2rcd13ifvqfd0","pricing_plan_id":"cebpf4jnsgd1na2vs0mg"},{"bike_id":"53aa3265-3aae-4710-98ee-70d60e85c676","system_id":"levelo_inurba_marseille","lat":43.29885,"lon":5.39746,"is_reserved":false,"is_disabled":false,"rental_uris":{"android":"levelo://app?vid=53aa3265-3aae-4710-98ee-70d60e85c676","ios":"levelo://app?vid=53aa3265-3aae-4710-98ee-70d60e85c676"},"vehicle_type_id":"4","last_reported":1726884389,"current_range_meters":9600,"station_id":"ce4bh0h2rcd13ifvqd50","pricing_plan_id":"cebpf4jnsgd1na2vs0mg"},{"bike_id":"f30670e1-1de8-4985-82be-d26441c3c41c","system_id":"levelo_inurba_marseille","lat":43.28449,"lon":5.35885,"is_reserved":false,"is_disabled":false,"rental_uris":{"android":"levelo://app?vid=f30670e1-1de8-4985-82be-d26441c3c41c","ios":"levelo://app?vid=f30670e1-1de8-4985-82be-d26441c3c41c"},"vehicle_type_id":"4","last_reported":1726884389,"current_range_meters":38800,"station_id":"ce4bhah2rcd13ifvqei0","pricing_plan_id":"cebpf4jnsgd1na2vs0mg"},{"bike_id":"5419b1bf-d37c-4076-a34c-52ede101758e","system_id":"levelo_inurba_marseille","lat":43.337444,"lon":5.374475,"is_reserved":false,"is_disabled":false,"rental_uris":{"android":"levelo://app?vid=5419b1bf-d37c-4076-a34c-52ede101758e","ios":"levelo://app?vid=5419b1bf-d37c-4076-a34c-52ede101758e"},"vehicle_type_id":"4","last_reported":1726884389,"current_range_meters":34800,"station_id":"","pricing_plan_id":"cebpf4jnsgd1na2vs0mg"},{"bike_id":"c33e9d45-7b28-4509-86fe-867e95c1321a","system_id":"levelo_inurba_marseille","lat":43.33607,"lon":5.41029,"is_reserved":false,"is_disabled":false,"rental_uris":{"android":"levelo://app?vid=c33e9d45-7b28-4509-86fe-867e95c1321a","ios":"levelo://app?vid=c33e9d45-7b28-4509-86fe-867e95c1321a"},"vehicle_type_id":"4","last_reported":1726884389,"current_range_meters":38800,"station_id":"ce4bhqh2rcd13ifvqhmg","pricing_plan_id":"cebpf4jnsgd1na2vs0mg"},{"bike_id":"b44f0900-5f12-4df5-a67a-3a29d1a8d8d5","system_id":"levelo_inurba_marseille","lat":43.30569,"lon":5.372,"is_reserved":false,"is_disabled":false,"rental_uris":{"android":"levelo://app?vid=b44f0900-5f12-4df5-a67a-3a29d1a8d8d5","ios":"levelo://app?vid=b44f0900-5f12-4df5-a67a-3a29d1a8d8d5"},"vehicle_type_id":"4","last_reported":1726884389,"current_range_meters":39200,"station_id":"ce4bgqh2rcd13ifvqc4g","pricing_plan_id":"cebpf4jnsgd1na2vs0mg"},{"bike_id":"f7575c27-994c-406f-8323-578b38c16d91","system_id":"levelo_inurba_marseille","lat":43.28745,"lon":5.36526,"is_reserved":false,"is_disabled":false,"rental_uris":{"android":"levelo://app?vid=f7575c27-994c-406f-8323-578b38c16d91","ios":"levelo://app?vid=f7575c27-994c-406f-8323-578b38c16d91"},"vehicle_type_id":"4","last_reported":1726884389,"current_range_meters":34000,"station_id":"","pricing_plan_id":"cebpf4jnsgd1na2vs0mg"},{"bike_id":"f55d82a5-a2f1-4a59-a6a0-790c179f4953","system_id":"levelo_inurba_marseille","lat":43.29898,"lon":5.43675,"is_reserved":false,"is_disabled":false,"rental_uris":{"android":"levelo://app?vid=f55d82a5-a2f1-4a59-a6a0-790c179f4953","ios":"levelo://app?vid=f55d82a5-a2f1-4a59-a6a0-790c179f4953"},"vehicle_type_id":"4","last_reported":1726884389,"current_range_meters":37600,"station_id":"ce4bhpp2rcd13ifvqhfg","pricing_plan_id":"cebpf4jnsgd1na2vs0mg"},{"bike_id":"dbb8d6a4-ff29-4846-a1f6-0ca042986f97","system_id":"levelo_inurba_marseille","lat":43.27819,"lon":5.40706,"is_reserved":false,"is_disabled":false,"rental_uris":{"android":"levelo://app?vid=dbb8d6a4-ff29-4846-a1f6-0ca042986f97","ios":"levelo://app?vid=dbb8d6a4-ff29-4846-a1f6-0ca042986f97"},"vehicle_type_id":"4","last_reported":1726884389,"current_range_meters":37600,"station_id":"ce4bhnh2rcd13ifvqgtg","pricing_plan_id":"cebpf4jnsgd1na2vs0mg"},{"bike_id":"a020a923-89fb-4175-829b-bdb01d885f9c","system_id":"levelo_inurba_marseille","lat":43.23064,"lon":5.355,"is_reserved":false,"is_disabled":false,"rental_uris":{"android":"levelo://app?vid=a020a923-89fb-4175-829b-bdb01d885f9c","ios":"levelo://app?vid=a020a923-89fb-4175-829b-bdb01d885f9c"},"vehicle_type_id":"4","last_reported":1726884389,"current_range_meters":30000,"station_id":"cpo3342slgdg3j2ifvpg","pricing_plan_id":"cebpf4jnsgd1na2vs0mg"},{"bike_id":"a9603a9a-3575-4d61-8297-7e9985c61899","system_id":"levelo_inurba_marseille","lat":43.30801,"lon":5.38143,"is_reserved":false,"is_disabled":false,"rental_uris":{"android":"levelo://app?vid=a9603a9a-3575-4d61-8297-7e9985c61899","ios":"levelo://app?vid=a9603a9a-3575-4d61-8297-7e9985c61899"},"vehicle_type_id":"4","last_reported":1726884389,"current_range_meters":6000,"station_id":"ce4bgt12rcd13ifvqce0","pricing_plan_id":"cebpf4jnsgd1na2vs0mg"},{"bike_id":"5ab91edf-ac3f-4f8e-8691-806f57a02361","system_id":"levelo_inurba_marseille","lat":43.31268,"lon":5.4017,"is_reserved":false,"is_disabled":false,"rental_uris":{"android":"levelo://app?vid=5ab91edf-ac3f-4f8e-8691-806f57a02361","ios":"levelo://app?vid=5ab91edf-ac3f-4f8e-8691-806f57a02361"},"vehicle_type_id":"4","last_reported":1726884389,"current_range_meters":30800,"station_id":"ce4bh092rcd13ifvqd30","pricing_plan_id":"cebpf4jnsgd1na2vs0mg"},{"bike_id":"742a3543-343d-45b9-b876-36b8d248039c","system_id":"levelo_inurba_marseille","lat":43.28102,"lon":5.37848,"is_reserved":false,"is_disabled":false,"rental_uris":{"android":"levelo://app?vid=742a3543-343d-45b9-b876-36b8d248039c","ios":"levelo://app?vid=742a3543-343d-45b9-b876-36b8d248039c"},"vehicle_type_id":"4","last_reported":1726884389,"current_range_meters":39200,"station_id":"ce4bha12rcd13ifvqee0","pricing_plan_id":"cebpf4jnsgd1na2vs0mg"},{"bike_id":"5899dc76-4576-41fc-91db-67e269faacc4","system_id":"levelo_inurba_marseille","lat":43.3176,"lon":5.38996,"is_reserved":false,"is_disabled":false,"rental_uris":{"android":"levelo://app?vid=5899dc76-4576-41fc-91db-67e269faacc4","ios":"levelo://app?vid=5899dc76-4576-41fc-91db-67e269faacc4"},"vehicle_type_id":"4","last_reported":1726884389,"current_range_meters":38800,"station_id":"ce4bhqp2rcd13ifvqhng","pricing_plan_id":"cebpf4jnsgd1na2vs0mg"},{"bike_id":"5f096d7e-445f-4f25-b9c1-08961d1d650e","system_id":"levelo_inurba_marseille","lat":43.2794,"lon":5.39567,"is_reserved":false,"is_disabled":false,"rental_uris":{"android":"levelo://app?vid=5f096d7e-445f-4f25-b9c1-08961d1d650e","ios":"levelo://app?vid=5f096d7e-445f-4f25-b9c1-08961d1d650e"},"vehicle_type_id":"4","last_reported":1726884389,"current_range_meters":38000,"station_id":"ce4bhf92rcd13ifvqf40","pricing_plan_id":"cebpf4jnsgd1na2vs0mg"},{"bike_id":"6e2fd8fb-799c-468d-a60b-38d2bf81aa37","system_id":"levelo_inurba_marseille","lat":43.23958,"lon":5.3663,"is_reserved":false,"is_disabled":false,"rental_uris":{"android":"levelo://app?vid=6e2fd8fb-799c-468d-a60b-38d2bf81aa37","ios":"levelo://app?vid=6e2fd8fb-799c-468d-a60b-38d2bf81aa37"},"vehicle_type_id":"4","last_reported":1726884389,"current_range_meters":5600,"station_id":"ce4bhi12rcd13ifvqfp0","pricing_plan_id":"cebpf4jnsgd1na2vs0mg"},{"bike_id":"010cdbb2-cdbe-48c0-bc62-a8e1c006b540","system_id":"levelo_inurba_marseille","lat":43.31278,"lon":5.40168,"is_reserved":false,"is_disabled":false,"rental_uris":{"android":"levelo://app?vid=010cdbb2-cdbe-48c0-bc62-a8e1c006b540","ios":"levelo://app?vid=010cdbb2-cdbe-48c0-bc62-a8e1c006b540"},"vehicle_type_id":"4","last_reported":1726884389,"current_range_meters":14000,"station_id":"ce4bh092rcd13ifvqd30","pricing_plan_id":"cebpf4jnsgd1na2vs0mg"},{"bike_id":"fb730c85-cef2-43fb-877c-de273059500e","system_id":"levelo_inurba_marseille","lat":43.3176,"lon":5.3902,"is_reserved":false,"is_disabled":false,"rental_uris":{"android":"levelo://app?vid=fb730c85-cef2-43fb-877c-de273059500e","ios":"levelo://app?vid=fb730c85-cef2-43fb-877c-de273059500e"},"vehicle_type_id":"4","last_reported":1726884389,"current_range_meters":32000,"station_id":"ce4bhqp2rcd13ifvqhng","pricing_plan_id":"cebpf4jnsgd1na2vs0mg"},{"bike_id":"5bf617b6-2eea-40a9-9576-9b6f0fdecd15","system_id":"levelo_inurba_marseille","lat":43.32367,"lon":5.38859,"is_reserved":false,"is_disabled":false,"rental_uris":{"android":"levelo://app?vid=5bf617b6-2eea-40a9-9576-9b6f0fdecd15","ios":"levelo://app?vid=5bf617b6-2eea-40a9-9576-9b6f0fdecd15"},"vehicle_type_id":"4","last_reported":1726884389,"current_range_meters":18000,"station_id":"ce4bhqp2rcd13ifvqhog","pricing_plan_id":"cebpf4jnsgd1na2vs0mg"},{"bike_id":"52456480-ecc9-4b47-9c7c-bbcb8f0683e9","system_id":"levelo_inurba_marseille","lat":43.28429,"lon":5.3919,"is_reserved":false,"is_disabled":false,"rental_uris":{"android":"levelo://app?vid=52456480-ecc9-4b47-9c7c-bbcb8f0683e9","ios":"levelo://app?vid=52456480-ecc9-4b47-9c7c-bbcb8f0683e9"},"vehicle_type_id":"4","last_reported":1726884389,"current_range_meters":38800,"station_id":"ce4bhoh2rcd13ifvqh5g","pricing_plan_id":"cebpf4jnsgd1na2vs0mg"},{"bike_id":"8de964f3-991f-47cb-98ab-ed6130191177","system_id":"levelo_inurba_marseille","lat":43.24394,"lon":5.37058,"is_reserved":false,"is_disabled":false,"rental_uris":{"android":"levelo://app?vid=8de964f3-991f-47cb-98ab-ed6130191177","ios":"levelo://app?vid=8de964f3-991f-47cb-98ab-ed6130191177"},"vehicle_type_id":"4","last_reported":1726884389,"current_range_meters":37600,"station_id":"ce4bhhh2rcd13ifvqfk0","pricing_plan_id":"cebpf4jnsgd1na2vs0mg"},{"bike_id":"d056a89f-bdf1-46e2-9aca-5e72728c3787","system_id":"levelo_inurba_marseille","lat":43.27619,"lon":5.36108,"is_reserved":false,"is_disabled":false,"rental_uris":{"android":"levelo://app?vid=d056a89f-bdf1-46e2-9aca-5e72728c3787","ios":"levelo://app?vid=d056a89f-bdf1-46e2-9aca-5e72728c3787"},"vehicle_type_id":"4","last_reported":1726884389,"current_range_meters":22400,"station_id":"ce4bgj92rcd13ifvqbe0","pricing_plan_id":"cebpf4jnsgd1na2vs0mg"},{"bike_id":"53bc04ae-f552-44a5-9019-52e8300f3399","system_id":"levelo_inurba_marseille","lat":43.32483,"lon":5.36565,"is_reserved":false,"is_disabled":false,"rental_uris":{"android":"levelo://app?vid=53bc04ae-f552-44a5-9019-52e8300f3399","ios":"levelo://app?vid=53bc04ae-f552-44a5-9019-52e8300f3399"},"vehicle_type_id":"4","last_reported":1726884389,"current_range_meters":30800,"station_id":"ce4bhs12rcd13ifvqhvg","pricing_plan_id":"cebpf4jnsgd1na2vs0mg"},{"bike_id":"559f0939-ccb7-449e-bcbe-22dedfce5dda","system_id":"levelo_inurba_marseille","lat":43.2856,"lon":5.38406,"is_reserved":false,"is_disabled":false,"rental_uris":{"android":"levelo://app?vid=559f0939-ccb7-449e-bcbe-22dedfce5dda","ios":"levelo://app?vid=559f0939-ccb7-449e-bcbe-22dedfce5dda"},"vehicle_type_id":"4","last_reported":1726884389,"current_range_meters":2800,"station_id":"","pricing_plan_id":"cebpf4jnsgd1na2vs0mg"},{"bike_id":"759751c6-00ff-4153-a15e-ad962e27e329","system_id":"levelo_inurba_marseille","lat":43.28935,"lon":5.36401,"is_reserved":false,"is_disabled":false,"rental_uris":{"android":"levelo://app?vid=759751c6-00ff-4153-a15e-ad962e27e329","ios":"levelo://app?vid=759751c6-00ff-4153-a15e-ad962e27e329"},"vehicle_type_id":"4","last_reported":1726884389,"current_range_meters":38000,"station_id":"ce4bhc92rcd13ifvqetg","pricing_plan_id":"cebpf4jnsgd1na2vs0mg"},{"bike_id":"40b30bf1-df0a-47fd-bf93-8f163c982ffe","system_id":"levelo_inurba_marseille","lat":43.3228,"lon":5.38299,"is_reserved":false,"is_disabled":false,"rental_uris":{"android":"levelo://app?vid=40b30bf1-df0a-47fd-bf93-8f163c982ffe","ios":"levelo://app?vid=40b30bf1-df0a-47fd-bf93-8f163c982ffe"},"vehicle_type_id":"4","last_reported":1726884389,"current_range_meters":36400,"station_id":"ce4bhr12rcd13ifvqhqg","pricing_plan_id":"cebpf4jnsgd1na2vs0mg"},{"bike_id":"cb1fb9f3-3e9a-497c-bbb7-d797dbb42c5f","system_id":"levelo_inurba_marseille","lat":43.29966,"lon":5.41322,"is_reserved":false,"is_disabled":false,"rental_uris":{"android":"levelo://app?vid=cb1fb9f3-3e9a-497c-bbb7-d797dbb42c5f","ios":"levelo://app?vid=cb1fb9f3-3e9a-497c-bbb7-d797dbb42c5f"},"vehicle_type_id":"4","last_reported":1726884389,"current_range_meters":25600,"station_id":"ce4bhp12rcd13ifvqh9g","pricing_plan_id":"cebpf4jnsgd1na2vs0mg"},{"bike_id":"fc7ae182-207c-446c-b034-0f759d3eb106","system_id":"levelo_inurba_marseille","lat":43.26937,"lon":5.40244,"is_reserved":false,"is_disabled":false,"rental_uris":{"android":"levelo://app?vid=fc7ae182-207c-446c-b034-0f759d3eb106","ios":"levelo://app?vid=fc7ae182-207c-446c-b034-0f759d3eb106"},"vehicle_type_id":"4","last_reported":1726884389,"current_range_meters":26800,"station_id":"cjm6bp8fraef2m0cb0m0","pricing_plan_id":"cebpf4jnsgd1na2vs0mg"},{"bike_id":"df9b1c9e-0ed6-4804-941c-22e2aebb94dd","system_id":"levelo_inurba_marseille","lat":43.23154,"lon":5.43715,"is_reserved":false,"is_disabled":false,"rental_uris":{"android":"levelo://app?vid=df9b1c9e-0ed6-4804-941c-22e2aebb94dd","ios":"levelo://app?vid=df9b1c9e-0ed6-4804-941c-22e2aebb94dd"},"vehicle_type_id":"4","last_reported":1726884389,"current_range_meters":19200,"station_id":"ce4bhmp2rcd13ifvqgog","pricing_plan_id":"cebpf4jnsgd1na2vs0mg"},{"bike_id":"546ee6bf-55f8-4946-bcee-e7096c9be4b7","system_id":"levelo_inurba_marseille","lat":43.24392,"lon":5.37059,"is_reserved":false,"is_disabled":false,"rental_uris":{"android":"levelo://app?vid=546ee6bf-55f8-4946-bcee-e7096c9be4b7","ios":"levelo://app?vid=546ee6bf-55f8-4946-bcee-e7096c9be4b7"},"vehicle_type_id":"4","last_reported":1726884389,"current_range_meters":28000,"station_id":"ce4bhhh2rcd13ifvqfk0","pricing_plan_id":"cebpf4jnsgd1na2vs0mg"},{"bike_id":"e487b570-ae0a-441e-8d21-21f51ea56705","system_id":"levelo_inurba_marseille","lat":43.33603,"lon":5.4103,"is_reserved":false,"is_disabled":false,"rental_uris":{"android":"levelo://app?vid=e487b570-ae0a-441e-8d21-21f51ea56705","ios":"levelo://app?vid=e487b570-ae0a-441e-8d21-21f51ea56705"},"vehicle_type_id":"4","last_reported":1726884389,"current_range_meters":24000,"station_id":"ce4bhqh2rcd13ifvqhmg","pricing_plan_id":"cebpf4jnsgd1na2vs0mg"},{"bike_id":"2633e599-bd28-40d3-b331-ac739c663b27","system_id":"levelo_inurba_marseille","lat":43.32477,"lon":5.36563,"is_reserved":false,"is_disabled":false,"rental_uris":{"android":"levelo://app?vid=2633e599-bd28-40d3-b331-ac739c663b27","ios":"levelo://app?vid=2633e599-bd28-40d3-b331-ac739c663b27"},"vehicle_type_id":"4","last_reported":1726884389,"current_range_meters":18000,"station_id":"ce4bhs12rcd13ifvqhvg","pricing_plan_id":"cebpf4jnsgd1na2vs0mg"},{"bike_id":"1032c0bc-2796-4700-9037-5d3e4470253f","system_id":"levelo_inurba_marseille","lat":43.28107,"lon":5.37856,"is_reserved":false,"is_disabled":false,"rental_uris":{"android":"levelo://app?vid=1032c0bc-2796-4700-9037-5d3e4470253f","ios":"levelo://app?vid=1032c0bc-2796-4700-9037-5d3e4470253f"},"vehicle_type_id":"4","last_reported":1726884389,"current_range_meters":14000,"station_id":"ce4bha12rcd13ifvqee0","pricing_plan_id":"cebpf4jnsgd1na2vs0mg"},{"bike_id":"40b4c6d2-1591-4c31-ba7e-28d863ceb674","system_id":"levelo_inurba_marseille","lat":43.30807,"lon":5.38144,"is_reserved":false,"is_disabled":false,"rental_uris":{"android":"levelo://app?vid=40b4c6d2-1591-4c31-ba7e-28d863ceb674","ios":"levelo://app?vid=40b4c6d2-1591-4c31-ba7e-28d863ceb674"},"vehicle_type_id":"4","last_reported":1726884389,"current_range_meters":33200,"station_id":"ce4bgt12rcd13ifvqce0","pricing_plan_id":"cebpf4jnsgd1na2vs0mg"},{"bike_id":"fa3733d3-bed3-4287-bc95-95d569077792","system_id":"levelo_inurba_marseille","lat":43.28702,"lon":5.39977,"is_reserved":false,"is_disabled":false,"rental_uris":{"android":"levelo://app?vid=fa3733d3-bed3-4287-bc95-95d569077792","ios":"levelo://app?vid=fa3733d3-bed3-4287-bc95-95d569077792"},"vehicle_type_id":"4","last_reported":1726884389,"current_range_meters":24400,"station_id":"ce4bho92rcd13ifvqh3g","pricing_plan_id":"cebpf4jnsgd1na2vs0mg"},{"bike_id":"6860e9db-5d98-45b4-aae5-0f2e9c653968","system_id":"levelo_inurba_marseille","lat":43.28933,"lon":5.36649,"is_reserved":false,"is_disabled":false,"rental_uris":{"android":"levelo://app?vid=6860e9db-5d98-45b4-aae5-0f2e9c653968","ios":"levelo://app?vid=6860e9db-5d98-45b4-aae5-0f2e9c653968"},"vehicle_type_id":"4","last_reported":1726884389,"current_range_meters":38800,"station_id":"ce4bhap2rcd13ifvqek0","pricing_plan_id":"cebpf4jnsgd1na2vs0mg"},{"bike_id":"ec55276f-77cb-4620-963f-fef2e0e52774","system_id":"levelo_inurba_marseille","lat":43.27914,"lon":5.38016,"is_reserved":false,"is_disabled":false,"rental_uris":{"android":"levelo://app?vid=ec55276f-77cb-4620-963f-fef2e0e52774","ios":"levelo://app?vid=ec55276f-77cb-4620-963f-fef2e0e52774"},"vehicle_type_id":"4","last_reported":1726884389,"current_range_meters":34000,"station_id":"ce4bhf92rcd13ifvqf50","pricing_plan_id":"cebpf4jnsgd1na2vs0mg"},{"bike_id":"f3130500-f401-4a62-ae18-128419f3b3e3","system_id":"levelo_inurba_marseille","lat":43.31287,"lon":5.40161,"is_reserved":false,"is_disabled":false,"rental_uris":{"android":"levelo://app?vid=f3130500-f401-4a62-ae18-128419f3b3e3","ios":"levelo://app?vid=f3130500-f401-4a62-ae18-128419f3b3e3"},"vehicle_type_id":"4","last_reported":1726884389,"current_range_meters":26800,"station_id":"ce4bh092rcd13ifvqd30","pricing_plan_id":"cebpf4jnsgd1na2vs0mg"},{"bike_id":"604c9531-be4f-4974-bfe2-bd7828d7386f","system_id":"levelo_inurba_marseille","lat":43.29907,"lon":5.43684,"is_reserved":false,"is_disabled":false,"rental_uris":{"android":"levelo://app?vid=604c9531-be4f-4974-bfe2-bd7828d7386f","ios":"levelo://app?vid=604c9531-be4f-4974-bfe2-bd7828d7386f"},"vehicle_type_id":"4","last_reported":1726884389,"current_range_meters":25200,"station_id":"ce4bhpp2rcd13ifvqhfg","pricing_plan_id":"cebpf4jnsgd1na2vs0mg"},{"bike_id":"c1310b37-dd83-4623-a074-f471af25c7d1","system_id":"levelo_inurba_marseille","lat":43.28441,"lon":5.39196,"is_reserved":false,"is_disabled":false,"rental_uris":{"android":"levelo://app?vid=c1310b37-dd83-4623-a074-f471af25c7d1","ios":"levelo://app?vid=c1310b37-dd83-4623-a074-f471af25c7d1"},"vehicle_type_id":"4","last_reported":1726884389,"current_range_meters":39200,"station_id":"ce4bhoh2rcd13ifvqh5g","pricing_plan_id":"cebpf4jnsgd1na2vs0mg"},{"bike_id":"713dca00-9221-4cd7-ac35-8f074cf6f847","system_id":"levelo_inurba_marseille","lat":43.31239,"lon":5.36851,"is_reserved":false,"is_disabled":false,"rental_uris":{"android":"levelo://app?vid=713dca00-9221-4cd7-ac35-8f074cf6f847","ios":"levelo://app?vid=713dca00-9221-4cd7-ac35-8f074cf6f847"},"vehicle_type_id":"4","last_reported":1726884389,"current_range_meters":35200,"station_id":"ce4bgl92rcd13ifvqbq0","pricing_plan_id":"cebpf4jnsgd1na2vs0mg"},{"bike_id":"ac541845-242c-4a0c-bbe9-2d2bbcb39d05","system_id":"levelo_inurba_marseille","lat":43.2799,"lon":5.40007,"is_reserved":false,"is_disabled":false,"rental_uris":{"android":"levelo://app?vid=ac541845-242c-4a0c-bbe9-2d2bbcb39d05","ios":"levelo://app?vid=ac541845-242c-4a0c-bbe9-2d2bbcb39d05"},"vehicle_type_id":"4","last_reported":1726884389,"current_range_meters":26000,"station_id":"ce4bho92rcd13ifvqh4g","pricing_plan_id":"cebpf4jnsgd1na2vs0mg"},{"bike_id":"e6bcdbe7-48f0-4335-bf4f-d7a22249ce5f","system_id":"levelo_inurba_marseille","lat":43.25121,"lon":5.40313,"is_reserved":false,"is_disabled":false,"rental_uris":{"android":"levelo://app?vid=e6bcdbe7-48f0-4335-bf4f-d7a22249ce5f","ios":"levelo://app?vid=e6bcdbe7-48f0-4335-bf4f-d7a22249ce5f"},"vehicle_type_id":"4","last_reported":1726884389,"current_range_meters":22800,"station_id":"ce4bhlh2rcd13ifvqgig","pricing_plan_id":"cebpf4jnsgd1na2vs0mg"},{"bike_id":"70fee6ed-dc93-48a8-980c-9c9cdea4fa35","system_id":"levelo_inurba_marseille","lat":43.30591,"lon":5.37225,"is_reserved":false,"is_disabled":false,"rental_uris":{"android":"levelo://app?vid=70fee6ed-dc93-48a8-980c-9c9cdea4fa35","ios":"levelo://app?vid=70fee6ed-dc93-48a8-980c-9c9cdea4fa35"},"vehicle_type_id":"4","last_reported":1726884389,"current_range_meters":35200,"station_id":"ce4bgqh2rcd13ifvqc4g","pricing_plan_id":"cebpf4jnsgd1na2vs0mg"},{"bike_id":"f3f8e050-a1c2-48aa-b8de-726645beea4c","system_id":"levelo_inurba_marseille","lat":43.29035,"lon":5.35947,"is_reserved":false,"is_disabled":false,"rental_uris":{"android":"levelo://app?vid=f3f8e050-a1c2-48aa-b8de-726645beea4c","ios":"levelo://app?vid=f3f8e050-a1c2-48aa-b8de-726645beea4c"},"vehicle_type_id":"4","last_reported":1726884389,"current_range_meters":38400,"station_id":"ce4bha92rcd13ifvqeg0","pricing_plan_id":"cebpf4jnsgd1na2vs0mg"},{"bike_id":"b47f7abd-dffa-4594-ae10-66a4216fac59","system_id":"levelo_inurba_marseille","lat":43.27512,"lon":5.39514,"is_reserved":false,"is_disabled":false,"rental_uris":{"android":"levelo://app?vid=b47f7abd-dffa-4594-ae10-66a4216fac59","ios":"levelo://app?vid=b47f7abd-dffa-4594-ae10-66a4216fac59"},"vehicle_type_id":"4","last_reported":1726884389,"current_range_meters":36000,"station_id":"","pricing_plan_id":"cebpf4jnsgd1na2vs0mg"},{"bike_id":"a09b131e-b0a8-4938-a802-317747afbde1","system_id":"levelo_inurba_marseille","lat":43.2997,"lon":5.36941,"is_reserved":false,"is_disabled":false,"rental_uris":{"android":"levelo://app?vid=a09b131e-b0a8-4938-a802-317747afbde1","ios":"levelo://app?vid=a09b131e-b0a8-4938-a802-317747afbde1"},"vehicle_type_id":"4","last_reported":1726884389,"current_range_meters":4400,"station_id":"","pricing_plan_id":"cebpf4jnsgd1na2vs0mg"},{"bike_id":"8f4b950f-9bc4-49d6-b915-95ca8304b9ed","system_id":"levelo_inurba_marseille","lat":43.28694,"lon":5.39965,"is_reserved":false,"is_disabled":false,"rental_uris":{"android":"levelo://app?vid=8f4b950f-9bc4-49d6-b915-95ca8304b9ed","ios":"levelo://app?vid=8f4b950f-9bc4-49d6-b915-95ca8304b9ed"},"vehicle_type_id":"4","last_reported":1726884389,"current_range_meters":38800,"station_id":"ce4bho92rcd13ifvqh3g","pricing_plan_id":"cebpf4jnsgd1na2vs0mg"},{"bike_id":"b3a3e2cf-e173-4782-9560-348915a6093a","system_id":"levelo_inurba_marseille","lat":43.27179,"lon":5.40993,"is_reserved":false,"is_disabled":false,"rental_uris":{"android":"levelo://app?vid=b3a3e2cf-e173-4782-9560-348915a6093a","ios":"levelo://app?vid=b3a3e2cf-e173-4782-9560-348915a6093a"},"vehicle_type_id":"4","last_reported":1726884389,"current_range_meters":32000,"station_id":"ce4bhl12rcd13ifvqgf0","pricing_plan_id":"cebpf4jnsgd1na2vs0mg"},{"bike_id":"b9abb1c6-eda5-4086-8157-de0c63cc2402","system_id":"levelo_inurba_marseille","lat":43.28108,"lon":5.37854,"is_reserved":false,"is_disabled":false,"rental_uris":{"android":"levelo://app?vid=b9abb1c6-eda5-4086-8157-de0c63cc2402","ios":"levelo://app?vid=b9abb1c6-eda5-4086-8157-de0c63cc2402"},"vehicle_type_id":"4","last_reported":1726884389,"current_range_meters":25200,"station_id":"ce4bha12rcd13ifvqee0","pricing_plan_id":"cebpf4jnsgd1na2vs0mg"},{"bike_id":"542e2c69-6cd2-413d-9cfd-2c5f9a60a140","system_id":"levelo_inurba_marseille","lat":43.24081,"lon":5.37757,"is_reserved":false,"is_disabled":false,"rental_uris":{"android":"levelo://app?vid=542e2c69-6cd2-413d-9cfd-2c5f9a60a140","ios":"levelo://app?vid=542e2c69-6cd2-413d-9cfd-2c5f9a60a140"},"vehicle_type_id":"4","last_reported":1726884389,"current_range_meters":9600,"station_id":"ce4bhnp2rcd13ifvqgvg","pricing_plan_id":"cebpf4jnsgd1na2vs0mg"},{"bike_id":"f9c9be8e-ea20-4727-9516-26ff2df08de7","system_id":"levelo_inurba_marseille","lat":43.29993,"lon":5.41323,"is_reserved":false,"is_disabled":false,"rental_uris":{"android":"levelo://app?vid=f9c9be8e-ea20-4727-9516-26ff2df08de7","ios":"levelo://app?vid=f9c9be8e-ea20-4727-9516-26ff2df08de7"},"vehicle_type_id":"4","last_reported":1726884389,"current_range_meters":38800,"station_id":"ce4bhp12rcd13ifvqh9g","pricing_plan_id":"cebpf4jnsgd1na2vs0mg"},{"bike_id":"a7d8a898-895c-48d4-b887-5bba9b1798ae","system_id":"levelo_inurba_marseille","lat":43.28932,"lon":5.38359,"is_reserved":false,"is_disabled":false,"rental_uris":{"android":"levelo://app?vid=a7d8a898-895c-48d4-b887-5bba9b1798ae","ios":"levelo://app?vid=a7d8a898-895c-48d4-b887-5bba9b1798ae"},"vehicle_type_id":"4","last_reported":1726884389,"current_range_meters":38400,"station_id":"ce4bh612rcd13ifvqe6g","pricing_plan_id":"cebpf4jnsgd1na2vs0mg"},{"bike_id":"8273c267-5219-4186-8f32-c3e55203a7ac","system_id":"levelo_inurba_marseille","lat":43.23965,"lon":5.39702,"is_reserved":false,"is_disabled":false,"rental_uris":{"android":"levelo://app?vid=8273c267-5219-4186-8f32-c3e55203a7ac","ios":"levelo://app?vid=8273c267-5219-4186-8f32-c3e55203a7ac"},"vehicle_type_id":"4","last_reported":1726884389,"current_range_meters":7200,"station_id":"","pricing_plan_id":"cebpf4jnsgd1na2vs0mg"},{"bike_id":"79ae80ec-ee51-41e3-8d81-35eef174ac0d","system_id":"levelo_inurba_marseille","lat":43.29033,"lon":5.36974,"is_reserved":false,"is_disabled":false,"rental_uris":{"android":"levelo://app?vid=79ae80ec-ee51-41e3-8d81-35eef174ac0d","ios":"levelo://app?vid=79ae80ec-ee51-41e3-8d81-35eef174ac0d"},"vehicle_type_id":"4","last_reported":1726884389,"current_range_meters":11600,"station_id":"","pricing_plan_id":"cebpf4jnsgd1na2vs0mg"},{"bike_id":"9c92648a-f006-4167-bb4c-b3ce8835b4ad","system_id":"levelo_inurba_marseille","lat":43.31705,"lon":5.43702,"is_reserved":false,"is_disabled":false,"rental_uris":{"android":"levelo://app?vid=9c92648a-f006-4167-bb4c-b3ce8835b4ad","ios":"levelo://app?vid=9c92648a-f006-4167-bb4c-b3ce8835b4ad"},"vehicle_type_id":"4","last_reported":1726884389,"current_range_meters":38800,"station_id":"ce4bhp92rcd13ifvqhcg","pricing_plan_id":"cebpf4jnsgd1na2vs0mg"},{"bike_id":"0758898b-c621-4049-b058-e9cd0ceaa979","system_id":"levelo_inurba_marseille","lat":43.30475,"lon":5.3789,"is_reserved":false,"is_disabled":false,"rental_uris":{"android":"levelo://app?vid=0758898b-c621-4049-b058-e9cd0ceaa979","ios":"levelo://app?vid=0758898b-c621-4049-b058-e9cd0ceaa979"},"vehicle_type_id":"4","last_reported":1726884389,"current_range_meters":36400,"station_id":"ce4bgup2rcd13ifvqcn0","pricing_plan_id":"cebpf4jnsgd1na2vs0mg"},{"bike_id":"302824b9-3dd5-4019-865b-adb62674e635","system_id":"levelo_inurba_marseille","lat":43.22936,"lon":5.35373,"is_reserved":false,"is_disabled":false,"rental_uris":{"android":"levelo://app?vid=302824b9-3dd5-4019-865b-adb62674e635","ios":"levelo://app?vid=302824b9-3dd5-4019-865b-adb62674e635"},"vehicle_type_id":"4","last_reported":1726884389,"current_range_meters":31200,"station_id":"cpo3532slgdg3j2ikp40","pricing_plan_id":"cebpf4jnsgd1na2vs0mg"},{"bike_id":"59ff5b6d-f654-421c-9531-eb97a5647b8c","system_id":"levelo_inurba_marseille","lat":43.30262,"lon":5.40071,"is_reserved":false,"is_disabled":false,"rental_uris":{"android":"levelo://app?vid=59ff5b6d-f654-421c-9531-eb97a5647b8c","ios":"levelo://app?vid=59ff5b6d-f654-421c-9531-eb97a5647b8c"},"vehicle_type_id":"4","last_reported":1726884389,"current_range_meters":37600,"station_id":"ce4bgvh2rcd13ifvqcs0","pricing_plan_id":"cebpf4jnsgd1na2vs0mg"},{"bike_id":"05ce1cc7-1458-4b6f-b98b-b440ad978a7c","system_id":"levelo_inurba_marseille","lat":43.28568,"lon":5.39504,"is_reserved":false,"is_disabled":false,"rental_uris":{"android":"levelo://app?vid=05ce1cc7-1458-4b6f-b98b-b440ad978a7c","ios":"levelo://app?vid=05ce1cc7-1458-4b6f-b98b-b440ad978a7c"},"vehicle_type_id":"4","last_reported":1726884389,"current_range_meters":31200,"station_id":"ce4bh292rcd13ifvqdg0","pricing_plan_id":"cebpf4jnsgd1na2vs0mg"},{"bike_id":"42fac7e5-89b5-43a0-86e0-6d691ed14493","system_id":"levelo_inurba_marseille","lat":43.3128,"lon":5.40178,"is_reserved":false,"is_disabled":false,"rental_uris":{"android":"levelo://app?vid=42fac7e5-89b5-43a0-86e0-6d691ed14493","ios":"levelo://app?vid=42fac7e5-89b5-43a0-86e0-6d691ed14493"},"vehicle_type_id":"4","last_reported":1726884389,"current_range_meters":28400,"station_id":"ce4bh092rcd13ifvqd30","pricing_plan_id":"cebpf4jnsgd1na2vs0mg"},{"bike_id":"8e22fc24-4a7c-45aa-a5d9-f186ef2348cb","system_id":"levelo_inurba_marseille","lat":43.280019,"lon":5.416634,"is_reserved":false,"is_disabled":false,"rental_uris":{"android":"levelo://app?vid=8e22fc24-4a7c-45aa-a5d9-f186ef2348cb","ios":"levelo://app?vid=8e22fc24-4a7c-45aa-a5d9-f186ef2348cb"},"vehicle_type_id":"4","last_reported":1726884389,"current_range_meters":33200,"station_id":"","pricing_plan_id":"cebpf4jnsgd1na2vs0mg"},{"bike_id":"fff9e145-8789-414d-bffe-2978cf0a6dc3","system_id":"levelo_inurba_marseille","lat":43.28459,"lon":5.35878,"is_reserved":false,"is_disabled":false,"rental_uris":{"android":"levelo://app?vid=fff9e145-8789-414d-bffe-2978cf0a6dc3","ios":"levelo://app?vid=fff9e145-8789-414d-bffe-2978cf0a6dc3"},"vehicle_type_id":"4","last_reported":1726884389,"current_range_meters":38800,"station_id":"ce4bhah2rcd13ifvqei0","pricing_plan_id":"cebpf4jnsgd1na2vs0mg"},{"bike_id":"7db34aab-bb83-4943-a5a0-93955f52a4ec","system_id":"levelo_inurba_marseille","lat":43.33728,"lon":5.39181,"is_reserved":false,"is_disabled":false,"rental_uris":{"android":"levelo://app?vid=7db34aab-bb83-4943-a5a0-93955f52a4ec","ios":"levelo://app?vid=7db34aab-bb83-4943-a5a0-93955f52a4ec"},"vehicle_type_id":"4","last_reported":1726884389,"current_range_meters":38800,"station_id":"ce4bhr92rcd13ifvqhsg","pricing_plan_id":"cebpf4jnsgd1na2vs0mg"},{"bike_id":"d63454a7-1749-4b2e-9995-433038e7b1a4","system_id":"levelo_inurba_marseille","lat":43.29707,"lon":5.36615,"is_reserved":false,"is_disabled":false,"rental_uris":{"android":"levelo://app?vid=d63454a7-1749-4b2e-9995-433038e7b1a4","ios":"levelo://app?vid=d63454a7-1749-4b2e-9995-433038e7b1a4"},"vehicle_type_id":"4","last_reported":1726884389,"current_range_meters":32800,"station_id":"ce4bgn12rcd13ifvqbt0","pricing_plan_id":"cebpf4jnsgd1na2vs0mg"},{"bike_id":"f8756bd1-1b84-40a9-97cd-556eb9ea7069","system_id":"levelo_inurba_marseille","lat":43.31252,"lon":5.40161,"is_reserved":false,"is_disabled":false,"rental_uris":{"android":"levelo://app?vid=f8756bd1-1b84-40a9-97cd-556eb9ea7069","ios":"levelo://app?vid=f8756bd1-1b84-40a9-97cd-556eb9ea7069"},"vehicle_type_id":"4","last_reported":1726884389,"current_range_meters":39200,"station_id":"ce4bh092rcd13ifvqd30","pricing_plan_id":"cebpf4jnsgd1na2vs0mg"},{"bike_id":"d48f1906-adcd-45cb-a59f-a9353947a181","system_id":"levelo_inurba_marseille","lat":43.2784,"lon":5.39198,"is_reserved":false,"is_disabled":false,"rental_uris":{"android":"levelo://app?vid=d48f1906-adcd-45cb-a59f-a9353947a181","ios":"levelo://app?vid=d48f1906-adcd-45cb-a59f-a9353947a181"},"vehicle_type_id":"4","last_reported":1726884389,"current_range_meters":28800,"station_id":"ce4bhjp2rcd13ifvqga0","pricing_plan_id":"cebpf4jnsgd1na2vs0mg"},{"bike_id":"e2da9204-0e3a-46b7-853a-77f6028d8587","system_id":"levelo_inurba_marseille","lat":43.24076,"lon":5.37749,"is_reserved":false,"is_disabled":false,"rental_uris":{"android":"levelo://app?vid=e2da9204-0e3a-46b7-853a-77f6028d8587","ios":"levelo://app?vid=e2da9204-0e3a-46b7-853a-77f6028d8587"},"vehicle_type_id":"4","last_reported":1726884389,"current_range_meters":16400,"station_id":"ce4bhnp2rcd13ifvqgvg","pricing_plan_id":"cebpf4jnsgd1na2vs0mg"},{"bike_id":"2c4d5dd6-b3fc-4e99-ae10-37420ed7722b","system_id":"levelo_inurba_marseille","lat":43.31987,"lon":5.3814,"is_reserved":false,"is_disabled":false,"rental_uris":{"android":"levelo://app?vid=2c4d5dd6-b3fc-4e99-ae10-37420ed7722b","ios":"levelo://app?vid=2c4d5dd6-b3fc-4e99-ae10-37420ed7722b"},"vehicle_type_id":"4","last_reported":1726884389,"current_range_meters":38800,"station_id":"ce4bhr12rcd13ifvqhpg","pricing_plan_id":"cebpf4jnsgd1na2vs0mg"},{"bike_id":"23e5fcf4-4fac-4b05-9a6c-be73f5a6d743","system_id":"levelo_inurba_marseille","lat":43.28157,"lon":5.42642,"is_reserved":false,"is_disabled":false,"rental_uris":{"android":"levelo://app?vid=23e5fcf4-4fac-4b05-9a6c-be73f5a6d743","ios":"levelo://app?vid=23e5fcf4-4fac-4b05-9a6c-be73f5a6d743"},"vehicle_type_id":"4","last_reported":1726884389,"current_range_meters":20400,"station_id":"ce4bhnh2rcd13ifvqgug","pricing_plan_id":"cebpf4jnsgd1na2vs0mg"},{"bike_id":"c13d0fc5-3653-4034-b303-e733b4898e4b","system_id":"levelo_inurba_marseille","lat":43.28098,"lon":5.37852,"is_reserved":false,"is_disabled":false,"rental_uris":{"android":"levelo://app?vid=c13d0fc5-3653-4034-b303-e733b4898e4b","ios":"levelo://app?vid=c13d0fc5-3653-4034-b303-e733b4898e4b"},"vehicle_type_id":"4","last_reported":1726884389,"current_range_meters":8400,"station_id":"ce4bha12rcd13ifvqee0","pricing_plan_id":"cebpf4jnsgd1na2vs0mg"},{"bike_id":"9455a10c-c08f-4c95-bb85-e08f847ecbc5","system_id":"levelo_inurba_marseille","lat":43.24068,"lon":5.37741,"is_reserved":false,"is_disabled":false,"rental_uris":{"android":"levelo://app?vid=9455a10c-c08f-4c95-bb85-e08f847ecbc5","ios":"levelo://app?vid=9455a10c-c08f-4c95-bb85-e08f847ecbc5"},"vehicle_type_id":"4","last_reported":1726884389,"current_range_meters":8800,"station_id":"ce4bhnp2rcd13ifvqgvg","pricing_plan_id":"cebpf4jnsgd1na2vs0mg"},{"bike_id":"40e21d2c-4e69-4d5b-b1ff-38f4433c1826","system_id":"levelo_inurba_marseille","lat":43.24996,"lon":5.38937,"is_reserved":false,"is_disabled":false,"rental_uris":{"android":"levelo://app?vid=40e21d2c-4e69-4d5b-b1ff-38f4433c1826","ios":"levelo://app?vid=40e21d2c-4e69-4d5b-b1ff-38f4433c1826"},"vehicle_type_id":"4","last_reported":1726884389,"current_range_meters":27600,"station_id":"ce4bhgp2rcd13ifvqfd0","pricing_plan_id":"cebpf4jnsgd1na2vs0mg"},{"bike_id":"0039f2f3-724c-4e9c-ad07-303eb89fe473","system_id":"levelo_inurba_marseille","lat":43.26934,"lon":5.40252,"is_reserved":false,"is_disabled":false,"rental_uris":{"android":"levelo://app?vid=0039f2f3-724c-4e9c-ad07-303eb89fe473","ios":"levelo://app?vid=0039f2f3-724c-4e9c-ad07-303eb89fe473"},"vehicle_type_id":"4","last_reported":1726884389,"current_range_meters":27600,"station_id":"cjm6bp8fraef2m0cb0m0","pricing_plan_id":"cebpf4jnsgd1na2vs0mg"},{"bike_id":"7b9dd459-340b-4978-bfb0-6c163a5263e8","system_id":"levelo_inurba_marseille","lat":43.232,"lon":5.3555,"is_reserved":false,"is_disabled":false,"rental_uris":{"android":"levelo://app?vid=7b9dd459-340b-4978-bfb0-6c163a5263e8","ios":"levelo://app?vid=7b9dd459-340b-4978-bfb0-6c163a5263e8"},"vehicle_type_id":"4","last_reported":1726884389,"current_range_meters":38800,"station_id":"ce4bhu92rcd13ifvqi70","pricing_plan_id":"cebpf4jnsgd1na2vs0mg"},{"bike_id":"0b34c002-1469-4f0b-b54e-0134780c2840","system_id":"levelo_inurba_marseille","lat":43.2893,"lon":5.36624,"is_reserved":false,"is_disabled":false,"rental_uris":{"android":"levelo://app?vid=0b34c002-1469-4f0b-b54e-0134780c2840","ios":"levelo://app?vid=0b34c002-1469-4f0b-b54e-0134780c2840"},"vehicle_type_id":"4","last_reported":1726884389,"current_range_meters":28800,"station_id":"ce4bhap2rcd13ifvqek0","pricing_plan_id":"cebpf4jnsgd1na2vs0mg"},{"bike_id":"89e844ff-c7a5-4a44-a0fd-67cf61de3b45","system_id":"levelo_inurba_marseille","lat":43.31055,"lon":5.38343,"is_reserved":false,"is_disabled":false,"rental_uris":{"android":"levelo://app?vid=89e844ff-c7a5-4a44-a0fd-67cf61de3b45","ios":"levelo://app?vid=89e844ff-c7a5-4a44-a0fd-67cf61de3b45"},"vehicle_type_id":"4","last_reported":1726884389,"current_range_meters":32800,"station_id":"ce4bgv92rcd13ifvqcr0","pricing_plan_id":"cebpf4jnsgd1na2vs0mg"},{"bike_id":"14af6286-56f0-4221-b0cf-f9a5d206a408","system_id":"levelo_inurba_marseille","lat":43.31075,"lon":5.38347,"is_reserved":false,"is_disabled":false,"rental_uris":{"android":"levelo://app?vid=14af6286-56f0-4221-b0cf-f9a5d206a408","ios":"levelo://app?vid=14af6286-56f0-4221-b0cf-f9a5d206a408"},"vehicle_type_id":"4","last_reported":1726884389,"current_range_meters":38000,"station_id":"ce4bgv92rcd13ifvqcr0","pricing_plan_id":"cebpf4jnsgd1na2vs0mg"},{"bike_id":"cab25d25-2943-4c69-9e1b-563d2a46778b","system_id":"levelo_inurba_marseille","lat":43.29037,"lon":5.39964,"is_reserved":false,"is_disabled":false,"rental_uris":{"android":"levelo://app?vid=cab25d25-2943-4c69-9e1b-563d2a46778b","ios":"levelo://app?vid=cab25d25-2943-4c69-9e1b-563d2a46778b"},"vehicle_type_id":"4","last_reported":1726884389,"current_range_meters":38800,"station_id":"ce4bh392rcd13ifvqdm0","pricing_plan_id":"cebpf4jnsgd1na2vs0mg"},{"bike_id":"16b25c0b-3ab8-4750-b50d-0dc6846d7a80","system_id":"levelo_inurba_marseille","lat":43.28705,"lon":5.39982,"is_reserved":false,"is_disabled":false,"rental_uris":{"android":"levelo://app?vid=16b25c0b-3ab8-4750-b50d-0dc6846d7a80","ios":"levelo://app?vid=16b25c0b-3ab8-4750-b50d-0dc6846d7a80"},"vehicle_type_id":"4","last_reported":1726884389,"current_range_meters":32800,"station_id":"ce4bho92rcd13ifvqh3g","pricing_plan_id":"cebpf4jnsgd1na2vs0mg"},{"bike_id":"e9b8e590-3bc0-4c22-b946-0db314d5083d","system_id":"levelo_inurba_marseille","lat":43.25867,"lon":5.39906,"is_reserved":false,"is_disabled":false,"rental_uris":{"android":"levelo://app?vid=e9b8e590-3bc0-4c22-b946-0db314d5083d","ios":"levelo://app?vid=e9b8e590-3bc0-4c22-b946-0db314d5083d"},"vehicle_type_id":"4","last_reported":1726884389,"current_range_meters":6800,"station_id":"ce4bhl92rcd13ifvqghg","pricing_plan_id":"cebpf4jnsgd1na2vs0mg"},{"bike_id":"655232e5-dd47-4aeb-b051-4bd3e3ea8975","system_id":"levelo_inurba_marseille","lat":43.25721,"lon":5.41119,"is_reserved":false,"is_disabled":false,"rental_uris":{"android":"levelo://app?vid=655232e5-dd47-4aeb-b051-4bd3e3ea8975","ios":"levelo://app?vid=655232e5-dd47-4aeb-b051-4bd3e3ea8975"},"vehicle_type_id":"4","last_reported":1726884389,"current_range_meters":30400,"station_id":"ce4bhkp2rcd13ifvqgd0","pricing_plan_id":"cebpf4jnsgd1na2vs0mg"},{"bike_id":"3740c6df-06cd-419b-9ae6-b8d9e5eff548","system_id":"levelo_inurba_marseille","lat":43.2753,"lon":5.40935,"is_reserved":false,"is_disabled":false,"rental_uris":{"android":"levelo://app?vid=3740c6df-06cd-419b-9ae6-b8d9e5eff548","ios":"levelo://app?vid=3740c6df-06cd-419b-9ae6-b8d9e5eff548"},"vehicle_type_id":"4","last_reported":1726884389,"current_range_meters":20000,"station_id":"","pricing_plan_id":"cebpf4jnsgd1na2vs0mg"},{"bike_id":"c6a5b1c0-1ce2-46f3-8262-a62ae2cf80bf","system_id":"levelo_inurba_marseille","lat":43.3266,"lon":5.40988,"is_reserved":false,"is_disabled":false,"rental_uris":{"android":"levelo://app?vid=c6a5b1c0-1ce2-46f3-8262-a62ae2cf80bf","ios":"levelo://app?vid=c6a5b1c0-1ce2-46f3-8262-a62ae2cf80bf"},"vehicle_type_id":"4","last_reported":1726884389,"current_range_meters":38400,"station_id":"ce4bhpp2rcd13ifvqhgg","pricing_plan_id":"cebpf4jnsgd1na2vs0mg"},{"bike_id":"51f5754a-5fa4-496b-92aa-8db5fb5c04c9","system_id":"levelo_inurba_marseille","lat":43.32345,"lon":5.40623,"is_reserved":false,"is_disabled":false,"rental_uris":{"android":"levelo://app?vid=51f5754a-5fa4-496b-92aa-8db5fb5c04c9","ios":"levelo://app?vid=51f5754a-5fa4-496b-92aa-8db5fb5c04c9"},"vehicle_type_id":"4","last_reported":1726884389,"current_range_meters":36400,"station_id":"ce4bhq92rcd13ifvqhjg","pricing_plan_id":"cebpf4jnsgd1na2vs0mg"},{"bike_id":"2ce703b4-f868-4226-bdab-b34d4cd84ef6","system_id":"levelo_inurba_marseille","lat":43.33027,"lon":5.39032,"is_reserved":false,"is_disabled":false,"rental_uris":{"android":"levelo://app?vid=2ce703b4-f868-4226-bdab-b34d4cd84ef6","ios":"levelo://app?vid=2ce703b4-f868-4226-bdab-b34d4cd84ef6"},"vehicle_type_id":"4","last_reported":1726884389,"current_range_meters":8000,"station_id":"ce4bhr92rcd13ifvqhrg","pricing_plan_id":"cebpf4jnsgd1na2vs0mg"},{"bike_id":"a51b6faf-f07e-4703-9b45-c377c29d7d5a","system_id":"levelo_inurba_marseille","lat":43.26213,"lon":5.37442,"is_reserved":false,"is_disabled":false,"rental_uris":{"android":"levelo://app?vid=a51b6faf-f07e-4703-9b45-c377c29d7d5a","ios":"levelo://app?vid=a51b6faf-f07e-4703-9b45-c377c29d7d5a"},"vehicle_type_id":"4","last_reported":1726884389,"current_range_meters":20400,"station_id":"ce4bhgp2rcd13ifvqfc0","pricing_plan_id":"cebpf4jnsgd1na2vs0mg"},{"bike_id":"d050b7b6-47ad-4582-9d90-edb6ebf2db9c","system_id":"levelo_inurba_marseille","lat":43.28037,"lon":5.36945,"is_reserved":false,"is_disabled":false,"rental_uris":{"android":"levelo://app?vid=d050b7b6-47ad-4582-9d90-edb6ebf2db9c","ios":"levelo://app?vid=d050b7b6-47ad-4582-9d90-edb6ebf2db9c"},"vehicle_type_id":"4","last_reported":1726884389,"current_range_meters":24000,"station_id":"ce4bha12rcd13ifvqef0","pricing_plan_id":"cebpf4jnsgd1na2vs0mg"},{"bike_id":"146dc772-f2a3-4694-9ba5-5905f9c6938e","system_id":"levelo_inurba_marseille","lat":43.30792,"lon":5.38146,"is_reserved":false,"is_disabled":false,"rental_uris":{"android":"levelo://app?vid=146dc772-f2a3-4694-9ba5-5905f9c6938e","ios":"levelo://app?vid=146dc772-f2a3-4694-9ba5-5905f9c6938e"},"vehicle_type_id":"4","last_reported":1726884389,"current_range_meters":38000,"station_id":"ce4bgt12rcd13ifvqce0","pricing_plan_id":"cebpf4jnsgd1na2vs0mg"},{"bike_id":"36804418-55ab-48a2-8e52-fdbd55d4360a","system_id":"levelo_inurba_marseille","lat":43.2511,"lon":5.40323,"is_reserved":false,"is_disabled":false,"rental_uris":{"android":"levelo://app?vid=36804418-55ab-48a2-8e52-fdbd55d4360a","ios":"levelo://app?vid=36804418-55ab-48a2-8e52-fdbd55d4360a"},"vehicle_type_id":"4","last_reported":1726884389,"current_range_meters":27600,"station_id":"ce4bhlh2rcd13ifvqgig","pricing_plan_id":"cebpf4jnsgd1na2vs0mg"},{"bike_id":"422925b0-a793-4796-b72f-761108954c4d","system_id":"levelo_inurba_marseille","lat":43.28409,"lon":5.37517,"is_reserved":false,"is_disabled":false,"rental_uris":{"android":"levelo://app?vid=422925b0-a793-4796-b72f-761108954c4d","ios":"levelo://app?vid=422925b0-a793-4796-b72f-761108954c4d"},"vehicle_type_id":"4","last_reported":1726884389,"current_range_meters":38000,"station_id":"ce4bh412rcd13ifvqds0","pricing_plan_id":"cebpf4jnsgd1na2vs0mg"},{"bike_id":"ac19dab7-e430-4143-bb19-a3308449fb7f","system_id":"levelo_inurba_marseille","lat":43.27823,"lon":5.40709,"is_reserved":false,"is_disabled":false,"rental_uris":{"android":"levelo://app?vid=ac19dab7-e430-4143-bb19-a3308449fb7f","ios":"levelo://app?vid=ac19dab7-e430-4143-bb19-a3308449fb7f"},"vehicle_type_id":"4","last_reported":1726884389,"current_range_meters":35600,"station_id":"ce4bhnh2rcd13ifvqgtg","pricing_plan_id":"cebpf4jnsgd1na2vs0mg"},{"bike_id":"60460f01-4fc1-4471-a1cc-fd64c0c52430","system_id":"levelo_inurba_marseille","lat":43.31329,"lon":5.39689,"is_reserved":false,"is_disabled":false,"rental_uris":{"android":"levelo://app?vid=60460f01-4fc1-4471-a1cc-fd64c0c52430","ios":"levelo://app?vid=60460f01-4fc1-4471-a1cc-fd64c0c52430"},"vehicle_type_id":"4","last_reported":1726884389,"current_range_meters":40000,"station_id":"ce4bgvp2rcd13ifvqcu0","pricing_plan_id":"cebpf4jnsgd1na2vs0mg"},{"bike_id":"4ccbd41a-c2ef-4c43-b0b8-8585fc584f54","system_id":"levelo_inurba_marseille","lat":43.28475,"lon":5.38414,"is_reserved":false,"is_disabled":false,"rental_uris":{"android":"levelo://app?vid=4ccbd41a-c2ef-4c43-b0b8-8585fc584f54","ios":"levelo://app?vid=4ccbd41a-c2ef-4c43-b0b8-8585fc584f54"},"vehicle_type_id":"4","last_reported":1726884389,"current_range_meters":37600,"station_id":"ce4bh512rcd13ifvqe3g","pricing_plan_id":"cebpf4jnsgd1na2vs0mg"},{"bike_id":"51386b7c-1be8-44ac-9509-9e2b8db5ebd6","system_id":"levelo_inurba_marseille","lat":43.30807,"lon":5.43522,"is_reserved":false,"is_disabled":false,"rental_uris":{"android":"levelo://app?vid=51386b7c-1be8-44ac-9509-9e2b8db5ebd6","ios":"levelo://app?vid=51386b7c-1be8-44ac-9509-9e2b8db5ebd6"},"vehicle_type_id":"4","last_reported":1726884389,"current_range_meters":24000,"station_id":"ce4bhph2rcd13ifvqheg","pricing_plan_id":"cebpf4jnsgd1na2vs0mg"},{"bike_id":"bab4929f-2ee8-4e72-abcd-10338869bd8f","system_id":"levelo_inurba_marseille","lat":43.31257,"lon":5.40176,"is_reserved":false,"is_disabled":false,"rental_uris":{"android":"levelo://app?vid=bab4929f-2ee8-4e72-abcd-10338869bd8f","ios":"levelo://app?vid=bab4929f-2ee8-4e72-abcd-10338869bd8f"},"vehicle_type_id":"4","last_reported":1726884389,"current_range_meters":36000,"station_id":"ce4bh092rcd13ifvqd30","pricing_plan_id":"cebpf4jnsgd1na2vs0mg"},{"bike_id":"d71ac1d9-1765-4859-833e-87065b9f7ae7","system_id":"levelo_inurba_marseille","lat":43.28436,"lon":5.39205,"is_reserved":false,"is_disabled":false,"rental_uris":{"android":"levelo://app?vid=d71ac1d9-1765-4859-833e-87065b9f7ae7","ios":"levelo://app?vid=d71ac1d9-1765-4859-833e-87065b9f7ae7"},"vehicle_type_id":"4","last_reported":1726884389,"current_range_meters":38800,"station_id":"ce4bhoh2rcd13ifvqh5g","pricing_plan_id":"cebpf4jnsgd1na2vs0mg"},{"bike_id":"d65cbc32-3a83-4b2e-90d3-f60b7e66b84a","system_id":"levelo_inurba_marseille","lat":43.29551,"lon":5.42278,"is_reserved":false,"is_disabled":false,"rental_uris":{"android":"levelo://app?vid=d65cbc32-3a83-4b2e-90d3-f60b7e66b84a","ios":"levelo://app?vid=d65cbc32-3a83-4b2e-90d3-f60b7e66b84a"},"vehicle_type_id":"4","last_reported":1726884389,"current_range_meters":38800,"station_id":"ce4bhph2rcd13ifvqhdg","pricing_plan_id":"cebpf4jnsgd1na2vs0mg"},{"bike_id":"2b829ffb-e074-4a2f-a6d8-9bb6d361c523","system_id":"levelo_inurba_marseille","lat":43.24549,"lon":5.39526,"is_reserved":false,"is_disabled":false,"rental_uris":{"android":"levelo://app?vid=2b829ffb-e074-4a2f-a6d8-9bb6d361c523","ios":"levelo://app?vid=2b829ffb-e074-4a2f-a6d8-9bb6d361c523"},"vehicle_type_id":"4","last_reported":1726884389,"current_range_meters":19200,"station_id":"ce4bhlp2rcd13ifvqgjg","pricing_plan_id":"cebpf4jnsgd1na2vs0mg"},{"bike_id":"9dc736d2-7bde-4a1b-9fd2-574f6ea60e2d","system_id":"levelo_inurba_marseille","lat":43.28858,"lon":5.3928,"is_reserved":false,"is_disabled":false,"rental_uris":{"android":"levelo://app?vid=9dc736d2-7bde-4a1b-9fd2-574f6ea60e2d","ios":"levelo://app?vid=9dc736d2-7bde-4a1b-9fd2-574f6ea60e2d"},"vehicle_type_id":"4","last_reported":1726884389,"current_range_meters":38800,"station_id":"ce4bh2p2rcd13ifvqdi0","pricing_plan_id":"cebpf4jnsgd1na2vs0mg"},{"bike_id":"39411998-4742-492d-8e0c-3a7dfbdf9dd5","system_id":"levelo_inurba_marseille","lat":43.27998,"lon":5.4001,"is_reserved":false,"is_disabled":false,"rental_uris":{"android":"levelo://app?vid=39411998-4742-492d-8e0c-3a7dfbdf9dd5","ios":"levelo://app?vid=39411998-4742-492d-8e0c-3a7dfbdf9dd5"},"vehicle_type_id":"4","last_reported":1726884389,"current_range_meters":38800,"station_id":"ce4bho92rcd13ifvqh4g","pricing_plan_id":"cebpf4jnsgd1na2vs0mg"},{"bike_id":"381816ef-1239-44b3-95b2-7c3a47845f8b","system_id":"levelo_inurba_marseille","lat":43.31512,"lon":5.37328,"is_reserved":false,"is_disabled":false,"rental_uris":{"android":"levelo://app?vid=381816ef-1239-44b3-95b2-7c3a47845f8b","ios":"levelo://app?vid=381816ef-1239-44b3-95b2-7c3a47845f8b"},"vehicle_type_id":"4","last_reported":1726884389,"current_range_meters":35200,"station_id":"ce4bgt12rcd13ifvqcd0","pricing_plan_id":"cebpf4jnsgd1na2vs0mg"},{"bike_id":"3261e81d-6f13-45a4-ba96-33ed382e28e0","system_id":"levelo_inurba_marseille","lat":43.28067,"lon":5.39639,"is_reserved":false,"is_disabled":false,"rental_uris":{"android":"levelo://app?vid=3261e81d-6f13-45a4-ba96-33ed382e28e0","ios":"levelo://app?vid=3261e81d-6f13-45a4-ba96-33ed382e28e0"},"vehicle_type_id":"4","last_reported":1726884389,"current_range_meters":38800,"station_id":"ce4bho12rcd13ifvqh2g","pricing_plan_id":"cebpf4jnsgd1na2vs0mg"},{"bike_id":"1e1c92ea-4100-48a4-80e0-a529141b8530","system_id":"levelo_inurba_marseille","lat":43.30687,"lon":5.40085,"is_reserved":false,"is_disabled":false,"rental_uris":{"android":"levelo://app?vid=1e1c92ea-4100-48a4-80e0-a529141b8530","ios":"levelo://app?vid=1e1c92ea-4100-48a4-80e0-a529141b8530"},"vehicle_type_id":"4","last_reported":1726884389,"current_range_meters":24400,"station_id":"ce4bh112rcd13ifvqda0","pricing_plan_id":"cebpf4jnsgd1na2vs0mg"},{"bike_id":"af77829a-dac9-4285-97bc-44a0fa611c1b","system_id":"levelo_inurba_marseille","lat":43.30311,"lon":5.39215,"is_reserved":false,"is_disabled":false,"rental_uris":{"android":"levelo://app?vid=af77829a-dac9-4285-97bc-44a0fa611c1b","ios":"levelo://app?vid=af77829a-dac9-4285-97bc-44a0fa611c1b"},"vehicle_type_id":"4","last_reported":1726884389,"current_range_meters":28400,"station_id":"ce4bgkh2rcd13ifvqbk0","pricing_plan_id":"cebpf4jnsgd1na2vs0mg"},{"bike_id":"81437a93-aba3-423a-96ab-d420c4e83f71","system_id":"levelo_inurba_marseille","lat":43.31758,"lon":5.39007,"is_reserved":false,"is_disabled":false,"rental_uris":{"android":"levelo://app?vid=81437a93-aba3-423a-96ab-d420c4e83f71","ios":"levelo://app?vid=81437a93-aba3-423a-96ab-d420c4e83f71"},"vehicle_type_id":"4","last_reported":1726884389,"current_range_meters":24000,"station_id":"ce4bhqp2rcd13ifvqhng","pricing_plan_id":"cebpf4jnsgd1na2vs0mg"},{"bike_id":"7d6a4ae0-5563-478e-a351-f52ab08c155f","system_id":"levelo_inurba_marseille","lat":43.28344,"lon":5.38113,"is_reserved":false,"is_disabled":false,"rental_uris":{"android":"levelo://app?vid=7d6a4ae0-5563-478e-a351-f52ab08c155f","ios":"levelo://app?vid=7d6a4ae0-5563-478e-a351-f52ab08c155f"},"vehicle_type_id":"4","last_reported":1726884389,"current_range_meters":27600,"station_id":"ce4bh412rcd13ifvqdr0","pricing_plan_id":"cebpf4jnsgd1na2vs0mg"},{"bike_id":"8af8c321-de1a-48b7-85ee-6b8f84590c25","system_id":"levelo_inurba_marseille","lat":43.27212,"lon":5.40988,"is_reserved":false,"is_disabled":false,"rental_uris":{"android":"levelo://app?vid=8af8c321-de1a-48b7-85ee-6b8f84590c25","ios":"levelo://app?vid=8af8c321-de1a-48b7-85ee-6b8f84590c25"},"vehicle_type_id":"4","last_reported":1726884389,"current_range_meters":38800,"station_id":"ce4bhl12rcd13ifvqgf0","pricing_plan_id":"cebpf4jnsgd1na2vs0mg"},{"bike_id":"4cdb29a3-250a-4b85-b491-3b54906467b8","system_id":"levelo_inurba_marseille","lat":43.31767,"lon":5.39029,"is_reserved":false,"is_disabled":false,"rental_uris":{"android":"levelo://app?vid=4cdb29a3-250a-4b85-b491-3b54906467b8","ios":"levelo://app?vid=4cdb29a3-250a-4b85-b491-3b54906467b8"},"vehicle_type_id":"4","last_reported":1726884389,"current_range_meters":22400,"station_id":"ce4bhqp2rcd13ifvqhng","pricing_plan_id":"cebpf4jnsgd1na2vs0mg"},{"bike_id":"489f81cc-6aea-4eb0-9203-c6cf09def547","system_id":"levelo_inurba_marseille","lat":43.2871,"lon":5.37937,"is_reserved":false,"is_disabled":false,"rental_uris":{"android":"levelo://app?vid=489f81cc-6aea-4eb0-9203-c6cf09def547","ios":"levelo://app?vid=489f81cc-6aea-4eb0-9203-c6cf09def547"},"vehicle_type_id":"4","last_reported":1726884389,"current_range_meters":35200,"station_id":"ce4bh9p2rcd13ifvqec0","pricing_plan_id":"cebpf4jnsgd1na2vs0mg"},{"bike_id":"2eac50e5-7011-4a43-8936-b2ff6ff99a36","system_id":"levelo_inurba_marseille","lat":43.31071,"lon":5.3836,"is_reserved":false,"is_disabled":false,"rental_uris":{"android":"levelo://app?vid=2eac50e5-7011-4a43-8936-b2ff6ff99a36","ios":"levelo://app?vid=2eac50e5-7011-4a43-8936-b2ff6ff99a36"},"vehicle_type_id":"4","last_reported":1726884389,"current_range_meters":27600,"station_id":"ce4bgv92rcd13ifvqcr0","pricing_plan_id":"cebpf4jnsgd1na2vs0mg"},{"bike_id":"bdc2dd31-442c-4eeb-b951-a54134fa2840","system_id":"levelo_inurba_marseille","lat":43.28034,"lon":5.36949,"is_reserved":false,"is_disabled":false,"rental_uris":{"android":"levelo://app?vid=bdc2dd31-442c-4eeb-b951-a54134fa2840","ios":"levelo://app?vid=bdc2dd31-442c-4eeb-b951-a54134fa2840"},"vehicle_type_id":"4","last_reported":1726884389,"current_range_meters":22800,"station_id":"ce4bha12rcd13ifvqef0","pricing_plan_id":"cebpf4jnsgd1na2vs0mg"},{"bike_id":"06f58f1b-eca6-465f-bdfc-71eb9b07aa63","system_id":"levelo_inurba_marseille","lat":43.317,"lon":5.37785,"is_reserved":false,"is_disabled":false,"rental_uris":{"android":"levelo://app?vid=06f58f1b-eca6-465f-bdfc-71eb9b07aa63","ios":"levelo://app?vid=06f58f1b-eca6-465f-bdfc-71eb9b07aa63"},"vehicle_type_id":"4","last_reported":1726884389,"current_range_meters":22800,"station_id":"ce4bgth2rcd13ifvqch0","pricing_plan_id":"cebpf4jnsgd1na2vs0mg"},{"bike_id":"4f6cd953-65f5-4d4f-a052-70118d864e1d","system_id":"levelo_inurba_marseille","lat":43.29887,"lon":5.43666,"is_reserved":false,"is_disabled":false,"rental_uris":{"android":"levelo://app?vid=4f6cd953-65f5-4d4f-a052-70118d864e1d","ios":"levelo://app?vid=4f6cd953-65f5-4d4f-a052-70118d864e1d"},"vehicle_type_id":"4","last_reported":1726884389,"current_range_meters":9600,"station_id":"ce4bhpp2rcd13ifvqhfg","pricing_plan_id":"cebpf4jnsgd1na2vs0mg"},{"bike_id":"b92130b9-287b-4bdb-ada9-013b95f350df","system_id":"levelo_inurba_marseille","lat":43.30429,"lon":5.39777,"is_reserved":false,"is_disabled":false,"rental_uris":{"android":"levelo://app?vid=b92130b9-287b-4bdb-ada9-013b95f350df","ios":"levelo://app?vid=b92130b9-287b-4bdb-ada9-013b95f350df"},"vehicle_type_id":"4","last_reported":1726884389,"current_range_meters":17200,"station_id":"ce4bh092rcd13ifvqd20","pricing_plan_id":"cebpf4jnsgd1na2vs0mg"},{"bike_id":"6e904c0e-1b25-4bee-a5de-ca2f2a8013f5","system_id":"levelo_inurba_marseille","lat":43.28684,"lon":5.3996,"is_reserved":false,"is_disabled":false,"rental_uris":{"android":"levelo://app?vid=6e904c0e-1b25-4bee-a5de-ca2f2a8013f5","ios":"levelo://app?vid=6e904c0e-1b25-4bee-a5de-ca2f2a8013f5"},"vehicle_type_id":"4","last_reported":1726884389,"current_range_meters":38800,"station_id":"ce4bho92rcd13ifvqh3g","pricing_plan_id":"cebpf4jnsgd1na2vs0mg"},{"bike_id":"0cbd7f65-c27f-4154-af83-97063396f9fb","system_id":"levelo_inurba_marseille","lat":43.29737,"lon":5.39273,"is_reserved":false,"is_disabled":false,"rental_uris":{"android":"levelo://app?vid=0cbd7f65-c27f-4154-af83-97063396f9fb","ios":"levelo://app?vid=0cbd7f65-c27f-4154-af83-97063396f9fb"},"vehicle_type_id":"4","last_reported":1726884389,"current_range_meters":25200,"station_id":"","pricing_plan_id":"cebpf4jnsgd1na2vs0mg"},{"bike_id":"610ae2bc-1ce0-4157-8b8a-62d460f1da9c","system_id":"levelo_inurba_marseille","lat":43.22922,"lon":5.35376,"is_reserved":false,"is_disabled":false,"rental_uris":{"android":"levelo://app?vid=610ae2bc-1ce0-4157-8b8a-62d460f1da9c","ios":"levelo://app?vid=610ae2bc-1ce0-4157-8b8a-62d460f1da9c"},"vehicle_type_id":"4","last_reported":1726884389,"current_range_meters":8000,"station_id":"cpo3532slgdg3j2ikp40","pricing_plan_id":"cebpf4jnsgd1na2vs0mg"},{"bike_id":"437d7254-4081-4ab2-bd2e-34dedca9de98","system_id":"levelo_inurba_marseille","lat":43.30795,"lon":5.37665,"is_reserved":false,"is_disabled":false,"rental_uris":{"android":"levelo://app?vid=437d7254-4081-4ab2-bd2e-34dedca9de98","ios":"levelo://app?vid=437d7254-4081-4ab2-bd2e-34dedca9de98"},"vehicle_type_id":"4","last_reported":1726884389,"current_range_meters":15200,"station_id":"ce4bgv92rcd13ifvqcq0","pricing_plan_id":"cebpf4jnsgd1na2vs0mg"},{"bike_id":"cf88c48f-76e1-4865-8aec-2a94db3cd4d9","system_id":"levelo_inurba_marseille","lat":43.31118,"lon":5.37769,"is_reserved":false,"is_disabled":false,"rental_uris":{"android":"levelo://app?vid=cf88c48f-76e1-4865-8aec-2a94db3cd4d9","ios":"levelo://app?vid=cf88c48f-76e1-4865-8aec-2a94db3cd4d9"},"vehicle_type_id":"4","last_reported":1726884389,"current_range_meters":28400,"station_id":"ce4bgt92rcd13ifvqcg0","pricing_plan_id":"cebpf4jnsgd1na2vs0mg"},{"bike_id":"2e0ad234-46bd-4aa7-aed9-b44f50fc5c66","system_id":"levelo_inurba_marseille","lat":43.28079,"lon":5.39649,"is_reserved":false,"is_disabled":false,"rental_uris":{"android":"levelo://app?vid=2e0ad234-46bd-4aa7-aed9-b44f50fc5c66","ios":"levelo://app?vid=2e0ad234-46bd-4aa7-aed9-b44f50fc5c66"},"vehicle_type_id":"4","last_reported":1726884389,"current_range_meters":40000,"station_id":"ce4bho12rcd13ifvqh2g","pricing_plan_id":"cebpf4jnsgd1na2vs0mg"},{"bike_id":"eecbe099-2cdf-4018-8898-2dd34a0362d6","system_id":"levelo_inurba_marseille","lat":43.2512,"lon":5.40329,"is_reserved":false,"is_disabled":false,"rental_uris":{"android":"levelo://app?vid=eecbe099-2cdf-4018-8898-2dd34a0362d6","ios":"levelo://app?vid=eecbe099-2cdf-4018-8898-2dd34a0362d6"},"vehicle_type_id":"4","last_reported":1726884389,"current_range_meters":25600,"station_id":"ce4bhlh2rcd13ifvqgig","pricing_plan_id":"cebpf4jnsgd1na2vs0mg"},{"bike_id":"5a2da216-d42c-41d5-b580-09904f3a8906","system_id":"levelo_inurba_marseille","lat":43.24074,"lon":5.37759,"is_reserved":false,"is_disabled":false,"rental_uris":{"android":"levelo://app?vid=5a2da216-d42c-41d5-b580-09904f3a8906","ios":"levelo://app?vid=5a2da216-d42c-41d5-b580-09904f3a8906"},"vehicle_type_id":"4","last_reported":1726884389,"current_range_meters":38000,"station_id":"ce4bhnp2rcd13ifvqgvg","pricing_plan_id":"cebpf4jnsgd1na2vs0mg"},{"bike_id":"7bad7561-83a5-484a-8aa7-f54c1517020f","system_id":"levelo_inurba_marseille","lat":43.31328,"lon":5.39698,"is_reserved":false,"is_disabled":false,"rental_uris":{"android":"levelo://app?vid=7bad7561-83a5-484a-8aa7-f54c1517020f","ios":"levelo://app?vid=7bad7561-83a5-484a-8aa7-f54c1517020f"},"vehicle_type_id":"4","last_reported":1726884389,"current_range_meters":13600,"station_id":"ce4bgvp2rcd13ifvqcu0","pricing_plan_id":"cebpf4jnsgd1na2vs0mg"},{"bike_id":"99e2ce67-245d-46cf-9678-8414ecf6610e","system_id":"levelo_inurba_marseille","lat":43.32045,"lon":5.4157,"is_reserved":false,"is_disabled":false,"rental_uris":{"android":"levelo://app?vid=99e2ce67-245d-46cf-9678-8414ecf6610e","ios":"levelo://app?vid=99e2ce67-245d-46cf-9678-8414ecf6610e"},"vehicle_type_id":"4","last_reported":1726884389,"current_range_meters":24800,"station_id":"ce4bhq92rcd13ifvqhkg","pricing_plan_id":"cebpf4jnsgd1na2vs0mg"},{"bike_id":"58014cc6-4f39-4119-a8a0-cdc0e2507820","system_id":"levelo_inurba_marseille","lat":43.32286,"lon":5.38268,"is_reserved":false,"is_disabled":false,"rental_uris":{"android":"levelo://app?vid=58014cc6-4f39-4119-a8a0-cdc0e2507820","ios":"levelo://app?vid=58014cc6-4f39-4119-a8a0-cdc0e2507820"},"vehicle_type_id":"4","last_reported":1726884389,"current_range_meters":39200,"station_id":"ce4bhr12rcd13ifvqhqg","pricing_plan_id":"cebpf4jnsgd1na2vs0mg"},{"bike_id":"7bf73dc9-c1ca-473f-ba3d-0c39cb05dc85","system_id":"levelo_inurba_marseille","lat":43.28468,"lon":5.35893,"is_reserved":false,"is_disabled":false,"rental_uris":{"android":"levelo://app?vid=7bf73dc9-c1ca-473f-ba3d-0c39cb05dc85","ios":"levelo://app?vid=7bf73dc9-c1ca-473f-ba3d-0c39cb05dc85"},"vehicle_type_id":"4","last_reported":1726884389,"current_range_meters":35200,"station_id":"ce4bhah2rcd13ifvqei0","pricing_plan_id":"cebpf4jnsgd1na2vs0mg"},{"bike_id":"29058ff5-4d24-4c57-9c80-3c616b905bac","system_id":"levelo_inurba_marseille","lat":43.29545,"lon":5.42278,"is_reserved":false,"is_disabled":false,"rental_uris":{"android":"levelo://app?vid=29058ff5-4d24-4c57-9c80-3c616b905bac","ios":"levelo://app?vid=29058ff5-4d24-4c57-9c80-3c616b905bac"},"vehicle_type_id":"4","last_reported":1726884389,"current_range_meters":38800,"station_id":"ce4bhph2rcd13ifvqhdg","pricing_plan_id":"cebpf4jnsgd1na2vs0mg"},{"bike_id":"64e1c424-cb82-4de0-bf2e-901666fcb9fe","system_id":"levelo_inurba_marseille","lat":43.27176,"lon":5.40987,"is_reserved":false,"is_disabled":false,"rental_uris":{"android":"levelo://app?vid=64e1c424-cb82-4de0-bf2e-901666fcb9fe","ios":"levelo://app?vid=64e1c424-cb82-4de0-bf2e-901666fcb9fe"},"vehicle_type_id":"4","last_reported":1726884389,"current_range_meters":38800,"station_id":"ce4bhl12rcd13ifvqgf0","pricing_plan_id":"cebpf4jnsgd1na2vs0mg"},{"bike_id":"e1b8bd0c-b203-485a-85e4-bcb8e338cfbc","system_id":"levelo_inurba_marseille","lat":43.27829,"lon":5.39198,"is_reserved":false,"is_disabled":false,"rental_uris":{"android":"levelo://app?vid=e1b8bd0c-b203-485a-85e4-bcb8e338cfbc","ios":"levelo://app?vid=e1b8bd0c-b203-485a-85e4-bcb8e338cfbc"},"vehicle_type_id":"4","last_reported":1726884389,"current_range_meters":10000,"station_id":"ce4bhjp2rcd13ifvqga0","pricing_plan_id":"cebpf4jnsgd1na2vs0mg"},{"bike_id":"135a9a01-ae33-4dc2-882a-5fa02e4d035c","system_id":"levelo_inurba_marseille","lat":43.31159,"lon":5.38683,"is_reserved":false,"is_disabled":false,"rental_uris":{"android":"levelo://app?vid=135a9a01-ae33-4dc2-882a-5fa02e4d035c","ios":"levelo://app?vid=135a9a01-ae33-4dc2-882a-5fa02e4d035c"},"vehicle_type_id":"4","last_reported":1726884389,"current_range_meters":33600,"station_id":"ce4bgv12rcd13ifvqcp0","pricing_plan_id":"cebpf4jnsgd1na2vs0mg"},