{"last_updated":1701151830,"ttl":30,"version":"2.2","data":{"bikes":[{"bike_id":"f8d58aa0-3f0c-4296-a02b-072a1496d17d","system_id":"levelo_inurba_marseille","lat":43.313391,"lon":5.36706,"is_reserved":false,"is_disabled":false,"rental_uris":{"android":"levelo://app?vid=f8d58aa0-3f0c-4296-a02b-072a1496d17d","ios":"levelo://app?vid=f8d58aa0-3f0c-4296-a02b-072a1496d17d"},"vehicle_type_id":"4","last_reported":1701151830,"current_range_meters":24400,"station_id":"ce4bgr92rcd13ifvqc6g","pricing_plan_id":"free"},{"bike_id":"a4d2e083-bf3c-4852-bce2-d53ff4535105","system_id":"levelo_inurba_marseille","lat":43.309076,"lon":5.368465,"is_reserved":false,"is_disabled":false,"rental_uris":{"android":"levelo://app?vid=a4d2e083-bf3c-4852-bce2-d53ff4535105","ios":"levelo://app?vid=a4d2e083-bf3c-4852-bce2-d53ff4535105"},"vehicle_type_id":"4","last_reported":1701151830,"current_range_meters":28400,"station_id":"ce4bgn92rcd13ifvqbvg","pricing_plan_id":"free"},{"bike_id":"6245e4e5-888b-47ad-8f8a-65e07ca884d6","system_id":"levelo_inurba_marseille","lat":43.309076,"lon":5.368465,"is_reserved":false,"is_disabled":false,"rental_uris":{"android":"levelo://app?vid=6245e4e5-888b-47ad-8f8a-65e07ca884d6","ios":"levelo://app?vid=6245e4e5-888b-47ad-8f8a-65e07ca884d6"},"vehicle_type_id":"4","last_reported":1701151830,"current_range_meters":24800,"station_id":"ce4bgn92rcd13ifvqbvg","pricing_plan_id":"free"},{"bike_id":"5126b0aa-d865-4589-8d50-8d8600ba8782","system_id":"levelo_inurba_marseille","lat":43.308412,"lon":5.368776,"is_reserved":false,"is_disabled":false,"rental_uris":{"android":"levelo://app?vid=5126b0aa-d865-4589-8d50-8d8600ba8782","ios":"levelo://app?vid=5126b0aa-d865-4589-8d50-8d8600ba8782"},"vehicle_type_id":"4","last_reported":1701151830,"current_range_meters":23600,"station_id":"","pricing_plan_id":"free"},{"bike_id":"fa4c08a8-f79b-4419-8791-02374ece74c7","system_id":"levelo_inurba_marseille","lat":43.316888,"lon":5.372819,"is_reserved":false,"is_disabled":false,"rental_uris":{"android":"levelo://app?vid=fa4c08a8-f79b-4419-8791-02374ece74c7","ios":"levelo://app?vid=fa4c08a8-f79b-4419-8791-02374ece74c7"},"vehicle_type_id":"4","last_reported":1701151830,"current_range_meters":2800,"station_id":"","pricing_plan_id":"free"},{"bike_id":"226310b2-638c-444c-a15f-247c16471cee","system_id":"levelo_inurba_marseille","lat":43.31921,"lon":5.368063,"is_reserved":false,"is_disabled":false,"rental_uris":{"android":"levelo://app?vid=226310b2-638c-444c-a15f-247c16471cee","ios":"levelo://app?vid=226310b2-638c-444c-a15f-247c16471cee"},"vehicle_type_id":"4","last_reported":1701151830,"current_range_meters":14400,"station_id":"","pricing_plan_id":"free"},{"bike_id":"b56647a9-60b7-4d75-b2e5-e85adb4a049f","system_id":"levelo_inurba_marseille","lat":43.30541,"lon":5.36707,"is_reserved":false,"is_disabled":false,"rental_uris":{"android":"levelo://app?vid=b56647a9-60b7-4d75-b2e5-e85adb4a049f","ios":"levelo://app?vid=b56647a9-60b7-4d75-b2e5-e85adb4a049f"},"vehicle_type_id":"4","last_reported":1701151830,"current_range_meters":25600,"station_id":"ce4bgrp2rcd13ifvqc9g","pricing_plan_id":"free"},{"bike_id":"aeb33ac5-f836-4b64-8b50-f56f9779b9df","system_id":"levelo_inurba_marseille","lat":43.30541,"lon":5.36716,"is_reserved":false,"is_disabled":false,"rental_uris":{"android":"levelo://app?vid=aeb33ac5-f836-4b64-8b50-f56f9779b9df","ios":"levelo://app?vid=aeb33ac5-f836-4b64-8b50-f56f9779b9df"},"vehicle_type_id":"4","last_reported":1701151830,"current_range_meters":14800,"station_id":"","pricing_plan_id":"free"},{"bike_id":"8560c307-94d6-4a47-b893-80272771359a","system_id":"levelo_inurba_marseille","lat":43.305989,"lon":5.37225,"is_reserved":false,"is_disabled":false,"rental_uris":{"android":"levelo://app?vid=8560c307-94d6-4a47-b893-80272771359a","ios":"levelo://app?vid=8560c307-94d6-4a47-b893-80272771359a"},"vehicle_type_id":"4","last_reported":1701151830,"current_range_meters":30000,"station_id":"ce4bgqh2rcd13ifvqc4g","pricing_plan_id":"free"},{"bike_id":"0525c228-cd5d-40c2-ac67-edd6915961b7","system_id":"levelo_inurba_marseille","lat":43.308165,"lon":5.376576,"is_reserved":false,"is_disabled":false,"rental_uris":{"android":"levelo://app?vid=0525c228-cd5d-40c2-ac67-edd6915961b7","ios":"levelo://app?vid=0525c228-cd5d-40c2-ac67-edd6915961b7"},"vehicle_type_id":"4","last_reported":1701151830,"current_range_meters":3200,"station_id":"ce4bgv92rcd13ifvqcq0","pricing_plan_id":"free"},{"bike_id":"fc415d5e-6575-4d37-9a53-1372d544d6af","system_id":"levelo_inurba_marseille","lat":43.308169,"lon":5.376593,"is_reserved":false,"is_disabled":false,"rental_uris":{"android":"levelo://app?vid=fc415d5e-6575-4d37-9a53-1372d544d6af","ios":"levelo://app?vid=fc415d5e-6575-4d37-9a53-1372d544d6af"},"vehicle_type_id":"4","last_reported":1701151830,"current_range_meters":22800,"station_id":"ce4bgv92rcd13ifvqcq0","pricing_plan_id":"free"},{"bike_id":"74b7f78d-d4c0-497e-9697-a26f958567e7","system_id":"levelo_inurba_marseille","lat":43.308164,"lon":5.37664,"is_reserved":false,"is_disabled":false,"rental_uris":{"android":"levelo://app?vid=74b7f78d-d4c0-497e-9697-a26f958567e7","ios":"levelo://app?vid=74b7f78d-d4c0-497e-9697-a26f958567e7"},"vehicle_type_id":"4","last_reported":1701151830,"current_range_meters":0,"station_id":"ce4bgv92rcd13ifvqcq0","pricing_plan_id":"free"},{"bike_id":"f427a2c3-6e4a-446b-ae2f-9be8aa7f4122","system_id":"levelo_inurba_marseille","lat":43.31719,"lon":5.376813,"is_reserved":false,"is_disabled":false,"rental_uris":{"android":"levelo://app?vid=f427a2c3-6e4a-446b-ae2f-9be8aa7f4122","ios":"levelo://app?vid=f427a2c3-6e4a-446b-ae2f-9be8aa7f4122"},"vehicle_type_id":"4","last_reported":1701151830,"current_range_meters":14400,"station_id":"ce4bgth2rcd13ifvqch0","pricing_plan_id":"free"},{"bike_id":"e913f328-1e31-4c22-bd87-f809ea246de4","system_id":"levelo_inurba_marseille","lat":43.317168,"lon":5.376883,"is_reserved":false,"is_disabled":false,"rental_uris":{"android":"levelo://app?vid=e913f328-1e31-4c22-bd87-f809ea246de4","ios":"levelo://app?vid=e913f328-1e31-4c22-bd87-f809ea246de4"},"vehicle_type_id":"4","last_reported":1701151830,"current_range_meters":16800,"station_id":"ce4bgth2rcd13ifvqch0","pricing_plan_id":"free"},{"bike_id":"312a0144-b7d6-48d3-9812-34721f4cb856","system_id":"levelo_inurba_marseille","lat":43.317075,"lon":5.377367,"is_reserved":false,"is_disabled":false,"rental_uris":{"android":"levelo://app?vid=312a0144-b7d6-48d3-9812-34721f4cb856","ios":"levelo://app?vid=312a0144-b7d6-48d3-9812-34721f4cb856"},"vehicle_type_id":"4","last_reported":1701151830,"current_range_meters":26400,"station_id":"ce4bgth2rcd13ifvqch0","pricing_plan_id":"free"},{"bike_id":"1b9cd228-6173-4700-89fd-53d46a539441","system_id":"levelo_inurba_marseille","lat":43.303046,"lon":5.368981,"is_reserved":false,"is_disabled":false,"rental_uris":{"android":"levelo://app?vid=1b9cd228-6173-4700-89fd-53d46a539441","ios":"levelo://app?vid=1b9cd228-6173-4700-89fd-53d46a539441"},"vehicle_type_id":"4","last_reported":1701151830,"current_range_meters":22400,"station_id":"ce4bgqh2rcd13ifvqc5g","pricing_plan_id":"free"},{"bike_id":"56698520-7b2b-4819-b7de-7e17cf5f6165","system_id":"levelo_inurba_marseille","lat":43.303046,"lon":5.368981,"is_reserved":false,"is_disabled":false,"rental_uris":{"android":"levelo://app?vid=56698520-7b2b-4819-b7de-7e17cf5f6165","ios":"levelo://app?vid=56698520-7b2b-4819-b7de-7e17cf5f6165"},"vehicle_type_id":"4","last_reported":1701151830,"current_range_meters":11200,"station_id":"ce4bgqh2rcd13ifvqc5g","pricing_plan_id":"free"},{"bike_id":"390cbf92-0234-4538-bd59-8eae068dc2ff","system_id":"levelo_inurba_marseille","lat":43.30304,"lon":5.368987,"is_reserved":false,"is_disabled":false,"rental_uris":{"android":"levelo://app?vid=390cbf92-0234-4538-bd59-8eae068dc2ff","ios":"levelo://app?vid=390cbf92-0234-4538-bd59-8eae068dc2ff"},"vehicle_type_id":"4","last_reported":1701151830,"current_range_meters":29600,"station_id":"ce4bgqh2rcd13ifvqc5g","pricing_plan_id":"free"},{"bike_id":"38bec5b5-e8da-4e20-9a33-5a43cb7f9473","system_id":"levelo_inurba_marseille","lat":43.315305,"lon":5.380375,"is_reserved":false,"is_disabled":false,"rental_uris":{"android":"levelo://app?vid=38bec5b5-e8da-4e20-9a33-5a43cb7f9473","ios":"levelo://app?vid=38bec5b5-e8da-4e20-9a33-5a43cb7f9473"},"vehicle_type_id":"4","last_reported":1701151830,"current_range_meters":12800,"station_id":"ce4bhsp2rcd13ifvqi50","pricing_plan_id":"free"},{"bike_id":"41469628-6b52-48ed-be21-ff0ccd1cfc54","system_id":"levelo_inurba_marseille","lat":43.31535,"lon":5.38039,"is_reserved":false,"is_disabled":false,"rental_uris":{"android":"levelo://app?vid=41469628-6b52-48ed-be21-ff0ccd1cfc54","ios":"levelo://app?vid=41469628-6b52-48ed-be21-ff0ccd1cfc54"},"vehicle_type_id":"4","last_reported":1701151830,"current_range_meters":5600,"station_id":"ce4bhsp2rcd13ifvqi50","pricing_plan_id":"free"},{"bike_id":"ef05a0fa-f8eb-43c6-8ae6-7b08c13c7247","system_id":"levelo_inurba_marseille","lat":43.30808,"lon":5.38144,"is_reserved":false,"is_disabled":false,"rental_uris":{"android":"levelo://app?vid=ef05a0fa-f8eb-43c6-8ae6-7b08c13c7247","ios":"levelo://app?vid=ef05a0fa-f8eb-43c6-8ae6-7b08c13c7247"},"vehicle_type_id":"4","last_reported":1701151830,"current_range_meters":19600,"station_id":"ce4bgt12rcd13ifvqce0","pricing_plan_id":"free"},{"bike_id":"7f8ae380-b7f8-407d-b620-fcea0731bd80","system_id":"levelo_inurba_marseille","lat":43.304606,"lon":5.379026,"is_reserved":false,"is_disabled":false,"rental_uris":{"android":"levelo://app?vid=7f8ae380-b7f8-407d-b620-fcea0731bd80","ios":"levelo://app?vid=7f8ae380-b7f8-407d-b620-fcea0731bd80"},"vehicle_type_id":"4","last_reported":1701151830,"current_range_meters":2000,"station_id":"ce4bgup2rcd13ifvqcn0","pricing_plan_id":"free"},{"bike_id":"66b87a65-4c69-4787-adc3-3179cd2daeb1","system_id":"levelo_inurba_marseille","lat":43.304606,"lon":5.379026,"is_reserved":false,"is_disabled":false,"rental_uris":{"android":"levelo://app?vid=66b87a65-4c69-4787-adc3-3179cd2daeb1","ios":"levelo://app?vid=66b87a65-4c69-4787-adc3-3179cd2daeb1"},"vehicle_type_id":"4","last_reported":1701151830,"current_range_meters":31200,"station_id":"ce4bgup2rcd13ifvqcn0","pricing_plan_id":"free"},{"bike_id":"5a54c97d-04ce-4762-9d67-26d60b14a45c","system_id":"levelo_inurba_marseille","lat":43.30466,"lon":5.37905,"is_reserved":false,"is_disabled":false,"rental_uris":{"android":"levelo://app?vid=5a54c97d-04ce-4762-9d67-26d60b14a45c","ios":"levelo://app?vid=5a54c97d-04ce-4762-9d67-26d60b14a45c"},"vehicle_type_id":"4","last_reported":1701151830,"current_range_meters":16400,"station_id":"ce4bgup2rcd13ifvqcn0","pricing_plan_id":"free"},{"bike_id":"c4b75177-026d-4b01-a50c-76e979c20e4b","system_id":"levelo_inurba_marseille","lat":43.304606,"lon":5.379026,"is_reserved":false,"is_disabled":false,"rental_uris":{"android":"levelo://app?vid=c4b75177-026d-4b01-a50c-76e979c20e4b","ios":"levelo://app?vid=c4b75177-026d-4b01-a50c-76e979c20e4b"},"vehicle_type_id":"4","last_reported":1701151830,"current_range_meters":27600,"station_id":"ce4bgup2rcd13ifvqcn0","pricing_plan_id":"free"},{"bike_id":"2a445ab3-411f-4769-9eb6-49598323802c","system_id":"levelo_inurba_marseille","lat":43.304606,"lon":5.379026,"is_reserved":false,"is_disabled":false,"rental_uris":{"android":"levelo://app?vid=2a445ab3-411f-4769-9eb6-49598323802c","ios":"levelo://app?vid=2a445ab3-411f-4769-9eb6-49598323802c"},"vehicle_type_id":"4","last_reported":1701151830,"current_range_meters":18800,"station_id":"ce4bgup2rcd13ifvqcn0","pricing_plan_id":"free"},{"bike_id":"79e0e7ae-f1bf-4c7a-bead-fe6035606aea","system_id":"levelo_inurba_marseille","lat":43.304606,"lon":5.379026,"is_reserved":false,"is_disabled":false,"rental_uris":{"android":"levelo://app?vid=79e0e7ae-f1bf-4c7a-bead-fe6035606aea","ios":"levelo://app?vid=79e0e7ae-f1bf-4c7a-bead-fe6035606aea"},"vehicle_type_id":"4","last_reported":1701151830,"current_range_meters":6000,"station_id":"ce4bgup2rcd13ifvqcn0","pricing_plan_id":"free"},{"bike_id":"301569ed-6a58-48a2-a037-8279ff8f709c","system_id":"levelo_inurba_marseille","lat":43.304606,"lon":5.379026,"is_reserved":false,"is_disabled":false,"rental_uris":{"android":"levelo://app?vid=301569ed-6a58-48a2-a037-8279ff8f709c","ios":"levelo://app?vid=301569ed-6a58-48a2-a037-8279ff8f709c"},"vehicle_type_id":"4","last_reported":1701151830,"current_range_meters":5600,"station_id":"ce4bgup2rcd13ifvqcn0","pricing_plan_id":"free"},{"bike_id":"f0a07443-448a-499c-904e-24ac68158d04","system_id":"levelo_inurba_marseille","lat":43.30465,"lon":5.37907,"is_reserved":false,"is_disabled":false,"rental_uris":{"android":"levelo://app?vid=f0a07443-448a-499c-904e-24ac68158d04","ios":"levelo://app?vid=f0a07443-448a-499c-904e-24ac68158d04"},"vehicle_type_id":"4","last_reported":1701151830,"current_range_meters":19200,"station_id":"ce4bgup2rcd13ifvqcn0","pricing_plan_id":"free"},{"bike_id":"528e344a-ca54-475d-af14-03dc43293e0d","system_id":"levelo_inurba_marseille","lat":43.304606,"lon":5.379026,"is_reserved":false,"is_disabled":false,"rental_uris":{"android":"levelo://app?vid=528e344a-ca54-475d-af14-03dc43293e0d","ios":"levelo://app?vid=528e344a-ca54-475d-af14-03dc43293e0d"},"vehicle_type_id":"4","last_reported":1701151830,"current_range_meters":31200,"station_id":"ce4bgup2rcd13ifvqcn0","pricing_plan_id":"free"},{"bike_id":"c37c6f23-6652-4537-877e-f7a1c31d0cfe","system_id":"levelo_inurba_marseille","lat":43.304606,"lon":5.379026,"is_reserved":false,"is_disabled":false,"rental_uris":{"android":"levelo://app?vid=c37c6f23-6652-4537-877e-f7a1c31d0cfe","ios":"levelo://app?vid=c37c6f23-6652-4537-877e-f7a1c31d0cfe"},"vehicle_type_id":"4","last_reported":1701151830,"current_range_meters":23200,"station_id":"ce4bgup2rcd13ifvqcn0","pricing_plan_id":"free"},{"bike_id":"9cd78f5b-6592-480f-bd51-01705fce3aec","system_id":"levelo_inurba_marseille","lat":43.304606,"lon":5.379026,"is_reserved":false,"is_disabled":false,"rental_uris":{"android":"levelo://app?vid=9cd78f5b-6592-480f-bd51-01705fce3aec","ios":"levelo://app?vid=9cd78f5b-6592-480f-bd51-01705fce3aec"},"vehicle_type_id":"4","last_reported":1701151830,"current_range_meters":26800,"station_id":"ce4bgup2rcd13ifvqcn0","pricing_plan_id":"free"},{"bike_id":"aba71fd9-667a-4f40-9ed0-346aafe057b6","system_id":"levelo_inurba_marseille","lat":43.304606,"lon":5.379026,"is_reserved":false,"is_disabled":false,"rental_uris":{"android":"levelo://app?vid=aba71fd9-667a-4f40-9ed0-346aafe057b6","ios":"levelo://app?vid=aba71fd9-667a-4f40-9ed0-346aafe057b6"},"vehicle_type_id":"4","last_reported":1701151830,"current_range_meters":20000,"station_id":"ce4bgup2rcd13ifvqcn0","pricing_plan_id":"free"},{"bike_id":"c54d3679-9368-48aa-bfda-28222368e8a3","system_id":"levelo_inurba_marseille","lat":43.304606,"lon":5.379026,"is_reserved":false,"is_disabled":false,"rental_uris":{"android":"levelo://app?vid=c54d3679-9368-48aa-bfda-28222368e8a3","ios":"levelo://app?vid=c54d3679-9368-48aa-bfda-28222368e8a3"},"vehicle_type_id":"4","last_reported":1701151830,"current_range_meters":22800,"station_id":"ce4bgup2rcd13ifvqcn0","pricing_plan_id":"free"},{"bike_id":"a2034ec1-90a7-4af1-9412-b32b353e59a7","system_id":"levelo_inurba_marseille","lat":43.304606,"lon":5.379026,"is_reserved":false,"is_disabled":false,"rental_uris":{"android":"levelo://app?vid=a2034ec1-90a7-4af1-9412-b32b353e59a7","ios":"levelo://app?vid=a2034ec1-90a7-4af1-9412-b32b353e59a7"},"vehicle_type_id":"4","last_reported":1701151830,"current_range_meters":30000,"station_id":"ce4bgup2rcd13ifvqcn0","pricing_plan_id":"free"},{"bike_id":"07689e71-1be3-4dd5-8fc1-4a0f54a03ef7","system_id":"levelo_inurba_marseille","lat":43.304606,"lon":5.379026,"is_reserved":false,"is_disabled":false,"rental_uris":{"android":"levelo://app?vid=07689e71-1be3-4dd5-8fc1-4a0f54a03ef7","ios":"levelo://app?vid=07689e71-1be3-4dd5-8fc1-4a0f54a03ef7"},"vehicle_type_id":"4","last_reported":1701151830,"current_range_meters":26800,"station_id":"ce4bgup2rcd13ifvqcn0","pricing_plan_id":"free"},{"bike_id":"8ae6e2eb-9b89-49da-b67e-62b8ddabe7db","system_id":"levelo_inurba_marseille","lat":43.304606,"lon":5.379026,"is_reserved":false,"is_disabled":false,"rental_uris":{"android":"levelo://app?vid=8ae6e2eb-9b89-49da-b67e-62b8ddabe7db","ios":"levelo://app?vid=8ae6e2eb-9b89-49da-b67e-62b8ddabe7db"},"vehicle_type_id":"4","last_reported":1701151830,"current_range_meters":13600,"station_id":"ce4bgup2rcd13ifvqcn0","pricing_plan_id":"free"},{"bike_id":"a085f6da-803d-4ff8-b575-cf5be3ef9164","system_id":"levelo_inurba_marseille","lat":43.304606,"lon":5.379026,"is_reserved":false,"is_disabled":false,"rental_uris":{"android":"levelo://app?vid=a085f6da-803d-4ff8-b575-cf5be3ef9164","ios":"levelo://app?vid=a085f6da-803d-4ff8-b575-cf5be3ef9164"},"vehicle_type_id":"4","last_reported":1701151830,"current_range_meters":30400,"station_id":"ce4bgup2rcd13ifvqcn0","pricing_plan_id":"free"},{"bike_id":"d9e0b015-1402-4219-8c84-7e545b8c5889","system_id":"levelo_inurba_marseille","lat":43.302784,"lon":5.377158,"is_reserved":false,"is_disabled":false,"rental_uris":{"android":"levelo://app?vid=d9e0b015-1402-4219-8c84-7e545b8c5889","ios":"levelo://app?vid=d9e0b015-1402-4219-8c84-7e545b8c5889"},"vehicle_type_id":"4","last_reported":1701151830,"current_range_meters":25200,"station_id":"ce4bguh2rcd13ifvqcj0","pricing_plan_id":"free"},{"bike_id":"8518d557-3dfc-40d2-a015-00ff0d8f5349","system_id":"levelo_inurba_marseille","lat":43.30141,"lon":5.37417,"is_reserved":false,"is_disabled":false,"rental_uris":{"android":"levelo://app?vid=8518d557-3dfc-40d2-a015-00ff0d8f5349","ios":"levelo://app?vid=8518d557-3dfc-40d2-a015-00ff0d8f5349"},"vehicle_type_id":"4","last_reported":1701151830,"current_range_meters":31200,"station_id":"ce4bgs92rcd13ifvqcc0","pricing_plan_id":"free"},{"bike_id":"a8418cfe-03d6-4506-b30f-701f336b703d","system_id":"levelo_inurba_marseille","lat":43.301429,"lon":5.37413,"is_reserved":false,"is_disabled":false,"rental_uris":{"android":"levelo://app?vid=a8418cfe-03d6-4506-b30f-701f336b703d","ios":"levelo://app?vid=a8418cfe-03d6-4506-b30f-701f336b703d"},"vehicle_type_id":"4","last_reported":1701151830,"current_range_meters":24800,"station_id":"ce4bgs92rcd13ifvqcc0","pricing_plan_id":"free"},{"bike_id":"4ad8db87-2e2d-4900-a804-a1bb931ba164","system_id":"levelo_inurba_marseille","lat":43.319929,"lon":5.381451,"is_reserved":false,"is_disabled":false,"rental_uris":{"android":"levelo://app?vid=4ad8db87-2e2d-4900-a804-a1bb931ba164","ios":"levelo://app?vid=4ad8db87-2e2d-4900-a804-a1bb931ba164"},"vehicle_type_id":"4","last_reported":1701151830,"current_range_meters":0,"station_id":"ce4bhr12rcd13ifvqhpg","pricing_plan_id":"free"},{"bike_id":"9ede9dd5-37ec-4d70-8295-3f249a46fa8a","system_id":"levelo_inurba_marseille","lat":43.305097,"lon":5.381373,"is_reserved":false,"is_disabled":false,"rental_uris":{"android":"levelo://app?vid=9ede9dd5-37ec-4d70-8295-3f249a46fa8a","ios":"levelo://app?vid=9ede9dd5-37ec-4d70-8295-3f249a46fa8a"},"vehicle_type_id":"4","last_reported":1701151830,"current_range_meters":800,"station_id":"","pricing_plan_id":"free"},{"bike_id":"e17a7de5-ebd4-42fc-8860-6e511f77b829","system_id":"levelo_inurba_marseille","lat":43.325172,"lon":5.361711,"is_reserved":false,"is_disabled":false,"rental_uris":{"android":"levelo://app?vid=e17a7de5-ebd4-42fc-8860-6e511f77b829","ios":"levelo://app?vid=e17a7de5-ebd4-42fc-8860-6e511f77b829"},"vehicle_type_id":"4","last_reported":1701151830,"current_range_meters":27200,"station_id":"","pricing_plan_id":"free"},{"bike_id":"b7944b07-c044-40ed-866c-81ea8336faf4","system_id":"levelo_inurba_marseille","lat":43.313571,"lon":5.384829,"is_reserved":false,"is_disabled":false,"rental_uris":{"android":"levelo://app?vid=b7944b07-c044-40ed-866c-81ea8336faf4","ios":"levelo://app?vid=b7944b07-c044-40ed-866c-81ea8336faf4"},"vehicle_type_id":"4","last_reported":1701151830,"current_range_meters":26400,"station_id":"ce4bgt92rcd13ifvqcf0","pricing_plan_id":"free"},{"bike_id":"f8d165e7-d334-4abd-8688-f7bbe3b066ac","system_id":"levelo_inurba_marseille","lat":43.3137,"lon":5.384843,"is_reserved":false,"is_disabled":false,"rental_uris":{"android":"levelo://app?vid=f8d165e7-d334-4abd-8688-f7bbe3b066ac","ios":"levelo://app?vid=f8d165e7-d334-4abd-8688-f7bbe3b066ac"},"vehicle_type_id":"4","last_reported":1701151830,"current_range_meters":22800,"station_id":"ce4bgt92rcd13ifvqcf0","pricing_plan_id":"free"},{"bike_id":"4c4a6cd6-73dd-4b8f-a394-101a6337852c","system_id":"levelo_inurba_marseille","lat":43.31364,"lon":5.38488,"is_reserved":false,"is_disabled":false,"rental_uris":{"android":"levelo://app?vid=4c4a6cd6-73dd-4b8f-a394-101a6337852c","ios":"levelo://app?vid=4c4a6cd6-73dd-4b8f-a394-101a6337852c"},"vehicle_type_id":"4","last_reported":1701151830,"current_range_meters":28400,"station_id":"ce4bgt92rcd13ifvqcf0","pricing_plan_id":"free"},{"bike_id":"a802f0a3-746e-4626-87ec-24218d93fd78","system_id":"levelo_inurba_marseille","lat":43.3136,"lon":5.38499,"is_reserved":false,"is_disabled":false,"rental_uris":{"android":"levelo://app?vid=a802f0a3-746e-4626-87ec-24218d93fd78","ios":"levelo://app?vid=a802f0a3-746e-4626-87ec-24218d93fd78"},"vehicle_type_id":"4","last_reported":1701151830,"current_range_meters":0,"station_id":"ce4bgt92rcd13ifvqcf0","pricing_plan_id":"free"},{"bike_id":"f4dfd7c6-e0c2-4ac0-b38f-c2ffaa0351de","system_id":"levelo_inurba_marseille","lat":43.299333,"lon":5.365331,"is_reserved":false,"is_disabled":false,"rental_uris":{"android":"levelo://app?vid=f4dfd7c6-e0c2-4ac0-b38f-c2ffaa0351de","ios":"levelo://app?vid=f4dfd7c6-e0c2-4ac0-b38f-c2ffaa0351de"},"vehicle_type_id":"4","last_reported":1701151830,"current_range_meters":2800,"station_id":"ce4bgm92rcd13ifvqbr0","pricing_plan_id":"free"},{"bike_id":"0923cdaf-f0e8-4595-b3f7-ac27770c3f74","system_id":"levelo_inurba_marseille","lat":43.29854,"lon":5.3628,"is_reserved":false,"is_disabled":false,"rental_uris":{"android":"levelo://app?vid=0923cdaf-f0e8-4595-b3f7-ac27770c3f74","ios":"levelo://app?vid=0923cdaf-f0e8-4595-b3f7-ac27770c3f74"},"vehicle_type_id":"4","last_reported":1701151830,"current_range_meters":5600,"station_id":"ce4bgpp2rcd13ifvqc3g","pricing_plan_id":"free"},{"bike_id":"c7df1867-5ef2-4bd2-90a0-64d8ea411019","system_id":"levelo_inurba_marseille","lat":43.29846,"lon":5.36283,"is_reserved":false,"is_disabled":false,"rental_uris":{"android":"levelo://app?vid=c7df1867-5ef2-4bd2-90a0-64d8ea411019","ios":"levelo://app?vid=c7df1867-5ef2-4bd2-90a0-64d8ea411019"},"vehicle_type_id":"4","last_reported":1701151830,"current_range_meters":31200,"station_id":"ce4bgpp2rcd13ifvqc3g","pricing_plan_id":"free"},{"bike_id":"09516f4d-a8f4-43cd-92f1-a4db7382c379","system_id":"levelo_inurba_marseille","lat":43.311837,"lon":5.387097,"is_reserved":false,"is_disabled":false,"rental_uris":{"android":"levelo://app?vid=09516f4d-a8f4-43cd-92f1-a4db7382c379","ios":"levelo://app?vid=09516f4d-a8f4-43cd-92f1-a4db7382c379"},"vehicle_type_id":"4","last_reported":1701151830,"current_range_meters":12800,"station_id":"ce4bgv12rcd13ifvqcp0","pricing_plan_id":"free"},{"bike_id":"4c0f5728-1e5c-4168-ab2b-8710a5fc23ce","system_id":"levelo_inurba_marseille","lat":43.311722,"lon":5.387247,"is_reserved":false,"is_disabled":false,"rental_uris":{"android":"levelo://app?vid=4c0f5728-1e5c-4168-ab2b-8710a5fc23ce","ios":"levelo://app?vid=4c0f5728-1e5c-4168-ab2b-8710a5fc23ce"},"vehicle_type_id":"4","last_reported":1701151830,"current_range_meters":29600,"station_id":"ce4bgv12rcd13ifvqcp0","pricing_plan_id":"free"},{"bike_id":"e2048a67-10ec-47ce-a0b3-acbc099d5b2a","system_id":"levelo_inurba_marseille","lat":43.311722,"lon":5.387247,"is_reserved":false,"is_disabled":false,"rental_uris":{"android":"levelo://app?vid=e2048a67-10ec-47ce-a0b3-acbc099d5b2a","ios":"levelo://app?vid=e2048a67-10ec-47ce-a0b3-acbc099d5b2a"},"vehicle_type_id":"4","last_reported":1701151830,"current_range_meters":31200,"station_id":"ce4bgv12rcd13ifvqcp0","pricing_plan_id":"free"},{"bike_id":"1476dd46-d5e5-4606-98d3-6491573e859a","system_id":"levelo_inurba_marseille","lat":43.32827,"lon":5.3668,"is_reserved":false,"is_disabled":false,"rental_uris":{"android":"levelo://app?vid=1476dd46-d5e5-4606-98d3-6491573e859a","ios":"levelo://app?vid=1476dd46-d5e5-4606-98d3-6491573e859a"},"vehicle_type_id":"4","last_reported":1701151830,"current_range_meters":24800,"station_id":"ce4bhs92rcd13ifvqi0g","pricing_plan_id":"free"},{"bike_id":"1df95087-0211-4401-99cb-f533fc6d5326","system_id":"levelo_inurba_marseille","lat":43.328371,"lon":5.366909,"is_reserved":false,"is_disabled":false,"rental_uris":{"android":"levelo://app?vid=1df95087-0211-4401-99cb-f533fc6d5326","ios":"levelo://app?vid=1df95087-0211-4401-99cb-f533fc6d5326"},"vehicle_type_id":"4","last_reported":1701151830,"current_range_meters":18800,"station_id":"ce4bhs92rcd13ifvqi0g","pricing_plan_id":"free"},{"bike_id":"f7f59c23-bc6f-479d-8752-b4ab95b41a11","system_id":"levelo_inurba_marseille","lat":43.297163,"lon":5.365866,"is_reserved":false,"is_disabled":false,"rental_uris":{"android":"levelo://app?vid=f7f59c23-bc6f-479d-8752-b4ab95b41a11","ios":"levelo://app?vid=f7f59c23-bc6f-479d-8752-b4ab95b41a11"},"vehicle_type_id":"4","last_reported":1701151830,"current_range_meters":29600,"station_id":"ce4bgn12rcd13ifvqbt0","pricing_plan_id":"free"},{"bike_id":"edc5a8da-078a-4a24-8f3e-ffeb7784ed9b","system_id":"levelo_inurba_marseille","lat":43.297163,"lon":5.365866,"is_reserved":false,"is_disabled":false,"rental_uris":{"android":"levelo://app?vid=edc5a8da-078a-4a24-8f3e-ffeb7784ed9b","ios":"levelo://app?vid=edc5a8da-078a-4a24-8f3e-ffeb7784ed9b"},"vehicle_type_id":"4","last_reported":1701151830,"current_range_meters":24400,"station_id":"ce4bgn12rcd13ifvqbt0","pricing_plan_id":"free"},{"bike_id":"38ddfac9-a45c-4eb0-81dd-bc7cce00f205","system_id":"levelo_inurba_marseille","lat":43.328371,"lon":5.366909,"is_reserved":false,"is_disabled":false,"rental_uris":{"android":"levelo://app?vid=38ddfac9-a45c-4eb0-81dd-bc7cce00f205","ios":"levelo://app?vid=38ddfac9-a45c-4eb0-81dd-bc7cce00f205"},"vehicle_type_id":"4","last_reported":1701151830,"current_range_meters":22000,"station_id":"ce4bhs92rcd13ifvqi0g","pricing_plan_id":"free"},{"bike_id":"4450508a-3973-49be-83c1-421065a9e1cc","system_id":"levelo_inurba_marseille","lat":43.29573,"lon":5.367355,"is_reserved":false,"is_disabled":false,"rental_uris":{"android":"levelo://app?vid=4450508a-3973-49be-83c1-421065a9e1cc","ios":"levelo://app?vid=4450508a-3973-49be-83c1-421065a9e1cc"},"vehicle_type_id":"4","last_reported":1701151830,"current_range_meters":23600,"station_id":"ce4bgph2rcd13ifvqc2g","pricing_plan_id":"free"},{"bike_id":"9004f1ba-cb55-4e2b-8606-53cb7cab53d9","system_id":"levelo_inurba_marseille","lat":43.29907,"lon":5.38132,"is_reserved":false,"is_disabled":false,"rental_uris":{"android":"levelo://app?vid=9004f1ba-cb55-4e2b-8606-53cb7cab53d9","ios":"levelo://app?vid=9004f1ba-cb55-4e2b-8606-53cb7cab53d9"},"vehicle_type_id":"4","last_reported":1701151830,"current_range_meters":12400,"station_id":"ce4bgj12rcd13ifvqbc0","pricing_plan_id":"free"},{"bike_id":"bad1f562-b764-4515-a3dc-9967d783e1a8","system_id":"levelo_inurba_marseille","lat":43.299028,"lon":5.381509,"is_reserved":false,"is_disabled":false,"rental_uris":{"android":"levelo://app?vid=bad1f562-b764-4515-a3dc-9967d783e1a8","ios":"levelo://app?vid=bad1f562-b764-4515-a3dc-9967d783e1a8"},"vehicle_type_id":"4","last_reported":1701151830,"current_range_meters":16800,"station_id":"ce4bgj12rcd13ifvqbc0","pricing_plan_id":"free"},{"bike_id":"7a9a41d3-61fb-4d0f-ae3f-7c901546415b","system_id":"levelo_inurba_marseille","lat":43.299028,"lon":5.381509,"is_reserved":false,"is_disabled":false,"rental_uris":{"android":"levelo://app?vid=7a9a41d3-61fb-4d0f-ae3f-7c901546415b","ios":"levelo://app?vid=7a9a41d3-61fb-4d0f-ae3f-7c901546415b"},"vehicle_type_id":"4","last_reported":1701151830,"current_range_meters":31600,"station_id":"ce4bgj12rcd13ifvqbc0","pricing_plan_id":"free"},{"bike_id":"16218116-29ca-4b9d-91e8-faaa028a07fe","system_id":"levelo_inurba_marseille","lat":43.299028,"lon":5.381509,"is_reserved":false,"is_disabled":false,"rental_uris":{"android":"levelo://app?vid=16218116-29ca-4b9d-91e8-faaa028a07fe","ios":"levelo://app?vid=16218116-29ca-4b9d-91e8-faaa028a07fe"},"vehicle_type_id":"4","last_reported":1701151830,"current_range_meters":23200,"station_id":"ce4bgj12rcd13ifvqbc0","pricing_plan_id":"free"},{"bike_id":"72f4e47a-fcb1-40ca-b86c-1aafb349a028","system_id":"levelo_inurba_marseille","lat":43.298945,"lon":5.38133,"is_reserved":false,"is_disabled":false,"rental_uris":{"android":"levelo://app?vid=72f4e47a-fcb1-40ca-b86c-1aafb349a028","ios":"levelo://app?vid=72f4e47a-fcb1-40ca-b86c-1aafb349a028"},"vehicle_type_id":"4","last_reported":1701151830,"current_range_meters":29600,"station_id":"ce4bgj12rcd13ifvqbc0","pricing_plan_id":"free"},{"bike_id":"b6c18fcd-f4b8-4b24-9600-087a0e986344","system_id":"levelo_inurba_marseille","lat":43.309589,"lon":5.390258,"is_reserved":false,"is_disabled":false,"rental_uris":{"android":"levelo://app?vid=b6c18fcd-f4b8-4b24-9600-087a0e986344","ios":"levelo://app?vid=b6c18fcd-f4b8-4b24-9600-087a0e986344"},"vehicle_type_id":"4","last_reported":1701151830,"current_range_meters":29200,"station_id":"ce4bgup2rcd13ifvqco0","pricing_plan_id":"free"},{"bike_id":"e4815d09-7ebd-4472-b7cc-31765a61b07a","system_id":"levelo_inurba_marseille","lat":43.29813,"lon":5.38104,"is_reserved":false,"is_disabled":false,"rental_uris":{"android":"levelo://app?vid=e4815d09-7ebd-4472-b7cc-31765a61b07a","ios":"levelo://app?vid=e4815d09-7ebd-4472-b7cc-31765a61b07a"},"vehicle_type_id":"4","last_reported":1701151830,"current_range_meters":24000,"station_id":"ce4bgip2rcd13ifvqbb0","pricing_plan_id":"free"},{"bike_id":"3badbe52-1631-4f4c-ae25-efd7742c990a","system_id":"levelo_inurba_marseille","lat":43.296263,"lon":5.377094,"is_reserved":false,"is_disabled":false,"rental_uris":{"android":"levelo://app?vid=3badbe52-1631-4f4c-ae25-efd7742c990a","ios":"levelo://app?vid=3badbe52-1631-4f4c-ae25-efd7742c990a"},"vehicle_type_id":"4","last_reported":1701151830,"current_range_meters":11600,"station_id":"ce4bgi92rcd13ifvqb90","pricing_plan_id":"free"},{"bike_id":"fb4ead5a-20f3-441e-b82e-c439f5da598d","system_id":"levelo_inurba_marseille","lat":43.299707,"lon":5.384859,"is_reserved":false,"is_disabled":false,"rental_uris":{"android":"levelo://app?vid=fb4ead5a-20f3-441e-b82e-c439f5da598d","ios":"levelo://app?vid=fb4ead5a-20f3-441e-b82e-c439f5da598d"},"vehicle_type_id":"4","last_reported":1701151830,"current_range_meters":27200,"station_id":"ce4bgj92rcd13ifvqbd0","pricing_plan_id":"free"},{"bike_id":"e6444ac2-b1a8-4d6f-b832-871edc68bddc","system_id":"levelo_inurba_marseille","lat":43.299717,"lon":5.384845,"is_reserved":false,"is_disabled":false,"rental_uris":{"android":"levelo://app?vid=e6444ac2-b1a8-4d6f-b832-871edc68bddc","ios":"levelo://app?vid=e6444ac2-b1a8-4d6f-b832-871edc68bddc"},"vehicle_type_id":"4","last_reported":1701151830,"current_range_meters":30000,"station_id":"ce4bgj92rcd13ifvqbd0","pricing_plan_id":"free"},{"bike_id":"70405c7d-874f-4372-80a2-e594b22c1810","system_id":"levelo_inurba_marseille","lat":43.295279,"lon":5.375048,"is_reserved":false,"is_disabled":false,"rental_uris":{"android":"levelo://app?vid=70405c7d-874f-4372-80a2-e594b22c1810","ios":"levelo://app?vid=70405c7d-874f-4372-80a2-e594b22c1810"},"vehicle_type_id":"4","last_reported":1701151830,"current_range_meters":27600,"station_id":"ce4bgkp2rcd13ifvqbmg","pricing_plan_id":"free"},{"bike_id":"c059936f-4633-4af4-a8cc-2cb5b42f1440","system_id":"levelo_inurba_marseille","lat":43.299717,"lon":5.384845,"is_reserved":false,"is_disabled":false,"rental_uris":{"android":"levelo://app?vid=c059936f-4633-4af4-a8cc-2cb5b42f1440","ios":"levelo://app?vid=c059936f-4633-4af4-a8cc-2cb5b42f1440"},"vehicle_type_id":"4","last_reported":1701151830,"current_range_meters":15600,"station_id":"ce4bgj92rcd13ifvqbd0","pricing_plan_id":"free"},{"bike_id":"b7b4cbfd-b33a-4448-af93-8ed0f9eacf59","system_id":"levelo_inurba_marseille","lat":43.293335,"lon":5.371081,"is_reserved":false,"is_disabled":false,"rental_uris":{"android":"levelo://app?vid=b7b4cbfd-b33a-4448-af93-8ed0f9eacf59","ios":"levelo://app?vid=b7b4cbfd-b33a-4448-af93-8ed0f9eacf59"},"vehicle_type_id":"4","last_reported":1701151830,"current_range_meters":31200,"station_id":"","pricing_plan_id":"free"},{"bike_id":"f3f40d09-8451-4fb4-83aa-66a52c68d4bc","system_id":"levelo_inurba_marseille","lat":43.293009,"lon":5.374584,"is_reserved":false,"is_disabled":false,"rental_uris":{"android":"levelo://app?vid=f3f40d09-8451-4fb4-83aa-66a52c68d4bc","ios":"levelo://app?vid=f3f40d09-8451-4fb4-83aa-66a52c68d4bc"},"vehicle_type_id":"4","last_reported":1701151830,"current_range_meters":23200,"station_id":"ce4bgi12rcd13ifvqb70","pricing_plan_id":"free"},{"bike_id":"fea32625-19e0-4175-a6da-066271b409e7","system_id":"levelo_inurba_marseille","lat":43.293009,"lon":5.374584,"is_reserved":false,"is_disabled":false,"rental_uris":{"android":"levelo://app?vid=fea32625-19e0-4175-a6da-066271b409e7","ios":"levelo://app?vid=fea32625-19e0-4175-a6da-066271b409e7"},"vehicle_type_id":"4","last_reported":1701151830,"current_range_meters":15600,"station_id":"ce4bgi12rcd13ifvqb70","pricing_plan_id":"free"},{"bike_id":"c2723786-d7c5-4bb6-8661-bb1fcfaf4af0","system_id":"levelo_inurba_marseille","lat":43.293625,"lon":5.378585,"is_reserved":false,"is_disabled":false,"rental_uris":{"android":"levelo://app?vid=c2723786-d7c5-4bb6-8661-bb1fcfaf4af0","ios":"levelo://app?vid=c2723786-d7c5-4bb6-8661-bb1fcfaf4af0"},"vehicle_type_id":"4","last_reported":1701151830,"current_range_meters":6400,"station_id":"ce4bgjh2rcd13ifvqbf0","pricing_plan_id":"free"},{"bike_id":"1e0774ea-3a9d-44ed-ace5-8f23bd3a7df1","system_id":"levelo_inurba_marseille","lat":43.292311,"lon":5.360731,"is_reserved":false,"is_disabled":false,"rental_uris":{"android":"levelo://app?vid=1e0774ea-3a9d-44ed-ace5-8f23bd3a7df1","ios":"levelo://app?vid=1e0774ea-3a9d-44ed-ace5-8f23bd3a7df1"},"vehicle_type_id":"4","last_reported":1701151830,"current_range_meters":24800,"station_id":"ce4bhbh2rcd13ifvqeqg","pricing_plan_id":"free"},{"bike_id":"6a90d967-bb97-4b42-b245-683d82b360db","system_id":"levelo_inurba_marseille","lat":43.292311,"lon":5.360731,"is_reserved":false,"is_disabled":false,"rental_uris":{"android":"levelo://app?vid=6a90d967-bb97-4b42-b245-683d82b360db","ios":"levelo://app?vid=6a90d967-bb97-4b42-b245-683d82b360db"},"vehicle_type_id":"4","last_reported":1701151830,"current_range_meters":11600,"station_id":"ce4bhbh2rcd13ifvqeqg","pricing_plan_id":"free"},{"bike_id":"c3885182-7b91-4b35-a820-73066aabe424","system_id":"levelo_inurba_marseille","lat":43.30085,"lon":5.390856,"is_reserved":false,"is_disabled":false,"rental_uris":{"android":"levelo://app?vid=c3885182-7b91-4b35-a820-73066aabe424","ios":"levelo://app?vid=c3885182-7b91-4b35-a820-73066aabe424"},"vehicle_type_id":"4","last_reported":1701151830,"current_range_meters":24800,"station_id":"ce4bh192rcd13ifvqdb0","pricing_plan_id":"free"},{"bike_id":"2beb7d16-5db0-4ce0-9a9c-4460b6fffd97","system_id":"levelo_inurba_marseille","lat":43.29879,"lon":5.3892,"is_reserved":false,"is_disabled":false,"rental_uris":{"android":"levelo://app?vid=2beb7d16-5db0-4ce0-9a9c-4460b6fffd97","ios":"levelo://app?vid=2beb7d16-5db0-4ce0-9a9c-4460b6fffd97"},"vehicle_type_id":"4","last_reported":1701151830,"current_range_meters":20800,"station_id":"ce4bh392rcd13ifvqdl0","pricing_plan_id":"free"},{"bike_id":"2ea753fc-62e7-4209-bf7f-374860fb872e","system_id":"levelo_inurba_marseille","lat":43.313022,"lon":5.396735,"is_reserved":false,"is_disabled":false,"rental_uris":{"android":"levelo://app?vid=2ea753fc-62e7-4209-bf7f-374860fb872e","ios":"levelo://app?vid=2ea753fc-62e7-4209-bf7f-374860fb872e"},"vehicle_type_id":"4","last_reported":1701151830,"current_range_meters":10800,"station_id":"ce4bgvp2rcd13ifvqcu0","pricing_plan_id":"free"},{"bike_id":"c81d9255-a93e-4508-a520-67e9511520cb","system_id":"levelo_inurba_marseille","lat":43.309038,"lon":5.396546,"is_reserved":false,"is_disabled":false,"rental_uris":{"android":"levelo://app?vid=c81d9255-a93e-4508-a520-67e9511520cb","ios":"levelo://app?vid=c81d9255-a93e-4508-a520-67e9511520cb"},"vehicle_type_id":"4","last_reported":1701151830,"current_range_meters":31200,"station_id":"ce4bh012rcd13ifvqcv0","pricing_plan_id":"free"},{"bike_id":"9b14d32a-fd8a-4177-9b88-21f0eec481ab","system_id":"levelo_inurba_marseille","lat":43.309038,"lon":5.396546,"is_reserved":false,"is_disabled":false,"rental_uris":{"android":"levelo://app?vid=9b14d32a-fd8a-4177-9b88-21f0eec481ab","ios":"levelo://app?vid=9b14d32a-fd8a-4177-9b88-21f0eec481ab"},"vehicle_type_id":"4","last_reported":1701151830,"current_range_meters":10000,"station_id":"ce4bh012rcd13ifvqcv0","pricing_plan_id":"free"},{"bike_id":"12257172-6a95-45a4-854e-1541107d9859","system_id":"levelo_inurba_marseille","lat":43.291961,"lon":5.357953,"is_reserved":false,"is_disabled":false,"rental_uris":{"android":"levelo://app?vid=12257172-6a95-45a4-854e-1541107d9859","ios":"levelo://app?vid=12257172-6a95-45a4-854e-1541107d9859"},"vehicle_type_id":"4","last_reported":1701151830,"current_range_meters":29600,"station_id":"ce4bhb12rcd13ifvqel0","pricing_plan_id":"free"},{"bike_id":"8fc84ccf-b925-4157-83d8-252a4afe2990","system_id":"levelo_inurba_marseille","lat":43.309047,"lon":5.396551,"is_reserved":false,"is_disabled":false,"rental_uris":{"android":"levelo://app?vid=8fc84ccf-b925-4157-83d8-252a4afe2990","ios":"levelo://app?vid=8fc84ccf-b925-4157-83d8-252a4afe2990"},"vehicle_type_id":"4","last_reported":1701151830,"current_range_meters":30000,"station_id":"ce4bh012rcd13ifvqcv0","pricing_plan_id":"free"},{"bike_id":"72edd8fb-1f78-46ab-a528-f5c72497e419","system_id":"levelo_inurba_marseille","lat":43.313291,"lon":5.396838,"is_reserved":false,"is_disabled":false,"rental_uris":{"android":"levelo://app?vid=72edd8fb-1f78-46ab-a528-f5c72497e419","ios":"levelo://app?vid=72edd8fb-1f78-46ab-a528-f5c72497e419"},"vehicle_type_id":"4","last_reported":1701151830,"current_range_meters":14800,"station_id":"ce4bgvp2rcd13ifvqcu0","pricing_plan_id":"free"},{"bike_id":"78eb1c1b-385e-441d-9d9a-fe518425bb0c","system_id":"levelo_inurba_marseille","lat":43.30875,"lon":5.39647,"is_reserved":false,"is_disabled":false,"rental_uris":{"android":"levelo://app?vid=78eb1c1b-385e-441d-9d9a-fe518425bb0c","ios":"levelo://app?vid=78eb1c1b-385e-441d-9d9a-fe518425bb0c"},"vehicle_type_id":"4","last_reported":1701151830,"current_range_meters":17600,"station_id":"ce4bh012rcd13ifvqcv0","pricing_plan_id":"free"},{"bike_id":"9dfc1be4-40e0-479e-8a23-39504815e756","system_id":"levelo_inurba_marseille","lat":43.332724,"lon":5.37961,"is_reserved":false,"is_disabled":false,"rental_uris":{"android":"levelo://app?vid=9dfc1be4-40e0-479e-8a23-39504815e756","ios":"levelo://app?vid=9dfc1be4-40e0-479e-8a23-39504815e756"},"vehicle_type_id":"4","last_reported":1701151830,"current_range_meters":30800,"station_id":"","pricing_plan_id":"free"},{"bike_id":"62d2edd9-0798-401b-ae07-aa28715eff4a","system_id":"levelo_inurba_marseille","lat":43.290327,"lon":5.375711,"is_reserved":false,"is_disabled":false,"rental_uris":{"android":"levelo://app?vid=62d2edd9-0798-401b-ae07-aa28715eff4a","ios":"levelo://app?vid=62d2edd9-0798-401b-ae07-aa28715eff4a"},"vehicle_type_id":"4","last_reported":1701151830,"current_range_meters":29600,"station_id":"ce4bh692rcd13ifvqe90","pricing_plan_id":"free"},{"bike_id":"9f776936-f32e-483b-bcff-2e769fde6723","system_id":"levelo_inurba_marseille","lat":43.290327,"lon":5.375711,"is_reserved":false,"is_disabled":false,"rental_uris":{"android":"levelo://app?vid=9f776936-f32e-483b-bcff-2e769fde6723","ios":"levelo://app?vid=9f776936-f32e-483b-bcff-2e769fde6723"},"vehicle_type_id":"4","last_reported":1701151830,"current_range_meters":24800,"station_id":"ce4bh692rcd13ifvqe90","pricing_plan_id":"free"},{"bike_id":"59617d5d-fb68-4f1b-b777-9d2e3b412639","system_id":"levelo_inurba_marseille","lat":43.289184,"lon":5.366408,"is_reserved":false,"is_disabled":false,"rental_uris":{"android":"levelo://app?vid=59617d5d-fb68-4f1b-b777-9d2e3b412639","ios":"levelo://app?vid=59617d5d-fb68-4f1b-b777-9d2e3b412639"},"vehicle_type_id":"4","last_reported":1701151830,"current_range_meters":31200,"station_id":"ce4bhap2rcd13ifvqek0","pricing_plan_id":"free"},{"bike_id":"a040e2d8-3b19-4d88-8dfb-0c1f1c8cbde0","system_id":"levelo_inurba_marseille","lat":43.289184,"lon":5.366408,"is_reserved":false,"is_disabled":false,"rental_uris":{"android":"levelo://app?vid=a040e2d8-3b19-4d88-8dfb-0c1f1c8cbde0","ios":"levelo://app?vid=a040e2d8-3b19-4d88-8dfb-0c1f1c8cbde0"},"vehicle_type_id":"4","last_reported":1701151830,"current_range_meters":30400,"station_id":"ce4bhap2rcd13ifvqek0","pricing_plan_id":"free"},{"bike_id":"292a637c-73ac-4923-9d61-4c2faa9f1460","system_id":"levelo_inurba_marseille","lat":43.289318,"lon":5.363929,"is_reserved":false,"is_disabled":false,"rental_uris":{"android":"levelo://app?vid=292a637c-73ac-4923-9d61-4c2faa9f1460","ios":"levelo://app?vid=292a637c-73ac-4923-9d61-4c2faa9f1460"},"vehicle_type_id":"4","last_reported":1701151830,"current_range_meters":28400,"station_id":"ce4bhc92rcd13ifvqetg","pricing_plan_id":"free"},{"bike_id":"ebfd3146-4315-40c6-bd7d-23642c45a8d1","system_id":"levelo_inurba_marseille","lat":43.292642,"lon":5.384254,"is_reserved":false,"is_disabled":false,"rental_uris":{"android":"levelo://app?vid=ebfd3146-4315-40c6-bd7d-23642c45a8d1","ios":"levelo://app?vid=ebfd3146-4315-40c6-bd7d-23642c45a8d1"},"vehicle_type_id":"4","last_reported":1701151830,"current_range_meters":24400,"station_id":"ce4bh692rcd13ifvqea0","pricing_plan_id":"free"},{"bike_id":"184ff167-ecf2-4da7-a6e5-56134f54523d","system_id":"levelo_inurba_marseille","lat":43.304296,"lon":5.397513,"is_reserved":false,"is_disabled":false,"rental_uris":{"android":"levelo://app?vid=184ff167-ecf2-4da7-a6e5-56134f54523d","ios":"levelo://app?vid=184ff167-ecf2-4da7-a6e5-56134f54523d"},"vehicle_type_id":"4","last_reported":1701151830,"current_range_meters":27600,"station_id":"ce4bh092rcd13ifvqd20","pricing_plan_id":"free"},{"bike_id":"8ae6c6ad-3769-42bf-910b-622bf6b860cf","system_id":"levelo_inurba_marseille","lat":43.290103,"lon":5.356114,"is_reserved":false,"is_disabled":false,"rental_uris":{"android":"levelo://app?vid=8ae6c6ad-3769-42bf-910b-622bf6b860cf","ios":"levelo://app?vid=8ae6c6ad-3769-42bf-910b-622bf6b860cf"},"vehicle_type_id":"4","last_reported":1701151830,"current_range_meters":28800,"station_id":"ce4bhb92rcd13ifvqen0","pricing_plan_id":"free"},{"bike_id":"067c2722-2af7-4931-9979-9899861d44c7","system_id":"levelo_inurba_marseille","lat":43.290104,"lon":5.356111,"is_reserved":false,"is_disabled":false,"rental_uris":{"android":"levelo://app?vid=067c2722-2af7-4931-9979-9899861d44c7","ios":"levelo://app?vid=067c2722-2af7-4931-9979-9899861d44c7"},"vehicle_type_id":"4","last_reported":1701151830,"current_range_meters":15600,"station_id":"ce4bhb92rcd13ifvqen0","pricing_plan_id":"free"},{"bike_id":"8f2fc353-100b-4f17-b949-e99e62e340ed","system_id":"levelo_inurba_marseille","lat":43.290104,"lon":5.356111,"is_reserved":false,"is_disabled":false,"rental_uris":{"android":"levelo://app?vid=8f2fc353-100b-4f17-b949-e99e62e340ed","ios":"levelo://app?vid=8f2fc353-100b-4f17-b949-e99e62e340ed"},"vehicle_type_id":"4","last_reported":1701151830,"current_range_meters":28400,"station_id":"ce4bhb92rcd13ifvqen0","pricing_plan_id":"free"},{"bike_id":"d8063ccf-1aea-4a00-99f5-3c62507290ca","system_id":"levelo_inurba_marseille","lat":43.289743,"lon":5.378304,"is_reserved":false,"is_disabled":false,"rental_uris":{"android":"levelo://app?vid=d8063ccf-1aea-4a00-99f5-3c62507290ca","ios":"levelo://app?vid=d8063ccf-1aea-4a00-99f5-3c62507290ca"},"vehicle_type_id":"4","last_reported":1701151830,"current_range_meters":21200,"station_id":"ce4bh9p2rcd13ifvqed0","pricing_plan_id":"free"},{"bike_id":"41b8f348-f295-467b-8cd7-35f7cc6c2f38","system_id":"levelo_inurba_marseille","lat":43.295169,"lon":5.390426,"is_reserved":false,"is_disabled":false,"rental_uris":{"android":"levelo://app?vid=41b8f348-f295-467b-8cd7-35f7cc6c2f38","ios":"levelo://app?vid=41b8f348-f295-467b-8cd7-35f7cc6c2f38"},"vehicle_type_id":"4","last_reported":1701151830,"current_range_meters":5200,"station_id":"ce4bh3p2rcd13ifvqdp0","pricing_plan_id":"free"},{"bike_id":"f3ee3b5f-d9bd-46c4-af6e-8604c5cb2a3e","system_id":"levelo_inurba_marseille","lat":43.288523,"lon":5.35866,"is_reserved":false,"is_disabled":false,"rental_uris":{"android":"levelo://app?vid=f3ee3b5f-d9bd-46c4-af6e-8604c5cb2a3e","ios":"levelo://app?vid=f3ee3b5f-d9bd-46c4-af6e-8604c5cb2a3e"},"vehicle_type_id":"4","last_reported":1701151830,"current_range_meters":23600,"station_id":"ce4bhb12rcd13ifvqem0","pricing_plan_id":"free"},{"bike_id":"1affd046-af12-41fb-ade5-939f7e0100fb","system_id":"levelo_inurba_marseille","lat":43.312609,"lon":5.401662,"is_reserved":false,"is_disabled":false,"rental_uris":{"android":"levelo://app?vid=1affd046-af12-41fb-ade5-939f7e0100fb","ios":"levelo://app?vid=1affd046-af12-41fb-ade5-939f7e0100fb"},"vehicle_type_id":"4","last_reported":1701151830,"current_range_meters":29600,"station_id":"ce4bh092rcd13ifvqd30","pricing_plan_id":"free"},{"bike_id":"7112c221-d2eb-4911-87b2-ada2980400a4","system_id":"levelo_inurba_marseille","lat":43.312773,"lon":5.40168,"is_reserved":false,"is_disabled":false,"rental_uris":{"android":"levelo://app?vid=7112c221-d2eb-4911-87b2-ada2980400a4","ios":"levelo://app?vid=7112c221-d2eb-4911-87b2-ada2980400a4"},"vehicle_type_id":"4","last_reported":1701151830,"current_range_meters":25200,"station_id":"ce4bh092rcd13ifvqd30","pricing_plan_id":"free"},{"bike_id":"3189f36d-eef8-493a-9360-ba220aab2c25","system_id":"levelo_inurba_marseille","lat":43.312609,"lon":5.401662,"is_reserved":false,"is_disabled":false,"rental_uris":{"android":"levelo://app?vid=3189f36d-eef8-493a-9360-ba220aab2c25","ios":"levelo://app?vid=3189f36d-eef8-493a-9360-ba220aab2c25"},"vehicle_type_id":"4","last_reported":1701151830,"current_range_meters":21600,"station_id":"ce4bh092rcd13ifvqd30","pricing_plan_id":"free"},{"bike_id":"39ef8821-9b72-44e2-a7ab-5622d7c28cca","system_id":"levelo_inurba_marseille","lat":43.312609,"lon":5.401662,"is_reserved":false,"is_disabled":false,"rental_uris":{"android":"levelo://app?vid=39ef8821-9b72-44e2-a7ab-5622d7c28cca","ios":"levelo://app?vid=39ef8821-9b72-44e2-a7ab-5622d7c28cca"},"vehicle_type_id":"4","last_reported":1701151830,"current_range_meters":28000,"station_id":"ce4bh092rcd13ifvqd30","pricing_plan_id":"free"},{"bike_id":"a306b5f8-d346-457a-b48a-7a7bb8bb2e0a","system_id":"levelo_inurba_marseille","lat":43.306378,"lon":5.400731,"is_reserved":false,"is_disabled":false,"rental_uris":{"android":"levelo://app?vid=a306b5f8-d346-457a-b48a-7a7bb8bb2e0a","ios":"levelo://app?vid=a306b5f8-d346-457a-b48a-7a7bb8bb2e0a"},"vehicle_type_id":"4","last_reported":1701151830,"current_range_meters":30400,"station_id":"ce4bh112rcd13ifvqda0","pricing_plan_id":"free"},{"bike_id":"cfbf04fd-e097-46eb-99fe-8f4ae75c5c4e","system_id":"levelo_inurba_marseille","lat":43.33755,"lon":5.37448,"is_reserved":false,"is_disabled":false,"rental_uris":{"android":"levelo://app?vid=cfbf04fd-e097-46eb-99fe-8f4ae75c5c4e","ios":"levelo://app?vid=cfbf04fd-e097-46eb-99fe-8f4ae75c5c4e"},"vehicle_type_id":"4","last_reported":1701151830,"current_range_meters":31200,"station_id":"","pricing_plan_id":"free"},{"bike_id":"306f98cf-6486-4eca-beab-4b7262158a77","system_id":"levelo_inurba_marseille","lat":43.306375,"lon":5.400745,"is_reserved":false,"is_disabled":false,"rental_uris":{"android":"levelo://app?vid=306f98cf-6486-4eca-beab-4b7262158a77","ios":"levelo://app?vid=306f98cf-6486-4eca-beab-4b7262158a77"},"vehicle_type_id":"4","last_reported":1701151830,"current_range_meters":31200,"station_id":"ce4bh112rcd13ifvqda0","pricing_plan_id":"free"},{"bike_id":"c7ac81d8-6af7-432a-9aec-238d30c3a9d1","system_id":"levelo_inurba_marseille","lat":43.306435,"lon":5.400784,"is_reserved":false,"is_disabled":false,"rental_uris":{"android":"levelo://app?vid=c7ac81d8-6af7-432a-9aec-238d30c3a9d1","ios":"levelo://app?vid=c7ac81d8-6af7-432a-9aec-238d30c3a9d1"},"vehicle_type_id":"4","last_reported":1701151830,"current_range_meters":31200,"station_id":"ce4bh112rcd13ifvqda0","pricing_plan_id":"free"},{"bike_id":"6b6496e6-04bc-4786-8dfc-8d0c4ae9cfa2","system_id":"levelo_inurba_marseille","lat":43.33761,"lon":5.37476,"is_reserved":false,"is_disabled":false,"rental_uris":{"android":"levelo://app?vid=6b6496e6-04bc-4786-8dfc-8d0c4ae9cfa2","ios":"levelo://app?vid=6b6496e6-04bc-4786-8dfc-8d0c4ae9cfa2"},"vehicle_type_id":"4","last_reported":1701151830,"current_range_meters":24800,"station_id":"","pricing_plan_id":"free"},{"bike_id":"6574a4c3-42a0-44c9-9d05-113cb0ad90c3","system_id":"levelo_inurba_marseille","lat":43.306412,"lon":5.401035,"is_reserved":false,"is_disabled":false,"rental_uris":{"android":"levelo://app?vid=6574a4c3-42a0-44c9-9d05-113cb0ad90c3","ios":"levelo://app?vid=6574a4c3-42a0-44c9-9d05-113cb0ad90c3"},"vehicle_type_id":"4","last_reported":1701151830,"current_range_meters":4000,"station_id":"ce4bh112rcd13ifvqda0","pricing_plan_id":"free"},{"bike_id":"17d77149-f5d4-4fda-9f82-7bd72b431470","system_id":"levelo_inurba_marseille","lat":43.28727,"lon":5.36078,"is_reserved":false,"is_disabled":false,"rental_uris":{"android":"levelo://app?vid=17d77149-f5d4-4fda-9f82-7bd72b431470","ios":"levelo://app?vid=17d77149-f5d4-4fda-9f82-7bd72b431470"},"vehicle_type_id":"4","last_reported":1701151830,"current_range_meters":18400,"station_id":"cki0cbj6b192h4jlfktg","pricing_plan_id":"free"},{"bike_id":"5b082016-1bf3-4c7f-bb0e-3f74cd66433d","system_id":"levelo_inurba_marseille","lat":43.286961,"lon":5.373785,"is_reserved":false,"is_disabled":false,"rental_uris":{"android":"levelo://app?vid=5b082016-1bf3-4c7f-bb0e-3f74cd66433d","ios":"levelo://app?vid=5b082016-1bf3-4c7f-bb0e-3f74cd66433d"},"vehicle_type_id":"4","last_reported":1701151830,"current_range_meters":28400,"station_id":"ce4bh3p2rcd13ifvqdq0","pricing_plan_id":"free"},{"bike_id":"cf3b36af-2c00-4833-a3dd-afc17ed25d2f","system_id":"levelo_inurba_marseille","lat":43.306284,"lon":5.401832,"is_reserved":false,"is_disabled":false,"rental_uris":{"android":"levelo://app?vid=cf3b36af-2c00-4833-a3dd-afc17ed25d2f","ios":"levelo://app?vid=cf3b36af-2c00-4833-a3dd-afc17ed25d2f"},"vehicle_type_id":"4","last_reported":1701151830,"current_range_meters":25200,"station_id":"","pricing_plan_id":"free"},{"bike_id":"2a27f955-612d-4a87-8913-c0b4960386d0","system_id":"levelo_inurba_marseille","lat":43.286593,"lon":5.363346,"is_reserved":false,"is_disabled":false,"rental_uris":{"android":"levelo://app?vid=2a27f955-612d-4a87-8913-c0b4960386d0","ios":"levelo://app?vid=2a27f955-612d-4a87-8913-c0b4960386d0"},"vehicle_type_id":"4","last_reported":1701151830,"current_range_meters":29600,"station_id":"ce4bhah2rcd13ifvqej0","pricing_plan_id":"free"},{"bike_id":"c8a18252-4a6d-423c-95d9-7be9f47abb11","system_id":"levelo_inurba_marseille","lat":43.286591,"lon":5.363346,"is_reserved":false,"is_disabled":false,"rental_uris":{"android":"levelo://app?vid=c8a18252-4a6d-423c-95d9-7be9f47abb11","ios":"levelo://app?vid=c8a18252-4a6d-423c-95d9-7be9f47abb11"},"vehicle_type_id":"4","last_reported":1701151830,"current_range_meters":20400,"station_id":"ce4bhah2rcd13ifvqej0","pricing_plan_id":"free"},{"bike_id":"ad1f6cf3-791e-43d5-a056-0c155a7f7383","system_id":"levelo_inurba_marseille","lat":43.286961,"lon":5.373785,"is_reserved":false,"is_disabled":false,"rental_uris":{"android":"levelo://app?vid=ad1f6cf3-791e-43d5-a056-0c155a7f7383","ios":"levelo://app?vid=ad1f6cf3-791e-43d5-a056-0c155a7f7383"},"vehicle_type_id":"4","last_reported":1701151830,"current_range_meters":18800,"station_id":"ce4bh3p2rcd13ifvqdq0","pricing_plan_id":"free"},{"bike_id":"09ffa2f6-fcec-47c3-8367-28c3660a197c","system_id":"levelo_inurba_marseille","lat":43.286593,"lon":5.363346,"is_reserved":false,"is_disabled":false,"rental_uris":{"android":"levelo://app?vid=09ffa2f6-fcec-47c3-8367-28c3660a197c","ios":"levelo://app?vid=09ffa2f6-fcec-47c3-8367-28c3660a197c"},"vehicle_type_id":"4","last_reported":1701151830,"current_range_meters":29200,"station_id":"ce4bhah2rcd13ifvqej0","pricing_plan_id":"free"},{"bike_id":"b691dbb5-abe7-4d11-a190-bb1f0789c1e8","system_id":"levelo_inurba_marseille","lat":43.286961,"lon":5.373785,"is_reserved":false,"is_disabled":false,"rental_uris":{"android":"levelo://app?vid=b691dbb5-abe7-4d11-a190-bb1f0789c1e8","ios":"levelo://app?vid=b691dbb5-abe7-4d11-a190-bb1f0789c1e8"},"vehicle_type_id":"4","last_reported":1701151830,"current_range_meters":27600,"station_id":"ce4bh3p2rcd13ifvqdq0","pricing_plan_id":"free"},{"bike_id":"abbaee3d-bc13-460e-a4c6-03aa89b842c8","system_id":"levelo_inurba_marseille","lat":43.286593,"lon":5.363346,"is_reserved":false,"is_disabled":false,"rental_uris":{"android":"levelo://app?vid=abbaee3d-bc13-460e-a4c6-03aa89b842c8","ios":"levelo://app?vid=abbaee3d-bc13-460e-a4c6-03aa89b842c8"},"vehicle_type_id":"4","last_reported":1701151830,"current_range_meters":27200,"station_id":"ce4bhah2rcd13ifvqej0","pricing_plan_id":"free"},{"bike_id":"b86167c9-7a0c-443f-8b9c-0b048ed5ec36","system_id":"levelo_inurba_marseille","lat":43.286593,"lon":5.363346,"is_reserved":false,"is_disabled":false,"rental_uris":{"android":"levelo://app?vid=b86167c9-7a0c-443f-8b9c-0b048ed5ec36","ios":"levelo://app?vid=b86167c9-7a0c-443f-8b9c-0b048ed5ec36"},"vehicle_type_id":"4","last_reported":1701151830,"current_range_meters":20400,"station_id":"ce4bhah2rcd13ifvqej0","pricing_plan_id":"free"},{"bike_id":"5146305a-136a-43fa-a8ae-2f32834897e6","system_id":"levelo_inurba_marseille","lat":43.295174,"lon":5.394081,"is_reserved":false,"is_disabled":false,"rental_uris":{"android":"levelo://app?vid=5146305a-136a-43fa-a8ae-2f32834897e6","ios":"levelo://app?vid=5146305a-136a-43fa-a8ae-2f32834897e6"},"vehicle_type_id":"4","last_reported":1701151830,"current_range_meters":0,"station_id":"ce4bh292rcd13ifvqdf0","pricing_plan_id":"free"},{"bike_id":"0af86d3c-104b-4b59-8cf0-1fc2f4c056bc","system_id":"levelo_inurba_marseille","lat":43.290299,"lon":5.386364,"is_reserved":false,"is_disabled":false,"rental_uris":{"android":"levelo://app?vid=0af86d3c-104b-4b59-8cf0-1fc2f4c056bc","ios":"levelo://app?vid=0af86d3c-104b-4b59-8cf0-1fc2f4c056bc"},"vehicle_type_id":"4","last_reported":1701151830,"current_range_meters":30400,"station_id":"ce4bh4p2rcd13ifvqe0g","pricing_plan_id":"free"},{"bike_id":"1934caea-0212-4727-8737-9330d2e434c0","system_id":"levelo_inurba_marseille","lat":43.290338,"lon":5.386452,"is_reserved":false,"is_disabled":false,"rental_uris":{"android":"levelo://app?vid=1934caea-0212-4727-8737-9330d2e434c0","ios":"levelo://app?vid=1934caea-0212-4727-8737-9330d2e434c0"},"vehicle_type_id":"4","last_reported":1701151830,"current_range_meters":25600,"station_id":"ce4bh4p2rcd13ifvqe0g","pricing_plan_id":"free"},{"bike_id":"cc8f09ea-6260-4f55-9610-084bd09ad818","system_id":"levelo_inurba_marseille","lat":43.290323,"lon":5.386426,"is_reserved":false,"is_disabled":false,"rental_uris":{"android":"levelo://app?vid=cc8f09ea-6260-4f55-9610-084bd09ad818","ios":"levelo://app?vid=cc8f09ea-6260-4f55-9610-084bd09ad818"},"vehicle_type_id":"4","last_reported":1701151830,"current_range_meters":22800,"station_id":"ce4bh4p2rcd13ifvqe0g","pricing_plan_id":"free"},{"bike_id":"7b43cb20-574d-4892-8e7b-8f84975b65f2","system_id":"levelo_inurba_marseille","lat":43.29028,"lon":5.386364,"is_reserved":false,"is_disabled":false,"rental_uris":{"android":"levelo://app?vid=7b43cb20-574d-4892-8e7b-8f84975b65f2","ios":"levelo://app?vid=7b43cb20-574d-4892-8e7b-8f84975b65f2"},"vehicle_type_id":"4","last_reported":1701151830,"current_range_meters":31200,"station_id":"ce4bh4p2rcd13ifvqe0g","pricing_plan_id":"free"},{"bike_id":"1f3aa395-3a60-4d58-8f22-b070fc013951","system_id":"levelo_inurba_marseille","lat":43.289307,"lon":5.38406,"is_reserved":false,"is_disabled":false,"rental_uris":{"android":"levelo://app?vid=1f3aa395-3a60-4d58-8f22-b070fc013951","ios":"levelo://app?vid=1f3aa395-3a60-4d58-8f22-b070fc013951"},"vehicle_type_id":"4","last_reported":1701151830,"current_range_meters":31200,"station_id":"ce4bh612rcd13ifvqe6g","pricing_plan_id":"free"},{"bike_id":"2da0428e-ccf5-49c6-9617-f8ea3c506923","system_id":"levelo_inurba_marseille","lat":43.289249,"lon":5.383989,"is_reserved":false,"is_disabled":false,"rental_uris":{"android":"levelo://app?vid=2da0428e-ccf5-49c6-9617-f8ea3c506923","ios":"levelo://app?vid=2da0428e-ccf5-49c6-9617-f8ea3c506923"},"vehicle_type_id":"4","last_reported":1701151830,"current_range_meters":18000,"station_id":"ce4bh612rcd13ifvqe6g","pricing_plan_id":"free"},{"bike_id":"ae46468a-8415-470a-908c-347afe972df5","system_id":"levelo_inurba_marseille","lat":43.289307,"lon":5.38406,"is_reserved":false,"is_disabled":false,"rental_uris":{"android":"levelo://app?vid=ae46468a-8415-470a-908c-347afe972df5","ios":"levelo://app?vid=ae46468a-8415-470a-908c-347afe972df5"},"vehicle_type_id":"4","last_reported":1701151830,"current_range_meters":17600,"station_id":"ce4bh612rcd13ifvqe6g","pricing_plan_id":"free"},{"bike_id":"15e6465f-0b6e-4233-aa8b-e230108a9a5e","system_id":"levelo_inurba_marseille","lat":43.302473,"lon":5.40074,"is_reserved":false,"is_disabled":false,"rental_uris":{"android":"levelo://app?vid=15e6465f-0b6e-4233-aa8b-e230108a9a5e","ios":"levelo://app?vid=15e6465f-0b6e-4233-aa8b-e230108a9a5e"},"vehicle_type_id":"4","last_reported":1701151830,"current_range_meters":22400,"station_id":"ce4bgvh2rcd13ifvqcs0","pricing_plan_id":"free"},{"bike_id":"46af1708-b444-482f-a7d1-18069412a55b","system_id":"levelo_inurba_marseille","lat":43.287185,"lon":5.379373,"is_reserved":false,"is_disabled":false,"rental_uris":{"android":"levelo://app?vid=46af1708-b444-482f-a7d1-18069412a55b","ios":"levelo://app?vid=46af1708-b444-482f-a7d1-18069412a55b"},"vehicle_type_id":"4","last_reported":1701151830,"current_range_meters":26000,"station_id":"ce4bh9p2rcd13ifvqec0","pricing_plan_id":"free"},{"bike_id":"563105a5-d214-4a6a-9861-ea6deece7711","system_id":"levelo_inurba_marseille","lat":43.316499,"lon":5.404425,"is_reserved":false,"is_disabled":false,"rental_uris":{"android":"levelo://app?vid=563105a5-d214-4a6a-9861-ea6deece7711","ios":"levelo://app?vid=563105a5-d214-4a6a-9861-ea6deece7711"},"vehicle_type_id":"4","last_reported":1701151830,"current_range_meters":16400,"station_id":"ce4bh012rcd13ifvqd00","pricing_plan_id":"free"},{"bike_id":"b92b8a4a-d7b7-48d7-9709-f018b1a458fa","system_id":"levelo_inurba_marseille","lat":43.29191,"lon":5.39303,"is_reserved":false,"is_disabled":false,"rental_uris":{"android":"levelo://app?vid=b92b8a4a-d7b7-48d7-9709-f018b1a458fa","ios":"levelo://app?vid=b92b8a4a-d7b7-48d7-9709-f018b1a458fa"},"vehicle_type_id":"4","last_reported":1701151830,"current_range_meters":14000,"station_id":"ce4bh192rcd13ifvqdd0","pricing_plan_id":"free"},{"bike_id":"10889358-5e19-486c-b30c-593c612bde27","system_id":"levelo_inurba_marseille","lat":43.291994,"lon":5.392907,"is_reserved":false,"is_disabled":false,"rental_uris":{"android":"levelo://app?vid=10889358-5e19-486c-b30c-593c612bde27","ios":"levelo://app?vid=10889358-5e19-486c-b30c-593c612bde27"},"vehicle_type_id":"4","last_reported":1701151830,"current_range_meters":30000,"station_id":"ce4bh192rcd13ifvqdd0","pricing_plan_id":"free"},{"bike_id":"b0f31d01-d9b6-43e9-85ce-9e698e322670","system_id":"levelo_inurba_marseille","lat":43.29188,"lon":5.39328,"is_reserved":false,"is_disabled":false,"rental_uris":{"android":"levelo://app?vid=b0f31d01-d9b6-43e9-85ce-9e698e322670","ios":"levelo://app?vid=b0f31d01-d9b6-43e9-85ce-9e698e322670"},"vehicle_type_id":"4","last_reported":1701151830,"current_range_meters":12000,"station_id":"ce4bh192rcd13ifvqdd0","pricing_plan_id":"free"},{"bike_id":"2656dc22-1191-4d92-ad98-f874d280eee1","system_id":"levelo_inurba_marseille","lat":43.284534,"lon":5.358662,"is_reserved":false,"is_disabled":false,"rental_uris":{"android":"levelo://app?vid=2656dc22-1191-4d92-ad98-f874d280eee1","ios":"levelo://app?vid=2656dc22-1191-4d92-ad98-f874d280eee1"},"vehicle_type_id":"4","last_reported":1701151830,"current_range_meters":30400,"station_id":"ce4bhah2rcd13ifvqei0","pricing_plan_id":"free"},{"bike_id":"133469e0-6899-4538-83db-9fc816004c1a","system_id":"levelo_inurba_marseille","lat":43.312787,"lon":5.406465,"is_reserved":false,"is_disabled":false,"rental_uris":{"android":"levelo://app?vid=133469e0-6899-4538-83db-9fc816004c1a","ios":"levelo://app?vid=133469e0-6899-4538-83db-9fc816004c1a"},"vehicle_type_id":"4","last_reported":1701151830,"current_range_meters":20400,"station_id":"","pricing_plan_id":"free"},{"bike_id":"278f5dcf-1f41-4d60-a862-bd9c7c6a092d","system_id":"levelo_inurba_marseille","lat":43.284534,"lon":5.358662,"is_reserved":false,"is_disabled":false,"rental_uris":{"android":"levelo://app?vid=278f5dcf-1f41-4d60-a862-bd9c7c6a092d","ios":"levelo://app?vid=278f5dcf-1f41-4d60-a862-bd9c7c6a092d"},"vehicle_type_id":"4","last_reported":1701151830,"current_range_meters":31200,"station_id":"ce4bhah2rcd13ifvqei0","pricing_plan_id":"free"},{"bike_id":"900f32d7-58fc-487e-81e9-dfbd939a0c73","system_id":"levelo_inurba_marseille","lat":43.294314,"lon":5.397498,"is_reserved":false,"is_disabled":false,"rental_uris":{"android":"levelo://app?vid=900f32d7-58fc-487e-81e9-dfbd939a0c73","ios":"levelo://app?vid=900f32d7-58fc-487e-81e9-dfbd939a0c73"},"vehicle_type_id":"4","last_reported":1701151830,"current_range_meters":29600,"station_id":"ce4bh3h2rcd13ifvqdo0","pricing_plan_id":"free"},{"bike_id":"5722570c-5f28-4103-85aa-19d598179a6b","system_id":"levelo_inurba_marseille","lat":43.285856,"lon":5.350771,"is_reserved":false,"is_disabled":false,"rental_uris":{"android":"levelo://app?vid=5722570c-5f28-4103-85aa-19d598179a6b","ios":"levelo://app?vid=5722570c-5f28-4103-85aa-19d598179a6b"},"vehicle_type_id":"4","last_reported":1701151830,"current_range_meters":19200,"station_id":"ce4bhch2rcd13ifvqeug","pricing_plan_id":"free"},{"bike_id":"b430f992-f7d3-48af-ae25-306455da45ce","system_id":"levelo_inurba_marseille","lat":43.285856,"lon":5.350771,"is_reserved":false,"is_disabled":false,"rental_uris":{"android":"levelo://app?vid=b430f992-f7d3-48af-ae25-306455da45ce","ios":"levelo://app?vid=b430f992-f7d3-48af-ae25-306455da45ce"},"vehicle_type_id":"4","last_reported":1701151830,"current_range_meters":25200,"station_id":"ce4bhch2rcd13ifvqeug","pricing_plan_id":"free"},{"bike_id":"832f5eab-424c-49f2-9a46-94bfaffac849","system_id":"levelo_inurba_marseille","lat":43.283998,"lon":5.375062,"is_reserved":false,"is_disabled":false,"rental_uris":{"android":"levelo://app?vid=832f5eab-424c-49f2-9a46-94bfaffac849","ios":"levelo://app?vid=832f5eab-424c-49f2-9a46-94bfaffac849"},"vehicle_type_id":"4","last_reported":1701151830,"current_range_meters":22800,"station_id":"ce4bh412rcd13ifvqds0","pricing_plan_id":"free"},{"bike_id":"c8a7e7f2-7c27-44ef-a668-96c2dd930213","system_id":"levelo_inurba_marseille","lat":43.283998,"lon":5.375062,"is_reserved":false,"is_disabled":false,"rental_uris":{"android":"levelo://app?vid=c8a7e7f2-7c27-44ef-a668-96c2dd930213","ios":"levelo://app?vid=c8a7e7f2-7c27-44ef-a668-96c2dd930213"},"vehicle_type_id":"4","last_reported":1701151830,"current_range_meters":30400,"station_id":"ce4bh412rcd13ifvqds0","pricing_plan_id":"free"},{"bike_id":"f42c3fce-4b62-4615-adbe-ccdbca6d8c10","system_id":"levelo_inurba_marseille","lat":43.283998,"lon":5.375062,"is_reserved":false,"is_disabled":false,"rental_uris":{"android":"levelo://app?vid=f42c3fce-4b62-4615-adbe-ccdbca6d8c10","ios":"levelo://app?vid=f42c3fce-4b62-4615-adbe-ccdbca6d8c10"},"vehicle_type_id":"4","last_reported":1701151830,"current_range_meters":29600,"station_id":"ce4bh412rcd13ifvqds0","pricing_plan_id":"free"},{"bike_id":"a6941947-37b1-42e9-8e03-0364e5d01717","system_id":"levelo_inurba_marseille","lat":43.283998,"lon":5.375062,"is_reserved":false,"is_disabled":false,"rental_uris":{"android":"levelo://app?vid=a6941947-37b1-42e9-8e03-0364e5d01717","ios":"levelo://app?vid=a6941947-37b1-42e9-8e03-0364e5d01717"},"vehicle_type_id":"4","last_reported":1701151830,"current_range_meters":30800,"station_id":"ce4bh412rcd13ifvqds0","pricing_plan_id":"free"},{"bike_id":"8ff62079-d734-4a56-9e5b-84c4321b39ac","system_id":"levelo_inurba_marseille","lat":43.283998,"lon":5.375062,"is_reserved":false,"is_disabled":false,"rental_uris":{"android":"levelo://app?vid=8ff62079-d734-4a56-9e5b-84c4321b39ac","ios":"levelo://app?vid=8ff62079-d734-4a56-9e5b-84c4321b39ac"},"vehicle_type_id":"4","last_reported":1701151830,"current_range_meters":28400,"station_id":"ce4bh412rcd13ifvqds0","pricing_plan_id":"free"},{"bike_id":"2ef6a675-4e3f-4bc8-b5af-6dd2de7be8d7","system_id":"levelo_inurba_marseille","lat":43.284,"lon":5.37523,"is_reserved":false,"is_disabled":false,"rental_uris":{"android":"levelo://app?vid=2ef6a675-4e3f-4bc8-b5af-6dd2de7be8d7","ios":"levelo://app?vid=2ef6a675-4e3f-4bc8-b5af-6dd2de7be8d7"},"vehicle_type_id":"4","last_reported":1701151830,"current_range_meters":0,"station_id":"","pricing_plan_id":"free"},{"bike_id":"76a91624-078a-44c3-b15f-d8bedec3309f","system_id":"levelo_inurba_marseille","lat":43.286595,"lon":5.386795,"is_reserved":false,"is_disabled":false,"rental_uris":{"android":"levelo://app?vid=76a91624-078a-44c3-b15f-d8bedec3309f","ios":"levelo://app?vid=76a91624-078a-44c3-b15f-d8bedec3309f"},"vehicle_type_id":"4","last_reported":1701151830,"current_range_meters":20000,"station_id":"ce4bh492rcd13ifvqdug","pricing_plan_id":"free"},{"bike_id":"8fa51fbe-d3ae-468c-918d-b5d900ca27bf","system_id":"levelo_inurba_marseille","lat":43.323464,"lon":5.406297,"is_reserved":false,"is_disabled":false,"rental_uris":{"android":"levelo://app?vid=8fa51fbe-d3ae-468c-918d-b5d900ca27bf","ios":"levelo://app?vid=8fa51fbe-d3ae-468c-918d-b5d900ca27bf"},"vehicle_type_id":"4","last_reported":1701151830,"current_range_meters":31200,"station_id":"ce4bhq92rcd13ifvqhjg","pricing_plan_id":"free"},{"bike_id":"12e227b0-72c8-4999-8cea-d0172a7cee29","system_id":"levelo_inurba_marseille","lat":43.323464,"lon":5.406297,"is_reserved":false,"is_disabled":false,"rental_uris":{"android":"levelo://app?vid=12e227b0-72c8-4999-8cea-d0172a7cee29","ios":"levelo://app?vid=12e227b0-72c8-4999-8cea-d0172a7cee29"},"vehicle_type_id":"4","last_reported":1701151830,"current_range_meters":20000,"station_id":"ce4bhq92rcd13ifvqhjg","pricing_plan_id":"free"},{"bike_id":"2ec5961f-1b4b-4587-a7b0-f9177d2b9fbd","system_id":"levelo_inurba_marseille","lat":43.323464,"lon":5.406297,"is_reserved":false,"is_disabled":false,"rental_uris":{"android":"levelo://app?vid=2ec5961f-1b4b-4587-a7b0-f9177d2b9fbd","ios":"levelo://app?vid=2ec5961f-1b4b-4587-a7b0-f9177d2b9fbd"},"vehicle_type_id":"4","last_reported":1701151830,"current_range_meters":31200,"station_id":"ce4bhq92rcd13ifvqhjg","pricing_plan_id":"free"},{"bike_id":"6e5fc2ab-e680-4453-a607-400458212688","system_id":"levelo_inurba_marseille","lat":43.323464,"lon":5.406297,"is_reserved":false,"is_disabled":false,"rental_uris":{"android":"levelo://app?vid=6e5fc2ab-e680-4453-a607-400458212688","ios":"levelo://app?vid=6e5fc2ab-e680-4453-a607-400458212688"},"vehicle_type_id":"4","last_reported":1701151830,"current_range_meters":31200,"station_id":"ce4bhq92rcd13ifvqhjg","pricing_plan_id":"free"},{"bike_id":"73742662-051d-42e7-a249-fb6dbc0a6fcd","system_id":"levelo_inurba_marseille","lat":43.284793,"lon":5.384119,"is_reserved":false,"is_disabled":false,"rental_uris":{"android":"levelo://app?vid=73742662-051d-42e7-a249-fb6dbc0a6fcd","ios":"levelo://app?vid=73742662-051d-42e7-a249-fb6dbc0a6fcd"},"vehicle_type_id":"4","last_reported":1701151830,"current_range_meters":28800,"station_id":"ce4bh512rcd13ifvqe3g","pricing_plan_id":"free"},{"bike_id":"d9a4fcd2-db71-40b3-9de3-3df8f82fc57d","system_id":"levelo_inurba_marseille","lat":43.28481,"lon":5.38428,"is_reserved":false,"is_disabled":false,"rental_uris":{"android":"levelo://app?vid=d9a4fcd2-db71-40b3-9de3-3df8f82fc57d","ios":"levelo://app?vid=d9a4fcd2-db71-40b3-9de3-3df8f82fc57d"},"vehicle_type_id":"4","last_reported":1701151830,"current_range_meters":28400,"station_id":"ce4bh512rcd13ifvqe3g","pricing_plan_id":"free"},{"bike_id":"72a42685-a59b-4ec5-8d0d-6f674a1195df","system_id":"levelo_inurba_marseille","lat":43.297946,"lon":5.404063,"is_reserved":false,"is_disabled":false,"rental_uris":{"android":"levelo://app?vid=72a42685-a59b-4ec5-8d0d-6f674a1195df","ios":"levelo://app?vid=72a42685-a59b-4ec5-8d0d-6f674a1195df"},"vehicle_type_id":"4","last_reported":1701151830,"current_range_meters":29600,"station_id":"ce4bh112rcd13ifvqd90","pricing_plan_id":"free"},{"bike_id":"e91488a7-f174-45cc-8e1b-67173aa2f8a1","system_id":"levelo_inurba_marseille","lat":43.288501,"lon":5.393087,"is_reserved":false,"is_disabled":false,"rental_uris":{"android":"levelo://app?vid=e91488a7-f174-45cc-8e1b-67173aa2f8a1","ios":"levelo://app?vid=e91488a7-f174-45cc-8e1b-67173aa2f8a1"},"vehicle_type_id":"4","last_reported":1701151830,"current_range_meters":27600,"station_id":"ce4bh2p2rcd13ifvqdi0","pricing_plan_id":"free"},{"bike_id":"56af1279-2272-4a30-8962-92bd141d82ce","system_id":"levelo_inurba_marseille","lat":43.284219,"lon":5.3497,"is_reserved":false,"is_disabled":false,"rental_uris":{"android":"levelo://app?vid=56af1279-2272-4a30-8962-92bd141d82ce","ios":"levelo://app?vid=56af1279-2272-4a30-8962-92bd141d82ce"},"vehicle_type_id":"4","last_reported":1701151830,"current_range_meters":27600,"station_id":"ce4bhbh2rcd13ifvqepg","pricing_plan_id":"free"},{"bike_id":"ff2c3c0f-ab48-4938-85fd-a68a75a182b0","system_id":"levelo_inurba_marseille","lat":43.283502,"lon":5.386471,"is_reserved":false,"is_disabled":false,"rental_uris":{"android":"levelo://app?vid=ff2c3c0f-ab48-4938-85fd-a68a75a182b0","ios":"levelo://app?vid=ff2c3c0f-ab48-4938-85fd-a68a75a182b0"},"vehicle_type_id":"4","last_reported":1701151830,"current_range_meters":30400,"station_id":"ce4bh492rcd13ifvqdvg","pricing_plan_id":"free"},{"bike_id":"cab7a74c-73b2-4530-b250-feaa23499635","system_id":"levelo_inurba_marseille","lat":43.282744,"lon":5.350533,"is_reserved":false,"is_disabled":false,"rental_uris":{"android":"levelo://app?vid=cab7a74c-73b2-4530-b250-feaa23499635","ios":"levelo://app?vid=cab7a74c-73b2-4530-b250-feaa23499635"},"vehicle_type_id":"4","last_reported":1701151830,"current_range_meters":28000,"station_id":"ce4bhbp2rcd13ifvqerg","pricing_plan_id":"free"},{"bike_id":"63ba3539-cbad-42dc-8cba-9adc149b5148","system_id":"levelo_inurba_marseille","lat":43.282744,"lon":5.350533,"is_reserved":false,"is_disabled":false,"rental_uris":{"android":"levelo://app?vid=63ba3539-cbad-42dc-8cba-9adc149b5148","ios":"levelo://app?vid=63ba3539-cbad-42dc-8cba-9adc149b5148"},"vehicle_type_id":"4","last_reported":1701151830,"current_range_meters":27200,"station_id":"ce4bhbp2rcd13ifvqerg","pricing_plan_id":"free"},{"bike_id":"aae1c903-3792-45c0-ad07-cbdf69a7401c","system_id":"levelo_inurba_marseille","lat":43.283502,"lon":5.386471,"is_reserved":false,"is_disabled":false,"rental_uris":{"android":"levelo://app?vid=aae1c903-3792-45c0-ad07-cbdf69a7401c","ios":"levelo://app?vid=aae1c903-3792-45c0-ad07-cbdf69a7401c"},"vehicle_type_id":"4","last_reported":1701151830,"current_range_meters":30400,"station_id":"ce4bh492rcd13ifvqdvg","pricing_plan_id":"free"},{"bike_id":"3c4a717e-f1ea-4de5-8956-865275323ee1","system_id":"levelo_inurba_marseille","lat":43.28039,"lon":5.369297,"is_reserved":false,"is_disabled":false,"rental_uris":{"android":"levelo://app?vid=3c4a717e-f1ea-4de5-8956-865275323ee1","ios":"levelo://app?vid=3c4a717e-f1ea-4de5-8956-865275323ee1"},"vehicle_type_id":"4","last_reported":1701151830,"current_range_meters":28800,"station_id":"ce4bha12rcd13ifvqef0","pricing_plan_id":"free"},{"bike_id":"190df295-f81a-4b41-9349-5a5c25e04f62","system_id":"levelo_inurba_marseille","lat":43.28031,"lon":5.3694,"is_reserved":false,"is_disabled":false,"rental_uris":{"android":"levelo://app?vid=190df295-f81a-4b41-9349-5a5c25e04f62","ios":"levelo://app?vid=190df295-f81a-4b41-9349-5a5c25e04f62"},"vehicle_type_id":"4","last_reported":1701151830,"current_range_meters":2800,"station_id":"ce4bha12rcd13ifvqef0","pricing_plan_id":"free"},{"bike_id":"2d884891-2722-4f44-8072-8fada83a090e","system_id":"levelo_inurba_marseille","lat":43.28039,"lon":5.369297,"is_reserved":false,"is_disabled":false,"rental_uris":{"android":"levelo://app?vid=2d884891-2722-4f44-8072-8fada83a090e","ios":"levelo://app?vid=2d884891-2722-4f44-8072-8fada83a090e"},"vehicle_type_id":"4","last_reported":1701151830,"current_range_meters":31200,"station_id":"ce4bha12rcd13ifvqef0","pricing_plan_id":"free"},{"bike_id":"f6b36f6f-71c2-48b7-928a-28ddaa19d0e5","system_id":"levelo_inurba_marseille","lat":43.28039,"lon":5.369297,"is_reserved":false,"is_disabled":false,"rental_uris":{"android":"levelo://app?vid=f6b36f6f-71c2-48b7-928a-28ddaa19d0e5","ios":"levelo://app?vid=f6b36f6f-71c2-48b7-928a-28ddaa19d0e5"},"vehicle_type_id":"4","last_reported":1701151830,"current_range_meters":30400,"station_id":"ce4bha12rcd13ifvqef0","pricing_plan_id":"free"},{"bike_id":"919a1060-2cd1-496e-a2bd-93f4f7483c00","system_id":"levelo_inurba_marseille","lat":43.281044,"lon":5.378308,"is_reserved":false,"is_disabled":false,"rental_uris":{"android":"levelo://app?vid=919a1060-2cd1-496e-a2bd-93f4f7483c00","ios":"levelo://app?vid=919a1060-2cd1-496e-a2bd-93f4f7483c00"},"vehicle_type_id":"4","last_reported":1701151830,"current_range_meters":30000,"station_id":"ce4bha12rcd13ifvqee0","pricing_plan_id":"free"},{"bike_id":"281151dd-3d30-4cd4-893f-a1873d7584bf","system_id":"levelo_inurba_marseille","lat":43.28094,"lon":5.37852,"is_reserved":false,"is_disabled":false,"rental_uris":{"android":"levelo://app?vid=281151dd-3d30-4cd4-893f-a1873d7584bf","ios":"levelo://app?vid=281151dd-3d30-4cd4-893f-a1873d7584bf"},"vehicle_type_id":"4","last_reported":1701151830,"current_range_meters":5600,"station_id":"ce4bha12rcd13ifvqee0","pricing_plan_id":"free"},{"bike_id":"e3a5aec6-e1df-485f-b6f0-008692d97e67","system_id":"levelo_inurba_marseille","lat":43.28443,"lon":5.391845,"is_reserved":false,"is_disabled":false,"rental_uris":{"android":"levelo://app?vid=e3a5aec6-e1df-485f-b6f0-008692d97e67","ios":"levelo://app?vid=e3a5aec6-e1df-485f-b6f0-008692d97e67"},"vehicle_type_id":"4","last_reported":1701151830,"current_range_meters":25200,"station_id":"ce4bhoh2rcd13ifvqh5g","pricing_plan_id":"free"},{"bike_id":"7efab9f0-258a-495d-ab78-57dd876ebb91","system_id":"levelo_inurba_marseille","lat":43.304188,"lon":5.412904,"is_reserved":false,"is_disabled":false,"rental_uris":{"android":"levelo://app?vid=7efab9f0-258a-495d-ab78-57dd876ebb91","ios":"levelo://app?vid=7efab9f0-258a-495d-ab78-57dd876ebb91"},"vehicle_type_id":"4","last_reported":1701151830,"current_range_meters":26800,"station_id":"ce4bhop2rcd13ifvqh8g","pricing_plan_id":"free"},{"bike_id":"7d18d8c2-3d50-4316-8060-5d1b0d443517","system_id":"levelo_inurba_marseille","lat":43.304188,"lon":5.412904,"is_reserved":false,"is_disabled":false,"rental_uris":{"android":"levelo://app?vid=7d18d8c2-3d50-4316-8060-5d1b0d443517","ios":"levelo://app?vid=7d18d8c2-3d50-4316-8060-5d1b0d443517"},"vehicle_type_id":"4","last_reported":1701151830,"current_range_meters":31200,"station_id":"ce4bhop2rcd13ifvqh8g","pricing_plan_id":"free"},{"bike_id":"eb555d25-016f-4268-b5ae-ff2905c71108","system_id":"levelo_inurba_marseille","lat":43.279087,"lon":5.380114,"is_reserved":false,"is_disabled":false,"rental_uris":{"android":"levelo://app?vid=eb555d25-016f-4268-b5ae-ff2905c71108","ios":"levelo://app?vid=eb555d25-016f-4268-b5ae-ff2905c71108"},"vehicle_type_id":"4","last_reported":1701151830,"current_range_meters":26800,"station_id":"ce4bhf92rcd13ifvqf50","pricing_plan_id":"free"},{"bike_id":"192bc807-fbe7-4ba0-89e6-13f6c0c15816","system_id":"levelo_inurba_marseille","lat":43.287154,"lon":5.399979,"is_reserved":false,"is_disabled":false,"rental_uris":{"android":"levelo://app?vid=192bc807-fbe7-4ba0-89e6-13f6c0c15816","ios":"levelo://app?vid=192bc807-fbe7-4ba0-89e6-13f6c0c15816"},"vehicle_type_id":"4","last_reported":1701151830,"current_range_meters":19600,"station_id":"ce4bho92rcd13ifvqh3g","pricing_plan_id":"free"},{"bike_id":"c6e2c2a9-0300-46a0-888b-6438a7028a12","system_id":"levelo_inurba_marseille","lat":43.287154,"lon":5.399979,"is_reserved":false,"is_disabled":false,"rental_uris":{"android":"levelo://app?vid=c6e2c2a9-0300-46a0-888b-6438a7028a12","ios":"levelo://app?vid=c6e2c2a9-0300-46a0-888b-6438a7028a12"},"vehicle_type_id":"4","last_reported":1701151830,"current_range_meters":30400,"station_id":"ce4bho92rcd13ifvqh3g","pricing_plan_id":"free"},{"bike_id":"76a8d1f0-5c30-4894-8e87-e80f3a0f2144","system_id":"levelo_inurba_marseille","lat":43.299577,"lon":5.413277,"is_reserved":false,"is_disabled":false,"rental_uris":{"android":"levelo://app?vid=76a8d1f0-5c30-4894-8e87-e80f3a0f2144","ios":"levelo://app?vid=76a8d1f0-5c30-4894-8e87-e80f3a0f2144"},"vehicle_type_id":"4","last_reported":1701151830,"current_range_meters":28000,"station_id":"ce4bhp12rcd13ifvqh9g","pricing_plan_id":"free"},{"bike_id":"6badd93c-3cba-492c-b226-3de23de726aa","system_id":"levelo_inurba_marseille","lat":43.299577,"lon":5.413277,"is_reserved":false,"is_disabled":false,"rental_uris":{"android":"levelo://app?vid=6badd93c-3cba-492c-b226-3de23de726aa","ios":"levelo://app?vid=6badd93c-3cba-492c-b226-3de23de726aa"},"vehicle_type_id":"4","last_reported":1701151830,"current_range_meters":25200,"station_id":"ce4bhp12rcd13ifvqh9g","pricing_plan_id":"free"},{"bike_id":"24d3365c-86e8-4306-9a99-5e10c52ab4a0","system_id":"levelo_inurba_marseille","lat":43.279742,"lon":5.38744,"is_reserved":false,"is_disabled":false,"rental_uris":{"android":"levelo://app?vid=24d3365c-86e8-4306-9a99-5e10c52ab4a0","ios":"levelo://app?vid=24d3365c-86e8-4306-9a99-5e10c52ab4a0"},"vehicle_type_id":"4","last_reported":1701151830,"current_range_meters":19200,"station_id":"ce4bhg12rcd13ifvqf80","pricing_plan_id":"free"},{"bike_id":"3be5f03a-c5a0-4f79-a9bf-7d5b7d921331","system_id":"levelo_inurba_marseille","lat":43.27958,"lon":5.38711,"is_reserved":false,"is_disabled":false,"rental_uris":{"android":"levelo://app?vid=3be5f03a-c5a0-4f79-a9bf-7d5b7d921331","ios":"levelo://app?vid=3be5f03a-c5a0-4f79-a9bf-7d5b7d921331"},"vehicle_type_id":"4","last_reported":1701151830,"current_range_meters":4400,"station_id":"ce4bhg12rcd13ifvqf80","pricing_plan_id":"free"},{"bike_id":"af75b5e5-bb19-4fc1-a44f-c64d710781ac","system_id":"levelo_inurba_marseille","lat":43.279742,"lon":5.38744,"is_reserved":false,"is_disabled":false,"rental_uris":{"android":"levelo://app?vid=af75b5e5-bb19-4fc1-a44f-c64d710781ac","ios":"levelo://app?vid=af75b5e5-bb19-4fc1-a44f-c64d710781ac"},"vehicle_type_id":"4","last_reported":1701151830,"current_range_meters":16400,"station_id":"ce4bhg12rcd13ifvqf80","pricing_plan_id":"free"},{"bike_id":"db87e14a-af41-400e-809b-56c84897c032","system_id":"levelo_inurba_marseille","lat":43.325233,"lon":5.414318,"is_reserved":false,"is_disabled":false,"rental_uris":{"android":"levelo://app?vid=db87e14a-af41-400e-809b-56c84897c032","ios":"levelo://app?vid=db87e14a-af41-400e-809b-56c84897c032"},"vehicle_type_id":"4","last_reported":1701151830,"current_range_meters":26400,"station_id":"ce4bhq12rcd13ifvqhhg","pricing_plan_id":"free"},{"bike_id":"be9690c5-c7a1-4c76-a31f-e0ecc29f7955","system_id":"levelo_inurba_marseille","lat":43.280784,"lon":5.396622,"is_reserved":false,"is_disabled":false,"rental_uris":{"android":"levelo://app?vid=be9690c5-c7a1-4c76-a31f-e0ecc29f7955","ios":"levelo://app?vid=be9690c5-c7a1-4c76-a31f-e0ecc29f7955"},"vehicle_type_id":"4","last_reported":1701151830,"current_range_meters":30400,"station_id":"ce4bho12rcd13ifvqh2g","pricing_plan_id":"free"},{"bike_id":"2a1a99c2-b40b-47d5-83ec-73fe8d8ad059","system_id":"levelo_inurba_marseille","lat":43.280784,"lon":5.396622,"is_reserved":false,"is_disabled":false,"rental_uris":{"android":"levelo://app?vid=2a1a99c2-b40b-47d5-83ec-73fe8d8ad059","ios":"levelo://app?vid=2a1a99c2-b40b-47d5-83ec-73fe8d8ad059"},"vehicle_type_id":"4","last_reported":1701151830,"current_range_meters":27600,"station_id":"ce4bho12rcd13ifvqh2g","pricing_plan_id":"free"},{"bike_id":"44087013-9d8f-488c-9025-5d33d053b6d3","system_id":"levelo_inurba_marseille","lat":43.280784,"lon":5.396622,"is_reserved":false,"is_disabled":false,"rental_uris":{"android":"levelo://app?vid=44087013-9d8f-488c-9025-5d33d053b6d3","ios":"levelo://app?vid=44087013-9d8f-488c-9025-5d33d053b6d3"},"vehicle_type_id":"4","last_reported":1701151830,"current_range_meters":24000,"station_id":"ce4bho12rcd13ifvqh2g","pricing_plan_id":"free"},{"bike_id":"1607fddd-6e83-4db2-b531-4d053e75c60a","system_id":"levelo_inurba_marseille","lat":43.27827,"lon":5.39217,"is_reserved":false,"is_disabled":false,"rental_uris":{"android":"levelo://app?vid=1607fddd-6e83-4db2-b531-4d053e75c60a","ios":"levelo://app?vid=1607fddd-6e83-4db2-b531-4d053e75c60a"},"vehicle_type_id":"4","last_reported":1701151830,"current_range_meters":12800,"station_id":"ce4bhjp2rcd13ifvqga0","pricing_plan_id":"free"},{"bike_id":"02f623df-3276-4700-ab31-d4a22e1c46a6","system_id":"levelo_inurba_marseille","lat":43.273613,"lon":5.362705,"is_reserved":false,"is_disabled":false,"rental_uris":{"android":"levelo://app?vid=02f623df-3276-4700-ab31-d4a22e1c46a6","ios":"levelo://app?vid=02f623df-3276-4700-ab31-d4a22e1c46a6"},"vehicle_type_id":"4","last_reported":1701151830,"current_range_meters":23200,"station_id":"ce4bhbh2rcd13ifvqeo0","pricing_plan_id":"free"},{"bike_id":"40f6d377-528e-4074-806e-ae08fe5a0e27","system_id":"levelo_inurba_marseille","lat":43.273613,"lon":5.362705,"is_reserved":false,"is_disabled":false,"rental_uris":{"android":"levelo://app?vid=40f6d377-528e-4074-806e-ae08fe5a0e27","ios":"levelo://app?vid=40f6d377-528e-4074-806e-ae08fe5a0e27"},"vehicle_type_id":"4","last_reported":1701151830,"current_range_meters":19200,"station_id":"ce4bhbh2rcd13ifvqeo0","pricing_plan_id":"free"},{"bike_id":"b5ceb548-85f0-433f-a02d-26b317627d79","system_id":"levelo_inurba_marseille","lat":43.273609,"lon":5.362708,"is_reserved":false,"is_disabled":false,"rental_uris":{"android":"levelo://app?vid=b5ceb548-85f0-433f-a02d-26b317627d79","ios":"levelo://app?vid=b5ceb548-85f0-433f-a02d-26b317627d79"},"vehicle_type_id":"4","last_reported":1701151830,"current_range_meters":27200,"station_id":"ce4bhbh2rcd13ifvqeo0","pricing_plan_id":"free"},{"bike_id":"a39afdfa-2a34-46dc-b8b1-ea5e8d0ddeac","system_id":"levelo_inurba_marseille","lat":43.275625,"lon":5.384392,"is_reserved":false,"is_disabled":false,"rental_uris":{"android":"levelo://app?vid=a39afdfa-2a34-46dc-b8b1-ea5e8d0ddeac","ios":"levelo://app?vid=a39afdfa-2a34-46dc-b8b1-ea5e8d0ddeac"},"vehicle_type_id":"4","last_reported":1701151830,"current_range_meters":30400,"station_id":"ce4bhh92rcd13ifvqfi0","pricing_plan_id":"free"},{"bike_id":"3d955af7-b7d1-4f39-8a2f-4096fce89c61","system_id":"levelo_inurba_marseille","lat":43.273609,"lon":5.362708,"is_reserved":false,"is_disabled":false,"rental_uris":{"android":"levelo://app?vid=3d955af7-b7d1-4f39-8a2f-4096fce89c61","ios":"levelo://app?vid=3d955af7-b7d1-4f39-8a2f-4096fce89c61"},"vehicle_type_id":"4","last_reported":1701151830,"current_range_meters":27200,"station_id":"ce4bhbh2rcd13ifvqeo0","pricing_plan_id":"free"},{"bike_id":"43a0b753-fb47-4881-91d9-d29a0815f06e","system_id":"levelo_inurba_marseille","lat":43.273609,"lon":5.362708,"is_reserved":false,"is_disabled":false,"rental_uris":{"android":"levelo://app?vid=43a0b753-fb47-4881-91d9-d29a0815f06e","ios":"levelo://app?vid=43a0b753-fb47-4881-91d9-d29a0815f06e"},"vehicle_type_id":"4","last_reported":1701151830,"current_range_meters":31200,"station_id":"ce4bhbh2rcd13ifvqeo0","pricing_plan_id":"free"},{"bike_id":"1c65a731-f44d-4095-8f56-ade1cfe17088","system_id":"levelo_inurba_marseille","lat":43.275625,"lon":5.384392,"is_reserved":false,"is_disabled":false,"rental_uris":{"android":"levelo://app?vid=1c65a731-f44d-4095-8f56-ade1cfe17088","ios":"levelo://app?vid=1c65a731-f44d-4095-8f56-ade1cfe17088"},"vehicle_type_id":"4","last_reported":1701151830,"current_range_meters":30000,"station_id":"ce4bhh92rcd13ifvqfi0","pricing_plan_id":"free"},{"bike_id":"a3d9a7d4-c1f1-4784-8005-3c27d8c653a2","system_id":"levelo_inurba_marseille","lat":43.275638,"lon":5.384292,"is_reserved":false,"is_disabled":false,"rental_uris":{"android":"levelo://app?vid=a3d9a7d4-c1f1-4784-8005-3c27d8c653a2","ios":"levelo://app?vid=a3d9a7d4-c1f1-4784-8005-3c27d8c653a2"},"vehicle_type_id":"4","last_reported":1701151830,"current_range_meters":29600,"station_id":"ce4bhh92rcd13ifvqfi0","pricing_plan_id":"free"},{"bike_id":"f52ec5ad-ea94-439b-996b-e6af947b30a8","system_id":"levelo_inurba_marseille","lat":43.275625,"lon":5.384392,"is_reserved":false,"is_disabled":false,"rental_uris":{"android":"levelo://app?vid=f52ec5ad-ea94-439b-996b-e6af947b30a8","ios":"levelo://app?vid=f52ec5ad-ea94-439b-996b-e6af947b30a8"},"vehicle_type_id":"4","last_reported":1701151830,"current_range_meters":16800,"station_id":"ce4bhh92rcd13ifvqfi0","pricing_plan_id":"free"},{"bike_id":"68d1e3bd-3108-4de0-b40c-a97d1d5dcd71","system_id":"levelo_inurba_marseille","lat":43.2756,"lon":5.38432,"is_reserved":false,"is_disabled":false,"rental_uris":{"android":"levelo://app?vid=68d1e3bd-3108-4de0-b40c-a97d1d5dcd71","ios":"levelo://app?vid=68d1e3bd-3108-4de0-b40c-a97d1d5dcd71"},"vehicle_type_id":"4","last_reported":1701151830,"current_range_meters":24000,"station_id":"ce4bhh92rcd13ifvqfi0","pricing_plan_id":"free"},{"bike_id":"a3ba2bbe-6302-4e7d-88dd-5f487d6e388e","system_id":"levelo_inurba_marseille","lat":43.279976,"lon":5.400161,"is_reserved":false,"is_disabled":false,"rental_uris":{"android":"levelo://app?vid=a3ba2bbe-6302-4e7d-88dd-5f487d6e388e","ios":"levelo://app?vid=a3ba2bbe-6302-4e7d-88dd-5f487d6e388e"},"vehicle_type_id":"4","last_reported":1701151830,"current_range_meters":30400,"station_id":"ce4bho92rcd13ifvqh4g","pricing_plan_id":"free"},{"bike_id":"745de0c3-f80a-4d92-a7ac-ec5d31b4bb9a","system_id":"levelo_inurba_marseille","lat":43.279952,"lon":5.400085,"is_reserved":false,"is_disabled":false,"rental_uris":{"android":"levelo://app?vid=745de0c3-f80a-4d92-a7ac-ec5d31b4bb9a","ios":"levelo://app?vid=745de0c3-f80a-4d92-a7ac-ec5d31b4bb9a"},"vehicle_type_id":"4","last_reported":1701151830,"current_range_meters":26400,"station_id":"ce4bho92rcd13ifvqh4g","pricing_plan_id":"free"},{"bike_id":"460d5063-5d7a-4405-ba58-f7ba9110acb2","system_id":"levelo_inurba_marseille","lat":43.317121,"lon":5.423936,"is_reserved":false,"is_disabled":false,"rental_uris":{"android":"levelo://app?vid=460d5063-5d7a-4405-ba58-f7ba9110acb2","ios":"levelo://app?vid=460d5063-5d7a-4405-ba58-f7ba9110acb2"},"vehicle_type_id":"4","last_reported":1701151830,"current_range_meters":9200,"station_id":"ce4bhp92rcd13ifvqhbg","pricing_plan_id":"free"},{"bike_id":"91e72e05-df17-4bb9-a2ef-8bb1b3360518","system_id":"levelo_inurba_marseille","lat":43.317121,"lon":5.423936,"is_reserved":false,"is_disabled":false,"rental_uris":{"android":"levelo://app?vid=91e72e05-df17-4bb9-a2ef-8bb1b3360518","ios":"levelo://app?vid=91e72e05-df17-4bb9-a2ef-8bb1b3360518"},"vehicle_type_id":"4","last_reported":1701151830,"current_range_meters":31200,"station_id":"ce4bhp92rcd13ifvqhbg","pricing_plan_id":"free"},{"bike_id":"7c7b17bf-3d23-45a7-8804-2a02983b0fda","system_id":"levelo_inurba_marseille","lat":43.273129,"lon":5.390725,"is_reserved":false,"is_disabled":false,"rental_uris":{"android":"levelo://app?vid=7c7b17bf-3d23-45a7-8804-2a02983b0fda","ios":"levelo://app?vid=7c7b17bf-3d23-45a7-8804-2a02983b0fda"},"vehicle_type_id":"4","last_reported":1701151830,"current_range_meters":26000,"station_id":"ce4bhgp2rcd13ifvqfe0","pricing_plan_id":"free"},{"bike_id":"a699abb9-0ac2-4db2-aabb-01167a601143","system_id":"levelo_inurba_marseille","lat":43.27311,"lon":5.39099,"is_reserved":false,"is_disabled":false,"rental_uris":{"android":"levelo://app?vid=a699abb9-0ac2-4db2-aabb-01167a601143","ios":"levelo://app?vid=a699abb9-0ac2-4db2-aabb-01167a601143"},"vehicle_type_id":"4","last_reported":1701151830,"current_range_meters":23600,"station_id":"ce4bhgp2rcd13ifvqfe0","pricing_plan_id":"free"},{"bike_id":"ea93b560-669b-457a-9571-f4ac0dcc8aa0","system_id":"levelo_inurba_marseille","lat":43.30415,"lon":5.42535,"is_reserved":false,"is_disabled":false,"rental_uris":{"android":"levelo://app?vid=ea93b560-669b-457a-9571-f4ac0dcc8aa0","ios":"levelo://app?vid=ea93b560-669b-457a-9571-f4ac0dcc8aa0"},"vehicle_type_id":"4","last_reported":1701151830,"current_range_meters":12000,"station_id":"ce4bhoh2rcd13ifvqh6g","pricing_plan_id":"free"},{"bike_id":"fccf1799-4473-414c-9389-9b30b0508c40","system_id":"levelo_inurba_marseille","lat":43.295523,"lon":5.422926,"is_reserved":false,"is_disabled":false,"rental_uris":{"android":"levelo://app?vid=fccf1799-4473-414c-9389-9b30b0508c40","ios":"levelo://app?vid=fccf1799-4473-414c-9389-9b30b0508c40"},"vehicle_type_id":"4","last_reported":1701151830,"current_range_meters":18000,"station_id":"ce4bhph2rcd13ifvqhdg","pricing_plan_id":"free"},{"bike_id":"6b00c00a-acab-4a0b-825e-4b6c2ea383bc","system_id":"levelo_inurba_marseille","lat":43.295523,"lon":5.422926,"is_reserved":false,"is_disabled":false,"rental_uris":{"android":"levelo://app?vid=6b00c00a-acab-4a0b-825e-4b6c2ea383bc","ios":"levelo://app?vid=6b00c00a-acab-4a0b-825e-4b6c2ea383bc"},"vehicle_type_id":"4","last_reported":1701151830,"current_range_meters":26400,"station_id":"ce4bhph2rcd13ifvqhdg","pricing_plan_id":"free"},{"bike_id":"60d68696-e37a-4397-b24a-012f516bc63c","system_id":"levelo_inurba_marseille","lat":43.295523,"lon":5.422926,"is_reserved":false,"is_disabled":false,"rental_uris":{"android":"levelo://app?vid=60d68696-e37a-4397-b24a-012f516bc63c","ios":"levelo://app?vid=60d68696-e37a-4397-b24a-012f516bc63c"},"vehicle_type_id":"4","last_reported":1701151830,"current_range_meters":15600,"station_id":"ce4bhph2rcd13ifvqhdg","pricing_plan_id":"free"},{"bike_id":"b5345938-438d-49b4-a969-d1562d2f1280","system_id":"levelo_inurba_marseille","lat":43.295523,"lon":5.422926,"is_reserved":false,"is_disabled":false,"rental_uris":{"android":"levelo://app?vid=b5345938-438d-49b4-a969-d1562d2f1280","ios":"levelo://app?vid=b5345938-438d-49b4-a969-d1562d2f1280"},"vehicle_type_id":"4","last_reported":1701151830,"current_range_meters":26400,"station_id":"ce4bhph2rcd13ifvqhdg","pricing_plan_id":"free"},{"bike_id":"6a401975-e99f-48af-a2e1-0adc9a89c25e","system_id":"levelo_inurba_marseille","lat":43.295511,"lon":5.422926,"is_reserved":false,"is_disabled":false,"rental_uris":{"android":"levelo://app?vid=6a401975-e99f-48af-a2e1-0adc9a89c25e","ios":"levelo://app?vid=6a401975-e99f-48af-a2e1-0adc9a89c25e"},"vehicle_type_id":"4","last_reported":1701151830,"current_range_meters":31200,"station_id":"ce4bhph2rcd13ifvqhdg","pricing_plan_id":"free"},{"bike_id":"73eeb136-9ad5-41a6-a459-fb0ef87f8779","system_id":"levelo_inurba_marseille","lat":43.295523,"lon":5.422926,"is_reserved":false,"is_disabled":false,"rental_uris":{"android":"levelo://app?vid=73eeb136-9ad5-41a6-a459-fb0ef87f8779","ios":"levelo://app?vid=73eeb136-9ad5-41a6-a459-fb0ef87f8779"},"vehicle_type_id":"4","last_reported":1701151830,"current_range_meters":30000,"station_id":"ce4bhph2rcd13ifvqhdg","pricing_plan_id":"free"},{"bike_id":"4c605ca3-481c-41f4-97f4-419aa29ab2ca","system_id":"levelo_inurba_marseille","lat":43.295523,"lon":5.422926,"is_reserved":false,"is_disabled":false,"rental_uris":{"android":"levelo://app?vid=4c605ca3-481c-41f4-97f4-419aa29ab2ca","ios":"levelo://app?vid=4c605ca3-481c-41f4-97f4-419aa29ab2ca"},"vehicle_type_id":"4","last_reported":1701151830,"current_range_meters":31200,"station_id":"ce4bhph2rcd13ifvqhdg","pricing_plan_id":"free"},{"bike_id":"08fe44e4-201e-4497-b2af-1597ca570ac3","system_id":"levelo_inurba_marseille","lat":43.295511,"lon":5.422926,"is_reserved":false,"is_disabled":false,"rental_uris":{"android":"levelo://app?vid=08fe44e4-201e-4497-b2af-1597ca570ac3","ios":"levelo://app?vid=08fe44e4-201e-4497-b2af-1597ca570ac3"},"vehicle_type_id":"4","last_reported":1701151830,"current_range_meters":20400,"station_id":"ce4bhph2rcd13ifvqhdg","pricing_plan_id":"free"},{"bike_id":"487e8935-2222-4e65-8507-6d483307a42a","system_id":"levelo_inurba_marseille","lat":43.295511,"lon":5.422926,"is_reserved":false,"is_disabled":false,"rental_uris":{"android":"levelo://app?vid=487e8935-2222-4e65-8507-6d483307a42a","ios":"levelo://app?vid=487e8935-2222-4e65-8507-6d483307a42a"},"vehicle_type_id":"4","last_reported":1701151830,"current_range_meters":31200,"station_id":"ce4bhph2rcd13ifvqhdg","pricing_plan_id":"free"},{"bike_id":"76c54cc3-5f25-4fd7-a417-9afa50fb9df9","system_id":"levelo_inurba_marseille","lat":43.295523,"lon":5.422926,"is_reserved":false,"is_disabled":false,"rental_uris":{"android":"levelo://app?vid=76c54cc3-5f25-4fd7-a417-9afa50fb9df9","ios":"levelo://app?vid=76c54cc3-5f25-4fd7-a417-9afa50fb9df9"},"vehicle_type_id":"4","last_reported":1701151830,"current_range_meters":30400,"station_id":"ce4bhph2rcd13ifvqhdg","pricing_plan_id":"free"},{"bike_id":"96661c5e-90e7-498e-8229-323d527ddcf5","system_id":"levelo_inurba_marseille","lat":43.295523,"lon":5.422926,"is_reserved":false,"is_disabled":false,"rental_uris":{"android":"levelo://app?vid=96661c5e-90e7-498e-8229-323d527ddcf5","ios":"levelo://app?vid=96661c5e-90e7-498e-8229-323d527ddcf5"},"vehicle_type_id":"4","last_reported":1701151830,"current_range_meters":21200,"station_id":"ce4bhph2rcd13ifvqhdg","pricing_plan_id":"free"},{"bike_id":"0faf4382-253e-42df-8e36-1c0914f0dcfe","system_id":"levelo_inurba_marseille","lat":43.29541,"lon":5.4228,"is_reserved":false,"is_disabled":false,"rental_uris":{"android":"levelo://app?vid=0faf4382-253e-42df-8e36-1c0914f0dcfe","ios":"levelo://app?vid=0faf4382-253e-42df-8e36-1c0914f0dcfe"},"vehicle_type_id":"4","last_reported":1701151830,"current_range_meters":30000,"station_id":"ce4bhph2rcd13ifvqhdg","pricing_plan_id":"free"},{"bike_id":"315a4c47-9043-4046-83f0-47b98794d5a3","system_id":"levelo_inurba_marseille","lat":43.295511,"lon":5.422926,"is_reserved":false,"is_disabled":false,"rental_uris":{"android":"levelo://app?vid=315a4c47-9043-4046-83f0-47b98794d5a3","ios":"levelo://app?vid=315a4c47-9043-4046-83f0-47b98794d5a3"},"vehicle_type_id":"4","last_reported":1701151830,"current_range_meters":22800,"station_id":"ce4bhph2rcd13ifvqhdg","pricing_plan_id":"free"},{"bike_id":"79c1b303-bb3a-4af8-a265-637a190a14cd","system_id":"levelo_inurba_marseille","lat":43.272118,"lon":5.391758,"is_reserved":false,"is_disabled":false,"rental_uris":{"android":"levelo://app?vid=79c1b303-bb3a-4af8-a265-637a190a14cd","ios":"levelo://app?vid=79c1b303-bb3a-4af8-a265-637a190a14cd"},"vehicle_type_id":"4","last_reported":1701151830,"current_range_meters":29200,"station_id":"ce4bhhp2rcd13ifvqfm0","pricing_plan_id":"free"},{"bike_id":"855705df-aefe-4905-93e9-451fe5247586","system_id":"levelo_inurba_marseille","lat":43.272116,"lon":5.391747,"is_reserved":false,"is_disabled":false,"rental_uris":{"android":"levelo://app?vid=855705df-aefe-4905-93e9-451fe5247586","ios":"levelo://app?vid=855705df-aefe-4905-93e9-451fe5247586"},"vehicle_type_id":"4","last_reported":1701151830,"current_range_meters":28800,"station_id":"ce4bhhp2rcd13ifvqfm0","pricing_plan_id":"free"},{"bike_id":"4fe413ab-c63a-4e5d-963a-59f12dbbb3d2","system_id":"levelo_inurba_marseille","lat":43.272124,"lon":5.391768,"is_reserved":false,"is_disabled":false,"rental_uris":{"android":"levelo://app?vid=4fe413ab-c63a-4e5d-963a-59f12dbbb3d2","ios":"levelo://app?vid=4fe413ab-c63a-4e5d-963a-59f12dbbb3d2"},"vehicle_type_id":"4","last_reported":1701151830,"current_range_meters":31200,"station_id":"ce4bhhp2rcd13ifvqfm0","pricing_plan_id":"free"},{"bike_id":"cdd98271-d617-4391-81c2-397290d2133b","system_id":"levelo_inurba_marseille","lat":43.272116,"lon":5.391763,"is_reserved":false,"is_disabled":false,"rental_uris":{"android":"levelo://app?vid=cdd98271-d617-4391-81c2-397290d2133b","ios":"levelo://app?vid=cdd98271-d617-4391-81c2-397290d2133b"},"vehicle_type_id":"4","last_reported":1701151830,"current_range_meters":30000,"station_id":"ce4bhhp2rcd13ifvqfm0","pricing_plan_id":"free"},{"bike_id":"76be6120-196f-42e7-8afb-a817eb753e72","system_id":"levelo_inurba_marseille","lat":43.272124,"lon":5.391768,"is_reserved":false,"is_disabled":false,"rental_uris":{"android":"levelo://app?vid=76be6120-196f-42e7-8afb-a817eb753e72","ios":"levelo://app?vid=76be6120-196f-42e7-8afb-a817eb753e72"},"vehicle_type_id":"4","last_reported":1701151830,"current_range_meters":18400,"station_id":"ce4bhhp2rcd13ifvqfm0","pricing_plan_id":"free"},{"bike_id":"2c8b464a-1040-43df-b34b-a76d22945d24","system_id":"levelo_inurba_marseille","lat":43.272118,"lon":5.391758,"is_reserved":false,"is_disabled":false,"rental_uris":{"android":"levelo://app?vid=2c8b464a-1040-43df-b34b-a76d22945d24","ios":"levelo://app?vid=2c8b464a-1040-43df-b34b-a76d22945d24"},"vehicle_type_id":"4","last_reported":1701151830,"current_range_meters":31200,"station_id":"ce4bhhp2rcd13ifvqfm0","pricing_plan_id":"free"},{"bike_id":"052671c5-6c5d-4fa3-acc6-4c274240740a","system_id":"levelo_inurba_marseille","lat":43.272118,"lon":5.391758,"is_reserved":false,"is_disabled":false,"rental_uris":{"android":"levelo://app?vid=052671c5-6c5d-4fa3-acc6-4c274240740a","ios":"levelo://app?vid=052671c5-6c5d-4fa3-acc6-4c274240740a"},"vehicle_type_id":"4","last_reported":1701151830,"current_range_meters":28400,"station_id":"ce4bhhp2rcd13ifvqfm0","pricing_plan_id":"free"},{"bike_id":"0cba7b37-7302-4dd3-b92a-cc9bcdff7513","system_id":"levelo_inurba_marseille","lat":43.272118,"lon":5.391758,"is_reserved":false,"is_disabled":false,"rental_uris":{"android":"levelo://app?vid=0cba7b37-7302-4dd3-b92a-cc9bcdff7513","ios":"levelo://app?vid=0cba7b37-7302-4dd3-b92a-cc9bcdff7513"},"vehicle_type_id":"4","last_reported":1701151830,"current_range_meters":26000,"station_id":"ce4bhhp2rcd13ifvqfm0","pricing_plan_id":"free"},{"bike_id":"2794b1bc-150c-4deb-a9c5-692e90e1ab6c","system_id":"levelo_inurba_marseille","lat":43.272118,"lon":5.391758,"is_reserved":false,"is_disabled":false,"rental_uris":{"android":"levelo://app?vid=2794b1bc-150c-4deb-a9c5-692e90e1ab6c","ios":"levelo://app?vid=2794b1bc-150c-4deb-a9c5-692e90e1ab6c"},"vehicle_type_id":"4","last_reported":1701151830,"current_range_meters":21200,"station_id":"ce4bhhp2rcd13ifvqfm0","pricing_plan_id":"free"},{"bike_id":"a348cdea-deac-45d0-a976-1d4a7b9a75c0","system_id":"levelo_inurba_marseille","lat":43.272118,"lon":5.391758,"is_reserved":false,"is_disabled":false,"rental_uris":{"android":"levelo://app?vid=a348cdea-deac-45d0-a976-1d4a7b9a75c0","ios":"levelo://app?vid=a348cdea-deac-45d0-a976-1d4a7b9a75c0"},"vehicle_type_id":"4","last_reported":1701151830,"current_range_meters":31200,"station_id":"ce4bhhp2rcd13ifvqfm0","pricing_plan_id":"free"},{"bike_id":"369b2d9f-568d-480f-bbfe-0f29818dacd2","system_id":"levelo_inurba_marseille","lat":43.272124,"lon":5.391768,"is_reserved":false,"is_disabled":false,"rental_uris":{"android":"levelo://app?vid=369b2d9f-568d-480f-bbfe-0f29818dacd2","ios":"levelo://app?vid=369b2d9f-568d-480f-bbfe-0f29818dacd2"},"vehicle_type_id":"4","last_reported":1701151830,"current_range_meters":27600,"station_id":"ce4bhhp2rcd13ifvqfm0","pricing_plan_id":"free"},{"bike_id":"a7531d4a-23ea-4529-96f3-a2eb33f857d8","system_id":"levelo_inurba_marseille","lat":43.272118,"lon":5.391758,"is_reserved":false,"is_disabled":false,"rental_uris":{"android":"levelo://app?vid=a7531d4a-23ea-4529-96f3-a2eb33f857d8","ios":"levelo://app?vid=a7531d4a-23ea-4529-96f3-a2eb33f857d8"},"vehicle_type_id":"4","last_reported":1701151830,"current_range_meters":28800,"station_id":"ce4bhhp2rcd13ifvqfm0","pricing_plan_id":"free"},{"bike_id":"5bc88291-9b99-4d24-a306-d3ff88f8c050","system_id":"levelo_inurba_marseille","lat":43.272116,"lon":5.391747,"is_reserved":false,"is_disabled":false,"rental_uris":{"android":"levelo://app?vid=5bc88291-9b99-4d24-a306-d3ff88f8c050","ios":"levelo://app?vid=5bc88291-9b99-4d24-a306-d3ff88f8c050"},"vehicle_type_id":"4","last_reported":1701151830,"current_range_meters":23200,"station_id":"ce4bhhp2rcd13ifvqfm0","pricing_plan_id":"free"},