{"last_updated":1740737438,"ttl":60,"version":"2.2","data":{"bikes":[{"bike_id":"498c2ace-4821-4676-a9ac-9368b02a49b6","system_id":"levelo_inurba_marseille","lat":43.33748,"lon":5.37444,"is_reserved":false,"is_disabled":false,"rental_uris":{"android":"levelo://app?vid=498c2ace-4821-4676-a9ac-9368b02a49b6","ios":"levelo://app?vid=498c2ace-4821-4676-a9ac-9368b02a49b6"},"vehicle_type_id":"4","last_reported":1740737438,"current_range_meters":38800,"station_id":"","pricing_plan_id":"cebpf4jnsgd1na2vs0mg"},{"bike_id":"603921e0-6044-49e8-9b03-4e16114fa47a","system_id":"levelo_inurba_marseille","lat":43.27783,"lon":5.38888,"is_reserved":false,"is_disabled":true,"rental_uris":{"android":"levelo://app?vid=603921e0-6044-49e8-9b03-4e16114fa47a","ios":"levelo://app?vid=603921e0-6044-49e8-9b03-4e16114fa47a"},"vehicle_type_id":"4","last_reported":1740737438,"current_range_meters":0,"station_id":"","pricing_plan_id":"cebpf4jnsgd1na2vs0mg"},{"bike_id":"b5368874-e19e-4e33-8e44-b3ac25e43af6","system_id":"levelo_inurba_marseille","lat":43.31314,"lon":5.37082,"is_reserved":false,"is_disabled":true,"rental_uris":{"android":"levelo://app?vid=b5368874-e19e-4e33-8e44-b3ac25e43af6","ios":"levelo://app?vid=b5368874-e19e-4e33-8e44-b3ac25e43af6"},"vehicle_type_id":"4","last_reported":1740737438,"current_range_meters":0,"station_id":"","pricing_plan_id":"cebpf4jnsgd1na2vs0mg"},{"bike_id":"13a2d3e9-8b93-4966-9b3e-92a29a5a031b","system_id":"levelo_inurba_marseille","lat":43.32292,"lon":5.37458,"is_reserved":false,"is_disabled":true,"rental_uris":{"android":"levelo://app?vid=13a2d3e9-8b93-4966-9b3e-92a29a5a031b","ios":"levelo://app?vid=13a2d3e9-8b93-4966-9b3e-92a29a5a031b"},"vehicle_type_id":"4","last_reported":1740737438,"current_range_meters":0,"station_id":"","pricing_plan_id":"cebpf4jnsgd1na2vs0mg"},{"bike_id":"0dc32ec3-4fe6-4aff-9074-665fa0019546","system_id":"levelo_inurba_marseille","lat":43.28565,"lon":5.39498,"is_reserved":false,"is_disabled":true,"rental_uris":{"android":"levelo://app?vid=0dc32ec3-4fe6-4aff-9074-665fa0019546","ios":"levelo://app?vid=0dc32ec3-4fe6-4aff-9074-665fa0019546"},"vehicle_type_id":"4","last_reported":1740737438,"current_range_meters":0,"station_id":"ce4bh292rcd13ifvqdg0","pricing_plan_id":"cebpf4jnsgd1na2vs0mg"},{"bike_id":"a50b0884-3fbf-4821-8ced-86a3ea31ff54","system_id":"levelo_inurba_marseille","lat":43.29014,"lon":5.38132,"is_reserved":false,"is_disabled":true,"rental_uris":{"android":"levelo://app?vid=a50b0884-3fbf-4821-8ced-86a3ea31ff54","ios":"levelo://app?vid=a50b0884-3fbf-4821-8ced-86a3ea31ff54"},"vehicle_type_id":"4","last_reported":1740737438,"current_range_meters":0,"station_id":"ce4bh4p2rcd13ifvqe1g","pricing_plan_id":"cebpf4jnsgd1na2vs0mg"},{"bike_id":"02eb9008-abd0-404c-bc19-3633963a8bd8","system_id":"levelo_inurba_marseille","lat":43.26034,"lon":5.37556,"is_reserved":false,"is_disabled":true,"rental_uris":{"android":"levelo://app?vid=02eb9008-abd0-404c-bc19-3633963a8bd8","ios":"levelo://app?vid=02eb9008-abd0-404c-bc19-3633963a8bd8"},"vehicle_type_id":"4","last_reported":1740737438,"current_range_meters":0,"station_id":"ce4bhgh2rcd13ifvqfa0","pricing_plan_id":"cebpf4jnsgd1na2vs0mg"},{"bike_id":"c88a0f6d-8460-4a8e-9491-dd4a5b0949d7","system_id":"levelo_inurba_marseille","lat":43.25088,"lon":5.3951,"is_reserved":false,"is_disabled":false,"rental_uris":{"android":"levelo://app?vid=c88a0f6d-8460-4a8e-9491-dd4a5b0949d7","ios":"levelo://app?vid=c88a0f6d-8460-4a8e-9491-dd4a5b0949d7"},"vehicle_type_id":"4","last_reported":1740737438,"current_range_meters":0,"station_id":"ce4bhm12rcd13ifvqgkg","pricing_plan_id":"cebpf4jnsgd1na2vs0mg"},{"bike_id":"d2671798-7b93-4c88-907b-83713a1dd0ce","system_id":"levelo_inurba_marseille","lat":43.26187,"lon":5.40401,"is_reserved":false,"is_disabled":true,"rental_uris":{"android":"levelo://app?vid=d2671798-7b93-4c88-907b-83713a1dd0ce","ios":"levelo://app?vid=d2671798-7b93-4c88-907b-83713a1dd0ce"},"vehicle_type_id":"4","last_reported":1740737438,"current_range_meters":0,"station_id":"ce4bhmh2rcd13ifvqgmg","pricing_plan_id":"cebpf4jnsgd1na2vs0mg"},{"bike_id":"12a7686c-4166-4277-ae3f-d5eaa5be8876","system_id":"levelo_inurba_marseille","lat":43.23152,"lon":5.43706,"is_reserved":false,"is_disabled":true,"rental_uris":{"android":"levelo://app?vid=12a7686c-4166-4277-ae3f-d5eaa5be8876","ios":"levelo://app?vid=12a7686c-4166-4277-ae3f-d5eaa5be8876"},"vehicle_type_id":"4","last_reported":1740737438,"current_range_meters":0,"station_id":"ce4bhmp2rcd13ifvqgog","pricing_plan_id":"cebpf4jnsgd1na2vs0mg"},{"bike_id":"5ba268af-3231-4276-938b-fa7649a61bf9","system_id":"levelo_inurba_marseille","lat":43.27822,"lon":5.40723,"is_reserved":false,"is_disabled":true,"rental_uris":{"android":"levelo://app?vid=5ba268af-3231-4276-938b-fa7649a61bf9","ios":"levelo://app?vid=5ba268af-3231-4276-938b-fa7649a61bf9"},"vehicle_type_id":"4","last_reported":1740737438,"current_range_meters":0,"station_id":"ce4bhnh2rcd13ifvqgtg","pricing_plan_id":"cebpf4jnsgd1na2vs0mg"},{"bike_id":"991c4e15-ded4-4e95-a283-93fa8634b1f8","system_id":"levelo_inurba_marseille","lat":43.29552,"lon":5.42294,"is_reserved":false,"is_disabled":true,"rental_uris":{"android":"levelo://app?vid=991c4e15-ded4-4e95-a283-93fa8634b1f8","ios":"levelo://app?vid=991c4e15-ded4-4e95-a283-93fa8634b1f8"},"vehicle_type_id":"4","last_reported":1740737438,"current_range_meters":0,"station_id":"ce4bhph2rcd13ifvqhdg","pricing_plan_id":"cebpf4jnsgd1na2vs0mg"},{"bike_id":"05fc489b-1230-440e-82a2-d59fc0cb10f4","system_id":"levelo_inurba_marseille","lat":43.2861,"lon":5.3706,"is_reserved":false,"is_disabled":true,"rental_uris":{"android":"levelo://app?vid=05fc489b-1230-440e-82a2-d59fc0cb10f4","ios":"levelo://app?vid=05fc489b-1230-440e-82a2-d59fc0cb10f4"},"vehicle_type_id":"4","last_reported":1740737438,"current_range_meters":0,"station_id":"ce4bht12rcd13ifvqi60","pricing_plan_id":"cebpf4jnsgd1na2vs0mg"},{"bike_id":"c80264c1-2fb0-44cc-9bb9-2c0e85cfd77e","system_id":"levelo_inurba_marseille","lat":43.28411,"lon":5.37512,"is_reserved":false,"is_disabled":true,"rental_uris":{"android":"levelo://app?vid=c80264c1-2fb0-44cc-9bb9-2c0e85cfd77e","ios":"levelo://app?vid=c80264c1-2fb0-44cc-9bb9-2c0e85cfd77e"},"vehicle_type_id":"4","last_reported":1740737438,"current_range_meters":400,"station_id":"ce4bh412rcd13ifvqds0","pricing_plan_id":"cebpf4jnsgd1na2vs0mg"},{"bike_id":"368050eb-3675-4bf0-81e8-aa1b4e29562f","system_id":"levelo_inurba_marseille","lat":43.2737,"lon":5.36257,"is_reserved":false,"is_disabled":true,"rental_uris":{"android":"levelo://app?vid=368050eb-3675-4bf0-81e8-aa1b4e29562f","ios":"levelo://app?vid=368050eb-3675-4bf0-81e8-aa1b4e29562f"},"vehicle_type_id":"4","last_reported":1740737438,"current_range_meters":800,"station_id":"ce4bhbh2rcd13ifvqeo0","pricing_plan_id":"cebpf4jnsgd1na2vs0mg"},{"bike_id":"afdff99c-5243-4c8e-afd7-6a827f6056ef","system_id":"levelo_inurba_marseille","lat":43.30795,"lon":5.36898,"is_reserved":false,"is_disabled":true,"rental_uris":{"android":"levelo://app?vid=afdff99c-5243-4c8e-afd7-6a827f6056ef","ios":"levelo://app?vid=afdff99c-5243-4c8e-afd7-6a827f6056ef"},"vehicle_type_id":"4","last_reported":1740737438,"current_range_meters":1200,"station_id":"","pricing_plan_id":"cebpf4jnsgd1na2vs0mg"},{"bike_id":"f68fe508-a301-46c3-8c28-863ed9f57caa","system_id":"levelo_inurba_marseille","lat":43.29909,"lon":5.38146,"is_reserved":false,"is_disabled":false,"rental_uris":{"android":"levelo://app?vid=f68fe508-a301-46c3-8c28-863ed9f57caa","ios":"levelo://app?vid=f68fe508-a301-46c3-8c28-863ed9f57caa"},"vehicle_type_id":"4","last_reported":1740737438,"current_range_meters":1200,"station_id":"ce4bgj12rcd13ifvqbc0","pricing_plan_id":"cebpf4jnsgd1na2vs0mg"},{"bike_id":"083b9a41-c7ed-4a52-9342-97e2b6b9e1c7","system_id":"levelo_inurba_marseille","lat":43.29026,"lon":5.38642,"is_reserved":false,"is_disabled":true,"rental_uris":{"android":"levelo://app?vid=083b9a41-c7ed-4a52-9342-97e2b6b9e1c7","ios":"levelo://app?vid=083b9a41-c7ed-4a52-9342-97e2b6b9e1c7"},"vehicle_type_id":"4","last_reported":1740737438,"current_range_meters":1200,"station_id":"ce4bh4p2rcd13ifvqe0g","pricing_plan_id":"cebpf4jnsgd1na2vs0mg"},{"bike_id":"61dad424-6886-47d9-a0fa-578c855ccaa2","system_id":"levelo_inurba_marseille","lat":43.30457,"lon":5.37912,"is_reserved":false,"is_disabled":true,"rental_uris":{"android":"levelo://app?vid=61dad424-6886-47d9-a0fa-578c855ccaa2","ios":"levelo://app?vid=61dad424-6886-47d9-a0fa-578c855ccaa2"},"vehicle_type_id":"4","last_reported":1740737438,"current_range_meters":1600,"station_id":"ce4bgup2rcd13ifvqcn0","pricing_plan_id":"cebpf4jnsgd1na2vs0mg"},{"bike_id":"df3becdc-efe5-428b-ad3b-9a5b04af2ecf","system_id":"levelo_inurba_marseille","lat":43.28032,"lon":5.36942,"is_reserved":false,"is_disabled":true,"rental_uris":{"android":"levelo://app?vid=df3becdc-efe5-428b-ad3b-9a5b04af2ecf","ios":"levelo://app?vid=df3becdc-efe5-428b-ad3b-9a5b04af2ecf"},"vehicle_type_id":"4","last_reported":1740737438,"current_range_meters":1600,"station_id":"ce4bha12rcd13ifvqef0","pricing_plan_id":"cebpf4jnsgd1na2vs0mg"},{"bike_id":"09afcaae-99a4-4d9d-937e-295eef654cd5","system_id":"levelo_inurba_marseille","lat":43.2963,"lon":5.37173,"is_reserved":false,"is_disabled":true,"rental_uris":{"android":"levelo://app?vid=09afcaae-99a4-4d9d-937e-295eef654cd5","ios":"levelo://app?vid=09afcaae-99a4-4d9d-937e-295eef654cd5"},"vehicle_type_id":"4","last_reported":1740737438,"current_range_meters":2000,"station_id":"ce4bgnh2rcd13ifvqc0g","pricing_plan_id":"cebpf4jnsgd1na2vs0mg"},{"bike_id":"a8b5d591-9d69-4d35-8235-8b1676310abc","system_id":"levelo_inurba_marseille","lat":43.29907,"lon":5.39761,"is_reserved":false,"is_disabled":true,"rental_uris":{"android":"levelo://app?vid=a8b5d591-9d69-4d35-8235-8b1676310abc","ios":"levelo://app?vid=a8b5d591-9d69-4d35-8235-8b1676310abc"},"vehicle_type_id":"4","last_reported":1740737438,"current_range_meters":2000,"station_id":"ce4bh0h2rcd13ifvqd50","pricing_plan_id":"cebpf4jnsgd1na2vs0mg"},{"bike_id":"ffba2379-a92b-4822-b5aa-4726b398073b","system_id":"levelo_inurba_marseille","lat":43.301361,"lon":5.380846,"is_reserved":false,"is_disabled":false,"rental_uris":{"android":"levelo://app?vid=ffba2379-a92b-4822-b5aa-4726b398073b","ios":"levelo://app?vid=ffba2379-a92b-4822-b5aa-4726b398073b"},"vehicle_type_id":"4","last_reported":1740737438,"current_range_meters":2800,"station_id":"ce4bgjh2rcd13ifvqbf0","pricing_plan_id":"cebpf4jnsgd1na2vs0mg"},{"bike_id":"7560142c-45ea-4aa6-bd5b-a0c4eb95844b","system_id":"levelo_inurba_marseille","lat":43.270637,"lon":5.40268,"is_reserved":false,"is_disabled":false,"rental_uris":{"android":"levelo://app?vid=7560142c-45ea-4aa6-bd5b-a0c4eb95844b","ios":"levelo://app?vid=7560142c-45ea-4aa6-bd5b-a0c4eb95844b"},"vehicle_type_id":"4","last_reported":1740737438,"current_range_meters":2800,"station_id":"ce4bhk92rcd13ifvqgc0","pricing_plan_id":"cebpf4jnsgd1na2vs0mg"},{"bike_id":"3d1e34e4-4344-444d-b8c7-a0d0234dc909","system_id":"levelo_inurba_marseille","lat":43.27057,"lon":5.40251,"is_reserved":false,"is_disabled":false,"rental_uris":{"android":"levelo://app?vid=3d1e34e4-4344-444d-b8c7-a0d0234dc909","ios":"levelo://app?vid=3d1e34e4-4344-444d-b8c7-a0d0234dc909"},"vehicle_type_id":"4","last_reported":1740737438,"current_range_meters":3200,"station_id":"ce4bhk92rcd13ifvqgc0","pricing_plan_id":"cebpf4jnsgd1na2vs0mg"},{"bike_id":"b52203d4-daac-4360-9c3b-95b10a591045","system_id":"levelo_inurba_marseille","lat":43.25943,"lon":5.40904,"is_reserved":false,"is_disabled":false,"rental_uris":{"android":"levelo://app?vid=b52203d4-daac-4360-9c3b-95b10a591045","ios":"levelo://app?vid=b52203d4-daac-4360-9c3b-95b10a591045"},"vehicle_type_id":"4","last_reported":1740737438,"current_range_meters":3200,"station_id":"ce4bhm92rcd13ifvqglg","pricing_plan_id":"cebpf4jnsgd1na2vs0mg"},{"bike_id":"e146f593-5173-4ee7-8ed3-4c1d83b058ef","system_id":"levelo_inurba_marseille","lat":43.23145,"lon":5.43724,"is_reserved":false,"is_disabled":false,"rental_uris":{"android":"levelo://app?vid=e146f593-5173-4ee7-8ed3-4c1d83b058ef","ios":"levelo://app?vid=e146f593-5173-4ee7-8ed3-4c1d83b058ef"},"vehicle_type_id":"4","last_reported":1740737438,"current_range_meters":3200,"station_id":"ce4bhmp2rcd13ifvqgog","pricing_plan_id":"cebpf4jnsgd1na2vs0mg"},{"bike_id":"f594528c-e278-4dd7-b15e-0a3a4745ddb0","system_id":"levelo_inurba_marseille","lat":43.28001,"lon":5.40017,"is_reserved":false,"is_disabled":false,"rental_uris":{"android":"levelo://app?vid=f594528c-e278-4dd7-b15e-0a3a4745ddb0","ios":"levelo://app?vid=f594528c-e278-4dd7-b15e-0a3a4745ddb0"},"vehicle_type_id":"4","last_reported":1740737438,"current_range_meters":3200,"station_id":"ce4bho92rcd13ifvqh4g","pricing_plan_id":"cebpf4jnsgd1na2vs0mg"},{"bike_id":"e8edc58d-690e-41f1-aeeb-cdbd898c3c46","system_id":"levelo_inurba_marseille","lat":43.29807,"lon":5.38091,"is_reserved":false,"is_disabled":false,"rental_uris":{"android":"levelo://app?vid=e8edc58d-690e-41f1-aeeb-cdbd898c3c46","ios":"levelo://app?vid=e8edc58d-690e-41f1-aeeb-cdbd898c3c46"},"vehicle_type_id":"4","last_reported":1740737438,"current_range_meters":3600,"station_id":"ce4bgip2rcd13ifvqbb0","pricing_plan_id":"cebpf4jnsgd1na2vs0mg"},{"bike_id":"a3621ce8-56ca-45cb-ad92-548758ddc25e","system_id":"levelo_inurba_marseille","lat":43.28695,"lon":5.37378,"is_reserved":false,"is_disabled":false,"rental_uris":{"android":"levelo://app?vid=a3621ce8-56ca-45cb-ad92-548758ddc25e","ios":"levelo://app?vid=a3621ce8-56ca-45cb-ad92-548758ddc25e"},"vehicle_type_id":"4","last_reported":1740737438,"current_range_meters":3600,"station_id":"ce4bh3p2rcd13ifvqdq0","pricing_plan_id":"cebpf4jnsgd1na2vs0mg"},{"bike_id":"289255f9-1c8a-4a8a-8c4d-565a207da30b","system_id":"levelo_inurba_marseille","lat":43.27945,"lon":5.41046,"is_reserved":false,"is_disabled":false,"rental_uris":{"android":"levelo://app?vid=289255f9-1c8a-4a8a-8c4d-565a207da30b","ios":"levelo://app?vid=289255f9-1c8a-4a8a-8c4d-565a207da30b"},"vehicle_type_id":"4","last_reported":1740737438,"current_range_meters":3600,"station_id":"ce4bhnp2rcd13ifvqh0g","pricing_plan_id":"cebpf4jnsgd1na2vs0mg"},{"bike_id":"c0ff170f-418c-4f35-bb5c-2b73d86fffd3","system_id":"levelo_inurba_marseille","lat":43.28678,"lon":5.38649,"is_reserved":false,"is_disabled":false,"rental_uris":{"android":"levelo://app?vid=c0ff170f-418c-4f35-bb5c-2b73d86fffd3","ios":"levelo://app?vid=c0ff170f-418c-4f35-bb5c-2b73d86fffd3"},"vehicle_type_id":"4","last_reported":1740737438,"current_range_meters":4000,"station_id":"ce4bh492rcd13ifvqdug","pricing_plan_id":"cebpf4jnsgd1na2vs0mg"},{"bike_id":"36fc0ac6-ee57-4711-92af-dc4dc17477a6","system_id":"levelo_inurba_marseille","lat":43.27495,"lon":5.42455,"is_reserved":false,"is_disabled":false,"rental_uris":{"android":"levelo://app?vid=36fc0ac6-ee57-4711-92af-dc4dc17477a6","ios":"levelo://app?vid=36fc0ac6-ee57-4711-92af-dc4dc17477a6"},"vehicle_type_id":"4","last_reported":1740737438,"current_range_meters":4400,"station_id":"ce4bhn92rcd13ifvqgrg","pricing_plan_id":"cebpf4jnsgd1na2vs0mg"},{"bike_id":"f95c9692-44f4-4852-82e9-a91e12fdbe83","system_id":"levelo_inurba_marseille","lat":43.27999,"lon":5.40012,"is_reserved":false,"is_disabled":false,"rental_uris":{"android":"levelo://app?vid=f95c9692-44f4-4852-82e9-a91e12fdbe83","ios":"levelo://app?vid=f95c9692-44f4-4852-82e9-a91e12fdbe83"},"vehicle_type_id":"4","last_reported":1740737438,"current_range_meters":4400,"station_id":"ce4bho92rcd13ifvqh4g","pricing_plan_id":"cebpf4jnsgd1na2vs0mg"},{"bike_id":"ab40e30d-9adf-4eb7-9291-51b359352c03","system_id":"levelo_inurba_marseille","lat":43.31686,"lon":5.40471,"is_reserved":false,"is_disabled":false,"rental_uris":{"android":"levelo://app?vid=ab40e30d-9adf-4eb7-9291-51b359352c03","ios":"levelo://app?vid=ab40e30d-9adf-4eb7-9291-51b359352c03"},"vehicle_type_id":"4","last_reported":1740737438,"current_range_meters":4800,"station_id":"ce4bh012rcd13ifvqd00","pricing_plan_id":"cebpf4jnsgd1na2vs0mg"},{"bike_id":"42513640-49f1-4f14-a73c-78383fb3d957","system_id":"levelo_inurba_marseille","lat":43.284795,"lon":5.384118,"is_reserved":false,"is_disabled":true,"rental_uris":{"android":"levelo://app?vid=42513640-49f1-4f14-a73c-78383fb3d957","ios":"levelo://app?vid=42513640-49f1-4f14-a73c-78383fb3d957"},"vehicle_type_id":"4","last_reported":1740737438,"current_range_meters":4800,"station_id":"ce4bhgp2rcd13ifvqfd0","pricing_plan_id":"cebpf4jnsgd1na2vs0mg"},{"bike_id":"0c7e77c4-775f-4634-bb7d-e6dc5881f29b","system_id":"levelo_inurba_marseille","lat":43.24553,"lon":5.39524,"is_reserved":false,"is_disabled":false,"rental_uris":{"android":"levelo://app?vid=0c7e77c4-775f-4634-bb7d-e6dc5881f29b","ios":"levelo://app?vid=0c7e77c4-775f-4634-bb7d-e6dc5881f29b"},"vehicle_type_id":"4","last_reported":1740737438,"current_range_meters":4800,"station_id":"ce4bhlp2rcd13ifvqgjg","pricing_plan_id":"cebpf4jnsgd1na2vs0mg"},{"bike_id":"35f54448-cfcd-415c-b857-096572fa4966","system_id":"levelo_inurba_marseille","lat":43.275,"lon":5.42461,"is_reserved":false,"is_disabled":false,"rental_uris":{"android":"levelo://app?vid=35f54448-cfcd-415c-b857-096572fa4966","ios":"levelo://app?vid=35f54448-cfcd-415c-b857-096572fa4966"},"vehicle_type_id":"4","last_reported":1740737438,"current_range_meters":4800,"station_id":"ce4bhn92rcd13ifvqgrg","pricing_plan_id":"cebpf4jnsgd1na2vs0mg"},{"bike_id":"8b12f042-66ff-4f72-8110-b87f1cf65c0b","system_id":"levelo_inurba_marseille","lat":43.33412,"lon":5.40028,"is_reserved":false,"is_disabled":false,"rental_uris":{"android":"levelo://app?vid=8b12f042-66ff-4f72-8110-b87f1cf65c0b","ios":"levelo://app?vid=8b12f042-66ff-4f72-8110-b87f1cf65c0b"},"vehicle_type_id":"4","last_reported":1740737438,"current_range_meters":5600,"station_id":"","pricing_plan_id":"cebpf4jnsgd1na2vs0mg"},{"bike_id":"8231fdea-20e5-4212-9a72-39cde044e166","system_id":"levelo_inurba_marseille","lat":43.30448,"lon":5.37895,"is_reserved":false,"is_disabled":false,"rental_uris":{"android":"levelo://app?vid=8231fdea-20e5-4212-9a72-39cde044e166","ios":"levelo://app?vid=8231fdea-20e5-4212-9a72-39cde044e166"},"vehicle_type_id":"4","last_reported":1740737438,"current_range_meters":5600,"station_id":"ce4bgup2rcd13ifvqcn0","pricing_plan_id":"cebpf4jnsgd1na2vs0mg"},{"bike_id":"7cd495b0-56bf-48ac-a227-8019dd1d3948","system_id":"levelo_inurba_marseille","lat":43.30949,"lon":5.3903,"is_reserved":false,"is_disabled":true,"rental_uris":{"android":"levelo://app?vid=7cd495b0-56bf-48ac-a227-8019dd1d3948","ios":"levelo://app?vid=7cd495b0-56bf-48ac-a227-8019dd1d3948"},"vehicle_type_id":"4","last_reported":1740737438,"current_range_meters":5600,"station_id":"ce4bgup2rcd13ifvqco0","pricing_plan_id":"cebpf4jnsgd1na2vs0mg"},{"bike_id":"fa7155cc-864d-4ea7-a19a-b9e35eda5c39","system_id":"levelo_inurba_marseille","lat":43.29967,"lon":5.38495,"is_reserved":false,"is_disabled":false,"rental_uris":{"android":"levelo://app?vid=fa7155cc-864d-4ea7-a19a-b9e35eda5c39","ios":"levelo://app?vid=fa7155cc-864d-4ea7-a19a-b9e35eda5c39"},"vehicle_type_id":"4","last_reported":1740737438,"current_range_meters":6000,"station_id":"ce4bgj92rcd13ifvqbd0","pricing_plan_id":"cebpf4jnsgd1na2vs0mg"},{"bike_id":"2df5f414-aa5d-4d6b-8b88-6bfcd140a3b4","system_id":"levelo_inurba_marseille","lat":43.2593,"lon":5.40935,"is_reserved":false,"is_disabled":false,"rental_uris":{"android":"levelo://app?vid=2df5f414-aa5d-4d6b-8b88-6bfcd140a3b4","ios":"levelo://app?vid=2df5f414-aa5d-4d6b-8b88-6bfcd140a3b4"},"vehicle_type_id":"4","last_reported":1740737438,"current_range_meters":6000,"station_id":"ce4bhm92rcd13ifvqglg","pricing_plan_id":"cebpf4jnsgd1na2vs0mg"},{"bike_id":"b5c04338-71b5-40e7-914f-5f1200a51a92","system_id":"levelo_inurba_marseille","lat":43.25937,"lon":5.40901,"is_reserved":false,"is_disabled":false,"rental_uris":{"android":"levelo://app?vid=b5c04338-71b5-40e7-914f-5f1200a51a92","ios":"levelo://app?vid=b5c04338-71b5-40e7-914f-5f1200a51a92"},"vehicle_type_id":"4","last_reported":1740737438,"current_range_meters":6000,"station_id":"ce4bhm92rcd13ifvqglg","pricing_plan_id":"cebpf4jnsgd1na2vs0mg"},{"bike_id":"ea8cb564-d405-42e3-911c-0afdd772ee76","system_id":"levelo_inurba_marseille","lat":43.3278,"lon":5.39246,"is_reserved":false,"is_disabled":false,"rental_uris":{"android":"levelo://app?vid=ea8cb564-d405-42e3-911c-0afdd772ee76","ios":"levelo://app?vid=ea8cb564-d405-42e3-911c-0afdd772ee76"},"vehicle_type_id":"4","last_reported":1740737438,"current_range_meters":6400,"station_id":"","pricing_plan_id":"cebpf4jnsgd1na2vs0mg"},{"bike_id":"58734ddf-a6a1-4aa4-933a-9e18fdd8a769","system_id":"levelo_inurba_marseille","lat":43.3053,"lon":5.36539,"is_reserved":false,"is_disabled":false,"rental_uris":{"android":"levelo://app?vid=58734ddf-a6a1-4aa4-933a-9e18fdd8a769","ios":"levelo://app?vid=58734ddf-a6a1-4aa4-933a-9e18fdd8a769"},"vehicle_type_id":"4","last_reported":1740737438,"current_range_meters":6400,"station_id":"ce4bgs12rcd13ifvqcag","pricing_plan_id":"cebpf4jnsgd1na2vs0mg"},{"bike_id":"5c34af96-e812-4886-a0b5-6abb26eb7ea0","system_id":"levelo_inurba_marseille","lat":43.30546,"lon":5.36531,"is_reserved":false,"is_disabled":false,"rental_uris":{"android":"levelo://app?vid=5c34af96-e812-4886-a0b5-6abb26eb7ea0","ios":"levelo://app?vid=5c34af96-e812-4886-a0b5-6abb26eb7ea0"},"vehicle_type_id":"4","last_reported":1740737438,"current_range_meters":6400,"station_id":"ce4bgs12rcd13ifvqcag","pricing_plan_id":"cebpf4jnsgd1na2vs0mg"},{"bike_id":"3572e442-9c61-4aaa-b96a-cfba1d0145c3","system_id":"levelo_inurba_marseille","lat":43.31105,"lon":5.37783,"is_reserved":false,"is_disabled":false,"rental_uris":{"android":"levelo://app?vid=3572e442-9c61-4aaa-b96a-cfba1d0145c3","ios":"levelo://app?vid=3572e442-9c61-4aaa-b96a-cfba1d0145c3"},"vehicle_type_id":"4","last_reported":1740737438,"current_range_meters":6400,"station_id":"ce4bgt92rcd13ifvqcg0","pricing_plan_id":"cebpf4jnsgd1na2vs0mg"},{"bike_id":"54d4f2d5-69d5-4c8b-bcbc-de8d7ddb201c","system_id":"levelo_inurba_marseille","lat":43.29029,"lon":5.38656,"is_reserved":false,"is_disabled":false,"rental_uris":{"android":"levelo://app?vid=54d4f2d5-69d5-4c8b-bcbc-de8d7ddb201c","ios":"levelo://app?vid=54d4f2d5-69d5-4c8b-bcbc-de8d7ddb201c"},"vehicle_type_id":"4","last_reported":1740737438,"current_range_meters":6400,"station_id":"ce4bh4p2rcd13ifvqe0g","pricing_plan_id":"cebpf4jnsgd1na2vs0mg"},{"bike_id":"2e06eef8-b840-4d6b-9ba9-f1ec31e038e5","system_id":"levelo_inurba_marseille","lat":43.2621,"lon":5.3744,"is_reserved":false,"is_disabled":false,"rental_uris":{"android":"levelo://app?vid=2e06eef8-b840-4d6b-9ba9-f1ec31e038e5","ios":"levelo://app?vid=2e06eef8-b840-4d6b-9ba9-f1ec31e038e5"},"vehicle_type_id":"4","last_reported":1740737438,"current_range_meters":6400,"station_id":"ce4bhgp2rcd13ifvqfc0","pricing_plan_id":"cebpf4jnsgd1na2vs0mg"},{"bike_id":"e8d14ad1-d558-4aa2-9855-d1361afa0de1","system_id":"levelo_inurba_marseille","lat":43.27809,"lon":5.40719,"is_reserved":false,"is_disabled":false,"rental_uris":{"android":"levelo://app?vid=e8d14ad1-d558-4aa2-9855-d1361afa0de1","ios":"levelo://app?vid=e8d14ad1-d558-4aa2-9855-d1361afa0de1"},"vehicle_type_id":"4","last_reported":1740737438,"current_range_meters":6400,"station_id":"ce4bhnh2rcd13ifvqgtg","pricing_plan_id":"cebpf4jnsgd1na2vs0mg"},{"bike_id":"9647918c-d815-4482-8c45-927333bd2450","system_id":"levelo_inurba_marseille","lat":43.27811,"lon":5.40712,"is_reserved":false,"is_disabled":false,"rental_uris":{"android":"levelo://app?vid=9647918c-d815-4482-8c45-927333bd2450","ios":"levelo://app?vid=9647918c-d815-4482-8c45-927333bd2450"},"vehicle_type_id":"4","last_reported":1740737438,"current_range_meters":6400,"station_id":"ce4bhnh2rcd13ifvqgtg","pricing_plan_id":"cebpf4jnsgd1na2vs0mg"},{"bike_id":"b333e676-7874-454b-bdb9-256a5e530905","system_id":"levelo_inurba_marseille","lat":43.22927,"lon":5.35374,"is_reserved":false,"is_disabled":false,"rental_uris":{"android":"levelo://app?vid=b333e676-7874-454b-bdb9-256a5e530905","ios":"levelo://app?vid=b333e676-7874-454b-bdb9-256a5e530905"},"vehicle_type_id":"4","last_reported":1740737438,"current_range_meters":6400,"station_id":"cpo3532slgdg3j2ikp40","pricing_plan_id":"cebpf4jnsgd1na2vs0mg"},{"bike_id":"a402dcb0-63b6-4569-b9e8-ad825500c3f8","system_id":"levelo_inurba_marseille","lat":43.28993,"lon":5.35923,"is_reserved":false,"is_disabled":false,"rental_uris":{"android":"levelo://app?vid=a402dcb0-63b6-4569-b9e8-ad825500c3f8","ios":"levelo://app?vid=a402dcb0-63b6-4569-b9e8-ad825500c3f8"},"vehicle_type_id":"4","last_reported":1740737438,"current_range_meters":6800,"station_id":"","pricing_plan_id":"cebpf4jnsgd1na2vs0mg"},{"bike_id":"b73bc810-b600-46ea-8898-7b9456349cb9","system_id":"levelo_inurba_marseille","lat":43.29578,"lon":5.37551,"is_reserved":false,"is_disabled":false,"rental_uris":{"android":"levelo://app?vid=b73bc810-b600-46ea-8898-7b9456349cb9","ios":"levelo://app?vid=b73bc810-b600-46ea-8898-7b9456349cb9"},"vehicle_type_id":"4","last_reported":1740737438,"current_range_meters":6800,"station_id":"ce4bgh92rcd13ifvqb50","pricing_plan_id":"cebpf4jnsgd1na2vs0mg"},{"bike_id":"0093cb83-a560-478e-b53c-d01a12d0eb86","system_id":"levelo_inurba_marseille","lat":43.31202,"lon":5.36849,"is_reserved":false,"is_disabled":false,"rental_uris":{"android":"levelo://app?vid=0093cb83-a560-478e-b53c-d01a12d0eb86","ios":"levelo://app?vid=0093cb83-a560-478e-b53c-d01a12d0eb86"},"vehicle_type_id":"4","last_reported":1740737438,"current_range_meters":6800,"station_id":"ce4bgl92rcd13ifvqbq0","pricing_plan_id":"cebpf4jnsgd1na2vs0mg"},{"bike_id":"b8b5a57c-8dde-4019-bb6a-ae49adc55d76","system_id":"levelo_inurba_marseille","lat":43.26962,"lon":5.38646,"is_reserved":false,"is_disabled":false,"rental_uris":{"android":"levelo://app?vid=b8b5a57c-8dde-4019-bb6a-ae49adc55d76","ios":"levelo://app?vid=b8b5a57c-8dde-4019-bb6a-ae49adc55d76"},"vehicle_type_id":"4","last_reported":1740737438,"current_range_meters":6800,"station_id":"ce4bhh92rcd13ifvqfh0","pricing_plan_id":"cebpf4jnsgd1na2vs0mg"},{"bike_id":"33062305-f0dc-4541-96a3-ce40729727a3","system_id":"levelo_inurba_marseille","lat":43.25911,"lon":5.40889,"is_reserved":false,"is_disabled":false,"rental_uris":{"android":"levelo://app?vid=33062305-f0dc-4541-96a3-ce40729727a3","ios":"levelo://app?vid=33062305-f0dc-4541-96a3-ce40729727a3"},"vehicle_type_id":"4","last_reported":1740737438,"current_range_meters":6800,"station_id":"ce4bhm92rcd13ifvqglg","pricing_plan_id":"cebpf4jnsgd1na2vs0mg"},{"bike_id":"6d1e50ce-656f-4601-a963-ac1a5f52c0c4","system_id":"levelo_inurba_marseille","lat":43.23152,"lon":5.43702,"is_reserved":false,"is_disabled":false,"rental_uris":{"android":"levelo://app?vid=6d1e50ce-656f-4601-a963-ac1a5f52c0c4","ios":"levelo://app?vid=6d1e50ce-656f-4601-a963-ac1a5f52c0c4"},"vehicle_type_id":"4","last_reported":1740737438,"current_range_meters":6800,"station_id":"ce4bhmp2rcd13ifvqgog","pricing_plan_id":"cebpf4jnsgd1na2vs0mg"},{"bike_id":"fc43f240-dbbb-4748-be2b-8b9caa4a15b1","system_id":"levelo_inurba_marseille","lat":43.27943,"lon":5.41045,"is_reserved":false,"is_disabled":false,"rental_uris":{"android":"levelo://app?vid=fc43f240-dbbb-4748-be2b-8b9caa4a15b1","ios":"levelo://app?vid=fc43f240-dbbb-4748-be2b-8b9caa4a15b1"},"vehicle_type_id":"4","last_reported":1740737438,"current_range_meters":6800,"station_id":"ce4bhnp2rcd13ifvqh0g","pricing_plan_id":"cebpf4jnsgd1na2vs0mg"},{"bike_id":"e01c4764-850a-4950-98a6-f7763ee410cb","system_id":"levelo_inurba_marseille","lat":43.33611,"lon":5.41034,"is_reserved":false,"is_disabled":false,"rental_uris":{"android":"levelo://app?vid=e01c4764-850a-4950-98a6-f7763ee410cb","ios":"levelo://app?vid=e01c4764-850a-4950-98a6-f7763ee410cb"},"vehicle_type_id":"4","last_reported":1740737438,"current_range_meters":6800,"station_id":"ce4bhqh2rcd13ifvqhmg","pricing_plan_id":"cebpf4jnsgd1na2vs0mg"},{"bike_id":"2a0eab03-2896-4215-837d-ef25ae9e2675","system_id":"levelo_inurba_marseille","lat":43.33023,"lon":5.39043,"is_reserved":false,"is_disabled":false,"rental_uris":{"android":"levelo://app?vid=2a0eab03-2896-4215-837d-ef25ae9e2675","ios":"levelo://app?vid=2a0eab03-2896-4215-837d-ef25ae9e2675"},"vehicle_type_id":"4","last_reported":1740737438,"current_range_meters":6800,"station_id":"ce4bhr92rcd13ifvqhrg","pricing_plan_id":"cebpf4jnsgd1na2vs0mg"},{"bike_id":"4a6ef6f7-a71d-40f3-9674-fe42f64fd354","system_id":"levelo_inurba_marseille","lat":43.313571,"lon":5.367169,"is_reserved":false,"is_disabled":false,"rental_uris":{"android":"levelo://app?vid=4a6ef6f7-a71d-40f3-9674-fe42f64fd354","ios":"levelo://app?vid=4a6ef6f7-a71d-40f3-9674-fe42f64fd354"},"vehicle_type_id":"4","last_reported":1740737438,"current_range_meters":7200,"station_id":"ce4bgr92rcd13ifvqc6g","pricing_plan_id":"cebpf4jnsgd1na2vs0mg"},{"bike_id":"d4a9e247-3299-4d7f-9acb-0d092544b505","system_id":"levelo_inurba_marseille","lat":43.279,"lon":5.37997,"is_reserved":false,"is_disabled":false,"rental_uris":{"android":"levelo://app?vid=d4a9e247-3299-4d7f-9acb-0d092544b505","ios":"levelo://app?vid=d4a9e247-3299-4d7f-9acb-0d092544b505"},"vehicle_type_id":"4","last_reported":1740737438,"current_range_meters":7200,"station_id":"ce4bhf92rcd13ifvqf50","pricing_plan_id":"cebpf4jnsgd1na2vs0mg"},{"bike_id":"c6b23046-3dbb-4c24-b439-362e9ad2c23a","system_id":"levelo_inurba_marseille","lat":43.25009,"lon":5.38961,"is_reserved":false,"is_disabled":false,"rental_uris":{"android":"levelo://app?vid=c6b23046-3dbb-4c24-b439-362e9ad2c23a","ios":"levelo://app?vid=c6b23046-3dbb-4c24-b439-362e9ad2c23a"},"vehicle_type_id":"4","last_reported":1740737438,"current_range_meters":7200,"station_id":"ce4bhgp2rcd13ifvqfd0","pricing_plan_id":"cebpf4jnsgd1na2vs0mg"},{"bike_id":"2877b49c-3b08-474b-b501-e3e6abf28b3b","system_id":"levelo_inurba_marseille","lat":43.33599,"lon":5.41035,"is_reserved":false,"is_disabled":false,"rental_uris":{"android":"levelo://app?vid=2877b49c-3b08-474b-b501-e3e6abf28b3b","ios":"levelo://app?vid=2877b49c-3b08-474b-b501-e3e6abf28b3b"},"vehicle_type_id":"4","last_reported":1740737438,"current_range_meters":7200,"station_id":"ce4bhqh2rcd13ifvqhmg","pricing_plan_id":"cebpf4jnsgd1na2vs0mg"},{"bike_id":"4188209b-009e-44d7-8717-56942ac0236d","system_id":"levelo_inurba_marseille","lat":43.30457,"lon":5.39758,"is_reserved":false,"is_disabled":false,"rental_uris":{"android":"levelo://app?vid=4188209b-009e-44d7-8717-56942ac0236d","ios":"levelo://app?vid=4188209b-009e-44d7-8717-56942ac0236d"},"vehicle_type_id":"4","last_reported":1740737438,"current_range_meters":8000,"station_id":"ce4bh092rcd13ifvqd20","pricing_plan_id":"cebpf4jnsgd1na2vs0mg"},{"bike_id":"55fc8e8d-ee8c-4d60-8eb7-cbe6f5eafd9f","system_id":"levelo_inurba_marseille","lat":43.284076,"lon":5.374999,"is_reserved":false,"is_disabled":false,"rental_uris":{"android":"levelo://app?vid=55fc8e8d-ee8c-4d60-8eb7-cbe6f5eafd9f","ios":"levelo://app?vid=55fc8e8d-ee8c-4d60-8eb7-cbe6f5eafd9f"},"vehicle_type_id":"4","last_reported":1740737438,"current_range_meters":8000,"station_id":"ce4bh412rcd13ifvqds0","pricing_plan_id":"cebpf4jnsgd1na2vs0mg"},{"bike_id":"4ce26a99-af03-483d-b48c-23c47fea208e","system_id":"levelo_inurba_marseille","lat":43.28851,"lon":5.35841,"is_reserved":false,"is_disabled":false,"rental_uris":{"android":"levelo://app?vid=4ce26a99-af03-483d-b48c-23c47fea208e","ios":"levelo://app?vid=4ce26a99-af03-483d-b48c-23c47fea208e"},"vehicle_type_id":"4","last_reported":1740737438,"current_range_meters":8000,"station_id":"ce4bhb12rcd13ifvqem0","pricing_plan_id":"cebpf4jnsgd1na2vs0mg"},{"bike_id":"5e0e22b0-e973-48d0-8bed-a771273f721a","system_id":"levelo_inurba_marseille","lat":43.2737,"lon":5.36247,"is_reserved":false,"is_disabled":false,"rental_uris":{"android":"levelo://app?vid=5e0e22b0-e973-48d0-8bed-a771273f721a","ios":"levelo://app?vid=5e0e22b0-e973-48d0-8bed-a771273f721a"},"vehicle_type_id":"4","last_reported":1740737438,"current_range_meters":8000,"station_id":"ce4bhbh2rcd13ifvqeo0","pricing_plan_id":"cebpf4jnsgd1na2vs0mg"},{"bike_id":"ee926e95-5f82-49c1-83af-829ec68536cc","system_id":"levelo_inurba_marseille","lat":43.26941,"lon":5.38651,"is_reserved":false,"is_disabled":false,"rental_uris":{"android":"levelo://app?vid=ee926e95-5f82-49c1-83af-829ec68536cc","ios":"levelo://app?vid=ee926e95-5f82-49c1-83af-829ec68536cc"},"vehicle_type_id":"4","last_reported":1740737438,"current_range_meters":8000,"station_id":"ce4bhh92rcd13ifvqfh0","pricing_plan_id":"cebpf4jnsgd1na2vs0mg"},{"bike_id":"54d46a8b-8314-471a-98f9-6d86686fc605","system_id":"levelo_inurba_marseille","lat":43.25832,"lon":5.39427,"is_reserved":false,"is_disabled":false,"rental_uris":{"android":"levelo://app?vid=54d46a8b-8314-471a-98f9-6d86686fc605","ios":"levelo://app?vid=54d46a8b-8314-471a-98f9-6d86686fc605"},"vehicle_type_id":"4","last_reported":1740737438,"current_range_meters":8000,"station_id":"ce4bhip2rcd13ifvqft0","pricing_plan_id":"cebpf4jnsgd1na2vs0mg"},{"bike_id":"03ecd382-3850-4874-86ef-0467a1a8c988","system_id":"levelo_inurba_marseille","lat":43.24171,"lon":5.39743,"is_reserved":false,"is_disabled":false,"rental_uris":{"android":"levelo://app?vid=03ecd382-3850-4874-86ef-0467a1a8c988","ios":"levelo://app?vid=03ecd382-3850-4874-86ef-0467a1a8c988"},"vehicle_type_id":"4","last_reported":1740737438,"current_range_meters":8000,"station_id":"ce4bhn12rcd13ifvqgpg","pricing_plan_id":"cebpf4jnsgd1na2vs0mg"},{"bike_id":"a3deaac0-5959-4805-b684-953381d9adcc","system_id":"levelo_inurba_marseille","lat":43.32359,"lon":5.38897,"is_reserved":false,"is_disabled":false,"rental_uris":{"android":"levelo://app?vid=a3deaac0-5959-4805-b684-953381d9adcc","ios":"levelo://app?vid=a3deaac0-5959-4805-b684-953381d9adcc"},"vehicle_type_id":"4","last_reported":1740737438,"current_range_meters":8000,"station_id":"ce4bhqp2rcd13ifvqhog","pricing_plan_id":"cebpf4jnsgd1na2vs0mg"},{"bike_id":"c2cd62fa-5421-4d8d-83f3-aa1ab92d9420","system_id":"levelo_inurba_marseille","lat":43.31361,"lon":5.36766,"is_reserved":false,"is_disabled":false,"rental_uris":{"android":"levelo://app?vid=c2cd62fa-5421-4d8d-83f3-aa1ab92d9420","ios":"levelo://app?vid=c2cd62fa-5421-4d8d-83f3-aa1ab92d9420"},"vehicle_type_id":"4","last_reported":1740737438,"current_range_meters":8400,"station_id":"","pricing_plan_id":"cebpf4jnsgd1na2vs0mg"},{"bike_id":"ec0c3b7d-e59a-44ca-a91a-f860d2fd7a88","system_id":"levelo_inurba_marseille","lat":43.30902,"lon":5.36838,"is_reserved":false,"is_disabled":false,"rental_uris":{"android":"levelo://app?vid=ec0c3b7d-e59a-44ca-a91a-f860d2fd7a88","ios":"levelo://app?vid=ec0c3b7d-e59a-44ca-a91a-f860d2fd7a88"},"vehicle_type_id":"4","last_reported":1740737438,"current_range_meters":8400,"station_id":"ce4bgn92rcd13ifvqbvg","pricing_plan_id":"cebpf4jnsgd1na2vs0mg"},{"bike_id":"a97ef810-7225-4bf9-ae16-85c852e9dbad","system_id":"levelo_inurba_marseille","lat":43.30545,"lon":5.36554,"is_reserved":false,"is_disabled":false,"rental_uris":{"android":"levelo://app?vid=a97ef810-7225-4bf9-ae16-85c852e9dbad","ios":"levelo://app?vid=a97ef810-7225-4bf9-ae16-85c852e9dbad"},"vehicle_type_id":"4","last_reported":1740737438,"current_range_meters":8400,"station_id":"ce4bgs12rcd13ifvqcag","pricing_plan_id":"cebpf4jnsgd1na2vs0mg"},{"bike_id":"81d81c24-e869-422c-aaa5-c36c2b6d8f97","system_id":"levelo_inurba_marseille","lat":43.28855,"lon":5.35846,"is_reserved":false,"is_disabled":false,"rental_uris":{"android":"levelo://app?vid=81d81c24-e869-422c-aaa5-c36c2b6d8f97","ios":"levelo://app?vid=81d81c24-e869-422c-aaa5-c36c2b6d8f97"},"vehicle_type_id":"4","last_reported":1740737438,"current_range_meters":8400,"station_id":"ce4bhb12rcd13ifvqem0","pricing_plan_id":"cebpf4jnsgd1na2vs0mg"},{"bike_id":"27b96f0c-2d44-4965-a997-c4bf8fa73e44","system_id":"levelo_inurba_marseille","lat":43.26207,"lon":5.37913,"is_reserved":false,"is_disabled":false,"rental_uris":{"android":"levelo://app?vid=27b96f0c-2d44-4965-a997-c4bf8fa73e44","ios":"levelo://app?vid=27b96f0c-2d44-4965-a997-c4bf8fa73e44"},"vehicle_type_id":"4","last_reported":1740737438,"current_range_meters":8400,"station_id":"ce4bhjp2rcd13ifvqg90","pricing_plan_id":"cebpf4jnsgd1na2vs0mg"},{"bike_id":"dbdb7887-88cb-41f9-ad73-5fbab2a239c1","system_id":"levelo_inurba_marseille","lat":43.23147,"lon":5.43711,"is_reserved":false,"is_disabled":false,"rental_uris":{"android":"levelo://app?vid=dbdb7887-88cb-41f9-ad73-5fbab2a239c1","ios":"levelo://app?vid=dbdb7887-88cb-41f9-ad73-5fbab2a239c1"},"vehicle_type_id":"4","last_reported":1740737438,"current_range_meters":8400,"station_id":"ce4bhmp2rcd13ifvqgog","pricing_plan_id":"cebpf4jnsgd1na2vs0mg"},{"bike_id":"07e61a8c-6f06-47da-a866-2a3d308eb3cb","system_id":"levelo_inurba_marseille","lat":43.2418,"lon":5.39729,"is_reserved":false,"is_disabled":false,"rental_uris":{"android":"levelo://app?vid=07e61a8c-6f06-47da-a866-2a3d308eb3cb","ios":"levelo://app?vid=07e61a8c-6f06-47da-a866-2a3d308eb3cb"},"vehicle_type_id":"4","last_reported":1740737438,"current_range_meters":8400,"station_id":"ce4bhn12rcd13ifvqgpg","pricing_plan_id":"cebpf4jnsgd1na2vs0mg"},{"bike_id":"4c030269-9cb9-4758-8bd2-6566a9a2a27b","system_id":"levelo_inurba_marseille","lat":43.29627,"lon":5.3773,"is_reserved":false,"is_disabled":false,"rental_uris":{"android":"levelo://app?vid=4c030269-9cb9-4758-8bd2-6566a9a2a27b","ios":"levelo://app?vid=4c030269-9cb9-4758-8bd2-6566a9a2a27b"},"vehicle_type_id":"4","last_reported":1740737438,"current_range_meters":8800,"station_id":"ce4bgi92rcd13ifvqb90","pricing_plan_id":"cebpf4jnsgd1na2vs0mg"},{"bike_id":"ea859619-bbf7-4f04-90f6-e94ec0770416","system_id":"levelo_inurba_marseille","lat":43.29374,"lon":5.37837,"is_reserved":false,"is_disabled":false,"rental_uris":{"android":"levelo://app?vid=ea859619-bbf7-4f04-90f6-e94ec0770416","ios":"levelo://app?vid=ea859619-bbf7-4f04-90f6-e94ec0770416"},"vehicle_type_id":"4","last_reported":1740737438,"current_range_meters":8800,"station_id":"ce4bgjh2rcd13ifvqbf0","pricing_plan_id":"cebpf4jnsgd1na2vs0mg"},{"bike_id":"9ea5ce46-8f8a-40b5-a759-3188bcb46ce4","system_id":"levelo_inurba_marseille","lat":43.23152,"lon":5.4372,"is_reserved":false,"is_disabled":false,"rental_uris":{"android":"levelo://app?vid=9ea5ce46-8f8a-40b5-a759-3188bcb46ce4","ios":"levelo://app?vid=9ea5ce46-8f8a-40b5-a759-3188bcb46ce4"},"vehicle_type_id":"4","last_reported":1740737438,"current_range_meters":8800,"station_id":"ce4bhmp2rcd13ifvqgog","pricing_plan_id":"cebpf4jnsgd1na2vs0mg"},{"bike_id":"9c16f73b-d883-4318-9d54-d8eb1fe44c91","system_id":"levelo_inurba_marseille","lat":43.27821,"lon":5.4072,"is_reserved":false,"is_disabled":false,"rental_uris":{"android":"levelo://app?vid=9c16f73b-d883-4318-9d54-d8eb1fe44c91","ios":"levelo://app?vid=9c16f73b-d883-4318-9d54-d8eb1fe44c91"},"vehicle_type_id":"4","last_reported":1740737438,"current_range_meters":8800,"station_id":"ce4bhnh2rcd13ifvqgtg","pricing_plan_id":"cebpf4jnsgd1na2vs0mg"},{"bike_id":"d7beeb28-a0ba-4712-8cb5-d9750f512e1d","system_id":"levelo_inurba_marseille","lat":43.28151,"lon":5.4265,"is_reserved":false,"is_disabled":false,"rental_uris":{"android":"levelo://app?vid=d7beeb28-a0ba-4712-8cb5-d9750f512e1d","ios":"levelo://app?vid=d7beeb28-a0ba-4712-8cb5-d9750f512e1d"},"vehicle_type_id":"4","last_reported":1740737438,"current_range_meters":8800,"station_id":"ce4bhnh2rcd13ifvqgug","pricing_plan_id":"cebpf4jnsgd1na2vs0mg"},{"bike_id":"0a208cef-3df4-4311-9303-5e2ab9e1ce8a","system_id":"levelo_inurba_marseille","lat":43.284403,"lon":5.392064,"is_reserved":false,"is_disabled":false,"rental_uris":{"android":"levelo://app?vid=0a208cef-3df4-4311-9303-5e2ab9e1ce8a","ios":"levelo://app?vid=0a208cef-3df4-4311-9303-5e2ab9e1ce8a"},"vehicle_type_id":"4","last_reported":1740737438,"current_range_meters":8800,"station_id":"ce4bhoh2rcd13ifvqh5g","pricing_plan_id":"cebpf4jnsgd1na2vs0mg"},{"bike_id":"c28c6814-1135-4f5f-8b49-2e72894f89cd","system_id":"levelo_inurba_marseille","lat":43.33023,"lon":5.39037,"is_reserved":false,"is_disabled":false,"rental_uris":{"android":"levelo://app?vid=c28c6814-1135-4f5f-8b49-2e72894f89cd","ios":"levelo://app?vid=c28c6814-1135-4f5f-8b49-2e72894f89cd"},"vehicle_type_id":"4","last_reported":1740737438,"current_range_meters":8800,"station_id":"ce4bhr92rcd13ifvqhrg","pricing_plan_id":"cebpf4jnsgd1na2vs0mg"},{"bike_id":"1ab7b098-f66b-40af-b0cc-bd927e3e0ad1","system_id":"levelo_inurba_marseille","lat":43.23216,"lon":5.35544,"is_reserved":false,"is_disabled":false,"rental_uris":{"android":"levelo://app?vid=1ab7b098-f66b-40af-b0cc-bd927e3e0ad1","ios":"levelo://app?vid=1ab7b098-f66b-40af-b0cc-bd927e3e0ad1"},"vehicle_type_id":"4","last_reported":1740737438,"current_range_meters":8800,"station_id":"ce4bhu92rcd13ifvqi70","pricing_plan_id":"cebpf4jnsgd1na2vs0mg"},{"bike_id":"026e178e-412a-49e0-9772-e5f6d0abaab4","system_id":"levelo_inurba_marseille","lat":43.30862,"lon":5.37086,"is_reserved":false,"is_disabled":false,"rental_uris":{"android":"levelo://app?vid=026e178e-412a-49e0-9772-e5f6d0abaab4","ios":"levelo://app?vid=026e178e-412a-49e0-9772-e5f6d0abaab4"},"vehicle_type_id":"4","last_reported":1740737438,"current_range_meters":9200,"station_id":"","pricing_plan_id":"cebpf4jnsgd1na2vs0mg"},{"bike_id":"777d7567-3716-45ad-a5b3-84e920873065","system_id":"levelo_inurba_marseille","lat":43.29725,"lon":5.36603,"is_reserved":false,"is_disabled":false,"rental_uris":{"android":"levelo://app?vid=777d7567-3716-45ad-a5b3-84e920873065","ios":"levelo://app?vid=777d7567-3716-45ad-a5b3-84e920873065"},"vehicle_type_id":"4","last_reported":1740737438,"current_range_meters":9200,"station_id":"ce4bgn12rcd13ifvqbt0","pricing_plan_id":"cebpf4jnsgd1na2vs0mg"},{"bike_id":"36aaff39-aaa8-465d-bd0a-3f671adb5484","system_id":"levelo_inurba_marseille","lat":43.29847,"lon":5.3628,"is_reserved":false,"is_disabled":false,"rental_uris":{"android":"levelo://app?vid=36aaff39-aaa8-465d-bd0a-3f671adb5484","ios":"levelo://app?vid=36aaff39-aaa8-465d-bd0a-3f671adb5484"},"vehicle_type_id":"4","last_reported":1740737438,"current_range_meters":9200,"station_id":"ce4bgpp2rcd13ifvqc3g","pricing_plan_id":"cebpf4jnsgd1na2vs0mg"},{"bike_id":"a3fb0648-85a6-4e34-84d0-9969c33ce6b9","system_id":"levelo_inurba_marseille","lat":43.29011,"lon":5.38123,"is_reserved":false,"is_disabled":false,"rental_uris":{"android":"levelo://app?vid=a3fb0648-85a6-4e34-84d0-9969c33ce6b9","ios":"levelo://app?vid=a3fb0648-85a6-4e34-84d0-9969c33ce6b9"},"vehicle_type_id":"4","last_reported":1740737438,"current_range_meters":9200,"station_id":"ce4bh4p2rcd13ifvqe1g","pricing_plan_id":"cebpf4jnsgd1na2vs0mg"},{"bike_id":"1720127d-b111-4d3d-95d3-75d9d265dc26","system_id":"levelo_inurba_marseille","lat":43.23152,"lon":5.43713,"is_reserved":false,"is_disabled":false,"rental_uris":{"android":"levelo://app?vid=1720127d-b111-4d3d-95d3-75d9d265dc26","ios":"levelo://app?vid=1720127d-b111-4d3d-95d3-75d9d265dc26"},"vehicle_type_id":"4","last_reported":1740737438,"current_range_meters":9200,"station_id":"ce4bhmp2rcd13ifvqgog","pricing_plan_id":"cebpf4jnsgd1na2vs0mg"},{"bike_id":"738790dd-10dd-4ca0-b799-c7e96fb84b4b","system_id":"levelo_inurba_marseille","lat":43.32107,"lon":5.36791,"is_reserved":false,"is_disabled":false,"rental_uris":{"android":"levelo://app?vid=738790dd-10dd-4ca0-b799-c7e96fb84b4b","ios":"levelo://app?vid=738790dd-10dd-4ca0-b799-c7e96fb84b4b"},"vehicle_type_id":"4","last_reported":1740737438,"current_range_meters":9200,"station_id":"ce4bhrh2rcd13ifvqhug","pricing_plan_id":"cebpf4jnsgd1na2vs0mg"},{"bike_id":"67ed2ec6-9a93-403a-9e9b-df29702e6329","system_id":"levelo_inurba_marseille","lat":43.27295,"lon":5.39144,"is_reserved":false,"is_disabled":false,"rental_uris":{"android":"levelo://app?vid=67ed2ec6-9a93-403a-9e9b-df29702e6329","ios":"levelo://app?vid=67ed2ec6-9a93-403a-9e9b-df29702e6329"},"vehicle_type_id":"4","last_reported":1740737438,"current_range_meters":9600,"station_id":"","pricing_plan_id":"cebpf4jnsgd1na2vs0mg"},{"bike_id":"91c209e2-d3f9-405e-8d3c-fafeb0f106b7","system_id":"levelo_inurba_marseille","lat":43.29532,"lon":5.3855,"is_reserved":false,"is_disabled":false,"rental_uris":{"android":"levelo://app?vid=91c209e2-d3f9-405e-8d3c-fafeb0f106b7","ios":"levelo://app?vid=91c209e2-d3f9-405e-8d3c-fafeb0f106b7"},"vehicle_type_id":"4","last_reported":1740737438,"current_range_meters":9600,"station_id":"ce4bgih2rcd13ifvqba0","pricing_plan_id":"cebpf4jnsgd1na2vs0mg"},{"bike_id":"e8867af2-6271-407c-a823-e28a1656f5fe","system_id":"levelo_inurba_marseille","lat":43.30248,"lon":5.37669,"is_reserved":false,"is_disabled":false,"rental_uris":{"android":"levelo://app?vid=e8867af2-6271-407c-a823-e28a1656f5fe","ios":"levelo://app?vid=e8867af2-6271-407c-a823-e28a1656f5fe"},"vehicle_type_id":"4","last_reported":1740737438,"current_range_meters":9600,"station_id":"ce4bguh2rcd13ifvqcj0","pricing_plan_id":"cebpf4jnsgd1na2vs0mg"},{"bike_id":"0123f1a7-2c78-4c67-8022-cf990a392974","system_id":"levelo_inurba_marseille","lat":43.29632,"lon":5.40587,"is_reserved":false,"is_disabled":false,"rental_uris":{"android":"levelo://app?vid=0123f1a7-2c78-4c67-8022-cf990a392974","ios":"levelo://app?vid=0123f1a7-2c78-4c67-8022-cf990a392974"},"vehicle_type_id":"4","last_reported":1740737438,"current_range_meters":9600,"station_id":"ce4bh0h2rcd13ifvqd60","pricing_plan_id":"cebpf4jnsgd1na2vs0mg"},{"bike_id":"be4f90b0-df26-45e7-a23f-e9adeb1aa466","system_id":"levelo_inurba_marseille","lat":43.30095,"lon":5.39073,"is_reserved":false,"is_disabled":false,"rental_uris":{"android":"levelo://app?vid=be4f90b0-df26-45e7-a23f-e9adeb1aa466","ios":"levelo://app?vid=be4f90b0-df26-45e7-a23f-e9adeb1aa466"},"vehicle_type_id":"4","last_reported":1740737438,"current_range_meters":9600,"station_id":"ce4bh192rcd13ifvqdb0","pricing_plan_id":"cebpf4jnsgd1na2vs0mg"},{"bike_id":"28b46cda-e9b6-40cb-ac92-f8b1b9958e8c","system_id":"levelo_inurba_marseille","lat":43.29004,"lon":5.35607,"is_reserved":false,"is_disabled":false,"rental_uris":{"android":"levelo://app?vid=28b46cda-e9b6-40cb-ac92-f8b1b9958e8c","ios":"levelo://app?vid=28b46cda-e9b6-40cb-ac92-f8b1b9958e8c"},"vehicle_type_id":"4","last_reported":1740737438,"current_range_meters":9600,"station_id":"ce4bhb92rcd13ifvqen0","pricing_plan_id":"cebpf4jnsgd1na2vs0mg"},{"bike_id":"d4ffb101-314e-4834-9fe6-d05f389a1ee7","system_id":"levelo_inurba_marseille","lat":43.27997,"lon":5.40028,"is_reserved":false,"is_disabled":false,"rental_uris":{"android":"levelo://app?vid=d4ffb101-314e-4834-9fe6-d05f389a1ee7","ios":"levelo://app?vid=d4ffb101-314e-4834-9fe6-d05f389a1ee7"},"vehicle_type_id":"4","last_reported":1740737438,"current_range_meters":9600,"station_id":"ce4bho92rcd13ifvqh4g","pricing_plan_id":"cebpf4jnsgd1na2vs0mg"},{"bike_id":"443370dd-f8b8-457a-b6f8-389b804ff6fc","system_id":"levelo_inurba_marseille","lat":43.32376,"lon":5.38904,"is_reserved":false,"is_disabled":false,"rental_uris":{"android":"levelo://app?vid=443370dd-f8b8-457a-b6f8-389b804ff6fc","ios":"levelo://app?vid=443370dd-f8b8-457a-b6f8-389b804ff6fc"},"vehicle_type_id":"4","last_reported":1740737438,"current_range_meters":9600,"station_id":"ce4bhqp2rcd13ifvqhog","pricing_plan_id":"cebpf4jnsgd1na2vs0mg"},{"bike_id":"d02aabfa-cf11-4e8c-afae-e75fbab4027c","system_id":"levelo_inurba_marseille","lat":43.32489,"lon":5.36578,"is_reserved":false,"is_disabled":false,"rental_uris":{"android":"levelo://app?vid=d02aabfa-cf11-4e8c-afae-e75fbab4027c","ios":"levelo://app?vid=d02aabfa-cf11-4e8c-afae-e75fbab4027c"},"vehicle_type_id":"4","last_reported":1740737438,"current_range_meters":9600,"station_id":"ce4bhs12rcd13ifvqhvg","pricing_plan_id":"cebpf4jnsgd1na2vs0mg"},{"bike_id":"3de9aeda-1f9a-4bbc-8b90-e02a49e56ca9","system_id":"levelo_inurba_marseille","lat":43.23202,"lon":5.35561,"is_reserved":false,"is_disabled":false,"rental_uris":{"android":"levelo://app?vid=3de9aeda-1f9a-4bbc-8b90-e02a49e56ca9","ios":"levelo://app?vid=3de9aeda-1f9a-4bbc-8b90-e02a49e56ca9"},"vehicle_type_id":"4","last_reported":1740737438,"current_range_meters":9600,"station_id":"ce4bhu92rcd13ifvqi70","pricing_plan_id":"cebpf4jnsgd1na2vs0mg"},{"bike_id":"06b91644-fcc8-46ff-8717-fd99f2ee51d4","system_id":"levelo_inurba_marseille","lat":43.30904,"lon":5.368527,"is_reserved":false,"is_disabled":false,"rental_uris":{"android":"levelo://app?vid=06b91644-fcc8-46ff-8717-fd99f2ee51d4","ios":"levelo://app?vid=06b91644-fcc8-46ff-8717-fd99f2ee51d4"},"vehicle_type_id":"4","last_reported":1740737438,"current_range_meters":10000,"station_id":"ce4bgn92rcd13ifvqbvg","pricing_plan_id":"cebpf4jnsgd1na2vs0mg"},{"bike_id":"10b6c0d0-a3ef-460e-ad30-22fe050ad6b8","system_id":"levelo_inurba_marseille","lat":43.28843,"lon":5.35888,"is_reserved":false,"is_disabled":false,"rental_uris":{"android":"levelo://app?vid=10b6c0d0-a3ef-460e-ad30-22fe050ad6b8","ios":"levelo://app?vid=10b6c0d0-a3ef-460e-ad30-22fe050ad6b8"},"vehicle_type_id":"4","last_reported":1740737438,"current_range_meters":10000,"station_id":"ce4bhb12rcd13ifvqem0","pricing_plan_id":"cebpf4jnsgd1na2vs0mg"},{"bike_id":"d44aff42-db74-4efa-b79a-cfbd376d9c40","system_id":"levelo_inurba_marseille","lat":43.28955,"lon":5.36401,"is_reserved":false,"is_disabled":false,"rental_uris":{"android":"levelo://app?vid=d44aff42-db74-4efa-b79a-cfbd376d9c40","ios":"levelo://app?vid=d44aff42-db74-4efa-b79a-cfbd376d9c40"},"vehicle_type_id":"4","last_reported":1740737438,"current_range_meters":10000,"station_id":"ce4bhc92rcd13ifvqetg","pricing_plan_id":"cebpf4jnsgd1na2vs0mg"},{"bike_id":"d9beabb6-dba7-4c4c-9e4f-8872c9da5ab8","system_id":"levelo_inurba_marseille","lat":43.24655,"lon":5.3816,"is_reserved":false,"is_disabled":false,"rental_uris":{"android":"levelo://app?vid=d9beabb6-dba7-4c4c-9e4f-8872c9da5ab8","ios":"levelo://app?vid=d9beabb6-dba7-4c4c-9e4f-8872c9da5ab8"},"vehicle_type_id":"4","last_reported":1740737438,"current_range_meters":10000,"station_id":"ce4bhih2rcd13ifvqfr0","pricing_plan_id":"cebpf4jnsgd1na2vs0mg"},{"bike_id":"1393e48a-5096-48c2-8ef4-ef737b7b43ae","system_id":"levelo_inurba_marseille","lat":43.25088,"lon":5.39545,"is_reserved":false,"is_disabled":false,"rental_uris":{"android":"levelo://app?vid=1393e48a-5096-48c2-8ef4-ef737b7b43ae","ios":"levelo://app?vid=1393e48a-5096-48c2-8ef4-ef737b7b43ae"},"vehicle_type_id":"4","last_reported":1740737438,"current_range_meters":10000,"station_id":"ce4bhm12rcd13ifvqgkg","pricing_plan_id":"cebpf4jnsgd1na2vs0mg"},{"bike_id":"ec1f783c-be23-4e0c-a94d-c10615e50f5d","system_id":"levelo_inurba_marseille","lat":43.28151,"lon":5.42649,"is_reserved":false,"is_disabled":false,"rental_uris":{"android":"levelo://app?vid=ec1f783c-be23-4e0c-a94d-c10615e50f5d","ios":"levelo://app?vid=ec1f783c-be23-4e0c-a94d-c10615e50f5d"},"vehicle_type_id":"4","last_reported":1740737438,"current_range_meters":10000,"station_id":"ce4bhnh2rcd13ifvqgug","pricing_plan_id":"cebpf4jnsgd1na2vs0mg"},{"bike_id":"5328b99e-3cec-4b51-8318-f63d837595ca","system_id":"levelo_inurba_marseille","lat":43.31479,"lon":5.37304,"is_reserved":false,"is_disabled":false,"rental_uris":{"android":"levelo://app?vid=5328b99e-3cec-4b51-8318-f63d837595ca","ios":"levelo://app?vid=5328b99e-3cec-4b51-8318-f63d837595ca"},"vehicle_type_id":"4","last_reported":1740737438,"current_range_meters":10800,"station_id":"ce4bgt12rcd13ifvqcd0","pricing_plan_id":"cebpf4jnsgd1na2vs0mg"},{"bike_id":"9fe1686b-87f4-4090-857d-b2cad3d05448","system_id":"levelo_inurba_marseille","lat":43.25941,"lon":5.40894,"is_reserved":false,"is_disabled":false,"rental_uris":{"android":"levelo://app?vid=9fe1686b-87f4-4090-857d-b2cad3d05448","ios":"levelo://app?vid=9fe1686b-87f4-4090-857d-b2cad3d05448"},"vehicle_type_id":"4","last_reported":1740737438,"current_range_meters":10800,"station_id":"ce4bhm92rcd13ifvqglg","pricing_plan_id":"cebpf4jnsgd1na2vs0mg"},{"bike_id":"20d08730-d04f-482a-9ed2-1d3e29b92784","system_id":"levelo_inurba_marseille","lat":43.32359,"lon":5.38891,"is_reserved":false,"is_disabled":false,"rental_uris":{"android":"levelo://app?vid=20d08730-d04f-482a-9ed2-1d3e29b92784","ios":"levelo://app?vid=20d08730-d04f-482a-9ed2-1d3e29b92784"},"vehicle_type_id":"4","last_reported":1740737438,"current_range_meters":10800,"station_id":"ce4bhqp2rcd13ifvqhog","pricing_plan_id":"cebpf4jnsgd1na2vs0mg"},{"bike_id":"d4918d6a-5525-4be8-b0c4-7af64b54343d","system_id":"levelo_inurba_marseille","lat":43.24168,"lon":5.364,"is_reserved":false,"is_disabled":false,"rental_uris":{"android":"levelo://app?vid=d4918d6a-5525-4be8-b0c4-7af64b54343d","ios":"levelo://app?vid=d4918d6a-5525-4be8-b0c4-7af64b54343d"},"vehicle_type_id":"4","last_reported":1740737438,"current_range_meters":10800,"station_id":"cpo36qri1sfpv3e86is0","pricing_plan_id":"cebpf4jnsgd1na2vs0mg"},{"bike_id":"b92189b5-a527-4745-841f-5b7dc999b18d","system_id":"levelo_inurba_marseille","lat":43.29772,"lon":5.36639,"is_reserved":false,"is_disabled":false,"rental_uris":{"android":"levelo://app?vid=b92189b5-a527-4745-841f-5b7dc999b18d","ios":"levelo://app?vid=b92189b5-a527-4745-841f-5b7dc999b18d"},"vehicle_type_id":"4","last_reported":1740737438,"current_range_meters":11200,"station_id":"","pricing_plan_id":"cebpf4jnsgd1na2vs0mg"},{"bike_id":"71b5edc3-19d7-4d2f-ac8c-693ed6d48b71","system_id":"levelo_inurba_marseille","lat":43.28565,"lon":5.39503,"is_reserved":false,"is_disabled":false,"rental_uris":{"android":"levelo://app?vid=71b5edc3-19d7-4d2f-ac8c-693ed6d48b71","ios":"levelo://app?vid=71b5edc3-19d7-4d2f-ac8c-693ed6d48b71"},"vehicle_type_id":"4","last_reported":1740737438,"current_range_meters":11200,"station_id":"ce4bh292rcd13ifvqdg0","pricing_plan_id":"cebpf4jnsgd1na2vs0mg"},{"bike_id":"5b28cd77-a409-482f-8702-f764eef9151e","system_id":"levelo_inurba_marseille","lat":43.25921,"lon":5.409,"is_reserved":false,"is_disabled":false,"rental_uris":{"android":"levelo://app?vid=5b28cd77-a409-482f-8702-f764eef9151e","ios":"levelo://app?vid=5b28cd77-a409-482f-8702-f764eef9151e"},"vehicle_type_id":"4","last_reported":1740737438,"current_range_meters":11200,"station_id":"ce4bhm92rcd13ifvqglg","pricing_plan_id":"cebpf4jnsgd1na2vs0mg"},{"bike_id":"721a04ed-b000-4322-94d8-505662eb0074","system_id":"levelo_inurba_marseille","lat":43.25944,"lon":5.40893,"is_reserved":false,"is_disabled":false,"rental_uris":{"android":"levelo://app?vid=721a04ed-b000-4322-94d8-505662eb0074","ios":"levelo://app?vid=721a04ed-b000-4322-94d8-505662eb0074"},"vehicle_type_id":"4","last_reported":1740737438,"current_range_meters":11200,"station_id":"ce4bhm92rcd13ifvqglg","pricing_plan_id":"cebpf4jnsgd1na2vs0mg"},{"bike_id":"87adfc83-cc22-48dc-a30a-20fe3366ef4f","system_id":"levelo_inurba_marseille","lat":43.25918,"lon":5.40882,"is_reserved":false,"is_disabled":false,"rental_uris":{"android":"levelo://app?vid=87adfc83-cc22-48dc-a30a-20fe3366ef4f","ios":"levelo://app?vid=87adfc83-cc22-48dc-a30a-20fe3366ef4f"},"vehicle_type_id":"4","last_reported":1740737438,"current_range_meters":11200,"station_id":"ce4bhm92rcd13ifvqglg","pricing_plan_id":"cebpf4jnsgd1na2vs0mg"},{"bike_id":"94dc094b-e528-48cb-9927-c0d224136f8c","system_id":"levelo_inurba_marseille","lat":43.32473,"lon":5.36567,"is_reserved":false,"is_disabled":false,"rental_uris":{"android":"levelo://app?vid=94dc094b-e528-48cb-9927-c0d224136f8c","ios":"levelo://app?vid=94dc094b-e528-48cb-9927-c0d224136f8c"},"vehicle_type_id":"4","last_reported":1740737438,"current_range_meters":11200,"station_id":"ce4bhs12rcd13ifvqhvg","pricing_plan_id":"cebpf4jnsgd1na2vs0mg"},{"bike_id":"91413252-c710-4e82-a04a-8f27890fc7ef","system_id":"levelo_inurba_marseille","lat":43.309,"lon":5.37184,"is_reserved":false,"is_disabled":false,"rental_uris":{"android":"levelo://app?vid=91413252-c710-4e82-a04a-8f27890fc7ef","ios":"levelo://app?vid=91413252-c710-4e82-a04a-8f27890fc7ef"},"vehicle_type_id":"4","last_reported":1740737438,"current_range_meters":11600,"station_id":"ce4bguh2rcd13ifvqckg","pricing_plan_id":"cebpf4jnsgd1na2vs0mg"},{"bike_id":"52d182f1-5b35-456e-b120-700ad9b9c06b","system_id":"levelo_inurba_marseille","lat":43.24997,"lon":5.3893,"is_reserved":false,"is_disabled":false,"rental_uris":{"android":"levelo://app?vid=52d182f1-5b35-456e-b120-700ad9b9c06b","ios":"levelo://app?vid=52d182f1-5b35-456e-b120-700ad9b9c06b"},"vehicle_type_id":"4","last_reported":1740737438,"current_range_meters":11600,"station_id":"ce4bhgp2rcd13ifvqfd0","pricing_plan_id":"cebpf4jnsgd1na2vs0mg"},{"bike_id":"2a15582d-8ec7-4491-b977-3b2a0c07f0d5","system_id":"levelo_inurba_marseille","lat":43.26941,"lon":5.38643,"is_reserved":false,"is_disabled":false,"rental_uris":{"android":"levelo://app?vid=2a15582d-8ec7-4491-b977-3b2a0c07f0d5","ios":"levelo://app?vid=2a15582d-8ec7-4491-b977-3b2a0c07f0d5"},"vehicle_type_id":"4","last_reported":1740737438,"current_range_meters":11600,"station_id":"ce4bhh92rcd13ifvqfh0","pricing_plan_id":"cebpf4jnsgd1na2vs0mg"},{"bike_id":"199d096e-ca37-47f9-963f-1f0656cac9e4","system_id":"levelo_inurba_marseille","lat":43.258269,"lon":5.394361,"is_reserved":false,"is_disabled":false,"rental_uris":{"android":"levelo://app?vid=199d096e-ca37-47f9-963f-1f0656cac9e4","ios":"levelo://app?vid=199d096e-ca37-47f9-963f-1f0656cac9e4"},"vehicle_type_id":"4","last_reported":1740737438,"current_range_meters":11600,"station_id":"ce4bhip2rcd13ifvqft0","pricing_plan_id":"cebpf4jnsgd1na2vs0mg"},{"bike_id":"4f27def9-9f4b-46d5-98cd-ff33f940bcfa","system_id":"levelo_inurba_marseille","lat":43.26944,"lon":5.38662,"is_reserved":false,"is_disabled":false,"rental_uris":{"android":"levelo://app?vid=4f27def9-9f4b-46d5-98cd-ff33f940bcfa","ios":"levelo://app?vid=4f27def9-9f4b-46d5-98cd-ff33f940bcfa"},"vehicle_type_id":"4","last_reported":1740737438,"current_range_meters":12000,"station_id":"ce4bhh92rcd13ifvqfh0","pricing_plan_id":"cebpf4jnsgd1na2vs0mg"},{"bike_id":"52395f35-3ccc-443a-8aa5-6e1f44ad2cbd","system_id":"levelo_inurba_marseille","lat":43.31368,"lon":5.36736,"is_reserved":false,"is_disabled":false,"rental_uris":{"android":"levelo://app?vid=52395f35-3ccc-443a-8aa5-6e1f44ad2cbd","ios":"levelo://app?vid=52395f35-3ccc-443a-8aa5-6e1f44ad2cbd"},"vehicle_type_id":"4","last_reported":1740737438,"current_range_meters":12400,"station_id":"ce4bgr92rcd13ifvqc6g","pricing_plan_id":"cebpf4jnsgd1na2vs0mg"},{"bike_id":"477e7770-5906-4cdc-a047-08af60219101","system_id":"levelo_inurba_marseille","lat":43.30552,"lon":5.36709,"is_reserved":false,"is_disabled":false,"rental_uris":{"android":"levelo://app?vid=477e7770-5906-4cdc-a047-08af60219101","ios":"levelo://app?vid=477e7770-5906-4cdc-a047-08af60219101"},"vehicle_type_id":"4","last_reported":1740737438,"current_range_meters":12400,"station_id":"ce4bgrp2rcd13ifvqc9g","pricing_plan_id":"cebpf4jnsgd1na2vs0mg"},{"bike_id":"d3417ad8-1053-411e-9fd0-17fbeb0601e9","system_id":"levelo_inurba_marseille","lat":43.30463,"lon":5.37907,"is_reserved":false,"is_disabled":false,"rental_uris":{"android":"levelo://app?vid=d3417ad8-1053-411e-9fd0-17fbeb0601e9","ios":"levelo://app?vid=d3417ad8-1053-411e-9fd0-17fbeb0601e9"},"vehicle_type_id":"4","last_reported":1740737438,"current_range_meters":12400,"station_id":"ce4bgup2rcd13ifvqcn0","pricing_plan_id":"cebpf4jnsgd1na2vs0mg"},{"bike_id":"3843a9fd-e523-466a-9af4-b58742723dc6","system_id":"levelo_inurba_marseille","lat":43.337444,"lon":5.374475,"is_reserved":false,"is_disabled":false,"rental_uris":{"android":"levelo://app?vid=3843a9fd-e523-466a-9af4-b58742723dc6","ios":"levelo://app?vid=3843a9fd-e523-466a-9af4-b58742723dc6"},"vehicle_type_id":"4","last_reported":1740737438,"current_range_meters":12400,"station_id":"ce4bh092rcd13ifvqd20","pricing_plan_id":"cebpf4jnsgd1na2vs0mg"},{"bike_id":"e413a3d8-d20b-47ac-a382-8caa262e95b3","system_id":"levelo_inurba_marseille","lat":43.2836,"lon":5.38107,"is_reserved":false,"is_disabled":false,"rental_uris":{"android":"levelo://app?vid=e413a3d8-d20b-47ac-a382-8caa262e95b3","ios":"levelo://app?vid=e413a3d8-d20b-47ac-a382-8caa262e95b3"},"vehicle_type_id":"4","last_reported":1740737438,"current_range_meters":12400,"station_id":"ce4bh412rcd13ifvqdr0","pricing_plan_id":"cebpf4jnsgd1na2vs0mg"},{"bike_id":"43d6aa6f-20c7-4a1b-bcb8-31b660876567","system_id":"levelo_inurba_marseille","lat":43.26552,"lon":5.37285,"is_reserved":false,"is_disabled":false,"rental_uris":{"android":"levelo://app?vid=43d6aa6f-20c7-4a1b-bcb8-31b660876567","ios":"levelo://app?vid=43d6aa6f-20c7-4a1b-bcb8-31b660876567"},"vehicle_type_id":"4","last_reported":1740737438,"current_range_meters":12400,"station_id":"ce4bhg12rcd13ifvqf70","pricing_plan_id":"cebpf4jnsgd1na2vs0mg"},{"bike_id":"3f5e4c77-943b-4a46-b257-614bf13afec4","system_id":"levelo_inurba_marseille","lat":43.24158,"lon":5.3642,"is_reserved":false,"is_disabled":false,"rental_uris":{"android":"levelo://app?vid=3f5e4c77-943b-4a46-b257-614bf13afec4","ios":"levelo://app?vid=3f5e4c77-943b-4a46-b257-614bf13afec4"},"vehicle_type_id":"4","last_reported":1740737438,"current_range_meters":12400,"station_id":"cpo36qri1sfpv3e86is0","pricing_plan_id":"cebpf4jnsgd1na2vs0mg"},{"bike_id":"727d560b-02da-47e4-b634-bf70468d1d85","system_id":"levelo_inurba_marseille","lat":43.292945,"lon":5.379688,"is_reserved":false,"is_disabled":false,"rental_uris":{"android":"levelo://app?vid=727d560b-02da-47e4-b634-bf70468d1d85","ios":"levelo://app?vid=727d560b-02da-47e4-b634-bf70468d1d85"},"vehicle_type_id":"4","last_reported":1740737438,"current_range_meters":12800,"station_id":"ce4bgjh2rcd13ifvqbf0","pricing_plan_id":"cebpf4jnsgd1na2vs0mg"},{"bike_id":"75056578-45c9-4994-ade1-d5f831772229","system_id":"levelo_inurba_marseille","lat":43.29848,"lon":5.36284,"is_reserved":false,"is_disabled":false,"rental_uris":{"android":"levelo://app?vid=75056578-45c9-4994-ade1-d5f831772229","ios":"levelo://app?vid=75056578-45c9-4994-ade1-d5f831772229"},"vehicle_type_id":"4","last_reported":1740737438,"current_range_meters":12800,"station_id":"ce4bgpp2rcd13ifvqc3g","pricing_plan_id":"cebpf4jnsgd1na2vs0mg"},{"bike_id":"87fe6483-00f7-487d-9f5e-9f60ea7842c3","system_id":"levelo_inurba_marseille","lat":43.24079,"lon":5.37763,"is_reserved":false,"is_disabled":false,"rental_uris":{"android":"levelo://app?vid=87fe6483-00f7-487d-9f5e-9f60ea7842c3","ios":"levelo://app?vid=87fe6483-00f7-487d-9f5e-9f60ea7842c3"},"vehicle_type_id":"4","last_reported":1740737438,"current_range_meters":12800,"station_id":"ce4bhnp2rcd13ifvqgvg","pricing_plan_id":"cebpf4jnsgd1na2vs0mg"},{"bike_id":"7d54b79d-a80a-4fa9-a911-c9017b4c6924","system_id":"levelo_inurba_marseille","lat":43.33611,"lon":5.41027,"is_reserved":false,"is_disabled":false,"rental_uris":{"android":"levelo://app?vid=7d54b79d-a80a-4fa9-a911-c9017b4c6924","ios":"levelo://app?vid=7d54b79d-a80a-4fa9-a911-c9017b4c6924"},"vehicle_type_id":"4","last_reported":1740737438,"current_range_meters":12800,"station_id":"ce4bhqh2rcd13ifvqhmg","pricing_plan_id":"cebpf4jnsgd1na2vs0mg"},{"bike_id":"6347f10e-ca9b-4da9-baa3-a34e7eafe9d3","system_id":"levelo_inurba_marseille","lat":43.29712,"lon":5.3661,"is_reserved":false,"is_disabled":false,"rental_uris":{"android":"levelo://app?vid=6347f10e-ca9b-4da9-baa3-a34e7eafe9d3","ios":"levelo://app?vid=6347f10e-ca9b-4da9-baa3-a34e7eafe9d3"},"vehicle_type_id":"4","last_reported":1740737438,"current_range_meters":13600,"station_id":"ce4bgn12rcd13ifvqbt0","pricing_plan_id":"cebpf4jnsgd1na2vs0mg"},{"bike_id":"0f230bfe-9843-4974-9c7c-8f83fa108ea9","system_id":"levelo_inurba_marseille","lat":43.31323,"lon":5.39698,"is_reserved":false,"is_disabled":false,"rental_uris":{"android":"levelo://app?vid=0f230bfe-9843-4974-9c7c-8f83fa108ea9","ios":"levelo://app?vid=0f230bfe-9843-4974-9c7c-8f83fa108ea9"},"vehicle_type_id":"4","last_reported":1740737438,"current_range_meters":13600,"station_id":"ce4bgvp2rcd13ifvqcu0","pricing_plan_id":"cebpf4jnsgd1na2vs0mg"},{"bike_id":"b623d69d-f51d-475a-beb3-7245eec646b6","system_id":"levelo_inurba_marseille","lat":43.28933,"lon":5.36401,"is_reserved":false,"is_disabled":false,"rental_uris":{"android":"levelo://app?vid=b623d69d-f51d-475a-beb3-7245eec646b6","ios":"levelo://app?vid=b623d69d-f51d-475a-beb3-7245eec646b6"},"vehicle_type_id":"4","last_reported":1740737438,"current_range_meters":13600,"station_id":"ce4bhc92rcd13ifvqetg","pricing_plan_id":"cebpf4jnsgd1na2vs0mg"},{"bike_id":"fd7b97d5-5d34-41e5-834d-8332a41b4f24","system_id":"levelo_inurba_marseille","lat":43.26213,"lon":5.37438,"is_reserved":false,"is_disabled":false,"rental_uris":{"android":"levelo://app?vid=fd7b97d5-5d34-41e5-834d-8332a41b4f24","ios":"levelo://app?vid=fd7b97d5-5d34-41e5-834d-8332a41b4f24"},"vehicle_type_id":"4","last_reported":1740737438,"current_range_meters":13600,"station_id":"ce4bhgp2rcd13ifvqfc0","pricing_plan_id":"cebpf4jnsgd1na2vs0mg"},{"bike_id":"90f1c76e-c259-42e7-81b4-119a5dd8f854","system_id":"levelo_inurba_marseille","lat":43.25936,"lon":5.40903,"is_reserved":false,"is_disabled":false,"rental_uris":{"android":"levelo://app?vid=90f1c76e-c259-42e7-81b4-119a5dd8f854","ios":"levelo://app?vid=90f1c76e-c259-42e7-81b4-119a5dd8f854"},"vehicle_type_id":"4","last_reported":1740737438,"current_range_meters":13600,"station_id":"ce4bhm92rcd13ifvqglg","pricing_plan_id":"cebpf4jnsgd1na2vs0mg"},{"bike_id":"73054380-c047-46f0-aa7c-0ba092f2ca89","system_id":"levelo_inurba_marseille","lat":43.30299,"lon":5.36866,"is_reserved":false,"is_disabled":false,"rental_uris":{"android":"levelo://app?vid=73054380-c047-46f0-aa7c-0ba092f2ca89","ios":"levelo://app?vid=73054380-c047-46f0-aa7c-0ba092f2ca89"},"vehicle_type_id":"4","last_reported":1740737438,"current_range_meters":14000,"station_id":"ce4bgqh2rcd13ifvqc5g","pricing_plan_id":"cebpf4jnsgd1na2vs0mg"},{"bike_id":"2602da93-8f43-46a2-926b-271924695a66","system_id":"levelo_inurba_marseille","lat":43.30954,"lon":5.39032,"is_reserved":false,"is_disabled":false,"rental_uris":{"android":"levelo://app?vid=2602da93-8f43-46a2-926b-271924695a66","ios":"levelo://app?vid=2602da93-8f43-46a2-926b-271924695a66"},"vehicle_type_id":"4","last_reported":1740737438,"current_range_meters":14000,"station_id":"ce4bgup2rcd13ifvqco0","pricing_plan_id":"cebpf4jnsgd1na2vs0mg"},{"bike_id":"886c8b2e-9b54-4c83-bdb1-e4595dfe38c4","system_id":"levelo_inurba_marseille","lat":43.29161,"lon":5.37152,"is_reserved":false,"is_disabled":false,"rental_uris":{"android":"levelo://app?vid=886c8b2e-9b54-4c83-bdb1-e4595dfe38c4","ios":"levelo://app?vid=886c8b2e-9b54-4c83-bdb1-e4595dfe38c4"},"vehicle_type_id":"4","last_reported":1740737438,"current_range_meters":14000,"station_id":"ce4bha92rcd13ifvqeh0","pricing_plan_id":"cebpf4jnsgd1na2vs0mg"},{"bike_id":"7f460228-eaa7-4070-8c4f-3c84b0229773","system_id":"levelo_inurba_marseille","lat":43.25574,"lon":5.38246,"is_reserved":false,"is_disabled":false,"rental_uris":{"android":"levelo://app?vid=7f460228-eaa7-4070-8c4f-3c84b0229773","ios":"levelo://app?vid=7f460228-eaa7-4070-8c4f-3c84b0229773"},"vehicle_type_id":"4","last_reported":1740737438,"current_range_meters":14000,"station_id":"ce4bhih2rcd13ifvqfs0","pricing_plan_id":"cebpf4jnsgd1na2vs0mg"},{"bike_id":"fde9784a-1db5-483a-850f-1d9e4b4a7afd","system_id":"levelo_inurba_marseille","lat":43.25938,"lon":5.4091,"is_reserved":false,"is_disabled":false,"rental_uris":{"android":"levelo://app?vid=fde9784a-1db5-483a-850f-1d9e4b4a7afd","ios":"levelo://app?vid=fde9784a-1db5-483a-850f-1d9e4b4a7afd"},"vehicle_type_id":"4","last_reported":1740737438,"current_range_meters":14000,"station_id":"ce4bhm92rcd13ifvqglg","pricing_plan_id":"cebpf4jnsgd1na2vs0mg"},{"bike_id":"961073dd-4f2c-479d-a0c2-a990ebb610fe","system_id":"levelo_inurba_marseille","lat":43.28153,"lon":5.42641,"is_reserved":false,"is_disabled":false,"rental_uris":{"android":"levelo://app?vid=961073dd-4f2c-479d-a0c2-a990ebb610fe","ios":"levelo://app?vid=961073dd-4f2c-479d-a0c2-a990ebb610fe"},"vehicle_type_id":"4","last_reported":1740737438,"current_range_meters":14000,"station_id":"ce4bhnh2rcd13ifvqgug","pricing_plan_id":"cebpf4jnsgd1na2vs0mg"},{"bike_id":"f5fe4361-1d3d-4314-a7e8-95ca49fcf6f9","system_id":"levelo_inurba_marseille","lat":43.29907,"lon":5.38035,"is_reserved":false,"is_disabled":false,"rental_uris":{"android":"levelo://app?vid=f5fe4361-1d3d-4314-a7e8-95ca49fcf6f9","ios":"levelo://app?vid=f5fe4361-1d3d-4314-a7e8-95ca49fcf6f9"},"vehicle_type_id":"4","last_reported":1740737438,"current_range_meters":14400,"station_id":"","pricing_plan_id":"cebpf4jnsgd1na2vs0mg"},{"bike_id":"7530a028-687c-44db-bbdb-6e3fe3b9b1e1","system_id":"levelo_inurba_marseille","lat":43.30908,"lon":5.36866,"is_reserved":false,"is_disabled":false,"rental_uris":{"android":"levelo://app?vid=7530a028-687c-44db-bbdb-6e3fe3b9b1e1","ios":"levelo://app?vid=7530a028-687c-44db-bbdb-6e3fe3b9b1e1"},"vehicle_type_id":"4","last_reported":1740737438,"current_range_meters":14400,"station_id":"ce4bgn92rcd13ifvqbvg","pricing_plan_id":"cebpf4jnsgd1na2vs0mg"},{"bike_id":"9248f586-6260-4e93-9d7b-538095306cca","system_id":"levelo_inurba_marseille","lat":43.29774,"lon":5.37107,"is_reserved":false,"is_disabled":false,"rental_uris":{"android":"levelo://app?vid=9248f586-6260-4e93-9d7b-538095306cca","ios":"levelo://app?vid=9248f586-6260-4e93-9d7b-538095306cca"},"vehicle_type_id":"4","last_reported":1740737438,"current_range_meters":14400,"station_id":"ce4bgop2rcd13ifvqc1g","pricing_plan_id":"cebpf4jnsgd1na2vs0mg"},{"bike_id":"aede6909-046f-4b5b-865f-97ba581eb352","system_id":"levelo_inurba_marseille","lat":43.29028,"lon":5.39986,"is_reserved":false,"is_disabled":false,"rental_uris":{"android":"levelo://app?vid=aede6909-046f-4b5b-865f-97ba581eb352","ios":"levelo://app?vid=aede6909-046f-4b5b-865f-97ba581eb352"},"vehicle_type_id":"4","last_reported":1740737438,"current_range_meters":14400,"station_id":"ce4bh392rcd13ifvqdm0","pricing_plan_id":"cebpf4jnsgd1na2vs0mg"},{"bike_id":"0ca3762a-72de-42a2-b6ac-f14be1a9578b","system_id":"levelo_inurba_marseille","lat":43.25941,"lon":5.40891,"is_reserved":false,"is_disabled":false,"rental_uris":{"android":"levelo://app?vid=0ca3762a-72de-42a2-b6ac-f14be1a9578b","ios":"levelo://app?vid=0ca3762a-72de-42a2-b6ac-f14be1a9578b"},"vehicle_type_id":"4","last_reported":1740737438,"current_range_meters":14400,"station_id":"ce4bhm92rcd13ifvqglg","pricing_plan_id":"cebpf4jnsgd1na2vs0mg"},{"bike_id":"d593aa35-3fe9-4582-bd4f-2cfbcdc8b01b","system_id":"levelo_inurba_marseille","lat":43.28219,"lon":5.35084,"is_reserved":false,"is_disabled":false,"rental_uris":{"android":"levelo://app?vid=d593aa35-3fe9-4582-bd4f-2cfbcdc8b01b","ios":"levelo://app?vid=d593aa35-3fe9-4582-bd4f-2cfbcdc8b01b"},"vehicle_type_id":"4","last_reported":1740737438,"current_range_meters":14400,"station_id":"ce4bhn12rcd13ifvqgqg","pricing_plan_id":"cebpf4jnsgd1na2vs0mg"},{"bike_id":"382d557d-8024-4f45-8140-482a40d06b19","system_id":"levelo_inurba_marseille","lat":43.27816,"lon":5.40685,"is_reserved":false,"is_disabled":false,"rental_uris":{"android":"levelo://app?vid=382d557d-8024-4f45-8140-482a40d06b19","ios":"levelo://app?vid=382d557d-8024-4f45-8140-482a40d06b19"},"vehicle_type_id":"4","last_reported":1740737438,"current_range_meters":14400,"station_id":"ce4bhnh2rcd13ifvqgtg","pricing_plan_id":"cebpf4jnsgd1na2vs0mg"},{"bike_id":"593edb3c-7add-4a3d-9dbe-95cef549de0d","system_id":"levelo_inurba_marseille","lat":43.23063,"lon":5.35488,"is_reserved":false,"is_disabled":false,"rental_uris":{"android":"levelo://app?vid=593edb3c-7add-4a3d-9dbe-95cef549de0d","ios":"levelo://app?vid=593edb3c-7add-4a3d-9dbe-95cef549de0d"},"vehicle_type_id":"4","last_reported":1740737438,"current_range_meters":14400,"station_id":"cpo3342slgdg3j2ifvpg","pricing_plan_id":"cebpf4jnsgd1na2vs0mg"},{"bike_id":"38e9a6d3-d8c0-4562-9933-b3880baf5fdf","system_id":"levelo_inurba_marseille","lat":43.309466,"lon":5.390208,"is_reserved":false,"is_disabled":false,"rental_uris":{"android":"levelo://app?vid=38e9a6d3-d8c0-4562-9933-b3880baf5fdf","ios":"levelo://app?vid=38e9a6d3-d8c0-4562-9933-b3880baf5fdf"},"vehicle_type_id":"4","last_reported":1740737438,"current_range_meters":14800,"station_id":"ce4bgj92rcd13ifvqbd0","pricing_plan_id":"cebpf4jnsgd1na2vs0mg"},{"bike_id":"95c36b9f-c0dc-4743-825e-a26946ea78f8","system_id":"levelo_inurba_marseille","lat":43.308879,"lon":5.371958,"is_reserved":false,"is_disabled":false,"rental_uris":{"android":"levelo://app?vid=95c36b9f-c0dc-4743-825e-a26946ea78f8","ios":"levelo://app?vid=95c36b9f-c0dc-4743-825e-a26946ea78f8"},"vehicle_type_id":"4","last_reported":1740737438,"current_range_meters":14800,"station_id":"ce4bguh2rcd13ifvqckg","pricing_plan_id":"cebpf4jnsgd1na2vs0mg"},{"bike_id":"802dca36-2daf-4c4d-b468-afe28f33031f","system_id":"levelo_inurba_marseille","lat":43.29063,"lon":5.37034,"is_reserved":false,"is_disabled":false,"rental_uris":{"android":"levelo://app?vid=802dca36-2daf-4c4d-b468-afe28f33031f","ios":"levelo://app?vid=802dca36-2daf-4c4d-b468-afe28f33031f"},"vehicle_type_id":"4","last_reported":1740737438,"current_range_meters":14800,"station_id":"ce4bh5p2rcd13ifvqe4g","pricing_plan_id":"cebpf4jnsgd1na2vs0mg"},{"bike_id":"62a0937b-1862-4979-829a-82d8bed43537","system_id":"levelo_inurba_marseille","lat":43.270126,"lon":5.387186,"is_reserved":false,"is_disabled":false,"rental_uris":{"android":"levelo://app?vid=62a0937b-1862-4979-829a-82d8bed43537","ios":"levelo://app?vid=62a0937b-1862-4979-829a-82d8bed43537"},"vehicle_type_id":"4","last_reported":1740737438,"current_range_meters":15200,"station_id":"ce4bhb12rcd13ifvqel0","pricing_plan_id":"cebpf4jnsgd1na2vs0mg"},{"bike_id":"90bb0657-8dd1-4b3e-85eb-0ff57d024ae5","system_id":"levelo_inurba_marseille","lat":43.23153,"lon":5.43711,"is_reserved":false,"is_disabled":false,"rental_uris":{"android":"levelo://app?vid=90bb0657-8dd1-4b3e-85eb-0ff57d024ae5","ios":"levelo://app?vid=90bb0657-8dd1-4b3e-85eb-0ff57d024ae5"},"vehicle_type_id":"4","last_reported":1740737438,"current_range_meters":15200,"station_id":"ce4bhmp2rcd13ifvqgog","pricing_plan_id":"cebpf4jnsgd1na2vs0mg"},{"bike_id":"364b209e-752e-45ea-b26c-06b2552c1833","system_id":"levelo_inurba_marseille","lat":43.23191,"lon":5.35566,"is_reserved":false,"is_disabled":false,"rental_uris":{"android":"levelo://app?vid=364b209e-752e-45ea-b26c-06b2552c1833","ios":"levelo://app?vid=364b209e-752e-45ea-b26c-06b2552c1833"},"vehicle_type_id":"4","last_reported":1740737438,"current_range_meters":15200,"station_id":"ce4bhu92rcd13ifvqi70","pricing_plan_id":"cebpf4jnsgd1na2vs0mg"},{"bike_id":"22b5d680-2f4f-4b29-9786-c72d42c3fe5d","system_id":"levelo_inurba_marseille","lat":43.27321,"lon":5.39137,"is_reserved":false,"is_disabled":false,"rental_uris":{"android":"levelo://app?vid=22b5d680-2f4f-4b29-9786-c72d42c3fe5d","ios":"levelo://app?vid=22b5d680-2f4f-4b29-9786-c72d42c3fe5d"},"vehicle_type_id":"4","last_reported":1740737438,"current_range_meters":16000,"station_id":"","pricing_plan_id":"cebpf4jnsgd1na2vs0mg"},{"bike_id":"6efc8275-ffc8-4f10-bbf2-20ae75df181c","system_id":"levelo_inurba_marseille","lat":43.31362,"lon":5.3673,"is_reserved":false,"is_disabled":false,"rental_uris":{"android":"levelo://app?vid=6efc8275-ffc8-4f10-bbf2-20ae75df181c","ios":"levelo://app?vid=6efc8275-ffc8-4f10-bbf2-20ae75df181c"},"vehicle_type_id":"4","last_reported":1740737438,"current_range_meters":16000,"station_id":"ce4bgr92rcd13ifvqc6g","pricing_plan_id":"cebpf4jnsgd1na2vs0mg"},{"bike_id":"2dd0b1c3-027e-4495-9e06-3cacc0e371ef","system_id":"levelo_inurba_marseille","lat":43.30266,"lon":5.37711,"is_reserved":false,"is_disabled":false,"rental_uris":{"android":"levelo://app?vid=2dd0b1c3-027e-4495-9e06-3cacc0e371ef","ios":"levelo://app?vid=2dd0b1c3-027e-4495-9e06-3cacc0e371ef"},"vehicle_type_id":"4","last_reported":1740737438,"current_range_meters":16000,"station_id":"ce4bguh2rcd13ifvqcj0","pricing_plan_id":"cebpf4jnsgd1na2vs0mg"},{"bike_id":"b8d2ed8a-cb26-41aa-9f22-da7e31fe5ef5","system_id":"levelo_inurba_marseille","lat":43.30947,"lon":5.39039,"is_reserved":false,"is_disabled":false,"rental_uris":{"android":"levelo://app?vid=b8d2ed8a-cb26-41aa-9f22-da7e31fe5ef5","ios":"levelo://app?vid=b8d2ed8a-cb26-41aa-9f22-da7e31fe5ef5"},"vehicle_type_id":"4","last_reported":1740737438,"current_range_meters":16000,"station_id":"ce4bgup2rcd13ifvqco0","pricing_plan_id":"cebpf4jnsgd1na2vs0mg"},{"bike_id":"da43ed1e-8061-4b28-b6f9-e775c20c1d42","system_id":"levelo_inurba_marseille","lat":43.29243,"lon":5.40906,"is_reserved":false,"is_disabled":false,"rental_uris":{"android":"levelo://app?vid=da43ed1e-8061-4b28-b6f9-e775c20c1d42","ios":"levelo://app?vid=da43ed1e-8061-4b28-b6f9-e775c20c1d42"},"vehicle_type_id":"4","last_reported":1740737438,"current_range_meters":16000,"station_id":"ce4bh192rcd13ifvqdc0","pricing_plan_id":"cebpf4jnsgd1na2vs0mg"},{"bike_id":"fb7edafe-9eb8-467f-807a-074377bf1032","system_id":"levelo_inurba_marseille","lat":43.26685,"lon":5.38263,"is_reserved":false,"is_disabled":false,"rental_uris":{"android":"levelo://app?vid=fb7edafe-9eb8-467f-807a-074377bf1032","ios":"levelo://app?vid=fb7edafe-9eb8-467f-807a-074377bf1032"},"vehicle_type_id":"4","last_reported":1740737438,"current_range_meters":16000,"station_id":"ce4bhg92rcd13ifvqf90","pricing_plan_id":"cebpf4jnsgd1na2vs0mg"},{"bike_id":"b512e819-657e-4709-b725-ca7fe89e43e9","system_id":"levelo_inurba_marseille","lat":43.27309,"lon":5.39085,"is_reserved":false,"is_disabled":false,"rental_uris":{"android":"levelo://app?vid=b512e819-657e-4709-b725-ca7fe89e43e9","ios":"levelo://app?vid=b512e819-657e-4709-b725-ca7fe89e43e9"},"vehicle_type_id":"4","last_reported":1740737438,"current_range_meters":16000,"station_id":"ce4bhgp2rcd13ifvqfe0","pricing_plan_id":"cebpf4jnsgd1na2vs0mg"},{"bike_id":"437c2339-6ac1-42a7-b227-ddf64ec2bd27","system_id":"levelo_inurba_marseille","lat":43.27315,"lon":5.39099,"is_reserved":false,"is_disabled":false,"rental_uris":{"android":"levelo://app?vid=437c2339-6ac1-42a7-b227-ddf64ec2bd27","ios":"levelo://app?vid=437c2339-6ac1-42a7-b227-ddf64ec2bd27"},"vehicle_type_id":"4","last_reported":1740737438,"current_range_meters":16000,"station_id":"ce4bhgp2rcd13ifvqfe0","pricing_plan_id":"cebpf4jnsgd1na2vs0mg"},{"bike_id":"d79774a6-7426-41ac-b7c6-85789974d608","system_id":"levelo_inurba_marseille","lat":43.25578,"lon":5.38244,"is_reserved":false,"is_disabled":false,"rental_uris":{"android":"levelo://app?vid=d79774a6-7426-41ac-b7c6-85789974d608","ios":"levelo://app?vid=d79774a6-7426-41ac-b7c6-85789974d608"},"vehicle_type_id":"4","last_reported":1740737438,"current_range_meters":16000,"station_id":"ce4bhih2rcd13ifvqfs0","pricing_plan_id":"cebpf4jnsgd1na2vs0mg"},{"bike_id":"efebd4fb-7497-4fc0-8d7f-c628e3c00086","system_id":"levelo_inurba_marseille","lat":43.28005,"lon":5.40004,"is_reserved":false,"is_disabled":false,"rental_uris":{"android":"levelo://app?vid=efebd4fb-7497-4fc0-8d7f-c628e3c00086","ios":"levelo://app?vid=efebd4fb-7497-4fc0-8d7f-c628e3c00086"},"vehicle_type_id":"4","last_reported":1740737438,"current_range_meters":16000,"station_id":"ce4bho92rcd13ifvqh4g","pricing_plan_id":"cebpf4jnsgd1na2vs0mg"},{"bike_id":"e0059e85-689f-4876-9ca9-9b633f2187e9","system_id":"levelo_inurba_marseille","lat":43.29894,"lon":5.43669,"is_reserved":false,"is_disabled":false,"rental_uris":{"android":"levelo://app?vid=e0059e85-689f-4876-9ca9-9b633f2187e9","ios":"levelo://app?vid=e0059e85-689f-4876-9ca9-9b633f2187e9"},"vehicle_type_id":"4","last_reported":1740737438,"current_range_meters":16000,"station_id":"ce4bhpp2rcd13ifvqhfg","pricing_plan_id":"cebpf4jnsgd1na2vs0mg"},{"bike_id":"d257b5ba-96c4-4279-946f-62a99a9e9247","system_id":"levelo_inurba_marseille","lat":43.33615,"lon":5.41033,"is_reserved":false,"is_disabled":false,"rental_uris":{"android":"levelo://app?vid=d257b5ba-96c4-4279-946f-62a99a9e9247","ios":"levelo://app?vid=d257b5ba-96c4-4279-946f-62a99a9e9247"},"vehicle_type_id":"4","last_reported":1740737438,"current_range_meters":16000,"station_id":"ce4bhqh2rcd13ifvqhmg","pricing_plan_id":"cebpf4jnsgd1na2vs0mg"},{"bike_id":"49e9cdc7-76a5-4b66-ae2d-61c73beb73a8","system_id":"levelo_inurba_marseille","lat":43.24164,"lon":5.36416,"is_reserved":false,"is_disabled":false,"rental_uris":{"android":"levelo://app?vid=49e9cdc7-76a5-4b66-ae2d-61c73beb73a8","ios":"levelo://app?vid=49e9cdc7-76a5-4b66-ae2d-61c73beb73a8"},"vehicle_type_id":"4","last_reported":1740737438,"current_range_meters":16000,"station_id":"cpo36qri1sfpv3e86is0","pricing_plan_id":"cebpf4jnsgd1na2vs0mg"},{"bike_id":"5f86f781-91a2-4006-8875-4de632a23276","system_id":"levelo_inurba_marseille","lat":43.29928,"lon":5.36547,"is_reserved":false,"is_disabled":false,"rental_uris":{"android":"levelo://app?vid=5f86f781-91a2-4006-8875-4de632a23276","ios":"levelo://app?vid=5f86f781-91a2-4006-8875-4de632a23276"},"vehicle_type_id":"4","last_reported":1740737438,"current_range_meters":16400,"station_id":"ce4bgm92rcd13ifvqbr0","pricing_plan_id":"cebpf4jnsgd1na2vs0mg"},{"bike_id":"1c0182e9-feb5-427e-8d48-c29541a4605e","system_id":"levelo_inurba_marseille","lat":43.29014,"lon":5.38137,"is_reserved":false,"is_disabled":false,"rental_uris":{"android":"levelo://app?vid=1c0182e9-feb5-427e-8d48-c29541a4605e","ios":"levelo://app?vid=1c0182e9-feb5-427e-8d48-c29541a4605e"},"vehicle_type_id":"4","last_reported":1740737438,"current_range_meters":16400,"station_id":"ce4bh4p2rcd13ifvqe1g","pricing_plan_id":"cebpf4jnsgd1na2vs0mg"},{"bike_id":"e14b89e4-e594-48d5-8dbd-a72d8c597903","system_id":"levelo_inurba_marseille","lat":43.26217,"lon":5.37439,"is_reserved":false,"is_disabled":false,"rental_uris":{"android":"levelo://app?vid=e14b89e4-e594-48d5-8dbd-a72d8c597903","ios":"levelo://app?vid=e14b89e4-e594-48d5-8dbd-a72d8c597903"},"vehicle_type_id":"4","last_reported":1740737438,"current_range_meters":16400,"station_id":"ce4bhgp2rcd13ifvqfc0","pricing_plan_id":"cebpf4jnsgd1na2vs0mg"},{"bike_id":"8b119485-5dc4-49b7-8f69-d549bf55a7e9","system_id":"levelo_inurba_marseille","lat":43.25014,"lon":5.38923,"is_reserved":false,"is_disabled":false,"rental_uris":{"android":"levelo://app?vid=8b119485-5dc4-49b7-8f69-d549bf55a7e9","ios":"levelo://app?vid=8b119485-5dc4-49b7-8f69-d549bf55a7e9"},"vehicle_type_id":"4","last_reported":1740737438,"current_range_meters":16400,"station_id":"ce4bhgp2rcd13ifvqfd0","pricing_plan_id":"cebpf4jnsgd1na2vs0mg"},{"bike_id":"43325733-8d55-43ef-8031-5770fd7a1e76","system_id":"levelo_inurba_marseille","lat":43.27299,"lon":5.391,"is_reserved":false,"is_disabled":false,"rental_uris":{"android":"levelo://app?vid=43325733-8d55-43ef-8031-5770fd7a1e76","ios":"levelo://app?vid=43325733-8d55-43ef-8031-5770fd7a1e76"},"vehicle_type_id":"4","last_reported":1740737438,"current_range_meters":16400,"station_id":"ce4bhgp2rcd13ifvqfe0","pricing_plan_id":"cebpf4jnsgd1na2vs0mg"},{"bike_id":"a36f438d-41ea-4c6f-a7cf-dd49e3c39f61","system_id":"levelo_inurba_marseille","lat":43.24561,"lon":5.39522,"is_reserved":false,"is_disabled":false,"rental_uris":{"android":"levelo://app?vid=a36f438d-41ea-4c6f-a7cf-dd49e3c39f61","ios":"levelo://app?vid=a36f438d-41ea-4c6f-a7cf-dd49e3c39f61"},"vehicle_type_id":"4","last_reported":1740737438,"current_range_meters":16400,"station_id":"ce4bhlp2rcd13ifvqgjg","pricing_plan_id":"cebpf4jnsgd1na2vs0mg"},{"bike_id":"d011cae5-b8e3-481d-a886-2dfbc0c41915","system_id":"levelo_inurba_marseille","lat":43.33025,"lon":5.39038,"is_reserved":false,"is_disabled":false,"rental_uris":{"android":"levelo://app?vid=d011cae5-b8e3-481d-a886-2dfbc0c41915","ios":"levelo://app?vid=d011cae5-b8e3-481d-a886-2dfbc0c41915"},"vehicle_type_id":"4","last_reported":1740737438,"current_range_meters":16400,"station_id":"ce4bhr92rcd13ifvqhrg","pricing_plan_id":"cebpf4jnsgd1na2vs0mg"},{"bike_id":"c84f47e5-27b1-47a9-a2d2-ba104cc1f39a","system_id":"levelo_inurba_marseille","lat":43.3236,"lon":5.36756,"is_reserved":false,"is_disabled":false,"rental_uris":{"android":"levelo://app?vid=c84f47e5-27b1-47a9-a2d2-ba104cc1f39a","ios":"levelo://app?vid=c84f47e5-27b1-47a9-a2d2-ba104cc1f39a"},"vehicle_type_id":"4","last_reported":1740737438,"current_range_meters":16400,"station_id":"ce4bhsh2rcd13ifvqi2g","pricing_plan_id":"cebpf4jnsgd1na2vs0mg"},{"bike_id":"597c78d8-1097-48db-b3be-fafc8754eab9","system_id":"levelo_inurba_marseille","lat":43.24162,"lon":5.36405,"is_reserved":false,"is_disabled":false,"rental_uris":{"android":"levelo://app?vid=597c78d8-1097-48db-b3be-fafc8754eab9","ios":"levelo://app?vid=597c78d8-1097-48db-b3be-fafc8754eab9"},"vehicle_type_id":"4","last_reported":1740737438,"current_range_meters":16400,"station_id":"cpo36qri1sfpv3e86is0","pricing_plan_id":"cebpf4jnsgd1na2vs0mg"},{"bike_id":"57ec8465-c3c9-4132-bf64-41992c2bd7c6","system_id":"levelo_inurba_marseille","lat":43.312403,"lon":5.368881,"is_reserved":false,"is_disabled":false,"rental_uris":{"android":"levelo://app?vid=57ec8465-c3c9-4132-bf64-41992c2bd7c6","ios":"levelo://app?vid=57ec8465-c3c9-4132-bf64-41992c2bd7c6"},"vehicle_type_id":"4","last_reported":1740737438,"current_range_meters":16800,"station_id":"ce4bgl92rcd13ifvqbq0","pricing_plan_id":"cebpf4jnsgd1na2vs0mg"},{"bike_id":"c98ea86c-7c4c-4a1e-80b7-432a5e8772c7","system_id":"levelo_inurba_marseille","lat":43.30902,"lon":5.37203,"is_reserved":false,"is_disabled":false,"rental_uris":{"android":"levelo://app?vid=c98ea86c-7c4c-4a1e-80b7-432a5e8772c7","ios":"levelo://app?vid=c98ea86c-7c4c-4a1e-80b7-432a5e8772c7"},"vehicle_type_id":"4","last_reported":1740737438,"current_range_meters":16800,"station_id":"ce4bguh2rcd13ifvqckg","pricing_plan_id":"cebpf4jnsgd1na2vs0mg"},{"bike_id":"8e23b550-a01b-40c1-9fbf-add070c2a032","system_id":"levelo_inurba_marseille","lat":43.30156,"lon":5.3987,"is_reserved":false,"is_disabled":false,"rental_uris":{"android":"levelo://app?vid=8e23b550-a01b-40c1-9fbf-add070c2a032","ios":"levelo://app?vid=8e23b550-a01b-40c1-9fbf-add070c2a032"},"vehicle_type_id":"4","last_reported":1740737438,"current_range_meters":16800,"station_id":"ce4bh0h2rcd13ifvqd40","pricing_plan_id":"cebpf4jnsgd1na2vs0mg"},{"bike_id":"2c94aabd-26bb-48bd-93d6-5144b0cb7d45","system_id":"levelo_inurba_marseille","lat":43.28425,"lon":5.34987,"is_reserved":false,"is_disabled":false,"rental_uris":{"android":"levelo://app?vid=2c94aabd-26bb-48bd-93d6-5144b0cb7d45","ios":"levelo://app?vid=2c94aabd-26bb-48bd-93d6-5144b0cb7d45"},"vehicle_type_id":"4","last_reported":1740737438,"current_range_meters":16800,"station_id":"ce4bhbh2rcd13ifvqepg","pricing_plan_id":"cebpf4jnsgd1na2vs0mg"},{"bike_id":"691a4ab4-8447-4e67-a8f4-9d30738e14a2","system_id":"levelo_inurba_marseille","lat":43.28617,"lon":5.35107,"is_reserved":false,"is_disabled":false,"rental_uris":{"android":"levelo://app?vid=691a4ab4-8447-4e67-a8f4-9d30738e14a2","ios":"levelo://app?vid=691a4ab4-8447-4e67-a8f4-9d30738e14a2"},"vehicle_type_id":"4","last_reported":1740737438,"current_range_meters":16800,"station_id":"ce4bhch2rcd13ifvqeug","pricing_plan_id":"cebpf4jnsgd1na2vs0mg"},{"bike_id":"bc4cabf8-3998-4e9b-bc05-53c53ade7d63","system_id":"levelo_inurba_marseille","lat":43.24808,"lon":5.37455,"is_reserved":false,"is_disabled":false,"rental_uris":{"android":"levelo://app?vid=bc4cabf8-3998-4e9b-bc05-53c53ade7d63","ios":"levelo://app?vid=bc4cabf8-3998-4e9b-bc05-53c53ade7d63"},"vehicle_type_id":"4","last_reported":1740737438,"current_range_meters":16800,"station_id":"ce4bhgh2rcd13ifvqfb0","pricing_plan_id":"cebpf4jnsgd1na2vs0mg"},{"bike_id":"695e9a27-d903-4bbc-b050-bcc463be80aa","system_id":"levelo_inurba_marseille","lat":43.24176,"lon":5.36417,"is_reserved":false,"is_disabled":false,"rental_uris":{"android":"levelo://app?vid=695e9a27-d903-4bbc-b050-bcc463be80aa","ios":"levelo://app?vid=695e9a27-d903-4bbc-b050-bcc463be80aa"},"vehicle_type_id":"4","last_reported":1740737438,"current_range_meters":16800,"station_id":"cpo36qri1sfpv3e86is0","pricing_plan_id":"cebpf4jnsgd1na2vs0mg"},{"bike_id":"ae6f44c2-09bc-451b-829a-d76fbfd46fc4","system_id":"levelo_inurba_marseille","lat":43.293,"lon":5.37457,"is_reserved":false,"is_disabled":false,"rental_uris":{"android":"levelo://app?vid=ae6f44c2-09bc-451b-829a-d76fbfd46fc4","ios":"levelo://app?vid=ae6f44c2-09bc-451b-829a-d76fbfd46fc4"},"vehicle_type_id":"4","last_reported":1740737438,"current_range_meters":17200,"station_id":"ce4bgi12rcd13ifvqb70","pricing_plan_id":"cebpf4jnsgd1na2vs0mg"},{"bike_id":"a285cf3a-f34b-463b-9ca6-c83fa8218c02","system_id":"levelo_inurba_marseille","lat":43.29676,"lon":5.37291,"is_reserved":false,"is_disabled":false,"rental_uris":{"android":"levelo://app?vid=a285cf3a-f34b-463b-9ca6-c83fa8218c02","ios":"levelo://app?vid=a285cf3a-f34b-463b-9ca6-c83fa8218c02"},"vehicle_type_id":"4","last_reported":1740737438,"current_range_meters":17200,"station_id":"ce4bgk12rcd13ifvqbj0","pricing_plan_id":"cebpf4jnsgd1na2vs0mg"},{"bike_id":"def9e2a0-5e7a-433a-86cc-874309487989","system_id":"levelo_inurba_marseille","lat":43.30537,"lon":5.36527,"is_reserved":false,"is_disabled":false,"rental_uris":{"android":"levelo://app?vid=def9e2a0-5e7a-433a-86cc-874309487989","ios":"levelo://app?vid=def9e2a0-5e7a-433a-86cc-874309487989"},"vehicle_type_id":"4","last_reported":1740737438,"current_range_meters":17200,"station_id":"ce4bgs12rcd13ifvqcag","pricing_plan_id":"cebpf4jnsgd1na2vs0mg"},{"bike_id":"766f9252-76ba-4151-9194-6d162e66f1d3","system_id":"levelo_inurba_marseille","lat":43.24821,"lon":5.37458,"is_reserved":false,"is_disabled":false,"rental_uris":{"android":"levelo://app?vid=766f9252-76ba-4151-9194-6d162e66f1d3","ios":"levelo://app?vid=766f9252-76ba-4151-9194-6d162e66f1d3"},"vehicle_type_id":"4","last_reported":1740737438,"current_range_meters":17200,"station_id":"ce4bhgh2rcd13ifvqfb0","pricing_plan_id":"cebpf4jnsgd1na2vs0mg"},{"bike_id":"d4bd8a8b-d7bf-4c05-b31a-2fd957b6a9e7","system_id":"levelo_inurba_marseille","lat":43.26062,"lon":5.39399,"is_reserved":false,"is_disabled":false,"rental_uris":{"android":"levelo://app?vid=d4bd8a8b-d7bf-4c05-b31a-2fd957b6a9e7","ios":"levelo://app?vid=d4bd8a8b-d7bf-4c05-b31a-2fd957b6a9e7"},"vehicle_type_id":"4","last_reported":1740737438,"current_range_meters":17200,"station_id":"ce4bhh92rcd13ifvqfj0","pricing_plan_id":"cebpf4jnsgd1na2vs0mg"},{"bike_id":"9874cda6-31ef-49ca-912d-fe3686fdcf13","system_id":"levelo_inurba_marseille","lat":43.27681,"lon":5.38885,"is_reserved":false,"is_disabled":false,"rental_uris":{"android":"levelo://app?vid=9874cda6-31ef-49ca-912d-fe3686fdcf13","ios":"levelo://app?vid=9874cda6-31ef-49ca-912d-fe3686fdcf13"},"vehicle_type_id":"4","last_reported":1740737438,"current_range_meters":17200,"station_id":"ce4bhi12rcd13ifvqfo0","pricing_plan_id":"cebpf4jnsgd1na2vs0mg"},{"bike_id":"2616ebb5-67dc-4f98-862c-1515e5846a88","system_id":"levelo_inurba_marseille","lat":43.25115,"lon":5.40319,"is_reserved":false,"is_disabled":false,"rental_uris":{"android":"levelo://app?vid=2616ebb5-67dc-4f98-862c-1515e5846a88","ios":"levelo://app?vid=2616ebb5-67dc-4f98-862c-1515e5846a88"},"vehicle_type_id":"4","last_reported":1740737438,"current_range_meters":17200,"station_id":"ce4bhlh2rcd13ifvqgig","pricing_plan_id":"cebpf4jnsgd1na2vs0mg"},{"bike_id":"cb2765a4-8835-4bc4-a4ee-79d998fd2722","system_id":"levelo_inurba_marseille","lat":43.2622,"lon":5.4046,"is_reserved":false,"is_disabled":false,"rental_uris":{"android":"levelo://app?vid=cb2765a4-8835-4bc4-a4ee-79d998fd2722","ios":"levelo://app?vid=cb2765a4-8835-4bc4-a4ee-79d998fd2722"},"vehicle_type_id":"4","last_reported":1740737438,"current_range_meters":17200,"station_id":"ce4bhmh2rcd13ifvqgmg","pricing_plan_id":"cebpf4jnsgd1na2vs0mg"},{"bike_id":"a43d23d2-0d6e-4cf7-8691-8ab079a8ff69","system_id":"levelo_inurba_marseille","lat":43.29901,"lon":5.43681,"is_reserved":false,"is_disabled":false,"rental_uris":{"android":"levelo://app?vid=a43d23d2-0d6e-4cf7-8691-8ab079a8ff69","ios":"levelo://app?vid=a43d23d2-0d6e-4cf7-8691-8ab079a8ff69"},"vehicle_type_id":"4","last_reported":1740737438,"current_range_meters":17200,"station_id":"ce4bhpp2rcd13ifvqhfg","pricing_plan_id":"cebpf4jnsgd1na2vs0mg"},{"bike_id":"3c5ad829-4f18-4913-9225-70e2b636b9b9","system_id":"levelo_inurba_marseille","lat":43.325,"lon":5.36564,"is_reserved":false,"is_disabled":false,"rental_uris":{"android":"levelo://app?vid=3c5ad829-4f18-4913-9225-70e2b636b9b9","ios":"levelo://app?vid=3c5ad829-4f18-4913-9225-70e2b636b9b9"},"vehicle_type_id":"4","last_reported":1740737438,"current_range_meters":17200,"station_id":"ce4bhs12rcd13ifvqhvg","pricing_plan_id":"cebpf4jnsgd1na2vs0mg"},{"bike_id":"8c86cb21-5e53-44c8-a766-70640a93721c","system_id":"levelo_inurba_marseille","lat":43.29176,"lon":5.37558,"is_reserved":false,"is_disabled":false,"rental_uris":{"android":"levelo://app?vid=8c86cb21-5e53-44c8-a766-70640a93721c","ios":"levelo://app?vid=8c86cb21-5e53-44c8-a766-70640a93721c"},"vehicle_type_id":"4","last_reported":1740737438,"current_range_meters":17600,"station_id":"","pricing_plan_id":"cebpf4jnsgd1na2vs0mg"},{"bike_id":"3b51f321-7860-478d-8dcb-446f467539e5","system_id":"levelo_inurba_marseille","lat":43.3118,"lon":5.36869,"is_reserved":false,"is_disabled":false,"rental_uris":{"android":"levelo://app?vid=3b51f321-7860-478d-8dcb-446f467539e5","ios":"levelo://app?vid=3b51f321-7860-478d-8dcb-446f467539e5"},"vehicle_type_id":"4","last_reported":1740737438,"current_range_meters":17600,"station_id":"ce4bgl92rcd13ifvqbq0","pricing_plan_id":"cebpf4jnsgd1na2vs0mg"},{"bike_id":"69159a10-620b-41ad-84c5-be7e23fd176f","system_id":"levelo_inurba_marseille","lat":43.290244,"lon":5.381444,"is_reserved":false,"is_disabled":false,"rental_uris":{"android":"levelo://app?vid=69159a10-620b-41ad-84c5-be7e23fd176f","ios":"levelo://app?vid=69159a10-620b-41ad-84c5-be7e23fd176f"},"vehicle_type_id":"4","last_reported":1740737438,"current_range_meters":17600,"station_id":"ce4bh4p2rcd13ifvqe1g","pricing_plan_id":"cebpf4jnsgd1na2vs0mg"},{"bike_id":"90229dd6-aa62-47bf-89cd-8912e7f35960","system_id":"levelo_inurba_marseille","lat":43.29197,"lon":5.35799,"is_reserved":false,"is_disabled":false,"rental_uris":{"android":"levelo://app?vid=90229dd6-aa62-47bf-89cd-8912e7f35960","ios":"levelo://app?vid=90229dd6-aa62-47bf-89cd-8912e7f35960"},"vehicle_type_id":"4","last_reported":1740737438,"current_range_meters":17600,"station_id":"ce4bhb12rcd13ifvqel0","pricing_plan_id":"cebpf4jnsgd1na2vs0mg"},{"bike_id":"5cdf1157-258e-4dbe-9eac-97f9742be378","system_id":"levelo_inurba_marseille","lat":43.27379,"lon":5.3625,"is_reserved":false,"is_disabled":false,"rental_uris":{"android":"levelo://app?vid=5cdf1157-258e-4dbe-9eac-97f9742be378","ios":"levelo://app?vid=5cdf1157-258e-4dbe-9eac-97f9742be378"},"vehicle_type_id":"4","last_reported":1740737438,"current_range_meters":17600,"station_id":"ce4bhbh2rcd13ifvqeo0","pricing_plan_id":"cebpf4jnsgd1na2vs0mg"},{"bike_id":"8d91c655-19ff-47c9-a3e3-8857cd75c678","system_id":"levelo_inurba_marseille","lat":43.24826,"lon":5.37462,"is_reserved":false,"is_disabled":false,"rental_uris":{"android":"levelo://app?vid=8d91c655-19ff-47c9-a3e3-8857cd75c678","ios":"levelo://app?vid=8d91c655-19ff-47c9-a3e3-8857cd75c678"},"vehicle_type_id":"4","last_reported":1740737438,"current_range_meters":17600,"station_id":"ce4bhgh2rcd13ifvqfb0","pricing_plan_id":"cebpf4jnsgd1na2vs0mg"},{"bike_id":"4015c440-7267-44b4-8be2-f4b87cb51aa9","system_id":"levelo_inurba_marseille","lat":43.25574,"lon":5.38258,"is_reserved":false,"is_disabled":false,"rental_uris":{"android":"levelo://app?vid=4015c440-7267-44b4-8be2-f4b87cb51aa9","ios":"levelo://app?vid=4015c440-7267-44b4-8be2-f4b87cb51aa9"},"vehicle_type_id":"4","last_reported":1740737438,"current_range_meters":17600,"station_id":"ce4bhih2rcd13ifvqfs0","pricing_plan_id":"cebpf4jnsgd1na2vs0mg"},{"bike_id":"aaa172cd-45f7-4933-a517-13aba58f3efa","system_id":"levelo_inurba_marseille","lat":43.27496,"lon":5.42457,"is_reserved":false,"is_disabled":false,"rental_uris":{"android":"levelo://app?vid=aaa172cd-45f7-4933-a517-13aba58f3efa","ios":"levelo://app?vid=aaa172cd-45f7-4933-a517-13aba58f3efa"},"vehicle_type_id":"4","last_reported":1740737438,"current_range_meters":17600,"station_id":"ce4bhn92rcd13ifvqgrg","pricing_plan_id":"cebpf4jnsgd1na2vs0mg"},{"bike_id":"f05e3088-a939-40ea-90da-83c01e639f5e","system_id":"levelo_inurba_marseille","lat":43.24074,"lon":5.37759,"is_reserved":false,"is_disabled":false,"rental_uris":{"android":"levelo://app?vid=f05e3088-a939-40ea-90da-83c01e639f5e","ios":"levelo://app?vid=f05e3088-a939-40ea-90da-83c01e639f5e"},"vehicle_type_id":"4","last_reported":1740737438,"current_range_meters":17600,"station_id":"ce4bhnp2rcd13ifvqgvg","pricing_plan_id":"cebpf4jnsgd1na2vs0mg"},{"bike_id":"085d28c3-d678-460a-a2b0-03561e14272e","system_id":"levelo_inurba_marseille","lat":43.32115,"lon":5.36775,"is_reserved":false,"is_disabled":false,"rental_uris":{"android":"levelo://app?vid=085d28c3-d678-460a-a2b0-03561e14272e","ios":"levelo://app?vid=085d28c3-d678-460a-a2b0-03561e14272e"},"vehicle_type_id":"4","last_reported":1740737438,"current_range_meters":17600,"station_id":"ce4bhrh2rcd13ifvqhug","pricing_plan_id":"cebpf4jnsgd1na2vs0mg"},{"bike_id":"0693b9d6-4a9d-4e38-bfa2-80f934bcc2e3","system_id":"levelo_inurba_marseille","lat":43.24169,"lon":5.36423,"is_reserved":false,"is_disabled":false,"rental_uris":{"android":"levelo://app?vid=0693b9d6-4a9d-4e38-bfa2-80f934bcc2e3","ios":"levelo://app?vid=0693b9d6-4a9d-4e38-bfa2-80f934bcc2e3"},"vehicle_type_id":"4","last_reported":1740737438,"current_range_meters":17600,"station_id":"cpo36qri1sfpv3e86is0","pricing_plan_id":"cebpf4jnsgd1na2vs0mg"},{"bike_id":"d3ab31c1-bff5-445e-93ad-a81c15108ecb","system_id":"levelo_inurba_marseille","lat":43.29794,"lon":5.38088,"is_reserved":false,"is_disabled":false,"rental_uris":{"android":"levelo://app?vid=d3ab31c1-bff5-445e-93ad-a81c15108ecb","ios":"levelo://app?vid=d3ab31c1-bff5-445e-93ad-a81c15108ecb"},"vehicle_type_id":"4","last_reported":1740737438,"current_range_meters":18000,"station_id":"ce4bgip2rcd13ifvqbb0","pricing_plan_id":"cebpf4jnsgd1na2vs0mg"},{"bike_id":"25e89ac1-d6d0-41be-86e5-48f8b7f864e8","system_id":"levelo_inurba_marseille","lat":43.313747,"lon":5.366733,"is_reserved":false,"is_disabled":false,"rental_uris":{"android":"levelo://app?vid=25e89ac1-d6d0-41be-86e5-48f8b7f864e8","ios":"levelo://app?vid=25e89ac1-d6d0-41be-86e5-48f8b7f864e8"},"vehicle_type_id":"4","last_reported":1740737438,"current_range_meters":18000,"station_id":"ce4bgr92rcd13ifvqc6g","pricing_plan_id":"cebpf4jnsgd1na2vs0mg"},{"bike_id":"fd1afb46-7763-4076-9ec8-e3ab3ebcdeba","system_id":"levelo_inurba_marseille","lat":43.30546,"lon":5.36694,"is_reserved":false,"is_disabled":false,"rental_uris":{"android":"levelo://app?vid=fd1afb46-7763-4076-9ec8-e3ab3ebcdeba","ios":"levelo://app?vid=fd1afb46-7763-4076-9ec8-e3ab3ebcdeba"},"vehicle_type_id":"4","last_reported":1740737438,"current_range_meters":18000,"station_id":"ce4bgrp2rcd13ifvqc9g","pricing_plan_id":"cebpf4jnsgd1na2vs0mg"},{"bike_id":"271718f2-12e1-4bbb-b1ee-b7b012ae9b14","system_id":"levelo_inurba_marseille","lat":43.28856,"lon":5.35842,"is_reserved":false,"is_disabled":false,"rental_uris":{"android":"levelo://app?vid=271718f2-12e1-4bbb-b1ee-b7b012ae9b14","ios":"levelo://app?vid=271718f2-12e1-4bbb-b1ee-b7b012ae9b14"},"vehicle_type_id":"4","last_reported":1740737438,"current_range_meters":18000,"station_id":"ce4bhb12rcd13ifvqem0","pricing_plan_id":"cebpf4jnsgd1na2vs0mg"},{"bike_id":"ea784a7c-7aa9-4528-bbae-5d9ce4f92e18","system_id":"levelo_inurba_marseille","lat":43.24808,"lon":5.37459,"is_reserved":false,"is_disabled":false,"rental_uris":{"android":"levelo://app?vid=ea784a7c-7aa9-4528-bbae-5d9ce4f92e18","ios":"levelo://app?vid=ea784a7c-7aa9-4528-bbae-5d9ce4f92e18"},"vehicle_type_id":"4","last_reported":1740737438,"current_range_meters":18000,"station_id":"ce4bhgh2rcd13ifvqfb0","pricing_plan_id":"cebpf4jnsgd1na2vs0mg"},{"bike_id":"101b8521-5589-443f-a64b-8ef83a8cc365","system_id":"levelo_inurba_marseille","lat":43.26944,"lon":5.38635,"is_reserved":false,"is_disabled":false,"rental_uris":{"android":"levelo://app?vid=101b8521-5589-443f-a64b-8ef83a8cc365","ios":"levelo://app?vid=101b8521-5589-443f-a64b-8ef83a8cc365"},"vehicle_type_id":"4","last_reported":1740737438,"current_range_meters":18000,"station_id":"ce4bhh92rcd13ifvqfh0","pricing_plan_id":"cebpf4jnsgd1na2vs0mg"},{"bike_id":"67044b81-2ac2-4771-98bd-5409c40d4a20","system_id":"levelo_inurba_marseille","lat":43.24662,"lon":5.38168,"is_reserved":false,"is_disabled":false,"rental_uris":{"android":"levelo://app?vid=67044b81-2ac2-4771-98bd-5409c40d4a20","ios":"levelo://app?vid=67044b81-2ac2-4771-98bd-5409c40d4a20"},"vehicle_type_id":"4","last_reported":1740737438,"current_range_meters":18000,"station_id":"ce4bhih2rcd13ifvqfr0","pricing_plan_id":"cebpf4jnsgd1na2vs0mg"},{"bike_id":"e6eb5d75-cd9d-4218-967e-d9f143423f82","system_id":"levelo_inurba_marseille","lat":43.24546,"lon":5.39526,"is_reserved":false,"is_disabled":false,"rental_uris":{"android":"levelo://app?vid=e6eb5d75-cd9d-4218-967e-d9f143423f82","ios":"levelo://app?vid=e6eb5d75-cd9d-4218-967e-d9f143423f82"},