{"last_updated":1701039992,"ttl":30,"version":"2.2","data":{"bikes":[{"bike_id":"e841562e-fb8b-43e8-b928-be9e34f79ef3","system_id":"levelo_inurba_marseille","lat":43.31345,"lon":5.36711,"is_reserved":false,"is_disabled":false,"rental_uris":{"android":"levelo://app?vid=e841562e-fb8b-43e8-b928-be9e34f79ef3","ios":"levelo://app?vid=e841562e-fb8b-43e8-b928-be9e34f79ef3"},"vehicle_type_id":"4","last_reported":1701039992,"current_range_meters":2400,"station_id":"ce4bgr92rcd13ifvqc6g","pricing_plan_id":"free"},{"bike_id":"0e07f4dc-f05c-4a47-a7fc-9cf5a2bc7aff","system_id":"levelo_inurba_marseille","lat":43.31341,"lon":5.367098,"is_reserved":false,"is_disabled":false,"rental_uris":{"android":"levelo://app?vid=0e07f4dc-f05c-4a47-a7fc-9cf5a2bc7aff","ios":"levelo://app?vid=0e07f4dc-f05c-4a47-a7fc-9cf5a2bc7aff"},"vehicle_type_id":"4","last_reported":1701039992,"current_range_meters":26000,"station_id":"ce4bgr92rcd13ifvqc6g","pricing_plan_id":"free"},{"bike_id":"0a7e19e4-58b9-4ecc-ac8a-bb44f60de8cb","system_id":"levelo_inurba_marseille","lat":43.312239,"lon":5.368562,"is_reserved":false,"is_disabled":false,"rental_uris":{"android":"levelo://app?vid=0a7e19e4-58b9-4ecc-ac8a-bb44f60de8cb","ios":"levelo://app?vid=0a7e19e4-58b9-4ecc-ac8a-bb44f60de8cb"},"vehicle_type_id":"4","last_reported":1701039992,"current_range_meters":14000,"station_id":"ce4bgl92rcd13ifvqbq0","pricing_plan_id":"free"},{"bike_id":"6feaeb70-76fd-458d-baf2-fca8ea47ac08","system_id":"levelo_inurba_marseille","lat":43.312239,"lon":5.368562,"is_reserved":false,"is_disabled":false,"rental_uris":{"android":"levelo://app?vid=6feaeb70-76fd-458d-baf2-fca8ea47ac08","ios":"levelo://app?vid=6feaeb70-76fd-458d-baf2-fca8ea47ac08"},"vehicle_type_id":"4","last_reported":1701039992,"current_range_meters":3600,"station_id":"ce4bgl92rcd13ifvqbq0","pricing_plan_id":"free"},{"bike_id":"bd995399-9857-4b05-a12b-892c4ab9f713","system_id":"levelo_inurba_marseille","lat":43.314811,"lon":5.373103,"is_reserved":false,"is_disabled":false,"rental_uris":{"android":"levelo://app?vid=bd995399-9857-4b05-a12b-892c4ab9f713","ios":"levelo://app?vid=bd995399-9857-4b05-a12b-892c4ab9f713"},"vehicle_type_id":"4","last_reported":1701039992,"current_range_meters":26400,"station_id":"ce4bgt12rcd13ifvqcd0","pricing_plan_id":"free"},{"bike_id":"b465225b-2ae4-44d7-a66b-18bb4c9b256f","system_id":"levelo_inurba_marseille","lat":43.3148,"lon":5.37317,"is_reserved":false,"is_disabled":false,"rental_uris":{"android":"levelo://app?vid=b465225b-2ae4-44d7-a66b-18bb4c9b256f","ios":"levelo://app?vid=b465225b-2ae4-44d7-a66b-18bb4c9b256f"},"vehicle_type_id":"4","last_reported":1701039992,"current_range_meters":21200,"station_id":"ce4bgt12rcd13ifvqcd0","pricing_plan_id":"free"},{"bike_id":"661c7d9d-bcfe-4f83-a8cd-546d47145b21","system_id":"levelo_inurba_marseille","lat":43.309039,"lon":5.371797,"is_reserved":false,"is_disabled":false,"rental_uris":{"android":"levelo://app?vid=661c7d9d-bcfe-4f83-a8cd-546d47145b21","ios":"levelo://app?vid=661c7d9d-bcfe-4f83-a8cd-546d47145b21"},"vehicle_type_id":"4","last_reported":1701039992,"current_range_meters":14000,"station_id":"ce4bguh2rcd13ifvqckg","pricing_plan_id":"free"},{"bike_id":"34a62643-e7c6-44b2-8daa-2f1a12e8ed15","system_id":"levelo_inurba_marseille","lat":43.309039,"lon":5.371797,"is_reserved":false,"is_disabled":false,"rental_uris":{"android":"levelo://app?vid=34a62643-e7c6-44b2-8daa-2f1a12e8ed15","ios":"levelo://app?vid=34a62643-e7c6-44b2-8daa-2f1a12e8ed15"},"vehicle_type_id":"4","last_reported":1701039992,"current_range_meters":30400,"station_id":"ce4bguh2rcd13ifvqckg","pricing_plan_id":"free"},{"bike_id":"149112c9-3172-4fdb-be72-a9fed88bf7b7","system_id":"levelo_inurba_marseille","lat":43.30556,"lon":5.36706,"is_reserved":false,"is_disabled":false,"rental_uris":{"android":"levelo://app?vid=149112c9-3172-4fdb-be72-a9fed88bf7b7","ios":"levelo://app?vid=149112c9-3172-4fdb-be72-a9fed88bf7b7"},"vehicle_type_id":"4","last_reported":1701039992,"current_range_meters":31200,"station_id":"ce4bgrp2rcd13ifvqc9g","pricing_plan_id":"free"},{"bike_id":"0dfa825b-7405-4bab-9eff-b116f3228933","system_id":"levelo_inurba_marseille","lat":43.30551,"lon":5.36704,"is_reserved":false,"is_disabled":false,"rental_uris":{"android":"levelo://app?vid=0dfa825b-7405-4bab-9eff-b116f3228933","ios":"levelo://app?vid=0dfa825b-7405-4bab-9eff-b116f3228933"},"vehicle_type_id":"4","last_reported":1701039992,"current_range_meters":30000,"station_id":"ce4bgrp2rcd13ifvqc9g","pricing_plan_id":"free"},{"bike_id":"2738afe6-c718-4185-8ae7-e47bcb05c2c7","system_id":"levelo_inurba_marseille","lat":43.305714,"lon":5.365633,"is_reserved":false,"is_disabled":false,"rental_uris":{"android":"levelo://app?vid=2738afe6-c718-4185-8ae7-e47bcb05c2c7","ios":"levelo://app?vid=2738afe6-c718-4185-8ae7-e47bcb05c2c7"},"vehicle_type_id":"4","last_reported":1701039992,"current_range_meters":29600,"station_id":"ce4bgs12rcd13ifvqcag","pricing_plan_id":"free"},{"bike_id":"569f7b0a-ca2f-4eab-b560-1d4e18a2dc3e","system_id":"levelo_inurba_marseille","lat":43.305368,"lon":5.367343,"is_reserved":false,"is_disabled":false,"rental_uris":{"android":"levelo://app?vid=569f7b0a-ca2f-4eab-b560-1d4e18a2dc3e","ios":"levelo://app?vid=569f7b0a-ca2f-4eab-b560-1d4e18a2dc3e"},"vehicle_type_id":"4","last_reported":1701039992,"current_range_meters":3200,"station_id":"ce4bgrp2rcd13ifvqc9g","pricing_plan_id":"free"},{"bike_id":"1bd8a1e2-d3f6-4585-baf0-d8ca5206063d","system_id":"levelo_inurba_marseille","lat":43.305989,"lon":5.37225,"is_reserved":false,"is_disabled":false,"rental_uris":{"android":"levelo://app?vid=1bd8a1e2-d3f6-4585-baf0-d8ca5206063d","ios":"levelo://app?vid=1bd8a1e2-d3f6-4585-baf0-d8ca5206063d"},"vehicle_type_id":"4","last_reported":1701039992,"current_range_meters":30000,"station_id":"ce4bgqh2rcd13ifvqc4g","pricing_plan_id":"free"},{"bike_id":"573a870a-b6c4-429d-8587-8103772b84bc","system_id":"levelo_inurba_marseille","lat":43.308214,"lon":5.376581,"is_reserved":false,"is_disabled":false,"rental_uris":{"android":"levelo://app?vid=573a870a-b6c4-429d-8587-8103772b84bc","ios":"levelo://app?vid=573a870a-b6c4-429d-8587-8103772b84bc"},"vehicle_type_id":"4","last_reported":1701039992,"current_range_meters":0,"station_id":"ce4bgv92rcd13ifvqcq0","pricing_plan_id":"free"},{"bike_id":"f427a2c3-6e4a-446b-ae2f-9be8aa7f4122","system_id":"levelo_inurba_marseille","lat":43.31719,"lon":5.376813,"is_reserved":false,"is_disabled":false,"rental_uris":{"android":"levelo://app?vid=f427a2c3-6e4a-446b-ae2f-9be8aa7f4122","ios":"levelo://app?vid=f427a2c3-6e4a-446b-ae2f-9be8aa7f4122"},"vehicle_type_id":"4","last_reported":1701039992,"current_range_meters":19600,"station_id":"ce4bgth2rcd13ifvqch0","pricing_plan_id":"free"},{"bike_id":"b898b018-f57d-4901-bab2-fdd15d391de9","system_id":"levelo_inurba_marseille","lat":43.317168,"lon":5.376883,"is_reserved":false,"is_disabled":false,"rental_uris":{"android":"levelo://app?vid=b898b018-f57d-4901-bab2-fdd15d391de9","ios":"levelo://app?vid=b898b018-f57d-4901-bab2-fdd15d391de9"},"vehicle_type_id":"4","last_reported":1701039992,"current_range_meters":21600,"station_id":"ce4bgth2rcd13ifvqch0","pricing_plan_id":"free"},{"bike_id":"3afd03cb-2a8f-45fe-8f15-50696615a52a","system_id":"levelo_inurba_marseille","lat":43.307945,"lon":5.376487,"is_reserved":false,"is_disabled":false,"rental_uris":{"android":"levelo://app?vid=3afd03cb-2a8f-45fe-8f15-50696615a52a","ios":"levelo://app?vid=3afd03cb-2a8f-45fe-8f15-50696615a52a"},"vehicle_type_id":"4","last_reported":1701039992,"current_range_meters":30400,"station_id":"ce4bgv92rcd13ifvqcq0","pricing_plan_id":"free"},{"bike_id":"6099ae26-e348-4c70-b065-0faa2c582dd2","system_id":"levelo_inurba_marseille","lat":43.307945,"lon":5.376487,"is_reserved":false,"is_disabled":false,"rental_uris":{"android":"levelo://app?vid=6099ae26-e348-4c70-b065-0faa2c582dd2","ios":"levelo://app?vid=6099ae26-e348-4c70-b065-0faa2c582dd2"},"vehicle_type_id":"4","last_reported":1701039992,"current_range_meters":25600,"station_id":"ce4bgv92rcd13ifvqcq0","pricing_plan_id":"free"},{"bike_id":"939bf4f0-ae3a-4692-b0ff-ce5fe384b2fd","system_id":"levelo_inurba_marseille","lat":43.317075,"lon":5.377367,"is_reserved":false,"is_disabled":false,"rental_uris":{"android":"levelo://app?vid=939bf4f0-ae3a-4692-b0ff-ce5fe384b2fd","ios":"levelo://app?vid=939bf4f0-ae3a-4692-b0ff-ce5fe384b2fd"},"vehicle_type_id":"4","last_reported":1701039992,"current_range_meters":21200,"station_id":"ce4bgth2rcd13ifvqch0","pricing_plan_id":"free"},{"bike_id":"a80f348a-adbe-415b-8175-efc5cebf9a3a","system_id":"levelo_inurba_marseille","lat":43.317075,"lon":5.377367,"is_reserved":false,"is_disabled":false,"rental_uris":{"android":"levelo://app?vid=a80f348a-adbe-415b-8175-efc5cebf9a3a","ios":"levelo://app?vid=a80f348a-adbe-415b-8175-efc5cebf9a3a"},"vehicle_type_id":"4","last_reported":1701039992,"current_range_meters":30800,"station_id":"ce4bgth2rcd13ifvqch0","pricing_plan_id":"free"},{"bike_id":"0bdfe7ea-6712-46a6-9518-c2701bc640d4","system_id":"levelo_inurba_marseille","lat":43.31534,"lon":5.3803,"is_reserved":false,"is_disabled":false,"rental_uris":{"android":"levelo://app?vid=0bdfe7ea-6712-46a6-9518-c2701bc640d4","ios":"levelo://app?vid=0bdfe7ea-6712-46a6-9518-c2701bc640d4"},"vehicle_type_id":"4","last_reported":1701039992,"current_range_meters":16800,"station_id":"ce4bhsp2rcd13ifvqi50","pricing_plan_id":"free"},{"bike_id":"423e19d4-bde0-4982-bd4c-371d4e0cf407","system_id":"levelo_inurba_marseille","lat":43.315301,"lon":5.38037,"is_reserved":false,"is_disabled":false,"rental_uris":{"android":"levelo://app?vid=423e19d4-bde0-4982-bd4c-371d4e0cf407","ios":"levelo://app?vid=423e19d4-bde0-4982-bd4c-371d4e0cf407"},"vehicle_type_id":"4","last_reported":1701039992,"current_range_meters":13200,"station_id":"ce4bhsp2rcd13ifvqi50","pricing_plan_id":"free"},{"bike_id":"8ef87ac3-8a0d-4ac6-80c0-266e2621bf7f","system_id":"levelo_inurba_marseille","lat":43.3218,"lon":5.37499,"is_reserved":false,"is_disabled":false,"rental_uris":{"android":"levelo://app?vid=8ef87ac3-8a0d-4ac6-80c0-266e2621bf7f","ios":"levelo://app?vid=8ef87ac3-8a0d-4ac6-80c0-266e2621bf7f"},"vehicle_type_id":"4","last_reported":1701039992,"current_range_meters":26000,"station_id":"","pricing_plan_id":"free"},{"bike_id":"4960cd84-5f51-4fcb-bf4f-043f77c0faa0","system_id":"levelo_inurba_marseille","lat":43.312653,"lon":5.38177,"is_reserved":false,"is_disabled":false,"rental_uris":{"android":"levelo://app?vid=4960cd84-5f51-4fcb-bf4f-043f77c0faa0","ios":"levelo://app?vid=4960cd84-5f51-4fcb-bf4f-043f77c0faa0"},"vehicle_type_id":"4","last_reported":1701039992,"current_range_meters":16000,"station_id":"","pricing_plan_id":"free"},{"bike_id":"67528132-3c77-4541-907a-52424ebe665b","system_id":"levelo_inurba_marseille","lat":43.301939,"lon":5.366286,"is_reserved":false,"is_disabled":false,"rental_uris":{"android":"levelo://app?vid=67528132-3c77-4541-907a-52424ebe665b","ios":"levelo://app?vid=67528132-3c77-4541-907a-52424ebe665b"},"vehicle_type_id":"4","last_reported":1701039992,"current_range_meters":13600,"station_id":"ce4bgrh2rcd13ifvqc8g","pricing_plan_id":"free"},{"bike_id":"a30e2259-1883-45ab-997b-89368a7d25e2","system_id":"levelo_inurba_marseille","lat":43.308012,"lon":5.381511,"is_reserved":false,"is_disabled":false,"rental_uris":{"android":"levelo://app?vid=a30e2259-1883-45ab-997b-89368a7d25e2","ios":"levelo://app?vid=a30e2259-1883-45ab-997b-89368a7d25e2"},"vehicle_type_id":"4","last_reported":1701039992,"current_range_meters":25200,"station_id":"ce4bgt12rcd13ifvqce0","pricing_plan_id":"free"},{"bike_id":"f2da9669-1912-4bc0-8e34-9b30db03874a","system_id":"levelo_inurba_marseille","lat":43.308012,"lon":5.381511,"is_reserved":false,"is_disabled":false,"rental_uris":{"android":"levelo://app?vid=f2da9669-1912-4bc0-8e34-9b30db03874a","ios":"levelo://app?vid=f2da9669-1912-4bc0-8e34-9b30db03874a"},"vehicle_type_id":"4","last_reported":1701039992,"current_range_meters":31200,"station_id":"ce4bgt12rcd13ifvqce0","pricing_plan_id":"free"},{"bike_id":"10104bac-d2ac-42c0-8ecb-e68e8d1dd6d4","system_id":"levelo_inurba_marseille","lat":43.30146,"lon":5.37422,"is_reserved":false,"is_disabled":false,"rental_uris":{"android":"levelo://app?vid=10104bac-d2ac-42c0-8ecb-e68e8d1dd6d4","ios":"levelo://app?vid=10104bac-d2ac-42c0-8ecb-e68e8d1dd6d4"},"vehicle_type_id":"4","last_reported":1701039992,"current_range_meters":26800,"station_id":"ce4bgs92rcd13ifvqcc0","pricing_plan_id":"free"},{"bike_id":"3eaaddcc-069e-40d7-bc71-553c8d44847b","system_id":"levelo_inurba_marseille","lat":43.319935,"lon":5.381699,"is_reserved":false,"is_disabled":false,"rental_uris":{"android":"levelo://app?vid=3eaaddcc-069e-40d7-bc71-553c8d44847b","ios":"levelo://app?vid=3eaaddcc-069e-40d7-bc71-553c8d44847b"},"vehicle_type_id":"4","last_reported":1701039992,"current_range_meters":31200,"station_id":"ce4bhr12rcd13ifvqhpg","pricing_plan_id":"free"},{"bike_id":"e1c5179b-1edf-4c62-9406-4fcf9e0f97a4","system_id":"levelo_inurba_marseille","lat":43.319935,"lon":5.381699,"is_reserved":false,"is_disabled":false,"rental_uris":{"android":"levelo://app?vid=e1c5179b-1edf-4c62-9406-4fcf9e0f97a4","ios":"levelo://app?vid=e1c5179b-1edf-4c62-9406-4fcf9e0f97a4"},"vehicle_type_id":"4","last_reported":1701039992,"current_range_meters":29600,"station_id":"ce4bhr12rcd13ifvqhpg","pricing_plan_id":"free"},{"bike_id":"873fdb60-6fa2-403a-8d34-dc61cac62633","system_id":"levelo_inurba_marseille","lat":43.299222,"lon":5.365554,"is_reserved":false,"is_disabled":false,"rental_uris":{"android":"levelo://app?vid=873fdb60-6fa2-403a-8d34-dc61cac62633","ios":"levelo://app?vid=873fdb60-6fa2-403a-8d34-dc61cac62633"},"vehicle_type_id":"4","last_reported":1701039992,"current_range_meters":30000,"station_id":"ce4bgm92rcd13ifvqbr0","pricing_plan_id":"free"},{"bike_id":"226e9f74-a000-4c0e-921d-92c18c491bc8","system_id":"levelo_inurba_marseille","lat":43.299369,"lon":5.365412,"is_reserved":false,"is_disabled":false,"rental_uris":{"android":"levelo://app?vid=226e9f74-a000-4c0e-921d-92c18c491bc8","ios":"levelo://app?vid=226e9f74-a000-4c0e-921d-92c18c491bc8"},"vehicle_type_id":"4","last_reported":1701039992,"current_range_meters":31200,"station_id":"ce4bgm92rcd13ifvqbr0","pricing_plan_id":"free"},{"bike_id":"f852916f-8890-4fa9-a9b3-e7c61af9734f","system_id":"levelo_inurba_marseille","lat":43.29876,"lon":5.36909,"is_reserved":false,"is_disabled":false,"rental_uris":{"android":"levelo://app?vid=f852916f-8890-4fa9-a9b3-e7c61af9734f","ios":"levelo://app?vid=f852916f-8890-4fa9-a9b3-e7c61af9734f"},"vehicle_type_id":"4","last_reported":1701039992,"current_range_meters":0,"station_id":"","pricing_plan_id":"free"},{"bike_id":"9dd512cb-1da4-425d-942e-c20474143127","system_id":"levelo_inurba_marseille","lat":43.311722,"lon":5.387247,"is_reserved":false,"is_disabled":false,"rental_uris":{"android":"levelo://app?vid=9dd512cb-1da4-425d-942e-c20474143127","ios":"levelo://app?vid=9dd512cb-1da4-425d-942e-c20474143127"},"vehicle_type_id":"4","last_reported":1701039992,"current_range_meters":1200,"station_id":"ce4bgv12rcd13ifvqcp0","pricing_plan_id":"free"},{"bike_id":"7de6aeb4-0b38-422d-bac6-f776ca8bb80d","system_id":"levelo_inurba_marseille","lat":43.311722,"lon":5.387247,"is_reserved":false,"is_disabled":false,"rental_uris":{"android":"levelo://app?vid=7de6aeb4-0b38-422d-bac6-f776ca8bb80d","ios":"levelo://app?vid=7de6aeb4-0b38-422d-bac6-f776ca8bb80d"},"vehicle_type_id":"4","last_reported":1701039992,"current_range_meters":31200,"station_id":"ce4bgv12rcd13ifvqcp0","pricing_plan_id":"free"},{"bike_id":"bdcce320-8872-4561-a8e5-16b6f8a74a4a","system_id":"levelo_inurba_marseille","lat":43.311722,"lon":5.387247,"is_reserved":false,"is_disabled":false,"rental_uris":{"android":"levelo://app?vid=bdcce320-8872-4561-a8e5-16b6f8a74a4a","ios":"levelo://app?vid=bdcce320-8872-4561-a8e5-16b6f8a74a4a"},"vehicle_type_id":"4","last_reported":1701039992,"current_range_meters":31200,"station_id":"ce4bgv12rcd13ifvqcp0","pricing_plan_id":"free"},{"bike_id":"2466eaec-a348-49e0-8ab7-4f77badbbfb4","system_id":"levelo_inurba_marseille","lat":43.311722,"lon":5.387247,"is_reserved":false,"is_disabled":false,"rental_uris":{"android":"levelo://app?vid=2466eaec-a348-49e0-8ab7-4f77badbbfb4","ios":"levelo://app?vid=2466eaec-a348-49e0-8ab7-4f77badbbfb4"},"vehicle_type_id":"4","last_reported":1701039992,"current_range_meters":26800,"station_id":"ce4bgv12rcd13ifvqcp0","pricing_plan_id":"free"},{"bike_id":"d3e198b8-f388-4abe-988d-ccea449e23dd","system_id":"levelo_inurba_marseille","lat":43.311722,"lon":5.387247,"is_reserved":false,"is_disabled":false,"rental_uris":{"android":"levelo://app?vid=d3e198b8-f388-4abe-988d-ccea449e23dd","ios":"levelo://app?vid=d3e198b8-f388-4abe-988d-ccea449e23dd"},"vehicle_type_id":"4","last_reported":1701039992,"current_range_meters":31200,"station_id":"ce4bgv12rcd13ifvqcp0","pricing_plan_id":"free"},{"bike_id":"ca9d6d92-d57e-4dae-9866-0678c6780c7e","system_id":"levelo_inurba_marseille","lat":43.311722,"lon":5.387247,"is_reserved":false,"is_disabled":false,"rental_uris":{"android":"levelo://app?vid=ca9d6d92-d57e-4dae-9866-0678c6780c7e","ios":"levelo://app?vid=ca9d6d92-d57e-4dae-9866-0678c6780c7e"},"vehicle_type_id":"4","last_reported":1701039992,"current_range_meters":31200,"station_id":"ce4bgv12rcd13ifvqcp0","pricing_plan_id":"free"},{"bike_id":"d4f8eaeb-1157-4ebd-9969-eb4a257af8ee","system_id":"levelo_inurba_marseille","lat":43.32824,"lon":5.36678,"is_reserved":false,"is_disabled":false,"rental_uris":{"android":"levelo://app?vid=d4f8eaeb-1157-4ebd-9969-eb4a257af8ee","ios":"levelo://app?vid=d4f8eaeb-1157-4ebd-9969-eb4a257af8ee"},"vehicle_type_id":"4","last_reported":1701039992,"current_range_meters":15200,"station_id":"ce4bhs92rcd13ifvqi0g","pricing_plan_id":"free"},{"bike_id":"84e79bc2-f872-4461-b5dc-11392b156935","system_id":"levelo_inurba_marseille","lat":43.32831,"lon":5.36678,"is_reserved":false,"is_disabled":false,"rental_uris":{"android":"levelo://app?vid=84e79bc2-f872-4461-b5dc-11392b156935","ios":"levelo://app?vid=84e79bc2-f872-4461-b5dc-11392b156935"},"vehicle_type_id":"4","last_reported":1701039992,"current_range_meters":18400,"station_id":"ce4bhs92rcd13ifvqi0g","pricing_plan_id":"free"},{"bike_id":"20b48e7c-44f1-4ba3-b6b2-257a6bdff23e","system_id":"levelo_inurba_marseille","lat":43.328349,"lon":5.366737,"is_reserved":false,"is_disabled":false,"rental_uris":{"android":"levelo://app?vid=20b48e7c-44f1-4ba3-b6b2-257a6bdff23e","ios":"levelo://app?vid=20b48e7c-44f1-4ba3-b6b2-257a6bdff23e"},"vehicle_type_id":"4","last_reported":1701039992,"current_range_meters":2000,"station_id":"ce4bhs92rcd13ifvqi0g","pricing_plan_id":"free"},{"bike_id":"5028f56d-c7ad-4d21-9d37-36b3da921171","system_id":"levelo_inurba_marseille","lat":43.297163,"lon":5.365866,"is_reserved":false,"is_disabled":false,"rental_uris":{"android":"levelo://app?vid=5028f56d-c7ad-4d21-9d37-36b3da921171","ios":"levelo://app?vid=5028f56d-c7ad-4d21-9d37-36b3da921171"},"vehicle_type_id":"4","last_reported":1701039992,"current_range_meters":20800,"station_id":"ce4bgn12rcd13ifvqbt0","pricing_plan_id":"free"},{"bike_id":"fb06c822-2248-4f74-9439-5281d29e2327","system_id":"levelo_inurba_marseille","lat":43.29603,"lon":5.367989,"is_reserved":false,"is_disabled":false,"rental_uris":{"android":"levelo://app?vid=fb06c822-2248-4f74-9439-5281d29e2327","ios":"levelo://app?vid=fb06c822-2248-4f74-9439-5281d29e2327"},"vehicle_type_id":"4","last_reported":1701039992,"current_range_meters":6000,"station_id":"","pricing_plan_id":"free"},{"bike_id":"0e989155-0084-4b7d-9871-66aba2e50822","system_id":"levelo_inurba_marseille","lat":43.317557,"lon":5.390173,"is_reserved":false,"is_disabled":false,"rental_uris":{"android":"levelo://app?vid=0e989155-0084-4b7d-9871-66aba2e50822","ios":"levelo://app?vid=0e989155-0084-4b7d-9871-66aba2e50822"},"vehicle_type_id":"4","last_reported":1701039992,"current_range_meters":16800,"station_id":"ce4bhqp2rcd13ifvqhng","pricing_plan_id":"free"},{"bike_id":"1e31f1da-b974-4527-82e9-a4d160a41255","system_id":"levelo_inurba_marseille","lat":43.317557,"lon":5.390173,"is_reserved":false,"is_disabled":false,"rental_uris":{"android":"levelo://app?vid=1e31f1da-b974-4527-82e9-a4d160a41255","ios":"levelo://app?vid=1e31f1da-b974-4527-82e9-a4d160a41255"},"vehicle_type_id":"4","last_reported":1701039992,"current_range_meters":29200,"station_id":"ce4bhqp2rcd13ifvqhng","pricing_plan_id":"free"},{"bike_id":"16e42908-1ee7-44fb-a91b-10be8fd13dc6","system_id":"levelo_inurba_marseille","lat":43.304278,"lon":5.388868,"is_reserved":false,"is_disabled":false,"rental_uris":{"android":"levelo://app?vid=16e42908-1ee7-44fb-a91b-10be8fd13dc6","ios":"levelo://app?vid=16e42908-1ee7-44fb-a91b-10be8fd13dc6"},"vehicle_type_id":"4","last_reported":1701039992,"current_range_meters":18000,"station_id":"ce4bgk12rcd13ifvqbi0","pricing_plan_id":"free"},{"bike_id":"302780e9-a244-42ce-860d-1c793918725d","system_id":"levelo_inurba_marseille","lat":43.299717,"lon":5.384845,"is_reserved":false,"is_disabled":false,"rental_uris":{"android":"levelo://app?vid=302780e9-a244-42ce-860d-1c793918725d","ios":"levelo://app?vid=302780e9-a244-42ce-860d-1c793918725d"},"vehicle_type_id":"4","last_reported":1701039992,"current_range_meters":8000,"station_id":"ce4bgj92rcd13ifvqbd0","pricing_plan_id":"free"},{"bike_id":"6b621983-5e9e-42f7-990d-ad5a093820d2","system_id":"levelo_inurba_marseille","lat":43.293801,"lon":5.363066,"is_reserved":false,"is_disabled":false,"rental_uris":{"android":"levelo://app?vid=6b621983-5e9e-42f7-990d-ad5a093820d2","ios":"levelo://app?vid=6b621983-5e9e-42f7-990d-ad5a093820d2"},"vehicle_type_id":"4","last_reported":1701039992,"current_range_meters":0,"station_id":"","pricing_plan_id":"free"},{"bike_id":"df25f6c2-d285-4e87-97d4-41e0630e71fc","system_id":"levelo_inurba_marseille","lat":43.32367,"lon":5.388836,"is_reserved":false,"is_disabled":false,"rental_uris":{"android":"levelo://app?vid=df25f6c2-d285-4e87-97d4-41e0630e71fc","ios":"levelo://app?vid=df25f6c2-d285-4e87-97d4-41e0630e71fc"},"vehicle_type_id":"4","last_reported":1701039992,"current_range_meters":8400,"station_id":"ce4bhqp2rcd13ifvqhog","pricing_plan_id":"free"},{"bike_id":"94649983-6a82-4a6b-bb12-0170167fc5a3","system_id":"levelo_inurba_marseille","lat":43.32367,"lon":5.388836,"is_reserved":false,"is_disabled":false,"rental_uris":{"android":"levelo://app?vid=94649983-6a82-4a6b-bb12-0170167fc5a3","ios":"levelo://app?vid=94649983-6a82-4a6b-bb12-0170167fc5a3"},"vehicle_type_id":"4","last_reported":1701039992,"current_range_meters":2400,"station_id":"ce4bhqp2rcd13ifvqhog","pricing_plan_id":"free"},{"bike_id":"220fbc58-b4d8-4266-ad0c-5373115a323e","system_id":"levelo_inurba_marseille","lat":43.32367,"lon":5.388836,"is_reserved":false,"is_disabled":false,"rental_uris":{"android":"levelo://app?vid=220fbc58-b4d8-4266-ad0c-5373115a323e","ios":"levelo://app?vid=220fbc58-b4d8-4266-ad0c-5373115a323e"},"vehicle_type_id":"4","last_reported":1701039992,"current_range_meters":10400,"station_id":"ce4bhqp2rcd13ifvqhog","pricing_plan_id":"free"},{"bike_id":"e133423d-c208-4747-b655-65bddbd463d9","system_id":"levelo_inurba_marseille","lat":43.32367,"lon":5.388836,"is_reserved":false,"is_disabled":false,"rental_uris":{"android":"levelo://app?vid=e133423d-c208-4747-b655-65bddbd463d9","ios":"levelo://app?vid=e133423d-c208-4747-b655-65bddbd463d9"},"vehicle_type_id":"4","last_reported":1701039992,"current_range_meters":19200,"station_id":"ce4bhqp2rcd13ifvqhog","pricing_plan_id":"free"},{"bike_id":"c91caa24-ccd9-44a0-a7dc-ef3dd0691d85","system_id":"levelo_inurba_marseille","lat":43.295313,"lon":5.379055,"is_reserved":false,"is_disabled":false,"rental_uris":{"android":"levelo://app?vid=c91caa24-ccd9-44a0-a7dc-ef3dd0691d85","ios":"levelo://app?vid=c91caa24-ccd9-44a0-a7dc-ef3dd0691d85"},"vehicle_type_id":"4","last_reported":1701039992,"current_range_meters":14400,"station_id":"","pricing_plan_id":"free"},{"bike_id":"8419c25c-4a47-4eee-a5d3-9d7e8444efd6","system_id":"levelo_inurba_marseille","lat":43.293249,"lon":5.371578,"is_reserved":false,"is_disabled":false,"rental_uris":{"android":"levelo://app?vid=8419c25c-4a47-4eee-a5d3-9d7e8444efd6","ios":"levelo://app?vid=8419c25c-4a47-4eee-a5d3-9d7e8444efd6"},"vehicle_type_id":"4","last_reported":1701039992,"current_range_meters":29200,"station_id":"ce4bgh92rcd13ifvqb40","pricing_plan_id":"free"},{"bike_id":"92f95c85-4ea3-4c94-9762-e06e5cc9e8fc","system_id":"levelo_inurba_marseille","lat":43.29308,"lon":5.37452,"is_reserved":false,"is_disabled":false,"rental_uris":{"android":"levelo://app?vid=92f95c85-4ea3-4c94-9762-e06e5cc9e8fc","ios":"levelo://app?vid=92f95c85-4ea3-4c94-9762-e06e5cc9e8fc"},"vehicle_type_id":"4","last_reported":1701039992,"current_range_meters":31200,"station_id":"ce4bgi12rcd13ifvqb70","pricing_plan_id":"free"},{"bike_id":"133ae045-234f-4f44-9ef9-d5f8dd19ea1d","system_id":"levelo_inurba_marseille","lat":43.2936,"lon":5.37835,"is_reserved":false,"is_disabled":false,"rental_uris":{"android":"levelo://app?vid=133ae045-234f-4f44-9ef9-d5f8dd19ea1d","ios":"levelo://app?vid=133ae045-234f-4f44-9ef9-d5f8dd19ea1d"},"vehicle_type_id":"4","last_reported":1701039992,"current_range_meters":29200,"station_id":"ce4bgjh2rcd13ifvqbf0","pricing_plan_id":"free"},{"bike_id":"9b0844b2-e642-47b6-b489-34e9fffd6085","system_id":"levelo_inurba_marseille","lat":43.29877,"lon":5.38897,"is_reserved":false,"is_disabled":false,"rental_uris":{"android":"levelo://app?vid=9b0844b2-e642-47b6-b489-34e9fffd6085","ios":"levelo://app?vid=9b0844b2-e642-47b6-b489-34e9fffd6085"},"vehicle_type_id":"4","last_reported":1701039992,"current_range_meters":24000,"station_id":"ce4bh392rcd13ifvqdl0","pricing_plan_id":"free"},{"bike_id":"671bd9cd-e961-4631-b707-bbdd5cdcd4d3","system_id":"levelo_inurba_marseille","lat":43.309038,"lon":5.396546,"is_reserved":false,"is_disabled":false,"rental_uris":{"android":"levelo://app?vid=671bd9cd-e961-4631-b707-bbdd5cdcd4d3","ios":"levelo://app?vid=671bd9cd-e961-4631-b707-bbdd5cdcd4d3"},"vehicle_type_id":"4","last_reported":1701039992,"current_range_meters":29600,"station_id":"ce4bh012rcd13ifvqcv0","pricing_plan_id":"free"},{"bike_id":"6bbafb0e-de5a-4e53-8fdf-6383a175b2b5","system_id":"levelo_inurba_marseille","lat":43.313291,"lon":5.396838,"is_reserved":false,"is_disabled":false,"rental_uris":{"android":"levelo://app?vid=6bbafb0e-de5a-4e53-8fdf-6383a175b2b5","ios":"levelo://app?vid=6bbafb0e-de5a-4e53-8fdf-6383a175b2b5"},"vehicle_type_id":"4","last_reported":1701039992,"current_range_meters":12800,"station_id":"ce4bgvp2rcd13ifvqcu0","pricing_plan_id":"free"},{"bike_id":"dfa2cb77-50cd-4655-a3e3-3f1b190e3453","system_id":"levelo_inurba_marseille","lat":43.30885,"lon":5.396426,"is_reserved":false,"is_disabled":false,"rental_uris":{"android":"levelo://app?vid=dfa2cb77-50cd-4655-a3e3-3f1b190e3453","ios":"levelo://app?vid=dfa2cb77-50cd-4655-a3e3-3f1b190e3453"},"vehicle_type_id":"4","last_reported":1701039992,"current_range_meters":25600,"station_id":"ce4bh012rcd13ifvqcv0","pricing_plan_id":"free"},{"bike_id":"a9185b0c-f524-4acc-8618-ed48811f1e0a","system_id":"levelo_inurba_marseille","lat":43.309038,"lon":5.396546,"is_reserved":false,"is_disabled":false,"rental_uris":{"android":"levelo://app?vid=a9185b0c-f524-4acc-8618-ed48811f1e0a","ios":"levelo://app?vid=a9185b0c-f524-4acc-8618-ed48811f1e0a"},"vehicle_type_id":"4","last_reported":1701039992,"current_range_meters":31200,"station_id":"ce4bh012rcd13ifvqcv0","pricing_plan_id":"free"},{"bike_id":"25f5b4b6-212c-4289-9186-562841da850a","system_id":"levelo_inurba_marseille","lat":43.3133,"lon":5.39694,"is_reserved":false,"is_disabled":false,"rental_uris":{"android":"levelo://app?vid=25f5b4b6-212c-4289-9186-562841da850a","ios":"levelo://app?vid=25f5b4b6-212c-4289-9186-562841da850a"},"vehicle_type_id":"4","last_reported":1701039992,"current_range_meters":1600,"station_id":"ce4bgvp2rcd13ifvqcu0","pricing_plan_id":"free"},{"bike_id":"20894f0c-a016-4e6c-91a2-42eaf42972c0","system_id":"levelo_inurba_marseille","lat":43.291994,"lon":5.357886,"is_reserved":false,"is_disabled":false,"rental_uris":{"android":"levelo://app?vid=20894f0c-a016-4e6c-91a2-42eaf42972c0","ios":"levelo://app?vid=20894f0c-a016-4e6c-91a2-42eaf42972c0"},"vehicle_type_id":"4","last_reported":1701039992,"current_range_meters":26400,"station_id":"ce4bhb12rcd13ifvqel0","pricing_plan_id":"free"},{"bike_id":"8a83f809-f9a2-432d-b6b1-6a7f60ede647","system_id":"levelo_inurba_marseille","lat":43.308837,"lon":5.396543,"is_reserved":false,"is_disabled":false,"rental_uris":{"android":"levelo://app?vid=8a83f809-f9a2-432d-b6b1-6a7f60ede647","ios":"levelo://app?vid=8a83f809-f9a2-432d-b6b1-6a7f60ede647"},"vehicle_type_id":"4","last_reported":1701039992,"current_range_meters":24400,"station_id":"ce4bh012rcd13ifvqcv0","pricing_plan_id":"free"},{"bike_id":"8ea77280-c5e7-4be5-8cf2-17c791fb547c","system_id":"levelo_inurba_marseille","lat":43.290631,"lon":5.359244,"is_reserved":false,"is_disabled":false,"rental_uris":{"android":"levelo://app?vid=8ea77280-c5e7-4be5-8cf2-17c791fb547c","ios":"levelo://app?vid=8ea77280-c5e7-4be5-8cf2-17c791fb547c"},"vehicle_type_id":"4","last_reported":1701039992,"current_range_meters":28000,"station_id":"ce4bha92rcd13ifvqeg0","pricing_plan_id":"free"},{"bike_id":"f7d03061-58bd-4d69-897b-6d4c2ef675db","system_id":"levelo_inurba_marseille","lat":43.290104,"lon":5.356111,"is_reserved":false,"is_disabled":false,"rental_uris":{"android":"levelo://app?vid=f7d03061-58bd-4d69-897b-6d4c2ef675db","ios":"levelo://app?vid=f7d03061-58bd-4d69-897b-6d4c2ef675db"},"vehicle_type_id":"4","last_reported":1701039992,"current_range_meters":25200,"station_id":"ce4bhb92rcd13ifvqen0","pricing_plan_id":"free"},{"bike_id":"a73b6046-000f-4c98-a1fc-51cac1ba1906","system_id":"levelo_inurba_marseille","lat":43.29012,"lon":5.35613,"is_reserved":false,"is_disabled":false,"rental_uris":{"android":"levelo://app?vid=a73b6046-000f-4c98-a1fc-51cac1ba1906","ios":"levelo://app?vid=a73b6046-000f-4c98-a1fc-51cac1ba1906"},"vehicle_type_id":"4","last_reported":1701039992,"current_range_meters":28800,"station_id":"ce4bhb92rcd13ifvqen0","pricing_plan_id":"free"},{"bike_id":"ff8fd207-fcad-4b50-857f-5cf3ed8cc5d6","system_id":"levelo_inurba_marseille","lat":43.33038,"lon":5.38924,"is_reserved":false,"is_disabled":false,"rental_uris":{"android":"levelo://app?vid=ff8fd207-fcad-4b50-857f-5cf3ed8cc5d6","ios":"levelo://app?vid=ff8fd207-fcad-4b50-857f-5cf3ed8cc5d6"},"vehicle_type_id":"4","last_reported":1701039992,"current_range_meters":7200,"station_id":"ce4bhr92rcd13ifvqhrg","pricing_plan_id":"free"},{"bike_id":"c55c8bad-bae4-40d1-83a2-b49dd8cb5bd9","system_id":"levelo_inurba_marseille","lat":43.290103,"lon":5.356114,"is_reserved":false,"is_disabled":false,"rental_uris":{"android":"levelo://app?vid=c55c8bad-bae4-40d1-83a2-b49dd8cb5bd9","ios":"levelo://app?vid=c55c8bad-bae4-40d1-83a2-b49dd8cb5bd9"},"vehicle_type_id":"4","last_reported":1701039992,"current_range_meters":26400,"station_id":"ce4bhb92rcd13ifvqen0","pricing_plan_id":"free"},{"bike_id":"2b5fcc23-1081-4e98-8b02-791f8b42c3e1","system_id":"levelo_inurba_marseille","lat":43.290104,"lon":5.356111,"is_reserved":false,"is_disabled":false,"rental_uris":{"android":"levelo://app?vid=2b5fcc23-1081-4e98-8b02-791f8b42c3e1","ios":"levelo://app?vid=2b5fcc23-1081-4e98-8b02-791f8b42c3e1"},"vehicle_type_id":"4","last_reported":1701039992,"current_range_meters":11600,"station_id":"ce4bhb92rcd13ifvqen0","pricing_plan_id":"free"},{"bike_id":"93912483-7cdb-4bce-a39d-e9635d6f1dce","system_id":"levelo_inurba_marseille","lat":43.33046,"lon":5.38917,"is_reserved":false,"is_disabled":false,"rental_uris":{"android":"levelo://app?vid=93912483-7cdb-4bce-a39d-e9635d6f1dce","ios":"levelo://app?vid=93912483-7cdb-4bce-a39d-e9635d6f1dce"},"vehicle_type_id":"4","last_reported":1701039992,"current_range_meters":8800,"station_id":"ce4bhr92rcd13ifvqhrg","pricing_plan_id":"free"},{"bike_id":"b0aecf40-7ced-49aa-ba3c-a9e15926b728","system_id":"levelo_inurba_marseille","lat":43.290031,"lon":5.356166,"is_reserved":false,"is_disabled":false,"rental_uris":{"android":"levelo://app?vid=b0aecf40-7ced-49aa-ba3c-a9e15926b728","ios":"levelo://app?vid=b0aecf40-7ced-49aa-ba3c-a9e15926b728"},"vehicle_type_id":"4","last_reported":1701039992,"current_range_meters":6400,"station_id":"ce4bhb92rcd13ifvqen0","pricing_plan_id":"free"},{"bike_id":"c395b8e8-fb4e-4ba8-8b8c-69b2950a1b7b","system_id":"levelo_inurba_marseille","lat":43.330442,"lon":5.389148,"is_reserved":false,"is_disabled":false,"rental_uris":{"android":"levelo://app?vid=c395b8e8-fb4e-4ba8-8b8c-69b2950a1b7b","ios":"levelo://app?vid=c395b8e8-fb4e-4ba8-8b8c-69b2950a1b7b"},"vehicle_type_id":"4","last_reported":1701039992,"current_range_meters":19200,"station_id":"ce4bhr92rcd13ifvqhrg","pricing_plan_id":"free"},{"bike_id":"77b3c9bb-0cf6-48e2-bc3a-0647860b5f01","system_id":"levelo_inurba_marseille","lat":43.290033,"lon":5.356084,"is_reserved":false,"is_disabled":false,"rental_uris":{"android":"levelo://app?vid=77b3c9bb-0cf6-48e2-bc3a-0647860b5f01","ios":"levelo://app?vid=77b3c9bb-0cf6-48e2-bc3a-0647860b5f01"},"vehicle_type_id":"4","last_reported":1701039992,"current_range_meters":27200,"station_id":"ce4bhb92rcd13ifvqen0","pricing_plan_id":"free"},{"bike_id":"8e9beba8-ba16-4531-a726-64951a5af2b6","system_id":"levelo_inurba_marseille","lat":43.290995,"lon":5.381361,"is_reserved":false,"is_disabled":false,"rental_uris":{"android":"levelo://app?vid=8e9beba8-ba16-4531-a726-64951a5af2b6","ios":"levelo://app?vid=8e9beba8-ba16-4531-a726-64951a5af2b6"},"vehicle_type_id":"4","last_reported":1701039992,"current_range_meters":28000,"station_id":"ce4bh512rcd13ifvqe2g","pricing_plan_id":"free"},{"bike_id":"b74d074b-a024-42db-bc83-1343eaf167af","system_id":"levelo_inurba_marseille","lat":43.290995,"lon":5.381361,"is_reserved":false,"is_disabled":false,"rental_uris":{"android":"levelo://app?vid=b74d074b-a024-42db-bc83-1343eaf167af","ios":"levelo://app?vid=b74d074b-a024-42db-bc83-1343eaf167af"},"vehicle_type_id":"4","last_reported":1701039992,"current_range_meters":28000,"station_id":"ce4bh512rcd13ifvqe2g","pricing_plan_id":"free"},{"bike_id":"bfb733a3-dca1-4a61-8b7a-5bdb9060faad","system_id":"levelo_inurba_marseille","lat":43.290958,"lon":5.381308,"is_reserved":false,"is_disabled":false,"rental_uris":{"android":"levelo://app?vid=bfb733a3-dca1-4a61-8b7a-5bdb9060faad","ios":"levelo://app?vid=bfb733a3-dca1-4a61-8b7a-5bdb9060faad"},"vehicle_type_id":"4","last_reported":1701039992,"current_range_meters":28800,"station_id":"ce4bh512rcd13ifvqe2g","pricing_plan_id":"free"},{"bike_id":"ba44add1-0f25-4077-9400-5cf389a0f658","system_id":"levelo_inurba_marseille","lat":43.290995,"lon":5.381361,"is_reserved":false,"is_disabled":false,"rental_uris":{"android":"levelo://app?vid=ba44add1-0f25-4077-9400-5cf389a0f658","ios":"levelo://app?vid=ba44add1-0f25-4077-9400-5cf389a0f658"},"vehicle_type_id":"4","last_reported":1701039992,"current_range_meters":31600,"station_id":"ce4bh512rcd13ifvqe2g","pricing_plan_id":"free"},{"bike_id":"1b643406-ddcb-4503-a3af-c824c6c09b53","system_id":"levelo_inurba_marseille","lat":43.290995,"lon":5.381361,"is_reserved":false,"is_disabled":false,"rental_uris":{"android":"levelo://app?vid=1b643406-ddcb-4503-a3af-c824c6c09b53","ios":"levelo://app?vid=1b643406-ddcb-4503-a3af-c824c6c09b53"},"vehicle_type_id":"4","last_reported":1701039992,"current_range_meters":23600,"station_id":"ce4bh512rcd13ifvqe2g","pricing_plan_id":"free"},{"bike_id":"8c8ef7b8-d18c-45af-99a2-f5e7693c25bf","system_id":"levelo_inurba_marseille","lat":43.297933,"lon":5.393405,"is_reserved":false,"is_disabled":false,"rental_uris":{"android":"levelo://app?vid=8c8ef7b8-d18c-45af-99a2-f5e7693c25bf","ios":"levelo://app?vid=8c8ef7b8-d18c-45af-99a2-f5e7693c25bf"},"vehicle_type_id":"4","last_reported":1701039992,"current_range_meters":30400,"station_id":"chh1huq6cuj3fo74tm60","pricing_plan_id":"free"},{"bike_id":"b7cf4f00-af52-4ef6-9e33-1bf79e23c1fc","system_id":"levelo_inurba_marseille","lat":43.295169,"lon":5.390426,"is_reserved":false,"is_disabled":false,"rental_uris":{"android":"levelo://app?vid=b7cf4f00-af52-4ef6-9e33-1bf79e23c1fc","ios":"levelo://app?vid=b7cf4f00-af52-4ef6-9e33-1bf79e23c1fc"},"vehicle_type_id":"4","last_reported":1701039992,"current_range_meters":21200,"station_id":"ce4bh3p2rcd13ifvqdp0","pricing_plan_id":"free"},{"bike_id":"ef5f3793-784d-4448-a586-c772771d64b0","system_id":"levelo_inurba_marseille","lat":43.306412,"lon":5.401035,"is_reserved":false,"is_disabled":false,"rental_uris":{"android":"levelo://app?vid=ef5f3793-784d-4448-a586-c772771d64b0","ios":"levelo://app?vid=ef5f3793-784d-4448-a586-c772771d64b0"},"vehicle_type_id":"4","last_reported":1701039992,"current_range_meters":28000,"station_id":"ce4bh112rcd13ifvqda0","pricing_plan_id":"free"},{"bike_id":"4bf184a5-0cfb-48ab-9734-72669bd9a4ab","system_id":"levelo_inurba_marseille","lat":43.30928,"lon":5.40146,"is_reserved":false,"is_disabled":false,"rental_uris":{"android":"levelo://app?vid=4bf184a5-0cfb-48ab-9734-72669bd9a4ab","ios":"levelo://app?vid=4bf184a5-0cfb-48ab-9734-72669bd9a4ab"},"vehicle_type_id":"4","last_reported":1701039992,"current_range_meters":22800,"station_id":"ce4bgvp2rcd13ifvqct0","pricing_plan_id":"free"},{"bike_id":"ca25d9c1-4f19-424d-807d-70610c016d13","system_id":"levelo_inurba_marseille","lat":43.28727,"lon":5.36078,"is_reserved":false,"is_disabled":false,"rental_uris":{"android":"levelo://app?vid=ca25d9c1-4f19-424d-807d-70610c016d13","ios":"levelo://app?vid=ca25d9c1-4f19-424d-807d-70610c016d13"},"vehicle_type_id":"4","last_reported":1701039992,"current_range_meters":24000,"station_id":"cki0cbj6b192h4jlfktg","pricing_plan_id":"free"},{"bike_id":"b4a932d8-3f23-4eb4-b358-6c9940527cf3","system_id":"levelo_inurba_marseille","lat":43.299677,"lon":5.397584,"is_reserved":false,"is_disabled":false,"rental_uris":{"android":"levelo://app?vid=b4a932d8-3f23-4eb4-b358-6c9940527cf3","ios":"levelo://app?vid=b4a932d8-3f23-4eb4-b358-6c9940527cf3"},"vehicle_type_id":"4","last_reported":1701039992,"current_range_meters":7200,"station_id":"","pricing_plan_id":"free"},{"bike_id":"2e46bdc4-6ca9-492e-a039-67d62d664d65","system_id":"levelo_inurba_marseille","lat":43.28727,"lon":5.36078,"is_reserved":false,"is_disabled":false,"rental_uris":{"android":"levelo://app?vid=2e46bdc4-6ca9-492e-a039-67d62d664d65","ios":"levelo://app?vid=2e46bdc4-6ca9-492e-a039-67d62d664d65"},"vehicle_type_id":"4","last_reported":1701039992,"current_range_meters":30400,"station_id":"cki0cbj6b192h4jlfktg","pricing_plan_id":"free"},{"bike_id":"6ad298fa-f49c-461a-b002-e1ed806a452f","system_id":"levelo_inurba_marseille","lat":43.28727,"lon":5.36078,"is_reserved":false,"is_disabled":false,"rental_uris":{"android":"levelo://app?vid=6ad298fa-f49c-461a-b002-e1ed806a452f","ios":"levelo://app?vid=6ad298fa-f49c-461a-b002-e1ed806a452f"},"vehicle_type_id":"4","last_reported":1701039992,"current_range_meters":28000,"station_id":"cki0cbj6b192h4jlfktg","pricing_plan_id":"free"},{"bike_id":"b9c78761-0da4-4c40-91fc-3a34edb9c830","system_id":"levelo_inurba_marseille","lat":43.298681,"lon":5.397225,"is_reserved":false,"is_disabled":false,"rental_uris":{"android":"levelo://app?vid=b9c78761-0da4-4c40-91fc-3a34edb9c830","ios":"levelo://app?vid=b9c78761-0da4-4c40-91fc-3a34edb9c830"},"vehicle_type_id":"4","last_reported":1701039992,"current_range_meters":24800,"station_id":"ce4bh0h2rcd13ifvqd50","pricing_plan_id":"free"},{"bike_id":"a0c873d9-1f45-473b-a9b8-0c589f32082d","system_id":"levelo_inurba_marseille","lat":43.286961,"lon":5.373785,"is_reserved":false,"is_disabled":false,"rental_uris":{"android":"levelo://app?vid=a0c873d9-1f45-473b-a9b8-0c589f32082d","ios":"levelo://app?vid=a0c873d9-1f45-473b-a9b8-0c589f32082d"},"vehicle_type_id":"4","last_reported":1701039992,"current_range_meters":400,"station_id":"ce4bh3p2rcd13ifvqdq0","pricing_plan_id":"free"},{"bike_id":"f5e42b48-2769-4098-98f6-041122c23ac6","system_id":"levelo_inurba_marseille","lat":43.286591,"lon":5.363346,"is_reserved":false,"is_disabled":false,"rental_uris":{"android":"levelo://app?vid=f5e42b48-2769-4098-98f6-041122c23ac6","ios":"levelo://app?vid=f5e42b48-2769-4098-98f6-041122c23ac6"},"vehicle_type_id":"4","last_reported":1701039992,"current_range_meters":29600,"station_id":"ce4bhah2rcd13ifvqej0","pricing_plan_id":"free"},{"bike_id":"1c32affe-751e-423a-827d-76d95953688c","system_id":"levelo_inurba_marseille","lat":43.286961,"lon":5.373785,"is_reserved":false,"is_disabled":false,"rental_uris":{"android":"levelo://app?vid=1c32affe-751e-423a-827d-76d95953688c","ios":"levelo://app?vid=1c32affe-751e-423a-827d-76d95953688c"},"vehicle_type_id":"4","last_reported":1701039992,"current_range_meters":24400,"station_id":"ce4bh3p2rcd13ifvqdq0","pricing_plan_id":"free"},{"bike_id":"e087c157-15c4-41dd-82b5-9bb12ac28bdf","system_id":"levelo_inurba_marseille","lat":43.286961,"lon":5.373785,"is_reserved":false,"is_disabled":false,"rental_uris":{"android":"levelo://app?vid=e087c157-15c4-41dd-82b5-9bb12ac28bdf","ios":"levelo://app?vid=e087c157-15c4-41dd-82b5-9bb12ac28bdf"},"vehicle_type_id":"4","last_reported":1701039992,"current_range_meters":20400,"station_id":"ce4bh3p2rcd13ifvqdq0","pricing_plan_id":"free"},{"bike_id":"dcf573ef-83ac-4b1e-b6ab-23ddd59c18af","system_id":"levelo_inurba_marseille","lat":43.286591,"lon":5.363346,"is_reserved":false,"is_disabled":false,"rental_uris":{"android":"levelo://app?vid=dcf573ef-83ac-4b1e-b6ab-23ddd59c18af","ios":"levelo://app?vid=dcf573ef-83ac-4b1e-b6ab-23ddd59c18af"},"vehicle_type_id":"4","last_reported":1701039992,"current_range_meters":21600,"station_id":"ce4bhah2rcd13ifvqej0","pricing_plan_id":"free"},{"bike_id":"ebfb025a-2731-489b-a44d-803b65f0d09c","system_id":"levelo_inurba_marseille","lat":43.286961,"lon":5.373785,"is_reserved":false,"is_disabled":false,"rental_uris":{"android":"levelo://app?vid=ebfb025a-2731-489b-a44d-803b65f0d09c","ios":"levelo://app?vid=ebfb025a-2731-489b-a44d-803b65f0d09c"},"vehicle_type_id":"4","last_reported":1701039992,"current_range_meters":29200,"station_id":"ce4bh3p2rcd13ifvqdq0","pricing_plan_id":"free"},{"bike_id":"02a7c1c9-d17d-4595-a7a8-c9ad956d524d","system_id":"levelo_inurba_marseille","lat":43.286039,"lon":5.370679,"is_reserved":false,"is_disabled":false,"rental_uris":{"android":"levelo://app?vid=02a7c1c9-d17d-4595-a7a8-c9ad956d524d","ios":"levelo://app?vid=02a7c1c9-d17d-4595-a7a8-c9ad956d524d"},"vehicle_type_id":"4","last_reported":1701039992,"current_range_meters":31200,"station_id":"ce4bht12rcd13ifvqi60","pricing_plan_id":"free"},{"bike_id":"103e971f-1dd9-4e91-af92-c6ebb14fb725","system_id":"levelo_inurba_marseille","lat":43.28606,"lon":5.37045,"is_reserved":false,"is_disabled":false,"rental_uris":{"android":"levelo://app?vid=103e971f-1dd9-4e91-af92-c6ebb14fb725","ios":"levelo://app?vid=103e971f-1dd9-4e91-af92-c6ebb14fb725"},"vehicle_type_id":"4","last_reported":1701039992,"current_range_meters":24800,"station_id":"ce4bht12rcd13ifvqi60","pricing_plan_id":"free"},{"bike_id":"ec3a305d-b922-4ecb-81b4-c9b466982eb2","system_id":"levelo_inurba_marseille","lat":43.28607,"lon":5.37062,"is_reserved":false,"is_disabled":false,"rental_uris":{"android":"levelo://app?vid=ec3a305d-b922-4ecb-81b4-c9b466982eb2","ios":"levelo://app?vid=ec3a305d-b922-4ecb-81b4-c9b466982eb2"},"vehicle_type_id":"4","last_reported":1701039992,"current_range_meters":30400,"station_id":"ce4bht12rcd13ifvqi60","pricing_plan_id":"free"},{"bike_id":"ed19c0d9-4517-4d76-b210-3b7e027a24ca","system_id":"levelo_inurba_marseille","lat":43.287185,"lon":5.379373,"is_reserved":false,"is_disabled":false,"rental_uris":{"android":"levelo://app?vid=ed19c0d9-4517-4d76-b210-3b7e027a24ca","ios":"levelo://app?vid=ed19c0d9-4517-4d76-b210-3b7e027a24ca"},"vehicle_type_id":"4","last_reported":1701039992,"current_range_meters":27600,"station_id":"ce4bh9p2rcd13ifvqec0","pricing_plan_id":"free"},{"bike_id":"cca47f6e-60f8-436b-adf0-19b7d5d3337a","system_id":"levelo_inurba_marseille","lat":43.28468,"lon":5.358984,"is_reserved":false,"is_disabled":false,"rental_uris":{"android":"levelo://app?vid=cca47f6e-60f8-436b-adf0-19b7d5d3337a","ios":"levelo://app?vid=cca47f6e-60f8-436b-adf0-19b7d5d3337a"},"vehicle_type_id":"4","last_reported":1701039992,"current_range_meters":2800,"station_id":"ce4bhah2rcd13ifvqei0","pricing_plan_id":"free"},{"bike_id":"11d7d85f-e794-4877-bab0-4dcf8b4131c6","system_id":"levelo_inurba_marseille","lat":43.284538,"lon":5.358657,"is_reserved":false,"is_disabled":false,"rental_uris":{"android":"levelo://app?vid=11d7d85f-e794-4877-bab0-4dcf8b4131c6","ios":"levelo://app?vid=11d7d85f-e794-4877-bab0-4dcf8b4131c6"},"vehicle_type_id":"4","last_reported":1701039992,"current_range_meters":10800,"station_id":"ce4bhah2rcd13ifvqei0","pricing_plan_id":"free"},{"bike_id":"a05121bd-52ec-4304-ba7f-dc7667e8acfa","system_id":"levelo_inurba_marseille","lat":43.284538,"lon":5.358657,"is_reserved":false,"is_disabled":false,"rental_uris":{"android":"levelo://app?vid=a05121bd-52ec-4304-ba7f-dc7667e8acfa","ios":"levelo://app?vid=a05121bd-52ec-4304-ba7f-dc7667e8acfa"},"vehicle_type_id":"4","last_reported":1701039992,"current_range_meters":31200,"station_id":"ce4bhah2rcd13ifvqei0","pricing_plan_id":"free"},{"bike_id":"3b1acaa6-131d-4c7d-925c-ce75c27018a2","system_id":"levelo_inurba_marseille","lat":43.284534,"lon":5.358662,"is_reserved":false,"is_disabled":false,"rental_uris":{"android":"levelo://app?vid=3b1acaa6-131d-4c7d-925c-ce75c27018a2","ios":"levelo://app?vid=3b1acaa6-131d-4c7d-925c-ce75c27018a2"},"vehicle_type_id":"4","last_reported":1701039992,"current_range_meters":26400,"station_id":"ce4bhah2rcd13ifvqei0","pricing_plan_id":"free"},{"bike_id":"c2267585-6099-44fd-8c74-85997bcc0857","system_id":"levelo_inurba_marseille","lat":43.284538,"lon":5.358657,"is_reserved":false,"is_disabled":false,"rental_uris":{"android":"levelo://app?vid=c2267585-6099-44fd-8c74-85997bcc0857","ios":"levelo://app?vid=c2267585-6099-44fd-8c74-85997bcc0857"},"vehicle_type_id":"4","last_reported":1701039992,"current_range_meters":31200,"station_id":"ce4bhah2rcd13ifvqei0","pricing_plan_id":"free"},{"bike_id":"3a12544e-6647-4f7d-916e-8dd35fbfa4a7","system_id":"levelo_inurba_marseille","lat":43.284538,"lon":5.358657,"is_reserved":false,"is_disabled":false,"rental_uris":{"android":"levelo://app?vid=3a12544e-6647-4f7d-916e-8dd35fbfa4a7","ios":"levelo://app?vid=3a12544e-6647-4f7d-916e-8dd35fbfa4a7"},"vehicle_type_id":"4","last_reported":1701039992,"current_range_meters":31600,"station_id":"ce4bhah2rcd13ifvqei0","pricing_plan_id":"free"},{"bike_id":"850cce33-980b-4e96-b6bc-65a30fad8f45","system_id":"levelo_inurba_marseille","lat":43.284538,"lon":5.358657,"is_reserved":false,"is_disabled":false,"rental_uris":{"android":"levelo://app?vid=850cce33-980b-4e96-b6bc-65a30fad8f45","ios":"levelo://app?vid=850cce33-980b-4e96-b6bc-65a30fad8f45"},"vehicle_type_id":"4","last_reported":1701039992,"current_range_meters":20000,"station_id":"ce4bhah2rcd13ifvqei0","pricing_plan_id":"free"},{"bike_id":"fe0fe934-bb7d-4407-bbd5-06ef34c57eca","system_id":"levelo_inurba_marseille","lat":43.294314,"lon":5.397498,"is_reserved":false,"is_disabled":false,"rental_uris":{"android":"levelo://app?vid=fe0fe934-bb7d-4407-bbd5-06ef34c57eca","ios":"levelo://app?vid=fe0fe934-bb7d-4407-bbd5-06ef34c57eca"},"vehicle_type_id":"4","last_reported":1701039992,"current_range_meters":28400,"station_id":"ce4bh3h2rcd13ifvqdo0","pricing_plan_id":"free"},{"bike_id":"b50ae186-df09-4f5a-b559-f9ad162971a5","system_id":"levelo_inurba_marseille","lat":43.284534,"lon":5.358662,"is_reserved":false,"is_disabled":false,"rental_uris":{"android":"levelo://app?vid=b50ae186-df09-4f5a-b559-f9ad162971a5","ios":"levelo://app?vid=b50ae186-df09-4f5a-b559-f9ad162971a5"},"vehicle_type_id":"4","last_reported":1701039992,"current_range_meters":28400,"station_id":"ce4bhah2rcd13ifvqei0","pricing_plan_id":"free"},{"bike_id":"08618197-6e99-466b-a18c-0874f38b1cda","system_id":"levelo_inurba_marseille","lat":43.284534,"lon":5.358662,"is_reserved":false,"is_disabled":false,"rental_uris":{"android":"levelo://app?vid=08618197-6e99-466b-a18c-0874f38b1cda","ios":"levelo://app?vid=08618197-6e99-466b-a18c-0874f38b1cda"},"vehicle_type_id":"4","last_reported":1701039992,"current_range_meters":18000,"station_id":"ce4bhah2rcd13ifvqei0","pricing_plan_id":"free"},{"bike_id":"42786884-d38c-48b0-a5d6-623538999e27","system_id":"levelo_inurba_marseille","lat":43.283998,"lon":5.375062,"is_reserved":false,"is_disabled":false,"rental_uris":{"android":"levelo://app?vid=42786884-d38c-48b0-a5d6-623538999e27","ios":"levelo://app?vid=42786884-d38c-48b0-a5d6-623538999e27"},"vehicle_type_id":"4","last_reported":1701039992,"current_range_meters":1600,"station_id":"ce4bh412rcd13ifvqds0","pricing_plan_id":"free"},{"bike_id":"a6879ab5-3df1-4dd7-9453-c866c0e70ca6","system_id":"levelo_inurba_marseille","lat":43.283998,"lon":5.375062,"is_reserved":false,"is_disabled":false,"rental_uris":{"android":"levelo://app?vid=a6879ab5-3df1-4dd7-9453-c866c0e70ca6","ios":"levelo://app?vid=a6879ab5-3df1-4dd7-9453-c866c0e70ca6"},"vehicle_type_id":"4","last_reported":1701039992,"current_range_meters":28400,"station_id":"ce4bh412rcd13ifvqds0","pricing_plan_id":"free"},{"bike_id":"0139be6c-33d3-4f71-a3a2-d68b3cb4b8f5","system_id":"levelo_inurba_marseille","lat":43.295713,"lon":5.399639,"is_reserved":false,"is_disabled":false,"rental_uris":{"android":"levelo://app?vid=0139be6c-33d3-4f71-a3a2-d68b3cb4b8f5","ios":"levelo://app?vid=0139be6c-33d3-4f71-a3a2-d68b3cb4b8f5"},"vehicle_type_id":"4","last_reported":1701039992,"current_range_meters":11200,"station_id":"ce4bh312rcd13ifvqdj0","pricing_plan_id":"free"},{"bike_id":"a8a17ccd-d9c5-41c3-b5f8-672224c7163c","system_id":"levelo_inurba_marseille","lat":43.283998,"lon":5.375062,"is_reserved":false,"is_disabled":false,"rental_uris":{"android":"levelo://app?vid=a8a17ccd-d9c5-41c3-b5f8-672224c7163c","ios":"levelo://app?vid=a8a17ccd-d9c5-41c3-b5f8-672224c7163c"},"vehicle_type_id":"4","last_reported":1701039992,"current_range_meters":21200,"station_id":"ce4bh412rcd13ifvqds0","pricing_plan_id":"free"},{"bike_id":"da5750a3-07f1-47a0-940a-d928d9d09031","system_id":"levelo_inurba_marseille","lat":43.305364,"lon":5.384119,"is_reserved":false,"is_disabled":false,"rental_uris":{"android":"levelo://app?vid=da5750a3-07f1-47a0-940a-d928d9d09031","ios":"levelo://app?vid=da5750a3-07f1-47a0-940a-d928d9d09031"},"vehicle_type_id":"4","last_reported":1701039992,"current_range_meters":26800,"station_id":"ce4bgg92rcd13ifvqb30","pricing_plan_id":"free"},{"bike_id":"d9b0c75d-ad0b-4ca2-9642-6f6a5b7879ef","system_id":"levelo_inurba_marseille","lat":43.283998,"lon":5.375062,"is_reserved":false,"is_disabled":false,"rental_uris":{"android":"levelo://app?vid=d9b0c75d-ad0b-4ca2-9642-6f6a5b7879ef","ios":"levelo://app?vid=d9b0c75d-ad0b-4ca2-9642-6f6a5b7879ef"},"vehicle_type_id":"4","last_reported":1701039992,"current_range_meters":14800,"station_id":"ce4bh412rcd13ifvqds0","pricing_plan_id":"free"},{"bike_id":"8ecb12d4-7af4-4f31-91f2-67b55cc12b86","system_id":"levelo_inurba_marseille","lat":43.319179,"lon":5.407725,"is_reserved":false,"is_disabled":false,"rental_uris":{"android":"levelo://app?vid=8ecb12d4-7af4-4f31-91f2-67b55cc12b86","ios":"levelo://app?vid=8ecb12d4-7af4-4f31-91f2-67b55cc12b86"},"vehicle_type_id":"4","last_reported":1701039992,"current_range_meters":27600,"station_id":"ce4bhq12rcd13ifvqhig","pricing_plan_id":"free"},{"bike_id":"13628b6d-8599-44e8-bb7c-6a27cfebb6fe","system_id":"levelo_inurba_marseille","lat":43.323464,"lon":5.406297,"is_reserved":false,"is_disabled":false,"rental_uris":{"android":"levelo://app?vid=13628b6d-8599-44e8-bb7c-6a27cfebb6fe","ios":"levelo://app?vid=13628b6d-8599-44e8-bb7c-6a27cfebb6fe"},"vehicle_type_id":"4","last_reported":1701039992,"current_range_meters":31200,"station_id":"ce4bhq92rcd13ifvqhjg","pricing_plan_id":"free"},{"bike_id":"5b3bb01f-e6fd-486d-94d5-0af0ba6741fa","system_id":"levelo_inurba_marseille","lat":43.323464,"lon":5.406297,"is_reserved":false,"is_disabled":false,"rental_uris":{"android":"levelo://app?vid=5b3bb01f-e6fd-486d-94d5-0af0ba6741fa","ios":"levelo://app?vid=5b3bb01f-e6fd-486d-94d5-0af0ba6741fa"},"vehicle_type_id":"4","last_reported":1701039992,"current_range_meters":29200,"station_id":"ce4bhq92rcd13ifvqhjg","pricing_plan_id":"free"},{"bike_id":"ff4fb401-f94e-420f-8187-24139e386930","system_id":"levelo_inurba_marseille","lat":43.323464,"lon":5.406297,"is_reserved":false,"is_disabled":false,"rental_uris":{"android":"levelo://app?vid=ff4fb401-f94e-420f-8187-24139e386930","ios":"levelo://app?vid=ff4fb401-f94e-420f-8187-24139e386930"},"vehicle_type_id":"4","last_reported":1701039992,"current_range_meters":25200,"station_id":"ce4bhq92rcd13ifvqhjg","pricing_plan_id":"free"},{"bike_id":"3a508ddd-ab79-41de-ac9c-9eccdc40d497","system_id":"levelo_inurba_marseille","lat":43.288501,"lon":5.393087,"is_reserved":false,"is_disabled":false,"rental_uris":{"android":"levelo://app?vid=3a508ddd-ab79-41de-ac9c-9eccdc40d497","ios":"levelo://app?vid=3a508ddd-ab79-41de-ac9c-9eccdc40d497"},"vehicle_type_id":"4","last_reported":1701039992,"current_range_meters":400,"station_id":"ce4bh2p2rcd13ifvqdi0","pricing_plan_id":"free"},{"bike_id":"67fb2817-83ae-4918-96a3-06d56699891b","system_id":"levelo_inurba_marseille","lat":43.288501,"lon":5.393087,"is_reserved":false,"is_disabled":false,"rental_uris":{"android":"levelo://app?vid=67fb2817-83ae-4918-96a3-06d56699891b","ios":"levelo://app?vid=67fb2817-83ae-4918-96a3-06d56699891b"},"vehicle_type_id":"4","last_reported":1701039992,"current_range_meters":3600,"station_id":"ce4bh2p2rcd13ifvqdi0","pricing_plan_id":"free"},{"bike_id":"a90f18e5-e079-47cc-a889-aa913f5238e0","system_id":"levelo_inurba_marseille","lat":43.288501,"lon":5.393087,"is_reserved":false,"is_disabled":false,"rental_uris":{"android":"levelo://app?vid=a90f18e5-e079-47cc-a889-aa913f5238e0","ios":"levelo://app?vid=a90f18e5-e079-47cc-a889-aa913f5238e0"},"vehicle_type_id":"4","last_reported":1701039992,"current_range_meters":30400,"station_id":"ce4bh2p2rcd13ifvqdi0","pricing_plan_id":"free"},{"bike_id":"e2284003-4e46-4e0a-93e7-73d05c3666d9","system_id":"levelo_inurba_marseille","lat":43.33508,"lon":5.397755,"is_reserved":false,"is_disabled":false,"rental_uris":{"android":"levelo://app?vid=e2284003-4e46-4e0a-93e7-73d05c3666d9","ios":"levelo://app?vid=e2284003-4e46-4e0a-93e7-73d05c3666d9"},"vehicle_type_id":"4","last_reported":1701039992,"current_range_meters":17200,"station_id":"","pricing_plan_id":"free"},{"bike_id":"c389ae58-5cd5-4371-b39b-172182435a51","system_id":"levelo_inurba_marseille","lat":43.292724,"lon":5.401131,"is_reserved":false,"is_disabled":false,"rental_uris":{"android":"levelo://app?vid=c389ae58-5cd5-4371-b39b-172182435a51","ios":"levelo://app?vid=c389ae58-5cd5-4371-b39b-172182435a51"},"vehicle_type_id":"4","last_reported":1701039992,"current_range_meters":27200,"station_id":"ce4bh312rcd13ifvqdk0","pricing_plan_id":"free"},{"bike_id":"fb05a2a1-1da2-4416-9b70-864091572caf","system_id":"levelo_inurba_marseille","lat":43.292724,"lon":5.401131,"is_reserved":false,"is_disabled":false,"rental_uris":{"android":"levelo://app?vid=fb05a2a1-1da2-4416-9b70-864091572caf","ios":"levelo://app?vid=fb05a2a1-1da2-4416-9b70-864091572caf"},"vehicle_type_id":"4","last_reported":1701039992,"current_range_meters":28000,"station_id":"ce4bh312rcd13ifvqdk0","pricing_plan_id":"free"},{"bike_id":"c97ca477-ee2b-4671-a5e2-b34cea64a6a7","system_id":"levelo_inurba_marseille","lat":43.282744,"lon":5.350533,"is_reserved":false,"is_disabled":false,"rental_uris":{"android":"levelo://app?vid=c97ca477-ee2b-4671-a5e2-b34cea64a6a7","ios":"levelo://app?vid=c97ca477-ee2b-4671-a5e2-b34cea64a6a7"},"vehicle_type_id":"4","last_reported":1701039992,"current_range_meters":24800,"station_id":"ce4bhbp2rcd13ifvqerg","pricing_plan_id":"free"},{"bike_id":"189a88c5-3283-4c87-852a-221767b11fd8","system_id":"levelo_inurba_marseille","lat":43.282744,"lon":5.350533,"is_reserved":false,"is_disabled":false,"rental_uris":{"android":"levelo://app?vid=189a88c5-3283-4c87-852a-221767b11fd8","ios":"levelo://app?vid=189a88c5-3283-4c87-852a-221767b11fd8"},"vehicle_type_id":"4","last_reported":1701039992,"current_range_meters":6000,"station_id":"ce4bhbp2rcd13ifvqerg","pricing_plan_id":"free"},{"bike_id":"00584029-8953-4993-b331-cbca650b790e","system_id":"levelo_inurba_marseille","lat":43.282734,"lon":5.35071,"is_reserved":false,"is_disabled":false,"rental_uris":{"android":"levelo://app?vid=00584029-8953-4993-b331-cbca650b790e","ios":"levelo://app?vid=00584029-8953-4993-b331-cbca650b790e"},"vehicle_type_id":"4","last_reported":1701039992,"current_range_meters":22000,"station_id":"ce4bhbp2rcd13ifvqerg","pricing_plan_id":"free"},{"bike_id":"b79fcaa7-c964-4223-9658-a23ecbc4d3b4","system_id":"levelo_inurba_marseille","lat":43.282729,"lon":5.350708,"is_reserved":false,"is_disabled":false,"rental_uris":{"android":"levelo://app?vid=b79fcaa7-c964-4223-9658-a23ecbc4d3b4","ios":"levelo://app?vid=b79fcaa7-c964-4223-9658-a23ecbc4d3b4"},"vehicle_type_id":"4","last_reported":1701039992,"current_range_meters":30800,"station_id":"ce4bhbp2rcd13ifvqerg","pricing_plan_id":"free"},{"bike_id":"bda0e9c6-2d4a-469b-9aec-e0a20139ff9c","system_id":"levelo_inurba_marseille","lat":43.282744,"lon":5.350533,"is_reserved":false,"is_disabled":false,"rental_uris":{"android":"levelo://app?vid=bda0e9c6-2d4a-469b-9aec-e0a20139ff9c","ios":"levelo://app?vid=bda0e9c6-2d4a-469b-9aec-e0a20139ff9c"},"vehicle_type_id":"4","last_reported":1701039992,"current_range_meters":31200,"station_id":"ce4bhbp2rcd13ifvqerg","pricing_plan_id":"free"},{"bike_id":"bac6088f-6bc3-42d3-8bba-42726760c5cd","system_id":"levelo_inurba_marseille","lat":43.282754,"lon":5.350519,"is_reserved":false,"is_disabled":false,"rental_uris":{"android":"levelo://app?vid=bac6088f-6bc3-42d3-8bba-42726760c5cd","ios":"levelo://app?vid=bac6088f-6bc3-42d3-8bba-42726760c5cd"},"vehicle_type_id":"4","last_reported":1701039992,"current_range_meters":28800,"station_id":"ce4bhbp2rcd13ifvqerg","pricing_plan_id":"free"},{"bike_id":"77e2e818-f7b1-4cb5-8029-fbcbcafefa21","system_id":"levelo_inurba_marseille","lat":43.282744,"lon":5.350533,"is_reserved":false,"is_disabled":false,"rental_uris":{"android":"levelo://app?vid=77e2e818-f7b1-4cb5-8029-fbcbcafefa21","ios":"levelo://app?vid=77e2e818-f7b1-4cb5-8029-fbcbcafefa21"},"vehicle_type_id":"4","last_reported":1701039992,"current_range_meters":31600,"station_id":"ce4bhbp2rcd13ifvqerg","pricing_plan_id":"free"},{"bike_id":"6b0f7bb4-d7c0-4aec-9bc1-3e53a2e8a5bd","system_id":"levelo_inurba_marseille","lat":43.282744,"lon":5.350533,"is_reserved":false,"is_disabled":false,"rental_uris":{"android":"levelo://app?vid=6b0f7bb4-d7c0-4aec-9bc1-3e53a2e8a5bd","ios":"levelo://app?vid=6b0f7bb4-d7c0-4aec-9bc1-3e53a2e8a5bd"},"vehicle_type_id":"4","last_reported":1701039992,"current_range_meters":31600,"station_id":"ce4bhbp2rcd13ifvqerg","pricing_plan_id":"free"},{"bike_id":"2b8b4312-9908-4d24-9a48-03f8ae87c750","system_id":"levelo_inurba_marseille","lat":43.282754,"lon":5.350519,"is_reserved":false,"is_disabled":false,"rental_uris":{"android":"levelo://app?vid=2b8b4312-9908-4d24-9a48-03f8ae87c750","ios":"levelo://app?vid=2b8b4312-9908-4d24-9a48-03f8ae87c750"},"vehicle_type_id":"4","last_reported":1701039992,"current_range_meters":27200,"station_id":"ce4bhbp2rcd13ifvqerg","pricing_plan_id":"free"},{"bike_id":"9da362a8-ca99-49f2-aa37-8e35a69e2e8e","system_id":"levelo_inurba_marseille","lat":43.28039,"lon":5.369297,"is_reserved":false,"is_disabled":false,"rental_uris":{"android":"levelo://app?vid=9da362a8-ca99-49f2-aa37-8e35a69e2e8e","ios":"levelo://app?vid=9da362a8-ca99-49f2-aa37-8e35a69e2e8e"},"vehicle_type_id":"4","last_reported":1701039992,"current_range_meters":30400,"station_id":"ce4bha12rcd13ifvqef0","pricing_plan_id":"free"},{"bike_id":"0ad9877e-cee8-451f-8a2e-1a9ddaf5f37b","system_id":"levelo_inurba_marseille","lat":43.28039,"lon":5.369297,"is_reserved":false,"is_disabled":false,"rental_uris":{"android":"levelo://app?vid=0ad9877e-cee8-451f-8a2e-1a9ddaf5f37b","ios":"levelo://app?vid=0ad9877e-cee8-451f-8a2e-1a9ddaf5f37b"},"vehicle_type_id":"4","last_reported":1701039992,"current_range_meters":27200,"station_id":"ce4bha12rcd13ifvqef0","pricing_plan_id":"free"},{"bike_id":"59774753-ee6f-4231-9434-3d844a52292e","system_id":"levelo_inurba_marseille","lat":43.280382,"lon":5.369291,"is_reserved":false,"is_disabled":false,"rental_uris":{"android":"levelo://app?vid=59774753-ee6f-4231-9434-3d844a52292e","ios":"levelo://app?vid=59774753-ee6f-4231-9434-3d844a52292e"},"vehicle_type_id":"4","last_reported":1701039992,"current_range_meters":31200,"station_id":"ce4bha12rcd13ifvqef0","pricing_plan_id":"free"},{"bike_id":"029a9228-388e-43a6-950c-fa16cb234930","system_id":"levelo_inurba_marseille","lat":43.280382,"lon":5.369291,"is_reserved":false,"is_disabled":false,"rental_uris":{"android":"levelo://app?vid=029a9228-388e-43a6-950c-fa16cb234930","ios":"levelo://app?vid=029a9228-388e-43a6-950c-fa16cb234930"},"vehicle_type_id":"4","last_reported":1701039992,"current_range_meters":11200,"station_id":"ce4bha12rcd13ifvqef0","pricing_plan_id":"free"},{"bike_id":"840401f9-55c0-4bde-8444-184748ef16ff","system_id":"levelo_inurba_marseille","lat":43.290334,"lon":5.399586,"is_reserved":false,"is_disabled":false,"rental_uris":{"android":"levelo://app?vid=840401f9-55c0-4bde-8444-184748ef16ff","ios":"levelo://app?vid=840401f9-55c0-4bde-8444-184748ef16ff"},"vehicle_type_id":"4","last_reported":1701039992,"current_range_meters":22000,"station_id":"","pricing_plan_id":"free"},{"bike_id":"0e807ab9-996f-43fb-a980-786a91f63f39","system_id":"levelo_inurba_marseille","lat":43.290411,"lon":5.399734,"is_reserved":false,"is_disabled":false,"rental_uris":{"android":"levelo://app?vid=0e807ab9-996f-43fb-a980-786a91f63f39","ios":"levelo://app?vid=0e807ab9-996f-43fb-a980-786a91f63f39"},"vehicle_type_id":"4","last_reported":1701039992,"current_range_meters":22400,"station_id":"ce4bh392rcd13ifvqdm0","pricing_plan_id":"free"},{"bike_id":"d2207928-eba9-4665-b971-7ab180d4c279","system_id":"levelo_inurba_marseille","lat":43.29036,"lon":5.39967,"is_reserved":false,"is_disabled":false,"rental_uris":{"android":"levelo://app?vid=d2207928-eba9-4665-b971-7ab180d4c279","ios":"levelo://app?vid=d2207928-eba9-4665-b971-7ab180d4c279"},"vehicle_type_id":"4","last_reported":1701039992,"current_range_meters":26800,"station_id":"ce4bh392rcd13ifvqdm0","pricing_plan_id":"free"},{"bike_id":"a3b1024c-49f3-4b27-9ed9-65a312fa85f2","system_id":"levelo_inurba_marseille","lat":43.29031,"lon":5.39969,"is_reserved":false,"is_disabled":false,"rental_uris":{"android":"levelo://app?vid=a3b1024c-49f3-4b27-9ed9-65a312fa85f2","ios":"levelo://app?vid=a3b1024c-49f3-4b27-9ed9-65a312fa85f2"},"vehicle_type_id":"4","last_reported":1701039992,"current_range_meters":21600,"station_id":"ce4bh392rcd13ifvqdm0","pricing_plan_id":"free"},{"bike_id":"61f4c43e-856e-4cad-acd6-7ce0e87eda46","system_id":"levelo_inurba_marseille","lat":43.281044,"lon":5.378308,"is_reserved":false,"is_disabled":false,"rental_uris":{"android":"levelo://app?vid=61f4c43e-856e-4cad-acd6-7ce0e87eda46","ios":"levelo://app?vid=61f4c43e-856e-4cad-acd6-7ce0e87eda46"},"vehicle_type_id":"4","last_reported":1701039992,"current_range_meters":27200,"station_id":"ce4bha12rcd13ifvqee0","pricing_plan_id":"free"},{"bike_id":"919c4cb2-875d-4bf0-bcc5-66e2c59dee89","system_id":"levelo_inurba_marseille","lat":43.281044,"lon":5.378308,"is_reserved":false,"is_disabled":false,"rental_uris":{"android":"levelo://app?vid=919c4cb2-875d-4bf0-bcc5-66e2c59dee89","ios":"levelo://app?vid=919c4cb2-875d-4bf0-bcc5-66e2c59dee89"},"vehicle_type_id":"4","last_reported":1701039992,"current_range_meters":24000,"station_id":"ce4bha12rcd13ifvqee0","pricing_plan_id":"free"},{"bike_id":"3dea0516-1f46-411f-8ae5-14daccadd3b2","system_id":"levelo_inurba_marseille","lat":43.29041,"lon":5.39997,"is_reserved":false,"is_disabled":false,"rental_uris":{"android":"levelo://app?vid=3dea0516-1f46-411f-8ae5-14daccadd3b2","ios":"levelo://app?vid=3dea0516-1f46-411f-8ae5-14daccadd3b2"},"vehicle_type_id":"4","last_reported":1701039992,"current_range_meters":13600,"station_id":"ce4bh392rcd13ifvqdm0","pricing_plan_id":"free"},{"bike_id":"eac18d60-16ca-4394-ba55-e719355b5ec9","system_id":"levelo_inurba_marseille","lat":43.296263,"lon":5.40601,"is_reserved":false,"is_disabled":false,"rental_uris":{"android":"levelo://app?vid=eac18d60-16ca-4394-ba55-e719355b5ec9","ios":"levelo://app?vid=eac18d60-16ca-4394-ba55-e719355b5ec9"},"vehicle_type_id":"4","last_reported":1701039992,"current_range_meters":14400,"station_id":"ce4bh0h2rcd13ifvqd60","pricing_plan_id":"free"},{"bike_id":"ca7dfa77-1663-4860-9d30-410aaae6251f","system_id":"levelo_inurba_marseille","lat":43.285742,"lon":5.395004,"is_reserved":false,"is_disabled":false,"rental_uris":{"android":"levelo://app?vid=ca7dfa77-1663-4860-9d30-410aaae6251f","ios":"levelo://app?vid=ca7dfa77-1663-4860-9d30-410aaae6251f"},"vehicle_type_id":"4","last_reported":1701039992,"current_range_meters":30400,"station_id":"ce4bh292rcd13ifvqdg0","pricing_plan_id":"free"},{"bike_id":"0fe9ba7e-d8ec-4567-9276-c6bf2e3723c7","system_id":"levelo_inurba_marseille","lat":43.28573,"lon":5.394992,"is_reserved":false,"is_disabled":false,"rental_uris":{"android":"levelo://app?vid=0fe9ba7e-d8ec-4567-9276-c6bf2e3723c7","ios":"levelo://app?vid=0fe9ba7e-d8ec-4567-9276-c6bf2e3723c7"},"vehicle_type_id":"4","last_reported":1701039992,"current_range_meters":26400,"station_id":"ce4bh292rcd13ifvqdg0","pricing_plan_id":"free"},{"bike_id":"fdfdc220-1796-4efb-8fc1-d6f30088a244","system_id":"levelo_inurba_marseille","lat":43.28573,"lon":5.394992,"is_reserved":false,"is_disabled":false,"rental_uris":{"android":"levelo://app?vid=fdfdc220-1796-4efb-8fc1-d6f30088a244","ios":"levelo://app?vid=fdfdc220-1796-4efb-8fc1-d6f30088a244"},"vehicle_type_id":"4","last_reported":1701039992,"current_range_meters":26000,"station_id":"ce4bh292rcd13ifvqdg0","pricing_plan_id":"free"},{"bike_id":"064cf4cb-d40a-47a3-bb84-802c2defe67c","system_id":"levelo_inurba_marseille","lat":43.304188,"lon":5.412904,"is_reserved":false,"is_disabled":false,"rental_uris":{"android":"levelo://app?vid=064cf4cb-d40a-47a3-bb84-802c2defe67c","ios":"levelo://app?vid=064cf4cb-d40a-47a3-bb84-802c2defe67c"},"vehicle_type_id":"4","last_reported":1701039992,"current_range_meters":26400,"station_id":"ce4bhop2rcd13ifvqh8g","pricing_plan_id":"free"},{"bike_id":"b20f0108-436f-47f7-bb1f-edd5a0bb8632","system_id":"levelo_inurba_marseille","lat":43.279087,"lon":5.380114,"is_reserved":false,"is_disabled":false,"rental_uris":{"android":"levelo://app?vid=b20f0108-436f-47f7-bb1f-edd5a0bb8632","ios":"levelo://app?vid=b20f0108-436f-47f7-bb1f-edd5a0bb8632"},"vehicle_type_id":"4","last_reported":1701039992,"current_range_meters":31200,"station_id":"ce4bhf92rcd13ifvqf50","pricing_plan_id":"free"},{"bike_id":"75597bfa-bfd6-4455-ad96-621216d1bace","system_id":"levelo_inurba_marseille","lat":43.287154,"lon":5.399979,"is_reserved":false,"is_disabled":false,"rental_uris":{"android":"levelo://app?vid=75597bfa-bfd6-4455-ad96-621216d1bace","ios":"levelo://app?vid=75597bfa-bfd6-4455-ad96-621216d1bace"},"vehicle_type_id":"4","last_reported":1701039992,"current_range_meters":22400,"station_id":"ce4bho92rcd13ifvqh3g","pricing_plan_id":"free"},{"bike_id":"5252a133-c24c-4c3e-a0ed-6c58bbd231b2","system_id":"levelo_inurba_marseille","lat":43.287154,"lon":5.399979,"is_reserved":false,"is_disabled":false,"rental_uris":{"android":"levelo://app?vid=5252a133-c24c-4c3e-a0ed-6c58bbd231b2","ios":"levelo://app?vid=5252a133-c24c-4c3e-a0ed-6c58bbd231b2"},"vehicle_type_id":"4","last_reported":1701039992,"current_range_meters":27200,"station_id":"ce4bho92rcd13ifvqh3g","pricing_plan_id":"free"},{"bike_id":"4eafc249-a85d-4181-aeba-e8fcc9e94f4e","system_id":"levelo_inurba_marseille","lat":43.279087,"lon":5.380114,"is_reserved":false,"is_disabled":false,"rental_uris":{"android":"levelo://app?vid=4eafc249-a85d-4181-aeba-e8fcc9e94f4e","ios":"levelo://app?vid=4eafc249-a85d-4181-aeba-e8fcc9e94f4e"},"vehicle_type_id":"4","last_reported":1701039992,"current_range_meters":28000,"station_id":"ce4bhf92rcd13ifvqf50","pricing_plan_id":"free"},{"bike_id":"1eaa795f-aa2a-4c79-aa91-3324f0ba820b","system_id":"levelo_inurba_marseille","lat":43.287154,"lon":5.399979,"is_reserved":false,"is_disabled":false,"rental_uris":{"android":"levelo://app?vid=1eaa795f-aa2a-4c79-aa91-3324f0ba820b","ios":"levelo://app?vid=1eaa795f-aa2a-4c79-aa91-3324f0ba820b"},"vehicle_type_id":"4","last_reported":1701039992,"current_range_meters":22800,"station_id":"ce4bho92rcd13ifvqh3g","pricing_plan_id":"free"},{"bike_id":"d045fc31-b7dc-4ad1-afe9-817bc49a0ef7","system_id":"levelo_inurba_marseille","lat":43.287154,"lon":5.399979,"is_reserved":false,"is_disabled":false,"rental_uris":{"android":"levelo://app?vid=d045fc31-b7dc-4ad1-afe9-817bc49a0ef7","ios":"levelo://app?vid=d045fc31-b7dc-4ad1-afe9-817bc49a0ef7"},"vehicle_type_id":"4","last_reported":1701039992,"current_range_meters":30400,"station_id":"ce4bho92rcd13ifvqh3g","pricing_plan_id":"free"},{"bike_id":"6d8912c6-7d65-4a6e-83fe-0ee4753c1bae","system_id":"levelo_inurba_marseille","lat":43.287154,"lon":5.399979,"is_reserved":false,"is_disabled":false,"rental_uris":{"android":"levelo://app?vid=6d8912c6-7d65-4a6e-83fe-0ee4753c1bae","ios":"levelo://app?vid=6d8912c6-7d65-4a6e-83fe-0ee4753c1bae"},"vehicle_type_id":"4","last_reported":1701039992,"current_range_meters":10400,"station_id":"ce4bho92rcd13ifvqh3g","pricing_plan_id":"free"},{"bike_id":"e4dd17c2-cc9f-46c8-8a8b-e0859db5f5dc","system_id":"levelo_inurba_marseille","lat":43.287154,"lon":5.399979,"is_reserved":false,"is_disabled":false,"rental_uris":{"android":"levelo://app?vid=e4dd17c2-cc9f-46c8-8a8b-e0859db5f5dc","ios":"levelo://app?vid=e4dd17c2-cc9f-46c8-8a8b-e0859db5f5dc"},"vehicle_type_id":"4","last_reported":1701039992,"current_range_meters":28400,"station_id":"ce4bho92rcd13ifvqh3g","pricing_plan_id":"free"},{"bike_id":"c103b530-9c6d-4ac7-adf6-4ae019cb5aa9","system_id":"levelo_inurba_marseille","lat":43.299579,"lon":5.413255,"is_reserved":false,"is_disabled":false,"rental_uris":{"android":"levelo://app?vid=c103b530-9c6d-4ac7-adf6-4ae019cb5aa9","ios":"levelo://app?vid=c103b530-9c6d-4ac7-adf6-4ae019cb5aa9"},"vehicle_type_id":"4","last_reported":1701039992,"current_range_meters":30800,"station_id":"ce4bhp12rcd13ifvqh9g","pricing_plan_id":"free"},{"bike_id":"6526cad1-2f4b-4db1-8d6b-ce04bc407b31","system_id":"levelo_inurba_marseille","lat":43.34883,"lon":5.37501,"is_reserved":false,"is_disabled":false,"rental_uris":{"android":"levelo://app?vid=6526cad1-2f4b-4db1-8d6b-ce04bc407b31","ios":"levelo://app?vid=6526cad1-2f4b-4db1-8d6b-ce04bc407b31"},"vehicle_type_id":"4","last_reported":1701039992,"current_range_meters":0,"station_id":"","pricing_plan_id":"free"},{"bike_id":"cd83fb33-b485-4433-a047-6640d87078e7","system_id":"levelo_inurba_marseille","lat":43.292571,"lon":5.409107,"is_reserved":false,"is_disabled":false,"rental_uris":{"android":"levelo://app?vid=cd83fb33-b485-4433-a047-6640d87078e7","ios":"levelo://app?vid=cd83fb33-b485-4433-a047-6640d87078e7"},"vehicle_type_id":"4","last_reported":1701039992,"current_range_meters":25600,"station_id":"ce4bh192rcd13ifvqdc0","pricing_plan_id":"free"},{"bike_id":"dc5d04d2-2b09-4dea-8be4-a32c69f01655","system_id":"levelo_inurba_marseille","lat":43.276193,"lon":5.36104,"is_reserved":false,"is_disabled":false,"rental_uris":{"android":"levelo://app?vid=dc5d04d2-2b09-4dea-8be4-a32c69f01655","ios":"levelo://app?vid=dc5d04d2-2b09-4dea-8be4-a32c69f01655"},"vehicle_type_id":"4","last_reported":1701039992,"current_range_meters":0,"station_id":"ce4bgj92rcd13ifvqbe0","pricing_plan_id":"free"},{"bike_id":"ea97ff8c-669e-4c95-8b1d-a9d6b5aa2231","system_id":"levelo_inurba_marseille","lat":43.276179,"lon":5.361009,"is_reserved":false,"is_disabled":false,"rental_uris":{"android":"levelo://app?vid=ea97ff8c-669e-4c95-8b1d-a9d6b5aa2231","ios":"levelo://app?vid=ea97ff8c-669e-4c95-8b1d-a9d6b5aa2231"},"vehicle_type_id":"4","last_reported":1701039992,"current_range_meters":5600,"station_id":"ce4bgj92rcd13ifvqbe0","pricing_plan_id":"free"},{"bike_id":"7b3f2857-4020-4e9a-9572-5065d96ebff7","system_id":"levelo_inurba_marseille","lat":43.276179,"lon":5.361009,"is_reserved":false,"is_disabled":false,"rental_uris":{"android":"levelo://app?vid=7b3f2857-4020-4e9a-9572-5065d96ebff7","ios":"levelo://app?vid=7b3f2857-4020-4e9a-9572-5065d96ebff7"},"vehicle_type_id":"4","last_reported":1701039992,"current_range_meters":22400,"station_id":"ce4bgj92rcd13ifvqbe0","pricing_plan_id":"free"},{"bike_id":"c25ea147-e804-4786-9d25-91f61a8ed59a","system_id":"levelo_inurba_marseille","lat":43.293651,"lon":5.41268,"is_reserved":false,"is_disabled":false,"rental_uris":{"android":"levelo://app?vid=c25ea147-e804-4786-9d25-91f61a8ed59a","ios":"levelo://app?vid=c25ea147-e804-4786-9d25-91f61a8ed59a"},"vehicle_type_id":"4","last_reported":1701039992,"current_range_meters":0,"station_id":"","pricing_plan_id":"free"},{"bike_id":"d7d5ad38-a706-46bf-a9f7-837653392e36","system_id":"levelo_inurba_marseille","lat":43.303506,"lon":5.418706,"is_reserved":false,"is_disabled":false,"rental_uris":{"android":"levelo://app?vid=d7d5ad38-a706-46bf-a9f7-837653392e36","ios":"levelo://app?vid=d7d5ad38-a706-46bf-a9f7-837653392e36"},"vehicle_type_id":"4","last_reported":1701039992,"current_range_meters":14800,"station_id":"ce4bhop2rcd13ifvqh7g","pricing_plan_id":"free"},{"bike_id":"5ee57155-df57-4962-9544-56ad6c09b1e3","system_id":"levelo_inurba_marseille","lat":43.3035,"lon":5.41875,"is_reserved":false,"is_disabled":false,"rental_uris":{"android":"levelo://app?vid=5ee57155-df57-4962-9544-56ad6c09b1e3","ios":"levelo://app?vid=5ee57155-df57-4962-9544-56ad6c09b1e3"},"vehicle_type_id":"4","last_reported":1701039992,"current_range_meters":25600,"station_id":"ce4bhop2rcd13ifvqh7g","pricing_plan_id":"free"},{"bike_id":"b0ed4a91-f4d2-43e8-b684-e4e09d3127b8","system_id":"levelo_inurba_marseille","lat":43.30354,"lon":5.41885,"is_reserved":false,"is_disabled":false,"rental_uris":{"android":"levelo://app?vid=b0ed4a91-f4d2-43e8-b684-e4e09d3127b8","ios":"levelo://app?vid=b0ed4a91-f4d2-43e8-b684-e4e09d3127b8"},"vehicle_type_id":"4","last_reported":1701039992,"current_range_meters":6800,"station_id":"ce4bhop2rcd13ifvqh7g","pricing_plan_id":"free"},{"bike_id":"3e34d9a2-69c9-4958-a90a-184ecf2ebc53","system_id":"levelo_inurba_marseille","lat":43.278305,"lon":5.392005,"is_reserved":false,"is_disabled":false,"rental_uris":{"android":"levelo://app?vid=3e34d9a2-69c9-4958-a90a-184ecf2ebc53","ios":"levelo://app?vid=3e34d9a2-69c9-4958-a90a-184ecf2ebc53"},"vehicle_type_id":"4","last_reported":1701039992,"current_range_meters":0,"station_id":"ce4bhjp2rcd13ifvqga0","pricing_plan_id":"free"},{"bike_id":"5d295a7b-ec68-4a9b-9615-d333d1ba1c9b","system_id":"levelo_inurba_marseille","lat":43.33612,"lon":5.410321,"is_reserved":false,"is_disabled":false,"rental_uris":{"android":"levelo://app?vid=5d295a7b-ec68-4a9b-9615-d333d1ba1c9b","ios":"levelo://app?vid=5d295a7b-ec68-4a9b-9615-d333d1ba1c9b"},"vehicle_type_id":"4","last_reported":1701039992,"current_range_meters":25600,"station_id":"ce4bhqh2rcd13ifvqhmg","pricing_plan_id":"free"},{"bike_id":"4a2ad0ab-e32a-4e68-89e8-c4dcf1651a42","system_id":"levelo_inurba_marseille","lat":43.275532,"lon":5.384161,"is_reserved":false,"is_disabled":false,"rental_uris":{"android":"levelo://app?vid=4a2ad0ab-e32a-4e68-89e8-c4dcf1651a42","ios":"levelo://app?vid=4a2ad0ab-e32a-4e68-89e8-c4dcf1651a42"},"vehicle_type_id":"4","last_reported":1701039992,"current_range_meters":0,"station_id":"ce4bhh92rcd13ifvqfi0","pricing_plan_id":"free"},{"bike_id":"8a758c03-c255-4159-b68e-42f6c427f52d","system_id":"levelo_inurba_marseille","lat":43.336148,"lon":5.410349,"is_reserved":false,"is_disabled":false,"rental_uris":{"android":"levelo://app?vid=8a758c03-c255-4159-b68e-42f6c427f52d","ios":"levelo://app?vid=8a758c03-c255-4159-b68e-42f6c427f52d"},"vehicle_type_id":"4","last_reported":1701039992,"current_range_meters":30400,"station_id":"ce4bhqh2rcd13ifvqhmg","pricing_plan_id":"free"},{"bike_id":"7424a429-0fb8-48ee-b6d6-d90c89061a07","system_id":"levelo_inurba_marseille","lat":43.31084,"lon":5.42428,"is_reserved":false,"is_disabled":false,"rental_uris":{"android":"levelo://app?vid=7424a429-0fb8-48ee-b6d6-d90c89061a07","ios":"levelo://app?vid=7424a429-0fb8-48ee-b6d6-d90c89061a07"},"vehicle_type_id":"4","last_reported":1701039992,"current_range_meters":26800,"station_id":"ce4bhp92rcd13ifvqhag","pricing_plan_id":"free"},{"bike_id":"8eb5bdb0-5c9b-4999-93c3-a1a499ccf536","system_id":"levelo_inurba_marseille","lat":43.31083,"lon":5.42432,"is_reserved":false,"is_disabled":false,"rental_uris":{"android":"levelo://app?vid=8eb5bdb0-5c9b-4999-93c3-a1a499ccf536","ios":"levelo://app?vid=8eb5bdb0-5c9b-4999-93c3-a1a499ccf536"},"vehicle_type_id":"4","last_reported":1701039992,"current_range_meters":29600,"station_id":"ce4bhp92rcd13ifvqhag","pricing_plan_id":"free"},{"bike_id":"2bac63be-2248-4f83-9913-6fa6e719b914","system_id":"levelo_inurba_marseille","lat":43.31088,"lon":5.42436,"is_reserved":false,"is_disabled":false,"rental_uris":{"android":"levelo://app?vid=2bac63be-2248-4f83-9913-6fa6e719b914","ios":"levelo://app?vid=2bac63be-2248-4f83-9913-6fa6e719b914"},"vehicle_type_id":"4","last_reported":1701039992,"current_range_meters":10800,"station_id":"ce4bhp92rcd13ifvqhag","pricing_plan_id":"free"},{"bike_id":"956ba346-5ecd-400b-a5ec-d1812886f5f5","system_id":"levelo_inurba_marseille","lat":43.340804,"lon":5.410219,"is_reserved":false,"is_disabled":false,"rental_uris":{"android":"levelo://app?vid=956ba346-5ecd-400b-a5ec-d1812886f5f5","ios":"levelo://app?vid=956ba346-5ecd-400b-a5ec-d1812886f5f5"},"vehicle_type_id":"4","last_reported":1701039992,"current_range_meters":30000,"station_id":"ce4bhqh2rcd13ifvqhlg","pricing_plan_id":"free"},{"bike_id":"41dcae60-2c28-4a0f-83a9-e8df85c25bef","system_id":"levelo_inurba_marseille","lat":43.340804,"lon":5.410219,"is_reserved":false,"is_disabled":false,"rental_uris":{"android":"levelo://app?vid=41dcae60-2c28-4a0f-83a9-e8df85c25bef","ios":"levelo://app?vid=41dcae60-2c28-4a0f-83a9-e8df85c25bef"},"vehicle_type_id":"4","last_reported":1701039992,"current_range_meters":27600,"station_id":"ce4bhqh2rcd13ifvqhlg","pricing_plan_id":"free"},{"bike_id":"990bc784-8f9a-4c93-9adc-1f5f53150362","system_id":"levelo_inurba_marseille","lat":43.340804,"lon":5.410219,"is_reserved":false,"is_disabled":false,"rental_uris":{"android":"levelo://app?vid=990bc784-8f9a-4c93-9adc-1f5f53150362","ios":"levelo://app?vid=990bc784-8f9a-4c93-9adc-1f5f53150362"},"vehicle_type_id":"4","last_reported":1701039992,"current_range_meters":27200,"station_id":"ce4bhqh2rcd13ifvqhlg","pricing_plan_id":"free"},{"bike_id":"6466869b-e784-4e39-8393-61c66d60ba4d","system_id":"levelo_inurba_marseille","lat":43.274099,"lon":5.394019,"is_reserved":false,"is_disabled":false,"rental_uris":{"android":"levelo://app?vid=6466869b-e784-4e39-8393-61c66d60ba4d","ios":"levelo://app?vid=6466869b-e784-4e39-8393-61c66d60ba4d"},"vehicle_type_id":"4","last_reported":1701039992,"current_range_meters":14800,"station_id":"ce4bhdp2rcd13ifvqf20","pricing_plan_id":"free"},{"bike_id":"3029bb9c-a722-4a0b-80d7-eaec226f56af","system_id":"levelo_inurba_marseille","lat":43.295511,"lon":5.422926,"is_reserved":false,"is_disabled":false,"rental_uris":{"android":"levelo://app?vid=3029bb9c-a722-4a0b-80d7-eaec226f56af","ios":"levelo://app?vid=3029bb9c-a722-4a0b-80d7-eaec226f56af"},"vehicle_type_id":"4","last_reported":1701039992,"current_range_meters":25200,"station_id":"ce4bhph2rcd13ifvqhdg","pricing_plan_id":"free"},{"bike_id":"487e8935-2222-4e65-8507-6d483307a42a","system_id":"levelo_inurba_marseille","lat":43.295511,"lon":5.422926,"is_reserved":false,"is_disabled":false,"rental_uris":{"android":"levelo://app?vid=487e8935-2222-4e65-8507-6d483307a42a","ios":"levelo://app?vid=487e8935-2222-4e65-8507-6d483307a42a"},"vehicle_type_id":"4","last_reported":1701039992,"current_range_meters":32000,"station_id":"ce4bhph2rcd13ifvqhdg","pricing_plan_id":"free"},{"bike_id":"11c530ef-3a1e-4341-9786-f43509d01bc1","system_id":"levelo_inurba_marseille","lat":43.2993,"lon":5.42563,"is_reserved":false,"is_disabled":false,"rental_uris":{"android":"levelo://app?vid=11c530ef-3a1e-4341-9786-f43509d01bc1","ios":"levelo://app?vid=11c530ef-3a1e-4341-9786-f43509d01bc1"},"vehicle_type_id":"4","last_reported":1701039992,"current_range_meters":2800,"station_id":"","pricing_plan_id":"free"},{"bike_id":"437874cc-a3d6-48d1-acea-3a7fd02d0a08","system_id":"levelo_inurba_marseille","lat":43.278128,"lon":5.407195,"is_reserved":false,"is_disabled":false,"rental_uris":{"android":"levelo://app?vid=437874cc-a3d6-48d1-acea-3a7fd02d0a08","ios":"levelo://app?vid=437874cc-a3d6-48d1-acea-3a7fd02d0a08"},"vehicle_type_id":"4","last_reported":1701039992,"current_range_meters":26000,"station_id":"ce4bhnh2rcd13ifvqgtg","pricing_plan_id":"free"},{"bike_id":"0d37c74b-b317-4b8b-9dae-c96829bfd787","system_id":"levelo_inurba_marseille","lat":43.278128,"lon":5.407195,"is_reserved":false,"is_disabled":false,"rental_uris":{"android":"levelo://app?vid=0d37c74b-b317-4b8b-9dae-c96829bfd787","ios":"levelo://app?vid=0d37c74b-b317-4b8b-9dae-c96829bfd787"},"vehicle_type_id":"4","last_reported":1701039992,"current_range_meters":25200,"station_id":"ce4bhnh2rcd13ifvqgtg","pricing_plan_id":"free"},{"bike_id":"cbe622da-a5ba-4176-a39d-cb65b3e29ba5","system_id":"levelo_inurba_marseille","lat":43.278128,"lon":5.407195,"is_reserved":false,"is_disabled":false,"rental_uris":{"android":"levelo://app?vid=cbe622da-a5ba-4176-a39d-cb65b3e29ba5","ios":"levelo://app?vid=cbe622da-a5ba-4176-a39d-cb65b3e29ba5"},"vehicle_type_id":"4","last_reported":1701039992,"current_range_meters":16000,"station_id":"ce4bhnh2rcd13ifvqgtg","pricing_plan_id":"free"},{"bike_id":"5696de41-a78d-4b0f-baac-569d8717d1ad","system_id":"levelo_inurba_marseille","lat":43.27311,"lon":5.39943,"is_reserved":false,"is_disabled":false,"rental_uris":{"android":"levelo://app?vid=5696de41-a78d-4b0f-baac-569d8717d1ad","ios":"levelo://app?vid=5696de41-a78d-4b0f-baac-569d8717d1ad"},"vehicle_type_id":"4","last_reported":1701039992,"current_range_meters":21600,"station_id":"","pricing_plan_id":"free"},{"bike_id":"f23d8119-b478-4639-98c5-6883279f9f84","system_id":"levelo_inurba_marseille","lat":43.32592,"lon":5.43067,"is_reserved":false,"is_disabled":false,"rental_uris":{"android":"levelo://app?vid=f23d8119-b478-4639-98c5-6883279f9f84","ios":"levelo://app?vid=f23d8119-b478-4639-98c5-6883279f9f84"},"vehicle_type_id":"4","last_reported":1701039992,"current_range_meters":21200,"station_id":"","pricing_plan_id":"free"},{"bike_id":"ed30d6a1-b23a-49e5-9c83-5546be72a734","system_id":"levelo_inurba_marseille","lat":43.3259,"lon":5.43075,"is_reserved":false,"is_disabled":false,"rental_uris":{"android":"levelo://app?vid=ed30d6a1-b23a-49e5-9c83-5546be72a734","ios":"levelo://app?vid=ed30d6a1-b23a-49e5-9c83-5546be72a734"},"vehicle_type_id":"4","last_reported":1701039992,"current_range_meters":16000,"station_id":"","pricing_plan_id":"free"},{"bike_id":"d67469ee-5362-4610-a163-fe05ae3cf4f7","system_id":"levelo_inurba_marseille","lat":43.32604,"lon":5.430817,"is_reserved":false,"is_disabled":false,"rental_uris":{"android":"levelo://app?vid=d67469ee-5362-4610-a163-fe05ae3cf4f7","ios":"levelo://app?vid=d67469ee-5362-4610-a163-fe05ae3cf4f7"},"vehicle_type_id":"4","last_reported":1701039992,"current_range_meters":4400,"station_id":"","pricing_plan_id":"free"},{"bike_id":"2d1e1a88-8dde-47ab-ae09-8d8cc377c45e","system_id":"levelo_inurba_marseille","lat":43.27996,"lon":5.416624,"is_reserved":false,"is_disabled":false,"rental_uris":{"android":"levelo://app?vid=2d1e1a88-8dde-47ab-ae09-8d8cc377c45e","ios":"levelo://app?vid=2d1e1a88-8dde-47ab-ae09-8d8cc377c45e"},"vehicle_type_id":"4","last_reported":1701039992,"current_range_meters":27600,"station_id":"ce4bho12rcd13ifvqh1g","pricing_plan_id":"free"},{"bike_id":"2b5f0b27-ae58-4e9e-bd76-c585f78e8a73","system_id":"levelo_inurba_marseille","lat":43.26386,"lon":5.37454,"is_reserved":false,"is_disabled":false,"rental_uris":{"android":"levelo://app?vid=2b5f0b27-ae58-4e9e-bd76-c585f78e8a73","ios":"levelo://app?vid=2b5f0b27-ae58-4e9e-bd76-c585f78e8a73"},"vehicle_type_id":"4","last_reported":1701039992,"current_range_meters":5200,"station_id":"","pricing_plan_id":"free"},{"bike_id":"72ee18e5-d86e-45a9-9827-b69c0a8a4c00","system_id":"levelo_inurba_marseille","lat":43.265571,"lon":5.390032,"is_reserved":false,"is_disabled":false,"rental_uris":{"android":"levelo://app?vid=72ee18e5-d86e-45a9-9827-b69c0a8a4c00","ios":"levelo://app?vid=72ee18e5-d86e-45a9-9827-b69c0a8a4c00"},"vehicle_type_id":"4","last_reported":1701039992,"current_range_meters":23200,"station_id":"ce4bhe12rcd13ifvqf30","pricing_plan_id":"free"},{"bike_id":"81417be7-c0f3-482c-a0f1-9cf2b55f2dfc","system_id":"levelo_inurba_marseille","lat":43.265486,"lon":5.389949,"is_reserved":false,"is_disabled":false,"rental_uris":{"android":"levelo://app?vid=81417be7-c0f3-482c-a0f1-9cf2b55f2dfc","ios":"levelo://app?vid=81417be7-c0f3-482c-a0f1-9cf2b55f2dfc"},"vehicle_type_id":"4","last_reported":1701039992,"current_range_meters":24800,"station_id":"ce4bhe12rcd13ifvqf30","pricing_plan_id":"free"},{"bike_id":"4e51360c-c0f2-4ec8-9cc6-e51aefb6dc54","system_id":"levelo_inurba_marseille","lat":43.265497,"lon":5.390003,"is_reserved":false,"is_disabled":false,"rental_uris":{"android":"levelo://app?vid=4e51360c-c0f2-4ec8-9cc6-e51aefb6dc54","ios":"levelo://app?vid=4e51360c-c0f2-4ec8-9cc6-e51aefb6dc54"},"vehicle_type_id":"4","last_reported":1701039992,"current_range_meters":10800,"station_id":"ce4bhe12rcd13ifvqf30","pricing_plan_id":"free"},{"bike_id":"97f80185-fa05-4829-9ebf-943295623d1e","system_id":"levelo_inurba_marseille","lat":43.317104,"lon":5.436818,"is_reserved":false,"is_disabled":false,"rental_uris":{"android":"levelo://app?vid=97f80185-fa05-4829-9ebf-943295623d1e","ios":"levelo://app?vid=97f80185-fa05-4829-9ebf-943295623d1e"},"vehicle_type_id":"4","last_reported":1701039992,"current_range_meters":25600,"station_id":"ce4bhp92rcd13ifvqhcg","pricing_plan_id":"free"},{"bike_id":"cdf2c497-f033-4c0f-80f4-b4e51e4970c2","system_id":"levelo_inurba_marseille","lat":43.27176,"lon":5.40994,"is_reserved":false,"is_disabled":false,"rental_uris":{"android":"levelo://app?vid=cdf2c497-f033-4c0f-80f4-b4e51e4970c2","ios":"levelo://app?vid=cdf2c497-f033-4c0f-80f4-b4e51e4970c2"},"vehicle_type_id":"4","last_reported":1701039992,"current_range_meters":21600,"station_id":"ce4bhl12rcd13ifvqgf0","pricing_plan_id":"free"},{"bike_id":"6486a652-dc78-4f86-b884-a8279240274a","system_id":"levelo_inurba_marseille","lat":43.271736,"lon":5.409919,"is_reserved":false,"is_disabled":false,"rental_uris":{"android":"levelo://app?vid=6486a652-dc78-4f86-b884-a8279240274a","ios":"levelo://app?vid=6486a652-dc78-4f86-b884-a8279240274a"},"vehicle_type_id":"4","last_reported":1701039992,"current_range_meters":12000,"station_id":"ce4bhl12rcd13ifvqgf0","pricing_plan_id":"free"},{"bike_id":"13efbc1c-d5e6-4098-8f82-49cd483b6f29","system_id":"levelo_inurba_marseille","lat":43.267959,"lon":5.402687,"is_reserved":false,"is_disabled":false,"rental_uris":{"android":"levelo://app?vid=13efbc1c-d5e6-4098-8f82-49cd483b6f29","ios":"levelo://app?vid=13efbc1c-d5e6-4098-8f82-49cd483b6f29"},"vehicle_type_id":"4","last_reported":1701039992,"current_range_meters":31200,"station_id":"ce501612rcd8frsf0b60","pricing_plan_id":"free"},{"bike_id":"efdc30ba-98b4-4587-ba1c-8a521f0efca5","system_id":"levelo_inurba_marseille","lat":43.267959,"lon":5.402687,"is_reserved":false,"is_disabled":false,"rental_uris":{"android":"levelo://app?vid=efdc30ba-98b4-4587-ba1c-8a521f0efca5","ios":"levelo://app?vid=efdc30ba-98b4-4587-ba1c-8a521f0efca5"},"vehicle_type_id":"4","last_reported":1701039992,"current_range_meters":28800,"station_id":"ce501612rcd8frsf0b60","pricing_plan_id":"free"},{"bike_id":"dfbe7ccb-60b5-4ede-8244-bb94470c5d84","system_id":"levelo_inurba_marseille","lat":43.282078,"lon":5.425506,"is_reserved":false,"is_disabled":false,"rental_uris":{"android":"levelo://app?vid=dfbe7ccb-60b5-4ede-8244-bb94470c5d84","ios":"levelo://app?vid=dfbe7ccb-60b5-4ede-8244-bb94470c5d84"},"vehicle_type_id":"4","last_reported":1701039992,"current_range_meters":30000,"station_id":"","pricing_plan_id":"free"},{"bike_id":"423b9c0d-328c-4eca-a1f3-0028615d1395","system_id":"levelo_inurba_marseille","lat":43.298768,"lon":5.43643,"is_reserved":false,"is_disabled":false,"rental_uris":{"android":"levelo://app?vid=423b9c0d-328c-4eca-a1f3-0028615d1395","ios":"levelo://app?vid=423b9c0d-328c-4eca-a1f3-0028615d1395"},"vehicle_type_id":"4","last_reported":1701039992,"current_range_meters":28000,"station_id":"ce4bhpp2rcd13ifvqhfg","pricing_plan_id":"free"},{"bike_id":"7c5a83ac-336c-4b91-a5ea-82b3c6d6127d","system_id":"levelo_inurba_marseille","lat":43.298768,"lon":5.43643,"is_reserved":false,"is_disabled":false,"rental_uris":{"android":"levelo://app?vid=7c5a83ac-336c-4b91-a5ea-82b3c6d6127d","ios":"levelo://app?vid=7c5a83ac-336c-4b91-a5ea-82b3c6d6127d"},"vehicle_type_id":"4","last_reported":1701039992,"current_range_meters":31200,"station_id":"ce4bhpp2rcd13ifvqhfg","pricing_plan_id":"free"},{"bike_id":"9a5ca6f0-6f31-4d5e-bf3e-7f028d92f2c5","system_id":"levelo_inurba_marseille","lat":43.298768,"lon":5.43643,"is_reserved":false,"is_disabled":false,"rental_uris":{"android":"levelo://app?vid=9a5ca6f0-6f31-4d5e-bf3e-7f028d92f2c5","ios":"levelo://app?vid=9a5ca6f0-6f31-4d5e-bf3e-7f028d92f2c5"},"vehicle_type_id":"4","last_reported":1701039992,"current_range_meters":28800,"station_id":"ce4bhpp2rcd13ifvqhfg","pricing_plan_id":"free"},{"bike_id":"f4f2e1d5-dafa-412d-9b3a-3611814786ce","system_id":"levelo_inurba_marseille","lat":43.298768,"lon":5.43643,"is_reserved":false,"is_disabled":false,"rental_uris":{"android":"levelo://app?vid=f4f2e1d5-dafa-412d-9b3a-3611814786ce","ios":"levelo://app?vid=f4f2e1d5-dafa-412d-9b3a-3611814786ce"},"vehicle_type_id":"4","last_reported":1701039992,"current_range_meters":31200,"station_id":"ce4bhpp2rcd13ifvqhfg","pricing_plan_id":"free"},{"bike_id":"c4b12da7-51c6-4aa3-b506-1eb7dccf6ba5","system_id":"levelo_inurba_marseille","lat":43.281548,"lon":5.42643,"is_reserved":false,"is_disabled":false,"rental_uris":{"android":"levelo://app?vid=c4b12da7-51c6-4aa3-b506-1eb7dccf6ba5","ios":"levelo://app?vid=c4b12da7-51c6-4aa3-b506-1eb7dccf6ba5"},"vehicle_type_id":"4","last_reported":1701039992,"current_range_meters":2800,"station_id":"ce4bhnh2rcd13ifvqgug","pricing_plan_id":"free"},{"bike_id":"3f341b3a-760d-4088-a3d9-99bad999f571","system_id":"levelo_inurba_marseille","lat":43.281548,"lon":5.42643,"is_reserved":false,"is_disabled":false,"rental_uris":{"android":"levelo://app?vid=3f341b3a-760d-4088-a3d9-99bad999f571","ios":"levelo://app?vid=3f341b3a-760d-4088-a3d9-99bad999f571"},"vehicle_type_id":"4","last_reported":1701039992,"current_range_meters":30800,"station_id":"ce4bhnh2rcd13ifvqgug","pricing_plan_id":"free"},{"bike_id":"0c05ab08-fccb-4b28-99b5-80370c74c000","system_id":"levelo_inurba_marseille","lat":43.281548,"lon":5.42643,"is_reserved":false,"is_disabled":false,"rental_uris":{"android":"levelo://app?vid=0c05ab08-fccb-4b28-99b5-80370c74c000","ios":"levelo://app?vid=0c05ab08-fccb-4b28-99b5-80370c74c000"},"vehicle_type_id":"4","last_reported":1701039992,"current_range_meters":24800,"station_id":"ce4bhnh2rcd13ifvqgug","pricing_plan_id":"free"},{"bike_id":"3e9dd4fa-9528-4f08-81eb-29af05c4e353","system_id":"levelo_inurba_marseille","lat":43.281548,"lon":5.42643,"is_reserved":false,"is_disabled":false,"rental_uris":{"android":"levelo://app?vid=3e9dd4fa-9528-4f08-81eb-29af05c4e353","ios":"levelo://app?vid=3e9dd4fa-9528-4f08-81eb-29af05c4e353"},"vehicle_type_id":"4","last_reported":1701039992,"current_range_meters":10000,"station_id":"ce4bhnh2rcd13ifvqgug","pricing_plan_id":"free"},{"bike_id":"7ffa4dfa-0463-41ba-8ecc-516a8c5479de","system_id":"levelo_inurba_marseille","lat":43.281548,"lon":5.42643,"is_reserved":false,"is_disabled":false,"rental_uris":{"android":"levelo://app?vid=7ffa4dfa-0463-41ba-8ecc-516a8c5479de","ios":"levelo://app?vid=7ffa4dfa-0463-41ba-8ecc-516a8c5479de"},"vehicle_type_id":"4","last_reported":1701039992,"current_range_meters":25600,"station_id":"ce4bhnh2rcd13ifvqgug","pricing_plan_id":"free"},{"bike_id":"4bde6c20-2dbd-45f6-bbf4-21e9f766e141","system_id":"levelo_inurba_marseille","lat":43.281548,"lon":5.42643,"is_reserved":false,"is_disabled":false,"rental_uris":{"android":"levelo://app?vid=4bde6c20-2dbd-45f6-bbf4-21e9f766e141","ios":"levelo://app?vid=4bde6c20-2dbd-45f6-bbf4-21e9f766e141"},"vehicle_type_id":"4","last_reported":1701039992,"current_range_meters":23200,"station_id":"ce4bhnh2rcd13ifvqgug","pricing_plan_id":"free"},{"bike_id":"7ceec204-3221-4499-911d-c3bbe6a55cc8","system_id":"levelo_inurba_marseille","lat":43.281548,"lon":5.42643,"is_reserved":false,"is_disabled":false,"rental_uris":{"android":"levelo://app?vid=7ceec204-3221-4499-911d-c3bbe6a55cc8","ios":"levelo://app?vid=7ceec204-3221-4499-911d-c3bbe6a55cc8"},"vehicle_type_id":"4","last_reported":1701039992,"current_range_meters":15600,"station_id":"ce4bhnh2rcd13ifvqgug","pricing_plan_id":"free"},{"bike_id":"0b2028e1-203e-4516-9904-d1a8ab768044","system_id":"levelo_inurba_marseille","lat":43.281548,"lon":5.42643,"is_reserved":false,"is_disabled":false,"rental_uris":{"android":"levelo://app?vid=0b2028e1-203e-4516-9904-d1a8ab768044","ios":"levelo://app?vid=0b2028e1-203e-4516-9904-d1a8ab768044"},"vehicle_type_id":"4","last_reported":1701039992,"current_range_meters":29200,"station_id":"ce4bhnh2rcd13ifvqgug","pricing_plan_id":"free"},{"bike_id":"3e60d24f-9df6-45f9-8f09-442d6c64cc0a","system_id":"levelo_inurba_marseille","lat":43.2607,"lon":5.393983,"is_reserved":false,"is_disabled":false,"rental_uris":{"android":"levelo://app?vid=3e60d24f-9df6-45f9-8f09-442d6c64cc0a","ios":"levelo://app?vid=3e60d24f-9df6-45f9-8f09-442d6c64cc0a"},"vehicle_type_id":"4","last_reported":1701039992,"current_range_meters":30400,"station_id":"ce4bhh92rcd13ifvqfj0","pricing_plan_id":"free"},{"bike_id":"7c40cdd1-cfc2-4f54-96cb-485b584babfc","system_id":"levelo_inurba_marseille","lat":43.260909,"lon":5.397591,"is_reserved":false,"is_disabled":false,"rental_uris":{"android":"levelo://app?vid=7c40cdd1-cfc2-4f54-96cb-485b584babfc","ios":"levelo://app?vid=7c40cdd1-cfc2-4f54-96cb-485b584babfc"},"vehicle_type_id":"4","last_reported":1701039992,"current_range_meters":26000,"station_id":"ce4bhi12rcd13ifvqfq0","pricing_plan_id":"free"},{"bike_id":"5d9b1c63-a266-4038-ac5a-e5fefb7ab6dc","system_id":"levelo_inurba_marseille","lat":43.260909,"lon":5.397591,"is_reserved":false,"is_disabled":false,"rental_uris":{"android":"levelo://app?vid=5d9b1c63-a266-4038-ac5a-e5fefb7ab6dc","ios":"levelo://app?vid=5d9b1c63-a266-4038-ac5a-e5fefb7ab6dc"},"vehicle_type_id":"4","last_reported":1701039992,"current_range_meters":12000,"station_id":"ce4bhi12rcd13ifvqfq0","pricing_plan_id":"free"},{"bike_id":"c85f7616-3a9e-47a4-ae16-28a03e51ab4f","system_id":"levelo_inurba_marseille","lat":43.28929,"lon":5.438754,"is_reserved":false,"is_disabled":false,"rental_uris":{"android":"levelo://app?vid=c85f7616-3a9e-47a4-ae16-28a03e51ab4f","ios":"levelo://app?vid=c85f7616-3a9e-47a4-ae16-28a03e51ab4f"},"vehicle_type_id":"4","last_reported":1701039992,"current_range_meters":7600,"station_id":"","pricing_plan_id":"free"},{"bike_id":"bb03d128-ef00-4706-a798-f82ccd3fae64","system_id":"levelo_inurba_marseille","lat":43.25579,"lon":5.382375,"is_reserved":false,"is_disabled":false,"rental_uris":{"android":"levelo://app?vid=bb03d128-ef00-4706-a798-f82ccd3fae64","ios":"levelo://app?vid=bb03d128-ef00-4706-a798-f82ccd3fae64"},"vehicle_type_id":"4","last_reported":1701039992,"current_range_meters":400,"station_id":"ce4bhih2rcd13ifvqfs0","pricing_plan_id":"free"},{"bike_id":"c9f2b3f8-5e82-4dcb-a514-0009dca3b716","system_id":"levelo_inurba_marseille","lat":43.255767,"lon":5.382417,"is_reserved":false,"is_disabled":false,"rental_uris":{"android":"levelo://app?vid=c9f2b3f8-5e82-4dcb-a514-0009dca3b716","ios":"levelo://app?vid=c9f2b3f8-5e82-4dcb-a514-0009dca3b716"},"vehicle_type_id":"4","last_reported":1701039992,"current_range_meters":0,"station_id":"ce4bhih2rcd13ifvqfs0","pricing_plan_id":"free"},{"bike_id":"d9afc35e-94de-472b-bd32-ff0959bca2db","system_id":"levelo_inurba_marseille","lat":43.270721,"lon":5.422764,"is_reserved":false,"is_disabled":false,"rental_uris":{"android":"levelo://app?vid=d9afc35e-94de-472b-bd32-ff0959bca2db","ios":"levelo://app?vid=d9afc35e-94de-472b-bd32-ff0959bca2db"},"vehicle_type_id":"4","last_reported":1701039992,"current_range_meters":31200,"station_id":"ce4bhk92rcd13ifvqgb0","pricing_plan_id":"free"},{"bike_id":"3764d48b-8e61-4222-bf2f-e0a7f6536aa8","system_id":"levelo_inurba_marseille","lat":43.270704,"lon":5.422785,"is_reserved":false,"is_disabled":false,"rental_uris":{"android":"levelo://app?vid=3764d48b-8e61-4222-bf2f-e0a7f6536aa8","ios":"levelo://app?vid=3764d48b-8e61-4222-bf2f-e0a7f6536aa8"},"vehicle_type_id":"4","last_reported":1701039992,"current_range_meters":28400,"station_id":"ce4bhk92rcd13ifvqgb0","pricing_plan_id":"free"},{"bike_id":"8ed3b09c-e8c5-46d8-a177-329c55f19d0a","system_id":"levelo_inurba_marseille","lat":43.270721,"lon":5.422764,"is_reserved":false,"is_disabled":false,"rental_uris":{"android":"levelo://app?vid=8ed3b09c-e8c5-46d8-a177-329c55f19d0a","ios":"levelo://app?vid=8ed3b09c-e8c5-46d8-a177-329c55f19d0a"},"vehicle_type_id":"4","last_reported":1701039992,"current_range_meters":25200,"station_id":"ce4bhk92rcd13ifvqgb0","pricing_plan_id":"free"},{"bike_id":"56f68a91-26a0-4c47-bcbe-30edc22f95da","system_id":"levelo_inurba_marseille","lat":43.270721,"lon":5.422764,"is_reserved":false,"is_disabled":false,"rental_uris":{"android":"levelo://app?vid=56f68a91-26a0-4c47-bcbe-30edc22f95da","ios":"levelo://app?vid=56f68a91-26a0-4c47-bcbe-30edc22f95da"},"vehicle_type_id":"4","last_reported":1701039992,"current_range_meters":20800,"station_id":"ce4bhk92rcd13ifvqgb0","pricing_plan_id":"free"},{"bike_id":"fa94e1b3-924d-484c-aa3a-070aacbdbbfd","system_id":"levelo_inurba_marseille","lat":43.27066,"lon":5.42283,"is_reserved":false,"is_disabled":false,"rental_uris":{"android":"levelo://app?vid=fa94e1b3-924d-484c-aa3a-070aacbdbbfd","ios":"levelo://app?vid=fa94e1b3-924d-484c-aa3a-070aacbdbbfd"},"vehicle_type_id":"4","last_reported":1701039992,"current_range_meters":27200,"station_id":"ce4bhk92rcd13ifvqgb0","pricing_plan_id":"free"},{"bike_id":"50c0c05e-8b46-4cec-ac3a-7160dcbfd7be","system_id":"levelo_inurba_marseille","lat":43.258658,"lon":5.398935,"is_reserved":false,"is_disabled":false,"rental_uris":{"android":"levelo://app?vid=50c0c05e-8b46-4cec-ac3a-7160dcbfd7be","ios":"levelo://app?vid=50c0c05e-8b46-4cec-ac3a-7160dcbfd7be"},"vehicle_type_id":"4","last_reported":1701039992,"current_range_meters":25600,"station_id":"ce4bhl92rcd13ifvqghg","pricing_plan_id":"free"},{"bike_id":"23688042-04a3-41ce-8402-7680d754251a","system_id":"levelo_inurba_marseille","lat":43.259009,"lon":5.40929,"is_reserved":false,"is_disabled":false,"rental_uris":{"android":"levelo://app?vid=23688042-04a3-41ce-8402-7680d754251a","ios":"levelo://app?vid=23688042-04a3-41ce-8402-7680d754251a"},"vehicle_type_id":"4","last_reported":1701039992,"current_range_meters":6400,"station_id":"ce4bhm92rcd13ifvqglg","pricing_plan_id":"free"},{"bike_id":"e9b6a1d5-c740-405d-a6f8-282eec5a3660","system_id":"levelo_inurba_marseille","lat":43.257263,"lon":5.411019,"is_reserved":false,"is_disabled":false,"rental_uris":{"android":"levelo://app?vid=e9b6a1d5-c740-405d-a6f8-282eec5a3660","ios":"levelo://app?vid=e9b6a1d5-c740-405d-a6f8-282eec5a3660"},"vehicle_type_id":"4","last_reported":1701039992,"current_range_meters":14800,"station_id":"ce4bhkp2rcd13ifvqgd0","pricing_plan_id":"free"},{"bike_id":"a3db2d3f-7cb8-4611-8b38-01ed171cfc8d","system_id":"levelo_inurba_marseille","lat":43.250009,"lon":5.389195,"is_reserved":false,"is_disabled":false,"rental_uris":{"android":"levelo://app?vid=a3db2d3f-7cb8-4611-8b38-01ed171cfc8d","ios":"levelo://app?vid=a3db2d3f-7cb8-4611-8b38-01ed171cfc8d"},