{"last_updated":1719259726,"ttl":30,"version":"2.2","data":{"bikes":[{"bike_id":"8c98d7df-cd48-4fdf-b9f7-d27807cbf245","system_id":"levelo_inurba_marseille","lat":43.30857,"lon":5.37033,"is_reserved":false,"is_disabled":false,"rental_uris":{"android":"levelo://app?vid=8c98d7df-cd48-4fdf-b9f7-d27807cbf245","ios":"levelo://app?vid=8c98d7df-cd48-4fdf-b9f7-d27807cbf245"},"vehicle_type_id":"4","last_reported":1719259726,"current_range_meters":9600,"station_id":"","pricing_plan_id":"cebpf4jnsgd1na2vs0mg"},{"bike_id":"5da14753-5ee4-4c50-a545-247fa9b51126","system_id":"levelo_inurba_marseille","lat":43.314811,"lon":5.373103,"is_reserved":false,"is_disabled":false,"rental_uris":{"android":"levelo://app?vid=5da14753-5ee4-4c50-a545-247fa9b51126","ios":"levelo://app?vid=5da14753-5ee4-4c50-a545-247fa9b51126"},"vehicle_type_id":"4","last_reported":1719259726,"current_range_meters":8000,"station_id":"ce4bgt12rcd13ifvqcd0","pricing_plan_id":"cebpf4jnsgd1na2vs0mg"},{"bike_id":"ef716a64-6b06-46ef-bdcd-81edc3ad2b91","system_id":"levelo_inurba_marseille","lat":43.31504,"lon":5.37306,"is_reserved":false,"is_disabled":false,"rental_uris":{"android":"levelo://app?vid=ef716a64-6b06-46ef-bdcd-81edc3ad2b91","ios":"levelo://app?vid=ef716a64-6b06-46ef-bdcd-81edc3ad2b91"},"vehicle_type_id":"4","last_reported":1719259726,"current_range_meters":30000,"station_id":"ce4bgt12rcd13ifvqcd0","pricing_plan_id":"cebpf4jnsgd1na2vs0mg"},{"bike_id":"3e6229a9-daa1-4e8e-b7ec-60b28f97252f","system_id":"levelo_inurba_marseille","lat":43.31452,"lon":5.373706,"is_reserved":false,"is_disabled":false,"rental_uris":{"android":"levelo://app?vid=3e6229a9-daa1-4e8e-b7ec-60b28f97252f","ios":"levelo://app?vid=3e6229a9-daa1-4e8e-b7ec-60b28f97252f"},"vehicle_type_id":"4","last_reported":1719259726,"current_range_meters":2000,"station_id":"ce4bgt12rcd13ifvqcd0","pricing_plan_id":"cebpf4jnsgd1na2vs0mg"},{"bike_id":"77460ccb-960a-4153-8783-e0a172f31a95","system_id":"levelo_inurba_marseille","lat":43.314513,"lon":5.373723,"is_reserved":false,"is_disabled":false,"rental_uris":{"android":"levelo://app?vid=77460ccb-960a-4153-8783-e0a172f31a95","ios":"levelo://app?vid=77460ccb-960a-4153-8783-e0a172f31a95"},"vehicle_type_id":"4","last_reported":1719259726,"current_range_meters":5200,"station_id":"","pricing_plan_id":"cebpf4jnsgd1na2vs0mg"},{"bike_id":"a744ab30-40bf-42e1-a3a6-a02a7d5847fc","system_id":"levelo_inurba_marseille","lat":43.317075,"lon":5.377367,"is_reserved":false,"is_disabled":false,"rental_uris":{"android":"levelo://app?vid=a744ab30-40bf-42e1-a3a6-a02a7d5847fc","ios":"levelo://app?vid=a744ab30-40bf-42e1-a3a6-a02a7d5847fc"},"vehicle_type_id":"4","last_reported":1719259726,"current_range_meters":24400,"station_id":"ce4bgth2rcd13ifvqch0","pricing_plan_id":"cebpf4jnsgd1na2vs0mg"},{"bike_id":"d74d496a-a267-4f58-b9d3-4f468f416945","system_id":"levelo_inurba_marseille","lat":43.305405,"lon":5.366583,"is_reserved":false,"is_disabled":false,"rental_uris":{"android":"levelo://app?vid=d74d496a-a267-4f58-b9d3-4f468f416945","ios":"levelo://app?vid=d74d496a-a267-4f58-b9d3-4f468f416945"},"vehicle_type_id":"4","last_reported":1719259726,"current_range_meters":20000,"station_id":"","pricing_plan_id":"cebpf4jnsgd1na2vs0mg"},{"bike_id":"e61e15af-bb66-4fc8-b306-223c95224498","system_id":"levelo_inurba_marseille","lat":43.305368,"lon":5.367343,"is_reserved":false,"is_disabled":false,"rental_uris":{"android":"levelo://app?vid=e61e15af-bb66-4fc8-b306-223c95224498","ios":"levelo://app?vid=e61e15af-bb66-4fc8-b306-223c95224498"},"vehicle_type_id":"4","last_reported":1719259726,"current_range_meters":27600,"station_id":"ce4bgrp2rcd13ifvqc9g","pricing_plan_id":"cebpf4jnsgd1na2vs0mg"},{"bike_id":"57063b63-b502-4f5f-88d6-fef46886c60d","system_id":"levelo_inurba_marseille","lat":43.32367,"lon":5.388836,"is_reserved":false,"is_disabled":false,"rental_uris":{"android":"levelo://app?vid=57063b63-b502-4f5f-88d6-fef46886c60d","ios":"levelo://app?vid=57063b63-b502-4f5f-88d6-fef46886c60d"},"vehicle_type_id":"4","last_reported":1719259726,"current_range_meters":8400,"station_id":"ce4bhqp2rcd13ifvqhog","pricing_plan_id":"cebpf4jnsgd1na2vs0mg"},{"bike_id":"4f9b4749-8f37-43ae-9df1-0ec7cc3b89e6","system_id":"levelo_inurba_marseille","lat":43.305276,"lon":5.365829,"is_reserved":false,"is_disabled":false,"rental_uris":{"android":"levelo://app?vid=4f9b4749-8f37-43ae-9df1-0ec7cc3b89e6","ios":"levelo://app?vid=4f9b4749-8f37-43ae-9df1-0ec7cc3b89e6"},"vehicle_type_id":"4","last_reported":1719259726,"current_range_meters":29600,"station_id":"ce4bgs12rcd13ifvqcag","pricing_plan_id":"cebpf4jnsgd1na2vs0mg"},{"bike_id":"aa0ac34e-eafc-4321-b25b-0f39dfe66892","system_id":"levelo_inurba_marseille","lat":43.30601,"lon":5.37219,"is_reserved":false,"is_disabled":false,"rental_uris":{"android":"levelo://app?vid=aa0ac34e-eafc-4321-b25b-0f39dfe66892","ios":"levelo://app?vid=aa0ac34e-eafc-4321-b25b-0f39dfe66892"},"vehicle_type_id":"4","last_reported":1719259726,"current_range_meters":7200,"station_id":"ce4bgqh2rcd13ifvqc4g","pricing_plan_id":"cebpf4jnsgd1na2vs0mg"},{"bike_id":"d8f6c6e2-8e10-4d1c-a14d-2c3e3ee86b60","system_id":"levelo_inurba_marseille","lat":43.305989,"lon":5.37225,"is_reserved":false,"is_disabled":false,"rental_uris":{"android":"levelo://app?vid=d8f6c6e2-8e10-4d1c-a14d-2c3e3ee86b60","ios":"levelo://app?vid=d8f6c6e2-8e10-4d1c-a14d-2c3e3ee86b60"},"vehicle_type_id":"4","last_reported":1719259726,"current_range_meters":3200,"station_id":"ce4bgqh2rcd13ifvqc4g","pricing_plan_id":"cebpf4jnsgd1na2vs0mg"},{"bike_id":"d067ea72-43de-4df5-b012-6c156fd5b1b4","system_id":"levelo_inurba_marseille","lat":43.30599,"lon":5.37228,"is_reserved":false,"is_disabled":false,"rental_uris":{"android":"levelo://app?vid=d067ea72-43de-4df5-b012-6c156fd5b1b4","ios":"levelo://app?vid=d067ea72-43de-4df5-b012-6c156fd5b1b4"},"vehicle_type_id":"4","last_reported":1719259726,"current_range_meters":24400,"station_id":"ce4bgqh2rcd13ifvqc4g","pricing_plan_id":"cebpf4jnsgd1na2vs0mg"},{"bike_id":"5ebc93c8-60e5-493e-95f2-359150c761ff","system_id":"levelo_inurba_marseille","lat":43.305989,"lon":5.37225,"is_reserved":false,"is_disabled":false,"rental_uris":{"android":"levelo://app?vid=5ebc93c8-60e5-493e-95f2-359150c761ff","ios":"levelo://app?vid=5ebc93c8-60e5-493e-95f2-359150c761ff"},"vehicle_type_id":"4","last_reported":1719259726,"current_range_meters":30400,"station_id":"ce4bgqh2rcd13ifvqc4g","pricing_plan_id":"cebpf4jnsgd1na2vs0mg"},{"bike_id":"1b41c09e-d82a-436e-8b7a-681482a83d33","system_id":"levelo_inurba_marseille","lat":43.305989,"lon":5.37225,"is_reserved":false,"is_disabled":false,"rental_uris":{"android":"levelo://app?vid=1b41c09e-d82a-436e-8b7a-681482a83d33","ios":"levelo://app?vid=1b41c09e-d82a-436e-8b7a-681482a83d33"},"vehicle_type_id":"4","last_reported":1719259726,"current_range_meters":10400,"station_id":"ce4bgqh2rcd13ifvqc4g","pricing_plan_id":"cebpf4jnsgd1na2vs0mg"},{"bike_id":"cb81d902-842c-4104-90cb-875ddb39ee7f","system_id":"levelo_inurba_marseille","lat":43.307746,"lon":5.375281,"is_reserved":false,"is_disabled":false,"rental_uris":{"android":"levelo://app?vid=cb81d902-842c-4104-90cb-875ddb39ee7f","ios":"levelo://app?vid=cb81d902-842c-4104-90cb-875ddb39ee7f"},"vehicle_type_id":"4","last_reported":1719259726,"current_range_meters":19200,"station_id":"","pricing_plan_id":"cebpf4jnsgd1na2vs0mg"},{"bike_id":"25ce7da0-0642-4236-a230-0a3e1cf69694","system_id":"levelo_inurba_marseille","lat":43.31673,"lon":5.37687,"is_reserved":false,"is_disabled":false,"rental_uris":{"android":"levelo://app?vid=25ce7da0-0642-4236-a230-0a3e1cf69694","ios":"levelo://app?vid=25ce7da0-0642-4236-a230-0a3e1cf69694"},"vehicle_type_id":"4","last_reported":1719259726,"current_range_meters":0,"station_id":"","pricing_plan_id":"cebpf4jnsgd1na2vs0mg"},{"bike_id":"5f03dcfa-c9a4-4bae-a3fa-8097b5946ca7","system_id":"levelo_inurba_marseille","lat":43.307945,"lon":5.376487,"is_reserved":false,"is_disabled":false,"rental_uris":{"android":"levelo://app?vid=5f03dcfa-c9a4-4bae-a3fa-8097b5946ca7","ios":"levelo://app?vid=5f03dcfa-c9a4-4bae-a3fa-8097b5946ca7"},"vehicle_type_id":"4","last_reported":1719259726,"current_range_meters":28800,"station_id":"ce4bgv92rcd13ifvqcq0","pricing_plan_id":"cebpf4jnsgd1na2vs0mg"},{"bike_id":"8c6fb22d-daaf-4cef-9406-c175922ee615","system_id":"levelo_inurba_marseille","lat":43.303046,"lon":5.368981,"is_reserved":false,"is_disabled":false,"rental_uris":{"android":"levelo://app?vid=8c6fb22d-daaf-4cef-9406-c175922ee615","ios":"levelo://app?vid=8c6fb22d-daaf-4cef-9406-c175922ee615"},"vehicle_type_id":"4","last_reported":1719259726,"current_range_meters":800,"station_id":"ce4bgqh2rcd13ifvqc5g","pricing_plan_id":"cebpf4jnsgd1na2vs0mg"},{"bike_id":"21c21597-dd48-4873-8559-37b75edca0ef","system_id":"levelo_inurba_marseille","lat":43.315289,"lon":5.380349,"is_reserved":false,"is_disabled":false,"rental_uris":{"android":"levelo://app?vid=21c21597-dd48-4873-8559-37b75edca0ef","ios":"levelo://app?vid=21c21597-dd48-4873-8559-37b75edca0ef"},"vehicle_type_id":"4","last_reported":1719259726,"current_range_meters":4400,"station_id":"ce4bhsp2rcd13ifvqi50","pricing_plan_id":"cebpf4jnsgd1na2vs0mg"},{"bike_id":"b59ce81b-7e8e-409a-934f-dc2131fe2dc2","system_id":"levelo_inurba_marseille","lat":43.315289,"lon":5.380349,"is_reserved":false,"is_disabled":false,"rental_uris":{"android":"levelo://app?vid=b59ce81b-7e8e-409a-934f-dc2131fe2dc2","ios":"levelo://app?vid=b59ce81b-7e8e-409a-934f-dc2131fe2dc2"},"vehicle_type_id":"4","last_reported":1719259726,"current_range_meters":23600,"station_id":"ce4bhsp2rcd13ifvqi50","pricing_plan_id":"cebpf4jnsgd1na2vs0mg"},{"bike_id":"42b47ec4-774e-4cff-a9f8-c47a7a3d8524","system_id":"levelo_inurba_marseille","lat":43.301686,"lon":5.370442,"is_reserved":false,"is_disabled":false,"rental_uris":{"android":"levelo://app?vid=42b47ec4-774e-4cff-a9f8-c47a7a3d8524","ios":"levelo://app?vid=42b47ec4-774e-4cff-a9f8-c47a7a3d8524"},"vehicle_type_id":"4","last_reported":1719259726,"current_range_meters":20800,"station_id":"","pricing_plan_id":"cebpf4jnsgd1na2vs0mg"},{"bike_id":"842b4f5d-b052-4484-aefa-4b29a67f85f4","system_id":"levelo_inurba_marseille","lat":43.308012,"lon":5.381511,"is_reserved":false,"is_disabled":false,"rental_uris":{"android":"levelo://app?vid=842b4f5d-b052-4484-aefa-4b29a67f85f4","ios":"levelo://app?vid=842b4f5d-b052-4484-aefa-4b29a67f85f4"},"vehicle_type_id":"4","last_reported":1719259726,"current_range_meters":27200,"station_id":"ce4bgt12rcd13ifvqce0","pricing_plan_id":"cebpf4jnsgd1na2vs0mg"},{"bike_id":"7b09e533-c85d-46e3-99aa-c6a13aacc0cc","system_id":"levelo_inurba_marseille","lat":43.308012,"lon":5.381511,"is_reserved":false,"is_disabled":false,"rental_uris":{"android":"levelo://app?vid=7b09e533-c85d-46e3-99aa-c6a13aacc0cc","ios":"levelo://app?vid=7b09e533-c85d-46e3-99aa-c6a13aacc0cc"},"vehicle_type_id":"4","last_reported":1719259726,"current_range_meters":8400,"station_id":"ce4bgt12rcd13ifvqce0","pricing_plan_id":"cebpf4jnsgd1na2vs0mg"},{"bike_id":"d51d9c55-9dbd-4261-9aef-a9615b209202","system_id":"levelo_inurba_marseille","lat":43.304606,"lon":5.379026,"is_reserved":false,"is_disabled":false,"rental_uris":{"android":"levelo://app?vid=d51d9c55-9dbd-4261-9aef-a9615b209202","ios":"levelo://app?vid=d51d9c55-9dbd-4261-9aef-a9615b209202"},"vehicle_type_id":"4","last_reported":1719259726,"current_range_meters":20000,"station_id":"ce4bgup2rcd13ifvqcn0","pricing_plan_id":"cebpf4jnsgd1na2vs0mg"},{"bike_id":"99940d12-8816-4939-9d2f-6c5fc5e8f53a","system_id":"levelo_inurba_marseille","lat":43.324771,"lon":5.36557,"is_reserved":false,"is_disabled":false,"rental_uris":{"android":"levelo://app?vid=99940d12-8816-4939-9d2f-6c5fc5e8f53a","ios":"levelo://app?vid=99940d12-8816-4939-9d2f-6c5fc5e8f53a"},"vehicle_type_id":"4","last_reported":1719259726,"current_range_meters":21200,"station_id":"ce4bhs12rcd13ifvqhvg","pricing_plan_id":"cebpf4jnsgd1na2vs0mg"},{"bike_id":"eb794116-d831-4f1d-9de5-1bd8d6cbc5e0","system_id":"levelo_inurba_marseille","lat":43.324771,"lon":5.36557,"is_reserved":false,"is_disabled":false,"rental_uris":{"android":"levelo://app?vid=eb794116-d831-4f1d-9de5-1bd8d6cbc5e0","ios":"levelo://app?vid=eb794116-d831-4f1d-9de5-1bd8d6cbc5e0"},"vehicle_type_id":"4","last_reported":1719259726,"current_range_meters":2800,"station_id":"ce4bhs12rcd13ifvqhvg","pricing_plan_id":"cebpf4jnsgd1na2vs0mg"},{"bike_id":"15992822-2bb1-46fc-a43a-68b7bf806d99","system_id":"levelo_inurba_marseille","lat":43.324771,"lon":5.36557,"is_reserved":false,"is_disabled":false,"rental_uris":{"android":"levelo://app?vid=15992822-2bb1-46fc-a43a-68b7bf806d99","ios":"levelo://app?vid=15992822-2bb1-46fc-a43a-68b7bf806d99"},"vehicle_type_id":"4","last_reported":1719259726,"current_range_meters":28000,"station_id":"ce4bhs12rcd13ifvqhvg","pricing_plan_id":"cebpf4jnsgd1na2vs0mg"},{"bike_id":"a9461242-4a57-4140-99c5-57df5f14a372","system_id":"levelo_inurba_marseille","lat":43.324771,"lon":5.36557,"is_reserved":false,"is_disabled":false,"rental_uris":{"android":"levelo://app?vid=a9461242-4a57-4140-99c5-57df5f14a372","ios":"levelo://app?vid=a9461242-4a57-4140-99c5-57df5f14a372"},"vehicle_type_id":"4","last_reported":1719259726,"current_range_meters":30400,"station_id":"ce4bhs12rcd13ifvqhvg","pricing_plan_id":"cebpf4jnsgd1na2vs0mg"},{"bike_id":"cb2c6264-0d83-4fea-920e-db5bb6781063","system_id":"levelo_inurba_marseille","lat":43.324771,"lon":5.36557,"is_reserved":false,"is_disabled":false,"rental_uris":{"android":"levelo://app?vid=cb2c6264-0d83-4fea-920e-db5bb6781063","ios":"levelo://app?vid=cb2c6264-0d83-4fea-920e-db5bb6781063"},"vehicle_type_id":"4","last_reported":1719259726,"current_range_meters":28000,"station_id":"ce4bhs12rcd13ifvqhvg","pricing_plan_id":"cebpf4jnsgd1na2vs0mg"},{"bike_id":"f4b2a785-15e1-48bc-a6b5-497f84fc92df","system_id":"levelo_inurba_marseille","lat":43.31069,"lon":5.383513,"is_reserved":false,"is_disabled":false,"rental_uris":{"android":"levelo://app?vid=f4b2a785-15e1-48bc-a6b5-497f84fc92df","ios":"levelo://app?vid=f4b2a785-15e1-48bc-a6b5-497f84fc92df"},"vehicle_type_id":"4","last_reported":1719259726,"current_range_meters":0,"station_id":"ce4bgv92rcd13ifvqcr0","pricing_plan_id":"cebpf4jnsgd1na2vs0mg"},{"bike_id":"ede679e9-2f32-4cec-a8f2-9aea29dcd60e","system_id":"levelo_inurba_marseille","lat":43.31073,"lon":5.38359,"is_reserved":false,"is_disabled":false,"rental_uris":{"android":"levelo://app?vid=ede679e9-2f32-4cec-a8f2-9aea29dcd60e","ios":"levelo://app?vid=ede679e9-2f32-4cec-a8f2-9aea29dcd60e"},"vehicle_type_id":"4","last_reported":1719259726,"current_range_meters":23600,"station_id":"ce4bgv92rcd13ifvqcr0","pricing_plan_id":"cebpf4jnsgd1na2vs0mg"},{"bike_id":"f108152d-6877-448b-b138-c509ae521661","system_id":"levelo_inurba_marseille","lat":43.310804,"lon":5.38359,"is_reserved":false,"is_disabled":false,"rental_uris":{"android":"levelo://app?vid=f108152d-6877-448b-b138-c509ae521661","ios":"levelo://app?vid=f108152d-6877-448b-b138-c509ae521661"},"vehicle_type_id":"4","last_reported":1719259726,"current_range_meters":29600,"station_id":"ce4bgv92rcd13ifvqcr0","pricing_plan_id":"cebpf4jnsgd1na2vs0mg"},{"bike_id":"b9e87985-5b2c-4616-a050-cf7f3a3bd3c9","system_id":"levelo_inurba_marseille","lat":43.31077,"lon":5.38365,"is_reserved":false,"is_disabled":false,"rental_uris":{"android":"levelo://app?vid=b9e87985-5b2c-4616-a050-cf7f3a3bd3c9","ios":"levelo://app?vid=b9e87985-5b2c-4616-a050-cf7f3a3bd3c9"},"vehicle_type_id":"4","last_reported":1719259726,"current_range_meters":14400,"station_id":"ce4bgv92rcd13ifvqcr0","pricing_plan_id":"cebpf4jnsgd1na2vs0mg"},{"bike_id":"960f2920-09ba-4f6a-8ea0-8b45e9087afa","system_id":"levelo_inurba_marseille","lat":43.301429,"lon":5.37413,"is_reserved":false,"is_disabled":false,"rental_uris":{"android":"levelo://app?vid=960f2920-09ba-4f6a-8ea0-8b45e9087afa","ios":"levelo://app?vid=960f2920-09ba-4f6a-8ea0-8b45e9087afa"},"vehicle_type_id":"4","last_reported":1719259726,"current_range_meters":14000,"station_id":"ce4bgs92rcd13ifvqcc0","pricing_plan_id":"cebpf4jnsgd1na2vs0mg"},{"bike_id":"39d0c8b8-7a66-4fe0-bad1-a812e304f40a","system_id":"levelo_inurba_marseille","lat":43.30143,"lon":5.37413,"is_reserved":false,"is_disabled":false,"rental_uris":{"android":"levelo://app?vid=39d0c8b8-7a66-4fe0-bad1-a812e304f40a","ios":"levelo://app?vid=39d0c8b8-7a66-4fe0-bad1-a812e304f40a"},"vehicle_type_id":"4","last_reported":1719259726,"current_range_meters":13600,"station_id":"ce4bgs92rcd13ifvqcc0","pricing_plan_id":"cebpf4jnsgd1na2vs0mg"},{"bike_id":"6aac2713-3289-4968-884c-d5525af141cc","system_id":"levelo_inurba_marseille","lat":43.319935,"lon":5.381699,"is_reserved":false,"is_disabled":false,"rental_uris":{"android":"levelo://app?vid=6aac2713-3289-4968-884c-d5525af141cc","ios":"levelo://app?vid=6aac2713-3289-4968-884c-d5525af141cc"},"vehicle_type_id":"4","last_reported":1719259726,"current_range_meters":8000,"station_id":"ce4bhr12rcd13ifvqhpg","pricing_plan_id":"cebpf4jnsgd1na2vs0mg"},{"bike_id":"af6bd670-557a-4df3-906b-665716d42f99","system_id":"levelo_inurba_marseille","lat":43.319935,"lon":5.381699,"is_reserved":false,"is_disabled":false,"rental_uris":{"android":"levelo://app?vid=af6bd670-557a-4df3-906b-665716d42f99","ios":"levelo://app?vid=af6bd670-557a-4df3-906b-665716d42f99"},"vehicle_type_id":"4","last_reported":1719259726,"current_range_meters":9600,"station_id":"ce4bhr12rcd13ifvqhpg","pricing_plan_id":"cebpf4jnsgd1na2vs0mg"},{"bike_id":"ba2d3fec-e8f5-4cb2-952a-5422afa027ff","system_id":"levelo_inurba_marseille","lat":43.313571,"lon":5.384829,"is_reserved":false,"is_disabled":false,"rental_uris":{"android":"levelo://app?vid=ba2d3fec-e8f5-4cb2-952a-5422afa027ff","ios":"levelo://app?vid=ba2d3fec-e8f5-4cb2-952a-5422afa027ff"},"vehicle_type_id":"4","last_reported":1719259726,"current_range_meters":18000,"station_id":"ce4bgt92rcd13ifvqcf0","pricing_plan_id":"cebpf4jnsgd1na2vs0mg"},{"bike_id":"27f0aca8-51e5-4f37-83f7-0bd2d9d05ede","system_id":"levelo_inurba_marseille","lat":43.313571,"lon":5.384829,"is_reserved":false,"is_disabled":false,"rental_uris":{"android":"levelo://app?vid=27f0aca8-51e5-4f37-83f7-0bd2d9d05ede","ios":"levelo://app?vid=27f0aca8-51e5-4f37-83f7-0bd2d9d05ede"},"vehicle_type_id":"4","last_reported":1719259726,"current_range_meters":22000,"station_id":"ce4bgt92rcd13ifvqcf0","pricing_plan_id":"cebpf4jnsgd1na2vs0mg"},{"bike_id":"73ebfcc3-95b0-41fe-afb7-fd034679f21e","system_id":"levelo_inurba_marseille","lat":43.313643,"lon":5.384913,"is_reserved":false,"is_disabled":false,"rental_uris":{"android":"levelo://app?vid=73ebfcc3-95b0-41fe-afb7-fd034679f21e","ios":"levelo://app?vid=73ebfcc3-95b0-41fe-afb7-fd034679f21e"},"vehicle_type_id":"4","last_reported":1719259726,"current_range_meters":1200,"station_id":"ce4bgt92rcd13ifvqcf0","pricing_plan_id":"cebpf4jnsgd1na2vs0mg"},{"bike_id":"dcf088ac-fb16-4cca-9175-4f1d754600e2","system_id":"levelo_inurba_marseille","lat":43.313571,"lon":5.384829,"is_reserved":false,"is_disabled":false,"rental_uris":{"android":"levelo://app?vid=dcf088ac-fb16-4cca-9175-4f1d754600e2","ios":"levelo://app?vid=dcf088ac-fb16-4cca-9175-4f1d754600e2"},"vehicle_type_id":"4","last_reported":1719259726,"current_range_meters":26800,"station_id":"ce4bgt92rcd13ifvqcf0","pricing_plan_id":"cebpf4jnsgd1na2vs0mg"},{"bike_id":"147fa55e-6771-4076-978d-53af655940a3","system_id":"levelo_inurba_marseille","lat":43.313571,"lon":5.384829,"is_reserved":false,"is_disabled":false,"rental_uris":{"android":"levelo://app?vid=147fa55e-6771-4076-978d-53af655940a3","ios":"levelo://app?vid=147fa55e-6771-4076-978d-53af655940a3"},"vehicle_type_id":"4","last_reported":1719259726,"current_range_meters":24000,"station_id":"ce4bgt92rcd13ifvqcf0","pricing_plan_id":"cebpf4jnsgd1na2vs0mg"},{"bike_id":"b68c16a7-7abb-4510-abb7-f4df07ad32c7","system_id":"levelo_inurba_marseille","lat":43.313571,"lon":5.384829,"is_reserved":false,"is_disabled":false,"rental_uris":{"android":"levelo://app?vid=b68c16a7-7abb-4510-abb7-f4df07ad32c7","ios":"levelo://app?vid=b68c16a7-7abb-4510-abb7-f4df07ad32c7"},"vehicle_type_id":"4","last_reported":1719259726,"current_range_meters":26800,"station_id":"ce4bgt92rcd13ifvqcf0","pricing_plan_id":"cebpf4jnsgd1na2vs0mg"},{"bike_id":"b3cf8401-7119-4ce8-b351-65b28a2646a3","system_id":"levelo_inurba_marseille","lat":43.2997,"lon":5.37412,"is_reserved":false,"is_disabled":false,"rental_uris":{"android":"levelo://app?vid=b3cf8401-7119-4ce8-b351-65b28a2646a3","ios":"levelo://app?vid=b3cf8401-7119-4ce8-b351-65b28a2646a3"},"vehicle_type_id":"4","last_reported":1719259726,"current_range_meters":5600,"station_id":"","pricing_plan_id":"cebpf4jnsgd1na2vs0mg"},{"bike_id":"802b0451-536d-4c48-889f-ec87e5bde06e","system_id":"levelo_inurba_marseille","lat":43.298433,"lon":5.362774,"is_reserved":false,"is_disabled":false,"rental_uris":{"android":"levelo://app?vid=802b0451-536d-4c48-889f-ec87e5bde06e","ios":"levelo://app?vid=802b0451-536d-4c48-889f-ec87e5bde06e"},"vehicle_type_id":"4","last_reported":1719259726,"current_range_meters":0,"station_id":"ce4bgpp2rcd13ifvqc3g","pricing_plan_id":"cebpf4jnsgd1na2vs0mg"},{"bike_id":"88eb23e2-658c-408f-ac32-e93a6f2f1f4a","system_id":"levelo_inurba_marseille","lat":43.298433,"lon":5.362774,"is_reserved":false,"is_disabled":false,"rental_uris":{"android":"levelo://app?vid=88eb23e2-658c-408f-ac32-e93a6f2f1f4a","ios":"levelo://app?vid=88eb23e2-658c-408f-ac32-e93a6f2f1f4a"},"vehicle_type_id":"4","last_reported":1719259726,"current_range_meters":18800,"station_id":"ce4bgpp2rcd13ifvqc3g","pricing_plan_id":"cebpf4jnsgd1na2vs0mg"},{"bike_id":"4b200e98-02d0-4b58-bcda-f6fe94eacc76","system_id":"levelo_inurba_marseille","lat":43.299243,"lon":5.374807,"is_reserved":false,"is_disabled":false,"rental_uris":{"android":"levelo://app?vid=4b200e98-02d0-4b58-bcda-f6fe94eacc76","ios":"levelo://app?vid=4b200e98-02d0-4b58-bcda-f6fe94eacc76"},"vehicle_type_id":"4","last_reported":1719259726,"current_range_meters":26000,"station_id":"ce4bgjh2rcd13ifvqbg0","pricing_plan_id":"cebpf4jnsgd1na2vs0mg"},{"bike_id":"4a405ada-bc3f-4b09-9e1d-63f94475322a","system_id":"levelo_inurba_marseille","lat":43.305364,"lon":5.384119,"is_reserved":false,"is_disabled":false,"rental_uris":{"android":"levelo://app?vid=4a405ada-bc3f-4b09-9e1d-63f94475322a","ios":"levelo://app?vid=4a405ada-bc3f-4b09-9e1d-63f94475322a"},"vehicle_type_id":"4","last_reported":1719259726,"current_range_meters":28800,"station_id":"ce4bgg92rcd13ifvqb30","pricing_plan_id":"cebpf4jnsgd1na2vs0mg"},{"bike_id":"e9afee31-ef66-472e-b7c3-896651d0896f","system_id":"levelo_inurba_marseille","lat":43.311722,"lon":5.387247,"is_reserved":false,"is_disabled":false,"rental_uris":{"android":"levelo://app?vid=e9afee31-ef66-472e-b7c3-896651d0896f","ios":"levelo://app?vid=e9afee31-ef66-472e-b7c3-896651d0896f"},"vehicle_type_id":"4","last_reported":1719259726,"current_range_meters":5600,"station_id":"ce4bgv12rcd13ifvqcp0","pricing_plan_id":"cebpf4jnsgd1na2vs0mg"},{"bike_id":"fe6d274c-733d-4a59-9039-b237bf176b1c","system_id":"levelo_inurba_marseille","lat":43.311722,"lon":5.387247,"is_reserved":false,"is_disabled":false,"rental_uris":{"android":"levelo://app?vid=fe6d274c-733d-4a59-9039-b237bf176b1c","ios":"levelo://app?vid=fe6d274c-733d-4a59-9039-b237bf176b1c"},"vehicle_type_id":"4","last_reported":1719259726,"current_range_meters":1200,"station_id":"ce4bgv12rcd13ifvqcp0","pricing_plan_id":"cebpf4jnsgd1na2vs0mg"},{"bike_id":"c67f5089-2900-434f-bce9-41c68cd608ce","system_id":"levelo_inurba_marseille","lat":43.311722,"lon":5.387247,"is_reserved":false,"is_disabled":false,"rental_uris":{"android":"levelo://app?vid=c67f5089-2900-434f-bce9-41c68cd608ce","ios":"levelo://app?vid=c67f5089-2900-434f-bce9-41c68cd608ce"},"vehicle_type_id":"4","last_reported":1719259726,"current_range_meters":20400,"station_id":"ce4bgv12rcd13ifvqcp0","pricing_plan_id":"cebpf4jnsgd1na2vs0mg"},{"bike_id":"b5180ddc-3001-4031-9095-18940cfecbf6","system_id":"levelo_inurba_marseille","lat":43.311722,"lon":5.387247,"is_reserved":false,"is_disabled":false,"rental_uris":{"android":"levelo://app?vid=b5180ddc-3001-4031-9095-18940cfecbf6","ios":"levelo://app?vid=b5180ddc-3001-4031-9095-18940cfecbf6"},"vehicle_type_id":"4","last_reported":1719259726,"current_range_meters":23200,"station_id":"ce4bgv12rcd13ifvqcp0","pricing_plan_id":"cebpf4jnsgd1na2vs0mg"},{"bike_id":"c931766e-7314-4787-a212-81f0215eb9ce","system_id":"levelo_inurba_marseille","lat":43.311722,"lon":5.387247,"is_reserved":false,"is_disabled":false,"rental_uris":{"android":"levelo://app?vid=c931766e-7314-4787-a212-81f0215eb9ce","ios":"levelo://app?vid=c931766e-7314-4787-a212-81f0215eb9ce"},"vehicle_type_id":"4","last_reported":1719259726,"current_range_meters":9200,"station_id":"ce4bgv12rcd13ifvqcp0","pricing_plan_id":"cebpf4jnsgd1na2vs0mg"},{"bike_id":"34159617-e596-4dbf-9981-109c4ed1fa75","system_id":"levelo_inurba_marseille","lat":43.322872,"lon":5.382756,"is_reserved":false,"is_disabled":false,"rental_uris":{"android":"levelo://app?vid=34159617-e596-4dbf-9981-109c4ed1fa75","ios":"levelo://app?vid=34159617-e596-4dbf-9981-109c4ed1fa75"},"vehicle_type_id":"4","last_reported":1719259726,"current_range_meters":30400,"station_id":"ce4bhr12rcd13ifvqhqg","pricing_plan_id":"cebpf4jnsgd1na2vs0mg"},{"bike_id":"de15eb35-9a72-4513-b9b1-9d70e26e4f8e","system_id":"levelo_inurba_marseille","lat":43.322872,"lon":5.382756,"is_reserved":false,"is_disabled":false,"rental_uris":{"android":"levelo://app?vid=de15eb35-9a72-4513-b9b1-9d70e26e4f8e","ios":"levelo://app?vid=de15eb35-9a72-4513-b9b1-9d70e26e4f8e"},"vehicle_type_id":"4","last_reported":1719259726,"current_range_meters":30800,"station_id":"ce4bhr12rcd13ifvqhqg","pricing_plan_id":"cebpf4jnsgd1na2vs0mg"},{"bike_id":"4b78b0b8-d778-4c8e-8335-4a8971a23903","system_id":"levelo_inurba_marseille","lat":43.29735,"lon":5.36878,"is_reserved":false,"is_disabled":false,"rental_uris":{"android":"levelo://app?vid=4b78b0b8-d778-4c8e-8335-4a8971a23903","ios":"levelo://app?vid=4b78b0b8-d778-4c8e-8335-4a8971a23903"},"vehicle_type_id":"4","last_reported":1719259726,"current_range_meters":2400,"station_id":"","pricing_plan_id":"cebpf4jnsgd1na2vs0mg"},{"bike_id":"8a3dee68-befb-495c-8c53-779d24084da1","system_id":"levelo_inurba_marseille","lat":43.297045,"lon":5.365445,"is_reserved":false,"is_disabled":false,"rental_uris":{"android":"levelo://app?vid=8a3dee68-befb-495c-8c53-779d24084da1","ios":"levelo://app?vid=8a3dee68-befb-495c-8c53-779d24084da1"},"vehicle_type_id":"4","last_reported":1719259726,"current_range_meters":30800,"station_id":"","pricing_plan_id":"cebpf4jnsgd1na2vs0mg"},{"bike_id":"687640c3-0393-4179-afd7-0a641118d370","system_id":"levelo_inurba_marseille","lat":43.2968,"lon":5.372593,"is_reserved":false,"is_disabled":false,"rental_uris":{"android":"levelo://app?vid=687640c3-0393-4179-afd7-0a641118d370","ios":"levelo://app?vid=687640c3-0393-4179-afd7-0a641118d370"},"vehicle_type_id":"4","last_reported":1719259726,"current_range_meters":18000,"station_id":"ce4bgk12rcd13ifvqbj0","pricing_plan_id":"cebpf4jnsgd1na2vs0mg"},{"bike_id":"3b0c9552-176c-4d76-bca9-894fd37dd367","system_id":"levelo_inurba_marseille","lat":43.303002,"lon":5.392142,"is_reserved":false,"is_disabled":false,"rental_uris":{"android":"levelo://app?vid=3b0c9552-176c-4d76-bca9-894fd37dd367","ios":"levelo://app?vid=3b0c9552-176c-4d76-bca9-894fd37dd367"},"vehicle_type_id":"4","last_reported":1719259726,"current_range_meters":30000,"station_id":"ce4bgkh2rcd13ifvqbk0","pricing_plan_id":"cebpf4jnsgd1na2vs0mg"},{"bike_id":"8b5bc8ee-cd48-4b79-862c-8845440157dc","system_id":"levelo_inurba_marseille","lat":43.299028,"lon":5.381509,"is_reserved":false,"is_disabled":false,"rental_uris":{"android":"levelo://app?vid=8b5bc8ee-cd48-4b79-862c-8845440157dc","ios":"levelo://app?vid=8b5bc8ee-cd48-4b79-862c-8845440157dc"},"vehicle_type_id":"4","last_reported":1719259726,"current_range_meters":12000,"station_id":"ce4bgj12rcd13ifvqbc0","pricing_plan_id":"cebpf4jnsgd1na2vs0mg"},{"bike_id":"1d921b75-3936-4904-b87c-ea142ca62c97","system_id":"levelo_inurba_marseille","lat":43.309589,"lon":5.390258,"is_reserved":false,"is_disabled":false,"rental_uris":{"android":"levelo://app?vid=1d921b75-3936-4904-b87c-ea142ca62c97","ios":"levelo://app?vid=1d921b75-3936-4904-b87c-ea142ca62c97"},"vehicle_type_id":"4","last_reported":1719259726,"current_range_meters":12400,"station_id":"ce4bgup2rcd13ifvqco0","pricing_plan_id":"cebpf4jnsgd1na2vs0mg"},{"bike_id":"753f1da4-104b-4488-991b-a0d10f9bebf1","system_id":"levelo_inurba_marseille","lat":43.317557,"lon":5.390173,"is_reserved":false,"is_disabled":false,"rental_uris":{"android":"levelo://app?vid=753f1da4-104b-4488-991b-a0d10f9bebf1","ios":"levelo://app?vid=753f1da4-104b-4488-991b-a0d10f9bebf1"},"vehicle_type_id":"4","last_reported":1719259726,"current_range_meters":18800,"station_id":"ce4bhqp2rcd13ifvqhng","pricing_plan_id":"cebpf4jnsgd1na2vs0mg"},{"bike_id":"d0ad72a6-bc81-42de-9c1d-134c9a3a9620","system_id":"levelo_inurba_marseille","lat":43.317557,"lon":5.390173,"is_reserved":false,"is_disabled":false,"rental_uris":{"android":"levelo://app?vid=d0ad72a6-bc81-42de-9c1d-134c9a3a9620","ios":"levelo://app?vid=d0ad72a6-bc81-42de-9c1d-134c9a3a9620"},"vehicle_type_id":"4","last_reported":1719259726,"current_range_meters":31200,"station_id":"ce4bhqp2rcd13ifvqhng","pricing_plan_id":"cebpf4jnsgd1na2vs0mg"},{"bike_id":"2c57ec1f-ce24-4ef8-ab49-5cb807b19dac","system_id":"levelo_inurba_marseille","lat":43.31759,"lon":5.39015,"is_reserved":false,"is_disabled":false,"rental_uris":{"android":"levelo://app?vid=2c57ec1f-ce24-4ef8-ab49-5cb807b19dac","ios":"levelo://app?vid=2c57ec1f-ce24-4ef8-ab49-5cb807b19dac"},"vehicle_type_id":"4","last_reported":1719259726,"current_range_meters":2800,"station_id":"ce4bhqp2rcd13ifvqhng","pricing_plan_id":"cebpf4jnsgd1na2vs0mg"},{"bike_id":"7547f8e8-083f-4b4f-8cf0-f7fc7222f2b6","system_id":"levelo_inurba_marseille","lat":43.29806,"lon":5.38103,"is_reserved":false,"is_disabled":false,"rental_uris":{"android":"levelo://app?vid=7547f8e8-083f-4b4f-8cf0-f7fc7222f2b6","ios":"levelo://app?vid=7547f8e8-083f-4b4f-8cf0-f7fc7222f2b6"},"vehicle_type_id":"4","last_reported":1719259726,"current_range_meters":8400,"station_id":"ce4bgip2rcd13ifvqbb0","pricing_plan_id":"cebpf4jnsgd1na2vs0mg"},{"bike_id":"7d639ac0-a94a-411d-bfe5-c15dbe956356","system_id":"levelo_inurba_marseille","lat":43.298037,"lon":5.381066,"is_reserved":false,"is_disabled":false,"rental_uris":{"android":"levelo://app?vid=7d639ac0-a94a-411d-bfe5-c15dbe956356","ios":"levelo://app?vid=7d639ac0-a94a-411d-bfe5-c15dbe956356"},"vehicle_type_id":"4","last_reported":1719259726,"current_range_meters":0,"station_id":"ce4bgip2rcd13ifvqbb0","pricing_plan_id":"cebpf4jnsgd1na2vs0mg"},{"bike_id":"d87eccfc-dfec-4006-b4da-4b48ba81bfe9","system_id":"levelo_inurba_marseille","lat":43.304278,"lon":5.388868,"is_reserved":false,"is_disabled":false,"rental_uris":{"android":"levelo://app?vid=d87eccfc-dfec-4006-b4da-4b48ba81bfe9","ios":"levelo://app?vid=d87eccfc-dfec-4006-b4da-4b48ba81bfe9"},"vehicle_type_id":"4","last_reported":1719259726,"current_range_meters":16800,"station_id":"ce4bgk12rcd13ifvqbi0","pricing_plan_id":"cebpf4jnsgd1na2vs0mg"},{"bike_id":"f13fac3d-5337-4b39-8e06-4a24e88dec41","system_id":"levelo_inurba_marseille","lat":43.298037,"lon":5.381066,"is_reserved":false,"is_disabled":false,"rental_uris":{"android":"levelo://app?vid=f13fac3d-5337-4b39-8e06-4a24e88dec41","ios":"levelo://app?vid=f13fac3d-5337-4b39-8e06-4a24e88dec41"},"vehicle_type_id":"4","last_reported":1719259726,"current_range_meters":30000,"station_id":"ce4bgip2rcd13ifvqbb0","pricing_plan_id":"cebpf4jnsgd1na2vs0mg"},{"bike_id":"d7dd8517-b5e2-487e-9af2-e571f6480b77","system_id":"levelo_inurba_marseille","lat":43.296277,"lon":5.377108,"is_reserved":false,"is_disabled":false,"rental_uris":{"android":"levelo://app?vid=d7dd8517-b5e2-487e-9af2-e571f6480b77","ios":"levelo://app?vid=d7dd8517-b5e2-487e-9af2-e571f6480b77"},"vehicle_type_id":"4","last_reported":1719259726,"current_range_meters":2800,"station_id":"ce4bgi92rcd13ifvqb90","pricing_plan_id":"cebpf4jnsgd1na2vs0mg"},{"bike_id":"168a0c60-19c4-4834-ae25-9aad3c8b6629","system_id":"levelo_inurba_marseille","lat":43.29743,"lon":5.38021,"is_reserved":false,"is_disabled":false,"rental_uris":{"android":"levelo://app?vid=168a0c60-19c4-4834-ae25-9aad3c8b6629","ios":"levelo://app?vid=168a0c60-19c4-4834-ae25-9aad3c8b6629"},"vehicle_type_id":"4","last_reported":1719259726,"current_range_meters":800,"station_id":"","pricing_plan_id":"cebpf4jnsgd1na2vs0mg"},{"bike_id":"5b29adeb-919a-408a-9f72-a69f98382876","system_id":"levelo_inurba_marseille","lat":43.29754,"lon":5.38051,"is_reserved":false,"is_disabled":false,"rental_uris":{"android":"levelo://app?vid=5b29adeb-919a-408a-9f72-a69f98382876","ios":"levelo://app?vid=5b29adeb-919a-408a-9f72-a69f98382876"},"vehicle_type_id":"4","last_reported":1719259726,"current_range_meters":0,"station_id":"","pricing_plan_id":"cebpf4jnsgd1na2vs0mg"},{"bike_id":"7256a11b-4d8d-4d4f-acde-049a5528d143","system_id":"levelo_inurba_marseille","lat":43.299724,"lon":5.384848,"is_reserved":false,"is_disabled":false,"rental_uris":{"android":"levelo://app?vid=7256a11b-4d8d-4d4f-acde-049a5528d143","ios":"levelo://app?vid=7256a11b-4d8d-4d4f-acde-049a5528d143"},"vehicle_type_id":"4","last_reported":1719259726,"current_range_meters":20000,"station_id":"ce4bgj92rcd13ifvqbd0","pricing_plan_id":"cebpf4jnsgd1na2vs0mg"},{"bike_id":"c80ae94d-609d-4d70-841f-f6cd975d2cf7","system_id":"levelo_inurba_marseille","lat":43.32363,"lon":5.38886,"is_reserved":false,"is_disabled":false,"rental_uris":{"android":"levelo://app?vid=c80ae94d-609d-4d70-841f-f6cd975d2cf7","ios":"levelo://app?vid=c80ae94d-609d-4d70-841f-f6cd975d2cf7"},"vehicle_type_id":"4","last_reported":1719259726,"current_range_meters":0,"station_id":"ce4bhqp2rcd13ifvqhog","pricing_plan_id":"cebpf4jnsgd1na2vs0mg"},{"bike_id":"6389a8c4-1d2f-434a-8385-00a200ddbab1","system_id":"levelo_inurba_marseille","lat":43.32367,"lon":5.38883,"is_reserved":false,"is_disabled":false,"rental_uris":{"android":"levelo://app?vid=6389a8c4-1d2f-434a-8385-00a200ddbab1","ios":"levelo://app?vid=6389a8c4-1d2f-434a-8385-00a200ddbab1"},"vehicle_type_id":"4","last_reported":1719259726,"current_range_meters":0,"station_id":"ce4bhqp2rcd13ifvqhog","pricing_plan_id":"cebpf4jnsgd1na2vs0mg"},{"bike_id":"1e3078d0-ffe1-4bc1-9881-93bea9190dda","system_id":"levelo_inurba_marseille","lat":43.292749,"lon":5.368398,"is_reserved":false,"is_disabled":false,"rental_uris":{"android":"levelo://app?vid=1e3078d0-ffe1-4bc1-9881-93bea9190dda","ios":"levelo://app?vid=1e3078d0-ffe1-4bc1-9881-93bea9190dda"},"vehicle_type_id":"4","last_reported":1719259726,"current_range_meters":26800,"station_id":"ce4bhbp2rcd13ifvqesg","pricing_plan_id":"cebpf4jnsgd1na2vs0mg"},{"bike_id":"f5bac3ab-2022-42f2-a957-b460a2ff4144","system_id":"levelo_inurba_marseille","lat":43.292749,"lon":5.368402,"is_reserved":false,"is_disabled":false,"rental_uris":{"android":"levelo://app?vid=f5bac3ab-2022-42f2-a957-b460a2ff4144","ios":"levelo://app?vid=f5bac3ab-2022-42f2-a957-b460a2ff4144"},"vehicle_type_id":"4","last_reported":1719259726,"current_range_meters":11600,"station_id":"ce4bhbp2rcd13ifvqesg","pricing_plan_id":"cebpf4jnsgd1na2vs0mg"},{"bike_id":"cd4142b0-d675-4cf8-8fca-358484835f32","system_id":"levelo_inurba_marseille","lat":43.293249,"lon":5.371578,"is_reserved":false,"is_disabled":false,"rental_uris":{"android":"levelo://app?vid=cd4142b0-d675-4cf8-8fca-358484835f32","ios":"levelo://app?vid=cd4142b0-d675-4cf8-8fca-358484835f32"},"vehicle_type_id":"4","last_reported":1719259726,"current_range_meters":31200,"station_id":"ce4bgh92rcd13ifvqb40","pricing_plan_id":"cebpf4jnsgd1na2vs0mg"},{"bike_id":"89b134cc-ba58-4f39-a980-5d0deb1693c7","system_id":"levelo_inurba_marseille","lat":43.29303,"lon":5.37169,"is_reserved":false,"is_disabled":false,"rental_uris":{"android":"levelo://app?vid=89b134cc-ba58-4f39-a980-5d0deb1693c7","ios":"levelo://app?vid=89b134cc-ba58-4f39-a980-5d0deb1693c7"},"vehicle_type_id":"4","last_reported":1719259726,"current_range_meters":10400,"station_id":"ce4bgh92rcd13ifvqb40","pricing_plan_id":"cebpf4jnsgd1na2vs0mg"},{"bike_id":"f6ddfb77-bd5b-4a3c-8309-0f8e339be1ac","system_id":"levelo_inurba_marseille","lat":43.305994,"lon":5.393687,"is_reserved":false,"is_disabled":false,"rental_uris":{"android":"levelo://app?vid=f6ddfb77-bd5b-4a3c-8309-0f8e339be1ac","ios":"levelo://app?vid=f6ddfb77-bd5b-4a3c-8309-0f8e339be1ac"},"vehicle_type_id":"4","last_reported":1719259726,"current_range_meters":14400,"station_id":"ce4bh0p2rcd13ifvqd80","pricing_plan_id":"cebpf4jnsgd1na2vs0mg"},{"bike_id":"08b5dd34-979f-46e1-8254-2bb7b7ce398d","system_id":"levelo_inurba_marseille","lat":43.303002,"lon":5.392142,"is_reserved":false,"is_disabled":false,"rental_uris":{"android":"levelo://app?vid=08b5dd34-979f-46e1-8254-2bb7b7ce398d","ios":"levelo://app?vid=08b5dd34-979f-46e1-8254-2bb7b7ce398d"},"vehicle_type_id":"4","last_reported":1719259726,"current_range_meters":16800,"station_id":"ce4bgkh2rcd13ifvqbk0","pricing_plan_id":"cebpf4jnsgd1na2vs0mg"},{"bike_id":"66a09f8f-b553-435a-9390-f6a7d7199834","system_id":"levelo_inurba_marseille","lat":43.302992,"lon":5.392136,"is_reserved":false,"is_disabled":false,"rental_uris":{"android":"levelo://app?vid=66a09f8f-b553-435a-9390-f6a7d7199834","ios":"levelo://app?vid=66a09f8f-b553-435a-9390-f6a7d7199834"},"vehicle_type_id":"4","last_reported":1719259726,"current_range_meters":10400,"station_id":"ce4bgkh2rcd13ifvqbk0","pricing_plan_id":"cebpf4jnsgd1na2vs0mg"},{"bike_id":"614c942f-fe1e-422a-81d0-6a52eeffda79","system_id":"levelo_inurba_marseille","lat":43.30301,"lon":5.39212,"is_reserved":false,"is_disabled":false,"rental_uris":{"android":"levelo://app?vid=614c942f-fe1e-422a-81d0-6a52eeffda79","ios":"levelo://app?vid=614c942f-fe1e-422a-81d0-6a52eeffda79"},"vehicle_type_id":"4","last_reported":1719259726,"current_range_meters":4800,"station_id":"ce4bgkh2rcd13ifvqbk0","pricing_plan_id":"cebpf4jnsgd1na2vs0mg"},{"bike_id":"ddb2602e-10e7-4c3f-8c0a-628948809c78","system_id":"levelo_inurba_marseille","lat":43.300673,"lon":5.390216,"is_reserved":false,"is_disabled":false,"rental_uris":{"android":"levelo://app?vid=ddb2602e-10e7-4c3f-8c0a-628948809c78","ios":"levelo://app?vid=ddb2602e-10e7-4c3f-8c0a-628948809c78"},"vehicle_type_id":"4","last_reported":1719259726,"current_range_meters":16000,"station_id":"","pricing_plan_id":"cebpf4jnsgd1na2vs0mg"},{"bike_id":"86eea3e7-9e5e-4c9c-93c6-52504f8bd042","system_id":"levelo_inurba_marseille","lat":43.30085,"lon":5.390856,"is_reserved":false,"is_disabled":false,"rental_uris":{"android":"levelo://app?vid=86eea3e7-9e5e-4c9c-93c6-52504f8bd042","ios":"levelo://app?vid=86eea3e7-9e5e-4c9c-93c6-52504f8bd042"},"vehicle_type_id":"4","last_reported":1719259726,"current_range_meters":30800,"station_id":"ce4bh192rcd13ifvqdb0","pricing_plan_id":"cebpf4jnsgd1na2vs0mg"},{"bike_id":"c75ebd16-8814-401d-9877-ac5460e9f43a","system_id":"levelo_inurba_marseille","lat":43.30085,"lon":5.390856,"is_reserved":false,"is_disabled":false,"rental_uris":{"android":"levelo://app?vid=c75ebd16-8814-401d-9877-ac5460e9f43a","ios":"levelo://app?vid=c75ebd16-8814-401d-9877-ac5460e9f43a"},"vehicle_type_id":"4","last_reported":1719259726,"current_range_meters":21200,"station_id":"ce4bh192rcd13ifvqdb0","pricing_plan_id":"cebpf4jnsgd1na2vs0mg"},{"bike_id":"5556eabe-c991-419b-8f4c-5516af10fdb4","system_id":"levelo_inurba_marseille","lat":43.300852,"lon":5.390859,"is_reserved":false,"is_disabled":false,"rental_uris":{"android":"levelo://app?vid=5556eabe-c991-419b-8f4c-5516af10fdb4","ios":"levelo://app?vid=5556eabe-c991-419b-8f4c-5516af10fdb4"},"vehicle_type_id":"4","last_reported":1719259726,"current_range_meters":20400,"station_id":"ce4bh192rcd13ifvqdb0","pricing_plan_id":"cebpf4jnsgd1na2vs0mg"},{"bike_id":"f0441fd8-fe81-4e35-8b75-64e25cf720e3","system_id":"levelo_inurba_marseille","lat":43.30085,"lon":5.390856,"is_reserved":false,"is_disabled":false,"rental_uris":{"android":"levelo://app?vid=f0441fd8-fe81-4e35-8b75-64e25cf720e3","ios":"levelo://app?vid=f0441fd8-fe81-4e35-8b75-64e25cf720e3"},"vehicle_type_id":"4","last_reported":1719259726,"current_range_meters":13600,"station_id":"ce4bh192rcd13ifvqdb0","pricing_plan_id":"cebpf4jnsgd1na2vs0mg"},{"bike_id":"5a3f5eaf-de96-4b67-b4a6-59f7fece59e0","system_id":"levelo_inurba_marseille","lat":43.30085,"lon":5.390856,"is_reserved":false,"is_disabled":false,"rental_uris":{"android":"levelo://app?vid=5a3f5eaf-de96-4b67-b4a6-59f7fece59e0","ios":"levelo://app?vid=5a3f5eaf-de96-4b67-b4a6-59f7fece59e0"},"vehicle_type_id":"4","last_reported":1719259726,"current_range_meters":31200,"station_id":"ce4bh192rcd13ifvqdb0","pricing_plan_id":"cebpf4jnsgd1na2vs0mg"},{"bike_id":"16a43026-dc7c-4602-8df0-b91a93f7eee0","system_id":"levelo_inurba_marseille","lat":43.30085,"lon":5.390856,"is_reserved":false,"is_disabled":false,"rental_uris":{"android":"levelo://app?vid=16a43026-dc7c-4602-8df0-b91a93f7eee0","ios":"levelo://app?vid=16a43026-dc7c-4602-8df0-b91a93f7eee0"},"vehicle_type_id":"4","last_reported":1719259726,"current_range_meters":31200,"station_id":"ce4bh192rcd13ifvqdb0","pricing_plan_id":"cebpf4jnsgd1na2vs0mg"},{"bike_id":"c96bb2fc-409f-456a-a748-0168c1645aed","system_id":"levelo_inurba_marseille","lat":43.29219,"lon":5.36041,"is_reserved":false,"is_disabled":false,"rental_uris":{"android":"levelo://app?vid=c96bb2fc-409f-456a-a748-0168c1645aed","ios":"levelo://app?vid=c96bb2fc-409f-456a-a748-0168c1645aed"},"vehicle_type_id":"4","last_reported":1719259726,"current_range_meters":25200,"station_id":"ce4bhbh2rcd13ifvqeqg","pricing_plan_id":"cebpf4jnsgd1na2vs0mg"},{"bike_id":"80e495cd-2cb2-4eb3-b5db-4822905071b8","system_id":"levelo_inurba_marseille","lat":43.306568,"lon":5.394909,"is_reserved":false,"is_disabled":false,"rental_uris":{"android":"levelo://app?vid=80e495cd-2cb2-4eb3-b5db-4822905071b8","ios":"levelo://app?vid=80e495cd-2cb2-4eb3-b5db-4822905071b8"},"vehicle_type_id":"4","last_reported":1719259726,"current_range_meters":0,"station_id":"","pricing_plan_id":"cebpf4jnsgd1na2vs0mg"},{"bike_id":"3e759fb1-c600-48cc-a3c9-ae2bfa74d6ab","system_id":"levelo_inurba_marseille","lat":43.291675,"lon":5.371583,"is_reserved":false,"is_disabled":false,"rental_uris":{"android":"levelo://app?vid=3e759fb1-c600-48cc-a3c9-ae2bfa74d6ab","ios":"levelo://app?vid=3e759fb1-c600-48cc-a3c9-ae2bfa74d6ab"},"vehicle_type_id":"4","last_reported":1719259726,"current_range_meters":10400,"station_id":"ce4bha92rcd13ifvqeh0","pricing_plan_id":"cebpf4jnsgd1na2vs0mg"},{"bike_id":"0bfe0cd3-8bf9-46dc-aab5-7707031c0dad","system_id":"levelo_inurba_marseille","lat":43.29878,"lon":5.38905,"is_reserved":false,"is_disabled":false,"rental_uris":{"android":"levelo://app?vid=0bfe0cd3-8bf9-46dc-aab5-7707031c0dad","ios":"levelo://app?vid=0bfe0cd3-8bf9-46dc-aab5-7707031c0dad"},"vehicle_type_id":"4","last_reported":1719259726,"current_range_meters":31200,"station_id":"ce4bh392rcd13ifvqdl0","pricing_plan_id":"cebpf4jnsgd1na2vs0mg"},{"bike_id":"9432f900-1e2a-472d-b9c4-6183f9cffbad","system_id":"levelo_inurba_marseille","lat":43.309038,"lon":5.396546,"is_reserved":false,"is_disabled":false,"rental_uris":{"android":"levelo://app?vid=9432f900-1e2a-472d-b9c4-6183f9cffbad","ios":"levelo://app?vid=9432f900-1e2a-472d-b9c4-6183f9cffbad"},"vehicle_type_id":"4","last_reported":1719259726,"current_range_meters":12400,"station_id":"ce4bh012rcd13ifvqcv0","pricing_plan_id":"cebpf4jnsgd1na2vs0mg"},{"bike_id":"824462df-1c12-4c29-a602-478646d2ce10","system_id":"levelo_inurba_marseille","lat":43.313291,"lon":5.396838,"is_reserved":false,"is_disabled":false,"rental_uris":{"android":"levelo://app?vid=824462df-1c12-4c29-a602-478646d2ce10","ios":"levelo://app?vid=824462df-1c12-4c29-a602-478646d2ce10"},"vehicle_type_id":"4","last_reported":1719259726,"current_range_meters":27200,"station_id":"ce4bgvp2rcd13ifvqcu0","pricing_plan_id":"cebpf4jnsgd1na2vs0mg"},{"bike_id":"5c414882-fd22-4937-b6aa-b5e4a2621bf3","system_id":"levelo_inurba_marseille","lat":43.313291,"lon":5.396838,"is_reserved":false,"is_disabled":false,"rental_uris":{"android":"levelo://app?vid=5c414882-fd22-4937-b6aa-b5e4a2621bf3","ios":"levelo://app?vid=5c414882-fd22-4937-b6aa-b5e4a2621bf3"},"vehicle_type_id":"4","last_reported":1719259726,"current_range_meters":24000,"station_id":"ce4bgvp2rcd13ifvqcu0","pricing_plan_id":"cebpf4jnsgd1na2vs0mg"},{"bike_id":"e4b6af0a-a3f8-4d53-bab4-7d0d7f9fd51b","system_id":"levelo_inurba_marseille","lat":43.313291,"lon":5.396838,"is_reserved":false,"is_disabled":false,"rental_uris":{"android":"levelo://app?vid=e4b6af0a-a3f8-4d53-bab4-7d0d7f9fd51b","ios":"levelo://app?vid=e4b6af0a-a3f8-4d53-bab4-7d0d7f9fd51b"},"vehicle_type_id":"4","last_reported":1719259726,"current_range_meters":4400,"station_id":"ce4bgvp2rcd13ifvqcu0","pricing_plan_id":"cebpf4jnsgd1na2vs0mg"},{"bike_id":"a5f6fda7-86b7-4a54-98e1-755f24e7c7fd","system_id":"levelo_inurba_marseille","lat":43.313291,"lon":5.396838,"is_reserved":false,"is_disabled":false,"rental_uris":{"android":"levelo://app?vid=a5f6fda7-86b7-4a54-98e1-755f24e7c7fd","ios":"levelo://app?vid=a5f6fda7-86b7-4a54-98e1-755f24e7c7fd"},"vehicle_type_id":"4","last_reported":1719259726,"current_range_meters":25600,"station_id":"ce4bgvp2rcd13ifvqcu0","pricing_plan_id":"cebpf4jnsgd1na2vs0mg"},{"bike_id":"bc554887-4c67-4104-8204-0bfb505e845a","system_id":"levelo_inurba_marseille","lat":43.29529,"lon":5.385581,"is_reserved":false,"is_disabled":false,"rental_uris":{"android":"levelo://app?vid=bc554887-4c67-4104-8204-0bfb505e845a","ios":"levelo://app?vid=bc554887-4c67-4104-8204-0bfb505e845a"},"vehicle_type_id":"4","last_reported":1719259726,"current_range_meters":17600,"station_id":"ce4bgih2rcd13ifvqba0","pricing_plan_id":"cebpf4jnsgd1na2vs0mg"},{"bike_id":"58dbcd57-64a8-4b7b-967c-7fa89031a481","system_id":"levelo_inurba_marseille","lat":43.29529,"lon":5.385581,"is_reserved":false,"is_disabled":false,"rental_uris":{"android":"levelo://app?vid=58dbcd57-64a8-4b7b-967c-7fa89031a481","ios":"levelo://app?vid=58dbcd57-64a8-4b7b-967c-7fa89031a481"},"vehicle_type_id":"4","last_reported":1719259726,"current_range_meters":12800,"station_id":"ce4bgih2rcd13ifvqba0","pricing_plan_id":"cebpf4jnsgd1na2vs0mg"},{"bike_id":"db107aac-8332-4369-b7dc-b5960afd1f11","system_id":"levelo_inurba_marseille","lat":43.29529,"lon":5.385581,"is_reserved":false,"is_disabled":false,"rental_uris":{"android":"levelo://app?vid=db107aac-8332-4369-b7dc-b5960afd1f11","ios":"levelo://app?vid=db107aac-8332-4369-b7dc-b5960afd1f11"},"vehicle_type_id":"4","last_reported":1719259726,"current_range_meters":24800,"station_id":"ce4bgih2rcd13ifvqba0","pricing_plan_id":"cebpf4jnsgd1na2vs0mg"},{"bike_id":"998721d3-05f2-4f4c-9c42-00cb08919f6d","system_id":"levelo_inurba_marseille","lat":43.29529,"lon":5.385581,"is_reserved":false,"is_disabled":false,"rental_uris":{"android":"levelo://app?vid=998721d3-05f2-4f4c-9c42-00cb08919f6d","ios":"levelo://app?vid=998721d3-05f2-4f4c-9c42-00cb08919f6d"},"vehicle_type_id":"4","last_reported":1719259726,"current_range_meters":16400,"station_id":"ce4bgih2rcd13ifvqba0","pricing_plan_id":"cebpf4jnsgd1na2vs0mg"},{"bike_id":"d04f6f37-f691-4e82-87c7-258170a34ef0","system_id":"levelo_inurba_marseille","lat":43.29529,"lon":5.385581,"is_reserved":false,"is_disabled":false,"rental_uris":{"android":"levelo://app?vid=d04f6f37-f691-4e82-87c7-258170a34ef0","ios":"levelo://app?vid=d04f6f37-f691-4e82-87c7-258170a34ef0"},"vehicle_type_id":"4","last_reported":1719259726,"current_range_meters":24000,"station_id":"ce4bgih2rcd13ifvqba0","pricing_plan_id":"cebpf4jnsgd1na2vs0mg"},{"bike_id":"e600c620-ad38-459d-8f50-d1749a7890fe","system_id":"levelo_inurba_marseille","lat":43.290779,"lon":5.371482,"is_reserved":false,"is_disabled":false,"rental_uris":{"android":"levelo://app?vid=e600c620-ad38-459d-8f50-d1749a7890fe","ios":"levelo://app?vid=e600c620-ad38-459d-8f50-d1749a7890fe"},"vehicle_type_id":"4","last_reported":1719259726,"current_range_meters":17200,"station_id":"ce4bh5p2rcd13ifvqe4g","pricing_plan_id":"cebpf4jnsgd1na2vs0mg"},{"bike_id":"0bb6779c-2427-4135-9b61-7958ecd71b6d","system_id":"levelo_inurba_marseille","lat":43.290779,"lon":5.371482,"is_reserved":false,"is_disabled":false,"rental_uris":{"android":"levelo://app?vid=0bb6779c-2427-4135-9b61-7958ecd71b6d","ios":"levelo://app?vid=0bb6779c-2427-4135-9b61-7958ecd71b6d"},"vehicle_type_id":"4","last_reported":1719259726,"current_range_meters":20400,"station_id":"ce4bh5p2rcd13ifvqe4g","pricing_plan_id":"cebpf4jnsgd1na2vs0mg"},{"bike_id":"d9f250eb-4ac9-4c32-8450-d1a51c95454a","system_id":"levelo_inurba_marseille","lat":43.294697,"lon":5.385871,"is_reserved":false,"is_disabled":false,"rental_uris":{"android":"levelo://app?vid=d9f250eb-4ac9-4c32-8450-d1a51c95454a","ios":"levelo://app?vid=d9f250eb-4ac9-4c32-8450-d1a51c95454a"},"vehicle_type_id":"4","last_reported":1719259726,"current_range_meters":5200,"station_id":"","pricing_plan_id":"cebpf4jnsgd1na2vs0mg"},{"bike_id":"6e18305d-d0b6-40b6-acef-c1701f34f16b","system_id":"levelo_inurba_marseille","lat":43.302008,"lon":5.394694,"is_reserved":false,"is_disabled":false,"rental_uris":{"android":"levelo://app?vid=6e18305d-d0b6-40b6-acef-c1701f34f16b","ios":"levelo://app?vid=6e18305d-d0b6-40b6-acef-c1701f34f16b"},"vehicle_type_id":"4","last_reported":1719259726,"current_range_meters":31200,"station_id":"ce4bh0p2rcd13ifvqd70","pricing_plan_id":"cebpf4jnsgd1na2vs0mg"},{"bike_id":"6dee434d-a77a-46e5-b77d-2dc85ac0e06a","system_id":"levelo_inurba_marseille","lat":43.290624,"lon":5.359245,"is_reserved":false,"is_disabled":false,"rental_uris":{"android":"levelo://app?vid=6dee434d-a77a-46e5-b77d-2dc85ac0e06a","ios":"levelo://app?vid=6dee434d-a77a-46e5-b77d-2dc85ac0e06a"},"vehicle_type_id":"4","last_reported":1719259726,"current_range_meters":17200,"station_id":"ce4bha92rcd13ifvqeg0","pricing_plan_id":"cebpf4jnsgd1na2vs0mg"},{"bike_id":"21528488-e8c9-4c08-88cf-05a5a68c67dc","system_id":"levelo_inurba_marseille","lat":43.290624,"lon":5.359245,"is_reserved":false,"is_disabled":false,"rental_uris":{"android":"levelo://app?vid=21528488-e8c9-4c08-88cf-05a5a68c67dc","ios":"levelo://app?vid=21528488-e8c9-4c08-88cf-05a5a68c67dc"},"vehicle_type_id":"4","last_reported":1719259726,"current_range_meters":31200,"station_id":"ce4bha92rcd13ifvqeg0","pricing_plan_id":"cebpf4jnsgd1na2vs0mg"},{"bike_id":"0bacca89-a982-4b25-b6e9-513b5d0ad9de","system_id":"levelo_inurba_marseille","lat":43.290631,"lon":5.359244,"is_reserved":false,"is_disabled":false,"rental_uris":{"android":"levelo://app?vid=0bacca89-a982-4b25-b6e9-513b5d0ad9de","ios":"levelo://app?vid=0bacca89-a982-4b25-b6e9-513b5d0ad9de"},"vehicle_type_id":"4","last_reported":1719259726,"current_range_meters":16800,"station_id":"ce4bha92rcd13ifvqeg0","pricing_plan_id":"cebpf4jnsgd1na2vs0mg"},{"bike_id":"742070cd-270f-4de8-a239-87202b25b802","system_id":"levelo_inurba_marseille","lat":43.290631,"lon":5.359244,"is_reserved":false,"is_disabled":false,"rental_uris":{"android":"levelo://app?vid=742070cd-270f-4de8-a239-87202b25b802","ios":"levelo://app?vid=742070cd-270f-4de8-a239-87202b25b802"},"vehicle_type_id":"4","last_reported":1719259726,"current_range_meters":5200,"station_id":"ce4bha92rcd13ifvqeg0","pricing_plan_id":"cebpf4jnsgd1na2vs0mg"},{"bike_id":"6f0b9e7b-59e8-418c-8580-449c54ac497d","system_id":"levelo_inurba_marseille","lat":43.290631,"lon":5.359244,"is_reserved":false,"is_disabled":false,"rental_uris":{"android":"levelo://app?vid=6f0b9e7b-59e8-418c-8580-449c54ac497d","ios":"levelo://app?vid=6f0b9e7b-59e8-418c-8580-449c54ac497d"},"vehicle_type_id":"4","last_reported":1719259726,"current_range_meters":21200,"station_id":"ce4bha92rcd13ifvqeg0","pricing_plan_id":"cebpf4jnsgd1na2vs0mg"},{"bike_id":"d3c8fb6b-50e8-41b3-b5e9-795b9604ba51","system_id":"levelo_inurba_marseille","lat":43.294153,"lon":5.386305,"is_reserved":false,"is_disabled":false,"rental_uris":{"android":"levelo://app?vid=d3c8fb6b-50e8-41b3-b5e9-795b9604ba51","ios":"levelo://app?vid=d3c8fb6b-50e8-41b3-b5e9-795b9604ba51"},"vehicle_type_id":"4","last_reported":1719259726,"current_range_meters":23600,"station_id":"ce4bh2h2rcd13ifvqdh0","pricing_plan_id":"cebpf4jnsgd1na2vs0mg"},{"bike_id":"e05959a0-b703-4361-bcc1-7e9f3d6e624a","system_id":"levelo_inurba_marseille","lat":43.290327,"lon":5.375711,"is_reserved":false,"is_disabled":false,"rental_uris":{"android":"levelo://app?vid=e05959a0-b703-4361-bcc1-7e9f3d6e624a","ios":"levelo://app?vid=e05959a0-b703-4361-bcc1-7e9f3d6e624a"},"vehicle_type_id":"4","last_reported":1719259726,"current_range_meters":19600,"station_id":"ce4bh692rcd13ifvqe90","pricing_plan_id":"cebpf4jnsgd1na2vs0mg"},{"bike_id":"44f555b3-2c43-44af-9882-648c2fd789b6","system_id":"levelo_inurba_marseille","lat":43.290327,"lon":5.375711,"is_reserved":false,"is_disabled":false,"rental_uris":{"android":"levelo://app?vid=44f555b3-2c43-44af-9882-648c2fd789b6","ios":"levelo://app?vid=44f555b3-2c43-44af-9882-648c2fd789b6"},"vehicle_type_id":"4","last_reported":1719259726,"current_range_meters":6800,"station_id":"ce4bh692rcd13ifvqe90","pricing_plan_id":"cebpf4jnsgd1na2vs0mg"},{"bike_id":"1c814516-8fa2-4687-ae04-2d8faa30af4a","system_id":"levelo_inurba_marseille","lat":43.28943,"lon":5.36634,"is_reserved":false,"is_disabled":false,"rental_uris":{"android":"levelo://app?vid=1c814516-8fa2-4687-ae04-2d8faa30af4a","ios":"levelo://app?vid=1c814516-8fa2-4687-ae04-2d8faa30af4a"},"vehicle_type_id":"4","last_reported":1719259726,"current_range_meters":0,"station_id":"ce4bhap2rcd13ifvqek0","pricing_plan_id":"cebpf4jnsgd1na2vs0mg"},{"bike_id":"fa4e74a6-0b98-49ab-8755-42e7cc3fc9b0","system_id":"levelo_inurba_marseille","lat":43.289468,"lon":5.363719,"is_reserved":false,"is_disabled":false,"rental_uris":{"android":"levelo://app?vid=fa4e74a6-0b98-49ab-8755-42e7cc3fc9b0","ios":"levelo://app?vid=fa4e74a6-0b98-49ab-8755-42e7cc3fc9b0"},"vehicle_type_id":"4","last_reported":1719259726,"current_range_meters":21200,"station_id":"ce4bhc92rcd13ifvqetg","pricing_plan_id":"cebpf4jnsgd1na2vs0mg"},{"bike_id":"a48c8664-9881-42a8-84cf-713c8df6bc14","system_id":"levelo_inurba_marseille","lat":43.289468,"lon":5.363719,"is_reserved":false,"is_disabled":false,"rental_uris":{"android":"levelo://app?vid=a48c8664-9881-42a8-84cf-713c8df6bc14","ios":"levelo://app?vid=a48c8664-9881-42a8-84cf-713c8df6bc14"},"vehicle_type_id":"4","last_reported":1719259726,"current_range_meters":24800,"station_id":"ce4bhc92rcd13ifvqetg","pricing_plan_id":"cebpf4jnsgd1na2vs0mg"},{"bike_id":"afdaeba9-573a-41b2-a992-66f2b43f8d89","system_id":"levelo_inurba_marseille","lat":43.28937,"lon":5.36385,"is_reserved":false,"is_disabled":false,"rental_uris":{"android":"levelo://app?vid=afdaeba9-573a-41b2-a992-66f2b43f8d89","ios":"levelo://app?vid=afdaeba9-573a-41b2-a992-66f2b43f8d89"},"vehicle_type_id":"4","last_reported":1719259726,"current_range_meters":10800,"station_id":"ce4bhc92rcd13ifvqetg","pricing_plan_id":"cebpf4jnsgd1na2vs0mg"},{"bike_id":"61cd4a07-b90d-4490-a30b-54d9b9a148e7","system_id":"levelo_inurba_marseille","lat":43.292642,"lon":5.384254,"is_reserved":false,"is_disabled":false,"rental_uris":{"android":"levelo://app?vid=61cd4a07-b90d-4490-a30b-54d9b9a148e7","ios":"levelo://app?vid=61cd4a07-b90d-4490-a30b-54d9b9a148e7"},"vehicle_type_id":"4","last_reported":1719259726,"current_range_meters":24000,"station_id":"ce4bh692rcd13ifvqea0","pricing_plan_id":"cebpf4jnsgd1na2vs0mg"},{"bike_id":"73d58ff3-2931-4e87-b573-f012fc5dd0c5","system_id":"levelo_inurba_marseille","lat":43.292644,"lon":5.384257,"is_reserved":false,"is_disabled":false,"rental_uris":{"android":"levelo://app?vid=73d58ff3-2931-4e87-b573-f012fc5dd0c5","ios":"levelo://app?vid=73d58ff3-2931-4e87-b573-f012fc5dd0c5"},"vehicle_type_id":"4","last_reported":1719259726,"current_range_meters":16400,"station_id":"ce4bh692rcd13ifvqea0","pricing_plan_id":"cebpf4jnsgd1na2vs0mg"},{"bike_id":"3e311a4f-4c5e-46f5-910d-bf700aa39f63","system_id":"levelo_inurba_marseille","lat":43.2927,"lon":5.38436,"is_reserved":false,"is_disabled":false,"rental_uris":{"android":"levelo://app?vid=3e311a4f-4c5e-46f5-910d-bf700aa39f63","ios":"levelo://app?vid=3e311a4f-4c5e-46f5-910d-bf700aa39f63"},"vehicle_type_id":"4","last_reported":1719259726,"current_range_meters":0,"station_id":"ce4bh692rcd13ifvqea0","pricing_plan_id":"cebpf4jnsgd1na2vs0mg"},{"bike_id":"c7b08ee2-0c74-402d-88b6-3fefbaea05a8","system_id":"levelo_inurba_marseille","lat":43.304296,"lon":5.397513,"is_reserved":false,"is_disabled":false,"rental_uris":{"android":"levelo://app?vid=c7b08ee2-0c74-402d-88b6-3fefbaea05a8","ios":"levelo://app?vid=c7b08ee2-0c74-402d-88b6-3fefbaea05a8"},"vehicle_type_id":"4","last_reported":1719259726,"current_range_meters":11200,"station_id":"ce4bh092rcd13ifvqd20","pricing_plan_id":"cebpf4jnsgd1na2vs0mg"},{"bike_id":"71180aff-02b0-4707-aebf-668fc97ce289","system_id":"levelo_inurba_marseille","lat":43.304274,"lon":5.397513,"is_reserved":false,"is_disabled":false,"rental_uris":{"android":"levelo://app?vid=71180aff-02b0-4707-aebf-668fc97ce289","ios":"levelo://app?vid=71180aff-02b0-4707-aebf-668fc97ce289"},"vehicle_type_id":"4","last_reported":1719259726,"current_range_meters":31200,"station_id":"ce4bh092rcd13ifvqd20","pricing_plan_id":"cebpf4jnsgd1na2vs0mg"},{"bike_id":"ad48bc11-5a4b-41ff-8340-1956a5073d4e","system_id":"levelo_inurba_marseille","lat":43.29004,"lon":5.3561,"is_reserved":false,"is_disabled":false,"rental_uris":{"android":"levelo://app?vid=ad48bc11-5a4b-41ff-8340-1956a5073d4e","ios":"levelo://app?vid=ad48bc11-5a4b-41ff-8340-1956a5073d4e"},"vehicle_type_id":"4","last_reported":1719259726,"current_range_meters":20800,"station_id":"ce4bhb92rcd13ifvqen0","pricing_plan_id":"cebpf4jnsgd1na2vs0mg"},{"bike_id":"464ed379-b157-4cd5-a433-109f7240901f","system_id":"levelo_inurba_marseille","lat":43.290995,"lon":5.381361,"is_reserved":false,"is_disabled":false,"rental_uris":{"android":"levelo://app?vid=464ed379-b157-4cd5-a433-109f7240901f","ios":"levelo://app?vid=464ed379-b157-4cd5-a433-109f7240901f"},"vehicle_type_id":"4","last_reported":1719259726,"current_range_meters":16000,"station_id":"ce4bh512rcd13ifvqe2g","pricing_plan_id":"cebpf4jnsgd1na2vs0mg"},{"bike_id":"f1dbb75c-1d3b-42ca-b4f7-d3864c24fbd6","system_id":"levelo_inurba_marseille","lat":43.290995,"lon":5.381361,"is_reserved":false,"is_disabled":false,"rental_uris":{"android":"levelo://app?vid=f1dbb75c-1d3b-42ca-b4f7-d3864c24fbd6","ios":"levelo://app?vid=f1dbb75c-1d3b-42ca-b4f7-d3864c24fbd6"},"vehicle_type_id":"4","last_reported":1719259726,"current_range_meters":31200,"station_id":"ce4bh512rcd13ifvqe2g","pricing_plan_id":"cebpf4jnsgd1na2vs0mg"},{"bike_id":"c762709d-64a3-4f9d-9ac0-3a94d79941e7","system_id":"levelo_inurba_marseille","lat":43.290995,"lon":5.381361,"is_reserved":false,"is_disabled":false,"rental_uris":{"android":"levelo://app?vid=c762709d-64a3-4f9d-9ac0-3a94d79941e7","ios":"levelo://app?vid=c762709d-64a3-4f9d-9ac0-3a94d79941e7"},"vehicle_type_id":"4","last_reported":1719259726,"current_range_meters":31200,"station_id":"ce4bh512rcd13ifvqe2g","pricing_plan_id":"cebpf4jnsgd1na2vs0mg"},{"bike_id":"75cb31fd-c80e-494e-8f90-448af3b60a27","system_id":"levelo_inurba_marseille","lat":43.29806,"lon":5.39331,"is_reserved":false,"is_disabled":false,"rental_uris":{"android":"levelo://app?vid=75cb31fd-c80e-494e-8f90-448af3b60a27","ios":"levelo://app?vid=75cb31fd-c80e-494e-8f90-448af3b60a27"},"vehicle_type_id":"4","last_reported":1719259726,"current_range_meters":20000,"station_id":"chh1huq6cuj3fo74tm60","pricing_plan_id":"cebpf4jnsgd1na2vs0mg"},{"bike_id":"c61d9c7b-cb41-483e-a5a2-b53122d46c54","system_id":"levelo_inurba_marseille","lat":43.290995,"lon":5.381361,"is_reserved":false,"is_disabled":false,"rental_uris":{"android":"levelo://app?vid=c61d9c7b-cb41-483e-a5a2-b53122d46c54","ios":"levelo://app?vid=c61d9c7b-cb41-483e-a5a2-b53122d46c54"},"vehicle_type_id":"4","last_reported":1719259726,"current_range_meters":9600,"station_id":"ce4bh512rcd13ifvqe2g","pricing_plan_id":"cebpf4jnsgd1na2vs0mg"},{"bike_id":"c767fab2-acac-45b5-ab36-5a18b00a633c","system_id":"levelo_inurba_marseille","lat":43.290995,"lon":5.381361,"is_reserved":false,"is_disabled":false,"rental_uris":{"android":"levelo://app?vid=c767fab2-acac-45b5-ab36-5a18b00a633c","ios":"levelo://app?vid=c767fab2-acac-45b5-ab36-5a18b00a633c"},"vehicle_type_id":"4","last_reported":1719259726,"current_range_meters":12400,"station_id":"ce4bh512rcd13ifvqe2g","pricing_plan_id":"cebpf4jnsgd1na2vs0mg"},{"bike_id":"25cca56b-b7ed-43f3-a354-186cacd541ba","system_id":"levelo_inurba_marseille","lat":43.29799,"lon":5.39333,"is_reserved":false,"is_disabled":false,"rental_uris":{"android":"levelo://app?vid=25cca56b-b7ed-43f3-a354-186cacd541ba","ios":"levelo://app?vid=25cca56b-b7ed-43f3-a354-186cacd541ba"},"vehicle_type_id":"4","last_reported":1719259726,"current_range_meters":31200,"station_id":"chh1huq6cuj3fo74tm60","pricing_plan_id":"cebpf4jnsgd1na2vs0mg"},{"bike_id":"6030e6bf-d14e-47bc-9ac6-87e40804f126","system_id":"levelo_inurba_marseille","lat":43.297815,"lon":5.393548,"is_reserved":false,"is_disabled":false,"rental_uris":{"android":"levelo://app?vid=6030e6bf-d14e-47bc-9ac6-87e40804f126","ios":"levelo://app?vid=6030e6bf-d14e-47bc-9ac6-87e40804f126"},"vehicle_type_id":"4","last_reported":1719259726,"current_range_meters":31200,"station_id":"chh1huq6cuj3fo74tm60","pricing_plan_id":"cebpf4jnsgd1na2vs0mg"},{"bike_id":"a9c745a3-3dd4-4d49-b1bf-287cca08b56d","system_id":"levelo_inurba_marseille","lat":43.295169,"lon":5.390426,"is_reserved":false,"is_disabled":false,"rental_uris":{"android":"levelo://app?vid=a9c745a3-3dd4-4d49-b1bf-287cca08b56d","ios":"levelo://app?vid=a9c745a3-3dd4-4d49-b1bf-287cca08b56d"},"vehicle_type_id":"4","last_reported":1719259726,"current_range_meters":18000,"station_id":"ce4bh3p2rcd13ifvqdp0","pricing_plan_id":"cebpf4jnsgd1na2vs0mg"},{"bike_id":"8bda701e-30ac-4f8d-ba15-a3d02136d116","system_id":"levelo_inurba_marseille","lat":43.295169,"lon":5.390426,"is_reserved":false,"is_disabled":false,"rental_uris":{"android":"levelo://app?vid=8bda701e-30ac-4f8d-ba15-a3d02136d116","ios":"levelo://app?vid=8bda701e-30ac-4f8d-ba15-a3d02136d116"},"vehicle_type_id":"4","last_reported":1719259726,"current_range_meters":27200,"station_id":"ce4bh3p2rcd13ifvqdp0","pricing_plan_id":"cebpf4jnsgd1na2vs0mg"},{"bike_id":"40b4a400-9649-48c1-99a2-c503bb8ab8ed","system_id":"levelo_inurba_marseille","lat":43.29794,"lon":5.39344,"is_reserved":false,"is_disabled":false,"rental_uris":{"android":"levelo://app?vid=40b4a400-9649-48c1-99a2-c503bb8ab8ed","ios":"levelo://app?vid=40b4a400-9649-48c1-99a2-c503bb8ab8ed"},"vehicle_type_id":"4","last_reported":1719259726,"current_range_meters":23200,"station_id":"chh1huq6cuj3fo74tm60","pricing_plan_id":"cebpf4jnsgd1na2vs0mg"},{"bike_id":"d061a77f-9020-479d-9c0f-460bb03e0a45","system_id":"levelo_inurba_marseille","lat":43.297815,"lon":5.393548,"is_reserved":false,"is_disabled":false,"rental_uris":{"android":"levelo://app?vid=d061a77f-9020-479d-9c0f-460bb03e0a45","ios":"levelo://app?vid=d061a77f-9020-479d-9c0f-460bb03e0a45"},"vehicle_type_id":"4","last_reported":1719259726,"current_range_meters":31200,"station_id":"chh1huq6cuj3fo74tm60","pricing_plan_id":"cebpf4jnsgd1na2vs0mg"},{"bike_id":"498bbb46-9655-420b-9371-4c06bd94e3f1","system_id":"levelo_inurba_marseille","lat":43.29787,"lon":5.39342,"is_reserved":false,"is_disabled":false,"rental_uris":{"android":"levelo://app?vid=498bbb46-9655-420b-9371-4c06bd94e3f1","ios":"levelo://app?vid=498bbb46-9655-420b-9371-4c06bd94e3f1"},"vehicle_type_id":"4","last_reported":1719259726,"current_range_meters":26000,"station_id":"chh1huq6cuj3fo74tm60","pricing_plan_id":"cebpf4jnsgd1na2vs0mg"},{"bike_id":"5843bae3-2823-479a-93e6-a37a0b3625f5","system_id":"levelo_inurba_marseille","lat":43.297815,"lon":5.393548,"is_reserved":false,"is_disabled":false,"rental_uris":{"android":"levelo://app?vid=5843bae3-2823-479a-93e6-a37a0b3625f5","ios":"levelo://app?vid=5843bae3-2823-479a-93e6-a37a0b3625f5"},"vehicle_type_id":"4","last_reported":1719259726,"current_range_meters":31200,"station_id":"chh1huq6cuj3fo74tm60","pricing_plan_id":"cebpf4jnsgd1na2vs0mg"},{"bike_id":"47d473e5-542c-45a0-ae9e-6af4221f36a2","system_id":"levelo_inurba_marseille","lat":43.29781,"lon":5.3934,"is_reserved":false,"is_disabled":false,"rental_uris":{"android":"levelo://app?vid=47d473e5-542c-45a0-ae9e-6af4221f36a2","ios":"levelo://app?vid=47d473e5-542c-45a0-ae9e-6af4221f36a2"},"vehicle_type_id":"4","last_reported":1719259726,"current_range_meters":27600,"station_id":"chh1huq6cuj3fo74tm60","pricing_plan_id":"cebpf4jnsgd1na2vs0mg"},{"bike_id":"f202d529-7657-45ca-94d5-30bb1f4f5da8","system_id":"levelo_inurba_marseille","lat":43.295169,"lon":5.390426,"is_reserved":false,"is_disabled":false,"rental_uris":{"android":"levelo://app?vid=f202d529-7657-45ca-94d5-30bb1f4f5da8","ios":"levelo://app?vid=f202d529-7657-45ca-94d5-30bb1f4f5da8"},"vehicle_type_id":"4","last_reported":1719259726,"current_range_meters":12000,"station_id":"ce4bh3p2rcd13ifvqdp0","pricing_plan_id":"cebpf4jnsgd1na2vs0mg"},{"bike_id":"a7f17dfa-1274-4572-bccf-eb5fe11348b8","system_id":"levelo_inurba_marseille","lat":43.297815,"lon":5.393548,"is_reserved":false,"is_disabled":false,"rental_uris":{"android":"levelo://app?vid=a7f17dfa-1274-4572-bccf-eb5fe11348b8","ios":"levelo://app?vid=a7f17dfa-1274-4572-bccf-eb5fe11348b8"},"vehicle_type_id":"4","last_reported":1719259726,"current_range_meters":11600,"station_id":"chh1huq6cuj3fo74tm60","pricing_plan_id":"cebpf4jnsgd1na2vs0mg"},{"bike_id":"57609aa9-6f4d-450e-b178-f2c7fa4ce92c","system_id":"levelo_inurba_marseille","lat":43.290104,"lon":5.356111,"is_reserved":false,"is_disabled":false,"rental_uris":{"android":"levelo://app?vid=57609aa9-6f4d-450e-b178-f2c7fa4ce92c","ios":"levelo://app?vid=57609aa9-6f4d-450e-b178-f2c7fa4ce92c"},"vehicle_type_id":"4","last_reported":1719259726,"current_range_meters":11600,"station_id":"ce4bhb92rcd13ifvqen0","pricing_plan_id":"cebpf4jnsgd1na2vs0mg"},{"bike_id":"8556c279-2915-4866-870f-8fba1561a379","system_id":"levelo_inurba_marseille","lat":43.33023,"lon":5.39035,"is_reserved":false,"is_disabled":false,"rental_uris":{"android":"levelo://app?vid=8556c279-2915-4866-870f-8fba1561a379","ios":"levelo://app?vid=8556c279-2915-4866-870f-8fba1561a379"},"vehicle_type_id":"4","last_reported":1719259726,"current_range_meters":30000,"station_id":"ce4bhr92rcd13ifvqhrg","pricing_plan_id":"cebpf4jnsgd1na2vs0mg"},{"bike_id":"704e33ca-8f4b-467c-b951-fbac3295b5ea","system_id":"levelo_inurba_marseille","lat":43.295169,"lon":5.390426,"is_reserved":false,"is_disabled":false,"rental_uris":{"android":"levelo://app?vid=704e33ca-8f4b-467c-b951-fbac3295b5ea","ios":"levelo://app?vid=704e33ca-8f4b-467c-b951-fbac3295b5ea"},"vehicle_type_id":"4","last_reported":1719259726,"current_range_meters":15600,"station_id":"ce4bh3p2rcd13ifvqdp0","pricing_plan_id":"cebpf4jnsgd1na2vs0mg"},{"bike_id":"7e1dbec0-cc65-49cc-abba-4b5082710375","system_id":"levelo_inurba_marseille","lat":43.33027,"lon":5.3903,"is_reserved":false,"is_disabled":false,"rental_uris":{"android":"levelo://app?vid=7e1dbec0-cc65-49cc-abba-4b5082710375","ios":"levelo://app?vid=7e1dbec0-cc65-49cc-abba-4b5082710375"},"vehicle_type_id":"4","last_reported":1719259726,"current_range_meters":400,"station_id":"ce4bhr92rcd13ifvqhrg","pricing_plan_id":"cebpf4jnsgd1na2vs0mg"},{"bike_id":"95aaf7e0-353a-450b-9989-16544e53ded3","system_id":"levelo_inurba_marseille","lat":43.295169,"lon":5.390426,"is_reserved":false,"is_disabled":false,"rental_uris":{"android":"levelo://app?vid=95aaf7e0-353a-450b-9989-16544e53ded3","ios":"levelo://app?vid=95aaf7e0-353a-450b-9989-16544e53ded3"},"vehicle_type_id":"4","last_reported":1719259726,"current_range_meters":14400,"station_id":"ce4bh3p2rcd13ifvqdp0","pricing_plan_id":"cebpf4jnsgd1na2vs0mg"},{"bike_id":"1fa641cb-0b04-46bd-9724-a06f9748c4a3","system_id":"levelo_inurba_marseille","lat":43.297815,"lon":5.393548,"is_reserved":false,"is_disabled":false,"rental_uris":{"android":"levelo://app?vid=1fa641cb-0b04-46bd-9724-a06f9748c4a3","ios":"levelo://app?vid=1fa641cb-0b04-46bd-9724-a06f9748c4a3"},"vehicle_type_id":"4","last_reported":1719259726,"current_range_meters":22800,"station_id":"chh1huq6cuj3fo74tm60","pricing_plan_id":"cebpf4jnsgd1na2vs0mg"},{"bike_id":"dd6fb3fa-adc3-4e55-bd27-0bfc75898ce9","system_id":"levelo_inurba_marseille","lat":43.330442,"lon":5.389148,"is_reserved":false,"is_disabled":false,"rental_uris":{"android":"levelo://app?vid=dd6fb3fa-adc3-4e55-bd27-0bfc75898ce9","ios":"levelo://app?vid=dd6fb3fa-adc3-4e55-bd27-0bfc75898ce9"},"vehicle_type_id":"4","last_reported":1719259726,"current_range_meters":16800,"station_id":"ce4bhr92rcd13ifvqhrg","pricing_plan_id":"cebpf4jnsgd1na2vs0mg"},{"bike_id":"638d8961-ca1b-4c9e-9d6b-0d0b3bb670b9","system_id":"levelo_inurba_marseille","lat":43.330442,"lon":5.389148,"is_reserved":false,"is_disabled":false,"rental_uris":{"android":"levelo://app?vid=638d8961-ca1b-4c9e-9d6b-0d0b3bb670b9","ios":"levelo://app?vid=638d8961-ca1b-4c9e-9d6b-0d0b3bb670b9"},"vehicle_type_id":"4","last_reported":1719259726,"current_range_meters":0,"station_id":"ce4bhr92rcd13ifvqhrg","pricing_plan_id":"cebpf4jnsgd1na2vs0mg"},{"bike_id":"89e539d9-19a2-4c42-8406-3d19005719a0","system_id":"levelo_inurba_marseille","lat":43.289743,"lon":5.378304,"is_reserved":false,"is_disabled":false,"rental_uris":{"android":"levelo://app?vid=89e539d9-19a2-4c42-8406-3d19005719a0","ios":"levelo://app?vid=89e539d9-19a2-4c42-8406-3d19005719a0"},"vehicle_type_id":"4","last_reported":1719259726,"current_range_meters":26000,"station_id":"ce4bh9p2rcd13ifvqed0","pricing_plan_id":"cebpf4jnsgd1na2vs0mg"},{"bike_id":"580b15c1-a63d-4e85-8236-7536dff070e3","system_id":"levelo_inurba_marseille","lat":43.330442,"lon":5.389148,"is_reserved":false,"is_disabled":false,"rental_uris":{"android":"levelo://app?vid=580b15c1-a63d-4e85-8236-7536dff070e3","ios":"levelo://app?vid=580b15c1-a63d-4e85-8236-7536dff070e3"},"vehicle_type_id":"4","last_reported":1719259726,"current_range_meters":0,"station_id":"ce4bhr92rcd13ifvqhrg","pricing_plan_id":"cebpf4jnsgd1na2vs0mg"},{"bike_id":"f07e3b22-8f41-40a8-b933-f8701434c2ac","system_id":"levelo_inurba_marseille","lat":43.295169,"lon":5.390426,"is_reserved":false,"is_disabled":false,"rental_uris":{"android":"levelo://app?vid=f07e3b22-8f41-40a8-b933-f8701434c2ac","ios":"levelo://app?vid=f07e3b22-8f41-40a8-b933-f8701434c2ac"},"vehicle_type_id":"4","last_reported":1719259726,"current_range_meters":7600,"station_id":"ce4bh3p2rcd13ifvqdp0","pricing_plan_id":"cebpf4jnsgd1na2vs0mg"},{"bike_id":"fad35e88-ef59-43bd-8c4c-6d6e370e686e","system_id":"levelo_inurba_marseille","lat":43.2901,"lon":5.381269,"is_reserved":false,"is_disabled":false,"rental_uris":{"android":"levelo://app?vid=fad35e88-ef59-43bd-8c4c-6d6e370e686e","ios":"levelo://app?vid=fad35e88-ef59-43bd-8c4c-6d6e370e686e"},"vehicle_type_id":"4","last_reported":1719259726,"current_range_meters":10000,"station_id":"ce4bh4p2rcd13ifvqe1g","pricing_plan_id":"cebpf4jnsgd1na2vs0mg"},{"bike_id":"657ce371-b7fb-4791-8282-147009dcb104","system_id":"levelo_inurba_marseille","lat":43.28857,"lon":5.35849,"is_reserved":false,"is_disabled":false,"rental_uris":{"android":"levelo://app?vid=657ce371-b7fb-4791-8282-147009dcb104","ios":"levelo://app?vid=657ce371-b7fb-4791-8282-147009dcb104"},"vehicle_type_id":"4","last_reported":1719259726,"current_range_meters":6800,"station_id":"ce4bhb12rcd13ifvqem0","pricing_plan_id":"cebpf4jnsgd1na2vs0mg"},{"bike_id":"fb61b173-41cd-45eb-8a81-8a7f1f4fa143","system_id":"levelo_inurba_marseille","lat":43.28856,"lon":5.358371,"is_reserved":false,"is_disabled":false,"rental_uris":{"android":"levelo://app?vid=fb61b173-41cd-45eb-8a81-8a7f1f4fa143","ios":"levelo://app?vid=fb61b173-41cd-45eb-8a81-8a7f1f4fa143"},"vehicle_type_id":"4","last_reported":1719259726,"current_range_meters":11600,"station_id":"ce4bhb12rcd13ifvqem0","pricing_plan_id":"cebpf4jnsgd1na2vs0mg"},{"bike_id":"59734f5f-8ca5-4290-92fc-7320a0e1475f","system_id":"levelo_inurba_marseille","lat":43.28856,"lon":5.358371,"is_reserved":false,"is_disabled":false,"rental_uris":{"android":"levelo://app?vid=59734f5f-8ca5-4290-92fc-7320a0e1475f","ios":"levelo://app?vid=59734f5f-8ca5-4290-92fc-7320a0e1475f"},"vehicle_type_id":"4","last_reported":1719259726,"current_range_meters":14400,"station_id":"ce4bhb12rcd13ifvqem0","pricing_plan_id":"cebpf4jnsgd1na2vs0mg"},{"bike_id":"460601a0-f704-4b01-8f66-ed8f5fe6d2cf","system_id":"levelo_inurba_marseille","lat":43.28856,"lon":5.358371,"is_reserved":false,"is_disabled":false,"rental_uris":{"android":"levelo://app?vid=460601a0-f704-4b01-8f66-ed8f5fe6d2cf","ios":"levelo://app?vid=460601a0-f704-4b01-8f66-ed8f5fe6d2cf"},"vehicle_type_id":"4","last_reported":1719259726,"current_range_meters":22800,"station_id":"ce4bhb12rcd13ifvqem0","pricing_plan_id":"cebpf4jnsgd1na2vs0mg"},{"bike_id":"c3ddbe4a-157d-4893-acf1-f1f626a65d21","system_id":"levelo_inurba_marseille","lat":43.337378,"lon":5.374634,"is_reserved":false,"is_disabled":false,"rental_uris":{"android":"levelo://app?vid=c3ddbe4a-157d-4893-acf1-f1f626a65d21","ios":"levelo://app?vid=c3ddbe4a-157d-4893-acf1-f1f626a65d21"},"vehicle_type_id":"0","last_reported":1719259726,"current_range_meters":19200,"station_id":"","pricing_plan_id":"cebpf4jnsgd1na2vs0mg"},{"bike_id":"3827749a-54d6-4a5d-bf36-624dfe6790cd","system_id":"levelo_inurba_marseille","lat":43.312609,"lon":5.401662,"is_reserved":false,"is_disabled":false,"rental_uris":{"android":"levelo://app?vid=3827749a-54d6-4a5d-bf36-624dfe6790cd","ios":"levelo://app?vid=3827749a-54d6-4a5d-bf36-624dfe6790cd"},"vehicle_type_id":"4","last_reported":1719259726,"current_range_meters":28000,"station_id":"ce4bh092rcd13ifvqd30","pricing_plan_id":"cebpf4jnsgd1na2vs0mg"},{"bike_id":"bd9a6c26-2db3-4e30-92c7-c85ae97147aa","system_id":"levelo_inurba_marseille","lat":43.33739,"lon":5.374683,"is_reserved":false,"is_disabled":false,"rental_uris":{"android":"levelo://app?vid=bd9a6c26-2db3-4e30-92c7-c85ae97147aa","ios":"levelo://app?vid=bd9a6c26-2db3-4e30-92c7-c85ae97147aa"},"vehicle_type_id":"0","last_reported":1719259726,"current_range_meters":29200,"station_id":"","pricing_plan_id":"cebpf4jnsgd1na2vs0mg"},{"bike_id":"8043cc8a-f702-4e45-9523-d56dfd7ee432","system_id":"levelo_inurba_marseille","lat":43.337403,"lon":5.374632,"is_reserved":false,"is_disabled":false,"rental_uris":{"android":"levelo://app?vid=8043cc8a-f702-4e45-9523-d56dfd7ee432","ios":"levelo://app?vid=8043cc8a-f702-4e45-9523-d56dfd7ee432"},"vehicle_type_id":"0","last_reported":1719259726,"current_range_meters":26400,"station_id":"","pricing_plan_id":"cebpf4jnsgd1na2vs0mg"},{"bike_id":"bb65fb70-df82-47d8-b27f-438620895501","system_id":"levelo_inurba_marseille","lat":43.337403,"lon":5.374646,"is_reserved":false,"is_disabled":false,"rental_uris":{"android":"levelo://app?vid=bb65fb70-df82-47d8-b27f-438620895501","ios":"levelo://app?vid=bb65fb70-df82-47d8-b27f-438620895501"},"vehicle_type_id":"0","last_reported":1719259726,"current_range_meters":21600,"station_id":"","pricing_plan_id":"cebpf4jnsgd1na2vs0mg"},{"bike_id":"11da98ef-d0c3-43c2-a7e4-890f2c23ccbc","system_id":"levelo_inurba_marseille","lat":43.33741,"lon":5.37465,"is_reserved":false,"is_disabled":false,"rental_uris":{"android":"levelo://app?vid=11da98ef-d0c3-43c2-a7e4-890f2c23ccbc","ios":"levelo://app?vid=11da98ef-d0c3-43c2-a7e4-890f2c23ccbc"},"vehicle_type_id":"0","last_reported":1719259726,"current_range_meters":20800,"station_id":"","pricing_plan_id":"cebpf4jnsgd1na2vs0mg"},{"bike_id":"cbff8e2e-87ad-4d9e-a09d-9b1fba1c0aeb","system_id":"levelo_inurba_marseille","lat":43.33741,"lon":5.374659,"is_reserved":false,"is_disabled":false,"rental_uris":{"android":"levelo://app?vid=cbff8e2e-87ad-4d9e-a09d-9b1fba1c0aeb","ios":"levelo://app?vid=cbff8e2e-87ad-4d9e-a09d-9b1fba1c0aeb"},"vehicle_type_id":"0","last_reported":1719259726,"current_range_meters":26800,"station_id":"","pricing_plan_id":"cebpf4jnsgd1na2vs0mg"},{"bike_id":"9b81675f-44cd-4cbe-9733-2d36a516d8f7","system_id":"levelo_inurba_marseille","lat":43.337418,"lon":5.374628,"is_reserved":false,"is_disabled":false,"rental_uris":{"android":"levelo://app?vid=9b81675f-44cd-4cbe-9733-2d36a516d8f7","ios":"levelo://app?vid=9b81675f-44cd-4cbe-9733-2d36a516d8f7"},"vehicle_type_id":"0","last_reported":1719259726,"current_range_meters":27200,"station_id":"","pricing_plan_id":"cebpf4jnsgd1na2vs0mg"},{"bike_id":"d013cc33-e736-4bbc-a491-0aee458b64b8","system_id":"levelo_inurba_marseille","lat":43.309371,"lon":5.401449,"is_reserved":false,"is_disabled":false,"rental_uris":{"android":"levelo://app?vid=d013cc33-e736-4bbc-a491-0aee458b64b8","ios":"levelo://app?vid=d013cc33-e736-4bbc-a491-0aee458b64b8"},"vehicle_type_id":"4","last_reported":1719259726,"current_range_meters":800,"station_id":"ce4bgvp2rcd13ifvqct0","pricing_plan_id":"cebpf4jnsgd1na2vs0mg"},{"bike_id":"985eda3a-8205-4c72-8b0d-a44593dd15b5","system_id":"levelo_inurba_marseille","lat":43.337424,"lon":5.374636,"is_reserved":false,"is_disabled":false,"rental_uris":{"android":"levelo://app?vid=985eda3a-8205-4c72-8b0d-a44593dd15b5","ios":"levelo://app?vid=985eda3a-8205-4c72-8b0d-a44593dd15b5"},"vehicle_type_id":"0","last_reported":1719259726,"current_range_meters":20400,"station_id":"","pricing_plan_id":"cebpf4jnsgd1na2vs0mg"},{"bike_id":"1e023f14-e81f-4fc8-a29f-459f18287174","system_id":"levelo_inurba_marseille","lat":43.309371,"lon":5.401449,"is_reserved":false,"is_disabled":false,"rental_uris":{"android":"levelo://app?vid=1e023f14-e81f-4fc8-a29f-459f18287174","ios":"levelo://app?vid=1e023f14-e81f-4fc8-a29f-459f18287174"},"vehicle_type_id":"4","last_reported":1719259726,"current_range_meters":18400,"station_id":"ce4bgvp2rcd13ifvqct0","pricing_plan_id":"cebpf4jnsgd1na2vs0mg"},{"bike_id":"2a0fb516-a307-4861-b129-104556c40f00","system_id":"levelo_inurba_marseille","lat":43.337434,"lon":5.374627,"is_reserved":false,"is_disabled":false,"rental_uris":{"android":"levelo://app?vid=2a0fb516-a307-4861-b129-104556c40f00","ios":"levelo://app?vid=2a0fb516-a307-4861-b129-104556c40f00"},"vehicle_type_id":"0","last_reported":1719259726,"current_range_meters":18400,"station_id":"","pricing_plan_id":"cebpf4jnsgd1na2vs0mg"},{"bike_id":"c25a3696-e1cc-43ba-8656-23d4a118ee2e","system_id":"levelo_inurba_marseille","lat":43.337437,"lon":5.374647,"is_reserved":false,"is_disabled":false,"rental_uris":{"android":"levelo://app?vid=c25a3696-e1cc-43ba-8656-23d4a118ee2e","ios":"levelo://app?vid=c25a3696-e1cc-43ba-8656-23d4a118ee2e"},"vehicle_type_id":"0","last_reported":1719259726,"current_range_meters":27600,"station_id":"","pricing_plan_id":"cebpf4jnsgd1na2vs0mg"},{"bike_id":"bf709b1a-1e81-4c69-a36a-dfef45d67fee","system_id":"levelo_inurba_marseille","lat":43.33744,"lon":5.374665,"is_reserved":false,"is_disabled":false,"rental_uris":{"android":"levelo://app?vid=bf709b1a-1e81-4c69-a36a-dfef45d67fee","ios":"levelo://app?vid=bf709b1a-1e81-4c69-a36a-dfef45d67fee"},"vehicle_type_id":"0","last_reported":1719259726,"current_range_meters":26800,"station_id":"","pricing_plan_id":"cebpf4jnsgd1na2vs0mg"},{"bike_id":"aa527c2c-31a5-479b-bfbe-daae0d9bb514","system_id":"levelo_inurba_marseille","lat":43.337439,"lon":5.374688,"is_reserved":false,"is_disabled":false,"rental_uris":{"android":"levelo://app?vid=aa527c2c-31a5-479b-bfbe-daae0d9bb514","ios":"levelo://app?vid=aa527c2c-31a5-479b-bfbe-daae0d9bb514"},"vehicle_type_id":"0","last_reported":1719259726,"current_range_meters":17200,"station_id":"","pricing_plan_id":"cebpf4jnsgd1na2vs0mg"},{"bike_id":"086b1a76-882c-4dd6-a9e6-8ee41d03f054","system_id":"levelo_inurba_marseille","lat":43.30644,"lon":5.4007,"is_reserved":false,"is_disabled":false,"rental_uris":{"android":"levelo://app?vid=086b1a76-882c-4dd6-a9e6-8ee41d03f054","ios":"levelo://app?vid=086b1a76-882c-4dd6-a9e6-8ee41d03f054"},"vehicle_type_id":"4","last_reported":1719259726,"current_range_meters":0,"station_id":"ce4bh112rcd13ifvqda0","pricing_plan_id":"cebpf4jnsgd1na2vs0mg"},{"bike_id":"f867320b-b3ee-4d44-8ef3-37d72db21942","system_id":"levelo_inurba_marseille","lat":43.33754,"lon":5.37456,"is_reserved":false,"is_disabled":false,"rental_uris":{"android":"levelo://app?vid=f867320b-b3ee-4d44-8ef3-37d72db21942","ios":"levelo://app?vid=f867320b-b3ee-4d44-8ef3-37d72db21942"},"vehicle_type_id":"4","last_reported":1719259726,"current_range_meters":29200,"station_id":"","pricing_plan_id":"cebpf4jnsgd1na2vs0mg"},{"bike_id":"2319d425-6f64-4f66-b5f5-68688d14311c","system_id":"levelo_inurba_marseille","lat":43.3064,"lon":5.40088,"is_reserved":false,"is_disabled":false,"rental_uris":{"android":"levelo://app?vid=2319d425-6f64-4f66-b5f5-68688d14311c","ios":"levelo://app?vid=2319d425-6f64-4f66-b5f5-68688d14311c"},"vehicle_type_id":"4","last_reported":1719259726,"current_range_meters":0,"station_id":"ce4bh112rcd13ifvqda0","pricing_plan_id":"cebpf4jnsgd1na2vs0mg"},{"bike_id":"fef41cae-50fd-4974-a421-379b655d4150","system_id":"levelo_inurba_marseille","lat":43.30649,"lon":5.40096,"is_reserved":false,"is_disabled":false,"rental_uris":{"android":"levelo://app?vid=fef41cae-50fd-4974-a421-379b655d4150","ios":"levelo://app?vid=fef41cae-50fd-4974-a421-379b655d4150"},"vehicle_type_id":"4","last_reported":1719259726,"current_range_meters":23600,"station_id":"ce4bh112rcd13ifvqda0","pricing_plan_id":"cebpf4jnsgd1na2vs0mg"},{"bike_id":"b16ad94d-77b9-4f2b-b79c-9d9a0b02a254","system_id":"levelo_inurba_marseille","lat":43.30642,"lon":5.401031,"is_reserved":false,"is_disabled":false,"rental_uris":{"android":"levelo://app?vid=b16ad94d-77b9-4f2b-b79c-9d9a0b02a254","ios":"levelo://app?vid=b16ad94d-77b9-4f2b-b79c-9d9a0b02a254"},"vehicle_type_id":"4","last_reported":1719259726,"current_range_meters":15200,"station_id":"ce4bh112rcd13ifvqda0","pricing_plan_id":"cebpf4jnsgd1na2vs0mg"},{"bike_id":"c4b6076f-826c-4c1f-a30c-efd17924d0ac","system_id":"levelo_inurba_marseille","lat":43.301117,"lon":5.398795,"is_reserved":false,"is_disabled":false,"rental_uris":{"android":"levelo://app?vid=c4b6076f-826c-4c1f-a30c-efd17924d0ac","ios":"levelo://app?vid=c4b6076f-826c-4c1f-a30c-efd17924d0ac"},"vehicle_type_id":"4","last_reported":1719259726,"current_range_meters":8800,"station_id":"ce4bh0h2rcd13ifvqd40","pricing_plan_id":"cebpf4jnsgd1na2vs0mg"},{"bike_id":"30234c8b-e6db-44e7-b258-ae0dd34fbb02","system_id":"levelo_inurba_marseille","lat":43.301117,"lon":5.398795,"is_reserved":false,"is_disabled":false,"rental_uris":{"android":"levelo://app?vid=30234c8b-e6db-44e7-b258-ae0dd34fbb02","ios":"levelo://app?vid=30234c8b-e6db-44e7-b258-ae0dd34fbb02"},"vehicle_type_id":"4","last_reported":1719259726,"current_range_meters":13200,"station_id":"ce4bh0h2rcd13ifvqd40","pricing_plan_id":"cebpf4jnsgd1na2vs0mg"},{"bike_id":"0c98ad98-176e-47da-9922-1117c4d38936","system_id":"levelo_inurba_marseille","lat":43.301381,"lon":5.398671,"is_reserved":false,"is_disabled":false,"rental_uris":{"android":"levelo://app?vid=0c98ad98-176e-47da-9922-1117c4d38936","ios":"levelo://app?vid=0c98ad98-176e-47da-9922-1117c4d38936"},"vehicle_type_id":"4","last_reported":1719259726,"current_range_meters":31200,"station_id":"ce4bh0h2rcd13ifvqd40","pricing_plan_id":"cebpf4jnsgd1na2vs0mg"},{"bike_id":"51fd692c-e730-46e3-9cc9-b61cafc4c925","system_id":"levelo_inurba_marseille","lat":43.30137,"lon":5.39872,"is_reserved":false,"is_disabled":false,"rental_uris":{"android":"levelo://app?vid=51fd692c-e730-46e3-9cc9-b61cafc4c925","ios":"levelo://app?vid=51fd692c-e730-46e3-9cc9-b61cafc4c925"},"vehicle_type_id":"4","last_reported":1719259726,"current_range_meters":31200,"station_id":"ce4bh0h2rcd13ifvqd40","pricing_plan_id":"cebpf4jnsgd1na2vs0mg"},{"bike_id":"83733739-1278-4b0a-9d6b-7d524acd46a6","system_id":"levelo_inurba_marseille","lat":43.301378,"lon":5.398728,"is_reserved":false,"is_disabled":false,"rental_uris":{"android":"levelo://app?vid=83733739-1278-4b0a-9d6b-7d524acd46a6","ios":"levelo://app?vid=83733739-1278-4b0a-9d6b-7d524acd46a6"},"vehicle_type_id":"4","last_reported":1719259726,"current_range_meters":30000,"station_id":"ce4bh0h2rcd13ifvqd40","pricing_plan_id":"cebpf4jnsgd1na2vs0mg"},{"bike_id":"7d7e8c24-7068-4d33-ae9e-62dd94788a55","system_id":"levelo_inurba_marseille","lat":43.30126,"lon":5.3987,"is_reserved":false,"is_disabled":false,"rental_uris":{"android":"levelo://app?vid=7d7e8c24-7068-4d33-ae9e-62dd94788a55","ios":"levelo://app?vid=7d7e8c24-7068-4d33-ae9e-62dd94788a55"},"vehicle_type_id":"4","last_reported":1719259726,"current_range_meters":9600,"station_id":"ce4bh0h2rcd13ifvqd40","pricing_plan_id":"cebpf4jnsgd1na2vs0mg"},{"bike_id":"9d544ccc-4e45-47dc-8151-5bf0c10513a9","system_id":"levelo_inurba_marseille","lat":43.28727,"lon":5.36078,"is_reserved":false,"is_disabled":false,"rental_uris":{"android":"levelo://app?vid=9d544ccc-4e45-47dc-8151-5bf0c10513a9","ios":"levelo://app?vid=9d544ccc-4e45-47dc-8151-5bf0c10513a9"},"vehicle_type_id":"4","last_reported":1719259726,"current_range_meters":9200,"station_id":"cki0cbj6b192h4jlfktg","pricing_plan_id":"cebpf4jnsgd1na2vs0mg"},{"bike_id":"78181c18-a2cf-4a69-8eef-95b9bb2a2340","system_id":"levelo_inurba_marseille","lat":43.286961,"lon":5.373785,"is_reserved":false,"is_disabled":false,"rental_uris":{"android":"levelo://app?vid=78181c18-a2cf-4a69-8eef-95b9bb2a2340","ios":"levelo://app?vid=78181c18-a2cf-4a69-8eef-95b9bb2a2340"},"vehicle_type_id":"4","last_reported":1719259726,"current_range_meters":16000,"station_id":"ce4bh3p2rcd13ifvqdq0","pricing_plan_id":"cebpf4jnsgd1na2vs0mg"},{"bike_id":"b0f61996-b1dd-4680-90fb-69574fab4517","system_id":"levelo_inurba_marseille","lat":43.298681,"lon":5.397225,"is_reserved":false,"is_disabled":false,"rental_uris":{"android":"levelo://app?vid=b0f61996-b1dd-4680-90fb-69574fab4517","ios":"levelo://app?vid=b0f61996-b1dd-4680-90fb-69574fab4517"},"vehicle_type_id":"4","last_reported":1719259726,"current_range_meters":28400,"station_id":"ce4bh0h2rcd13ifvqd50","pricing_plan_id":"cebpf4jnsgd1na2vs0mg"},{"bike_id":"026b7ced-aaf7-4db5-91fe-548ce5a99b43","system_id":"levelo_inurba_marseille","lat":43.286961,"lon":5.373785,"is_reserved":false,"is_disabled":false,"rental_uris":{"android":"levelo://app?vid=026b7ced-aaf7-4db5-91fe-548ce5a99b43","ios":"levelo://app?vid=026b7ced-aaf7-4db5-91fe-548ce5a99b43"},"vehicle_type_id":"4","last_reported":1719259726,"current_range_meters":26800,"station_id":"ce4bh3p2rcd13ifvqdq0","pricing_plan_id":"cebpf4jnsgd1na2vs0mg"},{"bike_id":"32ef81bc-7837-489a-b7e9-5d7a157a9152","system_id":"levelo_inurba_marseille","lat":43.286961,"lon":5.373785,"is_reserved":false,"is_disabled":false,"rental_uris":{"android":"levelo://app?vid=32ef81bc-7837-489a-b7e9-5d7a157a9152","ios":"levelo://app?vid=32ef81bc-7837-489a-b7e9-5d7a157a9152"},"vehicle_type_id":"4","last_reported":1719259726,"current_range_meters":6400,"station_id":"ce4bh3p2rcd13ifvqdq0","pricing_plan_id":"cebpf4jnsgd1na2vs0mg"},{"bike_id":"7fb63de0-1b77-465b-8f36-88f040f9fe4b","system_id":"levelo_inurba_marseille","lat":43.286591,"lon":5.363346,"is_reserved":false,"is_disabled":false,"rental_uris":{"android":"levelo://app?vid=7fb63de0-1b77-465b-8f36-88f040f9fe4b","ios":"levelo://app?vid=7fb63de0-1b77-465b-8f36-88f040f9fe4b"},"vehicle_type_id":"4","last_reported":1719259726,"current_range_meters":20400,"station_id":"ce4bhah2rcd13ifvqej0","pricing_plan_id":"cebpf4jnsgd1na2vs0mg"},{"bike_id":"94747ae1-5486-4ef9-89ca-33c9b4634188","system_id":"levelo_inurba_marseille","lat":43.298681,"lon":5.397225,"is_reserved":false,"is_disabled":false,"rental_uris":{"android":"levelo://app?vid=94747ae1-5486-4ef9-89ca-33c9b4634188","ios":"levelo://app?vid=94747ae1-5486-4ef9-89ca-33c9b4634188"},"vehicle_type_id":"4","last_reported":1719259726,"current_range_meters":12000,"station_id":"ce4bh0h2rcd13ifvqd50","pricing_plan_id":"cebpf4jnsgd1na2vs0mg"},{"bike_id":"d46d7bef-6493-46ea-919e-9fc6f9c6baeb","system_id":"levelo_inurba_marseille","lat":43.286961,"lon":5.373785,"is_reserved":false,"is_disabled":false,"rental_uris":{"android":"levelo://app?vid=d46d7bef-6493-46ea-919e-9fc6f9c6baeb","ios":"levelo://app?vid=d46d7bef-6493-46ea-919e-9fc6f9c6baeb"},"vehicle_type_id":"4","last_reported":1719259726,"current_range_meters":30000,"station_id":"ce4bh3p2rcd13ifvqdq0","pricing_plan_id":"cebpf4jnsgd1na2vs0mg"},{"bike_id":"23a51499-e3ee-4b94-b00f-320a59d838c6","system_id":"levelo_inurba_marseille","lat":43.286961,"lon":5.373785,"is_reserved":false,"is_disabled":false,"rental_uris":{"android":"levelo://app?vid=23a51499-e3ee-4b94-b00f-320a59d838c6","ios":"levelo://app?vid=23a51499-e3ee-4b94-b00f-320a59d838c6"},"vehicle_type_id":"4","last_reported":1719259726,"current_range_meters":17200,"station_id":"ce4bh3p2rcd13ifvqdq0","pricing_plan_id":"cebpf4jnsgd1na2vs0mg"},{"bike_id":"851cf0f4-b836-4614-a6b3-094f8788e069","system_id":"levelo_inurba_marseille","lat":43.298681,"lon":5.397225,"is_reserved":false,"is_disabled":false,"rental_uris":{"android":"levelo://app?vid=851cf0f4-b836-4614-a6b3-094f8788e069","ios":"levelo://app?vid=851cf0f4-b836-4614-a6b3-094f8788e069"},"vehicle_type_id":"4","last_reported":1719259726,"current_range_meters":24400,"station_id":"ce4bh0h2rcd13ifvqd50","pricing_plan_id":"cebpf4jnsgd1na2vs0mg"},{"bike_id":"3a1d3796-8867-479a-b80b-d033d44196a5","system_id":"levelo_inurba_marseille","lat":43.286591,"lon":5.363346,"is_reserved":false,"is_disabled":false,"rental_uris":{"android":"levelo://app?vid=3a1d3796-8867-479a-b80b-d033d44196a5","ios":"levelo://app?vid=3a1d3796-8867-479a-b80b-d033d44196a5"},"vehicle_type_id":"4","last_reported":1719259726,"current_range_meters":0,"station_id":"ce4bhah2rcd13ifvqej0","pricing_plan_id":"cebpf4jnsgd1na2vs0mg"},{"bike_id":"9f3d62d0-5694-43cd-a1a4-77adbedaeab5","system_id":"levelo_inurba_marseille","lat":43.286961,"lon":5.373785,"is_reserved":false,"is_disabled":false,"rental_uris":{"android":"levelo://app?vid=9f3d62d0-5694-43cd-a1a4-77adbedaeab5","ios":"levelo://app?vid=9f3d62d0-5694-43cd-a1a4-77adbedaeab5"},"vehicle_type_id":"4","last_reported":1719259726,"current_range_meters":4400,"station_id":"ce4bh3p2rcd13ifvqdq0","pricing_plan_id":"cebpf4jnsgd1na2vs0mg"},{"bike_id":"ad91948b-6a7c-41ed-be04-fd3859414f28","system_id":"levelo_inurba_marseille","lat":43.295196,"lon":5.39397,"is_reserved":false,"is_disabled":false,"rental_uris":{"android":"levelo://app?vid=ad91948b-6a7c-41ed-be04-fd3859414f28","ios":"levelo://app?vid=ad91948b-6a7c-41ed-be04-fd3859414f28"},"vehicle_type_id":"4","last_reported":1719259726,"current_range_meters":0,"station_id":"ce4bh292rcd13ifvqdf0","pricing_plan_id":"cebpf4jnsgd1na2vs0mg"},{"bike_id":"2301452c-9a22-40b7-97e5-c18766a43343","system_id":"levelo_inurba_marseille","lat":43.295194,"lon":5.39397,"is_reserved":false,"is_disabled":false,"rental_uris":{"android":"levelo://app?vid=2301452c-9a22-40b7-97e5-c18766a43343","ios":"levelo://app?vid=2301452c-9a22-40b7-97e5-c18766a43343"},"vehicle_type_id":"4","last_reported":1719259726,"current_range_meters":4800,"station_id":"ce4bh292rcd13ifvqdf0","pricing_plan_id":"cebpf4jnsgd1na2vs0mg"},{"bike_id":"53571742-7541-4a76-9a31-096517eac896","system_id":"levelo_inurba_marseille","lat":43.302759,"lon":5.400793,"is_reserved":false,"is_disabled":false,"rental_uris":{"android":"levelo://app?vid=53571742-7541-4a76-9a31-096517eac896","ios":"levelo://app?vid=53571742-7541-4a76-9a31-096517eac896"},"vehicle_type_id":"4","last_reported":1719259726,"current_range_meters":9600,"station_id":"ce4bgvh2rcd13ifvqcs0","pricing_plan_id":"cebpf4jnsgd1na2vs0mg"},{"bike_id":"cbb7b668-6ecc-4303-8f6f-3883554c9aed","system_id":"levelo_inurba_marseille","lat":43.290336,"lon":5.386425,"is_reserved":false,"is_disabled":false,"rental_uris":{"android":"levelo://app?vid=cbb7b668-6ecc-4303-8f6f-3883554c9aed","ios":"levelo://app?vid=cbb7b668-6ecc-4303-8f6f-3883554c9aed"},"vehicle_type_id":"4","last_reported":1719259726,"current_range_meters":5600,"station_id":"ce4bh4p2rcd13ifvqe0g","pricing_plan_id":"cebpf4jnsgd1na2vs0mg"},{"bike_id":"d2f78d2c-4be5-4fe8-b12e-8c9d8f601f11","system_id":"levelo_inurba_marseille","lat":43.290345,"lon":5.38646,"is_reserved":false,"is_disabled":false,"rental_uris":{"android":"levelo://app?vid=d2f78d2c-4be5-4fe8-b12e-8c9d8f601f11","ios":"levelo://app?vid=d2f78d2c-4be5-4fe8-b12e-8c9d8f601f11"},"vehicle_type_id":"4","last_reported":1719259726,"current_range_meters":26800,"station_id":"ce4bh4p2rcd13ifvqe0g","pricing_plan_id":"cebpf4jnsgd1na2vs0mg"},{"bike_id":"3b9607cf-e1fa-4ea7-b487-b463ffd79cca","system_id":"levelo_inurba_marseille","lat":43.295194,"lon":5.39397,"is_reserved":false,"is_disabled":false,"rental_uris":{"android":"levelo://app?vid=3b9607cf-e1fa-4ea7-b487-b463ffd79cca","ios":"levelo://app?vid=3b9607cf-e1fa-4ea7-b487-b463ffd79cca"},"vehicle_type_id":"4","last_reported":1719259726,"current_range_meters":31200,"station_id":"ce4bh292rcd13ifvqdf0","pricing_plan_id":"cebpf4jnsgd1na2vs0mg"},{"bike_id":"cb6ad2e1-c0a8-472f-ae3c-ba21d673d32b","system_id":"levelo_inurba_marseille","lat":43.30249,"lon":5.40055,"is_reserved":false,"is_disabled":false,"rental_uris":{"android":"levelo://app?vid=cb6ad2e1-c0a8-472f-ae3c-ba21d673d32b","ios":"levelo://app?vid=cb6ad2e1-c0a8-472f-ae3c-ba21d673d32b"},"vehicle_type_id":"4","last_reported":1719259726,"current_range_meters":15200,"station_id":"ce4bgvh2rcd13ifvqcs0","pricing_plan_id":"cebpf4jnsgd1na2vs0mg"},{"bike_id":"3450fa7e-73bf-4bf2-ab75-334e611e46f7","system_id":"levelo_inurba_marseille","lat":43.30242,"lon":5.40052,"is_reserved":false,"is_disabled":false,"rental_uris":{"android":"levelo://app?vid=3450fa7e-73bf-4bf2-ab75-334e611e46f7","ios":"levelo://app?vid=3450fa7e-73bf-4bf2-ab75-334e611e46f7"},"vehicle_type_id":"4","last_reported":1719259726,"current_range_meters":29200,"station_id":"ce4bgvh2rcd13ifvqcs0","pricing_plan_id":"cebpf4jnsgd1na2vs0mg"},{"bike_id":"fa7f57a9-dfd8-4708-9c50-7bf1c8357cf7","system_id":"levelo_inurba_marseille","lat":43.290345,"lon":5.38646,"is_reserved":false,"is_disabled":false,"rental_uris":{"android":"levelo://app?vid=fa7f57a9-dfd8-4708-9c50-7bf1c8357cf7","ios":"levelo://app?vid=fa7f57a9-dfd8-4708-9c50-7bf1c8357cf7"},"vehicle_type_id":"4","last_reported":1719259726,"current_range_meters":31600,"station_id":"ce4bh4p2rcd13ifvqe0g","pricing_plan_id":"cebpf4jnsgd1na2vs0mg"},{"bike_id":"397085d3-ab40-4612-a806-c072eae01b92","system_id":"levelo_inurba_marseille","lat":43.290345,"lon":5.38646,"is_reserved":false,"is_disabled":false,"rental_uris":{"android":"levelo://app?vid=397085d3-ab40-4612-a806-c072eae01b92","ios":"levelo://app?vid=397085d3-ab40-4612-a806-c072eae01b92"},"vehicle_type_id":"4","last_reported":1719259726,"current_range_meters":8400,"station_id":"ce4bh4p2rcd13ifvqe0g","pricing_plan_id":"cebpf4jnsgd1na2vs0mg"},{"bike_id":"5eabb4e8-b03d-4fb0-b908-55ffcf2daa4c","system_id":"levelo_inurba_marseille","lat":43.290336,"lon":5.386425,"is_reserved":false,"is_disabled":false,"rental_uris":{"android":"levelo://app?vid=5eabb4e8-b03d-4fb0-b908-55ffcf2daa4c","ios":"levelo://app?vid=5eabb4e8-b03d-4fb0-b908-55ffcf2daa4c"},"vehicle_type_id":"4","last_reported":1719259726,"current_range_meters":5200,"station_id":"ce4bh4p2rcd13ifvqe0g","pricing_plan_id":"cebpf4jnsgd1na2vs0mg"},{"bike_id":"3152d7c8-6926-40e4-bb31-43e9e9afc10b","system_id":"levelo_inurba_marseille","lat":43.290302,"lon":5.386438,"is_reserved":false,"is_disabled":false,"rental_uris":{"android":"levelo://app?vid=3152d7c8-6926-40e4-bb31-43e9e9afc10b","ios":"levelo://app?vid=3152d7c8-6926-40e4-bb31-43e9e9afc10b"},"vehicle_type_id":"4","last_reported":1719259726,"current_range_meters":31200,"station_id":"ce4bh4p2rcd13ifvqe0g","pricing_plan_id":"cebpf4jnsgd1na2vs0mg"},{"bike_id":"a296e414-a9c2-459d-96af-c22a9ea54e23","system_id":"levelo_inurba_marseille","lat":43.30247,"lon":5.40059,"is_reserved":false,"is_disabled":false,"rental_uris":{"android":"levelo://app?vid=a296e414-a9c2-459d-96af-c22a9ea54e23","ios":"levelo://app?vid=a296e414-a9c2-459d-96af-c22a9ea54e23"},"vehicle_type_id":"4","last_reported":1719259726,"current_range_meters":30800,"station_id":"ce4bgvh2rcd13ifvqcs0","pricing_plan_id":"cebpf4jnsgd1na2vs0mg"},{"bike_id":"c9366e58-6bda-4815-a01f-e8adc458d2bc","system_id":"levelo_inurba_marseille","lat":43.290336,"lon":5.386425,"is_reserved":false,"is_disabled":false,"rental_uris":{"android":"levelo://app?vid=c9366e58-6bda-4815-a01f-e8adc458d2bc","ios":"levelo://app?vid=c9366e58-6bda-4815-a01f-e8adc458d2bc"},"vehicle_type_id":"4","last_reported":1719259726,"current_range_meters":14400,"station_id":"ce4bh4p2rcd13ifvqe0g","pricing_plan_id":"cebpf4jnsgd1na2vs0mg"},{"bike_id":"56fabfd7-d03a-4e52-a938-d2ab7704c72a","system_id":"levelo_inurba_marseille","lat":43.290345,"lon":5.38646,"is_reserved":false,"is_disabled":false,"rental_uris":{"android":"levelo://app?vid=56fabfd7-d03a-4e52-a938-d2ab7704c72a","ios":"levelo://app?vid=56fabfd7-d03a-4e52-a938-d2ab7704c72a"},"vehicle_type_id":"4","last_reported":1719259726,"current_range_meters":28000,"station_id":"ce4bh4p2rcd13ifvqe0g","pricing_plan_id":"cebpf4jnsgd1na2vs0mg"},{"bike_id":"c8bbd77b-7c63-4973-aa09-de7299909edd","system_id":"levelo_inurba_marseille","lat":43.302759,"lon":5.400793,"is_reserved":false,"is_disabled":false,"rental_uris":{"android":"levelo://app?vid=c8bbd77b-7c63-4973-aa09-de7299909edd","ios":"levelo://app?vid=c8bbd77b-7c63-4973-aa09-de7299909edd"},"vehicle_type_id":"4","last_reported":1719259726,"current_range_meters":30400,"station_id":"ce4bgvh2rcd13ifvqcs0","pricing_plan_id":"cebpf4jnsgd1na2vs0mg"},{"bike_id":"437ec374-1649-484e-9196-11e8445a270b","system_id":"levelo_inurba_marseille","lat":43.289307,"lon":5.38406,"is_reserved":false,"is_disabled":false,"rental_uris":{"android":"levelo://app?vid=437ec374-1649-484e-9196-11e8445a270b","ios":"levelo://app?vid=437ec374-1649-484e-9196-11e8445a270b"},"vehicle_type_id":"4","last_reported":1719259726,"current_range_meters":9200,"station_id":"ce4bh612rcd13ifvqe6g","pricing_plan_id":"cebpf4jnsgd1na2vs0mg"},{"bike_id":"bf77eaeb-124e-405c-a875-8ce4c391b512","system_id":"levelo_inurba_marseille","lat":43.290296,"lon":5.386502,"is_reserved":false,"is_disabled":false,"rental_uris":{"android":"levelo://app?vid=bf77eaeb-124e-405c-a875-8ce4c391b512","ios":"levelo://app?vid=bf77eaeb-124e-405c-a875-8ce4c391b512"},"vehicle_type_id":"4","last_reported":1719259726,"current_range_meters":23600,"station_id":"ce4bh4p2rcd13ifvqe0g","pricing_plan_id":"cebpf4jnsgd1na2vs0mg"},{"bike_id":"b74e6994-1c9b-494f-88fc-236fef366488","system_id":"levelo_inurba_marseille","lat":43.302759,"lon":5.400793,"is_reserved":false,"is_disabled":false,"rental_uris":{"android":"levelo://app?vid=b74e6994-1c9b-494f-88fc-236fef366488","ios":"levelo://app?vid=b74e6994-1c9b-494f-88fc-236fef366488"},"vehicle_type_id":"4","last_reported":1719259726,"current_range_meters":30000,"station_id":"ce4bgvh2rcd13ifvqcs0","pricing_plan_id":"cebpf4jnsgd1na2vs0mg"},{"bike_id":"d8a1f541-ab4e-4e5a-a508-f41a6107de37","system_id":"levelo_inurba_marseille","lat":43.30252,"lon":5.40068,"is_reserved":false,"is_disabled":false,"rental_uris":{"android":"levelo://app?vid=d8a1f541-ab4e-4e5a-a508-f41a6107de37","ios":"levelo://app?vid=d8a1f541-ab4e-4e5a-a508-f41a6107de37"},"vehicle_type_id":"4","last_reported":1719259726,"current_range_meters":31200,"station_id":"ce4bgvh2rcd13ifvqcs0","pricing_plan_id":"cebpf4jnsgd1na2vs0mg"},{"bike_id":"f4cfbd58-0616-4e7d-94ea-9d1c5a482f1c","system_id":"levelo_inurba_marseille","lat":43.302517,"lon":5.400706,"is_reserved":false,"is_disabled":false,"rental_uris":{"android":"levelo://app?vid=f4cfbd58-0616-4e7d-94ea-9d1c5a482f1c","ios":"levelo://app?vid=f4cfbd58-0616-4e7d-94ea-9d1c5a482f1c"},"vehicle_type_id":"4","last_reported":1719259726,"current_range_meters":20400,"station_id":"ce4bgvh2rcd13ifvqcs0","pricing_plan_id":"cebpf4jnsgd1na2vs0mg"},{"bike_id":"05de2633-3a07-49c7-a959-919ddcc041ec","system_id":"levelo_inurba_marseille","lat":43.28919,"lon":5.38399,"is_reserved":false,"is_disabled":false,"rental_uris":{"android":"levelo://app?vid=05de2633-3a07-49c7-a959-919ddcc041ec","ios":"levelo://app?vid=05de2633-3a07-49c7-a959-919ddcc041ec"},"vehicle_type_id":"4","last_reported":1719259726,"current_range_meters":26800,"station_id":"ce4bh612rcd13ifvqe6g","pricing_plan_id":"cebpf4jnsgd1na2vs0mg"},