{"last_updated":1747923019,"ttl":60,"version":"2.2","data":{"bikes":[{"bike_id":"c0b9fd4f-e181-46ce-b0bf-f5119973334f","system_id":"levelo_inurba_marseille","lat":43.33771,"lon":5.37424,"is_reserved":false,"is_disabled":true,"rental_uris":{"android":"levelo://app?vid=c0b9fd4f-e181-46ce-b0bf-f5119973334f","ios":"levelo://app?vid=c0b9fd4f-e181-46ce-b0bf-f5119973334f"},"vehicle_type_id":"4","last_reported":1747923019,"current_range_meters":0,"station_id":"","pricing_plan_id":"cebpf4jnsgd1na2vs0mg"},{"bike_id":"99f73d8c-ff21-451c-8082-80384eaeabfc","system_id":"levelo_inurba_marseille","lat":43.305611,"lon":5.401516,"is_reserved":false,"is_disabled":true,"rental_uris":{"android":"levelo://app?vid=99f73d8c-ff21-451c-8082-80384eaeabfc","ios":"levelo://app?vid=99f73d8c-ff21-451c-8082-80384eaeabfc"},"vehicle_type_id":"4","last_reported":1747923019,"current_range_meters":0,"station_id":"","pricing_plan_id":"cebpf4jnsgd1na2vs0mg"},{"bike_id":"c306fa7d-481e-4ae3-9585-ff4c1f5ddcb9","system_id":"levelo_inurba_marseille","lat":43.34961,"lon":5.37948,"is_reserved":false,"is_disabled":true,"rental_uris":{"android":"levelo://app?vid=c306fa7d-481e-4ae3-9585-ff4c1f5ddcb9","ios":"levelo://app?vid=c306fa7d-481e-4ae3-9585-ff4c1f5ddcb9"},"vehicle_type_id":"4","last_reported":1747923019,"current_range_meters":0,"station_id":"","pricing_plan_id":"cebpf4jnsgd1na2vs0mg"},{"bike_id":"c2b4a03e-0b64-4ca0-8ea3-612bc6668100","system_id":"levelo_inurba_marseille","lat":43.31412,"lon":5.3757,"is_reserved":false,"is_disabled":true,"rental_uris":{"android":"levelo://app?vid=c2b4a03e-0b64-4ca0-8ea3-612bc6668100","ios":"levelo://app?vid=c2b4a03e-0b64-4ca0-8ea3-612bc6668100"},"vehicle_type_id":"4","last_reported":1747923019,"current_range_meters":0,"station_id":"","pricing_plan_id":"cebpf4jnsgd1na2vs0mg"},{"bike_id":"8f0f531d-6a65-4647-8a6f-baa3d982f42f","system_id":"levelo_inurba_marseille","lat":43.28134,"lon":5.42585,"is_reserved":false,"is_disabled":true,"rental_uris":{"android":"levelo://app?vid=8f0f531d-6a65-4647-8a6f-baa3d982f42f","ios":"levelo://app?vid=8f0f531d-6a65-4647-8a6f-baa3d982f42f"},"vehicle_type_id":"4","last_reported":1747923019,"current_range_meters":0,"station_id":"","pricing_plan_id":"cebpf4jnsgd1na2vs0mg"},{"bike_id":"70c5c5ad-5e66-4a49-9450-c4d67d96b788","system_id":"levelo_inurba_marseille","lat":43.27112,"lon":5.42752,"is_reserved":false,"is_disabled":true,"rental_uris":{"android":"levelo://app?vid=70c5c5ad-5e66-4a49-9450-c4d67d96b788","ios":"levelo://app?vid=70c5c5ad-5e66-4a49-9450-c4d67d96b788"},"vehicle_type_id":"4","last_reported":1747923019,"current_range_meters":0,"station_id":"","pricing_plan_id":"cebpf4jnsgd1na2vs0mg"},{"bike_id":"9913adaa-d53d-44af-8cc0-e1c41d052752","system_id":"levelo_inurba_marseille","lat":43.27943,"lon":5.38567,"is_reserved":false,"is_disabled":true,"rental_uris":{"android":"levelo://app?vid=9913adaa-d53d-44af-8cc0-e1c41d052752","ios":"levelo://app?vid=9913adaa-d53d-44af-8cc0-e1c41d052752"},"vehicle_type_id":"4","last_reported":1747923019,"current_range_meters":0,"station_id":"","pricing_plan_id":"cebpf4jnsgd1na2vs0mg"},{"bike_id":"6370a696-239f-4994-b8e2-75747d97f22b","system_id":"levelo_inurba_marseille","lat":43.25012,"lon":5.39613,"is_reserved":false,"is_disabled":true,"rental_uris":{"android":"levelo://app?vid=6370a696-239f-4994-b8e2-75747d97f22b","ios":"levelo://app?vid=6370a696-239f-4994-b8e2-75747d97f22b"},"vehicle_type_id":"4","last_reported":1747923019,"current_range_meters":0,"station_id":"","pricing_plan_id":"cebpf4jnsgd1na2vs0mg"},{"bike_id":"e9dd3aa4-b5e7-4480-926d-d7f537719bfa","system_id":"levelo_inurba_marseille","lat":43.230331,"lon":5.401847,"is_reserved":false,"is_disabled":true,"rental_uris":{"android":"levelo://app?vid=e9dd3aa4-b5e7-4480-926d-d7f537719bfa","ios":"levelo://app?vid=e9dd3aa4-b5e7-4480-926d-d7f537719bfa"},"vehicle_type_id":"4","last_reported":1747923019,"current_range_meters":0,"station_id":"","pricing_plan_id":"cebpf4jnsgd1na2vs0mg"},{"bike_id":"14603e41-b2dd-4757-a53c-2e366aa4f983","system_id":"levelo_inurba_marseille","lat":43.269969,"lon":5.428289,"is_reserved":false,"is_disabled":true,"rental_uris":{"android":"levelo://app?vid=14603e41-b2dd-4757-a53c-2e366aa4f983","ios":"levelo://app?vid=14603e41-b2dd-4757-a53c-2e366aa4f983"},"vehicle_type_id":"4","last_reported":1747923019,"current_range_meters":0,"station_id":"","pricing_plan_id":"cebpf4jnsgd1na2vs0mg"},{"bike_id":"f526b1a7-5b01-46e5-abe0-38335d438738","system_id":"levelo_inurba_marseille","lat":43.30549,"lon":5.36698,"is_reserved":false,"is_disabled":true,"rental_uris":{"android":"levelo://app?vid=f526b1a7-5b01-46e5-abe0-38335d438738","ios":"levelo://app?vid=f526b1a7-5b01-46e5-abe0-38335d438738"},"vehicle_type_id":"4","last_reported":1747923019,"current_range_meters":0,"station_id":"ce4bgrp2rcd13ifvqc9g","pricing_plan_id":"cebpf4jnsgd1na2vs0mg"},{"bike_id":"c1f369bf-430e-4ea5-bc2a-4c08c31385df","system_id":"levelo_inurba_marseille","lat":43.313717,"lon":5.38489,"is_reserved":false,"is_disabled":true,"rental_uris":{"android":"levelo://app?vid=c1f369bf-430e-4ea5-bc2a-4c08c31385df","ios":"levelo://app?vid=c1f369bf-430e-4ea5-bc2a-4c08c31385df"},"vehicle_type_id":"4","last_reported":1747923019,"current_range_meters":0,"station_id":"ce4bgt92rcd13ifvqcf0","pricing_plan_id":"cebpf4jnsgd1na2vs0mg"},{"bike_id":"40868633-ac48-4a2f-af4d-a7c30fce88c2","system_id":"levelo_inurba_marseille","lat":43.28418,"lon":5.37515,"is_reserved":false,"is_disabled":true,"rental_uris":{"android":"levelo://app?vid=40868633-ac48-4a2f-af4d-a7c30fce88c2","ios":"levelo://app?vid=40868633-ac48-4a2f-af4d-a7c30fce88c2"},"vehicle_type_id":"4","last_reported":1747923019,"current_range_meters":0,"station_id":"ce4bh412rcd13ifvqds0","pricing_plan_id":"cebpf4jnsgd1na2vs0mg"},{"bike_id":"2b0997be-a6d9-48ba-8f7c-7219340705a8","system_id":"levelo_inurba_marseille","lat":43.29028,"lon":5.38628,"is_reserved":false,"is_disabled":true,"rental_uris":{"android":"levelo://app?vid=2b0997be-a6d9-48ba-8f7c-7219340705a8","ios":"levelo://app?vid=2b0997be-a6d9-48ba-8f7c-7219340705a8"},"vehicle_type_id":"4","last_reported":1747923019,"current_range_meters":0,"station_id":"ce4bh4p2rcd13ifvqe0g","pricing_plan_id":"cebpf4jnsgd1na2vs0mg"},{"bike_id":"f3bc3583-17ec-4374-abd3-28d4a25948ac","system_id":"levelo_inurba_marseille","lat":43.28933,"lon":5.38403,"is_reserved":false,"is_disabled":true,"rental_uris":{"android":"levelo://app?vid=f3bc3583-17ec-4374-abd3-28d4a25948ac","ios":"levelo://app?vid=f3bc3583-17ec-4374-abd3-28d4a25948ac"},"vehicle_type_id":"4","last_reported":1747923019,"current_range_meters":0,"station_id":"ce4bh612rcd13ifvqe6g","pricing_plan_id":"cebpf4jnsgd1na2vs0mg"},{"bike_id":"28f5641c-3b88-45e6-8a4e-c4db2aff452a","system_id":"levelo_inurba_marseille","lat":43.2804,"lon":5.36964,"is_reserved":false,"is_disabled":true,"rental_uris":{"android":"levelo://app?vid=28f5641c-3b88-45e6-8a4e-c4db2aff452a","ios":"levelo://app?vid=28f5641c-3b88-45e6-8a4e-c4db2aff452a"},"vehicle_type_id":"4","last_reported":1747923019,"current_range_meters":0,"station_id":"ce4bha12rcd13ifvqef0","pricing_plan_id":"cebpf4jnsgd1na2vs0mg"},{"bike_id":"8a41f118-0076-440c-8f56-fc18b9fb7b19","system_id":"levelo_inurba_marseille","lat":43.284692,"lon":5.358861,"is_reserved":false,"is_disabled":true,"rental_uris":{"android":"levelo://app?vid=8a41f118-0076-440c-8f56-fc18b9fb7b19","ios":"levelo://app?vid=8a41f118-0076-440c-8f56-fc18b9fb7b19"},"vehicle_type_id":"4","last_reported":1747923019,"current_range_meters":0,"station_id":"ce4bhah2rcd13ifvqei0","pricing_plan_id":"cebpf4jnsgd1na2vs0mg"},{"bike_id":"6fa3271c-cdef-4e6c-aec9-fa51b33bff16","system_id":"levelo_inurba_marseille","lat":43.26216,"lon":5.37471,"is_reserved":false,"is_disabled":true,"rental_uris":{"android":"levelo://app?vid=6fa3271c-cdef-4e6c-aec9-fa51b33bff16","ios":"levelo://app?vid=6fa3271c-cdef-4e6c-aec9-fa51b33bff16"},"vehicle_type_id":"4","last_reported":1747923019,"current_range_meters":0,"station_id":"ce4bhgp2rcd13ifvqfc0","pricing_plan_id":"cebpf4jnsgd1na2vs0mg"},{"bike_id":"a3c42255-5a9d-40f8-94d0-0cbe8133ba50","system_id":"levelo_inurba_marseille","lat":43.27204,"lon":5.39186,"is_reserved":false,"is_disabled":true,"rental_uris":{"android":"levelo://app?vid=a3c42255-5a9d-40f8-94d0-0cbe8133ba50","ios":"levelo://app?vid=a3c42255-5a9d-40f8-94d0-0cbe8133ba50"},"vehicle_type_id":"4","last_reported":1747923019,"current_range_meters":0,"station_id":"ce4bhhp2rcd13ifvqfm0","pricing_plan_id":"cebpf4jnsgd1na2vs0mg"},{"bike_id":"492b3e01-94b4-479c-9fcc-068974b23c2d","system_id":"levelo_inurba_marseille","lat":43.25578,"lon":5.38238,"is_reserved":false,"is_disabled":true,"rental_uris":{"android":"levelo://app?vid=492b3e01-94b4-479c-9fcc-068974b23c2d","ios":"levelo://app?vid=492b3e01-94b4-479c-9fcc-068974b23c2d"},"vehicle_type_id":"4","last_reported":1747923019,"current_range_meters":0,"station_id":"ce4bhih2rcd13ifvqfs0","pricing_plan_id":"cebpf4jnsgd1na2vs0mg"},{"bike_id":"b8530293-f35c-4cb4-885f-720c113d23a6","system_id":"levelo_inurba_marseille","lat":43.25081,"lon":5.39512,"is_reserved":false,"is_disabled":true,"rental_uris":{"android":"levelo://app?vid=b8530293-f35c-4cb4-885f-720c113d23a6","ios":"levelo://app?vid=b8530293-f35c-4cb4-885f-720c113d23a6"},"vehicle_type_id":"4","last_reported":1747923019,"current_range_meters":0,"station_id":"ce4bhm12rcd13ifvqgkg","pricing_plan_id":"cebpf4jnsgd1na2vs0mg"},{"bike_id":"e6443527-757d-4b43-946e-ae12740f228a","system_id":"levelo_inurba_marseille","lat":43.298986,"lon":5.436716,"is_reserved":false,"is_disabled":true,"rental_uris":{"android":"levelo://app?vid=e6443527-757d-4b43-946e-ae12740f228a","ios":"levelo://app?vid=e6443527-757d-4b43-946e-ae12740f228a"},"vehicle_type_id":"4","last_reported":1747923019,"current_range_meters":0,"station_id":"ce4bhpp2rcd13ifvqhfg","pricing_plan_id":"cebpf4jnsgd1na2vs0mg"},{"bike_id":"4423a85b-d9bf-4bae-9b71-5e55af3ecc63","system_id":"levelo_inurba_marseille","lat":43.24161,"lon":5.36405,"is_reserved":false,"is_disabled":true,"rental_uris":{"android":"levelo://app?vid=4423a85b-d9bf-4bae-9b71-5e55af3ecc63","ios":"levelo://app?vid=4423a85b-d9bf-4bae-9b71-5e55af3ecc63"},"vehicle_type_id":"4","last_reported":1747923019,"current_range_meters":0,"station_id":"cpo36qri1sfpv3e86is0","pricing_plan_id":"cebpf4jnsgd1na2vs0mg"},{"bike_id":"56ae3812-e361-4564-b157-4dc0683e3b6f","system_id":"levelo_inurba_marseille","lat":43.26548,"lon":5.39022,"is_reserved":false,"is_disabled":true,"rental_uris":{"android":"levelo://app?vid=56ae3812-e361-4564-b157-4dc0683e3b6f","ios":"levelo://app?vid=56ae3812-e361-4564-b157-4dc0683e3b6f"},"vehicle_type_id":"4","last_reported":1747923019,"current_range_meters":400,"station_id":"ce4bhe12rcd13ifvqf30","pricing_plan_id":"cebpf4jnsgd1na2vs0mg"},{"bike_id":"5281ff50-15a3-4882-a775-51088d6a98cc","system_id":"levelo_inurba_marseille","lat":43.31601,"lon":5.37438,"is_reserved":false,"is_disabled":true,"rental_uris":{"android":"levelo://app?vid=5281ff50-15a3-4882-a775-51088d6a98cc","ios":"levelo://app?vid=5281ff50-15a3-4882-a775-51088d6a98cc"},"vehicle_type_id":"4","last_reported":1747923019,"current_range_meters":800,"station_id":"","pricing_plan_id":"cebpf4jnsgd1na2vs0mg"},{"bike_id":"15dcdbbd-a41e-43eb-9ed6-26ec15ce7a50","system_id":"levelo_inurba_marseille","lat":43.21408,"lon":5.34116,"is_reserved":false,"is_disabled":true,"rental_uris":{"android":"levelo://app?vid=15dcdbbd-a41e-43eb-9ed6-26ec15ce7a50","ios":"levelo://app?vid=15dcdbbd-a41e-43eb-9ed6-26ec15ce7a50"},"vehicle_type_id":"4","last_reported":1747923019,"current_range_meters":800,"station_id":"","pricing_plan_id":"cebpf4jnsgd1na2vs0mg"},{"bike_id":"8772b609-7f01-4116-9d86-96491fbeff48","system_id":"levelo_inurba_marseille","lat":43.29533,"lon":5.38542,"is_reserved":false,"is_disabled":true,"rental_uris":{"android":"levelo://app?vid=8772b609-7f01-4116-9d86-96491fbeff48","ios":"levelo://app?vid=8772b609-7f01-4116-9d86-96491fbeff48"},"vehicle_type_id":"4","last_reported":1747923019,"current_range_meters":800,"station_id":"ce4bgih2rcd13ifvqba0","pricing_plan_id":"cebpf4jnsgd1na2vs0mg"},{"bike_id":"f317cb52-8d7e-405c-a376-8779a59e4d29","system_id":"levelo_inurba_marseille","lat":43.30542,"lon":5.36556,"is_reserved":false,"is_disabled":true,"rental_uris":{"android":"levelo://app?vid=f317cb52-8d7e-405c-a376-8779a59e4d29","ios":"levelo://app?vid=f317cb52-8d7e-405c-a376-8779a59e4d29"},"vehicle_type_id":"4","last_reported":1747923019,"current_range_meters":800,"station_id":"ce4bgs12rcd13ifvqcag","pricing_plan_id":"cebpf4jnsgd1na2vs0mg"},{"bike_id":"4f7cddd2-46de-49d2-bfd9-349d7858beaa","system_id":"levelo_inurba_marseille","lat":43.311753,"lon":5.387179,"is_reserved":false,"is_disabled":true,"rental_uris":{"android":"levelo://app?vid=4f7cddd2-46de-49d2-bfd9-349d7858beaa","ios":"levelo://app?vid=4f7cddd2-46de-49d2-bfd9-349d7858beaa"},"vehicle_type_id":"4","last_reported":1747923019,"current_range_meters":800,"station_id":"ce4bgv12rcd13ifvqcp0","pricing_plan_id":"cebpf4jnsgd1na2vs0mg"},{"bike_id":"93d57386-132b-4c4e-9e4f-544682924965","system_id":"levelo_inurba_marseille","lat":43.267824,"lon":5.394146,"is_reserved":false,"is_disabled":true,"rental_uris":{"android":"levelo://app?vid=93d57386-132b-4c4e-9e4f-544682924965","ios":"levelo://app?vid=93d57386-132b-4c4e-9e4f-544682924965"},"vehicle_type_id":"4","last_reported":1747923019,"current_range_meters":800,"station_id":"ce4bhh12rcd13ifvqfg0","pricing_plan_id":"cebpf4jnsgd1na2vs0mg"},{"bike_id":"bc4f0aca-ca4c-4c81-97a4-84cf27882b90","system_id":"levelo_inurba_marseille","lat":43.26227,"lon":5.37432,"is_reserved":false,"is_disabled":true,"rental_uris":{"android":"levelo://app?vid=bc4f0aca-ca4c-4c81-97a4-84cf27882b90","ios":"levelo://app?vid=bc4f0aca-ca4c-4c81-97a4-84cf27882b90"},"vehicle_type_id":"4","last_reported":1747923019,"current_range_meters":1200,"station_id":"","pricing_plan_id":"cebpf4jnsgd1na2vs0mg"},{"bike_id":"7d03c07e-e70b-49eb-a061-ab163d232257","system_id":"levelo_inurba_marseille","lat":43.296149,"lon":5.377204,"is_reserved":false,"is_disabled":true,"rental_uris":{"android":"levelo://app?vid=7d03c07e-e70b-49eb-a061-ab163d232257","ios":"levelo://app?vid=7d03c07e-e70b-49eb-a061-ab163d232257"},"vehicle_type_id":"4","last_reported":1747923019,"current_range_meters":1600,"station_id":"ce4bgi92rcd13ifvqb90","pricing_plan_id":"cebpf4jnsgd1na2vs0mg"},{"bike_id":"c91abb9b-cb36-49d1-92d2-2b6158817f5f","system_id":"levelo_inurba_marseille","lat":43.30547,"lon":5.36555,"is_reserved":false,"is_disabled":true,"rental_uris":{"android":"levelo://app?vid=c91abb9b-cb36-49d1-92d2-2b6158817f5f","ios":"levelo://app?vid=c91abb9b-cb36-49d1-92d2-2b6158817f5f"},"vehicle_type_id":"4","last_reported":1747923019,"current_range_meters":1600,"station_id":"ce4bgs12rcd13ifvqcag","pricing_plan_id":"cebpf4jnsgd1na2vs0mg"},{"bike_id":"80629a02-9b76-4c16-8f31-441fc5220c0e","system_id":"levelo_inurba_marseille","lat":43.25019,"lon":5.3892,"is_reserved":false,"is_disabled":true,"rental_uris":{"android":"levelo://app?vid=80629a02-9b76-4c16-8f31-441fc5220c0e","ios":"levelo://app?vid=80629a02-9b76-4c16-8f31-441fc5220c0e"},"vehicle_type_id":"4","last_reported":1747923019,"current_range_meters":1600,"station_id":"ce4bhgp2rcd13ifvqfd0","pricing_plan_id":"cebpf4jnsgd1na2vs0mg"},{"bike_id":"bea239ec-65a6-40ae-80b8-fb67e616d573","system_id":"levelo_inurba_marseille","lat":43.274059,"lon":5.407454,"is_reserved":false,"is_disabled":true,"rental_uris":{"android":"levelo://app?vid=bea239ec-65a6-40ae-80b8-fb67e616d573","ios":"levelo://app?vid=bea239ec-65a6-40ae-80b8-fb67e616d573"},"vehicle_type_id":"4","last_reported":1747923019,"current_range_meters":1600,"station_id":"ce4bhh12rcd13ifvqfg0","pricing_plan_id":"cebpf4jnsgd1na2vs0mg"},{"bike_id":"addacb63-eaa1-4b88-b2d5-f495030c26ce","system_id":"levelo_inurba_marseille","lat":43.2316,"lon":5.43718,"is_reserved":false,"is_disabled":true,"rental_uris":{"android":"levelo://app?vid=addacb63-eaa1-4b88-b2d5-f495030c26ce","ios":"levelo://app?vid=addacb63-eaa1-4b88-b2d5-f495030c26ce"},"vehicle_type_id":"4","last_reported":1747923019,"current_range_meters":1600,"station_id":"ce4bhmp2rcd13ifvqgog","pricing_plan_id":"cebpf4jnsgd1na2vs0mg"},{"bike_id":"ca1ef42c-a88e-4a5c-bdc1-61570156b583","system_id":"levelo_inurba_marseille","lat":43.23161,"lon":5.43701,"is_reserved":false,"is_disabled":true,"rental_uris":{"android":"levelo://app?vid=ca1ef42c-a88e-4a5c-bdc1-61570156b583","ios":"levelo://app?vid=ca1ef42c-a88e-4a5c-bdc1-61570156b583"},"vehicle_type_id":"4","last_reported":1747923019,"current_range_meters":1600,"station_id":"ce4bhmp2rcd13ifvqgog","pricing_plan_id":"cebpf4jnsgd1na2vs0mg"},{"bike_id":"f59358dd-8069-4dd4-b094-3ee016c20e17","system_id":"levelo_inurba_marseille","lat":43.30205,"lon":5.36611,"is_reserved":false,"is_disabled":true,"rental_uris":{"android":"levelo://app?vid=f59358dd-8069-4dd4-b094-3ee016c20e17","ios":"levelo://app?vid=f59358dd-8069-4dd4-b094-3ee016c20e17"},"vehicle_type_id":"4","last_reported":1747923019,"current_range_meters":2000,"station_id":"ce4bgrh2rcd13ifvqc8g","pricing_plan_id":"cebpf4jnsgd1na2vs0mg"},{"bike_id":"5d6e14dd-1e5a-4935-a9be-f11d5e53a513","system_id":"levelo_inurba_marseille","lat":43.31488,"lon":5.37304,"is_reserved":false,"is_disabled":true,"rental_uris":{"android":"levelo://app?vid=5d6e14dd-1e5a-4935-a9be-f11d5e53a513","ios":"levelo://app?vid=5d6e14dd-1e5a-4935-a9be-f11d5e53a513"},"vehicle_type_id":"4","last_reported":1747923019,"current_range_meters":2000,"station_id":"ce4bgt12rcd13ifvqcd0","pricing_plan_id":"cebpf4jnsgd1na2vs0mg"},{"bike_id":"8e1dfe9e-b58e-4d78-b24e-e297ccbb953a","system_id":"levelo_inurba_marseille","lat":43.31332,"lon":5.39689,"is_reserved":false,"is_disabled":true,"rental_uris":{"android":"levelo://app?vid=8e1dfe9e-b58e-4d78-b24e-e297ccbb953a","ios":"levelo://app?vid=8e1dfe9e-b58e-4d78-b24e-e297ccbb953a"},"vehicle_type_id":"4","last_reported":1747923019,"current_range_meters":2000,"station_id":"ce4bgvp2rcd13ifvqcu0","pricing_plan_id":"cebpf4jnsgd1na2vs0mg"},{"bike_id":"fe6be185-214d-4836-9403-cc533980eac2","system_id":"levelo_inurba_marseille","lat":43.2894,"lon":5.39634,"is_reserved":false,"is_disabled":false,"rental_uris":{"android":"levelo://app?vid=fe6be185-214d-4836-9403-cc533980eac2","ios":"levelo://app?vid=fe6be185-214d-4836-9403-cc533980eac2"},"vehicle_type_id":"4","last_reported":1747923019,"current_range_meters":2000,"station_id":"ce4bh3h2rcd13ifvqdn0","pricing_plan_id":"cebpf4jnsgd1na2vs0mg"},{"bike_id":"6f398680-b9d1-4dea-8754-75e882912628","system_id":"levelo_inurba_marseille","lat":43.29368,"lon":5.37858,"is_reserved":false,"is_disabled":false,"rental_uris":{"android":"levelo://app?vid=6f398680-b9d1-4dea-8754-75e882912628","ios":"levelo://app?vid=6f398680-b9d1-4dea-8754-75e882912628"},"vehicle_type_id":"4","last_reported":1747923019,"current_range_meters":2800,"station_id":"ce4bgjh2rcd13ifvqbf0","pricing_plan_id":"cebpf4jnsgd1na2vs0mg"},{"bike_id":"aaa6f3f5-67b4-4ad0-a92e-c4cf164d36c4","system_id":"levelo_inurba_marseille","lat":43.251413,"lon":5.403213,"is_reserved":false,"is_disabled":false,"rental_uris":{"android":"levelo://app?vid=aaa6f3f5-67b4-4ad0-a92e-c4cf164d36c4","ios":"levelo://app?vid=aaa6f3f5-67b4-4ad0-a92e-c4cf164d36c4"},"vehicle_type_id":"4","last_reported":1747923019,"current_range_meters":2800,"station_id":"ce4bhlh2rcd13ifvqgig","pricing_plan_id":"cebpf4jnsgd1na2vs0mg"},{"bike_id":"8d78e58d-9aa2-4b0b-be47-95b678d36c06","system_id":"levelo_inurba_marseille","lat":43.29557,"lon":5.42294,"is_reserved":false,"is_disabled":false,"rental_uris":{"android":"levelo://app?vid=8d78e58d-9aa2-4b0b-be47-95b678d36c06","ios":"levelo://app?vid=8d78e58d-9aa2-4b0b-be47-95b678d36c06"},"vehicle_type_id":"4","last_reported":1747923019,"current_range_meters":2800,"station_id":"ce4bhph2rcd13ifvqhdg","pricing_plan_id":"cebpf4jnsgd1na2vs0mg"},{"bike_id":"b8b511c7-6f48-45be-97af-1e0036b54cc5","system_id":"levelo_inurba_marseille","lat":43.27388,"lon":5.42411,"is_reserved":false,"is_disabled":false,"rental_uris":{"android":"levelo://app?vid=b8b511c7-6f48-45be-97af-1e0036b54cc5","ios":"levelo://app?vid=b8b511c7-6f48-45be-97af-1e0036b54cc5"},"vehicle_type_id":"4","last_reported":1747923019,"current_range_meters":3200,"station_id":"","pricing_plan_id":"cebpf4jnsgd1na2vs0mg"},{"bike_id":"b8b18fce-0c67-4c6f-9860-aaff3476f15d","system_id":"levelo_inurba_marseille","lat":43.30886,"lon":5.3965,"is_reserved":false,"is_disabled":false,"rental_uris":{"android":"levelo://app?vid=b8b18fce-0c67-4c6f-9860-aaff3476f15d","ios":"levelo://app?vid=b8b18fce-0c67-4c6f-9860-aaff3476f15d"},"vehicle_type_id":"4","last_reported":1747923019,"current_range_meters":3200,"station_id":"ce4bh012rcd13ifvqcv0","pricing_plan_id":"cebpf4jnsgd1na2vs0mg"},{"bike_id":"d9180345-c606-4400-b8ec-f5385573604a","system_id":"levelo_inurba_marseille","lat":43.25581,"lon":5.38219,"is_reserved":false,"is_disabled":false,"rental_uris":{"android":"levelo://app?vid=d9180345-c606-4400-b8ec-f5385573604a","ios":"levelo://app?vid=d9180345-c606-4400-b8ec-f5385573604a"},"vehicle_type_id":"4","last_reported":1747923019,"current_range_meters":3200,"station_id":"ce4bhih2rcd13ifvqfs0","pricing_plan_id":"cebpf4jnsgd1na2vs0mg"},{"bike_id":"e8162579-a5ad-485f-ad83-fec8a2ebe7e1","system_id":"levelo_inurba_marseille","lat":43.26826,"lon":5.39099,"is_reserved":false,"is_disabled":false,"rental_uris":{"android":"levelo://app?vid=e8162579-a5ad-485f-ad83-fec8a2ebe7e1","ios":"levelo://app?vid=e8162579-a5ad-485f-ad83-fec8a2ebe7e1"},"vehicle_type_id":"4","last_reported":1747923019,"current_range_meters":3600,"station_id":"","pricing_plan_id":"cebpf4jnsgd1na2vs0mg"},{"bike_id":"1ff4dd87-bf56-4ab1-8365-aad71fcb827c","system_id":"levelo_inurba_marseille","lat":43.32678,"lon":5.42543,"is_reserved":false,"is_disabled":false,"rental_uris":{"android":"levelo://app?vid=1ff4dd87-bf56-4ab1-8365-aad71fcb827c","ios":"levelo://app?vid=1ff4dd87-bf56-4ab1-8365-aad71fcb827c"},"vehicle_type_id":"4","last_reported":1747923019,"current_range_meters":3600,"station_id":"","pricing_plan_id":"cebpf4jnsgd1na2vs0mg"},{"bike_id":"e242cd18-d385-43d9-aff7-32ffa9024a06","system_id":"levelo_inurba_marseille","lat":43.29793,"lon":5.38101,"is_reserved":false,"is_disabled":false,"rental_uris":{"android":"levelo://app?vid=e242cd18-d385-43d9-aff7-32ffa9024a06","ios":"levelo://app?vid=e242cd18-d385-43d9-aff7-32ffa9024a06"},"vehicle_type_id":"4","last_reported":1747923019,"current_range_meters":3600,"station_id":"ce4bgip2rcd13ifvqbb0","pricing_plan_id":"cebpf4jnsgd1na2vs0mg"},{"bike_id":"cb588966-aef3-4b8f-a0c9-7d7500481cf1","system_id":"levelo_inurba_marseille","lat":43.24187,"lon":5.39723,"is_reserved":false,"is_disabled":false,"rental_uris":{"android":"levelo://app?vid=cb588966-aef3-4b8f-a0c9-7d7500481cf1","ios":"levelo://app?vid=cb588966-aef3-4b8f-a0c9-7d7500481cf1"},"vehicle_type_id":"4","last_reported":1747923019,"current_range_meters":3600,"station_id":"ce4bhn12rcd13ifvqgpg","pricing_plan_id":"cebpf4jnsgd1na2vs0mg"},{"bike_id":"ea58b520-4b27-44f5-b151-4c5601e61596","system_id":"levelo_inurba_marseille","lat":43.303792,"lon":5.424841,"is_reserved":false,"is_disabled":false,"rental_uris":{"android":"levelo://app?vid=ea58b520-4b27-44f5-b151-4c5601e61596","ios":"levelo://app?vid=ea58b520-4b27-44f5-b151-4c5601e61596"},"vehicle_type_id":"4","last_reported":1747923019,"current_range_meters":3600,"station_id":"ce4bhoh2rcd13ifvqh6g","pricing_plan_id":"cebpf4jnsgd1na2vs0mg"},{"bike_id":"3005ad83-f46b-43a9-8cf3-9587fc2f6d22","system_id":"levelo_inurba_marseille","lat":43.29261,"lon":5.40908,"is_reserved":false,"is_disabled":false,"rental_uris":{"android":"levelo://app?vid=3005ad83-f46b-43a9-8cf3-9587fc2f6d22","ios":"levelo://app?vid=3005ad83-f46b-43a9-8cf3-9587fc2f6d22"},"vehicle_type_id":"4","last_reported":1747923019,"current_range_meters":4000,"station_id":"ce4bh192rcd13ifvqdc0","pricing_plan_id":"cebpf4jnsgd1na2vs0mg"},{"bike_id":"b6144a21-3483-47a6-81d6-1338a9e77c9a","system_id":"levelo_inurba_marseille","lat":43.29004,"lon":5.35609,"is_reserved":false,"is_disabled":false,"rental_uris":{"android":"levelo://app?vid=b6144a21-3483-47a6-81d6-1338a9e77c9a","ios":"levelo://app?vid=b6144a21-3483-47a6-81d6-1338a9e77c9a"},"vehicle_type_id":"4","last_reported":1747923019,"current_range_meters":4000,"station_id":"ce4bhb92rcd13ifvqen0","pricing_plan_id":"cebpf4jnsgd1na2vs0mg"},{"bike_id":"7b19ae3d-375f-484a-ac22-3d52f30e632f","system_id":"levelo_inurba_marseille","lat":43.23178,"lon":5.39994,"is_reserved":false,"is_disabled":false,"rental_uris":{"android":"levelo://app?vid=7b19ae3d-375f-484a-ac22-3d52f30e632f","ios":"levelo://app?vid=7b19ae3d-375f-484a-ac22-3d52f30e632f"},"vehicle_type_id":"4","last_reported":1747923019,"current_range_meters":4000,"station_id":"ce4bhn12rcd13ifvqgqg","pricing_plan_id":"cebpf4jnsgd1na2vs0mg"},{"bike_id":"d9bb6ad4-03c0-42b1-b4a7-0e833e54e3af","system_id":"levelo_inurba_marseille","lat":43.28707,"lon":5.3999,"is_reserved":false,"is_disabled":false,"rental_uris":{"android":"levelo://app?vid=d9bb6ad4-03c0-42b1-b4a7-0e833e54e3af","ios":"levelo://app?vid=d9bb6ad4-03c0-42b1-b4a7-0e833e54e3af"},"vehicle_type_id":"4","last_reported":1747923019,"current_range_meters":4000,"station_id":"ce4bho92rcd13ifvqh3g","pricing_plan_id":"cebpf4jnsgd1na2vs0mg"},{"bike_id":"4f891411-1116-4ca4-a1e7-0372793ee4c8","system_id":"levelo_inurba_marseille","lat":43.29581,"lon":5.375,"is_reserved":false,"is_disabled":false,"rental_uris":{"android":"levelo://app?vid=4f891411-1116-4ca4-a1e7-0372793ee4c8","ios":"levelo://app?vid=4f891411-1116-4ca4-a1e7-0372793ee4c8"},"vehicle_type_id":"4","last_reported":1747923019,"current_range_meters":4800,"station_id":"ce4bgh92rcd13ifvqb50","pricing_plan_id":"cebpf4jnsgd1na2vs0mg"},{"bike_id":"48483452-c5e2-4793-8345-78d99e498614","system_id":"levelo_inurba_marseille","lat":43.29624,"lon":5.37719,"is_reserved":false,"is_disabled":false,"rental_uris":{"android":"levelo://app?vid=48483452-c5e2-4793-8345-78d99e498614","ios":"levelo://app?vid=48483452-c5e2-4793-8345-78d99e498614"},"vehicle_type_id":"4","last_reported":1747923019,"current_range_meters":4800,"station_id":"ce4bgi92rcd13ifvqb90","pricing_plan_id":"cebpf4jnsgd1na2vs0mg"},{"bike_id":"57d98a57-5313-4024-acf7-06835a732c5e","system_id":"levelo_inurba_marseille","lat":43.29707,"lon":5.377,"is_reserved":false,"is_disabled":false,"rental_uris":{"android":"levelo://app?vid=57d98a57-5313-4024-acf7-06835a732c5e","ios":"levelo://app?vid=57d98a57-5313-4024-acf7-06835a732c5e"},"vehicle_type_id":"4","last_reported":1747923019,"current_range_meters":4800,"station_id":"ce4bgkh2rcd13ifvqbl0","pricing_plan_id":"cebpf4jnsgd1na2vs0mg"},{"bike_id":"cc449a85-d66e-4497-9eac-363f069f5b64","system_id":"levelo_inurba_marseille","lat":43.29579,"lon":5.36738,"is_reserved":false,"is_disabled":false,"rental_uris":{"android":"levelo://app?vid=cc449a85-d66e-4497-9eac-363f069f5b64","ios":"levelo://app?vid=cc449a85-d66e-4497-9eac-363f069f5b64"},"vehicle_type_id":"4","last_reported":1747923019,"current_range_meters":4800,"station_id":"ce4bgph2rcd13ifvqc2g","pricing_plan_id":"cebpf4jnsgd1na2vs0mg"},{"bike_id":"7ec6d077-e30d-4990-aafa-66a9993beed8","system_id":"levelo_inurba_marseille","lat":43.28572,"lon":5.39504,"is_reserved":false,"is_disabled":false,"rental_uris":{"android":"levelo://app?vid=7ec6d077-e30d-4990-aafa-66a9993beed8","ios":"levelo://app?vid=7ec6d077-e30d-4990-aafa-66a9993beed8"},"vehicle_type_id":"4","last_reported":1747923019,"current_range_meters":4800,"station_id":"ce4bh292rcd13ifvqdg0","pricing_plan_id":"cebpf4jnsgd1na2vs0mg"},{"bike_id":"b2d6b069-20eb-4def-b4ea-be54be399c42","system_id":"levelo_inurba_marseille","lat":43.26565,"lon":5.39012,"is_reserved":false,"is_disabled":false,"rental_uris":{"android":"levelo://app?vid=b2d6b069-20eb-4def-b4ea-be54be399c42","ios":"levelo://app?vid=b2d6b069-20eb-4def-b4ea-be54be399c42"},"vehicle_type_id":"4","last_reported":1747923019,"current_range_meters":4800,"station_id":"ce4bhe12rcd13ifvqf30","pricing_plan_id":"cebpf4jnsgd1na2vs0mg"},{"bike_id":"0cca2c21-b041-4369-ab58-d393b14c7a14","system_id":"levelo_inurba_marseille","lat":43.29625,"lon":5.37723,"is_reserved":false,"is_disabled":false,"rental_uris":{"android":"levelo://app?vid=0cca2c21-b041-4369-ab58-d393b14c7a14","ios":"levelo://app?vid=0cca2c21-b041-4369-ab58-d393b14c7a14"},"vehicle_type_id":"4","last_reported":1747923019,"current_range_meters":5600,"station_id":"ce4bgi92rcd13ifvqb90","pricing_plan_id":"cebpf4jnsgd1na2vs0mg"},{"bike_id":"7f5f9e29-b1d7-4c9b-8e20-7a562d8834a4","system_id":"levelo_inurba_marseille","lat":43.30903,"lon":5.36846,"is_reserved":false,"is_disabled":false,"rental_uris":{"android":"levelo://app?vid=7f5f9e29-b1d7-4c9b-8e20-7a562d8834a4","ios":"levelo://app?vid=7f5f9e29-b1d7-4c9b-8e20-7a562d8834a4"},"vehicle_type_id":"4","last_reported":1747923019,"current_range_meters":5600,"station_id":"ce4bgn92rcd13ifvqbvg","pricing_plan_id":"cebpf4jnsgd1na2vs0mg"},{"bike_id":"d9236679-8efa-410f-997b-2364c4636d45","system_id":"levelo_inurba_marseille","lat":43.29258,"lon":5.38443,"is_reserved":false,"is_disabled":false,"rental_uris":{"android":"levelo://app?vid=d9236679-8efa-410f-997b-2364c4636d45","ios":"levelo://app?vid=d9236679-8efa-410f-997b-2364c4636d45"},"vehicle_type_id":"4","last_reported":1747923019,"current_range_meters":5600,"station_id":"ce4bh692rcd13ifvqea0","pricing_plan_id":"cebpf4jnsgd1na2vs0mg"},{"bike_id":"876e5d3a-f66b-47f1-ba27-739d627d9d9d","system_id":"levelo_inurba_marseille","lat":43.27381,"lon":5.36256,"is_reserved":false,"is_disabled":false,"rental_uris":{"android":"levelo://app?vid=876e5d3a-f66b-47f1-ba27-739d627d9d9d","ios":"levelo://app?vid=876e5d3a-f66b-47f1-ba27-739d627d9d9d"},"vehicle_type_id":"4","last_reported":1747923019,"current_range_meters":5600,"station_id":"ce4bhbh2rcd13ifvqeo0","pricing_plan_id":"cebpf4jnsgd1na2vs0mg"},{"bike_id":"df106770-a124-4ecf-95cd-288da587773b","system_id":"levelo_inurba_marseille","lat":43.28656,"lon":5.38302,"is_reserved":false,"is_disabled":false,"rental_uris":{"android":"levelo://app?vid=df106770-a124-4ecf-95cd-288da587773b","ios":"levelo://app?vid=df106770-a124-4ecf-95cd-288da587773b"},"vehicle_type_id":"4","last_reported":1747923019,"current_range_meters":6000,"station_id":"","pricing_plan_id":"cebpf4jnsgd1na2vs0mg"},{"bike_id":"e7cf0732-739e-4b05-9d84-f594d8cc22be","system_id":"levelo_inurba_marseille","lat":43.25583,"lon":5.38223,"is_reserved":false,"is_disabled":false,"rental_uris":{"android":"levelo://app?vid=e7cf0732-739e-4b05-9d84-f594d8cc22be","ios":"levelo://app?vid=e7cf0732-739e-4b05-9d84-f594d8cc22be"},"vehicle_type_id":"4","last_reported":1747923019,"current_range_meters":6000,"station_id":"ce4bhih2rcd13ifvqfs0","pricing_plan_id":"cebpf4jnsgd1na2vs0mg"},{"bike_id":"67c342bd-af74-4bfa-a4f9-e22766690095","system_id":"levelo_inurba_marseille","lat":43.24065,"lon":5.37753,"is_reserved":false,"is_disabled":false,"rental_uris":{"android":"levelo://app?vid=67c342bd-af74-4bfa-a4f9-e22766690095","ios":"levelo://app?vid=67c342bd-af74-4bfa-a4f9-e22766690095"},"vehicle_type_id":"4","last_reported":1747923019,"current_range_meters":6000,"station_id":"ce4bhnp2rcd13ifvqgvg","pricing_plan_id":"cebpf4jnsgd1na2vs0mg"},{"bike_id":"c883606a-a070-4242-b1b1-39d68ef71e2d","system_id":"levelo_inurba_marseille","lat":43.21748,"lon":5.34604,"is_reserved":false,"is_disabled":false,"rental_uris":{"android":"levelo://app?vid=c883606a-a070-4242-b1b1-39d68ef71e2d","ios":"levelo://app?vid=c883606a-a070-4242-b1b1-39d68ef71e2d"},"vehicle_type_id":"4","last_reported":1747923019,"current_range_meters":6000,"station_id":"st_cvj6r9ubvosntc0bgbag","pricing_plan_id":"cebpf4jnsgd1na2vs0mg"},{"bike_id":"fb6e3095-ecec-49bd-86fe-8525ad9eb8dc","system_id":"levelo_inurba_marseille","lat":43.29277,"lon":5.3757,"is_reserved":false,"is_disabled":false,"rental_uris":{"android":"levelo://app?vid=fb6e3095-ecec-49bd-86fe-8525ad9eb8dc","ios":"levelo://app?vid=fb6e3095-ecec-49bd-86fe-8525ad9eb8dc"},"vehicle_type_id":"4","last_reported":1747923019,"current_range_meters":6400,"station_id":"","pricing_plan_id":"cebpf4jnsgd1na2vs0mg"},{"bike_id":"c172b8b2-6068-4ecd-9788-1fbcc3584e8e","system_id":"levelo_inurba_marseille","lat":43.28209,"lon":5.3906,"is_reserved":false,"is_disabled":false,"rental_uris":{"android":"levelo://app?vid=c172b8b2-6068-4ecd-9788-1fbcc3584e8e","ios":"levelo://app?vid=c172b8b2-6068-4ecd-9788-1fbcc3584e8e"},"vehicle_type_id":"4","last_reported":1747923019,"current_range_meters":6400,"station_id":"","pricing_plan_id":"cebpf4jnsgd1na2vs0mg"},{"bike_id":"7ac99038-6586-4263-9d56-cebe528bf4dd","system_id":"levelo_inurba_marseille","lat":43.24997,"lon":5.38932,"is_reserved":false,"is_disabled":false,"rental_uris":{"android":"levelo://app?vid=7ac99038-6586-4263-9d56-cebe528bf4dd","ios":"levelo://app?vid=7ac99038-6586-4263-9d56-cebe528bf4dd"},"vehicle_type_id":"4","last_reported":1747923019,"current_range_meters":6400,"station_id":"ce4bhgp2rcd13ifvqfd0","pricing_plan_id":"cebpf4jnsgd1na2vs0mg"},{"bike_id":"3bd4bfb8-d9d2-47fb-b3c2-eb55c3c20c56","system_id":"levelo_inurba_marseille","lat":43.2808,"lon":5.39657,"is_reserved":false,"is_disabled":false,"rental_uris":{"android":"levelo://app?vid=3bd4bfb8-d9d2-47fb-b3c2-eb55c3c20c56","ios":"levelo://app?vid=3bd4bfb8-d9d2-47fb-b3c2-eb55c3c20c56"},"vehicle_type_id":"4","last_reported":1747923019,"current_range_meters":6400,"station_id":"ce4bho12rcd13ifvqh2g","pricing_plan_id":"cebpf4jnsgd1na2vs0mg"},{"bike_id":"a965f51f-aafb-4afe-bfe3-121b43346203","system_id":"levelo_inurba_marseille","lat":43.28,"lon":5.4003,"is_reserved":false,"is_disabled":false,"rental_uris":{"android":"levelo://app?vid=a965f51f-aafb-4afe-bfe3-121b43346203","ios":"levelo://app?vid=a965f51f-aafb-4afe-bfe3-121b43346203"},"vehicle_type_id":"4","last_reported":1747923019,"current_range_meters":6400,"station_id":"ce4bho92rcd13ifvqh4g","pricing_plan_id":"cebpf4jnsgd1na2vs0mg"},{"bike_id":"c59660a7-f300-4b9b-a58b-f2bc724bb7a8","system_id":"levelo_inurba_marseille","lat":43.32083,"lon":5.36861,"is_reserved":false,"is_disabled":false,"rental_uris":{"android":"levelo://app?vid=c59660a7-f300-4b9b-a58b-f2bc724bb7a8","ios":"levelo://app?vid=c59660a7-f300-4b9b-a58b-f2bc724bb7a8"},"vehicle_type_id":"4","last_reported":1747923019,"current_range_meters":6800,"station_id":"","pricing_plan_id":"cebpf4jnsgd1na2vs0mg"},{"bike_id":"21124f9d-1d20-4b3f-bd0c-8cf467fe8664","system_id":"levelo_inurba_marseille","lat":43.28049,"lon":5.36936,"is_reserved":false,"is_disabled":false,"rental_uris":{"android":"levelo://app?vid=21124f9d-1d20-4b3f-bd0c-8cf467fe8664","ios":"levelo://app?vid=21124f9d-1d20-4b3f-bd0c-8cf467fe8664"},"vehicle_type_id":"4","last_reported":1747923019,"current_range_meters":6800,"station_id":"ce4bha12rcd13ifvqef0","pricing_plan_id":"cebpf4jnsgd1na2vs0mg"},{"bike_id":"005e4c39-4b7e-4a6f-9219-1091e02cca2a","system_id":"levelo_inurba_marseille","lat":43.26947,"lon":5.38648,"is_reserved":false,"is_disabled":false,"rental_uris":{"android":"levelo://app?vid=005e4c39-4b7e-4a6f-9219-1091e02cca2a","ios":"levelo://app?vid=005e4c39-4b7e-4a6f-9219-1091e02cca2a"},"vehicle_type_id":"4","last_reported":1747923019,"current_range_meters":6800,"station_id":"ce4bhh92rcd13ifvqfh0","pricing_plan_id":"cebpf4jnsgd1na2vs0mg"},{"bike_id":"b032db85-a602-42bb-bc9a-65b3dfd9e2fe","system_id":"levelo_inurba_marseille","lat":43.2558,"lon":5.38246,"is_reserved":false,"is_disabled":false,"rental_uris":{"android":"levelo://app?vid=b032db85-a602-42bb-bc9a-65b3dfd9e2fe","ios":"levelo://app?vid=b032db85-a602-42bb-bc9a-65b3dfd9e2fe"},"vehicle_type_id":"4","last_reported":1747923019,"current_range_meters":6800,"station_id":"ce4bhih2rcd13ifvqfs0","pricing_plan_id":"cebpf4jnsgd1na2vs0mg"},{"bike_id":"98516618-1ccc-4940-b260-a655b0f32be6","system_id":"levelo_inurba_marseille","lat":43.23965,"lon":5.36626,"is_reserved":false,"is_disabled":false,"rental_uris":{"android":"levelo://app?vid=98516618-1ccc-4940-b260-a655b0f32be6","ios":"levelo://app?vid=98516618-1ccc-4940-b260-a655b0f32be6"},"vehicle_type_id":"4","last_reported":1747923019,"current_range_meters":7200,"station_id":"ce4bhi12rcd13ifvqfp0","pricing_plan_id":"cebpf4jnsgd1na2vs0mg"},{"bike_id":"325a04d7-0c6c-4a4d-804e-27b29ba6514b","system_id":"levelo_inurba_marseille","lat":43.23966,"lon":5.3663,"is_reserved":false,"is_disabled":false,"rental_uris":{"android":"levelo://app?vid=325a04d7-0c6c-4a4d-804e-27b29ba6514b","ios":"levelo://app?vid=325a04d7-0c6c-4a4d-804e-27b29ba6514b"},"vehicle_type_id":"4","last_reported":1747923019,"current_range_meters":7200,"station_id":"ce4bhi12rcd13ifvqfp0","pricing_plan_id":"cebpf4jnsgd1na2vs0mg"},{"bike_id":"d02289bb-3d41-432f-b335-4462918b4f91","system_id":"levelo_inurba_marseille","lat":43.27083,"lon":5.42335,"is_reserved":false,"is_disabled":false,"rental_uris":{"android":"levelo://app?vid=d02289bb-3d41-432f-b335-4462918b4f91","ios":"levelo://app?vid=d02289bb-3d41-432f-b335-4462918b4f91"},"vehicle_type_id":"4","last_reported":1747923019,"current_range_meters":7200,"station_id":"ce4bhk92rcd13ifvqgb0","pricing_plan_id":"cebpf4jnsgd1na2vs0mg"},{"bike_id":"2a6c1e01-09ca-46b8-855f-d079623cb298","system_id":"levelo_inurba_marseille","lat":43.27053,"lon":5.4025,"is_reserved":false,"is_disabled":false,"rental_uris":{"android":"levelo://app?vid=2a6c1e01-09ca-46b8-855f-d079623cb298","ios":"levelo://app?vid=2a6c1e01-09ca-46b8-855f-d079623cb298"},"vehicle_type_id":"4","last_reported":1747923019,"current_range_meters":7200,"station_id":"ce4bhk92rcd13ifvqgc0","pricing_plan_id":"cebpf4jnsgd1na2vs0mg"},{"bike_id":"eebfa399-9785-4fc2-b66a-eed62a9fa6a0","system_id":"levelo_inurba_marseille","lat":43.32344,"lon":5.40628,"is_reserved":false,"is_disabled":false,"rental_uris":{"android":"levelo://app?vid=eebfa399-9785-4fc2-b66a-eed62a9fa6a0","ios":"levelo://app?vid=eebfa399-9785-4fc2-b66a-eed62a9fa6a0"},"vehicle_type_id":"4","last_reported":1747923019,"current_range_meters":7200,"station_id":"ce4bhq92rcd13ifvqhjg","pricing_plan_id":"cebpf4jnsgd1na2vs0mg"},{"bike_id":"3fe3d6c4-138a-47df-b6b4-e6f19e8f7d46","system_id":"levelo_inurba_marseille","lat":43.21422,"lon":5.34102,"is_reserved":false,"is_disabled":false,"rental_uris":{"android":"levelo://app?vid=3fe3d6c4-138a-47df-b6b4-e6f19e8f7d46","ios":"levelo://app?vid=3fe3d6c4-138a-47df-b6b4-e6f19e8f7d46"},"vehicle_type_id":"4","last_reported":1747923019,"current_range_meters":8000,"station_id":"","pricing_plan_id":"cebpf4jnsgd1na2vs0mg"},{"bike_id":"0a18c57d-708e-4b44-aa21-cae2071eda1a","system_id":"levelo_inurba_marseille","lat":43.29101,"lon":5.38154,"is_reserved":false,"is_disabled":false,"rental_uris":{"android":"levelo://app?vid=0a18c57d-708e-4b44-aa21-cae2071eda1a","ios":"levelo://app?vid=0a18c57d-708e-4b44-aa21-cae2071eda1a"},"vehicle_type_id":"4","last_reported":1747923019,"current_range_meters":8000,"station_id":"ce4bh512rcd13ifvqe2g","pricing_plan_id":"cebpf4jnsgd1na2vs0mg"},{"bike_id":"542960a1-a96e-476d-a16a-60175f6b03fe","system_id":"levelo_inurba_marseille","lat":43.29166,"lon":5.37166,"is_reserved":false,"is_disabled":false,"rental_uris":{"android":"levelo://app?vid=542960a1-a96e-476d-a16a-60175f6b03fe","ios":"levelo://app?vid=542960a1-a96e-476d-a16a-60175f6b03fe"},"vehicle_type_id":"4","last_reported":1747923019,"current_range_meters":8000,"station_id":"ce4bha92rcd13ifvqeh0","pricing_plan_id":"cebpf4jnsgd1na2vs0mg"},{"bike_id":"0aa126a0-a021-4e47-8c17-ce07058b4b10","system_id":"levelo_inurba_marseille","lat":43.23185,"lon":5.3999,"is_reserved":false,"is_disabled":false,"rental_uris":{"android":"levelo://app?vid=0aa126a0-a021-4e47-8c17-ce07058b4b10","ios":"levelo://app?vid=0aa126a0-a021-4e47-8c17-ce07058b4b10"},"vehicle_type_id":"4","last_reported":1747923019,"current_range_meters":8000,"station_id":"ce4bhn12rcd13ifvqgqg","pricing_plan_id":"cebpf4jnsgd1na2vs0mg"},{"bike_id":"18922951-d38e-4180-ba66-a41240ad6fc3","system_id":"levelo_inurba_marseille","lat":43.29303,"lon":5.37463,"is_reserved":false,"is_disabled":false,"rental_uris":{"android":"levelo://app?vid=18922951-d38e-4180-ba66-a41240ad6fc3","ios":"levelo://app?vid=18922951-d38e-4180-ba66-a41240ad6fc3"},"vehicle_type_id":"4","last_reported":1747923019,"current_range_meters":8400,"station_id":"ce4bgi12rcd13ifvqb70","pricing_plan_id":"cebpf4jnsgd1na2vs0mg"},{"bike_id":"b1d091af-2681-4504-ad07-e89ed008fbab","system_id":"levelo_inurba_marseille","lat":43.29603,"lon":5.38099,"is_reserved":false,"is_disabled":false,"rental_uris":{"android":"levelo://app?vid=b1d091af-2681-4504-ad07-e89ed008fbab","ios":"levelo://app?vid=b1d091af-2681-4504-ad07-e89ed008fbab"},"vehicle_type_id":"4","last_reported":1747923019,"current_range_meters":8400,"station_id":"ce4bgl12rcd13ifvqbo0","pricing_plan_id":"cebpf4jnsgd1na2vs0mg"},{"bike_id":"c9281fb7-ff5d-4d1e-afe2-3b1800c867c8","system_id":"levelo_inurba_marseille","lat":43.30936,"lon":5.40143,"is_reserved":false,"is_disabled":false,"rental_uris":{"android":"levelo://app?vid=c9281fb7-ff5d-4d1e-afe2-3b1800c867c8","ios":"levelo://app?vid=c9281fb7-ff5d-4d1e-afe2-3b1800c867c8"},"vehicle_type_id":"4","last_reported":1747923019,"current_range_meters":8400,"station_id":"ce4bgvp2rcd13ifvqct0","pricing_plan_id":"cebpf4jnsgd1na2vs0mg"},{"bike_id":"16becc44-7de7-41b8-a17e-67e197d7a7e8","system_id":"levelo_inurba_marseille","lat":43.28272,"lon":5.35064,"is_reserved":false,"is_disabled":false,"rental_uris":{"android":"levelo://app?vid=16becc44-7de7-41b8-a17e-67e197d7a7e8","ios":"levelo://app?vid=16becc44-7de7-41b8-a17e-67e197d7a7e8"},"vehicle_type_id":"4","last_reported":1747923019,"current_range_meters":8400,"station_id":"ce4bhbp2rcd13ifvqerg","pricing_plan_id":"cebpf4jnsgd1na2vs0mg"},{"bike_id":"d858f44b-9c17-42bd-95f4-9a76461b956c","system_id":"levelo_inurba_marseille","lat":43.27185,"lon":5.40984,"is_reserved":false,"is_disabled":false,"rental_uris":{"android":"levelo://app?vid=d858f44b-9c17-42bd-95f4-9a76461b956c","ios":"levelo://app?vid=d858f44b-9c17-42bd-95f4-9a76461b956c"},"vehicle_type_id":"4","last_reported":1747923019,"current_range_meters":8400,"station_id":"ce4bhl12rcd13ifvqgf0","pricing_plan_id":"cebpf4jnsgd1na2vs0mg"},{"bike_id":"bfc337af-2b4d-403c-afe8-46ec66890020","system_id":"levelo_inurba_marseille","lat":43.25935,"lon":5.40906,"is_reserved":false,"is_disabled":false,"rental_uris":{"android":"levelo://app?vid=bfc337af-2b4d-403c-afe8-46ec66890020","ios":"levelo://app?vid=bfc337af-2b4d-403c-afe8-46ec66890020"},"vehicle_type_id":"4","last_reported":1747923019,"current_range_meters":8400,"station_id":"ce4bhm92rcd13ifvqglg","pricing_plan_id":"cebpf4jnsgd1na2vs0mg"},{"bike_id":"2f34c329-54fe-438b-a307-b47c6ac8481c","system_id":"levelo_inurba_marseille","lat":43.29909,"lon":5.43677,"is_reserved":false,"is_disabled":false,"rental_uris":{"android":"levelo://app?vid=2f34c329-54fe-438b-a307-b47c6ac8481c","ios":"levelo://app?vid=2f34c329-54fe-438b-a307-b47c6ac8481c"},"vehicle_type_id":"4","last_reported":1747923019,"current_range_meters":8400,"station_id":"ce4bhpp2rcd13ifvqhfg","pricing_plan_id":"cebpf4jnsgd1na2vs0mg"},{"bike_id":"eb6c6849-85ec-425b-bbf2-a1c4f9f30636","system_id":"levelo_inurba_marseille","lat":43.28215,"lon":5.39052,"is_reserved":false,"is_disabled":false,"rental_uris":{"android":"levelo://app?vid=eb6c6849-85ec-425b-bbf2-a1c4f9f30636","ios":"levelo://app?vid=eb6c6849-85ec-425b-bbf2-a1c4f9f30636"},"vehicle_type_id":"4","last_reported":1747923019,"current_range_meters":8800,"station_id":"","pricing_plan_id":"cebpf4jnsgd1na2vs0mg"},{"bike_id":"4d220435-47a8-4d82-80db-a1284cf3e4c5","system_id":"levelo_inurba_marseille","lat":43.28657,"lon":5.38776,"is_reserved":false,"is_disabled":false,"rental_uris":{"android":"levelo://app?vid=4d220435-47a8-4d82-80db-a1284cf3e4c5","ios":"levelo://app?vid=4d220435-47a8-4d82-80db-a1284cf3e4c5"},"vehicle_type_id":"4","last_reported":1747923019,"current_range_meters":8800,"station_id":"","pricing_plan_id":"cebpf4jnsgd1na2vs0mg"},{"bike_id":"b91980aa-60ff-467c-bd75-7d53cde9d475","system_id":"levelo_inurba_marseille","lat":43.2511,"lon":5.40308,"is_reserved":false,"is_disabled":false,"rental_uris":{"android":"levelo://app?vid=b91980aa-60ff-467c-bd75-7d53cde9d475","ios":"levelo://app?vid=b91980aa-60ff-467c-bd75-7d53cde9d475"},"vehicle_type_id":"4","last_reported":1747923019,"current_range_meters":8800,"station_id":"ce4bhlh2rcd13ifvqgig","pricing_plan_id":"cebpf4jnsgd1na2vs0mg"},{"bike_id":"7b4a23c6-3977-4027-a63d-c6b460f4cbbb","system_id":"levelo_inurba_marseille","lat":43.25095,"lon":5.39533,"is_reserved":false,"is_disabled":false,"rental_uris":{"android":"levelo://app?vid=7b4a23c6-3977-4027-a63d-c6b460f4cbbb","ios":"levelo://app?vid=7b4a23c6-3977-4027-a63d-c6b460f4cbbb"},"vehicle_type_id":"4","last_reported":1747923019,"current_range_meters":8800,"station_id":"ce4bhm12rcd13ifvqgkg","pricing_plan_id":"cebpf4jnsgd1na2vs0mg"},{"bike_id":"19ad6a04-9891-49cf-8d05-7dde295fdcc2","system_id":"levelo_inurba_marseille","lat":43.279975,"lon":5.400113,"is_reserved":false,"is_disabled":false,"rental_uris":{"android":"levelo://app?vid=19ad6a04-9891-49cf-8d05-7dde295fdcc2","ios":"levelo://app?vid=19ad6a04-9891-49cf-8d05-7dde295fdcc2"},"vehicle_type_id":"4","last_reported":1747923019,"current_range_meters":8800,"station_id":"ce4bho92rcd13ifvqh4g","pricing_plan_id":"cebpf4jnsgd1na2vs0mg"},{"bike_id":"14feda73-7baf-4b64-8ae9-79f4fe7d4a5f","system_id":"levelo_inurba_marseille","lat":43.323564,"lon":5.367464,"is_reserved":false,"is_disabled":false,"rental_uris":{"android":"levelo://app?vid=14feda73-7baf-4b64-8ae9-79f4fe7d4a5f","ios":"levelo://app?vid=14feda73-7baf-4b64-8ae9-79f4fe7d4a5f"},"vehicle_type_id":"4","last_reported":1747923019,"current_range_meters":8800,"station_id":"ce4bhsh2rcd13ifvqi2g","pricing_plan_id":"cebpf4jnsgd1na2vs0mg"},{"bike_id":"e556f496-5a3c-4193-8a6e-47c89f34776d","system_id":"levelo_inurba_marseille","lat":43.289104,"lon":5.378186,"is_reserved":false,"is_disabled":false,"rental_uris":{"android":"levelo://app?vid=e556f496-5a3c-4193-8a6e-47c89f34776d","ios":"levelo://app?vid=e556f496-5a3c-4193-8a6e-47c89f34776d"},"vehicle_type_id":"4","last_reported":1747923019,"current_range_meters":9200,"station_id":"","pricing_plan_id":"cebpf4jnsgd1na2vs0mg"},{"bike_id":"546889c4-d9bc-4c6d-8af4-7b46622dc2ff","system_id":"levelo_inurba_marseille","lat":43.28494,"lon":5.38558,"is_reserved":false,"is_disabled":false,"rental_uris":{"android":"levelo://app?vid=546889c4-d9bc-4c6d-8af4-7b46622dc2ff","ios":"levelo://app?vid=546889c4-d9bc-4c6d-8af4-7b46622dc2ff"},"vehicle_type_id":"4","last_reported":1747923019,"current_range_meters":9200,"station_id":"ce4bh8p2rcd13ifvqeb0","pricing_plan_id":"cebpf4jnsgd1na2vs0mg"},{"bike_id":"2f6d3903-6414-426a-bdc1-7b07009de06f","system_id":"levelo_inurba_marseille","lat":43.25009,"lon":5.38974,"is_reserved":false,"is_disabled":false,"rental_uris":{"android":"levelo://app?vid=2f6d3903-6414-426a-bdc1-7b07009de06f","ios":"levelo://app?vid=2f6d3903-6414-426a-bdc1-7b07009de06f"},"vehicle_type_id":"4","last_reported":1747923019,"current_range_meters":9200,"station_id":"ce4bhgp2rcd13ifvqfd0","pricing_plan_id":"cebpf4jnsgd1na2vs0mg"},{"bike_id":"0a4f6754-af95-4dcd-83f2-f30b589ac612","system_id":"levelo_inurba_marseille","lat":43.26482,"lon":5.39548,"is_reserved":false,"is_disabled":false,"rental_uris":{"android":"levelo://app?vid=0a4f6754-af95-4dcd-83f2-f30b589ac612","ios":"levelo://app?vid=0a4f6754-af95-4dcd-83f2-f30b589ac612"},"vehicle_type_id":"4","last_reported":1747923019,"current_range_meters":9200,"station_id":"ce4bhi12rcd13ifvqfq0","pricing_plan_id":"cebpf4jnsgd1na2vs0mg"},{"bike_id":"40082cca-a7a2-4d69-9727-bd72824c6c32","system_id":"levelo_inurba_marseille","lat":43.271762,"lon":5.409935,"is_reserved":false,"is_disabled":false,"rental_uris":{"android":"levelo://app?vid=40082cca-a7a2-4d69-9727-bd72824c6c32","ios":"levelo://app?vid=40082cca-a7a2-4d69-9727-bd72824c6c32"},"vehicle_type_id":"4","last_reported":1747923019,"current_range_meters":9200,"station_id":"ce4bhl12rcd13ifvqgf0","pricing_plan_id":"cebpf4jnsgd1na2vs0mg"},{"bike_id":"f9fb40c0-1fcd-48cb-8e26-3f2dc0fb2451","system_id":"levelo_inurba_marseille","lat":43.33751,"lon":5.37509,"is_reserved":false,"is_disabled":false,"rental_uris":{"android":"levelo://app?vid=f9fb40c0-1fcd-48cb-8e26-3f2dc0fb2451","ios":"levelo://app?vid=f9fb40c0-1fcd-48cb-8e26-3f2dc0fb2451"},"vehicle_type_id":"4","last_reported":1747923019,"current_range_meters":9600,"station_id":"","pricing_plan_id":"cebpf4jnsgd1na2vs0mg"},{"bike_id":"27653dcd-dec9-4f13-b172-8968c20c1725","system_id":"levelo_inurba_marseille","lat":43.23858,"lon":5.43181,"is_reserved":false,"is_disabled":false,"rental_uris":{"android":"levelo://app?vid=27653dcd-dec9-4f13-b172-8968c20c1725","ios":"levelo://app?vid=27653dcd-dec9-4f13-b172-8968c20c1725"},"vehicle_type_id":"4","last_reported":1747923019,"current_range_meters":9600,"station_id":"","pricing_plan_id":"cebpf4jnsgd1na2vs0mg"},{"bike_id":"0fc04741-d3cf-40e2-81d4-c2e04ed1f10c","system_id":"levelo_inurba_marseille","lat":43.25826,"lon":5.39428,"is_reserved":false,"is_disabled":false,"rental_uris":{"android":"levelo://app?vid=0fc04741-d3cf-40e2-81d4-c2e04ed1f10c","ios":"levelo://app?vid=0fc04741-d3cf-40e2-81d4-c2e04ed1f10c"},"vehicle_type_id":"4","last_reported":1747923019,"current_range_meters":9600,"station_id":"ce4bhip2rcd13ifvqft0","pricing_plan_id":"cebpf4jnsgd1na2vs0mg"},{"bike_id":"4d1dee15-b64d-4948-b76e-4235503234d9","system_id":"levelo_inurba_marseille","lat":43.27058,"lon":5.40257,"is_reserved":false,"is_disabled":false,"rental_uris":{"android":"levelo://app?vid=4d1dee15-b64d-4948-b76e-4235503234d9","ios":"levelo://app?vid=4d1dee15-b64d-4948-b76e-4235503234d9"},"vehicle_type_id":"4","last_reported":1747923019,"current_range_meters":9600,"station_id":"ce4bhk92rcd13ifvqgc0","pricing_plan_id":"cebpf4jnsgd1na2vs0mg"},{"bike_id":"971c8a5c-db56-48ea-b476-188519cb0562","system_id":"levelo_inurba_marseille","lat":43.30073,"lon":5.40509,"is_reserved":false,"is_disabled":false,"rental_uris":{"android":"levelo://app?vid=971c8a5c-db56-48ea-b476-188519cb0562","ios":"levelo://app?vid=971c8a5c-db56-48ea-b476-188519cb0562"},"vehicle_type_id":"4","last_reported":1747923019,"current_range_meters":10000,"station_id":"","pricing_plan_id":"cebpf4jnsgd1na2vs0mg"},{"bike_id":"90df5c3e-ebc9-401e-8652-41a438c0bee8","system_id":"levelo_inurba_marseille","lat":43.27369,"lon":5.36259,"is_reserved":false,"is_disabled":false,"rental_uris":{"android":"levelo://app?vid=90df5c3e-ebc9-401e-8652-41a438c0bee8","ios":"levelo://app?vid=90df5c3e-ebc9-401e-8652-41a438c0bee8"},"vehicle_type_id":"4","last_reported":1747923019,"current_range_meters":10000,"station_id":"ce4bhbh2rcd13ifvqeo0","pricing_plan_id":"cebpf4jnsgd1na2vs0mg"},{"bike_id":"7dfdfdc8-9c79-46b6-9a4b-924773b53f29","system_id":"levelo_inurba_marseille","lat":43.26855,"lon":5.39166,"is_reserved":false,"is_disabled":false,"rental_uris":{"android":"levelo://app?vid=7dfdfdc8-9c79-46b6-9a4b-924773b53f29","ios":"levelo://app?vid=7dfdfdc8-9c79-46b6-9a4b-924773b53f29"},"vehicle_type_id":"4","last_reported":1747923019,"current_range_meters":10800,"station_id":"","pricing_plan_id":"cebpf4jnsgd1na2vs0mg"},{"bike_id":"c87f2817-7f53-435a-9b2c-9985876a283f","system_id":"levelo_inurba_marseille","lat":43.29293,"lon":5.37429,"is_reserved":false,"is_disabled":false,"rental_uris":{"android":"levelo://app?vid=c87f2817-7f53-435a-9b2c-9985876a283f","ios":"levelo://app?vid=c87f2817-7f53-435a-9b2c-9985876a283f"},"vehicle_type_id":"4","last_reported":1747923019,"current_range_meters":10800,"station_id":"ce4bgi12rcd13ifvqb70","pricing_plan_id":"cebpf4jnsgd1na2vs0mg"},{"bike_id":"ac8c7c81-6a0e-49a4-a65a-c88eba9d251a","system_id":"levelo_inurba_marseille","lat":43.29853,"lon":5.36287,"is_reserved":false,"is_disabled":false,"rental_uris":{"android":"levelo://app?vid=ac8c7c81-6a0e-49a4-a65a-c88eba9d251a","ios":"levelo://app?vid=ac8c7c81-6a0e-49a4-a65a-c88eba9d251a"},"vehicle_type_id":"4","last_reported":1747923019,"current_range_meters":10800,"station_id":"ce4bgpp2rcd13ifvqc3g","pricing_plan_id":"cebpf4jnsgd1na2vs0mg"},{"bike_id":"0ab7f4e9-a411-47a2-a22a-55d31a55d8d4","system_id":"levelo_inurba_marseille","lat":43.301887,"lon":5.366382,"is_reserved":false,"is_disabled":false,"rental_uris":{"android":"levelo://app?vid=0ab7f4e9-a411-47a2-a22a-55d31a55d8d4","ios":"levelo://app?vid=0ab7f4e9-a411-47a2-a22a-55d31a55d8d4"},"vehicle_type_id":"4","last_reported":1747923019,"current_range_meters":10800,"station_id":"ce4bgrh2rcd13ifvqc8g","pricing_plan_id":"cebpf4jnsgd1na2vs0mg"},{"bike_id":"8397fc52-b6e3-4284-b495-d3397ee0f42f","system_id":"levelo_inurba_marseille","lat":43.29089,"lon":5.38143,"is_reserved":false,"is_disabled":false,"rental_uris":{"android":"levelo://app?vid=8397fc52-b6e3-4284-b495-d3397ee0f42f","ios":"levelo://app?vid=8397fc52-b6e3-4284-b495-d3397ee0f42f"},"vehicle_type_id":"4","last_reported":1747923019,"current_range_meters":10800,"station_id":"ce4bh512rcd13ifvqe2g","pricing_plan_id":"cebpf4jnsgd1na2vs0mg"},{"bike_id":"f083b855-e7cd-43b7-9823-8aad4309f3d0","system_id":"levelo_inurba_marseille","lat":43.29258,"lon":5.38444,"is_reserved":false,"is_disabled":false,"rental_uris":{"android":"levelo://app?vid=f083b855-e7cd-43b7-9823-8aad4309f3d0","ios":"levelo://app?vid=f083b855-e7cd-43b7-9823-8aad4309f3d0"},"vehicle_type_id":"4","last_reported":1747923019,"current_range_meters":10800,"station_id":"ce4bh692rcd13ifvqea0","pricing_plan_id":"cebpf4jnsgd1na2vs0mg"},{"bike_id":"4ad770ab-f129-4de2-889c-7fa4bb24a833","system_id":"levelo_inurba_marseille","lat":43.26944,"lon":5.38662,"is_reserved":false,"is_disabled":false,"rental_uris":{"android":"levelo://app?vid=4ad770ab-f129-4de2-889c-7fa4bb24a833","ios":"levelo://app?vid=4ad770ab-f129-4de2-889c-7fa4bb24a833"},"vehicle_type_id":"4","last_reported":1747923019,"current_range_meters":10800,"station_id":"ce4bhh92rcd13ifvqfh0","pricing_plan_id":"cebpf4jnsgd1na2vs0mg"},{"bike_id":"8a9416d3-2a37-4312-9622-494ce1845d80","system_id":"levelo_inurba_marseille","lat":43.32294,"lon":5.36611,"is_reserved":false,"is_disabled":false,"rental_uris":{"android":"levelo://app?vid=8a9416d3-2a37-4312-9622-494ce1845d80","ios":"levelo://app?vid=8a9416d3-2a37-4312-9622-494ce1845d80"},"vehicle_type_id":"4","last_reported":1747923019,"current_range_meters":10800,"station_id":"ce4bhsh2rcd13ifvqi2g","pricing_plan_id":"cebpf4jnsgd1na2vs0mg"},{"bike_id":"dc832011-03e1-4980-bf31-e805e75f6075","system_id":"levelo_inurba_marseille","lat":43.311218,"lon":5.37774,"is_reserved":false,"is_disabled":false,"rental_uris":{"android":"levelo://app?vid=dc832011-03e1-4980-bf31-e805e75f6075","ios":"levelo://app?vid=dc832011-03e1-4980-bf31-e805e75f6075"},"vehicle_type_id":"4","last_reported":1747923019,"current_range_meters":11200,"station_id":"ce4bgg92rcd13ifvqb30","pricing_plan_id":"cebpf4jnsgd1na2vs0mg"},{"bike_id":"05fa85e3-b298-40c4-8c56-97030d8ca2a9","system_id":"levelo_inurba_marseille","lat":43.29618,"lon":5.37723,"is_reserved":false,"is_disabled":false,"rental_uris":{"android":"levelo://app?vid=05fa85e3-b298-40c4-8c56-97030d8ca2a9","ios":"levelo://app?vid=05fa85e3-b298-40c4-8c56-97030d8ca2a9"},"vehicle_type_id":"4","last_reported":1747923019,"current_range_meters":11200,"station_id":"ce4bgi92rcd13ifvqb90","pricing_plan_id":"cebpf4jnsgd1na2vs0mg"},{"bike_id":"da949871-a86c-4ff6-8e1a-4e73cfde2a4d","system_id":"levelo_inurba_marseille","lat":43.29604,"lon":5.38101,"is_reserved":false,"is_disabled":false,"rental_uris":{"android":"levelo://app?vid=da949871-a86c-4ff6-8e1a-4e73cfde2a4d","ios":"levelo://app?vid=da949871-a86c-4ff6-8e1a-4e73cfde2a4d"},"vehicle_type_id":"4","last_reported":1747923019,"current_range_meters":11200,"station_id":"ce4bgl12rcd13ifvqbo0","pricing_plan_id":"cebpf4jnsgd1na2vs0mg"},{"bike_id":"52b6d238-350c-41fa-8063-b84708a0201b","system_id":"levelo_inurba_marseille","lat":43.31694,"lon":5.40484,"is_reserved":false,"is_disabled":false,"rental_uris":{"android":"levelo://app?vid=52b6d238-350c-41fa-8063-b84708a0201b","ios":"levelo://app?vid=52b6d238-350c-41fa-8063-b84708a0201b"},"vehicle_type_id":"4","last_reported":1747923019,"current_range_meters":11200,"station_id":"ce4bh012rcd13ifvqd00","pricing_plan_id":"cebpf4jnsgd1na2vs0mg"},{"bike_id":"073e72cd-4403-4000-a74e-ca38c5b4d6da","system_id":"levelo_inurba_marseille","lat":43.32483,"lon":5.36568,"is_reserved":false,"is_disabled":false,"rental_uris":{"android":"levelo://app?vid=073e72cd-4403-4000-a74e-ca38c5b4d6da","ios":"levelo://app?vid=073e72cd-4403-4000-a74e-ca38c5b4d6da"},"vehicle_type_id":"4","last_reported":1747923019,"current_range_meters":11200,"station_id":"ce4bhs12rcd13ifvqhvg","pricing_plan_id":"cebpf4jnsgd1na2vs0mg"},{"bike_id":"e75389f6-919f-4165-ae31-bdd131757190","system_id":"levelo_inurba_marseille","lat":43.307351,"lon":5.424355,"is_reserved":false,"is_disabled":false,"rental_uris":{"android":"levelo://app?vid=e75389f6-919f-4165-ae31-bdd131757190","ios":"levelo://app?vid=e75389f6-919f-4165-ae31-bdd131757190"},"vehicle_type_id":"4","last_reported":1747923019,"current_range_meters":11200,"station_id":"st_cvj6ca6bvosntc0bfgr0","pricing_plan_id":"cebpf4jnsgd1na2vs0mg"},{"bike_id":"b034088a-4329-46b1-9b7d-635eec733cbb","system_id":"levelo_inurba_marseille","lat":43.26764,"lon":5.39445,"is_reserved":false,"is_disabled":false,"rental_uris":{"android":"levelo://app?vid=b034088a-4329-46b1-9b7d-635eec733cbb","ios":"levelo://app?vid=b034088a-4329-46b1-9b7d-635eec733cbb"},"vehicle_type_id":"4","last_reported":1747923019,"current_range_meters":11600,"station_id":"","pricing_plan_id":"cebpf4jnsgd1na2vs0mg"},{"bike_id":"48f0e6bf-b0e4-40d6-8115-e60ff9f1bc93","system_id":"levelo_inurba_marseille","lat":43.26784,"lon":5.39407,"is_reserved":false,"is_disabled":false,"rental_uris":{"android":"levelo://app?vid=48f0e6bf-b0e4-40d6-8115-e60ff9f1bc93","ios":"levelo://app?vid=48f0e6bf-b0e4-40d6-8115-e60ff9f1bc93"},"vehicle_type_id":"4","last_reported":1747923019,"current_range_meters":11600,"station_id":"ce4bhh12rcd13ifvqfg0","pricing_plan_id":"cebpf4jnsgd1na2vs0mg"},{"bike_id":"ebe1c4f5-f154-44f9-b1d4-0b7c8a38d46d","system_id":"levelo_inurba_marseille","lat":43.2512,"lon":5.4032,"is_reserved":false,"is_disabled":false,"rental_uris":{"android":"levelo://app?vid=ebe1c4f5-f154-44f9-b1d4-0b7c8a38d46d","ios":"levelo://app?vid=ebe1c4f5-f154-44f9-b1d4-0b7c8a38d46d"},"vehicle_type_id":"4","last_reported":1747923019,"current_range_meters":11600,"station_id":"ce4bhlh2rcd13ifvqgig","pricing_plan_id":"cebpf4jnsgd1na2vs0mg"},{"bike_id":"de0fb914-815f-496e-b265-257c322a0437","system_id":"levelo_inurba_marseille","lat":43.26551,"lon":5.37301,"is_reserved":false,"is_disabled":false,"rental_uris":{"android":"levelo://app?vid=de0fb914-815f-496e-b265-257c322a0437","ios":"levelo://app?vid=de0fb914-815f-496e-b265-257c322a0437"},"vehicle_type_id":"4","last_reported":1747923019,"current_range_meters":12000,"station_id":"ce4bhg12rcd13ifvqf70","pricing_plan_id":"cebpf4jnsgd1na2vs0mg"},{"bike_id":"97cefe16-8a9e-44aa-b4cb-d578d05e2968","system_id":"levelo_inurba_marseille","lat":43.268045,"lon":5.402653,"is_reserved":false,"is_disabled":false,"rental_uris":{"android":"levelo://app?vid=97cefe16-8a9e-44aa-b4cb-d578d05e2968","ios":"levelo://app?vid=97cefe16-8a9e-44aa-b4cb-d578d05e2968"},"vehicle_type_id":"4","last_reported":1747923019,"current_range_meters":12000,"station_id":"ce501612rcd8frsf0b60","pricing_plan_id":"cebpf4jnsgd1na2vs0mg"},{"bike_id":"d8ef93ab-6594-4205-bec9-cbf07e2aa23e","system_id":"levelo_inurba_marseille","lat":43.24171,"lon":5.36398,"is_reserved":false,"is_disabled":false,"rental_uris":{"android":"levelo://app?vid=d8ef93ab-6594-4205-bec9-cbf07e2aa23e","ios":"levelo://app?vid=d8ef93ab-6594-4205-bec9-cbf07e2aa23e"},"vehicle_type_id":"4","last_reported":1747923019,"current_range_meters":12000,"station_id":"cpo36qri1sfpv3e86is0","pricing_plan_id":"cebpf4jnsgd1na2vs0mg"},{"bike_id":"3421e12d-d1f8-431d-a79d-34a15ff50be1","system_id":"levelo_inurba_marseille","lat":43.296227,"lon":5.377224,"is_reserved":false,"is_disabled":false,"rental_uris":{"android":"levelo://app?vid=3421e12d-d1f8-431d-a79d-34a15ff50be1","ios":"levelo://app?vid=3421e12d-d1f8-431d-a79d-34a15ff50be1"},"vehicle_type_id":"4","last_reported":1747923019,"current_range_meters":12400,"station_id":"ce4bgi92rcd13ifvqb90","pricing_plan_id":"cebpf4jnsgd1na2vs0mg"},{"bike_id":"e015743e-cdd5-445a-b0e7-b5e96aa2b287","system_id":"levelo_inurba_marseille","lat":43.2762,"lon":5.36108,"is_reserved":false,"is_disabled":false,"rental_uris":{"android":"levelo://app?vid=e015743e-cdd5-445a-b0e7-b5e96aa2b287","ios":"levelo://app?vid=e015743e-cdd5-445a-b0e7-b5e96aa2b287"},"vehicle_type_id":"4","last_reported":1747923019,"current_range_meters":12400,"station_id":"ce4bgj92rcd13ifvqbe0","pricing_plan_id":"cebpf4jnsgd1na2vs0mg"},{"bike_id":"6b5259c2-a375-4f50-bc88-9993a6d6bf2f","system_id":"levelo_inurba_marseille","lat":43.3054,"lon":5.36555,"is_reserved":false,"is_disabled":false,"rental_uris":{"android":"levelo://app?vid=6b5259c2-a375-4f50-bc88-9993a6d6bf2f","ios":"levelo://app?vid=6b5259c2-a375-4f50-bc88-9993a6d6bf2f"},"vehicle_type_id":"4","last_reported":1747923019,"current_range_meters":12400,"station_id":"ce4bgs12rcd13ifvqcag","pricing_plan_id":"cebpf4jnsgd1na2vs0mg"},{"bike_id":"0c9c37dc-cc32-495f-9abc-ae0b3dee9e46","system_id":"levelo_inurba_marseille","lat":43.31491,"lon":5.37307,"is_reserved":false,"is_disabled":false,"rental_uris":{"android":"levelo://app?vid=0c9c37dc-cc32-495f-9abc-ae0b3dee9e46","ios":"levelo://app?vid=0c9c37dc-cc32-495f-9abc-ae0b3dee9e46"},"vehicle_type_id":"4","last_reported":1747923019,"current_range_meters":12400,"station_id":"ce4bgt12rcd13ifvqcd0","pricing_plan_id":"cebpf4jnsgd1na2vs0mg"},{"bike_id":"14cd31f7-17a5-41a0-aebd-3af127b309f0","system_id":"levelo_inurba_marseille","lat":43.30095,"lon":5.39075,"is_reserved":false,"is_disabled":false,"rental_uris":{"android":"levelo://app?vid=14cd31f7-17a5-41a0-aebd-3af127b309f0","ios":"levelo://app?vid=14cd31f7-17a5-41a0-aebd-3af127b309f0"},"vehicle_type_id":"4","last_reported":1747923019,"current_range_meters":12400,"station_id":"ce4bh192rcd13ifvqdb0","pricing_plan_id":"cebpf4jnsgd1na2vs0mg"},{"bike_id":"1c1dc960-9be2-4f0c-9e1e-b4ca0afbf496","system_id":"levelo_inurba_marseille","lat":43.25119,"lon":5.40319,"is_reserved":false,"is_disabled":false,"rental_uris":{"android":"levelo://app?vid=1c1dc960-9be2-4f0c-9e1e-b4ca0afbf496","ios":"levelo://app?vid=1c1dc960-9be2-4f0c-9e1e-b4ca0afbf496"},"vehicle_type_id":"4","last_reported":1747923019,"current_range_meters":12400,"station_id":"ce4bhlh2rcd13ifvqgig","pricing_plan_id":"cebpf4jnsgd1na2vs0mg"},{"bike_id":"1ffa4ea1-507a-49b9-a539-9512af9b9041","system_id":"levelo_inurba_marseille","lat":43.299,"lon":5.43667,"is_reserved":false,"is_disabled":false,"rental_uris":{"android":"levelo://app?vid=1ffa4ea1-507a-49b9-a539-9512af9b9041","ios":"levelo://app?vid=1ffa4ea1-507a-49b9-a539-9512af9b9041"},"vehicle_type_id":"4","last_reported":1747923019,"current_range_meters":12400,"station_id":"ce4bhpp2rcd13ifvqhfg","pricing_plan_id":"cebpf4jnsgd1na2vs0mg"},{"bike_id":"ff682718-3c40-438f-8818-54f636f0b2a3","system_id":"levelo_inurba_marseille","lat":43.30146,"lon":5.37422,"is_reserved":false,"is_disabled":false,"rental_uris":{"android":"levelo://app?vid=ff682718-3c40-438f-8818-54f636f0b2a3","ios":"levelo://app?vid=ff682718-3c40-438f-8818-54f636f0b2a3"},"vehicle_type_id":"4","last_reported":1747923019,"current_range_meters":12800,"station_id":"ce4bgs92rcd13ifvqcc0","pricing_plan_id":"cebpf4jnsgd1na2vs0mg"},{"bike_id":"a00ade21-ef66-4170-a289-02382261065a","system_id":"levelo_inurba_marseille","lat":43.31492,"lon":5.37291,"is_reserved":false,"is_disabled":false,"rental_uris":{"android":"levelo://app?vid=a00ade21-ef66-4170-a289-02382261065a","ios":"levelo://app?vid=a00ade21-ef66-4170-a289-02382261065a"},"vehicle_type_id":"4","last_reported":1747923019,"current_range_meters":12800,"station_id":"ce4bgt12rcd13ifvqcd0","pricing_plan_id":"cebpf4jnsgd1na2vs0mg"},{"bike_id":"7a5bbfb1-dafb-4777-8f4b-4b1e0e7c5d19","system_id":"levelo_inurba_marseille","lat":43.27378,"lon":5.36253,"is_reserved":false,"is_disabled":false,"rental_uris":{"android":"levelo://app?vid=7a5bbfb1-dafb-4777-8f4b-4b1e0e7c5d19","ios":"levelo://app?vid=7a5bbfb1-dafb-4777-8f4b-4b1e0e7c5d19"},"vehicle_type_id":"4","last_reported":1747923019,"current_range_meters":12800,"station_id":"ce4bhbh2rcd13ifvqeo0","pricing_plan_id":"cebpf4jnsgd1na2vs0mg"},{"bike_id":"d7e0b948-8e13-4499-9f1f-6ae9f7d6bb06","system_id":"levelo_inurba_marseille","lat":43.26779,"lon":5.39412,"is_reserved":false,"is_disabled":false,"rental_uris":{"android":"levelo://app?vid=d7e0b948-8e13-4499-9f1f-6ae9f7d6bb06","ios":"levelo://app?vid=d7e0b948-8e13-4499-9f1f-6ae9f7d6bb06"},"vehicle_type_id":"4","last_reported":1747923019,"current_range_meters":12800,"station_id":"ce4bhh12rcd13ifvqfg0","pricing_plan_id":"cebpf4jnsgd1na2vs0mg"},{"bike_id":"e2fb855a-6930-43c2-9392-96ef711af040","system_id":"levelo_inurba_marseille","lat":43.23963,"lon":5.3663,"is_reserved":false,"is_disabled":false,"rental_uris":{"android":"levelo://app?vid=e2fb855a-6930-43c2-9392-96ef711af040","ios":"levelo://app?vid=e2fb855a-6930-43c2-9392-96ef711af040"},"vehicle_type_id":"4","last_reported":1747923019,"current_range_meters":12800,"station_id":"ce4bhi12rcd13ifvqfp0","pricing_plan_id":"cebpf4jnsgd1na2vs0mg"},{"bike_id":"ea80e29c-5504-4205-96f0-9438bfe0f3c6","system_id":"levelo_inurba_marseille","lat":43.28436,"lon":5.39183,"is_reserved":false,"is_disabled":false,"rental_uris":{"android":"levelo://app?vid=ea80e29c-5504-4205-96f0-9438bfe0f3c6","ios":"levelo://app?vid=ea80e29c-5504-4205-96f0-9438bfe0f3c6"},"vehicle_type_id":"4","last_reported":1747923019,"current_range_meters":12800,"station_id":"ce4bhoh2rcd13ifvqh5g","pricing_plan_id":"cebpf4jnsgd1na2vs0mg"},{"bike_id":"38dc466e-417a-4036-b85e-27c0642ee6d5","system_id":"levelo_inurba_marseille","lat":43.26858,"lon":5.40268,"is_reserved":false,"is_disabled":false,"rental_uris":{"android":"levelo://app?vid=38dc466e-417a-4036-b85e-27c0642ee6d5","ios":"levelo://app?vid=38dc466e-417a-4036-b85e-27c0642ee6d5"},"vehicle_type_id":"4","last_reported":1747923019,"current_range_meters":12800,"station_id":"ce501612rcd8frsf0b60","pricing_plan_id":"cebpf4jnsgd1na2vs0mg"},{"bike_id":"9ed434cc-85f3-4e41-90d1-b4e7ce899749","system_id":"levelo_inurba_marseille","lat":43.2175,"lon":5.34602,"is_reserved":false,"is_disabled":false,"rental_uris":{"android":"levelo://app?vid=9ed434cc-85f3-4e41-90d1-b4e7ce899749","ios":"levelo://app?vid=9ed434cc-85f3-4e41-90d1-b4e7ce899749"},"vehicle_type_id":"4","last_reported":1747923019,"current_range_meters":12800,"station_id":"st_cvj6r9ubvosntc0bgbag","pricing_plan_id":"cebpf4jnsgd1na2vs0mg"},{"bike_id":"f9223343-51dd-4eb0-a255-7d7bd8e5d0ef","system_id":"levelo_inurba_marseille","lat":43.31203,"lon":5.40157,"is_reserved":false,"is_disabled":false,"rental_uris":{"android":"levelo://app?vid=f9223343-51dd-4eb0-a255-7d7bd8e5d0ef","ios":"levelo://app?vid=f9223343-51dd-4eb0-a255-7d7bd8e5d0ef"},"vehicle_type_id":"4","last_reported":1747923019,"current_range_meters":13600,"station_id":"","pricing_plan_id":"cebpf4jnsgd1na2vs0mg"},{"bike_id":"27df3d17-b91f-435e-a933-0fb37222aa50","system_id":"levelo_inurba_marseille","lat":43.29721,"lon":5.36587,"is_reserved":false,"is_disabled":false,"rental_uris":{"android":"levelo://app?vid=27df3d17-b91f-435e-a933-0fb37222aa50","ios":"levelo://app?vid=27df3d17-b91f-435e-a933-0fb37222aa50"},"vehicle_type_id":"4","last_reported":1747923019,"current_range_meters":13600,"station_id":"ce4bgn12rcd13ifvqbt0","pricing_plan_id":"cebpf4jnsgd1na2vs0mg"},{"bike_id":"d0c51f2c-c787-47da-9754-e407ad5b920f","system_id":"levelo_inurba_marseille","lat":43.31488,"lon":5.37304,"is_reserved":false,"is_disabled":false,"rental_uris":{"android":"levelo://app?vid=d0c51f2c-c787-47da-9754-e407ad5b920f","ios":"levelo://app?vid=d0c51f2c-c787-47da-9754-e407ad5b920f"},"vehicle_type_id":"4","last_reported":1747923019,"current_range_meters":13600,"station_id":"ce4bgt12rcd13ifvqcd0","pricing_plan_id":"cebpf4jnsgd1na2vs0mg"},{"bike_id":"6c12e4b0-315d-44d4-8ffe-7bde92b225b4","system_id":"levelo_inurba_marseille","lat":43.30805,"lon":5.38156,"is_reserved":false,"is_disabled":false,"rental_uris":{"android":"levelo://app?vid=6c12e4b0-315d-44d4-8ffe-7bde92b225b4","ios":"levelo://app?vid=6c12e4b0-315d-44d4-8ffe-7bde92b225b4"},"vehicle_type_id":"4","last_reported":1747923019,"current_range_meters":13600,"station_id":"ce4bgt12rcd13ifvqce0","pricing_plan_id":"cebpf4jnsgd1na2vs0mg"},{"bike_id":"d038b2f4-4583-42a5-bf9b-0b8ae05834c7","system_id":"levelo_inurba_marseille","lat":43.29636,"lon":5.40598,"is_reserved":false,"is_disabled":false,"rental_uris":{"android":"levelo://app?vid=d038b2f4-4583-42a5-bf9b-0b8ae05834c7","ios":"levelo://app?vid=d038b2f4-4583-42a5-bf9b-0b8ae05834c7"},"vehicle_type_id":"4","last_reported":1747923019,"current_range_meters":13600,"station_id":"ce4bh0h2rcd13ifvqd60","pricing_plan_id":"cebpf4jnsgd1na2vs0mg"},{"bike_id":"cd264909-85d0-474c-afac-f3f326ea8419","system_id":"levelo_inurba_marseille","lat":43.30908,"lon":5.36856,"is_reserved":false,"is_disabled":false,"rental_uris":{"android":"levelo://app?vid=cd264909-85d0-474c-afac-f3f326ea8419","ios":"levelo://app?vid=cd264909-85d0-474c-afac-f3f326ea8419"},"vehicle_type_id":"4","last_reported":1747923019,"current_range_meters":14000,"station_id":"ce4bgn92rcd13ifvqbvg","pricing_plan_id":"cebpf4jnsgd1na2vs0mg"},{"bike_id":"acb26d11-9bd5-4a6a-8b36-aa3125ba143a","system_id":"levelo_inurba_marseille","lat":43.246613,"lon":5.381643,"is_reserved":false,"is_disabled":false,"rental_uris":{"android":"levelo://app?vid=acb26d11-9bd5-4a6a-8b36-aa3125ba143a","ios":"levelo://app?vid=acb26d11-9bd5-4a6a-8b36-aa3125ba143a"},"vehicle_type_id":"4","last_reported":1747923019,"current_range_meters":14000,"station_id":"ce4bhih2rcd13ifvqfr0","pricing_plan_id":"cebpf4jnsgd1na2vs0mg"},{"bike_id":"c32644d1-9a68-4cff-ae28-0642101c8c06","system_id":"levelo_inurba_marseille","lat":43.28448,"lon":5.39204,"is_reserved":false,"is_disabled":false,"rental_uris":{"android":"levelo://app?vid=c32644d1-9a68-4cff-ae28-0642101c8c06","ios":"levelo://app?vid=c32644d1-9a68-4cff-ae28-0642101c8c06"},"vehicle_type_id":"4","last_reported":1747923019,"current_range_meters":14000,"station_id":"ce4bhoh2rcd13ifvqh5g","pricing_plan_id":"cebpf4jnsgd1na2vs0mg"},{"bike_id":"fce99fc9-87d6-4554-a296-1a9ea30dfd16","system_id":"levelo_inurba_marseille","lat":43.25737,"lon":5.41188,"is_reserved":false,"is_disabled":false,"rental_uris":{"android":"levelo://app?vid=fce99fc9-87d6-4554-a296-1a9ea30dfd16","ios":"levelo://app?vid=fce99fc9-87d6-4554-a296-1a9ea30dfd16"},"vehicle_type_id":"4","last_reported":1747923019,"current_range_meters":14400,"station_id":"","pricing_plan_id":"cebpf4jnsgd1na2vs0mg"},{"bike_id":"7da06f34-e019-4b18-921d-8f77e54cc2f1","system_id":"levelo_inurba_marseille","lat":43.2491,"lon":5.39421,"is_reserved":false,"is_disabled":false,"rental_uris":{"android":"levelo://app?vid=7da06f34-e019-4b18-921d-8f77e54cc2f1","ios":"levelo://app?vid=7da06f34-e019-4b18-921d-8f77e54cc2f1"},"vehicle_type_id":"4","last_reported":1747923019,"current_range_meters":14400,"station_id":"","pricing_plan_id":"cebpf4jnsgd1na2vs0mg"},{"bike_id":"12f83e4a-0f8f-4361-8bc7-48bcd17d7a3c","system_id":"levelo_inurba_marseille","lat":43.3169,"lon":5.40475,"is_reserved":false,"is_disabled":false,"rental_uris":{"android":"levelo://app?vid=12f83e4a-0f8f-4361-8bc7-48bcd17d7a3c","ios":"levelo://app?vid=12f83e4a-0f8f-4361-8bc7-48bcd17d7a3c"},"vehicle_type_id":"4","last_reported":1747923019,"current_range_meters":14400,"station_id":"ce4bh012rcd13ifvqd00","pricing_plan_id":"cebpf4jnsgd1na2vs0mg"},{"bike_id":"f1b9a0a8-e2a4-4d08-a8d7-59d963185764","system_id":"levelo_inurba_marseille","lat":43.28931,"lon":5.36628,"is_reserved":false,"is_disabled":false,"rental_uris":{"android":"levelo://app?vid=f1b9a0a8-e2a4-4d08-a8d7-59d963185764","ios":"levelo://app?vid=f1b9a0a8-e2a4-4d08-a8d7-59d963185764"},"vehicle_type_id":"4","last_reported":1747923019,"current_range_meters":14400,"station_id":"ce4bhap2rcd13ifvqek0","pricing_plan_id":"cebpf4jnsgd1na2vs0mg"},{"bike_id":"84f00b51-2429-41be-8a43-83978d7764de","system_id":"levelo_inurba_marseille","lat":43.27991,"lon":5.40047,"is_reserved":false,"is_disabled":false,"rental_uris":{"android":"levelo://app?vid=84f00b51-2429-41be-8a43-83978d7764de","ios":"levelo://app?vid=84f00b51-2429-41be-8a43-83978d7764de"},"vehicle_type_id":"4","last_reported":1747923019,"current_range_meters":14400,"station_id":"ce4bho92rcd13ifvqh4g","pricing_plan_id":"cebpf4jnsgd1na2vs0mg"},{"bike_id":"eb868a2e-29df-45d5-a6fe-291b5a5f86a4","system_id":"levelo_inurba_marseille","lat":43.23158,"lon":5.43705,"is_reserved":false,"is_disabled":false,"rental_uris":{"android":"levelo://app?vid=eb868a2e-29df-45d5-a6fe-291b5a5f86a4","ios":"levelo://app?vid=eb868a2e-29df-45d5-a6fe-291b5a5f86a4"},"vehicle_type_id":"4","last_reported":1747923019,"current_range_meters":14800,"station_id":"","pricing_plan_id":"cebpf4jnsgd1na2vs0mg"},{"bike_id":"e77b9d43-a803-4f5c-912a-7a91f5e7da59","system_id":"levelo_inurba_marseille","lat":43.2842,"lon":5.34992,"is_reserved":false,"is_disabled":false,"rental_uris":{"android":"levelo://app?vid=e77b9d43-a803-4f5c-912a-7a91f5e7da59","ios":"levelo://app?vid=e77b9d43-a803-4f5c-912a-7a91f5e7da59"},"vehicle_type_id":"4","last_reported":1747923019,"current_range_meters":14800,"station_id":"ce4bhbh2rcd13ifvqepg","pricing_plan_id":"cebpf4jnsgd1na2vs0mg"},{"bike_id":"e7c8cc89-f1fd-4b27-ae8c-206dbef44dff","system_id":"levelo_inurba_marseille","lat":43.26562,"lon":5.37287,"is_reserved":false,"is_disabled":false,"rental_uris":{"android":"levelo://app?vid=e7c8cc89-f1fd-4b27-ae8c-206dbef44dff","ios":"levelo://app?vid=e7c8cc89-f1fd-4b27-ae8c-206dbef44dff"},"vehicle_type_id":"4","last_reported":1747923019,"current_range_meters":14800,"station_id":"ce4bhg12rcd13ifvqf70","pricing_plan_id":"cebpf4jnsgd1na2vs0mg"},{"bike_id":"c9d59f3b-c1fb-42b1-ab59-4f2ff4359a3c","system_id":"levelo_inurba_marseille","lat":43.26966,"lon":5.38651,"is_reserved":false,"is_disabled":false,"rental_uris":{"android":"levelo://app?vid=c9d59f3b-c1fb-42b1-ab59-4f2ff4359a3c","ios":"levelo://app?vid=c9d59f3b-c1fb-42b1-ab59-4f2ff4359a3c"},"vehicle_type_id":"4","last_reported":1747923019,"current_range_meters":14800,"station_id":"ce4bhh92rcd13ifvqfh0","pricing_plan_id":"cebpf4jnsgd1na2vs0mg"},{"bike_id":"e3e19b90-9823-4b53-b8a7-4c599b3176c2","system_id":"levelo_inurba_marseille","lat":43.25106,"lon":5.40353,"is_reserved":false,"is_disabled":false,"rental_uris":{"android":"levelo://app?vid=e3e19b90-9823-4b53-b8a7-4c599b3176c2","ios":"levelo://app?vid=e3e19b90-9823-4b53-b8a7-4c599b3176c2"},"vehicle_type_id":"4","last_reported":1747923019,"current_range_meters":14800,"station_id":"ce4bhlh2rcd13ifvqgig","pricing_plan_id":"cebpf4jnsgd1na2vs0mg"},{"bike_id":"099f4a13-c8e8-4934-a018-18074c742431","system_id":"levelo_inurba_marseille","lat":43.24081,"lon":5.37755,"is_reserved":false,"is_disabled":false,"rental_uris":{"android":"levelo://app?vid=099f4a13-c8e8-4934-a018-18074c742431","ios":"levelo://app?vid=099f4a13-c8e8-4934-a018-18074c742431"},"vehicle_type_id":"4","last_reported":1747923019,"current_range_meters":14800,"station_id":"ce4bhnp2rcd13ifvqgvg","pricing_plan_id":"cebpf4jnsgd1na2vs0mg"},{"bike_id":"a30e9205-cc02-4dfc-aaaa-7ec0a8cd3df5","system_id":"levelo_inurba_marseille","lat":43.32339,"lon":5.40619,"is_reserved":false,"is_disabled":false,"rental_uris":{"android":"levelo://app?vid=a30e9205-cc02-4dfc-aaaa-7ec0a8cd3df5","ios":"levelo://app?vid=a30e9205-cc02-4dfc-aaaa-7ec0a8cd3df5"},"vehicle_type_id":"4","last_reported":1747923019,"current_range_meters":14800,"station_id":"ce4bhq92rcd13ifvqhjg","pricing_plan_id":"cebpf4jnsgd1na2vs0mg"},{"bike_id":"b89f4ef8-c336-4e96-9d7a-07e3da3288cc","system_id":"levelo_inurba_marseille","lat":43.299227,"lon":5.374753,"is_reserved":false,"is_disabled":false,"rental_uris":{"android":"levelo://app?vid=b89f4ef8-c336-4e96-9d7a-07e3da3288cc","ios":"levelo://app?vid=b89f4ef8-c336-4e96-9d7a-07e3da3288cc"},"vehicle_type_id":"4","last_reported":1747923019,"current_range_meters":15200,"station_id":"ce4bgjh2rcd13ifvqbg0","pricing_plan_id":"cebpf4jnsgd1na2vs0mg"},{"bike_id":"64e8d141-7d8b-48cf-90b9-b154ac715691","system_id":"levelo_inurba_marseille","lat":43.29755,"lon":5.38097,"is_reserved":false,"is_disabled":false,"rental_uris":{"android":"levelo://app?vid=64e8d141-7d8b-48cf-90b9-b154ac715691","ios":"levelo://app?vid=64e8d141-7d8b-48cf-90b9-b154ac715691"},"vehicle_type_id":"4","last_reported":1747923019,"current_range_meters":16000,"station_id":"","pricing_plan_id":"cebpf4jnsgd1na2vs0mg"},{"bike_id":"d5c22bd8-bd85-4efe-9877-d80e379dde93","system_id":"levelo_inurba_marseille","lat":43.30267,"lon":5.37728,"is_reserved":false,"is_disabled":false,"rental_uris":{"android":"levelo://app?vid=d5c22bd8-bd85-4efe-9877-d80e379dde93","ios":"levelo://app?vid=d5c22bd8-bd85-4efe-9877-d80e379dde93"},"vehicle_type_id":"4","last_reported":1747923019,"current_range_meters":16000,"station_id":"ce4bguh2rcd13ifvqcj0","pricing_plan_id":"cebpf4jnsgd1na2vs0mg"},{"bike_id":"deb43f22-394e-43c7-b785-ced7d46267ba","system_id":"levelo_inurba_marseille","lat":43.280421,"lon":5.369341,"is_reserved":false,"is_disabled":false,"rental_uris":{"android":"levelo://app?vid=deb43f22-394e-43c7-b785-ced7d46267ba","ios":"levelo://app?vid=deb43f22-394e-43c7-b785-ced7d46267ba"},"vehicle_type_id":"4","last_reported":1747923019,"current_range_meters":16000,"station_id":"ce4bha12rcd13ifvqef0","pricing_plan_id":"cebpf4jnsgd1na2vs0mg"},{"bike_id":"b96fbb89-a1ac-4fab-a53a-bba73e7700bf","system_id":"levelo_inurba_marseille","lat":43.27922,"lon":5.39578,"is_reserved":false,"is_disabled":false,"rental_uris":{"android":"levelo://app?vid=b96fbb89-a1ac-4fab-a53a-bba73e7700bf","ios":"levelo://app?vid=b96fbb89-a1ac-4fab-a53a-bba73e7700bf"},"vehicle_type_id":"4","last_reported":1747923019,"current_range_meters":16000,"station_id":"ce4bhf92rcd13ifvqf40","pricing_plan_id":"cebpf4jnsgd1na2vs0mg"},{"bike_id":"aa5c37d7-669e-478e-a2f6-81ff7c5a5bd5","system_id":"levelo_inurba_marseille","lat":43.26782,"lon":5.39412,"is_reserved":false,"is_disabled":false,"rental_uris":{"android":"levelo://app?vid=aa5c37d7-669e-478e-a2f6-81ff7c5a5bd5","ios":"levelo://app?vid=aa5c37d7-669e-478e-a2f6-81ff7c5a5bd5"},"vehicle_type_id":"4","last_reported":1747923019,"current_range_meters":16000,"station_id":"ce4bhh12rcd13ifvqfg0","pricing_plan_id":"cebpf4jnsgd1na2vs0mg"},{"bike_id":"86721f09-15a0-494b-b9a6-937947c05ec3","system_id":"levelo_inurba_marseille","lat":43.265,"lon":5.39539,"is_reserved":false,"is_disabled":false,"rental_uris":{"android":"levelo://app?vid=86721f09-15a0-494b-b9a6-937947c05ec3","ios":"levelo://app?vid=86721f09-15a0-494b-b9a6-937947c05ec3"},"vehicle_type_id":"4","last_reported":1747923019,"current_range_meters":16000,"station_id":"ce4bhi12rcd13ifvqfq0","pricing_plan_id":"cebpf4jnsgd1na2vs0mg"},{"bike_id":"800a4ee9-8078-4ad6-8ded-b296a93ca9bc","system_id":"levelo_inurba_marseille","lat":43.24664,"lon":5.38187,"is_reserved":false,"is_disabled":false,"rental_uris":{"android":"levelo://app?vid=800a4ee9-8078-4ad6-8ded-b296a93ca9bc","ios":"levelo://app?vid=800a4ee9-8078-4ad6-8ded-b296a93ca9bc"},"vehicle_type_id":"4","last_reported":1747923019,"current_range_meters":16000,"station_id":"ce4bhih2rcd13ifvqfr0","pricing_plan_id":"cebpf4jnsgd1na2vs0mg"},{"bike_id":"7401c921-0cb4-4cc2-b237-8f4f0613ac93","system_id":"levelo_inurba_marseille","lat":43.3172,"lon":5.42399,"is_reserved":false,"is_disabled":false,"rental_uris":{"android":"levelo://app?vid=7401c921-0cb4-4cc2-b237-8f4f0613ac93","ios":"levelo://app?vid=7401c921-0cb4-4cc2-b237-8f4f0613ac93"},"vehicle_type_id":"4","last_reported":1747923019,"current_range_meters":16000,"station_id":"ce4bhp92rcd13ifvqhbg","pricing_plan_id":"cebpf4jnsgd1na2vs0mg"},{"bike_id":"114e7f12-b35b-40b7-b8e0-77cde26d03fe","system_id":"levelo_inurba_marseille","lat":43.21744,"lon":5.34583,"is_reserved":false,"is_disabled":false,"rental_uris":{"android":"levelo://app?vid=114e7f12-b35b-40b7-b8e0-77cde26d03fe","ios":"levelo://app?vid=114e7f12-b35b-40b7-b8e0-77cde26d03fe"},"vehicle_type_id":"4","last_reported":1747923019,"current_range_meters":16000,"station_id":"st_cvj6r9ubvosntc0bgbag","pricing_plan_id":"cebpf4jnsgd1na2vs0mg"},{"bike_id":"817348e2-fb05-4de7-96f6-c8b207cb8ed8","system_id":"levelo_inurba_marseille","lat":43.21195,"lon":5.3507,"is_reserved":false,"is_disabled":false,"rental_uris":{"android":"levelo://app?vid=817348e2-fb05-4de7-96f6-c8b207cb8ed8","ios":"levelo://app?vid=817348e2-fb05-4de7-96f6-c8b207cb8ed8"},"vehicle_type_id":"4","last_reported":1747923019,"current_range_meters":16000,"station_id":"st_cvj6sg6p6f1abm77japg","pricing_plan_id":"cebpf4jnsgd1na2vs0mg"},{"bike_id":"1dcd37cf-8c23-42f2-8aaa-c0da37355d50","system_id":"levelo_inurba_marseille","lat":43.31708,"lon":5.40469,"is_reserved":false,"is_disabled":false,"rental_uris":{"android":"levelo://app?vid=1dcd37cf-8c23-42f2-8aaa-c0da37355d50","ios":"levelo://app?vid=1dcd37cf-8c23-42f2-8aaa-c0da37355d50"},"vehicle_type_id":"4","last_reported":1747923019,"current_range_meters":16400,"station_id":"","pricing_plan_id":"cebpf4jnsgd1na2vs0mg"},{"bike_id":"41bef200-0210-46a9-afd1-c001d345c4b0","system_id":"levelo_inurba_marseille","lat":43.33651,"lon":5.37824,"is_reserved":false,"is_disabled":false,"rental_uris":{"android":"levelo://app?vid=41bef200-0210-46a9-afd1-c001d345c4b0","ios":"levelo://app?vid=41bef200-0210-46a9-afd1-c001d345c4b0"},"vehicle_type_id":"4","last_reported":1747923019,"current_range_meters":16400,"station_id":"","pricing_plan_id":"cebpf4jnsgd1na2vs0mg"},{"bike_id":"4e9a2adc-469d-4f7a-a04c-e80544a86081","system_id":"levelo_inurba_marseille","lat":43.293,"lon":5.37463,"is_reserved":false,"is_disabled":false,"rental_uris":{"android":"levelo://app?vid=4e9a2adc-469d-4f7a-a04c-e80544a86081","ios":"levelo://app?vid=4e9a2adc-469d-4f7a-a04c-e80544a86081"},"vehicle_type_id":"4","last_reported":1747923019,"current_range_meters":16400,"station_id":"ce4bgi12rcd13ifvqb70","pricing_plan_id":"cebpf4jnsgd1na2vs0mg"},{"bike_id":"c1ca5f99-c898-4099-842f-66f219fb70d6","system_id":"levelo_inurba_marseille","lat":43.313574,"lon":5.367236,"is_reserved":false,"is_disabled":false,"rental_uris":{"android":"levelo://app?vid=c1ca5f99-c898-4099-842f-66f219fb70d6","ios":"levelo://app?vid=c1ca5f99-c898-4099-842f-66f219fb70d6"},"vehicle_type_id":"4","last_reported":1747923019,"current_range_meters":16400,"station_id":"ce4bgr92rcd13ifvqc6g","pricing_plan_id":"cebpf4jnsgd1na2vs0mg"},{"bike_id":"50b2229c-39da-488c-8613-7a6e1003d957","system_id":"levelo_inurba_marseille","lat":43.30537,"lon":5.36709,"is_reserved":false,"is_disabled":false,"rental_uris":{"android":"levelo://app?vid=50b2229c-39da-488c-8613-7a6e1003d957","ios":"levelo://app?vid=50b2229c-39da-488c-8613-7a6e1003d957"},"vehicle_type_id":"4","last_reported":1747923019,"current_range_meters":16400,"station_id":"ce4bgrp2rcd13ifvqc9g","pricing_plan_id":"cebpf4jnsgd1na2vs0mg"},{"bike_id":"7f8badc0-768b-4129-ba0a-3373a98411e5","system_id":"levelo_inurba_marseille","lat":43.31076,"lon":5.38351,"is_reserved":false,"is_disabled":false,"rental_uris":{"android":"levelo://app?vid=7f8badc0-768b-4129-ba0a-3373a98411e5","ios":"levelo://app?vid=7f8badc0-768b-4129-ba0a-3373a98411e5"},"vehicle_type_id":"4","last_reported":1747923019,"current_range_meters":16400,"station_id":"ce4bgv92rcd13ifvqcr0","pricing_plan_id":"cebpf4jnsgd1na2vs0mg"},{"bike_id":"cf38755f-0550-4251-8fba-a1dbf57f2644","system_id":"levelo_inurba_marseille","lat":43.26204,"lon":5.37931,"is_reserved":false,"is_disabled":false,"rental_uris":{"android":"levelo://app?vid=cf38755f-0550-4251-8fba-a1dbf57f2644","ios":"levelo://app?vid=cf38755f-0550-4251-8fba-a1dbf57f2644"},"vehicle_type_id":"4","last_reported":1747923019,"current_range_meters":16400,"station_id":"ce4bhjp2rcd13ifvqg90","pricing_plan_id":"cebpf4jnsgd1na2vs0mg"},{"bike_id":"bafa6d31-974a-466d-bafb-1113bbddbf4f","system_id":"levelo_inurba_marseille","lat":43.25114,"lon":5.4032,"is_reserved":false,"is_disabled":false,"rental_uris":{"android":"levelo://app?vid=bafa6d31-974a-466d-bafb-1113bbddbf4f","ios":"levelo://app?vid=bafa6d31-974a-466d-bafb-1113bbddbf4f"},"vehicle_type_id":"4","last_reported":1747923019,"current_range_meters":16400,"station_id":"ce4bhlh2rcd13ifvqgig","pricing_plan_id":"cebpf4jnsgd1na2vs0mg"},{"bike_id":"605be4bf-deee-4b33-a4cb-0294e9797557","system_id":"levelo_inurba_marseille","lat":43.230622,"lon":5.354903,"is_reserved":false,"is_disabled":false,"rental_uris":{"android":"levelo://app?vid=605be4bf-deee-4b33-a4cb-0294e9797557","ios":"levelo://app?vid=605be4bf-deee-4b33-a4cb-0294e9797557"},"vehicle_type_id":"4","last_reported":1747923019,"current_range_meters":16400,"station_id":"cpo3342slgdg3j2ifvpg","pricing_plan_id":"cebpf4jnsgd1na2vs0mg"},{"bike_id":"59a49c40-e6d1-455d-8e0d-4650bc834db8","system_id":"levelo_inurba_marseille","lat":43.31492,"lon":5.37287,"is_reserved":false,"is_disabled":false,"rental_uris":{"android":"levelo://app?vid=59a49c40-e6d1-455d-8e0d-4650bc834db8","ios":"levelo://app?vid=59a49c40-e6d1-455d-8e0d-4650bc834db8"},"vehicle_type_id":"4","last_reported":1747923019,"current_range_meters":16800,"station_id":"ce4bgt12rcd13ifvqcd0","pricing_plan_id":"cebpf4jnsgd1na2vs0mg"},{"bike_id":"75fc1d0b-cf0e-4327-80ed-2640233bc061","system_id":"levelo_inurba_marseille","lat":43.26486,"lon":5.3955,"is_reserved":false,"is_disabled":false,"rental_uris":{"android":"levelo://app?vid=75fc1d0b-cf0e-4327-80ed-2640233bc061","ios":"levelo://app?vid=75fc1d0b-cf0e-4327-80ed-2640233bc061"},"vehicle_type_id":"4","last_reported":1747923019,"current_range_meters":16800,"station_id":"ce4bhi12rcd13ifvqfq0","pricing_plan_id":"cebpf4jnsgd1na2vs0mg"},{"bike_id":"6dde22b3-be2c-4353-838d-05c85608e4d3","system_id":"levelo_inurba_marseille","lat":43.32349,"lon":5.36716,"is_reserved":false,"is_disabled":false,"rental_uris":{"android":"levelo://app?vid=6dde22b3-be2c-4353-838d-05c85608e4d3","ios":"levelo://app?vid=6dde22b3-be2c-4353-838d-05c85608e4d3"},"vehicle_type_id":"4","last_reported":1747923019,"current_range_meters":16800,"station_id":"ce4bhsh2rcd13ifvqi2g","pricing_plan_id":"cebpf4jnsgd1na2vs0mg"},{"bike_id":"1960b685-4a42-467a-9ed3-80e27346495b","system_id":"levelo_inurba_marseille","lat":43.23195,"lon":5.3555,"is_reserved":false,"is_disabled":false,"rental_uris":{"android":"levelo://app?vid=1960b685-4a42-467a-9ed3-80e27346495b","ios":"levelo://app?vid=1960b685-4a42-467a-9ed3-80e27346495b"},"vehicle_type_id":"4","last_reported":1747923019,"current_range_meters":16800,"station_id":"ce4bhu92rcd13ifvqi70","pricing_plan_id":"cebpf4jnsgd1na2vs0mg"},{"bike_id":"c0a363d1-3bb5-4d7a-a4e8-50a1272c1a00","system_id":"levelo_inurba_marseille","lat":43.23203,"lon":5.35545,"is_reserved":false,"is_disabled":false,"rental_uris":{"android":"levelo://app?vid=c0a363d1-3bb5-4d7a-a4e8-50a1272c1a00","ios":"levelo://app?vid=c0a363d1-3bb5-4d7a-a4e8-50a1272c1a00"},"vehicle_type_id":"4","last_reported":1747923019,"current_range_meters":16800,"station_id":"ce4bhu92rcd13ifvqi70","pricing_plan_id":"cebpf4jnsgd1na2vs0mg"},{"bike_id":"37844bcf-e6b5-4f86-9cc0-88711b06431d","system_id":"levelo_inurba_marseille","lat":43.30267,"lon":5.37293,"is_reserved":false,"is_disabled":false,"rental_uris":{"android":"levelo://app?vid=37844bcf-e6b5-4f86-9cc0-88711b06431d","ios":"levelo://app?vid=37844bcf-e6b5-4f86-9cc0-88711b06431d"},"vehicle_type_id":"4","last_reported":1747923019,"current_range_meters":17200,"station_id":"","pricing_plan_id":"cebpf4jnsgd1na2vs0mg"},{"bike_id":"c73a5ae3-9346-4a0e-83a2-77d502610a53","system_id":"levelo_inurba_marseille","lat":43.30889,"lon":5.3719,"is_reserved":false,"is_disabled":false,"rental_uris":{"android":"levelo://app?vid=c73a5ae3-9346-4a0e-83a2-77d502610a53","ios":"levelo://app?vid=c73a5ae3-9346-4a0e-83a2-77d502610a53"},"vehicle_type_id":"4","last_reported":1747923019,"current_range_meters":17200,"station_id":"ce4bguh2rcd13ifvqckg","pricing_plan_id":"cebpf4jnsgd1na2vs0mg"},{"bike_id":"e6b30f6f-841a-48ed-9ae8-a85532945b28","system_id":"levelo_inurba_marseille","lat":43.29014,"lon":5.38136,"is_reserved":false,"is_disabled":false,"rental_uris":{"android":"levelo://app?vid=e6b30f6f-841a-48ed-9ae8-a85532945b28","ios":"levelo://app?vid=e6b30f6f-841a-48ed-9ae8-a85532945b28"},"vehicle_type_id":"4","last_reported":1747923019,"current_range_meters":17200,"station_id":"ce4bh4p2rcd13ifvqe1g","pricing_plan_id":"cebpf4jnsgd1na2vs0mg"},{"bike_id":"652f8260-78ba-409b-a56c-f28ea0933272","system_id":"levelo_inurba_marseille","lat":43.29172,"lon":5.37156,"is_reserved":false,"is_disabled":false,"rental_uris":{"android":"levelo://app?vid=652f8260-78ba-409b-a56c-f28ea0933272","ios":"levelo://app?vid=652f8260-78ba-409b-a56c-f28ea0933272"},"vehicle_type_id":"4","last_reported":1747923019,"current_range_meters":17200,"station_id":"ce4bha92rcd13ifvqeh0","pricing_plan_id":"cebpf4jnsgd1na2vs0mg"},{"bike_id":"1ea7585b-6526-4872-b045-a263e84d0c10","system_id":"levelo_inurba_marseille","lat":43.29001,"lon":5.35597,"is_reserved":false,"is_disabled":false,"rental_uris":{"android":"levelo://app?vid=1ea7585b-6526-4872-b045-a263e84d0c10","ios":"levelo://app?vid=1ea7585b-6526-4872-b045-a263e84d0c10"},"vehicle_type_id":"4","last_reported":1747923019,"current_range_meters":17200,"station_id":"ce4bhb92rcd13ifvqen0","pricing_plan_id":"cebpf4jnsgd1na2vs0mg"},{"bike_id":"8a64ac15-3a9b-4b0e-a860-bdab7e50a0bc","system_id":"levelo_inurba_marseille","lat":43.24549,"lon":5.39521,"is_reserved":false,"is_disabled":false,"rental_uris":{"android":"levelo://app?vid=8a64ac15-3a9b-4b0e-a860-bdab7e50a0bc","ios":"levelo://app?vid=8a64ac15-3a9b-4b0e-a860-bdab7e50a0bc"},"vehicle_type_id":"4","last_reported":1747923019,"current_range_meters":17200,"station_id":"ce4bhlp2rcd13ifvqgjg","pricing_plan_id":"cebpf4jnsgd1na2vs0mg"},{"bike_id":"7a174cf0-49bb-442b-9787-ed977ba34ca4","system_id":"levelo_inurba_marseille","lat":43.241784,"lon":5.397326,"is_reserved":false,"is_disabled":false,"rental_uris":{"android":"levelo://app?vid=7a174cf0-49bb-442b-9787-ed977ba34ca4","ios":"levelo://app?vid=7a174cf0-49bb-442b-9787-ed977ba34ca4"},"vehicle_type_id":"4","last_reported":1747923019,"current_range_meters":17200,"station_id":"ce4bhn12rcd13ifvqgpg","pricing_plan_id":"cebpf4jnsgd1na2vs0mg"},{"bike_id":"1e164eaf-2ffb-4814-9442-b43f6b5c9f80","system_id":"levelo_inurba_marseille","lat":43.2416,"lon":5.36368,"is_reserved":false,"is_disabled":false,"rental_uris":{"android":"levelo://app?vid=1e164eaf-2ffb-4814-9442-b43f6b5c9f80","ios":"levelo://app?vid=1e164eaf-2ffb-4814-9442-b43f6b5c9f80"},"vehicle_type_id":"4","last_reported":1747923019,"current_range_meters":17200,"station_id":"cpo36qri1sfpv3e86is0","pricing_plan_id":"cebpf4jnsgd1na2vs0mg"},{"bike_id":"1a340bac-8012-4c7c-b50a-247d19f083a9","system_id":"levelo_inurba_marseille","lat":43.22507,"lon":5.34784,"is_reserved":false,"is_disabled":false,"rental_uris":{"android":"levelo://app?vid=1a340bac-8012-4c7c-b50a-247d19f083a9","ios":"levelo://app?vid=1a340bac-8012-4c7c-b50a-247d19f083a9"},"vehicle_type_id":"4","last_reported":1747923019,"current_range_meters":17200,"station_id":"st_cvj5dfep6f1abm77gieg","pricing_plan_id":"cebpf4jnsgd1na2vs0mg"},{"bike_id":"beb93ece-8a2b-401d-b7e3-ad77b01ce941","system_id":"levelo_inurba_marseille","lat":43.217575,"lon":5.345942,"is_reserved":false,"is_disabled":false,"rental_uris":{"android":"levelo://app?vid=beb93ece-8a2b-401d-b7e3-ad77b01ce941","ios":"levelo://app?vid=beb93ece-8a2b-401d-b7e3-ad77b01ce941"},"vehicle_type_id":"4","last_reported":1747923019,"current_range_meters":17200,"station_id":"st_cvj6r9ubvosntc0bgbag","pricing_plan_id":"cebpf4jnsgd1na2vs0mg"},{"bike_id":"0e27a530-5aca-4bdb-bcfe-2711f03311f8","system_id":"levelo_inurba_marseille","lat":43.21761,"lon":5.34616,"is_reserved":false,"is_disabled":false,"rental_uris":{"android":"levelo://app?vid=0e27a530-5aca-4bdb-bcfe-2711f03311f8","ios":"levelo://app?vid=0e27a530-5aca-4bdb-bcfe-2711f03311f8"},"vehicle_type_id":"4","last_reported":1747923019,"current_range_meters":17200,"station_id":"st_cvj6r9ubvosntc0bgbag","pricing_plan_id":"cebpf4jnsgd1na2vs0mg"},{"bike_id":"d871b8e4-69c9-4da5-ab75-fc123f7492aa","system_id":"levelo_inurba_marseille","lat":43.31233,"lon":5.36855,"is_reserved":false,"is_disabled":false,"rental_uris":{"android":"levelo://app?vid=d871b8e4-69c9-4da5-ab75-fc123f7492aa","ios":"levelo://app?vid=d871b8e4-69c9-4da5-ab75-fc123f7492aa"},"vehicle_type_id":"4","last_reported":1747923019,"current_range_meters":17600,"station_id":"ce4bgl92rcd13ifvqbq0","pricing_plan_id":"cebpf4jnsgd1na2vs0mg"},{"bike_id":"1d373b64-9e90-4299-b14f-33098283515f","system_id":"levelo_inurba_marseille","lat":43.31339,"lon":5.36748,"is_reserved":false,"is_disabled":false,"rental_uris":{"android":"levelo://app?vid=1d373b64-9e90-4299-b14f-33098283515f","ios":"levelo://app?vid=1d373b64-9e90-4299-b14f-33098283515f"},"vehicle_type_id":"4","last_reported":1747923019,"current_range_meters":17600,"station_id":"ce4bgr92rcd13ifvqc6g","pricing_plan_id":"cebpf4jnsgd1na2vs0mg"},{"bike_id":"05b2827c-9a32-4032-ba9e-7a9b671b11e2","system_id":"levelo_inurba_marseille","lat":43.30574,"lon":5.36525,"is_reserved":false,"is_disabled":false,"rental_uris":{"android":"levelo://app?vid=05b2827c-9a32-4032-ba9e-7a9b671b11e2","ios":"levelo://app?vid=05b2827c-9a32-4032-ba9e-7a9b671b11e2"},"vehicle_type_id":"4","last_reported":1747923019,"current_range_meters":17600,"station_id":"ce4bgs12rcd13ifvqcag","pricing_plan_id":"cebpf4jnsgd1na2vs0mg"},{"bike_id":"03c812a5-62e2-43ea-8462-7667c3c90999","system_id":"levelo_inurba_marseille","lat":43.26963,"lon":5.38623,"is_reserved":false,"is_disabled":false,"rental_uris":{"android":"levelo://app?vid=03c812a5-62e2-43ea-8462-7667c3c90999","ios":"levelo://app?vid=03c812a5-62e2-43ea-8462-7667c3c90999"},"vehicle_type_id":"4","last_reported":1747923019,"current_range_meters":17600,"station_id":"ce4bhh92rcd13ifvqfh0","pricing_plan_id":"cebpf4jnsgd1na2vs0mg"},{"bike_id":"9fec8102-7898-49e1-82b8-75025119b5ad","system_id":"levelo_inurba_marseille","lat":43.295812,"lon":5.36753,"is_reserved":false,"is_disabled":false,"rental_uris":{"android":"levelo://app?vid=9fec8102-7898-49e1-82b8-75025119b5ad","ios":"levelo://app?vid=9fec8102-7898-49e1-82b8-75025119b5ad"},"vehicle_type_id":"4","last_reported":1747923019,"current_range_meters":18000,"station_id":"ce4bgph2rcd13ifvqc2g","pricing_plan_id":"cebpf4jnsgd1na2vs0mg"},{"bike_id":"d1f73e05-5ed4-4e71-817f-a8de467751b5","system_id":"levelo_inurba_marseille","lat":43.28267,"lon":5.35081,"is_reserved":false,"is_disabled":false,"rental_uris":{"android":"levelo://app?vid=d1f73e05-5ed4-4e71-817f-a8de467751b5","ios":"levelo://app?vid=d1f73e05-5ed4-4e71-817f-a8de467751b5"},"vehicle_type_id":"4","last_reported":1747923019,"current_range_meters":18000,"station_id":"ce4bhbp2rcd13ifvqerg","pricing_plan_id":"cebpf4jnsgd1na2vs0mg"},{"bike_id":"71115968-904d-4d17-b230-682177c465da","system_id":"levelo_inurba_marseille","lat":43.26494,"lon":5.3954,"is_reserved":false,"is_disabled":false,"rental_uris":{"android":"levelo://app?vid=71115968-904d-4d17-b230-682177c465da","ios":"levelo://app?vid=71115968-904d-4d17-b230-682177c465da"},"vehicle_type_id":"4","last_reported":1747923019,"current_range_meters":18000,"station_id":"ce4bhi12rcd13ifvqfq0","pricing_plan_id":"cebpf4jnsgd1na2vs0mg"},{"bike_id":"e3938353-cdc7-4649-ae91-1dd94b0253b5","system_id":"levelo_inurba_marseille","lat":43.26221,"lon":5.40429,"is_reserved":false,"is_disabled":false,"rental_uris":{"android":"levelo://app?vid=e3938353-cdc7-4649-ae91-1dd94b0253b5","ios":"levelo://app?vid=e3938353-cdc7-4649-ae91-1dd94b0253b5"},"vehicle_type_id":"4","last_reported":1747923019,"current_range_meters":18000,"station_id":"ce4bhmh2rcd13ifvqgmg","pricing_plan_id":"cebpf4jnsgd1na2vs0mg"},{"bike_id":"dc99356b-8313-4176-804a-48425c6b1267","system_id":"levelo_inurba_marseille","lat":43.27945,"lon":5.41053,"is_reserved":false,"is_disabled":false,"rental_uris":{"android":"levelo://app?vid=dc99356b-8313-4176-804a-48425c6b1267","ios":"levelo://app?vid=dc99356b-8313-4176-804a-48425c6b1267"},"vehicle_type_id":"4","last_reported":1747923019,"current_range_meters":18000,"station_id":"ce4bhnp2rcd13ifvqh0g","pricing_plan_id":"cebpf4jnsgd1na2vs0mg"},{"bike_id":"c6bf2e46-fb2f-4485-b1e5-f93500b0678b","system_id":"levelo_inurba_marseille","lat":43.230644,"lon":5.354884,"is_reserved":false,"is_disabled":false,"rental_uris":{"android":"levelo://app?vid=c6bf2e46-fb2f-4485-b1e5-f93500b0678b","ios":"levelo://app?vid=c6bf2e46-fb2f-4485-b1e5-f93500b0678b"},"vehicle_type_id":"4","last_reported":1747923019,"current_range_meters":18000,"station_id":"cpo3342slgdg3j2ifvpg","pricing_plan_id":"cebpf4jnsgd1na2vs0mg"},{"bike_id":"6dae983d-86a1-49db-b4c0-a0190c812cda","system_id":"levelo_inurba_marseille","lat":43.29258,"lon":5.37628,"is_reserved":false,"is_disabled":false,"rental_uris":{"android":"levelo://app?vid=6dae983d-86a1-49db-b4c0-a0190c812cda","ios":"levelo://app?vid=6dae983d-86a1-49db-b4c0-a0190c812cda"},"vehicle_type_id":"4","last_reported":1747923019,"current_range_meters":18800,"station_id":"ce4bgi12rcd13ifvqb80","pricing_plan_id":"cebpf4jnsgd1na2vs0mg"},{"bike_id":"0fc0b079-c425-47dd-9286-85489c778492","system_id":"levelo_inurba_marseille","lat":43.29933,"lon":5.36544,"is_reserved":false,"is_disabled":false,"rental_uris":{"android":"levelo://app?vid=0fc0b079-c425-47dd-9286-85489c778492","ios":"levelo://app?vid=0fc0b079-c425-47dd-9286-85489c778492"},"vehicle_type_id":"4","last_reported":1747923019,"current_range_meters":18800,"station_id":"ce4bgm92rcd13ifvqbr0","pricing_plan_id":"cebpf4jnsgd1na2vs0mg"},{"bike_id":"8cbf1614-2d53-4678-857d-d03337570520","system_id":"levelo_inurba_marseille","lat":43.295862,"lon":5.367463,"is_reserved":false,"is_disabled":false,"rental_uris":{"android":"levelo://app?vid=8cbf1614-2d53-4678-857d-d03337570520","ios":"levelo://app?vid=8cbf1614-2d53-4678-857d-d03337570520"},"vehicle_type_id":"4","last_reported":1747923019,"current_range_meters":18800,"station_id":"ce4bgph2rcd13ifvqc2g","pricing_plan_id":"cebpf4jnsgd1na2vs0mg"},{"bike_id":"5b79584d-0fb9-4164-bb73-be6d2672dd16","system_id":"levelo_inurba_marseille","lat":43.29228,"lon":5.36074,"is_reserved":false,"is_disabled":false,"rental_uris":{"android":"levelo://app?vid=5b79584d-0fb9-4164-bb73-be6d2672dd16","ios":"levelo://app?vid=5b79584d-0fb9-4164-bb73-be6d2672dd16"},"vehicle_type_id":"4","last_reported":1747923019,"current_range_meters":18800,"station_id":"ce4bhbh2rcd13ifvqeqg","pricing_plan_id":"cebpf4jnsgd1na2vs0mg"},{"bike_id":"13e52ea2-4f64-4928-954b-4988dee9b945","system_id":"levelo_inurba_marseille","lat":43.23184,"lon":5.39989,"is_reserved":false,"is_disabled":false,"rental_uris":{"android":"levelo://app?vid=13e52ea2-4f64-4928-954b-4988dee9b945","ios":"levelo://app?vid=13e52ea2-4f64-4928-954b-4988dee9b945"},"vehicle_type_id":"4","last_reported":1747923019,"current_range_meters":18800,"station_id":"ce4bhn12rcd13ifvqgqg","pricing_plan_id":"cebpf4jnsgd1na2vs0mg"},{"bike_id":"03c27706-dafc-4e44-b173-3742dda15e11","system_id":"levelo_inurba_marseille","lat":43.23192,"lon":5.35543,"is_reserved":false,"is_disabled":false,"rental_uris":{"android":"levelo://app?vid=03c27706-dafc-4e44-b173-3742dda15e11","ios":"levelo://app?vid=03c27706-dafc-4e44-b173-3742dda15e11"},"vehicle_type_id":"4","last_reported":1747923019,"current_range_meters":18800,"station_id":"ce4bhu92rcd13ifvqi70","pricing_plan_id":"cebpf4jnsgd1na2vs0mg"},{"bike_id":"2ca6aaf4-dc5f-4f98-942c-334e57f8ab0c","system_id":"levelo_inurba_marseille","lat":43.2175,"lon":5.34605,"is_reserved":false,"is_disabled":false,"rental_uris":{"android":"levelo://app?vid=2ca6aaf4-dc5f-4f98-942c-334e57f8ab0c","ios":"levelo://app?vid=2ca6aaf4-dc5f-4f98-942c-334e57f8ab0c"},"vehicle_type_id":"4","last_reported":1747923019,"current_range_meters":18800,"station_id":"st_cvj6r9ubvosntc0bgbag","pricing_plan_id":"cebpf4jnsgd1na2vs0mg"},{"bike_id":"59e86a7a-e8b9-481c-93cf-968bdb5ba166","system_id":"levelo_inurba_marseille","lat":43.21199,"lon":5.35065,"is_reserved":false,"is_disabled":false,"rental_uris":{"android":"levelo://app?vid=59e86a7a-e8b9-481c-93cf-968bdb5ba166","ios":"levelo://app?vid=59e86a7a-e8b9-481c-93cf-968bdb5ba166"},