{"last_updated":1733919561,"ttl":60,"version":"2.2","data":{"bikes":[{"bike_id":"22a370e7-1d9e-44f3-8dd9-a479197477db","system_id":"levelo_inurba_marseille","lat":43.271986,"lon":5.391132,"is_reserved":false,"is_disabled":false,"rental_uris":{"android":"levelo://app?vid=22a370e7-1d9e-44f3-8dd9-a479197477db","ios":"levelo://app?vid=22a370e7-1d9e-44f3-8dd9-a479197477db"},"vehicle_type_id":"4","last_reported":1733919561,"current_range_meters":25200,"station_id":"ce4bhhp2rcd13ifvqfm0","pricing_plan_id":"cebpf4jnsgd1na2vs0mg"},{"bike_id":"09183cc6-6364-47a9-a9c9-034bdfa6c43c","system_id":"levelo_inurba_marseille","lat":43.28261,"lon":5.35079,"is_reserved":false,"is_disabled":false,"rental_uris":{"android":"levelo://app?vid=09183cc6-6364-47a9-a9c9-034bdfa6c43c","ios":"levelo://app?vid=09183cc6-6364-47a9-a9c9-034bdfa6c43c"},"vehicle_type_id":"4","last_reported":1733919561,"current_range_meters":38800,"station_id":"ce4bhbp2rcd13ifvqerg","pricing_plan_id":"cebpf4jnsgd1na2vs0mg"},{"bike_id":"2877d6a1-306d-4afd-8fb0-2a4029d5651b","system_id":"levelo_inurba_marseille","lat":43.337444,"lon":5.374475,"is_reserved":false,"is_disabled":false,"rental_uris":{"android":"levelo://app?vid=2877d6a1-306d-4afd-8fb0-2a4029d5651b","ios":"levelo://app?vid=2877d6a1-306d-4afd-8fb0-2a4029d5651b"},"vehicle_type_id":"4","last_reported":1733919561,"current_range_meters":14800,"station_id":"ce4bgj92rcd13ifvqbe0","pricing_plan_id":"cebpf4jnsgd1na2vs0mg"},{"bike_id":"15b6f56a-fad1-4f70-a7fb-6fe1c65798e2","system_id":"levelo_inurba_marseille","lat":43.32461,"lon":5.36589,"is_reserved":false,"is_disabled":false,"rental_uris":{"android":"levelo://app?vid=15b6f56a-fad1-4f70-a7fb-6fe1c65798e2","ios":"levelo://app?vid=15b6f56a-fad1-4f70-a7fb-6fe1c65798e2"},"vehicle_type_id":"4","last_reported":1733919561,"current_range_meters":39200,"station_id":"ce4bhs12rcd13ifvqhvg","pricing_plan_id":"cebpf4jnsgd1na2vs0mg"},{"bike_id":"b266efff-3a14-4d1a-a25a-c68ad062a1f4","system_id":"levelo_inurba_marseille","lat":43.24166,"lon":5.36396,"is_reserved":false,"is_disabled":false,"rental_uris":{"android":"levelo://app?vid=b266efff-3a14-4d1a-a25a-c68ad062a1f4","ios":"levelo://app?vid=b266efff-3a14-4d1a-a25a-c68ad062a1f4"},"vehicle_type_id":"4","last_reported":1733919561,"current_range_meters":9600,"station_id":"cpo36qri1sfpv3e86is0","pricing_plan_id":"cebpf4jnsgd1na2vs0mg"},{"bike_id":"9bc0a5cc-dfff-49db-a351-357b9f68553c","system_id":"levelo_inurba_marseille","lat":43.26067,"lon":5.39398,"is_reserved":false,"is_disabled":false,"rental_uris":{"android":"levelo://app?vid=9bc0a5cc-dfff-49db-a351-357b9f68553c","ios":"levelo://app?vid=9bc0a5cc-dfff-49db-a351-357b9f68553c"},"vehicle_type_id":"4","last_reported":1733919561,"current_range_meters":29600,"station_id":"ce4bhh92rcd13ifvqfj0","pricing_plan_id":"cebpf4jnsgd1na2vs0mg"},{"bike_id":"d2f1571d-283c-4c18-8286-c166d40c3210","system_id":"levelo_inurba_marseille","lat":43.34141,"lon":5.40912,"is_reserved":false,"is_disabled":false,"rental_uris":{"android":"levelo://app?vid=d2f1571d-283c-4c18-8286-c166d40c3210","ios":"levelo://app?vid=d2f1571d-283c-4c18-8286-c166d40c3210"},"vehicle_type_id":"4","last_reported":1733919561,"current_range_meters":20000,"station_id":"ce4bhqh2rcd13ifvqhlg","pricing_plan_id":"cebpf4jnsgd1na2vs0mg"},{"bike_id":"21a7376e-5c33-4a56-91a8-da4065619153","system_id":"levelo_inurba_marseille","lat":43.30152,"lon":5.37429,"is_reserved":false,"is_disabled":false,"rental_uris":{"android":"levelo://app?vid=21a7376e-5c33-4a56-91a8-da4065619153","ios":"levelo://app?vid=21a7376e-5c33-4a56-91a8-da4065619153"},"vehicle_type_id":"4","last_reported":1733919561,"current_range_meters":24400,"station_id":"ce4bgs92rcd13ifvqcc0","pricing_plan_id":"cebpf4jnsgd1na2vs0mg"},{"bike_id":"980f96eb-32c9-4906-98f6-c44dbf4c84a1","system_id":"levelo_inurba_marseille","lat":43.27455,"lon":5.40073,"is_reserved":false,"is_disabled":true,"rental_uris":{"android":"levelo://app?vid=980f96eb-32c9-4906-98f6-c44dbf4c84a1","ios":"levelo://app?vid=980f96eb-32c9-4906-98f6-c44dbf4c84a1"},"vehicle_type_id":"4","last_reported":1733919561,"current_range_meters":0,"station_id":"","pricing_plan_id":"cebpf4jnsgd1na2vs0mg"},{"bike_id":"6b6689b2-3111-402f-abcd-bd92f86de8f2","system_id":"levelo_inurba_marseille","lat":43.27066,"lon":5.42284,"is_reserved":false,"is_disabled":false,"rental_uris":{"android":"levelo://app?vid=6b6689b2-3111-402f-abcd-bd92f86de8f2","ios":"levelo://app?vid=6b6689b2-3111-402f-abcd-bd92f86de8f2"},"vehicle_type_id":"4","last_reported":1733919561,"current_range_meters":26000,"station_id":"ce4bhk92rcd13ifvqgb0","pricing_plan_id":"cebpf4jnsgd1na2vs0mg"},{"bike_id":"4cfb5bbc-2bce-4e1f-b573-ab8ac7e72da7","system_id":"levelo_inurba_marseille","lat":43.25106,"lon":5.40335,"is_reserved":false,"is_disabled":false,"rental_uris":{"android":"levelo://app?vid=4cfb5bbc-2bce-4e1f-b573-ab8ac7e72da7","ios":"levelo://app?vid=4cfb5bbc-2bce-4e1f-b573-ab8ac7e72da7"},"vehicle_type_id":"4","last_reported":1733919561,"current_range_meters":16000,"station_id":"ce4bhlh2rcd13ifvqgig","pricing_plan_id":"cebpf4jnsgd1na2vs0mg"},{"bike_id":"f3dd20e5-316b-4551-9b56-a2bdd7a571b3","system_id":"levelo_inurba_marseille","lat":43.2926,"lon":5.40903,"is_reserved":false,"is_disabled":false,"rental_uris":{"android":"levelo://app?vid=f3dd20e5-316b-4551-9b56-a2bdd7a571b3","ios":"levelo://app?vid=f3dd20e5-316b-4551-9b56-a2bdd7a571b3"},"vehicle_type_id":"4","last_reported":1733919561,"current_range_meters":32400,"station_id":"ce4bh192rcd13ifvqdc0","pricing_plan_id":"cebpf4jnsgd1na2vs0mg"},{"bike_id":"f13bfc2b-74bb-4227-8236-6cc51258b5ec","system_id":"levelo_inurba_marseille","lat":43.26552,"lon":5.37288,"is_reserved":false,"is_disabled":false,"rental_uris":{"android":"levelo://app?vid=f13bfc2b-74bb-4227-8236-6cc51258b5ec","ios":"levelo://app?vid=f13bfc2b-74bb-4227-8236-6cc51258b5ec"},"vehicle_type_id":"4","last_reported":1733919561,"current_range_meters":17200,"station_id":"ce4bhg12rcd13ifvqf70","pricing_plan_id":"cebpf4jnsgd1na2vs0mg"},{"bike_id":"d36df271-fbf7-4bbc-b33a-49e5b065f0e9","system_id":"levelo_inurba_marseille","lat":43.27069,"lon":5.42284,"is_reserved":false,"is_disabled":false,"rental_uris":{"android":"levelo://app?vid=d36df271-fbf7-4bbc-b33a-49e5b065f0e9","ios":"levelo://app?vid=d36df271-fbf7-4bbc-b33a-49e5b065f0e9"},"vehicle_type_id":"4","last_reported":1733919561,"current_range_meters":29600,"station_id":"ce4bhk92rcd13ifvqgb0","pricing_plan_id":"cebpf4jnsgd1na2vs0mg"},{"bike_id":"5d9ac27a-a99f-4dee-983d-e44be0471cd5","system_id":"levelo_inurba_marseille","lat":43.33573,"lon":5.39899,"is_reserved":false,"is_disabled":false,"rental_uris":{"android":"levelo://app?vid=5d9ac27a-a99f-4dee-983d-e44be0471cd5","ios":"levelo://app?vid=5d9ac27a-a99f-4dee-983d-e44be0471cd5"},"vehicle_type_id":"4","last_reported":1733919561,"current_range_meters":32000,"station_id":"","pricing_plan_id":"cebpf4jnsgd1na2vs0mg"},{"bike_id":"0464b665-516c-4517-9206-9651ecc60ccf","system_id":"levelo_inurba_marseille","lat":43.27493,"lon":5.42453,"is_reserved":false,"is_disabled":false,"rental_uris":{"android":"levelo://app?vid=0464b665-516c-4517-9206-9651ecc60ccf","ios":"levelo://app?vid=0464b665-516c-4517-9206-9651ecc60ccf"},"vehicle_type_id":"4","last_reported":1733919561,"current_range_meters":33200,"station_id":"ce4bhn92rcd13ifvqgrg","pricing_plan_id":"cebpf4jnsgd1na2vs0mg"},{"bike_id":"d657584b-0f27-4382-873c-36c4de4c3f09","system_id":"levelo_inurba_marseille","lat":43.29418,"lon":5.38618,"is_reserved":false,"is_disabled":false,"rental_uris":{"android":"levelo://app?vid=d657584b-0f27-4382-873c-36c4de4c3f09","ios":"levelo://app?vid=d657584b-0f27-4382-873c-36c4de4c3f09"},"vehicle_type_id":"4","last_reported":1733919561,"current_range_meters":8000,"station_id":"ce4bh2h2rcd13ifvqdh0","pricing_plan_id":"cebpf4jnsgd1na2vs0mg"},{"bike_id":"0a731ad1-9472-4ee6-8424-bb6823427d23","system_id":"levelo_inurba_marseille","lat":43.28939,"lon":5.36632,"is_reserved":false,"is_disabled":true,"rental_uris":{"android":"levelo://app?vid=0a731ad1-9472-4ee6-8424-bb6823427d23","ios":"levelo://app?vid=0a731ad1-9472-4ee6-8424-bb6823427d23"},"vehicle_type_id":"4","last_reported":1733919561,"current_range_meters":0,"station_id":"ce4bhap2rcd13ifvqek0","pricing_plan_id":"cebpf4jnsgd1na2vs0mg"},{"bike_id":"490fe497-a624-4452-83e9-33130a74cc8a","system_id":"levelo_inurba_marseille","lat":43.28936,"lon":5.36639,"is_reserved":false,"is_disabled":false,"rental_uris":{"android":"levelo://app?vid=490fe497-a624-4452-83e9-33130a74cc8a","ios":"levelo://app?vid=490fe497-a624-4452-83e9-33130a74cc8a"},"vehicle_type_id":"4","last_reported":1733919561,"current_range_meters":27600,"station_id":"ce4bhap2rcd13ifvqek0","pricing_plan_id":"cebpf4jnsgd1na2vs0mg"},{"bike_id":"fd71dd19-9a3b-4ab7-8622-bc8844396964","system_id":"levelo_inurba_marseille","lat":43.30128,"lon":5.3745,"is_reserved":false,"is_disabled":false,"rental_uris":{"android":"levelo://app?vid=fd71dd19-9a3b-4ab7-8622-bc8844396964","ios":"levelo://app?vid=fd71dd19-9a3b-4ab7-8622-bc8844396964"},"vehicle_type_id":"4","last_reported":1733919561,"current_range_meters":24000,"station_id":"ce4bgs92rcd13ifvqcc0","pricing_plan_id":"cebpf4jnsgd1na2vs0mg"},{"bike_id":"dd009068-03cd-489e-9ab2-da6422b1b355","system_id":"levelo_inurba_marseille","lat":43.29624,"lon":5.37721,"is_reserved":false,"is_disabled":false,"rental_uris":{"android":"levelo://app?vid=dd009068-03cd-489e-9ab2-da6422b1b355","ios":"levelo://app?vid=dd009068-03cd-489e-9ab2-da6422b1b355"},"vehicle_type_id":"4","last_reported":1733919561,"current_range_meters":9600,"station_id":"ce4bgi92rcd13ifvqb90","pricing_plan_id":"cebpf4jnsgd1na2vs0mg"},{"bike_id":"c83b6b3e-5296-41f7-938d-6e972ea88b24","system_id":"levelo_inurba_marseille","lat":43.312233,"lon":5.368828,"is_reserved":false,"is_disabled":false,"rental_uris":{"android":"levelo://app?vid=c83b6b3e-5296-41f7-938d-6e972ea88b24","ios":"levelo://app?vid=c83b6b3e-5296-41f7-938d-6e972ea88b24"},"vehicle_type_id":"4","last_reported":1733919561,"current_range_meters":37600,"station_id":"ce4bgl92rcd13ifvqbq0","pricing_plan_id":"cebpf4jnsgd1na2vs0mg"},{"bike_id":"3660a68e-019e-40c8-a98b-d1f56975d36b","system_id":"levelo_inurba_marseille","lat":43.26957,"lon":5.38625,"is_reserved":false,"is_disabled":false,"rental_uris":{"android":"levelo://app?vid=3660a68e-019e-40c8-a98b-d1f56975d36b","ios":"levelo://app?vid=3660a68e-019e-40c8-a98b-d1f56975d36b"},"vehicle_type_id":"4","last_reported":1733919561,"current_range_meters":10000,"station_id":"ce4bhn12rcd13ifvqgqg","pricing_plan_id":"cebpf4jnsgd1na2vs0mg"},{"bike_id":"e8df7483-e961-424a-9f51-bdb37855ac1d","system_id":"levelo_inurba_marseille","lat":43.27204,"lon":5.39186,"is_reserved":false,"is_disabled":false,"rental_uris":{"android":"levelo://app?vid=e8df7483-e961-424a-9f51-bdb37855ac1d","ios":"levelo://app?vid=e8df7483-e961-424a-9f51-bdb37855ac1d"},"vehicle_type_id":"4","last_reported":1733919561,"current_range_meters":33600,"station_id":"ce4bhhp2rcd13ifvqfm0","pricing_plan_id":"cebpf4jnsgd1na2vs0mg"},{"bike_id":"1b502474-2e11-43a3-922a-75f5113deb81","system_id":"levelo_inurba_marseille","lat":43.25931,"lon":5.40905,"is_reserved":false,"is_disabled":false,"rental_uris":{"android":"levelo://app?vid=1b502474-2e11-43a3-922a-75f5113deb81","ios":"levelo://app?vid=1b502474-2e11-43a3-922a-75f5113deb81"},"vehicle_type_id":"4","last_reported":1733919561,"current_range_meters":28800,"station_id":"ce4bhm92rcd13ifvqglg","pricing_plan_id":"cebpf4jnsgd1na2vs0mg"},{"bike_id":"fe4cab58-ba30-4c78-b62f-d4434eea7628","system_id":"levelo_inurba_marseille","lat":43.29442,"lon":5.39777,"is_reserved":false,"is_disabled":true,"rental_uris":{"android":"levelo://app?vid=fe4cab58-ba30-4c78-b62f-d4434eea7628","ios":"levelo://app?vid=fe4cab58-ba30-4c78-b62f-d4434eea7628"},"vehicle_type_id":"4","last_reported":1733919561,"current_range_meters":35600,"station_id":"ce4bh3h2rcd13ifvqdo0","pricing_plan_id":"cebpf4jnsgd1na2vs0mg"},{"bike_id":"187a9cac-9fe7-4437-bc4f-beab8d1e51ae","system_id":"levelo_inurba_marseille","lat":43.29552,"lon":5.4229,"is_reserved":false,"is_disabled":false,"rental_uris":{"android":"levelo://app?vid=187a9cac-9fe7-4437-bc4f-beab8d1e51ae","ios":"levelo://app?vid=187a9cac-9fe7-4437-bc4f-beab8d1e51ae"},"vehicle_type_id":"4","last_reported":1733919561,"current_range_meters":38800,"station_id":"ce4bhph2rcd13ifvqhdg","pricing_plan_id":"cebpf4jnsgd1na2vs0mg"},{"bike_id":"711e6d24-40ff-4efc-b95e-c1790dabebbc","system_id":"levelo_inurba_marseille","lat":43.273712,"lon":5.362701,"is_reserved":false,"is_disabled":false,"rental_uris":{"android":"levelo://app?vid=711e6d24-40ff-4efc-b95e-c1790dabebbc","ios":"levelo://app?vid=711e6d24-40ff-4efc-b95e-c1790dabebbc"},"vehicle_type_id":"4","last_reported":1733919561,"current_range_meters":38400,"station_id":"ce4bhbh2rcd13ifvqeo0","pricing_plan_id":"cebpf4jnsgd1na2vs0mg"},{"bike_id":"d94b4469-8fc0-435e-a8a5-dea409dbc022","system_id":"levelo_inurba_marseille","lat":43.31322,"lon":5.36647,"is_reserved":false,"is_disabled":true,"rental_uris":{"android":"levelo://app?vid=d94b4469-8fc0-435e-a8a5-dea409dbc022","ios":"levelo://app?vid=d94b4469-8fc0-435e-a8a5-dea409dbc022"},"vehicle_type_id":"4","last_reported":1733919561,"current_range_meters":0,"station_id":"","pricing_plan_id":"cebpf4jnsgd1na2vs0mg"},{"bike_id":"75052bfa-918d-4a31-83e0-d5491c3908ab","system_id":"levelo_inurba_marseille","lat":43.34137,"lon":5.40904,"is_reserved":false,"is_disabled":false,"rental_uris":{"android":"levelo://app?vid=75052bfa-918d-4a31-83e0-d5491c3908ab","ios":"levelo://app?vid=75052bfa-918d-4a31-83e0-d5491c3908ab"},"vehicle_type_id":"4","last_reported":1733919561,"current_range_meters":26000,"station_id":"ce4bhqh2rcd13ifvqhlg","pricing_plan_id":"cebpf4jnsgd1na2vs0mg"},{"bike_id":"8979b88b-e0c9-465c-b920-54c929607786","system_id":"levelo_inurba_marseille","lat":43.30439,"lon":5.3678,"is_reserved":false,"is_disabled":false,"rental_uris":{"android":"levelo://app?vid=8979b88b-e0c9-465c-b920-54c929607786","ios":"levelo://app?vid=8979b88b-e0c9-465c-b920-54c929607786"},"vehicle_type_id":"4","last_reported":1733919561,"current_range_meters":19600,"station_id":"","pricing_plan_id":"cebpf4jnsgd1na2vs0mg"},{"bike_id":"2e2628d3-f1c2-46a3-8e36-69fcb0599f16","system_id":"levelo_inurba_marseille","lat":43.24646,"lon":5.38911,"is_reserved":false,"is_disabled":false,"rental_uris":{"android":"levelo://app?vid=2e2628d3-f1c2-46a3-8e36-69fcb0599f16","ios":"levelo://app?vid=2e2628d3-f1c2-46a3-8e36-69fcb0599f16"},"vehicle_type_id":"4","last_reported":1733919561,"current_range_meters":18000,"station_id":"","pricing_plan_id":"cebpf4jnsgd1na2vs0mg"},{"bike_id":"0ca11bdb-24f6-4d51-8143-3268ce2598c7","system_id":"levelo_inurba_marseille","lat":43.24544,"lon":5.39532,"is_reserved":false,"is_disabled":false,"rental_uris":{"android":"levelo://app?vid=0ca11bdb-24f6-4d51-8143-3268ce2598c7","ios":"levelo://app?vid=0ca11bdb-24f6-4d51-8143-3268ce2598c7"},"vehicle_type_id":"4","last_reported":1733919561,"current_range_meters":38800,"station_id":"ce4bhlp2rcd13ifvqgjg","pricing_plan_id":"cebpf4jnsgd1na2vs0mg"},{"bike_id":"eaa5756b-7d04-477a-b759-0c566d61850d","system_id":"levelo_inurba_marseille","lat":43.27993,"lon":5.40012,"is_reserved":false,"is_disabled":true,"rental_uris":{"android":"levelo://app?vid=eaa5756b-7d04-477a-b759-0c566d61850d","ios":"levelo://app?vid=eaa5756b-7d04-477a-b759-0c566d61850d"},"vehicle_type_id":"4","last_reported":1733919561,"current_range_meters":38000,"station_id":"ce4bho92rcd13ifvqh4g","pricing_plan_id":"cebpf4jnsgd1na2vs0mg"},{"bike_id":"03854ab6-9f42-4955-b580-421cf978eeb8","system_id":"levelo_inurba_marseille","lat":43.3248,"lon":5.36571,"is_reserved":false,"is_disabled":false,"rental_uris":{"android":"levelo://app?vid=03854ab6-9f42-4955-b580-421cf978eeb8","ios":"levelo://app?vid=03854ab6-9f42-4955-b580-421cf978eeb8"},"vehicle_type_id":"4","last_reported":1733919561,"current_range_meters":32400,"station_id":"ce4bhs12rcd13ifvqhvg","pricing_plan_id":"cebpf4jnsgd1na2vs0mg"},{"bike_id":"c85f036b-31a5-4275-81fb-651d87f33f09","system_id":"levelo_inurba_marseille","lat":43.25458,"lon":5.38202,"is_reserved":false,"is_disabled":false,"rental_uris":{"android":"levelo://app?vid=c85f036b-31a5-4275-81fb-651d87f33f09","ios":"levelo://app?vid=c85f036b-31a5-4275-81fb-651d87f33f09"},"vehicle_type_id":"4","last_reported":1733919561,"current_range_meters":37600,"station_id":"","pricing_plan_id":"cebpf4jnsgd1na2vs0mg"},{"bike_id":"eedaa0dc-42dc-491d-9600-c264f7e3bd7d","system_id":"levelo_inurba_marseille","lat":43.25596,"lon":5.38218,"is_reserved":false,"is_disabled":false,"rental_uris":{"android":"levelo://app?vid=eedaa0dc-42dc-491d-9600-c264f7e3bd7d","ios":"levelo://app?vid=eedaa0dc-42dc-491d-9600-c264f7e3bd7d"},"vehicle_type_id":"4","last_reported":1733919561,"current_range_meters":30000,"station_id":"ce4bhih2rcd13ifvqfs0","pricing_plan_id":"cebpf4jnsgd1na2vs0mg"},{"bike_id":"523e9cfe-e739-40ee-9275-f637b37a2db9","system_id":"levelo_inurba_marseille","lat":43.29711,"lon":5.37699,"is_reserved":false,"is_disabled":false,"rental_uris":{"android":"levelo://app?vid=523e9cfe-e739-40ee-9275-f637b37a2db9","ios":"levelo://app?vid=523e9cfe-e739-40ee-9275-f637b37a2db9"},"vehicle_type_id":"4","last_reported":1733919561,"current_range_meters":28000,"station_id":"ce4bgkh2rcd13ifvqbl0","pricing_plan_id":"cebpf4jnsgd1na2vs0mg"},{"bike_id":"2cbb7eea-3dcb-41d0-809e-24f454a1c1c7","system_id":"levelo_inurba_marseille","lat":43.30167,"lon":5.38101,"is_reserved":false,"is_disabled":true,"rental_uris":{"android":"levelo://app?vid=2cbb7eea-3dcb-41d0-809e-24f454a1c1c7","ios":"levelo://app?vid=2cbb7eea-3dcb-41d0-809e-24f454a1c1c7"},"vehicle_type_id":"4","last_reported":1733919561,"current_range_meters":22800,"station_id":"ce4bgjp2rcd13ifvqbh0","pricing_plan_id":"cebpf4jnsgd1na2vs0mg"},{"bike_id":"90324b92-2d52-4f43-bd59-91b2038c3497","system_id":"levelo_inurba_marseille","lat":43.28941,"lon":5.36636,"is_reserved":false,"is_disabled":true,"rental_uris":{"android":"levelo://app?vid=90324b92-2d52-4f43-bd59-91b2038c3497","ios":"levelo://app?vid=90324b92-2d52-4f43-bd59-91b2038c3497"},"vehicle_type_id":"4","last_reported":1733919561,"current_range_meters":30400,"station_id":"ce4bhap2rcd13ifvqek0","pricing_plan_id":"cebpf4jnsgd1na2vs0mg"},{"bike_id":"2da5be90-06de-4e00-a4a2-05faaeb8d236","system_id":"levelo_inurba_marseille","lat":43.31356,"lon":5.36717,"is_reserved":false,"is_disabled":false,"rental_uris":{"android":"levelo://app?vid=2da5be90-06de-4e00-a4a2-05faaeb8d236","ios":"levelo://app?vid=2da5be90-06de-4e00-a4a2-05faaeb8d236"},"vehicle_type_id":"4","last_reported":1733919561,"current_range_meters":34000,"station_id":"ce4bgr92rcd13ifvqc6g","pricing_plan_id":"cebpf4jnsgd1na2vs0mg"},{"bike_id":"a1c2765b-a389-475f-98da-f62559649570","system_id":"levelo_inurba_marseille","lat":43.31359,"lon":5.38492,"is_reserved":false,"is_disabled":false,"rental_uris":{"android":"levelo://app?vid=a1c2765b-a389-475f-98da-f62559649570","ios":"levelo://app?vid=a1c2765b-a389-475f-98da-f62559649570"},"vehicle_type_id":"4","last_reported":1733919561,"current_range_meters":26000,"station_id":"ce4bgt92rcd13ifvqcf0","pricing_plan_id":"cebpf4jnsgd1na2vs0mg"},{"bike_id":"172363b1-31c3-473a-b58d-749884b1fe9a","system_id":"levelo_inurba_marseille","lat":43.29904,"lon":5.38134,"is_reserved":false,"is_disabled":false,"rental_uris":{"android":"levelo://app?vid=172363b1-31c3-473a-b58d-749884b1fe9a","ios":"levelo://app?vid=172363b1-31c3-473a-b58d-749884b1fe9a"},"vehicle_type_id":"4","last_reported":1733919561,"current_range_meters":28400,"station_id":"ce4bgj12rcd13ifvqbc0","pricing_plan_id":"cebpf4jnsgd1na2vs0mg"},{"bike_id":"c8adfc07-b220-45fc-b8d2-2c34000cd717","system_id":"levelo_inurba_marseille","lat":43.27618,"lon":5.36111,"is_reserved":false,"is_disabled":false,"rental_uris":{"android":"levelo://app?vid=c8adfc07-b220-45fc-b8d2-2c34000cd717","ios":"levelo://app?vid=c8adfc07-b220-45fc-b8d2-2c34000cd717"},"vehicle_type_id":"4","last_reported":1733919561,"current_range_meters":13600,"station_id":"ce4bgj92rcd13ifvqbe0","pricing_plan_id":"cebpf4jnsgd1na2vs0mg"},{"bike_id":"6faa6ee7-a588-4286-8e0c-a7deeaae5bab","system_id":"levelo_inurba_marseille","lat":43.2736,"lon":5.36257,"is_reserved":false,"is_disabled":false,"rental_uris":{"android":"levelo://app?vid=6faa6ee7-a588-4286-8e0c-a7deeaae5bab","ios":"levelo://app?vid=6faa6ee7-a588-4286-8e0c-a7deeaae5bab"},"vehicle_type_id":"4","last_reported":1733919561,"current_range_meters":38800,"station_id":"ce4bhbh2rcd13ifvqeo0","pricing_plan_id":"cebpf4jnsgd1na2vs0mg"},{"bike_id":"91003ad4-ef41-4b2a-9ce5-d3fe6513ec8c","system_id":"levelo_inurba_marseille","lat":43.30419,"lon":5.4128,"is_reserved":false,"is_disabled":false,"rental_uris":{"android":"levelo://app?vid=91003ad4-ef41-4b2a-9ce5-d3fe6513ec8c","ios":"levelo://app?vid=91003ad4-ef41-4b2a-9ce5-d3fe6513ec8c"},"vehicle_type_id":"4","last_reported":1733919561,"current_range_meters":28000,"station_id":"ce4bhop2rcd13ifvqh8g","pricing_plan_id":"cebpf4jnsgd1na2vs0mg"},{"bike_id":"30b7f7b0-cffb-44e8-9e23-86428fe1183d","system_id":"levelo_inurba_marseille","lat":43.23065,"lon":5.35493,"is_reserved":false,"is_disabled":false,"rental_uris":{"android":"levelo://app?vid=30b7f7b0-cffb-44e8-9e23-86428fe1183d","ios":"levelo://app?vid=30b7f7b0-cffb-44e8-9e23-86428fe1183d"},"vehicle_type_id":"4","last_reported":1733919561,"current_range_meters":14400,"station_id":"cpo3342slgdg3j2ifvpg","pricing_plan_id":"cebpf4jnsgd1na2vs0mg"},{"bike_id":"3525db53-1a03-423d-94da-dfa27d380ac3","system_id":"levelo_inurba_marseille","lat":43.25946,"lon":5.39871,"is_reserved":false,"is_disabled":false,"rental_uris":{"android":"levelo://app?vid=3525db53-1a03-423d-94da-dfa27d380ac3","ios":"levelo://app?vid=3525db53-1a03-423d-94da-dfa27d380ac3"},"vehicle_type_id":"4","last_reported":1733919561,"current_range_meters":34800,"station_id":"ce4bhl92rcd13ifvqghg","pricing_plan_id":"cebpf4jnsgd1na2vs0mg"},{"bike_id":"390eb4cd-3b1a-47d2-a259-05a4ea547b65","system_id":"levelo_inurba_marseille","lat":43.30306,"lon":5.36877,"is_reserved":false,"is_disabled":false,"rental_uris":{"android":"levelo://app?vid=390eb4cd-3b1a-47d2-a259-05a4ea547b65","ios":"levelo://app?vid=390eb4cd-3b1a-47d2-a259-05a4ea547b65"},"vehicle_type_id":"4","last_reported":1733919561,"current_range_meters":34000,"station_id":"ce4bgqh2rcd13ifvqc5g","pricing_plan_id":"cebpf4jnsgd1na2vs0mg"},{"bike_id":"92afc662-0947-4008-ad7f-7936a680d701","system_id":"levelo_inurba_marseille","lat":43.28616,"lon":5.35105,"is_reserved":false,"is_disabled":false,"rental_uris":{"android":"levelo://app?vid=92afc662-0947-4008-ad7f-7936a680d701","ios":"levelo://app?vid=92afc662-0947-4008-ad7f-7936a680d701"},"vehicle_type_id":"4","last_reported":1733919561,"current_range_meters":16000,"station_id":"ce4bhch2rcd13ifvqeug","pricing_plan_id":"cebpf4jnsgd1na2vs0mg"},{"bike_id":"2e36a5ec-85ce-44ac-a1d9-54a8e609efa1","system_id":"levelo_inurba_marseille","lat":43.24164,"lon":5.36408,"is_reserved":false,"is_disabled":false,"rental_uris":{"android":"levelo://app?vid=2e36a5ec-85ce-44ac-a1d9-54a8e609efa1","ios":"levelo://app?vid=2e36a5ec-85ce-44ac-a1d9-54a8e609efa1"},"vehicle_type_id":"4","last_reported":1733919561,"current_range_meters":17200,"station_id":"cpo36qri1sfpv3e86is0","pricing_plan_id":"cebpf4jnsgd1na2vs0mg"},{"bike_id":"f4eed1a7-3802-4a6e-adcc-820cb8890f67","system_id":"levelo_inurba_marseille","lat":43.31225,"lon":5.36881,"is_reserved":false,"is_disabled":false,"rental_uris":{"android":"levelo://app?vid=f4eed1a7-3802-4a6e-adcc-820cb8890f67","ios":"levelo://app?vid=f4eed1a7-3802-4a6e-adcc-820cb8890f67"},"vehicle_type_id":"4","last_reported":1733919561,"current_range_meters":26800,"station_id":"ce4bgl92rcd13ifvqbq0","pricing_plan_id":"cebpf4jnsgd1na2vs0mg"},{"bike_id":"0f17d2c4-bf96-42e6-978b-f52d4d5288cd","system_id":"levelo_inurba_marseille","lat":43.30318,"lon":5.40441,"is_reserved":false,"is_disabled":true,"rental_uris":{"android":"levelo://app?vid=0f17d2c4-bf96-42e6-978b-f52d4d5288cd","ios":"levelo://app?vid=0f17d2c4-bf96-42e6-978b-f52d4d5288cd"},"vehicle_type_id":"4","last_reported":1733919561,"current_range_meters":34800,"station_id":"ce4bh012rcd13ifvqd10","pricing_plan_id":"cebpf4jnsgd1na2vs0mg"},{"bike_id":"055ecd6d-eb29-427a-91ef-ded7a467b1be","system_id":"levelo_inurba_marseille","lat":43.28683,"lon":5.38671,"is_reserved":false,"is_disabled":true,"rental_uris":{"android":"levelo://app?vid=055ecd6d-eb29-427a-91ef-ded7a467b1be","ios":"levelo://app?vid=055ecd6d-eb29-427a-91ef-ded7a467b1be"},"vehicle_type_id":"4","last_reported":1733919561,"current_range_meters":38800,"station_id":"ce4bh492rcd13ifvqdug","pricing_plan_id":"cebpf4jnsgd1na2vs0mg"},{"bike_id":"2196553f-7f0d-4eea-9854-82ea53b19b52","system_id":"levelo_inurba_marseille","lat":43.31485,"lon":5.3731,"is_reserved":false,"is_disabled":false,"rental_uris":{"android":"levelo://app?vid=2196553f-7f0d-4eea-9854-82ea53b19b52","ios":"levelo://app?vid=2196553f-7f0d-4eea-9854-82ea53b19b52"},"vehicle_type_id":"4","last_reported":1733919561,"current_range_meters":38800,"station_id":"ce4bgt12rcd13ifvqcd0","pricing_plan_id":"cebpf4jnsgd1na2vs0mg"},{"bike_id":"e9b08cca-37ab-4633-8ff7-2d0a0a0131fe","system_id":"levelo_inurba_marseille","lat":43.268,"lon":5.40268,"is_reserved":false,"is_disabled":false,"rental_uris":{"android":"levelo://app?vid=e9b08cca-37ab-4633-8ff7-2d0a0a0131fe","ios":"levelo://app?vid=e9b08cca-37ab-4633-8ff7-2d0a0a0131fe"},"vehicle_type_id":"4","last_reported":1733919561,"current_range_meters":27600,"station_id":"ce501612rcd8frsf0b60","pricing_plan_id":"cebpf4jnsgd1na2vs0mg"},{"bike_id":"b1704e06-3ae3-4455-a517-a4600fc51933","system_id":"levelo_inurba_marseille","lat":43.30522,"lon":5.36529,"is_reserved":false,"is_disabled":false,"rental_uris":{"android":"levelo://app?vid=b1704e06-3ae3-4455-a517-a4600fc51933","ios":"levelo://app?vid=b1704e06-3ae3-4455-a517-a4600fc51933"},"vehicle_type_id":"4","last_reported":1733919561,"current_range_meters":27600,"station_id":"ce4bgs12rcd13ifvqcag","pricing_plan_id":"cebpf4jnsgd1na2vs0mg"},{"bike_id":"af67ac53-ba21-4ff0-8334-95679e9ff2cc","system_id":"levelo_inurba_marseille","lat":43.278805,"lon":5.388003,"is_reserved":false,"is_disabled":true,"rental_uris":{"android":"levelo://app?vid=af67ac53-ba21-4ff0-8334-95679e9ff2cc","ios":"levelo://app?vid=af67ac53-ba21-4ff0-8334-95679e9ff2cc"},"vehicle_type_id":"4","last_reported":1733919561,"current_range_meters":0,"station_id":"","pricing_plan_id":"cebpf4jnsgd1na2vs0mg"},{"bike_id":"ab6bb814-6be0-4a23-8be0-7c219c550454","system_id":"levelo_inurba_marseille","lat":43.2944,"lon":5.39754,"is_reserved":false,"is_disabled":true,"rental_uris":{"android":"levelo://app?vid=ab6bb814-6be0-4a23-8be0-7c219c550454","ios":"levelo://app?vid=ab6bb814-6be0-4a23-8be0-7c219c550454"},"vehicle_type_id":"4","last_reported":1733919561,"current_range_meters":1200,"station_id":"ce4bh3h2rcd13ifvqdo0","pricing_plan_id":"cebpf4jnsgd1na2vs0mg"},{"bike_id":"bee05443-3cc0-49cd-a779-e44bac1f1795","system_id":"levelo_inurba_marseille","lat":43.29575,"lon":5.39968,"is_reserved":false,"is_disabled":false,"rental_uris":{"android":"levelo://app?vid=bee05443-3cc0-49cd-a779-e44bac1f1795","ios":"levelo://app?vid=bee05443-3cc0-49cd-a779-e44bac1f1795"},"vehicle_type_id":"4","last_reported":1733919561,"current_range_meters":30400,"station_id":"ce4bh312rcd13ifvqdj0","pricing_plan_id":"cebpf4jnsgd1na2vs0mg"},{"bike_id":"5f1e376a-ff67-47fa-81f9-e0bd58032f31","system_id":"levelo_inurba_marseille","lat":43.24538,"lon":5.39546,"is_reserved":false,"is_disabled":false,"rental_uris":{"android":"levelo://app?vid=5f1e376a-ff67-47fa-81f9-e0bd58032f31","ios":"levelo://app?vid=5f1e376a-ff67-47fa-81f9-e0bd58032f31"},"vehicle_type_id":"4","last_reported":1733919561,"current_range_meters":28400,"station_id":"ce4bhlp2rcd13ifvqgjg","pricing_plan_id":"cebpf4jnsgd1na2vs0mg"},{"bike_id":"c3f87c2d-f647-4d71-89d3-fc010d8ba668","system_id":"levelo_inurba_marseille","lat":43.28485,"lon":5.38438,"is_reserved":false,"is_disabled":true,"rental_uris":{"android":"levelo://app?vid=c3f87c2d-f647-4d71-89d3-fc010d8ba668","ios":"levelo://app?vid=c3f87c2d-f647-4d71-89d3-fc010d8ba668"},"vehicle_type_id":"4","last_reported":1733919561,"current_range_meters":0,"station_id":"ce4bh512rcd13ifvqe3g","pricing_plan_id":"cebpf4jnsgd1na2vs0mg"},{"bike_id":"ad53aee5-a729-48be-8206-ea00c2981c19","system_id":"levelo_inurba_marseille","lat":43.305,"lon":5.36521,"is_reserved":false,"is_disabled":true,"rental_uris":{"android":"levelo://app?vid=ad53aee5-a729-48be-8206-ea00c2981c19","ios":"levelo://app?vid=ad53aee5-a729-48be-8206-ea00c2981c19"},"vehicle_type_id":"4","last_reported":1733919561,"current_range_meters":0,"station_id":"","pricing_plan_id":"cebpf4jnsgd1na2vs0mg"},{"bike_id":"0b3eeec8-03fc-4ec9-a747-da2e101f987f","system_id":"levelo_inurba_marseille","lat":43.23965,"lon":5.36621,"is_reserved":false,"is_disabled":false,"rental_uris":{"android":"levelo://app?vid=0b3eeec8-03fc-4ec9-a747-da2e101f987f","ios":"levelo://app?vid=0b3eeec8-03fc-4ec9-a747-da2e101f987f"},"vehicle_type_id":"4","last_reported":1733919561,"current_range_meters":31200,"station_id":"ce4bhi12rcd13ifvqfp0","pricing_plan_id":"cebpf4jnsgd1na2vs0mg"},{"bike_id":"bf685501-15c9-48c5-9dc4-de72909678bb","system_id":"levelo_inurba_marseille","lat":43.28101,"lon":5.37849,"is_reserved":false,"is_disabled":false,"rental_uris":{"android":"levelo://app?vid=bf685501-15c9-48c5-9dc4-de72909678bb","ios":"levelo://app?vid=bf685501-15c9-48c5-9dc4-de72909678bb"},"vehicle_type_id":"4","last_reported":1733919561,"current_range_meters":39200,"station_id":"ce4bha12rcd13ifvqee0","pricing_plan_id":"cebpf4jnsgd1na2vs0mg"},{"bike_id":"e74a50cf-7264-4777-9ab5-82ad112baa3d","system_id":"levelo_inurba_marseille","lat":43.29048,"lon":5.35905,"is_reserved":false,"is_disabled":false,"rental_uris":{"android":"levelo://app?vid=e74a50cf-7264-4777-9ab5-82ad112baa3d","ios":"levelo://app?vid=e74a50cf-7264-4777-9ab5-82ad112baa3d"},"vehicle_type_id":"4","last_reported":1733919561,"current_range_meters":6800,"station_id":"ce4bha92rcd13ifvqeg0","pricing_plan_id":"cebpf4jnsgd1na2vs0mg"},{"bike_id":"54872ebf-13bd-4dde-9447-2eb05cb88746","system_id":"levelo_inurba_marseille","lat":43.30312,"lon":5.36898,"is_reserved":false,"is_disabled":false,"rental_uris":{"android":"levelo://app?vid=54872ebf-13bd-4dde-9447-2eb05cb88746","ios":"levelo://app?vid=54872ebf-13bd-4dde-9447-2eb05cb88746"},"vehicle_type_id":"4","last_reported":1733919561,"current_range_meters":36400,"station_id":"ce4bgqh2rcd13ifvqc5g","pricing_plan_id":"cebpf4jnsgd1na2vs0mg"},{"bike_id":"2a840d25-ede3-4252-9167-945fab20cf73","system_id":"levelo_inurba_marseille","lat":43.24808,"lon":5.37469,"is_reserved":false,"is_disabled":false,"rental_uris":{"android":"levelo://app?vid=2a840d25-ede3-4252-9167-945fab20cf73","ios":"levelo://app?vid=2a840d25-ede3-4252-9167-945fab20cf73"},"vehicle_type_id":"4","last_reported":1733919561,"current_range_meters":32400,"station_id":"ce4bhgh2rcd13ifvqfb0","pricing_plan_id":"cebpf4jnsgd1na2vs0mg"},{"bike_id":"baf19c53-17dc-4f4b-a718-7b0c4daa1db3","system_id":"levelo_inurba_marseille","lat":43.29619,"lon":5.3772,"is_reserved":false,"is_disabled":true,"rental_uris":{"android":"levelo://app?vid=baf19c53-17dc-4f4b-a718-7b0c4daa1db3","ios":"levelo://app?vid=baf19c53-17dc-4f4b-a718-7b0c4daa1db3"},"vehicle_type_id":"4","last_reported":1733919561,"current_range_meters":800,"station_id":"ce4bgi92rcd13ifvqb90","pricing_plan_id":"cebpf4jnsgd1na2vs0mg"},{"bike_id":"b4cca5fe-fd8b-451a-84c5-2253a68cf433","system_id":"levelo_inurba_marseille","lat":43.28264,"lon":5.35066,"is_reserved":false,"is_disabled":false,"rental_uris":{"android":"levelo://app?vid=b4cca5fe-fd8b-451a-84c5-2253a68cf433","ios":"levelo://app?vid=b4cca5fe-fd8b-451a-84c5-2253a68cf433"},"vehicle_type_id":"4","last_reported":1733919561,"current_range_meters":32000,"station_id":"ce4bhbp2rcd13ifvqerg","pricing_plan_id":"cebpf4jnsgd1na2vs0mg"},{"bike_id":"82d96bec-251c-41ad-8bd1-f8ee53b2a226","system_id":"levelo_inurba_marseille","lat":43.24803,"lon":5.37452,"is_reserved":false,"is_disabled":false,"rental_uris":{"android":"levelo://app?vid=82d96bec-251c-41ad-8bd1-f8ee53b2a226","ios":"levelo://app?vid=82d96bec-251c-41ad-8bd1-f8ee53b2a226"},"vehicle_type_id":"4","last_reported":1733919561,"current_range_meters":32800,"station_id":"ce4bhgh2rcd13ifvqfb0","pricing_plan_id":"cebpf4jnsgd1na2vs0mg"},{"bike_id":"cefa54cb-a0bd-4d51-b13e-03ea2047e36f","system_id":"levelo_inurba_marseille","lat":43.29587,"lon":5.37527,"is_reserved":false,"is_disabled":true,"rental_uris":{"android":"levelo://app?vid=cefa54cb-a0bd-4d51-b13e-03ea2047e36f","ios":"levelo://app?vid=cefa54cb-a0bd-4d51-b13e-03ea2047e36f"},"vehicle_type_id":"4","last_reported":1733919561,"current_range_meters":32800,"station_id":"ce4bgh92rcd13ifvqb50","pricing_plan_id":"cebpf4jnsgd1na2vs0mg"},{"bike_id":"711c0599-5dd9-4c9a-9bb7-9b4505aa20b4","system_id":"levelo_inurba_marseille","lat":43.31998,"lon":5.38153,"is_reserved":false,"is_disabled":false,"rental_uris":{"android":"levelo://app?vid=711c0599-5dd9-4c9a-9bb7-9b4505aa20b4","ios":"levelo://app?vid=711c0599-5dd9-4c9a-9bb7-9b4505aa20b4"},"vehicle_type_id":"4","last_reported":1733919561,"current_range_meters":30800,"station_id":"ce4bhr12rcd13ifvqhpg","pricing_plan_id":"cebpf4jnsgd1na2vs0mg"},{"bike_id":"944629af-dffe-4122-8be7-c4d5acfd3499","system_id":"levelo_inurba_marseille","lat":43.28642,"lon":5.38568,"is_reserved":false,"is_disabled":false,"rental_uris":{"android":"levelo://app?vid=944629af-dffe-4122-8be7-c4d5acfd3499","ios":"levelo://app?vid=944629af-dffe-4122-8be7-c4d5acfd3499"},"vehicle_type_id":"4","last_reported":1733919561,"current_range_meters":37600,"station_id":"ce4bh192rcd13ifvqdc0","pricing_plan_id":"cebpf4jnsgd1na2vs0mg"},{"bike_id":"b8e3a311-f02b-4399-af7b-1bfb5506fa2a","system_id":"levelo_inurba_marseille","lat":43.24646,"lon":5.38897,"is_reserved":false,"is_disabled":false,"rental_uris":{"android":"levelo://app?vid=b8e3a311-f02b-4399-af7b-1bfb5506fa2a","ios":"levelo://app?vid=b8e3a311-f02b-4399-af7b-1bfb5506fa2a"},"vehicle_type_id":"4","last_reported":1733919561,"current_range_meters":28800,"station_id":"ce4bhg12rcd13ifvqf60","pricing_plan_id":"cebpf4jnsgd1na2vs0mg"},{"bike_id":"0819c574-c550-4f68-9dac-3c1b3fdf0d04","system_id":"levelo_inurba_marseille","lat":43.32277,"lon":5.38307,"is_reserved":false,"is_disabled":false,"rental_uris":{"android":"levelo://app?vid=0819c574-c550-4f68-9dac-3c1b3fdf0d04","ios":"levelo://app?vid=0819c574-c550-4f68-9dac-3c1b3fdf0d04"},"vehicle_type_id":"4","last_reported":1733919561,"current_range_meters":39200,"station_id":"ce4bhr12rcd13ifvqhqg","pricing_plan_id":"cebpf4jnsgd1na2vs0mg"},{"bike_id":"40aa3401-ee50-4d6d-8cdb-064bb29e5ead","system_id":"levelo_inurba_marseille","lat":43.32484,"lon":5.36569,"is_reserved":false,"is_disabled":false,"rental_uris":{"android":"levelo://app?vid=40aa3401-ee50-4d6d-8cdb-064bb29e5ead","ios":"levelo://app?vid=40aa3401-ee50-4d6d-8cdb-064bb29e5ead"},"vehicle_type_id":"4","last_reported":1733919561,"current_range_meters":38800,"station_id":"ce4bhs12rcd13ifvqhvg","pricing_plan_id":"cebpf4jnsgd1na2vs0mg"},{"bike_id":"c8000abf-7b04-4aa2-881e-f0c5fefdd95b","system_id":"levelo_inurba_marseille","lat":43.31993,"lon":5.38158,"is_reserved":false,"is_disabled":false,"rental_uris":{"android":"levelo://app?vid=c8000abf-7b04-4aa2-881e-f0c5fefdd95b","ios":"levelo://app?vid=c8000abf-7b04-4aa2-881e-f0c5fefdd95b"},"vehicle_type_id":"4","last_reported":1733919561,"current_range_meters":19600,"station_id":"ce4bhr12rcd13ifvqhpg","pricing_plan_id":"cebpf4jnsgd1na2vs0mg"},{"bike_id":"297c93da-50d5-4eea-acac-8d9ff0551260","system_id":"levelo_inurba_marseille","lat":43.27058,"lon":5.40268,"is_reserved":false,"is_disabled":true,"rental_uris":{"android":"levelo://app?vid=297c93da-50d5-4eea-acac-8d9ff0551260","ios":"levelo://app?vid=297c93da-50d5-4eea-acac-8d9ff0551260"},"vehicle_type_id":"4","last_reported":1733919561,"current_range_meters":800,"station_id":"ce4bhk92rcd13ifvqgc0","pricing_plan_id":"cebpf4jnsgd1na2vs0mg"},{"bike_id":"767df59e-ea6f-4d01-bc49-3f70184c1a76","system_id":"levelo_inurba_marseille","lat":43.29964,"lon":5.38482,"is_reserved":false,"is_disabled":false,"rental_uris":{"android":"levelo://app?vid=767df59e-ea6f-4d01-bc49-3f70184c1a76","ios":"levelo://app?vid=767df59e-ea6f-4d01-bc49-3f70184c1a76"},"vehicle_type_id":"4","last_reported":1733919561,"current_range_meters":32400,"station_id":"ce4bgj92rcd13ifvqbd0","pricing_plan_id":"cebpf4jnsgd1na2vs0mg"},{"bike_id":"a2042e8b-0b04-4eae-b2b4-0a7e7b43b391","system_id":"levelo_inurba_marseille","lat":43.30885,"lon":5.37197,"is_reserved":false,"is_disabled":false,"rental_uris":{"android":"levelo://app?vid=a2042e8b-0b04-4eae-b2b4-0a7e7b43b391","ios":"levelo://app?vid=a2042e8b-0b04-4eae-b2b4-0a7e7b43b391"},"vehicle_type_id":"4","last_reported":1733919561,"current_range_meters":38800,"station_id":"ce4bguh2rcd13ifvqckg","pricing_plan_id":"cebpf4jnsgd1na2vs0mg"},{"bike_id":"5437f440-1823-4710-b1e4-1553e632ff1d","system_id":"levelo_inurba_marseille","lat":43.259226,"lon":5.40886,"is_reserved":false,"is_disabled":false,"rental_uris":{"android":"levelo://app?vid=5437f440-1823-4710-b1e4-1553e632ff1d","ios":"levelo://app?vid=5437f440-1823-4710-b1e4-1553e632ff1d"},"vehicle_type_id":"4","last_reported":1733919561,"current_range_meters":19200,"station_id":"ce4bhm92rcd13ifvqglg","pricing_plan_id":"cebpf4jnsgd1na2vs0mg"},{"bike_id":"50b714ae-96e6-4593-bfba-7d9f49fa5482","system_id":"levelo_inurba_marseille","lat":43.2396,"lon":5.36665,"is_reserved":false,"is_disabled":false,"rental_uris":{"android":"levelo://app?vid=50b714ae-96e6-4593-bfba-7d9f49fa5482","ios":"levelo://app?vid=50b714ae-96e6-4593-bfba-7d9f49fa5482"},"vehicle_type_id":"4","last_reported":1733919561,"current_range_meters":38800,"station_id":"ce4bhi12rcd13ifvqfp0","pricing_plan_id":"cebpf4jnsgd1na2vs0mg"},{"bike_id":"8bab6c98-d5ec-47ba-bcfa-33a95ed9f9be","system_id":"levelo_inurba_marseille","lat":43.26783,"lon":5.39414,"is_reserved":false,"is_disabled":false,"rental_uris":{"android":"levelo://app?vid=8bab6c98-d5ec-47ba-bcfa-33a95ed9f9be","ios":"levelo://app?vid=8bab6c98-d5ec-47ba-bcfa-33a95ed9f9be"},"vehicle_type_id":"4","last_reported":1733919561,"current_range_meters":3600,"station_id":"ce4bhh12rcd13ifvqfg0","pricing_plan_id":"cebpf4jnsgd1na2vs0mg"},{"bike_id":"338411d9-dcc3-4ff8-b277-679a00a24582","system_id":"levelo_inurba_marseille","lat":43.31334,"lon":5.36743,"is_reserved":false,"is_disabled":false,"rental_uris":{"android":"levelo://app?vid=338411d9-dcc3-4ff8-b277-679a00a24582","ios":"levelo://app?vid=338411d9-dcc3-4ff8-b277-679a00a24582"},"vehicle_type_id":"4","last_reported":1733919561,"current_range_meters":39200,"station_id":"ce4bgr92rcd13ifvqc6g","pricing_plan_id":"cebpf4jnsgd1na2vs0mg"},{"bike_id":"63b7b3ef-0f75-4622-9c82-187b9bd7b2dd","system_id":"levelo_inurba_marseille","lat":43.24807,"lon":5.3746,"is_reserved":false,"is_disabled":false,"rental_uris":{"android":"levelo://app?vid=63b7b3ef-0f75-4622-9c82-187b9bd7b2dd","ios":"levelo://app?vid=63b7b3ef-0f75-4622-9c82-187b9bd7b2dd"},"vehicle_type_id":"4","last_reported":1733919561,"current_range_meters":22400,"station_id":"ce4bhgh2rcd13ifvqfb0","pricing_plan_id":"cebpf4jnsgd1na2vs0mg"},{"bike_id":"c8283bc0-c4ca-4d18-80a5-b7f6334b4500","system_id":"levelo_inurba_marseille","lat":43.30277,"lon":5.37717,"is_reserved":false,"is_disabled":false,"rental_uris":{"android":"levelo://app?vid=c8283bc0-c4ca-4d18-80a5-b7f6334b4500","ios":"levelo://app?vid=c8283bc0-c4ca-4d18-80a5-b7f6334b4500"},"vehicle_type_id":"4","last_reported":1733919561,"current_range_meters":20000,"station_id":"ce4bguh2rcd13ifvqcj0","pricing_plan_id":"cebpf4jnsgd1na2vs0mg"},{"bike_id":"440c0882-719b-4b38-aba1-872c74c75218","system_id":"levelo_inurba_marseille","lat":43.32263,"lon":5.38284,"is_reserved":false,"is_disabled":false,"rental_uris":{"android":"levelo://app?vid=440c0882-719b-4b38-aba1-872c74c75218","ios":"levelo://app?vid=440c0882-719b-4b38-aba1-872c74c75218"},"vehicle_type_id":"4","last_reported":1733919561,"current_range_meters":38800,"station_id":"ce4bhr12rcd13ifvqhqg","pricing_plan_id":"cebpf4jnsgd1na2vs0mg"},{"bike_id":"043b6990-a2d9-4323-9fb9-2f90f599ded1","system_id":"levelo_inurba_marseille","lat":43.26031,"lon":5.3757,"is_reserved":false,"is_disabled":false,"rental_uris":{"android":"levelo://app?vid=043b6990-a2d9-4323-9fb9-2f90f599ded1","ios":"levelo://app?vid=043b6990-a2d9-4323-9fb9-2f90f599ded1"},"vehicle_type_id":"4","last_reported":1733919561,"current_range_meters":38800,"station_id":"ce4bhgh2rcd13ifvqfa0","pricing_plan_id":"cebpf4jnsgd1na2vs0mg"},{"bike_id":"1fbb5d03-4862-432c-87d0-5c4a534a44a3","system_id":"levelo_inurba_marseille","lat":43.26055,"lon":5.39394,"is_reserved":false,"is_disabled":false,"rental_uris":{"android":"levelo://app?vid=1fbb5d03-4862-432c-87d0-5c4a534a44a3","ios":"levelo://app?vid=1fbb5d03-4862-432c-87d0-5c4a534a44a3"},"vehicle_type_id":"4","last_reported":1733919561,"current_range_meters":36000,"station_id":"ce4bhh92rcd13ifvqfj0","pricing_plan_id":"cebpf4jnsgd1na2vs0mg"},{"bike_id":"accc15c2-75c8-4823-a61f-1d4d7e399167","system_id":"levelo_inurba_marseille","lat":43.29417,"lon":5.38611,"is_reserved":false,"is_disabled":true,"rental_uris":{"android":"levelo://app?vid=accc15c2-75c8-4823-a61f-1d4d7e399167","ios":"levelo://app?vid=accc15c2-75c8-4823-a61f-1d4d7e399167"},"vehicle_type_id":"4","last_reported":1733919561,"current_range_meters":11200,"station_id":"ce4bh2h2rcd13ifvqdh0","pricing_plan_id":"cebpf4jnsgd1na2vs0mg"},{"bike_id":"775440f2-8b23-4abe-bb5a-c9c8ad09f60f","system_id":"levelo_inurba_marseille","lat":43.25576,"lon":5.38234,"is_reserved":false,"is_disabled":false,"rental_uris":{"android":"levelo://app?vid=775440f2-8b23-4abe-bb5a-c9c8ad09f60f","ios":"levelo://app?vid=775440f2-8b23-4abe-bb5a-c9c8ad09f60f"},"vehicle_type_id":"4","last_reported":1733919561,"current_range_meters":27600,"station_id":"ce4bhih2rcd13ifvqfs0","pricing_plan_id":"cebpf4jnsgd1na2vs0mg"},{"bike_id":"1dcb3730-1dbc-4158-85c7-65de2c8645d2","system_id":"levelo_inurba_marseille","lat":43.29551,"lon":5.42283,"is_reserved":false,"is_disabled":false,"rental_uris":{"android":"levelo://app?vid=1dcb3730-1dbc-4158-85c7-65de2c8645d2","ios":"levelo://app?vid=1dcb3730-1dbc-4158-85c7-65de2c8645d2"},"vehicle_type_id":"4","last_reported":1733919561,"current_range_meters":37600,"station_id":"ce4bhph2rcd13ifvqhdg","pricing_plan_id":"cebpf4jnsgd1na2vs0mg"},{"bike_id":"f13149ec-54f8-48f8-a181-365818626865","system_id":"levelo_inurba_marseille","lat":43.31484,"lon":5.37316,"is_reserved":false,"is_disabled":false,"rental_uris":{"android":"levelo://app?vid=f13149ec-54f8-48f8-a181-365818626865","ios":"levelo://app?vid=f13149ec-54f8-48f8-a181-365818626865"},"vehicle_type_id":"4","last_reported":1733919561,"current_range_meters":36800,"station_id":"ce4bgt12rcd13ifvqcd0","pricing_plan_id":"cebpf4jnsgd1na2vs0mg"},{"bike_id":"cb6b98a1-43d7-4238-80c2-749167267ffc","system_id":"levelo_inurba_marseille","lat":43.30127,"lon":5.37423,"is_reserved":false,"is_disabled":false,"rental_uris":{"android":"levelo://app?vid=cb6b98a1-43d7-4238-80c2-749167267ffc","ios":"levelo://app?vid=cb6b98a1-43d7-4238-80c2-749167267ffc"},"vehicle_type_id":"4","last_reported":1733919561,"current_range_meters":38800,"station_id":"ce4bgs92rcd13ifvqcc0","pricing_plan_id":"cebpf4jnsgd1na2vs0mg"},{"bike_id":"e966d2c7-c9e1-4cb1-9a39-6325607b0be4","system_id":"levelo_inurba_marseille","lat":43.337444,"lon":5.374475,"is_reserved":false,"is_disabled":true,"rental_uris":{"android":"levelo://app?vid=e966d2c7-c9e1-4cb1-9a39-6325607b0be4","ios":"levelo://app?vid=e966d2c7-c9e1-4cb1-9a39-6325607b0be4"},"vehicle_type_id":"4","last_reported":1733919561,"current_range_meters":0,"station_id":"","pricing_plan_id":"cebpf4jnsgd1na2vs0mg"},{"bike_id":"2959d5d4-47f0-4d97-9053-e5d67719a7f5","system_id":"levelo_inurba_marseille","lat":43.24387,"lon":5.37063,"is_reserved":false,"is_disabled":false,"rental_uris":{"android":"levelo://app?vid=2959d5d4-47f0-4d97-9053-e5d67719a7f5","ios":"levelo://app?vid=2959d5d4-47f0-4d97-9053-e5d67719a7f5"},"vehicle_type_id":"4","last_reported":1733919561,"current_range_meters":24800,"station_id":"ce4bhhh2rcd13ifvqfk0","pricing_plan_id":"cebpf4jnsgd1na2vs0mg"},{"bike_id":"024d6892-7b4d-4d99-8644-b87256d5a706","system_id":"levelo_inurba_marseille","lat":43.29596,"lon":5.37737,"is_reserved":false,"is_disabled":false,"rental_uris":{"android":"levelo://app?vid=024d6892-7b4d-4d99-8644-b87256d5a706","ios":"levelo://app?vid=024d6892-7b4d-4d99-8644-b87256d5a706"},"vehicle_type_id":"4","last_reported":1733919561,"current_range_meters":29600,"station_id":"ce4bgi92rcd13ifvqb90","pricing_plan_id":"cebpf4jnsgd1na2vs0mg"},{"bike_id":"08a42c33-2e9e-4a6b-9177-56341bc71133","system_id":"levelo_inurba_marseille","lat":43.27998,"lon":5.40013,"is_reserved":false,"is_disabled":false,"rental_uris":{"android":"levelo://app?vid=08a42c33-2e9e-4a6b-9177-56341bc71133","ios":"levelo://app?vid=08a42c33-2e9e-4a6b-9177-56341bc71133"},"vehicle_type_id":"4","last_reported":1733919561,"current_range_meters":27200,"station_id":"ce4bho92rcd13ifvqh4g","pricing_plan_id":"cebpf4jnsgd1na2vs0mg"},{"bike_id":"17f59de1-b3ce-4e3a-95ec-402199b35e46","system_id":"levelo_inurba_marseille","lat":43.24648,"lon":5.3889,"is_reserved":false,"is_disabled":false,"rental_uris":{"android":"levelo://app?vid=17f59de1-b3ce-4e3a-95ec-402199b35e46","ios":"levelo://app?vid=17f59de1-b3ce-4e3a-95ec-402199b35e46"},"vehicle_type_id":"4","last_reported":1733919561,"current_range_meters":31200,"station_id":"ce4bhg12rcd13ifvqf60","pricing_plan_id":"cebpf4jnsgd1na2vs0mg"},{"bike_id":"7b6aa142-ca01-40d6-b323-bb3f666c0a85","system_id":"levelo_inurba_marseille","lat":43.28477,"lon":5.38408,"is_reserved":false,"is_disabled":true,"rental_uris":{"android":"levelo://app?vid=7b6aa142-ca01-40d6-b323-bb3f666c0a85","ios":"levelo://app?vid=7b6aa142-ca01-40d6-b323-bb3f666c0a85"},"vehicle_type_id":"4","last_reported":1733919561,"current_range_meters":800,"station_id":"ce4bh512rcd13ifvqe3g","pricing_plan_id":"cebpf4jnsgd1na2vs0mg"},{"bike_id":"ba8161c7-4a94-40c7-998e-0e585e2c4d1b","system_id":"levelo_inurba_marseille","lat":43.27068,"lon":5.4228,"is_reserved":false,"is_disabled":false,"rental_uris":{"android":"levelo://app?vid=ba8161c7-4a94-40c7-998e-0e585e2c4d1b","ios":"levelo://app?vid=ba8161c7-4a94-40c7-998e-0e585e2c4d1b"},"vehicle_type_id":"4","last_reported":1733919561,"current_range_meters":37600,"station_id":"ce4bhk92rcd13ifvqgb0","pricing_plan_id":"cebpf4jnsgd1na2vs0mg"},{"bike_id":"654f198c-d9ba-4f22-a6d2-7d5683a90803","system_id":"levelo_inurba_marseille","lat":43.24806,"lon":5.37461,"is_reserved":false,"is_disabled":false,"rental_uris":{"android":"levelo://app?vid=654f198c-d9ba-4f22-a6d2-7d5683a90803","ios":"levelo://app?vid=654f198c-d9ba-4f22-a6d2-7d5683a90803"},"vehicle_type_id":"4","last_reported":1733919561,"current_range_meters":32000,"station_id":"ce4bhgh2rcd13ifvqfb0","pricing_plan_id":"cebpf4jnsgd1na2vs0mg"},{"bike_id":"05a25ed4-2e6a-4c18-bb82-1b033bbb0d61","system_id":"levelo_inurba_marseille","lat":43.27551,"lon":5.40908,"is_reserved":false,"is_disabled":true,"rental_uris":{"android":"levelo://app?vid=05a25ed4-2e6a-4c18-bb82-1b033bbb0d61","ios":"levelo://app?vid=05a25ed4-2e6a-4c18-bb82-1b033bbb0d61"},"vehicle_type_id":"4","last_reported":1733919561,"current_range_meters":1600,"station_id":"","pricing_plan_id":"cebpf4jnsgd1na2vs0mg"},{"bike_id":"6ff14452-c0da-4450-a686-37d47545a0bd","system_id":"levelo_inurba_marseille","lat":43.26036,"lon":5.37558,"is_reserved":false,"is_disabled":false,"rental_uris":{"android":"levelo://app?vid=6ff14452-c0da-4450-a686-37d47545a0bd","ios":"levelo://app?vid=6ff14452-c0da-4450-a686-37d47545a0bd"},"vehicle_type_id":"4","last_reported":1733919561,"current_range_meters":36400,"station_id":"ce4bhgh2rcd13ifvqfa0","pricing_plan_id":"cebpf4jnsgd1na2vs0mg"},{"bike_id":"c5f041aa-83c3-432a-87e4-88bbedbfc7b8","system_id":"levelo_inurba_marseille","lat":43.23197,"lon":5.35577,"is_reserved":false,"is_disabled":false,"rental_uris":{"android":"levelo://app?vid=c5f041aa-83c3-432a-87e4-88bbedbfc7b8","ios":"levelo://app?vid=c5f041aa-83c3-432a-87e4-88bbedbfc7b8"},"vehicle_type_id":"4","last_reported":1733919561,"current_range_meters":38000,"station_id":"ce4bhu92rcd13ifvqi70","pricing_plan_id":"cebpf4jnsgd1na2vs0mg"},{"bike_id":"097a41bf-6635-41a6-b7a7-1173cae29ada","system_id":"levelo_inurba_marseille","lat":43.22934,"lon":5.35376,"is_reserved":false,"is_disabled":false,"rental_uris":{"android":"levelo://app?vid=097a41bf-6635-41a6-b7a7-1173cae29ada","ios":"levelo://app?vid=097a41bf-6635-41a6-b7a7-1173cae29ada"},"vehicle_type_id":"4","last_reported":1733919561,"current_range_meters":38800,"station_id":"cpo3532slgdg3j2ikp40","pricing_plan_id":"cebpf4jnsgd1na2vs0mg"},{"bike_id":"a90ab59e-9775-4bc6-a3e9-285e464122de","system_id":"levelo_inurba_marseille","lat":43.24649,"lon":5.3889,"is_reserved":false,"is_disabled":false,"rental_uris":{"android":"levelo://app?vid=a90ab59e-9775-4bc6-a3e9-285e464122de","ios":"levelo://app?vid=a90ab59e-9775-4bc6-a3e9-285e464122de"},"vehicle_type_id":"4","last_reported":1733919561,"current_range_meters":38800,"station_id":"ce4bhg12rcd13ifvqf60","pricing_plan_id":"cebpf4jnsgd1na2vs0mg"},{"bike_id":"376f2b68-1f59-4b7d-9e21-d9e16058592a","system_id":"levelo_inurba_marseille","lat":43.31368,"lon":5.36719,"is_reserved":false,"is_disabled":false,"rental_uris":{"android":"levelo://app?vid=376f2b68-1f59-4b7d-9e21-d9e16058592a","ios":"levelo://app?vid=376f2b68-1f59-4b7d-9e21-d9e16058592a"},"vehicle_type_id":"4","last_reported":1733919561,"current_range_meters":39200,"station_id":"ce4bgr92rcd13ifvqc6g","pricing_plan_id":"cebpf4jnsgd1na2vs0mg"},{"bike_id":"84c80222-2cd2-460c-ab97-a609dabf84d6","system_id":"levelo_inurba_marseille","lat":43.31703,"lon":5.37832,"is_reserved":false,"is_disabled":false,"rental_uris":{"android":"levelo://app?vid=84c80222-2cd2-460c-ab97-a609dabf84d6","ios":"levelo://app?vid=84c80222-2cd2-460c-ab97-a609dabf84d6"},"vehicle_type_id":"4","last_reported":1733919561,"current_range_meters":27200,"station_id":"ce4bgth2rcd13ifvqch0","pricing_plan_id":"cebpf4jnsgd1na2vs0mg"},{"bike_id":"ecbfdd4f-3cf1-4aaf-9870-6003b673629b","system_id":"levelo_inurba_marseille","lat":43.28832,"lon":5.35844,"is_reserved":false,"is_disabled":true,"rental_uris":{"android":"levelo://app?vid=ecbfdd4f-3cf1-4aaf-9870-6003b673629b","ios":"levelo://app?vid=ecbfdd4f-3cf1-4aaf-9870-6003b673629b"},"vehicle_type_id":"4","last_reported":1733919561,"current_range_meters":2000,"station_id":"ce4bhb12rcd13ifvqem0","pricing_plan_id":"cebpf4jnsgd1na2vs0mg"},{"bike_id":"e4cb8bd5-a099-4059-b35e-b61eff301434","system_id":"levelo_inurba_marseille","lat":43.337444,"lon":5.374475,"is_reserved":false,"is_disabled":false,"rental_uris":{"android":"levelo://app?vid=e4cb8bd5-a099-4059-b35e-b61eff301434","ios":"levelo://app?vid=e4cb8bd5-a099-4059-b35e-b61eff301434"},"vehicle_type_id":"4","last_reported":1733919561,"current_range_meters":36000,"station_id":"ce4bha12rcd13ifvqee0","pricing_plan_id":"cebpf4jnsgd1na2vs0mg"},{"bike_id":"0d514f68-29b7-4049-844a-493370863f98","system_id":"levelo_inurba_marseille","lat":43.28352,"lon":5.38109,"is_reserved":false,"is_disabled":true,"rental_uris":{"android":"levelo://app?vid=0d514f68-29b7-4049-844a-493370863f98","ios":"levelo://app?vid=0d514f68-29b7-4049-844a-493370863f98"},"vehicle_type_id":"4","last_reported":1733919561,"current_range_meters":25600,"station_id":"ce4bh412rcd13ifvqdr0","pricing_plan_id":"cebpf4jnsgd1na2vs0mg"},{"bike_id":"acd24011-2e36-48fd-a475-73f1f754a91c","system_id":"levelo_inurba_marseille","lat":43.298892,"lon":5.397454,"is_reserved":false,"is_disabled":true,"rental_uris":{"android":"levelo://app?vid=acd24011-2e36-48fd-a475-73f1f754a91c","ios":"levelo://app?vid=acd24011-2e36-48fd-a475-73f1f754a91c"},"vehicle_type_id":"4","last_reported":1733919561,"current_range_meters":38800,"station_id":"ce4bh0h2rcd13ifvqd50","pricing_plan_id":"cebpf4jnsgd1na2vs0mg"},{"bike_id":"59e13011-fa46-4381-bc6f-319b07779c96","system_id":"levelo_inurba_marseille","lat":43.28659,"lon":5.36342,"is_reserved":false,"is_disabled":true,"rental_uris":{"android":"levelo://app?vid=59e13011-fa46-4381-bc6f-319b07779c96","ios":"levelo://app?vid=59e13011-fa46-4381-bc6f-319b07779c96"},"vehicle_type_id":"4","last_reported":1733919561,"current_range_meters":38000,"station_id":"ce4bhah2rcd13ifvqej0","pricing_plan_id":"cebpf4jnsgd1na2vs0mg"},{"bike_id":"c0ec3573-f32e-4c76-a96b-269913219ebf","system_id":"levelo_inurba_marseille","lat":43.2679,"lon":5.39416,"is_reserved":false,"is_disabled":false,"rental_uris":{"android":"levelo://app?vid=c0ec3573-f32e-4c76-a96b-269913219ebf","ios":"levelo://app?vid=c0ec3573-f32e-4c76-a96b-269913219ebf"},"vehicle_type_id":"4","last_reported":1733919561,"current_range_meters":38000,"station_id":"ce4bhh12rcd13ifvqfg0","pricing_plan_id":"cebpf4jnsgd1na2vs0mg"},{"bike_id":"ee893ae1-6467-4cad-a685-0af2328cfd5f","system_id":"levelo_inurba_marseille","lat":43.27964,"lon":5.38739,"is_reserved":false,"is_disabled":false,"rental_uris":{"android":"levelo://app?vid=ee893ae1-6467-4cad-a685-0af2328cfd5f","ios":"levelo://app?vid=ee893ae1-6467-4cad-a685-0af2328cfd5f"},"vehicle_type_id":"4","last_reported":1733919561,"current_range_meters":34800,"station_id":"ce4bhg12rcd13ifvqf80","pricing_plan_id":"cebpf4jnsgd1na2vs0mg"},{"bike_id":"edfd897d-1557-41a9-896d-4b56c0544309","system_id":"levelo_inurba_marseille","lat":43.27489,"lon":5.42458,"is_reserved":false,"is_disabled":false,"rental_uris":{"android":"levelo://app?vid=edfd897d-1557-41a9-896d-4b56c0544309","ios":"levelo://app?vid=edfd897d-1557-41a9-896d-4b56c0544309"},"vehicle_type_id":"4","last_reported":1733919561,"current_range_meters":38000,"station_id":"ce4bhn92rcd13ifvqgrg","pricing_plan_id":"cebpf4jnsgd1na2vs0mg"},{"bike_id":"32ee2a6e-1448-4b01-860a-a1cd72c00e64","system_id":"levelo_inurba_marseille","lat":43.3302,"lon":5.39046,"is_reserved":false,"is_disabled":false,"rental_uris":{"android":"levelo://app?vid=32ee2a6e-1448-4b01-860a-a1cd72c00e64","ios":"levelo://app?vid=32ee2a6e-1448-4b01-860a-a1cd72c00e64"},"vehicle_type_id":"4","last_reported":1733919561,"current_range_meters":30000,"station_id":"ce4bhr92rcd13ifvqhrg","pricing_plan_id":"cebpf4jnsgd1na2vs0mg"},{"bike_id":"053ae5d1-9a97-49cf-aead-4af70c6a8935","system_id":"levelo_inurba_marseille","lat":43.29301,"lon":5.37458,"is_reserved":false,"is_disabled":false,"rental_uris":{"android":"levelo://app?vid=053ae5d1-9a97-49cf-aead-4af70c6a8935","ios":"levelo://app?vid=053ae5d1-9a97-49cf-aead-4af70c6a8935"},"vehicle_type_id":"4","last_reported":1733919561,"current_range_meters":8800,"station_id":"ce4bgi12rcd13ifvqb70","pricing_plan_id":"cebpf4jnsgd1na2vs0mg"},{"bike_id":"faf60d34-ba18-41fa-b3aa-8606073e064b","system_id":"levelo_inurba_marseille","lat":43.31358,"lon":5.38494,"is_reserved":false,"is_disabled":false,"rental_uris":{"android":"levelo://app?vid=faf60d34-ba18-41fa-b3aa-8606073e064b","ios":"levelo://app?vid=faf60d34-ba18-41fa-b3aa-8606073e064b"},"vehicle_type_id":"4","last_reported":1733919561,"current_range_meters":29600,"station_id":"ce4bgt92rcd13ifvqcf0","pricing_plan_id":"cebpf4jnsgd1na2vs0mg"},{"bike_id":"ca957eaf-021b-447b-ac34-19f70a5b263d","system_id":"levelo_inurba_marseille","lat":43.30321,"lon":5.36906,"is_reserved":false,"is_disabled":false,"rental_uris":{"android":"levelo://app?vid=ca957eaf-021b-447b-ac34-19f70a5b263d","ios":"levelo://app?vid=ca957eaf-021b-447b-ac34-19f70a5b263d"},"vehicle_type_id":"4","last_reported":1733919561,"current_range_meters":38800,"station_id":"ce4bgqh2rcd13ifvqc5g","pricing_plan_id":"cebpf4jnsgd1na2vs0mg"},{"bike_id":"03114dea-01a7-49f5-bdd8-59b8b0f022b6","system_id":"levelo_inurba_marseille","lat":43.29959,"lon":5.37268,"is_reserved":false,"is_disabled":false,"rental_uris":{"android":"levelo://app?vid=03114dea-01a7-49f5-bdd8-59b8b0f022b6","ios":"levelo://app?vid=03114dea-01a7-49f5-bdd8-59b8b0f022b6"},"vehicle_type_id":"4","last_reported":1733919561,"current_range_meters":26000,"station_id":"","pricing_plan_id":"cebpf4jnsgd1na2vs0mg"},{"bike_id":"2eedbb18-eb6a-4fa1-8897-f77e911ff285","system_id":"levelo_inurba_marseille","lat":43.32541,"lon":5.41411,"is_reserved":false,"is_disabled":false,"rental_uris":{"android":"levelo://app?vid=2eedbb18-eb6a-4fa1-8897-f77e911ff285","ios":"levelo://app?vid=2eedbb18-eb6a-4fa1-8897-f77e911ff285"},"vehicle_type_id":"4","last_reported":1733919561,"current_range_meters":37600,"station_id":"ce4bhq12rcd13ifvqhhg","pricing_plan_id":"cebpf4jnsgd1na2vs0mg"},{"bike_id":"a66c4b95-337e-4b9a-950c-e8c8d8e7a3a1","system_id":"levelo_inurba_marseille","lat":43.324799,"lon":5.365716,"is_reserved":false,"is_disabled":true,"rental_uris":{"android":"levelo://app?vid=a66c4b95-337e-4b9a-950c-e8c8d8e7a3a1","ios":"levelo://app?vid=a66c4b95-337e-4b9a-950c-e8c8d8e7a3a1"},"vehicle_type_id":"4","last_reported":1733919561,"current_range_meters":0,"station_id":"","pricing_plan_id":"cebpf4jnsgd1na2vs0mg"},{"bike_id":"b8a8e903-358c-4853-81b0-e99aeaec8699","system_id":"levelo_inurba_marseille","lat":43.24164,"lon":5.36407,"is_reserved":false,"is_disabled":false,"rental_uris":{"android":"levelo://app?vid=b8a8e903-358c-4853-81b0-e99aeaec8699","ios":"levelo://app?vid=b8a8e903-358c-4853-81b0-e99aeaec8699"},"vehicle_type_id":"4","last_reported":1733919561,"current_range_meters":26000,"station_id":"cpo36qri1sfpv3e86is0","pricing_plan_id":"cebpf4jnsgd1na2vs0mg"},{"bike_id":"2ed7839b-5815-46ec-8288-ac8ac565f4e7","system_id":"levelo_inurba_marseille","lat":43.33717,"lon":5.39172,"is_reserved":false,"is_disabled":false,"rental_uris":{"android":"levelo://app?vid=2ed7839b-5815-46ec-8288-ac8ac565f4e7","ios":"levelo://app?vid=2ed7839b-5815-46ec-8288-ac8ac565f4e7"},"vehicle_type_id":"4","last_reported":1733919561,"current_range_meters":38400,"station_id":"ce4bhr92rcd13ifvqhsg","pricing_plan_id":"cebpf4jnsgd1na2vs0mg"},{"bike_id":"bfc76370-fa16-482e-83b3-587225c23f25","system_id":"levelo_inurba_marseille","lat":43.28932,"lon":5.36647,"is_reserved":false,"is_disabled":false,"rental_uris":{"android":"levelo://app?vid=bfc76370-fa16-482e-83b3-587225c23f25","ios":"levelo://app?vid=bfc76370-fa16-482e-83b3-587225c23f25"},"vehicle_type_id":"4","last_reported":1733919561,"current_range_meters":35600,"station_id":"ce4bhap2rcd13ifvqek0","pricing_plan_id":"cebpf4jnsgd1na2vs0mg"},{"bike_id":"78446110-5bc9-4782-9951-0004299f66bc","system_id":"levelo_inurba_marseille","lat":43.241637,"lon":5.364168,"is_reserved":false,"is_disabled":false,"rental_uris":{"android":"levelo://app?vid=78446110-5bc9-4782-9951-0004299f66bc","ios":"levelo://app?vid=78446110-5bc9-4782-9951-0004299f66bc"},"vehicle_type_id":"4","last_reported":1733919561,"current_range_meters":33200,"station_id":"cpo36qri1sfpv3e86is0","pricing_plan_id":"cebpf4jnsgd1na2vs0mg"},{"bike_id":"68e9f2e8-7f58-4282-a6a3-bce0647110f9","system_id":"levelo_inurba_marseille","lat":43.2396,"lon":5.3663,"is_reserved":false,"is_disabled":false,"rental_uris":{"android":"levelo://app?vid=68e9f2e8-7f58-4282-a6a3-bce0647110f9","ios":"levelo://app?vid=68e9f2e8-7f58-4282-a6a3-bce0647110f9"},"vehicle_type_id":"4","last_reported":1733919561,"current_range_meters":22400,"station_id":"ce4bhi12rcd13ifvqfp0","pricing_plan_id":"cebpf4jnsgd1na2vs0mg"},{"bike_id":"abdc769b-327b-422c-954f-1431ddabf358","system_id":"levelo_inurba_marseille","lat":43.30954,"lon":5.39037,"is_reserved":false,"is_disabled":false,"rental_uris":{"android":"levelo://app?vid=abdc769b-327b-422c-954f-1431ddabf358","ios":"levelo://app?vid=abdc769b-327b-422c-954f-1431ddabf358"},"vehicle_type_id":"4","last_reported":1733919561,"current_range_meters":37600,"station_id":"ce4bgup2rcd13ifvqco0","pricing_plan_id":"cebpf4jnsgd1na2vs0mg"},{"bike_id":"3c7d8956-07af-4408-ae94-63514d5e362d","system_id":"levelo_inurba_marseille","lat":43.24649,"lon":5.38891,"is_reserved":false,"is_disabled":false,"rental_uris":{"android":"levelo://app?vid=3c7d8956-07af-4408-ae94-63514d5e362d","ios":"levelo://app?vid=3c7d8956-07af-4408-ae94-63514d5e362d"},"vehicle_type_id":"4","last_reported":1733919561,"current_range_meters":39200,"station_id":"ce4bhg12rcd13ifvqf60","pricing_plan_id":"cebpf4jnsgd1na2vs0mg"},{"bike_id":"a0e309ed-6feb-451a-8e41-2ab73fd02cab","system_id":"levelo_inurba_marseille","lat":43.24068,"lon":5.37769,"is_reserved":false,"is_disabled":false,"rental_uris":{"android":"levelo://app?vid=a0e309ed-6feb-451a-8e41-2ab73fd02cab","ios":"levelo://app?vid=a0e309ed-6feb-451a-8e41-2ab73fd02cab"},"vehicle_type_id":"4","last_reported":1733919561,"current_range_meters":26000,"station_id":"ce4bhnp2rcd13ifvqgvg","pricing_plan_id":"cebpf4jnsgd1na2vs0mg"},{"bike_id":"5d384e58-4518-4668-a56d-f79fea561134","system_id":"levelo_inurba_marseille","lat":43.32655,"lon":5.40987,"is_reserved":false,"is_disabled":false,"rental_uris":{"android":"levelo://app?vid=5d384e58-4518-4668-a56d-f79fea561134","ios":"levelo://app?vid=5d384e58-4518-4668-a56d-f79fea561134"},"vehicle_type_id":"4","last_reported":1733919561,"current_range_meters":38000,"station_id":"ce4bhpp2rcd13ifvqhgg","pricing_plan_id":"cebpf4jnsgd1na2vs0mg"},{"bike_id":"24458f39-080f-419e-bcea-bfe1005d81b0","system_id":"levelo_inurba_marseille","lat":43.26554,"lon":5.37287,"is_reserved":false,"is_disabled":false,"rental_uris":{"android":"levelo://app?vid=24458f39-080f-419e-bcea-bfe1005d81b0","ios":"levelo://app?vid=24458f39-080f-419e-bcea-bfe1005d81b0"},"vehicle_type_id":"4","last_reported":1733919561,"current_range_meters":24800,"station_id":"ce4bhg12rcd13ifvqf70","pricing_plan_id":"cebpf4jnsgd1na2vs0mg"},{"bike_id":"883d9a52-37b8-4998-93c9-7d4e62095dab","system_id":"levelo_inurba_marseille","lat":43.28716,"lon":5.37942,"is_reserved":false,"is_disabled":false,"rental_uris":{"android":"levelo://app?vid=883d9a52-37b8-4998-93c9-7d4e62095dab","ios":"levelo://app?vid=883d9a52-37b8-4998-93c9-7d4e62095dab"},"vehicle_type_id":"4","last_reported":1733919561,"current_range_meters":30000,"station_id":"ce4bh9p2rcd13ifvqec0","pricing_plan_id":"cebpf4jnsgd1na2vs0mg"},{"bike_id":"d5995d9a-df62-474e-8615-8ddb6be79d92","system_id":"levelo_inurba_marseille","lat":43.30885,"lon":5.372,"is_reserved":false,"is_disabled":false,"rental_uris":{"android":"levelo://app?vid=d5995d9a-df62-474e-8615-8ddb6be79d92","ios":"levelo://app?vid=d5995d9a-df62-474e-8615-8ddb6be79d92"},"vehicle_type_id":"4","last_reported":1733919561,"current_range_meters":32000,"station_id":"ce4bguh2rcd13ifvqckg","pricing_plan_id":"cebpf4jnsgd1na2vs0mg"},{"bike_id":"36e3167a-8293-418c-b384-6536090e3648","system_id":"levelo_inurba_marseille","lat":43.23957,"lon":5.36633,"is_reserved":false,"is_disabled":false,"rental_uris":{"android":"levelo://app?vid=36e3167a-8293-418c-b384-6536090e3648","ios":"levelo://app?vid=36e3167a-8293-418c-b384-6536090e3648"},"vehicle_type_id":"4","last_reported":1733919561,"current_range_meters":38400,"station_id":"ce4bhi12rcd13ifvqfp0","pricing_plan_id":"cebpf4jnsgd1na2vs0mg"},{"bike_id":"97bbbaf5-9a2e-483d-9312-63f8ea177b90","system_id":"levelo_inurba_marseille","lat":43.30146,"lon":5.37424,"is_reserved":false,"is_disabled":false,"rental_uris":{"android":"levelo://app?vid=97bbbaf5-9a2e-483d-9312-63f8ea177b90","ios":"levelo://app?vid=97bbbaf5-9a2e-483d-9312-63f8ea177b90"},"vehicle_type_id":"4","last_reported":1733919561,"current_range_meters":18000,"station_id":"ce4bgs92rcd13ifvqcc0","pricing_plan_id":"cebpf4jnsgd1na2vs0mg"},{"bike_id":"9de685e0-ba91-4e9f-9fcf-9f463cc6c282","system_id":"levelo_inurba_marseille","lat":43.30895,"lon":5.37161,"is_reserved":false,"is_disabled":false,"rental_uris":{"android":"levelo://app?vid=9de685e0-ba91-4e9f-9fcf-9f463cc6c282","ios":"levelo://app?vid=9de685e0-ba91-4e9f-9fcf-9f463cc6c282"},"vehicle_type_id":"4","last_reported":1733919561,"current_range_meters":4400,"station_id":"ce4bguh2rcd13ifvqckg","pricing_plan_id":"cebpf4jnsgd1na2vs0mg"},{"bike_id":"ab1c6a12-19ac-4afb-af5f-776c48efacd2","system_id":"levelo_inurba_marseille","lat":43.23215,"lon":5.35586,"is_reserved":false,"is_disabled":false,"rental_uris":{"android":"levelo://app?vid=ab1c6a12-19ac-4afb-af5f-776c48efacd2","ios":"levelo://app?vid=ab1c6a12-19ac-4afb-af5f-776c48efacd2"},"vehicle_type_id":"4","last_reported":1733919561,"current_range_meters":20400,"station_id":"ce4bhu92rcd13ifvqi70","pricing_plan_id":"cebpf4jnsgd1na2vs0mg"},{"bike_id":"32069817-49f2-4da5-84b5-b96a1337ab44","system_id":"levelo_inurba_marseille","lat":43.29781,"lon":5.37102,"is_reserved":false,"is_disabled":false,"rental_uris":{"android":"levelo://app?vid=32069817-49f2-4da5-84b5-b96a1337ab44","ios":"levelo://app?vid=32069817-49f2-4da5-84b5-b96a1337ab44"},"vehicle_type_id":"4","last_reported":1733919561,"current_range_meters":30800,"station_id":"ce4bgop2rcd13ifvqc1g","pricing_plan_id":"cebpf4jnsgd1na2vs0mg"},{"bike_id":"8a2a88c2-141e-4ddf-8ddd-f8286e039c11","system_id":"levelo_inurba_marseille","lat":43.25499,"lon":5.37651,"is_reserved":false,"is_disabled":false,"rental_uris":{"android":"levelo://app?vid=8a2a88c2-141e-4ddf-8ddd-f8286e039c11","ios":"levelo://app?vid=8a2a88c2-141e-4ddf-8ddd-f8286e039c11"},"vehicle_type_id":"4","last_reported":1733919561,"current_range_meters":38000,"station_id":"ce4bhh12rcd13ifvqff0","pricing_plan_id":"cebpf4jnsgd1na2vs0mg"},{"bike_id":"bdb1a4e2-3d54-48f7-85f3-7a46d1c4ad77","system_id":"levelo_inurba_marseille","lat":43.25576,"lon":5.38232,"is_reserved":false,"is_disabled":false,"rental_uris":{"android":"levelo://app?vid=bdb1a4e2-3d54-48f7-85f3-7a46d1c4ad77","ios":"levelo://app?vid=bdb1a4e2-3d54-48f7-85f3-7a46d1c4ad77"},"vehicle_type_id":"4","last_reported":1733919561,"current_range_meters":13600,"station_id":"ce4bhih2rcd13ifvqfs0","pricing_plan_id":"cebpf4jnsgd1na2vs0mg"},{"bike_id":"235a27c5-32a3-4841-a68d-f35363ff4e8b","system_id":"levelo_inurba_marseille","lat":43.26519,"lon":5.37325,"is_reserved":false,"is_disabled":false,"rental_uris":{"android":"levelo://app?vid=235a27c5-32a3-4841-a68d-f35363ff4e8b","ios":"levelo://app?vid=235a27c5-32a3-4841-a68d-f35363ff4e8b"},"vehicle_type_id":"4","last_reported":1733919561,"current_range_meters":28400,"station_id":"ce4bhg12rcd13ifvqf70","pricing_plan_id":"cebpf4jnsgd1na2vs0mg"},{"bike_id":"fda630f2-b49c-4edb-82f5-a87f4ff6bfb5","system_id":"levelo_inurba_marseille","lat":43.24669,"lon":5.38166,"is_reserved":false,"is_disabled":false,"rental_uris":{"android":"levelo://app?vid=fda630f2-b49c-4edb-82f5-a87f4ff6bfb5","ios":"levelo://app?vid=fda630f2-b49c-4edb-82f5-a87f4ff6bfb5"},"vehicle_type_id":"4","last_reported":1733919561,"current_range_meters":38800,"station_id":"ce4bhih2rcd13ifvqfr0","pricing_plan_id":"cebpf4jnsgd1na2vs0mg"},{"bike_id":"a50c814f-db67-44ee-8e17-3276e8cc4f09","system_id":"levelo_inurba_marseille","lat":43.34164,"lon":5.40847,"is_reserved":false,"is_disabled":false,"rental_uris":{"android":"levelo://app?vid=a50c814f-db67-44ee-8e17-3276e8cc4f09","ios":"levelo://app?vid=a50c814f-db67-44ee-8e17-3276e8cc4f09"},"vehicle_type_id":"4","last_reported":1733919561,"current_range_meters":25200,"station_id":"","pricing_plan_id":"cebpf4jnsgd1na2vs0mg"},{"bike_id":"3da93476-9d75-48f5-809e-7aed5a43e98a","system_id":"levelo_inurba_marseille","lat":43.25938,"lon":5.40909,"is_reserved":false,"is_disabled":false,"rental_uris":{"android":"levelo://app?vid=3da93476-9d75-48f5-809e-7aed5a43e98a","ios":"levelo://app?vid=3da93476-9d75-48f5-809e-7aed5a43e98a"},"vehicle_type_id":"4","last_reported":1733919561,"current_range_meters":26800,"station_id":"ce4bhm92rcd13ifvqglg","pricing_plan_id":"cebpf4jnsgd1na2vs0mg"},{"bike_id":"c3a91d8c-588a-40ca-bd64-a4c8d4b1b5b3","system_id":"levelo_inurba_marseille","lat":43.23055,"lon":5.35516,"is_reserved":false,"is_disabled":false,"rental_uris":{"android":"levelo://app?vid=c3a91d8c-588a-40ca-bd64-a4c8d4b1b5b3","ios":"levelo://app?vid=c3a91d8c-588a-40ca-bd64-a4c8d4b1b5b3"},"vehicle_type_id":"4","last_reported":1733919561,"current_range_meters":30800,"station_id":"cpo3342slgdg3j2ifvpg","pricing_plan_id":"cebpf4jnsgd1na2vs0mg"},{"bike_id":"881524d6-1030-4172-9fdc-ca6a0fc65d03","system_id":"levelo_inurba_marseille","lat":43.25928,"lon":5.40921,"is_reserved":false,"is_disabled":false,"rental_uris":{"android":"levelo://app?vid=881524d6-1030-4172-9fdc-ca6a0fc65d03","ios":"levelo://app?vid=881524d6-1030-4172-9fdc-ca6a0fc65d03"},"vehicle_type_id":"4","last_reported":1733919561,"current_range_meters":25200,"station_id":"ce4bhm92rcd13ifvqglg","pricing_plan_id":"cebpf4jnsgd1na2vs0mg"},{"bike_id":"8fde8589-3b6c-46f2-81ce-3597cfc86243","system_id":"levelo_inurba_marseille","lat":43.28936,"lon":5.39632,"is_reserved":false,"is_disabled":true,"rental_uris":{"android":"levelo://app?vid=8fde8589-3b6c-46f2-81ce-3597cfc86243","ios":"levelo://app?vid=8fde8589-3b6c-46f2-81ce-3597cfc86243"},"vehicle_type_id":"4","last_reported":1733919561,"current_range_meters":800,"station_id":"ce4bh3h2rcd13ifvqdn0","pricing_plan_id":"cebpf4jnsgd1na2vs0mg"},{"bike_id":"44d51fde-212f-4eb7-b1c0-456cea9c506c","system_id":"levelo_inurba_marseille","lat":43.26215,"lon":5.37449,"is_reserved":false,"is_disabled":false,"rental_uris":{"android":"levelo://app?vid=44d51fde-212f-4eb7-b1c0-456cea9c506c","ios":"levelo://app?vid=44d51fde-212f-4eb7-b1c0-456cea9c506c"},"vehicle_type_id":"4","last_reported":1733919561,"current_range_meters":38000,"station_id":"ce4bhgp2rcd13ifvqfc0","pricing_plan_id":"cebpf4jnsgd1na2vs0mg"},{"bike_id":"ee0186ce-5ee6-443a-aa7c-853a1e294ff2","system_id":"levelo_inurba_marseille","lat":43.29606,"lon":5.37719,"is_reserved":false,"is_disabled":true,"rental_uris":{"android":"levelo://app?vid=ee0186ce-5ee6-443a-aa7c-853a1e294ff2","ios":"levelo://app?vid=ee0186ce-5ee6-443a-aa7c-853a1e294ff2"},"vehicle_type_id":"4","last_reported":1733919561,"current_range_meters":24400,"station_id":"ce4bgi92rcd13ifvqb90","pricing_plan_id":"cebpf4jnsgd1na2vs0mg"},{"bike_id":"78899a8f-cebd-461d-b2aa-a490349a7945","system_id":"levelo_inurba_marseille","lat":43.31492,"lon":5.37309,"is_reserved":false,"is_disabled":false,"rental_uris":{"android":"levelo://app?vid=78899a8f-cebd-461d-b2aa-a490349a7945","ios":"levelo://app?vid=78899a8f-cebd-461d-b2aa-a490349a7945"},"vehicle_type_id":"4","last_reported":1733919561,"current_range_meters":36800,"station_id":"ce4bgt12rcd13ifvqcd0","pricing_plan_id":"cebpf4jnsgd1na2vs0mg"},{"bike_id":"e8fd4573-cd0a-4332-a1bc-7df1db67a34d","system_id":"levelo_inurba_marseille","lat":43.29578,"lon":5.37506,"is_reserved":false,"is_disabled":false,"rental_uris":{"android":"levelo://app?vid=e8fd4573-cd0a-4332-a1bc-7df1db67a34d","ios":"levelo://app?vid=e8fd4573-cd0a-4332-a1bc-7df1db67a34d"},"vehicle_type_id":"4","last_reported":1733919561,"current_range_meters":38800,"station_id":"ce4bgh92rcd13ifvqb50","pricing_plan_id":"cebpf4jnsgd1na2vs0mg"},{"bike_id":"922b1f7a-1f93-498e-90f4-e7a54d8a9ec1","system_id":"levelo_inurba_marseille","lat":43.23061,"lon":5.3549,"is_reserved":false,"is_disabled":false,"rental_uris":{"android":"levelo://app?vid=922b1f7a-1f93-498e-90f4-e7a54d8a9ec1","ios":"levelo://app?vid=922b1f7a-1f93-498e-90f4-e7a54d8a9ec1"},"vehicle_type_id":"4","last_reported":1733919561,"current_range_meters":31200,"station_id":"cpo3342slgdg3j2ifvpg","pricing_plan_id":"cebpf4jnsgd1na2vs0mg"},{"bike_id":"50fd6763-54d1-4753-af14-04fc86d71ddf","system_id":"levelo_inurba_marseille","lat":43.26028,"lon":5.37577,"is_reserved":false,"is_disabled":false,"rental_uris":{"android":"levelo://app?vid=50fd6763-54d1-4753-af14-04fc86d71ddf","ios":"levelo://app?vid=50fd6763-54d1-4753-af14-04fc86d71ddf"},"vehicle_type_id":"4","last_reported":1733919561,"current_range_meters":32800,"station_id":"ce4bhgh2rcd13ifvqfa0","pricing_plan_id":"cebpf4jnsgd1na2vs0mg"},{"bike_id":"ddaf425f-0b35-49c2-a4a7-24dfe0c7d446","system_id":"levelo_inurba_marseille","lat":43.23151,"lon":5.43729,"is_reserved":false,"is_disabled":true,"rental_uris":{"android":"levelo://app?vid=ddaf425f-0b35-49c2-a4a7-24dfe0c7d446","ios":"levelo://app?vid=ddaf425f-0b35-49c2-a4a7-24dfe0c7d446"},"vehicle_type_id":"4","last_reported":1733919561,"current_range_meters":0,"station_id":"ce4bhmp2rcd13ifvqgog","pricing_plan_id":"cebpf4jnsgd1na2vs0mg"},{"bike_id":"3b64033c-8e44-487a-b977-0897a1e48e09","system_id":"levelo_inurba_marseille","lat":43.289158,"lon":5.384085,"is_reserved":false,"is_disabled":false,"rental_uris":{"android":"levelo://app?vid=3b64033c-8e44-487a-b977-0897a1e48e09","ios":"levelo://app?vid=3b64033c-8e44-487a-b977-0897a1e48e09"},"vehicle_type_id":"4","last_reported":1733919561,"current_range_meters":30400,"station_id":"ce4bh612rcd13ifvqe6g","pricing_plan_id":"cebpf4jnsgd1na2vs0mg"},{"bike_id":"8e3a0c34-b90f-4d38-a10f-c5fe741b3fb4","system_id":"levelo_inurba_marseille","lat":43.30877,"lon":5.37195,"is_reserved":false,"is_disabled":false,"rental_uris":{"android":"levelo://app?vid=8e3a0c34-b90f-4d38-a10f-c5fe741b3fb4","ios":"levelo://app?vid=8e3a0c34-b90f-4d38-a10f-c5fe741b3fb4"},"vehicle_type_id":"4","last_reported":1733919561,"current_range_meters":38400,"station_id":"ce4bguh2rcd13ifvqckg","pricing_plan_id":"cebpf4jnsgd1na2vs0mg"},{"bike_id":"b99edf37-8db5-403f-94fa-20a3d66813b1","system_id":"levelo_inurba_marseille","lat":43.28575,"lon":5.39495,"is_reserved":false,"is_disabled":true,"rental_uris":{"android":"levelo://app?vid=b99edf37-8db5-403f-94fa-20a3d66813b1","ios":"levelo://app?vid=b99edf37-8db5-403f-94fa-20a3d66813b1"},"vehicle_type_id":"4","last_reported":1733919561,"current_range_meters":0,"station_id":"ce4bh292rcd13ifvqdg0","pricing_plan_id":"cebpf4jnsgd1na2vs0mg"},{"bike_id":"76a900bb-7dc9-4429-932c-6a92dbc95a5c","system_id":"levelo_inurba_marseille","lat":43.29551,"lon":5.42277,"is_reserved":false,"is_disabled":false,"rental_uris":{"android":"levelo://app?vid=76a900bb-7dc9-4429-932c-6a92dbc95a5c","ios":"levelo://app?vid=76a900bb-7dc9-4429-932c-6a92dbc95a5c"},"vehicle_type_id":"4","last_reported":1733919561,"current_range_meters":37600,"station_id":"ce4bhph2rcd13ifvqhdg","pricing_plan_id":"cebpf4jnsgd1na2vs0mg"},{"bike_id":"187c7542-8c74-4ba1-ae4b-824d5ef42b87","system_id":"levelo_inurba_marseille","lat":43.28104,"lon":5.37838,"is_reserved":false,"is_disabled":false,"rental_uris":{"android":"levelo://app?vid=187c7542-8c74-4ba1-ae4b-824d5ef42b87","ios":"levelo://app?vid=187c7542-8c74-4ba1-ae4b-824d5ef42b87"},"vehicle_type_id":"4","last_reported":1733919561,"current_range_meters":17200,"station_id":"ce4bha12rcd13ifvqee0","pricing_plan_id":"cebpf4jnsgd1na2vs0mg"},{"bike_id":"88d1eb2a-ef44-4baa-a633-a2793e09b90f","system_id":"levelo_inurba_marseille","lat":43.2937,"lon":5.37852,"is_reserved":false,"is_disabled":true,"rental_uris":{"android":"levelo://app?vid=88d1eb2a-ef44-4baa-a633-a2793e09b90f","ios":"levelo://app?vid=88d1eb2a-ef44-4baa-a633-a2793e09b90f"},"vehicle_type_id":"4","last_reported":1733919561,"current_range_meters":0,"station_id":"ce4bgjh2rcd13ifvqbf0","pricing_plan_id":"cebpf4jnsgd1na2vs0mg"},{"bike_id":"8ffaa481-deec-48f6-9e30-c0bd791cbb75","system_id":"levelo_inurba_marseille","lat":43.28625,"lon":5.35096,"is_reserved":false,"is_disabled":false,"rental_uris":{"android":"levelo://app?vid=8ffaa481-deec-48f6-9e30-c0bd791cbb75","ios":"levelo://app?vid=8ffaa481-deec-48f6-9e30-c0bd791cbb75"},"vehicle_type_id":"4","last_reported":1733919561,"current_range_meters":26800,"station_id":"ce4bhch2rcd13ifvqeug","pricing_plan_id":"cebpf4jnsgd1na2vs0mg"},{"bike_id":"16492b5b-37d8-452f-8923-009b71c8397d","system_id":"levelo_inurba_marseille","lat":43.25578,"lon":5.38239,"is_reserved":false,"is_disabled":false,"rental_uris":{"android":"levelo://app?vid=16492b5b-37d8-452f-8923-009b71c8397d","ios":"levelo://app?vid=16492b5b-37d8-452f-8923-009b71c8397d"},"vehicle_type_id":"4","last_reported":1733919561,"current_range_meters":30800,"station_id":"ce4bhih2rcd13ifvqfs0","pricing_plan_id":"cebpf4jnsgd1na2vs0mg"},{"bike_id":"11df489c-50c5-425a-83f7-eabdec0ad821","system_id":"levelo_inurba_marseille","lat":43.27491,"lon":5.42448,"is_reserved":false,"is_disabled":true,"rental_uris":{"android":"levelo://app?vid=11df489c-50c5-425a-83f7-eabdec0ad821","ios":"levelo://app?vid=11df489c-50c5-425a-83f7-eabdec0ad821"},"vehicle_type_id":"4","last_reported":1733919561,"current_range_meters":0,"station_id":"ce4bhn92rcd13ifvqgrg","pricing_plan_id":"cebpf4jnsgd1na2vs0mg"},{"bike_id":"4d9975b2-8caf-4dfe-9202-9f11fbd0b727","system_id":"levelo_inurba_marseille","lat":43.29522,"lon":5.37501,"is_reserved":false,"is_disabled":true,"rental_uris":{"android":"levelo://app?vid=4d9975b2-8caf-4dfe-9202-9f11fbd0b727","ios":"levelo://app?vid=4d9975b2-8caf-4dfe-9202-9f11fbd0b727"},"vehicle_type_id":"4","last_reported":1733919561,"current_range_meters":22400,"station_id":"ce4bgkp2rcd13ifvqbmg","pricing_plan_id":"cebpf4jnsgd1na2vs0mg"},{"bike_id":"a5589391-a7e4-412b-9a87-f917b2322580","system_id":"levelo_inurba_marseille","lat":43.23065,"lon":5.35522,"is_reserved":false,"is_disabled":false,"rental_uris":{"android":"levelo://app?vid=a5589391-a7e4-412b-9a87-f917b2322580","ios":"levelo://app?vid=a5589391-a7e4-412b-9a87-f917b2322580"},"vehicle_type_id":"4","last_reported":1733919561,"current_range_meters":21600,"station_id":"cpo3342slgdg3j2ifvpg","pricing_plan_id":"cebpf4jnsgd1na2vs0mg"},{"bike_id":"6cc0d4fa-1597-4908-97bd-4249a4f0d6ef","system_id":"levelo_inurba_marseille","lat":43.29272,"lon":5.40125,"is_reserved":false,"is_disabled":true,"rental_uris":{"android":"levelo://app?vid=6cc0d4fa-1597-4908-97bd-4249a4f0d6ef","ios":"levelo://app?vid=6cc0d4fa-1597-4908-97bd-4249a4f0d6ef"},"vehicle_type_id":"4","last_reported":1733919561,"current_range_meters":0,"station_id":"ce4bh312rcd13ifvqdk0","pricing_plan_id":"cebpf4jnsgd1na2vs0mg"},{"bike_id":"3ce63487-f42b-418a-9b3f-bc2742aa1aea","system_id":"levelo_inurba_marseille","lat":43.257294,"lon":5.411094,"is_reserved":false,"is_disabled":false,"rental_uris":{"android":"levelo://app?vid=3ce63487-f42b-418a-9b3f-bc2742aa1aea","ios":"levelo://app?vid=3ce63487-f42b-418a-9b3f-bc2742aa1aea"},"vehicle_type_id":"4","last_reported":1733919561,"current_range_meters":29600,"station_id":"ce4bhkp2rcd13ifvqgd0","pricing_plan_id":"cebpf4jnsgd1na2vs0mg"},{"bike_id":"e258aca9-ab15-4df3-a96c-186a8ece74e4","system_id":"levelo_inurba_marseille","lat":43.26551,"lon":5.37282,"is_reserved":false,"is_disabled":false,"rental_uris":{"android":"levelo://app?vid=e258aca9-ab15-4df3-a96c-186a8ece74e4","ios":"levelo://app?vid=e258aca9-ab15-4df3-a96c-186a8ece74e4"},"vehicle_type_id":"4","last_reported":1733919561,"current_range_meters":29600,"station_id":"ce4bhg12rcd13ifvqf70","pricing_plan_id":"cebpf4jnsgd1na2vs0mg"},{"bike_id":"02b8551d-674d-4ff8-a7f6-6e131626695d","system_id":"levelo_inurba_marseille","lat":43.28937,"lon":5.36396,"is_reserved":false,"is_disabled":false,"rental_uris":{"android":"levelo://app?vid=02b8551d-674d-4ff8-a7f6-6e131626695d","ios":"levelo://app?vid=02b8551d-674d-4ff8-a7f6-6e131626695d"},"vehicle_type_id":"4","last_reported":1733919561,"current_range_meters":38000,"station_id":"ce4bhc92rcd13ifvqetg","pricing_plan_id":"cebpf4jnsgd1na2vs0mg"},{"bike_id":"a6a1ab3a-d66e-4e67-9272-c9c6f0d2850c","system_id":"levelo_inurba_marseille","lat":43.28947,"lon":5.36399,"is_reserved":false,"is_disabled":true,"rental_uris":{"android":"levelo://app?vid=a6a1ab3a-d66e-4e67-9272-c9c6f0d2850c","ios":"levelo://app?vid=a6a1ab3a-d66e-4e67-9272-c9c6f0d2850c"},"vehicle_type_id":"4","last_reported":1733919561,"current_range_meters":400,"station_id":"ce4bhc92rcd13ifvqetg","pricing_plan_id":"cebpf4jnsgd1na2vs0mg"},{"bike_id":"08d6e4ca-9c70-4ce6-a251-da02ad6c3602","system_id":"levelo_inurba_marseille","lat":43.26249,"lon":5.39123,"is_reserved":false,"is_disabled":true,"rental_uris":{"android":"levelo://app?vid=08d6e4ca-9c70-4ce6-a251-da02ad6c3602","ios":"levelo://app?vid=08d6e4ca-9c70-4ce6-a251-da02ad6c3602"},"vehicle_type_id":"4","last_reported":1733919561,"current_range_meters":0,"station_id":"","pricing_plan_id":"cebpf4jnsgd1na2vs0mg"},{"bike_id":"3b7da040-6c1b-4b1f-a865-7526e032d58e","system_id":"levelo_inurba_marseille","lat":43.30139,"lon":5.38782,"is_reserved":false,"is_disabled":false,"rental_uris":{"android":"levelo://app?vid=3b7da040-6c1b-4b1f-a865-7526e032d58e","ios":"levelo://app?vid=3b7da040-6c1b-4b1f-a865-7526e032d58e"},"vehicle_type_id":"4","last_reported":1733919561,"current_range_meters":25600,"station_id":"ce4bhoh2rcd13ifvqh6g","pricing_plan_id":"cebpf4jnsgd1na2vs0mg"},{"bike_id":"f846eb30-73d4-4235-a44d-5c0ccbf5620d","system_id":"levelo_inurba_marseille","lat":43.30283,"lon":5.37704,"is_reserved":false,"is_disabled":false,"rental_uris":{"android":"levelo://app?vid=f846eb30-73d4-4235-a44d-5c0ccbf5620d","ios":"levelo://app?vid=f846eb30-73d4-4235-a44d-5c0ccbf5620d"},"vehicle_type_id":"4","last_reported":1733919561,"current_range_meters":27600,"station_id":"ce4bguh2rcd13ifvqcj0","pricing_plan_id":"cebpf4jnsgd1na2vs0mg"},{"bike_id":"ef43fa11-fb30-4803-b5c6-338c311062b8","system_id":"levelo_inurba_marseille","lat":43.31174,"lon":5.38725,"is_reserved":false,"is_disabled":false,"rental_uris":{"android":"levelo://app?vid=ef43fa11-fb30-4803-b5c6-338c311062b8","ios":"levelo://app?vid=ef43fa11-fb30-4803-b5c6-338c311062b8"},"vehicle_type_id":"4","last_reported":1733919561,"current_range_meters":35600,"station_id":"ce4bgv12rcd13ifvqcp0","pricing_plan_id":"cebpf4jnsgd1na2vs0mg"},{"bike_id":"c817a008-82e7-4827-b128-ad4b94c4a148","system_id":"levelo_inurba_marseille","lat":43.23964,"lon":5.3663,"is_reserved":false,"is_disabled":false,"rental_uris":{"android":"levelo://app?vid=c817a008-82e7-4827-b128-ad4b94c4a148","ios":"levelo://app?vid=c817a008-82e7-4827-b128-ad4b94c4a148"},"vehicle_type_id":"4","last_reported":1733919561,"current_range_meters":24000,"station_id":"ce4bhi12rcd13ifvqfp0","pricing_plan_id":"cebpf4jnsgd1na2vs0mg"},{"bike_id":"5fee01e0-a9ce-45a3-a2bf-0cdd473fe63e","system_id":"levelo_inurba_marseille","lat":43.3108,"lon":5.42433,"is_reserved":false,"is_disabled":false,"rental_uris":{"android":"levelo://app?vid=5fee01e0-a9ce-45a3-a2bf-0cdd473fe63e","ios":"levelo://app?vid=5fee01e0-a9ce-45a3-a2bf-0cdd473fe63e"},"vehicle_type_id":"4","last_reported":1733919561,"current_range_meters":16800,"station_id":"ce4bhp92rcd13ifvqhag","pricing_plan_id":"cebpf4jnsgd1na2vs0mg"},{"bike_id":"a0403547-2046-4942-ba52-0676ddc374a5","system_id":"levelo_inurba_marseille","lat":43.2619,"lon":5.37448,"is_reserved":false,"is_disabled":false,"rental_uris":{"android":"levelo://app?vid=a0403547-2046-4942-ba52-0676ddc374a5","ios":"levelo://app?vid=a0403547-2046-4942-ba52-0676ddc374a5"},"vehicle_type_id":"4","last_reported":1733919561,"current_range_meters":30400,"station_id":"ce4bhgp2rcd13ifvqfc0","pricing_plan_id":"cebpf4jnsgd1na2vs0mg"},{"bike_id":"46b2fdec-0870-4ae2-84dc-b1f57512351e","system_id":"levelo_inurba_marseille","lat":43.337444,"lon":5.374475,"is_reserved":false,"is_disabled":true,"rental_uris":{"android":"levelo://app?vid=46b2fdec-0870-4ae2-84dc-b1f57512351e","ios":"levelo://app?vid=46b2fdec-0870-4ae2-84dc-b1f57512351e"},"vehicle_type_id":"4","last_reported":1733919561,"current_range_meters":0,"station_id":"","pricing_plan_id":"cebpf4jnsgd1na2vs0mg"},{"bike_id":"436c31d7-ec9e-4c2c-ada1-254b2af3ff2b","system_id":"levelo_inurba_marseille","lat":43.27202,"lon":5.39186,"is_reserved":false,"is_disabled":false,"rental_uris":{"android":"levelo://app?vid=436c31d7-ec9e-4c2c-ada1-254b2af3ff2b","ios":"levelo://app?vid=436c31d7-ec9e-4c2c-ada1-254b2af3ff2b"},"vehicle_type_id":"4","last_reported":1733919561,"current_range_meters":30000,"station_id":"ce4bhhp2rcd13ifvqfm0","pricing_plan_id":"cebpf4jnsgd1na2vs0mg"},{"bike_id":"fa35d2a3-74a0-4945-9b04-061824848898","system_id":"levelo_inurba_marseille","lat":43.3136,"lon":5.36705,"is_reserved":false,"is_disabled":false,"rental_uris":{"android":"levelo://app?vid=fa35d2a3-74a0-4945-9b04-061824848898","ios":"levelo://app?vid=fa35d2a3-74a0-4945-9b04-061824848898"},"vehicle_type_id":"4","last_reported":1733919561,"current_range_meters":18000,"station_id":"ce4bgr92rcd13ifvqc6g","pricing_plan_id":"cebpf4jnsgd1na2vs0mg"},{"bike_id":"d5d6ed8d-7d6b-4967-a01a-e5f83dbdcb47","system_id":"levelo_inurba_marseille","lat":43.32273,"lon":5.38295,"is_reserved":false,"is_disabled":true,"rental_uris":{"android":"levelo://app?vid=d5d6ed8d-7d6b-4967-a01a-e5f83dbdcb47","ios":"levelo://app?vid=d5d6ed8d-7d6b-4967-a01a-e5f83dbdcb47"},"vehicle_type_id":"4","last_reported":1733919561,"current_range_meters":16000,"station_id":"ce4bhr12rcd13ifvqhqg","pricing_plan_id":"cebpf4jnsgd1na2vs0mg"},{"bike_id":"8b93c002-91eb-48ca-a3ec-47514fa292b3","system_id":"levelo_inurba_marseille","lat":43.30211,"lon":5.39462,"is_reserved":false,"is_disabled":true,"rental_uris":{"android":"levelo://app?vid=8b93c002-91eb-48ca-a3ec-47514fa292b3","ios":"levelo://app?vid=8b93c002-91eb-48ca-a3ec-47514fa292b3"},"vehicle_type_id":"4","last_reported":1733919561,"current_range_meters":800,"station_id":"ce4bh0p2rcd13ifvqd70","pricing_plan_id":"cebpf4jnsgd1na2vs0mg"},{"bike_id":"01ca6bb0-600d-4310-8951-c52e17036db0","system_id":"levelo_inurba_marseille","lat":43.27209,"lon":5.39184,"is_reserved":false,"is_disabled":false,"rental_uris":{"android":"levelo://app?vid=01ca6bb0-600d-4310-8951-c52e17036db0","ios":"levelo://app?vid=01ca6bb0-600d-4310-8951-c52e17036db0"},"vehicle_type_id":"4","last_reported":1733919561,"current_range_meters":38400,"station_id":"ce4bhhp2rcd13ifvqfm0","pricing_plan_id":"cebpf4jnsgd1na2vs0mg"},{"bike_id":"3d49ada7-4721-413e-b92a-a11b11193e96","system_id":"levelo_inurba_marseille","lat":43.28613,"lon":5.35105,"is_reserved":false,"is_disabled":false,"rental_uris":{"android":"levelo://app?vid=3d49ada7-4721-413e-b92a-a11b11193e96","ios":"levelo://app?vid=3d49ada7-4721-413e-b92a-a11b11193e96"},"vehicle_type_id":"4","last_reported":1733919561,"current_range_meters":27200,"station_id":"ce4bhch2rcd13ifvqeug","pricing_plan_id":"cebpf4jnsgd1na2vs0mg"},{"bike_id":"2ebd2fc6-13ac-4b60-8a2e-07cab16d51cc","system_id":"levelo_inurba_marseille","lat":43.24647,"lon":5.38904,"is_reserved":false,"is_disabled":false,"rental_uris":{"android":"levelo://app?vid=2ebd2fc6-13ac-4b60-8a2e-07cab16d51cc","ios":"levelo://app?vid=2ebd2fc6-13ac-4b60-8a2e-07cab16d51cc"},"vehicle_type_id":"4","last_reported":1733919561,"current_range_meters":23200,"station_id":"ce4bhg12rcd13ifvqf60","pricing_plan_id":"cebpf4jnsgd1na2vs0mg"},{"bike_id":"37681a73-64ca-4af2-aa07-57c646cc09e9","system_id":"levelo_inurba_marseille","lat":43.23194,"lon":5.35555,"is_reserved":false,"is_disabled":false,"rental_uris":{"android":"levelo://app?vid=37681a73-64ca-4af2-aa07-57c646cc09e9","ios":"levelo://app?vid=37681a73-64ca-4af2-aa07-57c646cc09e9"},"vehicle_type_id":"4","last_reported":1733919561,"current_range_meters":14000,"station_id":"ce4bhu92rcd13ifvqi70","pricing_plan_id":"cebpf4jnsgd1na2vs0mg"},{"bike_id":"fde47c74-48b7-42f3-bbc4-822a8ba605d1","system_id":"levelo_inurba_marseille","lat":43.29965,"lon":5.37243,"is_reserved":false,"is_disabled":false,"rental_uris":{"android":"levelo://app?vid=fde47c74-48b7-42f3-bbc4-822a8ba605d1","ios":"levelo://app?vid=fde47c74-48b7-42f3-bbc4-822a8ba605d1"},"vehicle_type_id":"4","last_reported":1733919561,"current_range_meters":4000,"station_id":"ce4bgr92rcd13ifvqc7g","pricing_plan_id":"cebpf4jnsgd1na2vs0mg"},{"bike_id":"162a7aae-b2f7-422a-a893-5294794a581a","system_id":"levelo_inurba_marseille","lat":43.33789,"lon":5.374,"is_reserved":false,"is_disabled":false,"rental_uris":{"android":"levelo://app?vid=162a7aae-b2f7-422a-a893-5294794a581a","ios":"levelo://app?vid=162a7aae-b2f7-422a-a893-5294794a581a"},"vehicle_type_id":"4","last_reported":1733919561,"current_range_meters":27200,"station_id":"","pricing_plan_id":"cebpf4jnsgd1na2vs0mg"},{"bike_id":"cfeef1d2-86d9-4c1b-8076-adb2f0d09c18","system_id":"levelo_inurba_marseille","lat":43.2947,"lon":5.37699,"is_reserved":false,"is_disabled":true,"rental_uris":{"android":"levelo://app?vid=cfeef1d2-86d9-4c1b-8076-adb2f0d09c18","ios":"levelo://app?vid=cfeef1d2-86d9-4c1b-8076-adb2f0d09c18"},"vehicle_type_id":"4","last_reported":1733919561,"current_range_meters":0,"station_id":"","pricing_plan_id":"cebpf4jnsgd1na2vs0mg"},{"bike_id":"6d05f7ba-808a-4403-b1f3-f8483fec843c","system_id":"levelo_inurba_marseille","lat":43.23182,"lon":5.35573,"is_reserved":false,"is_disabled":false,"rental_uris":{"android":"levelo://app?vid=6d05f7ba-808a-4403-b1f3-f8483fec843c","ios":"levelo://app?vid=6d05f7ba-808a-4403-b1f3-f8483fec843c"},"vehicle_type_id":"4","last_reported":1733919561,"current_range_meters":37600,"station_id":"ce4bhu92rcd13ifvqi70","pricing_plan_id":"cebpf4jnsgd1na2vs0mg"},{"bike_id":"d2f36225-6b0a-4432-80cc-86c2d8cc85d1","system_id":"levelo_inurba_marseille","lat":43.30109,"lon":5.37458,"is_reserved":false,"is_disabled":false,"rental_uris":{"android":"levelo://app?vid=d2f36225-6b0a-4432-80cc-86c2d8cc85d1","ios":"levelo://app?vid=d2f36225-6b0a-4432-80cc-86c2d8cc85d1"},"vehicle_type_id":"4","last_reported":1733919561,"current_range_meters":8400,"station_id":"","pricing_plan_id":"cebpf4jnsgd1na2vs0mg"},{"bike_id":"057457d5-d6de-4b24-acf4-d0f8d71f1a53","system_id":"levelo_inurba_marseille","lat":43.28093,"lon":5.37852,"is_reserved":false,"is_disabled":false,"rental_uris":{"android":"levelo://app?vid=057457d5-d6de-4b24-acf4-d0f8d71f1a53","ios":"levelo://app?vid=057457d5-d6de-4b24-acf4-d0f8d71f1a53"},"vehicle_type_id":"4","last_reported":1733919561,"current_range_meters":26800,"station_id":"ce4bha12rcd13ifvqee0","pricing_plan_id":"cebpf4jnsgd1na2vs0mg"},{"bike_id":"5137b643-f444-4318-a66b-2b2970621c82","system_id":"levelo_inurba_marseille","lat":43.30163,"lon":5.38098,"is_reserved":false,"is_disabled":false,"rental_uris":{"android":"levelo://app?vid=5137b643-f444-4318-a66b-2b2970621c82","ios":"levelo://app?vid=5137b643-f444-4318-a66b-2b2970621c82"},"vehicle_type_id":"4","last_reported":1733919561,"current_range_meters":19200,"station_id":"ce4bgjp2rcd13ifvqbh0","pricing_plan_id":"cebpf4jnsgd1na2vs0mg"},{"bike_id":"c2d2b156-511e-4580-b781-7ee85328cf53","system_id":"levelo_inurba_marseille","lat":43.30137,"lon":5.38097,"is_reserved":false,"is_disabled":false,"rental_uris":{"android":"levelo://app?vid=c2d2b156-511e-4580-b781-7ee85328cf53","ios":"levelo://app?vid=c2d2b156-511e-4580-b781-7ee85328cf53"},"vehicle_type_id":"4","last_reported":1733919561,"current_range_meters":39200,"station_id":"ce4bgjp2rcd13ifvqbh0","pricing_plan_id":"cebpf4jnsgd1na2vs0mg"},{"bike_id":"08595f37-404a-46f2-b805-853a25c1ebe7","system_id":"levelo_inurba_marseille","lat":43.26552,"lon":5.3731,"is_reserved":false,"is_disabled":false,"rental_uris":{"android":"levelo://app?vid=08595f37-404a-46f2-b805-853a25c1ebe7","ios":"levelo://app?vid=08595f37-404a-46f2-b805-853a25c1ebe7"},"vehicle_type_id":"4","last_reported":1733919561,"current_range_meters":18000,"station_id":"ce4bhg12rcd13ifvqf70","pricing_plan_id":"cebpf4jnsgd1na2vs0mg"},{"bike_id":"3567b1bd-e1f9-411f-8fce-4d0d6b60cf9f","system_id":"levelo_inurba_marseille","lat":43.27617,"lon":5.36118,"is_reserved":false,"is_disabled":false,"rental_uris":{"android":"levelo://app?vid=3567b1bd-e1f9-411f-8fce-4d0d6b60cf9f","ios":"levelo://app?vid=3567b1bd-e1f9-411f-8fce-4d0d6b60cf9f"},"vehicle_type_id":"4","last_reported":1733919561,"current_range_meters":17200,"station_id":"ce4bgj92rcd13ifvqbe0","pricing_plan_id":"cebpf4jnsgd1na2vs0mg"},{"bike_id":"9c8c1480-9ffa-4086-913c-c2125a6eb848","system_id":"levelo_inurba_marseille","lat":43.22933,"lon":5.35379,"is_reserved":false,"is_disabled":true,"rental_uris":{"android":"levelo://app?vid=9c8c1480-9ffa-4086-913c-c2125a6eb848","ios":"levelo://app?vid=9c8c1480-9ffa-4086-913c-c2125a6eb848"},"vehicle_type_id":"4","last_reported":1733919561,"current_range_meters":1200,"station_id":"cpo3532slgdg3j2ikp40","pricing_plan_id":"cebpf4jnsgd1na2vs0mg"},{"bike_id":"6d5477a4-c704-4bfc-83c3-bbe80b480bcc","system_id":"levelo_inurba_marseille","lat":43.28938,"lon":5.3664,"is_reserved":false,"is_disabled":false,"rental_uris":{"android":"levelo://app?vid=6d5477a4-c704-4bfc-83c3-bbe80b480bcc","ios":"levelo://app?vid=6d5477a4-c704-4bfc-83c3-bbe80b480bcc"},"vehicle_type_id":"4","last_reported":1733919561,"current_range_meters":13600,"station_id":"ce4bhap2rcd13ifvqek0","pricing_plan_id":"cebpf4jnsgd1na2vs0mg"},{"bike_id":"9ee18792-72aa-45dd-8c33-87cda588ffa1","system_id":"levelo_inurba_marseille","lat":43.30151,"lon":5.3809,"is_reserved":false,"is_disabled":false,"rental_uris":{"android":"levelo://app?vid=9ee18792-72aa-45dd-8c33-87cda588ffa1","ios":"levelo://app?vid=9ee18792-72aa-45dd-8c33-87cda588ffa1"},"vehicle_type_id":"4","last_reported":1733919561,"current_range_meters":38800,"station_id":"ce4bgjp2rcd13ifvqbh0","pricing_plan_id":"cebpf4jnsgd1na2vs0mg"},{"bike_id":"c00736be-6a25-481f-8b03-352ea58881fc","system_id":"levelo_inurba_marseille","lat":43.25866,"lon":5.39906,"is_reserved":false,"is_disabled":false,"rental_uris":{"android":"levelo://app?vid=c00736be-6a25-481f-8b03-352ea58881fc","ios":"levelo://app?vid=c00736be-6a25-481f-8b03-352ea58881fc"},"vehicle_type_id":"4","last_reported":1733919561,"current_range_meters":31200,"station_id":"ce4bhl92rcd13ifvqghg","pricing_plan_id":"cebpf4jnsgd1na2vs0mg"},{"bike_id":"dd7b42e4-fe43-4ab7-ba73-118d016893da","system_id":"levelo_inurba_marseille","lat":43.29004,"lon":5.3561,"is_reserved":false,"is_disabled":false,"rental_uris":{"android":"levelo://app?vid=dd7b42e4-fe43-4ab7-ba73-118d016893da","ios":"levelo://app?vid=dd7b42e4-fe43-4ab7-ba73-118d016893da"},"vehicle_type_id":"4","last_reported":1733919561,"current_range_meters":36400,"station_id":"ce4bhb92rcd13ifvqen0","pricing_plan_id":"cebpf4jnsgd1na2vs0mg"},{"bike_id":"aad293c2-ec35-4892-9633-a4160c1b87a3","system_id":"levelo_inurba_marseille","lat":43.31166,"lon":5.3872,"is_reserved":false,"is_disabled":false,"rental_uris":{"android":"levelo://app?vid=aad293c2-ec35-4892-9633-a4160c1b87a3","ios":"levelo://app?vid=aad293c2-ec35-4892-9633-a4160c1b87a3"},"vehicle_type_id":"4","last_reported":1733919561,"current_range_meters":7200,"station_id":"ce4bgv12rcd13ifvqcp0","pricing_plan_id":"cebpf4jnsgd1na2vs0mg"},{"bike_id":"9ac7fa6e-2578-4832-8168-ade341fdc585","system_id":"levelo_inurba_marseille","lat":43.2841,"lon":5.428961,"is_reserved":false,"is_disabled":true,"rental_uris":{"android":"levelo://app?vid=9ac7fa6e-2578-4832-8168-ade341fdc585","ios":"levelo://app?vid=9ac7fa6e-2578-4832-8168-ade341fdc585"},"vehicle_type_id":"4","last_reported":1733919561,"current_range_meters":0,"station_id":"","pricing_plan_id":"cebpf4jnsgd1na2vs0mg"},{"bike_id":"5b93766f-d0f8-4bca-bc57-e286c063ce96","system_id":"levelo_inurba_marseille","lat":43.29547,"lon":5.42285,"is_reserved":false,"is_disabled":false,"rental_uris":{"android":"levelo://app?vid=5b93766f-d0f8-4bca-bc57-e286c063ce96","ios":"levelo://app?vid=5b93766f-d0f8-4bca-bc57-e286c063ce96"},"vehicle_type_id":"4","last_reported":1733919561,"current_range_meters":35200,"station_id":"ce4bhph2rcd13ifvqhdg","pricing_plan_id":"cebpf4jnsgd1na2vs0mg"},{"bike_id":"d3c673ce-7b42-475d-bc9a-d63f5b89b44b","system_id":"levelo_inurba_marseille","lat":43.303808,"lon":5.379833,"is_reserved":false,"is_disabled":false,"rental_uris":{"android":"levelo://app?vid=d3c673ce-7b42-475d-bc9a-d63f5b89b44b","ios":"levelo://app?vid=d3c673ce-7b42-475d-bc9a-d63f5b89b44b"},"vehicle_type_id":"4","last_reported":1733919561,"current_range_meters":10800,"station_id":"ce4bgup2rcd13ifvqcn0","pricing_plan_id":"cebpf4jnsgd1na2vs0mg"},{"bike_id":"dfa72cea-8422-423e-89ac-124a5b9338f5","system_id":"levelo_inurba_marseille","lat":43.2861,"lon":5.37064,"is_reserved":false,"is_disabled":false,"rental_uris":{"android":"levelo://app?vid=dfa72cea-8422-423e-89ac-124a5b9338f5","ios":"levelo://app?vid=dfa72cea-8422-423e-89ac-124a5b9338f5"},"vehicle_type_id":"4","last_reported":1733919561,"current_range_meters":33600,"station_id":"ce4bht12rcd13ifvqi60","pricing_plan_id":"cebpf4jnsgd1na2vs0mg"},{"bike_id":"2170586e-f48b-488e-9cb8-fca4aa23e253","system_id":"levelo_inurba_marseille","lat":43.273763,"lon":5.362478,"is_reserved":false,"is_disabled":false,"rental_uris":{"android":"levelo://app?vid=2170586e-f48b-488e-9cb8-fca4aa23e253","ios":"levelo://app?vid=2170586e-f48b-488e-9cb8-fca4aa23e253"},"vehicle_type_id":"4","last_reported":1733919561,"current_range_meters":24800,"station_id":"ce4bhbh2rcd13ifvqeo0","pricing_plan_id":"cebpf4jnsgd1na2vs0mg"},{"bike_id":"843e000c-2ee3-415f-8a42-0fdf69f1c1b7","system_id":"levelo_inurba_marseille","lat":43.26824,"lon":5.40193,"is_reserved":false,"is_disabled":false,"rental_uris":{"android":"levelo://app?vid=843e000c-2ee3-415f-8a42-0fdf69f1c1b7","ios":"levelo://app?vid=843e000c-2ee3-415f-8a42-0fdf69f1c1b7"},"vehicle_type_id":"4","last_reported":1733919561,"current_range_meters":17600,"station_id":"ce501612rcd8frsf0b60","pricing_plan_id":"cebpf4jnsgd1na2vs0mg"},{"bike_id":"f5db98bb-9567-4be5-a63a-3fe4d02bf151","system_id":"levelo_inurba_marseille","lat":43.27964,"lon":5.38733,"is_reserved":false,"is_disabled":false,"rental_uris":{"android":"levelo://app?vid=f5db98bb-9567-4be5-a63a-3fe4d02bf151","ios":"levelo://app?vid=f5db98bb-9567-4be5-a63a-3fe4d02bf151"},"vehicle_type_id":"4","last_reported":1733919561,"current_range_meters":38800,"station_id":"ce4bhg12rcd13ifvqf80","pricing_plan_id":"cebpf4jnsgd1na2vs0mg"},{"bike_id":"6eb605d9-37a9-4890-933d-661c5bd67087","system_id":"levelo_inurba_marseille","lat":43.291,"lon":5.38156,"is_reserved":false,"is_disabled":true,"rental_uris":{"android":"levelo://app?vid=6eb605d9-37a9-4890-933d-661c5bd67087","ios":"levelo://app?vid=6eb605d9-37a9-4890-933d-661c5bd67087"},"vehicle_type_id":"4","last_reported":1733919561,"current_range_meters":16800,"station_id":"ce4bh512rcd13ifvqe2g","pricing_plan_id":"cebpf4jnsgd1na2vs0mg"},{"bike_id":"cd86b9a0-b887-43a2-9410-b7a36a1c1aac","system_id":"levelo_inurba_marseille","lat":43.25725,"lon":5.4111,"is_reserved":false,"is_disabled":false,"rental_uris":{"android":"levelo://app?vid=cd86b9a0-b887-43a2-9410-b7a36a1c1aac","ios":"levelo://app?vid=cd86b9a0-b887-43a2-9410-b7a36a1c1aac"},"vehicle_type_id":"4","last_reported":1733919561,"current_range_meters":36400,"station_id":"ce4bhkp2rcd13ifvqgd0","pricing_plan_id":"cebpf4jnsgd1na2vs0mg"},{"bike_id":"dc3d7a51-4954-4cee-8d90-a10249224c92","system_id":"levelo_inurba_marseille","lat":43.2419,"lon":5.39732,"is_reserved":false,"is_disabled":false,"rental_uris":{"android":"levelo://app?vid=dc3d7a51-4954-4cee-8d90-a10249224c92","ios":"levelo://app?vid=dc3d7a51-4954-4cee-8d90-a10249224c92"},"vehicle_type_id":"4","last_reported":1733919561,"current_range_meters":18000,"station_id":"ce4bhn12rcd13ifvqgpg","pricing_plan_id":"cebpf4jnsgd1na2vs0mg"},{"bike_id":"b211d4de-ea36-431b-abbc-0e38fa4fe2e4","system_id":"levelo_inurba_marseille","lat":43.27054,"lon":5.40263,"is_reserved":false,"is_disabled":false,"rental_uris":{"android":"levelo://app?vid=b211d4de-ea36-431b-abbc-0e38fa4fe2e4","ios":"levelo://app?vid=b211d4de-ea36-431b-abbc-0e38fa4fe2e4"},"vehicle_type_id":"4","last_reported":1733919561,"current_range_meters":12000,"station_id":"ce4bhk92rcd13ifvqgc0","pricing_plan_id":"cebpf4jnsgd1na2vs0mg"},{"bike_id":"b3764c07-04a0-4ea8-8519-308fac5aa3dd","system_id":"levelo_inurba_marseille","lat":43.30911,"lon":5.36854,"is_reserved":false,"is_disabled":false,"rental_uris":{"android":"levelo://app?vid=b3764c07-04a0-4ea8-8519-308fac5aa3dd","ios":"levelo://app?vid=b3764c07-04a0-4ea8-8519-308fac5aa3dd"},"vehicle_type_id":"4","last_reported":1733919561,"current_range_meters":35200,"station_id":"ce4bgn92rcd13ifvqbvg","pricing_plan_id":"cebpf4jnsgd1na2vs0mg"},{"bike_id":"c18e0b11-833e-479f-a531-6513440d5db6","system_id":"levelo_inurba_marseille","lat":43.26943,"lon":5.40245,"is_reserved":false,"is_disabled":false,"rental_uris":{"android":"levelo://app?vid=c18e0b11-833e-479f-a531-6513440d5db6","ios":"levelo://app?vid=c18e0b11-833e-479f-a531-6513440d5db6"},"vehicle_type_id":"4","last_reported":1733919561,"current_range_meters":38400,"station_id":"cjm6bp8fraef2m0cb0m0","pricing_plan_id":"cebpf4jnsgd1na2vs0mg"},{"bike_id":"36893e91-0dce-4424-8c8e-0b7d249a38c5","system_id":"levelo_inurba_marseille","lat":43.31477,"lon":5.37306,"is_reserved":false,"is_disabled":false,"rental_uris":{"android":"levelo://app?vid=36893e91-0dce-4424-8c8e-0b7d249a38c5","ios":"levelo://app?vid=36893e91-0dce-4424-8c8e-0b7d249a38c5"},