{"last_updated":1731611197,"ttl":60,"version":"2.2","data":{"bikes":[{"bike_id":"33aebbcd-bafb-4b6d-bbf2-f4e44cc6ef3b","system_id":"levelo_inurba_marseille","lat":43.31131,"lon":5.37754,"is_reserved":false,"is_disabled":false,"rental_uris":{"android":"levelo://app?vid=33aebbcd-bafb-4b6d-bbf2-f4e44cc6ef3b","ios":"levelo://app?vid=33aebbcd-bafb-4b6d-bbf2-f4e44cc6ef3b"},"vehicle_type_id":"4","last_reported":1731611197,"current_range_meters":18800,"station_id":"ce4bgt92rcd13ifvqcg0","pricing_plan_id":"cebpf4jnsgd1na2vs0mg"},{"bike_id":"1d936b62-1bb8-40f6-afdf-7dac3ed8caa9","system_id":"levelo_inurba_marseille","lat":43.28525,"lon":5.35832,"is_reserved":false,"is_disabled":false,"rental_uris":{"android":"levelo://app?vid=1d936b62-1bb8-40f6-afdf-7dac3ed8caa9","ios":"levelo://app?vid=1d936b62-1bb8-40f6-afdf-7dac3ed8caa9"},"vehicle_type_id":"4","last_reported":1731611197,"current_range_meters":18000,"station_id":"","pricing_plan_id":"cebpf4jnsgd1na2vs0mg"},{"bike_id":"27dfd56c-a0dd-4836-a141-163a04b58bab","system_id":"levelo_inurba_marseille","lat":43.2801,"lon":5.41644,"is_reserved":false,"is_disabled":false,"rental_uris":{"android":"levelo://app?vid=27dfd56c-a0dd-4836-a141-163a04b58bab","ios":"levelo://app?vid=27dfd56c-a0dd-4836-a141-163a04b58bab"},"vehicle_type_id":"4","last_reported":1731611197,"current_range_meters":27600,"station_id":"ce4bho12rcd13ifvqh1g","pricing_plan_id":"cebpf4jnsgd1na2vs0mg"},{"bike_id":"e558d9e7-43f3-446d-8aed-7759be11483b","system_id":"levelo_inurba_marseille","lat":43.29543,"lon":5.38529,"is_reserved":false,"is_disabled":false,"rental_uris":{"android":"levelo://app?vid=e558d9e7-43f3-446d-8aed-7759be11483b","ios":"levelo://app?vid=e558d9e7-43f3-446d-8aed-7759be11483b"},"vehicle_type_id":"4","last_reported":1731611197,"current_range_meters":21600,"station_id":"ce4bgih2rcd13ifvqba0","pricing_plan_id":"cebpf4jnsgd1na2vs0mg"},{"bike_id":"c64a60b6-317d-4054-8f52-b03871d4495a","system_id":"levelo_inurba_marseille","lat":43.3083,"lon":5.43554,"is_reserved":false,"is_disabled":false,"rental_uris":{"android":"levelo://app?vid=c64a60b6-317d-4054-8f52-b03871d4495a","ios":"levelo://app?vid=c64a60b6-317d-4054-8f52-b03871d4495a"},"vehicle_type_id":"4","last_reported":1731611197,"current_range_meters":8400,"station_id":"ce4bhph2rcd13ifvqheg","pricing_plan_id":"cebpf4jnsgd1na2vs0mg"},{"bike_id":"5993bac6-5c24-49b7-a326-e88b8c1f8cc7","system_id":"levelo_inurba_marseille","lat":43.31368,"lon":5.385,"is_reserved":false,"is_disabled":false,"rental_uris":{"android":"levelo://app?vid=5993bac6-5c24-49b7-a326-e88b8c1f8cc7","ios":"levelo://app?vid=5993bac6-5c24-49b7-a326-e88b8c1f8cc7"},"vehicle_type_id":"4","last_reported":1731611197,"current_range_meters":38400,"station_id":"ce4bgt92rcd13ifvqcf0","pricing_plan_id":"cebpf4jnsgd1na2vs0mg"},{"bike_id":"072817f5-6959-4369-b86c-fa19f20523ce","system_id":"levelo_inurba_marseille","lat":43.28455,"lon":5.35887,"is_reserved":false,"is_disabled":false,"rental_uris":{"android":"levelo://app?vid=072817f5-6959-4369-b86c-fa19f20523ce","ios":"levelo://app?vid=072817f5-6959-4369-b86c-fa19f20523ce"},"vehicle_type_id":"4","last_reported":1731611197,"current_range_meters":38800,"station_id":"ce4bhah2rcd13ifvqei0","pricing_plan_id":"cebpf4jnsgd1na2vs0mg"},{"bike_id":"16fde11b-ad8b-4dc1-964d-0dcff4c00b3f","system_id":"levelo_inurba_marseille","lat":43.28002,"lon":5.40008,"is_reserved":false,"is_disabled":false,"rental_uris":{"android":"levelo://app?vid=16fde11b-ad8b-4dc1-964d-0dcff4c00b3f","ios":"levelo://app?vid=16fde11b-ad8b-4dc1-964d-0dcff4c00b3f"},"vehicle_type_id":"4","last_reported":1731611197,"current_range_meters":35200,"station_id":"ce4bho92rcd13ifvqh4g","pricing_plan_id":"cebpf4jnsgd1na2vs0mg"},{"bike_id":"a7601617-1b30-4608-bc38-de29b66c8eb4","system_id":"levelo_inurba_marseille","lat":43.2848,"lon":5.38426,"is_reserved":false,"is_disabled":false,"rental_uris":{"android":"levelo://app?vid=a7601617-1b30-4608-bc38-de29b66c8eb4","ios":"levelo://app?vid=a7601617-1b30-4608-bc38-de29b66c8eb4"},"vehicle_type_id":"4","last_reported":1731611197,"current_range_meters":11200,"station_id":"ce4bh512rcd13ifvqe3g","pricing_plan_id":"cebpf4jnsgd1na2vs0mg"},{"bike_id":"5f516091-4197-4a74-9bff-4926e8e89de9","system_id":"levelo_inurba_marseille","lat":43.31365,"lon":5.38488,"is_reserved":false,"is_disabled":false,"rental_uris":{"android":"levelo://app?vid=5f516091-4197-4a74-9bff-4926e8e89de9","ios":"levelo://app?vid=5f516091-4197-4a74-9bff-4926e8e89de9"},"vehicle_type_id":"4","last_reported":1731611197,"current_range_meters":37600,"station_id":"ce4bgt92rcd13ifvqcf0","pricing_plan_id":"cebpf4jnsgd1na2vs0mg"},{"bike_id":"9b661747-b458-43b2-875c-b2642d03f1bc","system_id":"levelo_inurba_marseille","lat":43.29095,"lon":5.3812,"is_reserved":false,"is_disabled":false,"rental_uris":{"android":"levelo://app?vid=9b661747-b458-43b2-875c-b2642d03f1bc","ios":"levelo://app?vid=9b661747-b458-43b2-875c-b2642d03f1bc"},"vehicle_type_id":"4","last_reported":1731611197,"current_range_meters":24400,"station_id":"ce4bh512rcd13ifvqe2g","pricing_plan_id":"cebpf4jnsgd1na2vs0mg"},{"bike_id":"322929c1-8f42-441c-a8e7-5b80c2019ad2","system_id":"levelo_inurba_marseille","lat":43.28266,"lon":5.35058,"is_reserved":false,"is_disabled":false,"rental_uris":{"android":"levelo://app?vid=322929c1-8f42-441c-a8e7-5b80c2019ad2","ios":"levelo://app?vid=322929c1-8f42-441c-a8e7-5b80c2019ad2"},"vehicle_type_id":"4","last_reported":1731611197,"current_range_meters":38800,"station_id":"ce4bhbp2rcd13ifvqerg","pricing_plan_id":"cebpf4jnsgd1na2vs0mg"},{"bike_id":"e3cb1a55-4148-430e-8e94-feb4c70ed1b6","system_id":"levelo_inurba_marseille","lat":43.24168,"lon":5.39748,"is_reserved":false,"is_disabled":false,"rental_uris":{"android":"levelo://app?vid=e3cb1a55-4148-430e-8e94-feb4c70ed1b6","ios":"levelo://app?vid=e3cb1a55-4148-430e-8e94-feb4c70ed1b6"},"vehicle_type_id":"4","last_reported":1731611197,"current_range_meters":10000,"station_id":"ce4bhn12rcd13ifvqgpg","pricing_plan_id":"cebpf4jnsgd1na2vs0mg"},{"bike_id":"9ef76943-592f-4d3b-a0f1-da70d440e9b4","system_id":"levelo_inurba_marseille","lat":43.29898,"lon":5.43668,"is_reserved":false,"is_disabled":false,"rental_uris":{"android":"levelo://app?vid=9ef76943-592f-4d3b-a0f1-da70d440e9b4","ios":"levelo://app?vid=9ef76943-592f-4d3b-a0f1-da70d440e9b4"},"vehicle_type_id":"4","last_reported":1731611197,"current_range_meters":26800,"station_id":"ce4bhpp2rcd13ifvqhfg","pricing_plan_id":"cebpf4jnsgd1na2vs0mg"},{"bike_id":"a2824603-538d-4f20-8dcc-bb0102e732b8","system_id":"levelo_inurba_marseille","lat":43.27818,"lon":5.40715,"is_reserved":false,"is_disabled":false,"rental_uris":{"android":"levelo://app?vid=a2824603-538d-4f20-8dcc-bb0102e732b8","ios":"levelo://app?vid=a2824603-538d-4f20-8dcc-bb0102e732b8"},"vehicle_type_id":"4","last_reported":1731611197,"current_range_meters":36400,"station_id":"ce4bhnh2rcd13ifvqgtg","pricing_plan_id":"cebpf4jnsgd1na2vs0mg"},{"bike_id":"4fa3aaed-e4c5-4a34-bbc7-67c519cd255c","system_id":"levelo_inurba_marseille","lat":43.270773,"lon":5.422767,"is_reserved":false,"is_disabled":false,"rental_uris":{"android":"levelo://app?vid=4fa3aaed-e4c5-4a34-bbc7-67c519cd255c","ios":"levelo://app?vid=4fa3aaed-e4c5-4a34-bbc7-67c519cd255c"},"vehicle_type_id":"4","last_reported":1731611197,"current_range_meters":4400,"station_id":"ce4bhk92rcd13ifvqgb0","pricing_plan_id":"cebpf4jnsgd1na2vs0mg"},{"bike_id":"6e13275e-d3d0-4f1c-9c87-88a0c91163a8","system_id":"levelo_inurba_marseille","lat":43.323419,"lon":5.406196,"is_reserved":false,"is_disabled":false,"rental_uris":{"android":"levelo://app?vid=6e13275e-d3d0-4f1c-9c87-88a0c91163a8","ios":"levelo://app?vid=6e13275e-d3d0-4f1c-9c87-88a0c91163a8"},"vehicle_type_id":"4","last_reported":1731611197,"current_range_meters":38800,"station_id":"ce4bhq92rcd13ifvqhjg","pricing_plan_id":"cebpf4jnsgd1na2vs0mg"},{"bike_id":"354f040a-9ab6-488a-9d26-4c39ec3baaa7","system_id":"levelo_inurba_marseille","lat":43.23192,"lon":5.35519,"is_reserved":false,"is_disabled":false,"rental_uris":{"android":"levelo://app?vid=354f040a-9ab6-488a-9d26-4c39ec3baaa7","ios":"levelo://app?vid=354f040a-9ab6-488a-9d26-4c39ec3baaa7"},"vehicle_type_id":"4","last_reported":1731611197,"current_range_meters":38800,"station_id":"ce4bhu92rcd13ifvqi70","pricing_plan_id":"cebpf4jnsgd1na2vs0mg"},{"bike_id":"238dc81d-120a-41e0-a5be-506cc79c5c19","system_id":"levelo_inurba_marseille","lat":43.28852,"lon":5.35852,"is_reserved":false,"is_disabled":false,"rental_uris":{"android":"levelo://app?vid=238dc81d-120a-41e0-a5be-506cc79c5c19","ios":"levelo://app?vid=238dc81d-120a-41e0-a5be-506cc79c5c19"},"vehicle_type_id":"4","last_reported":1731611197,"current_range_meters":14800,"station_id":"ce4bhb12rcd13ifvqem0","pricing_plan_id":"cebpf4jnsgd1na2vs0mg"},{"bike_id":"01376f7d-e46e-4651-9b58-98c4e0a82853","system_id":"levelo_inurba_marseille","lat":43.295751,"lon":5.399791,"is_reserved":false,"is_disabled":false,"rental_uris":{"android":"levelo://app?vid=01376f7d-e46e-4651-9b58-98c4e0a82853","ios":"levelo://app?vid=01376f7d-e46e-4651-9b58-98c4e0a82853"},"vehicle_type_id":"4","last_reported":1731611197,"current_range_meters":22000,"station_id":"","pricing_plan_id":"cebpf4jnsgd1na2vs0mg"},{"bike_id":"bbea2c35-ac2e-4275-8fc1-24a10892bc02","system_id":"levelo_inurba_marseille","lat":43.28105,"lon":5.39665,"is_reserved":false,"is_disabled":false,"rental_uris":{"android":"levelo://app?vid=bbea2c35-ac2e-4275-8fc1-24a10892bc02","ios":"levelo://app?vid=bbea2c35-ac2e-4275-8fc1-24a10892bc02"},"vehicle_type_id":"4","last_reported":1731611197,"current_range_meters":37600,"station_id":"ce4bho12rcd13ifvqh2g","pricing_plan_id":"cebpf4jnsgd1na2vs0mg"},{"bike_id":"75cd3c5d-40d3-4416-a266-d534055ae7f1","system_id":"levelo_inurba_marseille","lat":43.29524,"lon":5.38533,"is_reserved":false,"is_disabled":false,"rental_uris":{"android":"levelo://app?vid=75cd3c5d-40d3-4416-a266-d534055ae7f1","ios":"levelo://app?vid=75cd3c5d-40d3-4416-a266-d534055ae7f1"},"vehicle_type_id":"4","last_reported":1731611197,"current_range_meters":27200,"station_id":"ce4bgih2rcd13ifvqba0","pricing_plan_id":"cebpf4jnsgd1na2vs0mg"},{"bike_id":"4a74f469-1d99-48ee-a8ca-9199898c00a4","system_id":"levelo_inurba_marseille","lat":43.23199,"lon":5.35547,"is_reserved":false,"is_disabled":false,"rental_uris":{"android":"levelo://app?vid=4a74f469-1d99-48ee-a8ca-9199898c00a4","ios":"levelo://app?vid=4a74f469-1d99-48ee-a8ca-9199898c00a4"},"vehicle_type_id":"4","last_reported":1731611197,"current_range_meters":19600,"station_id":"ce4bhu92rcd13ifvqi70","pricing_plan_id":"cebpf4jnsgd1na2vs0mg"},{"bike_id":"705efb97-5eb5-4b94-be77-1b6bb306c30e","system_id":"levelo_inurba_marseille","lat":43.31324,"lon":5.39687,"is_reserved":false,"is_disabled":false,"rental_uris":{"android":"levelo://app?vid=705efb97-5eb5-4b94-be77-1b6bb306c30e","ios":"levelo://app?vid=705efb97-5eb5-4b94-be77-1b6bb306c30e"},"vehicle_type_id":"4","last_reported":1731611197,"current_range_meters":36000,"station_id":"ce4bgvp2rcd13ifvqcu0","pricing_plan_id":"cebpf4jnsgd1na2vs0mg"},{"bike_id":"470bc30c-81f7-4775-af92-6877fbe6440c","system_id":"levelo_inurba_marseille","lat":43.29309,"lon":5.37459,"is_reserved":false,"is_disabled":false,"rental_uris":{"android":"levelo://app?vid=470bc30c-81f7-4775-af92-6877fbe6440c","ios":"levelo://app?vid=470bc30c-81f7-4775-af92-6877fbe6440c"},"vehicle_type_id":"4","last_reported":1731611197,"current_range_meters":14800,"station_id":"ce4bgi12rcd13ifvqb70","pricing_plan_id":"cebpf4jnsgd1na2vs0mg"},{"bike_id":"5a9487f5-1f4a-4526-91df-278697abb58b","system_id":"levelo_inurba_marseille","lat":43.2816,"lon":5.42647,"is_reserved":false,"is_disabled":false,"rental_uris":{"android":"levelo://app?vid=5a9487f5-1f4a-4526-91df-278697abb58b","ios":"levelo://app?vid=5a9487f5-1f4a-4526-91df-278697abb58b"},"vehicle_type_id":"4","last_reported":1731611197,"current_range_meters":24000,"station_id":"ce4bhnh2rcd13ifvqgug","pricing_plan_id":"cebpf4jnsgd1na2vs0mg"},{"bike_id":"ca3091f0-8f46-4139-b023-6c11c671ae92","system_id":"levelo_inurba_marseille","lat":43.26812,"lon":5.40269,"is_reserved":false,"is_disabled":false,"rental_uris":{"android":"levelo://app?vid=ca3091f0-8f46-4139-b023-6c11c671ae92","ios":"levelo://app?vid=ca3091f0-8f46-4139-b023-6c11c671ae92"},"vehicle_type_id":"4","last_reported":1731611197,"current_range_meters":9600,"station_id":"ce501612rcd8frsf0b60","pricing_plan_id":"cebpf4jnsgd1na2vs0mg"},{"bike_id":"b218162a-539b-480c-8693-30db50e70400","system_id":"levelo_inurba_marseille","lat":43.30137,"lon":5.39863,"is_reserved":false,"is_disabled":false,"rental_uris":{"android":"levelo://app?vid=b218162a-539b-480c-8693-30db50e70400","ios":"levelo://app?vid=b218162a-539b-480c-8693-30db50e70400"},"vehicle_type_id":"4","last_reported":1731611197,"current_range_meters":4800,"station_id":"ce4bh0h2rcd13ifvqd40","pricing_plan_id":"cebpf4jnsgd1na2vs0mg"},{"bike_id":"d8e22832-0da4-4fbb-9871-c4aeb72f3627","system_id":"levelo_inurba_marseille","lat":43.25864,"lon":5.39903,"is_reserved":false,"is_disabled":false,"rental_uris":{"android":"levelo://app?vid=d8e22832-0da4-4fbb-9871-c4aeb72f3627","ios":"levelo://app?vid=d8e22832-0da4-4fbb-9871-c4aeb72f3627"},"vehicle_type_id":"4","last_reported":1731611197,"current_range_meters":38800,"station_id":"ce4bhl92rcd13ifvqghg","pricing_plan_id":"cebpf4jnsgd1na2vs0mg"},{"bike_id":"730c5a07-dee7-4e5e-b1df-23469188d394","system_id":"levelo_inurba_marseille","lat":43.29711,"lon":5.36615,"is_reserved":false,"is_disabled":false,"rental_uris":{"android":"levelo://app?vid=730c5a07-dee7-4e5e-b1df-23469188d394","ios":"levelo://app?vid=730c5a07-dee7-4e5e-b1df-23469188d394"},"vehicle_type_id":"4","last_reported":1731611197,"current_range_meters":38800,"station_id":"ce4bgn12rcd13ifvqbt0","pricing_plan_id":"cebpf4jnsgd1na2vs0mg"},{"bike_id":"89913496-209d-42f3-83b0-621a9e82faa6","system_id":"levelo_inurba_marseille","lat":43.31754,"lon":5.39013,"is_reserved":false,"is_disabled":false,"rental_uris":{"android":"levelo://app?vid=89913496-209d-42f3-83b0-621a9e82faa6","ios":"levelo://app?vid=89913496-209d-42f3-83b0-621a9e82faa6"},"vehicle_type_id":"4","last_reported":1731611197,"current_range_meters":36400,"station_id":"ce4bhqp2rcd13ifvqhng","pricing_plan_id":"cebpf4jnsgd1na2vs0mg"},{"bike_id":"b401526e-9797-412b-a024-2aeff2654ce6","system_id":"levelo_inurba_marseille","lat":43.27936,"lon":5.355,"is_reserved":false,"is_disabled":false,"rental_uris":{"android":"levelo://app?vid=b401526e-9797-412b-a024-2aeff2654ce6","ios":"levelo://app?vid=b401526e-9797-412b-a024-2aeff2654ce6"},"vehicle_type_id":"4","last_reported":1731611197,"current_range_meters":3200,"station_id":"","pricing_plan_id":"cebpf4jnsgd1na2vs0mg"},{"bike_id":"20710574-0e15-4244-8d76-c3a3af509d71","system_id":"levelo_inurba_marseille","lat":43.28459,"lon":5.35895,"is_reserved":false,"is_disabled":false,"rental_uris":{"android":"levelo://app?vid=20710574-0e15-4244-8d76-c3a3af509d71","ios":"levelo://app?vid=20710574-0e15-4244-8d76-c3a3af509d71"},"vehicle_type_id":"4","last_reported":1731611197,"current_range_meters":18000,"station_id":"ce4bhah2rcd13ifvqei0","pricing_plan_id":"cebpf4jnsgd1na2vs0mg"},{"bike_id":"962bd2b8-e9f4-4908-83f4-c5f28c577160","system_id":"levelo_inurba_marseille","lat":43.30598,"lon":5.39352,"is_reserved":false,"is_disabled":false,"rental_uris":{"android":"levelo://app?vid=962bd2b8-e9f4-4908-83f4-c5f28c577160","ios":"levelo://app?vid=962bd2b8-e9f4-4908-83f4-c5f28c577160"},"vehicle_type_id":"4","last_reported":1731611197,"current_range_meters":38400,"station_id":"ce4bh0p2rcd13ifvqd80","pricing_plan_id":"cebpf4jnsgd1na2vs0mg"},{"bike_id":"81117fe0-1e47-4966-a7e0-0145c8ef9c98","system_id":"levelo_inurba_marseille","lat":43.25858,"lon":5.39912,"is_reserved":false,"is_disabled":false,"rental_uris":{"android":"levelo://app?vid=81117fe0-1e47-4966-a7e0-0145c8ef9c98","ios":"levelo://app?vid=81117fe0-1e47-4966-a7e0-0145c8ef9c98"},"vehicle_type_id":"4","last_reported":1731611197,"current_range_meters":6400,"station_id":"ce4bhl92rcd13ifvqghg","pricing_plan_id":"cebpf4jnsgd1na2vs0mg"},{"bike_id":"7725c0e5-1eaf-4ef6-82b0-3d602909deec","system_id":"levelo_inurba_marseille","lat":43.29531,"lon":5.38536,"is_reserved":false,"is_disabled":false,"rental_uris":{"android":"levelo://app?vid=7725c0e5-1eaf-4ef6-82b0-3d602909deec","ios":"levelo://app?vid=7725c0e5-1eaf-4ef6-82b0-3d602909deec"},"vehicle_type_id":"4","last_reported":1731611197,"current_range_meters":24400,"station_id":"ce4bgih2rcd13ifvqba0","pricing_plan_id":"cebpf4jnsgd1na2vs0mg"},{"bike_id":"1cd6853f-ffdd-4358-bc58-45b6b9d8d7be","system_id":"levelo_inurba_marseille","lat":43.28861,"lon":5.35844,"is_reserved":false,"is_disabled":false,"rental_uris":{"android":"levelo://app?vid=1cd6853f-ffdd-4358-bc58-45b6b9d8d7be","ios":"levelo://app?vid=1cd6853f-ffdd-4358-bc58-45b6b9d8d7be"},"vehicle_type_id":"4","last_reported":1731611197,"current_range_meters":38400,"station_id":"ce4bhb12rcd13ifvqem0","pricing_plan_id":"cebpf4jnsgd1na2vs0mg"},{"bike_id":"785a4434-c998-4c07-9e49-6240ac8eab46","system_id":"levelo_inurba_marseille","lat":43.3303,"lon":5.39045,"is_reserved":false,"is_disabled":false,"rental_uris":{"android":"levelo://app?vid=785a4434-c998-4c07-9e49-6240ac8eab46","ios":"levelo://app?vid=785a4434-c998-4c07-9e49-6240ac8eab46"},"vehicle_type_id":"4","last_reported":1731611197,"current_range_meters":38800,"station_id":"ce4bhr92rcd13ifvqhrg","pricing_plan_id":"cebpf4jnsgd1na2vs0mg"},{"bike_id":"efa8c3d1-15b0-406a-a10a-ef5ffefd3156","system_id":"levelo_inurba_marseille","lat":43.285651,"lon":5.3777,"is_reserved":false,"is_disabled":false,"rental_uris":{"android":"levelo://app?vid=efa8c3d1-15b0-406a-a10a-ef5ffefd3156","ios":"levelo://app?vid=efa8c3d1-15b0-406a-a10a-ef5ffefd3156"},"vehicle_type_id":"4","last_reported":1731611197,"current_range_meters":10000,"station_id":"ce4bha12rcd13ifvqee0","pricing_plan_id":"cebpf4jnsgd1na2vs0mg"},{"bike_id":"3d3eaf34-60d4-4f41-983c-f6956de886c9","system_id":"levelo_inurba_marseille","lat":43.29786,"lon":5.38089,"is_reserved":false,"is_disabled":false,"rental_uris":{"android":"levelo://app?vid=3d3eaf34-60d4-4f41-983c-f6956de886c9","ios":"levelo://app?vid=3d3eaf34-60d4-4f41-983c-f6956de886c9"},"vehicle_type_id":"4","last_reported":1731611197,"current_range_meters":30400,"station_id":"ce4bgip2rcd13ifvqbb0","pricing_plan_id":"cebpf4jnsgd1na2vs0mg"},{"bike_id":"bb340110-01a4-47df-bf45-aec56b5d8564","system_id":"levelo_inurba_marseille","lat":43.28929,"lon":5.36394,"is_reserved":false,"is_disabled":false,"rental_uris":{"android":"levelo://app?vid=bb340110-01a4-47df-bf45-aec56b5d8564","ios":"levelo://app?vid=bb340110-01a4-47df-bf45-aec56b5d8564"},"vehicle_type_id":"4","last_reported":1731611197,"current_range_meters":30400,"station_id":"ce4bhc92rcd13ifvqetg","pricing_plan_id":"cebpf4jnsgd1na2vs0mg"},{"bike_id":"e9eacfda-a66c-41ab-910b-7079ea5b2f4f","system_id":"levelo_inurba_marseille","lat":43.28159,"lon":5.42641,"is_reserved":false,"is_disabled":false,"rental_uris":{"android":"levelo://app?vid=e9eacfda-a66c-41ab-910b-7079ea5b2f4f","ios":"levelo://app?vid=e9eacfda-a66c-41ab-910b-7079ea5b2f4f"},"vehicle_type_id":"4","last_reported":1731611197,"current_range_meters":4400,"station_id":"ce4bhnh2rcd13ifvqgug","pricing_plan_id":"cebpf4jnsgd1na2vs0mg"},{"bike_id":"d13815ff-4a92-4aee-bc1f-f72c61ddd58d","system_id":"levelo_inurba_marseille","lat":43.30928,"lon":5.40135,"is_reserved":false,"is_disabled":false,"rental_uris":{"android":"levelo://app?vid=d13815ff-4a92-4aee-bc1f-f72c61ddd58d","ios":"levelo://app?vid=d13815ff-4a92-4aee-bc1f-f72c61ddd58d"},"vehicle_type_id":"4","last_reported":1731611197,"current_range_meters":27600,"station_id":"ce4bgvp2rcd13ifvqct0","pricing_plan_id":"cebpf4jnsgd1na2vs0mg"},{"bike_id":"7b345e06-ae65-4765-8f41-9d23a5d7c9cb","system_id":"levelo_inurba_marseille","lat":43.28163,"lon":5.42652,"is_reserved":false,"is_disabled":false,"rental_uris":{"android":"levelo://app?vid=7b345e06-ae65-4765-8f41-9d23a5d7c9cb","ios":"levelo://app?vid=7b345e06-ae65-4765-8f41-9d23a5d7c9cb"},"vehicle_type_id":"4","last_reported":1731611197,"current_range_meters":39200,"station_id":"ce4bhnh2rcd13ifvqgug","pricing_plan_id":"cebpf4jnsgd1na2vs0mg"},{"bike_id":"254d4aa2-6c91-4550-9eb1-3aecb40c2461","system_id":"levelo_inurba_marseille","lat":43.2887,"lon":5.3586,"is_reserved":false,"is_disabled":false,"rental_uris":{"android":"levelo://app?vid=254d4aa2-6c91-4550-9eb1-3aecb40c2461","ios":"levelo://app?vid=254d4aa2-6c91-4550-9eb1-3aecb40c2461"},"vehicle_type_id":"4","last_reported":1731611197,"current_range_meters":17200,"station_id":"ce4bhb12rcd13ifvqem0","pricing_plan_id":"cebpf4jnsgd1na2vs0mg"},{"bike_id":"167e501f-4cdd-48cd-8ef5-684c0a5dd309","system_id":"levelo_inurba_marseille","lat":43.28466,"lon":5.35873,"is_reserved":false,"is_disabled":false,"rental_uris":{"android":"levelo://app?vid=167e501f-4cdd-48cd-8ef5-684c0a5dd309","ios":"levelo://app?vid=167e501f-4cdd-48cd-8ef5-684c0a5dd309"},"vehicle_type_id":"4","last_reported":1731611197,"current_range_meters":11200,"station_id":"ce4bhah2rcd13ifvqei0","pricing_plan_id":"cebpf4jnsgd1na2vs0mg"},{"bike_id":"675fe710-f9e5-46cf-95f1-88cbcbaf9606","system_id":"levelo_inurba_marseille","lat":43.28158,"lon":5.4265,"is_reserved":false,"is_disabled":false,"rental_uris":{"android":"levelo://app?vid=675fe710-f9e5-46cf-95f1-88cbcbaf9606","ios":"levelo://app?vid=675fe710-f9e5-46cf-95f1-88cbcbaf9606"},"vehicle_type_id":"4","last_reported":1731611197,"current_range_meters":28800,"station_id":"ce4bhnh2rcd13ifvqgug","pricing_plan_id":"cebpf4jnsgd1na2vs0mg"},{"bike_id":"088d69f7-5693-4fe2-8a2e-40f6fde52d50","system_id":"levelo_inurba_marseille","lat":43.2791,"lon":5.37995,"is_reserved":false,"is_disabled":false,"rental_uris":{"android":"levelo://app?vid=088d69f7-5693-4fe2-8a2e-40f6fde52d50","ios":"levelo://app?vid=088d69f7-5693-4fe2-8a2e-40f6fde52d50"},"vehicle_type_id":"4","last_reported":1731611197,"current_range_meters":12400,"station_id":"ce4bhf92rcd13ifvqf50","pricing_plan_id":"cebpf4jnsgd1na2vs0mg"},{"bike_id":"bb65540a-63bf-482e-ae28-4c05953402e5","system_id":"levelo_inurba_marseille","lat":43.23184,"lon":5.39986,"is_reserved":false,"is_disabled":false,"rental_uris":{"android":"levelo://app?vid=bb65540a-63bf-482e-ae28-4c05953402e5","ios":"levelo://app?vid=bb65540a-63bf-482e-ae28-4c05953402e5"},"vehicle_type_id":"4","last_reported":1731611197,"current_range_meters":9200,"station_id":"ce4bhn12rcd13ifvqgqg","pricing_plan_id":"cebpf4jnsgd1na2vs0mg"},{"bike_id":"4a737da6-fb54-4811-927c-a72ac382d494","system_id":"levelo_inurba_marseille","lat":43.29262,"lon":5.38438,"is_reserved":false,"is_disabled":false,"rental_uris":{"android":"levelo://app?vid=4a737da6-fb54-4811-927c-a72ac382d494","ios":"levelo://app?vid=4a737da6-fb54-4811-927c-a72ac382d494"},"vehicle_type_id":"4","last_reported":1731611197,"current_range_meters":33600,"station_id":"ce4bh692rcd13ifvqea0","pricing_plan_id":"cebpf4jnsgd1na2vs0mg"},{"bike_id":"19403e5b-9388-47f8-803d-8d1235a538c6","system_id":"levelo_inurba_marseille","lat":43.23202,"lon":5.35556,"is_reserved":false,"is_disabled":false,"rental_uris":{"android":"levelo://app?vid=19403e5b-9388-47f8-803d-8d1235a538c6","ios":"levelo://app?vid=19403e5b-9388-47f8-803d-8d1235a538c6"},"vehicle_type_id":"4","last_reported":1731611197,"current_range_meters":38800,"station_id":"ce4bhu92rcd13ifvqi70","pricing_plan_id":"cebpf4jnsgd1na2vs0mg"},{"bike_id":"bc5c3147-9c8a-4f83-93b0-3c6e89c527a3","system_id":"levelo_inurba_marseille","lat":43.27944,"lon":5.41043,"is_reserved":false,"is_disabled":false,"rental_uris":{"android":"levelo://app?vid=bc5c3147-9c8a-4f83-93b0-3c6e89c527a3","ios":"levelo://app?vid=bc5c3147-9c8a-4f83-93b0-3c6e89c527a3"},"vehicle_type_id":"4","last_reported":1731611197,"current_range_meters":27600,"station_id":"ce4bhnp2rcd13ifvqh0g","pricing_plan_id":"cebpf4jnsgd1na2vs0mg"},{"bike_id":"fdf22818-4bc3-445a-8749-a72c0a6e64af","system_id":"levelo_inurba_marseille","lat":43.27999,"lon":5.4166,"is_reserved":false,"is_disabled":false,"rental_uris":{"android":"levelo://app?vid=fdf22818-4bc3-445a-8749-a72c0a6e64af","ios":"levelo://app?vid=fdf22818-4bc3-445a-8749-a72c0a6e64af"},"vehicle_type_id":"4","last_reported":1731611197,"current_range_meters":6000,"station_id":"ce4bho12rcd13ifvqh1g","pricing_plan_id":"cebpf4jnsgd1na2vs0mg"},{"bike_id":"1bda7f93-5e07-4d55-9634-1c55956005d0","system_id":"levelo_inurba_marseille","lat":43.258674,"lon":5.398961,"is_reserved":false,"is_disabled":false,"rental_uris":{"android":"levelo://app?vid=1bda7f93-5e07-4d55-9634-1c55956005d0","ios":"levelo://app?vid=1bda7f93-5e07-4d55-9634-1c55956005d0"},"vehicle_type_id":"4","last_reported":1731611197,"current_range_meters":38800,"station_id":"ce4bhl92rcd13ifvqghg","pricing_plan_id":"cebpf4jnsgd1na2vs0mg"},{"bike_id":"2c17f9a3-1f05-429b-9d98-c7068c0d6ca7","system_id":"levelo_inurba_marseille","lat":43.27953,"lon":5.41032,"is_reserved":false,"is_disabled":false,"rental_uris":{"android":"levelo://app?vid=2c17f9a3-1f05-429b-9d98-c7068c0d6ca7","ios":"levelo://app?vid=2c17f9a3-1f05-429b-9d98-c7068c0d6ca7"},"vehicle_type_id":"4","last_reported":1731611197,"current_range_meters":10800,"station_id":"ce4bhnp2rcd13ifvqh0g","pricing_plan_id":"cebpf4jnsgd1na2vs0mg"},{"bike_id":"d99bff46-e3e0-4c25-9719-3fa3dd9a1a6e","system_id":"levelo_inurba_marseille","lat":43.31874,"lon":5.37364,"is_reserved":false,"is_disabled":false,"rental_uris":{"android":"levelo://app?vid=d99bff46-e3e0-4c25-9719-3fa3dd9a1a6e","ios":"levelo://app?vid=d99bff46-e3e0-4c25-9719-3fa3dd9a1a6e"},"vehicle_type_id":"4","last_reported":1731611197,"current_range_meters":22400,"station_id":"","pricing_plan_id":"cebpf4jnsgd1na2vs0mg"},{"bike_id":"eebf3a14-34da-4b6c-8b3f-182ce1be04ee","system_id":"levelo_inurba_marseille","lat":43.2952,"lon":5.39043,"is_reserved":false,"is_disabled":false,"rental_uris":{"android":"levelo://app?vid=eebf3a14-34da-4b6c-8b3f-182ce1be04ee","ios":"levelo://app?vid=eebf3a14-34da-4b6c-8b3f-182ce1be04ee"},"vehicle_type_id":"4","last_reported":1731611197,"current_range_meters":4800,"station_id":"ce4bh3p2rcd13ifvqdp0","pricing_plan_id":"cebpf4jnsgd1na2vs0mg"},{"bike_id":"1d74bc52-c8fd-442b-946b-e61aa82e32f3","system_id":"levelo_inurba_marseille","lat":43.2842,"lon":5.37516,"is_reserved":false,"is_disabled":false,"rental_uris":{"android":"levelo://app?vid=1d74bc52-c8fd-442b-946b-e61aa82e32f3","ios":"levelo://app?vid=1d74bc52-c8fd-442b-946b-e61aa82e32f3"},"vehicle_type_id":"4","last_reported":1731611197,"current_range_meters":38800,"station_id":"ce4bh412rcd13ifvqds0","pricing_plan_id":"cebpf4jnsgd1na2vs0mg"},{"bike_id":"daf14cb1-d6c4-4ea2-b6e4-7779e05a1714","system_id":"levelo_inurba_marseille","lat":43.33027,"lon":5.39041,"is_reserved":false,"is_disabled":false,"rental_uris":{"android":"levelo://app?vid=daf14cb1-d6c4-4ea2-b6e4-7779e05a1714","ios":"levelo://app?vid=daf14cb1-d6c4-4ea2-b6e4-7779e05a1714"},"vehicle_type_id":"4","last_reported":1731611197,"current_range_meters":32400,"station_id":"ce4bhr92rcd13ifvqhrg","pricing_plan_id":"cebpf4jnsgd1na2vs0mg"},{"bike_id":"0ce24b4d-1f0e-4578-af96-0c66971e464e","system_id":"levelo_inurba_marseille","lat":43.30151,"lon":5.38086,"is_reserved":false,"is_disabled":false,"rental_uris":{"android":"levelo://app?vid=0ce24b4d-1f0e-4578-af96-0c66971e464e","ios":"levelo://app?vid=0ce24b4d-1f0e-4578-af96-0c66971e464e"},"vehicle_type_id":"4","last_reported":1731611197,"current_range_meters":36000,"station_id":"ce4bgjp2rcd13ifvqbh0","pricing_plan_id":"cebpf4jnsgd1na2vs0mg"},{"bike_id":"4f3e4f15-eeb6-4d68-beb4-2ada588fa485","system_id":"levelo_inurba_marseille","lat":43.28153,"lon":5.42645,"is_reserved":false,"is_disabled":false,"rental_uris":{"android":"levelo://app?vid=4f3e4f15-eeb6-4d68-beb4-2ada588fa485","ios":"levelo://app?vid=4f3e4f15-eeb6-4d68-beb4-2ada588fa485"},"vehicle_type_id":"4","last_reported":1731611197,"current_range_meters":32400,"station_id":"ce4bhnh2rcd13ifvqgug","pricing_plan_id":"cebpf4jnsgd1na2vs0mg"},{"bike_id":"fdb9bf02-4408-4f3f-aad8-b04941bb83b6","system_id":"levelo_inurba_marseille","lat":43.28176,"lon":5.4262,"is_reserved":false,"is_disabled":false,"rental_uris":{"android":"levelo://app?vid=fdb9bf02-4408-4f3f-aad8-b04941bb83b6","ios":"levelo://app?vid=fdb9bf02-4408-4f3f-aad8-b04941bb83b6"},"vehicle_type_id":"4","last_reported":1731611197,"current_range_meters":31200,"station_id":"ce4bhnh2rcd13ifvqgug","pricing_plan_id":"cebpf4jnsgd1na2vs0mg"},{"bike_id":"2c6533dc-1157-4596-89a7-53c0dd1ae554","system_id":"levelo_inurba_marseille","lat":43.29582,"lon":5.36737,"is_reserved":false,"is_disabled":false,"rental_uris":{"android":"levelo://app?vid=2c6533dc-1157-4596-89a7-53c0dd1ae554","ios":"levelo://app?vid=2c6533dc-1157-4596-89a7-53c0dd1ae554"},"vehicle_type_id":"4","last_reported":1731611197,"current_range_meters":24400,"station_id":"ce4bgph2rcd13ifvqc2g","pricing_plan_id":"cebpf4jnsgd1na2vs0mg"},{"bike_id":"24df0c52-e9b4-498f-84c9-8b3de1614262","system_id":"levelo_inurba_marseille","lat":43.28411,"lon":5.37516,"is_reserved":false,"is_disabled":false,"rental_uris":{"android":"levelo://app?vid=24df0c52-e9b4-498f-84c9-8b3de1614262","ios":"levelo://app?vid=24df0c52-e9b4-498f-84c9-8b3de1614262"},"vehicle_type_id":"4","last_reported":1731611197,"current_range_meters":38800,"station_id":"ce4bh412rcd13ifvqds0","pricing_plan_id":"cebpf4jnsgd1na2vs0mg"},{"bike_id":"3f1eab25-bbd0-4519-b2ce-b4566d191542","system_id":"levelo_inurba_marseille","lat":43.25094,"lon":5.39521,"is_reserved":false,"is_disabled":false,"rental_uris":{"android":"levelo://app?vid=3f1eab25-bbd0-4519-b2ce-b4566d191542","ios":"levelo://app?vid=3f1eab25-bbd0-4519-b2ce-b4566d191542"},"vehicle_type_id":"4","last_reported":1731611197,"current_range_meters":38800,"station_id":"ce4bhm12rcd13ifvqgkg","pricing_plan_id":"cebpf4jnsgd1na2vs0mg"},{"bike_id":"61ea110b-a0f4-4de1-a6d0-d3eb1a43db30","system_id":"levelo_inurba_marseille","lat":43.29437,"lon":5.39754,"is_reserved":false,"is_disabled":false,"rental_uris":{"android":"levelo://app?vid=61ea110b-a0f4-4de1-a6d0-d3eb1a43db30","ios":"levelo://app?vid=61ea110b-a0f4-4de1-a6d0-d3eb1a43db30"},"vehicle_type_id":"4","last_reported":1731611197,"current_range_meters":10800,"station_id":"ce4bh3h2rcd13ifvqdo0","pricing_plan_id":"cebpf4jnsgd1na2vs0mg"},{"bike_id":"b15ad833-99dc-427d-b9bc-2e07a14741f6","system_id":"levelo_inurba_marseille","lat":43.25727,"lon":5.41111,"is_reserved":false,"is_disabled":false,"rental_uris":{"android":"levelo://app?vid=b15ad833-99dc-427d-b9bc-2e07a14741f6","ios":"levelo://app?vid=b15ad833-99dc-427d-b9bc-2e07a14741f6"},"vehicle_type_id":"4","last_reported":1731611197,"current_range_meters":12000,"station_id":"ce4bhkp2rcd13ifvqgd0","pricing_plan_id":"cebpf4jnsgd1na2vs0mg"},{"bike_id":"181c2868-b33e-4226-a512-c1bbbbdd57c7","system_id":"levelo_inurba_marseille","lat":43.260282,"lon":5.375481,"is_reserved":false,"is_disabled":false,"rental_uris":{"android":"levelo://app?vid=181c2868-b33e-4226-a512-c1bbbbdd57c7","ios":"levelo://app?vid=181c2868-b33e-4226-a512-c1bbbbdd57c7"},"vehicle_type_id":"4","last_reported":1731611197,"current_range_meters":5600,"station_id":"ce4bhgh2rcd13ifvqfa0","pricing_plan_id":"cebpf4jnsgd1na2vs0mg"},{"bike_id":"b8f91035-b021-405d-9e06-47c03ff95ddd","system_id":"levelo_inurba_marseille","lat":43.28276,"lon":5.35059,"is_reserved":false,"is_disabled":false,"rental_uris":{"android":"levelo://app?vid=b8f91035-b021-405d-9e06-47c03ff95ddd","ios":"levelo://app?vid=b8f91035-b021-405d-9e06-47c03ff95ddd"},"vehicle_type_id":"4","last_reported":1731611197,"current_range_meters":38400,"station_id":"ce4bhbp2rcd13ifvqerg","pricing_plan_id":"cebpf4jnsgd1na2vs0mg"},{"bike_id":"4d5232bd-0320-471b-9925-8608a66f4d4e","system_id":"levelo_inurba_marseille","lat":43.30183,"lon":5.36632,"is_reserved":false,"is_disabled":false,"rental_uris":{"android":"levelo://app?vid=4d5232bd-0320-471b-9925-8608a66f4d4e","ios":"levelo://app?vid=4d5232bd-0320-471b-9925-8608a66f4d4e"},"vehicle_type_id":"4","last_reported":1731611197,"current_range_meters":37600,"station_id":"ce4bgrh2rcd13ifvqc8g","pricing_plan_id":"cebpf4jnsgd1na2vs0mg"},{"bike_id":"4b6cae71-77bb-4d72-bed4-f023a0624f58","system_id":"levelo_inurba_marseille","lat":43.29525,"lon":5.38529,"is_reserved":false,"is_disabled":false,"rental_uris":{"android":"levelo://app?vid=4b6cae71-77bb-4d72-bed4-f023a0624f58","ios":"levelo://app?vid=4b6cae71-77bb-4d72-bed4-f023a0624f58"},"vehicle_type_id":"4","last_reported":1731611197,"current_range_meters":36800,"station_id":"ce4bgih2rcd13ifvqba0","pricing_plan_id":"cebpf4jnsgd1na2vs0mg"},{"bike_id":"60556046-909a-4412-85b0-373693d1a31c","system_id":"levelo_inurba_marseille","lat":43.29446,"lon":5.3975,"is_reserved":false,"is_disabled":false,"rental_uris":{"android":"levelo://app?vid=60556046-909a-4412-85b0-373693d1a31c","ios":"levelo://app?vid=60556046-909a-4412-85b0-373693d1a31c"},"vehicle_type_id":"4","last_reported":1731611197,"current_range_meters":38800,"station_id":"ce4bh3h2rcd13ifvqdo0","pricing_plan_id":"cebpf4jnsgd1na2vs0mg"},{"bike_id":"08441956-68e7-4c68-ad85-12297935985f","system_id":"levelo_inurba_marseille","lat":43.24074,"lon":5.37762,"is_reserved":false,"is_disabled":false,"rental_uris":{"android":"levelo://app?vid=08441956-68e7-4c68-ad85-12297935985f","ios":"levelo://app?vid=08441956-68e7-4c68-ad85-12297935985f"},"vehicle_type_id":"4","last_reported":1731611197,"current_range_meters":36800,"station_id":"ce4bhnp2rcd13ifvqgvg","pricing_plan_id":"cebpf4jnsgd1na2vs0mg"},{"bike_id":"6a43b2ce-3bb8-4774-8ec9-e007397b6c66","system_id":"levelo_inurba_marseille","lat":43.31116,"lon":5.37771,"is_reserved":false,"is_disabled":false,"rental_uris":{"android":"levelo://app?vid=6a43b2ce-3bb8-4774-8ec9-e007397b6c66","ios":"levelo://app?vid=6a43b2ce-3bb8-4774-8ec9-e007397b6c66"},"vehicle_type_id":"4","last_reported":1731611197,"current_range_meters":16400,"station_id":"ce4bgt92rcd13ifvqcg0","pricing_plan_id":"cebpf4jnsgd1na2vs0mg"},{"bike_id":"dcb0c9d0-3c52-4364-87e7-a5ce6ed44790","system_id":"levelo_inurba_marseille","lat":43.30142,"lon":5.3987,"is_reserved":false,"is_disabled":false,"rental_uris":{"android":"levelo://app?vid=dcb0c9d0-3c52-4364-87e7-a5ce6ed44790","ios":"levelo://app?vid=dcb0c9d0-3c52-4364-87e7-a5ce6ed44790"},"vehicle_type_id":"4","last_reported":1731611197,"current_range_meters":6800,"station_id":"ce4bh0h2rcd13ifvqd40","pricing_plan_id":"cebpf4jnsgd1na2vs0mg"},{"bike_id":"0640b632-6876-4227-9267-eb35ea8d7191","system_id":"levelo_inurba_marseille","lat":43.28459,"lon":5.35891,"is_reserved":false,"is_disabled":false,"rental_uris":{"android":"levelo://app?vid=0640b632-6876-4227-9267-eb35ea8d7191","ios":"levelo://app?vid=0640b632-6876-4227-9267-eb35ea8d7191"},"vehicle_type_id":"4","last_reported":1731611197,"current_range_meters":38800,"station_id":"ce4bhah2rcd13ifvqei0","pricing_plan_id":"cebpf4jnsgd1na2vs0mg"},{"bike_id":"398b47b3-a042-4cec-b1dd-254773a78263","system_id":"levelo_inurba_marseille","lat":43.274072,"lon":5.389578,"is_reserved":false,"is_disabled":false,"rental_uris":{"android":"levelo://app?vid=398b47b3-a042-4cec-b1dd-254773a78263","ios":"levelo://app?vid=398b47b3-a042-4cec-b1dd-254773a78263"},"vehicle_type_id":"4","last_reported":1731611197,"current_range_meters":3200,"station_id":"","pricing_plan_id":"cebpf4jnsgd1na2vs0mg"},{"bike_id":"8917990b-e521-4dd2-be3a-39fb95bd43be","system_id":"levelo_inurba_marseille","lat":43.30426,"lon":5.41282,"is_reserved":false,"is_disabled":false,"rental_uris":{"android":"levelo://app?vid=8917990b-e521-4dd2-be3a-39fb95bd43be","ios":"levelo://app?vid=8917990b-e521-4dd2-be3a-39fb95bd43be"},"vehicle_type_id":"4","last_reported":1731611197,"current_range_meters":36800,"station_id":"ce4bhop2rcd13ifvqh8g","pricing_plan_id":"cebpf4jnsgd1na2vs0mg"},{"bike_id":"3ede3d48-9182-4198-9a42-e5d2f76533fa","system_id":"levelo_inurba_marseille","lat":43.30438,"lon":5.39737,"is_reserved":false,"is_disabled":false,"rental_uris":{"android":"levelo://app?vid=3ede3d48-9182-4198-9a42-e5d2f76533fa","ios":"levelo://app?vid=3ede3d48-9182-4198-9a42-e5d2f76533fa"},"vehicle_type_id":"4","last_reported":1731611197,"current_range_meters":12800,"station_id":"ce4bh092rcd13ifvqd20","pricing_plan_id":"cebpf4jnsgd1na2vs0mg"},{"bike_id":"df272c84-cea4-4db7-8a3c-ea964be10314","system_id":"levelo_inurba_marseille","lat":43.25504,"lon":5.37649,"is_reserved":false,"is_disabled":false,"rental_uris":{"android":"levelo://app?vid=df272c84-cea4-4db7-8a3c-ea964be10314","ios":"levelo://app?vid=df272c84-cea4-4db7-8a3c-ea964be10314"},"vehicle_type_id":"4","last_reported":1731611197,"current_range_meters":11600,"station_id":"ce4bhh12rcd13ifvqff0","pricing_plan_id":"cebpf4jnsgd1na2vs0mg"},{"bike_id":"92e3ad17-17c9-4714-a148-ef9436ad6113","system_id":"levelo_inurba_marseille","lat":43.22935,"lon":5.3538,"is_reserved":false,"is_disabled":false,"rental_uris":{"android":"levelo://app?vid=92e3ad17-17c9-4714-a148-ef9436ad6113","ios":"levelo://app?vid=92e3ad17-17c9-4714-a148-ef9436ad6113"},"vehicle_type_id":"4","last_reported":1731611197,"current_range_meters":39200,"station_id":"cpo3532slgdg3j2ikp40","pricing_plan_id":"cebpf4jnsgd1na2vs0mg"},{"bike_id":"a213ef3a-4680-433c-b7be-8063de016f72","system_id":"levelo_inurba_marseille","lat":43.29602,"lon":5.38109,"is_reserved":false,"is_disabled":false,"rental_uris":{"android":"levelo://app?vid=a213ef3a-4680-433c-b7be-8063de016f72","ios":"levelo://app?vid=a213ef3a-4680-433c-b7be-8063de016f72"},"vehicle_type_id":"4","last_reported":1731611197,"current_range_meters":27200,"station_id":"ce4bgl12rcd13ifvqbo0","pricing_plan_id":"cebpf4jnsgd1na2vs0mg"},{"bike_id":"5326c5f8-bba7-40e6-bfc7-8e986a3bddf3","system_id":"levelo_inurba_marseille","lat":43.31913,"lon":5.38219,"is_reserved":false,"is_disabled":false,"rental_uris":{"android":"levelo://app?vid=5326c5f8-bba7-40e6-bfc7-8e986a3bddf3","ios":"levelo://app?vid=5326c5f8-bba7-40e6-bfc7-8e986a3bddf3"},"vehicle_type_id":"4","last_reported":1731611197,"current_range_meters":22800,"station_id":"ce4bhr12rcd13ifvqhqg","pricing_plan_id":"cebpf4jnsgd1na2vs0mg"},{"bike_id":"9c85205c-f207-4e51-adb9-0e59e0470603","system_id":"levelo_inurba_marseille","lat":43.28672,"lon":5.38656,"is_reserved":false,"is_disabled":false,"rental_uris":{"android":"levelo://app?vid=9c85205c-f207-4e51-adb9-0e59e0470603","ios":"levelo://app?vid=9c85205c-f207-4e51-adb9-0e59e0470603"},"vehicle_type_id":"4","last_reported":1731611197,"current_range_meters":34000,"station_id":"ce4bh492rcd13ifvqdug","pricing_plan_id":"cebpf4jnsgd1na2vs0mg"},{"bike_id":"82f309e6-c4ae-421f-89cb-1d64a8e0ef10","system_id":"levelo_inurba_marseille","lat":43.337444,"lon":5.374475,"is_reserved":false,"is_disabled":false,"rental_uris":{"android":"levelo://app?vid=82f309e6-c4ae-421f-89cb-1d64a8e0ef10","ios":"levelo://app?vid=82f309e6-c4ae-421f-89cb-1d64a8e0ef10"},"vehicle_type_id":"4","last_reported":1731611197,"current_range_meters":31200,"station_id":"","pricing_plan_id":"cebpf4jnsgd1na2vs0mg"},{"bike_id":"ad998524-5cea-4355-99d8-50f015aa8ae5","system_id":"levelo_inurba_marseille","lat":43.31273,"lon":5.40164,"is_reserved":false,"is_disabled":false,"rental_uris":{"android":"levelo://app?vid=ad998524-5cea-4355-99d8-50f015aa8ae5","ios":"levelo://app?vid=ad998524-5cea-4355-99d8-50f015aa8ae5"},"vehicle_type_id":"4","last_reported":1731611197,"current_range_meters":27600,"station_id":"ce4bh092rcd13ifvqd30","pricing_plan_id":"cebpf4jnsgd1na2vs0mg"},{"bike_id":"c5d4b21e-e6c9-4667-8d32-cf30b83f9166","system_id":"levelo_inurba_marseille","lat":43.31167,"lon":5.38706,"is_reserved":false,"is_disabled":false,"rental_uris":{"android":"levelo://app?vid=c5d4b21e-e6c9-4667-8d32-cf30b83f9166","ios":"levelo://app?vid=c5d4b21e-e6c9-4667-8d32-cf30b83f9166"},"vehicle_type_id":"4","last_reported":1731611197,"current_range_meters":39200,"station_id":"ce4bgv12rcd13ifvqcp0","pricing_plan_id":"cebpf4jnsgd1na2vs0mg"},{"bike_id":"c476e7e2-cf56-4ab4-92e5-e16831afb62d","system_id":"levelo_inurba_marseille","lat":43.288632,"lon":5.358516,"is_reserved":false,"is_disabled":false,"rental_uris":{"android":"levelo://app?vid=c476e7e2-cf56-4ab4-92e5-e16831afb62d","ios":"levelo://app?vid=c476e7e2-cf56-4ab4-92e5-e16831afb62d"},"vehicle_type_id":"4","last_reported":1731611197,"current_range_meters":6000,"station_id":"ce4bhb12rcd13ifvqem0","pricing_plan_id":"cebpf4jnsgd1na2vs0mg"},{"bike_id":"5b902c5f-71b7-48d6-9cb6-49e9654839e7","system_id":"levelo_inurba_marseille","lat":43.24802,"lon":5.37457,"is_reserved":false,"is_disabled":false,"rental_uris":{"android":"levelo://app?vid=5b902c5f-71b7-48d6-9cb6-49e9654839e7","ios":"levelo://app?vid=5b902c5f-71b7-48d6-9cb6-49e9654839e7"},"vehicle_type_id":"4","last_reported":1731611197,"current_range_meters":13600,"station_id":"ce4bhgh2rcd13ifvqfb0","pricing_plan_id":"cebpf4jnsgd1na2vs0mg"},{"bike_id":"e9831758-7fbb-4bb8-92fd-5b32e1ae3ab6","system_id":"levelo_inurba_marseille","lat":43.33026,"lon":5.39051,"is_reserved":false,"is_disabled":false,"rental_uris":{"android":"levelo://app?vid=e9831758-7fbb-4bb8-92fd-5b32e1ae3ab6","ios":"levelo://app?vid=e9831758-7fbb-4bb8-92fd-5b32e1ae3ab6"},"vehicle_type_id":"4","last_reported":1731611197,"current_range_meters":30000,"station_id":"ce4bhr92rcd13ifvqhrg","pricing_plan_id":"cebpf4jnsgd1na2vs0mg"},{"bike_id":"8781d0fe-a968-4075-9453-c800ea4b95d6","system_id":"levelo_inurba_marseille","lat":43.30331,"lon":5.40431,"is_reserved":false,"is_disabled":false,"rental_uris":{"android":"levelo://app?vid=8781d0fe-a968-4075-9453-c800ea4b95d6","ios":"levelo://app?vid=8781d0fe-a968-4075-9453-c800ea4b95d6"},"vehicle_type_id":"4","last_reported":1731611197,"current_range_meters":8000,"station_id":"ce4bh012rcd13ifvqd10","pricing_plan_id":"cebpf4jnsgd1na2vs0mg"},{"bike_id":"8060286f-0bf1-4887-b937-56262a3fa124","system_id":"levelo_inurba_marseille","lat":43.28451,"lon":5.39205,"is_reserved":false,"is_disabled":false,"rental_uris":{"android":"levelo://app?vid=8060286f-0bf1-4887-b937-56262a3fa124","ios":"levelo://app?vid=8060286f-0bf1-4887-b937-56262a3fa124"},"vehicle_type_id":"4","last_reported":1731611197,"current_range_meters":16400,"station_id":"ce4bhoh2rcd13ifvqh5g","pricing_plan_id":"cebpf4jnsgd1na2vs0mg"},{"bike_id":"52111198-2768-4b1b-afcf-b763533e1ecd","system_id":"levelo_inurba_marseille","lat":43.28673,"lon":5.36354,"is_reserved":false,"is_disabled":false,"rental_uris":{"android":"levelo://app?vid=52111198-2768-4b1b-afcf-b763533e1ecd","ios":"levelo://app?vid=52111198-2768-4b1b-afcf-b763533e1ecd"},"vehicle_type_id":"4","last_reported":1731611197,"current_range_meters":11600,"station_id":"ce4bhah2rcd13ifvqej0","pricing_plan_id":"cebpf4jnsgd1na2vs0mg"},{"bike_id":"d1badb2f-ae8e-4081-9eb6-03a47653d796","system_id":"levelo_inurba_marseille","lat":43.2926,"lon":5.38444,"is_reserved":false,"is_disabled":false,"rental_uris":{"android":"levelo://app?vid=d1badb2f-ae8e-4081-9eb6-03a47653d796","ios":"levelo://app?vid=d1badb2f-ae8e-4081-9eb6-03a47653d796"},"vehicle_type_id":"4","last_reported":1731611197,"current_range_meters":38800,"station_id":"ce4bh692rcd13ifvqea0","pricing_plan_id":"cebpf4jnsgd1na2vs0mg"},{"bike_id":"add6469e-6694-4a2e-bfcd-ec1f32bc46a7","system_id":"levelo_inurba_marseille","lat":43.24653,"lon":5.38895,"is_reserved":false,"is_disabled":false,"rental_uris":{"android":"levelo://app?vid=add6469e-6694-4a2e-bfcd-ec1f32bc46a7","ios":"levelo://app?vid=add6469e-6694-4a2e-bfcd-ec1f32bc46a7"},"vehicle_type_id":"4","last_reported":1731611197,"current_range_meters":38800,"station_id":"ce4bhg12rcd13ifvqf60","pricing_plan_id":"cebpf4jnsgd1na2vs0mg"},{"bike_id":"88a7ec35-1e7e-417d-aed6-a0debbf85756","system_id":"levelo_inurba_marseille","lat":43.29214,"lon":5.39334,"is_reserved":false,"is_disabled":false,"rental_uris":{"android":"levelo://app?vid=88a7ec35-1e7e-417d-aed6-a0debbf85756","ios":"levelo://app?vid=88a7ec35-1e7e-417d-aed6-a0debbf85756"},"vehicle_type_id":"4","last_reported":1731611197,"current_range_meters":28800,"station_id":"ce4bh192rcd13ifvqdd0","pricing_plan_id":"cebpf4jnsgd1na2vs0mg"},{"bike_id":"e2b4984c-598d-4f4e-947f-3b8e957f8f99","system_id":"levelo_inurba_marseille","lat":43.306563,"lon":5.400695,"is_reserved":false,"is_disabled":false,"rental_uris":{"android":"levelo://app?vid=e2b4984c-598d-4f4e-947f-3b8e957f8f99","ios":"levelo://app?vid=e2b4984c-598d-4f4e-947f-3b8e957f8f99"},"vehicle_type_id":"4","last_reported":1731611197,"current_range_meters":33200,"station_id":"ce4bh112rcd13ifvqda0","pricing_plan_id":"cebpf4jnsgd1na2vs0mg"},{"bike_id":"0df2875c-db09-4182-a461-86de8a138b01","system_id":"levelo_inurba_marseille","lat":43.2907,"lon":5.37171,"is_reserved":false,"is_disabled":false,"rental_uris":{"android":"levelo://app?vid=0df2875c-db09-4182-a461-86de8a138b01","ios":"levelo://app?vid=0df2875c-db09-4182-a461-86de8a138b01"},"vehicle_type_id":"4","last_reported":1731611197,"current_range_meters":24000,"station_id":"ce4bh5p2rcd13ifvqe4g","pricing_plan_id":"cebpf4jnsgd1na2vs0mg"},{"bike_id":"ca7afa07-124d-419d-aebf-95cc3ddd6c1c","system_id":"levelo_inurba_marseille","lat":43.29816,"lon":5.38101,"is_reserved":false,"is_disabled":false,"rental_uris":{"android":"levelo://app?vid=ca7afa07-124d-419d-aebf-95cc3ddd6c1c","ios":"levelo://app?vid=ca7afa07-124d-419d-aebf-95cc3ddd6c1c"},"vehicle_type_id":"4","last_reported":1731611197,"current_range_meters":20000,"station_id":"ce4bgip2rcd13ifvqbb0","pricing_plan_id":"cebpf4jnsgd1na2vs0mg"},{"bike_id":"51704817-2877-45ea-ad31-d3fdee0f0146","system_id":"levelo_inurba_marseille","lat":43.27957,"lon":5.41045,"is_reserved":false,"is_disabled":false,"rental_uris":{"android":"levelo://app?vid=51704817-2877-45ea-ad31-d3fdee0f0146","ios":"levelo://app?vid=51704817-2877-45ea-ad31-d3fdee0f0146"},"vehicle_type_id":"4","last_reported":1731611197,"current_range_meters":18800,"station_id":"ce4bhnp2rcd13ifvqh0g","pricing_plan_id":"cebpf4jnsgd1na2vs0mg"},{"bike_id":"a1df99f0-d509-4bc0-bf21-bfa3ffaea986","system_id":"levelo_inurba_marseille","lat":43.29421,"lon":5.38626,"is_reserved":false,"is_disabled":false,"rental_uris":{"android":"levelo://app?vid=a1df99f0-d509-4bc0-bf21-bfa3ffaea986","ios":"levelo://app?vid=a1df99f0-d509-4bc0-bf21-bfa3ffaea986"},"vehicle_type_id":"4","last_reported":1731611197,"current_range_meters":27200,"station_id":"ce4bh2h2rcd13ifvqdh0","pricing_plan_id":"cebpf4jnsgd1na2vs0mg"},{"bike_id":"b29f5b1d-6f7f-436c-bb59-b33985de14ff","system_id":"levelo_inurba_marseille","lat":43.28002,"lon":5.4001,"is_reserved":false,"is_disabled":false,"rental_uris":{"android":"levelo://app?vid=b29f5b1d-6f7f-436c-bb59-b33985de14ff","ios":"levelo://app?vid=b29f5b1d-6f7f-436c-bb59-b33985de14ff"},"vehicle_type_id":"4","last_reported":1731611197,"current_range_meters":6400,"station_id":"ce4bho92rcd13ifvqh4g","pricing_plan_id":"cebpf4jnsgd1na2vs0mg"},{"bike_id":"1d36ec1c-d89d-4bb1-8e0d-ff1c762508b7","system_id":"levelo_inurba_marseille","lat":43.22938,"lon":5.35383,"is_reserved":false,"is_disabled":false,"rental_uris":{"android":"levelo://app?vid=1d36ec1c-d89d-4bb1-8e0d-ff1c762508b7","ios":"levelo://app?vid=1d36ec1c-d89d-4bb1-8e0d-ff1c762508b7"},"vehicle_type_id":"4","last_reported":1731611197,"current_range_meters":14000,"station_id":"cpo3532slgdg3j2ikp40","pricing_plan_id":"cebpf4jnsgd1na2vs0mg"},{"bike_id":"f1f7cd99-c444-4f04-a8e5-2c04e2e7a1bd","system_id":"levelo_inurba_marseille","lat":43.29409,"lon":5.38613,"is_reserved":false,"is_disabled":false,"rental_uris":{"android":"levelo://app?vid=f1f7cd99-c444-4f04-a8e5-2c04e2e7a1bd","ios":"levelo://app?vid=f1f7cd99-c444-4f04-a8e5-2c04e2e7a1bd"},"vehicle_type_id":"4","last_reported":1731611197,"current_range_meters":20000,"station_id":"ce4bh2h2rcd13ifvqdh0","pricing_plan_id":"cebpf4jnsgd1na2vs0mg"},{"bike_id":"96982182-a7c7-450e-8433-0ac9d985aed2","system_id":"levelo_inurba_marseille","lat":43.33725,"lon":5.39184,"is_reserved":false,"is_disabled":false,"rental_uris":{"android":"levelo://app?vid=96982182-a7c7-450e-8433-0ac9d985aed2","ios":"levelo://app?vid=96982182-a7c7-450e-8433-0ac9d985aed2"},"vehicle_type_id":"4","last_reported":1731611197,"current_range_meters":39200,"station_id":"ce4bhr92rcd13ifvqhsg","pricing_plan_id":"cebpf4jnsgd1na2vs0mg"},{"bike_id":"37212eb8-cfa6-47ba-9ed7-bfed51287466","system_id":"levelo_inurba_marseille","lat":43.31439,"lon":5.37352,"is_reserved":false,"is_disabled":false,"rental_uris":{"android":"levelo://app?vid=37212eb8-cfa6-47ba-9ed7-bfed51287466","ios":"levelo://app?vid=37212eb8-cfa6-47ba-9ed7-bfed51287466"},"vehicle_type_id":"4","last_reported":1731611197,"current_range_meters":37600,"station_id":"","pricing_plan_id":"cebpf4jnsgd1na2vs0mg"},{"bike_id":"0a7a7ac5-f54c-44af-a6b9-bff324764339","system_id":"levelo_inurba_marseille","lat":43.23056,"lon":5.35494,"is_reserved":false,"is_disabled":false,"rental_uris":{"android":"levelo://app?vid=0a7a7ac5-f54c-44af-a6b9-bff324764339","ios":"levelo://app?vid=0a7a7ac5-f54c-44af-a6b9-bff324764339"},"vehicle_type_id":"4","last_reported":1731611197,"current_range_meters":19200,"station_id":"cpo3342slgdg3j2ifvpg","pricing_plan_id":"cebpf4jnsgd1na2vs0mg"},{"bike_id":"3b1d231b-3987-41d9-9108-5ee12adbc183","system_id":"levelo_inurba_marseille","lat":43.29534,"lon":5.38548,"is_reserved":false,"is_disabled":false,"rental_uris":{"android":"levelo://app?vid=3b1d231b-3987-41d9-9108-5ee12adbc183","ios":"levelo://app?vid=3b1d231b-3987-41d9-9108-5ee12adbc183"},"vehicle_type_id":"4","last_reported":1731611197,"current_range_meters":36800,"station_id":"ce4bgih2rcd13ifvqba0","pricing_plan_id":"cebpf4jnsgd1na2vs0mg"},{"bike_id":"bef7ca68-0ccd-456c-a245-4471193ed987","system_id":"levelo_inurba_marseille","lat":43.26065,"lon":5.39385,"is_reserved":false,"is_disabled":false,"rental_uris":{"android":"levelo://app?vid=bef7ca68-0ccd-456c-a245-4471193ed987","ios":"levelo://app?vid=bef7ca68-0ccd-456c-a245-4471193ed987"},"vehicle_type_id":"4","last_reported":1731611197,"current_range_meters":38800,"station_id":"ce4bhh92rcd13ifvqfj0","pricing_plan_id":"cebpf4jnsgd1na2vs0mg"},{"bike_id":"3c3de496-d152-41a3-bc01-e78fce8914f9","system_id":"levelo_inurba_marseille","lat":43.280344,"lon":5.369523,"is_reserved":false,"is_disabled":false,"rental_uris":{"android":"levelo://app?vid=3c3de496-d152-41a3-bc01-e78fce8914f9","ios":"levelo://app?vid=3c3de496-d152-41a3-bc01-e78fce8914f9"},"vehicle_type_id":"4","last_reported":1731611197,"current_range_meters":8000,"station_id":"ce4bhap2rcd13ifvqek0","pricing_plan_id":"cebpf4jnsgd1na2vs0mg"},{"bike_id":"5a2acb69-f891-49c4-bac0-58743bd3450c","system_id":"levelo_inurba_marseille","lat":43.33732,"lon":5.39181,"is_reserved":false,"is_disabled":false,"rental_uris":{"android":"levelo://app?vid=5a2acb69-f891-49c4-bac0-58743bd3450c","ios":"levelo://app?vid=5a2acb69-f891-49c4-bac0-58743bd3450c"},"vehicle_type_id":"4","last_reported":1731611197,"current_range_meters":20800,"station_id":"ce4bhr92rcd13ifvqhsg","pricing_plan_id":"cebpf4jnsgd1na2vs0mg"},{"bike_id":"aaec841f-2a7c-4d64-8722-c25c02ca7092","system_id":"levelo_inurba_marseille","lat":43.238103,"lon":5.431622,"is_reserved":false,"is_disabled":false,"rental_uris":{"android":"levelo://app?vid=aaec841f-2a7c-4d64-8722-c25c02ca7092","ios":"levelo://app?vid=aaec841f-2a7c-4d64-8722-c25c02ca7092"},"vehicle_type_id":"4","last_reported":1731611197,"current_range_meters":36800,"station_id":"","pricing_plan_id":"cebpf4jnsgd1na2vs0mg"},{"bike_id":"18b30d73-c4cb-472d-a360-ba08ef9f7531","system_id":"levelo_inurba_marseille","lat":43.26492,"lon":5.39535,"is_reserved":false,"is_disabled":false,"rental_uris":{"android":"levelo://app?vid=18b30d73-c4cb-472d-a360-ba08ef9f7531","ios":"levelo://app?vid=18b30d73-c4cb-472d-a360-ba08ef9f7531"},"vehicle_type_id":"4","last_reported":1731611197,"current_range_meters":19200,"station_id":"ce4bhi12rcd13ifvqfq0","pricing_plan_id":"cebpf4jnsgd1na2vs0mg"},{"bike_id":"6d757fef-4f26-43f9-ac2c-ffab39bf7dae","system_id":"levelo_inurba_marseille","lat":43.32249,"lon":5.36901,"is_reserved":false,"is_disabled":false,"rental_uris":{"android":"levelo://app?vid=6d757fef-4f26-43f9-ac2c-ffab39bf7dae","ios":"levelo://app?vid=6d757fef-4f26-43f9-ac2c-ffab39bf7dae"},"vehicle_type_id":"4","last_reported":1731611197,"current_range_meters":27600,"station_id":"","pricing_plan_id":"cebpf4jnsgd1na2vs0mg"},{"bike_id":"5472ae20-beb3-4230-a71f-39ee5e6f6d72","system_id":"levelo_inurba_marseille","lat":43.29529,"lon":5.3854,"is_reserved":false,"is_disabled":false,"rental_uris":{"android":"levelo://app?vid=5472ae20-beb3-4230-a71f-39ee5e6f6d72","ios":"levelo://app?vid=5472ae20-beb3-4230-a71f-39ee5e6f6d72"},"vehicle_type_id":"4","last_reported":1731611197,"current_range_meters":33600,"station_id":"ce4bgih2rcd13ifvqba0","pricing_plan_id":"cebpf4jnsgd1na2vs0mg"},{"bike_id":"8c07a7e9-e558-4809-b4b8-faa040c34081","system_id":"levelo_inurba_marseille","lat":43.33026,"lon":5.39043,"is_reserved":false,"is_disabled":false,"rental_uris":{"android":"levelo://app?vid=8c07a7e9-e558-4809-b4b8-faa040c34081","ios":"levelo://app?vid=8c07a7e9-e558-4809-b4b8-faa040c34081"},"vehicle_type_id":"4","last_reported":1731611197,"current_range_meters":2800,"station_id":"ce4bhr92rcd13ifvqhrg","pricing_plan_id":"cebpf4jnsgd1na2vs0mg"},{"bike_id":"625e1693-e210-4796-9ba4-a89bb9e5236c","system_id":"levelo_inurba_marseille","lat":43.28721,"lon":5.36099,"is_reserved":false,"is_disabled":false,"rental_uris":{"android":"levelo://app?vid=625e1693-e210-4796-9ba4-a89bb9e5236c","ios":"levelo://app?vid=625e1693-e210-4796-9ba4-a89bb9e5236c"},"vehicle_type_id":"4","last_reported":1731611197,"current_range_meters":27200,"station_id":"cki0cbj6b192h4jlfktg","pricing_plan_id":"cebpf4jnsgd1na2vs0mg"},{"bike_id":"8f6396f2-9266-4012-9a5c-6aa994c38b46","system_id":"levelo_inurba_marseille","lat":43.30257,"lon":5.40039,"is_reserved":false,"is_disabled":false,"rental_uris":{"android":"levelo://app?vid=8f6396f2-9266-4012-9a5c-6aa994c38b46","ios":"levelo://app?vid=8f6396f2-9266-4012-9a5c-6aa994c38b46"},"vehicle_type_id":"4","last_reported":1731611197,"current_range_meters":9200,"station_id":"ce4bgvh2rcd13ifvqcs0","pricing_plan_id":"cebpf4jnsgd1na2vs0mg"},{"bike_id":"070aae14-a984-4613-8ade-edb7cfd29691","system_id":"levelo_inurba_marseille","lat":43.30425,"lon":5.41282,"is_reserved":false,"is_disabled":false,"rental_uris":{"android":"levelo://app?vid=070aae14-a984-4613-8ade-edb7cfd29691","ios":"levelo://app?vid=070aae14-a984-4613-8ade-edb7cfd29691"},"vehicle_type_id":"4","last_reported":1731611197,"current_range_meters":39200,"station_id":"ce4bhop2rcd13ifvqh8g","pricing_plan_id":"cebpf4jnsgd1na2vs0mg"},{"bike_id":"4fabcc84-c34c-46cf-be25-391a672ebd5f","system_id":"levelo_inurba_marseille","lat":43.31329,"lon":5.39693,"is_reserved":false,"is_disabled":false,"rental_uris":{"android":"levelo://app?vid=4fabcc84-c34c-46cf-be25-391a672ebd5f","ios":"levelo://app?vid=4fabcc84-c34c-46cf-be25-391a672ebd5f"},"vehicle_type_id":"4","last_reported":1731611197,"current_range_meters":38000,"station_id":"ce4bgvp2rcd13ifvqcu0","pricing_plan_id":"cebpf4jnsgd1na2vs0mg"},{"bike_id":"270f093d-9186-48b4-8b0f-01e8760ca74a","system_id":"levelo_inurba_marseille","lat":43.286579,"lon":5.363449,"is_reserved":false,"is_disabled":false,"rental_uris":{"android":"levelo://app?vid=270f093d-9186-48b4-8b0f-01e8760ca74a","ios":"levelo://app?vid=270f093d-9186-48b4-8b0f-01e8760ca74a"},"vehicle_type_id":"4","last_reported":1731611197,"current_range_meters":36400,"station_id":"ce4bhah2rcd13ifvqej0","pricing_plan_id":"cebpf4jnsgd1na2vs0mg"},{"bike_id":"25166272-a2e4-426f-8bd1-827ffbe55e39","system_id":"levelo_inurba_marseille","lat":43.31331,"lon":5.39697,"is_reserved":false,"is_disabled":false,"rental_uris":{"android":"levelo://app?vid=25166272-a2e4-426f-8bd1-827ffbe55e39","ios":"levelo://app?vid=25166272-a2e4-426f-8bd1-827ffbe55e39"},"vehicle_type_id":"4","last_reported":1731611197,"current_range_meters":22000,"station_id":"ce4bgvp2rcd13ifvqcu0","pricing_plan_id":"cebpf4jnsgd1na2vs0mg"},{"bike_id":"2ba01715-3170-4a7e-ae00-4a8868ac1042","system_id":"levelo_inurba_marseille","lat":43.25088,"lon":5.39512,"is_reserved":false,"is_disabled":false,"rental_uris":{"android":"levelo://app?vid=2ba01715-3170-4a7e-ae00-4a8868ac1042","ios":"levelo://app?vid=2ba01715-3170-4a7e-ae00-4a8868ac1042"},"vehicle_type_id":"4","last_reported":1731611197,"current_range_meters":28000,"station_id":"ce4bhm12rcd13ifvqgkg","pricing_plan_id":"cebpf4jnsgd1na2vs0mg"},{"bike_id":"37fe5141-a423-41c0-9d9a-31a5f07cfcab","system_id":"levelo_inurba_marseille","lat":43.25579,"lon":5.38244,"is_reserved":false,"is_disabled":false,"rental_uris":{"android":"levelo://app?vid=37fe5141-a423-41c0-9d9a-31a5f07cfcab","ios":"levelo://app?vid=37fe5141-a423-41c0-9d9a-31a5f07cfcab"},"vehicle_type_id":"4","last_reported":1731611197,"current_range_meters":8400,"station_id":"ce4bhih2rcd13ifvqfs0","pricing_plan_id":"cebpf4jnsgd1na2vs0mg"},{"bike_id":"3997b7a2-abaf-43e3-8c55-ad743fc17fe2","system_id":"levelo_inurba_marseille","lat":43.32061,"lon":5.4155,"is_reserved":false,"is_disabled":false,"rental_uris":{"android":"levelo://app?vid=3997b7a2-abaf-43e3-8c55-ad743fc17fe2","ios":"levelo://app?vid=3997b7a2-abaf-43e3-8c55-ad743fc17fe2"},"vehicle_type_id":"4","last_reported":1731611197,"current_range_meters":18800,"station_id":"ce4bhq92rcd13ifvqhkg","pricing_plan_id":"cebpf4jnsgd1na2vs0mg"},{"bike_id":"359db04f-5d69-43c1-b38e-4defe71ed94d","system_id":"levelo_inurba_marseille","lat":43.258583,"lon":5.399057,"is_reserved":false,"is_disabled":false,"rental_uris":{"android":"levelo://app?vid=359db04f-5d69-43c1-b38e-4defe71ed94d","ios":"levelo://app?vid=359db04f-5d69-43c1-b38e-4defe71ed94d"},"vehicle_type_id":"4","last_reported":1731611197,"current_range_meters":38800,"station_id":"ce4bhl92rcd13ifvqghg","pricing_plan_id":"cebpf4jnsgd1na2vs0mg"},{"bike_id":"ad4adb41-9857-427d-8450-c734cc85b634","system_id":"levelo_inurba_marseille","lat":43.31714,"lon":5.43709,"is_reserved":false,"is_disabled":false,"rental_uris":{"android":"levelo://app?vid=ad4adb41-9857-427d-8450-c734cc85b634","ios":"levelo://app?vid=ad4adb41-9857-427d-8450-c734cc85b634"},"vehicle_type_id":"4","last_reported":1731611197,"current_range_meters":28800,"station_id":"ce4bhp92rcd13ifvqhcg","pricing_plan_id":"cebpf4jnsgd1na2vs0mg"},{"bike_id":"a4c0b782-d654-44e3-bf31-ac507e118897","system_id":"levelo_inurba_marseille","lat":43.29052,"lon":5.35899,"is_reserved":false,"is_disabled":false,"rental_uris":{"android":"levelo://app?vid=a4c0b782-d654-44e3-bf31-ac507e118897","ios":"levelo://app?vid=a4c0b782-d654-44e3-bf31-ac507e118897"},"vehicle_type_id":"4","last_reported":1731611197,"current_range_meters":17600,"station_id":"ce4bha92rcd13ifvqeg0","pricing_plan_id":"cebpf4jnsgd1na2vs0mg"},{"bike_id":"ad9e5643-959a-4636-935c-2a6093955f09","system_id":"levelo_inurba_marseille","lat":43.26199,"lon":5.37936,"is_reserved":false,"is_disabled":false,"rental_uris":{"android":"levelo://app?vid=ad9e5643-959a-4636-935c-2a6093955f09","ios":"levelo://app?vid=ad9e5643-959a-4636-935c-2a6093955f09"},"vehicle_type_id":"4","last_reported":1731611197,"current_range_meters":16400,"station_id":"ce4bhjp2rcd13ifvqg90","pricing_plan_id":"cebpf4jnsgd1na2vs0mg"},{"bike_id":"6290061e-7002-4bed-8242-03e0a269a134","system_id":"levelo_inurba_marseille","lat":43.30331,"lon":5.40431,"is_reserved":false,"is_disabled":false,"rental_uris":{"android":"levelo://app?vid=6290061e-7002-4bed-8242-03e0a269a134","ios":"levelo://app?vid=6290061e-7002-4bed-8242-03e0a269a134"},"vehicle_type_id":"4","last_reported":1731611197,"current_range_meters":36000,"station_id":"ce4bh012rcd13ifvqd10","pricing_plan_id":"cebpf4jnsgd1na2vs0mg"},{"bike_id":"021ab24c-2a0d-440d-8e09-9e35589bcbc7","system_id":"levelo_inurba_marseille","lat":43.28001,"lon":5.40018,"is_reserved":false,"is_disabled":false,"rental_uris":{"android":"levelo://app?vid=021ab24c-2a0d-440d-8e09-9e35589bcbc7","ios":"levelo://app?vid=021ab24c-2a0d-440d-8e09-9e35589bcbc7"},"vehicle_type_id":"4","last_reported":1731611197,"current_range_meters":27600,"station_id":"ce4bho92rcd13ifvqh4g","pricing_plan_id":"cebpf4jnsgd1na2vs0mg"},{"bike_id":"6f45bdb5-bfdc-40f2-a38c-f51a93e95c83","system_id":"levelo_inurba_marseille","lat":43.25833,"lon":5.39438,"is_reserved":false,"is_disabled":false,"rental_uris":{"android":"levelo://app?vid=6f45bdb5-bfdc-40f2-a38c-f51a93e95c83","ios":"levelo://app?vid=6f45bdb5-bfdc-40f2-a38c-f51a93e95c83"},"vehicle_type_id":"4","last_reported":1731611197,"current_range_meters":9200,"station_id":"ce4bhip2rcd13ifvqft0","pricing_plan_id":"cebpf4jnsgd1na2vs0mg"},{"bike_id":"8e12737c-b68e-4dc9-a8c9-536f660541a7","system_id":"levelo_inurba_marseille","lat":43.28465,"lon":5.35883,"is_reserved":false,"is_disabled":false,"rental_uris":{"android":"levelo://app?vid=8e12737c-b68e-4dc9-a8c9-536f660541a7","ios":"levelo://app?vid=8e12737c-b68e-4dc9-a8c9-536f660541a7"},"vehicle_type_id":"4","last_reported":1731611197,"current_range_meters":20000,"station_id":"ce4bhah2rcd13ifvqei0","pricing_plan_id":"cebpf4jnsgd1na2vs0mg"},{"bike_id":"37f52798-cde3-4570-a5d2-b0908bfd3884","system_id":"levelo_inurba_marseille","lat":43.25084,"lon":5.39513,"is_reserved":false,"is_disabled":false,"rental_uris":{"android":"levelo://app?vid=37f52798-cde3-4570-a5d2-b0908bfd3884","ios":"levelo://app?vid=37f52798-cde3-4570-a5d2-b0908bfd3884"},"vehicle_type_id":"4","last_reported":1731611197,"current_range_meters":24400,"station_id":"ce4bhm12rcd13ifvqgkg","pricing_plan_id":"cebpf4jnsgd1na2vs0mg"},{"bike_id":"8c487dea-72dd-45c8-9a79-720151b0d48b","system_id":"levelo_inurba_marseille","lat":43.31086,"lon":5.38357,"is_reserved":false,"is_disabled":false,"rental_uris":{"android":"levelo://app?vid=8c487dea-72dd-45c8-9a79-720151b0d48b","ios":"levelo://app?vid=8c487dea-72dd-45c8-9a79-720151b0d48b"},"vehicle_type_id":"4","last_reported":1731611197,"current_range_meters":22400,"station_id":"ce4bgv92rcd13ifvqcr0","pricing_plan_id":"cebpf4jnsgd1na2vs0mg"},{"bike_id":"67acd962-61fe-4c41-93b6-69cf808e27bd","system_id":"levelo_inurba_marseille","lat":43.32011,"lon":5.38149,"is_reserved":false,"is_disabled":false,"rental_uris":{"android":"levelo://app?vid=67acd962-61fe-4c41-93b6-69cf808e27bd","ios":"levelo://app?vid=67acd962-61fe-4c41-93b6-69cf808e27bd"},"vehicle_type_id":"4","last_reported":1731611197,"current_range_meters":23200,"station_id":"ce4bhr12rcd13ifvqhpg","pricing_plan_id":"cebpf4jnsgd1na2vs0mg"},{"bike_id":"ae392e5f-25ce-4d0e-9ce3-1e2a8bf46846","system_id":"levelo_inurba_marseille","lat":43.27849,"lon":5.39736,"is_reserved":false,"is_disabled":false,"rental_uris":{"android":"levelo://app?vid=ae392e5f-25ce-4d0e-9ce3-1e2a8bf46846","ios":"levelo://app?vid=ae392e5f-25ce-4d0e-9ce3-1e2a8bf46846"},"vehicle_type_id":"4","last_reported":1731611197,"current_range_meters":30400,"station_id":"","pricing_plan_id":"cebpf4jnsgd1na2vs0mg"},{"bike_id":"9a7f8a60-a902-4963-ae9e-02414ba2683a","system_id":"levelo_inurba_marseille","lat":43.27946,"lon":5.41037,"is_reserved":false,"is_disabled":false,"rental_uris":{"android":"levelo://app?vid=9a7f8a60-a902-4963-ae9e-02414ba2683a","ios":"levelo://app?vid=9a7f8a60-a902-4963-ae9e-02414ba2683a"},"vehicle_type_id":"4","last_reported":1731611197,"current_range_meters":24800,"station_id":"ce4bhnp2rcd13ifvqh0g","pricing_plan_id":"cebpf4jnsgd1na2vs0mg"},{"bike_id":"de7bb2f8-69da-4963-b95e-77ff4c2106af","system_id":"levelo_inurba_marseille","lat":43.30206,"lon":5.39473,"is_reserved":false,"is_disabled":false,"rental_uris":{"android":"levelo://app?vid=de7bb2f8-69da-4963-b95e-77ff4c2106af","ios":"levelo://app?vid=de7bb2f8-69da-4963-b95e-77ff4c2106af"},"vehicle_type_id":"4","last_reported":1731611197,"current_range_meters":7200,"station_id":"ce4bh0p2rcd13ifvqd70","pricing_plan_id":"cebpf4jnsgd1na2vs0mg"},{"bike_id":"1311c692-6e9d-4afb-b7b0-20686564fe7a","system_id":"levelo_inurba_marseille","lat":43.337444,"lon":5.374475,"is_reserved":false,"is_disabled":false,"rental_uris":{"android":"levelo://app?vid=1311c692-6e9d-4afb-b7b0-20686564fe7a","ios":"levelo://app?vid=1311c692-6e9d-4afb-b7b0-20686564fe7a"},"vehicle_type_id":"4","last_reported":1731611197,"current_range_meters":32000,"station_id":"","pricing_plan_id":"cebpf4jnsgd1na2vs0mg"},{"bike_id":"b3aef7cb-249a-4d2d-afff-1d8eb217ee9a","system_id":"levelo_inurba_marseille","lat":43.2979,"lon":5.38098,"is_reserved":false,"is_disabled":false,"rental_uris":{"android":"levelo://app?vid=b3aef7cb-249a-4d2d-afff-1d8eb217ee9a","ios":"levelo://app?vid=b3aef7cb-249a-4d2d-afff-1d8eb217ee9a"},"vehicle_type_id":"4","last_reported":1731611197,"current_range_meters":38000,"station_id":"ce4bgip2rcd13ifvqbb0","pricing_plan_id":"cebpf4jnsgd1na2vs0mg"},{"bike_id":"db79510e-58e6-4d69-a4d0-b02a58fdb1f1","system_id":"levelo_inurba_marseille","lat":43.239624,"lon":5.3662,"is_reserved":false,"is_disabled":false,"rental_uris":{"android":"levelo://app?vid=db79510e-58e6-4d69-a4d0-b02a58fdb1f1","ios":"levelo://app?vid=db79510e-58e6-4d69-a4d0-b02a58fdb1f1"},"vehicle_type_id":"4","last_reported":1731611197,"current_range_meters":36400,"station_id":"ce4bhi12rcd13ifvqfp0","pricing_plan_id":"cebpf4jnsgd1na2vs0mg"},{"bike_id":"3a04ac96-91c8-483e-8e97-494b3948eada","system_id":"levelo_inurba_marseille","lat":43.278371,"lon":5.392072,"is_reserved":false,"is_disabled":false,"rental_uris":{"android":"levelo://app?vid=3a04ac96-91c8-483e-8e97-494b3948eada","ios":"levelo://app?vid=3a04ac96-91c8-483e-8e97-494b3948eada"},"vehicle_type_id":"4","last_reported":1731611197,"current_range_meters":25600,"station_id":"ce4bhjp2rcd13ifvqga0","pricing_plan_id":"cebpf4jnsgd1na2vs0mg"},{"bike_id":"14659d0f-0b6b-40e4-9ae0-6a3db3469058","system_id":"levelo_inurba_marseille","lat":43.25587,"lon":5.3823,"is_reserved":false,"is_disabled":false,"rental_uris":{"android":"levelo://app?vid=14659d0f-0b6b-40e4-9ae0-6a3db3469058","ios":"levelo://app?vid=14659d0f-0b6b-40e4-9ae0-6a3db3469058"},"vehicle_type_id":"4","last_reported":1731611197,"current_range_meters":12800,"station_id":"ce4bhih2rcd13ifvqfs0","pricing_plan_id":"cebpf4jnsgd1na2vs0mg"},{"bike_id":"70d20d8f-1109-4c5b-86e9-c9e4cb8476ac","system_id":"levelo_inurba_marseille","lat":43.29896,"lon":5.39746,"is_reserved":false,"is_disabled":false,"rental_uris":{"android":"levelo://app?vid=70d20d8f-1109-4c5b-86e9-c9e4cb8476ac","ios":"levelo://app?vid=70d20d8f-1109-4c5b-86e9-c9e4cb8476ac"},"vehicle_type_id":"4","last_reported":1731611197,"current_range_meters":5600,"station_id":"ce4bh0h2rcd13ifvqd50","pricing_plan_id":"cebpf4jnsgd1na2vs0mg"},{"bike_id":"b6585629-282e-4d73-b5eb-579666a095d7","system_id":"levelo_inurba_marseille","lat":43.26061,"lon":5.394,"is_reserved":false,"is_disabled":false,"rental_uris":{"android":"levelo://app?vid=b6585629-282e-4d73-b5eb-579666a095d7","ios":"levelo://app?vid=b6585629-282e-4d73-b5eb-579666a095d7"},"vehicle_type_id":"4","last_reported":1731611197,"current_range_meters":11600,"station_id":"ce4bhh92rcd13ifvqfj0","pricing_plan_id":"cebpf4jnsgd1na2vs0mg"},{"bike_id":"89a4f3a7-f5e2-48e0-bc38-fa0b2051d76a","system_id":"levelo_inurba_marseille","lat":43.3124,"lon":5.36859,"is_reserved":false,"is_disabled":false,"rental_uris":{"android":"levelo://app?vid=89a4f3a7-f5e2-48e0-bc38-fa0b2051d76a","ios":"levelo://app?vid=89a4f3a7-f5e2-48e0-bc38-fa0b2051d76a"},"vehicle_type_id":"4","last_reported":1731611197,"current_range_meters":14800,"station_id":"ce4bgl92rcd13ifvqbq0","pricing_plan_id":"cebpf4jnsgd1na2vs0mg"},{"bike_id":"1db7e47b-80a0-46fa-b3dc-cc5c159bde15","system_id":"levelo_inurba_marseille","lat":43.31085,"lon":5.4243,"is_reserved":false,"is_disabled":false,"rental_uris":{"android":"levelo://app?vid=1db7e47b-80a0-46fa-b3dc-cc5c159bde15","ios":"levelo://app?vid=1db7e47b-80a0-46fa-b3dc-cc5c159bde15"},"vehicle_type_id":"4","last_reported":1731611197,"current_range_meters":25600,"station_id":"ce4bhp92rcd13ifvqhag","pricing_plan_id":"cebpf4jnsgd1na2vs0mg"},{"bike_id":"a6b8c285-acc9-4039-9531-1aae39136a33","system_id":"levelo_inurba_marseille","lat":43.312042,"lon":5.367348,"is_reserved":false,"is_disabled":false,"rental_uris":{"android":"levelo://app?vid=a6b8c285-acc9-4039-9531-1aae39136a33","ios":"levelo://app?vid=a6b8c285-acc9-4039-9531-1aae39136a33"},"vehicle_type_id":"4","last_reported":1731611197,"current_range_meters":22800,"station_id":"","pricing_plan_id":"cebpf4jnsgd1na2vs0mg"},{"bike_id":"969fc660-e18c-47b7-beed-36ead3f43ca6","system_id":"levelo_inurba_marseille","lat":43.28456,"lon":5.35889,"is_reserved":false,"is_disabled":false,"rental_uris":{"android":"levelo://app?vid=969fc660-e18c-47b7-beed-36ead3f43ca6","ios":"levelo://app?vid=969fc660-e18c-47b7-beed-36ead3f43ca6"},"vehicle_type_id":"4","last_reported":1731611197,"current_range_meters":8800,"station_id":"ce4bhah2rcd13ifvqei0","pricing_plan_id":"cebpf4jnsgd1na2vs0mg"},{"bike_id":"c5d0194e-34c9-4d5b-9425-62c78e5d0cfb","system_id":"levelo_inurba_marseille","lat":43.24179,"lon":5.39729,"is_reserved":false,"is_disabled":false,"rental_uris":{"android":"levelo://app?vid=c5d0194e-34c9-4d5b-9425-62c78e5d0cfb","ios":"levelo://app?vid=c5d0194e-34c9-4d5b-9425-62c78e5d0cfb"},"vehicle_type_id":"4","last_reported":1731611197,"current_range_meters":7200,"station_id":"ce4bhn12rcd13ifvqgpg","pricing_plan_id":"cebpf4jnsgd1na2vs0mg"},{"bike_id":"31e215c2-7dd6-45e6-9b1e-64fa63bf89c1","system_id":"levelo_inurba_marseille","lat":43.25094,"lon":5.39519,"is_reserved":false,"is_disabled":false,"rental_uris":{"android":"levelo://app?vid=31e215c2-7dd6-45e6-9b1e-64fa63bf89c1","ios":"levelo://app?vid=31e215c2-7dd6-45e6-9b1e-64fa63bf89c1"},"vehicle_type_id":"4","last_reported":1731611197,"current_range_meters":6000,"station_id":"ce4bhm12rcd13ifvqgkg","pricing_plan_id":"cebpf4jnsgd1na2vs0mg"},{"bike_id":"3c4efd2f-3952-4f43-bc5f-5c06153b1ebb","system_id":"levelo_inurba_marseille","lat":43.30332,"lon":5.40427,"is_reserved":false,"is_disabled":false,"rental_uris":{"android":"levelo://app?vid=3c4efd2f-3952-4f43-bc5f-5c06153b1ebb","ios":"levelo://app?vid=3c4efd2f-3952-4f43-bc5f-5c06153b1ebb"},"vehicle_type_id":"4","last_reported":1731611197,"current_range_meters":20000,"station_id":"ce4bh012rcd13ifvqd10","pricing_plan_id":"cebpf4jnsgd1na2vs0mg"},{"bike_id":"43a35839-6e59-4d68-b5c3-15c8bcd39607","system_id":"levelo_inurba_marseille","lat":43.27941,"lon":5.41036,"is_reserved":false,"is_disabled":false,"rental_uris":{"android":"levelo://app?vid=43a35839-6e59-4d68-b5c3-15c8bcd39607","ios":"levelo://app?vid=43a35839-6e59-4d68-b5c3-15c8bcd39607"},"vehicle_type_id":"4","last_reported":1731611197,"current_range_meters":38800,"station_id":"ce4bhnp2rcd13ifvqh0g","pricing_plan_id":"cebpf4jnsgd1na2vs0mg"},{"bike_id":"1ae8fe75-00ad-479b-a755-74d45d76bfbe","system_id":"levelo_inurba_marseille","lat":43.24171,"lon":5.36405,"is_reserved":false,"is_disabled":false,"rental_uris":{"android":"levelo://app?vid=1ae8fe75-00ad-479b-a755-74d45d76bfbe","ios":"levelo://app?vid=1ae8fe75-00ad-479b-a755-74d45d76bfbe"},"vehicle_type_id":"4","last_reported":1731611197,"current_range_meters":16800,"station_id":"cpo36qri1sfpv3e86is0","pricing_plan_id":"cebpf4jnsgd1na2vs0mg"},{"bike_id":"0ce3060f-2732-4c47-987b-4a515db1f18e","system_id":"levelo_inurba_marseille","lat":43.28702,"lon":5.37381,"is_reserved":false,"is_disabled":false,"rental_uris":{"android":"levelo://app?vid=0ce3060f-2732-4c47-987b-4a515db1f18e","ios":"levelo://app?vid=0ce3060f-2732-4c47-987b-4a515db1f18e"},"vehicle_type_id":"4","last_reported":1731611197,"current_range_meters":38000,"station_id":"ce4bh3p2rcd13ifvqdq0","pricing_plan_id":"cebpf4jnsgd1na2vs0mg"},{"bike_id":"a16f4f4a-d198-4333-953b-e3f5ecc86e2b","system_id":"levelo_inurba_marseille","lat":43.29537,"lon":5.37512,"is_reserved":false,"is_disabled":false,"rental_uris":{"android":"levelo://app?vid=a16f4f4a-d198-4333-953b-e3f5ecc86e2b","ios":"levelo://app?vid=a16f4f4a-d198-4333-953b-e3f5ecc86e2b"},"vehicle_type_id":"4","last_reported":1731611197,"current_range_meters":18800,"station_id":"ce4bgkp2rcd13ifvqbmg","pricing_plan_id":"cebpf4jnsgd1na2vs0mg"},{"bike_id":"92ac4858-87d6-4ceb-8f6e-004635a816a8","system_id":"levelo_inurba_marseille","lat":43.27789,"lon":5.40737,"is_reserved":false,"is_disabled":false,"rental_uris":{"android":"levelo://app?vid=92ac4858-87d6-4ceb-8f6e-004635a816a8","ios":"levelo://app?vid=92ac4858-87d6-4ceb-8f6e-004635a816a8"},"vehicle_type_id":"4","last_reported":1731611197,"current_range_meters":38800,"station_id":"ce4bhnh2rcd13ifvqgtg","pricing_plan_id":"cebpf4jnsgd1na2vs0mg"},{"bike_id":"2ced9380-2bb8-42f2-9c61-94ee116cfefc","system_id":"levelo_inurba_marseille","lat":43.29532,"lon":5.38542,"is_reserved":false,"is_disabled":false,"rental_uris":{"android":"levelo://app?vid=2ced9380-2bb8-42f2-9c61-94ee116cfefc","ios":"levelo://app?vid=2ced9380-2bb8-42f2-9c61-94ee116cfefc"},"vehicle_type_id":"4","last_reported":1731611197,"current_range_meters":14400,"station_id":"ce4bgih2rcd13ifvqba0","pricing_plan_id":"cebpf4jnsgd1na2vs0mg"},{"bike_id":"44281496-ebb0-475b-9830-51a1115552ab","system_id":"levelo_inurba_marseille","lat":43.28415,"lon":5.37512,"is_reserved":false,"is_disabled":false,"rental_uris":{"android":"levelo://app?vid=44281496-ebb0-475b-9830-51a1115552ab","ios":"levelo://app?vid=44281496-ebb0-475b-9830-51a1115552ab"},"vehicle_type_id":"4","last_reported":1731611197,"current_range_meters":18000,"station_id":"ce4bh412rcd13ifvqds0","pricing_plan_id":"cebpf4jnsgd1na2vs0mg"},{"bike_id":"d8910255-486f-49c1-aadc-f01e5ecd7f04","system_id":"levelo_inurba_marseille","lat":43.287,"lon":5.39983,"is_reserved":false,"is_disabled":false,"rental_uris":{"android":"levelo://app?vid=d8910255-486f-49c1-aadc-f01e5ecd7f04","ios":"levelo://app?vid=d8910255-486f-49c1-aadc-f01e5ecd7f04"},"vehicle_type_id":"4","last_reported":1731611197,"current_range_meters":20800,"station_id":"ce4bho92rcd13ifvqh3g","pricing_plan_id":"cebpf4jnsgd1na2vs0mg"},{"bike_id":"16c431de-b128-4380-a727-8a0a0eba5b1b","system_id":"levelo_inurba_marseille","lat":43.27777,"lon":5.3554,"is_reserved":false,"is_disabled":false,"rental_uris":{"android":"levelo://app?vid=16c431de-b128-4380-a727-8a0a0eba5b1b","ios":"levelo://app?vid=16c431de-b128-4380-a727-8a0a0eba5b1b"},"vehicle_type_id":"4","last_reported":1731611197,"current_range_meters":36800,"station_id":"ce4bhhh2rcd13ifvqfk0","pricing_plan_id":"cebpf4jnsgd1na2vs0mg"},{"bike_id":"5f091282-98b3-4254-ba85-c9a188687da1","system_id":"levelo_inurba_marseille","lat":43.27492,"lon":5.4245,"is_reserved":false,"is_disabled":false,"rental_uris":{"android":"levelo://app?vid=5f091282-98b3-4254-ba85-c9a188687da1","ios":"levelo://app?vid=5f091282-98b3-4254-ba85-c9a188687da1"},"vehicle_type_id":"4","last_reported":1731611197,"current_range_meters":14000,"station_id":"ce4bhn92rcd13ifvqgrg","pricing_plan_id":"cebpf4jnsgd1na2vs0mg"},{"bike_id":"89b008d7-a688-4b2b-bb1b-6499fee8f750","system_id":"levelo_inurba_marseille","lat":43.29534,"lon":5.36315,"is_reserved":false,"is_disabled":false,"rental_uris":{"android":"levelo://app?vid=89b008d7-a688-4b2b-bb1b-6499fee8f750","ios":"levelo://app?vid=89b008d7-a688-4b2b-bb1b-6499fee8f750"},"vehicle_type_id":"4","last_reported":1731611197,"current_range_meters":16000,"station_id":"","pricing_plan_id":"cebpf4jnsgd1na2vs0mg"},{"bike_id":"674b0e8f-8c9e-4c11-a204-160fb5dcf762","system_id":"levelo_inurba_marseille","lat":43.2439,"lon":5.37054,"is_reserved":false,"is_disabled":false,"rental_uris":{"android":"levelo://app?vid=674b0e8f-8c9e-4c11-a204-160fb5dcf762","ios":"levelo://app?vid=674b0e8f-8c9e-4c11-a204-160fb5dcf762"},"vehicle_type_id":"4","last_reported":1731611197,"current_range_meters":25200,"station_id":"ce4bhhh2rcd13ifvqfk0","pricing_plan_id":"cebpf4jnsgd1na2vs0mg"},{"bike_id":"4367b189-5ba9-437d-8201-bb637e954a99","system_id":"levelo_inurba_marseille","lat":43.29303,"lon":5.37159,"is_reserved":false,"is_disabled":false,"rental_uris":{"android":"levelo://app?vid=4367b189-5ba9-437d-8201-bb637e954a99","ios":"levelo://app?vid=4367b189-5ba9-437d-8201-bb637e954a99"},"vehicle_type_id":"4","last_reported":1731611197,"current_range_meters":14800,"station_id":"ce4bgh92rcd13ifvqb40","pricing_plan_id":"cebpf4jnsgd1na2vs0mg"},{"bike_id":"0f433459-e074-4293-bfa5-3b5b113abeb1","system_id":"levelo_inurba_marseille","lat":43.33727,"lon":5.39188,"is_reserved":false,"is_disabled":false,"rental_uris":{"android":"levelo://app?vid=0f433459-e074-4293-bfa5-3b5b113abeb1","ios":"levelo://app?vid=0f433459-e074-4293-bfa5-3b5b113abeb1"},"vehicle_type_id":"4","last_reported":1731611197,"current_range_meters":39200,"station_id":"ce4bhr92rcd13ifvqhsg","pricing_plan_id":"cebpf4jnsgd1na2vs0mg"},{"bike_id":"1db6ae72-a1a3-4339-b6ba-b97cddfe3dec","system_id":"levelo_inurba_marseille","lat":43.258674,"lon":5.398961,"is_reserved":false,"is_disabled":false,"rental_uris":{"android":"levelo://app?vid=1db6ae72-a1a3-4339-b6ba-b97cddfe3dec","ios":"levelo://app?vid=1db6ae72-a1a3-4339-b6ba-b97cddfe3dec"},"vehicle_type_id":"4","last_reported":1731611197,"current_range_meters":38800,"station_id":"ce4bhl92rcd13ifvqghg","pricing_plan_id":"cebpf4jnsgd1na2vs0mg"},{"bike_id":"16eab57e-1302-4f75-8821-c3e034ea98ff","system_id":"levelo_inurba_marseille","lat":43.30808,"lon":5.43529,"is_reserved":false,"is_disabled":false,"rental_uris":{"android":"levelo://app?vid=16eab57e-1302-4f75-8821-c3e034ea98ff","ios":"levelo://app?vid=16eab57e-1302-4f75-8821-c3e034ea98ff"},"vehicle_type_id":"4","last_reported":1731611197,"current_range_meters":33200,"station_id":"ce4bhph2rcd13ifvqheg","pricing_plan_id":"cebpf4jnsgd1na2vs0mg"},{"bike_id":"2886128d-fbbb-438c-87be-d5561cf18777","system_id":"levelo_inurba_marseille","lat":43.31327,"lon":5.397,"is_reserved":false,"is_disabled":false,"rental_uris":{"android":"levelo://app?vid=2886128d-fbbb-438c-87be-d5561cf18777","ios":"levelo://app?vid=2886128d-fbbb-438c-87be-d5561cf18777"},"vehicle_type_id":"4","last_reported":1731611197,"current_range_meters":4000,"station_id":"ce4bgvp2rcd13ifvqcu0","pricing_plan_id":"cebpf4jnsgd1na2vs0mg"},{"bike_id":"ce019493-af5e-446b-998f-56a2863edf0c","system_id":"levelo_inurba_marseille","lat":43.30887,"lon":5.39656,"is_reserved":false,"is_disabled":false,"rental_uris":{"android":"levelo://app?vid=ce019493-af5e-446b-998f-56a2863edf0c","ios":"levelo://app?vid=ce019493-af5e-446b-998f-56a2863edf0c"},"vehicle_type_id":"4","last_reported":1731611197,"current_range_meters":22000,"station_id":"ce4bh012rcd13ifvqcv0","pricing_plan_id":"cebpf4jnsgd1na2vs0mg"},{"bike_id":"4bc46ed4-6d7e-460b-8246-2683744a4138","system_id":"levelo_inurba_marseille","lat":43.30268,"lon":5.37721,"is_reserved":false,"is_disabled":false,"rental_uris":{"android":"levelo://app?vid=4bc46ed4-6d7e-460b-8246-2683744a4138","ios":"levelo://app?vid=4bc46ed4-6d7e-460b-8246-2683744a4138"},"vehicle_type_id":"4","last_reported":1731611197,"current_range_meters":18800,"station_id":"ce4bguh2rcd13ifvqcj0","pricing_plan_id":"cebpf4jnsgd1na2vs0mg"},{"bike_id":"680566ba-fd93-45cf-b5a6-439f8df76b76","system_id":"levelo_inurba_marseille","lat":43.27375,"lon":5.3625,"is_reserved":false,"is_disabled":false,"rental_uris":{"android":"levelo://app?vid=680566ba-fd93-45cf-b5a6-439f8df76b76","ios":"levelo://app?vid=680566ba-fd93-45cf-b5a6-439f8df76b76"},"vehicle_type_id":"4","last_reported":1731611197,"current_range_meters":38800,"station_id":"ce4bhbh2rcd13ifvqeo0","pricing_plan_id":"cebpf4jnsgd1na2vs0mg"},{"bike_id":"b448c76e-6a85-4e4e-8af8-7d9249501502","system_id":"levelo_inurba_marseille","lat":43.337444,"lon":5.374475,"is_reserved":false,"is_disabled":false,"rental_uris":{"android":"levelo://app?vid=b448c76e-6a85-4e4e-8af8-7d9249501502","ios":"levelo://app?vid=b448c76e-6a85-4e4e-8af8-7d9249501502"},"vehicle_type_id":"4","last_reported":1731611197,"current_range_meters":32000,"station_id":"","pricing_plan_id":"cebpf4jnsgd1na2vs0mg"},{"bike_id":"d672156f-f409-4096-80a0-6d6c55d560f5","system_id":"levelo_inurba_marseille","lat":43.32119,"lon":5.36778,"is_reserved":false,"is_disabled":false,"rental_uris":{"android":"levelo://app?vid=d672156f-f409-4096-80a0-6d6c55d560f5","ios":"levelo://app?vid=d672156f-f409-4096-80a0-6d6c55d560f5"},"vehicle_type_id":"4","last_reported":1731611197,"current_range_meters":38800,"station_id":"ce4bhrh2rcd13ifvqhug","pricing_plan_id":"cebpf4jnsgd1na2vs0mg"},{"bike_id":"2f1efe36-41b2-4a6f-aa98-b326b5712fe6","system_id":"levelo_inurba_marseille","lat":43.29902,"lon":5.43663,"is_reserved":false,"is_disabled":false,"rental_uris":{"android":"levelo://app?vid=2f1efe36-41b2-4a6f-aa98-b326b5712fe6","ios":"levelo://app?vid=2f1efe36-41b2-4a6f-aa98-b326b5712fe6"},"vehicle_type_id":"4","last_reported":1731611197,"current_range_meters":39200,"station_id":"ce4bhpp2rcd13ifvqhfg","pricing_plan_id":"cebpf4jnsgd1na2vs0mg"},{"bike_id":"d58f65dd-ac9a-4d5f-8e95-607953d85486","system_id":"levelo_inurba_marseille","lat":43.29416,"lon":5.38624,"is_reserved":false,"is_disabled":false,"rental_uris":{"android":"levelo://app?vid=d58f65dd-ac9a-4d5f-8e95-607953d85486","ios":"levelo://app?vid=d58f65dd-ac9a-4d5f-8e95-607953d85486"},"vehicle_type_id":"4","last_reported":1731611197,"current_range_meters":36800,"station_id":"ce4bh2h2rcd13ifvqdh0","pricing_plan_id":"cebpf4jnsgd1na2vs0mg"},{"bike_id":"d34e5414-9ed4-4991-bda2-565ee0ef4bff","system_id":"levelo_inurba_marseille","lat":43.318857,"lon":5.407244,"is_reserved":false,"is_disabled":false,"rental_uris":{"android":"levelo://app?vid=d34e5414-9ed4-4991-bda2-565ee0ef4bff","ios":"levelo://app?vid=d34e5414-9ed4-4991-bda2-565ee0ef4bff"},"vehicle_type_id":"4","last_reported":1731611197,"current_range_meters":38800,"station_id":"ce4bhq12rcd13ifvqhig","pricing_plan_id":"cebpf4jnsgd1na2vs0mg"},{"bike_id":"711c4ef8-973c-4e53-ba75-ecac46f2ce47","system_id":"levelo_inurba_marseille","lat":43.25726,"lon":5.41111,"is_reserved":false,"is_disabled":false,"rental_uris":{"android":"levelo://app?vid=711c4ef8-973c-4e53-ba75-ecac46f2ce47","ios":"levelo://app?vid=711c4ef8-973c-4e53-ba75-ecac46f2ce47"},"vehicle_type_id":"4","last_reported":1731611197,"current_range_meters":6400,"station_id":"ce4bhkp2rcd13ifvqgd0","pricing_plan_id":"cebpf4jnsgd1na2vs0mg"},{"bike_id":"6ed72132-913a-4f56-a703-967c0946a117","system_id":"levelo_inurba_marseille","lat":43.291748,"lon":5.371456,"is_reserved":false,"is_disabled":false,"rental_uris":{"android":"levelo://app?vid=6ed72132-913a-4f56-a703-967c0946a117","ios":"levelo://app?vid=6ed72132-913a-4f56-a703-967c0946a117"},"vehicle_type_id":"4","last_reported":1731611197,"current_range_meters":24000,"station_id":"ce4bgip2rcd13ifvqbb0","pricing_plan_id":"cebpf4jnsgd1na2vs0mg"},{"bike_id":"e436de58-67d5-4505-9565-c9ea06494fe2","system_id":"levelo_inurba_marseille","lat":43.32006,"lon":5.38157,"is_reserved":false,"is_disabled":false,"rental_uris":{"android":"levelo://app?vid=e436de58-67d5-4505-9565-c9ea06494fe2","ios":"levelo://app?vid=e436de58-67d5-4505-9565-c9ea06494fe2"},"vehicle_type_id":"4","last_reported":1731611197,"current_range_meters":32000,"station_id":"ce4bhr12rcd13ifvqhpg","pricing_plan_id":"cebpf4jnsgd1na2vs0mg"},{"bike_id":"6682b549-7206-4bf1-9192-57bd2e74fe9c","system_id":"levelo_inurba_marseille","lat":43.2953,"lon":5.38534,"is_reserved":false,"is_disabled":false,"rental_uris":{"android":"levelo://app?vid=6682b549-7206-4bf1-9192-57bd2e74fe9c","ios":"levelo://app?vid=6682b549-7206-4bf1-9192-57bd2e74fe9c"},"vehicle_type_id":"4","last_reported":1731611197,"current_range_meters":39200,"station_id":"ce4bgih2rcd13ifvqba0","pricing_plan_id":"cebpf4jnsgd1na2vs0mg"},{"bike_id":"e8d4080b-97dc-4d84-be9d-2e7bab344078","system_id":"levelo_inurba_marseille","lat":43.27318,"lon":5.390621,"is_reserved":false,"is_disabled":false,"rental_uris":{"android":"levelo://app?vid=e8d4080b-97dc-4d84-be9d-2e7bab344078","ios":"levelo://app?vid=e8d4080b-97dc-4d84-be9d-2e7bab344078"},"vehicle_type_id":"4","last_reported":1731611197,"current_range_meters":38800,"station_id":"ce4bhgp2rcd13ifvqfe0","pricing_plan_id":"cebpf4jnsgd1na2vs0mg"},{"bike_id":"71675479-65a3-432e-900f-c13f815182ff","system_id":"levelo_inurba_marseille","lat":43.29669,"lon":5.40587,"is_reserved":false,"is_disabled":false,"rental_uris":{"android":"levelo://app?vid=71675479-65a3-432e-900f-c13f815182ff","ios":"levelo://app?vid=71675479-65a3-432e-900f-c13f815182ff"},"vehicle_type_id":"4","last_reported":1731611197,"current_range_meters":16000,"station_id":"ce4bh0h2rcd13ifvqd60","pricing_plan_id":"cebpf4jnsgd1na2vs0mg"},{"bike_id":"1707cb1e-404f-449a-8ec1-810d24d3f970","system_id":"levelo_inurba_marseille","lat":43.23183,"lon":5.39983,"is_reserved":false,"is_disabled":false,"rental_uris":{"android":"levelo://app?vid=1707cb1e-404f-449a-8ec1-810d24d3f970","ios":"levelo://app?vid=1707cb1e-404f-449a-8ec1-810d24d3f970"},"vehicle_type_id":"4","last_reported":1731611197,"current_range_meters":33600,"station_id":"ce4bhn12rcd13ifvqgqg","pricing_plan_id":"cebpf4jnsgd1na2vs0mg"},{"bike_id":"408a880c-43d4-47cb-a237-fef59d250c8b","system_id":"levelo_inurba_marseille","lat":43.30259,"lon":5.40061,"is_reserved":false,"is_disabled":false,"rental_uris":{"android":"levelo://app?vid=408a880c-43d4-47cb-a237-fef59d250c8b","ios":"levelo://app?vid=408a880c-43d4-47cb-a237-fef59d250c8b"},"vehicle_type_id":"4","last_reported":1731611197,"current_range_meters":38000,"station_id":"ce4bgvh2rcd13ifvqcs0","pricing_plan_id":"cebpf4jnsgd1na2vs0mg"},{"bike_id":"9e6beb90-1cf2-4356-9f9a-53c9f9f2847d","system_id":"levelo_inurba_marseille","lat":43.27945,"lon":5.41028,"is_reserved":false,"is_disabled":false,"rental_uris":{"android":"levelo://app?vid=9e6beb90-1cf2-4356-9f9a-53c9f9f2847d","ios":"levelo://app?vid=9e6beb90-1cf2-4356-9f9a-53c9f9f2847d"},"vehicle_type_id":"4","last_reported":1731611197,"current_range_meters":38800,"station_id":"ce4bhnp2rcd13ifvqh0g","pricing_plan_id":"cebpf4jnsgd1na2vs0mg"},{"bike_id":"51dfc62a-c40c-4a49-aacb-cdbfb4131a6b","system_id":"levelo_inurba_marseille","lat":43.29649,"lon":5.37648,"is_reserved":false,"is_disabled":false,"rental_uris":{"android":"levelo://app?vid=51dfc62a-c40c-4a49-aacb-cdbfb4131a6b","ios":"levelo://app?vid=51dfc62a-c40c-4a49-aacb-cdbfb4131a6b"},"vehicle_type_id":"4","last_reported":1731611197,"current_range_meters":20000,"station_id":"","pricing_plan_id":"cebpf4jnsgd1na2vs0mg"},{"bike_id":"ad15c698-d417-4749-8816-70d41b7ac25a","system_id":"levelo_inurba_marseille","lat":43.27496,"lon":5.42457,"is_reserved":false,"is_disabled":false,"rental_uris":{"android":"levelo://app?vid=ad15c698-d417-4749-8816-70d41b7ac25a","ios":"levelo://app?vid=ad15c698-d417-4749-8816-70d41b7ac25a"},"vehicle_type_id":"4","last_reported":1731611197,"current_range_meters":26800,"station_id":"ce4bhn92rcd13ifvqgrg","pricing_plan_id":"cebpf4jnsgd1na2vs0mg"},{"bike_id":"1e592696-11cd-4ae3-95c0-d5cb901dcc16","system_id":"levelo_inurba_marseille","lat":43.29199,"lon":5.39322,"is_reserved":false,"is_disabled":false,"rental_uris":{"android":"levelo://app?vid=1e592696-11cd-4ae3-95c0-d5cb901dcc16","ios":"levelo://app?vid=1e592696-11cd-4ae3-95c0-d5cb901dcc16"},"vehicle_type_id":"4","last_reported":1731611197,"current_range_meters":26800,"station_id":"ce4bh192rcd13ifvqdd0","pricing_plan_id":"cebpf4jnsgd1na2vs0mg"},{"bike_id":"c126634e-8b55-4bbe-a81f-3c1a56563eb6","system_id":"levelo_inurba_marseille","lat":43.32001,"lon":5.38149,"is_reserved":false,"is_disabled":false,"rental_uris":{"android":"levelo://app?vid=c126634e-8b55-4bbe-a81f-3c1a56563eb6","ios":"levelo://app?vid=c126634e-8b55-4bbe-a81f-3c1a56563eb6"},"vehicle_type_id":"4","last_reported":1731611197,"current_range_meters":16800,"station_id":"ce4bhr12rcd13ifvqhpg","pricing_plan_id":"cebpf4jnsgd1na2vs0mg"},{"bike_id":"9f3774eb-9f6b-4716-b615-188e33e3b133","system_id":"levelo_inurba_marseille","lat":43.29369,"lon":5.37826,"is_reserved":false,"is_disabled":false,"rental_uris":{"android":"levelo://app?vid=9f3774eb-9f6b-4716-b615-188e33e3b133","ios":"levelo://app?vid=9f3774eb-9f6b-4716-b615-188e33e3b133"},"vehicle_type_id":"4","last_reported":1731611197,"current_range_meters":8800,"station_id":"ce4bgjh2rcd13ifvqbf0","pricing_plan_id":"cebpf4jnsgd1na2vs0mg"},{"bike_id":"bf88a884-7a26-4f8a-9b2a-0c7226852270","system_id":"levelo_inurba_marseille","lat":43.30807,"lon":5.43525,"is_reserved":false,"is_disabled":false,"rental_uris":{"android":"levelo://app?vid=bf88a884-7a26-4f8a-9b2a-0c7226852270","ios":"levelo://app?vid=bf88a884-7a26-4f8a-9b2a-0c7226852270"},"vehicle_type_id":"4","last_reported":1731611197,"current_range_meters":16400,"station_id":"ce4bhph2rcd13ifvqheg","pricing_plan_id":"cebpf4jnsgd1na2vs0mg"},{"bike_id":"c146d451-aa2c-49cd-91b1-a517f2418fda","system_id":"levelo_inurba_marseille","lat":43.2781,"lon":5.40709,"is_reserved":false,"is_disabled":false,"rental_uris":{"android":"levelo://app?vid=c146d451-aa2c-49cd-91b1-a517f2418fda","ios":"levelo://app?vid=c146d451-aa2c-49cd-91b1-a517f2418fda"},"vehicle_type_id":"4","last_reported":1731611197,"current_range_meters":18000,"station_id":"ce4bhnh2rcd13ifvqgtg","pricing_plan_id":"cebpf4jnsgd1na2vs0mg"},{"bike_id":"74aec172-0912-41e4-9f1e-1b404b12f3e4","system_id":"levelo_inurba_marseille","lat":43.31763,"lon":5.39008,"is_reserved":false,"is_disabled":false,"rental_uris":{"android":"levelo://app?vid=74aec172-0912-41e4-9f1e-1b404b12f3e4","ios":"levelo://app?vid=74aec172-0912-41e4-9f1e-1b404b12f3e4"},"vehicle_type_id":"4","last_reported":1731611197,"current_range_meters":11200,"station_id":"ce4bhqp2rcd13ifvqhng","pricing_plan_id":"cebpf4jnsgd1na2vs0mg"},{"bike_id":"00494b59-5652-416a-b8fa-78b158994af5","system_id":"levelo_inurba_marseille","lat":43.30134,"lon":5.38792,"is_reserved":false,"is_disabled":false,"rental_uris":{"android":"levelo://app?vid=00494b59-5652-416a-b8fa-78b158994af5","ios":"levelo://app?vid=00494b59-5652-416a-b8fa-78b158994af5"},"vehicle_type_id":"4","last_reported":1731611197,"current_range_meters":37600,"station_id":"ce4bghh2rcd13ifvqb60","pricing_plan_id":"cebpf4jnsgd1na2vs0mg"},{"bike_id":"8102b6ea-acef-4187-8f10-fc53bc63422b","system_id":"levelo_inurba_marseille","lat":43.28861,"lon":5.35842,"is_reserved":false,"is_disabled":false,"rental_uris":{"android":"levelo://app?vid=8102b6ea-acef-4187-8f10-fc53bc63422b","ios":"levelo://app?vid=8102b6ea-acef-4187-8f10-fc53bc63422b"},"vehicle_type_id":"4","last_reported":1731611197,"current_range_meters":38800,"station_id":"ce4bhb12rcd13ifvqem0","pricing_plan_id":"cebpf4jnsgd1na2vs0mg"},{"bike_id":"0e0dc84d-3f5c-41ab-b711-5dbeeee907e3","system_id":"levelo_inurba_marseille","lat":43.27999,"lon":5.40015,"is_reserved":false,"is_disabled":false,"rental_uris":{"android":"levelo://app?vid=0e0dc84d-3f5c-41ab-b711-5dbeeee907e3","ios":"levelo://app?vid=0e0dc84d-3f5c-41ab-b711-5dbeeee907e3"},"vehicle_type_id":"4","last_reported":1731611197,"current_range_meters":9600,"station_id":"ce4bho92rcd13ifvqh4g","pricing_plan_id":"cebpf4jnsgd1na2vs0mg"},{"bike_id":"6ce0c528-fc1c-4f5e-9e04-d64ebd9b4957","system_id":"levelo_inurba_marseille","lat":43.32108,"lon":5.36775,"is_reserved":false,"is_disabled":false,"rental_uris":{"android":"levelo://app?vid=6ce0c528-fc1c-4f5e-9e04-d64ebd9b4957","ios":"levelo://app?vid=6ce0c528-fc1c-4f5e-9e04-d64ebd9b4957"},"vehicle_type_id":"4","last_reported":1731611197,"current_range_meters":12000,"station_id":"ce4bhrh2rcd13ifvqhug","pricing_plan_id":"cebpf4jnsgd1na2vs0mg"},{"bike_id":"ce18b88c-8cdf-47e0-a70b-160e37013027","system_id":"levelo_inurba_marseille","lat":43.31289,"lon":5.40163,"is_reserved":false,"is_disabled":false,"rental_uris":{"android":"levelo://app?vid=ce18b88c-8cdf-47e0-a70b-160e37013027","ios":"levelo://app?vid=ce18b88c-8cdf-47e0-a70b-160e37013027"},"vehicle_type_id":"4","last_reported":1731611197,"current_range_meters":11600,"station_id":"ce4bh092rcd13ifvqd30","pricing_plan_id":"cebpf4jnsgd1na2vs0mg"},{"bike_id":"71e34b7f-e4a6-4af0-8081-3777c807463c","system_id":"levelo_inurba_marseille","lat":43.31191,"lon":5.38723,"is_reserved":false,"is_disabled":false,"rental_uris":{"android":"levelo://app?vid=71e34b7f-e4a6-4af0-8081-3777c807463c","ios":"levelo://app?vid=71e34b7f-e4a6-4af0-8081-3777c807463c"},"vehicle_type_id":"4","last_reported":1731611197,"current_range_meters":30800,"station_id":"ce4bgv12rcd13ifvqcp0","pricing_plan_id":"cebpf4jnsgd1na2vs0mg"},{"bike_id":"b1620d73-062d-46ba-beb0-cce3724d8fbc","system_id":"levelo_inurba_marseille","lat":43.28865,"lon":5.358404,"is_reserved":false,"is_disabled":false,"rental_uris":{"android":"levelo://app?vid=b1620d73-062d-46ba-beb0-cce3724d8fbc","ios":"levelo://app?vid=b1620d73-062d-46ba-beb0-cce3724d8fbc"},"vehicle_type_id":"4","last_reported":1731611197,"current_range_meters":39200,"station_id":"ce4bhb12rcd13ifvqem0","pricing_plan_id":"cebpf4jnsgd1na2vs0mg"},{"bike_id":"71c5d33b-07b4-4d75-bb1c-cc67133ec6db","system_id":"levelo_inurba_marseille","lat":43.28457,"lon":5.35884,"is_reserved":false,"is_disabled":false,"rental_uris":{"android":"levelo://app?vid=71c5d33b-07b4-4d75-bb1c-cc67133ec6db","ios":"levelo://app?vid=71c5d33b-07b4-4d75-bb1c-cc67133ec6db"},"vehicle_type_id":"4","last_reported":1731611197,"current_range_meters":15200,"station_id":"ce4bhah2rcd13ifvqei0","pricing_plan_id":"cebpf4jnsgd1na2vs0mg"},{"bike_id":"73f91252-d26f-428a-8db9-35a4079bdc89","system_id":"levelo_inurba_marseille","lat":43.31697,"lon":5.37766,"is_reserved":false,"is_disabled":false,"rental_uris":{"android":"levelo://app?vid=73f91252-d26f-428a-8db9-35a4079bdc89","ios":"levelo://app?vid=73f91252-d26f-428a-8db9-35a4079bdc89"},"vehicle_type_id":"4","last_reported":1731611197,"current_range_meters":18000,"station_id":"ce4bgth2rcd13ifvqch0","pricing_plan_id":"cebpf4jnsgd1na2vs0mg"},{"bike_id":"3b680de5-1519-4ff1-9a8e-e74903f0c58b","system_id":"levelo_inurba_marseille","lat":43.28466,"lon":5.3589,"is_reserved":false,"is_disabled":false,"rental_uris":{"android":"levelo://app?vid=3b680de5-1519-4ff1-9a8e-e74903f0c58b","ios":"levelo://app?vid=3b680de5-1519-4ff1-9a8e-e74903f0c58b"},"vehicle_type_id":"4","last_reported":1731611197,"current_range_meters":16000,"station_id":"ce4bhah2rcd13ifvqei0","pricing_plan_id":"cebpf4jnsgd1na2vs0mg"},{"bike_id":"2374134c-ab81-406a-909e-c611648f7aef","system_id":"levelo_inurba_marseille","lat":43.32292,"lon":5.38277,"is_reserved":false,"is_disabled":false,"rental_uris":{"android":"levelo://app?vid=2374134c-ab81-406a-909e-c611648f7aef","ios":"levelo://app?vid=2374134c-ab81-406a-909e-c611648f7aef"},"vehicle_type_id":"4","last_reported":1731611197,"current_range_meters":38800,"station_id":"ce4bhr12rcd13ifvqhqg","pricing_plan_id":"cebpf4jnsgd1na2vs0mg"},{"bike_id":"e2d18189-9bbb-4d29-a931-9024d54d345c","system_id":"levelo_inurba_marseille","lat":43.28668,"lon":5.38677,"is_reserved":false,"is_disabled":false,"rental_uris":{"android":"levelo://app?vid=e2d18189-9bbb-4d29-a931-9024d54d345c","ios":"levelo://app?vid=e2d18189-9bbb-4d29-a931-9024d54d345c"},"vehicle_type_id":"4","last_reported":1731611197,"current_range_meters":26800,"station_id":"ce4bh492rcd13ifvqdug","pricing_plan_id":"cebpf4jnsgd1na2vs0mg"},{"bike_id":"e43f30db-eac4-444e-97a3-d723978f1748","system_id":"levelo_inurba_marseille","lat":43.29819,"lon":5.42664,"is_reserved":false,"is_disabled":false,"rental_uris":{"android":"levelo://app?vid=e43f30db-eac4-444e-97a3-d723978f1748","ios":"levelo://app?vid=e43f30db-eac4-444e-97a3-d723978f1748"},"vehicle_type_id":"4","last_reported":1731611197,"current_range_meters":28000,"station_id":"","pricing_plan_id":"cebpf4jnsgd1na2vs0mg"},{"bike_id":"63bc52f1-6b35-40c4-a995-cf9957f9dcce","system_id":"levelo_inurba_marseille","lat":43.27955,"lon":5.41058,"is_reserved":false,"is_disabled":false,"rental_uris":{"android":"levelo://app?vid=63bc52f1-6b35-40c4-a995-cf9957f9dcce","ios":"levelo://app?vid=63bc52f1-6b35-40c4-a995-cf9957f9dcce"},"vehicle_type_id":"4","last_reported":1731611197,"current_range_meters":23200,"station_id":"ce4bhnp2rcd13ifvqh0g","pricing_plan_id":"cebpf4jnsgd1na2vs0mg"},{"bike_id":"d2b11308-9c69-4fb9-bb01-3341e935925b","system_id":"levelo_inurba_marseille","lat":43.28101,"lon":5.37838,"is_reserved":false,"is_disabled":false,"rental_uris":{"android":"levelo://app?vid=d2b11308-9c69-4fb9-bb01-3341e935925b","ios":"levelo://app?vid=d2b11308-9c69-4fb9-bb01-3341e935925b"},"vehicle_type_id":"4","last_reported":1731611197,"current_range_meters":36000,"station_id":"ce4bha12rcd13ifvqee0","pricing_plan_id":"cebpf4jnsgd1na2vs0mg"},{"bike_id":"49e9ca98-91a6-4610-8b49-15f92d4a95c1","system_id":"levelo_inurba_marseille","lat":43.31121,"lon":5.37761,"is_reserved":false,"is_disabled":false,"rental_uris":{"android":"levelo://app?vid=49e9ca98-91a6-4610-8b49-15f92d4a95c1","ios":"levelo://app?vid=49e9ca98-91a6-4610-8b49-15f92d4a95c1"},"vehicle_type_id":"4","last_reported":1731611197,"current_range_meters":28400,"station_id":"ce4bgt92rcd13ifvqcg0","pricing_plan_id":"cebpf4jnsgd1na2vs0mg"},{"bike_id":"fe7d3ec4-e40f-4e62-9b1b-a6351890300e","system_id":"levelo_inurba_marseille","lat":43.31185,"lon":5.387195,"is_reserved":false,"is_disabled":false,"rental_uris":{"android":"levelo://app?vid=fe7d3ec4-e40f-4e62-9b1b-a6351890300e","ios":"levelo://app?vid=fe7d3ec4-e40f-4e62-9b1b-a6351890300e"},"vehicle_type_id":"4","last_reported":1731611197,"current_range_meters":38800,"station_id":"ce4bgv12rcd13ifvqcp0","pricing_plan_id":"cebpf4jnsgd1na2vs0mg"},{"bike_id":"908aed85-947c-41b5-96bf-a584e4c36ca5","system_id":"levelo_inurba_marseille","lat":43.32345,"lon":5.40626,"is_reserved":false,"is_disabled":false,"rental_uris":{"android":"levelo://app?vid=908aed85-947c-41b5-96bf-a584e4c36ca5","ios":"levelo://app?vid=908aed85-947c-41b5-96bf-a584e4c36ca5"},"vehicle_type_id":"4","last_reported":1731611197,"current_range_meters":38800,"station_id":"ce4bhq92rcd13ifvqhjg","pricing_plan_id":"cebpf4jnsgd1na2vs0mg"},{"bike_id":"98a47955-7e90-4542-bf2a-cafef686f4d6","system_id":"levelo_inurba_marseille","lat":43.29252,"lon":5.40898,"is_reserved":false,"is_disabled":false,"rental_uris":{"android":"levelo://app?vid=98a47955-7e90-4542-bf2a-cafef686f4d6","ios":"levelo://app?vid=98a47955-7e90-4542-bf2a-cafef686f4d6"},"vehicle_type_id":"4","last_reported":1731611197,"current_range_meters":39200,"station_id":"ce4bh192rcd13ifvqdc0","pricing_plan_id":"cebpf4jnsgd1na2vs0mg"},{"bike_id":"bb522734-48ce-4de6-8330-a5f77169e2f2","system_id":"levelo_inurba_marseille","lat":43.29903,"lon":5.43663,"is_reserved":false,"is_disabled":false,"rental_uris":{"android":"levelo://app?vid=bb522734-48ce-4de6-8330-a5f77169e2f2","ios":"levelo://app?vid=bb522734-48ce-4de6-8330-a5f77169e2f2"},"vehicle_type_id":"4","last_reported":1731611197,"current_range_meters":16000,"station_id":"ce4bhpp2rcd13ifvqhfg","pricing_plan_id":"cebpf4jnsgd1na2vs0mg"},{"bike_id":"9f571489-c82e-4abc-ac34-4a89f0cac6e2","system_id":"levelo_inurba_marseille","lat":43.270687,"lon":5.422816,"is_reserved":false,"is_disabled":false,"rental_uris":{"android":"levelo://app?vid=9f571489-c82e-4abc-ac34-4a89f0cac6e2","ios":"levelo://app?vid=9f571489-c82e-4abc-ac34-4a89f0cac6e2"},"vehicle_type_id":"4","last_reported":1731611197,"current_range_meters":24800,"station_id":"ce4bhk92rcd13ifvqgb0","pricing_plan_id":"cebpf4jnsgd1na2vs0mg"},{"bike_id":"0cad5a7d-5aed-4ec1-b410-637b567df6b8","system_id":"levelo_inurba_marseille","lat":43.33722,"lon":5.3918,"is_reserved":false,"is_disabled":false,"rental_uris":{"android":"levelo://app?vid=0cad5a7d-5aed-4ec1-b410-637b567df6b8","ios":"levelo://app?vid=0cad5a7d-5aed-4ec1-b410-637b567df6b8"},"vehicle_type_id":"4","last_reported":1731611197,"current_range_meters":37600,"station_id":"ce4bhr92rcd13ifvqhsg","pricing_plan_id":"cebpf4jnsgd1na2vs0mg"},{"bike_id":"e7ed84fe-9f91-4774-93ad-5603d334167c","system_id":"levelo_inurba_marseille","lat":43.24077,"lon":5.37755,"is_reserved":false,"is_disabled":false,"rental_uris":{"android":"levelo://app?vid=e7ed84fe-9f91-4774-93ad-5603d334167c","ios":"levelo://app?vid=e7ed84fe-9f91-4774-93ad-5603d334167c"},"vehicle_type_id":"4","last_reported":1731611197,"current_range_meters":12800,"station_id":"ce4bhnp2rcd13ifvqgvg","pricing_plan_id":"cebpf4jnsgd1na2vs0mg"},{"bike_id":"b5d34788-62de-4663-a32c-5466ee4f8ae7","system_id":"levelo_inurba_marseille","lat":43.30132,"lon":5.39869,"is_reserved":false,"is_disabled":false,"rental_uris":{"android":"levelo://app?vid=b5d34788-62de-4663-a32c-5466ee4f8ae7","ios":"levelo://app?vid=b5d34788-62de-4663-a32c-5466ee4f8ae7"},"vehicle_type_id":"4","last_reported":1731611197,"current_range_meters":38400,"station_id":"ce4bh0h2rcd13ifvqd40","pricing_plan_id":"cebpf4jnsgd1na2vs0mg"},