{"last_updated":1732086590,"ttl":60,"version":"2.2","data":{"bikes":[{"bike_id":"cacde89c-5086-4b87-8bcd-a2b586b3345d","system_id":"levelo_inurba_marseille","lat":43.30153,"lon":5.38095,"is_reserved":false,"is_disabled":true,"rental_uris":{"android":"levelo://app?vid=cacde89c-5086-4b87-8bcd-a2b586b3345d","ios":"levelo://app?vid=cacde89c-5086-4b87-8bcd-a2b586b3345d"},"vehicle_type_id":"4","last_reported":1732086591,"current_range_meters":36800,"station_id":"ce4bgjp2rcd13ifvqbh0","pricing_plan_id":"cebpf4jnsgd1na2vs0mg"},{"bike_id":"8b7da604-c283-4295-89bb-908112332452","system_id":"levelo_inurba_marseille","lat":43.27424,"lon":5.3942,"is_reserved":false,"is_disabled":false,"rental_uris":{"android":"levelo://app?vid=8b7da604-c283-4295-89bb-908112332452","ios":"levelo://app?vid=8b7da604-c283-4295-89bb-908112332452"},"vehicle_type_id":"4","last_reported":1732086591,"current_range_meters":8400,"station_id":"ce4bhdp2rcd13ifvqf20","pricing_plan_id":"cebpf4jnsgd1na2vs0mg"},{"bike_id":"b21da081-9879-40dd-84c5-23f42e6f5e53","system_id":"levelo_inurba_marseille","lat":43.27949,"lon":5.41055,"is_reserved":false,"is_disabled":true,"rental_uris":{"android":"levelo://app?vid=b21da081-9879-40dd-84c5-23f42e6f5e53","ios":"levelo://app?vid=b21da081-9879-40dd-84c5-23f42e6f5e53"},"vehicle_type_id":"4","last_reported":1732086591,"current_range_meters":14800,"station_id":"ce4bhnp2rcd13ifvqh0g","pricing_plan_id":"cebpf4jnsgd1na2vs0mg"},{"bike_id":"bb1eed59-fe71-44a5-981f-7bee5ca47d66","system_id":"levelo_inurba_marseille","lat":43.258531,"lon":5.399099,"is_reserved":false,"is_disabled":false,"rental_uris":{"android":"levelo://app?vid=bb1eed59-fe71-44a5-981f-7bee5ca47d66","ios":"levelo://app?vid=bb1eed59-fe71-44a5-981f-7bee5ca47d66"},"vehicle_type_id":"4","last_reported":1732086591,"current_range_meters":38800,"station_id":"ce4bhl92rcd13ifvqghg","pricing_plan_id":"cebpf4jnsgd1na2vs0mg"},{"bike_id":"81d34042-a037-42c7-9436-1187b5706698","system_id":"levelo_inurba_marseille","lat":43.31011,"lon":5.40298,"is_reserved":false,"is_disabled":false,"rental_uris":{"android":"levelo://app?vid=81d34042-a037-42c7-9436-1187b5706698","ios":"levelo://app?vid=81d34042-a037-42c7-9436-1187b5706698"},"vehicle_type_id":"4","last_reported":1732086591,"current_range_meters":18800,"station_id":"","pricing_plan_id":"cebpf4jnsgd1na2vs0mg"},{"bike_id":"368c4381-277a-4446-b5b2-866eb62faca7","system_id":"levelo_inurba_marseille","lat":43.280324,"lon":5.36969,"is_reserved":false,"is_disabled":false,"rental_uris":{"android":"levelo://app?vid=368c4381-277a-4446-b5b2-866eb62faca7","ios":"levelo://app?vid=368c4381-277a-4446-b5b2-866eb62faca7"},"vehicle_type_id":"4","last_reported":1732086591,"current_range_meters":39200,"station_id":"ce4bha12rcd13ifvqef0","pricing_plan_id":"cebpf4jnsgd1na2vs0mg"},{"bike_id":"8a956826-6eb4-4276-aaa6-12bf96ca807c","system_id":"levelo_inurba_marseille","lat":43.2894,"lon":5.36635,"is_reserved":false,"is_disabled":false,"rental_uris":{"android":"levelo://app?vid=8a956826-6eb4-4276-aaa6-12bf96ca807c","ios":"levelo://app?vid=8a956826-6eb4-4276-aaa6-12bf96ca807c"},"vehicle_type_id":"4","last_reported":1732086591,"current_range_meters":34800,"station_id":"ce4bhap2rcd13ifvqek0","pricing_plan_id":"cebpf4jnsgd1na2vs0mg"},{"bike_id":"df89f28d-09ef-4d95-998a-b310ab3afea0","system_id":"levelo_inurba_marseille","lat":43.330238,"lon":5.390499,"is_reserved":false,"is_disabled":false,"rental_uris":{"android":"levelo://app?vid=df89f28d-09ef-4d95-998a-b310ab3afea0","ios":"levelo://app?vid=df89f28d-09ef-4d95-998a-b310ab3afea0"},"vehicle_type_id":"4","last_reported":1732086591,"current_range_meters":8800,"station_id":"ce4bhr92rcd13ifvqhrg","pricing_plan_id":"cebpf4jnsgd1na2vs0mg"},{"bike_id":"34536285-e661-4b8a-98d8-895763557ee9","system_id":"levelo_inurba_marseille","lat":43.2907,"lon":5.37181,"is_reserved":false,"is_disabled":false,"rental_uris":{"android":"levelo://app?vid=34536285-e661-4b8a-98d8-895763557ee9","ios":"levelo://app?vid=34536285-e661-4b8a-98d8-895763557ee9"},"vehicle_type_id":"4","last_reported":1732086591,"current_range_meters":22800,"station_id":"ce4bh5p2rcd13ifvqe4g","pricing_plan_id":"cebpf4jnsgd1na2vs0mg"},{"bike_id":"3fc2a91c-eed2-4174-8396-3a1de2e8318d","system_id":"levelo_inurba_marseille","lat":43.30457,"lon":5.37906,"is_reserved":false,"is_disabled":false,"rental_uris":{"android":"levelo://app?vid=3fc2a91c-eed2-4174-8396-3a1de2e8318d","ios":"levelo://app?vid=3fc2a91c-eed2-4174-8396-3a1de2e8318d"},"vehicle_type_id":"4","last_reported":1732086591,"current_range_meters":24000,"station_id":"ce4bgup2rcd13ifvqcn0","pricing_plan_id":"cebpf4jnsgd1na2vs0mg"},{"bike_id":"122b8c9f-821b-4320-8f89-f1c7267f8d64","system_id":"levelo_inurba_marseille","lat":43.3252,"lon":5.41434,"is_reserved":false,"is_disabled":false,"rental_uris":{"android":"levelo://app?vid=122b8c9f-821b-4320-8f89-f1c7267f8d64","ios":"levelo://app?vid=122b8c9f-821b-4320-8f89-f1c7267f8d64"},"vehicle_type_id":"4","last_reported":1732086591,"current_range_meters":38800,"station_id":"ce4bhq12rcd13ifvqhhg","pricing_plan_id":"cebpf4jnsgd1na2vs0mg"},{"bike_id":"3def3bdd-dfbe-4f1e-b99c-53b07c34951c","system_id":"levelo_inurba_marseille","lat":43.29814,"lon":5.38101,"is_reserved":false,"is_disabled":false,"rental_uris":{"android":"levelo://app?vid=3def3bdd-dfbe-4f1e-b99c-53b07c34951c","ios":"levelo://app?vid=3def3bdd-dfbe-4f1e-b99c-53b07c34951c"},"vehicle_type_id":"4","last_reported":1732086591,"current_range_meters":36000,"station_id":"ce4bgip2rcd13ifvqbb0","pricing_plan_id":"cebpf4jnsgd1na2vs0mg"},{"bike_id":"0ea93326-5034-4b5e-97b8-0a33b4d38611","system_id":"levelo_inurba_marseille","lat":43.301554,"lon":5.380977,"is_reserved":false,"is_disabled":true,"rental_uris":{"android":"levelo://app?vid=0ea93326-5034-4b5e-97b8-0a33b4d38611","ios":"levelo://app?vid=0ea93326-5034-4b5e-97b8-0a33b4d38611"},"vehicle_type_id":"4","last_reported":1732086591,"current_range_meters":0,"station_id":"ce4bgjp2rcd13ifvqbh0","pricing_plan_id":"cebpf4jnsgd1na2vs0mg"},{"bike_id":"8ba3c856-1684-4090-8782-f0f1bad00a99","system_id":"levelo_inurba_marseille","lat":43.29789,"lon":5.38111,"is_reserved":false,"is_disabled":false,"rental_uris":{"android":"levelo://app?vid=8ba3c856-1684-4090-8782-f0f1bad00a99","ios":"levelo://app?vid=8ba3c856-1684-4090-8782-f0f1bad00a99"},"vehicle_type_id":"4","last_reported":1732086591,"current_range_meters":37600,"station_id":"ce4bgip2rcd13ifvqbb0","pricing_plan_id":"cebpf4jnsgd1na2vs0mg"},{"bike_id":"2ebc184b-6538-4e73-a732-c7d5673d9b3c","system_id":"levelo_inurba_marseille","lat":43.24073,"lon":5.37756,"is_reserved":false,"is_disabled":false,"rental_uris":{"android":"levelo://app?vid=2ebc184b-6538-4e73-a732-c7d5673d9b3c","ios":"levelo://app?vid=2ebc184b-6538-4e73-a732-c7d5673d9b3c"},"vehicle_type_id":"4","last_reported":1732086591,"current_range_meters":2800,"station_id":"ce4bhnp2rcd13ifvqgvg","pricing_plan_id":"cebpf4jnsgd1na2vs0mg"},{"bike_id":"f4e3191c-8a19-4224-9fbc-f955b6c4f212","system_id":"levelo_inurba_marseille","lat":43.2994,"lon":5.3653,"is_reserved":false,"is_disabled":false,"rental_uris":{"android":"levelo://app?vid=f4e3191c-8a19-4224-9fbc-f955b6c4f212","ios":"levelo://app?vid=f4e3191c-8a19-4224-9fbc-f955b6c4f212"},"vehicle_type_id":"4","last_reported":1732086591,"current_range_meters":32800,"station_id":"ce4bgm92rcd13ifvqbr0","pricing_plan_id":"cebpf4jnsgd1na2vs0mg"},{"bike_id":"1139b44c-141f-4492-8578-07982e493cef","system_id":"levelo_inurba_marseille","lat":43.30153,"lon":5.38084,"is_reserved":false,"is_disabled":false,"rental_uris":{"android":"levelo://app?vid=1139b44c-141f-4492-8578-07982e493cef","ios":"levelo://app?vid=1139b44c-141f-4492-8578-07982e493cef"},"vehicle_type_id":"4","last_reported":1732086591,"current_range_meters":8000,"station_id":"ce4bgjp2rcd13ifvqbh0","pricing_plan_id":"cebpf4jnsgd1na2vs0mg"},{"bike_id":"cfb10342-63b1-4773-818d-39a1742aa961","system_id":"levelo_inurba_marseille","lat":43.30592,"lon":5.39353,"is_reserved":false,"is_disabled":false,"rental_uris":{"android":"levelo://app?vid=cfb10342-63b1-4773-818d-39a1742aa961","ios":"levelo://app?vid=cfb10342-63b1-4773-818d-39a1742aa961"},"vehicle_type_id":"4","last_reported":1732086591,"current_range_meters":16800,"station_id":"ce4bh0p2rcd13ifvqd80","pricing_plan_id":"cebpf4jnsgd1na2vs0mg"},{"bike_id":"aa8d5a2e-c43a-42d1-9619-c0eb2a43bd46","system_id":"levelo_inurba_marseille","lat":43.30458,"lon":5.37905,"is_reserved":false,"is_disabled":false,"rental_uris":{"android":"levelo://app?vid=aa8d5a2e-c43a-42d1-9619-c0eb2a43bd46","ios":"levelo://app?vid=aa8d5a2e-c43a-42d1-9619-c0eb2a43bd46"},"vehicle_type_id":"4","last_reported":1732086591,"current_range_meters":38400,"station_id":"ce4bgup2rcd13ifvqcn0","pricing_plan_id":"cebpf4jnsgd1na2vs0mg"},{"bike_id":"dbe74249-58cd-403e-a63d-5e0a1c17b552","system_id":"levelo_inurba_marseille","lat":43.24093,"lon":5.37745,"is_reserved":false,"is_disabled":true,"rental_uris":{"android":"levelo://app?vid=dbe74249-58cd-403e-a63d-5e0a1c17b552","ios":"levelo://app?vid=dbe74249-58cd-403e-a63d-5e0a1c17b552"},"vehicle_type_id":"4","last_reported":1732086591,"current_range_meters":0,"station_id":"","pricing_plan_id":"cebpf4jnsgd1na2vs0mg"},{"bike_id":"01a9661d-db02-47c1-95ee-65b123e09ce8","system_id":"levelo_inurba_marseille","lat":43.28669,"lon":5.36354,"is_reserved":false,"is_disabled":false,"rental_uris":{"android":"levelo://app?vid=01a9661d-db02-47c1-95ee-65b123e09ce8","ios":"levelo://app?vid=01a9661d-db02-47c1-95ee-65b123e09ce8"},"vehicle_type_id":"4","last_reported":1732086591,"current_range_meters":36400,"station_id":"ce4bhah2rcd13ifvqej0","pricing_plan_id":"cebpf4jnsgd1na2vs0mg"},{"bike_id":"5c3000a0-a190-4007-a723-aa2707fd1ce3","system_id":"levelo_inurba_marseille","lat":43.22937,"lon":5.35395,"is_reserved":false,"is_disabled":false,"rental_uris":{"android":"levelo://app?vid=5c3000a0-a190-4007-a723-aa2707fd1ce3","ios":"levelo://app?vid=5c3000a0-a190-4007-a723-aa2707fd1ce3"},"vehicle_type_id":"4","last_reported":1732086591,"current_range_meters":38800,"station_id":"cpo3532slgdg3j2ikp40","pricing_plan_id":"cebpf4jnsgd1na2vs0mg"},{"bike_id":"ed2082b4-7132-4717-96e4-72bf267e4a42","system_id":"levelo_inurba_marseille","lat":43.30307,"lon":5.392055,"is_reserved":false,"is_disabled":true,"rental_uris":{"android":"levelo://app?vid=ed2082b4-7132-4717-96e4-72bf267e4a42","ios":"levelo://app?vid=ed2082b4-7132-4717-96e4-72bf267e4a42"},"vehicle_type_id":"4","last_reported":1732086591,"current_range_meters":7200,"station_id":"ce4bgkh2rcd13ifvqbk0","pricing_plan_id":"cebpf4jnsgd1na2vs0mg"},{"bike_id":"0d7c5165-0868-459b-9d50-e69f56dc179b","system_id":"levelo_inurba_marseille","lat":43.30603,"lon":5.39362,"is_reserved":false,"is_disabled":false,"rental_uris":{"android":"levelo://app?vid=0d7c5165-0868-459b-9d50-e69f56dc179b","ios":"levelo://app?vid=0d7c5165-0868-459b-9d50-e69f56dc179b"},"vehicle_type_id":"4","last_reported":1732086591,"current_range_meters":36800,"station_id":"ce4bh0p2rcd13ifvqd80","pricing_plan_id":"cebpf4jnsgd1na2vs0mg"},{"bike_id":"07dfa307-72b1-4fd3-aaec-cc158bba164b","system_id":"levelo_inurba_marseille","lat":43.309145,"lon":5.368495,"is_reserved":false,"is_disabled":false,"rental_uris":{"android":"levelo://app?vid=07dfa307-72b1-4fd3-aaec-cc158bba164b","ios":"levelo://app?vid=07dfa307-72b1-4fd3-aaec-cc158bba164b"},"vehicle_type_id":"4","last_reported":1732086591,"current_range_meters":38800,"station_id":"ce4bgn92rcd13ifvqbvg","pricing_plan_id":"cebpf4jnsgd1na2vs0mg"},{"bike_id":"d59e6935-9e63-4ce1-ad51-92e88ad6eb3e","system_id":"levelo_inurba_marseille","lat":43.24082,"lon":5.37755,"is_reserved":false,"is_disabled":false,"rental_uris":{"android":"levelo://app?vid=d59e6935-9e63-4ce1-ad51-92e88ad6eb3e","ios":"levelo://app?vid=d59e6935-9e63-4ce1-ad51-92e88ad6eb3e"},"vehicle_type_id":"4","last_reported":1732086591,"current_range_meters":38000,"station_id":"ce4bhnp2rcd13ifvqgvg","pricing_plan_id":"cebpf4jnsgd1na2vs0mg"},{"bike_id":"12b1e5ed-6fe3-452d-a7bb-1572617bbee2","system_id":"levelo_inurba_marseille","lat":43.27983,"lon":5.41662,"is_reserved":false,"is_disabled":false,"rental_uris":{"android":"levelo://app?vid=12b1e5ed-6fe3-452d-a7bb-1572617bbee2","ios":"levelo://app?vid=12b1e5ed-6fe3-452d-a7bb-1572617bbee2"},"vehicle_type_id":"4","last_reported":1732086591,"current_range_meters":38400,"station_id":"ce4bho12rcd13ifvqh1g","pricing_plan_id":"cebpf4jnsgd1na2vs0mg"},{"bike_id":"f852870e-2af8-4fbb-b3cc-622eeb115e11","system_id":"levelo_inurba_marseille","lat":43.29,"lon":5.37581,"is_reserved":false,"is_disabled":false,"rental_uris":{"android":"levelo://app?vid=f852870e-2af8-4fbb-b3cc-622eeb115e11","ios":"levelo://app?vid=f852870e-2af8-4fbb-b3cc-622eeb115e11"},"vehicle_type_id":"4","last_reported":1732086591,"current_range_meters":35200,"station_id":"ce4bh692rcd13ifvqe90","pricing_plan_id":"cebpf4jnsgd1na2vs0mg"},{"bike_id":"5f5ee5ad-4ea9-483e-967a-c911bf65cb37","system_id":"levelo_inurba_marseille","lat":43.28928,"lon":5.36399,"is_reserved":false,"is_disabled":false,"rental_uris":{"android":"levelo://app?vid=5f5ee5ad-4ea9-483e-967a-c911bf65cb37","ios":"levelo://app?vid=5f5ee5ad-4ea9-483e-967a-c911bf65cb37"},"vehicle_type_id":"4","last_reported":1732086591,"current_range_meters":21600,"station_id":"ce4bhc92rcd13ifvqetg","pricing_plan_id":"cebpf4jnsgd1na2vs0mg"},{"bike_id":"db000a71-a994-4c6e-899e-91d56c56bd5e","system_id":"levelo_inurba_marseille","lat":43.2902,"lon":5.38134,"is_reserved":false,"is_disabled":false,"rental_uris":{"android":"levelo://app?vid=db000a71-a994-4c6e-899e-91d56c56bd5e","ios":"levelo://app?vid=db000a71-a994-4c6e-899e-91d56c56bd5e"},"vehicle_type_id":"4","last_reported":1732086591,"current_range_meters":18800,"station_id":"ce4bh4p2rcd13ifvqe1g","pricing_plan_id":"cebpf4jnsgd1na2vs0mg"},{"bike_id":"a1268cd6-3fef-4d8d-a3c3-f2c3e15b42cc","system_id":"levelo_inurba_marseille","lat":43.29841,"lon":5.36269,"is_reserved":false,"is_disabled":false,"rental_uris":{"android":"levelo://app?vid=a1268cd6-3fef-4d8d-a3c3-f2c3e15b42cc","ios":"levelo://app?vid=a1268cd6-3fef-4d8d-a3c3-f2c3e15b42cc"},"vehicle_type_id":"4","last_reported":1732086591,"current_range_meters":23200,"station_id":"ce4bgpp2rcd13ifvqc3g","pricing_plan_id":"cebpf4jnsgd1na2vs0mg"},{"bike_id":"250d0df0-ae56-479c-a027-3a162490f482","system_id":"levelo_inurba_marseille","lat":43.26953,"lon":5.38634,"is_reserved":false,"is_disabled":false,"rental_uris":{"android":"levelo://app?vid=250d0df0-ae56-479c-a027-3a162490f482","ios":"levelo://app?vid=250d0df0-ae56-479c-a027-3a162490f482"},"vehicle_type_id":"4","last_reported":1732086591,"current_range_meters":18000,"station_id":"ce4bhh92rcd13ifvqfh0","pricing_plan_id":"cebpf4jnsgd1na2vs0mg"},{"bike_id":"85308c21-24d3-4ff7-9073-790d239a9901","system_id":"levelo_inurba_marseille","lat":43.31072,"lon":5.38342,"is_reserved":false,"is_disabled":true,"rental_uris":{"android":"levelo://app?vid=85308c21-24d3-4ff7-9073-790d239a9901","ios":"levelo://app?vid=85308c21-24d3-4ff7-9073-790d239a9901"},"vehicle_type_id":"4","last_reported":1732086591,"current_range_meters":32800,"station_id":"ce4bgv92rcd13ifvqcr0","pricing_plan_id":"cebpf4jnsgd1na2vs0mg"},{"bike_id":"de208543-9b1f-469d-95ed-a601b777cb16","system_id":"levelo_inurba_marseille","lat":43.24171,"lon":5.39724,"is_reserved":false,"is_disabled":true,"rental_uris":{"android":"levelo://app?vid=de208543-9b1f-469d-95ed-a601b777cb16","ios":"levelo://app?vid=de208543-9b1f-469d-95ed-a601b777cb16"},"vehicle_type_id":"4","last_reported":1732086591,"current_range_meters":0,"station_id":"ce4bhn12rcd13ifvqgpg","pricing_plan_id":"cebpf4jnsgd1na2vs0mg"},{"bike_id":"20b67d58-a74d-4380-8a51-7f0e5f0ca698","system_id":"levelo_inurba_marseille","lat":43.29025,"lon":5.38626,"is_reserved":false,"is_disabled":false,"rental_uris":{"android":"levelo://app?vid=20b67d58-a74d-4380-8a51-7f0e5f0ca698","ios":"levelo://app?vid=20b67d58-a74d-4380-8a51-7f0e5f0ca698"},"vehicle_type_id":"4","last_reported":1732086591,"current_range_meters":21600,"station_id":"ce4bh4p2rcd13ifvqe0g","pricing_plan_id":"cebpf4jnsgd1na2vs0mg"},{"bike_id":"772ce743-8958-4198-b3ba-b6e0d96fa296","system_id":"levelo_inurba_marseille","lat":43.24166,"lon":5.36403,"is_reserved":false,"is_disabled":false,"rental_uris":{"android":"levelo://app?vid=772ce743-8958-4198-b3ba-b6e0d96fa296","ios":"levelo://app?vid=772ce743-8958-4198-b3ba-b6e0d96fa296"},"vehicle_type_id":"4","last_reported":1732086591,"current_range_meters":15200,"station_id":"cpo36qri1sfpv3e86is0","pricing_plan_id":"cebpf4jnsgd1na2vs0mg"},{"bike_id":"2b5d7a4d-5b25-4b80-84d9-e10589e3033b","system_id":"levelo_inurba_marseille","lat":43.239702,"lon":5.366244,"is_reserved":false,"is_disabled":true,"rental_uris":{"android":"levelo://app?vid=2b5d7a4d-5b25-4b80-84d9-e10589e3033b","ios":"levelo://app?vid=2b5d7a4d-5b25-4b80-84d9-e10589e3033b"},"vehicle_type_id":"4","last_reported":1732086591,"current_range_meters":28400,"station_id":"ce4bhi12rcd13ifvqfp0","pricing_plan_id":"cebpf4jnsgd1na2vs0mg"},{"bike_id":"a2b1274d-7fd2-4045-9cd0-ab9e0ef06dc1","system_id":"levelo_inurba_marseille","lat":43.30464,"lon":5.37905,"is_reserved":false,"is_disabled":false,"rental_uris":{"android":"levelo://app?vid=a2b1274d-7fd2-4045-9cd0-ab9e0ef06dc1","ios":"levelo://app?vid=a2b1274d-7fd2-4045-9cd0-ab9e0ef06dc1"},"vehicle_type_id":"4","last_reported":1732086591,"current_range_meters":19600,"station_id":"ce4bgup2rcd13ifvqcn0","pricing_plan_id":"cebpf4jnsgd1na2vs0mg"},{"bike_id":"ccf5eb11-17c1-4eb7-8e26-b241115b02a8","system_id":"levelo_inurba_marseille","lat":43.29257,"lon":5.40907,"is_reserved":false,"is_disabled":false,"rental_uris":{"android":"levelo://app?vid=ccf5eb11-17c1-4eb7-8e26-b241115b02a8","ios":"levelo://app?vid=ccf5eb11-17c1-4eb7-8e26-b241115b02a8"},"vehicle_type_id":"4","last_reported":1732086591,"current_range_meters":38400,"station_id":"ce4bh192rcd13ifvqdc0","pricing_plan_id":"cebpf4jnsgd1na2vs0mg"},{"bike_id":"e3511c0c-eb2b-4100-bb2d-c5ebcd644bea","system_id":"levelo_inurba_marseille","lat":43.23961,"lon":5.36627,"is_reserved":false,"is_disabled":true,"rental_uris":{"android":"levelo://app?vid=e3511c0c-eb2b-4100-bb2d-c5ebcd644bea","ios":"levelo://app?vid=e3511c0c-eb2b-4100-bb2d-c5ebcd644bea"},"vehicle_type_id":"4","last_reported":1732086591,"current_range_meters":31200,"station_id":"ce4bhi12rcd13ifvqfp0","pricing_plan_id":"cebpf4jnsgd1na2vs0mg"},{"bike_id":"7dc2540e-5c15-49cc-843d-b22dafd2ded0","system_id":"levelo_inurba_marseille","lat":43.33763,"lon":5.37417,"is_reserved":false,"is_disabled":false,"rental_uris":{"android":"levelo://app?vid=7dc2540e-5c15-49cc-843d-b22dafd2ded0","ios":"levelo://app?vid=7dc2540e-5c15-49cc-843d-b22dafd2ded0"},"vehicle_type_id":"4","last_reported":1732086591,"current_range_meters":26800,"station_id":"","pricing_plan_id":"cebpf4jnsgd1na2vs0mg"},{"bike_id":"5917a06d-1a89-42ee-9c96-70b3e49f2520","system_id":"levelo_inurba_marseille","lat":43.31693,"lon":5.40464,"is_reserved":false,"is_disabled":true,"rental_uris":{"android":"levelo://app?vid=5917a06d-1a89-42ee-9c96-70b3e49f2520","ios":"levelo://app?vid=5917a06d-1a89-42ee-9c96-70b3e49f2520"},"vehicle_type_id":"4","last_reported":1732086591,"current_range_meters":8000,"station_id":"ce4bh012rcd13ifvqd00","pricing_plan_id":"cebpf4jnsgd1na2vs0mg"},{"bike_id":"4edf36fb-7a3e-413e-8afb-a9b27d50b149","system_id":"levelo_inurba_marseille","lat":43.27953,"lon":5.38708,"is_reserved":false,"is_disabled":false,"rental_uris":{"android":"levelo://app?vid=4edf36fb-7a3e-413e-8afb-a9b27d50b149","ios":"levelo://app?vid=4edf36fb-7a3e-413e-8afb-a9b27d50b149"},"vehicle_type_id":"4","last_reported":1732086591,"current_range_meters":24000,"station_id":"ce4bhg12rcd13ifvqf80","pricing_plan_id":"cebpf4jnsgd1na2vs0mg"},{"bike_id":"497454ce-e4eb-4dce-94e8-18190e4c429b","system_id":"levelo_inurba_marseille","lat":43.278194,"lon":5.407148,"is_reserved":false,"is_disabled":true,"rental_uris":{"android":"levelo://app?vid=497454ce-e4eb-4dce-94e8-18190e4c429b","ios":"levelo://app?vid=497454ce-e4eb-4dce-94e8-18190e4c429b"},"vehicle_type_id":"4","last_reported":1732086591,"current_range_meters":0,"station_id":"ce4bhnh2rcd13ifvqgtg","pricing_plan_id":"cebpf4jnsgd1na2vs0mg"},{"bike_id":"7277a754-cf86-481b-832d-086d6f92ff84","system_id":"levelo_inurba_marseille","lat":43.27558,"lon":5.38417,"is_reserved":false,"is_disabled":false,"rental_uris":{"android":"levelo://app?vid=7277a754-cf86-481b-832d-086d6f92ff84","ios":"levelo://app?vid=7277a754-cf86-481b-832d-086d6f92ff84"},"vehicle_type_id":"4","last_reported":1732086591,"current_range_meters":37600,"station_id":"ce4bhh92rcd13ifvqfi0","pricing_plan_id":"cebpf4jnsgd1na2vs0mg"},{"bike_id":"0d212d6c-669f-439d-8315-fc34b01b9177","system_id":"levelo_inurba_marseille","lat":43.273043,"lon":5.39086,"is_reserved":false,"is_disabled":false,"rental_uris":{"android":"levelo://app?vid=0d212d6c-669f-439d-8315-fc34b01b9177","ios":"levelo://app?vid=0d212d6c-669f-439d-8315-fc34b01b9177"},"vehicle_type_id":"4","last_reported":1732086591,"current_range_meters":32400,"station_id":"ce4bhgp2rcd13ifvqfe0","pricing_plan_id":"cebpf4jnsgd1na2vs0mg"},{"bike_id":"c5a6c79f-0145-4476-bc38-7729cc0095c7","system_id":"levelo_inurba_marseille","lat":43.30597,"lon":5.39356,"is_reserved":false,"is_disabled":false,"rental_uris":{"android":"levelo://app?vid=c5a6c79f-0145-4476-bc38-7729cc0095c7","ios":"levelo://app?vid=c5a6c79f-0145-4476-bc38-7729cc0095c7"},"vehicle_type_id":"4","last_reported":1732086591,"current_range_meters":14000,"station_id":"ce4bh0p2rcd13ifvqd80","pricing_plan_id":"cebpf4jnsgd1na2vs0mg"},{"bike_id":"5f07201c-bcb3-434b-a8fd-71f1088cb631","system_id":"levelo_inurba_marseille","lat":43.33725,"lon":5.39176,"is_reserved":false,"is_disabled":false,"rental_uris":{"android":"levelo://app?vid=5f07201c-bcb3-434b-a8fd-71f1088cb631","ios":"levelo://app?vid=5f07201c-bcb3-434b-a8fd-71f1088cb631"},"vehicle_type_id":"4","last_reported":1732086591,"current_range_meters":38800,"station_id":"ce4bhr92rcd13ifvqhsg","pricing_plan_id":"cebpf4jnsgd1na2vs0mg"},{"bike_id":"aaa01dc7-36a5-45b0-a5da-0e2ef9990f4e","system_id":"levelo_inurba_marseille","lat":43.24081,"lon":5.37751,"is_reserved":false,"is_disabled":false,"rental_uris":{"android":"levelo://app?vid=aaa01dc7-36a5-45b0-a5da-0e2ef9990f4e","ios":"levelo://app?vid=aaa01dc7-36a5-45b0-a5da-0e2ef9990f4e"},"vehicle_type_id":"4","last_reported":1732086591,"current_range_meters":36400,"station_id":"ce4bhnp2rcd13ifvqgvg","pricing_plan_id":"cebpf4jnsgd1na2vs0mg"},{"bike_id":"be283900-e45f-4f16-820c-6dd3961989b9","system_id":"levelo_inurba_marseille","lat":43.30784,"lon":5.37018,"is_reserved":false,"is_disabled":false,"rental_uris":{"android":"levelo://app?vid=be283900-e45f-4f16-820c-6dd3961989b9","ios":"levelo://app?vid=be283900-e45f-4f16-820c-6dd3961989b9"},"vehicle_type_id":"4","last_reported":1732086591,"current_range_meters":9200,"station_id":"","pricing_plan_id":"cebpf4jnsgd1na2vs0mg"},{"bike_id":"25073dac-1c4b-4235-88f2-ba7b09ca22ac","system_id":"levelo_inurba_marseille","lat":43.32285,"lon":5.38264,"is_reserved":false,"is_disabled":false,"rental_uris":{"android":"levelo://app?vid=25073dac-1c4b-4235-88f2-ba7b09ca22ac","ios":"levelo://app?vid=25073dac-1c4b-4235-88f2-ba7b09ca22ac"},"vehicle_type_id":"4","last_reported":1732086591,"current_range_meters":18000,"station_id":"ce4bhr12rcd13ifvqhqg","pricing_plan_id":"cebpf4jnsgd1na2vs0mg"},{"bike_id":"35e4160c-b6d4-4977-bdbd-fc66a114a680","system_id":"levelo_inurba_marseille","lat":43.29032,"lon":5.39974,"is_reserved":false,"is_disabled":false,"rental_uris":{"android":"levelo://app?vid=35e4160c-b6d4-4977-bdbd-fc66a114a680","ios":"levelo://app?vid=35e4160c-b6d4-4977-bdbd-fc66a114a680"},"vehicle_type_id":"4","last_reported":1732086591,"current_range_meters":28400,"station_id":"ce4bh392rcd13ifvqdm0","pricing_plan_id":"cebpf4jnsgd1na2vs0mg"},{"bike_id":"37f14134-d611-451c-9aaa-25a59bd49fe3","system_id":"levelo_inurba_marseille","lat":43.29871,"lon":5.39734,"is_reserved":false,"is_disabled":true,"rental_uris":{"android":"levelo://app?vid=37f14134-d611-451c-9aaa-25a59bd49fe3","ios":"levelo://app?vid=37f14134-d611-451c-9aaa-25a59bd49fe3"},"vehicle_type_id":"4","last_reported":1732086591,"current_range_meters":37600,"station_id":"ce4bh0h2rcd13ifvqd50","pricing_plan_id":"cebpf4jnsgd1na2vs0mg"},{"bike_id":"e5901910-815e-41ba-a210-9b30375d2265","system_id":"levelo_inurba_marseille","lat":43.28345,"lon":5.38099,"is_reserved":false,"is_disabled":false,"rental_uris":{"android":"levelo://app?vid=e5901910-815e-41ba-a210-9b30375d2265","ios":"levelo://app?vid=e5901910-815e-41ba-a210-9b30375d2265"},"vehicle_type_id":"4","last_reported":1732086591,"current_range_meters":34000,"station_id":"ce4bh412rcd13ifvqdr0","pricing_plan_id":"cebpf4jnsgd1na2vs0mg"},{"bike_id":"6f9a5e25-2c6f-4afb-bd3d-4ab03e374c4c","system_id":"levelo_inurba_marseille","lat":43.30467,"lon":5.37915,"is_reserved":false,"is_disabled":false,"rental_uris":{"android":"levelo://app?vid=6f9a5e25-2c6f-4afb-bd3d-4ab03e374c4c","ios":"levelo://app?vid=6f9a5e25-2c6f-4afb-bd3d-4ab03e374c4c"},"vehicle_type_id":"4","last_reported":1732086591,"current_range_meters":36800,"station_id":"ce4bgup2rcd13ifvqcn0","pricing_plan_id":"cebpf4jnsgd1na2vs0mg"},{"bike_id":"111163ee-ef9b-4fdf-a727-a62ed3ba6b98","system_id":"levelo_inurba_marseille","lat":43.27813,"lon":5.40712,"is_reserved":false,"is_disabled":true,"rental_uris":{"android":"levelo://app?vid=111163ee-ef9b-4fdf-a727-a62ed3ba6b98","ios":"levelo://app?vid=111163ee-ef9b-4fdf-a727-a62ed3ba6b98"},"vehicle_type_id":"4","last_reported":1732086591,"current_range_meters":38800,"station_id":"ce4bhnh2rcd13ifvqgtg","pricing_plan_id":"cebpf4jnsgd1na2vs0mg"},{"bike_id":"fe466b38-f08e-4c08-bae1-f457152e4063","system_id":"levelo_inurba_marseille","lat":43.31882,"lon":5.38717,"is_reserved":false,"is_disabled":true,"rental_uris":{"android":"levelo://app?vid=fe466b38-f08e-4c08-bae1-f457152e4063","ios":"levelo://app?vid=fe466b38-f08e-4c08-bae1-f457152e4063"},"vehicle_type_id":"4","last_reported":1732086591,"current_range_meters":0,"station_id":"","pricing_plan_id":"cebpf4jnsgd1na2vs0mg"},{"bike_id":"d674a550-723f-4e20-a0c2-89aa344c2ade","system_id":"levelo_inurba_marseille","lat":43.28203,"lon":5.4438,"is_reserved":false,"is_disabled":true,"rental_uris":{"android":"levelo://app?vid=d674a550-723f-4e20-a0c2-89aa344c2ade","ios":"levelo://app?vid=d674a550-723f-4e20-a0c2-89aa344c2ade"},"vehicle_type_id":"4","last_reported":1732086591,"current_range_meters":0,"station_id":"","pricing_plan_id":"cebpf4jnsgd1na2vs0mg"},{"bike_id":"675720b2-7990-45a4-9637-93c894b9ac8b","system_id":"levelo_inurba_marseille","lat":43.30153,"lon":5.38079,"is_reserved":false,"is_disabled":false,"rental_uris":{"android":"levelo://app?vid=675720b2-7990-45a4-9637-93c894b9ac8b","ios":"levelo://app?vid=675720b2-7990-45a4-9637-93c894b9ac8b"},"vehicle_type_id":"4","last_reported":1732086591,"current_range_meters":16400,"station_id":"ce4bgjp2rcd13ifvqbh0","pricing_plan_id":"cebpf4jnsgd1na2vs0mg"},{"bike_id":"fc599669-9fc0-4647-a63e-932df05e678e","system_id":"levelo_inurba_marseille","lat":43.28844,"lon":5.39325,"is_reserved":false,"is_disabled":false,"rental_uris":{"android":"levelo://app?vid=fc599669-9fc0-4647-a63e-932df05e678e","ios":"levelo://app?vid=fc599669-9fc0-4647-a63e-932df05e678e"},"vehicle_type_id":"4","last_reported":1732086591,"current_range_meters":17600,"station_id":"ce4bh2p2rcd13ifvqdi0","pricing_plan_id":"cebpf4jnsgd1na2vs0mg"},{"bike_id":"73de2cc8-4db3-417a-9abb-3cffa18feca4","system_id":"levelo_inurba_marseille","lat":43.28406,"lon":5.37501,"is_reserved":false,"is_disabled":false,"rental_uris":{"android":"levelo://app?vid=73de2cc8-4db3-417a-9abb-3cffa18feca4","ios":"levelo://app?vid=73de2cc8-4db3-417a-9abb-3cffa18feca4"},"vehicle_type_id":"4","last_reported":1732086591,"current_range_meters":37600,"station_id":"ce4bh412rcd13ifvqds0","pricing_plan_id":"cebpf4jnsgd1na2vs0mg"},{"bike_id":"f5cf085e-8694-4c6f-ba9c-aa6e0d3c58c6","system_id":"levelo_inurba_marseille","lat":43.336643,"lon":5.355748,"is_reserved":false,"is_disabled":true,"rental_uris":{"android":"levelo://app?vid=f5cf085e-8694-4c6f-ba9c-aa6e0d3c58c6","ios":"levelo://app?vid=f5cf085e-8694-4c6f-ba9c-aa6e0d3c58c6"},"vehicle_type_id":"4","last_reported":1732086591,"current_range_meters":13600,"station_id":"","pricing_plan_id":"cebpf4jnsgd1na2vs0mg"},{"bike_id":"3d2beca7-eef0-4bae-98e1-8b3de347272c","system_id":"levelo_inurba_marseille","lat":43.23192,"lon":5.35551,"is_reserved":false,"is_disabled":false,"rental_uris":{"android":"levelo://app?vid=3d2beca7-eef0-4bae-98e1-8b3de347272c","ios":"levelo://app?vid=3d2beca7-eef0-4bae-98e1-8b3de347272c"},"vehicle_type_id":"4","last_reported":1732086591,"current_range_meters":38400,"station_id":"ce4bhu92rcd13ifvqi70","pricing_plan_id":"cebpf4jnsgd1na2vs0mg"},{"bike_id":"5b0208d6-124b-4771-8c47-0ad7da20f926","system_id":"levelo_inurba_marseille","lat":43.32368,"lon":5.38883,"is_reserved":false,"is_disabled":false,"rental_uris":{"android":"levelo://app?vid=5b0208d6-124b-4771-8c47-0ad7da20f926","ios":"levelo://app?vid=5b0208d6-124b-4771-8c47-0ad7da20f926"},"vehicle_type_id":"4","last_reported":1732086591,"current_range_meters":38000,"station_id":"ce4bhqp2rcd13ifvqhog","pricing_plan_id":"cebpf4jnsgd1na2vs0mg"},{"bike_id":"1e34b337-e632-4079-8f96-e7d46b527251","system_id":"levelo_inurba_marseille","lat":43.31765,"lon":5.38996,"is_reserved":false,"is_disabled":false,"rental_uris":{"android":"levelo://app?vid=1e34b337-e632-4079-8f96-e7d46b527251","ios":"levelo://app?vid=1e34b337-e632-4079-8f96-e7d46b527251"},"vehicle_type_id":"4","last_reported":1732086591,"current_range_meters":18800,"station_id":"ce4bhqp2rcd13ifvqhng","pricing_plan_id":"cebpf4jnsgd1na2vs0mg"},{"bike_id":"afadbd90-4ea9-4e99-ae1e-98e25bda988a","system_id":"levelo_inurba_marseille","lat":43.30463,"lon":5.37913,"is_reserved":false,"is_disabled":false,"rental_uris":{"android":"levelo://app?vid=afadbd90-4ea9-4e99-ae1e-98e25bda988a","ios":"levelo://app?vid=afadbd90-4ea9-4e99-ae1e-98e25bda988a"},"vehicle_type_id":"4","last_reported":1732086591,"current_range_meters":28400,"station_id":"ce4bgup2rcd13ifvqcn0","pricing_plan_id":"cebpf4jnsgd1na2vs0mg"},{"bike_id":"e008ea5b-9c85-47a4-8557-75f660f9a13d","system_id":"levelo_inurba_marseille","lat":43.24389,"lon":5.37053,"is_reserved":false,"is_disabled":false,"rental_uris":{"android":"levelo://app?vid=e008ea5b-9c85-47a4-8557-75f660f9a13d","ios":"levelo://app?vid=e008ea5b-9c85-47a4-8557-75f660f9a13d"},"vehicle_type_id":"4","last_reported":1732086591,"current_range_meters":39200,"station_id":"ce4bhhh2rcd13ifvqfk0","pricing_plan_id":"cebpf4jnsgd1na2vs0mg"},{"bike_id":"49d724ed-5ee1-4770-a2b1-cd126420aa5b","system_id":"levelo_inurba_marseille","lat":43.27969,"lon":5.38737,"is_reserved":false,"is_disabled":false,"rental_uris":{"android":"levelo://app?vid=49d724ed-5ee1-4770-a2b1-cd126420aa5b","ios":"levelo://app?vid=49d724ed-5ee1-4770-a2b1-cd126420aa5b"},"vehicle_type_id":"4","last_reported":1732086591,"current_range_meters":8800,"station_id":"ce4bhg12rcd13ifvqf80","pricing_plan_id":"cebpf4jnsgd1na2vs0mg"},{"bike_id":"f8523a75-107a-4abc-9357-07039562b8ba","system_id":"levelo_inurba_marseille","lat":43.30464,"lon":5.37898,"is_reserved":false,"is_disabled":false,"rental_uris":{"android":"levelo://app?vid=f8523a75-107a-4abc-9357-07039562b8ba","ios":"levelo://app?vid=f8523a75-107a-4abc-9357-07039562b8ba"},"vehicle_type_id":"4","last_reported":1732086591,"current_range_meters":23200,"station_id":"ce4bgup2rcd13ifvqcn0","pricing_plan_id":"cebpf4jnsgd1na2vs0mg"},{"bike_id":"d2d7f516-9496-4703-a492-81d2c5576eb5","system_id":"levelo_inurba_marseille","lat":43.2678,"lon":5.39418,"is_reserved":false,"is_disabled":false,"rental_uris":{"android":"levelo://app?vid=d2d7f516-9496-4703-a492-81d2c5576eb5","ios":"levelo://app?vid=d2d7f516-9496-4703-a492-81d2c5576eb5"},"vehicle_type_id":"4","last_reported":1732086591,"current_range_meters":38800,"station_id":"ce4bhh12rcd13ifvqfg0","pricing_plan_id":"cebpf4jnsgd1na2vs0mg"},{"bike_id":"3e2178f5-4b6b-453a-81e1-470757603247","system_id":"levelo_inurba_marseille","lat":43.29365,"lon":5.37831,"is_reserved":false,"is_disabled":false,"rental_uris":{"android":"levelo://app?vid=3e2178f5-4b6b-453a-81e1-470757603247","ios":"levelo://app?vid=3e2178f5-4b6b-453a-81e1-470757603247"},"vehicle_type_id":"4","last_reported":1732086591,"current_range_meters":34000,"station_id":"ce4bgjh2rcd13ifvqbf0","pricing_plan_id":"cebpf4jnsgd1na2vs0mg"},{"bike_id":"0587f464-8fd6-430d-9045-f727e016e5fc","system_id":"levelo_inurba_marseille","lat":43.28456,"lon":5.35881,"is_reserved":false,"is_disabled":false,"rental_uris":{"android":"levelo://app?vid=0587f464-8fd6-430d-9045-f727e016e5fc","ios":"levelo://app?vid=0587f464-8fd6-430d-9045-f727e016e5fc"},"vehicle_type_id":"4","last_reported":1732086591,"current_range_meters":37600,"station_id":"ce4bhah2rcd13ifvqei0","pricing_plan_id":"cebpf4jnsgd1na2vs0mg"},{"bike_id":"241d784b-4d0c-4875-b884-dc2576b22a9d","system_id":"levelo_inurba_marseille","lat":43.33601,"lon":5.41033,"is_reserved":false,"is_disabled":false,"rental_uris":{"android":"levelo://app?vid=241d784b-4d0c-4875-b884-dc2576b22a9d","ios":"levelo://app?vid=241d784b-4d0c-4875-b884-dc2576b22a9d"},"vehicle_type_id":"4","last_reported":1732086591,"current_range_meters":8800,"station_id":"ce4bhqh2rcd13ifvqhmg","pricing_plan_id":"cebpf4jnsgd1na2vs0mg"},{"bike_id":"d3d50e0a-cbad-46f5-933a-61206e1f897b","system_id":"levelo_inurba_marseille","lat":43.31547,"lon":5.37309,"is_reserved":false,"is_disabled":false,"rental_uris":{"android":"levelo://app?vid=d3d50e0a-cbad-46f5-933a-61206e1f897b","ios":"levelo://app?vid=d3d50e0a-cbad-46f5-933a-61206e1f897b"},"vehicle_type_id":"4","last_reported":1732086591,"current_range_meters":19600,"station_id":"ce4bgt12rcd13ifvqcd0","pricing_plan_id":"cebpf4jnsgd1na2vs0mg"},{"bike_id":"c99b1888-f627-4c5d-b4d0-df6a6abe823c","system_id":"levelo_inurba_marseille","lat":43.26952,"lon":5.38638,"is_reserved":false,"is_disabled":false,"rental_uris":{"android":"levelo://app?vid=c99b1888-f627-4c5d-b4d0-df6a6abe823c","ios":"levelo://app?vid=c99b1888-f627-4c5d-b4d0-df6a6abe823c"},"vehicle_type_id":"4","last_reported":1732086591,"current_range_meters":3600,"station_id":"ce4bhh92rcd13ifvqfh0","pricing_plan_id":"cebpf4jnsgd1na2vs0mg"},{"bike_id":"1769703b-9903-454d-ac38-a754f724b036","system_id":"levelo_inurba_marseille","lat":43.255802,"lon":5.382391,"is_reserved":false,"is_disabled":false,"rental_uris":{"android":"levelo://app?vid=1769703b-9903-454d-ac38-a754f724b036","ios":"levelo://app?vid=1769703b-9903-454d-ac38-a754f724b036"},"vehicle_type_id":"4","last_reported":1732086591,"current_range_meters":37600,"station_id":"ce4bhih2rcd13ifvqfs0","pricing_plan_id":"cebpf4jnsgd1na2vs0mg"},{"bike_id":"bc249293-6395-4334-b84a-652f70f197fc","system_id":"levelo_inurba_marseille","lat":43.27621,"lon":5.42645,"is_reserved":false,"is_disabled":true,"rental_uris":{"android":"levelo://app?vid=bc249293-6395-4334-b84a-652f70f197fc","ios":"levelo://app?vid=bc249293-6395-4334-b84a-652f70f197fc"},"vehicle_type_id":"4","last_reported":1732086591,"current_range_meters":0,"station_id":"","pricing_plan_id":"cebpf4jnsgd1na2vs0mg"},{"bike_id":"ed4fa134-c8f3-40e1-ba97-1306c197c2c6","system_id":"levelo_inurba_marseille","lat":43.30318,"lon":5.4044,"is_reserved":false,"is_disabled":true,"rental_uris":{"android":"levelo://app?vid=ed4fa134-c8f3-40e1-ba97-1306c197c2c6","ios":"levelo://app?vid=ed4fa134-c8f3-40e1-ba97-1306c197c2c6"},"vehicle_type_id":"4","last_reported":1732086591,"current_range_meters":20800,"station_id":"ce4bh012rcd13ifvqd10","pricing_plan_id":"cebpf4jnsgd1na2vs0mg"},{"bike_id":"16229a4d-d610-42ae-bd01-7fbaf108a5ea","system_id":"levelo_inurba_marseille","lat":43.30257,"lon":5.400412,"is_reserved":false,"is_disabled":true,"rental_uris":{"android":"levelo://app?vid=16229a4d-d610-42ae-bd01-7fbaf108a5ea","ios":"levelo://app?vid=16229a4d-d610-42ae-bd01-7fbaf108a5ea"},"vehicle_type_id":"4","last_reported":1732086591,"current_range_meters":3600,"station_id":"ce4bgvh2rcd13ifvqcs0","pricing_plan_id":"cebpf4jnsgd1na2vs0mg"},{"bike_id":"be1dd5f8-91fc-4786-8461-76cd869dae13","system_id":"levelo_inurba_marseille","lat":43.31982,"lon":5.41584,"is_reserved":false,"is_disabled":true,"rental_uris":{"android":"levelo://app?vid=be1dd5f8-91fc-4786-8461-76cd869dae13","ios":"levelo://app?vid=be1dd5f8-91fc-4786-8461-76cd869dae13"},"vehicle_type_id":"4","last_reported":1732086591,"current_range_meters":22800,"station_id":"","pricing_plan_id":"cebpf4jnsgd1na2vs0mg"},{"bike_id":"7373652f-af02-44e6-9403-d312bc985f1d","system_id":"levelo_inurba_marseille","lat":43.28928,"lon":5.38389,"is_reserved":false,"is_disabled":true,"rental_uris":{"android":"levelo://app?vid=7373652f-af02-44e6-9403-d312bc985f1d","ios":"levelo://app?vid=7373652f-af02-44e6-9403-d312bc985f1d"},"vehicle_type_id":"4","last_reported":1732086591,"current_range_meters":38800,"station_id":"ce4bh612rcd13ifvqe6g","pricing_plan_id":"cebpf4jnsgd1na2vs0mg"},{"bike_id":"684f2c25-8cf2-48b7-9bb4-10fd9f7cd1e7","system_id":"levelo_inurba_marseille","lat":43.28272,"lon":5.350759,"is_reserved":false,"is_disabled":false,"rental_uris":{"android":"levelo://app?vid=684f2c25-8cf2-48b7-9bb4-10fd9f7cd1e7","ios":"levelo://app?vid=684f2c25-8cf2-48b7-9bb4-10fd9f7cd1e7"},"vehicle_type_id":"4","last_reported":1732086591,"current_range_meters":19200,"station_id":"ce4bhbp2rcd13ifvqerg","pricing_plan_id":"cebpf4jnsgd1na2vs0mg"},{"bike_id":"80ed2145-0455-4da8-ae4a-e36065982ce3","system_id":"levelo_inurba_marseille","lat":43.3236,"lon":5.38883,"is_reserved":false,"is_disabled":false,"rental_uris":{"android":"levelo://app?vid=80ed2145-0455-4da8-ae4a-e36065982ce3","ios":"levelo://app?vid=80ed2145-0455-4da8-ae4a-e36065982ce3"},"vehicle_type_id":"4","last_reported":1732086591,"current_range_meters":9600,"station_id":"ce4bhqp2rcd13ifvqhog","pricing_plan_id":"cebpf4jnsgd1na2vs0mg"},{"bike_id":"b6c2b1a9-3512-4a78-913e-78738da347cf","system_id":"levelo_inurba_marseille","lat":43.28569,"lon":5.39494,"is_reserved":false,"is_disabled":false,"rental_uris":{"android":"levelo://app?vid=b6c2b1a9-3512-4a78-913e-78738da347cf","ios":"levelo://app?vid=b6c2b1a9-3512-4a78-913e-78738da347cf"},"vehicle_type_id":"4","last_reported":1732086591,"current_range_meters":35600,"station_id":"ce4bh292rcd13ifvqdg0","pricing_plan_id":"cebpf4jnsgd1na2vs0mg"},{"bike_id":"8d5ad0a8-268e-4afd-be61-7919f93826c7","system_id":"levelo_inurba_marseille","lat":43.29904,"lon":5.37482,"is_reserved":false,"is_disabled":false,"rental_uris":{"android":"levelo://app?vid=8d5ad0a8-268e-4afd-be61-7919f93826c7","ios":"levelo://app?vid=8d5ad0a8-268e-4afd-be61-7919f93826c7"},"vehicle_type_id":"4","last_reported":1732086591,"current_range_meters":22400,"station_id":"ce4bgjh2rcd13ifvqbg0","pricing_plan_id":"cebpf4jnsgd1na2vs0mg"},{"bike_id":"f198b97b-88d4-49aa-b205-4610520421a6","system_id":"levelo_inurba_marseille","lat":43.330273,"lon":5.39039,"is_reserved":false,"is_disabled":false,"rental_uris":{"android":"levelo://app?vid=f198b97b-88d4-49aa-b205-4610520421a6","ios":"levelo://app?vid=f198b97b-88d4-49aa-b205-4610520421a6"},"vehicle_type_id":"4","last_reported":1732086591,"current_range_meters":30400,"station_id":"ce4bhr92rcd13ifvqhrg","pricing_plan_id":"cebpf4jnsgd1na2vs0mg"},{"bike_id":"6fe65320-959e-41bb-8132-72e6c31cb31d","system_id":"levelo_inurba_marseille","lat":43.280798,"lon":5.39654,"is_reserved":false,"is_disabled":true,"rental_uris":{"android":"levelo://app?vid=6fe65320-959e-41bb-8132-72e6c31cb31d","ios":"levelo://app?vid=6fe65320-959e-41bb-8132-72e6c31cb31d"},"vehicle_type_id":"4","last_reported":1732086591,"current_range_meters":38800,"station_id":"ce4bho12rcd13ifvqh2g","pricing_plan_id":"cebpf4jnsgd1na2vs0mg"},{"bike_id":"16078b88-1ab4-47a1-967c-236d129bdc47","system_id":"levelo_inurba_marseille","lat":43.29281,"lon":5.40117,"is_reserved":false,"is_disabled":false,"rental_uris":{"android":"levelo://app?vid=16078b88-1ab4-47a1-967c-236d129bdc47","ios":"levelo://app?vid=16078b88-1ab4-47a1-967c-236d129bdc47"},"vehicle_type_id":"4","last_reported":1732086591,"current_range_meters":29600,"station_id":"ce4bh312rcd13ifvqdk0","pricing_plan_id":"cebpf4jnsgd1na2vs0mg"},{"bike_id":"28915d84-a02f-47df-b20d-f6c096f857f7","system_id":"levelo_inurba_marseille","lat":43.30293,"lon":5.3922,"is_reserved":false,"is_disabled":false,"rental_uris":{"android":"levelo://app?vid=28915d84-a02f-47df-b20d-f6c096f857f7","ios":"levelo://app?vid=28915d84-a02f-47df-b20d-f6c096f857f7"},"vehicle_type_id":"4","last_reported":1732086591,"current_range_meters":11600,"station_id":"ce4bgkh2rcd13ifvqbk0","pricing_plan_id":"cebpf4jnsgd1na2vs0mg"},{"bike_id":"6cd2a57f-481c-4402-b368-125d141ec240","system_id":"levelo_inurba_marseille","lat":43.33773,"lon":5.3743,"is_reserved":false,"is_disabled":false,"rental_uris":{"android":"levelo://app?vid=6cd2a57f-481c-4402-b368-125d141ec240","ios":"levelo://app?vid=6cd2a57f-481c-4402-b368-125d141ec240"},"vehicle_type_id":"4","last_reported":1732086591,"current_range_meters":31200,"station_id":"","pricing_plan_id":"cebpf4jnsgd1na2vs0mg"},{"bike_id":"5fe20d58-65ac-4c8a-b149-a2e6de20044d","system_id":"levelo_inurba_marseille","lat":43.29375,"lon":5.37857,"is_reserved":false,"is_disabled":true,"rental_uris":{"android":"levelo://app?vid=5fe20d58-65ac-4c8a-b149-a2e6de20044d","ios":"levelo://app?vid=5fe20d58-65ac-4c8a-b149-a2e6de20044d"},"vehicle_type_id":"4","last_reported":1732086591,"current_range_meters":28400,"station_id":"ce4bgjh2rcd13ifvqbf0","pricing_plan_id":"cebpf4jnsgd1na2vs0mg"},{"bike_id":"70c694b8-609a-4e19-9067-0bd1313ac6f9","system_id":"levelo_inurba_marseille","lat":43.32476,"lon":5.36563,"is_reserved":false,"is_disabled":false,"rental_uris":{"android":"levelo://app?vid=70c694b8-609a-4e19-9067-0bd1313ac6f9","ios":"levelo://app?vid=70c694b8-609a-4e19-9067-0bd1313ac6f9"},"vehicle_type_id":"4","last_reported":1732086591,"current_range_meters":38800,"station_id":"ce4bhs12rcd13ifvqhvg","pricing_plan_id":"cebpf4jnsgd1na2vs0mg"},{"bike_id":"6492293b-b237-4871-b090-665f8ed67c4f","system_id":"levelo_inurba_marseille","lat":43.304871,"lon":5.380761,"is_reserved":false,"is_disabled":false,"rental_uris":{"android":"levelo://app?vid=6492293b-b237-4871-b090-665f8ed67c4f","ios":"levelo://app?vid=6492293b-b237-4871-b090-665f8ed67c4f"},"vehicle_type_id":"4","last_reported":1732086591,"current_range_meters":35600,"station_id":"","pricing_plan_id":"cebpf4jnsgd1na2vs0mg"},{"bike_id":"64486476-b306-47e0-9aa4-65994e58597f","system_id":"levelo_inurba_marseille","lat":43.30591,"lon":5.3934,"is_reserved":false,"is_disabled":false,"rental_uris":{"android":"levelo://app?vid=64486476-b306-47e0-9aa4-65994e58597f","ios":"levelo://app?vid=64486476-b306-47e0-9aa4-65994e58597f"},"vehicle_type_id":"4","last_reported":1732086591,"current_range_meters":37600,"station_id":"ce4bh0p2rcd13ifvqd80","pricing_plan_id":"cebpf4jnsgd1na2vs0mg"},{"bike_id":"3df07603-4cc7-450a-9655-3b7606e514c1","system_id":"levelo_inurba_marseille","lat":43.29063,"lon":5.37161,"is_reserved":false,"is_disabled":true,"rental_uris":{"android":"levelo://app?vid=3df07603-4cc7-450a-9655-3b7606e514c1","ios":"levelo://app?vid=3df07603-4cc7-450a-9655-3b7606e514c1"},"vehicle_type_id":"4","last_reported":1732086591,"current_range_meters":17200,"station_id":"ce4bh5p2rcd13ifvqe4g","pricing_plan_id":"cebpf4jnsgd1na2vs0mg"},{"bike_id":"c7194ba9-4f73-4b9b-88a7-7741411478a1","system_id":"levelo_inurba_marseille","lat":43.29816,"lon":5.37139,"is_reserved":false,"is_disabled":false,"rental_uris":{"android":"levelo://app?vid=c7194ba9-4f73-4b9b-88a7-7741411478a1","ios":"levelo://app?vid=c7194ba9-4f73-4b9b-88a7-7741411478a1"},"vehicle_type_id":"4","last_reported":1732086591,"current_range_meters":20800,"station_id":"ce4bgop2rcd13ifvqc1g","pricing_plan_id":"cebpf4jnsgd1na2vs0mg"},{"bike_id":"f264b414-f319-4c68-87b9-7d532c5987b6","system_id":"levelo_inurba_marseille","lat":43.3054,"lon":5.38425,"is_reserved":false,"is_disabled":false,"rental_uris":{"android":"levelo://app?vid=f264b414-f319-4c68-87b9-7d532c5987b6","ios":"levelo://app?vid=f264b414-f319-4c68-87b9-7d532c5987b6"},"vehicle_type_id":"4","last_reported":1732086591,"current_range_meters":38000,"station_id":"ce4bgg92rcd13ifvqb30","pricing_plan_id":"cebpf4jnsgd1na2vs0mg"},{"bike_id":"a07863e3-37a9-4255-90cf-7a2ca9093e48","system_id":"levelo_inurba_marseille","lat":43.3047,"lon":5.3791,"is_reserved":false,"is_disabled":false,"rental_uris":{"android":"levelo://app?vid=a07863e3-37a9-4255-90cf-7a2ca9093e48","ios":"levelo://app?vid=a07863e3-37a9-4255-90cf-7a2ca9093e48"},"vehicle_type_id":"4","last_reported":1732086591,"current_range_meters":34000,"station_id":"ce4bgup2rcd13ifvqcn0","pricing_plan_id":"cebpf4jnsgd1na2vs0mg"},{"bike_id":"4bd268f3-b708-480d-b1f5-141d19aa9947","system_id":"levelo_inurba_marseille","lat":43.2447,"lon":5.37788,"is_reserved":false,"is_disabled":true,"rental_uris":{"android":"levelo://app?vid=4bd268f3-b708-480d-b1f5-141d19aa9947","ios":"levelo://app?vid=4bd268f3-b708-480d-b1f5-141d19aa9947"},"vehicle_type_id":"4","last_reported":1732086591,"current_range_meters":0,"station_id":"","pricing_plan_id":"cebpf4jnsgd1na2vs0mg"},{"bike_id":"a78bc1fa-f508-4cab-a5e8-89111600fa30","system_id":"levelo_inurba_marseille","lat":43.34137,"lon":5.40902,"is_reserved":false,"is_disabled":false,"rental_uris":{"android":"levelo://app?vid=a78bc1fa-f508-4cab-a5e8-89111600fa30","ios":"levelo://app?vid=a78bc1fa-f508-4cab-a5e8-89111600fa30"},"vehicle_type_id":"4","last_reported":1732086591,"current_range_meters":39200,"station_id":"ce4bhqh2rcd13ifvqhlg","pricing_plan_id":"cebpf4jnsgd1na2vs0mg"},{"bike_id":"9b4d52a8-a22b-418c-a556-65afaca3a235","system_id":"levelo_inurba_marseille","lat":43.33749,"lon":5.37448,"is_reserved":false,"is_disabled":false,"rental_uris":{"android":"levelo://app?vid=9b4d52a8-a22b-418c-a556-65afaca3a235","ios":"levelo://app?vid=9b4d52a8-a22b-418c-a556-65afaca3a235"},"vehicle_type_id":"4","last_reported":1732086591,"current_range_meters":17600,"station_id":"","pricing_plan_id":"cebpf4jnsgd1na2vs0mg"},{"bike_id":"9df4d57f-fe45-4333-896f-a80de6007d38","system_id":"levelo_inurba_marseille","lat":43.29287,"lon":5.40157,"is_reserved":false,"is_disabled":false,"rental_uris":{"android":"levelo://app?vid=9df4d57f-fe45-4333-896f-a80de6007d38","ios":"levelo://app?vid=9df4d57f-fe45-4333-896f-a80de6007d38"},"vehicle_type_id":"4","last_reported":1732086591,"current_range_meters":27600,"station_id":"ce4bh312rcd13ifvqdk0","pricing_plan_id":"cebpf4jnsgd1na2vs0mg"},{"bike_id":"b5c7e751-f5a6-4796-9928-8455612ff199","system_id":"levelo_inurba_marseille","lat":43.32668,"lon":5.40989,"is_reserved":false,"is_disabled":true,"rental_uris":{"android":"levelo://app?vid=b5c7e751-f5a6-4796-9928-8455612ff199","ios":"levelo://app?vid=b5c7e751-f5a6-4796-9928-8455612ff199"},"vehicle_type_id":"4","last_reported":1732086591,"current_range_meters":400,"station_id":"ce4bhpp2rcd13ifvqhgg","pricing_plan_id":"cebpf4jnsgd1na2vs0mg"},{"bike_id":"5746cf9f-2df8-4414-a248-cc3e269f7e61","system_id":"levelo_inurba_marseille","lat":43.30459,"lon":5.37907,"is_reserved":false,"is_disabled":false,"rental_uris":{"android":"levelo://app?vid=5746cf9f-2df8-4414-a248-cc3e269f7e61","ios":"levelo://app?vid=5746cf9f-2df8-4414-a248-cc3e269f7e61"},"vehicle_type_id":"4","last_reported":1732086591,"current_range_meters":33200,"station_id":"ce4bgup2rcd13ifvqcn0","pricing_plan_id":"cebpf4jnsgd1na2vs0mg"},{"bike_id":"9683e212-0188-4d1a-a99f-3d0af56226ff","system_id":"levelo_inurba_marseille","lat":43.24078,"lon":5.3776,"is_reserved":false,"is_disabled":false,"rental_uris":{"android":"levelo://app?vid=9683e212-0188-4d1a-a99f-3d0af56226ff","ios":"levelo://app?vid=9683e212-0188-4d1a-a99f-3d0af56226ff"},"vehicle_type_id":"4","last_reported":1732086591,"current_range_meters":38400,"station_id":"ce4bhnp2rcd13ifvqgvg","pricing_plan_id":"cebpf4jnsgd1na2vs0mg"},{"bike_id":"e74e8692-56b5-455e-b107-3674a73c30f0","system_id":"levelo_inurba_marseille","lat":43.292695,"lon":5.368392,"is_reserved":false,"is_disabled":true,"rental_uris":{"android":"levelo://app?vid=e74e8692-56b5-455e-b107-3674a73c30f0","ios":"levelo://app?vid=e74e8692-56b5-455e-b107-3674a73c30f0"},"vehicle_type_id":"4","last_reported":1732086591,"current_range_meters":0,"station_id":"ce4bhbp2rcd13ifvqesg","pricing_plan_id":"cebpf4jnsgd1na2vs0mg"},{"bike_id":"b8e0ff19-cfbf-49c3-a9f8-f8dcefd4b613","system_id":"levelo_inurba_marseille","lat":43.27655,"lon":5.38885,"is_reserved":false,"is_disabled":true,"rental_uris":{"android":"levelo://app?vid=b8e0ff19-cfbf-49c3-a9f8-f8dcefd4b613","ios":"levelo://app?vid=b8e0ff19-cfbf-49c3-a9f8-f8dcefd4b613"},"vehicle_type_id":"4","last_reported":1732086591,"current_range_meters":34000,"station_id":"ce4bhi12rcd13ifvqfo0","pricing_plan_id":"cebpf4jnsgd1na2vs0mg"},{"bike_id":"6062c814-b29e-4547-857c-6b4aba6ee686","system_id":"levelo_inurba_marseille","lat":43.3133,"lon":5.36715,"is_reserved":false,"is_disabled":false,"rental_uris":{"android":"levelo://app?vid=6062c814-b29e-4547-857c-6b4aba6ee686","ios":"levelo://app?vid=6062c814-b29e-4547-857c-6b4aba6ee686"},"vehicle_type_id":"4","last_reported":1732086591,"current_range_meters":33200,"station_id":"ce4bgr92rcd13ifvqc6g","pricing_plan_id":"cebpf4jnsgd1na2vs0mg"},{"bike_id":"d57aac36-d542-4c08-b78f-fd1bcb1bd404","system_id":"levelo_inurba_marseille","lat":43.27491,"lon":5.42454,"is_reserved":false,"is_disabled":false,"rental_uris":{"android":"levelo://app?vid=d57aac36-d542-4c08-b78f-fd1bcb1bd404","ios":"levelo://app?vid=d57aac36-d542-4c08-b78f-fd1bcb1bd404"},"vehicle_type_id":"4","last_reported":1732086591,"current_range_meters":5600,"station_id":"ce4bhn92rcd13ifvqgrg","pricing_plan_id":"cebpf4jnsgd1na2vs0mg"},{"bike_id":"588d2d01-eb5b-4c79-b24e-e8e68a5d09b3","system_id":"levelo_inurba_marseille","lat":43.30485,"lon":5.39331,"is_reserved":false,"is_disabled":false,"rental_uris":{"android":"levelo://app?vid=588d2d01-eb5b-4c79-b24e-e8e68a5d09b3","ios":"levelo://app?vid=588d2d01-eb5b-4c79-b24e-e8e68a5d09b3"},"vehicle_type_id":"4","last_reported":1732086591,"current_range_meters":38000,"station_id":"ce4bh0p2rcd13ifvqd80","pricing_plan_id":"cebpf4jnsgd1na2vs0mg"},{"bike_id":"29bf4663-a932-44eb-84f4-3530c99daddd","system_id":"levelo_inurba_marseille","lat":43.29538,"lon":5.40031,"is_reserved":false,"is_disabled":false,"rental_uris":{"android":"levelo://app?vid=29bf4663-a932-44eb-84f4-3530c99daddd","ios":"levelo://app?vid=29bf4663-a932-44eb-84f4-3530c99daddd"},"vehicle_type_id":"4","last_reported":1732086591,"current_range_meters":28400,"station_id":"","pricing_plan_id":"cebpf4jnsgd1na2vs0mg"},{"bike_id":"1462f68e-113f-431d-9d5b-f4d7f987f2b8","system_id":"levelo_inurba_marseille","lat":43.28477,"lon":5.38425,"is_reserved":false,"is_disabled":true,"rental_uris":{"android":"levelo://app?vid=1462f68e-113f-431d-9d5b-f4d7f987f2b8","ios":"levelo://app?vid=1462f68e-113f-431d-9d5b-f4d7f987f2b8"},"vehicle_type_id":"4","last_reported":1732086591,"current_range_meters":0,"station_id":"ce4bh512rcd13ifvqe3g","pricing_plan_id":"cebpf4jnsgd1na2vs0mg"},{"bike_id":"c605fb39-9926-4cfd-8d8e-b91be610769f","system_id":"levelo_inurba_marseille","lat":43.28497,"lon":5.3855,"is_reserved":false,"is_disabled":false,"rental_uris":{"android":"levelo://app?vid=c605fb39-9926-4cfd-8d8e-b91be610769f","ios":"levelo://app?vid=c605fb39-9926-4cfd-8d8e-b91be610769f"},"vehicle_type_id":"4","last_reported":1732086591,"current_range_meters":3200,"station_id":"ce4bh8p2rcd13ifvqeb0","pricing_plan_id":"cebpf4jnsgd1na2vs0mg"},{"bike_id":"c95aa9f9-312d-41ca-8fef-e9227fcf51c7","system_id":"levelo_inurba_marseille","lat":43.2656,"lon":5.39005,"is_reserved":false,"is_disabled":false,"rental_uris":{"android":"levelo://app?vid=c95aa9f9-312d-41ca-8fef-e9227fcf51c7","ios":"levelo://app?vid=c95aa9f9-312d-41ca-8fef-e9227fcf51c7"},"vehicle_type_id":"4","last_reported":1732086591,"current_range_meters":28000,"station_id":"ce4bhe12rcd13ifvqf30","pricing_plan_id":"cebpf4jnsgd1na2vs0mg"},{"bike_id":"270c5586-8f9b-4bce-8727-3cf2154b0f5a","system_id":"levelo_inurba_marseille","lat":43.26955,"lon":5.38629,"is_reserved":false,"is_disabled":false,"rental_uris":{"android":"levelo://app?vid=270c5586-8f9b-4bce-8727-3cf2154b0f5a","ios":"levelo://app?vid=270c5586-8f9b-4bce-8727-3cf2154b0f5a"},"vehicle_type_id":"4","last_reported":1732086591,"current_range_meters":18800,"station_id":"ce4bhh92rcd13ifvqfh0","pricing_plan_id":"cebpf4jnsgd1na2vs0mg"},{"bike_id":"0b733133-03c9-4766-961e-92b775b50bbc","system_id":"levelo_inurba_marseille","lat":43.28222,"lon":5.4429,"is_reserved":false,"is_disabled":true,"rental_uris":{"android":"levelo://app?vid=0b733133-03c9-4766-961e-92b775b50bbc","ios":"levelo://app?vid=0b733133-03c9-4766-961e-92b775b50bbc"},"vehicle_type_id":"4","last_reported":1732086591,"current_range_meters":0,"station_id":"","pricing_plan_id":"cebpf4jnsgd1na2vs0mg"},{"bike_id":"66b79833-642b-47d2-9c13-b54ffad3721a","system_id":"levelo_inurba_marseille","lat":43.2815,"lon":5.42651,"is_reserved":false,"is_disabled":false,"rental_uris":{"android":"levelo://app?vid=66b79833-642b-47d2-9c13-b54ffad3721a","ios":"levelo://app?vid=66b79833-642b-47d2-9c13-b54ffad3721a"},"vehicle_type_id":"4","last_reported":1732086591,"current_range_meters":7200,"station_id":"ce4bhnh2rcd13ifvqgug","pricing_plan_id":"cebpf4jnsgd1na2vs0mg"},{"bike_id":"51302beb-d697-43fe-98cc-c8e0dac1a150","system_id":"levelo_inurba_marseille","lat":43.323647,"lon":5.40586,"is_reserved":false,"is_disabled":false,"rental_uris":{"android":"levelo://app?vid=51302beb-d697-43fe-98cc-c8e0dac1a150","ios":"levelo://app?vid=51302beb-d697-43fe-98cc-c8e0dac1a150"},"vehicle_type_id":"4","last_reported":1732086591,"current_range_meters":38800,"station_id":"ce4bhq92rcd13ifvqhjg","pricing_plan_id":"cebpf4jnsgd1na2vs0mg"},{"bike_id":"e4c11769-2c19-46a4-a622-9a2180bb2646","system_id":"levelo_inurba_marseille","lat":43.23154,"lon":5.43712,"is_reserved":false,"is_disabled":false,"rental_uris":{"android":"levelo://app?vid=e4c11769-2c19-46a4-a622-9a2180bb2646","ios":"levelo://app?vid=e4c11769-2c19-46a4-a622-9a2180bb2646"},"vehicle_type_id":"4","last_reported":1732086591,"current_range_meters":37600,"station_id":"ce4bhmp2rcd13ifvqgog","pricing_plan_id":"cebpf4jnsgd1na2vs0mg"},{"bike_id":"7d02f161-c4ab-430d-be6a-e052ba68aacf","system_id":"levelo_inurba_marseille","lat":43.30942,"lon":5.39017,"is_reserved":false,"is_disabled":true,"rental_uris":{"android":"levelo://app?vid=7d02f161-c4ab-430d-be6a-e052ba68aacf","ios":"levelo://app?vid=7d02f161-c4ab-430d-be6a-e052ba68aacf"},"vehicle_type_id":"4","last_reported":1732086591,"current_range_meters":8400,"station_id":"ce4bgup2rcd13ifvqco0","pricing_plan_id":"cebpf4jnsgd1na2vs0mg"},{"bike_id":"5336a5b5-c183-420b-aff7-591cf3ddcaab","system_id":"levelo_inurba_marseille","lat":43.30457,"lon":5.37897,"is_reserved":false,"is_disabled":false,"rental_uris":{"android":"levelo://app?vid=5336a5b5-c183-420b-aff7-591cf3ddcaab","ios":"levelo://app?vid=5336a5b5-c183-420b-aff7-591cf3ddcaab"},"vehicle_type_id":"4","last_reported":1732086591,"current_range_meters":36000,"station_id":"ce4bgup2rcd13ifvqcn0","pricing_plan_id":"cebpf4jnsgd1na2vs0mg"},{"bike_id":"9da40e7e-4a1a-4138-b5ce-54910913c3a4","system_id":"levelo_inurba_marseille","lat":43.30252,"lon":5.40068,"is_reserved":false,"is_disabled":true,"rental_uris":{"android":"levelo://app?vid=9da40e7e-4a1a-4138-b5ce-54910913c3a4","ios":"levelo://app?vid=9da40e7e-4a1a-4138-b5ce-54910913c3a4"},"vehicle_type_id":"4","last_reported":1732086591,"current_range_meters":37600,"station_id":"ce4bgvh2rcd13ifvqcs0","pricing_plan_id":"cebpf4jnsgd1na2vs0mg"},{"bike_id":"689e489d-2abe-4d90-af44-080665d12e52","system_id":"levelo_inurba_marseille","lat":43.28456,"lon":5.35878,"is_reserved":false,"is_disabled":false,"rental_uris":{"android":"levelo://app?vid=689e489d-2abe-4d90-af44-080665d12e52","ios":"levelo://app?vid=689e489d-2abe-4d90-af44-080665d12e52"},"vehicle_type_id":"4","last_reported":1732086591,"current_range_meters":10000,"station_id":"ce4bhah2rcd13ifvqei0","pricing_plan_id":"cebpf4jnsgd1na2vs0mg"},{"bike_id":"99bbd3b2-1819-40a1-85fe-02a28af95bfb","system_id":"levelo_inurba_marseille","lat":43.29602,"lon":5.38101,"is_reserved":false,"is_disabled":false,"rental_uris":{"android":"levelo://app?vid=99bbd3b2-1819-40a1-85fe-02a28af95bfb","ios":"levelo://app?vid=99bbd3b2-1819-40a1-85fe-02a28af95bfb"},"vehicle_type_id":"4","last_reported":1732086591,"current_range_meters":27600,"station_id":"ce4bgl12rcd13ifvqbo0","pricing_plan_id":"cebpf4jnsgd1na2vs0mg"},{"bike_id":"62e73b5a-9160-4545-9da4-715b86e1f5c2","system_id":"levelo_inurba_marseille","lat":43.30467,"lon":5.37906,"is_reserved":false,"is_disabled":false,"rental_uris":{"android":"levelo://app?vid=62e73b5a-9160-4545-9da4-715b86e1f5c2","ios":"levelo://app?vid=62e73b5a-9160-4545-9da4-715b86e1f5c2"},"vehicle_type_id":"4","last_reported":1732086591,"current_range_meters":8800,"station_id":"ce4bgup2rcd13ifvqcn0","pricing_plan_id":"cebpf4jnsgd1na2vs0mg"},{"bike_id":"c698b8a3-cdd5-4e2c-809f-8a3370bd765a","system_id":"levelo_inurba_marseille","lat":43.27483,"lon":5.42447,"is_reserved":false,"is_disabled":false,"rental_uris":{"android":"levelo://app?vid=c698b8a3-cdd5-4e2c-809f-8a3370bd765a","ios":"levelo://app?vid=c698b8a3-cdd5-4e2c-809f-8a3370bd765a"},"vehicle_type_id":"4","last_reported":1732086591,"current_range_meters":9600,"station_id":"ce4bhn92rcd13ifvqgrg","pricing_plan_id":"cebpf4jnsgd1na2vs0mg"},{"bike_id":"35ae0824-f6a1-494d-ad0e-71e2a1b9e68e","system_id":"levelo_inurba_marseille","lat":43.25498,"lon":5.37652,"is_reserved":false,"is_disabled":false,"rental_uris":{"android":"levelo://app?vid=35ae0824-f6a1-494d-ad0e-71e2a1b9e68e","ios":"levelo://app?vid=35ae0824-f6a1-494d-ad0e-71e2a1b9e68e"},"vehicle_type_id":"4","last_reported":1732086591,"current_range_meters":38000,"station_id":"ce4bhh12rcd13ifvqff0","pricing_plan_id":"cebpf4jnsgd1na2vs0mg"},{"bike_id":"ae11e008-6d1b-40d3-b8ae-f0a7e32b61fd","system_id":"levelo_inurba_marseille","lat":43.32538,"lon":5.4143,"is_reserved":false,"is_disabled":false,"rental_uris":{"android":"levelo://app?vid=ae11e008-6d1b-40d3-b8ae-f0a7e32b61fd","ios":"levelo://app?vid=ae11e008-6d1b-40d3-b8ae-f0a7e32b61fd"},"vehicle_type_id":"4","last_reported":1732086591,"current_range_meters":7200,"station_id":"ce4bhq12rcd13ifvqhhg","pricing_plan_id":"cebpf4jnsgd1na2vs0mg"},{"bike_id":"3a4fa403-18c4-4c28-bf14-b7b166e74ddb","system_id":"levelo_inurba_marseille","lat":43.32111,"lon":5.36767,"is_reserved":false,"is_disabled":false,"rental_uris":{"android":"levelo://app?vid=3a4fa403-18c4-4c28-bf14-b7b166e74ddb","ios":"levelo://app?vid=3a4fa403-18c4-4c28-bf14-b7b166e74ddb"},"vehicle_type_id":"4","last_reported":1732086591,"current_range_meters":38400,"station_id":"ce4bhrh2rcd13ifvqhug","pricing_plan_id":"cebpf4jnsgd1na2vs0mg"},{"bike_id":"1eff5ce5-2d56-4465-a12c-60db9ec2175a","system_id":"levelo_inurba_marseille","lat":43.22928,"lon":5.35375,"is_reserved":false,"is_disabled":false,"rental_uris":{"android":"levelo://app?vid=1eff5ce5-2d56-4465-a12c-60db9ec2175a","ios":"levelo://app?vid=1eff5ce5-2d56-4465-a12c-60db9ec2175a"},"vehicle_type_id":"4","last_reported":1732086591,"current_range_meters":17600,"station_id":"cpo3532slgdg3j2ikp40","pricing_plan_id":"cebpf4jnsgd1na2vs0mg"},{"bike_id":"6ac38c08-263b-4dbc-9230-678d7993bb91","system_id":"levelo_inurba_marseille","lat":43.29302,"lon":5.37167,"is_reserved":false,"is_disabled":true,"rental_uris":{"android":"levelo://app?vid=6ac38c08-263b-4dbc-9230-678d7993bb91","ios":"levelo://app?vid=6ac38c08-263b-4dbc-9230-678d7993bb91"},"vehicle_type_id":"4","last_reported":1732086591,"current_range_meters":24800,"station_id":"ce4bgh92rcd13ifvqb40","pricing_plan_id":"cebpf4jnsgd1na2vs0mg"},{"bike_id":"03c70f13-2d6f-426a-9552-7093ee42e50e","system_id":"levelo_inurba_marseille","lat":43.26956,"lon":5.38633,"is_reserved":false,"is_disabled":false,"rental_uris":{"android":"levelo://app?vid=03c70f13-2d6f-426a-9552-7093ee42e50e","ios":"levelo://app?vid=03c70f13-2d6f-426a-9552-7093ee42e50e"},"vehicle_type_id":"4","last_reported":1732086591,"current_range_meters":30400,"station_id":"ce4bhh92rcd13ifvqfh0","pricing_plan_id":"cebpf4jnsgd1na2vs0mg"},{"bike_id":"28562547-0ec9-4393-a415-4f70691dba83","system_id":"levelo_inurba_marseille","lat":43.30149,"lon":5.38066,"is_reserved":false,"is_disabled":false,"rental_uris":{"android":"levelo://app?vid=28562547-0ec9-4393-a415-4f70691dba83","ios":"levelo://app?vid=28562547-0ec9-4393-a415-4f70691dba83"},"vehicle_type_id":"4","last_reported":1732086591,"current_range_meters":30400,"station_id":"ce4bgjp2rcd13ifvqbh0","pricing_plan_id":"cebpf4jnsgd1na2vs0mg"},{"bike_id":"e43cda0f-ead7-41b5-a67d-222d092a48a1","system_id":"levelo_inurba_marseille","lat":43.337444,"lon":5.374475,"is_reserved":false,"is_disabled":false,"rental_uris":{"android":"levelo://app?vid=e43cda0f-ead7-41b5-a67d-222d092a48a1","ios":"levelo://app?vid=e43cda0f-ead7-41b5-a67d-222d092a48a1"},"vehicle_type_id":"4","last_reported":1732086591,"current_range_meters":38800,"station_id":"","pricing_plan_id":"cebpf4jnsgd1na2vs0mg"},{"bike_id":"9f3572b0-c0a7-43aa-8c1e-c100148af63b","system_id":"levelo_inurba_marseille","lat":43.29205,"lon":5.35781,"is_reserved":false,"is_disabled":true,"rental_uris":{"android":"levelo://app?vid=9f3572b0-c0a7-43aa-8c1e-c100148af63b","ios":"levelo://app?vid=9f3572b0-c0a7-43aa-8c1e-c100148af63b"},"vehicle_type_id":"4","last_reported":1732086591,"current_range_meters":38400,"station_id":"ce4bhb12rcd13ifvqel0","pricing_plan_id":"cebpf4jnsgd1na2vs0mg"},{"bike_id":"954054ad-77ac-46c3-a1b5-c8fc266a522b","system_id":"levelo_inurba_marseille","lat":43.31723,"lon":5.42394,"is_reserved":false,"is_disabled":false,"rental_uris":{"android":"levelo://app?vid=954054ad-77ac-46c3-a1b5-c8fc266a522b","ios":"levelo://app?vid=954054ad-77ac-46c3-a1b5-c8fc266a522b"},"vehicle_type_id":"4","last_reported":1732086591,"current_range_meters":38800,"station_id":"ce4bhp92rcd13ifvqhbg","pricing_plan_id":"cebpf4jnsgd1na2vs0mg"},{"bike_id":"0694dfa5-aa91-4175-b2b8-06f4b4a8d95c","system_id":"levelo_inurba_marseille","lat":43.26683,"lon":5.38271,"is_reserved":false,"is_disabled":false,"rental_uris":{"android":"levelo://app?vid=0694dfa5-aa91-4175-b2b8-06f4b4a8d95c","ios":"levelo://app?vid=0694dfa5-aa91-4175-b2b8-06f4b4a8d95c"},"vehicle_type_id":"4","last_reported":1732086591,"current_range_meters":38000,"station_id":"ce4bhg92rcd13ifvqf90","pricing_plan_id":"cebpf4jnsgd1na2vs0mg"},{"bike_id":"441bf19a-b753-4fc1-aa45-402cde86468f","system_id":"levelo_inurba_marseille","lat":43.29275,"lon":5.40126,"is_reserved":false,"is_disabled":false,"rental_uris":{"android":"levelo://app?vid=441bf19a-b753-4fc1-aa45-402cde86468f","ios":"levelo://app?vid=441bf19a-b753-4fc1-aa45-402cde86468f"},"vehicle_type_id":"4","last_reported":1732086591,"current_range_meters":35600,"station_id":"ce4bh312rcd13ifvqdk0","pricing_plan_id":"cebpf4jnsgd1na2vs0mg"},{"bike_id":"9c4a655e-2680-4a60-a844-6a2ea62fb4b1","system_id":"levelo_inurba_marseille","lat":43.26063,"lon":5.39395,"is_reserved":false,"is_disabled":true,"rental_uris":{"android":"levelo://app?vid=9c4a655e-2680-4a60-a844-6a2ea62fb4b1","ios":"levelo://app?vid=9c4a655e-2680-4a60-a844-6a2ea62fb4b1"},"vehicle_type_id":"4","last_reported":1732086591,"current_range_meters":25600,"station_id":"ce4bhh92rcd13ifvqfj0","pricing_plan_id":"cebpf4jnsgd1na2vs0mg"},{"bike_id":"2d983866-913c-4390-ae48-1873d10c9730","system_id":"levelo_inurba_marseille","lat":43.24814,"lon":5.37458,"is_reserved":false,"is_disabled":true,"rental_uris":{"android":"levelo://app?vid=2d983866-913c-4390-ae48-1873d10c9730","ios":"levelo://app?vid=2d983866-913c-4390-ae48-1873d10c9730"},"vehicle_type_id":"4","last_reported":1732086591,"current_range_meters":10000,"station_id":"ce4bhgh2rcd13ifvqfb0","pricing_plan_id":"cebpf4jnsgd1na2vs0mg"},{"bike_id":"1c4f186c-c673-4456-98ed-2a3680dce101","system_id":"levelo_inurba_marseille","lat":43.30814,"lon":5.38122,"is_reserved":false,"is_disabled":false,"rental_uris":{"android":"levelo://app?vid=1c4f186c-c673-4456-98ed-2a3680dce101","ios":"levelo://app?vid=1c4f186c-c673-4456-98ed-2a3680dce101"},"vehicle_type_id":"4","last_reported":1732086591,"current_range_meters":36800,"station_id":"ce4bgt12rcd13ifvqce0","pricing_plan_id":"cebpf4jnsgd1na2vs0mg"},{"bike_id":"f4314a8a-82cc-4e28-9519-7b232ac298b7","system_id":"levelo_inurba_marseille","lat":43.299248,"lon":5.3747,"is_reserved":false,"is_disabled":false,"rental_uris":{"android":"levelo://app?vid=f4314a8a-82cc-4e28-9519-7b232ac298b7","ios":"levelo://app?vid=f4314a8a-82cc-4e28-9519-7b232ac298b7"},"vehicle_type_id":"4","last_reported":1732086591,"current_range_meters":36800,"station_id":"ce4bgjh2rcd13ifvqbg0","pricing_plan_id":"cebpf4jnsgd1na2vs0mg"},{"bike_id":"be0057d7-36ed-4552-93a5-d26a01d6fce9","system_id":"levelo_inurba_marseille","lat":43.31735,"lon":5.37794,"is_reserved":false,"is_disabled":false,"rental_uris":{"android":"levelo://app?vid=be0057d7-36ed-4552-93a5-d26a01d6fce9","ios":"levelo://app?vid=be0057d7-36ed-4552-93a5-d26a01d6fce9"},"vehicle_type_id":"4","last_reported":1732086591,"current_range_meters":27600,"station_id":"","pricing_plan_id":"cebpf4jnsgd1na2vs0mg"},{"bike_id":"e840fe4f-47a0-4d31-8133-7c332a3d517a","system_id":"levelo_inurba_marseille","lat":43.31078,"lon":5.42432,"is_reserved":false,"is_disabled":true,"rental_uris":{"android":"levelo://app?vid=e840fe4f-47a0-4d31-8133-7c332a3d517a","ios":"levelo://app?vid=e840fe4f-47a0-4d31-8133-7c332a3d517a"},"vehicle_type_id":"4","last_reported":1732086591,"current_range_meters":12400,"station_id":"ce4bhp92rcd13ifvqhag","pricing_plan_id":"cebpf4jnsgd1na2vs0mg"},{"bike_id":"d88da729-3a82-486f-b734-abaa176a4658","system_id":"levelo_inurba_marseille","lat":43.3189,"lon":5.40732,"is_reserved":false,"is_disabled":false,"rental_uris":{"android":"levelo://app?vid=d88da729-3a82-486f-b734-abaa176a4658","ios":"levelo://app?vid=d88da729-3a82-486f-b734-abaa176a4658"},"vehicle_type_id":"4","last_reported":1732086591,"current_range_meters":38800,"station_id":"ce4bhq12rcd13ifvqhig","pricing_plan_id":"cebpf4jnsgd1na2vs0mg"},{"bike_id":"7db3e109-59af-4df6-ad20-7ea41f506454","system_id":"levelo_inurba_marseille","lat":43.33018,"lon":5.39035,"is_reserved":false,"is_disabled":false,"rental_uris":{"android":"levelo://app?vid=7db3e109-59af-4df6-ad20-7ea41f506454","ios":"levelo://app?vid=7db3e109-59af-4df6-ad20-7ea41f506454"},"vehicle_type_id":"4","last_reported":1732086591,"current_range_meters":8400,"station_id":"ce4bhr92rcd13ifvqhrg","pricing_plan_id":"cebpf4jnsgd1na2vs0mg"},{"bike_id":"5bddf6e5-633d-4da8-a478-cc22aa6ccefd","system_id":"levelo_inurba_marseille","lat":43.28935,"lon":5.36396,"is_reserved":false,"is_disabled":false,"rental_uris":{"android":"levelo://app?vid=5bddf6e5-633d-4da8-a478-cc22aa6ccefd","ios":"levelo://app?vid=5bddf6e5-633d-4da8-a478-cc22aa6ccefd"},"vehicle_type_id":"4","last_reported":1732086591,"current_range_meters":38800,"station_id":"ce4bhc92rcd13ifvqetg","pricing_plan_id":"cebpf4jnsgd1na2vs0mg"},{"bike_id":"a1cf6f06-44aa-4bc8-9eb2-8055a5e207a9","system_id":"levelo_inurba_marseille","lat":43.32484,"lon":5.36557,"is_reserved":false,"is_disabled":false,"rental_uris":{"android":"levelo://app?vid=a1cf6f06-44aa-4bc8-9eb2-8055a5e207a9","ios":"levelo://app?vid=a1cf6f06-44aa-4bc8-9eb2-8055a5e207a9"},"vehicle_type_id":"4","last_reported":1732086591,"current_range_meters":38800,"station_id":"ce4bhs12rcd13ifvqhvg","pricing_plan_id":"cebpf4jnsgd1na2vs0mg"},{"bike_id":"e264033a-f915-4b27-a08a-2f42cfcf052a","system_id":"levelo_inurba_marseille","lat":43.33768,"lon":5.3742,"is_reserved":false,"is_disabled":false,"rental_uris":{"android":"levelo://app?vid=e264033a-f915-4b27-a08a-2f42cfcf052a","ios":"levelo://app?vid=e264033a-f915-4b27-a08a-2f42cfcf052a"},"vehicle_type_id":"4","last_reported":1732086591,"current_range_meters":28400,"station_id":"","pricing_plan_id":"cebpf4jnsgd1na2vs0mg"},{"bike_id":"fbc32bca-c70f-4663-90e8-bc8b5ea1f1a1","system_id":"levelo_inurba_marseille","lat":43.27492,"lon":5.42454,"is_reserved":false,"is_disabled":false,"rental_uris":{"android":"levelo://app?vid=fbc32bca-c70f-4663-90e8-bc8b5ea1f1a1","ios":"levelo://app?vid=fbc32bca-c70f-4663-90e8-bc8b5ea1f1a1"},"vehicle_type_id":"4","last_reported":1732086591,"current_range_meters":37600,"station_id":"ce4bhn92rcd13ifvqgrg","pricing_plan_id":"cebpf4jnsgd1na2vs0mg"},{"bike_id":"bd3d0ea8-7d56-4858-8e5d-b32a9764d3b4","system_id":"levelo_inurba_marseille","lat":43.30148,"lon":5.38077,"is_reserved":false,"is_disabled":false,"rental_uris":{"android":"levelo://app?vid=bd3d0ea8-7d56-4858-8e5d-b32a9764d3b4","ios":"levelo://app?vid=bd3d0ea8-7d56-4858-8e5d-b32a9764d3b4"},"vehicle_type_id":"4","last_reported":1732086591,"current_range_meters":24800,"station_id":"ce4bgjp2rcd13ifvqbh0","pricing_plan_id":"cebpf4jnsgd1na2vs0mg"},{"bike_id":"655c88a0-7149-4f97-bb35-8cd853b7d028","system_id":"levelo_inurba_marseille","lat":43.27207,"lon":5.39176,"is_reserved":false,"is_disabled":false,"rental_uris":{"android":"levelo://app?vid=655c88a0-7149-4f97-bb35-8cd853b7d028","ios":"levelo://app?vid=655c88a0-7149-4f97-bb35-8cd853b7d028"},"vehicle_type_id":"4","last_reported":1732086591,"current_range_meters":38800,"station_id":"ce4bhhp2rcd13ifvqfm0","pricing_plan_id":"cebpf4jnsgd1na2vs0mg"},{"bike_id":"a3d63b16-5837-4e84-ad56-24f71fe63493","system_id":"levelo_inurba_marseille","lat":43.290293,"lon":5.399667,"is_reserved":false,"is_disabled":false,"rental_uris":{"android":"levelo://app?vid=a3d63b16-5837-4e84-ad56-24f71fe63493","ios":"levelo://app?vid=a3d63b16-5837-4e84-ad56-24f71fe63493"},"vehicle_type_id":"4","last_reported":1732086591,"current_range_meters":36800,"station_id":"ce4bh392rcd13ifvqdm0","pricing_plan_id":"cebpf4jnsgd1na2vs0mg"},{"bike_id":"123862ba-68e2-48f6-a477-31ab9dae8bd5","system_id":"levelo_inurba_marseille","lat":43.337444,"lon":5.374475,"is_reserved":false,"is_disabled":true,"rental_uris":{"android":"levelo://app?vid=123862ba-68e2-48f6-a477-31ab9dae8bd5","ios":"levelo://app?vid=123862ba-68e2-48f6-a477-31ab9dae8bd5"},"vehicle_type_id":"4","last_reported":1732086591,"current_range_meters":12400,"station_id":"","pricing_plan_id":"cebpf4jnsgd1na2vs0mg"},{"bike_id":"a57e1d53-2136-4179-a533-047787b1374e","system_id":"levelo_inurba_marseille","lat":43.2799,"lon":5.40007,"is_reserved":false,"is_disabled":true,"rental_uris":{"android":"levelo://app?vid=a57e1d53-2136-4179-a533-047787b1374e","ios":"levelo://app?vid=a57e1d53-2136-4179-a533-047787b1374e"},"vehicle_type_id":"4","last_reported":1732086591,"current_range_meters":37600,"station_id":"ce4bho92rcd13ifvqh4g","pricing_plan_id":"cebpf4jnsgd1na2vs0mg"},{"bike_id":"05725ad4-e1a4-4023-9f02-37bc3fcd6926","system_id":"levelo_inurba_marseille","lat":43.2315,"lon":5.43703,"is_reserved":false,"is_disabled":false,"rental_uris":{"android":"levelo://app?vid=05725ad4-e1a4-4023-9f02-37bc3fcd6926","ios":"levelo://app?vid=05725ad4-e1a4-4023-9f02-37bc3fcd6926"},"vehicle_type_id":"4","last_reported":1732086591,"current_range_meters":38800,"station_id":"ce4bhmp2rcd13ifvqgog","pricing_plan_id":"cebpf4jnsgd1na2vs0mg"},{"bike_id":"6a689696-313c-4569-b4cf-4b6fa7d2017f","system_id":"levelo_inurba_marseille","lat":43.3414,"lon":5.409,"is_reserved":false,"is_disabled":false,"rental_uris":{"android":"levelo://app?vid=6a689696-313c-4569-b4cf-4b6fa7d2017f","ios":"levelo://app?vid=6a689696-313c-4569-b4cf-4b6fa7d2017f"},"vehicle_type_id":"4","last_reported":1732086591,"current_range_meters":26000,"station_id":"ce4bhqh2rcd13ifvqhlg","pricing_plan_id":"cebpf4jnsgd1na2vs0mg"},{"bike_id":"6b3e10ea-dc88-44ac-9f7b-2fbacd5bb221","system_id":"levelo_inurba_marseille","lat":43.266815,"lon":5.382696,"is_reserved":false,"is_disabled":false,"rental_uris":{"android":"levelo://app?vid=6b3e10ea-dc88-44ac-9f7b-2fbacd5bb221","ios":"levelo://app?vid=6b3e10ea-dc88-44ac-9f7b-2fbacd5bb221"},"vehicle_type_id":"4","last_reported":1732086591,"current_range_meters":26000,"station_id":"","pricing_plan_id":"cebpf4jnsgd1na2vs0mg"},{"bike_id":"334bc317-3030-4db3-b0ae-90c93029b171","system_id":"levelo_inurba_marseille","lat":43.30475,"lon":5.37912,"is_reserved":false,"is_disabled":false,"rental_uris":{"android":"levelo://app?vid=334bc317-3030-4db3-b0ae-90c93029b171","ios":"levelo://app?vid=334bc317-3030-4db3-b0ae-90c93029b171"},"vehicle_type_id":"4","last_reported":1732086591,"current_range_meters":35200,"station_id":"ce4bgup2rcd13ifvqcn0","pricing_plan_id":"cebpf4jnsgd1na2vs0mg"},{"bike_id":"d0d15d5c-dd03-4ac3-8d31-1950dab0cf05","system_id":"levelo_inurba_marseille","lat":43.32016,"lon":5.38164,"is_reserved":false,"is_disabled":false,"rental_uris":{"android":"levelo://app?vid=d0d15d5c-dd03-4ac3-8d31-1950dab0cf05","ios":"levelo://app?vid=d0d15d5c-dd03-4ac3-8d31-1950dab0cf05"},"vehicle_type_id":"4","last_reported":1732086591,"current_range_meters":32000,"station_id":"ce4bhr12rcd13ifvqhpg","pricing_plan_id":"cebpf4jnsgd1na2vs0mg"},{"bike_id":"b6ad42db-3fda-4939-8e26-4537447dc37a","system_id":"levelo_inurba_marseille","lat":43.281593,"lon":5.386442,"is_reserved":false,"is_disabled":false,"rental_uris":{"android":"levelo://app?vid=b6ad42db-3fda-4939-8e26-4537447dc37a","ios":"levelo://app?vid=b6ad42db-3fda-4939-8e26-4537447dc37a"},"vehicle_type_id":"4","last_reported":1732086591,"current_range_meters":19600,"station_id":"ce4bh5p2rcd13ifvqe4g","pricing_plan_id":"cebpf4jnsgd1na2vs0mg"},{"bike_id":"08621d3a-b62d-4fcc-82f5-41075c970392","system_id":"levelo_inurba_marseille","lat":43.26059,"lon":5.39399,"is_reserved":false,"is_disabled":false,"rental_uris":{"android":"levelo://app?vid=08621d3a-b62d-4fcc-82f5-41075c970392","ios":"levelo://app?vid=08621d3a-b62d-4fcc-82f5-41075c970392"},"vehicle_type_id":"4","last_reported":1732086591,"current_range_meters":32000,"station_id":"ce4bhh92rcd13ifvqfj0","pricing_plan_id":"cebpf4jnsgd1na2vs0mg"},{"bike_id":"96d854f2-ec2d-4002-b9d9-a475c303287c","system_id":"levelo_inurba_marseille","lat":43.27494,"lon":5.42458,"is_reserved":false,"is_disabled":false,"rental_uris":{"android":"levelo://app?vid=96d854f2-ec2d-4002-b9d9-a475c303287c","ios":"levelo://app?vid=96d854f2-ec2d-4002-b9d9-a475c303287c"},"vehicle_type_id":"4","last_reported":1732086591,"current_range_meters":27200,"station_id":"ce4bhn92rcd13ifvqgrg","pricing_plan_id":"cebpf4jnsgd1na2vs0mg"},{"bike_id":"809c05f6-8be0-433f-88e9-beb3964d0c9e","system_id":"levelo_inurba_marseille","lat":43.27491,"lon":5.4245,"is_reserved":false,"is_disabled":false,"rental_uris":{"android":"levelo://app?vid=809c05f6-8be0-433f-88e9-beb3964d0c9e","ios":"levelo://app?vid=809c05f6-8be0-433f-88e9-beb3964d0c9e"},"vehicle_type_id":"4","last_reported":1732086591,"current_range_meters":24800,"station_id":"ce4bhn92rcd13ifvqgrg","pricing_plan_id":"cebpf4jnsgd1na2vs0mg"},{"bike_id":"392cf7cd-9024-40f6-b624-36b5ec0412f9","system_id":"levelo_inurba_marseille","lat":43.31242,"lon":5.36793,"is_reserved":false,"is_disabled":false,"rental_uris":{"android":"levelo://app?vid=392cf7cd-9024-40f6-b624-36b5ec0412f9","ios":"levelo://app?vid=392cf7cd-9024-40f6-b624-36b5ec0412f9"},"vehicle_type_id":"4","last_reported":1732086591,"current_range_meters":23200,"station_id":"ce4bgr92rcd13ifvqc6g","pricing_plan_id":"cebpf4jnsgd1na2vs0mg"},{"bike_id":"0009ec07-8c49-43d0-9918-78167d6a99be","system_id":"levelo_inurba_marseille","lat":43.246704,"lon":5.381564,"is_reserved":false,"is_disabled":false,"rental_uris":{"android":"levelo://app?vid=0009ec07-8c49-43d0-9918-78167d6a99be","ios":"levelo://app?vid=0009ec07-8c49-43d0-9918-78167d6a99be"},"vehicle_type_id":"4","last_reported":1732086591,"current_range_meters":38000,"station_id":"ce4bhih2rcd13ifvqfr0","pricing_plan_id":"cebpf4jnsgd1na2vs0mg"},{"bike_id":"efaa20f7-d2fb-4778-9ca3-b17e9193d440","system_id":"levelo_inurba_marseille","lat":43.337175,"lon":5.391741,"is_reserved":false,"is_disabled":false,"rental_uris":{"android":"levelo://app?vid=efaa20f7-d2fb-4778-9ca3-b17e9193d440","ios":"levelo://app?vid=efaa20f7-d2fb-4778-9ca3-b17e9193d440"},"vehicle_type_id":"4","last_reported":1732086591,"current_range_meters":36000,"station_id":"ce4bhr92rcd13ifvqhsg","pricing_plan_id":"cebpf4jnsgd1na2vs0mg"},{"bike_id":"42eca287-3460-4af0-902f-a7c650ccf094","system_id":"levelo_inurba_marseille","lat":43.31689,"lon":5.40463,"is_reserved":false,"is_disabled":false,"rental_uris":{"android":"levelo://app?vid=42eca287-3460-4af0-902f-a7c650ccf094","ios":"levelo://app?vid=42eca287-3460-4af0-902f-a7c650ccf094"},"vehicle_type_id":"4","last_reported":1732086591,"current_range_meters":38000,"station_id":"ce4bh012rcd13ifvqd00","pricing_plan_id":"cebpf4jnsgd1na2vs0mg"},{"bike_id":"cbb19e09-aa20-4763-8e71-dc123172ec07","system_id":"levelo_inurba_marseille","lat":43.23152,"lon":5.4371,"is_reserved":false,"is_disabled":true,"rental_uris":{"android":"levelo://app?vid=cbb19e09-aa20-4763-8e71-dc123172ec07","ios":"levelo://app?vid=cbb19e09-aa20-4763-8e71-dc123172ec07"},"vehicle_type_id":"4","last_reported":1732086591,"current_range_meters":38800,"station_id":"ce4bhmp2rcd13ifvqgog","pricing_plan_id":"cebpf4jnsgd1na2vs0mg"},{"bike_id":"66864d75-2346-429f-8d44-6391ce3744a8","system_id":"levelo_inurba_marseille","lat":43.34145,"lon":5.40897,"is_reserved":false,"is_disabled":false,"rental_uris":{"android":"levelo://app?vid=66864d75-2346-429f-8d44-6391ce3744a8","ios":"levelo://app?vid=66864d75-2346-429f-8d44-6391ce3744a8"},"vehicle_type_id":"4","last_reported":1732086591,"current_range_meters":38800,"station_id":"ce4bhqh2rcd13ifvqhlg","pricing_plan_id":"cebpf4jnsgd1na2vs0mg"},{"bike_id":"028e5427-36e2-49e1-b3db-260058fffb58","system_id":"levelo_inurba_marseille","lat":43.25575,"lon":5.38236,"is_reserved":false,"is_disabled":false,"rental_uris":{"android":"levelo://app?vid=028e5427-36e2-49e1-b3db-260058fffb58","ios":"levelo://app?vid=028e5427-36e2-49e1-b3db-260058fffb58"},"vehicle_type_id":"4","last_reported":1732086591,"current_range_meters":28800,"station_id":"ce4bhih2rcd13ifvqfs0","pricing_plan_id":"cebpf4jnsgd1na2vs0mg"},{"bike_id":"0db81cf3-40ae-4e31-aab7-a5cef3fda3e5","system_id":"levelo_inurba_marseille","lat":43.31485,"lon":5.37301,"is_reserved":false,"is_disabled":false,"rental_uris":{"android":"levelo://app?vid=0db81cf3-40ae-4e31-aab7-a5cef3fda3e5","ios":"levelo://app?vid=0db81cf3-40ae-4e31-aab7-a5cef3fda3e5"},"vehicle_type_id":"4","last_reported":1732086591,"current_range_meters":11600,"station_id":"ce4bgt12rcd13ifvqcd0","pricing_plan_id":"cebpf4jnsgd1na2vs0mg"},{"bike_id":"c9ff81c5-baef-454a-8e76-82609d16ae76","system_id":"levelo_inurba_marseille","lat":43.30585,"lon":5.39345,"is_reserved":false,"is_disabled":false,"rental_uris":{"android":"levelo://app?vid=c9ff81c5-baef-454a-8e76-82609d16ae76","ios":"levelo://app?vid=c9ff81c5-baef-454a-8e76-82609d16ae76"},"vehicle_type_id":"4","last_reported":1732086591,"current_range_meters":38800,"station_id":"ce4bh0p2rcd13ifvqd80","pricing_plan_id":"cebpf4jnsgd1na2vs0mg"},{"bike_id":"9e5155cc-9158-47b5-bb3f-3254ca5454c2","system_id":"levelo_inurba_marseille","lat":43.31339,"lon":5.36717,"is_reserved":false,"is_disabled":false,"rental_uris":{"android":"levelo://app?vid=9e5155cc-9158-47b5-bb3f-3254ca5454c2","ios":"levelo://app?vid=9e5155cc-9158-47b5-bb3f-3254ca5454c2"},"vehicle_type_id":"4","last_reported":1732086591,"current_range_meters":38800,"station_id":"ce4bgr92rcd13ifvqc6g","pricing_plan_id":"cebpf4jnsgd1na2vs0mg"},{"bike_id":"401c2a19-8b43-4a12-92ed-f8e71f230e4b","system_id":"levelo_inurba_marseille","lat":43.30456,"lon":5.38865,"is_reserved":false,"is_disabled":false,"rental_uris":{"android":"levelo://app?vid=401c2a19-8b43-4a12-92ed-f8e71f230e4b","ios":"levelo://app?vid=401c2a19-8b43-4a12-92ed-f8e71f230e4b"},"vehicle_type_id":"4","last_reported":1732086591,"current_range_meters":32000,"station_id":"ce4bgk12rcd13ifvqbi0","pricing_plan_id":"cebpf4jnsgd1na2vs0mg"},{"bike_id":"d59f7209-002b-47cd-bf9f-933eab728f1f","system_id":"levelo_inurba_marseille","lat":43.29191,"lon":5.35818,"is_reserved":false,"is_disabled":false,"rental_uris":{"android":"levelo://app?vid=d59f7209-002b-47cd-bf9f-933eab728f1f","ios":"levelo://app?vid=d59f7209-002b-47cd-bf9f-933eab728f1f"},"vehicle_type_id":"4","last_reported":1732086591,"current_range_meters":37600,"station_id":"ce4bhb12rcd13ifvqel0","pricing_plan_id":"cebpf4jnsgd1na2vs0mg"},{"bike_id":"58b348a0-214e-4585-b413-619a307634a9","system_id":"levelo_inurba_marseille","lat":43.28917,"lon":5.38392,"is_reserved":false,"is_disabled":true,"rental_uris":{"android":"levelo://app?vid=58b348a0-214e-4585-b413-619a307634a9","ios":"levelo://app?vid=58b348a0-214e-4585-b413-619a307634a9"},"vehicle_type_id":"4","last_reported":1732086591,"current_range_meters":33600,"station_id":"ce4bh612rcd13ifvqe6g","pricing_plan_id":"cebpf4jnsgd1na2vs0mg"},{"bike_id":"22606d5d-ac7c-401e-9328-08c0d60eaa89","system_id":"levelo_inurba_marseille","lat":43.28947,"lon":5.36397,"is_reserved":false,"is_disabled":false,"rental_uris":{"android":"levelo://app?vid=22606d5d-ac7c-401e-9328-08c0d60eaa89","ios":"levelo://app?vid=22606d5d-ac7c-401e-9328-08c0d60eaa89"},"vehicle_type_id":"4","last_reported":1732086591,"current_range_meters":36400,"station_id":"ce4bhc92rcd13ifvqetg","pricing_plan_id":"cebpf4jnsgd1na2vs0mg"},{"bike_id":"eb31963b-4b61-411c-a88a-07e8f7439c2a","system_id":"levelo_inurba_marseille","lat":43.3361,"lon":5.4103,"is_reserved":false,"is_disabled":false,"rental_uris":{"android":"levelo://app?vid=eb31963b-4b61-411c-a88a-07e8f7439c2a","ios":"levelo://app?vid=eb31963b-4b61-411c-a88a-07e8f7439c2a"},"vehicle_type_id":"4","last_reported":1732086591,"current_range_meters":12800,"station_id":"ce4bhqh2rcd13ifvqhmg","pricing_plan_id":"cebpf4jnsgd1na2vs0mg"},{"bike_id":"b6a5dd45-3299-4794-bb3d-6c5c2b5a78a1","system_id":"levelo_inurba_marseille","lat":43.33023,"lon":5.39041,"is_reserved":false,"is_disabled":false,"rental_uris":{"android":"levelo://app?vid=b6a5dd45-3299-4794-bb3d-6c5c2b5a78a1","ios":"levelo://app?vid=b6a5dd45-3299-4794-bb3d-6c5c2b5a78a1"},"vehicle_type_id":"4","last_reported":1732086591,"current_range_meters":38400,"station_id":"ce4bhr92rcd13ifvqhrg","pricing_plan_id":"cebpf4jnsgd1na2vs0mg"},{"bike_id":"ea3698ba-4aa8-4712-b521-18ff56838777","system_id":"levelo_inurba_marseille","lat":43.25495,"lon":5.37644,"is_reserved":false,"is_disabled":false,"rental_uris":{"android":"levelo://app?vid=ea3698ba-4aa8-4712-b521-18ff56838777","ios":"levelo://app?vid=ea3698ba-4aa8-4712-b521-18ff56838777"},"vehicle_type_id":"4","last_reported":1732086591,"current_range_meters":38000,"station_id":"ce4bhh12rcd13ifvqff0","pricing_plan_id":"cebpf4jnsgd1na2vs0mg"},{"bike_id":"3d265bf3-4f47-4dde-b008-c1fedc3da151","system_id":"levelo_inurba_marseille","lat":43.30799,"lon":5.38148,"is_reserved":false,"is_disabled":false,"rental_uris":{"android":"levelo://app?vid=3d265bf3-4f47-4dde-b008-c1fedc3da151","ios":"levelo://app?vid=3d265bf3-4f47-4dde-b008-c1fedc3da151"},"vehicle_type_id":"4","last_reported":1732086591,"current_range_meters":38800,"station_id":"ce4bgt12rcd13ifvqce0","pricing_plan_id":"cebpf4jnsgd1na2vs0mg"},{"bike_id":"1ef57c9f-357d-4ac1-9eff-e7a289413fc4","system_id":"levelo_inurba_marseille","lat":43.25117,"lon":5.40317,"is_reserved":false,"is_disabled":false,"rental_uris":{"android":"levelo://app?vid=1ef57c9f-357d-4ac1-9eff-e7a289413fc4","ios":"levelo://app?vid=1ef57c9f-357d-4ac1-9eff-e7a289413fc4"},"vehicle_type_id":"4","last_reported":1732086591,"current_range_meters":38800,"station_id":"ce4bhlh2rcd13ifvqgig","pricing_plan_id":"cebpf4jnsgd1na2vs0mg"},{"bike_id":"97a35da9-3917-40ad-b9e7-9f7cbd6aff5c","system_id":"levelo_inurba_marseille","lat":43.30142,"lon":5.39871,"is_reserved":false,"is_disabled":true,"rental_uris":{"android":"levelo://app?vid=97a35da9-3917-40ad-b9e7-9f7cbd6aff5c","ios":"levelo://app?vid=97a35da9-3917-40ad-b9e7-9f7cbd6aff5c"},"vehicle_type_id":"4","last_reported":1732086591,"current_range_meters":29600,"station_id":"ce4bh0h2rcd13ifvqd40","pricing_plan_id":"cebpf4jnsgd1na2vs0mg"},{"bike_id":"ce8ec497-c0fa-4832-8887-855e36d41f3a","system_id":"levelo_inurba_marseille","lat":43.29609,"lon":5.38097,"is_reserved":false,"is_disabled":false,"rental_uris":{"android":"levelo://app?vid=ce8ec497-c0fa-4832-8887-855e36d41f3a","ios":"levelo://app?vid=ce8ec497-c0fa-4832-8887-855e36d41f3a"},"vehicle_type_id":"4","last_reported":1732086591,"current_range_meters":30400,"station_id":"ce4bgl12rcd13ifvqbo0","pricing_plan_id":"cebpf4jnsgd1na2vs0mg"},{"bike_id":"1bef340b-cb81-49e5-b80b-2d58ba4bd2b5","system_id":"levelo_inurba_marseille","lat":43.29608,"lon":5.38106,"is_reserved":false,"is_disabled":false,"rental_uris":{"android":"levelo://app?vid=1bef340b-cb81-49e5-b80b-2d58ba4bd2b5","ios":"levelo://app?vid=1bef340b-cb81-49e5-b80b-2d58ba4bd2b5"},"vehicle_type_id":"4","last_reported":1732086591,"current_range_meters":33200,"station_id":"ce4bgl12rcd13ifvqbo0","pricing_plan_id":"cebpf4jnsgd1na2vs0mg"},{"bike_id":"e5951ee3-4a5a-4ebb-b469-096c5188dfa3","system_id":"levelo_inurba_marseille","lat":43.23188,"lon":5.35561,"is_reserved":false,"is_disabled":true,"rental_uris":{"android":"levelo://app?vid=e5951ee3-4a5a-4ebb-b469-096c5188dfa3","ios":"levelo://app?vid=e5951ee3-4a5a-4ebb-b469-096c5188dfa3"},"vehicle_type_id":"4","last_reported":1732086591,"current_range_meters":0,"station_id":"ce4bhu92rcd13ifvqi70","pricing_plan_id":"cebpf4jnsgd1na2vs0mg"},{"bike_id":"2c677907-b9f0-4d96-985f-d50dcb1b18c5","system_id":"levelo_inurba_marseille","lat":43.28852,"lon":5.39306,"is_reserved":false,"is_disabled":false,"rental_uris":{"android":"levelo://app?vid=2c677907-b9f0-4d96-985f-d50dcb1b18c5","ios":"levelo://app?vid=2c677907-b9f0-4d96-985f-d50dcb1b18c5"},"vehicle_type_id":"4","last_reported":1732086591,"current_range_meters":28400,"station_id":"ce4bh2p2rcd13ifvqdi0","pricing_plan_id":"cebpf4jnsgd1na2vs0mg"},{"bike_id":"e479f909-ae5e-41db-9d1a-44b3b5e351a9","system_id":"levelo_inurba_marseille","lat":43.30781,"lon":5.37652,"is_reserved":false,"is_disabled":false,"rental_uris":{"android":"levelo://app?vid=e479f909-ae5e-41db-9d1a-44b3b5e351a9","ios":"levelo://app?vid=e479f909-ae5e-41db-9d1a-44b3b5e351a9"},"vehicle_type_id":"4","last_reported":1732086591,"current_range_meters":38800,"station_id":"ce4bgv92rcd13ifvqcq0","pricing_plan_id":"cebpf4jnsgd1na2vs0mg"},{"bike_id":"b2f6b9cf-69db-40ab-8230-689c41a2c16c","system_id":"levelo_inurba_marseille","lat":43.24164,"lon":5.36398,"is_reserved":false,"is_disabled":false,"rental_uris":{"android":"levelo://app?vid=b2f6b9cf-69db-40ab-8230-689c41a2c16c","ios":"levelo://app?vid=b2f6b9cf-69db-40ab-8230-689c41a2c16c"},"vehicle_type_id":"4","last_reported":1732086591,"current_range_meters":38400,"station_id":"cpo36qri1sfpv3e86is0","pricing_plan_id":"cebpf4jnsgd1na2vs0mg"},{"bike_id":"b8ccf5c1-5ac6-47e7-b7ff-56c39cc2dd57","system_id":"levelo_inurba_marseille","lat":43.336,"lon":5.41027,"is_reserved":false,"is_disabled":false,"rental_uris":{"android":"levelo://app?vid=b8ccf5c1-5ac6-47e7-b7ff-56c39cc2dd57","ios":"levelo://app?vid=b8ccf5c1-5ac6-47e7-b7ff-56c39cc2dd57"},"vehicle_type_id":"4","last_reported":1732086591,"current_range_meters":27600,"station_id":"ce4bhqh2rcd13ifvqhmg","pricing_plan_id":"cebpf4jnsgd1na2vs0mg"},{"bike_id":"ee58c0c2-c7d8-4d0f-91e5-095566050b2d","system_id":"levelo_inurba_marseille","lat":43.28568,"lon":5.39504,"is_reserved":false,"is_disabled":false,"rental_uris":{"android":"levelo://app?vid=ee58c0c2-c7d8-4d0f-91e5-095566050b2d","ios":"levelo://app?vid=ee58c0c2-c7d8-4d0f-91e5-095566050b2d"},"vehicle_type_id":"4","last_reported":1732086591,"current_range_meters":38800,"station_id":"ce4bh292rcd13ifvqdg0","pricing_plan_id":"cebpf4jnsgd1na2vs0mg"},{"bike_id":"2910f69a-6dac-4d69-a60d-e4f1b8cce200","system_id":"levelo_inurba_marseille","lat":43.27811,"lon":5.4071,"is_reserved":false,"is_disabled":true,"rental_uris":{"android":"levelo://app?vid=2910f69a-6dac-4d69-a60d-e4f1b8cce200","ios":"levelo://app?vid=2910f69a-6dac-4d69-a60d-e4f1b8cce200"},"vehicle_type_id":"4","last_reported":1732086591,"current_range_meters":14800,"station_id":"ce4bhnh2rcd13ifvqgtg","pricing_plan_id":"cebpf4jnsgd1na2vs0mg"},{"bike_id":"85958951-c637-46dc-9666-b8b26c130a33","system_id":"levelo_inurba_marseille","lat":43.23157,"lon":5.43713,"is_reserved":false,"is_disabled":false,"rental_uris":{"android":"levelo://app?vid=85958951-c637-46dc-9666-b8b26c130a33","ios":"levelo://app?vid=85958951-c637-46dc-9666-b8b26c130a33"},"vehicle_type_id":"4","last_reported":1732086591,"current_range_meters":36800,"station_id":"ce4bhmp2rcd13ifvqgog","pricing_plan_id":"cebpf4jnsgd1na2vs0mg"},{"bike_id":"8b06473f-89d9-40e7-b900-458975555237","system_id":"levelo_inurba_marseille","lat":43.31267,"lon":5.40166,"is_reserved":false,"is_disabled":false,"rental_uris":{"android":"levelo://app?vid=8b06473f-89d9-40e7-b900-458975555237","ios":"levelo://app?vid=8b06473f-89d9-40e7-b900-458975555237"},"vehicle_type_id":"4","last_reported":1732086591,"current_range_meters":38800,"station_id":"ce4bh092rcd13ifvqd30","pricing_plan_id":"cebpf4jnsgd1na2vs0mg"},{"bike_id":"3fb9dbc2-593a-43e2-9b7f-aa88375881b9","system_id":"levelo_inurba_marseille","lat":43.30465,"lon":5.37911,"is_reserved":false,"is_disabled":false,"rental_uris":{"android":"levelo://app?vid=3fb9dbc2-593a-43e2-9b7f-aa88375881b9","ios":"levelo://app?vid=3fb9dbc2-593a-43e2-9b7f-aa88375881b9"},"vehicle_type_id":"4","last_reported":1732086591,"current_range_meters":27200,"station_id":"ce4bgup2rcd13ifvqcn0","pricing_plan_id":"cebpf4jnsgd1na2vs0mg"},{"bike_id":"da118503-6ab7-4c94-98bc-2b63accd50d2","system_id":"levelo_inurba_marseille","lat":43.31083,"lon":5.42433,"is_reserved":false,"is_disabled":false,"rental_uris":{"android":"levelo://app?vid=da118503-6ab7-4c94-98bc-2b63accd50d2","ios":"levelo://app?vid=da118503-6ab7-4c94-98bc-2b63accd50d2"},"vehicle_type_id":"4","last_reported":1732086591,"current_range_meters":39200,"station_id":"ce4bhp92rcd13ifvqhag","pricing_plan_id":"cebpf4jnsgd1na2vs0mg"},{"bike_id":"072b8360-2b5d-4912-b1ce-facf5a8eb95c","system_id":"levelo_inurba_marseille","lat":43.27025,"lon":5.36418,"is_reserved":false,"is_disabled":false,"rental_uris":{"android":"levelo://app?vid=072b8360-2b5d-4912-b1ce-facf5a8eb95c","ios":"levelo://app?vid=072b8360-2b5d-4912-b1ce-facf5a8eb95c"},"vehicle_type_id":"4","last_reported":1732086591,"current_range_meters":37600,"station_id":"ce4bhnp2rcd13ifvqgvg","pricing_plan_id":"cebpf4jnsgd1na2vs0mg"},{"bike_id":"f55181d4-2053-40e2-9cda-06227a4b9bdf","system_id":"levelo_inurba_marseille","lat":43.32484,"lon":5.36551,"is_reserved":false,"is_disabled":false,"rental_uris":{"android":"levelo://app?vid=f55181d4-2053-40e2-9cda-06227a4b9bdf","ios":"levelo://app?vid=f55181d4-2053-40e2-9cda-06227a4b9bdf"},"vehicle_type_id":"4","last_reported":1732086591,"current_range_meters":38000,"station_id":"ce4bhs12rcd13ifvqhvg","pricing_plan_id":"cebpf4jnsgd1na2vs0mg"},{"bike_id":"12b42d95-e8f6-4485-9615-5f916bb8ab6b","system_id":"levelo_inurba_marseille","lat":43.34143,"lon":5.40902,"is_reserved":false,"is_disabled":false,"rental_uris":{"android":"levelo://app?vid=12b42d95-e8f6-4485-9615-5f916bb8ab6b","ios":"levelo://app?vid=12b42d95-e8f6-4485-9615-5f916bb8ab6b"},"vehicle_type_id":"4","last_reported":1732086591,"current_range_meters":38400,"station_id":"ce4bhqh2rcd13ifvqhlg","pricing_plan_id":"cebpf4jnsgd1na2vs0mg"},{"bike_id":"7ccf2f24-0143-407d-973b-322d37cb2794","system_id":"levelo_inurba_marseille","lat":43.32106,"lon":5.36771,"is_reserved":false,"is_disabled":false,"rental_uris":{"android":"levelo://app?vid=7ccf2f24-0143-407d-973b-322d37cb2794","ios":"levelo://app?vid=7ccf2f24-0143-407d-973b-322d37cb2794"},"vehicle_type_id":"4","last_reported":1732086591,"current_range_meters":27200,"station_id":"ce4bhrh2rcd13ifvqhug","pricing_plan_id":"cebpf4jnsgd1na2vs0mg"},{"bike_id":"5ca93a08-0137-49df-9944-9ca87b808332","system_id":"levelo_inurba_marseille","lat":43.30937,"lon":5.36834,"is_reserved":false,"is_disabled":false,"rental_uris":{"android":"levelo://app?vid=5ca93a08-0137-49df-9944-9ca87b808332","ios":"levelo://app?vid=5ca93a08-0137-49df-9944-9ca87b808332"},"vehicle_type_id":"4","last_reported":1732086591,"current_range_meters":9600,"station_id":"ce4bgn92rcd13ifvqbvg","pricing_plan_id":"cebpf4jnsgd1na2vs0mg"},{"bike_id":"60e072bf-a7f8-4543-b6a0-a5babc1a3c7d","system_id":"levelo_inurba_marseille","lat":43.30137,"lon":5.38774,"is_reserved":false,"is_disabled":false,"rental_uris":{"android":"levelo://app?vid=60e072bf-a7f8-4543-b6a0-a5babc1a3c7d","ios":"levelo://app?vid=60e072bf-a7f8-4543-b6a0-a5babc1a3c7d"},"vehicle_type_id":"4","last_reported":1732086591,"current_range_meters":32000,"station_id":"ce4bghh2rcd13ifvqb60","pricing_plan_id":"cebpf4jnsgd1na2vs0mg"},{"bike_id":"9d63a220-6f65-4c4e-bc7d-f427365c0c28","system_id":"levelo_inurba_marseille","lat":43.27209,"lon":5.39176,"is_reserved":false,"is_disabled":false,"rental_uris":{"android":"levelo://app?vid=9d63a220-6f65-4c4e-bc7d-f427365c0c28","ios":"levelo://app?vid=9d63a220-6f65-4c4e-bc7d-f427365c0c28"},"vehicle_type_id":"4","last_reported":1732086591,"current_range_meters":26800,"station_id":"ce4bhhp2rcd13ifvqfm0","pricing_plan_id":"cebpf4jnsgd1na2vs0mg"},{"bike_id":"f2cc4eb9-f669-4abb-815a-092e264f769c","system_id":"levelo_inurba_marseille","lat":43.28935,"lon":5.39624,"is_reserved":false,"is_disabled":false,"rental_uris":{"android":"levelo://app?vid=f2cc4eb9-f669-4abb-815a-092e264f769c","ios":"levelo://app?vid=f2cc4eb9-f669-4abb-815a-092e264f769c"},"vehicle_type_id":"4","last_reported":1732086591,"current_range_meters":28000,"station_id":"ce4bh3h2rcd13ifvqdn0","pricing_plan_id":"cebpf4jnsgd1na2vs0mg"},{"bike_id":"7e35deb2-0950-494e-a5fc-48886e723f0a","system_id":"levelo_inurba_marseille","lat":43.290368,"lon":5.37561,"is_reserved":false,"is_disabled":true,"rental_uris":{"android":"levelo://app?vid=7e35deb2-0950-494e-a5fc-48886e723f0a","ios":"levelo://app?vid=7e35deb2-0950-494e-a5fc-48886e723f0a"},"vehicle_type_id":"4","last_reported":1732086591,"current_range_meters":6000,"station_id":"ce4bh692rcd13ifvqe90","pricing_plan_id":"cebpf4jnsgd1na2vs0mg"},{"bike_id":"bfc153dc-f8fb-4d5c-8d9d-d690ada1932e","system_id":"levelo_inurba_marseille","lat":43.28338,"lon":5.38106,"is_reserved":false,"is_disabled":false,"rental_uris":{"android":"levelo://app?vid=bfc153dc-f8fb-4d5c-8d9d-d690ada1932e","ios":"levelo://app?vid=bfc153dc-f8fb-4d5c-8d9d-d690ada1932e"},"vehicle_type_id":"4","last_reported":1732086591,"current_range_meters":28000,"station_id":"ce4bh412rcd13ifvqdr0","pricing_plan_id":"cebpf4jnsgd1na2vs0mg"},{"bike_id":"503e0edc-cea9-4f2f-a1d8-f46fa575f488","system_id":"levelo_inurba_marseille","lat":43.32525,"lon":5.41444,"is_reserved":false,"is_disabled":false,"rental_uris":{"android":"levelo://app?vid=503e0edc-cea9-4f2f-a1d8-f46fa575f488","ios":"levelo://app?vid=503e0edc-cea9-4f2f-a1d8-f46fa575f488"},"vehicle_type_id":"4","last_reported":1732086591,"current_range_meters":38800,"station_id":"ce4bhq12rcd13ifvqhhg","pricing_plan_id":"cebpf4jnsgd1na2vs0mg"},{"bike_id":"d1885728-06b7-41eb-a757-d100baed048a","system_id":"levelo_inurba_marseille","lat":43.24081,"lon":5.37748,"is_reserved":false,"is_disabled":false,"rental_uris":{"android":"levelo://app?vid=d1885728-06b7-41eb-a757-d100baed048a","ios":"levelo://app?vid=d1885728-06b7-41eb-a757-d100baed048a"},"vehicle_type_id":"4","last_reported":1732086591,"current_range_meters":36000,"station_id":"ce4bhnp2rcd13ifvqgvg","pricing_plan_id":"cebpf4jnsgd1na2vs0mg"},{"bike_id":"cde5eb04-35f5-4971-aec4-8004f9b2dcd9","system_id":"levelo_inurba_marseille","lat":43.28278,"lon":5.350773,"is_reserved":false,"is_disabled":true,"rental_uris":{"android":"levelo://app?vid=cde5eb04-35f5-4971-aec4-8004f9b2dcd9","ios":"levelo://app?vid=cde5eb04-35f5-4971-aec4-8004f9b2dcd9"},"vehicle_type_id":"4","last_reported":1732086591,"current_range_meters":0,"station_id":"ce4bhbp2rcd13ifvqerg","pricing_plan_id":"cebpf4jnsgd1na2vs0mg"},{"bike_id":"145576fb-594f-4967-9357-eb6b2e04a0c6","system_id":"levelo_inurba_marseille","lat":43.27979,"lon":5.38742,"is_reserved":false,"is_disabled":true,"rental_uris":{"android":"levelo://app?vid=145576fb-594f-4967-9357-eb6b2e04a0c6","ios":"levelo://app?vid=145576fb-594f-4967-9357-eb6b2e04a0c6"},"vehicle_type_id":"4","last_reported":1732086591,"current_range_meters":1600,"station_id":"ce4bhg12rcd13ifvqf80","pricing_plan_id":"cebpf4jnsgd1na2vs0mg"},{"bike_id":"bb52f270-305e-4e82-81af-664c8357999a","system_id":"levelo_inurba_marseille","lat":43.30157,"lon":5.38068,"is_reserved":false,"is_disabled":false,"rental_uris":{"android":"levelo://app?vid=bb52f270-305e-4e82-81af-664c8357999a","ios":"levelo://app?vid=bb52f270-305e-4e82-81af-664c8357999a"},"vehicle_type_id":"4","last_reported":1732086591,"current_range_meters":29600,"station_id":"ce4bgjp2rcd13ifvqbh0","pricing_plan_id":"cebpf4jnsgd1na2vs0mg"},{"bike_id":"42d87698-6477-4da6-ac73-151cbb14450c","system_id":"levelo_inurba_marseille","lat":43.26055,"lon":5.39394,"is_reserved":false,"is_disabled":false,"rental_uris":{"android":"levelo://app?vid=42d87698-6477-4da6-ac73-151cbb14450c","ios":"levelo://app?vid=42d87698-6477-4da6-ac73-151cbb14450c"},"vehicle_type_id":"4","last_reported":1732086591,"current_range_meters":37600,"station_id":"ce4bhh92rcd13ifvqfj0","pricing_plan_id":"cebpf4jnsgd1na2vs0mg"},{"bike_id":"60ab4ef9-f939-46d5-b606-3fe8da7e5133","system_id":"levelo_inurba_marseille","lat":43.29251,"lon":5.40912,"is_reserved":false,"is_disabled":false,"rental_uris":{"android":"levelo://app?vid=60ab4ef9-f939-46d5-b606-3fe8da7e5133","ios":"levelo://app?vid=60ab4ef9-f939-46d5-b606-3fe8da7e5133"},"vehicle_type_id":"4","last_reported":1732086591,"current_range_meters":24800,"station_id":"ce4bh192rcd13ifvqdc0","pricing_plan_id":"cebpf4jnsgd1na2vs0mg"},{"bike_id":"70a6da6f-de32-4f19-92c6-1d2942f844c0","system_id":"levelo_inurba_marseille","lat":43.33602,"lon":5.41006,"is_reserved":false,"is_disabled":false,"rental_uris":{"android":"levelo://app?vid=70a6da6f-de32-4f19-92c6-1d2942f844c0","ios":"levelo://app?vid=70a6da6f-de32-4f19-92c6-1d2942f844c0"},"vehicle_type_id":"4","last_reported":1732086591,"current_range_meters":27600,"station_id":"ce4bhqh2rcd13ifvqhmg","pricing_plan_id":"cebpf4jnsgd1na2vs0mg"},{"bike_id":"b0e97ed6-2ed5-4d8a-b1fb-497710dcf0dc","system_id":"levelo_inurba_marseille","lat":43.29018,"lon":5.3814,"is_reserved":false,"is_disabled":true,"rental_uris":{"android":"levelo://app?vid=b0e97ed6-2ed5-4d8a-b1fb-497710dcf0dc","ios":"levelo://app?vid=b0e97ed6-2ed5-4d8a-b1fb-497710dcf0dc"},"vehicle_type_id":"4","last_reported":1732086591,"current_range_meters":38800,"station_id":"ce4bh4p2rcd13ifvqe1g","pricing_plan_id":"cebpf4jnsgd1na2vs0mg"},{"bike_id":"c3bc0f64-f384-48a7-9517-04f95522a7e3","system_id":"levelo_inurba_marseille","lat":43.318242,"lon":5.37611,"is_reserved":false,"is_disabled":true,"rental_uris":{"android":"levelo://app?vid=c3bc0f64-f384-48a7-9517-04f95522a7e3","ios":"levelo://app?vid=c3bc0f64-f384-48a7-9517-04f95522a7e3"},"vehicle_type_id":"4","last_reported":1732086591,"current_range_meters":12000,"station_id":"","pricing_plan_id":"cebpf4jnsgd1na2vs0mg"},{"bike_id":"89429ed2-f839-4749-bcb9-3e5230fe3bfb","system_id":"levelo_inurba_marseille","lat":43.33719,"lon":5.39185,"is_reserved":false,"is_disabled":false,"rental_uris":{"android":"levelo://app?vid=89429ed2-f839-4749-bcb9-3e5230fe3bfb","ios":"levelo://app?vid=89429ed2-f839-4749-bcb9-3e5230fe3bfb"},"vehicle_type_id":"4","last_reported":1732086591,"current_range_meters":32800,"station_id":"ce4bhr92rcd13ifvqhsg","pricing_plan_id":"cebpf4jnsgd1na2vs0mg"},{"bike_id":"2fbee717-9497-4bb1-9380-51a4c833a35f","system_id":"levelo_inurba_marseille","lat":43.33605,"lon":5.41033,"is_reserved":false,"is_disabled":false,"rental_uris":{"android":"levelo://app?vid=2fbee717-9497-4bb1-9380-51a4c833a35f","ios":"levelo://app?vid=2fbee717-9497-4bb1-9380-51a4c833a35f"},"vehicle_type_id":"4","last_reported":1732086591,"current_range_meters":37600,"station_id":"ce4bhqh2rcd13ifvqhmg","pricing_plan_id":"cebpf4jnsgd1na2vs0mg"},{"bike_id":"28a1bdc2-51eb-4a09-9ce0-3f693df9f09d","system_id":"levelo_inurba_marseille","lat":43.30142,"lon":5.38082,"is_reserved":false,"is_disabled":false,"rental_uris":{"android":"levelo://app?vid=28a1bdc2-51eb-4a09-9ce0-3f693df9f09d","ios":"levelo://app?vid=28a1bdc2-51eb-4a09-9ce0-3f693df9f09d"},