{"last_updated":1766423450,"ttl":60,"version":"2.2","data":{"bikes":[{"bike_id":"7fdb2a07-0377-4d4f-9af5-a79618775d71","system_id":"levelo_inurba_marseille","lat":43.29797,"lon":5.38083,"is_reserved":false,"is_disabled":false,"rental_uris":{"android":"levelo://app?vid=7fdb2a07-0377-4d4f-9af5-a79618775d71","ios":"levelo://app?vid=7fdb2a07-0377-4d4f-9af5-a79618775d71"},"vehicle_type_id":"4","last_reported":1766423450,"current_range_meters":3200,"station_id":"ce4bgip2rcd13ifvqbb0","pricing_plan_id":"cebpf4jnsgd1na2vs0mg"},{"bike_id":"a155df3e-4b60-4af2-bb99-ef9672812592","system_id":"levelo_inurba_marseille","lat":43.3118,"lon":5.38161,"is_reserved":false,"is_disabled":true,"rental_uris":{"android":"levelo://app?vid=a155df3e-4b60-4af2-bb99-ef9672812592","ios":"levelo://app?vid=a155df3e-4b60-4af2-bb99-ef9672812592"},"vehicle_type_id":"4","last_reported":1766423450,"current_range_meters":3200,"station_id":"","pricing_plan_id":"cebpf4jnsgd1na2vs0mg"},{"bike_id":"90dac6f2-4e58-4623-b929-4f8d06ec1c31","system_id":"levelo_inurba_marseille","lat":43.28503,"lon":5.42536,"is_reserved":false,"is_disabled":false,"rental_uris":{"android":"levelo://app?vid=90dac6f2-4e58-4623-b929-4f8d06ec1c31","ios":"levelo://app?vid=90dac6f2-4e58-4623-b929-4f8d06ec1c31"},"vehicle_type_id":"4","last_reported":1766423450,"current_range_meters":3600,"station_id":"","pricing_plan_id":"cebpf4jnsgd1na2vs0mg"},{"bike_id":"6321fe57-59f4-4d15-83e3-f64320476ab2","system_id":"levelo_inurba_marseille","lat":43.21201,"lon":5.3507,"is_reserved":false,"is_disabled":false,"rental_uris":{"android":"levelo://app?vid=6321fe57-59f4-4d15-83e3-f64320476ab2","ios":"levelo://app?vid=6321fe57-59f4-4d15-83e3-f64320476ab2"},"vehicle_type_id":"4","last_reported":1766423450,"current_range_meters":3600,"station_id":"st_cvj6sg6p6f1abm77japg","pricing_plan_id":"cebpf4jnsgd1na2vs0mg"},{"bike_id":"467661a3-5031-472c-9c38-eaeef59e065e","system_id":"levelo_inurba_marseille","lat":43.29169,"lon":5.371565,"is_reserved":false,"is_disabled":false,"rental_uris":{"android":"levelo://app?vid=467661a3-5031-472c-9c38-eaeef59e065e","ios":"levelo://app?vid=467661a3-5031-472c-9c38-eaeef59e065e"},"vehicle_type_id":"4","last_reported":1766423450,"current_range_meters":3600,"station_id":"ce4bha92rcd13ifvqeh0","pricing_plan_id":"cebpf4jnsgd1na2vs0mg"},{"bike_id":"b2f0ff7c-3911-453b-8202-193191715a8a","system_id":"levelo_inurba_marseille","lat":43.28923,"lon":5.38394,"is_reserved":false,"is_disabled":false,"rental_uris":{"android":"levelo://app?vid=b2f0ff7c-3911-453b-8202-193191715a8a","ios":"levelo://app?vid=b2f0ff7c-3911-453b-8202-193191715a8a"},"vehicle_type_id":"4","last_reported":1766423450,"current_range_meters":3600,"station_id":"ce4bh612rcd13ifvqe6g","pricing_plan_id":"cebpf4jnsgd1na2vs0mg"},{"bike_id":"2e5a22cc-868e-46b0-a08b-d8e9ab3d15f6","system_id":"levelo_inurba_marseille","lat":43.27339,"lon":5.3908,"is_reserved":false,"is_disabled":false,"rental_uris":{"android":"levelo://app?vid=2e5a22cc-868e-46b0-a08b-d8e9ab3d15f6","ios":"levelo://app?vid=2e5a22cc-868e-46b0-a08b-d8e9ab3d15f6"},"vehicle_type_id":"4","last_reported":1766423450,"current_range_meters":3600,"station_id":"ce4bhgp2rcd13ifvqfe0","pricing_plan_id":"cebpf4jnsgd1na2vs0mg"},{"bike_id":"323c39c5-b772-44f1-99f1-1527382004a9","system_id":"levelo_inurba_marseille","lat":43.29976,"lon":5.38489,"is_reserved":false,"is_disabled":false,"rental_uris":{"android":"levelo://app?vid=323c39c5-b772-44f1-99f1-1527382004a9","ios":"levelo://app?vid=323c39c5-b772-44f1-99f1-1527382004a9"},"vehicle_type_id":"4","last_reported":1766423450,"current_range_meters":4000,"station_id":"ce4bgj92rcd13ifvqbd0","pricing_plan_id":"cebpf4jnsgd1na2vs0mg"},{"bike_id":"5cdf0c26-71fe-4230-ab4f-b50d47db508a","system_id":"levelo_inurba_marseille","lat":43.30163,"lon":5.39752,"is_reserved":false,"is_disabled":false,"rental_uris":{"android":"levelo://app?vid=5cdf0c26-71fe-4230-ab4f-b50d47db508a","ios":"levelo://app?vid=5cdf0c26-71fe-4230-ab4f-b50d47db508a"},"vehicle_type_id":"4","last_reported":1766423450,"current_range_meters":4000,"station_id":"","pricing_plan_id":"cebpf4jnsgd1na2vs0mg"},{"bike_id":"441a3b4f-887c-4f90-a53a-6506a70f2834","system_id":"levelo_inurba_marseille","lat":43.30779,"lon":5.37648,"is_reserved":false,"is_disabled":false,"rental_uris":{"android":"levelo://app?vid=441a3b4f-887c-4f90-a53a-6506a70f2834","ios":"levelo://app?vid=441a3b4f-887c-4f90-a53a-6506a70f2834"},"vehicle_type_id":"4","last_reported":1766423450,"current_range_meters":4000,"station_id":"ce4bgv92rcd13ifvqcq0","pricing_plan_id":"cebpf4jnsgd1na2vs0mg"},{"bike_id":"1d10a09c-208d-4b99-aa85-15827698769b","system_id":"levelo_inurba_marseille","lat":43.27586,"lon":5.39677,"is_reserved":false,"is_disabled":false,"rental_uris":{"android":"levelo://app?vid=1d10a09c-208d-4b99-aa85-15827698769b","ios":"levelo://app?vid=1d10a09c-208d-4b99-aa85-15827698769b"},"vehicle_type_id":"4","last_reported":1766423450,"current_range_meters":4800,"station_id":"","pricing_plan_id":"cebpf4jnsgd1na2vs0mg"},{"bike_id":"d64d7079-698e-467e-91ad-23ca7f7d50a3","system_id":"levelo_inurba_marseille","lat":43.27815,"lon":5.40714,"is_reserved":false,"is_disabled":false,"rental_uris":{"android":"levelo://app?vid=d64d7079-698e-467e-91ad-23ca7f7d50a3","ios":"levelo://app?vid=d64d7079-698e-467e-91ad-23ca7f7d50a3"},"vehicle_type_id":"4","last_reported":1766423450,"current_range_meters":5600,"station_id":"ce4bhnh2rcd13ifvqgtg","pricing_plan_id":"cebpf4jnsgd1na2vs0mg"},{"bike_id":"92a6073d-8ff2-4fea-9262-f716681ea9af","system_id":"levelo_inurba_marseille","lat":43.29726,"lon":5.37703,"is_reserved":false,"is_disabled":false,"rental_uris":{"android":"levelo://app?vid=92a6073d-8ff2-4fea-9262-f716681ea9af","ios":"levelo://app?vid=92a6073d-8ff2-4fea-9262-f716681ea9af"},"vehicle_type_id":"4","last_reported":1766423450,"current_range_meters":6000,"station_id":"ce4bgkh2rcd13ifvqbl0","pricing_plan_id":"cebpf4jnsgd1na2vs0mg"},{"bike_id":"8199204f-7fc8-4cbe-91e6-5422ebfb14c6","system_id":"levelo_inurba_marseille","lat":43.2732,"lon":5.39072,"is_reserved":false,"is_disabled":false,"rental_uris":{"android":"levelo://app?vid=8199204f-7fc8-4cbe-91e6-5422ebfb14c6","ios":"levelo://app?vid=8199204f-7fc8-4cbe-91e6-5422ebfb14c6"},"vehicle_type_id":"4","last_reported":1766423450,"current_range_meters":6000,"station_id":"ce4bhgp2rcd13ifvqfe0","pricing_plan_id":"cebpf4jnsgd1na2vs0mg"},{"bike_id":"47caf9f2-de58-446a-bd65-3075a25cde7d","system_id":"levelo_inurba_marseille","lat":43.302521,"lon":5.400859,"is_reserved":false,"is_disabled":false,"rental_uris":{"android":"levelo://app?vid=47caf9f2-de58-446a-bd65-3075a25cde7d","ios":"levelo://app?vid=47caf9f2-de58-446a-bd65-3075a25cde7d"},"vehicle_type_id":"4","last_reported":1766423450,"current_range_meters":6000,"station_id":"ce4bgvh2rcd13ifvqcs0","pricing_plan_id":"cebpf4jnsgd1na2vs0mg"},{"bike_id":"0322a75c-87d7-4d92-ae79-e69efa07983e","system_id":"levelo_inurba_marseille","lat":43.29725,"lon":5.37688,"is_reserved":false,"is_disabled":false,"rental_uris":{"android":"levelo://app?vid=0322a75c-87d7-4d92-ae79-e69efa07983e","ios":"levelo://app?vid=0322a75c-87d7-4d92-ae79-e69efa07983e"},"vehicle_type_id":"4","last_reported":1766423450,"current_range_meters":6000,"station_id":"ce4bgkh2rcd13ifvqbl0","pricing_plan_id":"cebpf4jnsgd1na2vs0mg"},{"bike_id":"6230b97f-7985-49e9-8fb8-5f6b22901bc4","system_id":"levelo_inurba_marseille","lat":43.26038,"lon":5.37544,"is_reserved":false,"is_disabled":false,"rental_uris":{"android":"levelo://app?vid=6230b97f-7985-49e9-8fb8-5f6b22901bc4","ios":"levelo://app?vid=6230b97f-7985-49e9-8fb8-5f6b22901bc4"},"vehicle_type_id":"4","last_reported":1766423450,"current_range_meters":6000,"station_id":"ce4bhgh2rcd13ifvqfa0","pricing_plan_id":"cebpf4jnsgd1na2vs0mg"},{"bike_id":"f26e1fad-cdbc-4fe2-8baf-3d729df070e7","system_id":"levelo_inurba_marseille","lat":43.31683,"lon":5.42222,"is_reserved":false,"is_disabled":false,"rental_uris":{"android":"levelo://app?vid=f26e1fad-cdbc-4fe2-8baf-3d729df070e7","ios":"levelo://app?vid=f26e1fad-cdbc-4fe2-8baf-3d729df070e7"},"vehicle_type_id":"4","last_reported":1766423450,"current_range_meters":6000,"station_id":"","pricing_plan_id":"cebpf4jnsgd1na2vs0mg"},{"bike_id":"611bb42d-81f1-42fc-b832-157e5dfb6bb7","system_id":"levelo_inurba_marseille","lat":43.28538,"lon":5.441,"is_reserved":false,"is_disabled":false,"rental_uris":{"android":"levelo://app?vid=611bb42d-81f1-42fc-b832-157e5dfb6bb7","ios":"levelo://app?vid=611bb42d-81f1-42fc-b832-157e5dfb6bb7"},"vehicle_type_id":"4","last_reported":1766423450,"current_range_meters":6000,"station_id":"st_d3j3df2ikq2c7380ej80","pricing_plan_id":"cebpf4jnsgd1na2vs0mg"},{"bike_id":"fbf57fb7-295f-422b-85ad-fbc8e1520d89","system_id":"levelo_inurba_marseille","lat":43.30947,"lon":5.39024,"is_reserved":false,"is_disabled":false,"rental_uris":{"android":"levelo://app?vid=fbf57fb7-295f-422b-85ad-fbc8e1520d89","ios":"levelo://app?vid=fbf57fb7-295f-422b-85ad-fbc8e1520d89"},"vehicle_type_id":"4","last_reported":1766423450,"current_range_meters":6000,"station_id":"ce4bgup2rcd13ifvqco0","pricing_plan_id":"cebpf4jnsgd1na2vs0mg"},{"bike_id":"f247771e-2838-4c74-9387-68cb8feccb4e","system_id":"levelo_inurba_marseille","lat":43.28574,"lon":5.40473,"is_reserved":false,"is_disabled":false,"rental_uris":{"android":"levelo://app?vid=f247771e-2838-4c74-9387-68cb8feccb4e","ios":"levelo://app?vid=f247771e-2838-4c74-9387-68cb8feccb4e"},"vehicle_type_id":"4","last_reported":1766423450,"current_range_meters":6000,"station_id":"","pricing_plan_id":"cebpf4jnsgd1na2vs0mg"},{"bike_id":"49e02bd3-5f9a-4433-82d7-d32248864ef2","system_id":"levelo_inurba_marseille","lat":43.29264,"lon":5.38432,"is_reserved":false,"is_disabled":false,"rental_uris":{"android":"levelo://app?vid=49e02bd3-5f9a-4433-82d7-d32248864ef2","ios":"levelo://app?vid=49e02bd3-5f9a-4433-82d7-d32248864ef2"},"vehicle_type_id":"4","last_reported":1766423450,"current_range_meters":6000,"station_id":"ce4bh692rcd13ifvqea0","pricing_plan_id":"cebpf4jnsgd1na2vs0mg"},{"bike_id":"5dfa2f88-220a-4db0-9324-a128f87b2d4d","system_id":"levelo_inurba_marseille","lat":43.308026,"lon":5.38155,"is_reserved":false,"is_disabled":false,"rental_uris":{"android":"levelo://app?vid=5dfa2f88-220a-4db0-9324-a128f87b2d4d","ios":"levelo://app?vid=5dfa2f88-220a-4db0-9324-a128f87b2d4d"},"vehicle_type_id":"4","last_reported":1766423450,"current_range_meters":6000,"station_id":"ce4bgt12rcd13ifvqce0","pricing_plan_id":"cebpf4jnsgd1na2vs0mg"},{"bike_id":"674911cf-1cfd-40f1-9e5e-f3941e7b6fc6","system_id":"levelo_inurba_marseille","lat":43.337444,"lon":5.374475,"is_reserved":false,"is_disabled":false,"rental_uris":{"android":"levelo://app?vid=674911cf-1cfd-40f1-9e5e-f3941e7b6fc6","ios":"levelo://app?vid=674911cf-1cfd-40f1-9e5e-f3941e7b6fc6"},"vehicle_type_id":"4","last_reported":1766423450,"current_range_meters":6400,"station_id":"","pricing_plan_id":"cebpf4jnsgd1na2vs0mg"},{"bike_id":"fb013f92-0f19-4aed-b06a-8f8f12c01541","system_id":"levelo_inurba_marseille","lat":43.2787,"lon":5.37838,"is_reserved":false,"is_disabled":false,"rental_uris":{"android":"levelo://app?vid=fb013f92-0f19-4aed-b06a-8f8f12c01541","ios":"levelo://app?vid=fb013f92-0f19-4aed-b06a-8f8f12c01541"},"vehicle_type_id":"4","last_reported":1766423450,"current_range_meters":6400,"station_id":"","pricing_plan_id":"cebpf4jnsgd1na2vs0mg"},{"bike_id":"5086247d-11ba-46e6-ab2f-482a8af85bcc","system_id":"levelo_inurba_marseille","lat":43.28044,"lon":5.35086,"is_reserved":false,"is_disabled":false,"rental_uris":{"android":"levelo://app?vid=5086247d-11ba-46e6-ab2f-482a8af85bcc","ios":"levelo://app?vid=5086247d-11ba-46e6-ab2f-482a8af85bcc"},"vehicle_type_id":"4","last_reported":1766423450,"current_range_meters":6400,"station_id":"","pricing_plan_id":"cebpf4jnsgd1na2vs0mg"},{"bike_id":"2e93e853-16a0-4124-a79a-8454d339b64a","system_id":"levelo_inurba_marseille","lat":43.28941,"lon":5.36635,"is_reserved":false,"is_disabled":false,"rental_uris":{"android":"levelo://app?vid=2e93e853-16a0-4124-a79a-8454d339b64a","ios":"levelo://app?vid=2e93e853-16a0-4124-a79a-8454d339b64a"},"vehicle_type_id":"4","last_reported":1766423450,"current_range_meters":6400,"station_id":"ce4bhap2rcd13ifvqek0","pricing_plan_id":"cebpf4jnsgd1na2vs0mg"},{"bike_id":"70da76fc-ab09-4547-98e4-ca4d04180e54","system_id":"levelo_inurba_marseille","lat":43.21162,"lon":5.34989,"is_reserved":false,"is_disabled":false,"rental_uris":{"android":"levelo://app?vid=70da76fc-ab09-4547-98e4-ca4d04180e54","ios":"levelo://app?vid=70da76fc-ab09-4547-98e4-ca4d04180e54"},"vehicle_type_id":"4","last_reported":1766423450,"current_range_meters":6400,"station_id":"","pricing_plan_id":"cebpf4jnsgd1na2vs0mg"},{"bike_id":"c0fb8cc1-ebe9-4001-a3ec-0d3fc87db3d9","system_id":"levelo_inurba_marseille","lat":43.34362,"lon":5.35523,"is_reserved":false,"is_disabled":false,"rental_uris":{"android":"levelo://app?vid=c0fb8cc1-ebe9-4001-a3ec-0d3fc87db3d9","ios":"levelo://app?vid=c0fb8cc1-ebe9-4001-a3ec-0d3fc87db3d9"},"vehicle_type_id":"4","last_reported":1766423450,"current_range_meters":6800,"station_id":"","pricing_plan_id":"cebpf4jnsgd1na2vs0mg"},{"bike_id":"515b1067-c9f1-499f-828f-2aace95d367e","system_id":"levelo_inurba_marseille","lat":43.270703,"lon":5.422826,"is_reserved":false,"is_disabled":false,"rental_uris":{"android":"levelo://app?vid=515b1067-c9f1-499f-828f-2aace95d367e","ios":"levelo://app?vid=515b1067-c9f1-499f-828f-2aace95d367e"},"vehicle_type_id":"4","last_reported":1766423450,"current_range_meters":6800,"station_id":"ce4bhk92rcd13ifvqgb0","pricing_plan_id":"cebpf4jnsgd1na2vs0mg"},{"bike_id":"f55c2d5c-cddf-4de2-b4d7-917919567af7","system_id":"levelo_inurba_marseille","lat":43.31421,"lon":5.36926,"is_reserved":false,"is_disabled":false,"rental_uris":{"android":"levelo://app?vid=f55c2d5c-cddf-4de2-b4d7-917919567af7","ios":"levelo://app?vid=f55c2d5c-cddf-4de2-b4d7-917919567af7"},"vehicle_type_id":"4","last_reported":1766423450,"current_range_meters":6800,"station_id":"","pricing_plan_id":"cebpf4jnsgd1na2vs0mg"},{"bike_id":"ef1b52c2-56c5-43a8-bd55-59a19a817e6e","system_id":"levelo_inurba_marseille","lat":43.30891,"lon":5.37198,"is_reserved":false,"is_disabled":false,"rental_uris":{"android":"levelo://app?vid=ef1b52c2-56c5-43a8-bd55-59a19a817e6e","ios":"levelo://app?vid=ef1b52c2-56c5-43a8-bd55-59a19a817e6e"},"vehicle_type_id":"4","last_reported":1766423450,"current_range_meters":6800,"station_id":"ce4bguh2rcd13ifvqckg","pricing_plan_id":"cebpf4jnsgd1na2vs0mg"},{"bike_id":"705710bc-a676-4caa-b4e8-f3abd6414001","system_id":"levelo_inurba_marseille","lat":43.281543,"lon":5.42641,"is_reserved":false,"is_disabled":false,"rental_uris":{"android":"levelo://app?vid=705710bc-a676-4caa-b4e8-f3abd6414001","ios":"levelo://app?vid=705710bc-a676-4caa-b4e8-f3abd6414001"},"vehicle_type_id":"4","last_reported":1766423450,"current_range_meters":7200,"station_id":"ce4bhnh2rcd13ifvqgug","pricing_plan_id":"cebpf4jnsgd1na2vs0mg"},{"bike_id":"e35ff33d-73a5-4735-98a9-3c5d4d7427f3","system_id":"levelo_inurba_marseille","lat":43.30147,"lon":5.38097,"is_reserved":false,"is_disabled":false,"rental_uris":{"android":"levelo://app?vid=e35ff33d-73a5-4735-98a9-3c5d4d7427f3","ios":"levelo://app?vid=e35ff33d-73a5-4735-98a9-3c5d4d7427f3"},"vehicle_type_id":"4","last_reported":1766423450,"current_range_meters":7200,"station_id":"ce4bgjp2rcd13ifvqbh0","pricing_plan_id":"cebpf4jnsgd1na2vs0mg"},{"bike_id":"51eba8db-dd20-4512-a126-47759b1e9101","system_id":"levelo_inurba_marseille","lat":43.30619,"lon":5.40086,"is_reserved":false,"is_disabled":false,"rental_uris":{"android":"levelo://app?vid=51eba8db-dd20-4512-a126-47759b1e9101","ios":"levelo://app?vid=51eba8db-dd20-4512-a126-47759b1e9101"},"vehicle_type_id":"4","last_reported":1766423450,"current_range_meters":7200,"station_id":"ce4bh112rcd13ifvqda0","pricing_plan_id":"cebpf4jnsgd1na2vs0mg"},{"bike_id":"49302437-6f32-4b67-a486-ae28561da399","system_id":"levelo_inurba_marseille","lat":43.27998,"lon":5.41665,"is_reserved":false,"is_disabled":true,"rental_uris":{"android":"levelo://app?vid=49302437-6f32-4b67-a486-ae28561da399","ios":"levelo://app?vid=49302437-6f32-4b67-a486-ae28561da399"},"vehicle_type_id":"4","last_reported":1766423450,"current_range_meters":7200,"station_id":"ce4bho12rcd13ifvqh1g","pricing_plan_id":"cebpf4jnsgd1na2vs0mg"},{"bike_id":"8ba31c15-1d10-4003-88df-8c9563504b49","system_id":"levelo_inurba_marseille","lat":43.231628,"lon":5.43707,"is_reserved":false,"is_disabled":true,"rental_uris":{"android":"levelo://app?vid=8ba31c15-1d10-4003-88df-8c9563504b49","ios":"levelo://app?vid=8ba31c15-1d10-4003-88df-8c9563504b49"},"vehicle_type_id":"4","last_reported":1766423450,"current_range_meters":7200,"station_id":"ce4bhmp2rcd13ifvqgog","pricing_plan_id":"cebpf4jnsgd1na2vs0mg"},{"bike_id":"bc5e27a5-a71a-4fb8-8c3d-3da5c1e7862f","system_id":"levelo_inurba_marseille","lat":43.26501,"lon":5.39391,"is_reserved":false,"is_disabled":false,"rental_uris":{"android":"levelo://app?vid=bc5e27a5-a71a-4fb8-8c3d-3da5c1e7862f","ios":"levelo://app?vid=bc5e27a5-a71a-4fb8-8c3d-3da5c1e7862f"},"vehicle_type_id":"4","last_reported":1766423450,"current_range_meters":7200,"station_id":"","pricing_plan_id":"cebpf4jnsgd1na2vs0mg"},{"bike_id":"6939738e-3ef5-4df1-b343-22cf856bf10c","system_id":"levelo_inurba_marseille","lat":43.26059,"lon":5.39408,"is_reserved":false,"is_disabled":false,"rental_uris":{"android":"levelo://app?vid=6939738e-3ef5-4df1-b343-22cf856bf10c","ios":"levelo://app?vid=6939738e-3ef5-4df1-b343-22cf856bf10c"},"vehicle_type_id":"4","last_reported":1766423450,"current_range_meters":7200,"station_id":"ce4bhh92rcd13ifvqfj0","pricing_plan_id":"cebpf4jnsgd1na2vs0mg"},{"bike_id":"a7f5e564-2da3-4d4c-812e-fef42f417be1","system_id":"levelo_inurba_marseille","lat":43.21194,"lon":5.35065,"is_reserved":false,"is_disabled":false,"rental_uris":{"android":"levelo://app?vid=a7f5e564-2da3-4d4c-812e-fef42f417be1","ios":"levelo://app?vid=a7f5e564-2da3-4d4c-812e-fef42f417be1"},"vehicle_type_id":"4","last_reported":1766423450,"current_range_meters":8000,"station_id":"st_cvj6sg6p6f1abm77japg","pricing_plan_id":"cebpf4jnsgd1na2vs0mg"},{"bike_id":"c40a1e36-4b09-43ed-b930-4aa30786465d","system_id":"levelo_inurba_marseille","lat":43.29727,"lon":5.37721,"is_reserved":false,"is_disabled":false,"rental_uris":{"android":"levelo://app?vid=c40a1e36-4b09-43ed-b930-4aa30786465d","ios":"levelo://app?vid=c40a1e36-4b09-43ed-b930-4aa30786465d"},"vehicle_type_id":"4","last_reported":1766423450,"current_range_meters":8000,"station_id":"ce4bgkh2rcd13ifvqbl0","pricing_plan_id":"cebpf4jnsgd1na2vs0mg"},{"bike_id":"8a3f13f6-ded0-4f73-a6f0-95c4c8ecab77","system_id":"levelo_inurba_marseille","lat":43.278984,"lon":5.380094,"is_reserved":false,"is_disabled":false,"rental_uris":{"android":"levelo://app?vid=8a3f13f6-ded0-4f73-a6f0-95c4c8ecab77","ios":"levelo://app?vid=8a3f13f6-ded0-4f73-a6f0-95c4c8ecab77"},"vehicle_type_id":"4","last_reported":1766423450,"current_range_meters":8000,"station_id":"ce4bhf92rcd13ifvqf50","pricing_plan_id":"cebpf4jnsgd1na2vs0mg"},{"bike_id":"6cb2ec26-e982-42f0-bb3f-f14852fb7a12","system_id":"levelo_inurba_marseille","lat":43.21188,"lon":5.35075,"is_reserved":false,"is_disabled":false,"rental_uris":{"android":"levelo://app?vid=6cb2ec26-e982-42f0-bb3f-f14852fb7a12","ios":"levelo://app?vid=6cb2ec26-e982-42f0-bb3f-f14852fb7a12"},"vehicle_type_id":"4","last_reported":1766423450,"current_range_meters":8000,"station_id":"st_cvj6sg6p6f1abm77japg","pricing_plan_id":"cebpf4jnsgd1na2vs0mg"},{"bike_id":"0db8ca9b-b9a3-4721-9087-78ff5f30afd1","system_id":"levelo_inurba_marseille","lat":43.2922,"lon":5.38507,"is_reserved":false,"is_disabled":false,"rental_uris":{"android":"levelo://app?vid=0db8ca9b-b9a3-4721-9087-78ff5f30afd1","ios":"levelo://app?vid=0db8ca9b-b9a3-4721-9087-78ff5f30afd1"},"vehicle_type_id":"4","last_reported":1766423450,"current_range_meters":8000,"station_id":"","pricing_plan_id":"cebpf4jnsgd1na2vs0mg"},{"bike_id":"83e3fc80-a6b3-4435-90f5-6d5b22178ba2","system_id":"levelo_inurba_marseille","lat":43.27943,"lon":5.41062,"is_reserved":false,"is_disabled":false,"rental_uris":{"android":"levelo://app?vid=83e3fc80-a6b3-4435-90f5-6d5b22178ba2","ios":"levelo://app?vid=83e3fc80-a6b3-4435-90f5-6d5b22178ba2"},"vehicle_type_id":"4","last_reported":1766423450,"current_range_meters":8000,"station_id":"ce4bhnp2rcd13ifvqh0g","pricing_plan_id":"cebpf4jnsgd1na2vs0mg"},{"bike_id":"84562d7a-2623-4a05-8983-5071fdeefda6","system_id":"levelo_inurba_marseille","lat":43.311183,"lon":5.377655,"is_reserved":false,"is_disabled":true,"rental_uris":{"android":"levelo://app?vid=84562d7a-2623-4a05-8983-5071fdeefda6","ios":"levelo://app?vid=84562d7a-2623-4a05-8983-5071fdeefda6"},"vehicle_type_id":"4","last_reported":1766423450,"current_range_meters":8400,"station_id":"","pricing_plan_id":"cebpf4jnsgd1na2vs0mg"},{"bike_id":"b789a4b6-ce18-465e-b68a-9840c12caa52","system_id":"levelo_inurba_marseille","lat":43.27908,"lon":5.41474,"is_reserved":false,"is_disabled":false,"rental_uris":{"android":"levelo://app?vid=b789a4b6-ce18-465e-b68a-9840c12caa52","ios":"levelo://app?vid=b789a4b6-ce18-465e-b68a-9840c12caa52"},"vehicle_type_id":"4","last_reported":1766423450,"current_range_meters":8400,"station_id":"","pricing_plan_id":"cebpf4jnsgd1na2vs0mg"},{"bike_id":"b094eb59-b26f-4542-a7a6-0b6d015aa41b","system_id":"levelo_inurba_marseille","lat":43.24508,"lon":5.42811,"is_reserved":false,"is_disabled":false,"rental_uris":{"android":"levelo://app?vid=b094eb59-b26f-4542-a7a6-0b6d015aa41b","ios":"levelo://app?vid=b094eb59-b26f-4542-a7a6-0b6d015aa41b"},"vehicle_type_id":"4","last_reported":1766423450,"current_range_meters":8400,"station_id":"","pricing_plan_id":"cebpf4jnsgd1na2vs0mg"},{"bike_id":"4ef7b867-5fde-45d7-9ffd-eb24b8ba4bba","system_id":"levelo_inurba_marseille","lat":43.23319,"lon":5.40323,"is_reserved":false,"is_disabled":false,"rental_uris":{"android":"levelo://app?vid=4ef7b867-5fde-45d7-9ffd-eb24b8ba4bba","ios":"levelo://app?vid=4ef7b867-5fde-45d7-9ffd-eb24b8ba4bba"},"vehicle_type_id":"4","last_reported":1766423450,"current_range_meters":8400,"station_id":"","pricing_plan_id":"cebpf4jnsgd1na2vs0mg"},{"bike_id":"518415e0-5bf2-4be1-8c24-540b4bf4f660","system_id":"levelo_inurba_marseille","lat":43.2623,"lon":5.38807,"is_reserved":false,"is_disabled":false,"rental_uris":{"android":"levelo://app?vid=518415e0-5bf2-4be1-8c24-540b4bf4f660","ios":"levelo://app?vid=518415e0-5bf2-4be1-8c24-540b4bf4f660"},"vehicle_type_id":"4","last_reported":1766423450,"current_range_meters":8400,"station_id":"","pricing_plan_id":"cebpf4jnsgd1na2vs0mg"},{"bike_id":"67bf8f90-a5df-42e7-b267-9ae66edff758","system_id":"levelo_inurba_marseille","lat":43.306064,"lon":5.376253,"is_reserved":false,"is_disabled":false,"rental_uris":{"android":"levelo://app?vid=67bf8f90-a5df-42e7-b267-9ae66edff758","ios":"levelo://app?vid=67bf8f90-a5df-42e7-b267-9ae66edff758"},"vehicle_type_id":"4","last_reported":1766423450,"current_range_meters":8400,"station_id":"","pricing_plan_id":"cebpf4jnsgd1na2vs0mg"},{"bike_id":"7434a06b-847f-4d84-a291-a7d92ccc028e","system_id":"levelo_inurba_marseille","lat":43.30133,"lon":5.43109,"is_reserved":false,"is_disabled":false,"rental_uris":{"android":"levelo://app?vid=7434a06b-847f-4d84-a291-a7d92ccc028e","ios":"levelo://app?vid=7434a06b-847f-4d84-a291-a7d92ccc028e"},"vehicle_type_id":"4","last_reported":1766423450,"current_range_meters":8400,"station_id":"st_d3js3co5814s73ftftug","pricing_plan_id":"cebpf4jnsgd1na2vs0mg"},{"bike_id":"f7add754-fc02-42b3-91e6-8d1d73e87e8c","system_id":"levelo_inurba_marseille","lat":43.282785,"lon":5.350547,"is_reserved":false,"is_disabled":false,"rental_uris":{"android":"levelo://app?vid=f7add754-fc02-42b3-91e6-8d1d73e87e8c","ios":"levelo://app?vid=f7add754-fc02-42b3-91e6-8d1d73e87e8c"},"vehicle_type_id":"4","last_reported":1766423450,"current_range_meters":8400,"station_id":"ce4bhbp2rcd13ifvqerg","pricing_plan_id":"cebpf4jnsgd1na2vs0mg"},{"bike_id":"6a49aa8c-22e5-4dcb-8357-3bdc604cfcf7","system_id":"levelo_inurba_marseille","lat":43.301398,"lon":5.431435,"is_reserved":false,"is_disabled":false,"rental_uris":{"android":"levelo://app?vid=6a49aa8c-22e5-4dcb-8357-3bdc604cfcf7","ios":"levelo://app?vid=6a49aa8c-22e5-4dcb-8357-3bdc604cfcf7"},"vehicle_type_id":"4","last_reported":1766423450,"current_range_meters":8400,"station_id":"st_d3js3co5814s73ftftug","pricing_plan_id":"cebpf4jnsgd1na2vs0mg"},{"bike_id":"0ef29cef-d0b1-495c-b9ce-0d8bb7983f4e","system_id":"levelo_inurba_marseille","lat":43.22542,"lon":5.34835,"is_reserved":false,"is_disabled":false,"rental_uris":{"android":"levelo://app?vid=0ef29cef-d0b1-495c-b9ce-0d8bb7983f4e","ios":"levelo://app?vid=0ef29cef-d0b1-495c-b9ce-0d8bb7983f4e"},"vehicle_type_id":"4","last_reported":1766423450,"current_range_meters":8400,"station_id":"","pricing_plan_id":"cebpf4jnsgd1na2vs0mg"},{"bike_id":"37d62fbd-bfc3-436e-9de4-01543cea6d62","system_id":"levelo_inurba_marseille","lat":43.21748,"lon":5.34599,"is_reserved":false,"is_disabled":false,"rental_uris":{"android":"levelo://app?vid=37d62fbd-bfc3-436e-9de4-01543cea6d62","ios":"levelo://app?vid=37d62fbd-bfc3-436e-9de4-01543cea6d62"},"vehicle_type_id":"4","last_reported":1766423450,"current_range_meters":8800,"station_id":"st_cvj6r9ubvosntc0bgbag","pricing_plan_id":"cebpf4jnsgd1na2vs0mg"},{"bike_id":"72bd268c-2ad5-41b7-9b74-5c4ff1c03367","system_id":"levelo_inurba_marseille","lat":43.312324,"lon":5.36844,"is_reserved":false,"is_disabled":false,"rental_uris":{"android":"levelo://app?vid=72bd268c-2ad5-41b7-9b74-5c4ff1c03367","ios":"levelo://app?vid=72bd268c-2ad5-41b7-9b74-5c4ff1c03367"},"vehicle_type_id":"4","last_reported":1766423450,"current_range_meters":8800,"station_id":"ce4bgl92rcd13ifvqbq0","pricing_plan_id":"cebpf4jnsgd1na2vs0mg"},{"bike_id":"d7215491-1a00-48b1-8cad-48582b605743","system_id":"levelo_inurba_marseille","lat":43.30894,"lon":5.38072,"is_reserved":false,"is_disabled":false,"rental_uris":{"android":"levelo://app?vid=d7215491-1a00-48b1-8cad-48582b605743","ios":"levelo://app?vid=d7215491-1a00-48b1-8cad-48582b605743"},"vehicle_type_id":"4","last_reported":1766423450,"current_range_meters":8800,"station_id":"","pricing_plan_id":"cebpf4jnsgd1na2vs0mg"},{"bike_id":"dd3b85b9-4862-4914-ab0a-829fe474a5f0","system_id":"levelo_inurba_marseille","lat":43.25924,"lon":5.409,"is_reserved":false,"is_disabled":false,"rental_uris":{"android":"levelo://app?vid=dd3b85b9-4862-4914-ab0a-829fe474a5f0","ios":"levelo://app?vid=dd3b85b9-4862-4914-ab0a-829fe474a5f0"},"vehicle_type_id":"4","last_reported":1766423450,"current_range_meters":8800,"station_id":"ce4bhm92rcd13ifvqglg","pricing_plan_id":"cebpf4jnsgd1na2vs0mg"},{"bike_id":"e3ae113b-ec6e-4b8e-82b5-e3a8b2a31077","system_id":"levelo_inurba_marseille","lat":43.27953,"lon":5.410495,"is_reserved":false,"is_disabled":false,"rental_uris":{"android":"levelo://app?vid=e3ae113b-ec6e-4b8e-82b5-e3a8b2a31077","ios":"levelo://app?vid=e3ae113b-ec6e-4b8e-82b5-e3a8b2a31077"},"vehicle_type_id":"4","last_reported":1766423450,"current_range_meters":8800,"station_id":"ce4bhnp2rcd13ifvqh0g","pricing_plan_id":"cebpf4jnsgd1na2vs0mg"},{"bike_id":"00a29bb1-88ca-440d-9219-07d673c689ed","system_id":"levelo_inurba_marseille","lat":43.30716,"lon":5.37354,"is_reserved":false,"is_disabled":false,"rental_uris":{"android":"levelo://app?vid=00a29bb1-88ca-440d-9219-07d673c689ed","ios":"levelo://app?vid=00a29bb1-88ca-440d-9219-07d673c689ed"},"vehicle_type_id":"4","last_reported":1766423450,"current_range_meters":8800,"station_id":"","pricing_plan_id":"cebpf4jnsgd1na2vs0mg"},{"bike_id":"c0bce963-eafd-430d-a11f-72789fa0a211","system_id":"levelo_inurba_marseille","lat":43.29645,"lon":5.40578,"is_reserved":false,"is_disabled":true,"rental_uris":{"android":"levelo://app?vid=c0bce963-eafd-430d-a11f-72789fa0a211","ios":"levelo://app?vid=c0bce963-eafd-430d-a11f-72789fa0a211"},"vehicle_type_id":"4","last_reported":1766423450,"current_range_meters":8800,"station_id":"ce4bh0h2rcd13ifvqd60","pricing_plan_id":"cebpf4jnsgd1na2vs0mg"},{"bike_id":"849cae30-a029-41e4-b37f-fa18be834422","system_id":"levelo_inurba_marseille","lat":43.29643,"lon":5.37703,"is_reserved":false,"is_disabled":false,"rental_uris":{"android":"levelo://app?vid=849cae30-a029-41e4-b37f-fa18be834422","ios":"levelo://app?vid=849cae30-a029-41e4-b37f-fa18be834422"},"vehicle_type_id":"4","last_reported":1766423450,"current_range_meters":8800,"station_id":"ce4bgi92rcd13ifvqb90","pricing_plan_id":"cebpf4jnsgd1na2vs0mg"},{"bike_id":"cb4be861-dd4e-4017-b10a-1bebaa881460","system_id":"levelo_inurba_marseille","lat":43.300888,"lon":5.388936,"is_reserved":false,"is_disabled":false,"rental_uris":{"android":"levelo://app?vid=cb4be861-dd4e-4017-b10a-1bebaa881460","ios":"levelo://app?vid=cb4be861-dd4e-4017-b10a-1bebaa881460"},"vehicle_type_id":"4","last_reported":1766423450,"current_range_meters":8800,"station_id":"","pricing_plan_id":"cebpf4jnsgd1na2vs0mg"},{"bike_id":"94b65cfe-edaf-4322-865d-06eff46e3ede","system_id":"levelo_inurba_marseille","lat":43.30045,"lon":5.37353,"is_reserved":false,"is_disabled":false,"rental_uris":{"android":"levelo://app?vid=94b65cfe-edaf-4322-865d-06eff46e3ede","ios":"levelo://app?vid=94b65cfe-edaf-4322-865d-06eff46e3ede"},"vehicle_type_id":"4","last_reported":1766423450,"current_range_meters":8800,"station_id":"","pricing_plan_id":"cebpf4jnsgd1na2vs0mg"},{"bike_id":"55428a61-940e-4e7a-9b26-26ee39595c2f","system_id":"levelo_inurba_marseille","lat":43.29249,"lon":5.40914,"is_reserved":false,"is_disabled":false,"rental_uris":{"android":"levelo://app?vid=55428a61-940e-4e7a-9b26-26ee39595c2f","ios":"levelo://app?vid=55428a61-940e-4e7a-9b26-26ee39595c2f"},"vehicle_type_id":"4","last_reported":1766423450,"current_range_meters":8800,"station_id":"ce4bh192rcd13ifvqdc0","pricing_plan_id":"cebpf4jnsgd1na2vs0mg"},{"bike_id":"1923275b-f04e-4510-9e6e-383aef84a68b","system_id":"levelo_inurba_marseille","lat":43.26442,"lon":5.39319,"is_reserved":false,"is_disabled":false,"rental_uris":{"android":"levelo://app?vid=1923275b-f04e-4510-9e6e-383aef84a68b","ios":"levelo://app?vid=1923275b-f04e-4510-9e6e-383aef84a68b"},"vehicle_type_id":"4","last_reported":1766423450,"current_range_meters":8800,"station_id":"","pricing_plan_id":"cebpf4jnsgd1na2vs0mg"},{"bike_id":"20334600-24d5-4a0a-825f-7781fe7e846c","system_id":"levelo_inurba_marseille","lat":43.28349,"lon":5.38108,"is_reserved":false,"is_disabled":false,"rental_uris":{"android":"levelo://app?vid=20334600-24d5-4a0a-825f-7781fe7e846c","ios":"levelo://app?vid=20334600-24d5-4a0a-825f-7781fe7e846c"},"vehicle_type_id":"4","last_reported":1766423450,"current_range_meters":9200,"station_id":"ce4bh412rcd13ifvqdr0","pricing_plan_id":"cebpf4jnsgd1na2vs0mg"},{"bike_id":"3d42ebaa-824d-4da5-83b7-0767f812d99f","system_id":"levelo_inurba_marseille","lat":43.32052,"lon":5.41539,"is_reserved":false,"is_disabled":false,"rental_uris":{"android":"levelo://app?vid=3d42ebaa-824d-4da5-83b7-0767f812d99f","ios":"levelo://app?vid=3d42ebaa-824d-4da5-83b7-0767f812d99f"},"vehicle_type_id":"4","last_reported":1766423450,"current_range_meters":9200,"station_id":"ce4bhq92rcd13ifvqhkg","pricing_plan_id":"cebpf4jnsgd1na2vs0mg"},{"bike_id":"aaa2e672-a44c-4729-a382-697b8184f386","system_id":"levelo_inurba_marseille","lat":43.25875,"lon":5.3989,"is_reserved":false,"is_disabled":true,"rental_uris":{"android":"levelo://app?vid=aaa2e672-a44c-4729-a382-697b8184f386","ios":"levelo://app?vid=aaa2e672-a44c-4729-a382-697b8184f386"},"vehicle_type_id":"4","last_reported":1766423450,"current_range_meters":9200,"station_id":"ce4bhl92rcd13ifvqghg","pricing_plan_id":"cebpf4jnsgd1na2vs0mg"},{"bike_id":"3919d99e-0635-4b41-ab8c-eb8fcb006d58","system_id":"levelo_inurba_marseille","lat":43.29531,"lon":5.38543,"is_reserved":false,"is_disabled":false,"rental_uris":{"android":"levelo://app?vid=3919d99e-0635-4b41-ab8c-eb8fcb006d58","ios":"levelo://app?vid=3919d99e-0635-4b41-ab8c-eb8fcb006d58"},"vehicle_type_id":"4","last_reported":1766423450,"current_range_meters":9200,"station_id":"ce4bgih2rcd13ifvqba0","pricing_plan_id":"cebpf4jnsgd1na2vs0mg"},{"bike_id":"769bb6b2-6d25-47a0-9298-e192117dad56","system_id":"levelo_inurba_marseille","lat":43.28418,"lon":5.34991,"is_reserved":false,"is_disabled":false,"rental_uris":{"android":"levelo://app?vid=769bb6b2-6d25-47a0-9298-e192117dad56","ios":"levelo://app?vid=769bb6b2-6d25-47a0-9298-e192117dad56"},"vehicle_type_id":"4","last_reported":1766423450,"current_range_meters":9200,"station_id":"ce4bhbh2rcd13ifvqepg","pricing_plan_id":"cebpf4jnsgd1na2vs0mg"},{"bike_id":"6a4d2388-2075-4738-8a7f-2aa36c5b9e00","system_id":"levelo_inurba_marseille","lat":43.29381,"lon":5.38296,"is_reserved":false,"is_disabled":false,"rental_uris":{"android":"levelo://app?vid=6a4d2388-2075-4738-8a7f-2aa36c5b9e00","ios":"levelo://app?vid=6a4d2388-2075-4738-8a7f-2aa36c5b9e00"},"vehicle_type_id":"4","last_reported":1766423450,"current_range_meters":9200,"station_id":"","pricing_plan_id":"cebpf4jnsgd1na2vs0mg"},{"bike_id":"4372a42a-b334-4e8f-9141-9b6d15dd3e03","system_id":"levelo_inurba_marseille","lat":43.284715,"lon":5.483945,"is_reserved":false,"is_disabled":false,"rental_uris":{"android":"levelo://app?vid=4372a42a-b334-4e8f-9141-9b6d15dd3e03","ios":"levelo://app?vid=4372a42a-b334-4e8f-9141-9b6d15dd3e03"},"vehicle_type_id":"4","last_reported":1766423450,"current_range_meters":9200,"station_id":"st_d3svhcjqgbts73a3dn0g","pricing_plan_id":"cebpf4jnsgd1na2vs0mg"},{"bike_id":"20841e7d-60e8-4524-b565-dfaa33e59c44","system_id":"levelo_inurba_marseille","lat":43.25218,"lon":5.38013,"is_reserved":false,"is_disabled":false,"rental_uris":{"android":"levelo://app?vid=20841e7d-60e8-4524-b565-dfaa33e59c44","ios":"levelo://app?vid=20841e7d-60e8-4524-b565-dfaa33e59c44"},"vehicle_type_id":"4","last_reported":1766423450,"current_range_meters":9200,"station_id":"","pricing_plan_id":"cebpf4jnsgd1na2vs0mg"},{"bike_id":"943630c5-ce9b-4495-bae6-12270b79b6e4","system_id":"levelo_inurba_marseille","lat":43.28622,"lon":5.38364,"is_reserved":false,"is_disabled":true,"rental_uris":{"android":"levelo://app?vid=943630c5-ce9b-4495-bae6-12270b79b6e4","ios":"levelo://app?vid=943630c5-ce9b-4495-bae6-12270b79b6e4"},"vehicle_type_id":"4","last_reported":1766423450,"current_range_meters":9200,"station_id":"","pricing_plan_id":"cebpf4jnsgd1na2vs0mg"},{"bike_id":"8cb6dc51-c9f3-465f-969d-1ee44dfd920b","system_id":"levelo_inurba_marseille","lat":43.2989,"lon":5.37945,"is_reserved":false,"is_disabled":false,"rental_uris":{"android":"levelo://app?vid=8cb6dc51-c9f3-465f-969d-1ee44dfd920b","ios":"levelo://app?vid=8cb6dc51-c9f3-465f-969d-1ee44dfd920b"},"vehicle_type_id":"4","last_reported":1766423450,"current_range_meters":9200,"station_id":"","pricing_plan_id":"cebpf4jnsgd1na2vs0mg"},{"bike_id":"906ff5af-1a8f-4a95-84ef-29f4f3d50608","system_id":"levelo_inurba_marseille","lat":43.27207,"lon":5.39186,"is_reserved":false,"is_disabled":false,"rental_uris":{"android":"levelo://app?vid=906ff5af-1a8f-4a95-84ef-29f4f3d50608","ios":"levelo://app?vid=906ff5af-1a8f-4a95-84ef-29f4f3d50608"},"vehicle_type_id":"4","last_reported":1766423450,"current_range_meters":9200,"station_id":"ce4bhhp2rcd13ifvqfm0","pricing_plan_id":"cebpf4jnsgd1na2vs0mg"},{"bike_id":"8cd8286c-2dd8-41ad-b181-1afd615d6e0d","system_id":"levelo_inurba_marseille","lat":43.2857,"lon":5.3834,"is_reserved":false,"is_disabled":false,"rental_uris":{"android":"levelo://app?vid=8cd8286c-2dd8-41ad-b181-1afd615d6e0d","ios":"levelo://app?vid=8cd8286c-2dd8-41ad-b181-1afd615d6e0d"},"vehicle_type_id":"4","last_reported":1766423450,"current_range_meters":9600,"station_id":"","pricing_plan_id":"cebpf4jnsgd1na2vs0mg"},{"bike_id":"375c744a-5c74-4764-8285-a43ec86aafbc","system_id":"levelo_inurba_marseille","lat":43.30282,"lon":5.39914,"is_reserved":false,"is_disabled":false,"rental_uris":{"android":"levelo://app?vid=375c744a-5c74-4764-8285-a43ec86aafbc","ios":"levelo://app?vid=375c744a-5c74-4764-8285-a43ec86aafbc"},"vehicle_type_id":"4","last_reported":1766423450,"current_range_meters":9600,"station_id":"","pricing_plan_id":"cebpf4jnsgd1na2vs0mg"},{"bike_id":"4e4be9e7-7142-4461-ad04-34a9693b261f","system_id":"levelo_inurba_marseille","lat":43.27069,"lon":5.422846,"is_reserved":false,"is_disabled":true,"rental_uris":{"android":"levelo://app?vid=4e4be9e7-7142-4461-ad04-34a9693b261f","ios":"levelo://app?vid=4e4be9e7-7142-4461-ad04-34a9693b261f"},"vehicle_type_id":"4","last_reported":1766423450,"current_range_meters":9600,"station_id":"ce4bhk92rcd13ifvqgb0","pricing_plan_id":"cebpf4jnsgd1na2vs0mg"},{"bike_id":"82ad4fff-b5ac-429c-b95a-7f5df2e50f29","system_id":"levelo_inurba_marseille","lat":43.29585,"lon":5.37711,"is_reserved":false,"is_disabled":false,"rental_uris":{"android":"levelo://app?vid=82ad4fff-b5ac-429c-b95a-7f5df2e50f29","ios":"levelo://app?vid=82ad4fff-b5ac-429c-b95a-7f5df2e50f29"},"vehicle_type_id":"4","last_reported":1766423450,"current_range_meters":9600,"station_id":"ce4bgi92rcd13ifvqb90","pricing_plan_id":"cebpf4jnsgd1na2vs0mg"},{"bike_id":"44152f03-6a6e-4908-b149-b0bdf077efd4","system_id":"levelo_inurba_marseille","lat":43.29607,"lon":5.37711,"is_reserved":false,"is_disabled":false,"rental_uris":{"android":"levelo://app?vid=44152f03-6a6e-4908-b149-b0bdf077efd4","ios":"levelo://app?vid=44152f03-6a6e-4908-b149-b0bdf077efd4"},"vehicle_type_id":"4","last_reported":1766423450,"current_range_meters":9600,"station_id":"ce4bgi92rcd13ifvqb90","pricing_plan_id":"cebpf4jnsgd1na2vs0mg"},{"bike_id":"ae8dc1e4-c7b9-44ed-9281-19bc39d3e510","system_id":"levelo_inurba_marseille","lat":43.26195,"lon":5.37446,"is_reserved":false,"is_disabled":false,"rental_uris":{"android":"levelo://app?vid=ae8dc1e4-c7b9-44ed-9281-19bc39d3e510","ios":"levelo://app?vid=ae8dc1e4-c7b9-44ed-9281-19bc39d3e510"},"vehicle_type_id":"4","last_reported":1766423450,"current_range_meters":9600,"station_id":"ce4bhgp2rcd13ifvqfc0","pricing_plan_id":"cebpf4jnsgd1na2vs0mg"},{"bike_id":"b5b49c2e-0152-443e-b9e1-db598010e958","system_id":"levelo_inurba_marseille","lat":43.29481,"lon":5.43312,"is_reserved":false,"is_disabled":false,"rental_uris":{"android":"levelo://app?vid=b5b49c2e-0152-443e-b9e1-db598010e958","ios":"levelo://app?vid=b5b49c2e-0152-443e-b9e1-db598010e958"},"vehicle_type_id":"4","last_reported":1766423450,"current_range_meters":9600,"station_id":"st_d3j5ugp08ojc73fj9d10","pricing_plan_id":"cebpf4jnsgd1na2vs0mg"},{"bike_id":"6302c633-6c01-4c16-af7d-bd08631188f2","system_id":"levelo_inurba_marseille","lat":43.3044,"lon":5.38885,"is_reserved":false,"is_disabled":false,"rental_uris":{"android":"levelo://app?vid=6302c633-6c01-4c16-af7d-bd08631188f2","ios":"levelo://app?vid=6302c633-6c01-4c16-af7d-bd08631188f2"},"vehicle_type_id":"4","last_reported":1766423450,"current_range_meters":9600,"station_id":"ce4bgk12rcd13ifvqbi0","pricing_plan_id":"cebpf4jnsgd1na2vs0mg"},{"bike_id":"1f00ca98-b9b8-4f7b-88c8-788967549e78","system_id":"levelo_inurba_marseille","lat":43.283386,"lon":5.385984,"is_reserved":false,"is_disabled":false,"rental_uris":{"android":"levelo://app?vid=1f00ca98-b9b8-4f7b-88c8-788967549e78","ios":"levelo://app?vid=1f00ca98-b9b8-4f7b-88c8-788967549e78"},"vehicle_type_id":"4","last_reported":1766423450,"current_range_meters":10000,"station_id":"ce4bh492rcd13ifvqdvg","pricing_plan_id":"cebpf4jnsgd1na2vs0mg"},{"bike_id":"25d18494-dc16-4c08-805e-3471540b9a1e","system_id":"levelo_inurba_marseille","lat":43.28555,"lon":5.38371,"is_reserved":false,"is_disabled":false,"rental_uris":{"android":"levelo://app?vid=25d18494-dc16-4c08-805e-3471540b9a1e","ios":"levelo://app?vid=25d18494-dc16-4c08-805e-3471540b9a1e"},"vehicle_type_id":"4","last_reported":1766423450,"current_range_meters":10000,"station_id":"ce4bh512rcd13ifvqe3g","pricing_plan_id":"cebpf4jnsgd1na2vs0mg"},{"bike_id":"ab3666e5-7ced-4780-9d1d-f7d48818572d","system_id":"levelo_inurba_marseille","lat":43.2905,"lon":5.40539,"is_reserved":false,"is_disabled":false,"rental_uris":{"android":"levelo://app?vid=ab3666e5-7ced-4780-9d1d-f7d48818572d","ios":"levelo://app?vid=ab3666e5-7ced-4780-9d1d-f7d48818572d"},"vehicle_type_id":"4","last_reported":1766423450,"current_range_meters":10000,"station_id":"","pricing_plan_id":"cebpf4jnsgd1na2vs0mg"},{"bike_id":"7a2810d9-a7a2-4f55-a626-e3338912c6bf","system_id":"levelo_inurba_marseille","lat":43.33763,"lon":5.37458,"is_reserved":false,"is_disabled":false,"rental_uris":{"android":"levelo://app?vid=7a2810d9-a7a2-4f55-a626-e3338912c6bf","ios":"levelo://app?vid=7a2810d9-a7a2-4f55-a626-e3338912c6bf"},"vehicle_type_id":"4","last_reported":1766423450,"current_range_meters":10000,"station_id":"","pricing_plan_id":"cebpf4jnsgd1na2vs0mg"},{"bike_id":"17d9a210-4b91-4391-badb-94dcb0a88744","system_id":"levelo_inurba_marseille","lat":43.30969,"lon":5.37783,"is_reserved":false,"is_disabled":false,"rental_uris":{"android":"levelo://app?vid=17d9a210-4b91-4391-badb-94dcb0a88744","ios":"levelo://app?vid=17d9a210-4b91-4391-badb-94dcb0a88744"},"vehicle_type_id":"4","last_reported":1766423450,"current_range_meters":10000,"station_id":"","pricing_plan_id":"cebpf4jnsgd1na2vs0mg"},{"bike_id":"706dfcb9-a64e-4188-a9fe-ae3016eaebf7","system_id":"levelo_inurba_marseille","lat":43.254009,"lon":5.397192,"is_reserved":false,"is_disabled":false,"rental_uris":{"android":"levelo://app?vid=706dfcb9-a64e-4188-a9fe-ae3016eaebf7","ios":"levelo://app?vid=706dfcb9-a64e-4188-a9fe-ae3016eaebf7"},"vehicle_type_id":"4","last_reported":1766423450,"current_range_meters":10000,"station_id":"","pricing_plan_id":"cebpf4jnsgd1na2vs0mg"},{"bike_id":"a35c9290-ff91-4baf-98f1-cba42bf5127b","system_id":"levelo_inurba_marseille","lat":43.296814,"lon":5.373004,"is_reserved":false,"is_disabled":false,"rental_uris":{"android":"levelo://app?vid=a35c9290-ff91-4baf-98f1-cba42bf5127b","ios":"levelo://app?vid=a35c9290-ff91-4baf-98f1-cba42bf5127b"},"vehicle_type_id":"4","last_reported":1766423450,"current_range_meters":10000,"station_id":"ce4bgk12rcd13ifvqbj0","pricing_plan_id":"cebpf4jnsgd1na2vs0mg"},{"bike_id":"56bc90fa-6f3f-41f5-a9b9-b8a634ee0f58","system_id":"levelo_inurba_marseille","lat":43.31473,"lon":5.37595,"is_reserved":false,"is_disabled":false,"rental_uris":{"android":"levelo://app?vid=56bc90fa-6f3f-41f5-a9b9-b8a634ee0f58","ios":"levelo://app?vid=56bc90fa-6f3f-41f5-a9b9-b8a634ee0f58"},"vehicle_type_id":"4","last_reported":1766423450,"current_range_meters":10000,"station_id":"","pricing_plan_id":"cebpf4jnsgd1na2vs0mg"},{"bike_id":"0796dec4-d464-4069-9cd3-72daea655ee0","system_id":"levelo_inurba_marseille","lat":43.29572,"lon":5.42282,"is_reserved":false,"is_disabled":false,"rental_uris":{"android":"levelo://app?vid=0796dec4-d464-4069-9cd3-72daea655ee0","ios":"levelo://app?vid=0796dec4-d464-4069-9cd3-72daea655ee0"},"vehicle_type_id":"4","last_reported":1766423450,"current_range_meters":10000,"station_id":"ce4bhph2rcd13ifvqhdg","pricing_plan_id":"cebpf4jnsgd1na2vs0mg"},{"bike_id":"3641fabc-2f10-4b0d-ac51-6eb85d6979ad","system_id":"levelo_inurba_marseille","lat":43.25177,"lon":5.40281,"is_reserved":false,"is_disabled":false,"rental_uris":{"android":"levelo://app?vid=3641fabc-2f10-4b0d-ac51-6eb85d6979ad","ios":"levelo://app?vid=3641fabc-2f10-4b0d-ac51-6eb85d6979ad"},"vehicle_type_id":"4","last_reported":1766423450,"current_range_meters":10000,"station_id":"","pricing_plan_id":"cebpf4jnsgd1na2vs0mg"},{"bike_id":"eb76d806-1e37-41fa-a39a-deec6e6c22f5","system_id":"levelo_inurba_marseille","lat":43.33363,"lon":5.41858,"is_reserved":false,"is_disabled":false,"rental_uris":{"android":"levelo://app?vid=eb76d806-1e37-41fa-a39a-deec6e6c22f5","ios":"levelo://app?vid=eb76d806-1e37-41fa-a39a-deec6e6c22f5"},"vehicle_type_id":"4","last_reported":1766423450,"current_range_meters":10800,"station_id":"","pricing_plan_id":"cebpf4jnsgd1na2vs0mg"},{"bike_id":"a05e6a1e-137f-4088-9817-62b4ec3995b1","system_id":"levelo_inurba_marseille","lat":43.31828,"lon":5.38808,"is_reserved":false,"is_disabled":false,"rental_uris":{"android":"levelo://app?vid=a05e6a1e-137f-4088-9817-62b4ec3995b1","ios":"levelo://app?vid=a05e6a1e-137f-4088-9817-62b4ec3995b1"},"vehicle_type_id":"4","last_reported":1766423450,"current_range_meters":10800,"station_id":"","pricing_plan_id":"cebpf4jnsgd1na2vs0mg"},{"bike_id":"91696053-f4d6-427e-9953-adb36c2d8d6e","system_id":"levelo_inurba_marseille","lat":43.278174,"lon":5.404785,"is_reserved":false,"is_disabled":false,"rental_uris":{"android":"levelo://app?vid=91696053-f4d6-427e-9953-adb36c2d8d6e","ios":"levelo://app?vid=91696053-f4d6-427e-9953-adb36c2d8d6e"},"vehicle_type_id":"4","last_reported":1766423450,"current_range_meters":10800,"station_id":"","pricing_plan_id":"cebpf4jnsgd1na2vs0mg"},{"bike_id":"9fd14560-5482-48d4-931a-a0a0cdd86511","system_id":"levelo_inurba_marseille","lat":43.29713,"lon":5.36624,"is_reserved":false,"is_disabled":false,"rental_uris":{"android":"levelo://app?vid=9fd14560-5482-48d4-931a-a0a0cdd86511","ios":"levelo://app?vid=9fd14560-5482-48d4-931a-a0a0cdd86511"},"vehicle_type_id":"4","last_reported":1766423450,"current_range_meters":10800,"station_id":"ce4bgn12rcd13ifvqbt0","pricing_plan_id":"cebpf4jnsgd1na2vs0mg"},{"bike_id":"26d25423-d49b-49f3-a1cd-c2daa116e59d","system_id":"levelo_inurba_marseille","lat":43.29802,"lon":5.40418,"is_reserved":false,"is_disabled":false,"rental_uris":{"android":"levelo://app?vid=26d25423-d49b-49f3-a1cd-c2daa116e59d","ios":"levelo://app?vid=26d25423-d49b-49f3-a1cd-c2daa116e59d"},"vehicle_type_id":"4","last_reported":1766423450,"current_range_meters":10800,"station_id":"ce4bh112rcd13ifvqd90","pricing_plan_id":"cebpf4jnsgd1na2vs0mg"},{"bike_id":"93542f82-b30b-4ee8-b4c1-8d52f54588dc","system_id":"levelo_inurba_marseille","lat":43.26949,"lon":5.38628,"is_reserved":false,"is_disabled":false,"rental_uris":{"android":"levelo://app?vid=93542f82-b30b-4ee8-b4c1-8d52f54588dc","ios":"levelo://app?vid=93542f82-b30b-4ee8-b4c1-8d52f54588dc"},"vehicle_type_id":"4","last_reported":1766423450,"current_range_meters":10800,"station_id":"ce4bhh92rcd13ifvqfh0","pricing_plan_id":"cebpf4jnsgd1na2vs0mg"},{"bike_id":"b63e5625-d665-452b-93f6-f730ae9d0eab","system_id":"levelo_inurba_marseille","lat":43.29805,"lon":5.36287,"is_reserved":false,"is_disabled":false,"rental_uris":{"android":"levelo://app?vid=b63e5625-d665-452b-93f6-f730ae9d0eab","ios":"levelo://app?vid=b63e5625-d665-452b-93f6-f730ae9d0eab"},"vehicle_type_id":"4","last_reported":1766423450,"current_range_meters":10800,"station_id":"ce4bgpp2rcd13ifvqc3g","pricing_plan_id":"cebpf4jnsgd1na2vs0mg"},{"bike_id":"f66d6629-a326-41f4-b823-4f33b4e5c258","system_id":"levelo_inurba_marseille","lat":43.24174,"lon":5.3972,"is_reserved":false,"is_disabled":false,"rental_uris":{"android":"levelo://app?vid=f66d6629-a326-41f4-b823-4f33b4e5c258","ios":"levelo://app?vid=f66d6629-a326-41f4-b823-4f33b4e5c258"},"vehicle_type_id":"4","last_reported":1766423450,"current_range_meters":10800,"station_id":"ce4bhn12rcd13ifvqgpg","pricing_plan_id":"cebpf4jnsgd1na2vs0mg"},{"bike_id":"dfee2dad-5249-4f10-a2e8-7b71d24d976f","system_id":"levelo_inurba_marseille","lat":43.24409,"lon":5.37081,"is_reserved":false,"is_disabled":false,"rental_uris":{"android":"levelo://app?vid=dfee2dad-5249-4f10-a2e8-7b71d24d976f","ios":"levelo://app?vid=dfee2dad-5249-4f10-a2e8-7b71d24d976f"},"vehicle_type_id":"4","last_reported":1766423450,"current_range_meters":10800,"station_id":"ce4bhhh2rcd13ifvqfk0","pricing_plan_id":"cebpf4jnsgd1na2vs0mg"},{"bike_id":"74fb23aa-8481-4b6b-8ebe-02f4265090fb","system_id":"levelo_inurba_marseille","lat":43.28151,"lon":5.42649,"is_reserved":false,"is_disabled":false,"rental_uris":{"android":"levelo://app?vid=74fb23aa-8481-4b6b-8ebe-02f4265090fb","ios":"levelo://app?vid=74fb23aa-8481-4b6b-8ebe-02f4265090fb"},"vehicle_type_id":"4","last_reported":1766423450,"current_range_meters":10800,"station_id":"ce4bhnh2rcd13ifvqgug","pricing_plan_id":"cebpf4jnsgd1na2vs0mg"},{"bike_id":"f662fa22-f364-4650-9502-bd99645148d6","system_id":"levelo_inurba_marseille","lat":43.28487,"lon":5.38412,"is_reserved":false,"is_disabled":false,"rental_uris":{"android":"levelo://app?vid=f662fa22-f364-4650-9502-bd99645148d6","ios":"levelo://app?vid=f662fa22-f364-4650-9502-bd99645148d6"},"vehicle_type_id":"4","last_reported":1766423450,"current_range_meters":10800,"station_id":"ce4bh512rcd13ifvqe3g","pricing_plan_id":"cebpf4jnsgd1na2vs0mg"},{"bike_id":"360bffbd-1ebb-47f3-8d43-8e8436c13f5d","system_id":"levelo_inurba_marseille","lat":43.29572,"lon":5.3752,"is_reserved":false,"is_disabled":false,"rental_uris":{"android":"levelo://app?vid=360bffbd-1ebb-47f3-8d43-8e8436c13f5d","ios":"levelo://app?vid=360bffbd-1ebb-47f3-8d43-8e8436c13f5d"},"vehicle_type_id":"4","last_reported":1766423450,"current_range_meters":10800,"station_id":"ce4bgh92rcd13ifvqb50","pricing_plan_id":"cebpf4jnsgd1na2vs0mg"},{"bike_id":"1cac3fd9-eebd-4c42-a753-7bdc51350101","system_id":"levelo_inurba_marseille","lat":43.26053,"lon":5.39394,"is_reserved":false,"is_disabled":false,"rental_uris":{"android":"levelo://app?vid=1cac3fd9-eebd-4c42-a753-7bdc51350101","ios":"levelo://app?vid=1cac3fd9-eebd-4c42-a753-7bdc51350101"},"vehicle_type_id":"4","last_reported":1766423450,"current_range_meters":10800,"station_id":"ce4bhh92rcd13ifvqfj0","pricing_plan_id":"cebpf4jnsgd1na2vs0mg"},{"bike_id":"284b5a48-8d68-4d43-a65f-e1875a0cc4a1","system_id":"levelo_inurba_marseille","lat":43.28284,"lon":5.35104,"is_reserved":false,"is_disabled":false,"rental_uris":{"android":"levelo://app?vid=284b5a48-8d68-4d43-a65f-e1875a0cc4a1","ios":"levelo://app?vid=284b5a48-8d68-4d43-a65f-e1875a0cc4a1"},"vehicle_type_id":"4","last_reported":1766423450,"current_range_meters":10800,"station_id":"ce4bhbp2rcd13ifvqerg","pricing_plan_id":"cebpf4jnsgd1na2vs0mg"},{"bike_id":"3faf28f2-507a-4ed8-a783-4475a7b503d0","system_id":"levelo_inurba_marseille","lat":43.31424,"lon":5.38357,"is_reserved":false,"is_disabled":true,"rental_uris":{"android":"levelo://app?vid=3faf28f2-507a-4ed8-a783-4475a7b503d0","ios":"levelo://app?vid=3faf28f2-507a-4ed8-a783-4475a7b503d0"},"vehicle_type_id":"4","last_reported":1766423450,"current_range_meters":11200,"station_id":"","pricing_plan_id":"cebpf4jnsgd1na2vs0mg"},{"bike_id":"43ef6b5c-483c-4042-a61b-679535d82889","system_id":"levelo_inurba_marseille","lat":43.24442,"lon":5.37009,"is_reserved":false,"is_disabled":false,"rental_uris":{"android":"levelo://app?vid=43ef6b5c-483c-4042-a61b-679535d82889","ios":"levelo://app?vid=43ef6b5c-483c-4042-a61b-679535d82889"},"vehicle_type_id":"4","last_reported":1766423450,"current_range_meters":11200,"station_id":"","pricing_plan_id":"cebpf4jnsgd1na2vs0mg"},{"bike_id":"a4fe11a2-c8ef-410f-82d6-4d5df9f7093b","system_id":"levelo_inurba_marseille","lat":43.29768,"lon":5.37094,"is_reserved":false,"is_disabled":false,"rental_uris":{"android":"levelo://app?vid=a4fe11a2-c8ef-410f-82d6-4d5df9f7093b","ios":"levelo://app?vid=a4fe11a2-c8ef-410f-82d6-4d5df9f7093b"},"vehicle_type_id":"4","last_reported":1766423450,"current_range_meters":11200,"station_id":"ce4bgop2rcd13ifvqc1g","pricing_plan_id":"cebpf4jnsgd1na2vs0mg"},{"bike_id":"592f8975-89d4-4add-a6e3-d9eb33fbed8d","system_id":"levelo_inurba_marseille","lat":43.26473,"lon":5.3931,"is_reserved":false,"is_disabled":false,"rental_uris":{"android":"levelo://app?vid=592f8975-89d4-4add-a6e3-d9eb33fbed8d","ios":"levelo://app?vid=592f8975-89d4-4add-a6e3-d9eb33fbed8d"},"vehicle_type_id":"4","last_reported":1766423450,"current_range_meters":11200,"station_id":"","pricing_plan_id":"cebpf4jnsgd1na2vs0mg"},{"bike_id":"877ed04c-a63d-4acc-afc2-64603e9d6a4c","system_id":"levelo_inurba_marseille","lat":43.27174,"lon":5.41002,"is_reserved":false,"is_disabled":false,"rental_uris":{"android":"levelo://app?vid=877ed04c-a63d-4acc-afc2-64603e9d6a4c","ios":"levelo://app?vid=877ed04c-a63d-4acc-afc2-64603e9d6a4c"},"vehicle_type_id":"4","last_reported":1766423450,"current_range_meters":11200,"station_id":"ce4bhl12rcd13ifvqgf0","pricing_plan_id":"cebpf4jnsgd1na2vs0mg"},{"bike_id":"a4f50018-412e-49f6-a8ef-bb177dae1e6a","system_id":"levelo_inurba_marseille","lat":43.30201,"lon":5.40327,"is_reserved":false,"is_disabled":false,"rental_uris":{"android":"levelo://app?vid=a4f50018-412e-49f6-a8ef-bb177dae1e6a","ios":"levelo://app?vid=a4f50018-412e-49f6-a8ef-bb177dae1e6a"},"vehicle_type_id":"4","last_reported":1766423450,"current_range_meters":11200,"station_id":"","pricing_plan_id":"cebpf4jnsgd1na2vs0mg"},{"bike_id":"db1e2b9a-b37a-479c-b416-789cdcfcccf6","system_id":"levelo_inurba_marseille","lat":43.24069,"lon":5.37765,"is_reserved":false,"is_disabled":false,"rental_uris":{"android":"levelo://app?vid=db1e2b9a-b37a-479c-b416-789cdcfcccf6","ios":"levelo://app?vid=db1e2b9a-b37a-479c-b416-789cdcfcccf6"},"vehicle_type_id":"4","last_reported":1766423450,"current_range_meters":11200,"station_id":"ce4bhnp2rcd13ifvqgvg","pricing_plan_id":"cebpf4jnsgd1na2vs0mg"},{"bike_id":"d7d82bdc-00ae-4dbe-9992-e1f2b4176c85","system_id":"levelo_inurba_marseille","lat":43.23848,"lon":5.366308,"is_reserved":false,"is_disabled":false,"rental_uris":{"android":"levelo://app?vid=d7d82bdc-00ae-4dbe-9992-e1f2b4176c85","ios":"levelo://app?vid=d7d82bdc-00ae-4dbe-9992-e1f2b4176c85"},"vehicle_type_id":"4","last_reported":1766423450,"current_range_meters":11200,"station_id":"ce4bhih2rcd13ifvqfr0","pricing_plan_id":"cebpf4jnsgd1na2vs0mg"},{"bike_id":"a5e341dd-f678-4ec1-a7c6-1c53bd98d5b6","system_id":"levelo_inurba_marseille","lat":43.29734,"lon":5.38084,"is_reserved":false,"is_disabled":false,"rental_uris":{"android":"levelo://app?vid=a5e341dd-f678-4ec1-a7c6-1c53bd98d5b6","ios":"levelo://app?vid=a5e341dd-f678-4ec1-a7c6-1c53bd98d5b6"},"vehicle_type_id":"4","last_reported":1766423450,"current_range_meters":11200,"station_id":"","pricing_plan_id":"cebpf4jnsgd1na2vs0mg"},{"bike_id":"2b9ba416-7db4-458c-bad8-4dbd04d93b9c","system_id":"levelo_inurba_marseille","lat":43.24166,"lon":5.36395,"is_reserved":false,"is_disabled":false,"rental_uris":{"android":"levelo://app?vid=2b9ba416-7db4-458c-bad8-4dbd04d93b9c","ios":"levelo://app?vid=2b9ba416-7db4-458c-bad8-4dbd04d93b9c"},"vehicle_type_id":"4","last_reported":1766423450,"current_range_meters":11200,"station_id":"cpo36qri1sfpv3e86is0","pricing_plan_id":"cebpf4jnsgd1na2vs0mg"},{"bike_id":"304796c3-3f68-4d37-bbba-9c0b43a35767","system_id":"levelo_inurba_marseille","lat":43.24833,"lon":5.37443,"is_reserved":false,"is_disabled":false,"rental_uris":{"android":"levelo://app?vid=304796c3-3f68-4d37-bbba-9c0b43a35767","ios":"levelo://app?vid=304796c3-3f68-4d37-bbba-9c0b43a35767"},"vehicle_type_id":"4","last_reported":1766423450,"current_range_meters":11200,"station_id":"ce4bhgh2rcd13ifvqfb0","pricing_plan_id":"cebpf4jnsgd1na2vs0mg"},{"bike_id":"c1f011f8-a829-40ee-a30d-92e07c5294c7","system_id":"levelo_inurba_marseille","lat":43.29614,"lon":5.37719,"is_reserved":false,"is_disabled":false,"rental_uris":{"android":"levelo://app?vid=c1f011f8-a829-40ee-a30d-92e07c5294c7","ios":"levelo://app?vid=c1f011f8-a829-40ee-a30d-92e07c5294c7"},"vehicle_type_id":"4","last_reported":1766423450,"current_range_meters":11600,"station_id":"","pricing_plan_id":"cebpf4jnsgd1na2vs0mg"},{"bike_id":"72fcbd11-30f1-4f24-aa51-49cad093e5e5","system_id":"levelo_inurba_marseille","lat":43.321051,"lon":5.367828,"is_reserved":false,"is_disabled":false,"rental_uris":{"android":"levelo://app?vid=72fcbd11-30f1-4f24-aa51-49cad093e5e5","ios":"levelo://app?vid=72fcbd11-30f1-4f24-aa51-49cad093e5e5"},"vehicle_type_id":"4","last_reported":1766423450,"current_range_meters":11600,"station_id":"ce4bhrh2rcd13ifvqhug","pricing_plan_id":"cebpf4jnsgd1na2vs0mg"},{"bike_id":"f67b07e6-fa2b-44d5-8ba2-7d7bcd6d585d","system_id":"levelo_inurba_marseille","lat":43.2119,"lon":5.35076,"is_reserved":false,"is_disabled":false,"rental_uris":{"android":"levelo://app?vid=f67b07e6-fa2b-44d5-8ba2-7d7bcd6d585d","ios":"levelo://app?vid=f67b07e6-fa2b-44d5-8ba2-7d7bcd6d585d"},"vehicle_type_id":"4","last_reported":1766423450,"current_range_meters":11600,"station_id":"","pricing_plan_id":"cebpf4jnsgd1na2vs0mg"},{"bike_id":"9ca84900-6c37-4ce9-a81c-d8be3ba65b07","system_id":"levelo_inurba_marseille","lat":43.33354,"lon":5.4111,"is_reserved":false,"is_disabled":false,"rental_uris":{"android":"levelo://app?vid=9ca84900-6c37-4ce9-a81c-d8be3ba65b07","ios":"levelo://app?vid=9ca84900-6c37-4ce9-a81c-d8be3ba65b07"},"vehicle_type_id":"4","last_reported":1766423450,"current_range_meters":11600,"station_id":"","pricing_plan_id":"cebpf4jnsgd1na2vs0mg"},{"bike_id":"67d85c8e-b809-49f8-8207-d203beddd361","system_id":"levelo_inurba_marseille","lat":43.31223,"lon":5.36846,"is_reserved":false,"is_disabled":false,"rental_uris":{"android":"levelo://app?vid=67d85c8e-b809-49f8-8207-d203beddd361","ios":"levelo://app?vid=67d85c8e-b809-49f8-8207-d203beddd361"},"vehicle_type_id":"4","last_reported":1766423450,"current_range_meters":12000,"station_id":"ce4bgl92rcd13ifvqbq0","pricing_plan_id":"cebpf4jnsgd1na2vs0mg"},{"bike_id":"6721b2ec-c219-4aeb-b979-6a400636aeb8","system_id":"levelo_inurba_marseille","lat":43.301552,"lon":5.380934,"is_reserved":false,"is_disabled":false,"rental_uris":{"android":"levelo://app?vid=6721b2ec-c219-4aeb-b979-6a400636aeb8","ios":"levelo://app?vid=6721b2ec-c219-4aeb-b979-6a400636aeb8"},"vehicle_type_id":"4","last_reported":1766423450,"current_range_meters":12000,"station_id":"ce4bgjp2rcd13ifvqbh0","pricing_plan_id":"cebpf4jnsgd1na2vs0mg"},{"bike_id":"3f1a8c42-bb03-43a9-81db-886e3e0ec048","system_id":"levelo_inurba_marseille","lat":43.27839,"lon":5.39341,"is_reserved":false,"is_disabled":false,"rental_uris":{"android":"levelo://app?vid=3f1a8c42-bb03-43a9-81db-886e3e0ec048","ios":"levelo://app?vid=3f1a8c42-bb03-43a9-81db-886e3e0ec048"},"vehicle_type_id":"4","last_reported":1766423450,"current_range_meters":12000,"station_id":"","pricing_plan_id":"cebpf4jnsgd1na2vs0mg"},{"bike_id":"6dc1e6b8-60be-4d36-b527-a1850bc9c59c","system_id":"levelo_inurba_marseille","lat":43.296133,"lon":5.377224,"is_reserved":false,"is_disabled":true,"rental_uris":{"android":"levelo://app?vid=6dc1e6b8-60be-4d36-b527-a1850bc9c59c","ios":"levelo://app?vid=6dc1e6b8-60be-4d36-b527-a1850bc9c59c"},"vehicle_type_id":"4","last_reported":1766423450,"current_range_meters":12000,"station_id":"ce4bgi92rcd13ifvqb90","pricing_plan_id":"cebpf4jnsgd1na2vs0mg"},{"bike_id":"80adb258-f649-49a8-8a18-d47a703e3f00","system_id":"levelo_inurba_marseille","lat":43.33065,"lon":5.37805,"is_reserved":false,"is_disabled":false,"rental_uris":{"android":"levelo://app?vid=80adb258-f649-49a8-8a18-d47a703e3f00","ios":"levelo://app?vid=80adb258-f649-49a8-8a18-d47a703e3f00"},"vehicle_type_id":"4","last_reported":1766423450,"current_range_meters":12000,"station_id":"","pricing_plan_id":"cebpf4jnsgd1na2vs0mg"},{"bike_id":"2cb7ca0c-3b8b-4a26-99c7-98ca75a1a1a6","system_id":"levelo_inurba_marseille","lat":43.24066,"lon":5.37767,"is_reserved":false,"is_disabled":false,"rental_uris":{"android":"levelo://app?vid=2cb7ca0c-3b8b-4a26-99c7-98ca75a1a1a6","ios":"levelo://app?vid=2cb7ca0c-3b8b-4a26-99c7-98ca75a1a1a6"},"vehicle_type_id":"4","last_reported":1766423450,"current_range_meters":12000,"station_id":"ce4bhnp2rcd13ifvqgvg","pricing_plan_id":"cebpf4jnsgd1na2vs0mg"},{"bike_id":"df6ddbe8-1ca8-411a-929c-56147a239fa7","system_id":"levelo_inurba_marseille","lat":43.30407,"lon":5.41287,"is_reserved":false,"is_disabled":false,"rental_uris":{"android":"levelo://app?vid=df6ddbe8-1ca8-411a-929c-56147a239fa7","ios":"levelo://app?vid=df6ddbe8-1ca8-411a-929c-56147a239fa7"},"vehicle_type_id":"4","last_reported":1766423450,"current_range_meters":12000,"station_id":"ce4bhop2rcd13ifvqh8g","pricing_plan_id":"cebpf4jnsgd1na2vs0mg"},{"bike_id":"c3afa35c-3d2f-4f5b-9407-448774a6dce8","system_id":"levelo_inurba_marseille","lat":43.33091,"lon":5.36222,"is_reserved":false,"is_disabled":false,"rental_uris":{"android":"levelo://app?vid=c3afa35c-3d2f-4f5b-9407-448774a6dce8","ios":"levelo://app?vid=c3afa35c-3d2f-4f5b-9407-448774a6dce8"},"vehicle_type_id":"4","last_reported":1766423450,"current_range_meters":12000,"station_id":"","pricing_plan_id":"cebpf4jnsgd1na2vs0mg"},{"bike_id":"ef4b08ff-ce09-4e5e-be6f-d48b0466b25d","system_id":"levelo_inurba_marseille","lat":43.290466,"lon":5.399896,"is_reserved":false,"is_disabled":false,"rental_uris":{"android":"levelo://app?vid=ef4b08ff-ce09-4e5e-be6f-d48b0466b25d","ios":"levelo://app?vid=ef4b08ff-ce09-4e5e-be6f-d48b0466b25d"},"vehicle_type_id":"4","last_reported":1766423450,"current_range_meters":12000,"station_id":"ce4bh392rcd13ifvqdm0","pricing_plan_id":"cebpf4jnsgd1na2vs0mg"},{"bike_id":"3443d75b-16f0-4651-b610-d78992c7bfa5","system_id":"levelo_inurba_marseille","lat":43.31706,"lon":5.437,"is_reserved":false,"is_disabled":true,"rental_uris":{"android":"levelo://app?vid=3443d75b-16f0-4651-b610-d78992c7bfa5","ios":"levelo://app?vid=3443d75b-16f0-4651-b610-d78992c7bfa5"},"vehicle_type_id":"4","last_reported":1766423450,"current_range_meters":12000,"station_id":"ce4bhp92rcd13ifvqhcg","pricing_plan_id":"cebpf4jnsgd1na2vs0mg"},{"bike_id":"f55f0b6b-5822-4908-b90f-1d3e6e81d819","system_id":"levelo_inurba_marseille","lat":43.28534,"lon":5.44096,"is_reserved":false,"is_disabled":false,"rental_uris":{"android":"levelo://app?vid=f55f0b6b-5822-4908-b90f-1d3e6e81d819","ios":"levelo://app?vid=f55f0b6b-5822-4908-b90f-1d3e6e81d819"},"vehicle_type_id":"4","last_reported":1766423450,"current_range_meters":12000,"station_id":"st_d3j3df2ikq2c7380ej80","pricing_plan_id":"cebpf4jnsgd1na2vs0mg"},{"bike_id":"580e9637-f961-4885-8d06-155eaafa25de","system_id":"levelo_inurba_marseille","lat":43.29618,"lon":5.37722,"is_reserved":false,"is_disabled":false,"rental_uris":{"android":"levelo://app?vid=580e9637-f961-4885-8d06-155eaafa25de","ios":"levelo://app?vid=580e9637-f961-4885-8d06-155eaafa25de"},"vehicle_type_id":"4","last_reported":1766423450,"current_range_meters":12000,"station_id":"ce4bgi92rcd13ifvqb90","pricing_plan_id":"cebpf4jnsgd1na2vs0mg"},{"bike_id":"644c4595-308d-4af5-8e5c-68c04469a84a","system_id":"levelo_inurba_marseille","lat":43.2455,"lon":5.39519,"is_reserved":false,"is_disabled":false,"rental_uris":{"android":"levelo://app?vid=644c4595-308d-4af5-8e5c-68c04469a84a","ios":"levelo://app?vid=644c4595-308d-4af5-8e5c-68c04469a84a"},"vehicle_type_id":"4","last_reported":1766423450,"current_range_meters":12400,"station_id":"ce4bhlp2rcd13ifvqgjg","pricing_plan_id":"cebpf4jnsgd1na2vs0mg"},{"bike_id":"63c81cdf-37b5-491b-bcd9-58fb7c5483c4","system_id":"levelo_inurba_marseille","lat":43.21758,"lon":5.34595,"is_reserved":false,"is_disabled":false,"rental_uris":{"android":"levelo://app?vid=63c81cdf-37b5-491b-bcd9-58fb7c5483c4","ios":"levelo://app?vid=63c81cdf-37b5-491b-bcd9-58fb7c5483c4"},"vehicle_type_id":"4","last_reported":1766423450,"current_range_meters":12400,"station_id":"","pricing_plan_id":"cebpf4jnsgd1na2vs0mg"},{"bike_id":"5401de85-2150-40d3-a790-950b4a025395","system_id":"levelo_inurba_marseille","lat":43.33547,"lon":5.3745,"is_reserved":false,"is_disabled":false,"rental_uris":{"android":"levelo://app?vid=5401de85-2150-40d3-a790-950b4a025395","ios":"levelo://app?vid=5401de85-2150-40d3-a790-950b4a025395"},"vehicle_type_id":"4","last_reported":1766423450,"current_range_meters":12400,"station_id":"st_d46tts09ee8s73dlu43g","pricing_plan_id":"cebpf4jnsgd1na2vs0mg"},{"bike_id":"c33d15ae-edcd-4e5e-b091-a6b1d16c8d26","system_id":"levelo_inurba_marseille","lat":43.2534,"lon":5.42168,"is_reserved":false,"is_disabled":false,"rental_uris":{"android":"levelo://app?vid=c33d15ae-edcd-4e5e-b091-a6b1d16c8d26","ios":"levelo://app?vid=c33d15ae-edcd-4e5e-b091-a6b1d16c8d26"},"vehicle_type_id":"4","last_reported":1766423450,"current_range_meters":12400,"station_id":"st_d2m65c5bi1j21697t3ng","pricing_plan_id":"cebpf4jnsgd1na2vs0mg"},{"bike_id":"ae80a838-1f7e-40f5-aa49-f2e8d26eb829","system_id":"levelo_inurba_marseille","lat":43.24165,"lon":5.36393,"is_reserved":false,"is_disabled":false,"rental_uris":{"android":"levelo://app?vid=ae80a838-1f7e-40f5-aa49-f2e8d26eb829","ios":"levelo://app?vid=ae80a838-1f7e-40f5-aa49-f2e8d26eb829"},"vehicle_type_id":"4","last_reported":1766423450,"current_range_meters":12400,"station_id":"cpo36qri1sfpv3e86is0","pricing_plan_id":"cebpf4jnsgd1na2vs0mg"},{"bike_id":"3cec8a6e-74d6-4752-9b53-89728bceee1e","system_id":"levelo_inurba_marseille","lat":43.26683,"lon":5.38264,"is_reserved":false,"is_disabled":false,"rental_uris":{"android":"levelo://app?vid=3cec8a6e-74d6-4752-9b53-89728bceee1e","ios":"levelo://app?vid=3cec8a6e-74d6-4752-9b53-89728bceee1e"},"vehicle_type_id":"4","last_reported":1766423450,"current_range_meters":12400,"station_id":"ce4bhg92rcd13ifvqf90","pricing_plan_id":"cebpf4jnsgd1na2vs0mg"},{"bike_id":"dbb79a98-d4cc-4284-b4ae-a4a7959e377a","system_id":"levelo_inurba_marseille","lat":43.2623,"lon":5.40449,"is_reserved":false,"is_disabled":false,"rental_uris":{"android":"levelo://app?vid=dbb79a98-d4cc-4284-b4ae-a4a7959e377a","ios":"levelo://app?vid=dbb79a98-d4cc-4284-b4ae-a4a7959e377a"},"vehicle_type_id":"4","last_reported":1766423450,"current_range_meters":12400,"station_id":"ce4bhmh2rcd13ifvqgmg","pricing_plan_id":"cebpf4jnsgd1na2vs0mg"},{"bike_id":"5f0cb3da-5136-4449-ac11-f9425163a877","system_id":"levelo_inurba_marseille","lat":43.30558,"lon":5.36692,"is_reserved":false,"is_disabled":true,"rental_uris":{"android":"levelo://app?vid=5f0cb3da-5136-4449-ac11-f9425163a877","ios":"levelo://app?vid=5f0cb3da-5136-4449-ac11-f9425163a877"},"vehicle_type_id":"4","last_reported":1766423450,"current_range_meters":12400,"station_id":"ce4bgrp2rcd13ifvqc9g","pricing_plan_id":"cebpf4jnsgd1na2vs0mg"},{"bike_id":"f5af2359-d16c-416e-8c34-bf72b99c812b","system_id":"levelo_inurba_marseille","lat":43.26492,"lon":5.39549,"is_reserved":false,"is_disabled":false,"rental_uris":{"android":"levelo://app?vid=f5af2359-d16c-416e-8c34-bf72b99c812b","ios":"levelo://app?vid=f5af2359-d16c-416e-8c34-bf72b99c812b"},"vehicle_type_id":"4","last_reported":1766423450,"current_range_meters":12400,"station_id":"ce4bhi12rcd13ifvqfq0","pricing_plan_id":"cebpf4jnsgd1na2vs0mg"},{"bike_id":"b58a9cb3-5f55-49d2-9df4-6238a52f9560","system_id":"levelo_inurba_marseille","lat":43.24082,"lon":5.37751,"is_reserved":false,"is_disabled":false,"rental_uris":{"android":"levelo://app?vid=b58a9cb3-5f55-49d2-9df4-6238a52f9560","ios":"levelo://app?vid=b58a9cb3-5f55-49d2-9df4-6238a52f9560"},"vehicle_type_id":"4","last_reported":1766423450,"current_range_meters":12400,"station_id":"ce4bhnp2rcd13ifvqgvg","pricing_plan_id":"cebpf4jnsgd1na2vs0mg"},{"bike_id":"509e4aed-761d-491d-9c68-878a7e8c49de","system_id":"levelo_inurba_marseille","lat":43.29704,"lon":5.38194,"is_reserved":false,"is_disabled":false,"rental_uris":{"android":"levelo://app?vid=509e4aed-761d-491d-9c68-878a7e8c49de","ios":"levelo://app?vid=509e4aed-761d-491d-9c68-878a7e8c49de"},"vehicle_type_id":"4","last_reported":1766423450,"current_range_meters":12400,"station_id":"","pricing_plan_id":"cebpf4jnsgd1na2vs0mg"},{"bike_id":"196f3be3-5ca2-42c9-a8f1-91ff0a4d976f","system_id":"levelo_inurba_marseille","lat":43.30151,"lon":5.38092,"is_reserved":false,"is_disabled":false,"rental_uris":{"android":"levelo://app?vid=196f3be3-5ca2-42c9-a8f1-91ff0a4d976f","ios":"levelo://app?vid=196f3be3-5ca2-42c9-a8f1-91ff0a4d976f"},"vehicle_type_id":"4","last_reported":1766423450,"current_range_meters":12400,"station_id":"ce4bgjp2rcd13ifvqbh0","pricing_plan_id":"cebpf4jnsgd1na2vs0mg"},{"bike_id":"65eceae9-3324-4c5b-8816-a484f6ad6bf3","system_id":"levelo_inurba_marseille","lat":43.31328,"lon":5.37497,"is_reserved":false,"is_disabled":false,"rental_uris":{"android":"levelo://app?vid=65eceae9-3324-4c5b-8816-a484f6ad6bf3","ios":"levelo://app?vid=65eceae9-3324-4c5b-8816-a484f6ad6bf3"},"vehicle_type_id":"4","last_reported":1766423450,"current_range_meters":12800,"station_id":"","pricing_plan_id":"cebpf4jnsgd1na2vs0mg"},{"bike_id":"02405da3-b659-4aa6-a7a2-cf9ee2b1592c","system_id":"levelo_inurba_marseille","lat":43.284789,"lon":5.384176,"is_reserved":false,"is_disabled":false,"rental_uris":{"android":"levelo://app?vid=02405da3-b659-4aa6-a7a2-cf9ee2b1592c","ios":"levelo://app?vid=02405da3-b659-4aa6-a7a2-cf9ee2b1592c"},"vehicle_type_id":"4","last_reported":1766423450,"current_range_meters":12800,"station_id":"","pricing_plan_id":"cebpf4jnsgd1na2vs0mg"},{"bike_id":"c3951f72-80c9-4e0a-a0be-ad50fb2cf9a5","system_id":"levelo_inurba_marseille","lat":43.2481,"lon":5.3744,"is_reserved":false,"is_disabled":false,"rental_uris":{"android":"levelo://app?vid=c3951f72-80c9-4e0a-a0be-ad50fb2cf9a5","ios":"levelo://app?vid=c3951f72-80c9-4e0a-a0be-ad50fb2cf9a5"},"vehicle_type_id":"4","last_reported":1766423450,"current_range_meters":12800,"station_id":"ce4bhgh2rcd13ifvqfb0","pricing_plan_id":"cebpf4jnsgd1na2vs0mg"},{"bike_id":"842e0aaa-f5d6-4385-9977-1b6e8e38e695","system_id":"levelo_inurba_marseille","lat":43.3011,"lon":5.36547,"is_reserved":false,"is_disabled":false,"rental_uris":{"android":"levelo://app?vid=842e0aaa-f5d6-4385-9977-1b6e8e38e695","ios":"levelo://app?vid=842e0aaa-f5d6-4385-9977-1b6e8e38e695"},"vehicle_type_id":"4","last_reported":1766423450,"current_range_meters":12800,"station_id":"","pricing_plan_id":"cebpf4jnsgd1na2vs0mg"},{"bike_id":"e6c4e02a-da15-480d-8ef9-e5ad4e687450","system_id":"levelo_inurba_marseille","lat":43.28487,"lon":5.38419,"is_reserved":false,"is_disabled":false,"rental_uris":{"android":"levelo://app?vid=e6c4e02a-da15-480d-8ef9-e5ad4e687450","ios":"levelo://app?vid=e6c4e02a-da15-480d-8ef9-e5ad4e687450"},"vehicle_type_id":"4","last_reported":1766423450,"current_range_meters":12800,"station_id":"ce4bh512rcd13ifvqe3g","pricing_plan_id":"cebpf4jnsgd1na2vs0mg"},{"bike_id":"962ec134-4772-4a4a-9183-19733883ac2c","system_id":"levelo_inurba_marseille","lat":43.25515,"lon":5.37654,"is_reserved":false,"is_disabled":false,"rental_uris":{"android":"levelo://app?vid=962ec134-4772-4a4a-9183-19733883ac2c","ios":"levelo://app?vid=962ec134-4772-4a4a-9183-19733883ac2c"},"vehicle_type_id":"4","last_reported":1766423450,"current_range_meters":12800,"station_id":"","pricing_plan_id":"cebpf4jnsgd1na2vs0mg"},{"bike_id":"edc241a0-7b39-4761-a2fc-53486c2d029a","system_id":"levelo_inurba_marseille","lat":43.31049,"lon":5.37176,"is_reserved":false,"is_disabled":false,"rental_uris":{"android":"levelo://app?vid=edc241a0-7b39-4761-a2fc-53486c2d029a","ios":"levelo://app?vid=edc241a0-7b39-4761-a2fc-53486c2d029a"},"vehicle_type_id":"4","last_reported":1766423450,"current_range_meters":12800,"station_id":"st_d4kl2rp97mjs73e7tdfg","pricing_plan_id":"cebpf4jnsgd1na2vs0mg"},{"bike_id":"f6874d5f-9562-4058-80e7-5cc5b36ca1b8","system_id":"levelo_inurba_marseille","lat":43.27558,"lon":5.38428,"is_reserved":false,"is_disabled":false,"rental_uris":{"android":"levelo://app?vid=f6874d5f-9562-4058-80e7-5cc5b36ca1b8","ios":"levelo://app?vid=f6874d5f-9562-4058-80e7-5cc5b36ca1b8"},"vehicle_type_id":"4","last_reported":1766423450,"current_range_meters":12800,"station_id":"ce4bhh92rcd13ifvqfi0","pricing_plan_id":"cebpf4jnsgd1na2vs0mg"},{"bike_id":"a9df2d7f-4d15-43eb-a813-e2f837da622e","system_id":"levelo_inurba_marseille","lat":43.25495,"lon":5.37651,"is_reserved":false,"is_disabled":false,"rental_uris":{"android":"levelo://app?vid=a9df2d7f-4d15-43eb-a813-e2f837da622e","ios":"levelo://app?vid=a9df2d7f-4d15-43eb-a813-e2f837da622e"},"vehicle_type_id":"4","last_reported":1766423450,"current_range_meters":12800,"station_id":"ce4bhh12rcd13ifvqff0","pricing_plan_id":"cebpf4jnsgd1na2vs0mg"},{"bike_id":"694e802a-8241-423f-a0e1-01c39c87d47c","system_id":"levelo_inurba_marseille","lat":43.31208,"lon":5.36886,"is_reserved":false,"is_disabled":false,"rental_uris":{"android":"levelo://app?vid=694e802a-8241-423f-a0e1-01c39c87d47c","ios":"levelo://app?vid=694e802a-8241-423f-a0e1-01c39c87d47c"},"vehicle_type_id":"4","last_reported":1766423450,"current_range_meters":13600,"station_id":"ce4bgl92rcd13ifvqbq0","pricing_plan_id":"cebpf4jnsgd1na2vs0mg"},{"bike_id":"e05d3b20-3341-4f48-bf31-095dd3b5e5c8","system_id":"levelo_inurba_marseille","lat":43.229259,"lon":5.353721,"is_reserved":false,"is_disabled":false,"rental_uris":{"android":"levelo://app?vid=e05d3b20-3341-4f48-bf31-095dd3b5e5c8","ios":"levelo://app?vid=e05d3b20-3341-4f48-bf31-095dd3b5e5c8"},"vehicle_type_id":"4","last_reported":1766423450,"current_range_meters":13600,"station_id":"cpo3532slgdg3j2ikp40","pricing_plan_id":"cebpf4jnsgd1na2vs0mg"},{"bike_id":"d23861c9-abcd-4965-90cc-54e155caaea6","system_id":"levelo_inurba_marseille","lat":43.24957,"lon":5.40483,"is_reserved":false,"is_disabled":false,"rental_uris":{"android":"levelo://app?vid=d23861c9-abcd-4965-90cc-54e155caaea6","ios":"levelo://app?vid=d23861c9-abcd-4965-90cc-54e155caaea6"},"vehicle_type_id":"4","last_reported":1766423450,"current_range_meters":13600,"station_id":"st_d2ngiaodas8pm72gd1h0","pricing_plan_id":"cebpf4jnsgd1na2vs0mg"},{"bike_id":"2e432000-19e4-474b-acb8-4742408d8ecf","system_id":"levelo_inurba_marseille","lat":43.29642,"lon":5.38069,"is_reserved":false,"is_disabled":false,"rental_uris":{"android":"levelo://app?vid=2e432000-19e4-474b-acb8-4742408d8ecf","ios":"levelo://app?vid=2e432000-19e4-474b-acb8-4742408d8ecf"},"vehicle_type_id":"4","last_reported":1766423450,"current_range_meters":13600,"station_id":"","pricing_plan_id":"cebpf4jnsgd1na2vs0mg"},{"bike_id":"79d3a755-9588-4f1f-9163-313c8e104bcd","system_id":"levelo_inurba_marseille","lat":43.28504,"lon":5.48365,"is_reserved":false,"is_disabled":false,"rental_uris":{"android":"levelo://app?vid=79d3a755-9588-4f1f-9163-313c8e104bcd","ios":"levelo://app?vid=79d3a755-9588-4f1f-9163-313c8e104bcd"},"vehicle_type_id":"4","last_reported":1766423450,"current_range_meters":13600,"station_id":"st_d3svhcjqgbts73a3dn0g","pricing_plan_id":"cebpf4jnsgd1na2vs0mg"},{"bike_id":"e5835ec3-b4aa-4ab7-ac23-5eb86eebb662","system_id":"levelo_inurba_marseille","lat":43.29541,"lon":5.42289,"is_reserved":false,"is_disabled":false,"rental_uris":{"android":"levelo://app?vid=e5835ec3-b4aa-4ab7-ac23-5eb86eebb662","ios":"levelo://app?vid=e5835ec3-b4aa-4ab7-ac23-5eb86eebb662"},"vehicle_type_id":"4","last_reported":1766423450,"current_range_meters":13600,"station_id":"ce4bhph2rcd13ifvqhdg","pricing_plan_id":"cebpf4jnsgd1na2vs0mg"},{"bike_id":"8c8c2db1-20f1-4619-9e59-24872f2c5cb4","system_id":"levelo_inurba_marseille","lat":43.29037,"lon":5.37564,"is_reserved":false,"is_disabled":false,"rental_uris":{"android":"levelo://app?vid=8c8c2db1-20f1-4619-9e59-24872f2c5cb4","ios":"levelo://app?vid=8c8c2db1-20f1-4619-9e59-24872f2c5cb4"},"vehicle_type_id":"4","last_reported":1766423450,"current_range_meters":13600,"station_id":"ce4bh692rcd13ifvqe90","pricing_plan_id":"cebpf4jnsgd1na2vs0mg"},{"bike_id":"94a1f34b-c097-4f30-8c34-7f80f66e08b3","system_id":"levelo_inurba_marseille","lat":43.29261,"lon":5.38451,"is_reserved":false,"is_disabled":false,"rental_uris":{"android":"levelo://app?vid=94a1f34b-c097-4f30-8c34-7f80f66e08b3","ios":"levelo://app?vid=94a1f34b-c097-4f30-8c34-7f80f66e08b3"},"vehicle_type_id":"4","last_reported":1766423450,"current_range_meters":13600,"station_id":"ce4bh692rcd13ifvqea0","pricing_plan_id":"cebpf4jnsgd1na2vs0mg"},{"bike_id":"9bbf429c-7fc7-435d-8da0-aa432e52eb42","system_id":"levelo_inurba_marseille","lat":43.24645,"lon":5.38886,"is_reserved":false,"is_disabled":false,"rental_uris":{"android":"levelo://app?vid=9bbf429c-7fc7-435d-8da0-aa432e52eb42","ios":"levelo://app?vid=9bbf429c-7fc7-435d-8da0-aa432e52eb42"},"vehicle_type_id":"4","last_reported":1766423450,"current_range_meters":14000,"station_id":"ce4bhg12rcd13ifvqf60","pricing_plan_id":"cebpf4jnsgd1na2vs0mg"},{"bike_id":"63df3f6e-6a4c-43ca-96e4-01a78e2183c9","system_id":"levelo_inurba_marseille","lat":43.29499,"lon":5.43301,"is_reserved":false,"is_disabled":false,"rental_uris":{"android":"levelo://app?vid=63df3f6e-6a4c-43ca-96e4-01a78e2183c9","ios":"levelo://app?vid=63df3f6e-6a4c-43ca-96e4-01a78e2183c9"},"vehicle_type_id":"4","last_reported":1766423450,"current_range_meters":14000,"station_id":"st_d3j5ugp08ojc73fj9d10","pricing_plan_id":"cebpf4jnsgd1na2vs0mg"},{"bike_id":"0061ab09-c89e-4266-94d6-af723df9cd68","system_id":"levelo_inurba_marseille","lat":43.29046,"lon":5.35973,"is_reserved":false,"is_disabled":true,"rental_uris":{"android":"levelo://app?vid=0061ab09-c89e-4266-94d6-af723df9cd68","ios":"levelo://app?vid=0061ab09-c89e-4266-94d6-af723df9cd68"},"vehicle_type_id":"4","last_reported":1766423450,"current_range_meters":14000,"station_id":"ce4bha92rcd13ifvqeg0","pricing_plan_id":"cebpf4jnsgd1na2vs0mg"},{"bike_id":"a5505c05-3945-4ca5-a81c-1af7edcee7ca","system_id":"levelo_inurba_marseille","lat":43.30241,"lon":5.37985,"is_reserved":false,"is_disabled":false,"rental_uris":{"android":"levelo://app?vid=a5505c05-3945-4ca5-a81c-1af7edcee7ca","ios":"levelo://app?vid=a5505c05-3945-4ca5-a81c-1af7edcee7ca"},"vehicle_type_id":"4","last_reported":1766423450,"current_range_meters":14000,"station_id":"","pricing_plan_id":"cebpf4jnsgd1na2vs0mg"},{"bike_id":"d8431e58-d3e8-4456-9570-729e3ebbcc73","system_id":"levelo_inurba_marseille","lat":43.29304,"lon":5.374577,"is_reserved":false,"is_disabled":false,"rental_uris":{"android":"levelo://app?vid=d8431e58-d3e8-4456-9570-729e3ebbcc73","ios":"levelo://app?vid=d8431e58-d3e8-4456-9570-729e3ebbcc73"},"vehicle_type_id":"4","last_reported":1766423450,"current_range_meters":14000,"station_id":"","pricing_plan_id":"cebpf4jnsgd1na2vs0mg"},{"bike_id":"2f10d7ca-8ce2-4e39-8f5e-82098c7b571f","system_id":"levelo_inurba_marseille","lat":43.289389,"lon":5.366313,"is_reserved":false,"is_disabled":false,"rental_uris":{"android":"levelo://app?vid=2f10d7ca-8ce2-4e39-8f5e-82098c7b571f","ios":"levelo://app?vid=2f10d7ca-8ce2-4e39-8f5e-82098c7b571f"},"vehicle_type_id":"4","last_reported":1766423450,"current_range_meters":14000,"station_id":"ce4bhap2rcd13ifvqek0","pricing_plan_id":"cebpf4jnsgd1na2vs0mg"},{"bike_id":"0de561cb-1d61-43ac-955a-e23478f54002","system_id":"levelo_inurba_marseille","lat":43.24403,"lon":5.37045,"is_reserved":false,"is_disabled":false,"rental_uris":{"android":"levelo://app?vid=0de561cb-1d61-43ac-955a-e23478f54002","ios":"levelo://app?vid=0de561cb-1d61-43ac-955a-e23478f54002"},"vehicle_type_id":"4","last_reported":1766423450,"current_range_meters":14000,"station_id":"ce4bhhh2rcd13ifvqfk0","pricing_plan_id":"cebpf4jnsgd1na2vs0mg"},{"bike_id":"73b93cac-cb17-4190-ba0d-b33f3a70c32b","system_id":"levelo_inurba_marseille","lat":43.30156,"lon":5.38091,"is_reserved":false,"is_disabled":false,"rental_uris":{"android":"levelo://app?vid=73b93cac-cb17-4190-ba0d-b33f3a70c32b","ios":"levelo://app?vid=73b93cac-cb17-4190-ba0d-b33f3a70c32b"},"vehicle_type_id":"4","last_reported":1766423450,"current_range_meters":14000,"station_id":"ce4bgjp2rcd13ifvqbh0","pricing_plan_id":"cebpf4jnsgd1na2vs0mg"},{"bike_id":"01b640ff-ac8a-462f-ba14-49e6fc3aa613","system_id":"levelo_inurba_marseille","lat":43.305459,"lon":5.365648,"is_reserved":false,"is_disabled":false,"rental_uris":{"android":"levelo://app?vid=01b640ff-ac8a-462f-ba14-49e6fc3aa613","ios":"levelo://app?vid=01b640ff-ac8a-462f-ba14-49e6fc3aa613"},"vehicle_type_id":"4","last_reported":1766423450,"current_range_meters":14000,"station_id":"","pricing_plan_id":"cebpf4jnsgd1na2vs0mg"},{"bike_id":"fe66e889-7cfe-4372-a4d6-9dee91d1b337","system_id":"levelo_inurba_marseille","lat":43.289231,"lon":5.383905,"is_reserved":false,"is_disabled":true,"rental_uris":{"android":"levelo://app?vid=fe66e889-7cfe-4372-a4d6-9dee91d1b337","ios":"levelo://app?vid=fe66e889-7cfe-4372-a4d6-9dee91d1b337"},"vehicle_type_id":"4","last_reported":1766423450,"current_range_meters":14000,"station_id":"ce4bh612rcd13ifvqe6g","pricing_plan_id":"cebpf4jnsgd1na2vs0mg"},{"bike_id":"5268af28-f955-490d-bc4f-0a2851587ccf","system_id":"levelo_inurba_marseille","lat":43.33728,"lon":5.39171,"is_reserved":false,"is_disabled":false,"rental_uris":{"android":"levelo://app?vid=5268af28-f955-490d-bc4f-0a2851587ccf","ios":"levelo://app?vid=5268af28-f955-490d-bc4f-0a2851587ccf"},"vehicle_type_id":"4","last_reported":1766423450,"current_range_meters":14400,"station_id":"ce4bhr92rcd13ifvqhsg","pricing_plan_id":"cebpf4jnsgd1na2vs0mg"},{"bike_id":"679e545b-3a84-4850-9330-11bdb2114ce3","system_id":"levelo_inurba_marseille","lat":43.25938,"lon":5.40899,"is_reserved":false,"is_disabled":false,"rental_uris":{"android":"levelo://app?vid=679e545b-3a84-4850-9330-11bdb2114ce3","ios":"levelo://app?vid=679e545b-3a84-4850-9330-11bdb2114ce3"},"vehicle_type_id":"4","last_reported":1766423450,"current_range_meters":14400,"station_id":"ce4bhm92rcd13ifvqglg","pricing_plan_id":"cebpf4jnsgd1na2vs0mg"},{"bike_id":"70ce8712-905b-4bb5-a036-16e545c84501","system_id":"levelo_inurba_marseille","lat":43.31862,"lon":5.37366,"is_reserved":false,"is_disabled":false,"rental_uris":{"android":"levelo://app?vid=70ce8712-905b-4bb5-a036-16e545c84501","ios":"levelo://app?vid=70ce8712-905b-4bb5-a036-16e545c84501"},"vehicle_type_id":"4","last_reported":1766423450,"current_range_meters":14400,"station_id":"","pricing_plan_id":"cebpf4jnsgd1na2vs0mg"},{"bike_id":"9152dc23-aabb-4dc0-8225-d34b5a4f8b0e","system_id":"levelo_inurba_marseille","lat":43.24657,"lon":5.38888,"is_reserved":false,"is_disabled":false,"rental_uris":{"android":"levelo://app?vid=9152dc23-aabb-4dc0-8225-d34b5a4f8b0e","ios":"levelo://app?vid=9152dc23-aabb-4dc0-8225-d34b5a4f8b0e"},"vehicle_type_id":"4","last_reported":1766423450,"current_range_meters":14400,"station_id":"ce4bhg12rcd13ifvqf60","pricing_plan_id":"cebpf4jnsgd1na2vs0mg"},{"bike_id":"d5603250-765d-4f14-ac6b-a80ed196f463","system_id":"levelo_inurba_marseille","lat":43.30939,"lon":5.40135,"is_reserved":false,"is_disabled":false,"rental_uris":{"android":"levelo://app?vid=d5603250-765d-4f14-ac6b-a80ed196f463","ios":"levelo://app?vid=d5603250-765d-4f14-ac6b-a80ed196f463"},"vehicle_type_id":"4","last_reported":1766423450,"current_range_meters":14400,"station_id":"ce4bgvp2rcd13ifvqct0","pricing_plan_id":"cebpf4jnsgd1na2vs0mg"},{"bike_id":"49c875cc-ecf7-44ee-b62c-279e0e5234e3","system_id":"levelo_inurba_marseille","lat":43.28711,"lon":5.37416,"is_reserved":false,"is_disabled":true,"rental_uris":{"android":"levelo://app?vid=49c875cc-ecf7-44ee-b62c-279e0e5234e3","ios":"levelo://app?vid=49c875cc-ecf7-44ee-b62c-279e0e5234e3"},"vehicle_type_id":"4","last_reported":1766423450,"current_range_meters":14400,"station_id":"ce4bh3p2rcd13ifvqdq0","pricing_plan_id":"cebpf4jnsgd1na2vs0mg"},{"bike_id":"5d44064c-e418-4449-86ad-5a5c2b72e1fc","system_id":"levelo_inurba_marseille","lat":43.27493,"lon":5.4245,"is_reserved":false,"is_disabled":false,"rental_uris":{"android":"levelo://app?vid=5d44064c-e418-4449-86ad-5a5c2b72e1fc","ios":"levelo://app?vid=5d44064c-e418-4449-86ad-5a5c2b72e1fc"},"vehicle_type_id":"4","last_reported":1766423450,"current_range_meters":14400,"station_id":"ce4bhn92rcd13ifvqgrg","pricing_plan_id":"cebpf4jnsgd1na2vs0mg"},{"bike_id":"2631213b-f960-4622-bbd7-18220c8f4ec3","system_id":"levelo_inurba_marseille","lat":43.28421,"lon":5.36809,"is_reserved":false,"is_disabled":false,"rental_uris":{"android":"levelo://app?vid=2631213b-f960-4622-bbd7-18220c8f4ec3","ios":"levelo://app?vid=2631213b-f960-4622-bbd7-18220c8f4ec3"},"vehicle_type_id":"4","last_reported":1766423450,"current_range_meters":14400,"station_id":"","pricing_plan_id":"cebpf4jnsgd1na2vs0mg"},{"bike_id":"f2f52370-ef59-45e4-9165-5378c599a12a","system_id":"levelo_inurba_marseille","lat":43.32345,"lon":5.38509,"is_reserved":false,"is_disabled":false,"rental_uris":{"android":"levelo://app?vid=f2f52370-ef59-45e4-9165-5378c599a12a","ios":"levelo://app?vid=f2f52370-ef59-45e4-9165-5378c599a12a"},"vehicle_type_id":"4","last_reported":1766423450,"current_range_meters":14400,"station_id":"st_d45171o9ee8s73djdqug","pricing_plan_id":"cebpf4jnsgd1na2vs0mg"},{"bike_id":"39d49415-aa6a-488d-b492-6772a7541680","system_id":"levelo_inurba_marseille","lat":43.315045,"lon":5.378552,"is_reserved":false,"is_disabled":false,"rental_uris":{"android":"levelo://app?vid=39d49415-aa6a-488d-b492-6772a7541680","ios":"levelo://app?vid=39d49415-aa6a-488d-b492-6772a7541680"},"vehicle_type_id":"4","last_reported":1766423450,"current_range_meters":14400,"station_id":"","pricing_plan_id":"cebpf4jnsgd1na2vs0mg"},{"bike_id":"d5ea7e0f-4229-4fa2-97b4-5c956fcd00d3","system_id":"levelo_inurba_marseille","lat":43.29536,"lon":5.37368,"is_reserved":false,"is_disabled":false,"rental_uris":{"android":"levelo://app?vid=d5ea7e0f-4229-4fa2-97b4-5c956fcd00d3","ios":"levelo://app?vid=d5ea7e0f-4229-4fa2-97b4-5c956fcd00d3"},"vehicle_type_id":"4","last_reported":1766423450,"current_range_meters":14800,"station_id":"","pricing_plan_id":"cebpf4jnsgd1na2vs0mg"},{"bike_id":"4d1ad2b5-d69d-47c3-bf61-cbcd9fe561c3","system_id":"levelo_inurba_marseille","lat":43.29555,"lon":5.42276,"is_reserved":false,"is_disabled":false,"rental_uris":{"android":"levelo://app?vid=4d1ad2b5-d69d-47c3-bf61-cbcd9fe561c3","ios":"levelo://app?vid=4d1ad2b5-d69d-47c3-bf61-cbcd9fe561c3"},"vehicle_type_id":"4","last_reported":1766423450,"current_range_meters":14800,"station_id":"ce4bhph2rcd13ifvqhdg","pricing_plan_id":"cebpf4jnsgd1na2vs0mg"},{"bike_id":"161a6a04-27ec-4e46-baf2-384356481958","system_id":"levelo_inurba_marseille","lat":43.297584,"lon":5.427838,"is_reserved":false,"is_disabled":false,"rental_uris":{"android":"levelo://app?vid=161a6a04-27ec-4e46-baf2-384356481958","ios":"levelo://app?vid=161a6a04-27ec-4e46-baf2-384356481958"},"vehicle_type_id":"4","last_reported":1766423450,"current_range_meters":14800,"station_id":"st_d3md5207bmas73dh9klg","pricing_plan_id":"cebpf4jnsgd1na2vs0mg"},{"bike_id":"7b7b4505-6a51-48a2-8650-df27d41bc5f9","system_id":"levelo_inurba_marseille","lat":43.241704,"lon":5.363981,"is_reserved":false,"is_disabled":false,"rental_uris":{"android":"levelo://app?vid=7b7b4505-6a51-48a2-8650-df27d41bc5f9","ios":"levelo://app?vid=7b7b4505-6a51-48a2-8650-df27d41bc5f9"},"vehicle_type_id":"4","last_reported":1766423450,"current_range_meters":14800,"station_id":"cpo36qri1sfpv3e86is0","pricing_plan_id":"cebpf4jnsgd1na2vs0mg"},{"bike_id":"c61c1e7b-59d9-459c-9d42-55da43a3a17e","system_id":"levelo_inurba_marseille","lat":43.27994,"lon":5.41664,"is_reserved":false,"is_disabled":false,"rental_uris":{"android":"levelo://app?vid=c61c1e7b-59d9-459c-9d42-55da43a3a17e","ios":"levelo://app?vid=c61c1e7b-59d9-459c-9d42-55da43a3a17e"},"vehicle_type_id":"4","last_reported":1766423450,"current_range_meters":14800,"station_id":"ce4bho12rcd13ifvqh1g","pricing_plan_id":"cebpf4jnsgd1na2vs0mg"},{"bike_id":"6e0179ae-e19a-435a-84e2-4a7ed701a8f7","system_id":"levelo_inurba_marseille","lat":43.298093,"lon":5.429039,"is_reserved":false,"is_disabled":false,"rental_uris":{"android":"levelo://app?vid=6e0179ae-e19a-435a-84e2-4a7ed701a8f7","ios":"levelo://app?vid=6e0179ae-e19a-435a-84e2-4a7ed701a8f7"},"vehicle_type_id":"4","last_reported":1766423450,"current_range_meters":14800,"station_id":"","pricing_plan_id":"cebpf4jnsgd1na2vs0mg"},{"bike_id":"e3be2638-c1cf-4a16-90ea-926206859e35","system_id":"levelo_inurba_marseille","lat":43.31333,"lon":5.36653,"is_reserved":false,"is_disabled":false,"rental_uris":{"android":"levelo://app?vid=e3be2638-c1cf-4a16-90ea-926206859e35","ios":"levelo://app?vid=e3be2638-c1cf-4a16-90ea-926206859e35"},"vehicle_type_id":"4","last_reported":1766423450,"current_range_meters":15200,"station_id":"ce4bgr92rcd13ifvqc6g","pricing_plan_id":"cebpf4jnsgd1na2vs0mg"},{"bike_id":"f0da652f-e57b-49bc-a3fa-bcaab7f79500","system_id":"levelo_inurba_marseille","lat":43.30471,"lon":5.37917,"is_reserved":false,"is_disabled":false,"rental_uris":{"android":"levelo://app?vid=f0da652f-e57b-49bc-a3fa-bcaab7f79500","ios":"levelo://app?vid=f0da652f-e57b-49bc-a3fa-bcaab7f79500"},"vehicle_type_id":"4","last_reported":1766423450,"current_range_meters":15200,"station_id":"ce4bgup2rcd13ifvqcn0","pricing_plan_id":"cebpf4jnsgd1na2vs0mg"},{"bike_id":"4ef57c60-2c7f-4b73-81b5-daa191d6e4ed","system_id":"levelo_inurba_marseille","lat":43.2378,"lon":5.36618,"is_reserved":false,"is_disabled":false,"rental_uris":{"android":"levelo://app?vid=4ef57c60-2c7f-4b73-81b5-daa191d6e4ed","ios":"levelo://app?vid=4ef57c60-2c7f-4b73-81b5-daa191d6e4ed"},"vehicle_type_id":"4","last_reported":1766423450,"current_range_meters":15200,"station_id":"st_d3nk18o9ro0c73en2l3g","pricing_plan_id":"cebpf4jnsgd1na2vs0mg"},{"bike_id":"161e6ce2-7478-4a11-99a5-608d75f6096f","system_id":"levelo_inurba_marseille","lat":43.225719,"lon":5.41652,"is_reserved":false,"is_disabled":false,"rental_uris":{"android":"levelo://app?vid=161e6ce2-7478-4a11-99a5-608d75f6096f","ios":"levelo://app?vid=161e6ce2-7478-4a11-99a5-608d75f6096f"},"vehicle_type_id":"4","last_reported":1766423450,"current_range_meters":15200,"station_id":"st_d2o4gvlbi1j2169b742g","pricing_plan_id":"cebpf4jnsgd1na2vs0mg"},{"bike_id":"c1a3ae38-2e8b-4f40-89f4-2537b2ed71f1","system_id":"levelo_inurba_marseille","lat":43.33023,"lon":5.39037,"is_reserved":false,"is_disabled":false,"rental_uris":{"android":"levelo://app?vid=c1a3ae38-2e8b-4f40-89f4-2537b2ed71f1","ios":"levelo://app?vid=c1a3ae38-2e8b-4f40-89f4-2537b2ed71f1"},"vehicle_type_id":"4","last_reported":1766423450,"current_range_meters":15200,"station_id":"ce4bhr92rcd13ifvqhrg","pricing_plan_id":"cebpf4jnsgd1na2vs0mg"},{"bike_id":"99cda8a1-1901-43e9-8a6d-3bf171f66bfa","system_id":"levelo_inurba_marseille","lat":43.299899,"lon":5.37186,"is_reserved":false,"is_disabled":false,"rental_uris":{"android":"levelo://app?vid=99cda8a1-1901-43e9-8a6d-3bf171f66bfa","ios":"levelo://app?vid=99cda8a1-1901-43e9-8a6d-3bf171f66bfa"},"vehicle_type_id":"4","last_reported":1766423450,"current_range_meters":15200,"station_id":"ce4bgr92rcd13ifvqc7g","pricing_plan_id":"cebpf4jnsgd1na2vs0mg"},{"bike_id":"6eb468b8-d209-44a8-9d7a-653f062727ed","system_id":"levelo_inurba_marseille","lat":43.31483,"lon":5.39215,"is_reserved":false,"is_disabled":false,"rental_uris":{"android":"levelo://app?vid=6eb468b8-d209-44a8-9d7a-653f062727ed","ios":"levelo://app?vid=6eb468b8-d209-44a8-9d7a-653f062727ed"},"vehicle_type_id":"4","last_reported":1766423450,"current_range_meters":15200,"station_id":"","pricing_plan_id":"cebpf4jnsgd1na2vs0mg"},{"bike_id":"9e7fc0e6-1a27-4dd9-8013-46b29b02a4a4","system_id":"levelo_inurba_marseille","lat":43.28229,"lon":5.3907,"is_reserved":false,"is_disabled":false,"rental_uris":{"android":"levelo://app?vid=9e7fc0e6-1a27-4dd9-8013-46b29b02a4a4","ios":"levelo://app?vid=9e7fc0e6-1a27-4dd9-8013-46b29b02a4a4"},"vehicle_type_id":"4","last_reported":1766423450,"current_range_meters":15200,"station_id":"ce4bhn92rcd13ifvqgsg","pricing_plan_id":"cebpf4jnsgd1na2vs0mg"},{"bike_id":"5c13ca41-9915-4949-b9e9-59f57a983d3f","system_id":"levelo_inurba_marseille","lat":43.22931,"lon":5.3538,"is_reserved":false,"is_disabled":false,"rental_uris":{"android":"levelo://app?vid=5c13ca41-9915-4949-b9e9-59f57a983d3f","ios":"levelo://app?vid=5c13ca41-9915-4949-b9e9-59f57a983d3f"},"vehicle_type_id":"4","last_reported":1766423450,"current_range_meters":15200,"station_id":"cpo3532slgdg3j2ikp40","pricing_plan_id":"cebpf4jnsgd1na2vs0mg"},{"bike_id":"e760b55f-46b0-44de-bdf7-0fa2947bb596","system_id":"levelo_inurba_marseille","lat":43.295767,"lon":5.399888,"is_reserved":false,"is_disabled":false,"rental_uris":{"android":"levelo://app?vid=e760b55f-46b0-44de-bdf7-0fa2947bb596","ios":"levelo://app?vid=e760b55f-46b0-44de-bdf7-0fa2947bb596"},"vehicle_type_id":"4","last_reported":1766423450,"current_range_meters":15200,"station_id":"ce4bh312rcd13ifvqdj0","pricing_plan_id":"cebpf4jnsgd1na2vs0mg"},{"bike_id":"25b568b1-4701-47a0-8b7a-bb93702c625e","system_id":"levelo_inurba_marseille","lat":43.29566,"lon":5.3753,"is_reserved":false,"is_disabled":false,"rental_uris":{"android":"levelo://app?vid=25b568b1-4701-47a0-8b7a-bb93702c625e","ios":"levelo://app?vid=25b568b1-4701-47a0-8b7a-bb93702c625e"},"vehicle_type_id":"4","last_reported":1766423450,"current_range_meters":16000,"station_id":"ce4bhgp2rcd13ifvqfe0","pricing_plan_id":"cebpf4jnsgd1na2vs0mg"},{"bike_id":"32b6c1e5-cd31-4c02-b603-780679ae3388","system_id":"levelo_inurba_marseille","lat":43.24389,"lon":5.37049,"is_reserved":false,"is_disabled":false,"rental_uris":{"android":"levelo://app?vid=32b6c1e5-cd31-4c02-b603-780679ae3388","ios":"levelo://app?vid=32b6c1e5-cd31-4c02-b603-780679ae3388"},"vehicle_type_id":"4","last_reported":1766423450,"current_range_meters":16000,"station_id":"ce4bhhh2rcd13ifvqfk0","pricing_plan_id":"cebpf4jnsgd1na2vs0mg"},{"bike_id":"885a6dd5-994a-4d00-a369-bc5c050e8930","system_id":"levelo_inurba_marseille","lat":43.31068,"lon":5.37427,"is_reserved":false,"is_disabled":false,"rental_uris":{"android":"levelo://app?vid=885a6dd5-994a-4d00-a369-bc5c050e8930","ios":"levelo://app?vid=885a6dd5-994a-4d00-a369-bc5c050e8930"},"vehicle_type_id":"4","last_reported":1766423450,"current_range_meters":16000,"station_id":"","pricing_plan_id":"cebpf4jnsgd1na2vs0mg"},{"bike_id":"9e5a1879-0c33-4ffe-8f69-d9034088b5df","system_id":"levelo_inurba_marseille","lat":43.266364,"lon":5.395934,"is_reserved":false,"is_disabled":false,"rental_uris":{"android":"levelo://app?vid=9e5a1879-0c33-4ffe-8f69-d9034088b5df","ios":"levelo://app?vid=9e5a1879-0c33-4ffe-8f69-d9034088b5df"},"vehicle_type_id":"4","last_reported":1766423450,"current_range_meters":16000,"station_id":"","pricing_plan_id":"cebpf4jnsgd1na2vs0mg"},{"bike_id":"216b3842-bcf5-4fd2-b1df-0e97cca93fdb","system_id":"levelo_inurba_marseille","lat":43.29025,"lon":5.3865,"is_reserved":false,"is_disabled":false,"rental_uris":{"android":"levelo://app?vid=216b3842-bcf5-4fd2-b1df-0e97cca93fdb","ios":"levelo://app?vid=216b3842-bcf5-4fd2-b1df-0e97cca93fdb"},"vehicle_type_id":"4","last_reported":1766423450,"current_range_meters":16000,"station_id":"ce4bh4p2rcd13ifvqe0g","pricing_plan_id":"cebpf4jnsgd1na2vs0mg"},{"bike_id":"e27b3943-5383-4a49-811c-d91a1e2822b1","system_id":"levelo_inurba_marseille","lat":43.30066,"lon":5.39034,"is_reserved":false,"is_disabled":false,"rental_uris":{"android":"levelo://app?vid=e27b3943-5383-4a49-811c-d91a1e2822b1","ios":"levelo://app?vid=e27b3943-5383-4a49-811c-d91a1e2822b1"},"vehicle_type_id":"4","last_reported":1766423450,"current_range_meters":16000,"station_id":"ce4bh192rcd13ifvqdb0","pricing_plan_id":"cebpf4jnsgd1na2vs0mg"},{"bike_id":"fdcaf216-50e2-4bc8-863b-fb530751d8cf","system_id":"levelo_inurba_marseille","lat":43.29653,"lon":5.37508,"is_reserved":false,"is_disabled":true,"rental_uris":{"android":"levelo://app?vid=fdcaf216-50e2-4bc8-863b-fb530751d8cf","ios":"levelo://app?vid=fdcaf216-50e2-4bc8-863b-fb530751d8cf"},"vehicle_type_id":"4","last_reported":1766423450,"current_range_meters":16000,"station_id":"","pricing_plan_id":"cebpf4jnsgd1na2vs0mg"},{"bike_id":"40ec5039-1fa4-49be-a3db-4ef70f230350","system_id":"levelo_inurba_marseille","lat":43.28612,"lon":5.37063,"is_reserved":false,"is_disabled":false,"rental_uris":{"android":"levelo://app?vid=40ec5039-1fa4-49be-a3db-4ef70f230350","ios":"levelo://app?vid=40ec5039-1fa4-49be-a3db-4ef70f230350"},"vehicle_type_id":"4","last_reported":1766423450,"current_range_meters":16000,"station_id":"ce4bht12rcd13ifvqi60","pricing_plan_id":"cebpf4jnsgd1na2vs0mg"},{"bike_id":"fe4b246d-0fb7-48f2-8d64-b1c8f68e6026","system_id":"levelo_inurba_marseille","lat":43.29511,"lon":5.39041,"is_reserved":false,"is_disabled":false,"rental_uris":{"android":"levelo://app?vid=fe4b246d-0fb7-48f2-8d64-b1c8f68e6026","ios":"levelo://app?vid=fe4b246d-0fb7-48f2-8d64-b1c8f68e6026"},"vehicle_type_id":"4","last_reported":1766423450,"current_range_meters":16400,"station_id":"ce4bh3p2rcd13ifvqdp0","pricing_plan_id":"cebpf4jnsgd1na2vs0mg"},{"bike_id":"44c06977-9d41-4b2d-bcac-97ef2d2d8280","system_id":"levelo_inurba_marseille","lat":43.294325,"lon":5.397602,"is_reserved":false,"is_disabled":true,"rental_uris":{"android":"levelo://app?vid=44c06977-9d41-4b2d-bcac-97ef2d2d8280","ios":"levelo://app?vid=44c06977-9d41-4b2d-bcac-97ef2d2d8280"},"vehicle_type_id":"4","last_reported":1766423450,"current_range_meters":16400,"station_id":"ce4bh3h2rcd13ifvqdo0","pricing_plan_id":"cebpf4jnsgd1na2vs0mg"},{"bike_id":"301a723d-2238-4088-97aa-fd8abf463428","system_id":"levelo_inurba_marseille","lat":43.33538,"lon":5.37471,"is_reserved":false,"is_disabled":false,"rental_uris":{"android":"levelo://app?vid=301a723d-2238-4088-97aa-fd8abf463428","ios":"levelo://app?vid=301a723d-2238-4088-97aa-fd8abf463428"},"vehicle_type_id":"4","last_reported":1766423450,"current_range_meters":16400,"station_id":"st_d46tts09ee8s73dlu43g","pricing_plan_id":"cebpf4jnsgd1na2vs0mg"},{"bike_id":"95d166c1-fa0c-44c3-9fcc-4b393c91411d","system_id":"levelo_inurba_marseille","lat":43.31195,"lon":5.36839,"is_reserved":false,"is_disabled":false,"rental_uris":{"android":"levelo://app?vid=95d166c1-fa0c-44c3-9fcc-4b393c91411d","ios":"levelo://app?vid=95d166c1-fa0c-44c3-9fcc-4b393c91411d"},"vehicle_type_id":"4","last_reported":1766423450,"current_range_meters":16400,"station_id":"ce4bgl92rcd13ifvqbq0","pricing_plan_id":"cebpf4jnsgd1na2vs0mg"},{"bike_id":"792f2e51-5e1d-4440-9edd-e166f3fa056e","system_id":"levelo_inurba_marseille","lat":43.2438,"lon":5.37079,"is_reserved":false,"is_disabled":false,"rental_uris":{"android":"levelo://app?vid=792f2e51-5e1d-4440-9edd-e166f3fa056e","ios":"levelo://app?vid=792f2e51-5e1d-4440-9edd-e166f3fa056e"},"vehicle_type_id":"4","last_reported":1766423450,"current_range_meters":16400,"station_id":"ce4bhhh2rcd13ifvqfk0","pricing_plan_id":"cebpf4jnsgd1na2vs0mg"},{"bike_id":"c78b7752-9cb7-4b06-a8ef-1f65d9ce20cf","system_id":"levelo_inurba_marseille","lat":43.31714,"lon":5.3896,"is_reserved":false,"is_disabled":false,"rental_uris":{"android":"levelo://app?vid=c78b7752-9cb7-4b06-a8ef-1f65d9ce20cf","ios":"levelo://app?vid=c78b7752-9cb7-4b06-a8ef-1f65d9ce20cf"},"vehicle_type_id":"4","last_reported":1766423450,"current_range_meters":16400,"station_id":"","pricing_plan_id":"cebpf4jnsgd1na2vs0mg"},{"bike_id":"defd41d6-0274-4084-a35a-701c692d3215","system_id":"levelo_inurba_marseille","lat":43.304145,"lon":5.412765,"is_reserved":false,"is_disabled":false,"rental_uris":{"android":"levelo://app?vid=defd41d6-0274-4084-a35a-701c692d3215","ios":"levelo://app?vid=defd41d6-0274-4084-a35a-701c692d3215"},"vehicle_type_id":"4","last_reported":1766423450,"current_range_meters":16400,"station_id":"ce4bhop2rcd13ifvqh8g","pricing_plan_id":"cebpf4jnsgd1na2vs0mg"},{"bike_id":"8212fc8e-0b02-4843-b8a0-93c466d39db1","system_id":"levelo_inurba_marseille","lat":43.25822,"lon":5.39434,"is_reserved":false,"is_disabled":false,"rental_uris":{"android":"levelo://app?vid=8212fc8e-0b02-4843-b8a0-93c466d39db1","ios":"levelo://app?vid=8212fc8e-0b02-4843-b8a0-93c466d39db1"},"vehicle_type_id":"4","last_reported":1766423450,"current_range_meters":16400,"station_id":"ce4bhip2rcd13ifvqft0","pricing_plan_id":"cebpf4jnsgd1na2vs0mg"},{"bike_id":"f5c0d45a-c77a-4979-85c6-d9b8d17eb317","system_id":"levelo_inurba_marseille","lat":43.3075,"lon":5.42418,"is_reserved":false,"is_disabled":false,"rental_uris":{"android":"levelo://app?vid=f5c0d45a-c77a-4979-85c6-d9b8d17eb317","ios":"levelo://app?vid=f5c0d45a-c77a-4979-85c6-d9b8d17eb317"},"vehicle_type_id":"4","last_reported":1766423450,"current_range_meters":16400,"station_id":"st_cvj6ca6bvosntc0bfgr0","pricing_plan_id":"cebpf4jnsgd1na2vs0mg"},{"bike_id":"b8359eb8-309f-4919-a9d8-14bc8a289068","system_id":"levelo_inurba_marseille","lat":43.29911,"lon":5.38121,"is_reserved":false,"is_disabled":false,"rental_uris":{"android":"levelo://app?vid=b8359eb8-309f-4919-a9d8-14bc8a289068","ios":"levelo://app?vid=b8359eb8-309f-4919-a9d8-14bc8a289068"},"vehicle_type_id":"4","last_reported":1766423450,"current_range_meters":16400,"station_id":"ce4bgj12rcd13ifvqbc0","pricing_plan_id":"cebpf4jnsgd1na2vs0mg"},{"bike_id":"76faedd6-a74a-4eba-98f9-8bdc50a36694","system_id":"levelo_inurba_marseille","lat":43.2464,"lon":5.43134,"is_reserved":false,"is_disabled":false,"rental_uris":{"android":"levelo://app?vid=76faedd6-a74a-4eba-98f9-8bdc50a36694","ios":"levelo://app?vid=76faedd6-a74a-4eba-98f9-8bdc50a36694"},"vehicle_type_id":"4","last_reported":1766423450,"current_range_meters":16400,"station_id":"st_d2m6c4gdas8pm72e190g","pricing_plan_id":"cebpf4jnsgd1na2vs0mg"},{"bike_id":"e0ce9ec3-c2ee-4ba9-9bbb-2c11e4154d95","system_id":"levelo_inurba_marseille","lat":43.27925,"lon":5.414747,"is_reserved":false,"is_disabled":false,"rental_uris":{"android":"levelo://app?vid=e0ce9ec3-c2ee-4ba9-9bbb-2c11e4154d95","ios":"levelo://app?vid=e0ce9ec3-c2ee-4ba9-9bbb-2c11e4154d95"},