{"last_updated":1745269776,"ttl":60,"version":"2.2","data":{"bikes":[{"bike_id":"dcf6d2bf-a79f-4f03-8e62-f22297319cc3","system_id":"levelo_inurba_marseille","lat":43.22926,"lon":5.35382,"is_reserved":false,"is_disabled":true,"rental_uris":{"android":"levelo://app?vid=dcf6d2bf-a79f-4f03-8e62-f22297319cc3","ios":"levelo://app?vid=dcf6d2bf-a79f-4f03-8e62-f22297319cc3"},"vehicle_type_id":"4","last_reported":1745269776,"current_range_meters":2800,"station_id":"cpo3532slgdg3j2ikp40","pricing_plan_id":"cebpf4jnsgd1na2vs0mg"},{"bike_id":"9c06a180-252b-4d26-bd9a-cc00400e88af","system_id":"levelo_inurba_marseille","lat":43.30311,"lon":5.39209,"is_reserved":false,"is_disabled":true,"rental_uris":{"android":"levelo://app?vid=9c06a180-252b-4d26-bd9a-cc00400e88af","ios":"levelo://app?vid=9c06a180-252b-4d26-bd9a-cc00400e88af"},"vehicle_type_id":"4","last_reported":1745269776,"current_range_meters":3200,"station_id":"ce4bgkh2rcd13ifvqbk0","pricing_plan_id":"cebpf4jnsgd1na2vs0mg"},{"bike_id":"db63ef2b-f795-4461-841e-4a88a18bc5c9","system_id":"levelo_inurba_marseille","lat":43.29442,"lon":5.39757,"is_reserved":false,"is_disabled":true,"rental_uris":{"android":"levelo://app?vid=db63ef2b-f795-4461-841e-4a88a18bc5c9","ios":"levelo://app?vid=db63ef2b-f795-4461-841e-4a88a18bc5c9"},"vehicle_type_id":"4","last_reported":1745269776,"current_range_meters":3200,"station_id":"ce4bh3h2rcd13ifvqdo0","pricing_plan_id":"cebpf4jnsgd1na2vs0mg"},{"bike_id":"c6023d7b-0c8f-4a5e-8eb4-dd919f7bc1c0","system_id":"levelo_inurba_marseille","lat":43.27389,"lon":5.36269,"is_reserved":false,"is_disabled":true,"rental_uris":{"android":"levelo://app?vid=c6023d7b-0c8f-4a5e-8eb4-dd919f7bc1c0","ios":"levelo://app?vid=c6023d7b-0c8f-4a5e-8eb4-dd919f7bc1c0"},"vehicle_type_id":"4","last_reported":1745269776,"current_range_meters":3200,"station_id":"ce4bhbh2rcd13ifvqeo0","pricing_plan_id":"cebpf4jnsgd1na2vs0mg"},{"bike_id":"8119f949-ec83-4733-9ad8-30077e3fb057","system_id":"levelo_inurba_marseille","lat":43.30928,"lon":5.40142,"is_reserved":false,"is_disabled":false,"rental_uris":{"android":"levelo://app?vid=8119f949-ec83-4733-9ad8-30077e3fb057","ios":"levelo://app?vid=8119f949-ec83-4733-9ad8-30077e3fb057"},"vehicle_type_id":"4","last_reported":1745269776,"current_range_meters":3200,"station_id":"ce4bgvp2rcd13ifvqct0","pricing_plan_id":"cebpf4jnsgd1na2vs0mg"},{"bike_id":"dea4c88b-2c2f-43a7-bd81-9c9b914276fd","system_id":"levelo_inurba_marseille","lat":43.23197,"lon":5.3556,"is_reserved":false,"is_disabled":true,"rental_uris":{"android":"levelo://app?vid=dea4c88b-2c2f-43a7-bd81-9c9b914276fd","ios":"levelo://app?vid=dea4c88b-2c2f-43a7-bd81-9c9b914276fd"},"vehicle_type_id":"4","last_reported":1745269776,"current_range_meters":3200,"station_id":"ce4bhu92rcd13ifvqi70","pricing_plan_id":"cebpf4jnsgd1na2vs0mg"},{"bike_id":"213fb158-06bd-4e42-8510-0aa3f7eaae67","system_id":"levelo_inurba_marseille","lat":43.23212,"lon":5.35556,"is_reserved":false,"is_disabled":true,"rental_uris":{"android":"levelo://app?vid=213fb158-06bd-4e42-8510-0aa3f7eaae67","ios":"levelo://app?vid=213fb158-06bd-4e42-8510-0aa3f7eaae67"},"vehicle_type_id":"4","last_reported":1745269776,"current_range_meters":3600,"station_id":"ce4bhu92rcd13ifvqi70","pricing_plan_id":"cebpf4jnsgd1na2vs0mg"},{"bike_id":"dcd2667b-04f1-43d5-8bad-2ebf8bc8e136","system_id":"levelo_inurba_marseille","lat":43.33354,"lon":5.37045,"is_reserved":false,"is_disabled":false,"rental_uris":{"android":"levelo://app?vid=dcd2667b-04f1-43d5-8bad-2ebf8bc8e136","ios":"levelo://app?vid=dcd2667b-04f1-43d5-8bad-2ebf8bc8e136"},"vehicle_type_id":"4","last_reported":1745269776,"current_range_meters":4000,"station_id":"","pricing_plan_id":"cebpf4jnsgd1na2vs0mg"},{"bike_id":"b7520c6b-483a-4ed4-a089-23ff6a13974b","system_id":"levelo_inurba_marseille","lat":43.30589,"lon":5.39353,"is_reserved":false,"is_disabled":false,"rental_uris":{"android":"levelo://app?vid=b7520c6b-483a-4ed4-a089-23ff6a13974b","ios":"levelo://app?vid=b7520c6b-483a-4ed4-a089-23ff6a13974b"},"vehicle_type_id":"4","last_reported":1745269776,"current_range_meters":4000,"station_id":"ce4bh0p2rcd13ifvqd80","pricing_plan_id":"cebpf4jnsgd1na2vs0mg"},{"bike_id":"c1c8a22c-941a-4cd0-91ab-917b1055c823","system_id":"levelo_inurba_marseille","lat":43.30154,"lon":5.380767,"is_reserved":false,"is_disabled":true,"rental_uris":{"android":"levelo://app?vid=c1c8a22c-941a-4cd0-91ab-917b1055c823","ios":"levelo://app?vid=c1c8a22c-941a-4cd0-91ab-917b1055c823"},"vehicle_type_id":"4","last_reported":1745269776,"current_range_meters":4000,"station_id":"ce4bgjp2rcd13ifvqbh0","pricing_plan_id":"cebpf4jnsgd1na2vs0mg"},{"bike_id":"fb34676c-4b8e-43dc-b9bd-7759d00b93e1","system_id":"levelo_inurba_marseille","lat":43.30648,"lon":5.40062,"is_reserved":false,"is_disabled":false,"rental_uris":{"android":"levelo://app?vid=fb34676c-4b8e-43dc-b9bd-7759d00b93e1","ios":"levelo://app?vid=fb34676c-4b8e-43dc-b9bd-7759d00b93e1"},"vehicle_type_id":"4","last_reported":1745269776,"current_range_meters":4400,"station_id":"ce4bh112rcd13ifvqda0","pricing_plan_id":"cebpf4jnsgd1na2vs0mg"},{"bike_id":"2871c3e7-8745-4ed5-b58a-89a4dcf6fc06","system_id":"levelo_inurba_marseille","lat":43.284894,"lon":5.384176,"is_reserved":false,"is_disabled":false,"rental_uris":{"android":"levelo://app?vid=2871c3e7-8745-4ed5-b58a-89a4dcf6fc06","ios":"levelo://app?vid=2871c3e7-8745-4ed5-b58a-89a4dcf6fc06"},"vehicle_type_id":"4","last_reported":1745269776,"current_range_meters":4400,"station_id":"ce4bh512rcd13ifvqe3g","pricing_plan_id":"cebpf4jnsgd1na2vs0mg"},{"bike_id":"7cd384a8-9bf8-4185-954e-cd4be8774e72","system_id":"levelo_inurba_marseille","lat":43.280697,"lon":5.396377,"is_reserved":false,"is_disabled":false,"rental_uris":{"android":"levelo://app?vid=7cd384a8-9bf8-4185-954e-cd4be8774e72","ios":"levelo://app?vid=7cd384a8-9bf8-4185-954e-cd4be8774e72"},"vehicle_type_id":"4","last_reported":1745269776,"current_range_meters":4400,"station_id":"ce4bho12rcd13ifvqh2g","pricing_plan_id":"cebpf4jnsgd1na2vs0mg"},{"bike_id":"e39d68e1-d581-42b4-beaf-9a00f5ac5bac","system_id":"levelo_inurba_marseille","lat":43.21188,"lon":5.35077,"is_reserved":false,"is_disabled":true,"rental_uris":{"android":"levelo://app?vid=e39d68e1-d581-42b4-beaf-9a00f5ac5bac","ios":"levelo://app?vid=e39d68e1-d581-42b4-beaf-9a00f5ac5bac"},"vehicle_type_id":"4","last_reported":1745269776,"current_range_meters":4400,"station_id":"st_cvj6sg6p6f1abm77japg","pricing_plan_id":"cebpf4jnsgd1na2vs0mg"},{"bike_id":"949a3b98-b3d0-4b58-9e5c-50967c540964","system_id":"levelo_inurba_marseille","lat":43.29711,"lon":5.40058,"is_reserved":false,"is_disabled":false,"rental_uris":{"android":"levelo://app?vid=949a3b98-b3d0-4b58-9e5c-50967c540964","ios":"levelo://app?vid=949a3b98-b3d0-4b58-9e5c-50967c540964"},"vehicle_type_id":"4","last_reported":1745269776,"current_range_meters":4400,"station_id":"","pricing_plan_id":"cebpf4jnsgd1na2vs0mg"},{"bike_id":"1d3ad12c-49e9-4321-8cc9-f689e02a3e54","system_id":"levelo_inurba_marseille","lat":43.25002,"lon":5.38935,"is_reserved":false,"is_disabled":false,"rental_uris":{"android":"levelo://app?vid=1d3ad12c-49e9-4321-8cc9-f689e02a3e54","ios":"levelo://app?vid=1d3ad12c-49e9-4321-8cc9-f689e02a3e54"},"vehicle_type_id":"4","last_reported":1745269776,"current_range_meters":4800,"station_id":"ce4bhgp2rcd13ifvqfd0","pricing_plan_id":"cebpf4jnsgd1na2vs0mg"},{"bike_id":"13dcc10c-4cac-4cf2-9318-07e242720dc9","system_id":"levelo_inurba_marseille","lat":43.312,"lon":5.37715,"is_reserved":false,"is_disabled":false,"rental_uris":{"android":"levelo://app?vid=13dcc10c-4cac-4cf2-9318-07e242720dc9","ios":"levelo://app?vid=13dcc10c-4cac-4cf2-9318-07e242720dc9"},"vehicle_type_id":"4","last_reported":1745269776,"current_range_meters":4800,"station_id":"","pricing_plan_id":"cebpf4jnsgd1na2vs0mg"},{"bike_id":"4f0b25c3-2f51-4c00-9f56-69333455e756","system_id":"levelo_inurba_marseille","lat":43.27872,"lon":5.39285,"is_reserved":false,"is_disabled":false,"rental_uris":{"android":"levelo://app?vid=4f0b25c3-2f51-4c00-9f56-69333455e756","ios":"levelo://app?vid=4f0b25c3-2f51-4c00-9f56-69333455e756"},"vehicle_type_id":"4","last_reported":1745269776,"current_range_meters":4800,"station_id":"","pricing_plan_id":"cebpf4jnsgd1na2vs0mg"},{"bike_id":"7ec59f3a-cca3-419d-bad2-9a533c42686c","system_id":"levelo_inurba_marseille","lat":43.32369,"lon":5.38883,"is_reserved":false,"is_disabled":false,"rental_uris":{"android":"levelo://app?vid=7ec59f3a-cca3-419d-bad2-9a533c42686c","ios":"levelo://app?vid=7ec59f3a-cca3-419d-bad2-9a533c42686c"},"vehicle_type_id":"4","last_reported":1745269776,"current_range_meters":5600,"station_id":"ce4bhqp2rcd13ifvqhog","pricing_plan_id":"cebpf4jnsgd1na2vs0mg"},{"bike_id":"c8e8c3a7-8722-41b9-ad00-6d831385b6d4","system_id":"levelo_inurba_marseille","lat":43.29625,"lon":5.4059,"is_reserved":false,"is_disabled":false,"rental_uris":{"android":"levelo://app?vid=c8e8c3a7-8722-41b9-ad00-6d831385b6d4","ios":"levelo://app?vid=c8e8c3a7-8722-41b9-ad00-6d831385b6d4"},"vehicle_type_id":"4","last_reported":1745269776,"current_range_meters":5600,"station_id":"ce4bh0h2rcd13ifvqd60","pricing_plan_id":"cebpf4jnsgd1na2vs0mg"},{"bike_id":"49225d49-9260-47b2-a782-7d3d21b08c48","system_id":"levelo_inurba_marseille","lat":43.295342,"lon":5.378851,"is_reserved":false,"is_disabled":false,"rental_uris":{"android":"levelo://app?vid=49225d49-9260-47b2-a782-7d3d21b08c48","ios":"levelo://app?vid=49225d49-9260-47b2-a782-7d3d21b08c48"},"vehicle_type_id":"4","last_reported":1745269776,"current_range_meters":5600,"station_id":"","pricing_plan_id":"cebpf4jnsgd1na2vs0mg"},{"bike_id":"f3a6c5f6-add9-4287-b8b4-ad84f23fb64d","system_id":"levelo_inurba_marseille","lat":43.31489,"lon":5.37309,"is_reserved":false,"is_disabled":false,"rental_uris":{"android":"levelo://app?vid=f3a6c5f6-add9-4287-b8b4-ad84f23fb64d","ios":"levelo://app?vid=f3a6c5f6-add9-4287-b8b4-ad84f23fb64d"},"vehicle_type_id":"4","last_reported":1745269776,"current_range_meters":5600,"station_id":"ce4bgt12rcd13ifvqcd0","pricing_plan_id":"cebpf4jnsgd1na2vs0mg"},{"bike_id":"2bdde4a3-7509-460a-b2c7-d172c5297380","system_id":"levelo_inurba_marseille","lat":43.21181,"lon":5.35081,"is_reserved":false,"is_disabled":true,"rental_uris":{"android":"levelo://app?vid=2bdde4a3-7509-460a-b2c7-d172c5297380","ios":"levelo://app?vid=2bdde4a3-7509-460a-b2c7-d172c5297380"},"vehicle_type_id":"4","last_reported":1745269776,"current_range_meters":6000,"station_id":"st_cvj6sg6p6f1abm77japg","pricing_plan_id":"cebpf4jnsgd1na2vs0mg"},{"bike_id":"6d0b1e09-0778-4875-a9ec-ebd4ab3c5c71","system_id":"levelo_inurba_marseille","lat":43.2121,"lon":5.35056,"is_reserved":false,"is_disabled":true,"rental_uris":{"android":"levelo://app?vid=6d0b1e09-0778-4875-a9ec-ebd4ab3c5c71","ios":"levelo://app?vid=6d0b1e09-0778-4875-a9ec-ebd4ab3c5c71"},"vehicle_type_id":"4","last_reported":1745269776,"current_range_meters":6400,"station_id":"st_cvj6sg6p6f1abm77japg","pricing_plan_id":"cebpf4jnsgd1na2vs0mg"},{"bike_id":"bfefb57c-154e-4cbc-90d7-24ac4b95745f","system_id":"levelo_inurba_marseille","lat":43.31055,"lon":5.371,"is_reserved":false,"is_disabled":false,"rental_uris":{"android":"levelo://app?vid=bfefb57c-154e-4cbc-90d7-24ac4b95745f","ios":"levelo://app?vid=bfefb57c-154e-4cbc-90d7-24ac4b95745f"},"vehicle_type_id":"4","last_reported":1745269776,"current_range_meters":6400,"station_id":"","pricing_plan_id":"cebpf4jnsgd1na2vs0mg"},{"bike_id":"901518be-3c90-4e14-ada4-9071cd926d8b","system_id":"levelo_inurba_marseille","lat":43.27491,"lon":5.42458,"is_reserved":false,"is_disabled":true,"rental_uris":{"android":"levelo://app?vid=901518be-3c90-4e14-ada4-9071cd926d8b","ios":"levelo://app?vid=901518be-3c90-4e14-ada4-9071cd926d8b"},"vehicle_type_id":"4","last_reported":1745269776,"current_range_meters":6400,"station_id":"ce4bhn92rcd13ifvqgrg","pricing_plan_id":"cebpf4jnsgd1na2vs0mg"},{"bike_id":"8a7ec3da-38e6-4187-9266-c9d5e220963c","system_id":"levelo_inurba_marseille","lat":43.24679,"lon":5.38912,"is_reserved":false,"is_disabled":false,"rental_uris":{"android":"levelo://app?vid=8a7ec3da-38e6-4187-9266-c9d5e220963c","ios":"levelo://app?vid=8a7ec3da-38e6-4187-9266-c9d5e220963c"},"vehicle_type_id":"4","last_reported":1745269776,"current_range_meters":6400,"station_id":"ce4bhg12rcd13ifvqf60","pricing_plan_id":"cebpf4jnsgd1na2vs0mg"},{"bike_id":"4bf257ff-5181-40fc-87ed-08d661564e4c","system_id":"levelo_inurba_marseille","lat":43.295319,"lon":5.3854,"is_reserved":false,"is_disabled":false,"rental_uris":{"android":"levelo://app?vid=4bf257ff-5181-40fc-87ed-08d661564e4c","ios":"levelo://app?vid=4bf257ff-5181-40fc-87ed-08d661564e4c"},"vehicle_type_id":"4","last_reported":1745269776,"current_range_meters":6800,"station_id":"ce4bgih2rcd13ifvqba0","pricing_plan_id":"cebpf4jnsgd1na2vs0mg"},{"bike_id":"e9b40b8c-aa8b-493b-9704-ac204b4fdb74","system_id":"levelo_inurba_marseille","lat":43.2251,"lon":5.34787,"is_reserved":false,"is_disabled":true,"rental_uris":{"android":"levelo://app?vid=e9b40b8c-aa8b-493b-9704-ac204b4fdb74","ios":"levelo://app?vid=e9b40b8c-aa8b-493b-9704-ac204b4fdb74"},"vehicle_type_id":"4","last_reported":1745269776,"current_range_meters":6800,"station_id":"","pricing_plan_id":"cebpf4jnsgd1na2vs0mg"},{"bike_id":"d5254860-01e9-48cf-aa1d-c9230eea6296","system_id":"levelo_inurba_marseille","lat":43.31717,"lon":5.40448,"is_reserved":false,"is_disabled":false,"rental_uris":{"android":"levelo://app?vid=d5254860-01e9-48cf-aa1d-c9230eea6296","ios":"levelo://app?vid=d5254860-01e9-48cf-aa1d-c9230eea6296"},"vehicle_type_id":"4","last_reported":1745269776,"current_range_meters":6800,"station_id":"ce4bh012rcd13ifvqd00","pricing_plan_id":"cebpf4jnsgd1na2vs0mg"},{"bike_id":"a4a7cedc-c786-47df-8d14-a6a6acce591a","system_id":"levelo_inurba_marseille","lat":43.30538,"lon":5.38429,"is_reserved":false,"is_disabled":false,"rental_uris":{"android":"levelo://app?vid=a4a7cedc-c786-47df-8d14-a6a6acce591a","ios":"levelo://app?vid=a4a7cedc-c786-47df-8d14-a6a6acce591a"},"vehicle_type_id":"4","last_reported":1745269776,"current_range_meters":6800,"station_id":"ce4bgg92rcd13ifvqb30","pricing_plan_id":"cebpf4jnsgd1na2vs0mg"},{"bike_id":"a373f1b2-c1f8-4d57-bca1-4c97514ea92c","system_id":"levelo_inurba_marseille","lat":43.31247,"lon":5.36863,"is_reserved":false,"is_disabled":true,"rental_uris":{"android":"levelo://app?vid=a373f1b2-c1f8-4d57-bca1-4c97514ea92c","ios":"levelo://app?vid=a373f1b2-c1f8-4d57-bca1-4c97514ea92c"},"vehicle_type_id":"4","last_reported":1745269776,"current_range_meters":6800,"station_id":"ce4bgl92rcd13ifvqbq0","pricing_plan_id":"cebpf4jnsgd1na2vs0mg"},{"bike_id":"f984d1c9-94d7-48d1-9f06-f702edb8335d","system_id":"levelo_inurba_marseille","lat":43.241681,"lon":5.363969,"is_reserved":false,"is_disabled":true,"rental_uris":{"android":"levelo://app?vid=f984d1c9-94d7-48d1-9f06-f702edb8335d","ios":"levelo://app?vid=f984d1c9-94d7-48d1-9f06-f702edb8335d"},"vehicle_type_id":"4","last_reported":1745269776,"current_range_meters":6800,"station_id":"cpo36qri1sfpv3e86is0","pricing_plan_id":"cebpf4jnsgd1na2vs0mg"},{"bike_id":"0e3f01e5-c3de-4476-9321-0ae8ce1ce1f2","system_id":"levelo_inurba_marseille","lat":43.28376,"lon":5.38635,"is_reserved":false,"is_disabled":false,"rental_uris":{"android":"levelo://app?vid=0e3f01e5-c3de-4476-9321-0ae8ce1ce1f2","ios":"levelo://app?vid=0e3f01e5-c3de-4476-9321-0ae8ce1ce1f2"},"vehicle_type_id":"4","last_reported":1745269776,"current_range_meters":7200,"station_id":"ce4bh492rcd13ifvqdvg","pricing_plan_id":"cebpf4jnsgd1na2vs0mg"},{"bike_id":"0d5ea7b1-dddf-43fe-aea2-a6db5036338d","system_id":"levelo_inurba_marseille","lat":43.290267,"lon":5.38643,"is_reserved":false,"is_disabled":true,"rental_uris":{"android":"levelo://app?vid=0d5ea7b1-dddf-43fe-aea2-a6db5036338d","ios":"levelo://app?vid=0d5ea7b1-dddf-43fe-aea2-a6db5036338d"},"vehicle_type_id":"4","last_reported":1745269776,"current_range_meters":8000,"station_id":"ce4bh4p2rcd13ifvqe0g","pricing_plan_id":"cebpf4jnsgd1na2vs0mg"},{"bike_id":"1684b286-f7b3-4dd7-aa34-c7761faa81a1","system_id":"levelo_inurba_marseille","lat":43.29893,"lon":5.38894,"is_reserved":false,"is_disabled":false,"rental_uris":{"android":"levelo://app?vid=1684b286-f7b3-4dd7-aa34-c7761faa81a1","ios":"levelo://app?vid=1684b286-f7b3-4dd7-aa34-c7761faa81a1"},"vehicle_type_id":"4","last_reported":1745269776,"current_range_meters":8000,"station_id":"ce4bh392rcd13ifvqdl0","pricing_plan_id":"cebpf4jnsgd1na2vs0mg"},{"bike_id":"ddb90528-fd99-4947-9b60-d46c792df734","system_id":"levelo_inurba_marseille","lat":43.29784,"lon":5.39346,"is_reserved":false,"is_disabled":false,"rental_uris":{"android":"levelo://app?vid=ddb90528-fd99-4947-9b60-d46c792df734","ios":"levelo://app?vid=ddb90528-fd99-4947-9b60-d46c792df734"},"vehicle_type_id":"4","last_reported":1745269776,"current_range_meters":8000,"station_id":"chh1huq6cuj3fo74tm60","pricing_plan_id":"cebpf4jnsgd1na2vs0mg"},{"bike_id":"f7bdbfb7-0359-4d1d-8705-6870094c1c06","system_id":"levelo_inurba_marseille","lat":43.26495,"lon":5.39541,"is_reserved":false,"is_disabled":false,"rental_uris":{"android":"levelo://app?vid=f7bdbfb7-0359-4d1d-8705-6870094c1c06","ios":"levelo://app?vid=f7bdbfb7-0359-4d1d-8705-6870094c1c06"},"vehicle_type_id":"4","last_reported":1745269776,"current_range_meters":8000,"station_id":"ce4bhi12rcd13ifvqfq0","pricing_plan_id":"cebpf4jnsgd1na2vs0mg"},{"bike_id":"dacb9310-ef47-42d4-82c3-6f67b29ded17","system_id":"levelo_inurba_marseille","lat":43.32009,"lon":5.38162,"is_reserved":false,"is_disabled":true,"rental_uris":{"android":"levelo://app?vid=dacb9310-ef47-42d4-82c3-6f67b29ded17","ios":"levelo://app?vid=dacb9310-ef47-42d4-82c3-6f67b29ded17"},"vehicle_type_id":"4","last_reported":1745269776,"current_range_meters":8400,"station_id":"ce4bhr12rcd13ifvqhpg","pricing_plan_id":"cebpf4jnsgd1na2vs0mg"},{"bike_id":"2eae6397-3f35-48cb-91a4-97f36e4dda21","system_id":"levelo_inurba_marseille","lat":43.21778,"lon":5.34545,"is_reserved":false,"is_disabled":true,"rental_uris":{"android":"levelo://app?vid=2eae6397-3f35-48cb-91a4-97f36e4dda21","ios":"levelo://app?vid=2eae6397-3f35-48cb-91a4-97f36e4dda21"},"vehicle_type_id":"4","last_reported":1745269776,"current_range_meters":8400,"station_id":"","pricing_plan_id":"cebpf4jnsgd1na2vs0mg"},{"bike_id":"cc6450bf-e6f5-4da5-b387-a80c14e97902","system_id":"levelo_inurba_marseille","lat":43.31219,"lon":5.36868,"is_reserved":false,"is_disabled":false,"rental_uris":{"android":"levelo://app?vid=cc6450bf-e6f5-4da5-b387-a80c14e97902","ios":"levelo://app?vid=cc6450bf-e6f5-4da5-b387-a80c14e97902"},"vehicle_type_id":"4","last_reported":1745269776,"current_range_meters":8400,"station_id":"ce4bgl92rcd13ifvqbq0","pricing_plan_id":"cebpf4jnsgd1na2vs0mg"},{"bike_id":"1f84f51f-d2f4-4d4c-982d-d184ffe24a02","system_id":"levelo_inurba_marseille","lat":43.32351,"lon":5.38903,"is_reserved":false,"is_disabled":true,"rental_uris":{"android":"levelo://app?vid=1f84f51f-d2f4-4d4c-982d-d184ffe24a02","ios":"levelo://app?vid=1f84f51f-d2f4-4d4c-982d-d184ffe24a02"},"vehicle_type_id":"4","last_reported":1745269776,"current_range_meters":8400,"station_id":"ce4bhqp2rcd13ifvqhog","pricing_plan_id":"cebpf4jnsgd1na2vs0mg"},{"bike_id":"95f73772-e355-4534-b118-e050b1cf6b18","system_id":"levelo_inurba_marseille","lat":43.29271,"lon":5.36843,"is_reserved":false,"is_disabled":false,"rental_uris":{"android":"levelo://app?vid=95f73772-e355-4534-b118-e050b1cf6b18","ios":"levelo://app?vid=95f73772-e355-4534-b118-e050b1cf6b18"},"vehicle_type_id":"4","last_reported":1745269776,"current_range_meters":8400,"station_id":"ce4bhbp2rcd13ifvqesg","pricing_plan_id":"cebpf4jnsgd1na2vs0mg"},{"bike_id":"4bc82e1a-bca4-44ab-8223-aee3605c8d43","system_id":"levelo_inurba_marseille","lat":43.3053,"lon":5.38428,"is_reserved":false,"is_disabled":false,"rental_uris":{"android":"levelo://app?vid=4bc82e1a-bca4-44ab-8223-aee3605c8d43","ios":"levelo://app?vid=4bc82e1a-bca4-44ab-8223-aee3605c8d43"},"vehicle_type_id":"4","last_reported":1745269776,"current_range_meters":8400,"station_id":"ce4bgg92rcd13ifvqb30","pricing_plan_id":"cebpf4jnsgd1na2vs0mg"},{"bike_id":"d2ee2ac3-0edb-437f-ab20-14dfef68fef0","system_id":"levelo_inurba_marseille","lat":43.2706,"lon":5.40256,"is_reserved":false,"is_disabled":false,"rental_uris":{"android":"levelo://app?vid=d2ee2ac3-0edb-437f-ab20-14dfef68fef0","ios":"levelo://app?vid=d2ee2ac3-0edb-437f-ab20-14dfef68fef0"},"vehicle_type_id":"4","last_reported":1745269776,"current_range_meters":8400,"station_id":"ce4bhk92rcd13ifvqgc0","pricing_plan_id":"cebpf4jnsgd1na2vs0mg"},{"bike_id":"d373b03a-6100-48c8-9be0-57715ffa475e","system_id":"levelo_inurba_marseille","lat":43.292533,"lon":5.409063,"is_reserved":false,"is_disabled":false,"rental_uris":{"android":"levelo://app?vid=d373b03a-6100-48c8-9be0-57715ffa475e","ios":"levelo://app?vid=d373b03a-6100-48c8-9be0-57715ffa475e"},"vehicle_type_id":"4","last_reported":1745269776,"current_range_meters":8400,"station_id":"ce4bh192rcd13ifvqdc0","pricing_plan_id":"cebpf4jnsgd1na2vs0mg"},{"bike_id":"85ecec54-640b-41f7-adde-769a20146669","system_id":"levelo_inurba_marseille","lat":43.284,"lon":5.37511,"is_reserved":false,"is_disabled":false,"rental_uris":{"android":"levelo://app?vid=85ecec54-640b-41f7-adde-769a20146669","ios":"levelo://app?vid=85ecec54-640b-41f7-adde-769a20146669"},"vehicle_type_id":"4","last_reported":1745269776,"current_range_meters":8800,"station_id":"ce4bh412rcd13ifvqds0","pricing_plan_id":"cebpf4jnsgd1na2vs0mg"},{"bike_id":"08adba7b-eac3-4cfc-9923-2ccf0cc4ffef","system_id":"levelo_inurba_marseille","lat":43.24546,"lon":5.41298,"is_reserved":false,"is_disabled":false,"rental_uris":{"android":"levelo://app?vid=08adba7b-eac3-4cfc-9923-2ccf0cc4ffef","ios":"levelo://app?vid=08adba7b-eac3-4cfc-9923-2ccf0cc4ffef"},"vehicle_type_id":"4","last_reported":1745269776,"current_range_meters":8800,"station_id":"","pricing_plan_id":"cebpf4jnsgd1na2vs0mg"},{"bike_id":"d7323cc1-013d-43e0-bb47-a978b4402b6a","system_id":"levelo_inurba_marseille","lat":43.3089,"lon":5.39643,"is_reserved":false,"is_disabled":false,"rental_uris":{"android":"levelo://app?vid=d7323cc1-013d-43e0-bb47-a978b4402b6a","ios":"levelo://app?vid=d7323cc1-013d-43e0-bb47-a978b4402b6a"},"vehicle_type_id":"4","last_reported":1745269776,"current_range_meters":8800,"station_id":"ce4bh012rcd13ifvqcv0","pricing_plan_id":"cebpf4jnsgd1na2vs0mg"},{"bike_id":"5eb689d0-1a02-480e-898e-4fbf2c8b1899","system_id":"levelo_inurba_marseille","lat":43.265472,"lon":5.390404,"is_reserved":false,"is_disabled":false,"rental_uris":{"android":"levelo://app?vid=5eb689d0-1a02-480e-898e-4fbf2c8b1899","ios":"levelo://app?vid=5eb689d0-1a02-480e-898e-4fbf2c8b1899"},"vehicle_type_id":"4","last_reported":1745269776,"current_range_meters":8800,"station_id":"ce4bhe12rcd13ifvqf30","pricing_plan_id":"cebpf4jnsgd1na2vs0mg"},{"bike_id":"34166cb2-24d1-48d4-88e5-65264e3a037d","system_id":"levelo_inurba_marseille","lat":43.31081,"lon":5.37088,"is_reserved":false,"is_disabled":false,"rental_uris":{"android":"levelo://app?vid=34166cb2-24d1-48d4-88e5-65264e3a037d","ios":"levelo://app?vid=34166cb2-24d1-48d4-88e5-65264e3a037d"},"vehicle_type_id":"4","last_reported":1745269776,"current_range_meters":9200,"station_id":"","pricing_plan_id":"cebpf4jnsgd1na2vs0mg"},{"bike_id":"7c9e901f-086d-4f1e-9486-c217317ff0e2","system_id":"levelo_inurba_marseille","lat":43.30722,"lon":5.382295,"is_reserved":false,"is_disabled":false,"rental_uris":{"android":"levelo://app?vid=7c9e901f-086d-4f1e-9486-c217317ff0e2","ios":"levelo://app?vid=7c9e901f-086d-4f1e-9486-c217317ff0e2"},"vehicle_type_id":"4","last_reported":1745269776,"current_range_meters":9200,"station_id":"ce4bgk12rcd13ifvqbi0","pricing_plan_id":"cebpf4jnsgd1na2vs0mg"},{"bike_id":"b09a0f3d-c48b-475b-8346-07998bdf0685","system_id":"levelo_inurba_marseille","lat":43.24075,"lon":5.37749,"is_reserved":false,"is_disabled":false,"rental_uris":{"android":"levelo://app?vid=b09a0f3d-c48b-475b-8346-07998bdf0685","ios":"levelo://app?vid=b09a0f3d-c48b-475b-8346-07998bdf0685"},"vehicle_type_id":"4","last_reported":1745269776,"current_range_meters":9200,"station_id":"ce4bhnp2rcd13ifvqgvg","pricing_plan_id":"cebpf4jnsgd1na2vs0mg"},{"bike_id":"89cfd28b-0c7c-4079-955f-194e937acbb9","system_id":"levelo_inurba_marseille","lat":43.29945,"lon":5.36339,"is_reserved":false,"is_disabled":false,"rental_uris":{"android":"levelo://app?vid=89cfd28b-0c7c-4079-955f-194e937acbb9","ios":"levelo://app?vid=89cfd28b-0c7c-4079-955f-194e937acbb9"},"vehicle_type_id":"4","last_reported":1745269776,"current_range_meters":9200,"station_id":"","pricing_plan_id":"cebpf4jnsgd1na2vs0mg"},{"bike_id":"8845df7c-25f7-458d-9ae1-738a6dd391e2","system_id":"levelo_inurba_marseille","lat":43.34144,"lon":5.40896,"is_reserved":false,"is_disabled":false,"rental_uris":{"android":"levelo://app?vid=8845df7c-25f7-458d-9ae1-738a6dd391e2","ios":"levelo://app?vid=8845df7c-25f7-458d-9ae1-738a6dd391e2"},"vehicle_type_id":"4","last_reported":1745269776,"current_range_meters":9600,"station_id":"ce4bhqh2rcd13ifvqhlg","pricing_plan_id":"cebpf4jnsgd1na2vs0mg"},{"bike_id":"5cca747e-23ae-49d6-9ba3-1c7939696a15","system_id":"levelo_inurba_marseille","lat":43.25144,"lon":5.40318,"is_reserved":false,"is_disabled":false,"rental_uris":{"android":"levelo://app?vid=5cca747e-23ae-49d6-9ba3-1c7939696a15","ios":"levelo://app?vid=5cca747e-23ae-49d6-9ba3-1c7939696a15"},"vehicle_type_id":"4","last_reported":1745269776,"current_range_meters":9200,"station_id":"ce4bhlh2rcd13ifvqgig","pricing_plan_id":"cebpf4jnsgd1na2vs0mg"},{"bike_id":"35f2a906-9ed9-4281-a569-57111b51db28","system_id":"levelo_inurba_marseille","lat":43.25001,"lon":5.3896,"is_reserved":false,"is_disabled":false,"rental_uris":{"android":"levelo://app?vid=35f2a906-9ed9-4281-a569-57111b51db28","ios":"levelo://app?vid=35f2a906-9ed9-4281-a569-57111b51db28"},"vehicle_type_id":"4","last_reported":1745269776,"current_range_meters":9600,"station_id":"ce4bhgp2rcd13ifvqfd0","pricing_plan_id":"cebpf4jnsgd1na2vs0mg"},{"bike_id":"b2b121eb-fea7-4b4e-b1fb-7c1b4f2d379d","system_id":"levelo_inurba_marseille","lat":43.28705,"lon":5.39992,"is_reserved":false,"is_disabled":false,"rental_uris":{"android":"levelo://app?vid=b2b121eb-fea7-4b4e-b1fb-7c1b4f2d379d","ios":"levelo://app?vid=b2b121eb-fea7-4b4e-b1fb-7c1b4f2d379d"},"vehicle_type_id":"4","last_reported":1745269776,"current_range_meters":9600,"station_id":"ce4bho92rcd13ifvqh3g","pricing_plan_id":"cebpf4jnsgd1na2vs0mg"},{"bike_id":"dd4176eb-c333-4ad0-a25f-f7a1ed923263","system_id":"levelo_inurba_marseille","lat":43.29453,"lon":5.39748,"is_reserved":false,"is_disabled":false,"rental_uris":{"android":"levelo://app?vid=dd4176eb-c333-4ad0-a25f-f7a1ed923263","ios":"levelo://app?vid=dd4176eb-c333-4ad0-a25f-f7a1ed923263"},"vehicle_type_id":"4","last_reported":1745269776,"current_range_meters":9600,"station_id":"ce4bh3h2rcd13ifvqdo0","pricing_plan_id":"cebpf4jnsgd1na2vs0mg"},{"bike_id":"5d71f84a-10ca-4e55-9806-002e8068abd8","system_id":"levelo_inurba_marseille","lat":43.27922,"lon":5.39594,"is_reserved":false,"is_disabled":false,"rental_uris":{"android":"levelo://app?vid=5d71f84a-10ca-4e55-9806-002e8068abd8","ios":"levelo://app?vid=5d71f84a-10ca-4e55-9806-002e8068abd8"},"vehicle_type_id":"4","last_reported":1745269776,"current_range_meters":9600,"station_id":"ce4bhf92rcd13ifvqf40","pricing_plan_id":"cebpf4jnsgd1na2vs0mg"},{"bike_id":"d1be1167-d8d0-444d-93f2-ba551cf54cdb","system_id":"levelo_inurba_marseille","lat":43.2954,"lon":5.38537,"is_reserved":false,"is_disabled":false,"rental_uris":{"android":"levelo://app?vid=d1be1167-d8d0-444d-93f2-ba551cf54cdb","ios":"levelo://app?vid=d1be1167-d8d0-444d-93f2-ba551cf54cdb"},"vehicle_type_id":"4","last_reported":1745269776,"current_range_meters":9600,"station_id":"ce4bgih2rcd13ifvqba0","pricing_plan_id":"cebpf4jnsgd1na2vs0mg"},{"bike_id":"0a611c8d-97bf-4f65-92c6-d1e1e09d3147","system_id":"levelo_inurba_marseille","lat":43.29872,"lon":5.38901,"is_reserved":false,"is_disabled":false,"rental_uris":{"android":"levelo://app?vid=0a611c8d-97bf-4f65-92c6-d1e1e09d3147","ios":"levelo://app?vid=0a611c8d-97bf-4f65-92c6-d1e1e09d3147"},"vehicle_type_id":"4","last_reported":1745269776,"current_range_meters":9600,"station_id":"ce4bh392rcd13ifvqdl0","pricing_plan_id":"cebpf4jnsgd1na2vs0mg"},{"bike_id":"91e08a4b-ddcc-4b67-9353-958cd7ae2dab","system_id":"levelo_inurba_marseille","lat":43.2941,"lon":5.38631,"is_reserved":false,"is_disabled":false,"rental_uris":{"android":"levelo://app?vid=91e08a4b-ddcc-4b67-9353-958cd7ae2dab","ios":"levelo://app?vid=91e08a4b-ddcc-4b67-9353-958cd7ae2dab"},"vehicle_type_id":"4","last_reported":1745269776,"current_range_meters":10000,"station_id":"ce4bh2h2rcd13ifvqdh0","pricing_plan_id":"cebpf4jnsgd1na2vs0mg"},{"bike_id":"fdbf53dc-c001-4cbc-9204-4aaa3f39f340","system_id":"levelo_inurba_marseille","lat":43.29532,"lon":5.3905,"is_reserved":false,"is_disabled":false,"rental_uris":{"android":"levelo://app?vid=fdbf53dc-c001-4cbc-9204-4aaa3f39f340","ios":"levelo://app?vid=fdbf53dc-c001-4cbc-9204-4aaa3f39f340"},"vehicle_type_id":"4","last_reported":1745269776,"current_range_meters":10000,"station_id":"ce4bh3p2rcd13ifvqdp0","pricing_plan_id":"cebpf4jnsgd1na2vs0mg"},{"bike_id":"1c755526-7610-4241-9257-348acde561d3","system_id":"levelo_inurba_marseille","lat":43.24875,"lon":5.38192,"is_reserved":false,"is_disabled":false,"rental_uris":{"android":"levelo://app?vid=1c755526-7610-4241-9257-348acde561d3","ios":"levelo://app?vid=1c755526-7610-4241-9257-348acde561d3"},"vehicle_type_id":"4","last_reported":1745269776,"current_range_meters":10000,"station_id":"","pricing_plan_id":"cebpf4jnsgd1na2vs0mg"},{"bike_id":"d75a6bec-0f09-4f69-bc60-4398b7dc3aa3","system_id":"levelo_inurba_marseille","lat":43.28703,"lon":5.39972,"is_reserved":false,"is_disabled":false,"rental_uris":{"android":"levelo://app?vid=d75a6bec-0f09-4f69-bc60-4398b7dc3aa3","ios":"levelo://app?vid=d75a6bec-0f09-4f69-bc60-4398b7dc3aa3"},"vehicle_type_id":"4","last_reported":1745269776,"current_range_meters":10000,"station_id":"ce4bho92rcd13ifvqh3g","pricing_plan_id":"cebpf4jnsgd1na2vs0mg"},{"bike_id":"c633ffb6-a2e4-43ee-bc04-55b3730fd199","system_id":"levelo_inurba_marseille","lat":43.29422,"lon":5.38609,"is_reserved":false,"is_disabled":true,"rental_uris":{"android":"levelo://app?vid=c633ffb6-a2e4-43ee-bc04-55b3730fd199","ios":"levelo://app?vid=c633ffb6-a2e4-43ee-bc04-55b3730fd199"},"vehicle_type_id":"4","last_reported":1745269776,"current_range_meters":10000,"station_id":"ce4bh2h2rcd13ifvqdh0","pricing_plan_id":"cebpf4jnsgd1na2vs0mg"},{"bike_id":"fe8b594a-1525-4084-8e05-931f2d1c230a","system_id":"levelo_inurba_marseille","lat":43.28364,"lon":5.38622,"is_reserved":false,"is_disabled":false,"rental_uris":{"android":"levelo://app?vid=fe8b594a-1525-4084-8e05-931f2d1c230a","ios":"levelo://app?vid=fe8b594a-1525-4084-8e05-931f2d1c230a"},"vehicle_type_id":"4","last_reported":1745269776,"current_range_meters":10000,"station_id":"ce4bh492rcd13ifvqdvg","pricing_plan_id":"cebpf4jnsgd1na2vs0mg"},{"bike_id":"62801924-329e-46ea-aa72-be8e28d87636","system_id":"levelo_inurba_marseille","lat":43.26662,"lon":5.39981,"is_reserved":false,"is_disabled":false,"rental_uris":{"android":"levelo://app?vid=62801924-329e-46ea-aa72-be8e28d87636","ios":"levelo://app?vid=62801924-329e-46ea-aa72-be8e28d87636"},"vehicle_type_id":"4","last_reported":1745269776,"current_range_meters":10000,"station_id":"","pricing_plan_id":"cebpf4jnsgd1na2vs0mg"},{"bike_id":"38496ab1-dcd9-47e1-88de-12902fbdc1d3","system_id":"levelo_inurba_marseille","lat":43.29016,"lon":5.38634,"is_reserved":false,"is_disabled":false,"rental_uris":{"android":"levelo://app?vid=38496ab1-dcd9-47e1-88de-12902fbdc1d3","ios":"levelo://app?vid=38496ab1-dcd9-47e1-88de-12902fbdc1d3"},"vehicle_type_id":"4","last_reported":1745269776,"current_range_meters":10000,"station_id":"ce4bh4p2rcd13ifvqe0g","pricing_plan_id":"cebpf4jnsgd1na2vs0mg"},{"bike_id":"b187e78d-1724-4b31-8cf0-6bdebd0684ee","system_id":"levelo_inurba_marseille","lat":43.289699,"lon":5.378294,"is_reserved":false,"is_disabled":true,"rental_uris":{"android":"levelo://app?vid=b187e78d-1724-4b31-8cf0-6bdebd0684ee","ios":"levelo://app?vid=b187e78d-1724-4b31-8cf0-6bdebd0684ee"},"vehicle_type_id":"4","last_reported":1745269776,"current_range_meters":10800,"station_id":"ce4bh9p2rcd13ifvqed0","pricing_plan_id":"cebpf4jnsgd1na2vs0mg"},{"bike_id":"43fc777f-db94-447a-a033-7e97f2f52314","system_id":"levelo_inurba_marseille","lat":43.30878,"lon":5.3966,"is_reserved":false,"is_disabled":false,"rental_uris":{"android":"levelo://app?vid=43fc777f-db94-447a-a033-7e97f2f52314","ios":"levelo://app?vid=43fc777f-db94-447a-a033-7e97f2f52314"},"vehicle_type_id":"4","last_reported":1745269776,"current_range_meters":10800,"station_id":"ce4bh012rcd13ifvqcv0","pricing_plan_id":"cebpf4jnsgd1na2vs0mg"},{"bike_id":"af062bcb-c0d8-4f82-b254-b3dfb315e067","system_id":"levelo_inurba_marseille","lat":43.33057,"lon":5.39017,"is_reserved":false,"is_disabled":false,"rental_uris":{"android":"levelo://app?vid=af062bcb-c0d8-4f82-b254-b3dfb315e067","ios":"levelo://app?vid=af062bcb-c0d8-4f82-b254-b3dfb315e067"},"vehicle_type_id":"4","last_reported":1745269776,"current_range_meters":10800,"station_id":"ce4bhr92rcd13ifvqhrg","pricing_plan_id":"cebpf4jnsgd1na2vs0mg"},{"bike_id":"1b33e172-eaac-40f1-99bb-137fdedc33ad","system_id":"levelo_inurba_marseille","lat":43.30608,"lon":5.37218,"is_reserved":false,"is_disabled":false,"rental_uris":{"android":"levelo://app?vid=1b33e172-eaac-40f1-99bb-137fdedc33ad","ios":"levelo://app?vid=1b33e172-eaac-40f1-99bb-137fdedc33ad"},"vehicle_type_id":"4","last_reported":1745269776,"current_range_meters":10800,"station_id":"ce4bgqh2rcd13ifvqc4g","pricing_plan_id":"cebpf4jnsgd1na2vs0mg"},{"bike_id":"97b5301b-7f92-4673-aaeb-cee1feaf34d3","system_id":"levelo_inurba_marseille","lat":43.279417,"lon":5.41039,"is_reserved":false,"is_disabled":false,"rental_uris":{"android":"levelo://app?vid=97b5301b-7f92-4673-aaeb-cee1feaf34d3","ios":"levelo://app?vid=97b5301b-7f92-4673-aaeb-cee1feaf34d3"},"vehicle_type_id":"4","last_reported":1745269776,"current_range_meters":10800,"station_id":"ce4bhnp2rcd13ifvqh0g","pricing_plan_id":"cebpf4jnsgd1na2vs0mg"},{"bike_id":"5bc52f99-c488-4886-bf7e-6d74b0ab5e69","system_id":"levelo_inurba_marseille","lat":43.27934,"lon":5.41031,"is_reserved":false,"is_disabled":false,"rental_uris":{"android":"levelo://app?vid=5bc52f99-c488-4886-bf7e-6d74b0ab5e69","ios":"levelo://app?vid=5bc52f99-c488-4886-bf7e-6d74b0ab5e69"},"vehicle_type_id":"4","last_reported":1745269776,"current_range_meters":10800,"station_id":"ce4bhnp2rcd13ifvqh0g","pricing_plan_id":"cebpf4jnsgd1na2vs0mg"},{"bike_id":"e7c416a1-d3d4-4a43-927c-145ae605d8a0","system_id":"levelo_inurba_marseille","lat":43.240667,"lon":5.37753,"is_reserved":false,"is_disabled":false,"rental_uris":{"android":"levelo://app?vid=e7c416a1-d3d4-4a43-927c-145ae605d8a0","ios":"levelo://app?vid=e7c416a1-d3d4-4a43-927c-145ae605d8a0"},"vehicle_type_id":"4","last_reported":1745269776,"current_range_meters":10800,"station_id":"ce4bhnp2rcd13ifvqgvg","pricing_plan_id":"cebpf4jnsgd1na2vs0mg"},{"bike_id":"f8a4dedb-ece2-49f2-82c0-8ba3b30d7a70","system_id":"levelo_inurba_marseille","lat":43.31385,"lon":5.38506,"is_reserved":false,"is_disabled":false,"rental_uris":{"android":"levelo://app?vid=f8a4dedb-ece2-49f2-82c0-8ba3b30d7a70","ios":"levelo://app?vid=f8a4dedb-ece2-49f2-82c0-8ba3b30d7a70"},"vehicle_type_id":"4","last_reported":1745269776,"current_range_meters":11200,"station_id":"ce4bgt92rcd13ifvqcf0","pricing_plan_id":"cebpf4jnsgd1na2vs0mg"},{"bike_id":"0473ed2f-5039-4e71-8f48-2421954e8490","system_id":"levelo_inurba_marseille","lat":43.28787,"lon":5.40093,"is_reserved":false,"is_disabled":false,"rental_uris":{"android":"levelo://app?vid=0473ed2f-5039-4e71-8f48-2421954e8490","ios":"levelo://app?vid=0473ed2f-5039-4e71-8f48-2421954e8490"},"vehicle_type_id":"4","last_reported":1745269776,"current_range_meters":11200,"station_id":"","pricing_plan_id":"cebpf4jnsgd1na2vs0mg"},{"bike_id":"d912ab3c-5874-4483-b62f-9a7bb0c626e0","system_id":"levelo_inurba_marseille","lat":43.285664,"lon":5.39501,"is_reserved":false,"is_disabled":false,"rental_uris":{"android":"levelo://app?vid=d912ab3c-5874-4483-b62f-9a7bb0c626e0","ios":"levelo://app?vid=d912ab3c-5874-4483-b62f-9a7bb0c626e0"},"vehicle_type_id":"4","last_reported":1745269776,"current_range_meters":11200,"station_id":"ce4bh292rcd13ifvqdg0","pricing_plan_id":"cebpf4jnsgd1na2vs0mg"},{"bike_id":"5651431b-db7d-46f1-ba47-9c260ae40481","system_id":"levelo_inurba_marseille","lat":43.29875,"lon":5.39738,"is_reserved":false,"is_disabled":false,"rental_uris":{"android":"levelo://app?vid=5651431b-db7d-46f1-ba47-9c260ae40481","ios":"levelo://app?vid=5651431b-db7d-46f1-ba47-9c260ae40481"},"vehicle_type_id":"4","last_reported":1745269776,"current_range_meters":11200,"station_id":"ce4bh0h2rcd13ifvqd50","pricing_plan_id":"cebpf4jnsgd1na2vs0mg"},{"bike_id":"98bb5fbf-6f36-4f60-9412-0dcd0922c2df","system_id":"levelo_inurba_marseille","lat":43.29553,"lon":5.3899,"is_reserved":false,"is_disabled":false,"rental_uris":{"android":"levelo://app?vid=98bb5fbf-6f36-4f60-9412-0dcd0922c2df","ios":"levelo://app?vid=98bb5fbf-6f36-4f60-9412-0dcd0922c2df"},"vehicle_type_id":"4","last_reported":1745269776,"current_range_meters":11200,"station_id":"","pricing_plan_id":"cebpf4jnsgd1na2vs0mg"},{"bike_id":"0cd4670c-b87b-4f49-b23f-4279ff19f79c","system_id":"levelo_inurba_marseille","lat":43.29261,"lon":5.40938,"is_reserved":false,"is_disabled":false,"rental_uris":{"android":"levelo://app?vid=0cd4670c-b87b-4f49-b23f-4279ff19f79c","ios":"levelo://app?vid=0cd4670c-b87b-4f49-b23f-4279ff19f79c"},"vehicle_type_id":"4","last_reported":1745269776,"current_range_meters":11200,"station_id":"ce4bh192rcd13ifvqdc0","pricing_plan_id":"cebpf4jnsgd1na2vs0mg"},{"bike_id":"e9da63aa-8f92-4958-806a-3d11d648be93","system_id":"levelo_inurba_marseille","lat":43.28687,"lon":5.40003,"is_reserved":false,"is_disabled":false,"rental_uris":{"android":"levelo://app?vid=e9da63aa-8f92-4958-806a-3d11d648be93","ios":"levelo://app?vid=e9da63aa-8f92-4958-806a-3d11d648be93"},"vehicle_type_id":"4","last_reported":1745269776,"current_range_meters":11600,"station_id":"ce4bho92rcd13ifvqh3g","pricing_plan_id":"cebpf4jnsgd1na2vs0mg"},{"bike_id":"47ece7d5-b83c-4f4c-9b4f-37709ab677b7","system_id":"levelo_inurba_marseille","lat":43.29256,"lon":5.409,"is_reserved":false,"is_disabled":false,"rental_uris":{"android":"levelo://app?vid=47ece7d5-b83c-4f4c-9b4f-37709ab677b7","ios":"levelo://app?vid=47ece7d5-b83c-4f4c-9b4f-37709ab677b7"},"vehicle_type_id":"4","last_reported":1745269776,"current_range_meters":11600,"station_id":"ce4bh192rcd13ifvqdc0","pricing_plan_id":"cebpf4jnsgd1na2vs0mg"},{"bike_id":"21917916-4faf-4a68-958e-ef1fcba4e701","system_id":"levelo_inurba_marseille","lat":43.31512,"lon":5.37308,"is_reserved":false,"is_disabled":false,"rental_uris":{"android":"levelo://app?vid=21917916-4faf-4a68-958e-ef1fcba4e701","ios":"levelo://app?vid=21917916-4faf-4a68-958e-ef1fcba4e701"},"vehicle_type_id":"4","last_reported":1745269776,"current_range_meters":11600,"station_id":"ce4bgt12rcd13ifvqcd0","pricing_plan_id":"cebpf4jnsgd1na2vs0mg"},{"bike_id":"d5aaf7b9-7fe4-4e49-ab5f-5b64544b07d5","system_id":"levelo_inurba_marseille","lat":43.25008,"lon":5.38932,"is_reserved":false,"is_disabled":false,"rental_uris":{"android":"levelo://app?vid=d5aaf7b9-7fe4-4e49-ab5f-5b64544b07d5","ios":"levelo://app?vid=d5aaf7b9-7fe4-4e49-ab5f-5b64544b07d5"},"vehicle_type_id":"4","last_reported":1745269776,"current_range_meters":12000,"station_id":"ce4bhgp2rcd13ifvqfd0","pricing_plan_id":"cebpf4jnsgd1na2vs0mg"},{"bike_id":"9032c1b2-7805-4907-a608-5610837f60f3","system_id":"levelo_inurba_marseille","lat":43.29284,"lon":5.40121,"is_reserved":false,"is_disabled":false,"rental_uris":{"android":"levelo://app?vid=9032c1b2-7805-4907-a608-5610837f60f3","ios":"levelo://app?vid=9032c1b2-7805-4907-a608-5610837f60f3"},"vehicle_type_id":"4","last_reported":1745269776,"current_range_meters":12000,"station_id":"ce4bh312rcd13ifvqdk0","pricing_plan_id":"cebpf4jnsgd1na2vs0mg"},{"bike_id":"50f6dc04-17ec-4940-9332-8f3db38b7ab2","system_id":"levelo_inurba_marseille","lat":43.28711,"lon":5.39988,"is_reserved":false,"is_disabled":false,"rental_uris":{"android":"levelo://app?vid=50f6dc04-17ec-4940-9332-8f3db38b7ab2","ios":"levelo://app?vid=50f6dc04-17ec-4940-9332-8f3db38b7ab2"},"vehicle_type_id":"4","last_reported":1745269776,"current_range_meters":12400,"station_id":"ce4bho92rcd13ifvqh3g","pricing_plan_id":"cebpf4jnsgd1na2vs0mg"},{"bike_id":"f4b7a7f2-0d5e-41f4-8959-ca288a5714d9","system_id":"levelo_inurba_marseille","lat":43.28606,"lon":5.3705,"is_reserved":false,"is_disabled":false,"rental_uris":{"android":"levelo://app?vid=f4b7a7f2-0d5e-41f4-8959-ca288a5714d9","ios":"levelo://app?vid=f4b7a7f2-0d5e-41f4-8959-ca288a5714d9"},"vehicle_type_id":"4","last_reported":1745269776,"current_range_meters":12400,"station_id":"ce4bht12rcd13ifvqi60","pricing_plan_id":"cebpf4jnsgd1na2vs0mg"},{"bike_id":"2dc4e79a-33a8-48b0-bf03-f6328f1dc1f6","system_id":"levelo_inurba_marseille","lat":43.32367,"lon":5.38896,"is_reserved":false,"is_disabled":true,"rental_uris":{"android":"levelo://app?vid=2dc4e79a-33a8-48b0-bf03-f6328f1dc1f6","ios":"levelo://app?vid=2dc4e79a-33a8-48b0-bf03-f6328f1dc1f6"},"vehicle_type_id":"4","last_reported":1745269776,"current_range_meters":12400,"station_id":"ce4bhqp2rcd13ifvqhog","pricing_plan_id":"cebpf4jnsgd1na2vs0mg"},{"bike_id":"a23fb5f1-9060-4e69-abeb-7993a668c16a","system_id":"levelo_inurba_marseille","lat":43.26571,"lon":5.39009,"is_reserved":false,"is_disabled":false,"rental_uris":{"android":"levelo://app?vid=a23fb5f1-9060-4e69-abeb-7993a668c16a","ios":"levelo://app?vid=a23fb5f1-9060-4e69-abeb-7993a668c16a"},"vehicle_type_id":"4","last_reported":1745269776,"current_range_meters":12400,"station_id":"ce4bhe12rcd13ifvqf30","pricing_plan_id":"cebpf4jnsgd1na2vs0mg"},{"bike_id":"75e88468-f4b5-4d6d-9918-ecc4d75638fe","system_id":"levelo_inurba_marseille","lat":43.300257,"lon":5.39217,"is_reserved":false,"is_disabled":false,"rental_uris":{"android":"levelo://app?vid=75e88468-f4b5-4d6d-9918-ecc4d75638fe","ios":"levelo://app?vid=75e88468-f4b5-4d6d-9918-ecc4d75638fe"},"vehicle_type_id":"4","last_reported":1745269776,"current_range_meters":12400,"station_id":"ce4bh192rcd13ifvqdb0","pricing_plan_id":"cebpf4jnsgd1na2vs0mg"},{"bike_id":"6a4af5e8-f5c0-41fb-afb5-22ff76967e42","system_id":"levelo_inurba_marseille","lat":43.28411,"lon":5.37501,"is_reserved":false,"is_disabled":false,"rental_uris":{"android":"levelo://app?vid=6a4af5e8-f5c0-41fb-afb5-22ff76967e42","ios":"levelo://app?vid=6a4af5e8-f5c0-41fb-afb5-22ff76967e42"},"vehicle_type_id":"4","last_reported":1745269776,"current_range_meters":12800,"station_id":"ce4bh412rcd13ifvqds0","pricing_plan_id":"cebpf4jnsgd1na2vs0mg"},{"bike_id":"66a9a378-d232-4166-a630-37e48fa18f9f","system_id":"levelo_inurba_marseille","lat":43.31999,"lon":5.38155,"is_reserved":false,"is_disabled":false,"rental_uris":{"android":"levelo://app?vid=66a9a378-d232-4166-a630-37e48fa18f9f","ios":"levelo://app?vid=66a9a378-d232-4166-a630-37e48fa18f9f"},"vehicle_type_id":"4","last_reported":1745269776,"current_range_meters":12800,"station_id":"ce4bhr12rcd13ifvqhpg","pricing_plan_id":"cebpf4jnsgd1na2vs0mg"},{"bike_id":"8fd43598-927a-4b0c-abdc-ee6ebcc379cd","system_id":"levelo_inurba_marseille","lat":43.30785,"lon":5.38142,"is_reserved":false,"is_disabled":false,"rental_uris":{"android":"levelo://app?vid=8fd43598-927a-4b0c-abdc-ee6ebcc379cd","ios":"levelo://app?vid=8fd43598-927a-4b0c-abdc-ee6ebcc379cd"},"vehicle_type_id":"4","last_reported":1745269776,"current_range_meters":12800,"station_id":"ce4bgt12rcd13ifvqce0","pricing_plan_id":"cebpf4jnsgd1na2vs0mg"},{"bike_id":"5be67c99-ebef-4c1b-9545-b444ef6dd709","system_id":"levelo_inurba_marseille","lat":43.29888,"lon":5.38866,"is_reserved":false,"is_disabled":false,"rental_uris":{"android":"levelo://app?vid=5be67c99-ebef-4c1b-9545-b444ef6dd709","ios":"levelo://app?vid=5be67c99-ebef-4c1b-9545-b444ef6dd709"},"vehicle_type_id":"4","last_reported":1745269776,"current_range_meters":12800,"station_id":"ce4bh392rcd13ifvqdl0","pricing_plan_id":"cebpf4jnsgd1na2vs0mg"},{"bike_id":"d7891f6f-dbf7-462a-8ba9-666022d45f1b","system_id":"levelo_inurba_marseille","lat":43.28714,"lon":5.39985,"is_reserved":false,"is_disabled":false,"rental_uris":{"android":"levelo://app?vid=d7891f6f-dbf7-462a-8ba9-666022d45f1b","ios":"levelo://app?vid=d7891f6f-dbf7-462a-8ba9-666022d45f1b"},"vehicle_type_id":"4","last_reported":1745269776,"current_range_meters":12800,"station_id":"ce4bhk92rcd13ifvqgc0","pricing_plan_id":"cebpf4jnsgd1na2vs0mg"},{"bike_id":"4eb3e58f-17bb-4007-b6f7-ead627ffb500","system_id":"levelo_inurba_marseille","lat":43.292472,"lon":5.384454,"is_reserved":false,"is_disabled":true,"rental_uris":{"android":"levelo://app?vid=4eb3e58f-17bb-4007-b6f7-ead627ffb500","ios":"levelo://app?vid=4eb3e58f-17bb-4007-b6f7-ead627ffb500"},"vehicle_type_id":"4","last_reported":1745269776,"current_range_meters":12800,"station_id":"ce4bh692rcd13ifvqea0","pricing_plan_id":"cebpf4jnsgd1na2vs0mg"},{"bike_id":"43ea2697-003d-4975-8a5e-6da0f8df830d","system_id":"levelo_inurba_marseille","lat":43.32015,"lon":5.38115,"is_reserved":false,"is_disabled":false,"rental_uris":{"android":"levelo://app?vid=43ea2697-003d-4975-8a5e-6da0f8df830d","ios":"levelo://app?vid=43ea2697-003d-4975-8a5e-6da0f8df830d"},"vehicle_type_id":"4","last_reported":1745269776,"current_range_meters":13600,"station_id":"","pricing_plan_id":"cebpf4jnsgd1na2vs0mg"},{"bike_id":"fa6fb692-3c02-45e3-ae8b-7fd21c19ed5f","system_id":"levelo_inurba_marseille","lat":43.28656,"lon":5.38361,"is_reserved":false,"is_disabled":false,"rental_uris":{"android":"levelo://app?vid=fa6fb692-3c02-45e3-ae8b-7fd21c19ed5f","ios":"levelo://app?vid=fa6fb692-3c02-45e3-ae8b-7fd21c19ed5f"},"vehicle_type_id":"4","last_reported":1745269776,"current_range_meters":13600,"station_id":"","pricing_plan_id":"cebpf4jnsgd1na2vs0mg"},{"bike_id":"41cd4d50-3bdd-4fa7-b5d1-d715f5a540e6","system_id":"levelo_inurba_marseille","lat":43.3236,"lon":5.36762,"is_reserved":false,"is_disabled":false,"rental_uris":{"android":"levelo://app?vid=41cd4d50-3bdd-4fa7-b5d1-d715f5a540e6","ios":"levelo://app?vid=41cd4d50-3bdd-4fa7-b5d1-d715f5a540e6"},"vehicle_type_id":"4","last_reported":1745269776,"current_range_meters":13600,"station_id":"ce4bhsh2rcd13ifvqi2g","pricing_plan_id":"cebpf4jnsgd1na2vs0mg"},{"bike_id":"e07c446c-794c-4c7e-8983-08bcf88741d7","system_id":"levelo_inurba_marseille","lat":43.30885,"lon":5.39636,"is_reserved":false,"is_disabled":false,"rental_uris":{"android":"levelo://app?vid=e07c446c-794c-4c7e-8983-08bcf88741d7","ios":"levelo://app?vid=e07c446c-794c-4c7e-8983-08bcf88741d7"},"vehicle_type_id":"4","last_reported":1745269776,"current_range_meters":14000,"station_id":"ce4bh012rcd13ifvqcv0","pricing_plan_id":"cebpf4jnsgd1na2vs0mg"},{"bike_id":"213da5e8-23e1-4c9c-89ed-8256ec571fc4","system_id":"levelo_inurba_marseille","lat":43.283657,"lon":5.38628,"is_reserved":false,"is_disabled":false,"rental_uris":{"android":"levelo://app?vid=213da5e8-23e1-4c9c-89ed-8256ec571fc4","ios":"levelo://app?vid=213da5e8-23e1-4c9c-89ed-8256ec571fc4"},"vehicle_type_id":"4","last_reported":1745269776,"current_range_meters":14000,"station_id":"ce4bh492rcd13ifvqdvg","pricing_plan_id":"cebpf4jnsgd1na2vs0mg"},{"bike_id":"0cc8691f-a082-4a9b-944f-91ae0092fb38","system_id":"levelo_inurba_marseille","lat":43.29334,"lon":5.40176,"is_reserved":false,"is_disabled":false,"rental_uris":{"android":"levelo://app?vid=0cc8691f-a082-4a9b-944f-91ae0092fb38","ios":"levelo://app?vid=0cc8691f-a082-4a9b-944f-91ae0092fb38"},"vehicle_type_id":"4","last_reported":1745269776,"current_range_meters":14000,"station_id":"","pricing_plan_id":"cebpf4jnsgd1na2vs0mg"},{"bike_id":"ae426aff-dab8-48da-aece-a07401c06655","system_id":"levelo_inurba_marseille","lat":43.28076,"lon":5.39655,"is_reserved":false,"is_disabled":false,"rental_uris":{"android":"levelo://app?vid=ae426aff-dab8-48da-aece-a07401c06655","ios":"levelo://app?vid=ae426aff-dab8-48da-aece-a07401c06655"},"vehicle_type_id":"4","last_reported":1745269776,"current_range_meters":14400,"station_id":"ce4bho12rcd13ifvqh2g","pricing_plan_id":"cebpf4jnsgd1na2vs0mg"},{"bike_id":"c715e6d5-141e-4f7d-89aa-48d9818c4993","system_id":"levelo_inurba_marseille","lat":43.30602,"lon":5.39358,"is_reserved":false,"is_disabled":false,"rental_uris":{"android":"levelo://app?vid=c715e6d5-141e-4f7d-89aa-48d9818c4993","ios":"levelo://app?vid=c715e6d5-141e-4f7d-89aa-48d9818c4993"},"vehicle_type_id":"4","last_reported":1745269776,"current_range_meters":14800,"station_id":"ce4bh0p2rcd13ifvqd80","pricing_plan_id":"cebpf4jnsgd1na2vs0mg"},{"bike_id":"b373a9fc-b19f-49e6-9414-e3e614041e34","system_id":"levelo_inurba_marseille","lat":43.2708,"lon":5.4228,"is_reserved":false,"is_disabled":true,"rental_uris":{"android":"levelo://app?vid=b373a9fc-b19f-49e6-9414-e3e614041e34","ios":"levelo://app?vid=b373a9fc-b19f-49e6-9414-e3e614041e34"},"vehicle_type_id":"4","last_reported":1745269776,"current_range_meters":14400,"station_id":"ce4bhk92rcd13ifvqgb0","pricing_plan_id":"cebpf4jnsgd1na2vs0mg"},{"bike_id":"7ff24c92-6bad-4230-894e-2141c892966f","system_id":"levelo_inurba_marseille","lat":43.29253,"lon":5.40914,"is_reserved":false,"is_disabled":false,"rental_uris":{"android":"levelo://app?vid=7ff24c92-6bad-4230-894e-2141c892966f","ios":"levelo://app?vid=7ff24c92-6bad-4230-894e-2141c892966f"},"vehicle_type_id":"4","last_reported":1745269776,"current_range_meters":14400,"station_id":"ce4bh192rcd13ifvqdc0","pricing_plan_id":"cebpf4jnsgd1na2vs0mg"},{"bike_id":"b9990b0b-23ad-461b-a2d8-df7e2af72eca","system_id":"levelo_inurba_marseille","lat":43.30724,"lon":5.381,"is_reserved":false,"is_disabled":false,"rental_uris":{"android":"levelo://app?vid=b9990b0b-23ad-461b-a2d8-df7e2af72eca","ios":"levelo://app?vid=b9990b0b-23ad-461b-a2d8-df7e2af72eca"},"vehicle_type_id":"4","last_reported":1745269776,"current_range_meters":14400,"station_id":"","pricing_plan_id":"cebpf4jnsgd1na2vs0mg"},{"bike_id":"4c6fa7bc-f11e-471d-9e17-f3995a014298","system_id":"levelo_inurba_marseille","lat":43.28711,"lon":5.39995,"is_reserved":false,"is_disabled":false,"rental_uris":{"android":"levelo://app?vid=4c6fa7bc-f11e-471d-9e17-f3995a014298","ios":"levelo://app?vid=4c6fa7bc-f11e-471d-9e17-f3995a014298"},"vehicle_type_id":"4","last_reported":1745269776,"current_range_meters":14400,"station_id":"ce4bho92rcd13ifvqh3g","pricing_plan_id":"cebpf4jnsgd1na2vs0mg"},{"bike_id":"e3f2ff94-19f7-4b16-a506-885772f72f4c","system_id":"levelo_inurba_marseille","lat":43.24167,"lon":5.36402,"is_reserved":false,"is_disabled":true,"rental_uris":{"android":"levelo://app?vid=e3f2ff94-19f7-4b16-a506-885772f72f4c","ios":"levelo://app?vid=e3f2ff94-19f7-4b16-a506-885772f72f4c"},"vehicle_type_id":"4","last_reported":1745269776,"current_range_meters":14400,"station_id":"cpo36qri1sfpv3e86is0","pricing_plan_id":"cebpf4jnsgd1na2vs0mg"},{"bike_id":"df8a556b-f7fc-48f3-8da4-2f8f98447a4e","system_id":"levelo_inurba_marseille","lat":43.3059,"lon":5.39364,"is_reserved":false,"is_disabled":false,"rental_uris":{"android":"levelo://app?vid=df8a556b-f7fc-48f3-8da4-2f8f98447a4e","ios":"levelo://app?vid=df8a556b-f7fc-48f3-8da4-2f8f98447a4e"},"vehicle_type_id":"4","last_reported":1745269776,"current_range_meters":14800,"station_id":"ce4bh0p2rcd13ifvqd80","pricing_plan_id":"cebpf4jnsgd1na2vs0mg"},{"bike_id":"afca05cb-9dea-4e13-bae3-b0bd83251e29","system_id":"levelo_inurba_marseille","lat":43.33777,"lon":5.37431,"is_reserved":false,"is_disabled":false,"rental_uris":{"android":"levelo://app?vid=afca05cb-9dea-4e13-bae3-b0bd83251e29","ios":"levelo://app?vid=afca05cb-9dea-4e13-bae3-b0bd83251e29"},"vehicle_type_id":"4","last_reported":1745269776,"current_range_meters":14800,"station_id":"","pricing_plan_id":"cebpf4jnsgd1na2vs0mg"},{"bike_id":"141864e6-8ecd-461b-a0a2-5f26a30ce5ba","system_id":"levelo_inurba_marseille","lat":43.28457,"lon":5.35898,"is_reserved":false,"is_disabled":false,"rental_uris":{"android":"levelo://app?vid=141864e6-8ecd-461b-a0a2-5f26a30ce5ba","ios":"levelo://app?vid=141864e6-8ecd-461b-a0a2-5f26a30ce5ba"},"vehicle_type_id":"4","last_reported":1745269776,"current_range_meters":14800,"station_id":"ce4bhah2rcd13ifvqei0","pricing_plan_id":"cebpf4jnsgd1na2vs0mg"},{"bike_id":"d9e79c39-e7f5-4230-a287-0d676fda5550","system_id":"levelo_inurba_marseille","lat":43.29287,"lon":5.4013,"is_reserved":false,"is_disabled":false,"rental_uris":{"android":"levelo://app?vid=d9e79c39-e7f5-4230-a287-0d676fda5550","ios":"levelo://app?vid=d9e79c39-e7f5-4230-a287-0d676fda5550"},"vehicle_type_id":"4","last_reported":1745269776,"current_range_meters":15200,"station_id":"ce4bh312rcd13ifvqdk0","pricing_plan_id":"cebpf4jnsgd1na2vs0mg"},{"bike_id":"31dad1ac-0f84-44f8-a969-f5f6007b9b50","system_id":"levelo_inurba_marseille","lat":43.25003,"lon":5.38909,"is_reserved":false,"is_disabled":true,"rental_uris":{"android":"levelo://app?vid=31dad1ac-0f84-44f8-a969-f5f6007b9b50","ios":"levelo://app?vid=31dad1ac-0f84-44f8-a969-f5f6007b9b50"},"vehicle_type_id":"4","last_reported":1745269776,"current_range_meters":15200,"station_id":"ce4bhgp2rcd13ifvqfd0","pricing_plan_id":"cebpf4jnsgd1na2vs0mg"},{"bike_id":"99c34669-c530-4cbc-873f-37b17a15d968","system_id":"levelo_inurba_marseille","lat":43.293732,"lon":5.38584,"is_reserved":false,"is_disabled":false,"rental_uris":{"android":"levelo://app?vid=99c34669-c530-4cbc-873f-37b17a15d968","ios":"levelo://app?vid=99c34669-c530-4cbc-873f-37b17a15d968"},"vehicle_type_id":"4","last_reported":1745269776,"current_range_meters":15200,"station_id":"ce4bh412rcd13ifvqds0","pricing_plan_id":"cebpf4jnsgd1na2vs0mg"},{"bike_id":"13a47ec2-9bd8-49fa-b6e7-fd3d397adaa1","system_id":"levelo_inurba_marseille","lat":43.2799,"lon":5.40021,"is_reserved":false,"is_disabled":false,"rental_uris":{"android":"levelo://app?vid=13a47ec2-9bd8-49fa-b6e7-fd3d397adaa1","ios":"levelo://app?vid=13a47ec2-9bd8-49fa-b6e7-fd3d397adaa1"},"vehicle_type_id":"4","last_reported":1745269776,"current_range_meters":15200,"station_id":"ce4bho92rcd13ifvqh4g","pricing_plan_id":"cebpf4jnsgd1na2vs0mg"},{"bike_id":"a597aa79-a9e7-446e-9f8d-ad8e32781eda","system_id":"levelo_inurba_marseille","lat":43.25982,"lon":5.40867,"is_reserved":false,"is_disabled":false,"rental_uris":{"android":"levelo://app?vid=a597aa79-a9e7-446e-9f8d-ad8e32781eda","ios":"levelo://app?vid=a597aa79-a9e7-446e-9f8d-ad8e32781eda"},"vehicle_type_id":"4","last_reported":1745269776,"current_range_meters":15200,"station_id":"ce4bhm92rcd13ifvqglg","pricing_plan_id":"cebpf4jnsgd1na2vs0mg"},{"bike_id":"a7aa4f0d-dbae-40db-a193-3ad158f70ff8","system_id":"levelo_inurba_marseille","lat":43.30959,"lon":5.37179,"is_reserved":false,"is_disabled":false,"rental_uris":{"android":"levelo://app?vid=a7aa4f0d-dbae-40db-a193-3ad158f70ff8","ios":"levelo://app?vid=a7aa4f0d-dbae-40db-a193-3ad158f70ff8"},"vehicle_type_id":"4","last_reported":1745269776,"current_range_meters":16000,"station_id":"","pricing_plan_id":"cebpf4jnsgd1na2vs0mg"},{"bike_id":"b101afbf-59d1-496d-8034-1c01b9f4a24e","system_id":"levelo_inurba_marseille","lat":43.29193,"lon":5.3932,"is_reserved":false,"is_disabled":false,"rental_uris":{"android":"levelo://app?vid=b101afbf-59d1-496d-8034-1c01b9f4a24e","ios":"levelo://app?vid=b101afbf-59d1-496d-8034-1c01b9f4a24e"},"vehicle_type_id":"4","last_reported":1745269776,"current_range_meters":16000,"station_id":"ce4bh192rcd13ifvqdd0","pricing_plan_id":"cebpf4jnsgd1na2vs0mg"},{"bike_id":"e0984a65-d243-4f77-a1cb-254126487ba4","system_id":"levelo_inurba_marseille","lat":43.29522,"lon":5.38555,"is_reserved":false,"is_disabled":false,"rental_uris":{"android":"levelo://app?vid=e0984a65-d243-4f77-a1cb-254126487ba4","ios":"levelo://app?vid=e0984a65-d243-4f77-a1cb-254126487ba4"},"vehicle_type_id":"4","last_reported":1745269776,"current_range_meters":16000,"station_id":"ce4bgih2rcd13ifvqba0","pricing_plan_id":"cebpf4jnsgd1na2vs0mg"},{"bike_id":"31685d83-6553-429d-bbed-1f1f9114190b","system_id":"levelo_inurba_marseille","lat":43.29976,"lon":5.38492,"is_reserved":false,"is_disabled":false,"rental_uris":{"android":"levelo://app?vid=31685d83-6553-429d-bbed-1f1f9114190b","ios":"levelo://app?vid=31685d83-6553-429d-bbed-1f1f9114190b"},"vehicle_type_id":"4","last_reported":1745269776,"current_range_meters":15200,"station_id":"ce4bgj92rcd13ifvqbd0","pricing_plan_id":"cebpf4jnsgd1na2vs0mg"},{"bike_id":"19bdf40e-ce17-4477-9c87-815068b2b0ca","system_id":"levelo_inurba_marseille","lat":43.28934,"lon":5.39627,"is_reserved":false,"is_disabled":false,"rental_uris":{"android":"levelo://app?vid=19bdf40e-ce17-4477-9c87-815068b2b0ca","ios":"levelo://app?vid=19bdf40e-ce17-4477-9c87-815068b2b0ca"},"vehicle_type_id":"4","last_reported":1745269776,"current_range_meters":16000,"station_id":"ce4bh3h2rcd13ifvqdn0","pricing_plan_id":"cebpf4jnsgd1na2vs0mg"},{"bike_id":"217bc09c-9054-444f-b0a6-1a91698bbf60","system_id":"levelo_inurba_marseille","lat":43.26196,"lon":5.37444,"is_reserved":false,"is_disabled":true,"rental_uris":{"android":"levelo://app?vid=217bc09c-9054-444f-b0a6-1a91698bbf60","ios":"levelo://app?vid=217bc09c-9054-444f-b0a6-1a91698bbf60"},"vehicle_type_id":"4","last_reported":1745269776,"current_range_meters":16000,"station_id":"ce4bhgp2rcd13ifvqfc0","pricing_plan_id":"cebpf4jnsgd1na2vs0mg"},{"bike_id":"2568281a-34e3-44a1-8733-80292791fc14","system_id":"levelo_inurba_marseille","lat":43.287149,"lon":5.399865,"is_reserved":false,"is_disabled":false,"rental_uris":{"android":"levelo://app?vid=2568281a-34e3-44a1-8733-80292791fc14","ios":"levelo://app?vid=2568281a-34e3-44a1-8733-80292791fc14"},"vehicle_type_id":"4","last_reported":1745269776,"current_range_meters":16000,"station_id":"ce4bho92rcd13ifvqh3g","pricing_plan_id":"cebpf4jnsgd1na2vs0mg"},{"bike_id":"e67493be-90d1-453e-bdde-ef8f6fd8f9f8","system_id":"levelo_inurba_marseille","lat":43.29255,"lon":5.40921,"is_reserved":false,"is_disabled":false,"rental_uris":{"android":"levelo://app?vid=e67493be-90d1-453e-bdde-ef8f6fd8f9f8","ios":"levelo://app?vid=e67493be-90d1-453e-bdde-ef8f6fd8f9f8"},"vehicle_type_id":"4","last_reported":1745269776,"current_range_meters":16000,"station_id":"ce4bh192rcd13ifvqdc0","pricing_plan_id":"cebpf4jnsgd1na2vs0mg"},{"bike_id":"1d9dff03-3c63-4771-84a0-f0292d33f6a8","system_id":"levelo_inurba_marseille","lat":43.30286,"lon":5.37697,"is_reserved":false,"is_disabled":false,"rental_uris":{"android":"levelo://app?vid=1d9dff03-3c63-4771-84a0-f0292d33f6a8","ios":"levelo://app?vid=1d9dff03-3c63-4771-84a0-f0292d33f6a8"},"vehicle_type_id":"4","last_reported":1745269776,"current_range_meters":15200,"station_id":"ce4bguh2rcd13ifvqcj0","pricing_plan_id":"cebpf4jnsgd1na2vs0mg"},{"bike_id":"fa15de24-cca3-4579-a312-f78f5ae8f6e1","system_id":"levelo_inurba_marseille","lat":43.24087,"lon":5.37767,"is_reserved":false,"is_disabled":false,"rental_uris":{"android":"levelo://app?vid=fa15de24-cca3-4579-a312-f78f5ae8f6e1","ios":"levelo://app?vid=fa15de24-cca3-4579-a312-f78f5ae8f6e1"},"vehicle_type_id":"4","last_reported":1745269776,"current_range_meters":16000,"station_id":"ce4bhnp2rcd13ifvqgvg","pricing_plan_id":"cebpf4jnsgd1na2vs0mg"},{"bike_id":"8e83c5b2-a197-423b-adee-b8a5d9068476","system_id":"levelo_inurba_marseille","lat":43.29408,"lon":5.38628,"is_reserved":false,"is_disabled":false,"rental_uris":{"android":"levelo://app?vid=8e83c5b2-a197-423b-adee-b8a5d9068476","ios":"levelo://app?vid=8e83c5b2-a197-423b-adee-b8a5d9068476"},"vehicle_type_id":"4","last_reported":1745269776,"current_range_meters":16000,"station_id":"ce4bh2h2rcd13ifvqdh0","pricing_plan_id":"cebpf4jnsgd1na2vs0mg"},{"bike_id":"0b220d75-68f8-45ed-a4ba-a58468c427bf","system_id":"levelo_inurba_marseille","lat":43.30597,"lon":5.3936,"is_reserved":false,"is_disabled":false,"rental_uris":{"android":"levelo://app?vid=0b220d75-68f8-45ed-a4ba-a58468c427bf","ios":"levelo://app?vid=0b220d75-68f8-45ed-a4ba-a58468c427bf"},"vehicle_type_id":"4","last_reported":1745269776,"current_range_meters":16000,"station_id":"ce4bh0p2rcd13ifvqd80","pricing_plan_id":"cebpf4jnsgd1na2vs0mg"},{"bike_id":"550d508d-030e-4766-b8c3-c19b3655c09d","system_id":"levelo_inurba_marseille","lat":43.30962,"lon":5.40168,"is_reserved":false,"is_disabled":false,"rental_uris":{"android":"levelo://app?vid=550d508d-030e-4766-b8c3-c19b3655c09d","ios":"levelo://app?vid=550d508d-030e-4766-b8c3-c19b3655c09d"},"vehicle_type_id":"4","last_reported":1745269776,"current_range_meters":16400,"station_id":"ce4bgvp2rcd13ifvqct0","pricing_plan_id":"cebpf4jnsgd1na2vs0mg"},{"bike_id":"b80ff78e-a74b-4985-afe3-790db9257846","system_id":"levelo_inurba_marseille","lat":43.29534,"lon":5.38546,"is_reserved":false,"is_disabled":false,"rental_uris":{"android":"levelo://app?vid=b80ff78e-a74b-4985-afe3-790db9257846","ios":"levelo://app?vid=b80ff78e-a74b-4985-afe3-790db9257846"},"vehicle_type_id":"4","last_reported":1745269776,"current_range_meters":16400,"station_id":"ce4bgih2rcd13ifvqba0","pricing_plan_id":"cebpf4jnsgd1na2vs0mg"},{"bike_id":"6b4282bc-9432-4c95-847b-7452cf13e716","system_id":"levelo_inurba_marseille","lat":43.2934,"lon":5.37117,"is_reserved":false,"is_disabled":true,"rental_uris":{"android":"levelo://app?vid=6b4282bc-9432-4c95-847b-7452cf13e716","ios":"levelo://app?vid=6b4282bc-9432-4c95-847b-7452cf13e716"},"vehicle_type_id":"4","last_reported":1745269776,"current_range_meters":16400,"station_id":"","pricing_plan_id":"cebpf4jnsgd1na2vs0mg"},{"bike_id":"2a35ab10-f416-439f-a4fa-784873cd587f","system_id":"levelo_inurba_marseille","lat":43.26959,"lon":5.38627,"is_reserved":false,"is_disabled":true,"rental_uris":{"android":"levelo://app?vid=2a35ab10-f416-439f-a4fa-784873cd587f","ios":"levelo://app?vid=2a35ab10-f416-439f-a4fa-784873cd587f"},"vehicle_type_id":"4","last_reported":1745269776,"current_range_meters":16400,"station_id":"ce4bhh92rcd13ifvqfh0","pricing_plan_id":"cebpf4jnsgd1na2vs0mg"},{"bike_id":"4498d547-34c3-46ea-ad7a-cd866b8a575b","system_id":"levelo_inurba_marseille","lat":43.30337,"lon":5.40433,"is_reserved":false,"is_disabled":false,"rental_uris":{"android":"levelo://app?vid=4498d547-34c3-46ea-ad7a-cd866b8a575b","ios":"levelo://app?vid=4498d547-34c3-46ea-ad7a-cd866b8a575b"},"vehicle_type_id":"4","last_reported":1745269776,"current_range_meters":16400,"station_id":"ce4bh012rcd13ifvqd10","pricing_plan_id":"cebpf4jnsgd1na2vs0mg"},{"bike_id":"12505a0a-b14f-4f59-9be1-55ce43130db1","system_id":"levelo_inurba_marseille","lat":43.29591,"lon":5.38093,"is_reserved":false,"is_disabled":true,"rental_uris":{"android":"levelo://app?vid=12505a0a-b14f-4f59-9be1-55ce43130db1","ios":"levelo://app?vid=12505a0a-b14f-4f59-9be1-55ce43130db1"},"vehicle_type_id":"4","last_reported":1745269776,"current_range_meters":16400,"station_id":"ce4bgl12rcd13ifvqbo0","pricing_plan_id":"cebpf4jnsgd1na2vs0mg"},{"bike_id":"d1bab3a3-d105-4848-95e6-766bc72e11df","system_id":"levelo_inurba_marseille","lat":43.30899,"lon":5.39646,"is_reserved":false,"is_disabled":false,"rental_uris":{"android":"levelo://app?vid=d1bab3a3-d105-4848-95e6-766bc72e11df","ios":"levelo://app?vid=d1bab3a3-d105-4848-95e6-766bc72e11df"},"vehicle_type_id":"4","last_reported":1745269776,"current_range_meters":16400,"station_id":"ce4bh012rcd13ifvqcv0","pricing_plan_id":"cebpf4jnsgd1na2vs0mg"},{"bike_id":"b21c73ab-4359-4f8e-bb95-e8439a292e7b","system_id":"levelo_inurba_marseille","lat":43.27185,"lon":5.40984,"is_reserved":false,"is_disabled":false,"rental_uris":{"android":"levelo://app?vid=b21c73ab-4359-4f8e-bb95-e8439a292e7b","ios":"levelo://app?vid=b21c73ab-4359-4f8e-bb95-e8439a292e7b"},"vehicle_type_id":"4","last_reported":1745269776,"current_range_meters":16400,"station_id":"ce4bhl12rcd13ifvqgf0","pricing_plan_id":"cebpf4jnsgd1na2vs0mg"},{"bike_id":"793d4855-79b7-4453-86f0-e82837376e7d","system_id":"levelo_inurba_marseille","lat":43.2757,"lon":5.38416,"is_reserved":false,"is_disabled":false,"rental_uris":{"android":"levelo://app?vid=793d4855-79b7-4453-86f0-e82837376e7d","ios":"levelo://app?vid=793d4855-79b7-4453-86f0-e82837376e7d"},"vehicle_type_id":"4","last_reported":1745269776,"current_range_meters":16000,"station_id":"ce4bhh92rcd13ifvqfi0","pricing_plan_id":"cebpf4jnsgd1na2vs0mg"},{"bike_id":"45480439-b5c3-4e5a-9735-d67e2b5e8704","system_id":"levelo_inurba_marseille","lat":43.28702,"lon":5.37391,"is_reserved":false,"is_disabled":false,"rental_uris":{"android":"levelo://app?vid=45480439-b5c3-4e5a-9735-d67e2b5e8704","ios":"levelo://app?vid=45480439-b5c3-4e5a-9735-d67e2b5e8704"},"vehicle_type_id":"4","last_reported":1745269776,"current_range_meters":16400,"station_id":"ce4bh3p2rcd13ifvqdq0","pricing_plan_id":"cebpf4jnsgd1na2vs0mg"},{"bike_id":"f25d8672-7640-4033-8cc4-f80944c4dd44","system_id":"levelo_inurba_marseille","lat":43.27238,"lon":5.40106,"is_reserved":false,"is_disabled":false,"rental_uris":{"android":"levelo://app?vid=f25d8672-7640-4033-8cc4-f80944c4dd44","ios":"levelo://app?vid=f25d8672-7640-4033-8cc4-f80944c4dd44"},"vehicle_type_id":"4","last_reported":1745269776,"current_range_meters":16800,"station_id":"","pricing_plan_id":"cebpf4jnsgd1na2vs0mg"},{"bike_id":"f9df3a38-46c8-43ba-baa8-fd1c3fd5ea8d","system_id":"levelo_inurba_marseille","lat":43.26809,"lon":5.40262,"is_reserved":false,"is_disabled":false,"rental_uris":{"android":"levelo://app?vid=f9df3a38-46c8-43ba-baa8-fd1c3fd5ea8d","ios":"levelo://app?vid=f9df3a38-46c8-43ba-baa8-fd1c3fd5ea8d"},"vehicle_type_id":"4","last_reported":1745269776,"current_range_meters":16800,"station_id":"ce501612rcd8frsf0b60","pricing_plan_id":"cebpf4jnsgd1na2vs0mg"},{"bike_id":"a756bae3-49c1-4d6c-89e8-fcb7b0e7d2e2","system_id":"levelo_inurba_marseille","lat":43.29029,"lon":5.35934,"is_reserved":false,"is_disabled":true,"rental_uris":{"android":"levelo://app?vid=a756bae3-49c1-4d6c-89e8-fcb7b0e7d2e2","ios":"levelo://app?vid=a756bae3-49c1-4d6c-89e8-fcb7b0e7d2e2"},"vehicle_type_id":"4","last_reported":1745269776,"current_range_meters":16800,"station_id":"ce4bha92rcd13ifvqeg0","pricing_plan_id":"cebpf4jnsgd1na2vs0mg"},{"bike_id":"283d465d-89e2-4db1-9f77-5fdc7a1f0ffc","system_id":"levelo_inurba_marseille","lat":43.28702,"lon":5.39993,"is_reserved":false,"is_disabled":false,"rental_uris":{"android":"levelo://app?vid=283d465d-89e2-4db1-9f77-5fdc7a1f0ffc","ios":"levelo://app?vid=283d465d-89e2-4db1-9f77-5fdc7a1f0ffc"},"vehicle_type_id":"4","last_reported":1745269776,"current_range_meters":16800,"station_id":"ce4bho92rcd13ifvqh3g","pricing_plan_id":"cebpf4jnsgd1na2vs0mg"},{"bike_id":"a5255d90-225f-40e7-9173-60478be8a6fd","system_id":"levelo_inurba_marseille","lat":43.295262,"lon":5.385339,"is_reserved":false,"is_disabled":false,"rental_uris":{"android":"levelo://app?vid=a5255d90-225f-40e7-9173-60478be8a6fd","ios":"levelo://app?vid=a5255d90-225f-40e7-9173-60478be8a6fd"},"vehicle_type_id":"4","last_reported":1745269776,"current_range_meters":16800,"station_id":"ce4bgih2rcd13ifvqba0","pricing_plan_id":"cebpf4jnsgd1na2vs0mg"},{"bike_id":"38459f6a-034c-4bc7-9ad6-a5f483ad2390","system_id":"levelo_inurba_marseille","lat":43.24397,"lon":5.37042,"is_reserved":false,"is_disabled":false,"rental_uris":{"android":"levelo://app?vid=38459f6a-034c-4bc7-9ad6-a5f483ad2390","ios":"levelo://app?vid=38459f6a-034c-4bc7-9ad6-a5f483ad2390"},"vehicle_type_id":"4","last_reported":1745269776,"current_range_meters":16800,"station_id":"ce4bhhh2rcd13ifvqfk0","pricing_plan_id":"cebpf4jnsgd1na2vs0mg"},{"bike_id":"0f64adcb-2459-42cc-b90e-1e660a23ec79","system_id":"levelo_inurba_marseille","lat":43.29298,"lon":5.40118,"is_reserved":false,"is_disabled":false,"rental_uris":{"android":"levelo://app?vid=0f64adcb-2459-42cc-b90e-1e660a23ec79","ios":"levelo://app?vid=0f64adcb-2459-42cc-b90e-1e660a23ec79"},"vehicle_type_id":"4","last_reported":1745269776,"current_range_meters":16800,"station_id":"ce4bh312rcd13ifvqdk0","pricing_plan_id":"cebpf4jnsgd1na2vs0mg"},{"bike_id":"322cb3bd-1b2c-4ec8-9cd5-563729b64d42","system_id":"levelo_inurba_marseille","lat":43.24088,"lon":5.37754,"is_reserved":false,"is_disabled":false,"rental_uris":{"android":"levelo://app?vid=322cb3bd-1b2c-4ec8-9cd5-563729b64d42","ios":"levelo://app?vid=322cb3bd-1b2c-4ec8-9cd5-563729b64d42"},"vehicle_type_id":"4","last_reported":1745269776,"current_range_meters":17200,"station_id":"ce4bhnp2rcd13ifvqgvg","pricing_plan_id":"cebpf4jnsgd1na2vs0mg"},{"bike_id":"013b0bba-3a8e-4176-aec5-9b030be1a006","system_id":"levelo_inurba_marseille","lat":43.31731,"lon":5.37776,"is_reserved":false,"is_disabled":false,"rental_uris":{"android":"levelo://app?vid=013b0bba-3a8e-4176-aec5-9b030be1a006","ios":"levelo://app?vid=013b0bba-3a8e-4176-aec5-9b030be1a006"},"vehicle_type_id":"4","last_reported":1745269776,"current_range_meters":17200,"station_id":"ce4bgth2rcd13ifvqch0","pricing_plan_id":"cebpf4jnsgd1na2vs0mg"},{"bike_id":"7b2dc864-a4e9-468c-9cee-f3075a20977d","system_id":"levelo_inurba_marseille","lat":43.31463,"lon":5.37373,"is_reserved":false,"is_disabled":true,"rental_uris":{"android":"levelo://app?vid=7b2dc864-a4e9-468c-9cee-f3075a20977d","ios":"levelo://app?vid=7b2dc864-a4e9-468c-9cee-f3075a20977d"},"vehicle_type_id":"4","last_reported":1745269776,"current_range_meters":17200,"station_id":"","pricing_plan_id":"cebpf4jnsgd1na2vs0mg"},{"bike_id":"5a968a37-0ff6-48cf-b3d3-0e5a96c4904f","system_id":"levelo_inurba_marseille","lat":43.29258,"lon":5.37612,"is_reserved":false,"is_disabled":false,"rental_uris":{"android":"levelo://app?vid=5a968a37-0ff6-48cf-b3d3-0e5a96c4904f","ios":"levelo://app?vid=5a968a37-0ff6-48cf-b3d3-0e5a96c4904f"},"vehicle_type_id":"4","last_reported":1745269776,"current_range_meters":17200,"station_id":"ce4bgi12rcd13ifvqb80","pricing_plan_id":"cebpf4jnsgd1na2vs0mg"},{"bike_id":"ce6cef23-88f1-4c43-b327-d96642477535","system_id":"levelo_inurba_marseille","lat":43.28731,"lon":5.36076,"is_reserved":false,"is_disabled":false,"rental_uris":{"android":"levelo://app?vid=ce6cef23-88f1-4c43-b327-d96642477535","ios":"levelo://app?vid=ce6cef23-88f1-4c43-b327-d96642477535"},"vehicle_type_id":"4","last_reported":1745269776,"current_range_meters":16800,"station_id":"cki0cbj6b192h4jlfktg","pricing_plan_id":"cebpf4jnsgd1na2vs0mg"},{"bike_id":"457b4425-2143-4d8d-ab07-86e97485e358","system_id":"levelo_inurba_marseille","lat":43.32003,"lon":5.38162,"is_reserved":false,"is_disabled":false,"rental_uris":{"android":"levelo://app?vid=457b4425-2143-4d8d-ab07-86e97485e358","ios":"levelo://app?vid=457b4425-2143-4d8d-ab07-86e97485e358"},"vehicle_type_id":"4","last_reported":1745269776,"current_range_meters":17600,"station_id":"ce4bhr12rcd13ifvqhpg","pricing_plan_id":"cebpf4jnsgd1na2vs0mg"},{"bike_id":"67f63153-bd63-4c57-a2cb-95fa14067c52","system_id":"levelo_inurba_marseille","lat":43.29522,"lon":5.3939,"is_reserved":false,"is_disabled":false,"rental_uris":{"android":"levelo://app?vid=67f63153-bd63-4c57-a2cb-95fa14067c52","ios":"levelo://app?vid=67f63153-bd63-4c57-a2cb-95fa14067c52"},"vehicle_type_id":"4","last_reported":1745269776,"current_range_meters":17600,"station_id":"ce4bh292rcd13ifvqdf0","pricing_plan_id":"cebpf4jnsgd1na2vs0mg"},{"bike_id":"b94ce143-5dd7-45a3-b111-19f8d55c0056","system_id":"levelo_inurba_marseille","lat":43.3021,"lon":5.43778,"is_reserved":false,"is_disabled":false,"rental_uris":{"android":"levelo://app?vid=b94ce143-5dd7-45a3-b111-19f8d55c0056","ios":"levelo://app?vid=b94ce143-5dd7-45a3-b111-19f8d55c0056"},"vehicle_type_id":"4","last_reported":1745269776,"current_range_meters":17600,"station_id":"","pricing_plan_id":"cebpf4jnsgd1na2vs0mg"},{"bike_id":"c68b5611-d95e-4f29-9773-84aa1d9ee827","system_id":"levelo_inurba_marseille","lat":43.28475,"lon":5.38423,"is_reserved":false,"is_disabled":false,"rental_uris":{"android":"levelo://app?vid=c68b5611-d95e-4f29-9773-84aa1d9ee827","ios":"levelo://app?vid=c68b5611-d95e-4f29-9773-84aa1d9ee827"},"vehicle_type_id":"4","last_reported":1745269776,"current_range_meters":17600,"station_id":"ce4bh512rcd13ifvqe3g","pricing_plan_id":"cebpf4jnsgd1na2vs0mg"},{"bike_id":"8ae7ee6f-84b2-4de0-95cd-d00f3383e9a2","system_id":"levelo_inurba_marseille","lat":43.29196,"lon":5.39301,"is_reserved":false,"is_disabled":false,"rental_uris":{"android":"levelo://app?vid=8ae7ee6f-84b2-4de0-95cd-d00f3383e9a2","ios":"levelo://app?vid=8ae7ee6f-84b2-4de0-95cd-d00f3383e9a2"},"vehicle_type_id":"4","last_reported":1745269776,"current_range_meters":17600,"station_id":"ce4bh192rcd13ifvqdd0","pricing_plan_id":"cebpf4jnsgd1na2vs0mg"},{"bike_id":"f4217dd9-55f7-498f-a5c0-8f8701b3bd47","system_id":"levelo_inurba_marseille","lat":43.2963,"lon":5.40597,"is_reserved":false,"is_disabled":false,"rental_uris":{"android":"levelo://app?vid=f4217dd9-55f7-498f-a5c0-8f8701b3bd47","ios":"levelo://app?vid=f4217dd9-55f7-498f-a5c0-8f8701b3bd47"},"vehicle_type_id":"4","last_reported":1745269776,"current_range_meters":17600,"station_id":"ce4bh0h2rcd13ifvqd60","pricing_plan_id":"cebpf4jnsgd1na2vs0mg"},{"bike_id":"48dda090-77a6-4d79-a3ef-6b0aebd79809","system_id":"levelo_inurba_marseille","lat":43.29558,"lon":5.42283,"is_reserved":false,"is_disabled":false,"rental_uris":{"android":"levelo://app?vid=48dda090-77a6-4d79-a3ef-6b0aebd79809","ios":"levelo://app?vid=48dda090-77a6-4d79-a3ef-6b0aebd79809"},"vehicle_type_id":"4","last_reported":1745269776,"current_range_meters":17600,"station_id":"ce4bhph2rcd13ifvqhdg","pricing_plan_id":"cebpf4jnsgd1na2vs0mg"},{"bike_id":"d5312e91-790a-4952-9d4c-970327cc40c0","system_id":"levelo_inurba_marseille","lat":43.31492,"lon":5.37306,"is_reserved":false,"is_disabled":false,"rental_uris":{"android":"levelo://app?vid=d5312e91-790a-4952-9d4c-970327cc40c0","ios":"levelo://app?vid=d5312e91-790a-4952-9d4c-970327cc40c0"},"vehicle_type_id":"4","last_reported":1745269776,"current_range_meters":17600,"station_id":"ce4bgt12rcd13ifvqcd0","pricing_plan_id":"cebpf4jnsgd1na2vs0mg"},{"bike_id":"85c5e05e-7712-409a-829b-75043230d454","system_id":"levelo_inurba_marseille","lat":43.3095,"lon":5.39029,"is_reserved":false,"is_disabled":false,"rental_uris":{"android":"levelo://app?vid=85c5e05e-7712-409a-829b-75043230d454","ios":"levelo://app?vid=85c5e05e-7712-409a-829b-75043230d454"},"vehicle_type_id":"4","last_reported":1745269776,"current_range_meters":17600,"station_id":"ce4bgup2rcd13ifvqco0","pricing_plan_id":"cebpf4jnsgd1na2vs0mg"},{"bike_id":"693cb0b7-96dc-4a77-96a9-2f447a282a6f","system_id":"levelo_inurba_marseille","lat":43.30212,"lon":5.39468,"is_reserved":false,"is_disabled":false,"rental_uris":{"android":"levelo://app?vid=693cb0b7-96dc-4a77-96a9-2f447a282a6f","ios":"levelo://app?vid=693cb0b7-96dc-4a77-96a9-2f447a282a6f"},"vehicle_type_id":"4","last_reported":1745269776,"current_range_meters":18000,"station_id":"ce4bh0p2rcd13ifvqd70","pricing_plan_id":"cebpf4jnsgd1na2vs0mg"},{"bike_id":"de9704f9-bc65-4f5a-9c6b-e4c83851fc93","system_id":"levelo_inurba_marseille","lat":43.21763,"lon":5.34595,"is_reserved":false,"is_disabled":true,"rental_uris":{"android":"levelo://app?vid=de9704f9-bc65-4f5a-9c6b-e4c83851fc93","ios":"levelo://app?vid=de9704f9-bc65-4f5a-9c6b-e4c83851fc93"},"vehicle_type_id":"4","last_reported":1745269776,"current_range_meters":17600,"station_id":"","pricing_plan_id":"cebpf4jnsgd1na2vs0mg"},{"bike_id":"1f1f9885-6e62-4243-a5b0-45be9ddf4073","system_id":"levelo_inurba_marseille","lat":43.23958,"lon":5.36629,"is_reserved":false,"is_disabled":true,"rental_uris":{"android":"levelo://app?vid=1f1f9885-6e62-4243-a5b0-45be9ddf4073","ios":"levelo://app?vid=1f1f9885-6e62-4243-a5b0-45be9ddf4073"},"vehicle_type_id":"4","last_reported":1745269776,"current_range_meters":17600,"station_id":"ce4bhi12rcd13ifvqfp0","pricing_plan_id":"cebpf4jnsgd1na2vs0mg"},{"bike_id":"1b06bef2-142e-4557-810a-fc865fa25a0b","system_id":"levelo_inurba_marseille","lat":43.26549,"lon":5.37288,"is_reserved":false,"is_disabled":true,"rental_uris":{"android":"levelo://app?vid=1b06bef2-142e-4557-810a-fc865fa25a0b","ios":"levelo://app?vid=1b06bef2-142e-4557-810a-fc865fa25a0b"},"vehicle_type_id":"4","last_reported":1745269776,"current_range_meters":18000,"station_id":"ce4bhg12rcd13ifvqf70","pricing_plan_id":"cebpf4jnsgd1na2vs0mg"},{"bike_id":"2118672d-b962-419d-b54b-f9eed6f77cab","system_id":"levelo_inurba_marseille","lat":43.27575,"lon":5.38427,"is_reserved":false,"is_disabled":false,"rental_uris":{"android":"levelo://app?vid=2118672d-b962-419d-b54b-f9eed6f77cab","ios":"levelo://app?vid=2118672d-b962-419d-b54b-f9eed6f77cab"},"vehicle_type_id":"4","last_reported":1745269776,"current_range_meters":18000,"station_id":"ce4bhh92rcd13ifvqfi0","pricing_plan_id":"cebpf4jnsgd1na2vs0mg"},{"bike_id":"1ccac8aa-4e40-4a7a-a156-2be2194c62ac","system_id":"levelo_inurba_marseille","lat":43.29527,"lon":5.39052,"is_reserved":false,"is_disabled":false,"rental_uris":{"android":"levelo://app?vid=1ccac8aa-4e40-4a7a-a156-2be2194c62ac","ios":"levelo://app?vid=1ccac8aa-4e40-4a7a-a156-2be2194c62ac"},"vehicle_type_id":"4","last_reported":1745269776,"current_range_meters":18000,"station_id":"ce4bh3p2rcd13ifvqdp0","pricing_plan_id":"cebpf4jnsgd1na2vs0mg"},{"bike_id":"88d28b4a-86aa-45b0-8a4b-66593392c29c","system_id":"levelo_inurba_marseille","lat":43.29538,"lon":5.3854,"is_reserved":false,"is_disabled":false,"rental_uris":{"android":"levelo://app?vid=88d28b4a-86aa-45b0-8a4b-66593392c29c","ios":"levelo://app?vid=88d28b4a-86aa-45b0-8a4b-66593392c29c"},"vehicle_type_id":"4","last_reported":1745269776,"current_range_meters":18000,"station_id":"ce4bgih2rcd13ifvqba0","pricing_plan_id":"cebpf4jnsgd1na2vs0mg"},{"bike_id":"70313b9e-da0f-451b-b6d0-252d8447c127","system_id":"levelo_inurba_marseille","lat":43.28731,"lon":5.37403,"is_reserved":false,"is_disabled":false,"rental_uris":{"android":"levelo://app?vid=70313b9e-da0f-451b-b6d0-252d8447c127","ios":"levelo://app?vid=70313b9e-da0f-451b-b6d0-252d8447c127"},"vehicle_type_id":"4","last_reported":1745269776,"current_range_meters":17600,"station_id":"ce4bh3p2rcd13ifvqdq0","pricing_plan_id":"cebpf4jnsgd1na2vs0mg"},{"bike_id":"6c238e44-7be5-423e-a02e-d2afb2f0beec","system_id":"levelo_inurba_marseille","lat":43.31169,"lon":5.38716,"is_reserved":false,"is_disabled":false,"rental_uris":{"android":"levelo://app?vid=6c238e44-7be5-423e-a02e-d2afb2f0beec","ios":"levelo://app?vid=6c238e44-7be5-423e-a02e-d2afb2f0beec"},"vehicle_type_id":"4","last_reported":1745269776,"current_range_meters":18800,"station_id":"ce4bgv12rcd13ifvqcp0","pricing_plan_id":"cebpf4jnsgd1na2vs0mg"},{"bike_id":"fb06bb97-0beb-4259-a4bd-a70e9de2e0bb","system_id":"levelo_inurba_marseille","lat":43.28854,"lon":5.393,"is_reserved":false,"is_disabled":false,"rental_uris":{"android":"levelo://app?vid=fb06bb97-0beb-4259-a4bd-a70e9de2e0bb","ios":"levelo://app?vid=fb06bb97-0beb-4259-a4bd-a70e9de2e0bb"},"vehicle_type_id":"4","last_reported":1745269776,"current_range_meters":18000,"station_id":"ce4bh2p2rcd13ifvqdi0","pricing_plan_id":"cebpf4jnsgd1na2vs0mg"},{"bike_id":"08f7e739-732b-440a-8f8f-2302adaf2bb2","system_id":"levelo_inurba_marseille","lat":43.28562,"lon":5.39497,"is_reserved":false,"is_disabled":false,"rental_uris":{"android":"levelo://app?vid=08f7e739-732b-440a-8f8f-2302adaf2bb2","ios":"levelo://app?vid=08f7e739-732b-440a-8f8f-2302adaf2bb2"},"vehicle_type_id":"4","last_reported":1745269776,"current_range_meters":18000,"station_id":"ce4bh292rcd13ifvqdg0","pricing_plan_id":"cebpf4jnsgd1na2vs0mg"},{"bike_id":"01266c23-b5d9-4a4c-b514-387024ed5b86","system_id":"levelo_inurba_marseille","lat":43.29528,"lon":5.39403,"is_reserved":false,"is_disabled":false,"rental_uris":{"android":"levelo://app?vid=01266c23-b5d9-4a4c-b514-387024ed5b86","ios":"levelo://app?vid=01266c23-b5d9-4a4c-b514-387024ed5b86"},"vehicle_type_id":"4","last_reported":1745269776,"current_range_meters":18800,"station_id":"ce4bh292rcd13ifvqdf0","pricing_plan_id":"cebpf4jnsgd1na2vs0mg"},{"bike_id":"4f750d7b-66e9-4360-bedf-9116f4f068dc","system_id":"levelo_inurba_marseille","lat":43.2921,"lon":5.39313,"is_reserved":false,"is_disabled":false,"rental_uris":{"android":"levelo://app?vid=4f750d7b-66e9-4360-bedf-9116f4f068dc","ios":"levelo://app?vid=4f750d7b-66e9-4360-bedf-9116f4f068dc"},"vehicle_type_id":"4","last_reported":1745269776,"current_range_meters":19200,"station_id":"ce4bh192rcd13ifvqdd0","pricing_plan_id":"cebpf4jnsgd1na2vs0mg"},{"bike_id":"2090c407-bc2e-4abc-aed2-2d68ad1ce7a9","system_id":"levelo_inurba_marseille","lat":43.23963,"lon":5.36645,"is_reserved":false,"is_disabled":false,"rental_uris":{"android":"levelo://app?vid=2090c407-bc2e-4abc-aed2-2d68ad1ce7a9","ios":"levelo://app?vid=2090c407-bc2e-4abc-aed2-2d68ad1ce7a9"},"vehicle_type_id":"4","last_reported":1745269776,"current_range_meters":18000,"station_id":"ce4bhi12rcd13ifvqfp0","pricing_plan_id":"cebpf4jnsgd1na2vs0mg"},{"bike_id":"6d76b210-7504-4ab7-9924-a2b767be8850","system_id":"levelo_inurba_marseille","lat":43.29541,"lon":5.38542,"is_reserved":false,"is_disabled":false,"rental_uris":{"android":"levelo://app?vid=6d76b210-7504-4ab7-9924-a2b767be8850","ios":"levelo://app?vid=6d76b210-7504-4ab7-9924-a2b767be8850"},"vehicle_type_id":"4","last_reported":1745269776,"current_range_meters":19200,"station_id":"ce4bgih2rcd13ifvqba0","pricing_plan_id":"cebpf4jnsgd1na2vs0mg"},{"bike_id":"8986e290-fbc3-4bd4-9658-3e11f23b0575","system_id":"levelo_inurba_marseille","lat":43.29265,"lon":5.40897,"is_reserved":false,"is_disabled":false,"rental_uris":{"android":"levelo://app?vid=8986e290-fbc3-4bd4-9658-3e11f23b0575","ios":"levelo://app?vid=8986e290-fbc3-4bd4-9658-3e11f23b0575"},"vehicle_type_id":"4","last_reported":1745269776,"current_range_meters":19200,"station_id":"ce4bh192rcd13ifvqdc0","pricing_plan_id":"cebpf4jnsgd1na2vs0mg"},{"bike_id":"98b68dbf-f678-49a8-8d86-20fb3b452c2b","system_id":"levelo_inurba_marseille","lat":43.29786,"lon":5.39348,"is_reserved":false,"is_disabled":false,"rental_uris":{"android":"levelo://app?vid=98b68dbf-f678-49a8-8d86-20fb3b452c2b","ios":"levelo://app?vid=98b68dbf-f678-49a8-8d86-20fb3b452c2b"},"vehicle_type_id":"4","last_reported":1745269776,"current_range_meters":18800,"station_id":"chh1huq6cuj3fo74tm60","pricing_plan_id":"cebpf4jnsgd1na2vs0mg"},{"bike_id":"5aee7c73-e3ed-4c26-aa0f-d214150e67e5","system_id":"levelo_inurba_marseille","lat":43.23958,"lon":5.36663,"is_reserved":false,"is_disabled":true,"rental_uris":{"android":"levelo://app?vid=5aee7c73-e3ed-4c26-aa0f-d214150e67e5","ios":"levelo://app?vid=5aee7c73-e3ed-4c26-aa0f-d214150e67e5"},"vehicle_type_id":"4","last_reported":1745269776,"current_range_meters":19200,"station_id":"ce4bhi12rcd13ifvqfp0","pricing_plan_id":"cebpf4jnsgd1na2vs0mg"},{"bike_id":"d01df6a6-b745-430f-aed3-8244c27e3204","system_id":"levelo_inurba_marseille","lat":43.28353,"lon":5.38114,"is_reserved":false,"is_disabled":false,"rental_uris":{"android":"levelo://app?vid=d01df6a6-b745-430f-aed3-8244c27e3204","ios":"levelo://app?vid=d01df6a6-b745-430f-aed3-8244c27e3204"},"vehicle_type_id":"4","last_reported":1745269776,"current_range_meters":19600,"station_id":"ce4bh412rcd13ifvqdr0","pricing_plan_id":"cebpf4jnsgd1na2vs0mg"},{"bike_id":"aba5fb3e-be38-4cda-830a-07f38c54b831","system_id":"levelo_inurba_marseille","lat":43.2795,"lon":5.41046,"is_reserved":false,"is_disabled":false,"rental_uris":{"android":"levelo://app?vid=aba5fb3e-be38-4cda-830a-07f38c54b831","ios":"levelo://app?vid=aba5fb3e-be38-4cda-830a-07f38c54b831"},"vehicle_type_id":"4","last_reported":1745269776,"current_range_meters":19600,"station_id":"ce4bhnp2rcd13ifvqh0g","pricing_plan_id":"cebpf4jnsgd1na2vs0mg"},{"bike_id":"3d1afb70-2282-4946-ba64-9d417eff0bda","system_id":"levelo_inurba_marseille","lat":43.30317,"lon":5.39209,"is_reserved":false,"is_disabled":false,"rental_uris":{"android":"levelo://app?vid=3d1afb70-2282-4946-ba64-9d417eff0bda","ios":"levelo://app?vid=3d1afb70-2282-4946-ba64-9d417eff0bda"},"vehicle_type_id":"4","last_reported":1745269776,"current_range_meters":19600,"station_id":"ce4bgkh2rcd13ifvqbk0","pricing_plan_id":"cebpf4jnsgd1na2vs0mg"},{"bike_id":"26a4f01b-dcba-418a-9c98-70b8a94ab990","system_id":"levelo_inurba_marseille","lat":43.276737,"lon":5.388735,"is_reserved":false,"is_disabled":false,"rental_uris":{"android":"levelo://app?vid=26a4f01b-dcba-418a-9c98-70b8a94ab990","ios":"levelo://app?vid=26a4f01b-dcba-418a-9c98-70b8a94ab990"},"vehicle_type_id":"4","last_reported":1745269776,"current_range_meters":20000,"station_id":"ce4bhi12rcd13ifvqfo0","pricing_plan_id":"cebpf4jnsgd1na2vs0mg"},{"bike_id":"d5df48b0-2cc7-4df6-b9c9-e1a2b35169ea","system_id":"levelo_inurba_marseille","lat":43.28106,"lon":5.37847,"is_reserved":false,"is_disabled":false,"rental_uris":{"android":"levelo://app?vid=d5df48b0-2cc7-4df6-b9c9-e1a2b35169ea","ios":"levelo://app?vid=d5df48b0-2cc7-4df6-b9c9-e1a2b35169ea"},"vehicle_type_id":"4","last_reported":1745269776,"current_range_meters":20000,"station_id":"ce4bha12rcd13ifvqee0","pricing_plan_id":"cebpf4jnsgd1na2vs0mg"},{"bike_id":"98c1a7d8-e077-4271-82f8-42e14f36d05c","system_id":"levelo_inurba_marseille","lat":43.292688,"lon":5.401566,"is_reserved":false,"is_disabled":false,"rental_uris":{"android":"levelo://app?vid=98c1a7d8-e077-4271-82f8-42e14f36d05c","ios":"levelo://app?vid=98c1a7d8-e077-4271-82f8-42e14f36d05c"},"vehicle_type_id":"4","last_reported":1745269776,"current_range_meters":20000,"station_id":"ce4bh312rcd13ifvqdk0","pricing_plan_id":"cebpf4jnsgd1na2vs0mg"},{"bike_id":"9e6c8233-0c25-4acd-a7a8-029b3138d66a","system_id":"levelo_inurba_marseille","lat":43.29522,"lon":5.38517,"is_reserved":false,"is_disabled":false,"rental_uris":{"android":"levelo://app?vid=9e6c8233-0c25-4acd-a7a8-029b3138d66a","ios":"levelo://app?vid=9e6c8233-0c25-4acd-a7a8-029b3138d66a"},"vehicle_type_id":"4","last_reported":1745269776,"current_range_meters":20000,"station_id":"ce4bgih2rcd13ifvqba0","pricing_plan_id":"cebpf4jnsgd1na2vs0mg"},{"bike_id":"c9523ee2-d1a2-40ca-8119-f967239a801e","system_id":"levelo_inurba_marseille","lat":43.258658,"lon":5.398903,"is_reserved":false,"is_disabled":false,"rental_uris":{"android":"levelo://app?vid=c9523ee2-d1a2-40ca-8119-f967239a801e","ios":"levelo://app?vid=c9523ee2-d1a2-40ca-8119-f967239a801e"},"vehicle_type_id":"4","last_reported":1745269776,"current_range_meters":19600,"station_id":"ce4bhl92rcd13ifvqghg","pricing_plan_id":"cebpf4jnsgd1na2vs0mg"},{"bike_id":"79229100-948a-407c-9f3d-d24dc0dcb252","system_id":"levelo_inurba_marseille","lat":43.26556,"lon":5.37374,"is_reserved":false,"is_disabled":true,"rental_uris":{"android":"levelo://app?vid=79229100-948a-407c-9f3d-d24dc0dcb252","ios":"levelo://app?vid=79229100-948a-407c-9f3d-d24dc0dcb252"},"vehicle_type_id":"4","last_reported":1745269776,"current_range_meters":20000,"station_id":"","pricing_plan_id":"cebpf4jnsgd1na2vs0mg"},{"bike_id":"1b84bfe3-cae7-4cb8-be32-9cbeef2186cf","system_id":"levelo_inurba_marseille","lat":43.308833,"lon":5.372009,"is_reserved":false,"is_disabled":false,"rental_uris":{"android":"levelo://app?vid=1b84bfe3-cae7-4cb8-be32-9cbeef2186cf","ios":"levelo://app?vid=1b84bfe3-cae7-4cb8-be32-9cbeef2186cf"},"vehicle_type_id":"4","last_reported":1745269776,"current_range_meters":20000,"station_id":"ce4bguh2rcd13ifvqckg","pricing_plan_id":"cebpf4jnsgd1na2vs0mg"},{"bike_id":"fc5fa76e-3be5-4df9-8c7d-269c9317919e","system_id":"levelo_inurba_marseille","lat":43.28724,"lon":5.39968,"is_reserved":false,"is_disabled":false,"rental_uris":{"android":"levelo://app?vid=fc5fa76e-3be5-4df9-8c7d-269c9317919e","ios":"levelo://app?vid=fc5fa76e-3be5-4df9-8c7d-269c9317919e"},"vehicle_type_id":"4","last_reported":1745269776,"current_range_meters":20000,"station_id":"ce4bho92rcd13ifvqh3g","pricing_plan_id":"cebpf4jnsgd1na2vs0mg"},{"bike_id":"928cd826-17b7-47b0-bdf7-1c8b58a3ee12","system_id":"levelo_inurba_marseille","lat":43.24182,"lon":5.39734,"is_reserved":false,"is_disabled":false,"rental_uris":{"android":"levelo://app?vid=928cd826-17b7-47b0-bdf7-1c8b58a3ee12","ios":"levelo://app?vid=928cd826-17b7-47b0-bdf7-1c8b58a3ee12"},"vehicle_type_id":"4","last_reported":1745269776,"current_range_meters":20000,"station_id":"ce4bhn12rcd13ifvqgpg","pricing_plan_id":"cebpf4jnsgd1na2vs0mg"},{"bike_id":"178a8772-42ae-427d-97c6-cb956128d797","system_id":"levelo_inurba_marseille","lat":43.28019,"lon":5.36934,"is_reserved":false,"is_disabled":false,"rental_uris":{"android":"levelo://app?vid=178a8772-42ae-427d-97c6-cb956128d797","ios":"levelo://app?vid=178a8772-42ae-427d-97c6-cb956128d797"},"vehicle_type_id":"4","last_reported":1745269776,"current_range_meters":20000,"station_id":"ce4bha12rcd13ifvqef0","pricing_plan_id":"cebpf4jnsgd1na2vs0mg"},{"bike_id":"99b87c40-0751-4c05-a832-0d5c755bc822","system_id":"levelo_inurba_marseille","lat":43.292832,"lon":5.401145,"is_reserved":false,"is_disabled":false,"rental_uris":{"android":"levelo://app?vid=99b87c40-0751-4c05-a832-0d5c755bc822","ios":"levelo://app?vid=99b87c40-0751-4c05-a832-0d5c755bc822"},"vehicle_type_id":"4","last_reported":1745269776,"current_range_meters":20400,"station_id":"ce4bh312rcd13ifvqdk0","pricing_plan_id":"cebpf4jnsgd1na2vs0mg"},{"bike_id":"d58e580d-a07a-4ccb-8f68-250bb0d42615","system_id":"levelo_inurba_marseille","lat":43.28441,"lon":5.39179,"is_reserved":false,"is_disabled":false,"rental_uris":{"android":"levelo://app?vid=d58e580d-a07a-4ccb-8f68-250bb0d42615","ios":"levelo://app?vid=d58e580d-a07a-4ccb-8f68-250bb0d42615"},"vehicle_type_id":"4","last_reported":1745269776,"current_range_meters":20000,"station_id":"ce4bhoh2rcd13ifvqh5g","pricing_plan_id":"cebpf4jnsgd1na2vs0mg"},{"bike_id":"bfb6a197-fb29-40f0-a2e8-984f700e18b4","system_id":"levelo_inurba_marseille","lat":43.34151,"lon":5.40913,"is_reserved":false,"is_disabled":false,"rental_uris":{"android":"levelo://app?vid=bfb6a197-fb29-40f0-a2e8-984f700e18b4","ios":"levelo://app?vid=bfb6a197-fb29-40f0-a2e8-984f700e18b4"},"vehicle_type_id":"4","last_reported":1745269776,"current_range_meters":20400,"station_id":"ce4bhqh2rcd13ifvqhlg","pricing_plan_id":"cebpf4jnsgd1na2vs0mg"},{"bike_id":"3eeaa5ee-7282-4572-8d60-4d266c5d718f","system_id":"levelo_inurba_marseille","lat":43.2119,"lon":5.35074,"is_reserved":false,"is_disabled":true,"rental_uris":{"android":"levelo://app?vid=3eeaa5ee-7282-4572-8d60-4d266c5d718f","ios":"levelo://app?vid=3eeaa5ee-7282-4572-8d60-4d266c5d718f"},"vehicle_type_id":"4","last_reported":1745269776,"current_range_meters":20400,"station_id":"","pricing_plan_id":"cebpf4jnsgd1na2vs0mg"},{"bike_id":"1b903b38-38de-4714-9a2c-59836acfa168","system_id":"levelo_inurba_marseille","lat":43.3171,"lon":5.43703,"is_reserved":false,"is_disabled":true,"rental_uris":{"android":"levelo://app?vid=1b903b38-38de-4714-9a2c-59836acfa168","ios":"levelo://app?vid=1b903b38-38de-4714-9a2c-59836acfa168"},"vehicle_type_id":"4","last_reported":1745269776,"current_range_meters":20400,"station_id":"ce4bhp92rcd13ifvqhcg","pricing_plan_id":"cebpf4jnsgd1na2vs0mg"},{"bike_id":"e0ed866d-3aa8-4a3a-887d-34616074a025","system_id":"levelo_inurba_marseille","lat":43.284158,"lon":5.375122,"is_reserved":false,"is_disabled":false,"rental_uris":{"android":"levelo://app?vid=e0ed866d-3aa8-4a3a-887d-34616074a025","ios":"levelo://app?vid=e0ed866d-3aa8-4a3a-887d-34616074a025"},"vehicle_type_id":"4","last_reported":1745269776,"current_range_meters":20400,"station_id":"ce4bgkp2rcd13ifvqbmg","pricing_plan_id":"cebpf4jnsgd1na2vs0mg"},{"bike_id":"9364fd95-471d-4c2c-87b7-5f02fd1dfadd","system_id":"levelo_inurba_marseille","lat":43.28706,"lon":5.39978,"is_reserved":false,"is_disabled":false,"rental_uris":{"android":"levelo://app?vid=9364fd95-471d-4c2c-87b7-5f02fd1dfadd","ios":"levelo://app?vid=9364fd95-471d-4c2c-87b7-5f02fd1dfadd"},"vehicle_type_id":"4","last_reported":1745269776,"current_range_meters":20800,"station_id":"ce4bho92rcd13ifvqh3g","pricing_plan_id":"cebpf4jnsgd1na2vs0mg"},{"bike_id":"e50e43c7-4780-4337-8314-bbb7bb09c90e","system_id":"levelo_inurba_marseille","lat":43.261933,"lon":5.393314,"is_reserved":false,"is_disabled":false,"rental_uris":{"android":"levelo://app?vid=e50e43c7-4780-4337-8314-bbb7bb09c90e","ios":"levelo://app?vid=e50e43c7-4780-4337-8314-bbb7bb09c90e"},"vehicle_type_id":"4","last_reported":1745269776,"current_range_meters":20800,"station_id":"ce4bhh92rcd13ifvqfj0","pricing_plan_id":"cebpf4jnsgd1na2vs0mg"},{"bike_id":"3d64b7f4-80e8-4ca5-a86c-8ffb45e6c72a","system_id":"levelo_inurba_marseille","lat":43.30158,"lon":5.3662,"is_reserved":false,"is_disabled":false,"rental_uris":{"android":"levelo://app?vid=3d64b7f4-80e8-4ca5-a86c-8ffb45e6c72a","ios":"levelo://app?vid=3d64b7f4-80e8-4ca5-a86c-8ffb45e6c72a"},"vehicle_type_id":"4","last_reported":1745269776,"current_range_meters":20800,"station_id":"ce4bgrh2rcd13ifvqc8g","pricing_plan_id":"cebpf4jnsgd1na2vs0mg"},{"bike_id":"c3edb988-ecfd-44d8-8d16-25d1f9ff4259","system_id":"levelo_inurba_marseille","lat":43.30134,"lon":5.38783,"is_reserved":false,"is_disabled":false,"rental_uris":{"android":"levelo://app?vid=c3edb988-ecfd-44d8-8d16-25d1f9ff4259","ios":"levelo://app?vid=c3edb988-ecfd-44d8-8d16-25d1f9ff4259"},"vehicle_type_id":"4","last_reported":1745269776,"current_range_meters":20800,"station_id":"ce4bghh2rcd13ifvqb60","pricing_plan_id":"cebpf4jnsgd1na2vs0mg"},{"bike_id":"7aca1411-9915-4f5d-970a-e8f316d62219","system_id":"levelo_inurba_marseille","lat":43.29185,"lon":5.39319,"is_reserved":false,"is_disabled":false,"rental_uris":{"android":"levelo://app?vid=7aca1411-9915-4f5d-970a-e8f316d62219","ios":"levelo://app?vid=7aca1411-9915-4f5d-970a-e8f316d62219"},"vehicle_type_id":"4","last_reported":1745269776,"current_range_meters":20800,"station_id":"ce4bh192rcd13ifvqdd0","pricing_plan_id":"cebpf4jnsgd1na2vs0mg"},{"bike_id":"befaec85-7c03-44fc-96c0-0047384002cd","system_id":"levelo_inurba_marseille","lat":43.301066,"lon":5.398388,"is_reserved":false,"is_disabled":false,"rental_uris":{"android":"levelo://app?vid=befaec85-7c03-44fc-96c0-0047384002cd","ios":"levelo://app?vid=befaec85-7c03-44fc-96c0-0047384002cd"},"vehicle_type_id":"4","last_reported":1745269776,"current_range_meters":21600,"station_id":"ce4bh0h2rcd13ifvqd40","pricing_plan_id":"cebpf4jnsgd1na2vs0mg"},{"bike_id":"d99aece5-8200-49bd-8edf-8c66ba7779c9","system_id":"levelo_inurba_marseille","lat":43.24548,"lon":5.39525,"is_reserved":false,"is_disabled":false,"rental_uris":{"android":"levelo://app?vid=d99aece5-8200-49bd-8edf-8c66ba7779c9","ios":"levelo://app?vid=d99aece5-8200-49bd-8edf-8c66ba7779c9"},"vehicle_type_id":"4","last_reported":1745269776,"current_range_meters":21600,"station_id":"ce4bhlp2rcd13ifvqgjg","pricing_plan_id":"cebpf4jnsgd1na2vs0mg"},{"bike_id":"7cd8af3b-f271-4e7a-8696-3ba2d8c8c9ce","system_id":"levelo_inurba_marseille","lat":43.28486,"lon":5.38435,"is_reserved":false,"is_disabled":false,"rental_uris":{"android":"levelo://app?vid=7cd8af3b-f271-4e7a-8696-3ba2d8c8c9ce","ios":"levelo://app?vid=7cd8af3b-f271-4e7a-8696-3ba2d8c8c9ce"},"vehicle_type_id":"4","last_reported":1745269776,"current_range_meters":21600,"station_id":"ce4bh512rcd13ifvqe3g","pricing_plan_id":"cebpf4jnsgd1na2vs0mg"},{"bike_id":"84ed2209-c14c-412e-8cfb-2294751b7fff","system_id":"levelo_inurba_marseille","lat":43.30329,"lon":5.40439,"is_reserved":false,"is_disabled":false,"rental_uris":{"android":"levelo://app?vid=84ed2209-c14c-412e-8cfb-2294751b7fff","ios":"levelo://app?vid=84ed2209-c14c-412e-8cfb-2294751b7fff"},"vehicle_type_id":"4","last_reported":1745269776,"current_range_meters":21600,"station_id":"ce4bh012rcd13ifvqd10","pricing_plan_id":"cebpf4jnsgd1na2vs0mg"},{"bike_id":"d3a6d453-6377-4261-93a3-9627154adf0b","system_id":"levelo_inurba_marseille","lat":43.30798,"lon":5.38144,"is_reserved":false,"is_disabled":false,"rental_uris":{"android":"levelo://app?vid=d3a6d453-6377-4261-93a3-9627154adf0b","ios":"levelo://app?vid=d3a6d453-6377-4261-93a3-9627154adf0b"},"vehicle_type_id":"4","last_reported":1745269776,"current_range_meters":22000,"station_id":"ce4bgt12rcd13ifvqce0","pricing_plan_id":"cebpf4jnsgd1na2vs0mg"},{"bike_id":"ed825042-82e5-45e2-ab72-98341c75fc30","system_id":"levelo_inurba_marseille","lat":43.25081,"lon":5.39518,"is_reserved":false,"is_disabled":false,"rental_uris":{"android":"levelo://app?vid=ed825042-82e5-45e2-ab72-98341c75fc30","ios":"levelo://app?vid=ed825042-82e5-45e2-ab72-98341c75fc30"},"vehicle_type_id":"4","last_reported":1745269776,"current_range_meters":22000,"station_id":"ce4bhm12rcd13ifvqgkg","pricing_plan_id":"cebpf4jnsgd1na2vs0mg"},{"bike_id":"35c9b79c-d4e9-4a15-a3ed-480756ed24db","system_id":"levelo_inurba_marseille","lat":43.31498,"lon":5.37295,"is_reserved":false,"is_disabled":false,"rental_uris":{"android":"levelo://app?vid=35c9b79c-d4e9-4a15-a3ed-480756ed24db","ios":"levelo://app?vid=35c9b79c-d4e9-4a15-a3ed-480756ed24db"},"vehicle_type_id":"4","last_reported":1745269776,"current_range_meters":22000,"station_id":"ce4bgt12rcd13ifvqcd0","pricing_plan_id":"cebpf4jnsgd1na2vs0mg"},{"bike_id":"1fb71ef3-a7f4-476e-b74f-9a9a8fc4664d","system_id":"levelo_inurba_marseille","lat":43.30894,"lon":5.39645,"is_reserved":false,"is_disabled":false,"rental_uris":{"android":"levelo://app?vid=1fb71ef3-a7f4-476e-b74f-9a9a8fc4664d","ios":"levelo://app?vid=1fb71ef3-a7f4-476e-b74f-9a9a8fc4664d"},"vehicle_type_id":"4","last_reported":1745269776,"current_range_meters":22000,"station_id":"ce4bh012rcd13ifvqcv0","pricing_plan_id":"cebpf4jnsgd1na2vs0mg"},{"bike_id":"19bd6481-e42b-4f2f-8596-4963547c74ad","system_id":"levelo_inurba_marseille","lat":43.31484,"lon":5.37301,"is_reserved":false,"is_disabled":false,"rental_uris":{"android":"levelo://app?vid=19bd6481-e42b-4f2f-8596-4963547c74ad","ios":"levelo://app?vid=19bd6481-e42b-4f2f-8596-4963547c74ad"},"vehicle_type_id":"4","last_reported":1745269776,"current_range_meters":22000,"station_id":"ce4bgt12rcd13ifvqcd0","pricing_plan_id":"cebpf4jnsgd1na2vs0mg"},{"bike_id":"28f798a3-56f2-4fbf-b12d-c540c66dbab9","system_id":"levelo_inurba_marseille","lat":43.33766,"lon":5.37399,"is_reserved":false,"is_disabled":false,"rental_uris":{"android":"levelo://app?vid=28f798a3-56f2-4fbf-b12d-c540c66dbab9","ios":"levelo://app?vid=28f798a3-56f2-4fbf-b12d-c540c66dbab9"},"vehicle_type_id":"4","last_reported":1745269776,"current_range_meters":22000,"station_id":"","pricing_plan_id":"cebpf4jnsgd1na2vs0mg"},{"bike_id":"796f584e-d0e0-46a8-ac52-777edabbde1a","system_id":"levelo_inurba_marseille","lat":43.31118,"lon":5.37763,"is_reserved":false,"is_disabled":false,"rental_uris":{"android":"levelo://app?vid=796f584e-d0e0-46a8-ac52-777edabbde1a","ios":"levelo://app?vid=796f584e-d0e0-46a8-ac52-777edabbde1a"},"vehicle_type_id":"4","last_reported":1745269776,"current_range_meters":22000,"station_id":"ce4bgt92rcd13ifvqcg0","pricing_plan_id":"cebpf4jnsgd1na2vs0mg"},{"bike_id":"0460d7e5-e5f4-42bf-9f32-683111d6f448","system_id":"levelo_inurba_marseille","lat":43.26495,"lon":5.395777,"is_reserved":false,"is_disabled":false,"rental_uris":{"android":"levelo://app?vid=0460d7e5-e5f4-42bf-9f32-683111d6f448","ios":"levelo://app?vid=0460d7e5-e5f4-42bf-9f32-683111d6f448"},"vehicle_type_id":"4","last_reported":1745269776,"current_range_meters":22000,"station_id":"ce4bhi12rcd13ifvqfq0","pricing_plan_id":"cebpf4jnsgd1na2vs0mg"},{"bike_id":"584387b4-187d-4f80-b338-fcdc107989ef","system_id":"levelo_inurba_marseille","lat":43.2486,"lon":5.41178,"is_reserved":false,"is_disabled":false,"rental_uris":{"android":"levelo://app?vid=584387b4-187d-4f80-b338-fcdc107989ef","ios":"levelo://app?vid=584387b4-187d-4f80-b338-fcdc107989ef"},"vehicle_type_id":"4","last_reported":1745269776,"current_range_meters":22000,"station_id":"","pricing_plan_id":"cebpf4jnsgd1na2vs0mg"},{"bike_id":"84532e5f-ad43-4b0d-b733-59fabcc7080d","system_id":"levelo_inurba_marseille","lat":43.30779,"lon":5.37652,"is_reserved":false,"is_disabled":false,"rental_uris":{"android":"levelo://app?vid=84532e5f-ad43-4b0d-b733-59fabcc7080d","ios":"levelo://app?vid=84532e5f-ad43-4b0d-b733-59fabcc7080d"},"vehicle_type_id":"4","last_reported":1745269776,"current_range_meters":21600,"station_id":"ce4bgv92rcd13ifvqcq0","pricing_plan_id":"cebpf4jnsgd1na2vs0mg"},{"bike_id":"22ad8cd8-448d-4f6e-b2fe-740f8d592dd7","system_id":"levelo_inurba_marseille","lat":43.29981,"lon":5.37226,"is_reserved":false,"is_disabled":false,"rental_uris":{"android":"levelo://app?vid=22ad8cd8-448d-4f6e-b2fe-740f8d592dd7","ios":"levelo://app?vid=22ad8cd8-448d-4f6e-b2fe-740f8d592dd7"},"vehicle_type_id":"4","last_reported":1745269776,"current_range_meters":22400,"station_id":"ce4bgr92rcd13ifvqc7g","pricing_plan_id":"cebpf4jnsgd1na2vs0mg"},