{"last_updated":1778602347,"ttl":60,"version":"2.2","data":{"bikes":[{"bike_id":"f270a881-88bb-42e6-9c81-04e976dd784b","system_id":"levelo_inurba_marseille","lat":43.29035,"lon":5.39969,"is_reserved":false,"is_disabled":false,"rental_uris":{"android":"levelo://app?vid=f270a881-88bb-42e6-9c81-04e976dd784b","ios":"levelo://app?vid=f270a881-88bb-42e6-9c81-04e976dd784b"},"vehicle_type_id":"4","last_reported":1778602348,"current_range_meters":2800,"station_id":"ce4bh392rcd13ifvqdm0","pricing_plan_id":"cebpf4jnsgd1na2vs0mg"},{"bike_id":"d86e3fe2-f44c-44d6-8f12-5c2b1cabffee","system_id":"levelo_inurba_marseille","lat":43.27433,"lon":5.39417,"is_reserved":false,"is_disabled":false,"rental_uris":{"android":"levelo://app?vid=d86e3fe2-f44c-44d6-8f12-5c2b1cabffee","ios":"levelo://app?vid=d86e3fe2-f44c-44d6-8f12-5c2b1cabffee"},"vehicle_type_id":"4","last_reported":1778602348,"current_range_meters":2800,"station_id":"ce4bhdp2rcd13ifvqf20","pricing_plan_id":"cebpf4jnsgd1na2vs0mg"},{"bike_id":"59d1c8ca-a1da-4ef6-82e6-cd1ef07f4ded","system_id":"levelo_inurba_marseille","lat":43.2815,"lon":5.4264,"is_reserved":false,"is_disabled":true,"rental_uris":{"android":"levelo://app?vid=59d1c8ca-a1da-4ef6-82e6-cd1ef07f4ded","ios":"levelo://app?vid=59d1c8ca-a1da-4ef6-82e6-cd1ef07f4ded"},"vehicle_type_id":"4","last_reported":1778602348,"current_range_meters":2800,"station_id":"ce4bhnh2rcd13ifvqgug","pricing_plan_id":"cebpf4jnsgd1na2vs0mg"},{"bike_id":"3658913d-b8ff-4a0a-a7e0-0856f8ea4513","system_id":"levelo_inurba_marseille","lat":43.28262,"lon":5.35111,"is_reserved":false,"is_disabled":false,"rental_uris":{"android":"levelo://app?vid=3658913d-b8ff-4a0a-a7e0-0856f8ea4513","ios":"levelo://app?vid=3658913d-b8ff-4a0a-a7e0-0856f8ea4513"},"vehicle_type_id":"4","last_reported":1778602348,"current_range_meters":2800,"station_id":"ce4bhbp2rcd13ifvqerg","pricing_plan_id":"cebpf4jnsgd1na2vs0mg"},{"bike_id":"8f556e0e-50e3-415d-bc0b-bd20df8dcc3e","system_id":"levelo_inurba_marseille","lat":43.22559,"lon":5.41619,"is_reserved":false,"is_disabled":false,"rental_uris":{"android":"levelo://app?vid=8f556e0e-50e3-415d-bc0b-bd20df8dcc3e","ios":"levelo://app?vid=8f556e0e-50e3-415d-bc0b-bd20df8dcc3e"},"vehicle_type_id":"4","last_reported":1778602348,"current_range_meters":2800,"station_id":"st_d2o4gvlbi1j2169b742g","pricing_plan_id":"cebpf4jnsgd1na2vs0mg"},{"bike_id":"5ef7dbea-89fe-469a-b5aa-7acab1d76b25","system_id":"levelo_inurba_marseille","lat":43.29472,"lon":5.38656,"is_reserved":false,"is_disabled":false,"rental_uris":{"android":"levelo://app?vid=5ef7dbea-89fe-469a-b5aa-7acab1d76b25","ios":"levelo://app?vid=5ef7dbea-89fe-469a-b5aa-7acab1d76b25"},"vehicle_type_id":"4","last_reported":1778602348,"current_range_meters":2800,"station_id":"","pricing_plan_id":"cebpf4jnsgd1na2vs0mg"},{"bike_id":"55c2036a-c0a8-4e54-b924-9b4fa3a67520","system_id":"levelo_inurba_marseille","lat":43.29283,"lon":5.37485,"is_reserved":false,"is_disabled":false,"rental_uris":{"android":"levelo://app?vid=55c2036a-c0a8-4e54-b924-9b4fa3a67520","ios":"levelo://app?vid=55c2036a-c0a8-4e54-b924-9b4fa3a67520"},"vehicle_type_id":"4","last_reported":1778602348,"current_range_meters":2800,"station_id":"ce4bgi12rcd13ifvqb70","pricing_plan_id":"cebpf4jnsgd1na2vs0mg"},{"bike_id":"50adcb4d-67ce-4fda-b247-30602c04858e","system_id":"levelo_inurba_marseille","lat":43.27551,"lon":5.38431,"is_reserved":false,"is_disabled":false,"rental_uris":{"android":"levelo://app?vid=50adcb4d-67ce-4fda-b247-30602c04858e","ios":"levelo://app?vid=50adcb4d-67ce-4fda-b247-30602c04858e"},"vehicle_type_id":"4","last_reported":1778602348,"current_range_meters":2800,"station_id":"ce4bhh92rcd13ifvqfi0","pricing_plan_id":"cebpf4jnsgd1na2vs0mg"},{"bike_id":"292c2dd4-93ce-4248-8fe7-aeb57225b4fb","system_id":"levelo_inurba_marseille","lat":43.295784,"lon":5.367349,"is_reserved":false,"is_disabled":false,"rental_uris":{"android":"levelo://app?vid=292c2dd4-93ce-4248-8fe7-aeb57225b4fb","ios":"levelo://app?vid=292c2dd4-93ce-4248-8fe7-aeb57225b4fb"},"vehicle_type_id":"4","last_reported":1778602348,"current_range_meters":2800,"station_id":"ce4bgph2rcd13ifvqc2g","pricing_plan_id":"cebpf4jnsgd1na2vs0mg"},{"bike_id":"1a6f8029-a8ce-403b-a921-fb9ea7b2e428","system_id":"levelo_inurba_marseille","lat":43.295661,"lon":5.37524,"is_reserved":false,"is_disabled":false,"rental_uris":{"android":"levelo://app?vid=1a6f8029-a8ce-403b-a921-fb9ea7b2e428","ios":"levelo://app?vid=1a6f8029-a8ce-403b-a921-fb9ea7b2e428"},"vehicle_type_id":"4","last_reported":1778602348,"current_range_meters":2800,"station_id":"ce4bgh92rcd13ifvqb50","pricing_plan_id":"cebpf4jnsgd1na2vs0mg"},{"bike_id":"506bf8f1-4063-496c-997e-e616c740cb63","system_id":"levelo_inurba_marseille","lat":43.22557,"lon":5.41607,"is_reserved":false,"is_disabled":false,"rental_uris":{"android":"levelo://app?vid=506bf8f1-4063-496c-997e-e616c740cb63","ios":"levelo://app?vid=506bf8f1-4063-496c-997e-e616c740cb63"},"vehicle_type_id":"4","last_reported":1778602348,"current_range_meters":2800,"station_id":"st_d2o4gvlbi1j2169b742g","pricing_plan_id":"cebpf4jnsgd1na2vs0mg"},{"bike_id":"682e9897-b7bb-4264-9759-09783108cc26","system_id":"levelo_inurba_marseille","lat":43.27815,"lon":5.40718,"is_reserved":false,"is_disabled":false,"rental_uris":{"android":"levelo://app?vid=682e9897-b7bb-4264-9759-09783108cc26","ios":"levelo://app?vid=682e9897-b7bb-4264-9759-09783108cc26"},"vehicle_type_id":"4","last_reported":1778602348,"current_range_meters":3200,"station_id":"ce4bhnh2rcd13ifvqgtg","pricing_plan_id":"cebpf4jnsgd1na2vs0mg"},{"bike_id":"278ab637-5efb-4d38-892a-0119aef1e079","system_id":"levelo_inurba_marseille","lat":43.33556,"lon":5.37442,"is_reserved":false,"is_disabled":false,"rental_uris":{"android":"levelo://app?vid=278ab637-5efb-4d38-892a-0119aef1e079","ios":"levelo://app?vid=278ab637-5efb-4d38-892a-0119aef1e079"},"vehicle_type_id":"4","last_reported":1778602348,"current_range_meters":3200,"station_id":"st_d46tts09ee8s73dlu43g","pricing_plan_id":"cebpf4jnsgd1na2vs0mg"},{"bike_id":"6b2ffde5-cc62-4788-856d-44077a678e0f","system_id":"levelo_inurba_marseille","lat":43.32656,"lon":5.40988,"is_reserved":false,"is_disabled":false,"rental_uris":{"android":"levelo://app?vid=6b2ffde5-cc62-4788-856d-44077a678e0f","ios":"levelo://app?vid=6b2ffde5-cc62-4788-856d-44077a678e0f"},"vehicle_type_id":"4","last_reported":1778602348,"current_range_meters":3200,"station_id":"ce4bhpp2rcd13ifvqhgg","pricing_plan_id":"cebpf4jnsgd1na2vs0mg"},{"bike_id":"36a8230c-721c-4328-a9b6-c5c9ffd75279","system_id":"levelo_inurba_marseille","lat":43.33153,"lon":5.37688,"is_reserved":false,"is_disabled":true,"rental_uris":{"android":"levelo://app?vid=36a8230c-721c-4328-a9b6-c5c9ffd75279","ios":"levelo://app?vid=36a8230c-721c-4328-a9b6-c5c9ffd75279"},"vehicle_type_id":"4","last_reported":1778602348,"current_range_meters":3200,"station_id":"st_d46cu089ee8s73dldbu0","pricing_plan_id":"cebpf4jnsgd1na2vs0mg"},{"bike_id":"1cda2a20-a2aa-413c-a4dd-92b6a2a3d744","system_id":"levelo_inurba_marseille","lat":43.26545,"lon":5.37299,"is_reserved":false,"is_disabled":true,"rental_uris":{"android":"levelo://app?vid=1cda2a20-a2aa-413c-a4dd-92b6a2a3d744","ios":"levelo://app?vid=1cda2a20-a2aa-413c-a4dd-92b6a2a3d744"},"vehicle_type_id":"4","last_reported":1778602348,"current_range_meters":3200,"station_id":"ce4bhg12rcd13ifvqf70","pricing_plan_id":"cebpf4jnsgd1na2vs0mg"},{"bike_id":"ace9f39d-dc6b-4bb6-85fb-072f0b39420c","system_id":"levelo_inurba_marseille","lat":43.24428,"lon":5.42519,"is_reserved":false,"is_disabled":false,"rental_uris":{"android":"levelo://app?vid=ace9f39d-dc6b-4bb6-85fb-072f0b39420c","ios":"levelo://app?vid=ace9f39d-dc6b-4bb6-85fb-072f0b39420c"},"vehicle_type_id":"4","last_reported":1778602348,"current_range_meters":3200,"station_id":"st_d4a3vfp97mjs738cd8kg","pricing_plan_id":"cebpf4jnsgd1na2vs0mg"},{"bike_id":"10201d0f-451d-46bf-a373-0544347563e2","system_id":"levelo_inurba_marseille","lat":43.26784,"lon":5.394142,"is_reserved":false,"is_disabled":false,"rental_uris":{"android":"levelo://app?vid=10201d0f-451d-46bf-a373-0544347563e2","ios":"levelo://app?vid=10201d0f-451d-46bf-a373-0544347563e2"},"vehicle_type_id":"4","last_reported":1778602348,"current_range_meters":3200,"station_id":"ce4bhh12rcd13ifvqfg0","pricing_plan_id":"cebpf4jnsgd1na2vs0mg"},{"bike_id":"b930b114-68b2-4641-b098-f22c0d443ea0","system_id":"levelo_inurba_marseille","lat":43.27559,"lon":5.38429,"is_reserved":false,"is_disabled":false,"rental_uris":{"android":"levelo://app?vid=b930b114-68b2-4641-b098-f22c0d443ea0","ios":"levelo://app?vid=b930b114-68b2-4641-b098-f22c0d443ea0"},"vehicle_type_id":"4","last_reported":1778602348,"current_range_meters":3200,"station_id":"ce4bhh92rcd13ifvqfi0","pricing_plan_id":"cebpf4jnsgd1na2vs0mg"},{"bike_id":"07b30fd1-e131-41c8-8fcb-ed255c5ec415","system_id":"levelo_inurba_marseille","lat":43.29205,"lon":5.42691,"is_reserved":false,"is_disabled":false,"rental_uris":{"android":"levelo://app?vid=07b30fd1-e131-41c8-8fcb-ed255c5ec415","ios":"levelo://app?vid=07b30fd1-e131-41c8-8fcb-ed255c5ec415"},"vehicle_type_id":"4","last_reported":1778602348,"current_range_meters":3200,"station_id":"","pricing_plan_id":"cebpf4jnsgd1na2vs0mg"},{"bike_id":"92451cea-094f-48eb-90c7-ab59f50f048d","system_id":"levelo_inurba_marseille","lat":43.33768,"lon":5.3747,"is_reserved":false,"is_disabled":false,"rental_uris":{"android":"levelo://app?vid=92451cea-094f-48eb-90c7-ab59f50f048d","ios":"levelo://app?vid=92451cea-094f-48eb-90c7-ab59f50f048d"},"vehicle_type_id":"4","last_reported":1778602348,"current_range_meters":3600,"station_id":"st_d46tts09ee8s73dlu43g","pricing_plan_id":"cebpf4jnsgd1na2vs0mg"},{"bike_id":"421f86a7-2f48-49ad-8bed-e6cbc8ddf419","system_id":"levelo_inurba_marseille","lat":43.29784,"lon":5.39339,"is_reserved":false,"is_disabled":false,"rental_uris":{"android":"levelo://app?vid=421f86a7-2f48-49ad-8bed-e6cbc8ddf419","ios":"levelo://app?vid=421f86a7-2f48-49ad-8bed-e6cbc8ddf419"},"vehicle_type_id":"4","last_reported":1778602348,"current_range_meters":3600,"station_id":"chh1huq6cuj3fo74tm60","pricing_plan_id":"cebpf4jnsgd1na2vs0mg"},{"bike_id":"173424a7-5b26-4a3c-b3a3-51fb91a806ec","system_id":"levelo_inurba_marseille","lat":43.299587,"lon":5.385007,"is_reserved":false,"is_disabled":false,"rental_uris":{"android":"levelo://app?vid=173424a7-5b26-4a3c-b3a3-51fb91a806ec","ios":"levelo://app?vid=173424a7-5b26-4a3c-b3a3-51fb91a806ec"},"vehicle_type_id":"4","last_reported":1778602348,"current_range_meters":3600,"station_id":"ce4bgj92rcd13ifvqbd0","pricing_plan_id":"cebpf4jnsgd1na2vs0mg"},{"bike_id":"acfc7ecf-c004-4642-9bde-1fa9e32d6f0a","system_id":"levelo_inurba_marseille","lat":43.3143,"lon":5.39796,"is_reserved":false,"is_disabled":false,"rental_uris":{"android":"levelo://app?vid=acfc7ecf-c004-4642-9bde-1fa9e32d6f0a","ios":"levelo://app?vid=acfc7ecf-c004-4642-9bde-1fa9e32d6f0a"},"vehicle_type_id":"4","last_reported":1778602348,"current_range_meters":3600,"station_id":"","pricing_plan_id":"cebpf4jnsgd1na2vs0mg"},{"bike_id":"c540012b-dbab-4ca7-9968-4eabde74da24","system_id":"levelo_inurba_marseille","lat":43.27299,"lon":5.39109,"is_reserved":false,"is_disabled":false,"rental_uris":{"android":"levelo://app?vid=c540012b-dbab-4ca7-9968-4eabde74da24","ios":"levelo://app?vid=c540012b-dbab-4ca7-9968-4eabde74da24"},"vehicle_type_id":"4","last_reported":1778602348,"current_range_meters":3600,"station_id":"ce4bhgp2rcd13ifvqfe0","pricing_plan_id":"cebpf4jnsgd1na2vs0mg"},{"bike_id":"8df2f965-8cc1-425f-ad9d-52217294a15d","system_id":"levelo_inurba_marseille","lat":43.29051,"lon":5.37155,"is_reserved":false,"is_disabled":false,"rental_uris":{"android":"levelo://app?vid=8df2f965-8cc1-425f-ad9d-52217294a15d","ios":"levelo://app?vid=8df2f965-8cc1-425f-ad9d-52217294a15d"},"vehicle_type_id":"4","last_reported":1778602348,"current_range_meters":3600,"station_id":"ce4bh5p2rcd13ifvqe4g","pricing_plan_id":"cebpf4jnsgd1na2vs0mg"},{"bike_id":"69d62a8a-a876-44e7-a8c0-4072eeb94d8a","system_id":"levelo_inurba_marseille","lat":43.292758,"lon":5.368472,"is_reserved":false,"is_disabled":false,"rental_uris":{"android":"levelo://app?vid=69d62a8a-a876-44e7-a8c0-4072eeb94d8a","ios":"levelo://app?vid=69d62a8a-a876-44e7-a8c0-4072eeb94d8a"},"vehicle_type_id":"4","last_reported":1778602348,"current_range_meters":3600,"station_id":"ce4bhbp2rcd13ifvqesg","pricing_plan_id":"cebpf4jnsgd1na2vs0mg"},{"bike_id":"1548b356-0b97-4296-b740-2a3a13a6efc1","system_id":"levelo_inurba_marseille","lat":43.28155,"lon":5.42639,"is_reserved":false,"is_disabled":false,"rental_uris":{"android":"levelo://app?vid=1548b356-0b97-4296-b740-2a3a13a6efc1","ios":"levelo://app?vid=1548b356-0b97-4296-b740-2a3a13a6efc1"},"vehicle_type_id":"4","last_reported":1778602348,"current_range_meters":3600,"station_id":"ce4bhnh2rcd13ifvqgug","pricing_plan_id":"cebpf4jnsgd1na2vs0mg"},{"bike_id":"909dea4f-3efd-4c82-923c-eab642f45536","system_id":"levelo_inurba_marseille","lat":43.28159,"lon":5.42645,"is_reserved":false,"is_disabled":false,"rental_uris":{"android":"levelo://app?vid=909dea4f-3efd-4c82-923c-eab642f45536","ios":"levelo://app?vid=909dea4f-3efd-4c82-923c-eab642f45536"},"vehicle_type_id":"4","last_reported":1778602348,"current_range_meters":3600,"station_id":"ce4bhnh2rcd13ifvqgug","pricing_plan_id":"cebpf4jnsgd1na2vs0mg"},{"bike_id":"25497502-8565-4f4b-b6fe-59f4281e1be7","system_id":"levelo_inurba_marseille","lat":43.255802,"lon":5.382212,"is_reserved":false,"is_disabled":false,"rental_uris":{"android":"levelo://app?vid=25497502-8565-4f4b-b6fe-59f4281e1be7","ios":"levelo://app?vid=25497502-8565-4f4b-b6fe-59f4281e1be7"},"vehicle_type_id":"4","last_reported":1778602348,"current_range_meters":3600,"station_id":"ce4bhih2rcd13ifvqfs0","pricing_plan_id":"cebpf4jnsgd1na2vs0mg"},{"bike_id":"0f19004c-8f50-46f9-a9d9-6bfd8920cac5","system_id":"levelo_inurba_marseille","lat":43.301523,"lon":5.380822,"is_reserved":false,"is_disabled":true,"rental_uris":{"android":"levelo://app?vid=0f19004c-8f50-46f9-a9d9-6bfd8920cac5","ios":"levelo://app?vid=0f19004c-8f50-46f9-a9d9-6bfd8920cac5"},"vehicle_type_id":"4","last_reported":1778602348,"current_range_meters":3600,"station_id":"ce4bgjp2rcd13ifvqbh0","pricing_plan_id":"cebpf4jnsgd1na2vs0mg"},{"bike_id":"57c80a0f-1a8a-42ce-b845-42ce6ef142ca","system_id":"levelo_inurba_marseille","lat":43.25718,"lon":5.410827,"is_reserved":false,"is_disabled":false,"rental_uris":{"android":"levelo://app?vid=57c80a0f-1a8a-42ce-b845-42ce6ef142ca","ios":"levelo://app?vid=57c80a0f-1a8a-42ce-b845-42ce6ef142ca"},"vehicle_type_id":"4","last_reported":1778602348,"current_range_meters":3600,"station_id":"ce4bhkp2rcd13ifvqgd0","pricing_plan_id":"cebpf4jnsgd1na2vs0mg"},{"bike_id":"4813dc02-1c3c-4bb6-a034-fc13be223fb5","system_id":"levelo_inurba_marseille","lat":43.26927,"lon":5.40275,"is_reserved":false,"is_disabled":false,"rental_uris":{"android":"levelo://app?vid=4813dc02-1c3c-4bb6-a034-fc13be223fb5","ios":"levelo://app?vid=4813dc02-1c3c-4bb6-a034-fc13be223fb5"},"vehicle_type_id":"4","last_reported":1778602348,"current_range_meters":3600,"station_id":"cjm6bp8fraef2m0cb0m0","pricing_plan_id":"cebpf4jnsgd1na2vs0mg"},{"bike_id":"8f87a66e-499f-40d3-81f4-ef3b647adc53","system_id":"levelo_inurba_marseille","lat":43.28169,"lon":5.42631,"is_reserved":false,"is_disabled":false,"rental_uris":{"android":"levelo://app?vid=8f87a66e-499f-40d3-81f4-ef3b647adc53","ios":"levelo://app?vid=8f87a66e-499f-40d3-81f4-ef3b647adc53"},"vehicle_type_id":"4","last_reported":1778602348,"current_range_meters":4000,"station_id":"ce4bhnh2rcd13ifvqgug","pricing_plan_id":"cebpf4jnsgd1na2vs0mg"},{"bike_id":"2032497a-882d-45a8-abf0-cc2a01ef32e8","system_id":"levelo_inurba_marseille","lat":43.30131,"lon":5.38786,"is_reserved":false,"is_disabled":false,"rental_uris":{"android":"levelo://app?vid=2032497a-882d-45a8-abf0-cc2a01ef32e8","ios":"levelo://app?vid=2032497a-882d-45a8-abf0-cc2a01ef32e8"},"vehicle_type_id":"4","last_reported":1778602348,"current_range_meters":4000,"station_id":"ce4bghh2rcd13ifvqb60","pricing_plan_id":"cebpf4jnsgd1na2vs0mg"},{"bike_id":"9e1d2641-e11c-42f4-ad6c-b95d97c7b866","system_id":"levelo_inurba_marseille","lat":43.29019,"lon":5.38132,"is_reserved":false,"is_disabled":false,"rental_uris":{"android":"levelo://app?vid=9e1d2641-e11c-42f4-ad6c-b95d97c7b866","ios":"levelo://app?vid=9e1d2641-e11c-42f4-ad6c-b95d97c7b866"},"vehicle_type_id":"4","last_reported":1778602348,"current_range_meters":4000,"station_id":"ce4bh4p2rcd13ifvqe1g","pricing_plan_id":"cebpf4jnsgd1na2vs0mg"},{"bike_id":"050f9de8-59b6-445b-bb86-0cf10a48f989","system_id":"levelo_inurba_marseille","lat":43.24167,"lon":5.36397,"is_reserved":false,"is_disabled":false,"rental_uris":{"android":"levelo://app?vid=050f9de8-59b6-445b-bb86-0cf10a48f989","ios":"levelo://app?vid=050f9de8-59b6-445b-bb86-0cf10a48f989"},"vehicle_type_id":"4","last_reported":1778602348,"current_range_meters":4000,"station_id":"cpo36qri1sfpv3e86is0","pricing_plan_id":"cebpf4jnsgd1na2vs0mg"},{"bike_id":"97337cac-bbfc-4b30-b81e-c49cfab9c9e2","system_id":"levelo_inurba_marseille","lat":43.30418,"lon":5.41281,"is_reserved":false,"is_disabled":false,"rental_uris":{"android":"levelo://app?vid=97337cac-bbfc-4b30-b81e-c49cfab9c9e2","ios":"levelo://app?vid=97337cac-bbfc-4b30-b81e-c49cfab9c9e2"},"vehicle_type_id":"4","last_reported":1778602348,"current_range_meters":4000,"station_id":"ce4bhop2rcd13ifvqh8g","pricing_plan_id":"cebpf4jnsgd1na2vs0mg"},{"bike_id":"c8ebaea3-b1d4-4c8b-9db0-3fcbe9b80f9a","system_id":"levelo_inurba_marseille","lat":43.28938,"lon":5.39627,"is_reserved":false,"is_disabled":false,"rental_uris":{"android":"levelo://app?vid=c8ebaea3-b1d4-4c8b-9db0-3fcbe9b80f9a","ios":"levelo://app?vid=c8ebaea3-b1d4-4c8b-9db0-3fcbe9b80f9a"},"vehicle_type_id":"4","last_reported":1778602348,"current_range_meters":4000,"station_id":"ce4bh3h2rcd13ifvqdn0","pricing_plan_id":"cebpf4jnsgd1na2vs0mg"},{"bike_id":"501bf289-258e-4fa0-bc21-2fe053f0f7a7","system_id":"levelo_inurba_marseille","lat":43.29883,"lon":5.3972,"is_reserved":false,"is_disabled":false,"rental_uris":{"android":"levelo://app?vid=501bf289-258e-4fa0-bc21-2fe053f0f7a7","ios":"levelo://app?vid=501bf289-258e-4fa0-bc21-2fe053f0f7a7"},"vehicle_type_id":"4","last_reported":1778602348,"current_range_meters":4000,"station_id":"ce4bh0h2rcd13ifvqd50","pricing_plan_id":"cebpf4jnsgd1na2vs0mg"},{"bike_id":"4a07e4ad-598a-44f1-9bf1-1ed937d3b1ce","system_id":"levelo_inurba_marseille","lat":43.24815,"lon":5.3745,"is_reserved":false,"is_disabled":false,"rental_uris":{"android":"levelo://app?vid=4a07e4ad-598a-44f1-9bf1-1ed937d3b1ce","ios":"levelo://app?vid=4a07e4ad-598a-44f1-9bf1-1ed937d3b1ce"},"vehicle_type_id":"4","last_reported":1778602348,"current_range_meters":4000,"station_id":"ce4bhgh2rcd13ifvqfb0","pricing_plan_id":"cebpf4jnsgd1na2vs0mg"},{"bike_id":"8a239b91-9d3f-4f6a-8174-547b2302dccb","system_id":"levelo_inurba_marseille","lat":43.27934,"lon":5.41048,"is_reserved":false,"is_disabled":false,"rental_uris":{"android":"levelo://app?vid=8a239b91-9d3f-4f6a-8174-547b2302dccb","ios":"levelo://app?vid=8a239b91-9d3f-4f6a-8174-547b2302dccb"},"vehicle_type_id":"4","last_reported":1778602348,"current_range_meters":4000,"station_id":"ce4bhnp2rcd13ifvqh0g","pricing_plan_id":"cebpf4jnsgd1na2vs0mg"},{"bike_id":"2102436c-f1b2-4d59-b5f9-4de85b0e4de4","system_id":"levelo_inurba_marseille","lat":43.30141,"lon":5.38775,"is_reserved":false,"is_disabled":false,"rental_uris":{"android":"levelo://app?vid=2102436c-f1b2-4d59-b5f9-4de85b0e4de4","ios":"levelo://app?vid=2102436c-f1b2-4d59-b5f9-4de85b0e4de4"},"vehicle_type_id":"4","last_reported":1778602348,"current_range_meters":4000,"station_id":"ce4bghh2rcd13ifvqb60","pricing_plan_id":"cebpf4jnsgd1na2vs0mg"},{"bike_id":"4dfc4bec-0450-436c-bffc-74f3c38acd2e","system_id":"levelo_inurba_marseille","lat":43.292265,"lon":5.393352,"is_reserved":false,"is_disabled":false,"rental_uris":{"android":"levelo://app?vid=4dfc4bec-0450-436c-bffc-74f3c38acd2e","ios":"levelo://app?vid=4dfc4bec-0450-436c-bffc-74f3c38acd2e"},"vehicle_type_id":"4","last_reported":1778602348,"current_range_meters":4000,"station_id":"ce4bh192rcd13ifvqdd0","pricing_plan_id":"cebpf4jnsgd1na2vs0mg"},{"bike_id":"9fff0480-4394-4577-9956-57c804ad04f5","system_id":"levelo_inurba_marseille","lat":43.2926,"lon":5.36857,"is_reserved":false,"is_disabled":false,"rental_uris":{"android":"levelo://app?vid=9fff0480-4394-4577-9956-57c804ad04f5","ios":"levelo://app?vid=9fff0480-4394-4577-9956-57c804ad04f5"},"vehicle_type_id":"4","last_reported":1778602348,"current_range_meters":4000,"station_id":"ce4bhbp2rcd13ifvqesg","pricing_plan_id":"cebpf4jnsgd1na2vs0mg"},{"bike_id":"60923f45-f851-44a0-b39f-7943c4188769","system_id":"levelo_inurba_marseille","lat":43.2656,"lon":5.39065,"is_reserved":false,"is_disabled":false,"rental_uris":{"android":"levelo://app?vid=60923f45-f851-44a0-b39f-7943c4188769","ios":"levelo://app?vid=60923f45-f851-44a0-b39f-7943c4188769"},"vehicle_type_id":"4","last_reported":1778602348,"current_range_meters":4000,"station_id":"ce4bhe12rcd13ifvqf30","pricing_plan_id":"cebpf4jnsgd1na2vs0mg"},{"bike_id":"e4212e66-4049-4964-bb2d-d09dace8dd19","system_id":"levelo_inurba_marseille","lat":43.302119,"lon":5.394734,"is_reserved":false,"is_disabled":false,"rental_uris":{"android":"levelo://app?vid=e4212e66-4049-4964-bb2d-d09dace8dd19","ios":"levelo://app?vid=e4212e66-4049-4964-bb2d-d09dace8dd19"},"vehicle_type_id":"4","last_reported":1778602348,"current_range_meters":4000,"station_id":"ce4bh0p2rcd13ifvqd70","pricing_plan_id":"cebpf4jnsgd1na2vs0mg"},{"bike_id":"63d94166-dc89-46d5-b4d3-595a07629c5c","system_id":"levelo_inurba_marseille","lat":43.32505,"lon":5.38298,"is_reserved":false,"is_disabled":false,"rental_uris":{"android":"levelo://app?vid=63d94166-dc89-46d5-b4d3-595a07629c5c","ios":"levelo://app?vid=63d94166-dc89-46d5-b4d3-595a07629c5c"},"vehicle_type_id":"4","last_reported":1778602348,"current_range_meters":4000,"station_id":"st_d4asgbiv49dc73anf9m0","pricing_plan_id":"cebpf4jnsgd1na2vs0mg"},{"bike_id":"2dcab839-fffc-4e79-b33a-d5c7f531157f","system_id":"levelo_inurba_marseille","lat":43.28789,"lon":5.42422,"is_reserved":false,"is_disabled":false,"rental_uris":{"android":"levelo://app?vid=2dcab839-fffc-4e79-b33a-d5c7f531157f","ios":"levelo://app?vid=2dcab839-fffc-4e79-b33a-d5c7f531157f"},"vehicle_type_id":"4","last_reported":1778602348,"current_range_meters":4000,"station_id":"","pricing_plan_id":"cebpf4jnsgd1na2vs0mg"},{"bike_id":"a75fe784-671a-4d94-8435-a9b4f79a0d3e","system_id":"levelo_inurba_marseille","lat":43.28945,"lon":5.39652,"is_reserved":false,"is_disabled":false,"rental_uris":{"android":"levelo://app?vid=a75fe784-671a-4d94-8435-a9b4f79a0d3e","ios":"levelo://app?vid=a75fe784-671a-4d94-8435-a9b4f79a0d3e"},"vehicle_type_id":"4","last_reported":1778602348,"current_range_meters":4000,"station_id":"ce4bh3h2rcd13ifvqdn0","pricing_plan_id":"cebpf4jnsgd1na2vs0mg"},{"bike_id":"c4a39941-4b69-4697-a3ce-af3df8a6d218","system_id":"levelo_inurba_marseille","lat":43.27647,"lon":5.36262,"is_reserved":false,"is_disabled":false,"rental_uris":{"android":"levelo://app?vid=c4a39941-4b69-4697-a3ce-af3df8a6d218","ios":"levelo://app?vid=c4a39941-4b69-4697-a3ce-af3df8a6d218"},"vehicle_type_id":"4","last_reported":1778602348,"current_range_meters":4000,"station_id":"","pricing_plan_id":"cebpf4jnsgd1na2vs0mg"},{"bike_id":"5b0173aa-23cd-44b1-b8c1-eda455d0190d","system_id":"levelo_inurba_marseille","lat":43.23438,"lon":5.36541,"is_reserved":false,"is_disabled":false,"rental_uris":{"android":"levelo://app?vid=5b0173aa-23cd-44b1-b8c1-eda455d0190d","ios":"levelo://app?vid=5b0173aa-23cd-44b1-b8c1-eda455d0190d"},"vehicle_type_id":"4","last_reported":1778602348,"current_range_meters":4000,"station_id":"","pricing_plan_id":"cebpf4jnsgd1na2vs0mg"},{"bike_id":"54d91a13-5899-47f6-bec9-71223c378664","system_id":"levelo_inurba_marseille","lat":43.28482,"lon":5.48369,"is_reserved":false,"is_disabled":false,"rental_uris":{"android":"levelo://app?vid=54d91a13-5899-47f6-bec9-71223c378664","ios":"levelo://app?vid=54d91a13-5899-47f6-bec9-71223c378664"},"vehicle_type_id":"4","last_reported":1778602348,"current_range_meters":4000,"station_id":"","pricing_plan_id":"cebpf4jnsgd1na2vs0mg"},{"bike_id":"d903db2b-3c4f-4ebd-adb5-e9d51955ecf8","system_id":"levelo_inurba_marseille","lat":43.27535,"lon":5.35904,"is_reserved":false,"is_disabled":false,"rental_uris":{"android":"levelo://app?vid=d903db2b-3c4f-4ebd-adb5-e9d51955ecf8","ios":"levelo://app?vid=d903db2b-3c4f-4ebd-adb5-e9d51955ecf8"},"vehicle_type_id":"4","last_reported":1778602348,"current_range_meters":4400,"station_id":"","pricing_plan_id":"cebpf4jnsgd1na2vs0mg"},{"bike_id":"828feb75-1174-4011-8ada-a5fc2e3f1216","system_id":"levelo_inurba_marseille","lat":43.30949,"lon":5.3905,"is_reserved":false,"is_disabled":false,"rental_uris":{"android":"levelo://app?vid=828feb75-1174-4011-8ada-a5fc2e3f1216","ios":"levelo://app?vid=828feb75-1174-4011-8ada-a5fc2e3f1216"},"vehicle_type_id":"4","last_reported":1778602348,"current_range_meters":4400,"station_id":"ce4bgup2rcd13ifvqco0","pricing_plan_id":"cebpf4jnsgd1na2vs0mg"},{"bike_id":"5d70c557-cc98-49f9-ada2-f1bf57223af5","system_id":"levelo_inurba_marseille","lat":43.28487,"lon":5.38406,"is_reserved":false,"is_disabled":false,"rental_uris":{"android":"levelo://app?vid=5d70c557-cc98-49f9-ada2-f1bf57223af5","ios":"levelo://app?vid=5d70c557-cc98-49f9-ada2-f1bf57223af5"},"vehicle_type_id":"4","last_reported":1778602348,"current_range_meters":4400,"station_id":"ce4bh512rcd13ifvqe3g","pricing_plan_id":"cebpf4jnsgd1na2vs0mg"},{"bike_id":"dc0a6e21-47dd-44a5-9f73-3b0019341943","system_id":"levelo_inurba_marseille","lat":43.3049,"lon":5.45965,"is_reserved":false,"is_disabled":false,"rental_uris":{"android":"levelo://app?vid=dc0a6e21-47dd-44a5-9f73-3b0019341943","ios":"levelo://app?vid=dc0a6e21-47dd-44a5-9f73-3b0019341943"},"vehicle_type_id":"4","last_reported":1778602348,"current_range_meters":4400,"station_id":"","pricing_plan_id":"cebpf4jnsgd1na2vs0mg"},{"bike_id":"0bee6014-dc09-4fd9-8181-6acdc1764bbc","system_id":"levelo_inurba_marseille","lat":43.28472,"lon":5.38412,"is_reserved":false,"is_disabled":false,"rental_uris":{"android":"levelo://app?vid=0bee6014-dc09-4fd9-8181-6acdc1764bbc","ios":"levelo://app?vid=0bee6014-dc09-4fd9-8181-6acdc1764bbc"},"vehicle_type_id":"4","last_reported":1778602348,"current_range_meters":4400,"station_id":"ce4bh512rcd13ifvqe3g","pricing_plan_id":"cebpf4jnsgd1na2vs0mg"},{"bike_id":"eb3e0cbc-edbc-405b-8bcf-bd2109caf947","system_id":"levelo_inurba_marseille","lat":43.23126,"lon":5.44337,"is_reserved":false,"is_disabled":false,"rental_uris":{"android":"levelo://app?vid=eb3e0cbc-edbc-405b-8bcf-bd2109caf947","ios":"levelo://app?vid=eb3e0cbc-edbc-405b-8bcf-bd2109caf947"},"vehicle_type_id":"4","last_reported":1778602348,"current_range_meters":4400,"station_id":"","pricing_plan_id":"cebpf4jnsgd1na2vs0mg"},{"bike_id":"3ab97ade-2148-4bab-b9cb-6c6ec487f34f","system_id":"levelo_inurba_marseille","lat":43.30252,"lon":5.4006,"is_reserved":false,"is_disabled":false,"rental_uris":{"android":"levelo://app?vid=3ab97ade-2148-4bab-b9cb-6c6ec487f34f","ios":"levelo://app?vid=3ab97ade-2148-4bab-b9cb-6c6ec487f34f"},"vehicle_type_id":"4","last_reported":1778602348,"current_range_meters":4400,"station_id":"ce4bgvh2rcd13ifvqcs0","pricing_plan_id":"cebpf4jnsgd1na2vs0mg"},{"bike_id":"febba32d-820b-482d-a26a-27263adac621","system_id":"levelo_inurba_marseille","lat":43.30548,"lon":5.36534,"is_reserved":false,"is_disabled":false,"rental_uris":{"android":"levelo://app?vid=febba32d-820b-482d-a26a-27263adac621","ios":"levelo://app?vid=febba32d-820b-482d-a26a-27263adac621"},"vehicle_type_id":"4","last_reported":1778602348,"current_range_meters":4800,"station_id":"ce4bgs12rcd13ifvqcag","pricing_plan_id":"cebpf4jnsgd1na2vs0mg"},{"bike_id":"0f1807cc-9d93-4021-8b9a-9457f4117b8b","system_id":"levelo_inurba_marseille","lat":43.32108,"lon":5.36772,"is_reserved":false,"is_disabled":false,"rental_uris":{"android":"levelo://app?vid=0f1807cc-9d93-4021-8b9a-9457f4117b8b","ios":"levelo://app?vid=0f1807cc-9d93-4021-8b9a-9457f4117b8b"},"vehicle_type_id":"4","last_reported":1778602348,"current_range_meters":4800,"station_id":"ce4bhrh2rcd13ifvqhug","pricing_plan_id":"cebpf4jnsgd1na2vs0mg"},{"bike_id":"daa7168a-7e89-4c13-9120-19d3be838e10","system_id":"levelo_inurba_marseille","lat":43.28711,"lon":5.46686,"is_reserved":false,"is_disabled":false,"rental_uris":{"android":"levelo://app?vid=daa7168a-7e89-4c13-9120-19d3be838e10","ios":"levelo://app?vid=daa7168a-7e89-4c13-9120-19d3be838e10"},"vehicle_type_id":"4","last_reported":1778602348,"current_range_meters":4800,"station_id":"st_d6tc3vkotcvc738tfjhg","pricing_plan_id":"cebpf4jnsgd1na2vs0mg"},{"bike_id":"a8beb446-77a1-4e99-a7d1-5a227bc8b019","system_id":"levelo_inurba_marseille","lat":43.25576,"lon":5.38231,"is_reserved":false,"is_disabled":false,"rental_uris":{"android":"levelo://app?vid=a8beb446-77a1-4e99-a7d1-5a227bc8b019","ios":"levelo://app?vid=a8beb446-77a1-4e99-a7d1-5a227bc8b019"},"vehicle_type_id":"4","last_reported":1778602348,"current_range_meters":4800,"station_id":"ce4bhih2rcd13ifvqfs0","pricing_plan_id":"cebpf4jnsgd1na2vs0mg"},{"bike_id":"819a3868-e86b-4761-85f7-cd647e1f51b3","system_id":"levelo_inurba_marseille","lat":43.21226,"lon":5.35071,"is_reserved":false,"is_disabled":false,"rental_uris":{"android":"levelo://app?vid=819a3868-e86b-4761-85f7-cd647e1f51b3","ios":"levelo://app?vid=819a3868-e86b-4761-85f7-cd647e1f51b3"},"vehicle_type_id":"4","last_reported":1778602348,"current_range_meters":4800,"station_id":"","pricing_plan_id":"cebpf4jnsgd1na2vs0mg"},{"bike_id":"050a27d9-02c6-4bc9-a904-8c54d8ff18df","system_id":"levelo_inurba_marseille","lat":43.31752,"lon":5.39014,"is_reserved":false,"is_disabled":false,"rental_uris":{"android":"levelo://app?vid=050a27d9-02c6-4bc9-a904-8c54d8ff18df","ios":"levelo://app?vid=050a27d9-02c6-4bc9-a904-8c54d8ff18df"},"vehicle_type_id":"4","last_reported":1778602348,"current_range_meters":4800,"station_id":"ce4bhqp2rcd13ifvqhng","pricing_plan_id":"cebpf4jnsgd1na2vs0mg"},{"bike_id":"190e1df1-9ae7-4b10-8f66-3bf16b4ae39c","system_id":"levelo_inurba_marseille","lat":43.248,"lon":5.37454,"is_reserved":false,"is_disabled":false,"rental_uris":{"android":"levelo://app?vid=190e1df1-9ae7-4b10-8f66-3bf16b4ae39c","ios":"levelo://app?vid=190e1df1-9ae7-4b10-8f66-3bf16b4ae39c"},"vehicle_type_id":"4","last_reported":1778602348,"current_range_meters":4800,"station_id":"ce4bhgh2rcd13ifvqfb0","pricing_plan_id":"cebpf4jnsgd1na2vs0mg"},{"bike_id":"948baaa5-aad2-4fad-a080-63542fd60c3a","system_id":"levelo_inurba_marseille","lat":43.29525,"lon":5.39043,"is_reserved":false,"is_disabled":false,"rental_uris":{"android":"levelo://app?vid=948baaa5-aad2-4fad-a080-63542fd60c3a","ios":"levelo://app?vid=948baaa5-aad2-4fad-a080-63542fd60c3a"},"vehicle_type_id":"4","last_reported":1778602348,"current_range_meters":4800,"station_id":"ce4bh3p2rcd13ifvqdp0","pricing_plan_id":"cebpf4jnsgd1na2vs0mg"},{"bike_id":"6cd00c4a-e627-4609-bca3-9ff8f838f854","system_id":"levelo_inurba_marseille","lat":43.28419,"lon":5.34988,"is_reserved":false,"is_disabled":false,"rental_uris":{"android":"levelo://app?vid=6cd00c4a-e627-4609-bca3-9ff8f838f854","ios":"levelo://app?vid=6cd00c4a-e627-4609-bca3-9ff8f838f854"},"vehicle_type_id":"4","last_reported":1778602348,"current_range_meters":4800,"station_id":"ce4bhbh2rcd13ifvqepg","pricing_plan_id":"cebpf4jnsgd1na2vs0mg"},{"bike_id":"747ec81e-30f7-4168-8181-98fc27756bb7","system_id":"levelo_inurba_marseille","lat":43.24157,"lon":5.39742,"is_reserved":false,"is_disabled":false,"rental_uris":{"android":"levelo://app?vid=747ec81e-30f7-4168-8181-98fc27756bb7","ios":"levelo://app?vid=747ec81e-30f7-4168-8181-98fc27756bb7"},"vehicle_type_id":"4","last_reported":1778602348,"current_range_meters":4800,"station_id":"ce4bhn12rcd13ifvqgpg","pricing_plan_id":"cebpf4jnsgd1na2vs0mg"},{"bike_id":"ca2caab2-fdad-46e1-9a58-da11f9717116","system_id":"levelo_inurba_marseille","lat":43.30133,"lon":5.37427,"is_reserved":false,"is_disabled":false,"rental_uris":{"android":"levelo://app?vid=ca2caab2-fdad-46e1-9a58-da11f9717116","ios":"levelo://app?vid=ca2caab2-fdad-46e1-9a58-da11f9717116"},"vehicle_type_id":"4","last_reported":1778602348,"current_range_meters":5600,"station_id":"ce4bgs92rcd13ifvqcc0","pricing_plan_id":"cebpf4jnsgd1na2vs0mg"},{"bike_id":"dba3a41e-5817-4dab-887a-39cfc182c3e4","system_id":"levelo_inurba_marseille","lat":43.23785,"lon":5.36644,"is_reserved":false,"is_disabled":true,"rental_uris":{"android":"levelo://app?vid=dba3a41e-5817-4dab-887a-39cfc182c3e4","ios":"levelo://app?vid=dba3a41e-5817-4dab-887a-39cfc182c3e4"},"vehicle_type_id":"4","last_reported":1778602348,"current_range_meters":5600,"station_id":"st_d3nk18o9ro0c73en2l3g","pricing_plan_id":"cebpf4jnsgd1na2vs0mg"},{"bike_id":"b32e84c1-0881-486d-89a2-7045dcea38c5","system_id":"levelo_inurba_marseille","lat":43.27944,"lon":5.41055,"is_reserved":false,"is_disabled":false,"rental_uris":{"android":"levelo://app?vid=b32e84c1-0881-486d-89a2-7045dcea38c5","ios":"levelo://app?vid=b32e84c1-0881-486d-89a2-7045dcea38c5"},"vehicle_type_id":"4","last_reported":1778602348,"current_range_meters":5600,"station_id":"ce4bhnp2rcd13ifvqh0g","pricing_plan_id":"cebpf4jnsgd1na2vs0mg"},{"bike_id":"4193ab64-2ebd-47fb-a735-4e391ffc58d1","system_id":"levelo_inurba_marseille","lat":43.29919,"lon":5.36533,"is_reserved":false,"is_disabled":false,"rental_uris":{"android":"levelo://app?vid=4193ab64-2ebd-47fb-a735-4e391ffc58d1","ios":"levelo://app?vid=4193ab64-2ebd-47fb-a735-4e391ffc58d1"},"vehicle_type_id":"4","last_reported":1778602348,"current_range_meters":5600,"station_id":"ce4bgm92rcd13ifvqbr0","pricing_plan_id":"cebpf4jnsgd1na2vs0mg"},{"bike_id":"1a6de06b-97b1-4e71-ba31-fea230fdd543","system_id":"levelo_inurba_marseille","lat":43.2557,"lon":5.38288,"is_reserved":false,"is_disabled":false,"rental_uris":{"android":"levelo://app?vid=1a6de06b-97b1-4e71-ba31-fea230fdd543","ios":"levelo://app?vid=1a6de06b-97b1-4e71-ba31-fea230fdd543"},"vehicle_type_id":"4","last_reported":1778602348,"current_range_meters":5600,"station_id":"ce4bhih2rcd13ifvqfs0","pricing_plan_id":"cebpf4jnsgd1na2vs0mg"},{"bike_id":"1fcb6955-090c-4090-a4ab-3b88a68ec30e","system_id":"levelo_inurba_marseille","lat":43.30289,"lon":5.39227,"is_reserved":false,"is_disabled":false,"rental_uris":{"android":"levelo://app?vid=1fcb6955-090c-4090-a4ab-3b88a68ec30e","ios":"levelo://app?vid=1fcb6955-090c-4090-a4ab-3b88a68ec30e"},"vehicle_type_id":"4","last_reported":1778602348,"current_range_meters":5600,"station_id":"ce4bgkh2rcd13ifvqbk0","pricing_plan_id":"cebpf4jnsgd1na2vs0mg"},{"bike_id":"fac8e4cd-b914-4c40-9f5f-c4dd48633ed5","system_id":"levelo_inurba_marseille","lat":43.27948,"lon":5.4105,"is_reserved":false,"is_disabled":false,"rental_uris":{"android":"levelo://app?vid=fac8e4cd-b914-4c40-9f5f-c4dd48633ed5","ios":"levelo://app?vid=fac8e4cd-b914-4c40-9f5f-c4dd48633ed5"},"vehicle_type_id":"4","last_reported":1778602348,"current_range_meters":5600,"station_id":"ce4bhnp2rcd13ifvqh0g","pricing_plan_id":"cebpf4jnsgd1na2vs0mg"},{"bike_id":"eaf1e524-8d3d-4cc2-a3e3-965ee1ba5ab7","system_id":"levelo_inurba_marseille","lat":43.29254,"lon":5.38405,"is_reserved":false,"is_disabled":false,"rental_uris":{"android":"levelo://app?vid=eaf1e524-8d3d-4cc2-a3e3-965ee1ba5ab7","ios":"levelo://app?vid=eaf1e524-8d3d-4cc2-a3e3-965ee1ba5ab7"},"vehicle_type_id":"4","last_reported":1778602348,"current_range_meters":5600,"station_id":"ce4bh692rcd13ifvqea0","pricing_plan_id":"cebpf4jnsgd1na2vs0mg"},{"bike_id":"06ace5d7-3d4b-48bb-9ba8-5a2e1fabdaaf","system_id":"levelo_inurba_marseille","lat":43.337518,"lon":5.374433,"is_reserved":false,"is_disabled":false,"rental_uris":{"android":"levelo://app?vid=06ace5d7-3d4b-48bb-9ba8-5a2e1fabdaaf","ios":"levelo://app?vid=06ace5d7-3d4b-48bb-9ba8-5a2e1fabdaaf"},"vehicle_type_id":"4","last_reported":1778602348,"current_range_meters":5600,"station_id":"","pricing_plan_id":"cebpf4jnsgd1na2vs0mg"},{"bike_id":"ff6547aa-173d-47a3-adf2-79dee6433db4","system_id":"levelo_inurba_marseille","lat":43.29632,"lon":5.40597,"is_reserved":false,"is_disabled":false,"rental_uris":{"android":"levelo://app?vid=ff6547aa-173d-47a3-adf2-79dee6433db4","ios":"levelo://app?vid=ff6547aa-173d-47a3-adf2-79dee6433db4"},"vehicle_type_id":"4","last_reported":1778602348,"current_range_meters":5600,"station_id":"ce4bh0h2rcd13ifvqd60","pricing_plan_id":"cebpf4jnsgd1na2vs0mg"},{"bike_id":"54314955-1c88-4cfd-86f6-8fba7187f7a6","system_id":"levelo_inurba_marseille","lat":43.28732,"lon":5.42682,"is_reserved":false,"is_disabled":false,"rental_uris":{"android":"levelo://app?vid=54314955-1c88-4cfd-86f6-8fba7187f7a6","ios":"levelo://app?vid=54314955-1c88-4cfd-86f6-8fba7187f7a6"},"vehicle_type_id":"4","last_reported":1778602348,"current_range_meters":6000,"station_id":"","pricing_plan_id":"cebpf4jnsgd1na2vs0mg"},{"bike_id":"fd9f4e96-0113-4274-ba98-7f814b32a659","system_id":"levelo_inurba_marseille","lat":43.2637,"lon":5.41084,"is_reserved":false,"is_disabled":false,"rental_uris":{"android":"levelo://app?vid=fd9f4e96-0113-4274-ba98-7f814b32a659","ios":"levelo://app?vid=fd9f4e96-0113-4274-ba98-7f814b32a659"},"vehicle_type_id":"4","last_reported":1778602348,"current_range_meters":6000,"station_id":"st_d4e5ca6na9uc73bfl5fg","pricing_plan_id":"cebpf4jnsgd1na2vs0mg"},{"bike_id":"8800382e-208e-425d-a906-68b6f20e5f2f","system_id":"levelo_inurba_marseille","lat":43.26224,"lon":5.38751,"is_reserved":false,"is_disabled":false,"rental_uris":{"android":"levelo://app?vid=8800382e-208e-425d-a906-68b6f20e5f2f","ios":"levelo://app?vid=8800382e-208e-425d-a906-68b6f20e5f2f"},"vehicle_type_id":"4","last_reported":1778602348,"current_range_meters":6000,"station_id":"","pricing_plan_id":"cebpf4jnsgd1na2vs0mg"},{"bike_id":"2b3ac2d6-5c3c-468b-ae1c-a283ee22971e","system_id":"levelo_inurba_marseille","lat":43.28613,"lon":5.35107,"is_reserved":false,"is_disabled":false,"rental_uris":{"android":"levelo://app?vid=2b3ac2d6-5c3c-468b-ae1c-a283ee22971e","ios":"levelo://app?vid=2b3ac2d6-5c3c-468b-ae1c-a283ee22971e"},"vehicle_type_id":"4","last_reported":1778602348,"current_range_meters":6000,"station_id":"ce4bhch2rcd13ifvqeug","pricing_plan_id":"cebpf4jnsgd1na2vs0mg"},{"bike_id":"93429de6-639c-4aa5-902d-4a8afa7c0db1","system_id":"levelo_inurba_marseille","lat":43.31196,"lon":5.36891,"is_reserved":false,"is_disabled":false,"rental_uris":{"android":"levelo://app?vid=93429de6-639c-4aa5-902d-4a8afa7c0db1","ios":"levelo://app?vid=93429de6-639c-4aa5-902d-4a8afa7c0db1"},"vehicle_type_id":"4","last_reported":1778602348,"current_range_meters":6000,"station_id":"ce4bgl92rcd13ifvqbq0","pricing_plan_id":"cebpf4jnsgd1na2vs0mg"},{"bike_id":"f75200eb-c556-489f-9d74-42038266db2e","system_id":"levelo_inurba_marseille","lat":43.2922,"lon":5.39964,"is_reserved":false,"is_disabled":false,"rental_uris":{"android":"levelo://app?vid=f75200eb-c556-489f-9d74-42038266db2e","ios":"levelo://app?vid=f75200eb-c556-489f-9d74-42038266db2e"},"vehicle_type_id":"4","last_reported":1778602348,"current_range_meters":6000,"station_id":"ce4bh312rcd13ifvqdk0","pricing_plan_id":"cebpf4jnsgd1na2vs0mg"},{"bike_id":"81667538-6bcf-428a-b8e1-288b7eef11d4","system_id":"levelo_inurba_marseille","lat":43.28704,"lon":5.39982,"is_reserved":false,"is_disabled":false,"rental_uris":{"android":"levelo://app?vid=81667538-6bcf-428a-b8e1-288b7eef11d4","ios":"levelo://app?vid=81667538-6bcf-428a-b8e1-288b7eef11d4"},"vehicle_type_id":"4","last_reported":1778602348,"current_range_meters":6000,"station_id":"ce4bho92rcd13ifvqh3g","pricing_plan_id":"cebpf4jnsgd1na2vs0mg"},{"bike_id":"207c2587-1b64-4eec-a720-4ddbe5cf407c","system_id":"levelo_inurba_marseille","lat":43.24748,"lon":5.37475,"is_reserved":false,"is_disabled":false,"rental_uris":{"android":"levelo://app?vid=207c2587-1b64-4eec-a720-4ddbe5cf407c","ios":"levelo://app?vid=207c2587-1b64-4eec-a720-4ddbe5cf407c"},"vehicle_type_id":"4","last_reported":1778602348,"current_range_meters":6000,"station_id":"","pricing_plan_id":"cebpf4jnsgd1na2vs0mg"},{"bike_id":"277e64a3-7fb6-4f68-89f3-bb38c2772ff9","system_id":"levelo_inurba_marseille","lat":43.29265,"lon":5.3845,"is_reserved":false,"is_disabled":false,"rental_uris":{"android":"levelo://app?vid=277e64a3-7fb6-4f68-89f3-bb38c2772ff9","ios":"levelo://app?vid=277e64a3-7fb6-4f68-89f3-bb38c2772ff9"},"vehicle_type_id":"4","last_reported":1778602348,"current_range_meters":6000,"station_id":"ce4bh692rcd13ifvqea0","pricing_plan_id":"cebpf4jnsgd1na2vs0mg"},{"bike_id":"fd20cd57-24ac-488b-a3da-728687a6b8af","system_id":"levelo_inurba_marseille","lat":43.28346,"lon":5.38641,"is_reserved":false,"is_disabled":false,"rental_uris":{"android":"levelo://app?vid=fd20cd57-24ac-488b-a3da-728687a6b8af","ios":"levelo://app?vid=fd20cd57-24ac-488b-a3da-728687a6b8af"},"vehicle_type_id":"4","last_reported":1778602348,"current_range_meters":6000,"station_id":"ce4bh492rcd13ifvqdvg","pricing_plan_id":"cebpf4jnsgd1na2vs0mg"},{"bike_id":"4e9e9f19-6747-44e6-895b-68838dd6a1c5","system_id":"levelo_inurba_marseille","lat":43.32345,"lon":5.36724,"is_reserved":false,"is_disabled":false,"rental_uris":{"android":"levelo://app?vid=4e9e9f19-6747-44e6-895b-68838dd6a1c5","ios":"levelo://app?vid=4e9e9f19-6747-44e6-895b-68838dd6a1c5"},"vehicle_type_id":"4","last_reported":1778602348,"current_range_meters":6000,"station_id":"ce4bhsh2rcd13ifvqi2g","pricing_plan_id":"cebpf4jnsgd1na2vs0mg"},{"bike_id":"d8c3c396-b3fa-4db6-a44f-6659091f9429","system_id":"levelo_inurba_marseille","lat":43.27563,"lon":5.38407,"is_reserved":false,"is_disabled":false,"rental_uris":{"android":"levelo://app?vid=d8c3c396-b3fa-4db6-a44f-6659091f9429","ios":"levelo://app?vid=d8c3c396-b3fa-4db6-a44f-6659091f9429"},"vehicle_type_id":"4","last_reported":1778602348,"current_range_meters":6000,"station_id":"ce4bhh92rcd13ifvqfi0","pricing_plan_id":"cebpf4jnsgd1na2vs0mg"},{"bike_id":"fc594f60-898f-4f77-82b7-462f4d90a358","system_id":"levelo_inurba_marseille","lat":43.28678,"lon":5.38641,"is_reserved":false,"is_disabled":false,"rental_uris":{"android":"levelo://app?vid=fc594f60-898f-4f77-82b7-462f4d90a358","ios":"levelo://app?vid=fc594f60-898f-4f77-82b7-462f4d90a358"},"vehicle_type_id":"4","last_reported":1778602348,"current_range_meters":6000,"station_id":"ce4bh492rcd13ifvqdug","pricing_plan_id":"cebpf4jnsgd1na2vs0mg"},{"bike_id":"b4ee9029-83ef-474f-b695-be30a116871b","system_id":"levelo_inurba_marseille","lat":43.30234,"lon":5.3814,"is_reserved":false,"is_disabled":false,"rental_uris":{"android":"levelo://app?vid=b4ee9029-83ef-474f-b695-be30a116871b","ios":"levelo://app?vid=b4ee9029-83ef-474f-b695-be30a116871b"},"vehicle_type_id":"4","last_reported":1778602348,"current_range_meters":6000,"station_id":"","pricing_plan_id":"cebpf4jnsgd1na2vs0mg"},{"bike_id":"422148d6-2f79-42ba-a267-bde19a83a0fc","system_id":"levelo_inurba_marseille","lat":43.30928,"lon":5.40144,"is_reserved":false,"is_disabled":false,"rental_uris":{"android":"levelo://app?vid=422148d6-2f79-42ba-a267-bde19a83a0fc","ios":"levelo://app?vid=422148d6-2f79-42ba-a267-bde19a83a0fc"},"vehicle_type_id":"4","last_reported":1778602348,"current_range_meters":6000,"station_id":"ce4bgvp2rcd13ifvqct0","pricing_plan_id":"cebpf4jnsgd1na2vs0mg"},{"bike_id":"6f577f26-f2f5-4e4c-9266-1e74eef49531","system_id":"levelo_inurba_marseille","lat":43.30546,"lon":5.36541,"is_reserved":false,"is_disabled":false,"rental_uris":{"android":"levelo://app?vid=6f577f26-f2f5-4e4c-9266-1e74eef49531","ios":"levelo://app?vid=6f577f26-f2f5-4e4c-9266-1e74eef49531"},"vehicle_type_id":"4","last_reported":1778602348,"current_range_meters":6000,"station_id":"ce4bgs12rcd13ifvqcag","pricing_plan_id":"cebpf4jnsgd1na2vs0mg"},{"bike_id":"1a6302c0-0378-4344-8ad8-e841efb0ca0b","system_id":"levelo_inurba_marseille","lat":43.28936,"lon":5.38385,"is_reserved":false,"is_disabled":false,"rental_uris":{"android":"levelo://app?vid=1a6302c0-0378-4344-8ad8-e841efb0ca0b","ios":"levelo://app?vid=1a6302c0-0378-4344-8ad8-e841efb0ca0b"},"vehicle_type_id":"4","last_reported":1778602348,"current_range_meters":6000,"station_id":"ce4bh612rcd13ifvqe6g","pricing_plan_id":"cebpf4jnsgd1na2vs0mg"},{"bike_id":"8e43356a-6894-4729-8a36-e254d80b24c0","system_id":"levelo_inurba_marseille","lat":43.29134,"lon":5.43262,"is_reserved":false,"is_disabled":false,"rental_uris":{"android":"levelo://app?vid=8e43356a-6894-4729-8a36-e254d80b24c0","ios":"levelo://app?vid=8e43356a-6894-4729-8a36-e254d80b24c0"},"vehicle_type_id":"4","last_reported":1778602348,"current_range_meters":6000,"station_id":"","pricing_plan_id":"cebpf4jnsgd1na2vs0mg"},{"bike_id":"94c488ca-51b4-4fdc-99db-f458108d16fb","system_id":"levelo_inurba_marseille","lat":43.28101,"lon":5.37838,"is_reserved":false,"is_disabled":false,"rental_uris":{"android":"levelo://app?vid=94c488ca-51b4-4fdc-99db-f458108d16fb","ios":"levelo://app?vid=94c488ca-51b4-4fdc-99db-f458108d16fb"},"vehicle_type_id":"4","last_reported":1778602348,"current_range_meters":6000,"station_id":"ce4bha12rcd13ifvqee0","pricing_plan_id":"cebpf4jnsgd1na2vs0mg"},{"bike_id":"8822872b-a491-4b2c-9590-dd31d95df0ea","system_id":"levelo_inurba_marseille","lat":43.28148,"lon":5.42646,"is_reserved":false,"is_disabled":false,"rental_uris":{"android":"levelo://app?vid=8822872b-a491-4b2c-9590-dd31d95df0ea","ios":"levelo://app?vid=8822872b-a491-4b2c-9590-dd31d95df0ea"},"vehicle_type_id":"4","last_reported":1778602348,"current_range_meters":6000,"station_id":"ce4bhnh2rcd13ifvqgug","pricing_plan_id":"cebpf4jnsgd1na2vs0mg"},{"bike_id":"98be905c-4c6d-4567-a0cc-d1b6e018e82b","system_id":"levelo_inurba_marseille","lat":43.30307,"lon":5.40442,"is_reserved":false,"is_disabled":false,"rental_uris":{"android":"levelo://app?vid=98be905c-4c6d-4567-a0cc-d1b6e018e82b","ios":"levelo://app?vid=98be905c-4c6d-4567-a0cc-d1b6e018e82b"},"vehicle_type_id":"4","last_reported":1778602348,"current_range_meters":6000,"station_id":"ce4bh012rcd13ifvqd10","pricing_plan_id":"cebpf4jnsgd1na2vs0mg"},{"bike_id":"132aac2e-a772-48d9-a5a5-95191c60d7a9","system_id":"levelo_inurba_marseille","lat":43.29282,"lon":5.37166,"is_reserved":false,"is_disabled":false,"rental_uris":{"android":"levelo://app?vid=132aac2e-a772-48d9-a5a5-95191c60d7a9","ios":"levelo://app?vid=132aac2e-a772-48d9-a5a5-95191c60d7a9"},"vehicle_type_id":"4","last_reported":1778602348,"current_range_meters":6000,"station_id":"ce4bgh92rcd13ifvqb40","pricing_plan_id":"cebpf4jnsgd1na2vs0mg"},{"bike_id":"d8be1bb6-1fcd-4121-b78e-05ddb7a13ead","system_id":"levelo_inurba_marseille","lat":43.29228,"lon":5.36071,"is_reserved":false,"is_disabled":false,"rental_uris":{"android":"levelo://app?vid=d8be1bb6-1fcd-4121-b78e-05ddb7a13ead","ios":"levelo://app?vid=d8be1bb6-1fcd-4121-b78e-05ddb7a13ead"},"vehicle_type_id":"4","last_reported":1778602348,"current_range_meters":6000,"station_id":"ce4bhbh2rcd13ifvqeqg","pricing_plan_id":"cebpf4jnsgd1na2vs0mg"},{"bike_id":"07d4db8d-ce4b-4e50-a687-35f89a0bc4a6","system_id":"levelo_inurba_marseille","lat":43.30603,"lon":5.39351,"is_reserved":false,"is_disabled":false,"rental_uris":{"android":"levelo://app?vid=07d4db8d-ce4b-4e50-a687-35f89a0bc4a6","ios":"levelo://app?vid=07d4db8d-ce4b-4e50-a687-35f89a0bc4a6"},"vehicle_type_id":"4","last_reported":1778602348,"current_range_meters":6400,"station_id":"ce4bh0p2rcd13ifvqd80","pricing_plan_id":"cebpf4jnsgd1na2vs0mg"},{"bike_id":"e86c8f72-929e-4e13-bc5c-3c9875815155","system_id":"levelo_inurba_marseille","lat":43.2894,"lon":5.36646,"is_reserved":false,"is_disabled":false,"rental_uris":{"android":"levelo://app?vid=e86c8f72-929e-4e13-bc5c-3c9875815155","ios":"levelo://app?vid=e86c8f72-929e-4e13-bc5c-3c9875815155"},"vehicle_type_id":"4","last_reported":1778602348,"current_range_meters":6400,"station_id":"ce4bhap2rcd13ifvqek0","pricing_plan_id":"cebpf4jnsgd1na2vs0mg"},{"bike_id":"0e6d4b56-486f-4728-b003-09b611c4e69e","system_id":"levelo_inurba_marseille","lat":43.28841,"lon":5.35831,"is_reserved":false,"is_disabled":false,"rental_uris":{"android":"levelo://app?vid=0e6d4b56-486f-4728-b003-09b611c4e69e","ios":"levelo://app?vid=0e6d4b56-486f-4728-b003-09b611c4e69e"},"vehicle_type_id":"4","last_reported":1778602348,"current_range_meters":6400,"station_id":"ce4bhb12rcd13ifvqem0","pricing_plan_id":"cebpf4jnsgd1na2vs0mg"},{"bike_id":"5a6fc470-c3a1-494d-bcb6-47940d8bab2e","system_id":"levelo_inurba_marseille","lat":43.284,"lon":5.35011,"is_reserved":false,"is_disabled":false,"rental_uris":{"android":"levelo://app?vid=5a6fc470-c3a1-494d-bcb6-47940d8bab2e","ios":"levelo://app?vid=5a6fc470-c3a1-494d-bcb6-47940d8bab2e"},"vehicle_type_id":"4","last_reported":1778602348,"current_range_meters":6400,"station_id":"ce4bhbh2rcd13ifvqepg","pricing_plan_id":"cebpf4jnsgd1na2vs0mg"},{"bike_id":"74348f04-44d4-4cea-b248-cc3d2f197e63","system_id":"levelo_inurba_marseille","lat":43.26929,"lon":5.40251,"is_reserved":false,"is_disabled":false,"rental_uris":{"android":"levelo://app?vid=74348f04-44d4-4cea-b248-cc3d2f197e63","ios":"levelo://app?vid=74348f04-44d4-4cea-b248-cc3d2f197e63"},"vehicle_type_id":"4","last_reported":1778602348,"current_range_meters":6400,"station_id":"cjm6bp8fraef2m0cb0m0","pricing_plan_id":"cebpf4jnsgd1na2vs0mg"},{"bike_id":"d0ff7830-7f01-4bde-a1ae-32ff19ae6f67","system_id":"levelo_inurba_marseille","lat":43.28652,"lon":5.36364,"is_reserved":false,"is_disabled":false,"rental_uris":{"android":"levelo://app?vid=d0ff7830-7f01-4bde-a1ae-32ff19ae6f67","ios":"levelo://app?vid=d0ff7830-7f01-4bde-a1ae-32ff19ae6f67"},"vehicle_type_id":"4","last_reported":1778602348,"current_range_meters":6400,"station_id":"ce4bhah2rcd13ifvqej0","pricing_plan_id":"cebpf4jnsgd1na2vs0mg"},{"bike_id":"86b6a57a-0470-4b99-92be-4febb1ade0ad","system_id":"levelo_inurba_marseille","lat":43.27988,"lon":5.39494,"is_reserved":false,"is_disabled":false,"rental_uris":{"android":"levelo://app?vid=86b6a57a-0470-4b99-92be-4febb1ade0ad","ios":"levelo://app?vid=86b6a57a-0470-4b99-92be-4febb1ade0ad"},"vehicle_type_id":"4","last_reported":1778602348,"current_range_meters":6400,"station_id":"","pricing_plan_id":"cebpf4jnsgd1na2vs0mg"},{"bike_id":"5563df1d-1c88-46eb-8978-4981096b48ef","system_id":"levelo_inurba_marseille","lat":43.28933,"lon":5.36636,"is_reserved":false,"is_disabled":false,"rental_uris":{"android":"levelo://app?vid=5563df1d-1c88-46eb-8978-4981096b48ef","ios":"levelo://app?vid=5563df1d-1c88-46eb-8978-4981096b48ef"},"vehicle_type_id":"4","last_reported":1778602348,"current_range_meters":6400,"station_id":"ce4bhap2rcd13ifvqek0","pricing_plan_id":"cebpf4jnsgd1na2vs0mg"},{"bike_id":"07a9b671-4f11-4201-95b6-67d884bae6f1","system_id":"levelo_inurba_marseille","lat":43.25015,"lon":5.40364,"is_reserved":false,"is_disabled":false,"rental_uris":{"android":"levelo://app?vid=07a9b671-4f11-4201-95b6-67d884bae6f1","ios":"levelo://app?vid=07a9b671-4f11-4201-95b6-67d884bae6f1"},"vehicle_type_id":"4","last_reported":1778602348,"current_range_meters":6400,"station_id":"","pricing_plan_id":"cebpf4jnsgd1na2vs0mg"},{"bike_id":"68cb6979-53a2-4f04-b852-ff192ff30c79","system_id":"levelo_inurba_marseille","lat":43.31495,"lon":5.37325,"is_reserved":false,"is_disabled":false,"rental_uris":{"android":"levelo://app?vid=68cb6979-53a2-4f04-b852-ff192ff30c79","ios":"levelo://app?vid=68cb6979-53a2-4f04-b852-ff192ff30c79"},"vehicle_type_id":"4","last_reported":1778602348,"current_range_meters":6400,"station_id":"ce4bgt12rcd13ifvqcd0","pricing_plan_id":"cebpf4jnsgd1na2vs0mg"},{"bike_id":"d58493a2-d835-445a-90a5-a425086573ad","system_id":"levelo_inurba_marseille","lat":43.26775,"lon":5.39417,"is_reserved":false,"is_disabled":false,"rental_uris":{"android":"levelo://app?vid=d58493a2-d835-445a-90a5-a425086573ad","ios":"levelo://app?vid=d58493a2-d835-445a-90a5-a425086573ad"},"vehicle_type_id":"4","last_reported":1778602348,"current_range_meters":6800,"station_id":"ce4bhh12rcd13ifvqfg0","pricing_plan_id":"cebpf4jnsgd1na2vs0mg"},{"bike_id":"3fcc9795-afdf-4f4e-8289-7c4921ee4dd8","system_id":"levelo_inurba_marseille","lat":43.29167,"lon":5.37163,"is_reserved":false,"is_disabled":false,"rental_uris":{"android":"levelo://app?vid=3fcc9795-afdf-4f4e-8289-7c4921ee4dd8","ios":"levelo://app?vid=3fcc9795-afdf-4f4e-8289-7c4921ee4dd8"},"vehicle_type_id":"4","last_reported":1778602348,"current_range_meters":6800,"station_id":"ce4bha92rcd13ifvqeh0","pricing_plan_id":"cebpf4jnsgd1na2vs0mg"},{"bike_id":"7eeaae49-e5ae-480b-aac7-0267ac4b47fd","system_id":"levelo_inurba_marseille","lat":43.25575,"lon":5.38235,"is_reserved":false,"is_disabled":false,"rental_uris":{"android":"levelo://app?vid=7eeaae49-e5ae-480b-aac7-0267ac4b47fd","ios":"levelo://app?vid=7eeaae49-e5ae-480b-aac7-0267ac4b47fd"},"vehicle_type_id":"4","last_reported":1778602348,"current_range_meters":6800,"station_id":"ce4bhih2rcd13ifvqfs0","pricing_plan_id":"cebpf4jnsgd1na2vs0mg"},{"bike_id":"a16ce091-e96f-4f7a-a62e-f54af56b01ef","system_id":"levelo_inurba_marseille","lat":43.29094,"lon":5.38153,"is_reserved":false,"is_disabled":false,"rental_uris":{"android":"levelo://app?vid=a16ce091-e96f-4f7a-a62e-f54af56b01ef","ios":"levelo://app?vid=a16ce091-e96f-4f7a-a62e-f54af56b01ef"},"vehicle_type_id":"4","last_reported":1778602348,"current_range_meters":6800,"station_id":"ce4bh512rcd13ifvqe2g","pricing_plan_id":"cebpf4jnsgd1na2vs0mg"},{"bike_id":"bb883d36-d526-4613-874f-fbf82a7a374b","system_id":"levelo_inurba_marseille","lat":43.29608,"lon":5.37003,"is_reserved":false,"is_disabled":false,"rental_uris":{"android":"levelo://app?vid=bb883d36-d526-4613-874f-fbf82a7a374b","ios":"levelo://app?vid=bb883d36-d526-4613-874f-fbf82a7a374b"},"vehicle_type_id":"4","last_reported":1778602348,"current_range_meters":6800,"station_id":"","pricing_plan_id":"cebpf4jnsgd1na2vs0mg"},{"bike_id":"61042484-dcc3-4e21-b302-39f97578454f","system_id":"levelo_inurba_marseille","lat":43.31215,"lon":5.38093,"is_reserved":false,"is_disabled":true,"rental_uris":{"android":"levelo://app?vid=61042484-dcc3-4e21-b302-39f97578454f","ios":"levelo://app?vid=61042484-dcc3-4e21-b302-39f97578454f"},"vehicle_type_id":"4","last_reported":1778602348,"current_range_meters":6800,"station_id":"","pricing_plan_id":"cebpf4jnsgd1na2vs0mg"},{"bike_id":"82c084b6-ccec-41c7-9c10-76f5af5872e6","system_id":"levelo_inurba_marseille","lat":43.28254,"lon":5.35085,"is_reserved":false,"is_disabled":false,"rental_uris":{"android":"levelo://app?vid=82c084b6-ccec-41c7-9c10-76f5af5872e6","ios":"levelo://app?vid=82c084b6-ccec-41c7-9c10-76f5af5872e6"},"vehicle_type_id":"4","last_reported":1778602348,"current_range_meters":6800,"station_id":"ce4bhbp2rcd13ifvqerg","pricing_plan_id":"cebpf4jnsgd1na2vs0mg"},{"bike_id":"9f9cc4d4-6448-4fe0-9bba-35816aedf1fe","system_id":"levelo_inurba_marseille","lat":43.24552,"lon":5.39522,"is_reserved":false,"is_disabled":false,"rental_uris":{"android":"levelo://app?vid=9f9cc4d4-6448-4fe0-9bba-35816aedf1fe","ios":"levelo://app?vid=9f9cc4d4-6448-4fe0-9bba-35816aedf1fe"},"vehicle_type_id":"4","last_reported":1778602348,"current_range_meters":6800,"station_id":"ce4bhlp2rcd13ifvqgjg","pricing_plan_id":"cebpf4jnsgd1na2vs0mg"},{"bike_id":"eaaa2009-40dd-4ec4-9c54-e703995aa2e1","system_id":"levelo_inurba_marseille","lat":43.29775,"lon":5.38103,"is_reserved":false,"is_disabled":false,"rental_uris":{"android":"levelo://app?vid=eaaa2009-40dd-4ec4-9c54-e703995aa2e1","ios":"levelo://app?vid=eaaa2009-40dd-4ec4-9c54-e703995aa2e1"},"vehicle_type_id":"4","last_reported":1778602348,"current_range_meters":6800,"station_id":"ce4bgip2rcd13ifvqbb0","pricing_plan_id":"cebpf4jnsgd1na2vs0mg"},{"bike_id":"c2e976b4-7573-4ea6-97e0-eb4dbbe39a6b","system_id":"levelo_inurba_marseille","lat":43.27591,"lon":5.39657,"is_reserved":false,"is_disabled":false,"rental_uris":{"android":"levelo://app?vid=c2e976b4-7573-4ea6-97e0-eb4dbbe39a6b","ios":"levelo://app?vid=c2e976b4-7573-4ea6-97e0-eb4dbbe39a6b"},"vehicle_type_id":"4","last_reported":1778602348,"current_range_meters":6800,"station_id":"","pricing_plan_id":"cebpf4jnsgd1na2vs0mg"},{"bike_id":"5364d659-2bce-4dc8-b02e-ea69db54c28a","system_id":"levelo_inurba_marseille","lat":43.29825,"lon":5.37812,"is_reserved":false,"is_disabled":false,"rental_uris":{"android":"levelo://app?vid=5364d659-2bce-4dc8-b02e-ea69db54c28a","ios":"levelo://app?vid=5364d659-2bce-4dc8-b02e-ea69db54c28a"},"vehicle_type_id":"4","last_reported":1778602348,"current_range_meters":6800,"station_id":"","pricing_plan_id":"cebpf4jnsgd1na2vs0mg"},{"bike_id":"a3931dae-05f0-4e1d-8b68-01fdd7d05951","system_id":"levelo_inurba_marseille","lat":43.27491,"lon":5.416,"is_reserved":false,"is_disabled":true,"rental_uris":{"android":"levelo://app?vid=a3931dae-05f0-4e1d-8b68-01fdd7d05951","ios":"levelo://app?vid=a3931dae-05f0-4e1d-8b68-01fdd7d05951"},"vehicle_type_id":"4","last_reported":1778602348,"current_range_meters":6800,"station_id":"st_d6im8g6chgec73a5pndg","pricing_plan_id":"cebpf4jnsgd1na2vs0mg"},{"bike_id":"378bbc50-2aee-43c3-96a0-6df81ec832de","system_id":"levelo_inurba_marseille","lat":43.26203,"lon":5.37918,"is_reserved":false,"is_disabled":false,"rental_uris":{"android":"levelo://app?vid=378bbc50-2aee-43c3-96a0-6df81ec832de","ios":"levelo://app?vid=378bbc50-2aee-43c3-96a0-6df81ec832de"},"vehicle_type_id":"4","last_reported":1778602348,"current_range_meters":6800,"station_id":"ce4bhjp2rcd13ifvqg90","pricing_plan_id":"cebpf4jnsgd1na2vs0mg"},{"bike_id":"1b2c8958-e91f-45f0-b73e-ce7ed72a04f7","system_id":"levelo_inurba_marseille","lat":43.295743,"lon":5.397636,"is_reserved":false,"is_disabled":true,"rental_uris":{"android":"levelo://app?vid=1b2c8958-e91f-45f0-b73e-ce7ed72a04f7","ios":"levelo://app?vid=1b2c8958-e91f-45f0-b73e-ce7ed72a04f7"},"vehicle_type_id":"4","last_reported":1778602348,"current_range_meters":6800,"station_id":"","pricing_plan_id":"cebpf4jnsgd1na2vs0mg"},{"bike_id":"75a4fe97-836e-465b-8958-3223e7f8e16d","system_id":"levelo_inurba_marseille","lat":43.288544,"lon":5.358356,"is_reserved":false,"is_disabled":false,"rental_uris":{"android":"levelo://app?vid=75a4fe97-836e-465b-8958-3223e7f8e16d","ios":"levelo://app?vid=75a4fe97-836e-465b-8958-3223e7f8e16d"},"vehicle_type_id":"4","last_reported":1778602348,"current_range_meters":6800,"station_id":"ce4bhb12rcd13ifvqem0","pricing_plan_id":"cebpf4jnsgd1na2vs0mg"},{"bike_id":"ee4e58aa-a0fe-4a46-b6a5-30e80d004d43","system_id":"levelo_inurba_marseille","lat":43.26555,"lon":5.37298,"is_reserved":false,"is_disabled":false,"rental_uris":{"android":"levelo://app?vid=ee4e58aa-a0fe-4a46-b6a5-30e80d004d43","ios":"levelo://app?vid=ee4e58aa-a0fe-4a46-b6a5-30e80d004d43"},"vehicle_type_id":"4","last_reported":1778602348,"current_range_meters":6800,"station_id":"ce4bhg12rcd13ifvqf70","pricing_plan_id":"cebpf4jnsgd1na2vs0mg"},{"bike_id":"279c2496-9670-4c61-ab04-35665bfe4d90","system_id":"levelo_inurba_marseille","lat":43.30876,"lon":5.37191,"is_reserved":false,"is_disabled":false,"rental_uris":{"android":"levelo://app?vid=279c2496-9670-4c61-ab04-35665bfe4d90","ios":"levelo://app?vid=279c2496-9670-4c61-ab04-35665bfe4d90"},"vehicle_type_id":"4","last_reported":1778602348,"current_range_meters":6800,"station_id":"ce4bguh2rcd13ifvqckg","pricing_plan_id":"cebpf4jnsgd1na2vs0mg"},{"bike_id":"6bf8e413-e0e6-4b25-b525-a592fcaee470","system_id":"levelo_inurba_marseille","lat":43.30152,"lon":5.38112,"is_reserved":false,"is_disabled":true,"rental_uris":{"android":"levelo://app?vid=6bf8e413-e0e6-4b25-b525-a592fcaee470","ios":"levelo://app?vid=6bf8e413-e0e6-4b25-b525-a592fcaee470"},"vehicle_type_id":"4","last_reported":1778602348,"current_range_meters":6800,"station_id":"ce4bgjp2rcd13ifvqbh0","pricing_plan_id":"cebpf4jnsgd1na2vs0mg"},{"bike_id":"d93e9290-bea1-4cce-a2cd-9e0d3967c4ac","system_id":"levelo_inurba_marseille","lat":43.26786,"lon":5.39408,"is_reserved":false,"is_disabled":false,"rental_uris":{"android":"levelo://app?vid=d93e9290-bea1-4cce-a2cd-9e0d3967c4ac","ios":"levelo://app?vid=d93e9290-bea1-4cce-a2cd-9e0d3967c4ac"},"vehicle_type_id":"4","last_reported":1778602348,"current_range_meters":6800,"station_id":"ce4bhh12rcd13ifvqfg0","pricing_plan_id":"cebpf4jnsgd1na2vs0mg"},{"bike_id":"e3e6a269-338b-482e-8c7f-7dca167d167b","system_id":"levelo_inurba_marseille","lat":43.2751,"lon":5.41554,"is_reserved":false,"is_disabled":true,"rental_uris":{"android":"levelo://app?vid=e3e6a269-338b-482e-8c7f-7dca167d167b","ios":"levelo://app?vid=e3e6a269-338b-482e-8c7f-7dca167d167b"},"vehicle_type_id":"4","last_reported":1778602348,"current_range_meters":6800,"station_id":"st_d6im8g6chgec73a5pndg","pricing_plan_id":"cebpf4jnsgd1na2vs0mg"},{"bike_id":"56aa3777-5c73-49cb-b27f-d7e4ca259c3e","system_id":"levelo_inurba_marseille","lat":43.25051,"lon":5.39514,"is_reserved":false,"is_disabled":false,"rental_uris":{"android":"levelo://app?vid=56aa3777-5c73-49cb-b27f-d7e4ca259c3e","ios":"levelo://app?vid=56aa3777-5c73-49cb-b27f-d7e4ca259c3e"},"vehicle_type_id":"4","last_reported":1778602348,"current_range_meters":6800,"station_id":"ce4bhm12rcd13ifvqgkg","pricing_plan_id":"cebpf4jnsgd1na2vs0mg"},{"bike_id":"89ba3e6a-2631-497f-8d75-3508f5d4fd19","system_id":"levelo_inurba_marseille","lat":43.24661,"lon":5.38172,"is_reserved":false,"is_disabled":false,"rental_uris":{"android":"levelo://app?vid=89ba3e6a-2631-497f-8d75-3508f5d4fd19","ios":"levelo://app?vid=89ba3e6a-2631-497f-8d75-3508f5d4fd19"},"vehicle_type_id":"4","last_reported":1778602348,"current_range_meters":6800,"station_id":"ce4bhih2rcd13ifvqfr0","pricing_plan_id":"cebpf4jnsgd1na2vs0mg"},{"bike_id":"420c65a9-ae3f-4d02-9e16-f647af2b55e9","system_id":"levelo_inurba_marseille","lat":43.29523,"lon":5.38541,"is_reserved":false,"is_disabled":false,"rental_uris":{"android":"levelo://app?vid=420c65a9-ae3f-4d02-9e16-f647af2b55e9","ios":"levelo://app?vid=420c65a9-ae3f-4d02-9e16-f647af2b55e9"},"vehicle_type_id":"4","last_reported":1778602348,"current_range_meters":6800,"station_id":"ce4bgih2rcd13ifvqba0","pricing_plan_id":"cebpf4jnsgd1na2vs0mg"},{"bike_id":"5dda3d43-9c26-4da5-bf2f-b46f067bf690","system_id":"levelo_inurba_marseille","lat":43.28403,"lon":5.3501,"is_reserved":false,"is_disabled":false,"rental_uris":{"android":"levelo://app?vid=5dda3d43-9c26-4da5-bf2f-b46f067bf690","ios":"levelo://app?vid=5dda3d43-9c26-4da5-bf2f-b46f067bf690"},"vehicle_type_id":"4","last_reported":1778602348,"current_range_meters":6800,"station_id":"ce4bhbh2rcd13ifvqepg","pricing_plan_id":"cebpf4jnsgd1na2vs0mg"},{"bike_id":"f89dc7a0-fe47-41cb-ba00-70c80de88b25","system_id":"levelo_inurba_marseille","lat":43.24657,"lon":5.38163,"is_reserved":false,"is_disabled":false,"rental_uris":{"android":"levelo://app?vid=f89dc7a0-fe47-41cb-ba00-70c80de88b25","ios":"levelo://app?vid=f89dc7a0-fe47-41cb-ba00-70c80de88b25"},"vehicle_type_id":"4","last_reported":1778602348,"current_range_meters":7200,"station_id":"ce4bhih2rcd13ifvqfr0","pricing_plan_id":"cebpf4jnsgd1na2vs0mg"},{"bike_id":"1fb136bb-3cc6-48f7-af4f-974b5baf2852","system_id":"levelo_inurba_marseille","lat":43.23961,"lon":5.36627,"is_reserved":false,"is_disabled":true,"rental_uris":{"android":"levelo://app?vid=1fb136bb-3cc6-48f7-af4f-974b5baf2852","ios":"levelo://app?vid=1fb136bb-3cc6-48f7-af4f-974b5baf2852"},"vehicle_type_id":"4","last_reported":1778602348,"current_range_meters":7200,"station_id":"ce4bhi12rcd13ifvqfp0","pricing_plan_id":"cebpf4jnsgd1na2vs0mg"},{"bike_id":"0d5a6d54-dad4-453d-9b1a-d94782ee22c6","system_id":"levelo_inurba_marseille","lat":43.32345,"lon":5.36544,"is_reserved":false,"is_disabled":false,"rental_uris":{"android":"levelo://app?vid=0d5a6d54-dad4-453d-9b1a-d94782ee22c6","ios":"levelo://app?vid=0d5a6d54-dad4-453d-9b1a-d94782ee22c6"},"vehicle_type_id":"4","last_reported":1778602348,"current_range_meters":7200,"station_id":"","pricing_plan_id":"cebpf4jnsgd1na2vs0mg"},{"bike_id":"8a439fb6-3a39-4b09-8c8e-ef58fa31b19f","system_id":"levelo_inurba_marseille","lat":43.30141,"lon":5.37401,"is_reserved":false,"is_disabled":false,"rental_uris":{"android":"levelo://app?vid=8a439fb6-3a39-4b09-8c8e-ef58fa31b19f","ios":"levelo://app?vid=8a439fb6-3a39-4b09-8c8e-ef58fa31b19f"},"vehicle_type_id":"4","last_reported":1778602348,"current_range_meters":7200,"station_id":"ce4bgs92rcd13ifvqcc0","pricing_plan_id":"cebpf4jnsgd1na2vs0mg"},{"bike_id":"2282ecfd-c628-45ec-8328-685141867870","system_id":"levelo_inurba_marseille","lat":43.28935,"lon":5.366472,"is_reserved":false,"is_disabled":false,"rental_uris":{"android":"levelo://app?vid=2282ecfd-c628-45ec-8328-685141867870","ios":"levelo://app?vid=2282ecfd-c628-45ec-8328-685141867870"},"vehicle_type_id":"4","last_reported":1778602348,"current_range_meters":7200,"station_id":"ce4bhap2rcd13ifvqek0","pricing_plan_id":"cebpf4jnsgd1na2vs0mg"},{"bike_id":"12831884-053b-433a-b0e0-7a11953437fd","system_id":"levelo_inurba_marseille","lat":43.28414,"lon":5.3499,"is_reserved":false,"is_disabled":false,"rental_uris":{"android":"levelo://app?vid=12831884-053b-433a-b0e0-7a11953437fd","ios":"levelo://app?vid=12831884-053b-433a-b0e0-7a11953437fd"},"vehicle_type_id":"4","last_reported":1778602348,"current_range_meters":7200,"station_id":"ce4bhbh2rcd13ifvqepg","pricing_plan_id":"cebpf4jnsgd1na2vs0mg"},{"bike_id":"436f1e8e-0b53-497c-9398-11b3c2f49470","system_id":"levelo_inurba_marseille","lat":43.29266,"lon":5.36844,"is_reserved":false,"is_disabled":false,"rental_uris":{"android":"levelo://app?vid=436f1e8e-0b53-497c-9398-11b3c2f49470","ios":"levelo://app?vid=436f1e8e-0b53-497c-9398-11b3c2f49470"},"vehicle_type_id":"4","last_reported":1778602348,"current_range_meters":7200,"station_id":"ce4bhbp2rcd13ifvqesg","pricing_plan_id":"cebpf4jnsgd1na2vs0mg"},{"bike_id":"f4ecb278-e50c-47ca-ab4b-82fdb891c6d9","system_id":"levelo_inurba_marseille","lat":43.30934,"lon":5.401554,"is_reserved":false,"is_disabled":false,"rental_uris":{"android":"levelo://app?vid=f4ecb278-e50c-47ca-ab4b-82fdb891c6d9","ios":"levelo://app?vid=f4ecb278-e50c-47ca-ab4b-82fdb891c6d9"},"vehicle_type_id":"4","last_reported":1778602348,"current_range_meters":7200,"station_id":"ce4bgvp2rcd13ifvqct0","pricing_plan_id":"cebpf4jnsgd1na2vs0mg"},{"bike_id":"43f13419-bc18-43db-9e95-710d21c552e1","system_id":"levelo_inurba_marseille","lat":43.23959,"lon":5.3663,"is_reserved":false,"is_disabled":false,"rental_uris":{"android":"levelo://app?vid=43f13419-bc18-43db-9e95-710d21c552e1","ios":"levelo://app?vid=43f13419-bc18-43db-9e95-710d21c552e1"},"vehicle_type_id":"4","last_reported":1778602348,"current_range_meters":7200,"station_id":"ce4bhi12rcd13ifvqfp0","pricing_plan_id":"cebpf4jnsgd1na2vs0mg"},{"bike_id":"6809cb50-d53a-435d-80db-ce1abe4e0231","system_id":"levelo_inurba_marseille","lat":43.2693,"lon":5.38918,"is_reserved":false,"is_disabled":false,"rental_uris":{"android":"levelo://app?vid=6809cb50-d53a-435d-80db-ce1abe4e0231","ios":"levelo://app?vid=6809cb50-d53a-435d-80db-ce1abe4e0231"},"vehicle_type_id":"4","last_reported":1778602348,"current_range_meters":7200,"station_id":"ce4bhhh2rcd13ifvqfl0","pricing_plan_id":"cebpf4jnsgd1na2vs0mg"},{"bike_id":"95552473-a32b-49e5-a6c9-92815a2ac96e","system_id":"levelo_inurba_marseille","lat":43.32814,"lon":5.42617,"is_reserved":false,"is_disabled":false,"rental_uris":{"android":"levelo://app?vid=95552473-a32b-49e5-a6c9-92815a2ac96e","ios":"levelo://app?vid=95552473-a32b-49e5-a6c9-92815a2ac96e"},"vehicle_type_id":"4","last_reported":1778602348,"current_range_meters":7200,"station_id":"","pricing_plan_id":"cebpf4jnsgd1na2vs0mg"},{"bike_id":"f00dd7b0-88eb-4957-b36b-b805f970a478","system_id":"levelo_inurba_marseille","lat":43.29223,"lon":5.36057,"is_reserved":false,"is_disabled":false,"rental_uris":{"android":"levelo://app?vid=f00dd7b0-88eb-4957-b36b-b805f970a478","ios":"levelo://app?vid=f00dd7b0-88eb-4957-b36b-b805f970a478"},"vehicle_type_id":"4","last_reported":1778602348,"current_range_meters":7200,"station_id":"ce4bhbh2rcd13ifvqeqg","pricing_plan_id":"cebpf4jnsgd1na2vs0mg"},{"bike_id":"bcbb2c2a-5622-4ef5-85e3-a12a7d5b42e9","system_id":"levelo_inurba_marseille","lat":43.25031,"lon":5.38916,"is_reserved":false,"is_disabled":false,"rental_uris":{"android":"levelo://app?vid=bcbb2c2a-5622-4ef5-85e3-a12a7d5b42e9","ios":"levelo://app?vid=bcbb2c2a-5622-4ef5-85e3-a12a7d5b42e9"},"vehicle_type_id":"4","last_reported":1778602348,"current_range_meters":7200,"station_id":"ce4bhgp2rcd13ifvqfd0","pricing_plan_id":"cebpf4jnsgd1na2vs0mg"},{"bike_id":"4886c252-2728-4a7b-8055-7bc754291d67","system_id":"levelo_inurba_marseille","lat":43.2618,"lon":5.40369,"is_reserved":false,"is_disabled":false,"rental_uris":{"android":"levelo://app?vid=4886c252-2728-4a7b-8055-7bc754291d67","ios":"levelo://app?vid=4886c252-2728-4a7b-8055-7bc754291d67"},"vehicle_type_id":"4","last_reported":1778602348,"current_range_meters":8000,"station_id":"","pricing_plan_id":"cebpf4jnsgd1na2vs0mg"},{"bike_id":"ca96b44d-9db9-4f85-853f-457d2ba27ddc","system_id":"levelo_inurba_marseille","lat":43.26017,"lon":5.37549,"is_reserved":false,"is_disabled":false,"rental_uris":{"android":"levelo://app?vid=ca96b44d-9db9-4f85-853f-457d2ba27ddc","ios":"levelo://app?vid=ca96b44d-9db9-4f85-853f-457d2ba27ddc"},"vehicle_type_id":"4","last_reported":1778602348,"current_range_meters":8000,"station_id":"ce4bhgh2rcd13ifvqfa0","pricing_plan_id":"cebpf4jnsgd1na2vs0mg"},{"bike_id":"8041a9e7-7ab4-4d1b-ace9-fc5ba24c4b93","system_id":"levelo_inurba_marseille","lat":43.22562,"lon":5.41622,"is_reserved":false,"is_disabled":false,"rental_uris":{"android":"levelo://app?vid=8041a9e7-7ab4-4d1b-ace9-fc5ba24c4b93","ios":"levelo://app?vid=8041a9e7-7ab4-4d1b-ace9-fc5ba24c4b93"},"vehicle_type_id":"4","last_reported":1778602348,"current_range_meters":8000,"station_id":"st_d2o4gvlbi1j2169b742g","pricing_plan_id":"cebpf4jnsgd1na2vs0mg"},{"bike_id":"076b8b25-32f2-44ed-9aec-b4a4ccc49598","system_id":"levelo_inurba_marseille","lat":43.2979,"lon":5.38119,"is_reserved":false,"is_disabled":true,"rental_uris":{"android":"levelo://app?vid=076b8b25-32f2-44ed-9aec-b4a4ccc49598","ios":"levelo://app?vid=076b8b25-32f2-44ed-9aec-b4a4ccc49598"},"vehicle_type_id":"4","last_reported":1778602348,"current_range_meters":8000,"station_id":"ce4bgip2rcd13ifvqbb0","pricing_plan_id":"cebpf4jnsgd1na2vs0mg"},{"bike_id":"77da0299-61ed-4586-ad63-53f57f7af2df","system_id":"levelo_inurba_marseille","lat":43.2816,"lon":5.42669,"is_reserved":false,"is_disabled":false,"rental_uris":{"android":"levelo://app?vid=77da0299-61ed-4586-ad63-53f57f7af2df","ios":"levelo://app?vid=77da0299-61ed-4586-ad63-53f57f7af2df"},"vehicle_type_id":"4","last_reported":1778602348,"current_range_meters":8000,"station_id":"ce4bhnh2rcd13ifvqgug","pricing_plan_id":"cebpf4jnsgd1na2vs0mg"},{"bike_id":"4c733966-71e1-46b9-81e1-8d24e59b65ce","system_id":"levelo_inurba_marseille","lat":43.225297,"lon":5.34839,"is_reserved":false,"is_disabled":true,"rental_uris":{"android":"levelo://app?vid=4c733966-71e1-46b9-81e1-8d24e59b65ce","ios":"levelo://app?vid=4c733966-71e1-46b9-81e1-8d24e59b65ce"},"vehicle_type_id":"4","last_reported":1778602348,"current_range_meters":8000,"station_id":"st_cvj5dfep6f1abm77gieg","pricing_plan_id":"cebpf4jnsgd1na2vs0mg"},{"bike_id":"6ae48d71-39d1-4814-b64c-129737a18654","system_id":"levelo_inurba_marseille","lat":43.29957,"lon":5.41329,"is_reserved":false,"is_disabled":false,"rental_uris":{"android":"levelo://app?vid=6ae48d71-39d1-4814-b64c-129737a18654","ios":"levelo://app?vid=6ae48d71-39d1-4814-b64c-129737a18654"},"vehicle_type_id":"4","last_reported":1778602348,"current_range_meters":8000,"station_id":"ce4bhp12rcd13ifvqh9g","pricing_plan_id":"cebpf4jnsgd1na2vs0mg"},{"bike_id":"d918fd26-365d-4f6c-b4cf-3b2b9ae06a97","system_id":"levelo_inurba_marseille","lat":43.28934,"lon":5.3664,"is_reserved":false,"is_disabled":false,"rental_uris":{"android":"levelo://app?vid=d918fd26-365d-4f6c-b4cf-3b2b9ae06a97","ios":"levelo://app?vid=d918fd26-365d-4f6c-b4cf-3b2b9ae06a97"},"vehicle_type_id":"4","last_reported":1778602348,"current_range_meters":8000,"station_id":"ce4bhap2rcd13ifvqek0","pricing_plan_id":"cebpf4jnsgd1na2vs0mg"},{"bike_id":"fe5898b3-5b3a-4283-9f3c-6e76ee173612","system_id":"levelo_inurba_marseille","lat":43.31345,"lon":5.38503,"is_reserved":false,"is_disabled":false,"rental_uris":{"android":"levelo://app?vid=fe5898b3-5b3a-4283-9f3c-6e76ee173612","ios":"levelo://app?vid=fe5898b3-5b3a-4283-9f3c-6e76ee173612"},"vehicle_type_id":"4","last_reported":1778602348,"current_range_meters":8000,"station_id":"ce4bgt92rcd13ifvqcf0","pricing_plan_id":"cebpf4jnsgd1na2vs0mg"},{"bike_id":"c73b6fcd-c2b4-4f41-a8a2-0a5d40921731","system_id":"levelo_inurba_marseille","lat":43.30735,"lon":5.42442,"is_reserved":false,"is_disabled":false,"rental_uris":{"android":"levelo://app?vid=c73b6fcd-c2b4-4f41-a8a2-0a5d40921731","ios":"levelo://app?vid=c73b6fcd-c2b4-4f41-a8a2-0a5d40921731"},"vehicle_type_id":"4","last_reported":1778602348,"current_range_meters":8000,"station_id":"st_cvj6ca6bvosntc0bfgr0","pricing_plan_id":"cebpf4jnsgd1na2vs0mg"},{"bike_id":"c915ab79-3226-4685-9d92-d412f6ca84a0","system_id":"levelo_inurba_marseille","lat":43.29522,"lon":5.38535,"is_reserved":false,"is_disabled":false,"rental_uris":{"android":"levelo://app?vid=c915ab79-3226-4685-9d92-d412f6ca84a0","ios":"levelo://app?vid=c915ab79-3226-4685-9d92-d412f6ca84a0"},"vehicle_type_id":"4","last_reported":1778602348,"current_range_meters":8000,"station_id":"ce4bgih2rcd13ifvqba0","pricing_plan_id":"cebpf4jnsgd1na2vs0mg"},{"bike_id":"5eabbbfd-1c6c-4d0e-8f84-fc302cfae48d","system_id":"levelo_inurba_marseille","lat":43.3251,"lon":5.383,"is_reserved":false,"is_disabled":false,"rental_uris":{"android":"levelo://app?vid=5eabbbfd-1c6c-4d0e-8f84-fc302cfae48d","ios":"levelo://app?vid=5eabbbfd-1c6c-4d0e-8f84-fc302cfae48d"},"vehicle_type_id":"4","last_reported":1778602348,"current_range_meters":8000,"station_id":"st_d4asgbiv49dc73anf9m0","pricing_plan_id":"cebpf4jnsgd1na2vs0mg"},{"bike_id":"6bf5a739-c134-4744-be04-d26bd6e563cd","system_id":"levelo_inurba_marseille","lat":43.28416,"lon":5.34988,"is_reserved":false,"is_disabled":false,"rental_uris":{"android":"levelo://app?vid=6bf5a739-c134-4744-be04-d26bd6e563cd","ios":"levelo://app?vid=6bf5a739-c134-4744-be04-d26bd6e563cd"},"vehicle_type_id":"4","last_reported":1778602348,"current_range_meters":8000,"station_id":"ce4bhbh2rcd13ifvqepg","pricing_plan_id":"cebpf4jnsgd1na2vs0mg"},{"bike_id":"211cea86-71fd-43ef-9b6e-844e35d10a69","system_id":"levelo_inurba_marseille","lat":43.26193,"lon":5.37455,"is_reserved":false,"is_disabled":true,"rental_uris":{"android":"levelo://app?vid=211cea86-71fd-43ef-9b6e-844e35d10a69","ios":"levelo://app?vid=211cea86-71fd-43ef-9b6e-844e35d10a69"},"vehicle_type_id":"4","last_reported":1778602348,"current_range_meters":8000,"station_id":"ce4bhgp2rcd13ifvqfc0","pricing_plan_id":"cebpf4jnsgd1na2vs0mg"},{"bike_id":"bac17055-acdf-47ed-bc6e-1879fd64a6b2","system_id":"levelo_inurba_marseille","lat":43.28855,"lon":5.3585,"is_reserved":false,"is_disabled":false,"rental_uris":{"android":"levelo://app?vid=bac17055-acdf-47ed-bc6e-1879fd64a6b2","ios":"levelo://app?vid=bac17055-acdf-47ed-bc6e-1879fd64a6b2"},"vehicle_type_id":"4","last_reported":1778602348,"current_range_meters":8000,"station_id":"ce4bhb12rcd13ifvqem0","pricing_plan_id":"cebpf4jnsgd1na2vs0mg"},{"bike_id":"20565abf-0a61-4010-92bb-d37eb325b210","system_id":"levelo_inurba_marseille","lat":43.28396,"lon":5.34974,"is_reserved":false,"is_disabled":false,"rental_uris":{"android":"levelo://app?vid=20565abf-0a61-4010-92bb-d37eb325b210","ios":"levelo://app?vid=20565abf-0a61-4010-92bb-d37eb325b210"},"vehicle_type_id":"4","last_reported":1778602348,"current_range_meters":8000,"station_id":"ce4bhbh2rcd13ifvqepg","pricing_plan_id":"cebpf4jnsgd1na2vs0mg"},{"bike_id":"78f52f56-ce15-4e9b-b104-4fff16726b0b","system_id":"levelo_inurba_marseille","lat":43.304314,"lon":5.388872,"is_reserved":false,"is_disabled":true,"rental_uris":{"android":"levelo://app?vid=78f52f56-ce15-4e9b-b104-4fff16726b0b","ios":"levelo://app?vid=78f52f56-ce15-4e9b-b104-4fff16726b0b"},"vehicle_type_id":"4","last_reported":1778602348,"current_range_meters":8000,"station_id":"ce4bgk12rcd13ifvqbi0","pricing_plan_id":"cebpf4jnsgd1na2vs0mg"},{"bike_id":"95aeb85c-cda5-4c76-841d-5978f9d16c4b","system_id":"levelo_inurba_marseille","lat":43.2557,"lon":5.38217,"is_reserved":false,"is_disabled":false,"rental_uris":{"android":"levelo://app?vid=95aeb85c-cda5-4c76-841d-5978f9d16c4b","ios":"levelo://app?vid=95aeb85c-cda5-4c76-841d-5978f9d16c4b"},"vehicle_type_id":"4","last_reported":1778602348,"current_range_meters":8000,"station_id":"ce4bhih2rcd13ifvqfs0","pricing_plan_id":"cebpf4jnsgd1na2vs0mg"},{"bike_id":"6e1d77cf-c1ae-4d4e-a01e-6f1a8303df29","system_id":"levelo_inurba_marseille","lat":43.28852,"lon":5.35854,"is_reserved":false,"is_disabled":false,"rental_uris":{"android":"levelo://app?vid=6e1d77cf-c1ae-4d4e-a01e-6f1a8303df29","ios":"levelo://app?vid=6e1d77cf-c1ae-4d4e-a01e-6f1a8303df29"},"vehicle_type_id":"4","last_reported":1778602348,"current_range_meters":8000,"station_id":"ce4bhb12rcd13ifvqem0","pricing_plan_id":"cebpf4jnsgd1na2vs0mg"},{"bike_id":"3e01e592-9222-43c1-a05e-406e05c6dd04","system_id":"levelo_inurba_marseille","lat":43.292732,"lon":5.368372,"is_reserved":false,"is_disabled":false,"rental_uris":{"android":"levelo://app?vid=3e01e592-9222-43c1-a05e-406e05c6dd04","ios":"levelo://app?vid=3e01e592-9222-43c1-a05e-406e05c6dd04"},"vehicle_type_id":"4","last_reported":1778602348,"current_range_meters":8400,"station_id":"ce4bhb12rcd13ifvqel0","pricing_plan_id":"cebpf4jnsgd1na2vs0mg"},{"bike_id":"df510bdf-9712-4781-a7b5-7d83b9334f87","system_id":"levelo_inurba_marseille","lat":43.2518,"lon":5.39376,"is_reserved":false,"is_disabled":false,"rental_uris":{"android":"levelo://app?vid=df510bdf-9712-4781-a7b5-7d83b9334f87","ios":"levelo://app?vid=df510bdf-9712-4781-a7b5-7d83b9334f87"},"vehicle_type_id":"4","last_reported":1778602348,"current_range_meters":8400,"station_id":"","pricing_plan_id":"cebpf4jnsgd1na2vs0mg"},{"bike_id":"828f4787-7c0f-47c9-b213-ff60195eaa3e","system_id":"levelo_inurba_marseille","lat":43.2964,"lon":5.40596,"is_reserved":false,"is_disabled":true,"rental_uris":{"android":"levelo://app?vid=828f4787-7c0f-47c9-b213-ff60195eaa3e","ios":"levelo://app?vid=828f4787-7c0f-47c9-b213-ff60195eaa3e"},"vehicle_type_id":"4","last_reported":1778602348,"current_range_meters":8400,"station_id":"ce4bh0h2rcd13ifvqd60","pricing_plan_id":"cebpf4jnsgd1na2vs0mg"},{"bike_id":"2aeb1424-decb-4e3f-9a71-4038b6b571ae","system_id":"levelo_inurba_marseille","lat":43.30541,"lon":5.36547,"is_reserved":false,"is_disabled":false,"rental_uris":{"android":"levelo://app?vid=2aeb1424-decb-4e3f-9a71-4038b6b571ae","ios":"levelo://app?vid=2aeb1424-decb-4e3f-9a71-4038b6b571ae"},"vehicle_type_id":"4","last_reported":1778602348,"current_range_meters":8400,"station_id":"ce4bgs12rcd13ifvqcag","pricing_plan_id":"cebpf4jnsgd1na2vs0mg"},{"bike_id":"d257960a-edb4-4348-90b0-b5fd8baf1634","system_id":"levelo_inurba_marseille","lat":43.31665,"lon":5.37742,"is_reserved":false,"is_disabled":true,"rental_uris":{"android":"levelo://app?vid=d257960a-edb4-4348-90b0-b5fd8baf1634","ios":"levelo://app?vid=d257960a-edb4-4348-90b0-b5fd8baf1634"},"vehicle_type_id":"4","last_reported":1778602348,"current_range_meters":8400,"station_id":"ce4bgth2rcd13ifvqch0","pricing_plan_id":"cebpf4jnsgd1na2vs0mg"},{"bike_id":"c57b9d8b-726c-424e-a5d4-cee105e1ed0e","system_id":"levelo_inurba_marseille","lat":43.26205,"lon":5.37929,"is_reserved":false,"is_disabled":false,"rental_uris":{"android":"levelo://app?vid=c57b9d8b-726c-424e-a5d4-cee105e1ed0e","ios":"levelo://app?vid=c57b9d8b-726c-424e-a5d4-cee105e1ed0e"},"vehicle_type_id":"4","last_reported":1778602348,"current_range_meters":8400,"station_id":"ce4bhjp2rcd13ifvqg90","pricing_plan_id":"cebpf4jnsgd1na2vs0mg"},{"bike_id":"2b5c237b-a062-4473-af89-af69f731105f","system_id":"levelo_inurba_marseille","lat":43.29894,"lon":5.37824,"is_reserved":false,"is_disabled":false,"rental_uris":{"android":"levelo://app?vid=2b5c237b-a062-4473-af89-af69f731105f","ios":"levelo://app?vid=2b5c237b-a062-4473-af89-af69f731105f"},"vehicle_type_id":"4","last_reported":1778602348,"current_range_meters":8400,"station_id":"","pricing_plan_id":"cebpf4jnsgd1na2vs0mg"},{"bike_id":"2978f96a-e193-46cd-81f8-9f46fefbcf17","system_id":"levelo_inurba_marseille","lat":43.28617,"lon":5.35108,"is_reserved":false,"is_disabled":false,"rental_uris":{"android":"levelo://app?vid=2978f96a-e193-46cd-81f8-9f46fefbcf17","ios":"levelo://app?vid=2978f96a-e193-46cd-81f8-9f46fefbcf17"},"vehicle_type_id":"4","last_reported":1778602348,"current_range_meters":8400,"station_id":"ce4bhch2rcd13ifvqeug","pricing_plan_id":"cebpf4jnsgd1na2vs0mg"},{"bike_id":"c703cedd-5468-4663-85d8-453a5d01b8ca","system_id":"levelo_inurba_marseille","lat":43.27349,"lon":5.38971,"is_reserved":false,"is_disabled":false,"rental_uris":{"android":"levelo://app?vid=c703cedd-5468-4663-85d8-453a5d01b8ca","ios":"levelo://app?vid=c703cedd-5468-4663-85d8-453a5d01b8ca"},"vehicle_type_id":"4","last_reported":1778602348,"current_range_meters":8400,"station_id":"ce4bhgp2rcd13ifvqfe0","pricing_plan_id":"cebpf4jnsgd1na2vs0mg"},{"bike_id":"85ef4064-ea02-4d3e-98cd-2cda8affde91","system_id":"levelo_inurba_marseille","lat":43.2842,"lon":5.3499,"is_reserved":false,"is_disabled":false,"rental_uris":{"android":"levelo://app?vid=85ef4064-ea02-4d3e-98cd-2cda8affde91","ios":"levelo://app?vid=85ef4064-ea02-4d3e-98cd-2cda8affde91"},"vehicle_type_id":"4","last_reported":1778602348,"current_range_meters":8400,"station_id":"ce4bhbh2rcd13ifvqepg","pricing_plan_id":"cebpf4jnsgd1na2vs0mg"},{"bike_id":"7d495a91-4757-4bd7-b72f-ad237a9371f1","system_id":"levelo_inurba_marseille","lat":43.21183,"lon":5.35072,"is_reserved":false,"is_disabled":false,"rental_uris":{"android":"levelo://app?vid=7d495a91-4757-4bd7-b72f-ad237a9371f1","ios":"levelo://app?vid=7d495a91-4757-4bd7-b72f-ad237a9371f1"},"vehicle_type_id":"4","last_reported":1778602348,"current_range_meters":8400,"station_id":"st_cvj6sg6p6f1abm77japg","pricing_plan_id":"cebpf4jnsgd1na2vs0mg"},{"bike_id":"878ace6e-30a5-4bb3-817d-a4563f3b1eec","system_id":"levelo_inurba_marseille","lat":43.30244,"lon":5.40043,"is_reserved":false,"is_disabled":false,"rental_uris":{"android":"levelo://app?vid=878ace6e-30a5-4bb3-817d-a4563f3b1eec","ios":"levelo://app?vid=878ace6e-30a5-4bb3-817d-a4563f3b1eec"},"vehicle_type_id":"4","last_reported":1778602348,"current_range_meters":8400,"station_id":"ce4bgvh2rcd13ifvqcs0","pricing_plan_id":"cebpf4jnsgd1na2vs0mg"},{"bike_id":"5d30d8b2-85ea-4de4-b68c-5146034d4fac","system_id":"levelo_inurba_marseille","lat":43.31204,"lon":5.36868,"is_reserved":false,"is_disabled":false,"rental_uris":{"android":"levelo://app?vid=5d30d8b2-85ea-4de4-b68c-5146034d4fac","ios":"levelo://app?vid=5d30d8b2-85ea-4de4-b68c-5146034d4fac"},"vehicle_type_id":"4","last_reported":1778602348,"current_range_meters":8800,"station_id":"ce4bgl92rcd13ifvqbq0","pricing_plan_id":"cebpf4jnsgd1na2vs0mg"},{"bike_id":"25296cbd-b27f-4c8c-a0f2-e8675881c11a","system_id":"levelo_inurba_marseille","lat":43.27373,"lon":5.36253,"is_reserved":false,"is_disabled":false,"rental_uris":{"android":"levelo://app?vid=25296cbd-b27f-4c8c-a0f2-e8675881c11a","ios":"levelo://app?vid=25296cbd-b27f-4c8c-a0f2-e8675881c11a"},"vehicle_type_id":"4","last_reported":1778602348,"current_range_meters":8800,"station_id":"ce4bhbh2rcd13ifvqeo0","pricing_plan_id":"cebpf4jnsgd1na2vs0mg"},{"bike_id":"2228edbb-537f-4b43-855a-81875c843c5a","system_id":"levelo_inurba_marseille","lat":43.3066,"lon":5.36596,"is_reserved":false,"is_disabled":false,"rental_uris":{"android":"levelo://app?vid=2228edbb-537f-4b43-855a-81875c843c5a","ios":"levelo://app?vid=2228edbb-537f-4b43-855a-81875c843c5a"},"vehicle_type_id":"4","last_reported":1778602348,"current_range_meters":8800,"station_id":"","pricing_plan_id":"cebpf4jnsgd1na2vs0mg"},{"bike_id":"59a6e24a-9db4-402e-8b5e-049f3595c118","system_id":"levelo_inurba_marseille","lat":43.295674,"lon":5.39968,"is_reserved":false,"is_disabled":true,"rental_uris":{"android":"levelo://app?vid=59a6e24a-9db4-402e-8b5e-049f3595c118","ios":"levelo://app?vid=59a6e24a-9db4-402e-8b5e-049f3595c118"},"vehicle_type_id":"4","last_reported":1778602348,"current_range_meters":8800,"station_id":"ce4bh312rcd13ifvqdj0","pricing_plan_id":"cebpf4jnsgd1na2vs0mg"},{"bike_id":"1dec4592-f318-4ccc-9124-479c7e8f7178","system_id":"levelo_inurba_marseille","lat":43.29201,"lon":5.38388,"is_reserved":false,"is_disabled":false,"rental_uris":{"android":"levelo://app?vid=1dec4592-f318-4ccc-9124-479c7e8f7178","ios":"levelo://app?vid=1dec4592-f318-4ccc-9124-479c7e8f7178"},"vehicle_type_id":"4","last_reported":1778602348,"current_range_meters":8800,"station_id":"","pricing_plan_id":"cebpf4jnsgd1na2vs0mg"},{"bike_id":"b3b0e24d-b51b-43f6-98ac-9f4f66c71dbf","system_id":"levelo_inurba_marseille","lat":43.28951,"lon":5.36392,"is_reserved":false,"is_disabled":false,"rental_uris":{"android":"levelo://app?vid=b3b0e24d-b51b-43f6-98ac-9f4f66c71dbf","ios":"levelo://app?vid=b3b0e24d-b51b-43f6-98ac-9f4f66c71dbf"},"vehicle_type_id":"4","last_reported":1778602348,"current_range_meters":8800,"station_id":"ce4bhc92rcd13ifvqetg","pricing_plan_id":"cebpf4jnsgd1na2vs0mg"},{"bike_id":"4196c41d-8bac-4f59-809d-20c5bacf0921","system_id":"levelo_inurba_marseille","lat":43.28707,"lon":5.46703,"is_reserved":false,"is_disabled":false,"rental_uris":{"android":"levelo://app?vid=4196c41d-8bac-4f59-809d-20c5bacf0921","ios":"levelo://app?vid=4196c41d-8bac-4f59-809d-20c5bacf0921"},"vehicle_type_id":"4","last_reported":1778602348,"current_range_meters":8800,"station_id":"st_d6tc3vkotcvc738tfjhg","pricing_plan_id":"cebpf4jnsgd1na2vs0mg"},{"bike_id":"0d2fc329-fddc-4de1-96a2-23d650576585","system_id":"levelo_inurba_marseille","lat":43.29047,"lon":5.35918,"is_reserved":false,"is_disabled":false,"rental_uris":{"android":"levelo://app?vid=0d2fc329-fddc-4de1-96a2-23d650576585","ios":"levelo://app?vid=0d2fc329-fddc-4de1-96a2-23d650576585"},"vehicle_type_id":"4","last_reported":1778602348,"current_range_meters":8800,"station_id":"ce4bha92rcd13ifvqeg0","pricing_plan_id":"cebpf4jnsgd1na2vs0mg"},{"bike_id":"1b1dd76b-a1b6-4d82-a590-795de9aeee25","system_id":"levelo_inurba_marseille","lat":43.28694,"lon":5.46679,"is_reserved":false,"is_disabled":false,"rental_uris":{"android":"levelo://app?vid=1b1dd76b-a1b6-4d82-a590-795de9aeee25","ios":"levelo://app?vid=1b1dd76b-a1b6-4d82-a590-795de9aeee25"},"vehicle_type_id":"4","last_reported":1778602348,"current_range_meters":8800,"station_id":"st_d6tc3vkotcvc738tfjhg","pricing_plan_id":"cebpf4jnsgd1na2vs0mg"},{"bike_id":"1def48e7-63df-48d3-8d2f-b7af777fb2cd","system_id":"levelo_inurba_marseille","lat":43.29253,"lon":5.38412,"is_reserved":false,"is_disabled":false,"rental_uris":{"android":"levelo://app?vid=1def48e7-63df-48d3-8d2f-b7af777fb2cd","ios":"levelo://app?vid=1def48e7-63df-48d3-8d2f-b7af777fb2cd"},"vehicle_type_id":"4","last_reported":1778602348,"current_range_meters":8800,"station_id":"ce4bh692rcd13ifvqea0","pricing_plan_id":"cebpf4jnsgd1na2vs0mg"},{"bike_id":"908cf990-7a0d-42fa-9fba-f0da4ae84b10","system_id":"levelo_inurba_marseille","lat":43.26555,"lon":5.40354,"is_reserved":false,"is_disabled":false,"rental_uris":{"android":"levelo://app?vid=908cf990-7a0d-42fa-9fba-f0da4ae84b10","ios":"levelo://app?vid=908cf990-7a0d-42fa-9fba-f0da4ae84b10"},"vehicle_type_id":"4","last_reported":1778602348,"current_range_meters":8800,"station_id":"ce4bhmp2rcd13ifvqgng","pricing_plan_id":"cebpf4jnsgd1na2vs0mg"},{"bike_id":"c441cb5d-c111-433b-bf8f-3bdb7298ef11","system_id":"levelo_inurba_marseille","lat":43.29583,"lon":5.36758,"is_reserved":false,"is_disabled":false,"rental_uris":{"android":"levelo://app?vid=c441cb5d-c111-433b-bf8f-3bdb7298ef11","ios":"levelo://app?vid=c441cb5d-c111-433b-bf8f-3bdb7298ef11"},"vehicle_type_id":"4","last_reported":1778602348,"current_range_meters":8800,"station_id":"ce4bgph2rcd13ifvqc2g","pricing_plan_id":"cebpf4jnsgd1na2vs0mg"},{"bike_id":"eca0ffa8-6d2c-49f1-99e0-80cb58986742","system_id":"levelo_inurba_marseille","lat":43.284094,"lon":5.349773,"is_reserved":false,"is_disabled":false,"rental_uris":{"android":"levelo://app?vid=eca0ffa8-6d2c-49f1-99e0-80cb58986742","ios":"levelo://app?vid=eca0ffa8-6d2c-49f1-99e0-80cb58986742"},"vehicle_type_id":"4","last_reported":1778602348,"current_range_meters":8800,"station_id":"ce4bhbh2rcd13ifvqepg","pricing_plan_id":"cebpf4jnsgd1na2vs0mg"},{"bike_id":"73037b69-705d-463e-8597-5ce75fce9570","system_id":"levelo_inurba_marseille","lat":43.29182,"lon":5.39339,"is_reserved":false,"is_disabled":false,"rental_uris":{"android":"levelo://app?vid=73037b69-705d-463e-8597-5ce75fce9570","ios":"levelo://app?vid=73037b69-705d-463e-8597-5ce75fce9570"},"vehicle_type_id":"4","last_reported":1778602348,"current_range_meters":8800,"station_id":"ce4bh192rcd13ifvqdd0","pricing_plan_id":"cebpf4jnsgd1na2vs0mg"},{"bike_id":"00f9e8e9-a796-4063-972a-6a13a52bcfd2","system_id":"levelo_inurba_marseille","lat":43.28661,"lon":5.36257,"is_reserved":false,"is_disabled":false,"rental_uris":{"android":"levelo://app?vid=00f9e8e9-a796-4063-972a-6a13a52bcfd2","ios":"levelo://app?vid=00f9e8e9-a796-4063-972a-6a13a52bcfd2"},"vehicle_type_id":"4","last_reported":1778602348,"current_range_meters":8800,"station_id":"","pricing_plan_id":"cebpf4jnsgd1na2vs0mg"},{"bike_id":"934d4809-4536-441b-aaf1-479c851d3d5a","system_id":"levelo_inurba_marseille","lat":43.31284,"lon":5.40492,"is_reserved":false,"is_disabled":false,"rental_uris":{"android":"levelo://app?vid=934d4809-4536-441b-aaf1-479c851d3d5a","ios":"levelo://app?vid=934d4809-4536-441b-aaf1-479c851d3d5a"},"vehicle_type_id":"4","last_reported":1778602348,"current_range_meters":8800,"station_id":"","pricing_plan_id":"cebpf4jnsgd1na2vs0mg"},{"bike_id":"7e6fdf43-3607-49d2-aa0c-bdaabb5a269a","system_id":"levelo_inurba_marseille","lat":43.29581,"lon":5.367265,"is_reserved":false,"is_disabled":false,"rental_uris":{"android":"levelo://app?vid=7e6fdf43-3607-49d2-aa0c-bdaabb5a269a","ios":"levelo://app?vid=7e6fdf43-3607-49d2-aa0c-bdaabb5a269a"},"vehicle_type_id":"4","last_reported":1778602348,"current_range_meters":8800,"station_id":"ce4bgph2rcd13ifvqc2g","pricing_plan_id":"cebpf4jnsgd1na2vs0mg"},{"bike_id":"33a0b4db-be07-458c-91c4-afc65fea5c6e","system_id":"levelo_inurba_marseille","lat":43.2509,"lon":5.37619,"is_reserved":false,"is_disabled":false,"rental_uris":{"android":"levelo://app?vid=33a0b4db-be07-458c-91c4-afc65fea5c6e","ios":"levelo://app?vid=33a0b4db-be07-458c-91c4-afc65fea5c6e"},"vehicle_type_id":"4","last_reported":1778602348,"current_range_meters":8800,"station_id":"","pricing_plan_id":"cebpf4jnsgd1na2vs0mg"},{"bike_id":"1da6257b-f1af-4a48-8996-6c5a6ab19545","system_id":"levelo_inurba_marseille","lat":43.2468,"lon":5.38164,"is_reserved":false,"is_disabled":false,"rental_uris":{"android":"levelo://app?vid=1da6257b-f1af-4a48-8996-6c5a6ab19545","ios":"levelo://app?vid=1da6257b-f1af-4a48-8996-6c5a6ab19545"},"vehicle_type_id":"4","last_reported":1778602348,"current_range_meters":8800,"station_id":"ce4bhih2rcd13ifvqfr0","pricing_plan_id":"cebpf4jnsgd1na2vs0mg"},{"bike_id":"275be053-1652-4e69-8323-a4acd3013220","system_id":"levelo_inurba_marseille","lat":43.28679,"lon":5.37399,"is_reserved":false,"is_disabled":false,"rental_uris":{"android":"levelo://app?vid=275be053-1652-4e69-8323-a4acd3013220","ios":"levelo://app?vid=275be053-1652-4e69-8323-a4acd3013220"},"vehicle_type_id":"4","last_reported":1778602348,"current_range_meters":8800,"station_id":"ce4bh3p2rcd13ifvqdq0","pricing_plan_id":"cebpf4jnsgd1na2vs0mg"},{"bike_id":"e5fa19dc-c05a-420c-8376-ea20e4ef9da7","system_id":"levelo_inurba_marseille","lat":43.28455,"lon":5.35876,"is_reserved":false,"is_disabled":false,"rental_uris":{"android":"levelo://app?vid=e5fa19dc-c05a-420c-8376-ea20e4ef9da7","ios":"levelo://app?vid=e5fa19dc-c05a-420c-8376-ea20e4ef9da7"},"vehicle_type_id":"4","last_reported":1778602348,"current_range_meters":8800,"station_id":"ce4bhah2rcd13ifvqei0","pricing_plan_id":"cebpf4jnsgd1na2vs0mg"},{"bike_id":"b6da4a61-eef8-4590-a30c-5d4218354e88","system_id":"levelo_inurba_marseille","lat":43.28209,"lon":5.35413,"is_reserved":false,"is_disabled":false,"rental_uris":{"android":"levelo://app?vid=b6da4a61-eef8-4590-a30c-5d4218354e88","ios":"levelo://app?vid=b6da4a61-eef8-4590-a30c-5d4218354e88"},"vehicle_type_id":"4","last_reported":1778602348,"current_range_meters":8800,"station_id":"","pricing_plan_id":"cebpf4jnsgd1na2vs0mg"},{"bike_id":"31b8d80c-90cc-4b67-b272-30a96992512b","system_id":"levelo_inurba_marseille","lat":43.27989,"lon":5.41662,"is_reserved":false,"is_disabled":false,"rental_uris":{"android":"levelo://app?vid=31b8d80c-90cc-4b67-b272-30a96992512b","ios":"levelo://app?vid=31b8d80c-90cc-4b67-b272-30a96992512b"},"vehicle_type_id":"4","last_reported":1778602348,"current_range_meters":8800,"station_id":"ce4bho12rcd13ifvqh1g","pricing_plan_id":"cebpf4jnsgd1na2vs0mg"},{"bike_id":"d9666609-26f4-4f22-93cd-248424a7a105","system_id":"levelo_inurba_marseille","lat":43.30388,"lon":5.39781,"is_reserved":false,"is_disabled":false,"rental_uris":{"android":"levelo://app?vid=d9666609-26f4-4f22-93cd-248424a7a105","ios":"levelo://app?vid=d9666609-26f4-4f22-93cd-248424a7a105"},"vehicle_type_id":"4","last_reported":1778602348,"current_range_meters":9200,"station_id":"","pricing_plan_id":"cebpf4jnsgd1na2vs0mg"},{"bike_id":"536b2beb-cf39-487f-beeb-827e370b3d82","system_id":"levelo_inurba_marseille","lat":43.29572,"lon":5.37522,"is_reserved":false,"is_disabled":false,"rental_uris":{"android":"levelo://app?vid=536b2beb-cf39-487f-beeb-827e370b3d82","ios":"levelo://app?vid=536b2beb-cf39-487f-beeb-827e370b3d82"},"vehicle_type_id":"4","last_reported":1778602348,"current_range_meters":9200,"station_id":"ce4bgh92rcd13ifvqb50","pricing_plan_id":"cebpf4jnsgd1na2vs0mg"},{"bike_id":"19e877fd-e015-4a86-8008-1a0d333eea65","system_id":"levelo_inurba_marseille","lat":43.33542,"lon":5.37476,"is_reserved":false,"is_disabled":false,"rental_uris":{"android":"levelo://app?vid=19e877fd-e015-4a86-8008-1a0d333eea65","ios":"levelo://app?vid=19e877fd-e015-4a86-8008-1a0d333eea65"},"vehicle_type_id":"4","last_reported":1778602348,"current_range_meters":9200,"station_id":"st_d46tts09ee8s73dlu43g","pricing_plan_id":"cebpf4jnsgd1na2vs0mg"},{"bike_id":"b477be1e-64c7-4e90-bc42-6fe97cda14a2","system_id":"levelo_inurba_marseille","lat":43.29474,"lon":5.43285,"is_reserved":false,"is_disabled":false,"rental_uris":{"android":"levelo://app?vid=b477be1e-64c7-4e90-bc42-6fe97cda14a2","ios":"levelo://app?vid=b477be1e-64c7-4e90-bc42-6fe97cda14a2"},"vehicle_type_id":"4","last_reported":1778602348,"current_range_meters":9200,"station_id":"st_d3j5ugp08ojc73fj9d10","pricing_plan_id":"cebpf4jnsgd1na2vs0mg"},{"bike_id":"1602c824-ae5a-4f68-ae9a-a09d00daa24b","system_id":"levelo_inurba_marseille","lat":43.2255,"lon":5.34869,"is_reserved":false,"is_disabled":true,"rental_uris":{"android":"levelo://app?vid=1602c824-ae5a-4f68-ae9a-a09d00daa24b","ios":"levelo://app?vid=1602c824-ae5a-4f68-ae9a-a09d00daa24b"},"vehicle_type_id":"4","last_reported":1778602348,"current_range_meters":9200,"station_id":"st_cvj5dfep6f1abm77gieg","pricing_plan_id":"cebpf4jnsgd1na2vs0mg"},{"bike_id":"2aaf8d3d-dddc-4659-85e7-34b3b97fa5bc","system_id":"levelo_inurba_marseille","lat":43.21201,"lon":5.35073,"is_reserved":false,"is_disabled":false,"rental_uris":{"android":"levelo://app?vid=2aaf8d3d-dddc-4659-85e7-34b3b97fa5bc","ios":"levelo://app?vid=2aaf8d3d-dddc-4659-85e7-34b3b97fa5bc"},"vehicle_type_id":"4","last_reported":1778602348,"current_range_meters":9200,"station_id":"st_cvj6sg6p6f1abm77japg","pricing_plan_id":"cebpf4jnsgd1na2vs0mg"},{"bike_id":"76704eaa-771e-48b2-b60f-d5402d614963","system_id":"levelo_inurba_marseille","lat":43.29721,"lon":5.37676,"is_reserved":false,"is_disabled":false,"rental_uris":{"android":"levelo://app?vid=76704eaa-771e-48b2-b60f-d5402d614963","ios":"levelo://app?vid=76704eaa-771e-48b2-b60f-d5402d614963"},"vehicle_type_id":"4","last_reported":1778602348,"current_range_meters":9200,"station_id":"ce4bgkh2rcd13ifvqbl0","pricing_plan_id":"cebpf4jnsgd1na2vs0mg"},{"bike_id":"badc5408-efbf-4d71-a93c-ec4f6d2da24e","system_id":"levelo_inurba_marseille","lat":43.26686,"lon":5.38268,"is_reserved":false,"is_disabled":false,"rental_uris":{"android":"levelo://app?vid=badc5408-efbf-4d71-a93c-ec4f6d2da24e","ios":"levelo://app?vid=badc5408-efbf-4d71-a93c-ec4f6d2da24e"},"vehicle_type_id":"4","last_reported":1778602348,"current_range_meters":9200,"station_id":"ce4bhg92rcd13ifvqf90","pricing_plan_id":"cebpf4jnsgd1na2vs0mg"},{"bike_id":"2c1a34ba-2449-4b6a-a0b1-7d84364eccb7","system_id":"levelo_inurba_marseille","lat":43.28265,"lon":5.3506,"is_reserved":false,"is_disabled":false,"rental_uris":{"android":"levelo://app?vid=2c1a34ba-2449-4b6a-a0b1-7d84364eccb7","ios":"levelo://app?vid=2c1a34ba-2449-4b6a-a0b1-7d84364eccb7"},"vehicle_type_id":"4","last_reported":1778602348,"current_range_meters":9200,"station_id":"ce4bhbp2rcd13ifvqerg","pricing_plan_id":"cebpf4jnsgd1na2vs0mg"},{"bike_id":"add47552-d6b8-49f1-8604-59af59e95d84","system_id":"levelo_inurba_marseille","lat":43.29915,"lon":5.38133,"is_reserved":false,"is_disabled":false,"rental_uris":{"android":"levelo://app?vid=add47552-d6b8-49f1-8604-59af59e95d84","ios":"levelo://app?vid=add47552-d6b8-49f1-8604-59af59e95d84"},"vehicle_type_id":"4","last_reported":1778602348,"current_range_meters":9200,"station_id":"ce4bgj12rcd13ifvqbc0","pricing_plan_id":"cebpf4jnsgd1na2vs0mg"},{"bike_id":"31747b77-362c-454f-b967-04fec5720f77","system_id":"levelo_inurba_marseille","lat":43.25083,"lon":5.39541,"is_reserved":false,"is_disabled":false,"rental_uris":{"android":"levelo://app?vid=31747b77-362c-454f-b967-04fec5720f77","ios":"levelo://app?vid=31747b77-362c-454f-b967-04fec5720f77"},"vehicle_type_id":"4","last_reported":1778602348,"current_range_meters":9200,"station_id":"ce4bhm12rcd13ifvqgkg","pricing_plan_id":"cebpf4jnsgd1na2vs0mg"},{"bike_id":"839731a4-f72b-43c2-895a-08daa5c66147","system_id":"levelo_inurba_marseille","lat":43.30294,"lon":5.39213,"is_reserved":false,"is_disabled":false,"rental_uris":{"android":"levelo://app?vid=839731a4-f72b-43c2-895a-08daa5c66147","ios":"levelo://app?vid=839731a4-f72b-43c2-895a-08daa5c66147"},"vehicle_type_id":"4","last_reported":1778602348,"current_range_meters":9200,"station_id":"ce4bgkh2rcd13ifvqbk0","pricing_plan_id":"cebpf4jnsgd1na2vs0mg"},{"bike_id":"0ad9f56c-0cb1-4ddd-bfff-c7b211f4a077","system_id":"levelo_inurba_marseille","lat":43.23461,"lon":5.37213,"is_reserved":false,"is_disabled":false,"rental_uris":{"android":"levelo://app?vid=0ad9f56c-0cb1-4ddd-bfff-c7b211f4a077","ios":"levelo://app?vid=0ad9f56c-0cb1-4ddd-bfff-c7b211f4a077"},"vehicle_type_id":"4","last_reported":1778602348,"current_range_meters":9200,"station_id":"","pricing_plan_id":"cebpf4jnsgd1na2vs0mg"},{"bike_id":"4e8d99a8-7773-4983-8f83-eb4843a1b820","system_id":"levelo_inurba_marseille","lat":43.28261,"lon":5.3507,"is_reserved":false,"is_disabled":false,"rental_uris":{"android":"levelo://app?vid=4e8d99a8-7773-4983-8f83-eb4843a1b820","ios":"levelo://app?vid=4e8d99a8-7773-4983-8f83-eb4843a1b820"},"vehicle_type_id":"4","last_reported":1778602348,"current_range_meters":9200,"station_id":"ce4bhbp2rcd13ifvqerg","pricing_plan_id":"cebpf4jnsgd1na2vs0mg"},{"bike_id":"2e830254-4f76-4d71-98bf-311f170b33ec","system_id":"levelo_inurba_marseille","lat":43.26936,"lon":5.38917,"is_reserved":false,"is_disabled":false,"rental_uris":{"android":"levelo://app?vid=2e830254-4f76-4d71-98bf-311f170b33ec","ios":"levelo://app?vid=2e830254-4f76-4d71-98bf-311f170b33ec"},"vehicle_type_id":"4","last_reported":1778602348,"current_range_meters":9200,"station_id":"ce4bhhh2rcd13ifvqfl0","pricing_plan_id":"cebpf4jnsgd1na2vs0mg"},{"bike_id":"6f8b0d63-4a27-4c64-8991-130a8e2c7266","system_id":"levelo_inurba_marseille","lat":43.33156,"lon":5.37689,"is_reserved":false,"is_disabled":false,"rental_uris":{"android":"levelo://app?vid=6f8b0d63-4a27-4c64-8991-130a8e2c7266","ios":"levelo://app?vid=6f8b0d63-4a27-4c64-8991-130a8e2c7266"},"vehicle_type_id":"4","last_reported":1778602348,"current_range_meters":9200,"station_id":"st_d46cu089ee8s73dldbu0","pricing_plan_id":"cebpf4jnsgd1na2vs0mg"},{"bike_id":"acdc7f9f-c208-4d71-8aab-07abf62efdc3","system_id":"levelo_inurba_marseille","lat":43.33761,"lon":5.37453,"is_reserved":false,"is_disabled":false,"rental_uris":{"android":"levelo://app?vid=acdc7f9f-c208-4d71-8aab-07abf62efdc3","ios":"levelo://app?vid=acdc7f9f-c208-4d71-8aab-07abf62efdc3"},