{"last_updated":1740060521,"ttl":60,"version":"2.2","data":{"bikes":[{"bike_id":"2f146df1-fd64-4ca9-aa57-275d36e0097d","system_id":"levelo_inurba_marseille","lat":43.27064,"lon":5.40266,"is_reserved":false,"is_disabled":false,"rental_uris":{"android":"levelo://app?vid=2f146df1-fd64-4ca9-aa57-275d36e0097d","ios":"levelo://app?vid=2f146df1-fd64-4ca9-aa57-275d36e0097d"},"vehicle_type_id":"4","last_reported":1740060522,"current_range_meters":2800,"station_id":"ce4bhk92rcd13ifvqgc0","pricing_plan_id":"cebpf4jnsgd1na2vs0mg"},{"bike_id":"55013740-08d5-42d3-b8ee-e744c4c6ce59","system_id":"levelo_inurba_marseille","lat":43.23037,"lon":5.35515,"is_reserved":false,"is_disabled":false,"rental_uris":{"android":"levelo://app?vid=55013740-08d5-42d3-b8ee-e744c4c6ce59","ios":"levelo://app?vid=55013740-08d5-42d3-b8ee-e744c4c6ce59"},"vehicle_type_id":"4","last_reported":1740060522,"current_range_meters":2800,"station_id":"cpo3342slgdg3j2ifvpg","pricing_plan_id":"cebpf4jnsgd1na2vs0mg"},{"bike_id":"cb34ba2b-1742-4fb5-a2f5-2e37a8de2a9e","system_id":"levelo_inurba_marseille","lat":43.34148,"lon":5.40921,"is_reserved":false,"is_disabled":false,"rental_uris":{"android":"levelo://app?vid=cb34ba2b-1742-4fb5-a2f5-2e37a8de2a9e","ios":"levelo://app?vid=cb34ba2b-1742-4fb5-a2f5-2e37a8de2a9e"},"vehicle_type_id":"4","last_reported":1740060522,"current_range_meters":2800,"station_id":"ce4bhqh2rcd13ifvqhlg","pricing_plan_id":"cebpf4jnsgd1na2vs0mg"},{"bike_id":"b46d6d45-0f33-4589-9d33-ad161ce012c0","system_id":"levelo_inurba_marseille","lat":43.28658,"lon":5.36336,"is_reserved":false,"is_disabled":false,"rental_uris":{"android":"levelo://app?vid=b46d6d45-0f33-4589-9d33-ad161ce012c0","ios":"levelo://app?vid=b46d6d45-0f33-4589-9d33-ad161ce012c0"},"vehicle_type_id":"4","last_reported":1740060522,"current_range_meters":2800,"station_id":"ce4bhah2rcd13ifvqej0","pricing_plan_id":"cebpf4jnsgd1na2vs0mg"},{"bike_id":"b5560a7d-0573-44e3-a71b-47f0ed1040a3","system_id":"levelo_inurba_marseille","lat":43.2988,"lon":5.39728,"is_reserved":false,"is_disabled":false,"rental_uris":{"android":"levelo://app?vid=b5560a7d-0573-44e3-a71b-47f0ed1040a3","ios":"levelo://app?vid=b5560a7d-0573-44e3-a71b-47f0ed1040a3"},"vehicle_type_id":"4","last_reported":1740060522,"current_range_meters":2800,"station_id":"ce4bh0h2rcd13ifvqd50","pricing_plan_id":"cebpf4jnsgd1na2vs0mg"},{"bike_id":"cf64b7cd-4626-4d79-afac-2611db88ce28","system_id":"levelo_inurba_marseille","lat":43.27958,"lon":5.41663,"is_reserved":false,"is_disabled":false,"rental_uris":{"android":"levelo://app?vid=cf64b7cd-4626-4d79-afac-2611db88ce28","ios":"levelo://app?vid=cf64b7cd-4626-4d79-afac-2611db88ce28"},"vehicle_type_id":"4","last_reported":1740060522,"current_range_meters":4000,"station_id":"ce4bho12rcd13ifvqh1g","pricing_plan_id":"cebpf4jnsgd1na2vs0mg"},{"bike_id":"adb3d6df-7149-4295-84c9-8f4cb47f9c0e","system_id":"levelo_inurba_marseille","lat":43.27274,"lon":5.40673,"is_reserved":false,"is_disabled":true,"rental_uris":{"android":"levelo://app?vid=adb3d6df-7149-4295-84c9-8f4cb47f9c0e","ios":"levelo://app?vid=adb3d6df-7149-4295-84c9-8f4cb47f9c0e"},"vehicle_type_id":"4","last_reported":1740060522,"current_range_meters":4000,"station_id":"","pricing_plan_id":"cebpf4jnsgd1na2vs0mg"},{"bike_id":"752af23a-eb6f-4c60-94a2-eecb79a8db86","system_id":"levelo_inurba_marseille","lat":43.28699,"lon":5.37387,"is_reserved":false,"is_disabled":false,"rental_uris":{"android":"levelo://app?vid=752af23a-eb6f-4c60-94a2-eecb79a8db86","ios":"levelo://app?vid=752af23a-eb6f-4c60-94a2-eecb79a8db86"},"vehicle_type_id":"4","last_reported":1740060522,"current_range_meters":4400,"station_id":"ce4bh3p2rcd13ifvqdq0","pricing_plan_id":"cebpf4jnsgd1na2vs0mg"},{"bike_id":"ed356dd8-0353-427c-9cf0-284ca7b500d9","system_id":"levelo_inurba_marseille","lat":43.25083,"lon":5.3951,"is_reserved":false,"is_disabled":false,"rental_uris":{"android":"levelo://app?vid=ed356dd8-0353-427c-9cf0-284ca7b500d9","ios":"levelo://app?vid=ed356dd8-0353-427c-9cf0-284ca7b500d9"},"vehicle_type_id":"4","last_reported":1740060522,"current_range_meters":4400,"station_id":"ce4bhm12rcd13ifvqgkg","pricing_plan_id":"cebpf4jnsgd1na2vs0mg"},{"bike_id":"92795ebc-5d27-4bf7-939b-d0adba6d86c7","system_id":"levelo_inurba_marseille","lat":43.27835,"lon":5.3921,"is_reserved":false,"is_disabled":false,"rental_uris":{"android":"levelo://app?vid=92795ebc-5d27-4bf7-939b-d0adba6d86c7","ios":"levelo://app?vid=92795ebc-5d27-4bf7-939b-d0adba6d86c7"},"vehicle_type_id":"4","last_reported":1740060522,"current_range_meters":4800,"station_id":"ce4bhjp2rcd13ifvqga0","pricing_plan_id":"cebpf4jnsgd1na2vs0mg"},{"bike_id":"fd7493cc-31f3-49ce-b79a-682a99a8fcec","system_id":"levelo_inurba_marseille","lat":43.25946,"lon":5.4089,"is_reserved":false,"is_disabled":false,"rental_uris":{"android":"levelo://app?vid=fd7493cc-31f3-49ce-b79a-682a99a8fcec","ios":"levelo://app?vid=fd7493cc-31f3-49ce-b79a-682a99a8fcec"},"vehicle_type_id":"4","last_reported":1740060522,"current_range_meters":5600,"station_id":"ce4bhm92rcd13ifvqglg","pricing_plan_id":"cebpf4jnsgd1na2vs0mg"},{"bike_id":"59367cd7-9146-4b42-8d6e-239fcbf25be5","system_id":"levelo_inurba_marseille","lat":43.26564,"lon":5.39008,"is_reserved":false,"is_disabled":false,"rental_uris":{"android":"levelo://app?vid=59367cd7-9146-4b42-8d6e-239fcbf25be5","ios":"levelo://app?vid=59367cd7-9146-4b42-8d6e-239fcbf25be5"},"vehicle_type_id":"4","last_reported":1740060522,"current_range_meters":5600,"station_id":"","pricing_plan_id":"cebpf4jnsgd1na2vs0mg"},{"bike_id":"ec2a2a80-692c-4e61-b758-ee418e5968e4","system_id":"levelo_inurba_marseille","lat":43.23964,"lon":5.3664,"is_reserved":false,"is_disabled":false,"rental_uris":{"android":"levelo://app?vid=ec2a2a80-692c-4e61-b758-ee418e5968e4","ios":"levelo://app?vid=ec2a2a80-692c-4e61-b758-ee418e5968e4"},"vehicle_type_id":"4","last_reported":1740060522,"current_range_meters":5600,"station_id":"ce4bhi12rcd13ifvqfp0","pricing_plan_id":"cebpf4jnsgd1na2vs0mg"},{"bike_id":"fde88e60-06df-44f1-9168-61675e77d9b8","system_id":"levelo_inurba_marseille","lat":43.23147,"lon":5.43718,"is_reserved":false,"is_disabled":false,"rental_uris":{"android":"levelo://app?vid=fde88e60-06df-44f1-9168-61675e77d9b8","ios":"levelo://app?vid=fde88e60-06df-44f1-9168-61675e77d9b8"},"vehicle_type_id":"4","last_reported":1740060522,"current_range_meters":6000,"station_id":"ce4bhmp2rcd13ifvqgog","pricing_plan_id":"cebpf4jnsgd1na2vs0mg"},{"bike_id":"9198c6ef-bd5b-45d9-bd7b-e058d791d44b","system_id":"levelo_inurba_marseille","lat":43.24817,"lon":5.37461,"is_reserved":false,"is_disabled":true,"rental_uris":{"android":"levelo://app?vid=9198c6ef-bd5b-45d9-bd7b-e058d791d44b","ios":"levelo://app?vid=9198c6ef-bd5b-45d9-bd7b-e058d791d44b"},"vehicle_type_id":"4","last_reported":1740060522,"current_range_meters":6000,"station_id":"","pricing_plan_id":"cebpf4jnsgd1na2vs0mg"},{"bike_id":"7f2b235d-b54a-4ba7-9884-b541f6dd74e7","system_id":"levelo_inurba_marseille","lat":43.27175,"lon":5.40999,"is_reserved":false,"is_disabled":false,"rental_uris":{"android":"levelo://app?vid=7f2b235d-b54a-4ba7-9884-b541f6dd74e7","ios":"levelo://app?vid=7f2b235d-b54a-4ba7-9884-b541f6dd74e7"},"vehicle_type_id":"4","last_reported":1740060522,"current_range_meters":6000,"station_id":"","pricing_plan_id":"cebpf4jnsgd1na2vs0mg"},{"bike_id":"33b57d6d-123b-4149-b71d-164e20d79c00","system_id":"levelo_inurba_marseille","lat":43.30391,"lon":5.39773,"is_reserved":false,"is_disabled":false,"rental_uris":{"android":"levelo://app?vid=33b57d6d-123b-4149-b71d-164e20d79c00","ios":"levelo://app?vid=33b57d6d-123b-4149-b71d-164e20d79c00"},"vehicle_type_id":"4","last_reported":1740060522,"current_range_meters":6000,"station_id":"ce4bh092rcd13ifvqd20","pricing_plan_id":"cebpf4jnsgd1na2vs0mg"},{"bike_id":"1821cf5a-24bc-4763-9753-11df4acc4f4c","system_id":"levelo_inurba_marseille","lat":43.24175,"lon":5.36382,"is_reserved":false,"is_disabled":false,"rental_uris":{"android":"levelo://app?vid=1821cf5a-24bc-4763-9753-11df4acc4f4c","ios":"levelo://app?vid=1821cf5a-24bc-4763-9753-11df4acc4f4c"},"vehicle_type_id":"4","last_reported":1740060522,"current_range_meters":6400,"station_id":"cpo36qri1sfpv3e86is0","pricing_plan_id":"cebpf4jnsgd1na2vs0mg"},{"bike_id":"239f599a-682e-4e2c-b0d7-6c05a6991da6","system_id":"levelo_inurba_marseille","lat":43.3096,"lon":5.39049,"is_reserved":false,"is_disabled":false,"rental_uris":{"android":"levelo://app?vid=239f599a-682e-4e2c-b0d7-6c05a6991da6","ios":"levelo://app?vid=239f599a-682e-4e2c-b0d7-6c05a6991da6"},"vehicle_type_id":"4","last_reported":1740060522,"current_range_meters":6400,"station_id":"ce4bgup2rcd13ifvqco0","pricing_plan_id":"cebpf4jnsgd1na2vs0mg"},{"bike_id":"07750a48-0a12-4e33-89cd-d0f50529fa8e","system_id":"levelo_inurba_marseille","lat":43.27976,"lon":5.40992,"is_reserved":false,"is_disabled":false,"rental_uris":{"android":"levelo://app?vid=07750a48-0a12-4e33-89cd-d0f50529fa8e","ios":"levelo://app?vid=07750a48-0a12-4e33-89cd-d0f50529fa8e"},"vehicle_type_id":"4","last_reported":1740060522,"current_range_meters":6800,"station_id":"ce4bhnp2rcd13ifvqh0g","pricing_plan_id":"cebpf4jnsgd1na2vs0mg"},{"bike_id":"90de8971-db22-4d27-8c08-4575a12860f9","system_id":"levelo_inurba_marseille","lat":43.27222,"lon":5.40991,"is_reserved":false,"is_disabled":false,"rental_uris":{"android":"levelo://app?vid=90de8971-db22-4d27-8c08-4575a12860f9","ios":"levelo://app?vid=90de8971-db22-4d27-8c08-4575a12860f9"},"vehicle_type_id":"4","last_reported":1740060522,"current_range_meters":6800,"station_id":"ce4bhl12rcd13ifvqgf0","pricing_plan_id":"cebpf4jnsgd1na2vs0mg"},{"bike_id":"972740b7-233e-45e6-9852-f9b6482090f5","system_id":"levelo_inurba_marseille","lat":43.27907,"lon":5.38011,"is_reserved":false,"is_disabled":false,"rental_uris":{"android":"levelo://app?vid=972740b7-233e-45e6-9852-f9b6482090f5","ios":"levelo://app?vid=972740b7-233e-45e6-9852-f9b6482090f5"},"vehicle_type_id":"4","last_reported":1740060522,"current_range_meters":7200,"station_id":"","pricing_plan_id":"cebpf4jnsgd1na2vs0mg"},{"bike_id":"52589699-a782-4a4d-ac19-7c78a58b11da","system_id":"levelo_inurba_marseille","lat":43.2658,"lon":5.39055,"is_reserved":false,"is_disabled":false,"rental_uris":{"android":"levelo://app?vid=52589699-a782-4a4d-ac19-7c78a58b11da","ios":"levelo://app?vid=52589699-a782-4a4d-ac19-7c78a58b11da"},"vehicle_type_id":"4","last_reported":1740060522,"current_range_meters":7200,"station_id":"ce4bhe12rcd13ifvqf30","pricing_plan_id":"cebpf4jnsgd1na2vs0mg"},{"bike_id":"816e3e7b-b107-4001-b79f-e380ada67102","system_id":"levelo_inurba_marseille","lat":43.24167,"lon":5.36381,"is_reserved":false,"is_disabled":false,"rental_uris":{"android":"levelo://app?vid=816e3e7b-b107-4001-b79f-e380ada67102","ios":"levelo://app?vid=816e3e7b-b107-4001-b79f-e380ada67102"},"vehicle_type_id":"4","last_reported":1740060522,"current_range_meters":7200,"station_id":"cpo36qri1sfpv3e86is0","pricing_plan_id":"cebpf4jnsgd1na2vs0mg"},{"bike_id":"7f7b9ad4-9cb4-4532-aabb-3d34b14bd1b0","system_id":"levelo_inurba_marseille","lat":43.26686,"lon":5.38271,"is_reserved":false,"is_disabled":false,"rental_uris":{"android":"levelo://app?vid=7f7b9ad4-9cb4-4532-aabb-3d34b14bd1b0","ios":"levelo://app?vid=7f7b9ad4-9cb4-4532-aabb-3d34b14bd1b0"},"vehicle_type_id":"4","last_reported":1740060522,"current_range_meters":7200,"station_id":"","pricing_plan_id":"cebpf4jnsgd1na2vs0mg"},{"bike_id":"093d36c4-f304-46a9-8792-5d9e19e468fc","system_id":"levelo_inurba_marseille","lat":43.29894,"lon":5.436674,"is_reserved":false,"is_disabled":false,"rental_uris":{"android":"levelo://app?vid=093d36c4-f304-46a9-8792-5d9e19e468fc","ios":"levelo://app?vid=093d36c4-f304-46a9-8792-5d9e19e468fc"},"vehicle_type_id":"4","last_reported":1740060522,"current_range_meters":8000,"station_id":"ce4bhpp2rcd13ifvqhfg","pricing_plan_id":"cebpf4jnsgd1na2vs0mg"},{"bike_id":"d21f10f0-e820-4e1c-826a-0aa394d1c50e","system_id":"levelo_inurba_marseille","lat":43.29044,"lon":5.35917,"is_reserved":false,"is_disabled":false,"rental_uris":{"android":"levelo://app?vid=d21f10f0-e820-4e1c-826a-0aa394d1c50e","ios":"levelo://app?vid=d21f10f0-e820-4e1c-826a-0aa394d1c50e"},"vehicle_type_id":"4","last_reported":1740060522,"current_range_meters":7200,"station_id":"ce4bha92rcd13ifvqeg0","pricing_plan_id":"cebpf4jnsgd1na2vs0mg"},{"bike_id":"0f855b14-6356-4f10-ac2e-7684af42fdb8","system_id":"levelo_inurba_marseille","lat":43.26203,"lon":5.37932,"is_reserved":false,"is_disabled":false,"rental_uris":{"android":"levelo://app?vid=0f855b14-6356-4f10-ac2e-7684af42fdb8","ios":"levelo://app?vid=0f855b14-6356-4f10-ac2e-7684af42fdb8"},"vehicle_type_id":"4","last_reported":1740060522,"current_range_meters":8000,"station_id":"ce4bhjp2rcd13ifvqg90","pricing_plan_id":"cebpf4jnsgd1na2vs0mg"},{"bike_id":"f027fe38-3f5d-42fa-b16a-68ca60104c09","system_id":"levelo_inurba_marseille","lat":43.24164,"lon":5.36409,"is_reserved":false,"is_disabled":false,"rental_uris":{"android":"levelo://app?vid=f027fe38-3f5d-42fa-b16a-68ca60104c09","ios":"levelo://app?vid=f027fe38-3f5d-42fa-b16a-68ca60104c09"},"vehicle_type_id":"4","last_reported":1740060522,"current_range_meters":8000,"station_id":"","pricing_plan_id":"cebpf4jnsgd1na2vs0mg"},{"bike_id":"3633587c-dafb-4b6e-b4ae-308eb791df81","system_id":"levelo_inurba_marseille","lat":43.270516,"lon":5.402615,"is_reserved":false,"is_disabled":false,"rental_uris":{"android":"levelo://app?vid=3633587c-dafb-4b6e-b4ae-308eb791df81","ios":"levelo://app?vid=3633587c-dafb-4b6e-b4ae-308eb791df81"},"vehicle_type_id":"4","last_reported":1740060522,"current_range_meters":8000,"station_id":"","pricing_plan_id":"cebpf4jnsgd1na2vs0mg"},{"bike_id":"f8a1eefe-5190-4327-95c3-8138f343fe57","system_id":"levelo_inurba_marseille","lat":43.31186,"lon":5.39346,"is_reserved":false,"is_disabled":false,"rental_uris":{"android":"levelo://app?vid=f8a1eefe-5190-4327-95c3-8138f343fe57","ios":"levelo://app?vid=f8a1eefe-5190-4327-95c3-8138f343fe57"},"vehicle_type_id":"4","last_reported":1740060522,"current_range_meters":8000,"station_id":"ce4bgqh2rcd13ifvqc4g","pricing_plan_id":"cebpf4jnsgd1na2vs0mg"},{"bike_id":"6750c196-97cb-4f75-b3fd-6fec367d1f9b","system_id":"levelo_inurba_marseille","lat":43.25505,"lon":5.3765,"is_reserved":false,"is_disabled":false,"rental_uris":{"android":"levelo://app?vid=6750c196-97cb-4f75-b3fd-6fec367d1f9b","ios":"levelo://app?vid=6750c196-97cb-4f75-b3fd-6fec367d1f9b"},"vehicle_type_id":"4","last_reported":1740060522,"current_range_meters":7200,"station_id":"ce4bhh12rcd13ifvqff0","pricing_plan_id":"cebpf4jnsgd1na2vs0mg"},{"bike_id":"a785767d-3278-4db8-8933-1f8eb2edc4a9","system_id":"levelo_inurba_marseille","lat":43.29844,"lon":5.36282,"is_reserved":false,"is_disabled":false,"rental_uris":{"android":"levelo://app?vid=a785767d-3278-4db8-8933-1f8eb2edc4a9","ios":"levelo://app?vid=a785767d-3278-4db8-8933-1f8eb2edc4a9"},"vehicle_type_id":"4","last_reported":1740060522,"current_range_meters":8400,"station_id":"ce4bgpp2rcd13ifvqc3g","pricing_plan_id":"cebpf4jnsgd1na2vs0mg"},{"bike_id":"d5173bbe-86f4-4afc-a8e0-76d62e3a8b83","system_id":"levelo_inurba_marseille","lat":43.23964,"lon":5.36631,"is_reserved":false,"is_disabled":false,"rental_uris":{"android":"levelo://app?vid=d5173bbe-86f4-4afc-a8e0-76d62e3a8b83","ios":"levelo://app?vid=d5173bbe-86f4-4afc-a8e0-76d62e3a8b83"},"vehicle_type_id":"4","last_reported":1740060522,"current_range_meters":8400,"station_id":"ce4bhi12rcd13ifvqfp0","pricing_plan_id":"cebpf4jnsgd1na2vs0mg"},{"bike_id":"3fa131c8-d3bf-4fb9-b400-1daf371dcaa7","system_id":"levelo_inurba_marseille","lat":43.2719,"lon":5.40974,"is_reserved":false,"is_disabled":false,"rental_uris":{"android":"levelo://app?vid=3fa131c8-d3bf-4fb9-b400-1daf371dcaa7","ios":"levelo://app?vid=3fa131c8-d3bf-4fb9-b400-1daf371dcaa7"},"vehicle_type_id":"4","last_reported":1740060522,"current_range_meters":8400,"station_id":"ce4bhl12rcd13ifvqgf0","pricing_plan_id":"cebpf4jnsgd1na2vs0mg"},{"bike_id":"8416c4e0-2889-449f-90f9-f4374fac5951","system_id":"levelo_inurba_marseille","lat":43.2987,"lon":5.39723,"is_reserved":false,"is_disabled":false,"rental_uris":{"android":"levelo://app?vid=8416c4e0-2889-449f-90f9-f4374fac5951","ios":"levelo://app?vid=8416c4e0-2889-449f-90f9-f4374fac5951"},"vehicle_type_id":"4","last_reported":1740060522,"current_range_meters":8400,"station_id":"ce4bh0h2rcd13ifvqd50","pricing_plan_id":"cebpf4jnsgd1na2vs0mg"},{"bike_id":"63c4cf47-dbff-4d5e-a88a-080b99df99de","system_id":"levelo_inurba_marseille","lat":43.29532,"lon":5.38869,"is_reserved":false,"is_disabled":true,"rental_uris":{"android":"levelo://app?vid=63c4cf47-dbff-4d5e-a88a-080b99df99de","ios":"levelo://app?vid=63c4cf47-dbff-4d5e-a88a-080b99df99de"},"vehicle_type_id":"4","last_reported":1740060522,"current_range_meters":8400,"station_id":"","pricing_plan_id":"cebpf4jnsgd1na2vs0mg"},{"bike_id":"34d14ec0-9a1d-4d07-8158-52ff5d0c0371","system_id":"levelo_inurba_marseille","lat":43.29437,"lon":5.38042,"is_reserved":false,"is_disabled":false,"rental_uris":{"android":"levelo://app?vid=34d14ec0-9a1d-4d07-8158-52ff5d0c0371","ios":"levelo://app?vid=34d14ec0-9a1d-4d07-8158-52ff5d0c0371"},"vehicle_type_id":"4","last_reported":1740060522,"current_range_meters":8400,"station_id":"","pricing_plan_id":"cebpf4jnsgd1na2vs0mg"},{"bike_id":"407061d8-6ccd-411e-8d78-08f5ad643857","system_id":"levelo_inurba_marseille","lat":43.33734,"lon":5.39182,"is_reserved":false,"is_disabled":false,"rental_uris":{"android":"levelo://app?vid=407061d8-6ccd-411e-8d78-08f5ad643857","ios":"levelo://app?vid=407061d8-6ccd-411e-8d78-08f5ad643857"},"vehicle_type_id":"4","last_reported":1740060522,"current_range_meters":8400,"station_id":"ce4bhr92rcd13ifvqhsg","pricing_plan_id":"cebpf4jnsgd1na2vs0mg"},{"bike_id":"c8edfef6-42a6-40b3-a649-857afbe6fa02","system_id":"levelo_inurba_marseille","lat":43.25019,"lon":5.38921,"is_reserved":false,"is_disabled":false,"rental_uris":{"android":"levelo://app?vid=c8edfef6-42a6-40b3-a649-857afbe6fa02","ios":"levelo://app?vid=c8edfef6-42a6-40b3-a649-857afbe6fa02"},"vehicle_type_id":"4","last_reported":1740060522,"current_range_meters":8400,"station_id":"","pricing_plan_id":"cebpf4jnsgd1na2vs0mg"},{"bike_id":"4bf46894-4f9e-4a0c-9c89-25072f066da4","system_id":"levelo_inurba_marseille","lat":43.33733,"lon":5.39182,"is_reserved":false,"is_disabled":false,"rental_uris":{"android":"levelo://app?vid=4bf46894-4f9e-4a0c-9c89-25072f066da4","ios":"levelo://app?vid=4bf46894-4f9e-4a0c-9c89-25072f066da4"},"vehicle_type_id":"4","last_reported":1740060522,"current_range_meters":8400,"station_id":"ce4bhr92rcd13ifvqhsg","pricing_plan_id":"cebpf4jnsgd1na2vs0mg"},{"bike_id":"b64778c2-2434-4409-b125-e965a1fd469a","system_id":"levelo_inurba_marseille","lat":43.30341,"lon":5.36692,"is_reserved":false,"is_disabled":false,"rental_uris":{"android":"levelo://app?vid=b64778c2-2434-4409-b125-e965a1fd469a","ios":"levelo://app?vid=b64778c2-2434-4409-b125-e965a1fd469a"},"vehicle_type_id":"4","last_reported":1740060522,"current_range_meters":8400,"station_id":"ce4bgs12rcd13ifvqcag","pricing_plan_id":"cebpf4jnsgd1na2vs0mg"},{"bike_id":"a00fb5cd-e0d2-4f96-befb-5275c0df0c87","system_id":"levelo_inurba_marseille","lat":43.27986,"lon":5.41675,"is_reserved":false,"is_disabled":false,"rental_uris":{"android":"levelo://app?vid=a00fb5cd-e0d2-4f96-befb-5275c0df0c87","ios":"levelo://app?vid=a00fb5cd-e0d2-4f96-befb-5275c0df0c87"},"vehicle_type_id":"4","last_reported":1740060522,"current_range_meters":8800,"station_id":"ce4bho12rcd13ifvqh1g","pricing_plan_id":"cebpf4jnsgd1na2vs0mg"},{"bike_id":"e1635589-a58b-4a69-a272-7bcd776fbb53","system_id":"levelo_inurba_marseille","lat":43.25933,"lon":5.40869,"is_reserved":false,"is_disabled":false,"rental_uris":{"android":"levelo://app?vid=e1635589-a58b-4a69-a272-7bcd776fbb53","ios":"levelo://app?vid=e1635589-a58b-4a69-a272-7bcd776fbb53"},"vehicle_type_id":"4","last_reported":1740060522,"current_range_meters":8800,"station_id":"ce4bhm92rcd13ifvqglg","pricing_plan_id":"cebpf4jnsgd1na2vs0mg"},{"bike_id":"fc971b16-bef3-4b6d-813c-ffc8ffa48842","system_id":"levelo_inurba_marseille","lat":43.2841,"lon":5.34986,"is_reserved":false,"is_disabled":true,"rental_uris":{"android":"levelo://app?vid=fc971b16-bef3-4b6d-813c-ffc8ffa48842","ios":"levelo://app?vid=fc971b16-bef3-4b6d-813c-ffc8ffa48842"},"vehicle_type_id":"4","last_reported":1740060522,"current_range_meters":8800,"station_id":"","pricing_plan_id":"cebpf4jnsgd1na2vs0mg"},{"bike_id":"104b15c6-bf74-407c-9a34-de8a1be58e4f","system_id":"levelo_inurba_marseille","lat":43.29187,"lon":5.37278,"is_reserved":false,"is_disabled":false,"rental_uris":{"android":"levelo://app?vid=104b15c6-bf74-407c-9a34-de8a1be58e4f","ios":"levelo://app?vid=104b15c6-bf74-407c-9a34-de8a1be58e4f"},"vehicle_type_id":"4","last_reported":1740060522,"current_range_meters":8800,"station_id":"","pricing_plan_id":"cebpf4jnsgd1na2vs0mg"},{"bike_id":"82d24bac-3a93-4e81-8e18-67d051f60ecf","system_id":"levelo_inurba_marseille","lat":43.28161,"lon":5.42646,"is_reserved":false,"is_disabled":false,"rental_uris":{"android":"levelo://app?vid=82d24bac-3a93-4e81-8e18-67d051f60ecf","ios":"levelo://app?vid=82d24bac-3a93-4e81-8e18-67d051f60ecf"},"vehicle_type_id":"4","last_reported":1740060522,"current_range_meters":8800,"station_id":"ce4bhnh2rcd13ifvqgug","pricing_plan_id":"cebpf4jnsgd1na2vs0mg"},{"bike_id":"11fc1c36-a3ee-4bf8-8a85-83d409d3bfe7","system_id":"levelo_inurba_marseille","lat":43.27495,"lon":5.42446,"is_reserved":false,"is_disabled":false,"rental_uris":{"android":"levelo://app?vid=11fc1c36-a3ee-4bf8-8a85-83d409d3bfe7","ios":"levelo://app?vid=11fc1c36-a3ee-4bf8-8a85-83d409d3bfe7"},"vehicle_type_id":"4","last_reported":1740060522,"current_range_meters":8400,"station_id":"ce4bhn92rcd13ifvqgrg","pricing_plan_id":"cebpf4jnsgd1na2vs0mg"},{"bike_id":"201ed5b5-4e38-439e-91de-f0932d416864","system_id":"levelo_inurba_marseille","lat":43.27895,"lon":5.38013,"is_reserved":false,"is_disabled":false,"rental_uris":{"android":"levelo://app?vid=201ed5b5-4e38-439e-91de-f0932d416864","ios":"levelo://app?vid=201ed5b5-4e38-439e-91de-f0932d416864"},"vehicle_type_id":"4","last_reported":1740060522,"current_range_meters":9200,"station_id":"","pricing_plan_id":"cebpf4jnsgd1na2vs0mg"},{"bike_id":"5180f318-4948-4085-aaf1-5f3160b57dbe","system_id":"levelo_inurba_marseille","lat":43.276179,"lon":5.361058,"is_reserved":false,"is_disabled":false,"rental_uris":{"android":"levelo://app?vid=5180f318-4948-4085-aaf1-5f3160b57dbe","ios":"levelo://app?vid=5180f318-4948-4085-aaf1-5f3160b57dbe"},"vehicle_type_id":"4","last_reported":1740060522,"current_range_meters":8800,"station_id":"","pricing_plan_id":"cebpf4jnsgd1na2vs0mg"},{"bike_id":"b18214b4-65ef-4ef7-9880-062328e032b3","system_id":"levelo_inurba_marseille","lat":43.29984,"lon":5.38491,"is_reserved":false,"is_disabled":false,"rental_uris":{"android":"levelo://app?vid=b18214b4-65ef-4ef7-9880-062328e032b3","ios":"levelo://app?vid=b18214b4-65ef-4ef7-9880-062328e032b3"},"vehicle_type_id":"4","last_reported":1740060522,"current_range_meters":9200,"station_id":"ce4bgj92rcd13ifvqbd0","pricing_plan_id":"cebpf4jnsgd1na2vs0mg"},{"bike_id":"26779595-c177-40e8-a988-d5570ab1009d","system_id":"levelo_inurba_marseille","lat":43.29197,"lon":5.39792,"is_reserved":false,"is_disabled":false,"rental_uris":{"android":"levelo://app?vid=26779595-c177-40e8-a988-d5570ab1009d","ios":"levelo://app?vid=26779595-c177-40e8-a988-d5570ab1009d"},"vehicle_type_id":"4","last_reported":1740060522,"current_range_meters":9200,"station_id":"","pricing_plan_id":"cebpf4jnsgd1na2vs0mg"},{"bike_id":"30373a9f-4fc7-45a1-8ae5-65060b7c5711","system_id":"levelo_inurba_marseille","lat":43.24547,"lon":5.39519,"is_reserved":false,"is_disabled":false,"rental_uris":{"android":"levelo://app?vid=30373a9f-4fc7-45a1-8ae5-65060b7c5711","ios":"levelo://app?vid=30373a9f-4fc7-45a1-8ae5-65060b7c5711"},"vehicle_type_id":"4","last_reported":1740060522,"current_range_meters":9200,"station_id":"","pricing_plan_id":"cebpf4jnsgd1na2vs0mg"},{"bike_id":"c344789d-c362-498c-aa9b-aa2e440bfbf0","system_id":"levelo_inurba_marseille","lat":43.32356,"lon":5.36761,"is_reserved":false,"is_disabled":false,"rental_uris":{"android":"levelo://app?vid=c344789d-c362-498c-aa9b-aa2e440bfbf0","ios":"levelo://app?vid=c344789d-c362-498c-aa9b-aa2e440bfbf0"},"vehicle_type_id":"4","last_reported":1740060522,"current_range_meters":9200,"station_id":"ce4bhsh2rcd13ifvqi2g","pricing_plan_id":"cebpf4jnsgd1na2vs0mg"},{"bike_id":"cea5e88c-c467-4100-b0da-e152ac5a03c1","system_id":"levelo_inurba_marseille","lat":43.27908,"lon":5.379978,"is_reserved":false,"is_disabled":false,"rental_uris":{"android":"levelo://app?vid=cea5e88c-c467-4100-b0da-e152ac5a03c1","ios":"levelo://app?vid=cea5e88c-c467-4100-b0da-e152ac5a03c1"},"vehicle_type_id":"4","last_reported":1740060522,"current_range_meters":9600,"station_id":"","pricing_plan_id":"cebpf4jnsgd1na2vs0mg"},{"bike_id":"607c004c-2e60-47e5-b16a-ad435da5f919","system_id":"levelo_inurba_marseille","lat":43.27207,"lon":5.39181,"is_reserved":false,"is_disabled":false,"rental_uris":{"android":"levelo://app?vid=607c004c-2e60-47e5-b16a-ad435da5f919","ios":"levelo://app?vid=607c004c-2e60-47e5-b16a-ad435da5f919"},"vehicle_type_id":"4","last_reported":1740060522,"current_range_meters":9200,"station_id":"ce4bhhp2rcd13ifvqfm0","pricing_plan_id":"cebpf4jnsgd1na2vs0mg"},{"bike_id":"0686e433-82b6-4ced-b364-39b66b6a0983","system_id":"levelo_inurba_marseille","lat":43.255799,"lon":5.382359,"is_reserved":false,"is_disabled":false,"rental_uris":{"android":"levelo://app?vid=0686e433-82b6-4ced-b364-39b66b6a0983","ios":"levelo://app?vid=0686e433-82b6-4ced-b364-39b66b6a0983"},"vehicle_type_id":"4","last_reported":1740060522,"current_range_meters":9600,"station_id":"ce4bhih2rcd13ifvqfs0","pricing_plan_id":"cebpf4jnsgd1na2vs0mg"},{"bike_id":"d078d9e7-1854-4ad6-a4cc-af7788d393db","system_id":"levelo_inurba_marseille","lat":43.27064,"lon":5.40262,"is_reserved":false,"is_disabled":false,"rental_uris":{"android":"levelo://app?vid=d078d9e7-1854-4ad6-a4cc-af7788d393db","ios":"levelo://app?vid=d078d9e7-1854-4ad6-a4cc-af7788d393db"},"vehicle_type_id":"4","last_reported":1740060522,"current_range_meters":9600,"station_id":"ce4bhk92rcd13ifvqgc0","pricing_plan_id":"cebpf4jnsgd1na2vs0mg"},{"bike_id":"46e9f51e-b9ef-4a2b-b954-42af97c9998e","system_id":"levelo_inurba_marseille","lat":43.31712,"lon":5.437,"is_reserved":false,"is_disabled":false,"rental_uris":{"android":"levelo://app?vid=46e9f51e-b9ef-4a2b-b954-42af97c9998e","ios":"levelo://app?vid=46e9f51e-b9ef-4a2b-b954-42af97c9998e"},"vehicle_type_id":"4","last_reported":1740060522,"current_range_meters":9600,"station_id":"","pricing_plan_id":"cebpf4jnsgd1na2vs0mg"},{"bike_id":"058213af-b61b-486b-8e0a-0a8fd78595de","system_id":"levelo_inurba_marseille","lat":43.25083,"lon":5.39524,"is_reserved":false,"is_disabled":false,"rental_uris":{"android":"levelo://app?vid=058213af-b61b-486b-8e0a-0a8fd78595de","ios":"levelo://app?vid=058213af-b61b-486b-8e0a-0a8fd78595de"},"vehicle_type_id":"4","last_reported":1740060522,"current_range_meters":9600,"station_id":"ce4bhm12rcd13ifvqgkg","pricing_plan_id":"cebpf4jnsgd1na2vs0mg"},{"bike_id":"5428c4a6-2268-45c5-aff9-a5f8e308d92b","system_id":"levelo_inurba_marseille","lat":43.30945,"lon":5.37302,"is_reserved":false,"is_disabled":false,"rental_uris":{"android":"levelo://app?vid=5428c4a6-2268-45c5-aff9-a5f8e308d92b","ios":"levelo://app?vid=5428c4a6-2268-45c5-aff9-a5f8e308d92b"},"vehicle_type_id":"4","last_reported":1740060522,"current_range_meters":10000,"station_id":"ce4bguh2rcd13ifvqckg","pricing_plan_id":"cebpf4jnsgd1na2vs0mg"},{"bike_id":"5f9ede52-c720-4107-a864-980fb2608395","system_id":"levelo_inurba_marseille","lat":43.24093,"lon":5.38679,"is_reserved":false,"is_disabled":false,"rental_uris":{"android":"levelo://app?vid=5f9ede52-c720-4107-a864-980fb2608395","ios":"levelo://app?vid=5f9ede52-c720-4107-a864-980fb2608395"},"vehicle_type_id":"4","last_reported":1740060522,"current_range_meters":10000,"station_id":"ce4bhb92rcd13ifvqen0","pricing_plan_id":"cebpf4jnsgd1na2vs0mg"},{"bike_id":"0d34eb8c-c749-410b-a515-4800435ee933","system_id":"levelo_inurba_marseille","lat":43.24171,"lon":5.36365,"is_reserved":false,"is_disabled":false,"rental_uris":{"android":"levelo://app?vid=0d34eb8c-c749-410b-a515-4800435ee933","ios":"levelo://app?vid=0d34eb8c-c749-410b-a515-4800435ee933"},"vehicle_type_id":"4","last_reported":1740060522,"current_range_meters":10000,"station_id":"cpo36qri1sfpv3e86is0","pricing_plan_id":"cebpf4jnsgd1na2vs0mg"},{"bike_id":"e121e6a1-bd76-4786-9b22-046b9f2ba3e5","system_id":"levelo_inurba_marseille","lat":43.26212,"lon":5.3745,"is_reserved":false,"is_disabled":false,"rental_uris":{"android":"levelo://app?vid=e121e6a1-bd76-4786-9b22-046b9f2ba3e5","ios":"levelo://app?vid=e121e6a1-bd76-4786-9b22-046b9f2ba3e5"},"vehicle_type_id":"4","last_reported":1740060522,"current_range_meters":10000,"station_id":"ce4bhgp2rcd13ifvqfc0","pricing_plan_id":"cebpf4jnsgd1na2vs0mg"},{"bike_id":"1bb330e7-cdb8-42b9-a838-0f962a7dcf16","system_id":"levelo_inurba_marseille","lat":43.29054,"lon":5.35919,"is_reserved":false,"is_disabled":false,"rental_uris":{"android":"levelo://app?vid=1bb330e7-cdb8-42b9-a838-0f962a7dcf16","ios":"levelo://app?vid=1bb330e7-cdb8-42b9-a838-0f962a7dcf16"},"vehicle_type_id":"4","last_reported":1740060522,"current_range_meters":10000,"station_id":"ce4bha92rcd13ifvqeg0","pricing_plan_id":"cebpf4jnsgd1na2vs0mg"},{"bike_id":"4131ed30-1f43-4452-84c1-9ce618cb7cc0","system_id":"levelo_inurba_marseille","lat":43.27159,"lon":5.39243,"is_reserved":false,"is_disabled":false,"rental_uris":{"android":"levelo://app?vid=4131ed30-1f43-4452-84c1-9ce618cb7cc0","ios":"levelo://app?vid=4131ed30-1f43-4452-84c1-9ce618cb7cc0"},"vehicle_type_id":"4","last_reported":1740060522,"current_range_meters":10000,"station_id":"ce4bhhp2rcd13ifvqfm0","pricing_plan_id":"cebpf4jnsgd1na2vs0mg"},{"bike_id":"ed3973ca-3306-471b-856e-02ea4c1f3355","system_id":"levelo_inurba_marseille","lat":43.29969,"lon":5.38493,"is_reserved":false,"is_disabled":false,"rental_uris":{"android":"levelo://app?vid=ed3973ca-3306-471b-856e-02ea4c1f3355","ios":"levelo://app?vid=ed3973ca-3306-471b-856e-02ea4c1f3355"},"vehicle_type_id":"4","last_reported":1740060522,"current_range_meters":10000,"station_id":"ce4bgj92rcd13ifvqbd0","pricing_plan_id":"cebpf4jnsgd1na2vs0mg"},{"bike_id":"77ac049b-6848-4db1-94df-a16d6879e316","system_id":"levelo_inurba_marseille","lat":43.23186,"lon":5.35564,"is_reserved":false,"is_disabled":false,"rental_uris":{"android":"levelo://app?vid=77ac049b-6848-4db1-94df-a16d6879e316","ios":"levelo://app?vid=77ac049b-6848-4db1-94df-a16d6879e316"},"vehicle_type_id":"4","last_reported":1740060522,"current_range_meters":10800,"station_id":"","pricing_plan_id":"cebpf4jnsgd1na2vs0mg"},{"bike_id":"c2ad2030-807b-4bc4-81c6-c80874e8a563","system_id":"levelo_inurba_marseille","lat":43.268054,"lon":5.40272,"is_reserved":false,"is_disabled":false,"rental_uris":{"android":"levelo://app?vid=c2ad2030-807b-4bc4-81c6-c80874e8a563","ios":"levelo://app?vid=c2ad2030-807b-4bc4-81c6-c80874e8a563"},"vehicle_type_id":"4","last_reported":1740060522,"current_range_meters":11200,"station_id":"ce4bhh12rcd13ifvqfg0","pricing_plan_id":"cebpf4jnsgd1na2vs0mg"},{"bike_id":"ba379239-9216-4e46-a96c-a73988d910ff","system_id":"levelo_inurba_marseille","lat":43.26498,"lon":5.37142,"is_reserved":false,"is_disabled":false,"rental_uris":{"android":"levelo://app?vid=ba379239-9216-4e46-a96c-a73988d910ff","ios":"levelo://app?vid=ba379239-9216-4e46-a96c-a73988d910ff"},"vehicle_type_id":"4","last_reported":1740060522,"current_range_meters":10800,"station_id":"","pricing_plan_id":"cebpf4jnsgd1na2vs0mg"},{"bike_id":"e72d8e1c-9efa-4e4e-abfe-d0a5cdf71596","system_id":"levelo_inurba_marseille","lat":43.29167,"lon":5.37165,"is_reserved":false,"is_disabled":false,"rental_uris":{"android":"levelo://app?vid=e72d8e1c-9efa-4e4e-abfe-d0a5cdf71596","ios":"levelo://app?vid=e72d8e1c-9efa-4e4e-abfe-d0a5cdf71596"},"vehicle_type_id":"4","last_reported":1740060522,"current_range_meters":10800,"station_id":"ce4bha92rcd13ifvqeh0","pricing_plan_id":"cebpf4jnsgd1na2vs0mg"},{"bike_id":"baa53cdb-a058-43bd-9a2f-a001743d25d3","system_id":"levelo_inurba_marseille","lat":43.26201,"lon":5.37936,"is_reserved":false,"is_disabled":false,"rental_uris":{"android":"levelo://app?vid=baa53cdb-a058-43bd-9a2f-a001743d25d3","ios":"levelo://app?vid=baa53cdb-a058-43bd-9a2f-a001743d25d3"},"vehicle_type_id":"4","last_reported":1740060522,"current_range_meters":10800,"station_id":"ce4bhjp2rcd13ifvqg90","pricing_plan_id":"cebpf4jnsgd1na2vs0mg"},{"bike_id":"7b19744e-f24f-4b7d-94e9-2a8fd4a78d0d","system_id":"levelo_inurba_marseille","lat":43.23197,"lon":5.35558,"is_reserved":false,"is_disabled":false,"rental_uris":{"android":"levelo://app?vid=7b19744e-f24f-4b7d-94e9-2a8fd4a78d0d","ios":"levelo://app?vid=7b19744e-f24f-4b7d-94e9-2a8fd4a78d0d"},"vehicle_type_id":"4","last_reported":1740060522,"current_range_meters":10800,"station_id":"","pricing_plan_id":"cebpf4jnsgd1na2vs0mg"},{"bike_id":"4da6cc22-4d46-4a7c-8914-7b17d72dd95a","system_id":"levelo_inurba_marseille","lat":43.27175,"lon":5.4099,"is_reserved":false,"is_disabled":false,"rental_uris":{"android":"levelo://app?vid=4da6cc22-4d46-4a7c-8914-7b17d72dd95a","ios":"levelo://app?vid=4da6cc22-4d46-4a7c-8914-7b17d72dd95a"},"vehicle_type_id":"4","last_reported":1740060522,"current_range_meters":10800,"station_id":"ce4bhl12rcd13ifvqgf0","pricing_plan_id":"cebpf4jnsgd1na2vs0mg"},{"bike_id":"6c8fc23e-74a6-40c1-a1cc-8474aa98f8b7","system_id":"levelo_inurba_marseille","lat":43.276,"lon":5.38909,"is_reserved":false,"is_disabled":false,"rental_uris":{"android":"levelo://app?vid=6c8fc23e-74a6-40c1-a1cc-8474aa98f8b7","ios":"levelo://app?vid=6c8fc23e-74a6-40c1-a1cc-8474aa98f8b7"},"vehicle_type_id":"4","last_reported":1740060522,"current_range_meters":10800,"station_id":"","pricing_plan_id":"cebpf4jnsgd1na2vs0mg"},{"bike_id":"9760eb69-4a8b-4e16-9843-12d7129b8e12","system_id":"levelo_inurba_marseille","lat":43.29583,"lon":5.37765,"is_reserved":false,"is_disabled":false,"rental_uris":{"android":"levelo://app?vid=9760eb69-4a8b-4e16-9843-12d7129b8e12","ios":"levelo://app?vid=9760eb69-4a8b-4e16-9843-12d7129b8e12"},"vehicle_type_id":"4","last_reported":1740060522,"current_range_meters":11200,"station_id":"ce4bgi92rcd13ifvqb90","pricing_plan_id":"cebpf4jnsgd1na2vs0mg"},{"bike_id":"d9b05039-0972-4c69-a5c1-23da6a00ce53","system_id":"levelo_inurba_marseille","lat":43.24813,"lon":5.37457,"is_reserved":false,"is_disabled":false,"rental_uris":{"android":"levelo://app?vid=d9b05039-0972-4c69-a5c1-23da6a00ce53","ios":"levelo://app?vid=d9b05039-0972-4c69-a5c1-23da6a00ce53"},"vehicle_type_id":"4","last_reported":1740060522,"current_range_meters":11200,"station_id":"","pricing_plan_id":"cebpf4jnsgd1na2vs0mg"},{"bike_id":"341bae22-75f3-4766-8fd7-413e8c4a7fee","system_id":"levelo_inurba_marseille","lat":43.26811,"lon":5.40265,"is_reserved":false,"is_disabled":false,"rental_uris":{"android":"levelo://app?vid=341bae22-75f3-4766-8fd7-413e8c4a7fee","ios":"levelo://app?vid=341bae22-75f3-4766-8fd7-413e8c4a7fee"},"vehicle_type_id":"4","last_reported":1740060522,"current_range_meters":11200,"station_id":"ce501612rcd8frsf0b60","pricing_plan_id":"cebpf4jnsgd1na2vs0mg"},{"bike_id":"30f781b4-0c37-4f06-8146-403e76b61b21","system_id":"levelo_inurba_marseille","lat":43.29719,"lon":5.37687,"is_reserved":false,"is_disabled":false,"rental_uris":{"android":"levelo://app?vid=30f781b4-0c37-4f06-8146-403e76b61b21","ios":"levelo://app?vid=30f781b4-0c37-4f06-8146-403e76b61b21"},"vehicle_type_id":"4","last_reported":1740060522,"current_range_meters":11200,"station_id":"","pricing_plan_id":"cebpf4jnsgd1na2vs0mg"},{"bike_id":"3dc24e05-a7f1-4a22-9da9-85b121fcd970","system_id":"levelo_inurba_marseille","lat":43.29893,"lon":5.43659,"is_reserved":false,"is_disabled":false,"rental_uris":{"android":"levelo://app?vid=3dc24e05-a7f1-4a22-9da9-85b121fcd970","ios":"levelo://app?vid=3dc24e05-a7f1-4a22-9da9-85b121fcd970"},"vehicle_type_id":"4","last_reported":1740060522,"current_range_meters":11200,"station_id":"ce4bhpp2rcd13ifvqhfg","pricing_plan_id":"cebpf4jnsgd1na2vs0mg"},{"bike_id":"049bb38b-6529-44d2-b7ae-88be68665475","system_id":"levelo_inurba_marseille","lat":43.30123,"lon":5.37436,"is_reserved":false,"is_disabled":false,"rental_uris":{"android":"levelo://app?vid=049bb38b-6529-44d2-b7ae-88be68665475","ios":"levelo://app?vid=049bb38b-6529-44d2-b7ae-88be68665475"},"vehicle_type_id":"4","last_reported":1740060522,"current_range_meters":11600,"station_id":"ce4bgs92rcd13ifvqcc0","pricing_plan_id":"cebpf4jnsgd1na2vs0mg"},{"bike_id":"02294ecb-63f1-466c-86e6-f94378485dff","system_id":"levelo_inurba_marseille","lat":43.2814,"lon":5.42656,"is_reserved":false,"is_disabled":false,"rental_uris":{"android":"levelo://app?vid=02294ecb-63f1-466c-86e6-f94378485dff","ios":"levelo://app?vid=02294ecb-63f1-466c-86e6-f94378485dff"},"vehicle_type_id":"4","last_reported":1740060522,"current_range_meters":12000,"station_id":"ce4bhnh2rcd13ifvqgug","pricing_plan_id":"cebpf4jnsgd1na2vs0mg"},{"bike_id":"987de0c2-b9bd-4bef-ba52-5ce350e4cb1b","system_id":"levelo_inurba_marseille","lat":43.27999,"lon":5.41669,"is_reserved":false,"is_disabled":false,"rental_uris":{"android":"levelo://app?vid=987de0c2-b9bd-4bef-ba52-5ce350e4cb1b","ios":"levelo://app?vid=987de0c2-b9bd-4bef-ba52-5ce350e4cb1b"},"vehicle_type_id":"4","last_reported":1740060522,"current_range_meters":12000,"station_id":"ce4bho12rcd13ifvqh1g","pricing_plan_id":"cebpf4jnsgd1na2vs0mg"},{"bike_id":"b1c31dbc-e0ed-4a3b-b9d7-015031bcc988","system_id":"levelo_inurba_marseille","lat":43.24403,"lon":5.3706,"is_reserved":false,"is_disabled":false,"rental_uris":{"android":"levelo://app?vid=b1c31dbc-e0ed-4a3b-b9d7-015031bcc988","ios":"levelo://app?vid=b1c31dbc-e0ed-4a3b-b9d7-015031bcc988"},"vehicle_type_id":"4","last_reported":1740060522,"current_range_meters":11600,"station_id":"ce4bhhh2rcd13ifvqfk0","pricing_plan_id":"cebpf4jnsgd1na2vs0mg"},{"bike_id":"a70af82e-abb1-4052-a908-3f6d7385acd1","system_id":"levelo_inurba_marseille","lat":43.28603,"lon":5.37074,"is_reserved":false,"is_disabled":false,"rental_uris":{"android":"levelo://app?vid=a70af82e-abb1-4052-a908-3f6d7385acd1","ios":"levelo://app?vid=a70af82e-abb1-4052-a908-3f6d7385acd1"},"vehicle_type_id":"4","last_reported":1740060522,"current_range_meters":12000,"station_id":"ce4bht12rcd13ifvqi60","pricing_plan_id":"cebpf4jnsgd1na2vs0mg"},{"bike_id":"635050f9-a2c9-4910-8267-ff5a32e2982d","system_id":"levelo_inurba_marseille","lat":43.24791,"lon":5.37465,"is_reserved":false,"is_disabled":true,"rental_uris":{"android":"levelo://app?vid=635050f9-a2c9-4910-8267-ff5a32e2982d","ios":"levelo://app?vid=635050f9-a2c9-4910-8267-ff5a32e2982d"},"vehicle_type_id":"4","last_reported":1740060522,"current_range_meters":12000,"station_id":"","pricing_plan_id":"cebpf4jnsgd1na2vs0mg"},{"bike_id":"3ebc1cd9-4c66-4f45-b886-8b491b059d05","system_id":"levelo_inurba_marseille","lat":43.29926,"lon":5.36542,"is_reserved":false,"is_disabled":false,"rental_uris":{"android":"levelo://app?vid=3ebc1cd9-4c66-4f45-b886-8b491b059d05","ios":"levelo://app?vid=3ebc1cd9-4c66-4f45-b886-8b491b059d05"},"vehicle_type_id":"4","last_reported":1740060522,"current_range_meters":12400,"station_id":"","pricing_plan_id":"cebpf4jnsgd1na2vs0mg"},{"bike_id":"ec9f9664-4ee0-4593-830e-733f3f7e3228","system_id":"levelo_inurba_marseille","lat":43.3082,"lon":5.39641,"is_reserved":false,"is_disabled":false,"rental_uris":{"android":"levelo://app?vid=ec9f9664-4ee0-4593-830e-733f3f7e3228","ios":"levelo://app?vid=ec9f9664-4ee0-4593-830e-733f3f7e3228"},"vehicle_type_id":"4","last_reported":1740060522,"current_range_meters":12400,"station_id":"ce4bh012rcd13ifvqcv0","pricing_plan_id":"cebpf4jnsgd1na2vs0mg"},{"bike_id":"05624089-35f5-4062-baad-45f45c47b305","system_id":"levelo_inurba_marseille","lat":43.29375,"lon":5.37846,"is_reserved":false,"is_disabled":false,"rental_uris":{"android":"levelo://app?vid=05624089-35f5-4062-baad-45f45c47b305","ios":"levelo://app?vid=05624089-35f5-4062-baad-45f45c47b305"},"vehicle_type_id":"4","last_reported":1740060522,"current_range_meters":12400,"station_id":"ce4bgjh2rcd13ifvqbf0","pricing_plan_id":"cebpf4jnsgd1na2vs0mg"},{"bike_id":"9d38cb1b-e979-4f74-afdf-24753271fe02","system_id":"levelo_inurba_marseille","lat":43.29262,"lon":5.40112,"is_reserved":false,"is_disabled":false,"rental_uris":{"android":"levelo://app?vid=9d38cb1b-e979-4f74-afdf-24753271fe02","ios":"levelo://app?vid=9d38cb1b-e979-4f74-afdf-24753271fe02"},"vehicle_type_id":"4","last_reported":1740060522,"current_range_meters":12400,"station_id":"ce4bh312rcd13ifvqdk0","pricing_plan_id":"cebpf4jnsgd1na2vs0mg"},{"bike_id":"3b6ab90d-8d97-4fe6-92a3-232f6f5cb44b","system_id":"levelo_inurba_marseille","lat":43.26553,"lon":5.38992,"is_reserved":false,"is_disabled":true,"rental_uris":{"android":"levelo://app?vid=3b6ab90d-8d97-4fe6-92a3-232f6f5cb44b","ios":"levelo://app?vid=3b6ab90d-8d97-4fe6-92a3-232f6f5cb44b"},"vehicle_type_id":"4","last_reported":1740060522,"current_range_meters":12400,"station_id":"","pricing_plan_id":"cebpf4jnsgd1na2vs0mg"},{"bike_id":"ad47c7e9-f91e-4c76-a821-e7d2287689bf","system_id":"levelo_inurba_marseille","lat":43.27954,"lon":5.41046,"is_reserved":false,"is_disabled":false,"rental_uris":{"android":"levelo://app?vid=ad47c7e9-f91e-4c76-a821-e7d2287689bf","ios":"levelo://app?vid=ad47c7e9-f91e-4c76-a821-e7d2287689bf"},"vehicle_type_id":"4","last_reported":1740060522,"current_range_meters":12400,"station_id":"ce4bhnp2rcd13ifvqh0g","pricing_plan_id":"cebpf4jnsgd1na2vs0mg"},{"bike_id":"3bad0b07-fa7a-4cc7-9650-b1214bfaef19","system_id":"levelo_inurba_marseille","lat":43.28152,"lon":5.4264,"is_reserved":false,"is_disabled":false,"rental_uris":{"android":"levelo://app?vid=3bad0b07-fa7a-4cc7-9650-b1214bfaef19","ios":"levelo://app?vid=3bad0b07-fa7a-4cc7-9650-b1214bfaef19"},"vehicle_type_id":"4","last_reported":1740060522,"current_range_meters":12800,"station_id":"ce4bhnh2rcd13ifvqgug","pricing_plan_id":"cebpf4jnsgd1na2vs0mg"},{"bike_id":"8becd64c-893d-4a08-8876-b1598e031c70","system_id":"levelo_inurba_marseille","lat":43.27963,"lon":5.38691,"is_reserved":false,"is_disabled":true,"rental_uris":{"android":"levelo://app?vid=8becd64c-893d-4a08-8876-b1598e031c70","ios":"levelo://app?vid=8becd64c-893d-4a08-8876-b1598e031c70"},"vehicle_type_id":"4","last_reported":1740060522,"current_range_meters":12800,"station_id":"","pricing_plan_id":"cebpf4jnsgd1na2vs0mg"},{"bike_id":"866fd96a-fd47-4faf-a08e-5242b512cffc","system_id":"levelo_inurba_marseille","lat":43.2926,"lon":5.37621,"is_reserved":false,"is_disabled":false,"rental_uris":{"android":"levelo://app?vid=866fd96a-fd47-4faf-a08e-5242b512cffc","ios":"levelo://app?vid=866fd96a-fd47-4faf-a08e-5242b512cffc"},"vehicle_type_id":"4","last_reported":1740060522,"current_range_meters":11200,"station_id":"ce4bgqh2rcd13ifvqc5g","pricing_plan_id":"cebpf4jnsgd1na2vs0mg"},{"bike_id":"bfa1afdd-6221-4a91-82bd-d18819a67e02","system_id":"levelo_inurba_marseille","lat":43.244238,"lon":5.370237,"is_reserved":false,"is_disabled":false,"rental_uris":{"android":"levelo://app?vid=bfa1afdd-6221-4a91-82bd-d18819a67e02","ios":"levelo://app?vid=bfa1afdd-6221-4a91-82bd-d18819a67e02"},"vehicle_type_id":"4","last_reported":1740060522,"current_range_meters":12800,"station_id":"ce4bhnp2rcd13ifvqgvg","pricing_plan_id":"cebpf4jnsgd1na2vs0mg"},{"bike_id":"2a88c2e7-9b65-4731-a929-56b2d1c564f6","system_id":"levelo_inurba_marseille","lat":43.30148,"lon":5.38063,"is_reserved":false,"is_disabled":false,"rental_uris":{"android":"levelo://app?vid=2a88c2e7-9b65-4731-a929-56b2d1c564f6","ios":"levelo://app?vid=2a88c2e7-9b65-4731-a929-56b2d1c564f6"},"vehicle_type_id":"4","last_reported":1740060522,"current_range_meters":12800,"station_id":"ce4bgjp2rcd13ifvqbh0","pricing_plan_id":"cebpf4jnsgd1na2vs0mg"},{"bike_id":"d9102e21-6294-472e-8da2-16dfb746ec2b","system_id":"levelo_inurba_marseille","lat":43.2813,"lon":5.44591,"is_reserved":false,"is_disabled":false,"rental_uris":{"android":"levelo://app?vid=d9102e21-6294-472e-8da2-16dfb746ec2b","ios":"levelo://app?vid=d9102e21-6294-472e-8da2-16dfb746ec2b"},"vehicle_type_id":"4","last_reported":1740060522,"current_range_meters":12800,"station_id":"ce4bhnh2rcd13ifvqgtg","pricing_plan_id":"cebpf4jnsgd1na2vs0mg"},{"bike_id":"ba42ad8a-0ac8-4387-a032-e08fbfa95e0a","system_id":"levelo_inurba_marseille","lat":43.30249,"lon":5.40039,"is_reserved":false,"is_disabled":false,"rental_uris":{"android":"levelo://app?vid=ba42ad8a-0ac8-4387-a032-e08fbfa95e0a","ios":"levelo://app?vid=ba42ad8a-0ac8-4387-a032-e08fbfa95e0a"},"vehicle_type_id":"4","last_reported":1740060522,"current_range_meters":13600,"station_id":"ce4bgvh2rcd13ifvqcs0","pricing_plan_id":"cebpf4jnsgd1na2vs0mg"},{"bike_id":"a83866a4-4b92-450e-be08-6255a2bb1eee","system_id":"levelo_inurba_marseille","lat":43.26195,"lon":5.37451,"is_reserved":false,"is_disabled":false,"rental_uris":{"android":"levelo://app?vid=a83866a4-4b92-450e-be08-6255a2bb1eee","ios":"levelo://app?vid=a83866a4-4b92-450e-be08-6255a2bb1eee"},"vehicle_type_id":"4","last_reported":1740060522,"current_range_meters":13600,"station_id":"ce4bhgp2rcd13ifvqfc0","pricing_plan_id":"cebpf4jnsgd1na2vs0mg"},{"bike_id":"601afe4a-25bf-4b56-a5ec-02075de1ee82","system_id":"levelo_inurba_marseille","lat":43.23071,"lon":5.35497,"is_reserved":false,"is_disabled":false,"rental_uris":{"android":"levelo://app?vid=601afe4a-25bf-4b56-a5ec-02075de1ee82","ios":"levelo://app?vid=601afe4a-25bf-4b56-a5ec-02075de1ee82"},"vehicle_type_id":"4","last_reported":1740060522,"current_range_meters":13600,"station_id":"cpo3342slgdg3j2ifvpg","pricing_plan_id":"cebpf4jnsgd1na2vs0mg"},{"bike_id":"c16184e7-3348-42b6-a8c2-0a76a5cb1988","system_id":"levelo_inurba_marseille","lat":43.30806,"lon":5.38147,"is_reserved":false,"is_disabled":false,"rental_uris":{"android":"levelo://app?vid=c16184e7-3348-42b6-a8c2-0a76a5cb1988","ios":"levelo://app?vid=c16184e7-3348-42b6-a8c2-0a76a5cb1988"},"vehicle_type_id":"4","last_reported":1740060522,"current_range_meters":13600,"station_id":"ce4bgt12rcd13ifvqce0","pricing_plan_id":"cebpf4jnsgd1na2vs0mg"},{"bike_id":"9786a26a-800b-4393-bf29-c5e64b2b9571","system_id":"levelo_inurba_marseille","lat":43.33718,"lon":5.39173,"is_reserved":false,"is_disabled":false,"rental_uris":{"android":"levelo://app?vid=9786a26a-800b-4393-bf29-c5e64b2b9571","ios":"levelo://app?vid=9786a26a-800b-4393-bf29-c5e64b2b9571"},"vehicle_type_id":"4","last_reported":1740060522,"current_range_meters":14000,"station_id":"ce4bhr92rcd13ifvqhsg","pricing_plan_id":"cebpf4jnsgd1na2vs0mg"},{"bike_id":"0fe0502d-cdfc-4c75-9a2e-f9a2807fd700","system_id":"levelo_inurba_marseille","lat":43.28432,"lon":5.39188,"is_reserved":false,"is_disabled":false,"rental_uris":{"android":"levelo://app?vid=0fe0502d-cdfc-4c75-9a2e-f9a2807fd700","ios":"levelo://app?vid=0fe0502d-cdfc-4c75-9a2e-f9a2807fd700"},"vehicle_type_id":"4","last_reported":1740060522,"current_range_meters":14000,"station_id":"ce4bhoh2rcd13ifvqh5g","pricing_plan_id":"cebpf4jnsgd1na2vs0mg"},{"bike_id":"5b53befd-d7c8-4477-a1f0-9821f4605b06","system_id":"levelo_inurba_marseille","lat":43.30541,"lon":5.36684,"is_reserved":false,"is_disabled":false,"rental_uris":{"android":"levelo://app?vid=5b53befd-d7c8-4477-a1f0-9821f4605b06","ios":"levelo://app?vid=5b53befd-d7c8-4477-a1f0-9821f4605b06"},"vehicle_type_id":"4","last_reported":1740060522,"current_range_meters":14000,"station_id":"ce4bgrp2rcd13ifvqc9g","pricing_plan_id":"cebpf4jnsgd1na2vs0mg"},{"bike_id":"3403480b-8fc6-418c-9382-e1a3a3ea2016","system_id":"levelo_inurba_marseille","lat":43.30154,"lon":5.37417,"is_reserved":false,"is_disabled":false,"rental_uris":{"android":"levelo://app?vid=3403480b-8fc6-418c-9382-e1a3a3ea2016","ios":"levelo://app?vid=3403480b-8fc6-418c-9382-e1a3a3ea2016"},"vehicle_type_id":"4","last_reported":1740060522,"current_range_meters":14000,"station_id":"ce4bgs92rcd13ifvqcc0","pricing_plan_id":"cebpf4jnsgd1na2vs0mg"},{"bike_id":"6eb4b56a-850d-4595-9a84-137def98caf4","system_id":"levelo_inurba_marseille","lat":43.28075,"lon":5.39669,"is_reserved":false,"is_disabled":false,"rental_uris":{"android":"levelo://app?vid=6eb4b56a-850d-4595-9a84-137def98caf4","ios":"levelo://app?vid=6eb4b56a-850d-4595-9a84-137def98caf4"},"vehicle_type_id":"4","last_reported":1740060522,"current_range_meters":14400,"station_id":"ce4bho12rcd13ifvqh2g","pricing_plan_id":"cebpf4jnsgd1na2vs0mg"},{"bike_id":"20dccdb5-2193-42c0-a587-c29441923ee1","system_id":"levelo_inurba_marseille","lat":43.30427,"lon":5.39754,"is_reserved":false,"is_disabled":false,"rental_uris":{"android":"levelo://app?vid=20dccdb5-2193-42c0-a587-c29441923ee1","ios":"levelo://app?vid=20dccdb5-2193-42c0-a587-c29441923ee1"},"vehicle_type_id":"4","last_reported":1740060522,"current_range_meters":14400,"station_id":"ce4bh092rcd13ifvqd20","pricing_plan_id":"cebpf4jnsgd1na2vs0mg"},{"bike_id":"2248a686-da6b-4ef8-880e-8db6a1c23aab","system_id":"levelo_inurba_marseille","lat":43.27381,"lon":5.36247,"is_reserved":false,"is_disabled":false,"rental_uris":{"android":"levelo://app?vid=2248a686-da6b-4ef8-880e-8db6a1c23aab","ios":"levelo://app?vid=2248a686-da6b-4ef8-880e-8db6a1c23aab"},"vehicle_type_id":"4","last_reported":1740060522,"current_range_meters":14400,"station_id":"","pricing_plan_id":"cebpf4jnsgd1na2vs0mg"},{"bike_id":"87891dce-3352-4418-9015-a26c990ecd6e","system_id":"levelo_inurba_marseille","lat":43.27143,"lon":5.36268,"is_reserved":false,"is_disabled":false,"rental_uris":{"android":"levelo://app?vid=87891dce-3352-4418-9015-a26c990ecd6e","ios":"levelo://app?vid=87891dce-3352-4418-9015-a26c990ecd6e"},"vehicle_type_id":"4","last_reported":1740060522,"current_range_meters":14400,"station_id":"","pricing_plan_id":"cebpf4jnsgd1na2vs0mg"},{"bike_id":"e53b91c8-67fd-4f40-acea-7f7adf31cf25","system_id":"levelo_inurba_marseille","lat":43.29745,"lon":5.38101,"is_reserved":false,"is_disabled":false,"rental_uris":{"android":"levelo://app?vid=e53b91c8-67fd-4f40-acea-7f7adf31cf25","ios":"levelo://app?vid=e53b91c8-67fd-4f40-acea-7f7adf31cf25"},"vehicle_type_id":"4","last_reported":1740060522,"current_range_meters":14400,"station_id":"","pricing_plan_id":"cebpf4jnsgd1na2vs0mg"},{"bike_id":"457712e4-1d64-4fc6-979b-7ad853b2e930","system_id":"levelo_inurba_marseille","lat":43.3081,"lon":5.38158,"is_reserved":false,"is_disabled":false,"rental_uris":{"android":"levelo://app?vid=457712e4-1d64-4fc6-979b-7ad853b2e930","ios":"levelo://app?vid=457712e4-1d64-4fc6-979b-7ad853b2e930"},"vehicle_type_id":"4","last_reported":1740060522,"current_range_meters":14400,"station_id":"ce4bgt12rcd13ifvqce0","pricing_plan_id":"cebpf4jnsgd1na2vs0mg"},{"bike_id":"2f188079-3b55-4257-b4d1-d24258bf5ad0","system_id":"levelo_inurba_marseille","lat":43.26783,"lon":5.39413,"is_reserved":false,"is_disabled":false,"rental_uris":{"android":"levelo://app?vid=2f188079-3b55-4257-b4d1-d24258bf5ad0","ios":"levelo://app?vid=2f188079-3b55-4257-b4d1-d24258bf5ad0"},"vehicle_type_id":"4","last_reported":1740060522,"current_range_meters":14800,"station_id":"","pricing_plan_id":"cebpf4jnsgd1na2vs0mg"},{"bike_id":"4b97a6da-114f-4424-8255-b7a6edefee95","system_id":"levelo_inurba_marseille","lat":43.27669,"lon":5.38922,"is_reserved":false,"is_disabled":false,"rental_uris":{"android":"levelo://app?vid=4b97a6da-114f-4424-8255-b7a6edefee95","ios":"levelo://app?vid=4b97a6da-114f-4424-8255-b7a6edefee95"},"vehicle_type_id":"4","last_reported":1740060522,"current_range_meters":14800,"station_id":"ce4bhi12rcd13ifvqfo0","pricing_plan_id":"cebpf4jnsgd1na2vs0mg"},{"bike_id":"ba5c3ca9-151f-40f9-bf93-306cdacdc8bf","system_id":"levelo_inurba_marseille","lat":43.27945,"lon":5.41046,"is_reserved":false,"is_disabled":false,"rental_uris":{"android":"levelo://app?vid=ba5c3ca9-151f-40f9-bf93-306cdacdc8bf","ios":"levelo://app?vid=ba5c3ca9-151f-40f9-bf93-306cdacdc8bf"},"vehicle_type_id":"4","last_reported":1740060522,"current_range_meters":15200,"station_id":"ce4bhnp2rcd13ifvqh0g","pricing_plan_id":"cebpf4jnsgd1na2vs0mg"},{"bike_id":"88e3c948-ccd6-4745-92fe-ccac69909d94","system_id":"levelo_inurba_marseille","lat":43.27964,"lon":5.38716,"is_reserved":false,"is_disabled":false,"rental_uris":{"android":"levelo://app?vid=88e3c948-ccd6-4745-92fe-ccac69909d94","ios":"levelo://app?vid=88e3c948-ccd6-4745-92fe-ccac69909d94"},"vehicle_type_id":"4","last_reported":1740060522,"current_range_meters":14800,"station_id":"ce4bhg12rcd13ifvqf80","pricing_plan_id":"cebpf4jnsgd1na2vs0mg"},{"bike_id":"15dbad0a-df71-4510-85ef-d87444fc3ded","system_id":"levelo_inurba_marseille","lat":43.25579,"lon":5.38225,"is_reserved":false,"is_disabled":false,"rental_uris":{"android":"levelo://app?vid=15dbad0a-df71-4510-85ef-d87444fc3ded","ios":"levelo://app?vid=15dbad0a-df71-4510-85ef-d87444fc3ded"},"vehicle_type_id":"4","last_reported":1740060522,"current_range_meters":15200,"station_id":"","pricing_plan_id":"cebpf4jnsgd1na2vs0mg"},{"bike_id":"3447e7b6-f8ed-4872-a45f-cf3cd80ed8ad","system_id":"levelo_inurba_marseille","lat":43.29725,"lon":5.37916,"is_reserved":false,"is_disabled":false,"rental_uris":{"android":"levelo://app?vid=3447e7b6-f8ed-4872-a45f-cf3cd80ed8ad","ios":"levelo://app?vid=3447e7b6-f8ed-4872-a45f-cf3cd80ed8ad"},"vehicle_type_id":"4","last_reported":1740060522,"current_range_meters":15200,"station_id":"ce4bguh2rcd13ifvqckg","pricing_plan_id":"cebpf4jnsgd1na2vs0mg"},{"bike_id":"371d7914-6c97-4ea3-bf31-4ab9534e3289","system_id":"levelo_inurba_marseille","lat":43.30179,"lon":5.3661,"is_reserved":false,"is_disabled":false,"rental_uris":{"android":"levelo://app?vid=371d7914-6c97-4ea3-bf31-4ab9534e3289","ios":"levelo://app?vid=371d7914-6c97-4ea3-bf31-4ab9534e3289"},"vehicle_type_id":"4","last_reported":1740060522,"current_range_meters":15200,"station_id":"ce4bgrh2rcd13ifvqc8g","pricing_plan_id":"cebpf4jnsgd1na2vs0mg"},{"bike_id":"d5af9da1-b877-4417-933c-6dccb502c7ab","system_id":"levelo_inurba_marseille","lat":43.2587,"lon":5.39919,"is_reserved":false,"is_disabled":false,"rental_uris":{"android":"levelo://app?vid=d5af9da1-b877-4417-933c-6dccb502c7ab","ios":"levelo://app?vid=d5af9da1-b877-4417-933c-6dccb502c7ab"},"vehicle_type_id":"4","last_reported":1740060522,"current_range_meters":15200,"station_id":"ce4bhl92rcd13ifvqghg","pricing_plan_id":"cebpf4jnsgd1na2vs0mg"},{"bike_id":"2dbc71c4-caa4-43c9-be0f-62f3ed4d514f","system_id":"levelo_inurba_marseille","lat":43.23976,"lon":5.36628,"is_reserved":false,"is_disabled":false,"rental_uris":{"android":"levelo://app?vid=2dbc71c4-caa4-43c9-be0f-62f3ed4d514f","ios":"levelo://app?vid=2dbc71c4-caa4-43c9-be0f-62f3ed4d514f"},"vehicle_type_id":"4","last_reported":1740060522,"current_range_meters":16000,"station_id":"ce4bhi12rcd13ifvqfp0","pricing_plan_id":"cebpf4jnsgd1na2vs0mg"},{"bike_id":"0a56f9d1-0a16-443d-8e0e-b767591ef2e6","system_id":"levelo_inurba_marseille","lat":43.26802,"lon":5.40256,"is_reserved":false,"is_disabled":false,"rental_uris":{"android":"levelo://app?vid=0a56f9d1-0a16-443d-8e0e-b767591ef2e6","ios":"levelo://app?vid=0a56f9d1-0a16-443d-8e0e-b767591ef2e6"},"vehicle_type_id":"4","last_reported":1740060522,"current_range_meters":16000,"station_id":"ce501612rcd8frsf0b60","pricing_plan_id":"cebpf4jnsgd1na2vs0mg"},{"bike_id":"ce0caea6-6d1c-48ef-b0eb-fae6199eb4e1","system_id":"levelo_inurba_marseille","lat":43.23066,"lon":5.35508,"is_reserved":false,"is_disabled":false,"rental_uris":{"android":"levelo://app?vid=ce0caea6-6d1c-48ef-b0eb-fae6199eb4e1","ios":"levelo://app?vid=ce0caea6-6d1c-48ef-b0eb-fae6199eb4e1"},"vehicle_type_id":"4","last_reported":1740060522,"current_range_meters":16000,"station_id":"cpo3342slgdg3j2ifvpg","pricing_plan_id":"cebpf4jnsgd1na2vs0mg"},{"bike_id":"62847bb9-3ba1-4cd0-9767-b73868eed646","system_id":"levelo_inurba_marseille","lat":43.29185,"lon":5.39317,"is_reserved":false,"is_disabled":false,"rental_uris":{"android":"levelo://app?vid=62847bb9-3ba1-4cd0-9767-b73868eed646","ios":"levelo://app?vid=62847bb9-3ba1-4cd0-9767-b73868eed646"},"vehicle_type_id":"4","last_reported":1740060522,"current_range_meters":16000,"station_id":"ce4bh192rcd13ifvqdd0","pricing_plan_id":"cebpf4jnsgd1na2vs0mg"},{"bike_id":"4295009f-39da-4796-8d8a-9cfd90bfc9e6","system_id":"levelo_inurba_marseille","lat":43.29912,"lon":5.37467,"is_reserved":false,"is_disabled":false,"rental_uris":{"android":"levelo://app?vid=4295009f-39da-4796-8d8a-9cfd90bfc9e6","ios":"levelo://app?vid=4295009f-39da-4796-8d8a-9cfd90bfc9e6"},"vehicle_type_id":"4","last_reported":1740060522,"current_range_meters":16000,"station_id":"ce4bgjh2rcd13ifvqbg0","pricing_plan_id":"cebpf4jnsgd1na2vs0mg"},{"bike_id":"7e9bdd58-4466-4ff2-9b62-10cb3b82acb1","system_id":"levelo_inurba_marseille","lat":43.28437,"lon":5.39192,"is_reserved":false,"is_disabled":false,"rental_uris":{"android":"levelo://app?vid=7e9bdd58-4466-4ff2-9b62-10cb3b82acb1","ios":"levelo://app?vid=7e9bdd58-4466-4ff2-9b62-10cb3b82acb1"},"vehicle_type_id":"4","last_reported":1740060522,"current_range_meters":16000,"station_id":"ce4bhoh2rcd13ifvqh5g","pricing_plan_id":"cebpf4jnsgd1na2vs0mg"},{"bike_id":"9217115e-4967-4fc1-8f3b-ed95ea891fe6","system_id":"levelo_inurba_marseille","lat":43.30098,"lon":5.38057,"is_reserved":false,"is_disabled":false,"rental_uris":{"android":"levelo://app?vid=9217115e-4967-4fc1-8f3b-ed95ea891fe6","ios":"levelo://app?vid=9217115e-4967-4fc1-8f3b-ed95ea891fe6"},"vehicle_type_id":"4","last_reported":1740060522,"current_range_meters":15200,"station_id":"ce4bgjp2rcd13ifvqbh0","pricing_plan_id":"cebpf4jnsgd1na2vs0mg"},{"bike_id":"ad73953c-b089-453a-9c8a-3c9e49d821db","system_id":"levelo_inurba_marseille","lat":43.28464,"lon":5.35893,"is_reserved":false,"is_disabled":false,"rental_uris":{"android":"levelo://app?vid=ad73953c-b089-453a-9c8a-3c9e49d821db","ios":"levelo://app?vid=ad73953c-b089-453a-9c8a-3c9e49d821db"},"vehicle_type_id":"4","last_reported":1740060522,"current_range_meters":16000,"station_id":"","pricing_plan_id":"cebpf4jnsgd1na2vs0mg"},{"bike_id":"69907e10-2ee8-423c-8560-78047165297d","system_id":"levelo_inurba_marseille","lat":43.24076,"lon":5.37761,"is_reserved":false,"is_disabled":false,"rental_uris":{"android":"levelo://app?vid=69907e10-2ee8-423c-8560-78047165297d","ios":"levelo://app?vid=69907e10-2ee8-423c-8560-78047165297d"},"vehicle_type_id":"4","last_reported":1740060522,"current_range_meters":16000,"station_id":"ce4bhnp2rcd13ifvqgvg","pricing_plan_id":"cebpf4jnsgd1na2vs0mg"},{"bike_id":"5a001ab7-5813-41f4-b1cb-bc211d4e2327","system_id":"levelo_inurba_marseille","lat":43.28003,"lon":5.40001,"is_reserved":false,"is_disabled":false,"rental_uris":{"android":"levelo://app?vid=5a001ab7-5813-41f4-b1cb-bc211d4e2327","ios":"levelo://app?vid=5a001ab7-5813-41f4-b1cb-bc211d4e2327"},"vehicle_type_id":"4","last_reported":1740060522,"current_range_meters":16000,"station_id":"ce4bho92rcd13ifvqh4g","pricing_plan_id":"cebpf4jnsgd1na2vs0mg"},{"bike_id":"bd026208-d145-4dd7-9d3c-1f4ef0e2a866","system_id":"levelo_inurba_marseille","lat":43.27621,"lon":5.36116,"is_reserved":false,"is_disabled":false,"rental_uris":{"android":"levelo://app?vid=bd026208-d145-4dd7-9d3c-1f4ef0e2a866","ios":"levelo://app?vid=bd026208-d145-4dd7-9d3c-1f4ef0e2a866"},"vehicle_type_id":"4","last_reported":1740060522,"current_range_meters":16000,"station_id":"ce4bgj92rcd13ifvqbe0","pricing_plan_id":"cebpf4jnsgd1na2vs0mg"},{"bike_id":"c72fcdb0-826e-424c-ade7-557f9c84df0a","system_id":"levelo_inurba_marseille","lat":43.27216,"lon":5.39189,"is_reserved":false,"is_disabled":false,"rental_uris":{"android":"levelo://app?vid=c72fcdb0-826e-424c-ade7-557f9c84df0a","ios":"levelo://app?vid=c72fcdb0-826e-424c-ade7-557f9c84df0a"},"vehicle_type_id":"4","last_reported":1740060522,"current_range_meters":16400,"station_id":"ce4bhhp2rcd13ifvqfm0","pricing_plan_id":"cebpf4jnsgd1na2vs0mg"},{"bike_id":"0acb53c6-517f-4b0b-81a6-4e247c67e378","system_id":"levelo_inurba_marseille","lat":43.24184,"lon":5.39727,"is_reserved":false,"is_disabled":false,"rental_uris":{"android":"levelo://app?vid=0acb53c6-517f-4b0b-81a6-4e247c67e378","ios":"levelo://app?vid=0acb53c6-517f-4b0b-81a6-4e247c67e378"},"vehicle_type_id":"4","last_reported":1740060522,"current_range_meters":16400,"station_id":"ce4bhn12rcd13ifvqgpg","pricing_plan_id":"cebpf4jnsgd1na2vs0mg"},{"bike_id":"8500dddb-5b54-48aa-b686-a901ffd75120","system_id":"levelo_inurba_marseille","lat":43.28103,"lon":5.37835,"is_reserved":false,"is_disabled":false,"rental_uris":{"android":"levelo://app?vid=8500dddb-5b54-48aa-b686-a901ffd75120","ios":"levelo://app?vid=8500dddb-5b54-48aa-b686-a901ffd75120"},"vehicle_type_id":"4","last_reported":1740060522,"current_range_meters":16400,"station_id":"ce4bha12rcd13ifvqee0","pricing_plan_id":"cebpf4jnsgd1na2vs0mg"},{"bike_id":"015e2e2f-8a1c-4bc1-9524-2ed8acfd8c65","system_id":"levelo_inurba_marseille","lat":43.28373,"lon":5.38636,"is_reserved":false,"is_disabled":false,"rental_uris":{"android":"levelo://app?vid=015e2e2f-8a1c-4bc1-9524-2ed8acfd8c65","ios":"levelo://app?vid=015e2e2f-8a1c-4bc1-9524-2ed8acfd8c65"},"vehicle_type_id":"4","last_reported":1740060522,"current_range_meters":16400,"station_id":"ce4bh492rcd13ifvqdvg","pricing_plan_id":"cebpf4jnsgd1na2vs0mg"},{"bike_id":"3ebd18ea-3d89-4897-aace-a1d4e56a0efa","system_id":"levelo_inurba_marseille","lat":43.28672,"lon":5.38676,"is_reserved":false,"is_disabled":false,"rental_uris":{"android":"levelo://app?vid=3ebd18ea-3d89-4897-aace-a1d4e56a0efa","ios":"levelo://app?vid=3ebd18ea-3d89-4897-aace-a1d4e56a0efa"},"vehicle_type_id":"4","last_reported":1740060522,"current_range_meters":16400,"station_id":"ce4bh492rcd13ifvqdug","pricing_plan_id":"cebpf4jnsgd1na2vs0mg"},{"bike_id":"bb2f4d3b-1c12-4014-a4ba-681d644e17de","system_id":"levelo_inurba_marseille","lat":43.26954,"lon":5.38637,"is_reserved":false,"is_disabled":false,"rental_uris":{"android":"levelo://app?vid=bb2f4d3b-1c12-4014-a4ba-681d644e17de","ios":"levelo://app?vid=bb2f4d3b-1c12-4014-a4ba-681d644e17de"},"vehicle_type_id":"4","last_reported":1740060522,"current_range_meters":16400,"station_id":"ce4bhh92rcd13ifvqfh0","pricing_plan_id":"cebpf4jnsgd1na2vs0mg"},{"bike_id":"6106393f-3645-48aa-b132-3d2def6b4674","system_id":"levelo_inurba_marseille","lat":43.30448,"lon":5.38097,"is_reserved":false,"is_disabled":false,"rental_uris":{"android":"levelo://app?vid=6106393f-3645-48aa-b132-3d2def6b4674","ios":"levelo://app?vid=6106393f-3645-48aa-b132-3d2def6b4674"},"vehicle_type_id":"4","last_reported":1740060522,"current_range_meters":16400,"station_id":"ce4bgv92rcd13ifvqcq0","pricing_plan_id":"cebpf4jnsgd1na2vs0mg"},{"bike_id":"76a1d742-84f2-439e-8b87-72eb73bf6cb6","system_id":"levelo_inurba_marseille","lat":43.26216,"lon":5.37428,"is_reserved":false,"is_disabled":false,"rental_uris":{"android":"levelo://app?vid=76a1d742-84f2-439e-8b87-72eb73bf6cb6","ios":"levelo://app?vid=76a1d742-84f2-439e-8b87-72eb73bf6cb6"},"vehicle_type_id":"4","last_reported":1740060522,"current_range_meters":16400,"station_id":"ce4bhgp2rcd13ifvqfc0","pricing_plan_id":"cebpf4jnsgd1na2vs0mg"},{"bike_id":"b253065d-1074-4a51-bc2b-4e15dba86004","system_id":"levelo_inurba_marseille","lat":43.23069,"lon":5.35485,"is_reserved":false,"is_disabled":false,"rental_uris":{"android":"levelo://app?vid=b253065d-1074-4a51-bc2b-4e15dba86004","ios":"levelo://app?vid=b253065d-1074-4a51-bc2b-4e15dba86004"},"vehicle_type_id":"4","last_reported":1740060522,"current_range_meters":16400,"station_id":"cpo3342slgdg3j2ifvpg","pricing_plan_id":"cebpf4jnsgd1na2vs0mg"},{"bike_id":"5386cdb1-0bc8-4046-9b0e-9863bc3cb4fc","system_id":"levelo_inurba_marseille","lat":43.292888,"lon":5.401189,"is_reserved":false,"is_disabled":false,"rental_uris":{"android":"levelo://app?vid=5386cdb1-0bc8-4046-9b0e-9863bc3cb4fc","ios":"levelo://app?vid=5386cdb1-0bc8-4046-9b0e-9863bc3cb4fc"},"vehicle_type_id":"4","last_reported":1740060522,"current_range_meters":16800,"station_id":"","pricing_plan_id":"cebpf4jnsgd1na2vs0mg"},{"bike_id":"5459b73e-6df9-48fb-840a-662ff34ee9e5","system_id":"levelo_inurba_marseille","lat":43.27944,"lon":5.41053,"is_reserved":false,"is_disabled":false,"rental_uris":{"android":"levelo://app?vid=5459b73e-6df9-48fb-840a-662ff34ee9e5","ios":"levelo://app?vid=5459b73e-6df9-48fb-840a-662ff34ee9e5"},"vehicle_type_id":"4","last_reported":1740060522,"current_range_meters":16800,"station_id":"ce4bhnp2rcd13ifvqh0g","pricing_plan_id":"cebpf4jnsgd1na2vs0mg"},{"bike_id":"1736bdf7-065e-458a-8be8-137efe82e48a","system_id":"levelo_inurba_marseille","lat":43.33097,"lon":5.39055,"is_reserved":false,"is_disabled":false,"rental_uris":{"android":"levelo://app?vid=1736bdf7-065e-458a-8be8-137efe82e48a","ios":"levelo://app?vid=1736bdf7-065e-458a-8be8-137efe82e48a"},"vehicle_type_id":"4","last_reported":1740060522,"current_range_meters":16800,"station_id":"ce4bhqp2rcd13ifvqhog","pricing_plan_id":"cebpf4jnsgd1na2vs0mg"},{"bike_id":"96fbdd41-6e32-449c-95bf-cef2bc95fe19","system_id":"levelo_inurba_marseille","lat":43.29384,"lon":5.37848,"is_reserved":false,"is_disabled":false,"rental_uris":{"android":"levelo://app?vid=96fbdd41-6e32-449c-95bf-cef2bc95fe19","ios":"levelo://app?vid=96fbdd41-6e32-449c-95bf-cef2bc95fe19"},"vehicle_type_id":"4","last_reported":1740060522,"current_range_meters":16800,"station_id":"","pricing_plan_id":"cebpf4jnsgd1na2vs0mg"},{"bike_id":"149d8985-eade-45fb-8852-dcf993418135","system_id":"levelo_inurba_marseille","lat":43.29557,"lon":5.4229,"is_reserved":false,"is_disabled":false,"rental_uris":{"android":"levelo://app?vid=149d8985-eade-45fb-8852-dcf993418135","ios":"levelo://app?vid=149d8985-eade-45fb-8852-dcf993418135"},"vehicle_type_id":"4","last_reported":1740060522,"current_range_meters":16800,"station_id":"","pricing_plan_id":"cebpf4jnsgd1na2vs0mg"},{"bike_id":"74118f9e-5fd9-4784-9c04-eb719a43b810","system_id":"levelo_inurba_marseille","lat":43.29879,"lon":5.39732,"is_reserved":false,"is_disabled":false,"rental_uris":{"android":"levelo://app?vid=74118f9e-5fd9-4784-9c04-eb719a43b810","ios":"levelo://app?vid=74118f9e-5fd9-4784-9c04-eb719a43b810"},"vehicle_type_id":"4","last_reported":1740060522,"current_range_meters":16800,"station_id":"ce4bh0h2rcd13ifvqd50","pricing_plan_id":"cebpf4jnsgd1na2vs0mg"},{"bike_id":"95bf57d2-9d5e-46e9-955d-d16e9478a33d","system_id":"levelo_inurba_marseille","lat":43.25006,"lon":5.38917,"is_reserved":false,"is_disabled":false,"rental_uris":{"android":"levelo://app?vid=95bf57d2-9d5e-46e9-955d-d16e9478a33d","ios":"levelo://app?vid=95bf57d2-9d5e-46e9-955d-d16e9478a33d"},"vehicle_type_id":"4","last_reported":1740060522,"current_range_meters":17200,"station_id":"","pricing_plan_id":"cebpf4jnsgd1na2vs0mg"},{"bike_id":"0c6dfc2a-5d46-4b56-a56c-62302e24179b","system_id":"levelo_inurba_marseille","lat":43.29853,"lon":5.36277,"is_reserved":false,"is_disabled":false,"rental_uris":{"android":"levelo://app?vid=0c6dfc2a-5d46-4b56-a56c-62302e24179b","ios":"levelo://app?vid=0c6dfc2a-5d46-4b56-a56c-62302e24179b"},"vehicle_type_id":"4","last_reported":1740060522,"current_range_meters":17200,"station_id":"ce4bgpp2rcd13ifvqc3g","pricing_plan_id":"cebpf4jnsgd1na2vs0mg"},{"bike_id":"1980d32c-8b37-46f1-b45a-bedafe67d629","system_id":"levelo_inurba_marseille","lat":43.27318,"lon":5.39076,"is_reserved":false,"is_disabled":false,"rental_uris":{"android":"levelo://app?vid=1980d32c-8b37-46f1-b45a-bedafe67d629","ios":"levelo://app?vid=1980d32c-8b37-46f1-b45a-bedafe67d629"},"vehicle_type_id":"4","last_reported":1740060522,"current_range_meters":17200,"station_id":"","pricing_plan_id":"cebpf4jnsgd1na2vs0mg"},{"bike_id":"6cf9da66-b934-4e35-8686-5f6b0a9449c2","system_id":"levelo_inurba_marseille","lat":43.25818,"lon":5.39432,"is_reserved":false,"is_disabled":false,"rental_uris":{"android":"levelo://app?vid=6cf9da66-b934-4e35-8686-5f6b0a9449c2","ios":"levelo://app?vid=6cf9da66-b934-4e35-8686-5f6b0a9449c2"},"vehicle_type_id":"4","last_reported":1740060522,"current_range_meters":16800,"station_id":"ce4bhip2rcd13ifvqft0","pricing_plan_id":"cebpf4jnsgd1na2vs0mg"},{"bike_id":"790b0ff7-55c5-4c35-9f2a-78c4076d7d17","system_id":"levelo_inurba_marseille","lat":43.27952,"lon":5.38489,"is_reserved":false,"is_disabled":false,"rental_uris":{"android":"levelo://app?vid=790b0ff7-55c5-4c35-9f2a-78c4076d7d17","ios":"levelo://app?vid=790b0ff7-55c5-4c35-9f2a-78c4076d7d17"},"vehicle_type_id":"4","last_reported":1740060522,"current_range_meters":17200,"station_id":"","pricing_plan_id":"cebpf4jnsgd1na2vs0mg"},{"bike_id":"4347ac42-d6bd-4898-bb54-db9da5fa21c6","system_id":"levelo_inurba_marseille","lat":43.26805,"lon":5.4026,"is_reserved":false,"is_disabled":false,"rental_uris":{"android":"levelo://app?vid=4347ac42-d6bd-4898-bb54-db9da5fa21c6","ios":"levelo://app?vid=4347ac42-d6bd-4898-bb54-db9da5fa21c6"},"vehicle_type_id":"4","last_reported":1740060522,"current_range_meters":17200,"station_id":"ce501612rcd8frsf0b60","pricing_plan_id":"cebpf4jnsgd1na2vs0mg"},{"bike_id":"19bfce42-5567-4a3e-a92c-816040f913a2","system_id":"levelo_inurba_marseille","lat":43.33603,"lon":5.41028,"is_reserved":false,"is_disabled":false,"rental_uris":{"android":"levelo://app?vid=19bfce42-5567-4a3e-a92c-816040f913a2","ios":"levelo://app?vid=19bfce42-5567-4a3e-a92c-816040f913a2"},"vehicle_type_id":"4","last_reported":1740060522,"current_range_meters":17200,"station_id":"ce4bhqh2rcd13ifvqhmg","pricing_plan_id":"cebpf4jnsgd1na2vs0mg"},{"bike_id":"0e65fbfb-6cda-4515-bf1d-9a37562354fd","system_id":"levelo_inurba_marseille","lat":43.30137,"lon":5.37407,"is_reserved":false,"is_disabled":false,"rental_uris":{"android":"levelo://app?vid=0e65fbfb-6cda-4515-bf1d-9a37562354fd","ios":"levelo://app?vid=0e65fbfb-6cda-4515-bf1d-9a37562354fd"},"vehicle_type_id":"4","last_reported":1740060522,"current_range_meters":17200,"station_id":"ce4bgs92rcd13ifvqcc0","pricing_plan_id":"cebpf4jnsgd1na2vs0mg"},{"bike_id":"4e11b30d-0226-4b04-813f-4404772688cd","system_id":"levelo_inurba_marseille","lat":43.29017,"lon":5.37129,"is_reserved":false,"is_disabled":false,"rental_uris":{"android":"levelo://app?vid=4e11b30d-0226-4b04-813f-4404772688cd","ios":"levelo://app?vid=4e11b30d-0226-4b04-813f-4404772688cd"},"vehicle_type_id":"4","last_reported":1740060522,"current_range_meters":17200,"station_id":"","pricing_plan_id":"cebpf4jnsgd1na2vs0mg"},{"bike_id":"7f77d183-c231-456a-93e4-32a63d975eb6","system_id":"levelo_inurba_marseille","lat":43.25083,"lon":5.39511,"is_reserved":false,"is_disabled":false,"rental_uris":{"android":"levelo://app?vid=7f77d183-c231-456a-93e4-32a63d975eb6","ios":"levelo://app?vid=7f77d183-c231-456a-93e4-32a63d975eb6"},"vehicle_type_id":"4","last_reported":1740060522,"current_range_meters":17600,"station_id":"ce4bhn12rcd13ifvqgqg","pricing_plan_id":"cebpf4jnsgd1na2vs0mg"},{"bike_id":"0f9b09d5-96c5-46f8-a357-5f2b259626e5","system_id":"levelo_inurba_marseille","lat":43.29744,"lon":5.37686,"is_reserved":false,"is_disabled":false,"rental_uris":{"android":"levelo://app?vid=0f9b09d5-96c5-46f8-a357-5f2b259626e5","ios":"levelo://app?vid=0f9b09d5-96c5-46f8-a357-5f2b259626e5"},"vehicle_type_id":"4","last_reported":1740060522,"current_range_meters":17600,"station_id":"","pricing_plan_id":"cebpf4jnsgd1na2vs0mg"},{"bike_id":"21add450-3204-4525-8308-f095133368b6","system_id":"levelo_inurba_marseille","lat":43.29052,"lon":5.35913,"is_reserved":false,"is_disabled":false,"rental_uris":{"android":"levelo://app?vid=21add450-3204-4525-8308-f095133368b6","ios":"levelo://app?vid=21add450-3204-4525-8308-f095133368b6"},"vehicle_type_id":"4","last_reported":1740060522,"current_range_meters":17600,"station_id":"ce4bha92rcd13ifvqeg0","pricing_plan_id":"cebpf4jnsgd1na2vs0mg"},{"bike_id":"f800bf4a-a88e-43ea-b4b8-11875d2f53c7","system_id":"levelo_inurba_marseille","lat":43.24818,"lon":5.37453,"is_reserved":false,"is_disabled":true,"rental_uris":{"android":"levelo://app?vid=f800bf4a-a88e-43ea-b4b8-11875d2f53c7","ios":"levelo://app?vid=f800bf4a-a88e-43ea-b4b8-11875d2f53c7"},"vehicle_type_id":"4","last_reported":1740060522,"current_range_meters":17600,"station_id":"","pricing_plan_id":"cebpf4jnsgd1na2vs0mg"},{"bike_id":"3a18a060-43b3-487c-bb23-8493264d5ba4","system_id":"levelo_inurba_marseille","lat":43.2418,"lon":5.36407,"is_reserved":false,"is_disabled":true,"rental_uris":{"android":"levelo://app?vid=3a18a060-43b3-487c-bb23-8493264d5ba4","ios":"levelo://app?vid=3a18a060-43b3-487c-bb23-8493264d5ba4"},"vehicle_type_id":"4","last_reported":1740060522,"current_range_meters":17600,"station_id":"","pricing_plan_id":"cebpf4jnsgd1na2vs0mg"},{"bike_id":"99c320af-36c2-439c-9dce-6023452e9b95","system_id":"levelo_inurba_marseille","lat":43.26212,"lon":5.37931,"is_reserved":false,"is_disabled":false,"rental_uris":{"android":"levelo://app?vid=99c320af-36c2-439c-9dce-6023452e9b95","ios":"levelo://app?vid=99c320af-36c2-439c-9dce-6023452e9b95"},"vehicle_type_id":"4","last_reported":1740060522,"current_range_meters":17600,"station_id":"ce4bhjp2rcd13ifvqg90","pricing_plan_id":"cebpf4jnsgd1na2vs0mg"},{"bike_id":"6ac01c27-4e57-4962-954d-04b7361441dd","system_id":"levelo_inurba_marseille","lat":43.30802,"lon":5.3734,"is_reserved":false,"is_disabled":false,"rental_uris":{"android":"levelo://app?vid=6ac01c27-4e57-4962-954d-04b7361441dd","ios":"levelo://app?vid=6ac01c27-4e57-4962-954d-04b7361441dd"},"vehicle_type_id":"4","last_reported":1740060522,"current_range_meters":17600,"station_id":"ce4bgt92rcd13ifvqcg0","pricing_plan_id":"cebpf4jnsgd1na2vs0mg"},{"bike_id":"1c83bb61-2469-4008-bfe4-3f140be568a3","system_id":"levelo_inurba_marseille","lat":43.27955,"lon":5.41032,"is_reserved":false,"is_disabled":false,"rental_uris":{"android":"levelo://app?vid=1c83bb61-2469-4008-bfe4-3f140be568a3","ios":"levelo://app?vid=1c83bb61-2469-4008-bfe4-3f140be568a3"},"vehicle_type_id":"4","last_reported":1740060522,"current_range_meters":17600,"station_id":"ce4bhnp2rcd13ifvqh0g","pricing_plan_id":"cebpf4jnsgd1na2vs0mg"},{"bike_id":"282aea0b-3b38-483d-a530-a6d0b7eb9dda","system_id":"levelo_inurba_marseille","lat":43.2651,"lon":5.39534,"is_reserved":false,"is_disabled":false,"rental_uris":{"android":"levelo://app?vid=282aea0b-3b38-483d-a530-a6d0b7eb9dda","ios":"levelo://app?vid=282aea0b-3b38-483d-a530-a6d0b7eb9dda"},"vehicle_type_id":"4","last_reported":1740060522,"current_range_meters":18000,"station_id":"ce4bhi12rcd13ifvqfq0","pricing_plan_id":"cebpf4jnsgd1na2vs0mg"},{"bike_id":"cc53cd59-943a-413f-853f-ecc0f16f756e","system_id":"levelo_inurba_marseille","lat":43.29528,"lon":5.37498,"is_reserved":false,"is_disabled":false,"rental_uris":{"android":"levelo://app?vid=cc53cd59-943a-413f-853f-ecc0f16f756e","ios":"levelo://app?vid=cc53cd59-943a-413f-853f-ecc0f16f756e"},"vehicle_type_id":"4","last_reported":1740060522,"current_range_meters":18000,"station_id":"ce4bgkp2rcd13ifvqbmg","pricing_plan_id":"cebpf4jnsgd1na2vs0mg"},{"bike_id":"23467217-b504-4d7a-a979-328b43f0602c","system_id":"levelo_inurba_marseille","lat":43.29981,"lon":5.38485,"is_reserved":false,"is_disabled":false,"rental_uris":{"android":"levelo://app?vid=23467217-b504-4d7a-a979-328b43f0602c","ios":"levelo://app?vid=23467217-b504-4d7a-a979-328b43f0602c"},"vehicle_type_id":"4","last_reported":1740060522,"current_range_meters":18000,"station_id":"ce4bgj92rcd13ifvqbd0","pricing_plan_id":"cebpf4jnsgd1na2vs0mg"},{"bike_id":"da0d8a57-dc35-4cad-a584-68768284fc4a","system_id":"levelo_inurba_marseille","lat":43.2958,"lon":5.37501,"is_reserved":false,"is_disabled":false,"rental_uris":{"android":"levelo://app?vid=da0d8a57-dc35-4cad-a584-68768284fc4a","ios":"levelo://app?vid=da0d8a57-dc35-4cad-a584-68768284fc4a"},"vehicle_type_id":"4","last_reported":1740060522,"current_range_meters":18000,"station_id":"","pricing_plan_id":"cebpf4jnsgd1na2vs0mg"},{"bike_id":"3e10da16-64d7-4dab-af24-d50dfa153dfa","system_id":"levelo_inurba_marseille","lat":43.29542,"lon":5.3751,"is_reserved":false,"is_disabled":false,"rental_uris":{"android":"levelo://app?vid=3e10da16-64d7-4dab-af24-d50dfa153dfa","ios":"levelo://app?vid=3e10da16-64d7-4dab-af24-d50dfa153dfa"},"vehicle_type_id":"4","last_reported":1740060522,"current_range_meters":18000,"station_id":"ce4bgkp2rcd13ifvqbmg","pricing_plan_id":"cebpf4jnsgd1na2vs0mg"},{"bike_id":"44e45a0d-80e4-4777-b789-c9ff84761c0c","system_id":"levelo_inurba_marseille","lat":43.29271,"lon":5.39423,"is_reserved":false,"is_disabled":false,"rental_uris":{"android":"levelo://app?vid=44e45a0d-80e4-4777-b789-c9ff84761c0c","ios":"levelo://app?vid=44e45a0d-80e4-4777-b789-c9ff84761c0c"},"vehicle_type_id":"4","last_reported":1740060522,"current_range_meters":18000,"station_id":"","pricing_plan_id":"cebpf4jnsgd1na2vs0mg"},{"bike_id":"6a41d4d5-6ce6-4940-8b60-f1b1f72587c0","system_id":"levelo_inurba_marseille","lat":43.23066,"lon":5.35488,"is_reserved":false,"is_disabled":false,"rental_uris":{"android":"levelo://app?vid=6a41d4d5-6ce6-4940-8b60-f1b1f72587c0","ios":"levelo://app?vid=6a41d4d5-6ce6-4940-8b60-f1b1f72587c0"},"vehicle_type_id":"4","last_reported":1740060522,"current_range_meters":18000,"station_id":"cpo3342slgdg3j2ifvpg","pricing_plan_id":"cebpf4jnsgd1na2vs0mg"},{"bike_id":"d93ad5fd-b9f4-4fe3-8927-5a6ba46e907b","system_id":"levelo_inurba_marseille","lat":43.29245,"lon":5.4014,"is_reserved":false,"is_disabled":false,"rental_uris":{"android":"levelo://app?vid=d93ad5fd-b9f4-4fe3-8927-5a6ba46e907b","ios":"levelo://app?vid=d93ad5fd-b9f4-4fe3-8927-5a6ba46e907b"},"vehicle_type_id":"4","last_reported":1740060522,"current_range_meters":18000,"station_id":"","pricing_plan_id":"cebpf4jnsgd1na2vs0mg"},{"bike_id":"39911775-b352-437f-a831-cbaa657f922a","system_id":"levelo_inurba_marseille","lat":43.287,"lon":5.37392,"is_reserved":false,"is_disabled":false,"rental_uris":{"android":"levelo://app?vid=39911775-b352-437f-a831-cbaa657f922a","ios":"levelo://app?vid=39911775-b352-437f-a831-cbaa657f922a"},"vehicle_type_id":"4","last_reported":1740060522,"current_range_meters":18000,"station_id":"ce4bh3p2rcd13ifvqdq0","pricing_plan_id":"cebpf4jnsgd1na2vs0mg"},{"bike_id":"e358fa0d-ff33-43a9-9e90-2f47e3923455","system_id":"levelo_inurba_marseille","lat":43.28438,"lon":5.39191,"is_reserved":false,"is_disabled":false,"rental_uris":{"android":"levelo://app?vid=e358fa0d-ff33-43a9-9e90-2f47e3923455","ios":"levelo://app?vid=e358fa0d-ff33-43a9-9e90-2f47e3923455"},"vehicle_type_id":"4","last_reported":1740060522,"current_range_meters":18800,"station_id":"ce4bhoh2rcd13ifvqh5g","pricing_plan_id":"cebpf4jnsgd1na2vs0mg"},{"bike_id":"cff7e479-9e10-47df-b1cb-df926e2a5d1f","system_id":"levelo_inurba_marseille","lat":43.27188,"lon":5.40983,"is_reserved":false,"is_disabled":false,"rental_uris":{"android":"levelo://app?vid=cff7e479-9e10-47df-b1cb-df926e2a5d1f","ios":"levelo://app?vid=cff7e479-9e10-47df-b1cb-df926e2a5d1f"},"vehicle_type_id":"4","last_reported":1740060522,"current_range_meters":18800,"station_id":"ce4bhl12rcd13ifvqgf0","pricing_plan_id":"cebpf4jnsgd1na2vs0mg"},{"bike_id":"89fb68ec-1aa9-4c97-8b89-632e005ea687","system_id":"levelo_inurba_marseille","lat":43.337444,"lon":5.374475,"is_reserved":false,"is_disabled":true,"rental_uris":{"android":"levelo://app?vid=89fb68ec-1aa9-4c97-8b89-632e005ea687","ios":"levelo://app?vid=89fb68ec-1aa9-4c97-8b89-632e005ea687"},"vehicle_type_id":"4","last_reported":1740060522,"current_range_meters":18800,"station_id":"","pricing_plan_id":"cebpf4jnsgd1na2vs0mg"},{"bike_id":"eda29762-c6dc-49a0-a5cf-e5339fe492a5","system_id":"levelo_inurba_marseille","lat":43.27038,"lon":5.40281,"is_reserved":false,"is_disabled":false,"rental_uris":{"android":"levelo://app?vid=eda29762-c6dc-49a0-a5cf-e5339fe492a5","ios":"levelo://app?vid=eda29762-c6dc-49a0-a5cf-e5339fe492a5"},"vehicle_type_id":"4","last_reported":1740060522,"current_range_meters":18800,"station_id":"ce4bhk92rcd13ifvqgc0","pricing_plan_id":"cebpf4jnsgd1na2vs0mg"},{"bike_id":"c3cd1bef-97c7-4b60-ab47-c671257ecf82","system_id":"levelo_inurba_marseille","lat":43.28012,"lon":5.39997,"is_reserved":false,"is_disabled":false,"rental_uris":{"android":"levelo://app?vid=c3cd1bef-97c7-4b60-ab47-c671257ecf82","ios":"levelo://app?vid=c3cd1bef-97c7-4b60-ab47-c671257ecf82"},"vehicle_type_id":"4","last_reported":1740060522,"current_range_meters":19200,"station_id":"ce4bho92rcd13ifvqh4g","pricing_plan_id":"cebpf4jnsgd1na2vs0mg"},{"bike_id":"af63fcd5-3629-4bc8-bdf8-e27c8e4a3f00","system_id":"levelo_inurba_marseille","lat":43.26566,"lon":5.3903,"is_reserved":false,"is_disabled":true,"rental_uris":{"android":"levelo://app?vid=af63fcd5-3629-4bc8-bdf8-e27c8e4a3f00","ios":"levelo://app?vid=af63fcd5-3629-4bc8-bdf8-e27c8e4a3f00"},"vehicle_type_id":"4","last_reported":1740060522,"current_range_meters":19200,"station_id":"ce4bhe12rcd13ifvqf30","pricing_plan_id":"cebpf4jnsgd1na2vs0mg"},{"bike_id":"07fc7c94-930f-4d51-b4b0-8401e3e21ef2","system_id":"levelo_inurba_marseille","lat":43.28849,"lon":5.39314,"is_reserved":false,"is_disabled":false,"rental_uris":{"android":"levelo://app?vid=07fc7c94-930f-4d51-b4b0-8401e3e21ef2","ios":"levelo://app?vid=07fc7c94-930f-4d51-b4b0-8401e3e21ef2"},"vehicle_type_id":"4","last_reported":1740060522,"current_range_meters":18800,"station_id":"ce4bh2p2rcd13ifvqdi0","pricing_plan_id":"cebpf4jnsgd1na2vs0mg"},{"bike_id":"5c56ed9e-5a4f-4f90-bb54-810d55030b61","system_id":"levelo_inurba_marseille","lat":43.26947,"lon":5.40255,"is_reserved":false,"is_disabled":false,"rental_uris":{"android":"levelo://app?vid=5c56ed9e-5a4f-4f90-bb54-810d55030b61","ios":"levelo://app?vid=5c56ed9e-5a4f-4f90-bb54-810d55030b61"},"vehicle_type_id":"4","last_reported":1740060522,"current_range_meters":19200,"station_id":"cjm6bp8fraef2m0cb0m0","pricing_plan_id":"cebpf4jnsgd1na2vs0mg"},{"bike_id":"4425d015-adec-4c1e-bd9b-0894e4035698","system_id":"levelo_inurba_marseille","lat":43.25,"lon":5.38935,"is_reserved":false,"is_disabled":false,"rental_uris":{"android":"levelo://app?vid=4425d015-adec-4c1e-bd9b-0894e4035698","ios":"levelo://app?vid=4425d015-adec-4c1e-bd9b-0894e4035698"},"vehicle_type_id":"4","last_reported":1740060522,"current_range_meters":19200,"station_id":"ce4bhgp2rcd13ifvqfd0","pricing_plan_id":"cebpf4jnsgd1na2vs0mg"},{"bike_id":"d84e458d-12ae-4949-aaa6-f45963853bd9","system_id":"levelo_inurba_marseille","lat":43.28479,"lon":5.38414,"is_reserved":false,"is_disabled":false,"rental_uris":{"android":"levelo://app?vid=d84e458d-12ae-4949-aaa6-f45963853bd9","ios":"levelo://app?vid=d84e458d-12ae-4949-aaa6-f45963853bd9"},"vehicle_type_id":"4","last_reported":1740060522,"current_range_meters":19200,"station_id":"ce4bh512rcd13ifvqe3g","pricing_plan_id":"cebpf4jnsgd1na2vs0mg"},{"bike_id":"e69585c2-0a47-4866-b3c0-d2b6f082f2a5","system_id":"levelo_inurba_marseille","lat":43.2718,"lon":5.40979,"is_reserved":false,"is_disabled":false,"rental_uris":{"android":"levelo://app?vid=e69585c2-0a47-4866-b3c0-d2b6f082f2a5","ios":"levelo://app?vid=e69585c2-0a47-4866-b3c0-d2b6f082f2a5"},"vehicle_type_id":"4","last_reported":1740060522,"current_range_meters":19200,"station_id":"ce4bhl12rcd13ifvqgf0","pricing_plan_id":"cebpf4jnsgd1na2vs0mg"},{"bike_id":"f91217bd-1f0d-4568-889e-60633f4bcfd9","system_id":"levelo_inurba_marseille","lat":43.28384,"lon":5.38627,"is_reserved":false,"is_disabled":false,"rental_uris":{"android":"levelo://app?vid=f91217bd-1f0d-4568-889e-60633f4bcfd9","ios":"levelo://app?vid=f91217bd-1f0d-4568-889e-60633f4bcfd9"},"vehicle_type_id":"4","last_reported":1740060522,"current_range_meters":19200,"station_id":"ce4bh492rcd13ifvqdvg","pricing_plan_id":"cebpf4jnsgd1na2vs0mg"},{"bike_id":"975ff1b0-57c8-4002-92bf-5ce6a7b26e4d","system_id":"levelo_inurba_marseille","lat":43.29047,"lon":5.37138,"is_reserved":false,"is_disabled":false,"rental_uris":{"android":"levelo://app?vid=975ff1b0-57c8-4002-92bf-5ce6a7b26e4d","ios":"levelo://app?vid=975ff1b0-57c8-4002-92bf-5ce6a7b26e4d"},"vehicle_type_id":"4","last_reported":1740060522,"current_range_meters":19200,"station_id":"ce4bh5p2rcd13ifvqe4g","pricing_plan_id":"cebpf4jnsgd1na2vs0mg"},{"bike_id":"36c73c18-00f4-43b4-a748-7e76ba0079b3","system_id":"levelo_inurba_marseille","lat":43.30789,"lon":5.37656,"is_reserved":false,"is_disabled":false,"rental_uris":{"android":"levelo://app?vid=36c73c18-00f4-43b4-a748-7e76ba0079b3","ios":"levelo://app?vid=36c73c18-00f4-43b4-a748-7e76ba0079b3"},"vehicle_type_id":"4","last_reported":1740060522,"current_range_meters":19200,"station_id":"ce4bgv92rcd13ifvqcq0","pricing_plan_id":"cebpf4jnsgd1na2vs0mg"},{"bike_id":"9c33291b-2464-4017-ae8b-cde83ddb0ee3","system_id":"levelo_inurba_marseille","lat":43.28717,"lon":5.37941,"is_reserved":false,"is_disabled":false,"rental_uris":{"android":"levelo://app?vid=9c33291b-2464-4017-ae8b-cde83ddb0ee3","ios":"levelo://app?vid=9c33291b-2464-4017-ae8b-cde83ddb0ee3"},"vehicle_type_id":"4","last_reported":1740060522,"current_range_meters":19200,"station_id":"ce4bh9p2rcd13ifvqec0","pricing_plan_id":"cebpf4jnsgd1na2vs0mg"},{"bike_id":"7f32cafd-5558-42cf-a64b-674df5a94812","system_id":"levelo_inurba_marseille","lat":43.3029,"lon":5.377,"is_reserved":false,"is_disabled":false,"rental_uris":{"android":"levelo://app?vid=7f32cafd-5558-42cf-a64b-674df5a94812","ios":"levelo://app?vid=7f32cafd-5558-42cf-a64b-674df5a94812"},"vehicle_type_id":"4","last_reported":1740060522,"current_range_meters":19200,"station_id":"ce4bguh2rcd13ifvqcj0","pricing_plan_id":"cebpf4jnsgd1na2vs0mg"},{"bike_id":"79809e01-be49-4339-9a80-1200e10051d5","system_id":"levelo_inurba_marseille","lat":43.27335,"lon":5.39097,"is_reserved":false,"is_disabled":false,"rental_uris":{"android":"levelo://app?vid=79809e01-be49-4339-9a80-1200e10051d5","ios":"levelo://app?vid=79809e01-be49-4339-9a80-1200e10051d5"},"vehicle_type_id":"4","last_reported":1740060522,"current_range_meters":19600,"station_id":"ce4bhgp2rcd13ifvqfe0","pricing_plan_id":"cebpf4jnsgd1na2vs0mg"},{"bike_id":"a4497708-7ed7-4d00-9f2a-b1be4e2a988b","system_id":"levelo_inurba_marseille","lat":43.30192,"lon":5.36624,"is_reserved":false,"is_disabled":false,"rental_uris":{"android":"levelo://app?vid=a4497708-7ed7-4d00-9f2a-b1be4e2a988b","ios":"levelo://app?vid=a4497708-7ed7-4d00-9f2a-b1be4e2a988b"},"vehicle_type_id":"4","last_reported":1740060522,"current_range_meters":19600,"station_id":"ce4bgrh2rcd13ifvqc8g","pricing_plan_id":"cebpf4jnsgd1na2vs0mg"},{"bike_id":"ebe8f273-5739-4753-ba61-e13e57e5e3ea","system_id":"levelo_inurba_marseille","lat":43.265747,"lon":5.390208,"is_reserved":false,"is_disabled":true,"rental_uris":{"android":"levelo://app?vid=ebe8f273-5739-4753-ba61-e13e57e5e3ea","ios":"levelo://app?vid=ebe8f273-5739-4753-ba61-e13e57e5e3ea"},"vehicle_type_id":"4","last_reported":1740060522,"current_range_meters":19600,"station_id":"","pricing_plan_id":"cebpf4jnsgd1na2vs0mg"},{"bike_id":"3ec0c83e-dc26-43c6-822d-b309dbd225f4","system_id":"levelo_inurba_marseille","lat":43.28724,"lon":5.36076,"is_reserved":false,"is_disabled":false,"rental_uris":{"android":"levelo://app?vid=3ec0c83e-dc26-43c6-822d-b309dbd225f4","ios":"levelo://app?vid=3ec0c83e-dc26-43c6-822d-b309dbd225f4"},"vehicle_type_id":"4","last_reported":1740060522,"current_range_meters":19200,"station_id":"cki0cbj6b192h4jlfktg","pricing_plan_id":"cebpf4jnsgd1na2vs0mg"},{"bike_id":"c5d35ec0-dd62-4022-bbb0-9536fe2b8064","system_id":"levelo_inurba_marseille","lat":43.282266,"lon":5.350897,"is_reserved":false,"is_disabled":false,"rental_uris":{"android":"levelo://app?vid=c5d35ec0-dd62-4022-bbb0-9536fe2b8064","ios":"levelo://app?vid=c5d35ec0-dd62-4022-bbb0-9536fe2b8064"},"vehicle_type_id":"4","last_reported":1740060522,"current_range_meters":19600,"station_id":"","pricing_plan_id":"cebpf4jnsgd1na2vs0mg"},{"bike_id":"5d81c9c4-d76b-4a54-b913-1c1f6abf7e3c","system_id":"levelo_inurba_marseille","lat":43.28477,"lon":5.38409,"is_reserved":false,"is_disabled":false,"rental_uris":{"android":"levelo://app?vid=5d81c9c4-d76b-4a54-b913-1c1f6abf7e3c","ios":"levelo://app?vid=5d81c9c4-d76b-4a54-b913-1c1f6abf7e3c"},"vehicle_type_id":"4","last_reported":1740060522,"current_range_meters":19600,"station_id":"ce4bh512rcd13ifvqe3g","pricing_plan_id":"cebpf4jnsgd1na2vs0mg"},{"bike_id":"2f528f47-64e0-4db2-badb-32005bb319d3","system_id":"levelo_inurba_marseille","lat":43.3372,"lon":5.39183,"is_reserved":false,"is_disabled":false,"rental_uris":{"android":"levelo://app?vid=2f528f47-64e0-4db2-badb-32005bb319d3","ios":"levelo://app?vid=2f528f47-64e0-4db2-badb-32005bb319d3"},"vehicle_type_id":"4","last_reported":1740060522,"current_range_meters":19600,"station_id":"ce4bhr92rcd13ifvqhsg","pricing_plan_id":"cebpf4jnsgd1na2vs0mg"},{"bike_id":"785bf894-8767-4fc9-ad4d-c775c526dde5","system_id":"levelo_inurba_marseille","lat":43.2663,"lon":5.40799,"is_reserved":false,"is_disabled":false,"rental_uris":{"android":"levelo://app?vid=785bf894-8767-4fc9-ad4d-c775c526dde5","ios":"levelo://app?vid=785bf894-8767-4fc9-ad4d-c775c526dde5"},"vehicle_type_id":"4","last_reported":1740060522,"current_range_meters":19600,"station_id":"","pricing_plan_id":"cebpf4jnsgd1na2vs0mg"},{"bike_id":"c082bc46-e848-4530-8fe9-848eef9b077b","system_id":"levelo_inurba_marseille","lat":43.29261,"lon":5.38437,"is_reserved":false,"is_disabled":false,"rental_uris":{"android":"levelo://app?vid=c082bc46-e848-4530-8fe9-848eef9b077b","ios":"levelo://app?vid=c082bc46-e848-4530-8fe9-848eef9b077b"},"vehicle_type_id":"4","last_reported":1740060522,"current_range_meters":19600,"station_id":"ce4bh692rcd13ifvqea0","pricing_plan_id":"cebpf4jnsgd1na2vs0mg"},{"bike_id":"6e7e43ed-a5d3-42e4-95ff-eae1110c839f","system_id":"levelo_inurba_marseille","lat":43.27074,"lon":5.40247,"is_reserved":false,"is_disabled":false,"rental_uris":{"android":"levelo://app?vid=6e7e43ed-a5d3-42e4-95ff-eae1110c839f","ios":"levelo://app?vid=6e7e43ed-a5d3-42e4-95ff-eae1110c839f"},"vehicle_type_id":"4","last_reported":1740060522,"current_range_meters":19600,"station_id":"ce4bhk92rcd13ifvqgc0","pricing_plan_id":"cebpf4jnsgd1na2vs0mg"},{"bike_id":"1794e2fd-8210-468d-aee4-733eb40d66ac","system_id":"levelo_inurba_marseille","lat":43.27893,"lon":5.38006,"is_reserved":false,"is_disabled":false,"rental_uris":{"android":"levelo://app?vid=1794e2fd-8210-468d-aee4-733eb40d66ac","ios":"levelo://app?vid=1794e2fd-8210-468d-aee4-733eb40d66ac"},"vehicle_type_id":"4","last_reported":1740060522,"current_range_meters":19600,"station_id":"","pricing_plan_id":"cebpf4jnsgd1na2vs0mg"},{"bike_id":"e654b2d4-0f9d-4122-b849-90cdc281853d","system_id":"levelo_inurba_marseille","lat":43.26221,"lon":5.37443,"is_reserved":false,"is_disabled":false,"rental_uris":{"android":"levelo://app?vid=e654b2d4-0f9d-4122-b849-90cdc281853d","ios":"levelo://app?vid=e654b2d4-0f9d-4122-b849-90cdc281853d"},"vehicle_type_id":"4","last_reported":1740060522,"current_range_meters":19600,"station_id":"ce4bhgp2rcd13ifvqfc0","pricing_plan_id":"cebpf4jnsgd1na2vs0mg"},{"bike_id":"75b5f4fb-0c49-422f-9831-059225f51683","system_id":"levelo_inurba_marseille","lat":43.29603,"lon":5.37711,"is_reserved":false,"is_disabled":false,"rental_uris":{"android":"levelo://app?vid=75b5f4fb-0c49-422f-9831-059225f51683","ios":"levelo://app?vid=75b5f4fb-0c49-422f-9831-059225f51683"},"vehicle_type_id":"4","last_reported":1740060522,"current_range_meters":20000,"station_id":"","pricing_plan_id":"cebpf4jnsgd1na2vs0mg"},{"bike_id":"76a5c26c-8fd3-4d1a-9768-b3a068304396","system_id":"levelo_inurba_marseille","lat":43.29368,"lon":5.37855,"is_reserved":false,"is_disabled":false,"rental_uris":{"android":"levelo://app?vid=76a5c26c-8fd3-4d1a-9768-b3a068304396","ios":"levelo://app?vid=76a5c26c-8fd3-4d1a-9768-b3a068304396"},"vehicle_type_id":"4","last_reported":1740060522,"current_range_meters":20000,"station_id":"ce4bgjh2rcd13ifvqbf0","pricing_plan_id":"cebpf4jnsgd1na2vs0mg"},{"bike_id":"15645e3d-5dd6-4bfa-9b38-2475ddfc1093","system_id":"levelo_inurba_marseille","lat":43.27837,"lon":5.4069,"is_reserved":false,"is_disabled":false,"rental_uris":{"android":"levelo://app?vid=15645e3d-5dd6-4bfa-9b38-2475ddfc1093","ios":"levelo://app?vid=15645e3d-5dd6-4bfa-9b38-2475ddfc1093"},"vehicle_type_id":"4","last_reported":1740060522,"current_range_meters":20000,"station_id":"ce4bhnh2rcd13ifvqgtg","pricing_plan_id":"cebpf4jnsgd1na2vs0mg"},{"bike_id":"cf95633d-7ae3-4174-afec-7606a81a9904","system_id":"levelo_inurba_marseille","lat":43.32703,"lon":5.39193,"is_reserved":false,"is_disabled":false,"rental_uris":{"android":"levelo://app?vid=cf95633d-7ae3-4174-afec-7606a81a9904","ios":"levelo://app?vid=cf95633d-7ae3-4174-afec-7606a81a9904"},"vehicle_type_id":"4","last_reported":1740060522,"current_range_meters":20000,"station_id":"ce4bhr92rcd13ifvqhrg","pricing_plan_id":"cebpf4jnsgd1na2vs0mg"},{"bike_id":"d726b448-727a-4d70-857f-27e39a63a43a","system_id":"levelo_inurba_marseille","lat":43.26783,"lon":5.39411,"is_reserved":false,"is_disabled":false,"rental_uris":{"android":"levelo://app?vid=d726b448-727a-4d70-857f-27e39a63a43a","ios":"levelo://app?vid=d726b448-727a-4d70-857f-27e39a63a43a"},"vehicle_type_id":"4","last_reported":1740060522,"current_range_meters":19600,"station_id":"ce4bhh12rcd13ifvqfg0","pricing_plan_id":"cebpf4jnsgd1na2vs0mg"},{"bike_id":"da35e427-426d-41ca-859b-7c63f22da96e","system_id":"levelo_inurba_marseille","lat":43.27988,"lon":5.41658,"is_reserved":false,"is_disabled":false,"rental_uris":{"android":"levelo://app?vid=da35e427-426d-41ca-859b-7c63f22da96e","ios":"levelo://app?vid=da35e427-426d-41ca-859b-7c63f22da96e"},"vehicle_type_id":"4","last_reported":1740060522,"current_range_meters":20000,"station_id":"ce4bho12rcd13ifvqh1g","pricing_plan_id":"cebpf4jnsgd1na2vs0mg"},{"bike_id":"0f51193c-c826-4e72-807e-6704a995ee8f","system_id":"levelo_inurba_marseille","lat":43.30146,"lon":5.37432,"is_reserved":false,"is_disabled":false,"rental_uris":{"android":"levelo://app?vid=0f51193c-c826-4e72-807e-6704a995ee8f","ios":"levelo://app?vid=0f51193c-c826-4e72-807e-6704a995ee8f"},"vehicle_type_id":"4","last_reported":1740060522,"current_range_meters":20000,"station_id":"ce4bgs92rcd13ifvqcc0","pricing_plan_id":"cebpf4jnsgd1na2vs0mg"},{"bike_id":"d145d9fa-4eb2-420a-b148-7b29aadc0ea9","system_id":"levelo_inurba_marseille","lat":43.30961,"lon":5.39043,"is_reserved":false,"is_disabled":false,"rental_uris":{"android":"levelo://app?vid=d145d9fa-4eb2-420a-b148-7b29aadc0ea9","ios":"levelo://app?vid=d145d9fa-4eb2-420a-b148-7b29aadc0ea9"},"vehicle_type_id":"4","last_reported":1740060522,"current_range_meters":20000,"station_id":"ce4bgup2rcd13ifvqco0","pricing_plan_id":"cebpf4jnsgd1na2vs0mg"},{"bike_id":"17d49994-81fd-4ba3-903c-e4c7abd2aea3","system_id":"levelo_inurba_marseille","lat":43.27074,"lon":5.42276,"is_reserved":false,"is_disabled":false,"rental_uris":{"android":"levelo://app?vid=17d49994-81fd-4ba3-903c-e4c7abd2aea3","ios":"levelo://app?vid=17d49994-81fd-4ba3-903c-e4c7abd2aea3"},"vehicle_type_id":"4","last_reported":1740060522,"current_range_meters":20400,"station_id":"ce4bhk92rcd13ifvqgb0","pricing_plan_id":"cebpf4jnsgd1na2vs0mg"},{"bike_id":"600f5b00-0e49-47a6-bad9-268932da4ef3","system_id":"levelo_inurba_marseille","lat":43.25124,"lon":5.40311,"is_reserved":false,"is_disabled":false,"rental_uris":{"android":"levelo://app?vid=600f5b00-0e49-47a6-bad9-268932da4ef3","ios":"levelo://app?vid=600f5b00-0e49-47a6-bad9-268932da4ef3"},"vehicle_type_id":"4","last_reported":1740060522,"current_range_meters":20400,"station_id":"ce4bhlh2rcd13ifvqgig","pricing_plan_id":"cebpf4jnsgd1na2vs0mg"},{"bike_id":"3c29dbfe-8489-441f-931c-bfe38e13c961","system_id":"levelo_inurba_marseille","lat":43.295735,"lon":5.399687,"is_reserved":false,"is_disabled":false,"rental_uris":{"android":"levelo://app?vid=3c29dbfe-8489-441f-931c-bfe38e13c961","ios":"levelo://app?vid=3c29dbfe-8489-441f-931c-bfe38e13c961"},"vehicle_type_id":"4","last_reported":1740060522,"current_range_meters":20400,"station_id":"ce4bhap2rcd13ifvqek0","pricing_plan_id":"cebpf4jnsgd1na2vs0mg"},{"bike_id":"4156c3f4-1c00-4687-a78e-ff2dbdb866e0","system_id":"levelo_inurba_marseille","lat":43.27381,"lon":5.36243,"is_reserved":false,"is_disabled":false,"rental_uris":{"android":"levelo://app?vid=4156c3f4-1c00-4687-a78e-ff2dbdb866e0","ios":"levelo://app?vid=4156c3f4-1c00-4687-a78e-ff2dbdb866e0"},"vehicle_type_id":"4","last_reported":1740060522,"current_range_meters":20400,"station_id":"","pricing_plan_id":"cebpf4jnsgd1na2vs0mg"},{"bike_id":"3b248325-197f-4c0d-bb47-b358ae4eabc7","system_id":"levelo_inurba_marseille","lat":43.29114,"lon":5.38081,"is_reserved":false,"is_disabled":false,"rental_uris":{"android":"levelo://app?vid=3b248325-197f-4c0d-bb47-b358ae4eabc7","ios":"levelo://app?vid=3b248325-197f-4c0d-bb47-b358ae4eabc7"},"vehicle_type_id":"4","last_reported":1740060522,"current_range_meters":20400,"station_id":"ce4bgi92rcd13ifvqb90","pricing_plan_id":"cebpf4jnsgd1na2vs0mg"},{"bike_id":"74ed63f5-2d39-458b-9414-0b327604fc59","system_id":"levelo_inurba_marseille","lat":43.29908,"lon":5.38141,"is_reserved":false,"is_disabled":false,"rental_uris":{"android":"levelo://app?vid=74ed63f5-2d39-458b-9414-0b327604fc59","ios":"levelo://app?vid=74ed63f5-2d39-458b-9414-0b327604fc59"},"vehicle_type_id":"4","last_reported":1740060522,"current_range_meters":20400,"station_id":"","pricing_plan_id":"cebpf4jnsgd1na2vs0mg"},{"bike_id":"ea75b2b1-9679-4ba2-8a96-a4803d357b47","system_id":"levelo_inurba_marseille","lat":43.26208,"lon":5.37926,"is_reserved":false,"is_disabled":false,"rental_uris":{"android":"levelo://app?vid=ea75b2b1-9679-4ba2-8a96-a4803d357b47","ios":"levelo://app?vid=ea75b2b1-9679-4ba2-8a96-a4803d357b47"},"vehicle_type_id":"4","last_reported":1740060522,"current_range_meters":20400,"station_id":"ce4bhjp2rcd13ifvqg90","pricing_plan_id":"cebpf4jnsgd1na2vs0mg"},{"bike_id":"1328edf3-5a18-4fc0-9160-64680c7251fc","system_id":"levelo_inurba_marseille","lat":43.31717,"lon":5.43711,"is_reserved":false,"is_disabled":false,"rental_uris":{"android":"levelo://app?vid=1328edf3-5a18-4fc0-9160-64680c7251fc","ios":"levelo://app?vid=1328edf3-5a18-4fc0-9160-64680c7251fc"},"vehicle_type_id":"4","last_reported":1740060522,"current_range_meters":20400,"station_id":"ce4bhp92rcd13ifvqhcg","pricing_plan_id":"cebpf4jnsgd1na2vs0mg"},{"bike_id":"4463c32e-f383-418d-927a-9377e2c88f8f","system_id":"levelo_inurba_marseille","lat":43.23199,"lon":5.39995,"is_reserved":false,"is_disabled":false,"rental_uris":{"android":"levelo://app?vid=4463c32e-f383-418d-927a-9377e2c88f8f","ios":"levelo://app?vid=4463c32e-f383-418d-927a-9377e2c88f8f"},"vehicle_type_id":"4","last_reported":1740060522,"current_range_meters":20400,"station_id":"ce4bhn12rcd13ifvqgqg","pricing_plan_id":"cebpf4jnsgd1na2vs0mg"},{"bike_id":"d6d0edb4-3e7a-471d-81b3-621086aa919a","system_id":"levelo_inurba_marseille","lat":43.28359,"lon":5.38637,"is_reserved":false,"is_disabled":false,"rental_uris":{"android":"levelo://app?vid=d6d0edb4-3e7a-471d-81b3-621086aa919a","ios":"levelo://app?vid=d6d0edb4-3e7a-471d-81b3-621086aa919a"},"vehicle_type_id":"4","last_reported":1740060522,"current_range_meters":20800,"station_id":"","pricing_plan_id":"cebpf4jnsgd1na2vs0mg"},{"bike_id":"9a2f7508-67b3-4a79-bfcb-9b2361ab84e5","system_id":"levelo_inurba_marseille","lat":43.32107,"lon":5.36775,"is_reserved":false,"is_disabled":false,"rental_uris":{"android":"levelo://app?vid=9a2f7508-67b3-4a79-bfcb-9b2361ab84e5","ios":"levelo://app?vid=9a2f7508-67b3-4a79-bfcb-9b2361ab84e5"},"vehicle_type_id":"4","last_reported":1740060522,"current_range_meters":20800,"station_id":"ce4bhrh2rcd13ifvqhug","pricing_plan_id":"cebpf4jnsgd1na2vs0mg"},{"bike_id":"55114915-361d-49cc-ab56-de7513b62e48","system_id":"levelo_inurba_marseille","lat":43.29782,"lon":5.38099,"is_reserved":false,"is_disabled":false,"rental_uris":{"android":"levelo://app?vid=55114915-361d-49cc-ab56-de7513b62e48","ios":"levelo://app?vid=55114915-361d-49cc-ab56-de7513b62e48"},"vehicle_type_id":"4","last_reported":1740060522,"current_range_meters":20800,"station_id":"ce4bgip2rcd13ifvqbb0","pricing_plan_id":"cebpf4jnsgd1na2vs0mg"},{"bike_id":"fbaea280-58d1-483f-a26d-c689f30c49fb","system_id":"levelo_inurba_marseille","lat":43.33729,"lon":5.39187,"is_reserved":false,"is_disabled":false,"rental_uris":{"android":"levelo://app?vid=fbaea280-58d1-483f-a26d-c689f30c49fb","ios":"levelo://app?vid=fbaea280-58d1-483f-a26d-c689f30c49fb"},"vehicle_type_id":"4","last_reported":1740060522,"current_range_meters":20800,"station_id":"ce4bhr92rcd13ifvqhsg","pricing_plan_id":"cebpf4jnsgd1na2vs0mg"},