{"last_updated":1712502455,"ttl":30,"version":"2.2","data":{"bikes":[{"bike_id":"05b55163-fd46-44f8-95c6-f3ddcf2752b6","system_id":"levelo_inurba_marseille","lat":43.31341,"lon":5.367098,"is_reserved":false,"is_disabled":false,"rental_uris":{"android":"levelo://app?vid=05b55163-fd46-44f8-95c6-f3ddcf2752b6","ios":"levelo://app?vid=05b55163-fd46-44f8-95c6-f3ddcf2752b6"},"vehicle_type_id":"4","last_reported":1712502455,"current_range_meters":22800,"station_id":"ce4bgr92rcd13ifvqc6g","pricing_plan_id":"cebpf4jnsgd1na2vs0mg"},{"bike_id":"c677a063-9fb9-4591-afbd-943437cfe0ea","system_id":"levelo_inurba_marseille","lat":43.312239,"lon":5.368562,"is_reserved":false,"is_disabled":false,"rental_uris":{"android":"levelo://app?vid=c677a063-9fb9-4591-afbd-943437cfe0ea","ios":"levelo://app?vid=c677a063-9fb9-4591-afbd-943437cfe0ea"},"vehicle_type_id":"4","last_reported":1712502455,"current_range_meters":19600,"station_id":"ce4bgl92rcd13ifvqbq0","pricing_plan_id":"cebpf4jnsgd1na2vs0mg"},{"bike_id":"e36403cd-db31-478a-a166-f8e964c5a842","system_id":"levelo_inurba_marseille","lat":43.312239,"lon":5.368562,"is_reserved":false,"is_disabled":false,"rental_uris":{"android":"levelo://app?vid=e36403cd-db31-478a-a166-f8e964c5a842","ios":"levelo://app?vid=e36403cd-db31-478a-a166-f8e964c5a842"},"vehicle_type_id":"4","last_reported":1712502455,"current_range_meters":22800,"station_id":"ce4bgl92rcd13ifvqbq0","pricing_plan_id":"cebpf4jnsgd1na2vs0mg"},{"bike_id":"23e1663c-2da5-44de-a946-3f4853332821","system_id":"levelo_inurba_marseille","lat":43.31219,"lon":5.36851,"is_reserved":false,"is_disabled":false,"rental_uris":{"android":"levelo://app?vid=23e1663c-2da5-44de-a946-3f4853332821","ios":"levelo://app?vid=23e1663c-2da5-44de-a946-3f4853332821"},"vehicle_type_id":"4","last_reported":1712502455,"current_range_meters":8000,"station_id":"ce4bgl92rcd13ifvqbq0","pricing_plan_id":"cebpf4jnsgd1na2vs0mg"},{"bike_id":"c6b86569-a81a-466b-9d81-778edf18c296","system_id":"levelo_inurba_marseille","lat":43.312239,"lon":5.368562,"is_reserved":false,"is_disabled":false,"rental_uris":{"android":"levelo://app?vid=c6b86569-a81a-466b-9d81-778edf18c296","ios":"levelo://app?vid=c6b86569-a81a-466b-9d81-778edf18c296"},"vehicle_type_id":"4","last_reported":1712502455,"current_range_meters":5200,"station_id":"ce4bgl92rcd13ifvqbq0","pricing_plan_id":"cebpf4jnsgd1na2vs0mg"},{"bike_id":"162ff919-471d-4913-a04e-828dfb252ea0","system_id":"levelo_inurba_marseille","lat":43.312239,"lon":5.368562,"is_reserved":false,"is_disabled":false,"rental_uris":{"android":"levelo://app?vid=162ff919-471d-4913-a04e-828dfb252ea0","ios":"levelo://app?vid=162ff919-471d-4913-a04e-828dfb252ea0"},"vehicle_type_id":"4","last_reported":1712502455,"current_range_meters":21200,"station_id":"ce4bgl92rcd13ifvqbq0","pricing_plan_id":"cebpf4jnsgd1na2vs0mg"},{"bike_id":"43d4091d-6378-4704-9295-54dcc36dd3c8","system_id":"levelo_inurba_marseille","lat":43.312239,"lon":5.368562,"is_reserved":false,"is_disabled":false,"rental_uris":{"android":"levelo://app?vid=43d4091d-6378-4704-9295-54dcc36dd3c8","ios":"levelo://app?vid=43d4091d-6378-4704-9295-54dcc36dd3c8"},"vehicle_type_id":"4","last_reported":1712502455,"current_range_meters":400,"station_id":"ce4bgl92rcd13ifvqbq0","pricing_plan_id":"cebpf4jnsgd1na2vs0mg"},{"bike_id":"d6608c96-0aab-4f6d-ab3b-1663836839b6","system_id":"levelo_inurba_marseille","lat":43.30908,"lon":5.36853,"is_reserved":false,"is_disabled":false,"rental_uris":{"android":"levelo://app?vid=d6608c96-0aab-4f6d-ab3b-1663836839b6","ios":"levelo://app?vid=d6608c96-0aab-4f6d-ab3b-1663836839b6"},"vehicle_type_id":"4","last_reported":1712502455,"current_range_meters":0,"station_id":"ce4bgn92rcd13ifvqbvg","pricing_plan_id":"cebpf4jnsgd1na2vs0mg"},{"bike_id":"eacab57b-e4a6-42ee-a8d0-e672822bc45b","system_id":"levelo_inurba_marseille","lat":43.309076,"lon":5.368465,"is_reserved":false,"is_disabled":false,"rental_uris":{"android":"levelo://app?vid=eacab57b-e4a6-42ee-a8d0-e672822bc45b","ios":"levelo://app?vid=eacab57b-e4a6-42ee-a8d0-e672822bc45b"},"vehicle_type_id":"4","last_reported":1712502455,"current_range_meters":18400,"station_id":"ce4bgn92rcd13ifvqbvg","pricing_plan_id":"cebpf4jnsgd1na2vs0mg"},{"bike_id":"b23062e5-d5cd-4d2d-bc7b-4da4ea02b6a1","system_id":"levelo_inurba_marseille","lat":43.309076,"lon":5.368465,"is_reserved":false,"is_disabled":false,"rental_uris":{"android":"levelo://app?vid=b23062e5-d5cd-4d2d-bc7b-4da4ea02b6a1","ios":"levelo://app?vid=b23062e5-d5cd-4d2d-bc7b-4da4ea02b6a1"},"vehicle_type_id":"4","last_reported":1712502455,"current_range_meters":11200,"station_id":"ce4bgn92rcd13ifvqbvg","pricing_plan_id":"cebpf4jnsgd1na2vs0mg"},{"bike_id":"9bafa147-34a4-46f6-a550-7ffe61998637","system_id":"levelo_inurba_marseille","lat":43.309,"lon":5.36849,"is_reserved":false,"is_disabled":false,"rental_uris":{"android":"levelo://app?vid=9bafa147-34a4-46f6-a550-7ffe61998637","ios":"levelo://app?vid=9bafa147-34a4-46f6-a550-7ffe61998637"},"vehicle_type_id":"4","last_reported":1712502455,"current_range_meters":3200,"station_id":"ce4bgn92rcd13ifvqbvg","pricing_plan_id":"cebpf4jnsgd1na2vs0mg"},{"bike_id":"73706916-b3f3-4ff0-b068-cec67895e8b1","system_id":"levelo_inurba_marseille","lat":43.308824,"lon":5.367437,"is_reserved":false,"is_disabled":false,"rental_uris":{"android":"levelo://app?vid=73706916-b3f3-4ff0-b068-cec67895e8b1","ios":"levelo://app?vid=73706916-b3f3-4ff0-b068-cec67895e8b1"},"vehicle_type_id":"4","last_reported":1712502455,"current_range_meters":8400,"station_id":"","pricing_plan_id":"cebpf4jnsgd1na2vs0mg"},{"bike_id":"5a404f9a-ed4b-4d55-aba1-0512c851ee2c","system_id":"levelo_inurba_marseille","lat":43.314811,"lon":5.373103,"is_reserved":false,"is_disabled":false,"rental_uris":{"android":"levelo://app?vid=5a404f9a-ed4b-4d55-aba1-0512c851ee2c","ios":"levelo://app?vid=5a404f9a-ed4b-4d55-aba1-0512c851ee2c"},"vehicle_type_id":"4","last_reported":1712502455,"current_range_meters":800,"station_id":"ce4bgt12rcd13ifvqcd0","pricing_plan_id":"cebpf4jnsgd1na2vs0mg"},{"bike_id":"cf5914a0-ebe9-4ebd-9a3d-a2e8b0fbeeef","system_id":"levelo_inurba_marseille","lat":43.314811,"lon":5.373103,"is_reserved":false,"is_disabled":false,"rental_uris":{"android":"levelo://app?vid=cf5914a0-ebe9-4ebd-9a3d-a2e8b0fbeeef","ios":"levelo://app?vid=cf5914a0-ebe9-4ebd-9a3d-a2e8b0fbeeef"},"vehicle_type_id":"4","last_reported":1712502455,"current_range_meters":18800,"station_id":"ce4bgt12rcd13ifvqcd0","pricing_plan_id":"cebpf4jnsgd1na2vs0mg"},{"bike_id":"0e49fad5-bb24-4ce5-a03e-7b40dad9e527","system_id":"levelo_inurba_marseille","lat":43.315289,"lon":5.380349,"is_reserved":false,"is_disabled":false,"rental_uris":{"android":"levelo://app?vid=0e49fad5-bb24-4ce5-a03e-7b40dad9e527","ios":"levelo://app?vid=0e49fad5-bb24-4ce5-a03e-7b40dad9e527"},"vehicle_type_id":"4","last_reported":1712502455,"current_range_meters":30800,"station_id":"ce4bhsp2rcd13ifvqi50","pricing_plan_id":"cebpf4jnsgd1na2vs0mg"},{"bike_id":"064f1c9d-63b2-4700-a1b1-056788674634","system_id":"levelo_inurba_marseille","lat":43.30541,"lon":5.365652,"is_reserved":false,"is_disabled":false,"rental_uris":{"android":"levelo://app?vid=064f1c9d-63b2-4700-a1b1-056788674634","ios":"levelo://app?vid=064f1c9d-63b2-4700-a1b1-056788674634"},"vehicle_type_id":"4","last_reported":1712502455,"current_range_meters":0,"station_id":"ce4bgs12rcd13ifvqcag","pricing_plan_id":"cebpf4jnsgd1na2vs0mg"},{"bike_id":"21d3da76-f1b6-4021-9857-8396b5379a78","system_id":"levelo_inurba_marseille","lat":43.305712,"lon":5.365641,"is_reserved":false,"is_disabled":false,"rental_uris":{"android":"levelo://app?vid=21d3da76-f1b6-4021-9857-8396b5379a78","ios":"levelo://app?vid=21d3da76-f1b6-4021-9857-8396b5379a78"},"vehicle_type_id":"4","last_reported":1712502455,"current_range_meters":7600,"station_id":"ce4bgs12rcd13ifvqcag","pricing_plan_id":"cebpf4jnsgd1na2vs0mg"},{"bike_id":"4099d739-5d5d-4a33-85d3-565ee347fc08","system_id":"levelo_inurba_marseille","lat":43.296131,"lon":5.370791,"is_reserved":false,"is_disabled":false,"rental_uris":{"android":"levelo://app?vid=4099d739-5d5d-4a33-85d3-565ee347fc08","ios":"levelo://app?vid=4099d739-5d5d-4a33-85d3-565ee347fc08"},"vehicle_type_id":"4","last_reported":1712502455,"current_range_meters":6800,"station_id":"ce4bgnh2rcd13ifvqc0g","pricing_plan_id":"cebpf4jnsgd1na2vs0mg"},{"bike_id":"8a907613-723a-4ab2-a4eb-8869706e4863","system_id":"levelo_inurba_marseille","lat":43.317075,"lon":5.377367,"is_reserved":false,"is_disabled":false,"rental_uris":{"android":"levelo://app?vid=8a907613-723a-4ab2-a4eb-8869706e4863","ios":"levelo://app?vid=8a907613-723a-4ab2-a4eb-8869706e4863"},"vehicle_type_id":"4","last_reported":1712502455,"current_range_meters":21600,"station_id":"ce4bgth2rcd13ifvqch0","pricing_plan_id":"cebpf4jnsgd1na2vs0mg"},{"bike_id":"397c1585-7471-4ba0-99a8-b1f7ef4a1530","system_id":"levelo_inurba_marseille","lat":43.317075,"lon":5.377367,"is_reserved":false,"is_disabled":false,"rental_uris":{"android":"levelo://app?vid=397c1585-7471-4ba0-99a8-b1f7ef4a1530","ios":"levelo://app?vid=397c1585-7471-4ba0-99a8-b1f7ef4a1530"},"vehicle_type_id":"4","last_reported":1712502455,"current_range_meters":7200,"station_id":"ce4bgth2rcd13ifvqch0","pricing_plan_id":"cebpf4jnsgd1na2vs0mg"},{"bike_id":"72268af9-a4e6-4c6a-8a92-4ca8527c417d","system_id":"levelo_inurba_marseille","lat":43.317075,"lon":5.377367,"is_reserved":false,"is_disabled":false,"rental_uris":{"android":"levelo://app?vid=72268af9-a4e6-4c6a-8a92-4ca8527c417d","ios":"levelo://app?vid=72268af9-a4e6-4c6a-8a92-4ca8527c417d"},"vehicle_type_id":"4","last_reported":1712502455,"current_range_meters":10800,"station_id":"ce4bgth2rcd13ifvqch0","pricing_plan_id":"cebpf4jnsgd1na2vs0mg"},{"bike_id":"baecd957-41d3-4649-82a4-37ec3b2b0a6a","system_id":"levelo_inurba_marseille","lat":43.315293,"lon":5.380349,"is_reserved":false,"is_disabled":false,"rental_uris":{"android":"levelo://app?vid=baecd957-41d3-4649-82a4-37ec3b2b0a6a","ios":"levelo://app?vid=baecd957-41d3-4649-82a4-37ec3b2b0a6a"},"vehicle_type_id":"4","last_reported":1712502455,"current_range_meters":13200,"station_id":"ce4bhsp2rcd13ifvqi50","pricing_plan_id":"cebpf4jnsgd1na2vs0mg"},{"bike_id":"30710ec1-d7d3-4d30-b63b-c4138d0b2ca5","system_id":"levelo_inurba_marseille","lat":43.30304,"lon":5.368987,"is_reserved":false,"is_disabled":false,"rental_uris":{"android":"levelo://app?vid=30710ec1-d7d3-4d30-b63b-c4138d0b2ca5","ios":"levelo://app?vid=30710ec1-d7d3-4d30-b63b-c4138d0b2ca5"},"vehicle_type_id":"4","last_reported":1712502455,"current_range_meters":800,"station_id":"ce4bgqh2rcd13ifvqc5g","pricing_plan_id":"cebpf4jnsgd1na2vs0mg"},{"bike_id":"3fe0ed98-28ba-4913-92cd-a134350f1337","system_id":"levelo_inurba_marseille","lat":43.301939,"lon":5.366286,"is_reserved":false,"is_disabled":false,"rental_uris":{"android":"levelo://app?vid=3fe0ed98-28ba-4913-92cd-a134350f1337","ios":"levelo://app?vid=3fe0ed98-28ba-4913-92cd-a134350f1337"},"vehicle_type_id":"4","last_reported":1712502455,"current_range_meters":16400,"station_id":"ce4bgrh2rcd13ifvqc8g","pricing_plan_id":"cebpf4jnsgd1na2vs0mg"},{"bike_id":"d0ae2a9a-a623-445a-af99-e3aae422e755","system_id":"levelo_inurba_marseille","lat":43.308012,"lon":5.381511,"is_reserved":false,"is_disabled":false,"rental_uris":{"android":"levelo://app?vid=d0ae2a9a-a623-445a-af99-e3aae422e755","ios":"levelo://app?vid=d0ae2a9a-a623-445a-af99-e3aae422e755"},"vehicle_type_id":"4","last_reported":1712502455,"current_range_meters":12800,"station_id":"ce4bgt12rcd13ifvqce0","pricing_plan_id":"cebpf4jnsgd1na2vs0mg"},{"bike_id":"cc2d517d-a851-48ca-82f6-b566ab813a07","system_id":"levelo_inurba_marseille","lat":43.30208,"lon":5.37399,"is_reserved":false,"is_disabled":false,"rental_uris":{"android":"levelo://app?vid=cc2d517d-a851-48ca-82f6-b566ab813a07","ios":"levelo://app?vid=cc2d517d-a851-48ca-82f6-b566ab813a07"},"vehicle_type_id":"4","last_reported":1712502455,"current_range_meters":14800,"station_id":"","pricing_plan_id":"cebpf4jnsgd1na2vs0mg"},{"bike_id":"bfbf2eec-2571-4bb5-ae46-776b32419774","system_id":"levelo_inurba_marseille","lat":43.304713,"lon":5.379007,"is_reserved":false,"is_disabled":false,"rental_uris":{"android":"levelo://app?vid=bfbf2eec-2571-4bb5-ae46-776b32419774","ios":"levelo://app?vid=bfbf2eec-2571-4bb5-ae46-776b32419774"},"vehicle_type_id":"4","last_reported":1712502455,"current_range_meters":0,"station_id":"ce4bgup2rcd13ifvqcn0","pricing_plan_id":"cebpf4jnsgd1na2vs0mg"},{"bike_id":"a63906c9-82e0-4106-96a0-86b48216ee10","system_id":"levelo_inurba_marseille","lat":43.304606,"lon":5.379026,"is_reserved":false,"is_disabled":false,"rental_uris":{"android":"levelo://app?vid=a63906c9-82e0-4106-96a0-86b48216ee10","ios":"levelo://app?vid=a63906c9-82e0-4106-96a0-86b48216ee10"},"vehicle_type_id":"4","last_reported":1712502455,"current_range_meters":0,"station_id":"ce4bgup2rcd13ifvqcn0","pricing_plan_id":"cebpf4jnsgd1na2vs0mg"},{"bike_id":"a96b048d-8773-48c7-90d2-fabea34e3efe","system_id":"levelo_inurba_marseille","lat":43.304606,"lon":5.379026,"is_reserved":false,"is_disabled":false,"rental_uris":{"android":"levelo://app?vid=a96b048d-8773-48c7-90d2-fabea34e3efe","ios":"levelo://app?vid=a96b048d-8773-48c7-90d2-fabea34e3efe"},"vehicle_type_id":"4","last_reported":1712502455,"current_range_meters":2400,"station_id":"ce4bgup2rcd13ifvqcn0","pricing_plan_id":"cebpf4jnsgd1na2vs0mg"},{"bike_id":"60c10bf1-ac0f-4dd5-a8e3-f6ac2835c879","system_id":"levelo_inurba_marseille","lat":43.324771,"lon":5.36557,"is_reserved":false,"is_disabled":false,"rental_uris":{"android":"levelo://app?vid=60c10bf1-ac0f-4dd5-a8e3-f6ac2835c879","ios":"levelo://app?vid=60c10bf1-ac0f-4dd5-a8e3-f6ac2835c879"},"vehicle_type_id":"4","last_reported":1712502455,"current_range_meters":16400,"station_id":"ce4bhs12rcd13ifvqhvg","pricing_plan_id":"cebpf4jnsgd1na2vs0mg"},{"bike_id":"a11b2f00-3d6f-436e-90f7-3ee3fc6b61dd","system_id":"levelo_inurba_marseille","lat":43.324771,"lon":5.36557,"is_reserved":false,"is_disabled":false,"rental_uris":{"android":"levelo://app?vid=a11b2f00-3d6f-436e-90f7-3ee3fc6b61dd","ios":"levelo://app?vid=a11b2f00-3d6f-436e-90f7-3ee3fc6b61dd"},"vehicle_type_id":"4","last_reported":1712502455,"current_range_meters":2000,"station_id":"ce4bhs12rcd13ifvqhvg","pricing_plan_id":"cebpf4jnsgd1na2vs0mg"},{"bike_id":"e6035d71-8503-434d-bb90-f3a421a327d6","system_id":"levelo_inurba_marseille","lat":43.32481,"lon":5.36572,"is_reserved":false,"is_disabled":false,"rental_uris":{"android":"levelo://app?vid=e6035d71-8503-434d-bb90-f3a421a327d6","ios":"levelo://app?vid=e6035d71-8503-434d-bb90-f3a421a327d6"},"vehicle_type_id":"4","last_reported":1712502455,"current_range_meters":0,"station_id":"ce4bhs12rcd13ifvqhvg","pricing_plan_id":"cebpf4jnsgd1na2vs0mg"},{"bike_id":"6724a062-823a-4278-8e14-1714aada2097","system_id":"levelo_inurba_marseille","lat":43.310804,"lon":5.38359,"is_reserved":false,"is_disabled":false,"rental_uris":{"android":"levelo://app?vid=6724a062-823a-4278-8e14-1714aada2097","ios":"levelo://app?vid=6724a062-823a-4278-8e14-1714aada2097"},"vehicle_type_id":"4","last_reported":1712502455,"current_range_meters":0,"station_id":"ce4bgv92rcd13ifvqcr0","pricing_plan_id":"cebpf4jnsgd1na2vs0mg"},{"bike_id":"62720556-2ffd-4c81-b456-e08c562d6a96","system_id":"levelo_inurba_marseille","lat":43.302784,"lon":5.377158,"is_reserved":false,"is_disabled":false,"rental_uris":{"android":"levelo://app?vid=62720556-2ffd-4c81-b456-e08c562d6a96","ios":"levelo://app?vid=62720556-2ffd-4c81-b456-e08c562d6a96"},"vehicle_type_id":"4","last_reported":1712502455,"current_range_meters":4000,"station_id":"ce4bguh2rcd13ifvqcj0","pricing_plan_id":"cebpf4jnsgd1na2vs0mg"},{"bike_id":"72adab14-0448-4dcc-8cd2-aa9fa66d722f","system_id":"levelo_inurba_marseille","lat":43.30275,"lon":5.37709,"is_reserved":false,"is_disabled":false,"rental_uris":{"android":"levelo://app?vid=72adab14-0448-4dcc-8cd2-aa9fa66d722f","ios":"levelo://app?vid=72adab14-0448-4dcc-8cd2-aa9fa66d722f"},"vehicle_type_id":"4","last_reported":1712502455,"current_range_meters":0,"station_id":"ce4bguh2rcd13ifvqcj0","pricing_plan_id":"cebpf4jnsgd1na2vs0mg"},{"bike_id":"c0fdf9fc-1422-49c7-8151-3d84c6c2e294","system_id":"levelo_inurba_marseille","lat":43.304606,"lon":5.379026,"is_reserved":false,"is_disabled":false,"rental_uris":{"android":"levelo://app?vid=c0fdf9fc-1422-49c7-8151-3d84c6c2e294","ios":"levelo://app?vid=c0fdf9fc-1422-49c7-8151-3d84c6c2e294"},"vehicle_type_id":"4","last_reported":1712502455,"current_range_meters":12000,"station_id":"ce4bgup2rcd13ifvqcn0","pricing_plan_id":"cebpf4jnsgd1na2vs0mg"},{"bike_id":"7ec3287f-45cb-4cea-a681-2326a6f988fb","system_id":"levelo_inurba_marseille","lat":43.30143,"lon":5.37413,"is_reserved":false,"is_disabled":false,"rental_uris":{"android":"levelo://app?vid=7ec3287f-45cb-4cea-a681-2326a6f988fb","ios":"levelo://app?vid=7ec3287f-45cb-4cea-a681-2326a6f988fb"},"vehicle_type_id":"4","last_reported":1712502455,"current_range_meters":8800,"station_id":"ce4bgs92rcd13ifvqcc0","pricing_plan_id":"cebpf4jnsgd1na2vs0mg"},{"bike_id":"6dba70de-e6f5-46d5-88b0-7dbf0fe63e88","system_id":"levelo_inurba_marseille","lat":43.299394,"lon":5.366644,"is_reserved":false,"is_disabled":false,"rental_uris":{"android":"levelo://app?vid=6dba70de-e6f5-46d5-88b0-7dbf0fe63e88","ios":"levelo://app?vid=6dba70de-e6f5-46d5-88b0-7dbf0fe63e88"},"vehicle_type_id":"4","last_reported":1712502455,"current_range_meters":0,"station_id":"","pricing_plan_id":"cebpf4jnsgd1na2vs0mg"},{"bike_id":"2e4a284e-0cd2-4dd8-931d-c0cb76191dc0","system_id":"levelo_inurba_marseille","lat":43.299222,"lon":5.365554,"is_reserved":false,"is_disabled":false,"rental_uris":{"android":"levelo://app?vid=2e4a284e-0cd2-4dd8-931d-c0cb76191dc0","ios":"levelo://app?vid=2e4a284e-0cd2-4dd8-931d-c0cb76191dc0"},"vehicle_type_id":"4","last_reported":1712502455,"current_range_meters":0,"station_id":"ce4bgm92rcd13ifvqbr0","pricing_plan_id":"cebpf4jnsgd1na2vs0mg"},{"bike_id":"8c476736-44a6-4c98-a2a7-d15b3a644a74","system_id":"levelo_inurba_marseille","lat":43.299724,"lon":5.371829,"is_reserved":false,"is_disabled":false,"rental_uris":{"android":"levelo://app?vid=8c476736-44a6-4c98-a2a7-d15b3a644a74","ios":"levelo://app?vid=8c476736-44a6-4c98-a2a7-d15b3a644a74"},"vehicle_type_id":"4","last_reported":1712502455,"current_range_meters":20000,"station_id":"ce4bgr92rcd13ifvqc7g","pricing_plan_id":"cebpf4jnsgd1na2vs0mg"},{"bike_id":"e16b2be6-16ce-4c58-bdbb-5ec305e86959","system_id":"levelo_inurba_marseille","lat":43.298433,"lon":5.362774,"is_reserved":false,"is_disabled":false,"rental_uris":{"android":"levelo://app?vid=e16b2be6-16ce-4c58-bdbb-5ec305e86959","ios":"levelo://app?vid=e16b2be6-16ce-4c58-bdbb-5ec305e86959"},"vehicle_type_id":"4","last_reported":1712502455,"current_range_meters":22800,"station_id":"ce4bgpp2rcd13ifvqc3g","pricing_plan_id":"cebpf4jnsgd1na2vs0mg"},{"bike_id":"de0f1493-36f5-4f7c-aaa9-6125b2759c8a","system_id":"levelo_inurba_marseille","lat":43.2985,"lon":5.36285,"is_reserved":false,"is_disabled":false,"rental_uris":{"android":"levelo://app?vid=de0f1493-36f5-4f7c-aaa9-6125b2759c8a","ios":"levelo://app?vid=de0f1493-36f5-4f7c-aaa9-6125b2759c8a"},"vehicle_type_id":"4","last_reported":1712502455,"current_range_meters":0,"station_id":"ce4bgpp2rcd13ifvqc3g","pricing_plan_id":"cebpf4jnsgd1na2vs0mg"},{"bike_id":"9fd39fef-587c-4fcf-a49c-4439078c328f","system_id":"levelo_inurba_marseille","lat":43.299243,"lon":5.374807,"is_reserved":false,"is_disabled":false,"rental_uris":{"android":"levelo://app?vid=9fd39fef-587c-4fcf-a49c-4439078c328f","ios":"levelo://app?vid=9fd39fef-587c-4fcf-a49c-4439078c328f"},"vehicle_type_id":"4","last_reported":1712502455,"current_range_meters":23200,"station_id":"ce4bgjh2rcd13ifvqbg0","pricing_plan_id":"cebpf4jnsgd1na2vs0mg"},{"bike_id":"a33e5a44-79ea-4904-8284-d0d7a20b234b","system_id":"levelo_inurba_marseille","lat":43.299243,"lon":5.374807,"is_reserved":false,"is_disabled":false,"rental_uris":{"android":"levelo://app?vid=a33e5a44-79ea-4904-8284-d0d7a20b234b","ios":"levelo://app?vid=a33e5a44-79ea-4904-8284-d0d7a20b234b"},"vehicle_type_id":"4","last_reported":1712502455,"current_range_meters":0,"station_id":"ce4bgjh2rcd13ifvqbg0","pricing_plan_id":"cebpf4jnsgd1na2vs0mg"},{"bike_id":"87a6f319-26f0-40c3-a128-8491f7e0071a","system_id":"levelo_inurba_marseille","lat":43.299243,"lon":5.37481,"is_reserved":false,"is_disabled":false,"rental_uris":{"android":"levelo://app?vid=87a6f319-26f0-40c3-a128-8491f7e0071a","ios":"levelo://app?vid=87a6f319-26f0-40c3-a128-8491f7e0071a"},"vehicle_type_id":"4","last_reported":1712502455,"current_range_meters":2800,"station_id":"ce4bgjh2rcd13ifvqbg0","pricing_plan_id":"cebpf4jnsgd1na2vs0mg"},{"bike_id":"2fb1b287-928d-43ef-96c3-e81d93721de4","system_id":"levelo_inurba_marseille","lat":43.328081,"lon":5.365753,"is_reserved":false,"is_disabled":false,"rental_uris":{"android":"levelo://app?vid=2fb1b287-928d-43ef-96c3-e81d93721de4","ios":"levelo://app?vid=2fb1b287-928d-43ef-96c3-e81d93721de4"},"vehicle_type_id":"4","last_reported":1712502455,"current_range_meters":8800,"station_id":"","pricing_plan_id":"cebpf4jnsgd1na2vs0mg"},{"bike_id":"79a09dc1-a136-4553-b035-ca9b20a658e5","system_id":"levelo_inurba_marseille","lat":43.30181,"lon":5.3818,"is_reserved":false,"is_disabled":false,"rental_uris":{"android":"levelo://app?vid=79a09dc1-a136-4553-b035-ca9b20a658e5","ios":"levelo://app?vid=79a09dc1-a136-4553-b035-ca9b20a658e5"},"vehicle_type_id":"4","last_reported":1712502455,"current_range_meters":5200,"station_id":"","pricing_plan_id":"cebpf4jnsgd1na2vs0mg"},{"bike_id":"72f404e6-43d4-42a0-bbbd-431e04a86845","system_id":"levelo_inurba_marseille","lat":43.322872,"lon":5.382756,"is_reserved":false,"is_disabled":false,"rental_uris":{"android":"levelo://app?vid=72f404e6-43d4-42a0-bbbd-431e04a86845","ios":"levelo://app?vid=72f404e6-43d4-42a0-bbbd-431e04a86845"},"vehicle_type_id":"4","last_reported":1712502455,"current_range_meters":13600,"station_id":"ce4bhr12rcd13ifvqhqg","pricing_plan_id":"cebpf4jnsgd1na2vs0mg"},{"bike_id":"d760218e-1758-4216-a55a-caa396977828","system_id":"levelo_inurba_marseille","lat":43.297163,"lon":5.365866,"is_reserved":false,"is_disabled":false,"rental_uris":{"android":"levelo://app?vid=d760218e-1758-4216-a55a-caa396977828","ios":"levelo://app?vid=d760218e-1758-4216-a55a-caa396977828"},"vehicle_type_id":"4","last_reported":1712502455,"current_range_meters":16400,"station_id":"ce4bgn12rcd13ifvqbt0","pricing_plan_id":"cebpf4jnsgd1na2vs0mg"},{"bike_id":"c91c88b9-9434-468a-8e6a-90e09646e9cf","system_id":"levelo_inurba_marseille","lat":43.297163,"lon":5.365866,"is_reserved":false,"is_disabled":false,"rental_uris":{"android":"levelo://app?vid=c91c88b9-9434-468a-8e6a-90e09646e9cf","ios":"levelo://app?vid=c91c88b9-9434-468a-8e6a-90e09646e9cf"},"vehicle_type_id":"4","last_reported":1712502455,"current_range_meters":2800,"station_id":"ce4bgn12rcd13ifvqbt0","pricing_plan_id":"cebpf4jnsgd1na2vs0mg"},{"bike_id":"01acc31b-0c39-4eb4-b734-4f67c4ebc433","system_id":"levelo_inurba_marseille","lat":43.2968,"lon":5.37291,"is_reserved":false,"is_disabled":false,"rental_uris":{"android":"levelo://app?vid=01acc31b-0c39-4eb4-b734-4f67c4ebc433","ios":"levelo://app?vid=01acc31b-0c39-4eb4-b734-4f67c4ebc433"},"vehicle_type_id":"4","last_reported":1712502455,"current_range_meters":26000,"station_id":"ce4bgk12rcd13ifvqbj0","pricing_plan_id":"cebpf4jnsgd1na2vs0mg"},{"bike_id":"a9fe6da3-e193-4844-81a2-d623e1db6295","system_id":"levelo_inurba_marseille","lat":43.29615,"lon":5.37075,"is_reserved":false,"is_disabled":false,"rental_uris":{"android":"levelo://app?vid=a9fe6da3-e193-4844-81a2-d623e1db6295","ios":"levelo://app?vid=a9fe6da3-e193-4844-81a2-d623e1db6295"},"vehicle_type_id":"4","last_reported":1712502455,"current_range_meters":0,"station_id":"","pricing_plan_id":"cebpf4jnsgd1na2vs0mg"},{"bike_id":"89a92d6f-ba4b-408b-86e6-fdb5d2f43cc8","system_id":"levelo_inurba_marseille","lat":43.29619,"lon":5.37162,"is_reserved":false,"is_disabled":false,"rental_uris":{"android":"levelo://app?vid=89a92d6f-ba4b-408b-86e6-fdb5d2f43cc8","ios":"levelo://app?vid=89a92d6f-ba4b-408b-86e6-fdb5d2f43cc8"},"vehicle_type_id":"4","last_reported":1712502455,"current_range_meters":2800,"station_id":"ce4bgnh2rcd13ifvqc0g","pricing_plan_id":"cebpf4jnsgd1na2vs0mg"},{"bike_id":"af27ed67-2d24-4b07-89c4-5ccac88ba509","system_id":"levelo_inurba_marseille","lat":43.29917,"lon":5.38133,"is_reserved":false,"is_disabled":false,"rental_uris":{"android":"levelo://app?vid=af27ed67-2d24-4b07-89c4-5ccac88ba509","ios":"levelo://app?vid=af27ed67-2d24-4b07-89c4-5ccac88ba509"},"vehicle_type_id":"4","last_reported":1712502455,"current_range_meters":8400,"station_id":"ce4bgj12rcd13ifvqbc0","pricing_plan_id":"cebpf4jnsgd1na2vs0mg"},{"bike_id":"86009c5d-bdee-49e0-aad0-cf30753c57ea","system_id":"levelo_inurba_marseille","lat":43.296935,"lon":5.376544,"is_reserved":false,"is_disabled":false,"rental_uris":{"android":"levelo://app?vid=86009c5d-bdee-49e0-aad0-cf30753c57ea","ios":"levelo://app?vid=86009c5d-bdee-49e0-aad0-cf30753c57ea"},"vehicle_type_id":"4","last_reported":1712502455,"current_range_meters":15600,"station_id":"ce4bgkh2rcd13ifvqbl0","pricing_plan_id":"cebpf4jnsgd1na2vs0mg"},{"bike_id":"b0289a34-32cd-4205-9385-43d8853e79cb","system_id":"levelo_inurba_marseille","lat":43.296921,"lon":5.376579,"is_reserved":false,"is_disabled":false,"rental_uris":{"android":"levelo://app?vid=b0289a34-32cd-4205-9385-43d8853e79cb","ios":"levelo://app?vid=b0289a34-32cd-4205-9385-43d8853e79cb"},"vehicle_type_id":"4","last_reported":1712502455,"current_range_meters":10400,"station_id":"ce4bgkh2rcd13ifvqbl0","pricing_plan_id":"cebpf4jnsgd1na2vs0mg"},{"bike_id":"f1de23c7-a880-4108-ad66-66521a7a73d1","system_id":"levelo_inurba_marseille","lat":43.296935,"lon":5.376544,"is_reserved":false,"is_disabled":false,"rental_uris":{"android":"levelo://app?vid=f1de23c7-a880-4108-ad66-66521a7a73d1","ios":"levelo://app?vid=f1de23c7-a880-4108-ad66-66521a7a73d1"},"vehicle_type_id":"4","last_reported":1712502455,"current_range_meters":15600,"station_id":"ce4bgkh2rcd13ifvqbl0","pricing_plan_id":"cebpf4jnsgd1na2vs0mg"},{"bike_id":"1b48f2d5-7c7f-4909-960b-7b30cfbf13b3","system_id":"levelo_inurba_marseille","lat":43.290104,"lon":5.356111,"is_reserved":false,"is_disabled":false,"rental_uris":{"android":"levelo://app?vid=1b48f2d5-7c7f-4909-960b-7b30cfbf13b3","ios":"levelo://app?vid=1b48f2d5-7c7f-4909-960b-7b30cfbf13b3"},"vehicle_type_id":"4","last_reported":1712502455,"current_range_meters":11200,"station_id":"ce4bhb92rcd13ifvqen0","pricing_plan_id":"cebpf4jnsgd1na2vs0mg"},{"bike_id":"4b6c8b97-2cfc-4913-9457-86767220fb5c","system_id":"levelo_inurba_marseille","lat":43.295748,"lon":5.37522,"is_reserved":false,"is_disabled":false,"rental_uris":{"android":"levelo://app?vid=4b6c8b97-2cfc-4913-9457-86767220fb5c","ios":"levelo://app?vid=4b6c8b97-2cfc-4913-9457-86767220fb5c"},"vehicle_type_id":"4","last_reported":1712502455,"current_range_meters":0,"station_id":"ce4bgh92rcd13ifvqb50","pricing_plan_id":"cebpf4jnsgd1na2vs0mg"},{"bike_id":"808d0d92-4858-48f5-a446-b96f5d57c07e","system_id":"levelo_inurba_marseille","lat":43.298037,"lon":5.381066,"is_reserved":false,"is_disabled":false,"rental_uris":{"android":"levelo://app?vid=808d0d92-4858-48f5-a446-b96f5d57c07e","ios":"levelo://app?vid=808d0d92-4858-48f5-a446-b96f5d57c07e"},"vehicle_type_id":"4","last_reported":1712502455,"current_range_meters":0,"station_id":"ce4bgip2rcd13ifvqbb0","pricing_plan_id":"cebpf4jnsgd1na2vs0mg"},{"bike_id":"56c3de64-7417-4df8-8ddb-f5a95a6e6763","system_id":"levelo_inurba_marseille","lat":43.296203,"lon":5.377283,"is_reserved":false,"is_disabled":false,"rental_uris":{"android":"levelo://app?vid=56c3de64-7417-4df8-8ddb-f5a95a6e6763","ios":"levelo://app?vid=56c3de64-7417-4df8-8ddb-f5a95a6e6763"},"vehicle_type_id":"4","last_reported":1712502455,"current_range_meters":0,"station_id":"ce4bgi92rcd13ifvqb90","pricing_plan_id":"cebpf4jnsgd1na2vs0mg"},{"bike_id":"7e4c63e6-b891-45b8-ab3b-e7eb755bbac2","system_id":"levelo_inurba_marseille","lat":43.296263,"lon":5.377094,"is_reserved":false,"is_disabled":false,"rental_uris":{"android":"levelo://app?vid=7e4c63e6-b891-45b8-ab3b-e7eb755bbac2","ios":"levelo://app?vid=7e4c63e6-b891-45b8-ab3b-e7eb755bbac2"},"vehicle_type_id":"4","last_reported":1712502455,"current_range_meters":22400,"station_id":"ce4bgi92rcd13ifvqb90","pricing_plan_id":"cebpf4jnsgd1na2vs0mg"},{"bike_id":"7a2e8024-371f-4d91-b893-f5938dc0e05f","system_id":"levelo_inurba_marseille","lat":43.2953,"lon":5.37426,"is_reserved":false,"is_disabled":false,"rental_uris":{"android":"levelo://app?vid=7a2e8024-371f-4d91-b893-f5938dc0e05f","ios":"levelo://app?vid=7a2e8024-371f-4d91-b893-f5938dc0e05f"},"vehicle_type_id":"4","last_reported":1712502455,"current_range_meters":16000,"station_id":"","pricing_plan_id":"cebpf4jnsgd1na2vs0mg"},{"bike_id":"a8b6f662-c6ff-49cd-921d-8dbbffa6dc9f","system_id":"levelo_inurba_marseille","lat":43.29971,"lon":5.38502,"is_reserved":false,"is_disabled":false,"rental_uris":{"android":"levelo://app?vid=a8b6f662-c6ff-49cd-921d-8dbbffa6dc9f","ios":"levelo://app?vid=a8b6f662-c6ff-49cd-921d-8dbbffa6dc9f"},"vehicle_type_id":"4","last_reported":1712502455,"current_range_meters":0,"station_id":"ce4bgj92rcd13ifvqbd0","pricing_plan_id":"cebpf4jnsgd1na2vs0mg"},{"bike_id":"241f8534-1f1b-48de-a714-1042a2eaf8d9","system_id":"levelo_inurba_marseille","lat":43.29967,"lon":5.38497,"is_reserved":false,"is_disabled":false,"rental_uris":{"android":"levelo://app?vid=241f8534-1f1b-48de-a714-1042a2eaf8d9","ios":"levelo://app?vid=241f8534-1f1b-48de-a714-1042a2eaf8d9"},"vehicle_type_id":"4","last_reported":1712502455,"current_range_meters":0,"station_id":"ce4bgj92rcd13ifvqbd0","pricing_plan_id":"cebpf4jnsgd1na2vs0mg"},{"bike_id":"2c2499a6-0ccc-44af-9c0e-a8cf248aa977","system_id":"levelo_inurba_marseille","lat":43.29966,"lon":5.38497,"is_reserved":false,"is_disabled":false,"rental_uris":{"android":"levelo://app?vid=2c2499a6-0ccc-44af-9c0e-a8cf248aa977","ios":"levelo://app?vid=2c2499a6-0ccc-44af-9c0e-a8cf248aa977"},"vehicle_type_id":"4","last_reported":1712502455,"current_range_meters":9200,"station_id":"ce4bgj92rcd13ifvqbd0","pricing_plan_id":"cebpf4jnsgd1na2vs0mg"},{"bike_id":"7652be2e-f060-43f5-91bb-d084bb5ba220","system_id":"levelo_inurba_marseille","lat":43.29963,"lon":5.385,"is_reserved":false,"is_disabled":false,"rental_uris":{"android":"levelo://app?vid=7652be2e-f060-43f5-91bb-d084bb5ba220","ios":"levelo://app?vid=7652be2e-f060-43f5-91bb-d084bb5ba220"},"vehicle_type_id":"4","last_reported":1712502455,"current_range_meters":26400,"station_id":"ce4bgj92rcd13ifvqbd0","pricing_plan_id":"cebpf4jnsgd1na2vs0mg"},{"bike_id":"d561899b-2c5b-497a-9512-954b21ceaa2a","system_id":"levelo_inurba_marseille","lat":43.29959,"lon":5.38508,"is_reserved":false,"is_disabled":false,"rental_uris":{"android":"levelo://app?vid=d561899b-2c5b-497a-9512-954b21ceaa2a","ios":"levelo://app?vid=d561899b-2c5b-497a-9512-954b21ceaa2a"},"vehicle_type_id":"4","last_reported":1712502455,"current_range_meters":12000,"station_id":"ce4bgj92rcd13ifvqbd0","pricing_plan_id":"cebpf4jnsgd1na2vs0mg"},{"bike_id":"0b8e0939-2c79-49cb-b1e0-be1a57af6e1a","system_id":"levelo_inurba_marseille","lat":43.29602,"lon":5.381084,"is_reserved":false,"is_disabled":false,"rental_uris":{"android":"levelo://app?vid=0b8e0939-2c79-49cb-b1e0-be1a57af6e1a","ios":"levelo://app?vid=0b8e0939-2c79-49cb-b1e0-be1a57af6e1a"},"vehicle_type_id":"4","last_reported":1712502455,"current_range_meters":3600,"station_id":"ce4bgl12rcd13ifvqbo0","pricing_plan_id":"cebpf4jnsgd1na2vs0mg"},{"bike_id":"d658d995-00c7-4808-9e1c-586c7570f57d","system_id":"levelo_inurba_marseille","lat":43.323633,"lon":5.388783,"is_reserved":false,"is_disabled":false,"rental_uris":{"android":"levelo://app?vid=d658d995-00c7-4808-9e1c-586c7570f57d","ios":"levelo://app?vid=d658d995-00c7-4808-9e1c-586c7570f57d"},"vehicle_type_id":"4","last_reported":1712502455,"current_range_meters":0,"station_id":"ce4bhqp2rcd13ifvqhog","pricing_plan_id":"cebpf4jnsgd1na2vs0mg"},{"bike_id":"704a4650-271e-498f-a943-d82076a5fab9","system_id":"levelo_inurba_marseille","lat":43.292749,"lon":5.368402,"is_reserved":false,"is_disabled":false,"rental_uris":{"android":"levelo://app?vid=704a4650-271e-498f-a943-d82076a5fab9","ios":"levelo://app?vid=704a4650-271e-498f-a943-d82076a5fab9"},"vehicle_type_id":"4","last_reported":1712502455,"current_range_meters":4400,"station_id":"ce4bhbp2rcd13ifvqesg","pricing_plan_id":"cebpf4jnsgd1na2vs0mg"},{"bike_id":"aa1e31d8-9161-4140-ba9b-41f5626fb210","system_id":"levelo_inurba_marseille","lat":43.29602,"lon":5.381084,"is_reserved":false,"is_disabled":false,"rental_uris":{"android":"levelo://app?vid=aa1e31d8-9161-4140-ba9b-41f5626fb210","ios":"levelo://app?vid=aa1e31d8-9161-4140-ba9b-41f5626fb210"},"vehicle_type_id":"4","last_reported":1712502455,"current_range_meters":0,"station_id":"ce4bgl12rcd13ifvqbo0","pricing_plan_id":"cebpf4jnsgd1na2vs0mg"},{"bike_id":"2d3a899e-998a-432e-9195-dde8a8af30db","system_id":"levelo_inurba_marseille","lat":43.29602,"lon":5.381084,"is_reserved":false,"is_disabled":false,"rental_uris":{"android":"levelo://app?vid=2d3a899e-998a-432e-9195-dde8a8af30db","ios":"levelo://app?vid=2d3a899e-998a-432e-9195-dde8a8af30db"},"vehicle_type_id":"4","last_reported":1712502455,"current_range_meters":4800,"station_id":"ce4bgl12rcd13ifvqbo0","pricing_plan_id":"cebpf4jnsgd1na2vs0mg"},{"bike_id":"73218bac-165a-4e70-8ddd-aebaef743171","system_id":"levelo_inurba_marseille","lat":43.29318,"lon":5.37173,"is_reserved":false,"is_disabled":false,"rental_uris":{"android":"levelo://app?vid=73218bac-165a-4e70-8ddd-aebaef743171","ios":"levelo://app?vid=73218bac-165a-4e70-8ddd-aebaef743171"},"vehicle_type_id":"4","last_reported":1712502455,"current_range_meters":0,"station_id":"ce4bgh92rcd13ifvqb40","pricing_plan_id":"cebpf4jnsgd1na2vs0mg"},{"bike_id":"0a5359a7-a46f-4508-88db-3a9cdfe75a4e","system_id":"levelo_inurba_marseille","lat":43.293259,"lon":5.371586,"is_reserved":false,"is_disabled":false,"rental_uris":{"android":"levelo://app?vid=0a5359a7-a46f-4508-88db-3a9cdfe75a4e","ios":"levelo://app?vid=0a5359a7-a46f-4508-88db-3a9cdfe75a4e"},"vehicle_type_id":"4","last_reported":1712502455,"current_range_meters":21200,"station_id":"ce4bgh92rcd13ifvqb40","pricing_plan_id":"cebpf4jnsgd1na2vs0mg"},{"bike_id":"3c98dc42-cde6-407e-b648-3b07b5234d51","system_id":"levelo_inurba_marseille","lat":43.29304,"lon":5.37191,"is_reserved":false,"is_disabled":false,"rental_uris":{"android":"levelo://app?vid=3c98dc42-cde6-407e-b648-3b07b5234d51","ios":"levelo://app?vid=3c98dc42-cde6-407e-b648-3b07b5234d51"},"vehicle_type_id":"4","last_reported":1712502455,"current_range_meters":4000,"station_id":"ce4bgh92rcd13ifvqb40","pricing_plan_id":"cebpf4jnsgd1na2vs0mg"},{"bike_id":"401a8bb4-8079-473f-a962-04fb436c2462","system_id":"levelo_inurba_marseille","lat":43.292749,"lon":5.368402,"is_reserved":false,"is_disabled":false,"rental_uris":{"android":"levelo://app?vid=401a8bb4-8079-473f-a962-04fb436c2462","ios":"levelo://app?vid=401a8bb4-8079-473f-a962-04fb436c2462"},"vehicle_type_id":"4","last_reported":1712502455,"current_range_meters":400,"station_id":"ce4bhbp2rcd13ifvqesg","pricing_plan_id":"cebpf4jnsgd1na2vs0mg"},{"bike_id":"25438d87-7602-4e28-bca8-92daa4996576","system_id":"levelo_inurba_marseille","lat":43.292749,"lon":5.368402,"is_reserved":false,"is_disabled":false,"rental_uris":{"android":"levelo://app?vid=25438d87-7602-4e28-bca8-92daa4996576","ios":"levelo://app?vid=25438d87-7602-4e28-bca8-92daa4996576"},"vehicle_type_id":"4","last_reported":1712502455,"current_range_meters":0,"station_id":"ce4bhbp2rcd13ifvqesg","pricing_plan_id":"cebpf4jnsgd1na2vs0mg"},{"bike_id":"920c4f3c-a3ea-4e97-b8d4-83d8f8d236d7","system_id":"levelo_inurba_marseille","lat":43.300019,"lon":5.388551,"is_reserved":false,"is_disabled":false,"rental_uris":{"android":"levelo://app?vid=920c4f3c-a3ea-4e97-b8d4-83d8f8d236d7","ios":"levelo://app?vid=920c4f3c-a3ea-4e97-b8d4-83d8f8d236d7"},"vehicle_type_id":"4","last_reported":1712502455,"current_range_meters":21600,"station_id":"","pricing_plan_id":"cebpf4jnsgd1na2vs0mg"},{"bike_id":"b27edba3-d1de-4586-a708-952b5382655c","system_id":"levelo_inurba_marseille","lat":43.293009,"lon":5.374584,"is_reserved":false,"is_disabled":false,"rental_uris":{"android":"levelo://app?vid=b27edba3-d1de-4586-a708-952b5382655c","ios":"levelo://app?vid=b27edba3-d1de-4586-a708-952b5382655c"},"vehicle_type_id":"4","last_reported":1712502455,"current_range_meters":0,"station_id":"ce4bgi12rcd13ifvqb70","pricing_plan_id":"cebpf4jnsgd1na2vs0mg"},{"bike_id":"c4020406-7198-4163-a017-16afecc48b76","system_id":"levelo_inurba_marseille","lat":43.29295,"lon":5.37457,"is_reserved":false,"is_disabled":false,"rental_uris":{"android":"levelo://app?vid=c4020406-7198-4163-a017-16afecc48b76","ios":"levelo://app?vid=c4020406-7198-4163-a017-16afecc48b76"},"vehicle_type_id":"4","last_reported":1712502455,"current_range_meters":0,"station_id":"ce4bgi12rcd13ifvqb70","pricing_plan_id":"cebpf4jnsgd1na2vs0mg"},{"bike_id":"2567b98f-4f0c-4427-a49b-c48f79929e74","system_id":"levelo_inurba_marseille","lat":43.30584,"lon":5.39354,"is_reserved":false,"is_disabled":false,"rental_uris":{"android":"levelo://app?vid=2567b98f-4f0c-4427-a49b-c48f79929e74","ios":"levelo://app?vid=2567b98f-4f0c-4427-a49b-c48f79929e74"},"vehicle_type_id":"4","last_reported":1712502455,"current_range_meters":2800,"station_id":"ce4bgkh2rcd13ifvqbk0","pricing_plan_id":"cebpf4jnsgd1na2vs0mg"},{"bike_id":"1fc2fe82-849a-4ee6-a5f3-10e2912634e8","system_id":"levelo_inurba_marseille","lat":43.29333,"lon":5.37705,"is_reserved":false,"is_disabled":false,"rental_uris":{"android":"levelo://app?vid=1fc2fe82-849a-4ee6-a5f3-10e2912634e8","ios":"levelo://app?vid=1fc2fe82-849a-4ee6-a5f3-10e2912634e8"},"vehicle_type_id":"4","last_reported":1712502455,"current_range_meters":0,"station_id":"","pricing_plan_id":"cebpf4jnsgd1na2vs0mg"},{"bike_id":"0e8ba000-20a0-4c9c-9cb3-0c9f8c995719","system_id":"levelo_inurba_marseille","lat":43.2936,"lon":5.37835,"is_reserved":false,"is_disabled":false,"rental_uris":{"android":"levelo://app?vid=0e8ba000-20a0-4c9c-9cb3-0c9f8c995719","ios":"levelo://app?vid=0e8ba000-20a0-4c9c-9cb3-0c9f8c995719"},"vehicle_type_id":"4","last_reported":1712502455,"current_range_meters":25200,"station_id":"ce4bgjh2rcd13ifvqbf0","pricing_plan_id":"cebpf4jnsgd1na2vs0mg"},{"bike_id":"158b5572-fcda-4f29-a629-fc379ae5cb44","system_id":"levelo_inurba_marseille","lat":43.246467,"lon":5.388984,"is_reserved":false,"is_disabled":false,"rental_uris":{"android":"levelo://app?vid=158b5572-fcda-4f29-a629-fc379ae5cb44","ios":"levelo://app?vid=158b5572-fcda-4f29-a629-fc379ae5cb44"},"vehicle_type_id":"4","last_reported":1712502455,"current_range_meters":19600,"station_id":"ce4bhg12rcd13ifvqf60","pricing_plan_id":"cebpf4jnsgd1na2vs0mg"},{"bike_id":"3bc9758d-da6b-4d15-acdb-008e217dc375","system_id":"levelo_inurba_marseille","lat":43.292311,"lon":5.360731,"is_reserved":false,"is_disabled":false,"rental_uris":{"android":"levelo://app?vid=3bc9758d-da6b-4d15-acdb-008e217dc375","ios":"levelo://app?vid=3bc9758d-da6b-4d15-acdb-008e217dc375"},"vehicle_type_id":"4","last_reported":1712502455,"current_range_meters":24800,"station_id":"ce4bhbh2rcd13ifvqeqg","pricing_plan_id":"cebpf4jnsgd1na2vs0mg"},{"bike_id":"965f1cec-0a0d-445d-aa94-a3d0c6146677","system_id":"levelo_inurba_marseille","lat":43.309038,"lon":5.396546,"is_reserved":false,"is_disabled":false,"rental_uris":{"android":"levelo://app?vid=965f1cec-0a0d-445d-aa94-a3d0c6146677","ios":"levelo://app?vid=965f1cec-0a0d-445d-aa94-a3d0c6146677"},"vehicle_type_id":"4","last_reported":1712502455,"current_range_meters":21600,"station_id":"ce4bh012rcd13ifvqcv0","pricing_plan_id":"cebpf4jnsgd1na2vs0mg"},{"bike_id":"02b834a1-2e13-434d-bad4-407172fa9a62","system_id":"levelo_inurba_marseille","lat":43.29226,"lon":5.36056,"is_reserved":false,"is_disabled":false,"rental_uris":{"android":"levelo://app?vid=02b834a1-2e13-434d-bad4-407172fa9a62","ios":"levelo://app?vid=02b834a1-2e13-434d-bad4-407172fa9a62"},"vehicle_type_id":"4","last_reported":1712502455,"current_range_meters":0,"station_id":"ce4bhbh2rcd13ifvqeqg","pricing_plan_id":"cebpf4jnsgd1na2vs0mg"},{"bike_id":"4ccbaf20-56b9-495f-9df3-eea6cb889bfc","system_id":"levelo_inurba_marseille","lat":43.29224,"lon":5.36059,"is_reserved":false,"is_disabled":false,"rental_uris":{"android":"levelo://app?vid=4ccbaf20-56b9-495f-9df3-eea6cb889bfc","ios":"levelo://app?vid=4ccbaf20-56b9-495f-9df3-eea6cb889bfc"},"vehicle_type_id":"4","last_reported":1712502455,"current_range_meters":28000,"station_id":"ce4bhbh2rcd13ifvqeqg","pricing_plan_id":"cebpf4jnsgd1na2vs0mg"},{"bike_id":"cb60f494-3b09-4183-bada-79de589974b2","system_id":"levelo_inurba_marseille","lat":43.29222,"lon":5.36065,"is_reserved":false,"is_disabled":false,"rental_uris":{"android":"levelo://app?vid=cb60f494-3b09-4183-bada-79de589974b2","ios":"levelo://app?vid=cb60f494-3b09-4183-bada-79de589974b2"},"vehicle_type_id":"4","last_reported":1712502455,"current_range_meters":22800,"station_id":"ce4bhbh2rcd13ifvqeqg","pricing_plan_id":"cebpf4jnsgd1na2vs0mg"},{"bike_id":"8a6fcc16-028a-4f77-9771-3e515f64fceb","system_id":"levelo_inurba_marseille","lat":43.284214,"lon":5.349706,"is_reserved":false,"is_disabled":false,"rental_uris":{"android":"levelo://app?vid=8a6fcc16-028a-4f77-9771-3e515f64fceb","ios":"levelo://app?vid=8a6fcc16-028a-4f77-9771-3e515f64fceb"},"vehicle_type_id":"4","last_reported":1712502455,"current_range_meters":0,"station_id":"ce4bhbh2rcd13ifvqepg","pricing_plan_id":"cebpf4jnsgd1na2vs0mg"},{"bike_id":"5bc4333d-b745-4d3a-8814-5853ca447e74","system_id":"levelo_inurba_marseille","lat":43.298764,"lon":5.388973,"is_reserved":false,"is_disabled":false,"rental_uris":{"android":"levelo://app?vid=5bc4333d-b745-4d3a-8814-5853ca447e74","ios":"levelo://app?vid=5bc4333d-b745-4d3a-8814-5853ca447e74"},"vehicle_type_id":"4","last_reported":1712502455,"current_range_meters":3600,"station_id":"ce4bh392rcd13ifvqdl0","pricing_plan_id":"cebpf4jnsgd1na2vs0mg"},{"bike_id":"a1a4e105-30b6-40e8-a453-38d8f94ddaa0","system_id":"levelo_inurba_marseille","lat":43.298764,"lon":5.388973,"is_reserved":false,"is_disabled":false,"rental_uris":{"android":"levelo://app?vid=a1a4e105-30b6-40e8-a453-38d8f94ddaa0","ios":"levelo://app?vid=a1a4e105-30b6-40e8-a453-38d8f94ddaa0"},"vehicle_type_id":"4","last_reported":1712502455,"current_range_meters":0,"station_id":"ce4bh392rcd13ifvqdl0","pricing_plan_id":"cebpf4jnsgd1na2vs0mg"},{"bike_id":"0d52cee3-155e-49cb-9bf4-6e61723f8b94","system_id":"levelo_inurba_marseille","lat":43.291994,"lon":5.357886,"is_reserved":false,"is_disabled":false,"rental_uris":{"android":"levelo://app?vid=0d52cee3-155e-49cb-9bf4-6e61723f8b94","ios":"levelo://app?vid=0d52cee3-155e-49cb-9bf4-6e61723f8b94"},"vehicle_type_id":"4","last_reported":1712502455,"current_range_meters":29600,"station_id":"ce4bhb12rcd13ifvqel0","pricing_plan_id":"cebpf4jnsgd1na2vs0mg"},{"bike_id":"924f7359-6db4-4948-b239-0fb062b9e793","system_id":"levelo_inurba_marseille","lat":43.29192,"lon":5.35792,"is_reserved":false,"is_disabled":false,"rental_uris":{"android":"levelo://app?vid=924f7359-6db4-4948-b239-0fb062b9e793","ios":"levelo://app?vid=924f7359-6db4-4948-b239-0fb062b9e793"},"vehicle_type_id":"4","last_reported":1712502455,"current_range_meters":0,"station_id":"ce4bhb12rcd13ifvqel0","pricing_plan_id":"cebpf4jnsgd1na2vs0mg"},{"bike_id":"445851f9-1e47-4696-ac47-456daba5a953","system_id":"levelo_inurba_marseille","lat":43.309047,"lon":5.396551,"is_reserved":false,"is_disabled":false,"rental_uris":{"android":"levelo://app?vid=445851f9-1e47-4696-ac47-456daba5a953","ios":"levelo://app?vid=445851f9-1e47-4696-ac47-456daba5a953"},"vehicle_type_id":"4","last_reported":1712502455,"current_range_meters":2000,"station_id":"ce4bh012rcd13ifvqcv0","pricing_plan_id":"cebpf4jnsgd1na2vs0mg"},{"bike_id":"ccd25cdf-9800-414e-b91c-9a776c6d7637","system_id":"levelo_inurba_marseille","lat":43.29189,"lon":5.357877,"is_reserved":false,"is_disabled":false,"rental_uris":{"android":"levelo://app?vid=ccd25cdf-9800-414e-b91c-9a776c6d7637","ios":"levelo://app?vid=ccd25cdf-9800-414e-b91c-9a776c6d7637"},"vehicle_type_id":"4","last_reported":1712502455,"current_range_meters":2800,"station_id":"ce4bhb12rcd13ifvqel0","pricing_plan_id":"cebpf4jnsgd1na2vs0mg"},{"bike_id":"f451b174-2b29-4714-8a7a-712f9f2ff086","system_id":"levelo_inurba_marseille","lat":43.313291,"lon":5.396838,"is_reserved":false,"is_disabled":false,"rental_uris":{"android":"levelo://app?vid=f451b174-2b29-4714-8a7a-712f9f2ff086","ios":"levelo://app?vid=f451b174-2b29-4714-8a7a-712f9f2ff086"},"vehicle_type_id":"4","last_reported":1712502455,"current_range_meters":27600,"station_id":"ce4bgvp2rcd13ifvqcu0","pricing_plan_id":"cebpf4jnsgd1na2vs0mg"},{"bike_id":"ca01e377-1db9-4cb4-b000-59b60b7cd638","system_id":"levelo_inurba_marseille","lat":43.313291,"lon":5.396838,"is_reserved":false,"is_disabled":false,"rental_uris":{"android":"levelo://app?vid=ca01e377-1db9-4cb4-b000-59b60b7cd638","ios":"levelo://app?vid=ca01e377-1db9-4cb4-b000-59b60b7cd638"},"vehicle_type_id":"4","last_reported":1712502455,"current_range_meters":2000,"station_id":"ce4bgvp2rcd13ifvqcu0","pricing_plan_id":"cebpf4jnsgd1na2vs0mg"},{"bike_id":"23a09ec9-7877-4229-9563-2a5f34d21fb7","system_id":"levelo_inurba_marseille","lat":43.309038,"lon":5.396546,"is_reserved":false,"is_disabled":false,"rental_uris":{"android":"levelo://app?vid=23a09ec9-7877-4229-9563-2a5f34d21fb7","ios":"levelo://app?vid=23a09ec9-7877-4229-9563-2a5f34d21fb7"},"vehicle_type_id":"4","last_reported":1712502455,"current_range_meters":3600,"station_id":"ce4bh012rcd13ifvqcv0","pricing_plan_id":"cebpf4jnsgd1na2vs0mg"},{"bike_id":"0baf7599-ae47-4792-83c2-12479b132ad7","system_id":"levelo_inurba_marseille","lat":43.29529,"lon":5.385581,"is_reserved":false,"is_disabled":false,"rental_uris":{"android":"levelo://app?vid=0baf7599-ae47-4792-83c2-12479b132ad7","ios":"levelo://app?vid=0baf7599-ae47-4792-83c2-12479b132ad7"},"vehicle_type_id":"4","last_reported":1712502455,"current_range_meters":4000,"station_id":"ce4bgih2rcd13ifvqba0","pricing_plan_id":"cebpf4jnsgd1na2vs0mg"},{"bike_id":"10c7f16b-d8d6-4572-b02a-69cea33d8ea9","system_id":"levelo_inurba_marseille","lat":43.29529,"lon":5.385581,"is_reserved":false,"is_disabled":false,"rental_uris":{"android":"levelo://app?vid=10c7f16b-d8d6-4572-b02a-69cea33d8ea9","ios":"levelo://app?vid=10c7f16b-d8d6-4572-b02a-69cea33d8ea9"},"vehicle_type_id":"4","last_reported":1712502455,"current_range_meters":26400,"station_id":"ce4bgih2rcd13ifvqba0","pricing_plan_id":"cebpf4jnsgd1na2vs0mg"},{"bike_id":"020244c2-0d5d-4592-8bc3-087be6838faf","system_id":"levelo_inurba_marseille","lat":43.29529,"lon":5.385581,"is_reserved":false,"is_disabled":false,"rental_uris":{"android":"levelo://app?vid=020244c2-0d5d-4592-8bc3-087be6838faf","ios":"levelo://app?vid=020244c2-0d5d-4592-8bc3-087be6838faf"},"vehicle_type_id":"4","last_reported":1712502455,"current_range_meters":9600,"station_id":"ce4bgih2rcd13ifvqba0","pricing_plan_id":"cebpf4jnsgd1na2vs0mg"},{"bike_id":"754c092f-41ad-40b0-aed7-07f3f6fc6380","system_id":"levelo_inurba_marseille","lat":43.290779,"lon":5.371482,"is_reserved":false,"is_disabled":false,"rental_uris":{"android":"levelo://app?vid=754c092f-41ad-40b0-aed7-07f3f6fc6380","ios":"levelo://app?vid=754c092f-41ad-40b0-aed7-07f3f6fc6380"},"vehicle_type_id":"4","last_reported":1712502455,"current_range_meters":25600,"station_id":"ce4bh5p2rcd13ifvqe4g","pricing_plan_id":"cebpf4jnsgd1na2vs0mg"},{"bike_id":"a4ba4064-ce4a-4972-85f6-cb6f56f59947","system_id":"levelo_inurba_marseille","lat":43.290631,"lon":5.359244,"is_reserved":false,"is_disabled":false,"rental_uris":{"android":"levelo://app?vid=a4ba4064-ce4a-4972-85f6-cb6f56f59947","ios":"levelo://app?vid=a4ba4064-ce4a-4972-85f6-cb6f56f59947"},"vehicle_type_id":"4","last_reported":1712502455,"current_range_meters":24000,"station_id":"ce4bha92rcd13ifvqeg0","pricing_plan_id":"cebpf4jnsgd1na2vs0mg"},{"bike_id":"e812aba1-760f-484a-a030-d593805b022f","system_id":"levelo_inurba_marseille","lat":43.29529,"lon":5.385581,"is_reserved":false,"is_disabled":false,"rental_uris":{"android":"levelo://app?vid=e812aba1-760f-484a-a030-d593805b022f","ios":"levelo://app?vid=e812aba1-760f-484a-a030-d593805b022f"},"vehicle_type_id":"4","last_reported":1712502455,"current_range_meters":16800,"station_id":"ce4bgih2rcd13ifvqba0","pricing_plan_id":"cebpf4jnsgd1na2vs0mg"},{"bike_id":"aeb481ad-e089-4189-9063-5f34c1646c58","system_id":"levelo_inurba_marseille","lat":43.28985,"lon":5.37122,"is_reserved":false,"is_disabled":false,"rental_uris":{"android":"levelo://app?vid=aeb481ad-e089-4189-9063-5f34c1646c58","ios":"levelo://app?vid=aeb481ad-e089-4189-9063-5f34c1646c58"},"vehicle_type_id":"4","last_reported":1712502455,"current_range_meters":11200,"station_id":"","pricing_plan_id":"cebpf4jnsgd1na2vs0mg"},{"bike_id":"520d3def-c982-42bd-9e29-c88de946e485","system_id":"levelo_inurba_marseille","lat":43.290327,"lon":5.375711,"is_reserved":false,"is_disabled":false,"rental_uris":{"android":"levelo://app?vid=520d3def-c982-42bd-9e29-c88de946e485","ios":"levelo://app?vid=520d3def-c982-42bd-9e29-c88de946e485"},"vehicle_type_id":"4","last_reported":1712502455,"current_range_meters":18400,"station_id":"ce4bh692rcd13ifvqe90","pricing_plan_id":"cebpf4jnsgd1na2vs0mg"},{"bike_id":"8a45beab-ac65-41d5-be14-08d99a0c81ba","system_id":"levelo_inurba_marseille","lat":43.294162,"lon":5.386292,"is_reserved":false,"is_disabled":false,"rental_uris":{"android":"levelo://app?vid=8a45beab-ac65-41d5-be14-08d99a0c81ba","ios":"levelo://app?vid=8a45beab-ac65-41d5-be14-08d99a0c81ba"},"vehicle_type_id":"4","last_reported":1712502455,"current_range_meters":19200,"station_id":"ce4bh2h2rcd13ifvqdh0","pricing_plan_id":"cebpf4jnsgd1na2vs0mg"},{"bike_id":"0c15d83a-cb63-498f-95dd-5d07c8be0127","system_id":"levelo_inurba_marseille","lat":43.294162,"lon":5.386292,"is_reserved":false,"is_disabled":false,"rental_uris":{"android":"levelo://app?vid=0c15d83a-cb63-498f-95dd-5d07c8be0127","ios":"levelo://app?vid=0c15d83a-cb63-498f-95dd-5d07c8be0127"},"vehicle_type_id":"4","last_reported":1712502455,"current_range_meters":9200,"station_id":"ce4bh2h2rcd13ifvqdh0","pricing_plan_id":"cebpf4jnsgd1na2vs0mg"},{"bike_id":"2d0944ea-9fc0-406c-95b4-4051cff38df7","system_id":"levelo_inurba_marseille","lat":43.27618,"lon":5.361009,"is_reserved":false,"is_disabled":false,"rental_uris":{"android":"levelo://app?vid=2d0944ea-9fc0-406c-95b4-4051cff38df7","ios":"levelo://app?vid=2d0944ea-9fc0-406c-95b4-4051cff38df7"},"vehicle_type_id":"4","last_reported":1712502455,"current_range_meters":8800,"station_id":"ce4bgj92rcd13ifvqbe0","pricing_plan_id":"cebpf4jnsgd1na2vs0mg"},{"bike_id":"4e2192aa-feb2-40bc-a7ce-855e2a4d4252","system_id":"levelo_inurba_marseille","lat":43.289468,"lon":5.363719,"is_reserved":false,"is_disabled":false,"rental_uris":{"android":"levelo://app?vid=4e2192aa-feb2-40bc-a7ce-855e2a4d4252","ios":"levelo://app?vid=4e2192aa-feb2-40bc-a7ce-855e2a4d4252"},"vehicle_type_id":"4","last_reported":1712502455,"current_range_meters":400,"station_id":"ce4bhc92rcd13ifvqetg","pricing_plan_id":"cebpf4jnsgd1na2vs0mg"},{"bike_id":"b08a2139-eea1-47d8-af11-f4685af45dd8","system_id":"levelo_inurba_marseille","lat":43.304296,"lon":5.397513,"is_reserved":false,"is_disabled":false,"rental_uris":{"android":"levelo://app?vid=b08a2139-eea1-47d8-af11-f4685af45dd8","ios":"levelo://app?vid=b08a2139-eea1-47d8-af11-f4685af45dd8"},"vehicle_type_id":"4","last_reported":1712502455,"current_range_meters":25200,"station_id":"ce4bh092rcd13ifvqd20","pricing_plan_id":"cebpf4jnsgd1na2vs0mg"},{"bike_id":"ed87128b-ac5e-4283-a0b4-2e7168c5a9dc","system_id":"levelo_inurba_marseille","lat":43.290336,"lon":5.386425,"is_reserved":false,"is_disabled":false,"rental_uris":{"android":"levelo://app?vid=ed87128b-ac5e-4283-a0b4-2e7168c5a9dc","ios":"levelo://app?vid=ed87128b-ac5e-4283-a0b4-2e7168c5a9dc"},"vehicle_type_id":"4","last_reported":1712502455,"current_range_meters":5200,"station_id":"ce4bh4p2rcd13ifvqe0g","pricing_plan_id":"cebpf4jnsgd1na2vs0mg"},{"bike_id":"cb92d18e-1f77-4756-8e53-8a2a4c31055e","system_id":"levelo_inurba_marseille","lat":43.292706,"lon":5.384443,"is_reserved":false,"is_disabled":false,"rental_uris":{"android":"levelo://app?vid=cb92d18e-1f77-4756-8e53-8a2a4c31055e","ios":"levelo://app?vid=cb92d18e-1f77-4756-8e53-8a2a4c31055e"},"vehicle_type_id":"4","last_reported":1712502455,"current_range_meters":9600,"station_id":"ce4bh692rcd13ifvqea0","pricing_plan_id":"cebpf4jnsgd1na2vs0mg"},{"bike_id":"adb3e3c1-e278-4ed8-b11b-3f9a3d4dc1e2","system_id":"levelo_inurba_marseille","lat":43.290103,"lon":5.356114,"is_reserved":false,"is_disabled":false,"rental_uris":{"android":"levelo://app?vid=adb3e3c1-e278-4ed8-b11b-3f9a3d4dc1e2","ios":"levelo://app?vid=adb3e3c1-e278-4ed8-b11b-3f9a3d4dc1e2"},"vehicle_type_id":"4","last_reported":1712502455,"current_range_meters":0,"station_id":"ce4bhb92rcd13ifvqen0","pricing_plan_id":"cebpf4jnsgd1na2vs0mg"},{"bike_id":"f1afefd5-f23d-4aaf-b080-d1871cb423c6","system_id":"levelo_inurba_marseille","lat":43.286961,"lon":5.373785,"is_reserved":false,"is_disabled":false,"rental_uris":{"android":"levelo://app?vid=f1afefd5-f23d-4aaf-b080-d1871cb423c6","ios":"levelo://app?vid=f1afefd5-f23d-4aaf-b080-d1871cb423c6"},"vehicle_type_id":"4","last_reported":1712502455,"current_range_meters":14800,"station_id":"ce4bh3p2rcd13ifvqdq0","pricing_plan_id":"cebpf4jnsgd1na2vs0mg"},{"bike_id":"d943f4fa-5192-4168-85f6-b334eff03fb9","system_id":"levelo_inurba_marseille","lat":43.290103,"lon":5.356114,"is_reserved":false,"is_disabled":false,"rental_uris":{"android":"levelo://app?vid=d943f4fa-5192-4168-85f6-b334eff03fb9","ios":"levelo://app?vid=d943f4fa-5192-4168-85f6-b334eff03fb9"},"vehicle_type_id":"4","last_reported":1712502455,"current_range_meters":8400,"station_id":"ce4bhb92rcd13ifvqen0","pricing_plan_id":"cebpf4jnsgd1na2vs0mg"},{"bike_id":"af308747-7746-4f42-9401-c5ddbd38ec65","system_id":"levelo_inurba_marseille","lat":43.290104,"lon":5.356111,"is_reserved":false,"is_disabled":false,"rental_uris":{"android":"levelo://app?vid=af308747-7746-4f42-9401-c5ddbd38ec65","ios":"levelo://app?vid=af308747-7746-4f42-9401-c5ddbd38ec65"},"vehicle_type_id":"4","last_reported":1712502455,"current_range_meters":31200,"station_id":"ce4bhb92rcd13ifvqen0","pricing_plan_id":"cebpf4jnsgd1na2vs0mg"},{"bike_id":"7bed1511-07c6-4177-ab8a-6f84a5023813","system_id":"levelo_inurba_marseille","lat":43.290103,"lon":5.356114,"is_reserved":false,"is_disabled":false,"rental_uris":{"android":"levelo://app?vid=7bed1511-07c6-4177-ab8a-6f84a5023813","ios":"levelo://app?vid=7bed1511-07c6-4177-ab8a-6f84a5023813"},"vehicle_type_id":"4","last_reported":1712502455,"current_range_meters":6000,"station_id":"ce4bhb92rcd13ifvqen0","pricing_plan_id":"cebpf4jnsgd1na2vs0mg"},{"bike_id":"dae08aa0-d3d7-4786-9d0d-68ca9dc8c6ee","system_id":"levelo_inurba_marseille","lat":43.290103,"lon":5.356114,"is_reserved":false,"is_disabled":false,"rental_uris":{"android":"levelo://app?vid=dae08aa0-d3d7-4786-9d0d-68ca9dc8c6ee","ios":"levelo://app?vid=dae08aa0-d3d7-4786-9d0d-68ca9dc8c6ee"},"vehicle_type_id":"4","last_reported":1712502455,"current_range_meters":10000,"station_id":"ce4bhb92rcd13ifvqen0","pricing_plan_id":"cebpf4jnsgd1na2vs0mg"},{"bike_id":"e13c4374-f6a8-458c-9b04-c9a941828185","system_id":"levelo_inurba_marseille","lat":43.290103,"lon":5.356114,"is_reserved":false,"is_disabled":false,"rental_uris":{"android":"levelo://app?vid=e13c4374-f6a8-458c-9b04-c9a941828185","ios":"levelo://app?vid=e13c4374-f6a8-458c-9b04-c9a941828185"},"vehicle_type_id":"4","last_reported":1712502455,"current_range_meters":0,"station_id":"ce4bhb92rcd13ifvqen0","pricing_plan_id":"cebpf4jnsgd1na2vs0mg"},{"bike_id":"1948fd09-03e6-486a-8e46-d8c375ebcbc9","system_id":"levelo_inurba_marseille","lat":43.290104,"lon":5.356111,"is_reserved":false,"is_disabled":false,"rental_uris":{"android":"levelo://app?vid=1948fd09-03e6-486a-8e46-d8c375ebcbc9","ios":"levelo://app?vid=1948fd09-03e6-486a-8e46-d8c375ebcbc9"},"vehicle_type_id":"4","last_reported":1712502455,"current_range_meters":3600,"station_id":"ce4bhb92rcd13ifvqen0","pricing_plan_id":"cebpf4jnsgd1na2vs0mg"},{"bike_id":"ed1fadff-7714-4c3d-a6ad-fd1d05b91f6b","system_id":"levelo_inurba_marseille","lat":43.290104,"lon":5.356111,"is_reserved":false,"is_disabled":false,"rental_uris":{"android":"levelo://app?vid=ed1fadff-7714-4c3d-a6ad-fd1d05b91f6b","ios":"levelo://app?vid=ed1fadff-7714-4c3d-a6ad-fd1d05b91f6b"},"vehicle_type_id":"4","last_reported":1712502455,"current_range_meters":11200,"station_id":"ce4bhb92rcd13ifvqen0","pricing_plan_id":"cebpf4jnsgd1na2vs0mg"},{"bike_id":"f6f9f9f5-4f1c-4fce-8343-bd8c9e06a9a3","system_id":"levelo_inurba_marseille","lat":43.298008,"lon":5.393025,"is_reserved":false,"is_disabled":false,"rental_uris":{"android":"levelo://app?vid=f6f9f9f5-4f1c-4fce-8343-bd8c9e06a9a3","ios":"levelo://app?vid=f6f9f9f5-4f1c-4fce-8343-bd8c9e06a9a3"},"vehicle_type_id":"4","last_reported":1712502455,"current_range_meters":2000,"station_id":"chh1huq6cuj3fo74tm60","pricing_plan_id":"cebpf4jnsgd1na2vs0mg"},{"bike_id":"1894fd2b-2246-4967-be3d-ff9d3155a3a8","system_id":"levelo_inurba_marseille","lat":43.290103,"lon":5.356114,"is_reserved":false,"is_disabled":false,"rental_uris":{"android":"levelo://app?vid=1894fd2b-2246-4967-be3d-ff9d3155a3a8","ios":"levelo://app?vid=1894fd2b-2246-4967-be3d-ff9d3155a3a8"},"vehicle_type_id":"4","last_reported":1712502455,"current_range_meters":0,"station_id":"ce4bhb92rcd13ifvqen0","pricing_plan_id":"cebpf4jnsgd1na2vs0mg"},{"bike_id":"d425d286-d5e7-44ae-87cb-0d8cfc8b97cc","system_id":"levelo_inurba_marseille","lat":43.290104,"lon":5.356111,"is_reserved":false,"is_disabled":false,"rental_uris":{"android":"levelo://app?vid=d425d286-d5e7-44ae-87cb-0d8cfc8b97cc","ios":"levelo://app?vid=d425d286-d5e7-44ae-87cb-0d8cfc8b97cc"},"vehicle_type_id":"4","last_reported":1712502455,"current_range_meters":3600,"station_id":"ce4bhb92rcd13ifvqen0","pricing_plan_id":"cebpf4jnsgd1na2vs0mg"},{"bike_id":"2f21624f-a900-40ef-9a0d-6f5887bf4768","system_id":"levelo_inurba_marseille","lat":43.290103,"lon":5.356114,"is_reserved":false,"is_disabled":false,"rental_uris":{"android":"levelo://app?vid=2f21624f-a900-40ef-9a0d-6f5887bf4768","ios":"levelo://app?vid=2f21624f-a900-40ef-9a0d-6f5887bf4768"},"vehicle_type_id":"4","last_reported":1712502455,"current_range_meters":30800,"station_id":"ce4bhb92rcd13ifvqen0","pricing_plan_id":"cebpf4jnsgd1na2vs0mg"},{"bike_id":"12bd6140-d143-4b20-be09-ff99d4d9342e","system_id":"levelo_inurba_marseille","lat":43.290104,"lon":5.356111,"is_reserved":false,"is_disabled":false,"rental_uris":{"android":"levelo://app?vid=12bd6140-d143-4b20-be09-ff99d4d9342e","ios":"levelo://app?vid=12bd6140-d143-4b20-be09-ff99d4d9342e"},"vehicle_type_id":"4","last_reported":1712502455,"current_range_meters":22800,"station_id":"ce4bhb92rcd13ifvqen0","pricing_plan_id":"cebpf4jnsgd1na2vs0mg"},{"bike_id":"8f275948-9ab0-4f9f-a94b-4248a438821a","system_id":"levelo_inurba_marseille","lat":43.290995,"lon":5.381361,"is_reserved":false,"is_disabled":false,"rental_uris":{"android":"levelo://app?vid=8f275948-9ab0-4f9f-a94b-4248a438821a","ios":"levelo://app?vid=8f275948-9ab0-4f9f-a94b-4248a438821a"},"vehicle_type_id":"4","last_reported":1712502455,"current_range_meters":22800,"station_id":"ce4bh512rcd13ifvqe2g","pricing_plan_id":"cebpf4jnsgd1na2vs0mg"},{"bike_id":"c9c3b4ca-fe64-4da9-bf38-b130e324ca60","system_id":"levelo_inurba_marseille","lat":43.297815,"lon":5.393548,"is_reserved":false,"is_disabled":false,"rental_uris":{"android":"levelo://app?vid=c9c3b4ca-fe64-4da9-bf38-b130e324ca60","ios":"levelo://app?vid=c9c3b4ca-fe64-4da9-bf38-b130e324ca60"},"vehicle_type_id":"4","last_reported":1712502455,"current_range_meters":16400,"station_id":"chh1huq6cuj3fo74tm60","pricing_plan_id":"cebpf4jnsgd1na2vs0mg"},{"bike_id":"24f38672-5a1d-4e1f-a08d-477a96e6fd26","system_id":"levelo_inurba_marseille","lat":43.297815,"lon":5.393548,"is_reserved":false,"is_disabled":false,"rental_uris":{"android":"levelo://app?vid=24f38672-5a1d-4e1f-a08d-477a96e6fd26","ios":"levelo://app?vid=24f38672-5a1d-4e1f-a08d-477a96e6fd26"},"vehicle_type_id":"4","last_reported":1712502455,"current_range_meters":19600,"station_id":"chh1huq6cuj3fo74tm60","pricing_plan_id":"cebpf4jnsgd1na2vs0mg"},{"bike_id":"1dce9aa1-5232-4b74-8ce2-5f74a5bbde23","system_id":"levelo_inurba_marseille","lat":43.33113,"lon":5.38923,"is_reserved":false,"is_disabled":false,"rental_uris":{"android":"levelo://app?vid=1dce9aa1-5232-4b74-8ce2-5f74a5bbde23","ios":"levelo://app?vid=1dce9aa1-5232-4b74-8ce2-5f74a5bbde23"},"vehicle_type_id":"4","last_reported":1712502455,"current_range_meters":12800,"station_id":"","pricing_plan_id":"cebpf4jnsgd1na2vs0mg"},{"bike_id":"cb50bf84-8ca3-4487-9071-a935e4cf9288","system_id":"levelo_inurba_marseille","lat":43.33023,"lon":5.39056,"is_reserved":false,"is_disabled":false,"rental_uris":{"android":"levelo://app?vid=cb50bf84-8ca3-4487-9071-a935e4cf9288","ios":"levelo://app?vid=cb50bf84-8ca3-4487-9071-a935e4cf9288"},"vehicle_type_id":"4","last_reported":1712502455,"current_range_meters":0,"station_id":"ce4bhr92rcd13ifvqhrg","pricing_plan_id":"cebpf4jnsgd1na2vs0mg"},{"bike_id":"af80bb2b-3e76-4d00-afeb-d2f75c9b8dc9","system_id":"levelo_inurba_marseille","lat":43.29023,"lon":5.38124,"is_reserved":false,"is_disabled":false,"rental_uris":{"android":"levelo://app?vid=af80bb2b-3e76-4d00-afeb-d2f75c9b8dc9","ios":"levelo://app?vid=af80bb2b-3e76-4d00-afeb-d2f75c9b8dc9"},"vehicle_type_id":"4","last_reported":1712502455,"current_range_meters":400,"station_id":"ce4bh4p2rcd13ifvqe1g","pricing_plan_id":"cebpf4jnsgd1na2vs0mg"},{"bike_id":"456f1b85-a379-4a1d-8d4f-ff993c0fff78","system_id":"levelo_inurba_marseille","lat":43.2901,"lon":5.381269,"is_reserved":false,"is_disabled":false,"rental_uris":{"android":"levelo://app?vid=456f1b85-a379-4a1d-8d4f-ff993c0fff78","ios":"levelo://app?vid=456f1b85-a379-4a1d-8d4f-ff993c0fff78"},"vehicle_type_id":"4","last_reported":1712502455,"current_range_meters":6000,"station_id":"ce4bh4p2rcd13ifvqe1g","pricing_plan_id":"cebpf4jnsgd1na2vs0mg"},{"bike_id":"7526b5db-9597-488f-9540-7e9bb770f17c","system_id":"levelo_inurba_marseille","lat":43.2902,"lon":5.38138,"is_reserved":false,"is_disabled":false,"rental_uris":{"android":"levelo://app?vid=7526b5db-9597-488f-9540-7e9bb770f17c","ios":"levelo://app?vid=7526b5db-9597-488f-9540-7e9bb770f17c"},"vehicle_type_id":"4","last_reported":1712502455,"current_range_meters":0,"station_id":"ce4bh4p2rcd13ifvqe1g","pricing_plan_id":"cebpf4jnsgd1na2vs0mg"},{"bike_id":"da201d7d-990d-4d75-b101-27b10da0557a","system_id":"levelo_inurba_marseille","lat":43.28856,"lon":5.358371,"is_reserved":false,"is_disabled":false,"rental_uris":{"android":"levelo://app?vid=da201d7d-990d-4d75-b101-27b10da0557a","ios":"levelo://app?vid=da201d7d-990d-4d75-b101-27b10da0557a"},"vehicle_type_id":"4","last_reported":1712502455,"current_range_meters":0,"station_id":"ce4bhb12rcd13ifvqem0","pricing_plan_id":"cebpf4jnsgd1na2vs0mg"},{"bike_id":"65f5cada-e2e2-42e7-89b2-4fef0febd33b","system_id":"levelo_inurba_marseille","lat":43.290094,"lon":5.381264,"is_reserved":false,"is_disabled":false,"rental_uris":{"android":"levelo://app?vid=65f5cada-e2e2-42e7-89b2-4fef0febd33b","ios":"levelo://app?vid=65f5cada-e2e2-42e7-89b2-4fef0febd33b"},"vehicle_type_id":"4","last_reported":1712502455,"current_range_meters":7200,"station_id":"ce4bh4p2rcd13ifvqe1g","pricing_plan_id":"cebpf4jnsgd1na2vs0mg"},{"bike_id":"8a037a6b-eb21-46ab-b573-fc0d306f92ee","system_id":"levelo_inurba_marseille","lat":43.28727,"lon":5.36078,"is_reserved":false,"is_disabled":false,"rental_uris":{"android":"levelo://app?vid=8a037a6b-eb21-46ab-b573-fc0d306f92ee","ios":"levelo://app?vid=8a037a6b-eb21-46ab-b573-fc0d306f92ee"},"vehicle_type_id":"4","last_reported":1712502455,"current_range_meters":2000,"station_id":"cki0cbj6b192h4jlfktg","pricing_plan_id":"cebpf4jnsgd1na2vs0mg"},{"bike_id":"cd2bc0c5-a3b7-4f36-818c-bf5eb2f6b25e","system_id":"levelo_inurba_marseille","lat":43.28856,"lon":5.358371,"is_reserved":false,"is_disabled":false,"rental_uris":{"android":"levelo://app?vid=cd2bc0c5-a3b7-4f36-818c-bf5eb2f6b25e","ios":"levelo://app?vid=cd2bc0c5-a3b7-4f36-818c-bf5eb2f6b25e"},"vehicle_type_id":"4","last_reported":1712502455,"current_range_meters":0,"station_id":"ce4bhb12rcd13ifvqem0","pricing_plan_id":"cebpf4jnsgd1na2vs0mg"},{"bike_id":"79989e1e-39db-4758-8459-bc16fe53c10f","system_id":"levelo_inurba_marseille","lat":43.309371,"lon":5.401449,"is_reserved":false,"is_disabled":false,"rental_uris":{"android":"levelo://app?vid=79989e1e-39db-4758-8459-bc16fe53c10f","ios":"levelo://app?vid=79989e1e-39db-4758-8459-bc16fe53c10f"},"vehicle_type_id":"4","last_reported":1712502455,"current_range_meters":16400,"station_id":"ce4bgvp2rcd13ifvqct0","pricing_plan_id":"cebpf4jnsgd1na2vs0mg"},{"bike_id":"f013df5e-97e0-47bf-ac9d-1dbb4d63b610","system_id":"levelo_inurba_marseille","lat":43.309371,"lon":5.401449,"is_reserved":false,"is_disabled":false,"rental_uris":{"android":"levelo://app?vid=f013df5e-97e0-47bf-ac9d-1dbb4d63b610","ios":"levelo://app?vid=f013df5e-97e0-47bf-ac9d-1dbb4d63b610"},"vehicle_type_id":"4","last_reported":1712502455,"current_range_meters":15200,"station_id":"ce4bgvp2rcd13ifvqct0","pricing_plan_id":"cebpf4jnsgd1na2vs0mg"},{"bike_id":"979ae432-9ff5-4588-908b-a7c2ac444746","system_id":"levelo_inurba_marseille","lat":43.3375,"lon":5.37452,"is_reserved":false,"is_disabled":false,"rental_uris":{"android":"levelo://app?vid=979ae432-9ff5-4588-908b-a7c2ac444746","ios":"levelo://app?vid=979ae432-9ff5-4588-908b-a7c2ac444746"},"vehicle_type_id":"4","last_reported":1712502455,"current_range_meters":26800,"station_id":"","pricing_plan_id":"cebpf4jnsgd1na2vs0mg"},{"bike_id":"1b94e0c3-8f12-4cfe-b95c-7c9ab2112a65","system_id":"levelo_inurba_marseille","lat":43.30635,"lon":5.40087,"is_reserved":false,"is_disabled":false,"rental_uris":{"android":"levelo://app?vid=1b94e0c3-8f12-4cfe-b95c-7c9ab2112a65","ios":"levelo://app?vid=1b94e0c3-8f12-4cfe-b95c-7c9ab2112a65"},"vehicle_type_id":"4","last_reported":1712502455,"current_range_meters":1200,"station_id":"ce4bh112rcd13ifvqda0","pricing_plan_id":"cebpf4jnsgd1na2vs0mg"},{"bike_id":"5876abd4-1755-4b1d-ad79-6e89ef27f0df","system_id":"levelo_inurba_marseille","lat":43.30124,"lon":5.39853,"is_reserved":false,"is_disabled":false,"rental_uris":{"android":"levelo://app?vid=5876abd4-1755-4b1d-ad79-6e89ef27f0df","ios":"levelo://app?vid=5876abd4-1755-4b1d-ad79-6e89ef27f0df"},"vehicle_type_id":"4","last_reported":1712502455,"current_range_meters":0,"station_id":"ce4bh0h2rcd13ifvqd40","pricing_plan_id":"cebpf4jnsgd1na2vs0mg"},{"bike_id":"75d6ca6e-416f-48e2-96f9-d2c8c4660d97","system_id":"levelo_inurba_marseille","lat":43.28727,"lon":5.36078,"is_reserved":false,"is_disabled":false,"rental_uris":{"android":"levelo://app?vid=75d6ca6e-416f-48e2-96f9-d2c8c4660d97","ios":"levelo://app?vid=75d6ca6e-416f-48e2-96f9-d2c8c4660d97"},"vehicle_type_id":"4","last_reported":1712502455,"current_range_meters":9600,"station_id":"cki0cbj6b192h4jlfktg","pricing_plan_id":"cebpf4jnsgd1na2vs0mg"},{"bike_id":"04c29232-90ef-43dc-b7d8-3b021a81293d","system_id":"levelo_inurba_marseille","lat":43.28727,"lon":5.36078,"is_reserved":false,"is_disabled":false,"rental_uris":{"android":"levelo://app?vid=04c29232-90ef-43dc-b7d8-3b021a81293d","ios":"levelo://app?vid=04c29232-90ef-43dc-b7d8-3b021a81293d"},"vehicle_type_id":"4","last_reported":1712502455,"current_range_meters":8400,"station_id":"cki0cbj6b192h4jlfktg","pricing_plan_id":"cebpf4jnsgd1na2vs0mg"},{"bike_id":"0216428b-d477-466d-85c7-854935cb57d6","system_id":"levelo_inurba_marseille","lat":43.28727,"lon":5.36078,"is_reserved":false,"is_disabled":false,"rental_uris":{"android":"levelo://app?vid=0216428b-d477-466d-85c7-854935cb57d6","ios":"levelo://app?vid=0216428b-d477-466d-85c7-854935cb57d6"},"vehicle_type_id":"4","last_reported":1712502455,"current_range_meters":6400,"station_id":"cki0cbj6b192h4jlfktg","pricing_plan_id":"cebpf4jnsgd1na2vs0mg"},{"bike_id":"5658c929-914b-4516-bbb9-e27d3b01b26a","system_id":"levelo_inurba_marseille","lat":43.28727,"lon":5.36078,"is_reserved":false,"is_disabled":false,"rental_uris":{"android":"levelo://app?vid=5658c929-914b-4516-bbb9-e27d3b01b26a","ios":"levelo://app?vid=5658c929-914b-4516-bbb9-e27d3b01b26a"},"vehicle_type_id":"4","last_reported":1712502455,"current_range_meters":0,"station_id":"cki0cbj6b192h4jlfktg","pricing_plan_id":"cebpf4jnsgd1na2vs0mg"},{"bike_id":"4afc9c09-80b6-4ae6-901d-d39fa598510f","system_id":"levelo_inurba_marseille","lat":43.286961,"lon":5.373785,"is_reserved":false,"is_disabled":false,"rental_uris":{"android":"levelo://app?vid=4afc9c09-80b6-4ae6-901d-d39fa598510f","ios":"levelo://app?vid=4afc9c09-80b6-4ae6-901d-d39fa598510f"},"vehicle_type_id":"4","last_reported":1712502455,"current_range_meters":31200,"station_id":"ce4bh3p2rcd13ifvqdq0","pricing_plan_id":"cebpf4jnsgd1na2vs0mg"},{"bike_id":"f341b0e6-ca33-4373-8d3c-1ccb3242315c","system_id":"levelo_inurba_marseille","lat":43.286961,"lon":5.373785,"is_reserved":false,"is_disabled":false,"rental_uris":{"android":"levelo://app?vid=f341b0e6-ca33-4373-8d3c-1ccb3242315c","ios":"levelo://app?vid=f341b0e6-ca33-4373-8d3c-1ccb3242315c"},"vehicle_type_id":"4","last_reported":1712502455,"current_range_meters":4400,"station_id":"ce4bh3p2rcd13ifvqdq0","pricing_plan_id":"cebpf4jnsgd1na2vs0mg"},{"bike_id":"bb1801fa-9e66-4824-b81f-d419179feca6","system_id":"levelo_inurba_marseille","lat":43.298681,"lon":5.397225,"is_reserved":false,"is_disabled":false,"rental_uris":{"android":"levelo://app?vid=bb1801fa-9e66-4824-b81f-d419179feca6","ios":"levelo://app?vid=bb1801fa-9e66-4824-b81f-d419179feca6"},"vehicle_type_id":"4","last_reported":1712502455,"current_range_meters":16800,"station_id":"ce4bh0h2rcd13ifvqd50","pricing_plan_id":"cebpf4jnsgd1na2vs0mg"},{"bike_id":"3f54d565-a2c0-4931-acd4-22494c016ebf","system_id":"levelo_inurba_marseille","lat":43.287035,"lon":5.37385,"is_reserved":false,"is_disabled":false,"rental_uris":{"android":"levelo://app?vid=3f54d565-a2c0-4931-acd4-22494c016ebf","ios":"levelo://app?vid=3f54d565-a2c0-4931-acd4-22494c016ebf"},"vehicle_type_id":"4","last_reported":1712502455,"current_range_meters":0,"station_id":"ce4bh3p2rcd13ifvqdq0","pricing_plan_id":"cebpf4jnsgd1na2vs0mg"},{"bike_id":"7da2fdbb-6116-4c70-be12-e633b20aebca","system_id":"levelo_inurba_marseille","lat":43.298681,"lon":5.397225,"is_reserved":false,"is_disabled":false,"rental_uris":{"android":"levelo://app?vid=7da2fdbb-6116-4c70-be12-e633b20aebca","ios":"levelo://app?vid=7da2fdbb-6116-4c70-be12-e633b20aebca"},"vehicle_type_id":"4","last_reported":1712502455,"current_range_meters":24400,"station_id":"ce4bh0h2rcd13ifvqd50","pricing_plan_id":"cebpf4jnsgd1na2vs0mg"},{"bike_id":"ffad08dc-ec0a-4670-bbaf-1b7a2b152f2b","system_id":"levelo_inurba_marseille","lat":43.286961,"lon":5.373785,"is_reserved":false,"is_disabled":false,"rental_uris":{"android":"levelo://app?vid=ffad08dc-ec0a-4670-bbaf-1b7a2b152f2b","ios":"levelo://app?vid=ffad08dc-ec0a-4670-bbaf-1b7a2b152f2b"},"vehicle_type_id":"4","last_reported":1712502455,"current_range_meters":0,"station_id":"ce4bh3p2rcd13ifvqdq0","pricing_plan_id":"cebpf4jnsgd1na2vs0mg"},{"bike_id":"308e23d2-c833-4206-a284-781d1736d2d1","system_id":"levelo_inurba_marseille","lat":43.298681,"lon":5.397225,"is_reserved":false,"is_disabled":false,"rental_uris":{"android":"levelo://app?vid=308e23d2-c833-4206-a284-781d1736d2d1","ios":"levelo://app?vid=308e23d2-c833-4206-a284-781d1736d2d1"},"vehicle_type_id":"4","last_reported":1712502455,"current_range_meters":8000,"station_id":"ce4bh0h2rcd13ifvqd50","pricing_plan_id":"cebpf4jnsgd1na2vs0mg"},{"bike_id":"c0d9fccb-93ea-4cd9-a975-e285c3e5c11f","system_id":"levelo_inurba_marseille","lat":43.286961,"lon":5.373785,"is_reserved":false,"is_disabled":false,"rental_uris":{"android":"levelo://app?vid=c0d9fccb-93ea-4cd9-a975-e285c3e5c11f","ios":"levelo://app?vid=c0d9fccb-93ea-4cd9-a975-e285c3e5c11f"},"vehicle_type_id":"4","last_reported":1712502455,"current_range_meters":2000,"station_id":"ce4bh3p2rcd13ifvqdq0","pricing_plan_id":"cebpf4jnsgd1na2vs0mg"},{"bike_id":"03f9caf5-7803-41d0-9ac0-2f038ce93016","system_id":"levelo_inurba_marseille","lat":43.286593,"lon":5.363346,"is_reserved":false,"is_disabled":false,"rental_uris":{"android":"levelo://app?vid=03f9caf5-7803-41d0-9ac0-2f038ce93016","ios":"levelo://app?vid=03f9caf5-7803-41d0-9ac0-2f038ce93016"},"vehicle_type_id":"4","last_reported":1712502455,"current_range_meters":21600,"station_id":"ce4bhah2rcd13ifvqej0","pricing_plan_id":"cebpf4jnsgd1na2vs0mg"},{"bike_id":"dd0dc97d-8dc7-497a-9754-907c7a480067","system_id":"levelo_inurba_marseille","lat":43.295196,"lon":5.39397,"is_reserved":false,"is_disabled":false,"rental_uris":{"android":"levelo://app?vid=dd0dc97d-8dc7-497a-9754-907c7a480067","ios":"levelo://app?vid=dd0dc97d-8dc7-497a-9754-907c7a480067"},"vehicle_type_id":"4","last_reported":1712502455,"current_range_meters":13200,"station_id":"ce4bh292rcd13ifvqdf0","pricing_plan_id":"cebpf4jnsgd1na2vs0mg"},{"bike_id":"e5d67950-7d20-45df-b0a2-d4def467e673","system_id":"levelo_inurba_marseille","lat":43.289307,"lon":5.38406,"is_reserved":false,"is_disabled":false,"rental_uris":{"android":"levelo://app?vid=e5d67950-7d20-45df-b0a2-d4def467e673","ios":"levelo://app?vid=e5d67950-7d20-45df-b0a2-d4def467e673"},"vehicle_type_id":"4","last_reported":1712502455,"current_range_meters":6400,"station_id":"ce4bh612rcd13ifvqe6g","pricing_plan_id":"cebpf4jnsgd1na2vs0mg"},{"bike_id":"7644a0f9-5ceb-4872-ab60-3c4f52c54982","system_id":"levelo_inurba_marseille","lat":43.302526,"lon":5.400581,"is_reserved":false,"is_disabled":false,"rental_uris":{"android":"levelo://app?vid=7644a0f9-5ceb-4872-ab60-3c4f52c54982","ios":"levelo://app?vid=7644a0f9-5ceb-4872-ab60-3c4f52c54982"},"vehicle_type_id":"4","last_reported":1712502455,"current_range_meters":4400,"station_id":"","pricing_plan_id":"cebpf4jnsgd1na2vs0mg"},{"bike_id":"3f91feea-9bc7-4ea9-a4bc-b3ac02190544","system_id":"levelo_inurba_marseille","lat":43.306711,"lon":5.402485,"is_reserved":false,"is_disabled":false,"rental_uris":{"android":"levelo://app?vid=3f91feea-9bc7-4ea9-a4bc-b3ac02190544","ios":"levelo://app?vid=3f91feea-9bc7-4ea9-a4bc-b3ac02190544"},"vehicle_type_id":"4","last_reported":1712502455,"current_range_meters":4000,"station_id":"","pricing_plan_id":"cebpf4jnsgd1na2vs0mg"},{"bike_id":"3305cd8a-3cf4-47ac-9736-09dc79f3bfa8","system_id":"levelo_inurba_marseille","lat":43.290336,"lon":5.386425,"is_reserved":false,"is_disabled":false,"rental_uris":{"android":"levelo://app?vid=3305cd8a-3cf4-47ac-9736-09dc79f3bfa8","ios":"levelo://app?vid=3305cd8a-3cf4-47ac-9736-09dc79f3bfa8"},"vehicle_type_id":"4","last_reported":1712502455,"current_range_meters":10400,"station_id":"ce4bh4p2rcd13ifvqe0g","pricing_plan_id":"cebpf4jnsgd1na2vs0mg"},{"bike_id":"5ab442bf-bbd6-4707-a1a4-e906e68f155a","system_id":"levelo_inurba_marseille","lat":43.302759,"lon":5.400793,"is_reserved":false,"is_disabled":false,"rental_uris":{"android":"levelo://app?vid=5ab442bf-bbd6-4707-a1a4-e906e68f155a","ios":"levelo://app?vid=5ab442bf-bbd6-4707-a1a4-e906e68f155a"},"vehicle_type_id":"4","last_reported":1712502455,"current_range_meters":0,"station_id":"ce4bgvh2rcd13ifvqcs0","pricing_plan_id":"cebpf4jnsgd1na2vs0mg"},{"bike_id":"7cab189c-1ba2-4862-bd7f-2e6ded9dd6e5","system_id":"levelo_inurba_marseille","lat":43.290345,"lon":5.38646,"is_reserved":false,"is_disabled":false,"rental_uris":{"android":"levelo://app?vid=7cab189c-1ba2-4862-bd7f-2e6ded9dd6e5","ios":"levelo://app?vid=7cab189c-1ba2-4862-bd7f-2e6ded9dd6e5"},"vehicle_type_id":"4","last_reported":1712502455,"current_range_meters":22400,"station_id":"ce4bh4p2rcd13ifvqe0g","pricing_plan_id":"cebpf4jnsgd1na2vs0mg"},{"bike_id":"8c64c4b9-f913-46f6-ace3-3b32fbb806e4","system_id":"levelo_inurba_marseille","lat":43.290336,"lon":5.386425,"is_reserved":false,"is_disabled":false,"rental_uris":{"android":"levelo://app?vid=8c64c4b9-f913-46f6-ace3-3b32fbb806e4","ios":"levelo://app?vid=8c64c4b9-f913-46f6-ace3-3b32fbb806e4"},"vehicle_type_id":"4","last_reported":1712502455,"current_range_meters":7600,"station_id":"ce4bh4p2rcd13ifvqe0g","pricing_plan_id":"cebpf4jnsgd1na2vs0mg"},{"bike_id":"47c34cee-d9ef-43d0-b09d-ce65d3326188","system_id":"levelo_inurba_marseille","lat":43.302759,"lon":5.400793,"is_reserved":false,"is_disabled":false,"rental_uris":{"android":"levelo://app?vid=47c34cee-d9ef-43d0-b09d-ce65d3326188","ios":"levelo://app?vid=47c34cee-d9ef-43d0-b09d-ce65d3326188"},"vehicle_type_id":"4","last_reported":1712502455,"current_range_meters":5600,"station_id":"ce4bgvh2rcd13ifvqcs0","pricing_plan_id":"cebpf4jnsgd1na2vs0mg"},{"bike_id":"1a2c40d6-b763-4033-bc0d-c6d57240247a","system_id":"levelo_inurba_marseille","lat":43.302759,"lon":5.400793,"is_reserved":false,"is_disabled":false,"rental_uris":{"android":"levelo://app?vid=1a2c40d6-b763-4033-bc0d-c6d57240247a","ios":"levelo://app?vid=1a2c40d6-b763-4033-bc0d-c6d57240247a"},"vehicle_type_id":"4","last_reported":1712502455,"current_range_meters":11600,"station_id":"ce4bgvh2rcd13ifvqcs0","pricing_plan_id":"cebpf4jnsgd1na2vs0mg"},{"bike_id":"40bc94a3-5fad-40db-b61a-09d34c792a78","system_id":"levelo_inurba_marseille","lat":43.289307,"lon":5.38406,"is_reserved":false,"is_disabled":false,"rental_uris":{"android":"levelo://app?vid=40bc94a3-5fad-40db-b61a-09d34c792a78","ios":"levelo://app?vid=40bc94a3-5fad-40db-b61a-09d34c792a78"},"vehicle_type_id":"4","last_reported":1712502455,"current_range_meters":26000,"station_id":"ce4bh612rcd13ifvqe6g","pricing_plan_id":"cebpf4jnsgd1na2vs0mg"},{"bike_id":"85796070-4d9e-4615-aaea-7ba14708bd59","system_id":"levelo_inurba_marseille","lat":43.286039,"lon":5.370681,"is_reserved":false,"is_disabled":false,"rental_uris":{"android":"levelo://app?vid=85796070-4d9e-4615-aaea-7ba14708bd59","ios":"levelo://app?vid=85796070-4d9e-4615-aaea-7ba14708bd59"},"vehicle_type_id":"4","last_reported":1712502455,"current_range_meters":11200,"station_id":"ce4bht12rcd13ifvqi60","pricing_plan_id":"cebpf4jnsgd1na2vs0mg"},{"bike_id":"d16b30b3-c192-4767-8a5b-db90d27dca60","system_id":"levelo_inurba_marseille","lat":43.293259,"lon":5.371586,"is_reserved":false,"is_disabled":false,"rental_uris":{"android":"levelo://app?vid=d16b30b3-c192-4767-8a5b-db90d27dca60","ios":"levelo://app?vid=d16b30b3-c192-4767-8a5b-db90d27dca60"},"vehicle_type_id":"4","last_reported":1712502455,"current_range_meters":23200,"station_id":"ce4bgh92rcd13ifvqb40","pricing_plan_id":"cebpf4jnsgd1na2vs0mg"},{"bike_id":"b0814abe-3e28-4f94-a48f-2772bbce5642","system_id":"levelo_inurba_marseille","lat":43.28715,"lon":5.3794,"is_reserved":false,"is_disabled":false,"rental_uris":{"android":"levelo://app?vid=b0814abe-3e28-4f94-a48f-2772bbce5642","ios":"levelo://app?vid=b0814abe-3e28-4f94-a48f-2772bbce5642"},"vehicle_type_id":"4","last_reported":1712502455,"current_range_meters":0,"station_id":"ce4bh9p2rcd13ifvqec0","pricing_plan_id":"cebpf4jnsgd1na2vs0mg"},{"bike_id":"37250a5d-0c87-432e-9c70-1b5222e0427f","system_id":"levelo_inurba_marseille","lat":43.302759,"lon":5.400793,"is_reserved":false,"is_disabled":false,"rental_uris":{"android":"levelo://app?vid=37250a5d-0c87-432e-9c70-1b5222e0427f","ios":"levelo://app?vid=37250a5d-0c87-432e-9c70-1b5222e0427f"},"vehicle_type_id":"4","last_reported":1712502455,"current_range_meters":8400,"station_id":"ce4bgvh2rcd13ifvqcs0","pricing_plan_id":"cebpf4jnsgd1na2vs0mg"},{"bike_id":"e540e031-c9c4-4149-b758-dda53b441083","system_id":"levelo_inurba_marseille","lat":43.316828,"lon":5.404723,"is_reserved":false,"is_disabled":false,"rental_uris":{"android":"levelo://app?vid=e540e031-c9c4-4149-b758-dda53b441083","ios":"levelo://app?vid=e540e031-c9c4-4149-b758-dda53b441083"},"vehicle_type_id":"4","last_reported":1712502455,"current_range_meters":0,"station_id":"ce4bh012rcd13ifvqd00","pricing_plan_id":"cebpf4jnsgd1na2vs0mg"},{"bike_id":"073680a3-9086-4366-9580-a4cac07ab472","system_id":"levelo_inurba_marseille","lat":43.284858,"lon":5.368154,"is_reserved":false,"is_disabled":false,"rental_uris":{"android":"levelo://app?vid=073680a3-9086-4366-9580-a4cac07ab472","ios":"levelo://app?vid=073680a3-9086-4366-9580-a4cac07ab472"},"vehicle_type_id":"4","last_reported":1712502455,"current_range_meters":3600,"station_id":"","pricing_plan_id":"cebpf4jnsgd1na2vs0mg"},{"bike_id":"9d99bae6-016d-4cfd-ab14-5b6c1434b5db","system_id":"levelo_inurba_marseille","lat":43.291994,"lon":5.392907,"is_reserved":false,"is_disabled":false,"rental_uris":{"android":"levelo://app?vid=9d99bae6-016d-4cfd-ab14-5b6c1434b5db","ios":"levelo://app?vid=9d99bae6-016d-4cfd-ab14-5b6c1434b5db"},"vehicle_type_id":"4","last_reported":1712502455,"current_range_meters":6800,"station_id":"ce4bh192rcd13ifvqdd0","pricing_plan_id":"cebpf4jnsgd1na2vs0mg"},{"bike_id":"46a5b7cc-7de6-4bc5-89d9-abda3ff1ebbc","system_id":"levelo_inurba_marseille","lat":43.28467,"lon":5.35897,"is_reserved":false,"is_disabled":false,"rental_uris":{"android":"levelo://app?vid=46a5b7cc-7de6-4bc5-89d9-abda3ff1ebbc","ios":"levelo://app?vid=46a5b7cc-7de6-4bc5-89d9-abda3ff1ebbc"},"vehicle_type_id":"4","last_reported":1712502455,"current_range_meters":12000,"station_id":"ce4bhbh2rcd13ifvqeo0","pricing_plan_id":"cebpf4jnsgd1na2vs0mg"},{"bike_id":"d6f6f4cf-aaa6-4a90-8f2a-4570e1dea7b1","system_id":"levelo_inurba_marseille","lat":43.284538,"lon":5.358657,"is_reserved":false,"is_disabled":false,"rental_uris":{"android":"levelo://app?vid=d6f6f4cf-aaa6-4a90-8f2a-4570e1dea7b1","ios":"levelo://app?vid=d6f6f4cf-aaa6-4a90-8f2a-4570e1dea7b1"},"vehicle_type_id":"4","last_reported":1712502455,"current_range_meters":20400,"station_id":"ce4bhah2rcd13ifvqei0","pricing_plan_id":"cebpf4jnsgd1na2vs0mg"},{"bike_id":"81d661ca-a439-4a8e-837a-2b6e51ec8cd3","system_id":"levelo_inurba_marseille","lat":43.284538,"lon":5.358657,"is_reserved":false,"is_disabled":false,"rental_uris":{"android":"levelo://app?vid=81d661ca-a439-4a8e-837a-2b6e51ec8cd3","ios":"levelo://app?vid=81d661ca-a439-4a8e-837a-2b6e51ec8cd3"},"vehicle_type_id":"4","last_reported":1712502455,"current_range_meters":8000,"station_id":"ce4bhah2rcd13ifvqei0","pricing_plan_id":"cebpf4jnsgd1na2vs0mg"},{"bike_id":"ca058334-85e8-4335-83d5-9aa4412d8308","system_id":"levelo_inurba_marseille","lat":43.284538,"lon":5.358657,"is_reserved":false,"is_disabled":false,"rental_uris":{"android":"levelo://app?vid=ca058334-85e8-4335-83d5-9aa4412d8308","ios":"levelo://app?vid=ca058334-85e8-4335-83d5-9aa4412d8308"},"vehicle_type_id":"4","last_reported":1712502455,"current_range_meters":15600,"station_id":"ce4bhah2rcd13ifvqei0","pricing_plan_id":"cebpf4jnsgd1na2vs0mg"},{"bike_id":"9d0002d8-8947-44e0-b565-704ca3193e30","system_id":"levelo_inurba_marseille","lat":43.284534,"lon":5.358662,"is_reserved":false,"is_disabled":false,"rental_uris":{"android":"levelo://app?vid=9d0002d8-8947-44e0-b565-704ca3193e30","ios":"levelo://app?vid=9d0002d8-8947-44e0-b565-704ca3193e30"},"vehicle_type_id":"4","last_reported":1712502455,"current_range_meters":24000,"station_id":"ce4bhah2rcd13ifvqei0","pricing_plan_id":"cebpf4jnsgd1na2vs0mg"},{"bike_id":"0cb0fd13-9536-47b3-9006-988437de6677","system_id":"levelo_inurba_marseille","lat":43.284534,"lon":5.358662,"is_reserved":false,"is_disabled":false,"rental_uris":{"android":"levelo://app?vid=0cb0fd13-9536-47b3-9006-988437de6677","ios":"levelo://app?vid=0cb0fd13-9536-47b3-9006-988437de6677"},"vehicle_type_id":"4","last_reported":1712502455,"current_range_meters":9600,"station_id":"ce4bhah2rcd13ifvqei0","pricing_plan_id":"cebpf4jnsgd1na2vs0mg"},{"bike_id":"5ccef276-67fe-4c0a-8ada-792ccae6da95","system_id":"levelo_inurba_marseille","lat":43.295713,"lon":5.399639,"is_reserved":false,"is_disabled":false,"rental_uris":{"android":"levelo://app?vid=5ccef276-67fe-4c0a-8ada-792ccae6da95","ios":"levelo://app?vid=5ccef276-67fe-4c0a-8ada-792ccae6da95"},"vehicle_type_id":"4","last_reported":1712502455,"current_range_meters":6400,"station_id":"ce4bh312rcd13ifvqdj0","pricing_plan_id":"cebpf4jnsgd1na2vs0mg"},{"bike_id":"d67c018a-89cc-42c1-941d-23dfd7931b7f","system_id":"levelo_inurba_marseille","lat":43.296109,"lon":5.400127,"is_reserved":false,"is_disabled":false,"rental_uris":{"android":"levelo://app?vid=d67c018a-89cc-42c1-941d-23dfd7931b7f","ios":"levelo://app?vid=d67c018a-89cc-42c1-941d-23dfd7931b7f"},"vehicle_type_id":"4","last_reported":1712502455,"current_range_meters":0,"station_id":"ce4bh312rcd13ifvqdk0","pricing_plan_id":"cebpf4jnsgd1na2vs0mg"},{"bike_id":"ad26ca57-63a6-4856-979b-1bfeedf35246","system_id":"levelo_inurba_marseille","lat":43.283998,"lon":5.375062,"is_reserved":false,"is_disabled":false,"rental_uris":{"android":"levelo://app?vid=ad26ca57-63a6-4856-979b-1bfeedf35246","ios":"levelo://app?vid=ad26ca57-63a6-4856-979b-1bfeedf35246"},"vehicle_type_id":"4","last_reported":1712502455,"current_range_meters":0,"station_id":"ce4bh412rcd13ifvqds0","pricing_plan_id":"cebpf4jnsgd1na2vs0mg"},{"bike_id":"a4027d82-103f-4ba9-9831-6761755e847c","system_id":"levelo_inurba_marseille","lat":43.319179,"lon":5.407725,"is_reserved":false,"is_disabled":false,"rental_uris":{"android":"levelo://app?vid=a4027d82-103f-4ba9-9831-6761755e847c","ios":"levelo://app?vid=a4027d82-103f-4ba9-9831-6761755e847c"},"vehicle_type_id":"4","last_reported":1712502455,"current_range_meters":5200,"station_id":"ce4bhq12rcd13ifvqhig","pricing_plan_id":"cebpf4jnsgd1na2vs0mg"},{"bike_id":"8818ba32-cee8-4ce7-b24f-b5f39b073fd9","system_id":"levelo_inurba_marseille","lat":43.319179,"lon":5.407725,"is_reserved":false,"is_disabled":false,"rental_uris":{"android":"levelo://app?vid=8818ba32-cee8-4ce7-b24f-b5f39b073fd9","ios":"levelo://app?vid=8818ba32-cee8-4ce7-b24f-b5f39b073fd9"},"vehicle_type_id":"4","last_reported":1712502455,"current_range_meters":1200,"station_id":"ce4bhq12rcd13ifvqhig","pricing_plan_id":"cebpf4jnsgd1na2vs0mg"},{"bike_id":"3444a19d-5830-4747-9225-dbf137d9a459","system_id":"levelo_inurba_marseille","lat":43.31891,"lon":5.4074,"is_reserved":false,"is_disabled":false,"rental_uris":{"android":"levelo://app?vid=3444a19d-5830-4747-9225-dbf137d9a459","ios":"levelo://app?vid=3444a19d-5830-4747-9225-dbf137d9a459"},"vehicle_type_id":"4","last_reported":1712502455,"current_range_meters":16000,"station_id":"ce4bhq12rcd13ifvqhig","pricing_plan_id":"cebpf4jnsgd1na2vs0mg"},{"bike_id":"4eaaff53-f15c-459e-ab3b-3655b1bc67e5","system_id":"levelo_inurba_marseille","lat":43.298625,"lon":5.4036,"is_reserved":false,"is_disabled":false,"rental_uris":{"android":"levelo://app?vid=4eaaff53-f15c-459e-ab3b-3655b1bc67e5","ios":"levelo://app?vid=4eaaff53-f15c-459e-ab3b-3655b1bc67e5"},"vehicle_type_id":"4","last_reported":1712502455,"current_range_meters":800,"station_id":"ce4bh112rcd13ifvqd90","pricing_plan_id":"cebpf4jnsgd1na2vs0mg"},{"bike_id":"173084fe-9fc6-4eca-95d0-263c96ff36f9","system_id":"levelo_inurba_marseille","lat":43.337168,"lon":5.391825,"is_reserved":false,"is_disabled":false,"rental_uris":{"android":"levelo://app?vid=173084fe-9fc6-4eca-95d0-263c96ff36f9","ios":"levelo://app?vid=173084fe-9fc6-4eca-95d0-263c96ff36f9"},"vehicle_type_id":"4","last_reported":1712502455,"current_range_meters":10800,"station_id":"ce4bhr92rcd13ifvqhsg","pricing_plan_id":"cebpf4jnsgd1na2vs0mg"},{"bike_id":"73490e10-4ca7-49b7-982e-b12605d7133c","system_id":"levelo_inurba_marseille","lat":43.337168,"lon":5.391825,"is_reserved":false,"is_disabled":false,"rental_uris":{"android":"levelo://app?vid=73490e10-4ca7-49b7-982e-b12605d7133c","ios":"levelo://app?vid=73490e10-4ca7-49b7-982e-b12605d7133c"},"vehicle_type_id":"4","last_reported":1712502455,"current_range_meters":6400,"station_id":"ce4bhr92rcd13ifvqhsg","pricing_plan_id":"cebpf4jnsgd1na2vs0mg"},{"bike_id":"f281304c-557b-46c2-b4ce-26668e115df3","system_id":"levelo_inurba_marseille","lat":43.28794,"lon":5.39131,"is_reserved":false,"is_disabled":false,"rental_uris":{"android":"levelo://app?vid=f281304c-557b-46c2-b4ce-26668e115df3","ios":"levelo://app?vid=f281304c-557b-46c2-b4ce-26668e115df3"},"vehicle_type_id":"4","last_reported":1712502455,"current_range_meters":4800,"station_id":"","pricing_plan_id":"cebpf4jnsgd1na2vs0mg"},{"bike_id":"5988af7b-63e0-49c7-b155-90b8d1308a25","system_id":"levelo_inurba_marseille","lat":43.337168,"lon":5.391825,"is_reserved":false,"is_disabled":false,"rental_uris":{"android":"levelo://app?vid=5988af7b-63e0-49c7-b155-90b8d1308a25","ios":"levelo://app?vid=5988af7b-63e0-49c7-b155-90b8d1308a25"},"vehicle_type_id":"4","last_reported":1712502455,"current_range_meters":10000,"station_id":"ce4bhr92rcd13ifvqhsg","pricing_plan_id":"cebpf4jnsgd1na2vs0mg"},{"bike_id":"ec88872f-687e-48ab-82e3-f40396ae24c6","system_id":"levelo_inurba_marseille","lat":43.284793,"lon":5.384119,"is_reserved":false,"is_disabled":false,"rental_uris":{"android":"levelo://app?vid=ec88872f-687e-48ab-82e3-f40396ae24c6","ios":"levelo://app?vid=ec88872f-687e-48ab-82e3-f40396ae24c6"},"vehicle_type_id":"4","last_reported":1712502455,"current_range_meters":16800,"station_id":"ce4bh512rcd13ifvqe3g","pricing_plan_id":"cebpf4jnsgd1na2vs0mg"},{"bike_id":"8af76a93-a91c-43d2-a4f3-cd6646e0d9d5","system_id":"levelo_inurba_marseille","lat":43.284787,"lon":5.384116,"is_reserved":false,"is_disabled":false,"rental_uris":{"android":"levelo://app?vid=8af76a93-a91c-43d2-a4f3-cd6646e0d9d5","ios":"levelo://app?vid=8af76a93-a91c-43d2-a4f3-cd6646e0d9d5"},"vehicle_type_id":"4","last_reported":1712502455,"current_range_meters":14400,"station_id":"ce4bh512rcd13ifvqe3g","pricing_plan_id":"cebpf4jnsgd1na2vs0mg"},{"bike_id":"3486987e-bbd1-4f38-b65f-8260f5275226","system_id":"levelo_inurba_marseille","lat":43.297946,"lon":5.404063,"is_reserved":false,"is_disabled":false,"rental_uris":{"android":"levelo://app?vid=3486987e-bbd1-4f38-b65f-8260f5275226","ios":"levelo://app?vid=3486987e-bbd1-4f38-b65f-8260f5275226"},"vehicle_type_id":"4","last_reported":1712502455,"current_range_meters":2400,"station_id":"ce4bh112rcd13ifvqd90","pricing_plan_id":"cebpf4jnsgd1na2vs0mg"},{"bike_id":"2410ce8b-6b43-48e7-bb46-7cda8ad1fe03","system_id":"levelo_inurba_marseille","lat":43.29795,"lon":5.404086,"is_reserved":false,"is_disabled":false,"rental_uris":{"android":"levelo://app?vid=2410ce8b-6b43-48e7-bb46-7cda8ad1fe03","ios":"levelo://app?vid=2410ce8b-6b43-48e7-bb46-7cda8ad1fe03"},"vehicle_type_id":"4","last_reported":1712502455,"current_range_meters":13200,"station_id":"ce4bh112rcd13ifvqd90","pricing_plan_id":"cebpf4jnsgd1na2vs0mg"},{"bike_id":"d6d7fd7f-ea6f-4eb3-b4bc-4fb23ac520d0","system_id":"levelo_inurba_marseille","lat":43.29795,"lon":5.404086,"is_reserved":false,"is_disabled":false,"rental_uris":{"android":"levelo://app?vid=d6d7fd7f-ea6f-4eb3-b4bc-4fb23ac520d0","ios":"levelo://app?vid=d6d7fd7f-ea6f-4eb3-b4bc-4fb23ac520d0"},"vehicle_type_id":"4","last_reported":1712502455,"current_range_meters":0,"station_id":"ce4bh112rcd13ifvqd90","pricing_plan_id":"cebpf4jnsgd1na2vs0mg"},{"bike_id":"dcc25118-4975-4949-b71d-9e3495f3f242","system_id":"levelo_inurba_marseille","lat":43.29795,"lon":5.404086,"is_reserved":false,"is_disabled":false,"rental_uris":{"android":"levelo://app?vid=dcc25118-4975-4949-b71d-9e3495f3f242","ios":"levelo://app?vid=dcc25118-4975-4949-b71d-9e3495f3f242"},"vehicle_type_id":"4","last_reported":1712502455,"current_range_meters":12400,"station_id":"ce4bh112rcd13ifvqd90","pricing_plan_id":"cebpf4jnsgd1na2vs0mg"},{"bike_id":"ae843b54-67d3-4ded-b9fa-9b77c46a2827","system_id":"levelo_inurba_marseille","lat":43.32532,"lon":5.40571,"is_reserved":false,"is_disabled":false,"rental_uris":{"android":"levelo://app?vid=ae843b54-67d3-4ded-b9fa-9b77c46a2827","ios":"levelo://app?vid=ae843b54-67d3-4ded-b9fa-9b77c46a2827"},"vehicle_type_id":"4","last_reported":1712502455,"current_range_meters":2000,"station_id":"","pricing_plan_id":"cebpf4jnsgd1na2vs0mg"},{"bike_id":"22764b80-e3a1-4316-989e-eca0d4b0db40","system_id":"levelo_inurba_marseille","lat":43.283498,"lon":5.380948,"is_reserved":false,"is_disabled":false,"rental_uris":{"android":"levelo://app?vid=22764b80-e3a1-4316-989e-eca0d4b0db40","ios":"levelo://app?vid=22764b80-e3a1-4316-989e-eca0d4b0db40"},"vehicle_type_id":"4","last_reported":1712502455,"current_range_meters":6800,"station_id":"ce4bh412rcd13ifvqdr0","pricing_plan_id":"cebpf4jnsgd1na2vs0mg"},{"bike_id":"fb06e4f0-f647-4893-a656-f9199be7d001","system_id":"levelo_inurba_marseille","lat":43.283512,"lon":5.38106,"is_reserved":false,"is_disabled":false,"rental_uris":{"android":"levelo://app?vid=fb06e4f0-f647-4893-a656-f9199be7d001","ios":"levelo://app?vid=fb06e4f0-f647-4893-a656-f9199be7d001"},"vehicle_type_id":"4","last_reported":1712502455,"current_range_meters":0,"station_id":"ce4bh412rcd13ifvqdr0","pricing_plan_id":"cebpf4jnsgd1na2vs0mg"},{"bike_id":"6434f53f-1eb5-45a9-b9af-56d4efdd6fae","system_id":"levelo_inurba_marseille","lat":43.284182,"lon":5.34998,"is_reserved":false,"is_disabled":false,"rental_uris":{"android":"levelo://app?vid=6434f53f-1eb5-45a9-b9af-56d4efdd6fae","ios":"levelo://app?vid=6434f53f-1eb5-45a9-b9af-56d4efdd6fae"},"vehicle_type_id":"4","last_reported":1712502455,"current_range_meters":26400,"station_id":"ce4bhbh2rcd13ifvqeqg","pricing_plan_id":"cebpf4jnsgd1na2vs0mg"},{"bike_id":"511d956c-d48a-4f3b-ac14-4f174608034a","system_id":"levelo_inurba_marseille","lat":43.28422,"lon":5.34983,"is_reserved":false,"is_disabled":false,"rental_uris":{"android":"levelo://app?vid=511d956c-d48a-4f3b-ac14-4f174608034a","ios":"levelo://app?vid=511d956c-d48a-4f3b-ac14-4f174608034a"},"vehicle_type_id":"4","last_reported":1712502455,"current_range_meters":13200,"station_id":"","pricing_plan_id":"cebpf4jnsgd1na2vs0mg"},{"bike_id":"fa623477-b29c-411d-b820-8ca431856501","system_id":"levelo_inurba_marseille","lat":43.302784,"lon":5.377158,"is_reserved":false,"is_disabled":false,"rental_uris":{"android":"levelo://app?vid=fa623477-b29c-411d-b820-8ca431856501","ios":"levelo://app?vid=fa623477-b29c-411d-b820-8ca431856501"},"vehicle_type_id":"4","last_reported":1712502455,"current_range_meters":10400,"station_id":"ce4bguh2rcd13ifvqcj0","pricing_plan_id":"cebpf4jnsgd1na2vs0mg"},{"bike_id":"6cd85070-6466-455a-ac11-44238c89105f","system_id":"levelo_inurba_marseille","lat":43.289363,"lon":5.396322,"is_reserved":false,"is_disabled":false,"rental_uris":{"android":"levelo://app?vid=6cd85070-6466-455a-ac11-44238c89105f","ios":"levelo://app?vid=6cd85070-6466-455a-ac11-44238c89105f"},"vehicle_type_id":"4","last_reported":1712502455,"current_range_meters":4400,"station_id":"ce4bh3h2rcd13ifvqdn0","pricing_plan_id":"cebpf4jnsgd1na2vs0mg"},{"bike_id":"da28a86d-b8f9-4aa9-a754-2f90670044e3","system_id":"levelo_inurba_marseille","lat":43.289363,"lon":5.396322,"is_reserved":false,"is_disabled":false,"rental_uris":{"android":"levelo://app?vid=da28a86d-b8f9-4aa9-a754-2f90670044e3","ios":"levelo://app?vid=da28a86d-b8f9-4aa9-a754-2f90670044e3"},"vehicle_type_id":"4","last_reported":1712502455,"current_range_meters":6800,"station_id":"ce4bh3h2rcd13ifvqdn0","pricing_plan_id":"cebpf4jnsgd1na2vs0mg"},{"bike_id":"cf2eaed0-880d-4ba6-8248-60b7b01bd812","system_id":"levelo_inurba_marseille","lat":43.28277,"lon":5.3507,"is_reserved":false,"is_disabled":false,"rental_uris":{"android":"levelo://app?vid=cf2eaed0-880d-4ba6-8248-60b7b01bd812","ios":"levelo://app?vid=cf2eaed0-880d-4ba6-8248-60b7b01bd812"},"vehicle_type_id":"4","last_reported":1712502455,"current_range_meters":16400,"station_id":"ce4bhbp2rcd13ifvqerg","pricing_plan_id":"cebpf4jnsgd1na2vs0mg"},{"bike_id":"a625d140-b7a8-4adc-8f71-f6c7fb43726e","system_id":"levelo_inurba_marseille","lat":43.28269,"lon":5.35063,"is_reserved":false,"is_disabled":false,"rental_uris":{"android":"levelo://app?vid=a625d140-b7a8-4adc-8f71-f6c7fb43726e","ios":"levelo://app?vid=a625d140-b7a8-4adc-8f71-f6c7fb43726e"},"vehicle_type_id":"4","last_reported":1712502455,"current_range_meters":0,"station_id":"ce4bhbp2rcd13ifvqerg","pricing_plan_id":"cebpf4jnsgd1na2vs0mg"},{"bike_id":"a7244111-9b6c-424c-8c43-868b9b73a0c7","system_id":"levelo_inurba_marseille","lat":43.282744,"lon":5.350533,"is_reserved":false,"is_disabled":false,"rental_uris":{"android":"levelo://app?vid=a7244111-9b6c-424c-8c43-868b9b73a0c7","ios":"levelo://app?vid=a7244111-9b6c-424c-8c43-868b9b73a0c7"},"vehicle_type_id":"4","last_reported":1712502455,"current_range_meters":0,"station_id":"ce4bhbp2rcd13ifvqerg","pricing_plan_id":"cebpf4jnsgd1na2vs0mg"},{"bike_id":"d97be13d-d022-4a58-98a7-81ed884c7d92","system_id":"levelo_inurba_marseille","lat":43.28267,"lon":5.35063,"is_reserved":false,"is_disabled":false,"rental_uris":{"android":"levelo://app?vid=d97be13d-d022-4a58-98a7-81ed884c7d92","ios":"levelo://app?vid=d97be13d-d022-4a58-98a7-81ed884c7d92"},"vehicle_type_id":"4","last_reported":1712502455,"current_range_meters":0,"station_id":"ce4bhbp2rcd13ifvqerg","pricing_plan_id":"cebpf4jnsgd1na2vs0mg"},{"bike_id":"1cd8b16e-75f6-45e1-b7e6-00ab765e5f86","system_id":"levelo_inurba_marseille","lat":43.283502,"lon":5.386471,"is_reserved":false,"is_disabled":false,"rental_uris":{"android":"levelo://app?vid=1cd8b16e-75f6-45e1-b7e6-00ab765e5f86","ios":"levelo://app?vid=1cd8b16e-75f6-45e1-b7e6-00ab765e5f86"},"vehicle_type_id":"4","last_reported":1712502455,"current_range_meters":10000,"station_id":"ce4bh492rcd13ifvqdvg","pricing_plan_id":"cebpf4jnsgd1na2vs0mg"},{"bike_id":"47f7e75d-cd3e-434e-b220-8f12227e21f1","system_id":"levelo_inurba_marseille","lat":43.299707,"lon":5.384859,"is_reserved":false,"is_disabled":false,"rental_uris":{"android":"levelo://app?vid=47f7e75d-cd3e-434e-b220-8f12227e21f1","ios":"levelo://app?vid=47f7e75d-cd3e-434e-b220-8f12227e21f1"},"vehicle_type_id":"4","last_reported":1712502455,"current_range_meters":0,"station_id":"ce4bgj92rcd13ifvqbd0","pricing_plan_id":"cebpf4jnsgd1na2vs0mg"},{"bike_id":"1a8b24c7-a8ff-4a97-9b80-8a9081820cd9","system_id":"levelo_inurba_marseille","lat":43.283502,"lon":5.386471,"is_reserved":false,"is_disabled":false,"rental_uris":{"android":"levelo://app?vid=1a8b24c7-a8ff-4a97-9b80-8a9081820cd9","ios":"levelo://app?vid=1a8b24c7-a8ff-4a97-9b80-8a9081820cd9"},"vehicle_type_id":"4","last_reported":1712502455,"current_range_meters":9600,"station_id":"ce4bh492rcd13ifvqdvg","pricing_plan_id":"cebpf4jnsgd1na2vs0mg"},{"bike_id":"88ff4590-0e32-45de-be40-d4fdd8d00015","system_id":"levelo_inurba_marseille","lat":43.280382,"lon":5.369291,"is_reserved":false,"is_disabled":false,"rental_uris":{"android":"levelo://app?vid=88ff4590-0e32-45de-be40-d4fdd8d00015","ios":"levelo://app?vid=88ff4590-0e32-45de-be40-d4fdd8d00015"},"vehicle_type_id":"4","last_reported":1712502455,"current_range_meters":10400,"station_id":"ce4bha12rcd13ifvqef0","pricing_plan_id":"cebpf4jnsgd1na2vs0mg"},{"bike_id":"e5f05767-4c06-4c2d-abac-17ce211b2427","system_id":"levelo_inurba_marseille","lat":43.28039,"lon":5.369297,"is_reserved":false,"is_disabled":false,"rental_uris":{"android":"levelo://app?vid=e5f05767-4c06-4c2d-abac-17ce211b2427","ios":"levelo://app?vid=e5f05767-4c06-4c2d-abac-17ce211b2427"},"vehicle_type_id":"4","last_reported":1712502455,"current_range_meters":20400,"station_id":"ce4bha12rcd13ifvqef0","pricing_plan_id":"cebpf4jnsgd1na2vs0mg"},{"bike_id":"d0abcd7f-1fae-4126-ab77-ce7dd68186ba","system_id":"levelo_inurba_marseille","lat":43.280382,"lon":5.369291,"is_reserved":false,"is_disabled":false,"rental_uris":{"android":"levelo://app?vid=d0abcd7f-1fae-4126-ab77-ce7dd68186ba","ios":"levelo://app?vid=d0abcd7f-1fae-4126-ab77-ce7dd68186ba"},"vehicle_type_id":"4","last_reported":1712502455,"current_range_meters":10400,"station_id":"ce4bha12rcd13ifvqef0","pricing_plan_id":"cebpf4jnsgd1na2vs0mg"},{"bike_id":"ca7f7b2d-4c8d-4673-a48b-db68f58360bf","system_id":"levelo_inurba_marseille","lat":43.280382,"lon":5.369291,"is_reserved":false,"is_disabled":false,"rental_uris":{"android":"levelo://app?vid=ca7f7b2d-4c8d-4673-a48b-db68f58360bf","ios":"levelo://app?vid=ca7f7b2d-4c8d-4673-a48b-db68f58360bf"},"vehicle_type_id":"4","last_reported":1712502455,"current_range_meters":3600,"station_id":"ce4bha12rcd13ifvqef0","pricing_plan_id":"cebpf4jnsgd1na2vs0mg"},