{"last_updated":1743264601,"ttl":60,"version":"2.2","data":{"bikes":[{"bike_id":"c9a2e0ca-abc7-47b5-9dcc-6d763a4f2685","system_id":"levelo_inurba_marseille","lat":43.29421,"lon":5.38625,"is_reserved":false,"is_disabled":false,"rental_uris":{"android":"levelo://app?vid=c9a2e0ca-abc7-47b5-9dcc-6d763a4f2685","ios":"levelo://app?vid=c9a2e0ca-abc7-47b5-9dcc-6d763a4f2685"},"vehicle_type_id":"4","last_reported":1743264602,"current_range_meters":2800,"station_id":"ce4bh2h2rcd13ifvqdh0","pricing_plan_id":"cebpf4jnsgd1na2vs0mg"},{"bike_id":"11f97a38-bb1b-4400-bd84-98d505e13f1d","system_id":"levelo_inurba_marseille","lat":43.29534,"lon":5.3902,"is_reserved":false,"is_disabled":false,"rental_uris":{"android":"levelo://app?vid=11f97a38-bb1b-4400-bd84-98d505e13f1d","ios":"levelo://app?vid=11f97a38-bb1b-4400-bd84-98d505e13f1d"},"vehicle_type_id":"4","last_reported":1743264602,"current_range_meters":2800,"station_id":"ce4bh3p2rcd13ifvqdp0","pricing_plan_id":"cebpf4jnsgd1na2vs0mg"},{"bike_id":"e87389e7-bcd8-44b4-9aeb-0d255e8d3af2","system_id":"levelo_inurba_marseille","lat":43.28619,"lon":5.35102,"is_reserved":false,"is_disabled":false,"rental_uris":{"android":"levelo://app?vid=e87389e7-bcd8-44b4-9aeb-0d255e8d3af2","ios":"levelo://app?vid=e87389e7-bcd8-44b4-9aeb-0d255e8d3af2"},"vehicle_type_id":"4","last_reported":1743264602,"current_range_meters":2800,"station_id":"ce4bhch2rcd13ifvqeug","pricing_plan_id":"cebpf4jnsgd1na2vs0mg"},{"bike_id":"ee2588a0-8a3d-4c56-88e3-6823a90de92d","system_id":"levelo_inurba_marseille","lat":43.28105,"lon":5.3857,"is_reserved":false,"is_disabled":false,"rental_uris":{"android":"levelo://app?vid=ee2588a0-8a3d-4c56-88e3-6823a90de92d","ios":"levelo://app?vid=ee2588a0-8a3d-4c56-88e3-6823a90de92d"},"vehicle_type_id":"4","last_reported":1743264602,"current_range_meters":3600,"station_id":"","pricing_plan_id":"cebpf4jnsgd1na2vs0mg"},{"bike_id":"49634e13-1f3b-4380-8bdb-596a73b4502a","system_id":"levelo_inurba_marseille","lat":43.31189,"lon":5.38704,"is_reserved":false,"is_disabled":false,"rental_uris":{"android":"levelo://app?vid=49634e13-1f3b-4380-8bdb-596a73b4502a","ios":"levelo://app?vid=49634e13-1f3b-4380-8bdb-596a73b4502a"},"vehicle_type_id":"4","last_reported":1743264602,"current_range_meters":4000,"station_id":"ce4bgv12rcd13ifvqcp0","pricing_plan_id":"cebpf4jnsgd1na2vs0mg"},{"bike_id":"fd7e18e3-01a9-4166-a535-751f0bc4fdc5","system_id":"levelo_inurba_marseille","lat":43.30218,"lon":5.39462,"is_reserved":false,"is_disabled":false,"rental_uris":{"android":"levelo://app?vid=fd7e18e3-01a9-4166-a535-751f0bc4fdc5","ios":"levelo://app?vid=fd7e18e3-01a9-4166-a535-751f0bc4fdc5"},"vehicle_type_id":"4","last_reported":1743264602,"current_range_meters":4000,"station_id":"ce4bh0p2rcd13ifvqd70","pricing_plan_id":"cebpf4jnsgd1na2vs0mg"},{"bike_id":"bf486d29-80ae-43fc-9394-756ed3e2b73e","system_id":"levelo_inurba_marseille","lat":43.279952,"lon":5.400091,"is_reserved":false,"is_disabled":true,"rental_uris":{"android":"levelo://app?vid=bf486d29-80ae-43fc-9394-756ed3e2b73e","ios":"levelo://app?vid=bf486d29-80ae-43fc-9394-756ed3e2b73e"},"vehicle_type_id":"4","last_reported":1743264602,"current_range_meters":4400,"station_id":"ce4bho92rcd13ifvqh4g","pricing_plan_id":"cebpf4jnsgd1na2vs0mg"},{"bike_id":"7b6b89ff-16b8-4551-acfd-664a2e652594","system_id":"levelo_inurba_marseille","lat":43.27422,"lon":5.39407,"is_reserved":false,"is_disabled":false,"rental_uris":{"android":"levelo://app?vid=7b6b89ff-16b8-4551-acfd-664a2e652594","ios":"levelo://app?vid=7b6b89ff-16b8-4551-acfd-664a2e652594"},"vehicle_type_id":"4","last_reported":1743264602,"current_range_meters":4400,"station_id":"ce4bhdp2rcd13ifvqf20","pricing_plan_id":"cebpf4jnsgd1na2vs0mg"},{"bike_id":"a851b43f-e146-4877-a822-8dc586a628d7","system_id":"levelo_inurba_marseille","lat":43.30137,"lon":5.38787,"is_reserved":false,"is_disabled":false,"rental_uris":{"android":"levelo://app?vid=a851b43f-e146-4877-a822-8dc586a628d7","ios":"levelo://app?vid=a851b43f-e146-4877-a822-8dc586a628d7"},"vehicle_type_id":"4","last_reported":1743264602,"current_range_meters":4400,"station_id":"ce4bghh2rcd13ifvqb60","pricing_plan_id":"cebpf4jnsgd1na2vs0mg"},{"bike_id":"f815a428-2033-410f-ad73-9904b7ab66d7","system_id":"levelo_inurba_marseille","lat":43.29975,"lon":5.38485,"is_reserved":false,"is_disabled":false,"rental_uris":{"android":"levelo://app?vid=f815a428-2033-410f-ad73-9904b7ab66d7","ios":"levelo://app?vid=f815a428-2033-410f-ad73-9904b7ab66d7"},"vehicle_type_id":"4","last_reported":1743264602,"current_range_meters":4400,"station_id":"ce4bgj92rcd13ifvqbd0","pricing_plan_id":"cebpf4jnsgd1na2vs0mg"},{"bike_id":"1deeec2e-47a4-4f06-9316-1d0987be07b8","system_id":"levelo_inurba_marseille","lat":43.27505,"lon":5.42483,"is_reserved":false,"is_disabled":false,"rental_uris":{"android":"levelo://app?vid=1deeec2e-47a4-4f06-9316-1d0987be07b8","ios":"levelo://app?vid=1deeec2e-47a4-4f06-9316-1d0987be07b8"},"vehicle_type_id":"4","last_reported":1743264602,"current_range_meters":4400,"station_id":"ce4bhn92rcd13ifvqgrg","pricing_plan_id":"cebpf4jnsgd1na2vs0mg"},{"bike_id":"b00e8fbc-b61f-47c0-86b3-0ed961b31f4b","system_id":"levelo_inurba_marseille","lat":43.255806,"lon":5.382428,"is_reserved":false,"is_disabled":false,"rental_uris":{"android":"levelo://app?vid=b00e8fbc-b61f-47c0-86b3-0ed961b31f4b","ios":"levelo://app?vid=b00e8fbc-b61f-47c0-86b3-0ed961b31f4b"},"vehicle_type_id":"4","last_reported":1743264602,"current_range_meters":4400,"station_id":"ce4bhih2rcd13ifvqfs0","pricing_plan_id":"cebpf4jnsgd1na2vs0mg"},{"bike_id":"e267d028-dc78-4a7a-b6a0-f81438dfab7c","system_id":"levelo_inurba_marseille","lat":43.25004,"lon":5.38928,"is_reserved":false,"is_disabled":false,"rental_uris":{"android":"levelo://app?vid=e267d028-dc78-4a7a-b6a0-f81438dfab7c","ios":"levelo://app?vid=e267d028-dc78-4a7a-b6a0-f81438dfab7c"},"vehicle_type_id":"4","last_reported":1743264602,"current_range_meters":4800,"station_id":"ce4bhgp2rcd13ifvqfd0","pricing_plan_id":"cebpf4jnsgd1na2vs0mg"},{"bike_id":"365e4fad-eb69-4c98-9589-28f9f8bfa674","system_id":"levelo_inurba_marseille","lat":43.28716,"lon":5.37933,"is_reserved":false,"is_disabled":false,"rental_uris":{"android":"levelo://app?vid=365e4fad-eb69-4c98-9589-28f9f8bfa674","ios":"levelo://app?vid=365e4fad-eb69-4c98-9589-28f9f8bfa674"},"vehicle_type_id":"4","last_reported":1743264602,"current_range_meters":4800,"station_id":"ce4bh9p2rcd13ifvqec0","pricing_plan_id":"cebpf4jnsgd1na2vs0mg"},{"bike_id":"c84c8837-9279-4d96-b115-3358304845b7","system_id":"levelo_inurba_marseille","lat":43.26056,"lon":5.39399,"is_reserved":false,"is_disabled":false,"rental_uris":{"android":"levelo://app?vid=c84c8837-9279-4d96-b115-3358304845b7","ios":"levelo://app?vid=c84c8837-9279-4d96-b115-3358304845b7"},"vehicle_type_id":"4","last_reported":1743264602,"current_range_meters":4800,"station_id":"ce4bhh92rcd13ifvqfj0","pricing_plan_id":"cebpf4jnsgd1na2vs0mg"},{"bike_id":"7b494a1e-9a12-4235-bb3d-44c11b4d0417","system_id":"levelo_inurba_marseille","lat":43.28088,"lon":5.39649,"is_reserved":false,"is_disabled":false,"rental_uris":{"android":"levelo://app?vid=7b494a1e-9a12-4235-bb3d-44c11b4d0417","ios":"levelo://app?vid=7b494a1e-9a12-4235-bb3d-44c11b4d0417"},"vehicle_type_id":"4","last_reported":1743264602,"current_range_meters":4800,"station_id":"ce4bho12rcd13ifvqh2g","pricing_plan_id":"cebpf4jnsgd1na2vs0mg"},{"bike_id":"0fd0c9b1-f61d-4363-8a81-43d39009a98c","system_id":"levelo_inurba_marseille","lat":43.291,"lon":5.38139,"is_reserved":false,"is_disabled":false,"rental_uris":{"android":"levelo://app?vid=0fd0c9b1-f61d-4363-8a81-43d39009a98c","ios":"levelo://app?vid=0fd0c9b1-f61d-4363-8a81-43d39009a98c"},"vehicle_type_id":"4","last_reported":1743264602,"current_range_meters":4800,"station_id":"ce4bh512rcd13ifvqe2g","pricing_plan_id":"cebpf4jnsgd1na2vs0mg"},{"bike_id":"372077d7-6912-4560-8e62-7c1226cc8258","system_id":"levelo_inurba_marseille","lat":43.27998,"lon":5.40017,"is_reserved":false,"is_disabled":false,"rental_uris":{"android":"levelo://app?vid=372077d7-6912-4560-8e62-7c1226cc8258","ios":"levelo://app?vid=372077d7-6912-4560-8e62-7c1226cc8258"},"vehicle_type_id":"4","last_reported":1743264602,"current_range_meters":5600,"station_id":"ce4bho92rcd13ifvqh4g","pricing_plan_id":"cebpf4jnsgd1na2vs0mg"},{"bike_id":"4a42ca1e-41e4-4233-a4bb-a180f04564d6","system_id":"levelo_inurba_marseille","lat":43.29171,"lon":5.37153,"is_reserved":false,"is_disabled":false,"rental_uris":{"android":"levelo://app?vid=4a42ca1e-41e4-4233-a4bb-a180f04564d6","ios":"levelo://app?vid=4a42ca1e-41e4-4233-a4bb-a180f04564d6"},"vehicle_type_id":"4","last_reported":1743264602,"current_range_meters":5600,"station_id":"ce4bha92rcd13ifvqeh0","pricing_plan_id":"cebpf4jnsgd1na2vs0mg"},{"bike_id":"ba93d914-1843-4837-8496-1987f7143e56","system_id":"levelo_inurba_marseille","lat":43.28612,"lon":5.37064,"is_reserved":false,"is_disabled":false,"rental_uris":{"android":"levelo://app?vid=ba93d914-1843-4837-8496-1987f7143e56","ios":"levelo://app?vid=ba93d914-1843-4837-8496-1987f7143e56"},"vehicle_type_id":"4","last_reported":1743264602,"current_range_meters":5600,"station_id":"ce4bht12rcd13ifvqi60","pricing_plan_id":"cebpf4jnsgd1na2vs0mg"},{"bike_id":"9227b771-2173-439e-81eb-91928600ecb6","system_id":"levelo_inurba_marseille","lat":43.2669,"lon":5.38264,"is_reserved":false,"is_disabled":false,"rental_uris":{"android":"levelo://app?vid=9227b771-2173-439e-81eb-91928600ecb6","ios":"levelo://app?vid=9227b771-2173-439e-81eb-91928600ecb6"},"vehicle_type_id":"4","last_reported":1743264602,"current_range_meters":5600,"station_id":"ce4bhg92rcd13ifvqf90","pricing_plan_id":"cebpf4jnsgd1na2vs0mg"},{"bike_id":"5786a04d-382a-4014-8379-334fa2abf913","system_id":"levelo_inurba_marseille","lat":43.298674,"lon":5.397356,"is_reserved":false,"is_disabled":false,"rental_uris":{"android":"levelo://app?vid=5786a04d-382a-4014-8379-334fa2abf913","ios":"levelo://app?vid=5786a04d-382a-4014-8379-334fa2abf913"},"vehicle_type_id":"4","last_reported":1743264602,"current_range_meters":5600,"station_id":"ce4bh0h2rcd13ifvqd50","pricing_plan_id":"cebpf4jnsgd1na2vs0mg"},{"bike_id":"d7c9e49f-9da5-4b2e-bae8-8dbfb05890a7","system_id":"levelo_inurba_marseille","lat":43.33366,"lon":5.40163,"is_reserved":false,"is_disabled":false,"rental_uris":{"android":"levelo://app?vid=d7c9e49f-9da5-4b2e-bae8-8dbfb05890a7","ios":"levelo://app?vid=d7c9e49f-9da5-4b2e-bae8-8dbfb05890a7"},"vehicle_type_id":"4","last_reported":1743264602,"current_range_meters":6000,"station_id":"","pricing_plan_id":"cebpf4jnsgd1na2vs0mg"},{"bike_id":"861ae205-c318-4688-ac53-947993e1b65f","system_id":"levelo_inurba_marseille","lat":43.24167,"lon":5.36389,"is_reserved":false,"is_disabled":false,"rental_uris":{"android":"levelo://app?vid=861ae205-c318-4688-ac53-947993e1b65f","ios":"levelo://app?vid=861ae205-c318-4688-ac53-947993e1b65f"},"vehicle_type_id":"4","last_reported":1743264602,"current_range_meters":6000,"station_id":"cpo36qri1sfpv3e86is0","pricing_plan_id":"cebpf4jnsgd1na2vs0mg"},{"bike_id":"b01eadf9-6c12-4938-82bd-1012a3ee7698","system_id":"levelo_inurba_marseille","lat":43.32053,"lon":5.41546,"is_reserved":false,"is_disabled":false,"rental_uris":{"android":"levelo://app?vid=b01eadf9-6c12-4938-82bd-1012a3ee7698","ios":"levelo://app?vid=b01eadf9-6c12-4938-82bd-1012a3ee7698"},"vehicle_type_id":"4","last_reported":1743264602,"current_range_meters":6000,"station_id":"ce4bhq92rcd13ifvqhkg","pricing_plan_id":"cebpf4jnsgd1na2vs0mg"},{"bike_id":"c2818494-39a8-427b-aa77-d7800fde363a","system_id":"levelo_inurba_marseille","lat":43.26245,"lon":5.3794,"is_reserved":false,"is_disabled":false,"rental_uris":{"android":"levelo://app?vid=c2818494-39a8-427b-aa77-d7800fde363a","ios":"levelo://app?vid=c2818494-39a8-427b-aa77-d7800fde363a"},"vehicle_type_id":"4","last_reported":1743264602,"current_range_meters":6000,"station_id":"ce4bhjp2rcd13ifvqg90","pricing_plan_id":"cebpf4jnsgd1na2vs0mg"},{"bike_id":"89c40fc6-7922-4fd4-8791-9df737df44fb","system_id":"levelo_inurba_marseille","lat":43.29885,"lon":5.38901,"is_reserved":false,"is_disabled":false,"rental_uris":{"android":"levelo://app?vid=89c40fc6-7922-4fd4-8791-9df737df44fb","ios":"levelo://app?vid=89c40fc6-7922-4fd4-8791-9df737df44fb"},"vehicle_type_id":"4","last_reported":1743264602,"current_range_meters":6000,"station_id":"ce4bh392rcd13ifvqdl0","pricing_plan_id":"cebpf4jnsgd1na2vs0mg"},{"bike_id":"51a74e4b-070c-4f58-b303-370ead968a8a","system_id":"levelo_inurba_marseille","lat":43.29791,"lon":5.38099,"is_reserved":false,"is_disabled":false,"rental_uris":{"android":"levelo://app?vid=51a74e4b-070c-4f58-b303-370ead968a8a","ios":"levelo://app?vid=51a74e4b-070c-4f58-b303-370ead968a8a"},"vehicle_type_id":"4","last_reported":1743264602,"current_range_meters":5600,"station_id":"ce4bgip2rcd13ifvqbb0","pricing_plan_id":"cebpf4jnsgd1na2vs0mg"},{"bike_id":"0e5c03fa-8ae7-4ecd-93a4-4ed5ba3a9864","system_id":"levelo_inurba_marseille","lat":43.2985,"lon":5.36284,"is_reserved":false,"is_disabled":false,"rental_uris":{"android":"levelo://app?vid=0e5c03fa-8ae7-4ecd-93a4-4ed5ba3a9864","ios":"levelo://app?vid=0e5c03fa-8ae7-4ecd-93a4-4ed5ba3a9864"},"vehicle_type_id":"4","last_reported":1743264602,"current_range_meters":6000,"station_id":"ce4bgpp2rcd13ifvqc3g","pricing_plan_id":"cebpf4jnsgd1na2vs0mg"},{"bike_id":"6e155771-cc37-4467-9707-2d719d476697","system_id":"levelo_inurba_marseille","lat":43.274819,"lon":5.360753,"is_reserved":false,"is_disabled":false,"rental_uris":{"android":"levelo://app?vid=6e155771-cc37-4467-9707-2d719d476697","ios":"levelo://app?vid=6e155771-cc37-4467-9707-2d719d476697"},"vehicle_type_id":"4","last_reported":1743264602,"current_range_meters":6400,"station_id":"ce4bhbh2rcd13ifvqeo0","pricing_plan_id":"cebpf4jnsgd1na2vs0mg"},{"bike_id":"971c92cb-66df-438d-9a85-e63af939e6ff","system_id":"levelo_inurba_marseille","lat":43.28635,"lon":5.35117,"is_reserved":false,"is_disabled":true,"rental_uris":{"android":"levelo://app?vid=971c92cb-66df-438d-9a85-e63af939e6ff","ios":"levelo://app?vid=971c92cb-66df-438d-9a85-e63af939e6ff"},"vehicle_type_id":"4","last_reported":1743264602,"current_range_meters":6400,"station_id":"ce4bhch2rcd13ifvqeug","pricing_plan_id":"cebpf4jnsgd1na2vs0mg"},{"bike_id":"9e6169ef-5f71-4a72-b3c2-effde3fb2783","system_id":"levelo_inurba_marseille","lat":43.30422,"lon":5.41276,"is_reserved":false,"is_disabled":false,"rental_uris":{"android":"levelo://app?vid=9e6169ef-5f71-4a72-b3c2-effde3fb2783","ios":"levelo://app?vid=9e6169ef-5f71-4a72-b3c2-effde3fb2783"},"vehicle_type_id":"4","last_reported":1743264602,"current_range_meters":6400,"station_id":"ce4bhop2rcd13ifvqh8g","pricing_plan_id":"cebpf4jnsgd1na2vs0mg"},{"bike_id":"c935aede-f69f-442e-99d1-f28d5fe975ab","system_id":"levelo_inurba_marseille","lat":43.28274,"lon":5.35056,"is_reserved":false,"is_disabled":false,"rental_uris":{"android":"levelo://app?vid=c935aede-f69f-442e-99d1-f28d5fe975ab","ios":"levelo://app?vid=c935aede-f69f-442e-99d1-f28d5fe975ab"},"vehicle_type_id":"4","last_reported":1743264602,"current_range_meters":6400,"station_id":"ce4bhbp2rcd13ifvqerg","pricing_plan_id":"cebpf4jnsgd1na2vs0mg"},{"bike_id":"87ce5af9-2c3f-4b34-8106-a0bd98c8708b","system_id":"levelo_inurba_marseille","lat":43.28002,"lon":5.40023,"is_reserved":false,"is_disabled":false,"rental_uris":{"android":"levelo://app?vid=87ce5af9-2c3f-4b34-8106-a0bd98c8708b","ios":"levelo://app?vid=87ce5af9-2c3f-4b34-8106-a0bd98c8708b"},"vehicle_type_id":"4","last_reported":1743264602,"current_range_meters":6400,"station_id":"ce4bho92rcd13ifvqh4g","pricing_plan_id":"cebpf4jnsgd1na2vs0mg"},{"bike_id":"1cb71566-9373-4677-9ea4-1abde529b017","system_id":"levelo_inurba_marseille","lat":43.31503,"lon":5.37302,"is_reserved":false,"is_disabled":false,"rental_uris":{"android":"levelo://app?vid=1cb71566-9373-4677-9ea4-1abde529b017","ios":"levelo://app?vid=1cb71566-9373-4677-9ea4-1abde529b017"},"vehicle_type_id":"4","last_reported":1743264602,"current_range_meters":6400,"station_id":"ce4bgt12rcd13ifvqcd0","pricing_plan_id":"cebpf4jnsgd1na2vs0mg"},{"bike_id":"c6b682a7-e903-4363-967f-d69957e8f7ed","system_id":"levelo_inurba_marseille","lat":43.2862,"lon":5.35112,"is_reserved":false,"is_disabled":false,"rental_uris":{"android":"levelo://app?vid=c6b682a7-e903-4363-967f-d69957e8f7ed","ios":"levelo://app?vid=c6b682a7-e903-4363-967f-d69957e8f7ed"},"vehicle_type_id":"4","last_reported":1743264602,"current_range_meters":6400,"station_id":"ce4bhch2rcd13ifvqeug","pricing_plan_id":"cebpf4jnsgd1na2vs0mg"},{"bike_id":"9d413904-69b8-4c60-9ddc-e0489e565f70","system_id":"levelo_inurba_marseille","lat":43.28963,"lon":5.36417,"is_reserved":false,"is_disabled":false,"rental_uris":{"android":"levelo://app?vid=9d413904-69b8-4c60-9ddc-e0489e565f70","ios":"levelo://app?vid=9d413904-69b8-4c60-9ddc-e0489e565f70"},"vehicle_type_id":"4","last_reported":1743264602,"current_range_meters":6400,"station_id":"ce4bhc92rcd13ifvqetg","pricing_plan_id":"cebpf4jnsgd1na2vs0mg"},{"bike_id":"f64412ac-69ad-445d-95d0-6ed027bf2d53","system_id":"levelo_inurba_marseille","lat":43.22917,"lon":5.353751,"is_reserved":false,"is_disabled":false,"rental_uris":{"android":"levelo://app?vid=f64412ac-69ad-445d-95d0-6ed027bf2d53","ios":"levelo://app?vid=f64412ac-69ad-445d-95d0-6ed027bf2d53"},"vehicle_type_id":"4","last_reported":1743264602,"current_range_meters":6400,"station_id":"","pricing_plan_id":"cebpf4jnsgd1na2vs0mg"},{"bike_id":"90df0f14-f996-423e-b605-53c2c708242e","system_id":"levelo_inurba_marseille","lat":43.31676,"lon":5.405,"is_reserved":false,"is_disabled":false,"rental_uris":{"android":"levelo://app?vid=90df0f14-f996-423e-b605-53c2c708242e","ios":"levelo://app?vid=90df0f14-f996-423e-b605-53c2c708242e"},"vehicle_type_id":"4","last_reported":1743264602,"current_range_meters":6800,"station_id":"ce4bh012rcd13ifvqd00","pricing_plan_id":"cebpf4jnsgd1na2vs0mg"},{"bike_id":"7e3f21a9-a66f-452c-a43c-3918e8061997","system_id":"levelo_inurba_marseille","lat":43.32106,"lon":5.36792,"is_reserved":false,"is_disabled":false,"rental_uris":{"android":"levelo://app?vid=7e3f21a9-a66f-452c-a43c-3918e8061997","ios":"levelo://app?vid=7e3f21a9-a66f-452c-a43c-3918e8061997"},"vehicle_type_id":"4","last_reported":1743264602,"current_range_meters":6800,"station_id":"ce4bhrh2rcd13ifvqhug","pricing_plan_id":"cebpf4jnsgd1na2vs0mg"},{"bike_id":"43d3f610-2ea9-4eda-a4c8-e3f9706bb87c","system_id":"levelo_inurba_marseille","lat":43.30357,"lon":5.37378,"is_reserved":false,"is_disabled":false,"rental_uris":{"android":"levelo://app?vid=43d3f610-2ea9-4eda-a4c8-e3f9706bb87c","ios":"levelo://app?vid=43d3f610-2ea9-4eda-a4c8-e3f9706bb87c"},"vehicle_type_id":"4","last_reported":1743264602,"current_range_meters":6800,"station_id":"","pricing_plan_id":"cebpf4jnsgd1na2vs0mg"},{"bike_id":"7f61271c-cad5-4e9c-981c-a29bd8d4eba1","system_id":"levelo_inurba_marseille","lat":43.2968,"lon":5.37298,"is_reserved":false,"is_disabled":false,"rental_uris":{"android":"levelo://app?vid=7f61271c-cad5-4e9c-981c-a29bd8d4eba1","ios":"levelo://app?vid=7f61271c-cad5-4e9c-981c-a29bd8d4eba1"},"vehicle_type_id":"4","last_reported":1743264602,"current_range_meters":7200,"station_id":"ce4bgk12rcd13ifvqbj0","pricing_plan_id":"cebpf4jnsgd1na2vs0mg"},{"bike_id":"610b7fcc-e179-47a1-a5be-d116e097b0b0","system_id":"levelo_inurba_marseille","lat":43.29419,"lon":5.38625,"is_reserved":false,"is_disabled":false,"rental_uris":{"android":"levelo://app?vid=610b7fcc-e179-47a1-a5be-d116e097b0b0","ios":"levelo://app?vid=610b7fcc-e179-47a1-a5be-d116e097b0b0"},"vehicle_type_id":"4","last_reported":1743264602,"current_range_meters":7200,"station_id":"ce4bh2h2rcd13ifvqdh0","pricing_plan_id":"cebpf4jnsgd1na2vs0mg"},{"bike_id":"c76b0198-9b9f-40e7-830d-b0be7cf92d98","system_id":"levelo_inurba_marseille","lat":43.29049,"lon":5.37599,"is_reserved":false,"is_disabled":false,"rental_uris":{"android":"levelo://app?vid=c76b0198-9b9f-40e7-830d-b0be7cf92d98","ios":"levelo://app?vid=c76b0198-9b9f-40e7-830d-b0be7cf92d98"},"vehicle_type_id":"4","last_reported":1743264602,"current_range_meters":7200,"station_id":"ce4bh692rcd13ifvqe90","pricing_plan_id":"cebpf4jnsgd1na2vs0mg"},{"bike_id":"de3f84d3-2361-4ffc-8f41-feef496d5ef5","system_id":"levelo_inurba_marseille","lat":43.32539,"lon":5.41428,"is_reserved":false,"is_disabled":false,"rental_uris":{"android":"levelo://app?vid=de3f84d3-2361-4ffc-8f41-feef496d5ef5","ios":"levelo://app?vid=de3f84d3-2361-4ffc-8f41-feef496d5ef5"},"vehicle_type_id":"4","last_reported":1743264602,"current_range_meters":7200,"station_id":"ce4bhq12rcd13ifvqhhg","pricing_plan_id":"cebpf4jnsgd1na2vs0mg"},{"bike_id":"74eeac28-e007-4178-9413-adcf3bac8e46","system_id":"levelo_inurba_marseille","lat":43.2306,"lon":5.35486,"is_reserved":false,"is_disabled":false,"rental_uris":{"android":"levelo://app?vid=74eeac28-e007-4178-9413-adcf3bac8e46","ios":"levelo://app?vid=74eeac28-e007-4178-9413-adcf3bac8e46"},"vehicle_type_id":"4","last_reported":1743264602,"current_range_meters":7200,"station_id":"cpo3342slgdg3j2ifvpg","pricing_plan_id":"cebpf4jnsgd1na2vs0mg"},{"bike_id":"cd2dc4de-70a1-432b-8900-303cf935d2f7","system_id":"levelo_inurba_marseille","lat":43.24789,"lon":5.37463,"is_reserved":false,"is_disabled":false,"rental_uris":{"android":"levelo://app?vid=cd2dc4de-70a1-432b-8900-303cf935d2f7","ios":"levelo://app?vid=cd2dc4de-70a1-432b-8900-303cf935d2f7"},"vehicle_type_id":"4","last_reported":1743264602,"current_range_meters":7200,"station_id":"ce4bhgh2rcd13ifvqfb0","pricing_plan_id":"cebpf4jnsgd1na2vs0mg"},{"bike_id":"f47eba55-a588-4033-a3dc-992c836c995d","system_id":"levelo_inurba_marseille","lat":43.31685,"lon":5.40507,"is_reserved":false,"is_disabled":false,"rental_uris":{"android":"levelo://app?vid=f47eba55-a588-4033-a3dc-992c836c995d","ios":"levelo://app?vid=f47eba55-a588-4033-a3dc-992c836c995d"},"vehicle_type_id":"4","last_reported":1743264602,"current_range_meters":8000,"station_id":"ce4bh012rcd13ifvqd00","pricing_plan_id":"cebpf4jnsgd1na2vs0mg"},{"bike_id":"8838d348-daef-491a-a59e-ab5278c6ff5a","system_id":"levelo_inurba_marseille","lat":43.3061,"lon":5.37215,"is_reserved":false,"is_disabled":false,"rental_uris":{"android":"levelo://app?vid=8838d348-daef-491a-a59e-ab5278c6ff5a","ios":"levelo://app?vid=8838d348-daef-491a-a59e-ab5278c6ff5a"},"vehicle_type_id":"4","last_reported":1743264602,"current_range_meters":8000,"station_id":"ce4bgqh2rcd13ifvqc4g","pricing_plan_id":"cebpf4jnsgd1na2vs0mg"},{"bike_id":"6082a6d8-29f3-4441-bd82-d0f95ead75d7","system_id":"levelo_inurba_marseille","lat":43.23191,"lon":5.35567,"is_reserved":false,"is_disabled":false,"rental_uris":{"android":"levelo://app?vid=6082a6d8-29f3-4441-bd82-d0f95ead75d7","ios":"levelo://app?vid=6082a6d8-29f3-4441-bd82-d0f95ead75d7"},"vehicle_type_id":"4","last_reported":1743264602,"current_range_meters":8000,"station_id":"ce4bhu92rcd13ifvqi70","pricing_plan_id":"cebpf4jnsgd1na2vs0mg"},{"bike_id":"b7f0c840-139b-46ad-9a86-63e6dce1485d","system_id":"levelo_inurba_marseille","lat":43.28465,"lon":5.35888,"is_reserved":false,"is_disabled":false,"rental_uris":{"android":"levelo://app?vid=b7f0c840-139b-46ad-9a86-63e6dce1485d","ios":"levelo://app?vid=b7f0c840-139b-46ad-9a86-63e6dce1485d"},"vehicle_type_id":"4","last_reported":1743264602,"current_range_meters":8000,"station_id":"ce4bhah2rcd13ifvqei0","pricing_plan_id":"cebpf4jnsgd1na2vs0mg"},{"bike_id":"bb238aab-ecce-4d51-ba90-677f93725c94","system_id":"levelo_inurba_marseille","lat":43.34146,"lon":5.40915,"is_reserved":false,"is_disabled":false,"rental_uris":{"android":"levelo://app?vid=bb238aab-ecce-4d51-ba90-677f93725c94","ios":"levelo://app?vid=bb238aab-ecce-4d51-ba90-677f93725c94"},"vehicle_type_id":"4","last_reported":1743264602,"current_range_meters":8000,"station_id":"ce4bhqh2rcd13ifvqhlg","pricing_plan_id":"cebpf4jnsgd1na2vs0mg"},{"bike_id":"d5ffff0a-47db-470d-a1ce-99a37bfcd090","system_id":"levelo_inurba_marseille","lat":43.28635,"lon":5.35086,"is_reserved":false,"is_disabled":false,"rental_uris":{"android":"levelo://app?vid=d5ffff0a-47db-470d-a1ce-99a37bfcd090","ios":"levelo://app?vid=d5ffff0a-47db-470d-a1ce-99a37bfcd090"},"vehicle_type_id":"4","last_reported":1743264602,"current_range_meters":8000,"station_id":"ce4bhch2rcd13ifvqeug","pricing_plan_id":"cebpf4jnsgd1na2vs0mg"},{"bike_id":"0558bc66-2825-46b4-8c35-dfa19eca05b8","system_id":"levelo_inurba_marseille","lat":43.24402,"lon":5.37075,"is_reserved":false,"is_disabled":false,"rental_uris":{"android":"levelo://app?vid=0558bc66-2825-46b4-8c35-dfa19eca05b8","ios":"levelo://app?vid=0558bc66-2825-46b4-8c35-dfa19eca05b8"},"vehicle_type_id":"4","last_reported":1743264602,"current_range_meters":8000,"station_id":"ce4bhhh2rcd13ifvqfk0","pricing_plan_id":"cebpf4jnsgd1na2vs0mg"},{"bike_id":"7cb45fac-62b5-4ead-be9c-e53660ce9dfb","system_id":"levelo_inurba_marseille","lat":43.28717,"lon":5.3999,"is_reserved":false,"is_disabled":false,"rental_uris":{"android":"levelo://app?vid=7cb45fac-62b5-4ead-be9c-e53660ce9dfb","ios":"levelo://app?vid=7cb45fac-62b5-4ead-be9c-e53660ce9dfb"},"vehicle_type_id":"4","last_reported":1743264602,"current_range_meters":8400,"station_id":"ce4bho92rcd13ifvqh3g","pricing_plan_id":"cebpf4jnsgd1na2vs0mg"},{"bike_id":"983c4c9f-ee1a-4d13-8ce7-bfd36c479f46","system_id":"levelo_inurba_marseille","lat":43.24159,"lon":5.36382,"is_reserved":false,"is_disabled":false,"rental_uris":{"android":"levelo://app?vid=983c4c9f-ee1a-4d13-8ce7-bfd36c479f46","ios":"levelo://app?vid=983c4c9f-ee1a-4d13-8ce7-bfd36c479f46"},"vehicle_type_id":"4","last_reported":1743264602,"current_range_meters":8400,"station_id":"cpo36qri1sfpv3e86is0","pricing_plan_id":"cebpf4jnsgd1na2vs0mg"},{"bike_id":"1b4e5c48-f3b8-4ca5-9244-3815d3918bd4","system_id":"levelo_inurba_marseille","lat":43.32371,"lon":5.38887,"is_reserved":false,"is_disabled":false,"rental_uris":{"android":"levelo://app?vid=1b4e5c48-f3b8-4ca5-9244-3815d3918bd4","ios":"levelo://app?vid=1b4e5c48-f3b8-4ca5-9244-3815d3918bd4"},"vehicle_type_id":"4","last_reported":1743264602,"current_range_meters":8400,"station_id":"ce4bhqp2rcd13ifvqhog","pricing_plan_id":"cebpf4jnsgd1na2vs0mg"},{"bike_id":"4249c3fc-8539-458d-9b49-13f9910f3a95","system_id":"levelo_inurba_marseille","lat":43.29576,"lon":5.37505,"is_reserved":false,"is_disabled":false,"rental_uris":{"android":"levelo://app?vid=4249c3fc-8539-458d-9b49-13f9910f3a95","ios":"levelo://app?vid=4249c3fc-8539-458d-9b49-13f9910f3a95"},"vehicle_type_id":"4","last_reported":1743264602,"current_range_meters":8400,"station_id":"ce4bgh92rcd13ifvqb50","pricing_plan_id":"cebpf4jnsgd1na2vs0mg"},{"bike_id":"20494d74-e8ca-4706-92f9-65cb027c934b","system_id":"levelo_inurba_marseille","lat":43.2847,"lon":5.35891,"is_reserved":false,"is_disabled":false,"rental_uris":{"android":"levelo://app?vid=20494d74-e8ca-4706-92f9-65cb027c934b","ios":"levelo://app?vid=20494d74-e8ca-4706-92f9-65cb027c934b"},"vehicle_type_id":"4","last_reported":1743264602,"current_range_meters":8400,"station_id":"ce4bhah2rcd13ifvqei0","pricing_plan_id":"cebpf4jnsgd1na2vs0mg"},{"bike_id":"d110ea9c-afe8-47f1-b008-e66bc6e44a55","system_id":"levelo_inurba_marseille","lat":43.28415,"lon":5.3499,"is_reserved":false,"is_disabled":false,"rental_uris":{"android":"levelo://app?vid=d110ea9c-afe8-47f1-b008-e66bc6e44a55","ios":"levelo://app?vid=d110ea9c-afe8-47f1-b008-e66bc6e44a55"},"vehicle_type_id":"4","last_reported":1743264602,"current_range_meters":8400,"station_id":"ce4bhbh2rcd13ifvqepg","pricing_plan_id":"cebpf4jnsgd1na2vs0mg"},{"bike_id":"3b9b6626-eefd-413e-bf11-33a63b73e56e","system_id":"levelo_inurba_marseille","lat":43.29043,"lon":5.37577,"is_reserved":false,"is_disabled":false,"rental_uris":{"android":"levelo://app?vid=3b9b6626-eefd-413e-bf11-33a63b73e56e","ios":"levelo://app?vid=3b9b6626-eefd-413e-bf11-33a63b73e56e"},"vehicle_type_id":"4","last_reported":1743264602,"current_range_meters":8400,"station_id":"ce4bh692rcd13ifvqe90","pricing_plan_id":"cebpf4jnsgd1na2vs0mg"},{"bike_id":"3a2e35ff-67f7-42a4-b09b-1fe3ef6e95d8","system_id":"levelo_inurba_marseille","lat":43.22948,"lon":5.35388,"is_reserved":false,"is_disabled":false,"rental_uris":{"android":"levelo://app?vid=3a2e35ff-67f7-42a4-b09b-1fe3ef6e95d8","ios":"levelo://app?vid=3a2e35ff-67f7-42a4-b09b-1fe3ef6e95d8"},"vehicle_type_id":"4","last_reported":1743264602,"current_range_meters":8400,"station_id":"cpo3532slgdg3j2ikp40","pricing_plan_id":"cebpf4jnsgd1na2vs0mg"},{"bike_id":"ff7a5e47-2e04-42d5-9544-97f3e7b7ebbe","system_id":"levelo_inurba_marseille","lat":43.28856,"lon":5.35859,"is_reserved":false,"is_disabled":false,"rental_uris":{"android":"levelo://app?vid=ff7a5e47-2e04-42d5-9544-97f3e7b7ebbe","ios":"levelo://app?vid=ff7a5e47-2e04-42d5-9544-97f3e7b7ebbe"},"vehicle_type_id":"4","last_reported":1743264602,"current_range_meters":8400,"station_id":"ce4bhb12rcd13ifvqem0","pricing_plan_id":"cebpf4jnsgd1na2vs0mg"},{"bike_id":"b5ace6c6-32e3-486d-9744-efb1ce0dfa9d","system_id":"levelo_inurba_marseille","lat":43.28907,"lon":5.37156,"is_reserved":false,"is_disabled":true,"rental_uris":{"android":"levelo://app?vid=b5ace6c6-32e3-486d-9744-efb1ce0dfa9d","ios":"levelo://app?vid=b5ace6c6-32e3-486d-9744-efb1ce0dfa9d"},"vehicle_type_id":"4","last_reported":1743264602,"current_range_meters":8400,"station_id":"","pricing_plan_id":"cebpf4jnsgd1na2vs0mg"},{"bike_id":"c8ba5838-dfe0-4188-bf83-e110456d7940","system_id":"levelo_inurba_marseille","lat":43.25584,"lon":5.38227,"is_reserved":false,"is_disabled":false,"rental_uris":{"android":"levelo://app?vid=c8ba5838-dfe0-4188-bf83-e110456d7940","ios":"levelo://app?vid=c8ba5838-dfe0-4188-bf83-e110456d7940"},"vehicle_type_id":"4","last_reported":1743264602,"current_range_meters":8400,"station_id":"ce4bhih2rcd13ifvqfs0","pricing_plan_id":"cebpf4jnsgd1na2vs0mg"},{"bike_id":"e4614adf-59ca-49c9-9f29-fb2629aacd37","system_id":"levelo_inurba_marseille","lat":43.28616,"lon":5.35106,"is_reserved":false,"is_disabled":false,"rental_uris":{"android":"levelo://app?vid=e4614adf-59ca-49c9-9f29-fb2629aacd37","ios":"levelo://app?vid=e4614adf-59ca-49c9-9f29-fb2629aacd37"},"vehicle_type_id":"4","last_reported":1743264602,"current_range_meters":8400,"station_id":"ce4bhch2rcd13ifvqeug","pricing_plan_id":"cebpf4jnsgd1na2vs0mg"},{"bike_id":"86402da5-f9ef-43b6-a281-06ce7c4c3160","system_id":"levelo_inurba_marseille","lat":43.28631,"lon":5.35094,"is_reserved":false,"is_disabled":false,"rental_uris":{"android":"levelo://app?vid=86402da5-f9ef-43b6-a281-06ce7c4c3160","ios":"levelo://app?vid=86402da5-f9ef-43b6-a281-06ce7c4c3160"},"vehicle_type_id":"4","last_reported":1743264602,"current_range_meters":8800,"station_id":"ce4bhch2rcd13ifvqeug","pricing_plan_id":"cebpf4jnsgd1na2vs0mg"},{"bike_id":"b1ecd358-38ec-4753-8af1-9b87454b444a","system_id":"levelo_inurba_marseille","lat":43.28622,"lon":5.35107,"is_reserved":false,"is_disabled":false,"rental_uris":{"android":"levelo://app?vid=b1ecd358-38ec-4753-8af1-9b87454b444a","ios":"levelo://app?vid=b1ecd358-38ec-4753-8af1-9b87454b444a"},"vehicle_type_id":"4","last_reported":1743264602,"current_range_meters":8800,"station_id":"ce4bhch2rcd13ifvqeug","pricing_plan_id":"cebpf4jnsgd1na2vs0mg"},{"bike_id":"a36a9ec1-537e-4091-9d7a-dd0444d14e10","system_id":"levelo_inurba_marseille","lat":43.24813,"lon":5.37462,"is_reserved":false,"is_disabled":false,"rental_uris":{"android":"levelo://app?vid=a36a9ec1-537e-4091-9d7a-dd0444d14e10","ios":"levelo://app?vid=a36a9ec1-537e-4091-9d7a-dd0444d14e10"},"vehicle_type_id":"4","last_reported":1743264602,"current_range_meters":8800,"station_id":"ce4bhgh2rcd13ifvqfb0","pricing_plan_id":"cebpf4jnsgd1na2vs0mg"},{"bike_id":"2a23e357-0a13-4b29-99b2-028e998b53e6","system_id":"levelo_inurba_marseille","lat":43.31171,"lon":5.3872,"is_reserved":false,"is_disabled":false,"rental_uris":{"android":"levelo://app?vid=2a23e357-0a13-4b29-99b2-028e998b53e6","ios":"levelo://app?vid=2a23e357-0a13-4b29-99b2-028e998b53e6"},"vehicle_type_id":"4","last_reported":1743264602,"current_range_meters":8800,"station_id":"ce4bgv12rcd13ifvqcp0","pricing_plan_id":"cebpf4jnsgd1na2vs0mg"},{"bike_id":"1a8ec8fe-cd0f-44f4-9a76-dfc354a60ccc","system_id":"levelo_inurba_marseille","lat":43.23961,"lon":5.36631,"is_reserved":false,"is_disabled":false,"rental_uris":{"android":"levelo://app?vid=1a8ec8fe-cd0f-44f4-9a76-dfc354a60ccc","ios":"levelo://app?vid=1a8ec8fe-cd0f-44f4-9a76-dfc354a60ccc"},"vehicle_type_id":"4","last_reported":1743264602,"current_range_meters":8800,"station_id":"ce4bhi12rcd13ifvqfp0","pricing_plan_id":"cebpf4jnsgd1na2vs0mg"},{"bike_id":"6b5953f8-cb5d-4f81-ac81-f186332818a8","system_id":"levelo_inurba_marseille","lat":43.29008,"lon":5.3864,"is_reserved":false,"is_disabled":false,"rental_uris":{"android":"levelo://app?vid=6b5953f8-cb5d-4f81-ac81-f186332818a8","ios":"levelo://app?vid=6b5953f8-cb5d-4f81-ac81-f186332818a8"},"vehicle_type_id":"4","last_reported":1743264602,"current_range_meters":8800,"station_id":"ce4bh4p2rcd13ifvqe0g","pricing_plan_id":"cebpf4jnsgd1na2vs0mg"},{"bike_id":"d14cdd1e-f0b3-48a5-be5e-77128af69a2d","system_id":"levelo_inurba_marseille","lat":43.28651,"lon":5.35085,"is_reserved":false,"is_disabled":false,"rental_uris":{"android":"levelo://app?vid=d14cdd1e-f0b3-48a5-be5e-77128af69a2d","ios":"levelo://app?vid=d14cdd1e-f0b3-48a5-be5e-77128af69a2d"},"vehicle_type_id":"4","last_reported":1743264602,"current_range_meters":8800,"station_id":"ce4bhch2rcd13ifvqeug","pricing_plan_id":"cebpf4jnsgd1na2vs0mg"},{"bike_id":"c81aa651-71a6-4554-8d4e-6d82da0496cc","system_id":"levelo_inurba_marseille","lat":43.30211,"lon":5.39463,"is_reserved":false,"is_disabled":false,"rental_uris":{"android":"levelo://app?vid=c81aa651-71a6-4554-8d4e-6d82da0496cc","ios":"levelo://app?vid=c81aa651-71a6-4554-8d4e-6d82da0496cc"},"vehicle_type_id":"4","last_reported":1743264602,"current_range_meters":9200,"station_id":"ce4bh0p2rcd13ifvqd70","pricing_plan_id":"cebpf4jnsgd1na2vs0mg"},{"bike_id":"96fa1290-e699-40b9-9109-379d3b77c6fb","system_id":"levelo_inurba_marseille","lat":43.33733,"lon":5.39228,"is_reserved":false,"is_disabled":false,"rental_uris":{"android":"levelo://app?vid=96fa1290-e699-40b9-9109-379d3b77c6fb","ios":"levelo://app?vid=96fa1290-e699-40b9-9109-379d3b77c6fb"},"vehicle_type_id":"4","last_reported":1743264602,"current_range_meters":9200,"station_id":"ce4bhr92rcd13ifvqhsg","pricing_plan_id":"cebpf4jnsgd1na2vs0mg"},{"bike_id":"eaddfac1-0bf4-4f61-8016-0c16cda63728","system_id":"levelo_inurba_marseille","lat":43.29225,"lon":5.36058,"is_reserved":false,"is_disabled":false,"rental_uris":{"android":"levelo://app?vid=eaddfac1-0bf4-4f61-8016-0c16cda63728","ios":"levelo://app?vid=eaddfac1-0bf4-4f61-8016-0c16cda63728"},"vehicle_type_id":"4","last_reported":1743264602,"current_range_meters":9200,"station_id":"ce4bhbh2rcd13ifvqeqg","pricing_plan_id":"cebpf4jnsgd1na2vs0mg"},{"bike_id":"9a86e03f-71d2-4ad4-8789-2f396fadcdf8","system_id":"levelo_inurba_marseille","lat":43.29265,"lon":5.4092,"is_reserved":false,"is_disabled":false,"rental_uris":{"android":"levelo://app?vid=9a86e03f-71d2-4ad4-8789-2f396fadcdf8","ios":"levelo://app?vid=9a86e03f-71d2-4ad4-8789-2f396fadcdf8"},"vehicle_type_id":"4","last_reported":1743264602,"current_range_meters":9200,"station_id":"ce4bh192rcd13ifvqdc0","pricing_plan_id":"cebpf4jnsgd1na2vs0mg"},{"bike_id":"4b2323ae-94b8-41f7-9062-4d9bd4bd549e","system_id":"levelo_inurba_marseille","lat":43.24166,"lon":5.36401,"is_reserved":false,"is_disabled":false,"rental_uris":{"android":"levelo://app?vid=4b2323ae-94b8-41f7-9062-4d9bd4bd549e","ios":"levelo://app?vid=4b2323ae-94b8-41f7-9062-4d9bd4bd549e"},"vehicle_type_id":"4","last_reported":1743264602,"current_range_meters":9200,"station_id":"cpo36qri1sfpv3e86is0","pricing_plan_id":"cebpf4jnsgd1na2vs0mg"},{"bike_id":"ff7ae189-4a72-4186-90a1-9df02058be5b","system_id":"levelo_inurba_marseille","lat":43.24395,"lon":5.37069,"is_reserved":false,"is_disabled":false,"rental_uris":{"android":"levelo://app?vid=ff7ae189-4a72-4186-90a1-9df02058be5b","ios":"levelo://app?vid=ff7ae189-4a72-4186-90a1-9df02058be5b"},"vehicle_type_id":"4","last_reported":1743264602,"current_range_meters":9200,"station_id":"ce4bhhh2rcd13ifvqfk0","pricing_plan_id":"cebpf4jnsgd1na2vs0mg"},{"bike_id":"980b1b8d-c114-4f00-88f8-a0ddccb8fb71","system_id":"levelo_inurba_marseille","lat":43.28611,"lon":5.3511,"is_reserved":false,"is_disabled":false,"rental_uris":{"android":"levelo://app?vid=980b1b8d-c114-4f00-88f8-a0ddccb8fb71","ios":"levelo://app?vid=980b1b8d-c114-4f00-88f8-a0ddccb8fb71"},"vehicle_type_id":"4","last_reported":1743264602,"current_range_meters":9200,"station_id":"ce4bhch2rcd13ifvqeug","pricing_plan_id":"cebpf4jnsgd1na2vs0mg"},{"bike_id":"ce0a8344-6268-4d5a-906a-d82d1150ed05","system_id":"levelo_inurba_marseille","lat":43.28469,"lon":5.359,"is_reserved":false,"is_disabled":false,"rental_uris":{"android":"levelo://app?vid=ce0a8344-6268-4d5a-906a-d82d1150ed05","ios":"levelo://app?vid=ce0a8344-6268-4d5a-906a-d82d1150ed05"},"vehicle_type_id":"4","last_reported":1743264602,"current_range_meters":9200,"station_id":"ce4bhah2rcd13ifvqei0","pricing_plan_id":"cebpf4jnsgd1na2vs0mg"},{"bike_id":"490c1d81-f891-41ce-94a6-a8ef02cd88ef","system_id":"levelo_inurba_marseille","lat":43.258228,"lon":5.394352,"is_reserved":false,"is_disabled":false,"rental_uris":{"android":"levelo://app?vid=490c1d81-f891-41ce-94a6-a8ef02cd88ef","ios":"levelo://app?vid=490c1d81-f891-41ce-94a6-a8ef02cd88ef"},"vehicle_type_id":"4","last_reported":1743264602,"current_range_meters":8800,"station_id":"ce4bhip2rcd13ifvqft0","pricing_plan_id":"cebpf4jnsgd1na2vs0mg"},{"bike_id":"edd85389-2717-4a02-85c2-7f01a5a4b76e","system_id":"levelo_inurba_marseille","lat":43.32294,"lon":5.38262,"is_reserved":false,"is_disabled":false,"rental_uris":{"android":"levelo://app?vid=edd85389-2717-4a02-85c2-7f01a5a4b76e","ios":"levelo://app?vid=edd85389-2717-4a02-85c2-7f01a5a4b76e"},"vehicle_type_id":"4","last_reported":1743264602,"current_range_meters":9200,"station_id":"ce4bhr12rcd13ifvqhqg","pricing_plan_id":"cebpf4jnsgd1na2vs0mg"},{"bike_id":"5e0d126e-f38a-49c7-a17f-d1621db5f136","system_id":"levelo_inurba_marseille","lat":43.27171,"lon":5.40989,"is_reserved":false,"is_disabled":false,"rental_uris":{"android":"levelo://app?vid=5e0d126e-f38a-49c7-a17f-d1621db5f136","ios":"levelo://app?vid=5e0d126e-f38a-49c7-a17f-d1621db5f136"},"vehicle_type_id":"4","last_reported":1743264602,"current_range_meters":9200,"station_id":"ce4bhl12rcd13ifvqgf0","pricing_plan_id":"cebpf4jnsgd1na2vs0mg"},{"bike_id":"c2f179b1-a0c6-4c12-bc8c-9ea5f0e3919c","system_id":"levelo_inurba_marseille","lat":43.31534,"lon":5.38025,"is_reserved":false,"is_disabled":false,"rental_uris":{"android":"levelo://app?vid=c2f179b1-a0c6-4c12-bc8c-9ea5f0e3919c","ios":"levelo://app?vid=c2f179b1-a0c6-4c12-bc8c-9ea5f0e3919c"},"vehicle_type_id":"4","last_reported":1743264602,"current_range_meters":9200,"station_id":"ce4bhsp2rcd13ifvqi50","pricing_plan_id":"cebpf4jnsgd1na2vs0mg"},{"bike_id":"62fbe971-ecaf-4adf-a02e-e818ded74fbf","system_id":"levelo_inurba_marseille","lat":43.27939,"lon":5.41047,"is_reserved":false,"is_disabled":false,"rental_uris":{"android":"levelo://app?vid=62fbe971-ecaf-4adf-a02e-e818ded74fbf","ios":"levelo://app?vid=62fbe971-ecaf-4adf-a02e-e818ded74fbf"},"vehicle_type_id":"4","last_reported":1743264602,"current_range_meters":9600,"station_id":"ce4bhnp2rcd13ifvqh0g","pricing_plan_id":"cebpf4jnsgd1na2vs0mg"},{"bike_id":"3ebec30b-3321-422a-b912-1c4632fda65e","system_id":"levelo_inurba_marseille","lat":43.25588,"lon":5.38251,"is_reserved":false,"is_disabled":false,"rental_uris":{"android":"levelo://app?vid=3ebec30b-3321-422a-b912-1c4632fda65e","ios":"levelo://app?vid=3ebec30b-3321-422a-b912-1c4632fda65e"},"vehicle_type_id":"4","last_reported":1743264602,"current_range_meters":9600,"station_id":"ce4bhih2rcd13ifvqfs0","pricing_plan_id":"cebpf4jnsgd1na2vs0mg"},{"bike_id":"1b12bfdb-ce1f-421d-a12b-d10b6a17240a","system_id":"levelo_inurba_marseille","lat":43.29198,"lon":5.3932,"is_reserved":false,"is_disabled":false,"rental_uris":{"android":"levelo://app?vid=1b12bfdb-ce1f-421d-a12b-d10b6a17240a","ios":"levelo://app?vid=1b12bfdb-ce1f-421d-a12b-d10b6a17240a"},"vehicle_type_id":"4","last_reported":1743264602,"current_range_meters":9600,"station_id":"ce4bh192rcd13ifvqdd0","pricing_plan_id":"cebpf4jnsgd1na2vs0mg"},{"bike_id":"23b00ced-5f16-48a6-9062-633c1899eb74","system_id":"levelo_inurba_marseille","lat":43.30884,"lon":5.37187,"is_reserved":false,"is_disabled":false,"rental_uris":{"android":"levelo://app?vid=23b00ced-5f16-48a6-9062-633c1899eb74","ios":"levelo://app?vid=23b00ced-5f16-48a6-9062-633c1899eb74"},"vehicle_type_id":"4","last_reported":1743264602,"current_range_meters":9600,"station_id":"ce4bguh2rcd13ifvqckg","pricing_plan_id":"cebpf4jnsgd1na2vs0mg"},{"bike_id":"2771baa6-90ed-4fb0-8f45-d03a533d8ff4","system_id":"levelo_inurba_marseille","lat":43.29568,"lon":5.3753,"is_reserved":false,"is_disabled":false,"rental_uris":{"android":"levelo://app?vid=2771baa6-90ed-4fb0-8f45-d03a533d8ff4","ios":"levelo://app?vid=2771baa6-90ed-4fb0-8f45-d03a533d8ff4"},"vehicle_type_id":"4","last_reported":1743264602,"current_range_meters":9600,"station_id":"ce4bgh92rcd13ifvqb50","pricing_plan_id":"cebpf4jnsgd1na2vs0mg"},{"bike_id":"25244e84-c9ee-4234-bf25-3cdd5f0669ca","system_id":"levelo_inurba_marseille","lat":43.29573,"lon":5.37505,"is_reserved":false,"is_disabled":false,"rental_uris":{"android":"levelo://app?vid=25244e84-c9ee-4234-bf25-3cdd5f0669ca","ios":"levelo://app?vid=25244e84-c9ee-4234-bf25-3cdd5f0669ca"},"vehicle_type_id":"4","last_reported":1743264602,"current_range_meters":9600,"station_id":"ce4bgh92rcd13ifvqb50","pricing_plan_id":"cebpf4jnsgd1na2vs0mg"},{"bike_id":"4586e23a-2d77-446c-8e8c-a15b6ae5de02","system_id":"levelo_inurba_marseille","lat":43.28585,"lon":5.38116,"is_reserved":false,"is_disabled":false,"rental_uris":{"android":"levelo://app?vid=4586e23a-2d77-446c-8e8c-a15b6ae5de02","ios":"levelo://app?vid=4586e23a-2d77-446c-8e8c-a15b6ae5de02"},"vehicle_type_id":"4","last_reported":1743264602,"current_range_meters":9600,"station_id":"","pricing_plan_id":"cebpf4jnsgd1na2vs0mg"},{"bike_id":"3b9e2dbb-dda4-4ed5-8aef-7e67e6437f0d","system_id":"levelo_inurba_marseille","lat":43.33345,"lon":5.40164,"is_reserved":false,"is_disabled":false,"rental_uris":{"android":"levelo://app?vid=3b9e2dbb-dda4-4ed5-8aef-7e67e6437f0d","ios":"levelo://app?vid=3b9e2dbb-dda4-4ed5-8aef-7e67e6437f0d"},"vehicle_type_id":"4","last_reported":1743264602,"current_range_meters":9600,"station_id":"","pricing_plan_id":"cebpf4jnsgd1na2vs0mg"},{"bike_id":"24565657-e482-4932-93db-e35fe49c2025","system_id":"levelo_inurba_marseille","lat":43.26673,"lon":5.38275,"is_reserved":false,"is_disabled":false,"rental_uris":{"android":"levelo://app?vid=24565657-e482-4932-93db-e35fe49c2025","ios":"levelo://app?vid=24565657-e482-4932-93db-e35fe49c2025"},"vehicle_type_id":"4","last_reported":1743264602,"current_range_meters":10000,"station_id":"ce4bhg92rcd13ifvqf90","pricing_plan_id":"cebpf4jnsgd1na2vs0mg"},{"bike_id":"9d49f0ce-432c-4030-969d-da629219d2c0","system_id":"levelo_inurba_marseille","lat":43.3015,"lon":5.37399,"is_reserved":false,"is_disabled":false,"rental_uris":{"android":"levelo://app?vid=9d49f0ce-432c-4030-969d-da629219d2c0","ios":"levelo://app?vid=9d49f0ce-432c-4030-969d-da629219d2c0"},"vehicle_type_id":"4","last_reported":1743264602,"current_range_meters":10000,"station_id":"ce4bgs92rcd13ifvqcc0","pricing_plan_id":"cebpf4jnsgd1na2vs0mg"},{"bike_id":"49a872d0-7324-4327-b954-3faa2aef50ba","system_id":"levelo_inurba_marseille","lat":43.2694,"lon":5.40248,"is_reserved":false,"is_disabled":false,"rental_uris":{"android":"levelo://app?vid=49a872d0-7324-4327-b954-3faa2aef50ba","ios":"levelo://app?vid=49a872d0-7324-4327-b954-3faa2aef50ba"},"vehicle_type_id":"4","last_reported":1743264602,"current_range_meters":10000,"station_id":"cjm6bp8fraef2m0cb0m0","pricing_plan_id":"cebpf4jnsgd1na2vs0mg"},{"bike_id":"130b4417-0f40-454b-981c-c7972329f9e2","system_id":"levelo_inurba_marseille","lat":43.26687,"lon":5.38268,"is_reserved":false,"is_disabled":false,"rental_uris":{"android":"levelo://app?vid=130b4417-0f40-454b-981c-c7972329f9e2","ios":"levelo://app?vid=130b4417-0f40-454b-981c-c7972329f9e2"},"vehicle_type_id":"4","last_reported":1743264602,"current_range_meters":10000,"station_id":"ce4bhg92rcd13ifvqf90","pricing_plan_id":"cebpf4jnsgd1na2vs0mg"},{"bike_id":"6938d0ce-f954-4fff-b95b-2d698d38a5d7","system_id":"levelo_inurba_marseille","lat":43.27952,"lon":5.41038,"is_reserved":false,"is_disabled":false,"rental_uris":{"android":"levelo://app?vid=6938d0ce-f954-4fff-b95b-2d698d38a5d7","ios":"levelo://app?vid=6938d0ce-f954-4fff-b95b-2d698d38a5d7"},"vehicle_type_id":"4","last_reported":1743264602,"current_range_meters":10000,"station_id":"ce4bhnp2rcd13ifvqh0g","pricing_plan_id":"cebpf4jnsgd1na2vs0mg"},{"bike_id":"050d458d-cce9-44b3-9d16-b8a5c2076354","system_id":"levelo_inurba_marseille","lat":43.31767,"lon":5.39022,"is_reserved":false,"is_disabled":false,"rental_uris":{"android":"levelo://app?vid=050d458d-cce9-44b3-9d16-b8a5c2076354","ios":"levelo://app?vid=050d458d-cce9-44b3-9d16-b8a5c2076354"},"vehicle_type_id":"4","last_reported":1743264602,"current_range_meters":10000,"station_id":"ce4bhqp2rcd13ifvqhng","pricing_plan_id":"cebpf4jnsgd1na2vs0mg"},{"bike_id":"5a3307a6-54ca-44bc-a5fd-ab80751e6464","system_id":"levelo_inurba_marseille","lat":43.23191,"lon":5.39988,"is_reserved":false,"is_disabled":true,"rental_uris":{"android":"levelo://app?vid=5a3307a6-54ca-44bc-a5fd-ab80751e6464","ios":"levelo://app?vid=5a3307a6-54ca-44bc-a5fd-ab80751e6464"},"vehicle_type_id":"4","last_reported":1743264602,"current_range_meters":10000,"station_id":"ce4bhn12rcd13ifvqgqg","pricing_plan_id":"cebpf4jnsgd1na2vs0mg"},{"bike_id":"3554961e-fd7d-4e4a-b39f-d13b2cd74872","system_id":"levelo_inurba_marseille","lat":43.29597,"lon":5.38117,"is_reserved":false,"is_disabled":false,"rental_uris":{"android":"levelo://app?vid=3554961e-fd7d-4e4a-b39f-d13b2cd74872","ios":"levelo://app?vid=3554961e-fd7d-4e4a-b39f-d13b2cd74872"},"vehicle_type_id":"4","last_reported":1743264602,"current_range_meters":10000,"station_id":"ce4bgl12rcd13ifvqbo0","pricing_plan_id":"cebpf4jnsgd1na2vs0mg"},{"bike_id":"a1b5a514-f0ef-42eb-b1a4-22dd30a86324","system_id":"levelo_inurba_marseille","lat":43.31762,"lon":5.39006,"is_reserved":false,"is_disabled":false,"rental_uris":{"android":"levelo://app?vid=a1b5a514-f0ef-42eb-b1a4-22dd30a86324","ios":"levelo://app?vid=a1b5a514-f0ef-42eb-b1a4-22dd30a86324"},"vehicle_type_id":"4","last_reported":1743264602,"current_range_meters":10000,"station_id":"ce4bhqp2rcd13ifvqhng","pricing_plan_id":"cebpf4jnsgd1na2vs0mg"},{"bike_id":"ba13dbc4-85bd-48e8-9705-c32fb9664873","system_id":"levelo_inurba_marseille","lat":43.30646,"lon":5.40095,"is_reserved":false,"is_disabled":false,"rental_uris":{"android":"levelo://app?vid=ba13dbc4-85bd-48e8-9705-c32fb9664873","ios":"levelo://app?vid=ba13dbc4-85bd-48e8-9705-c32fb9664873"},"vehicle_type_id":"4","last_reported":1743264602,"current_range_meters":10800,"station_id":"ce4bh112rcd13ifvqda0","pricing_plan_id":"cebpf4jnsgd1na2vs0mg"},{"bike_id":"296d0da0-4cc4-40ab-acd1-7c240f5eee02","system_id":"levelo_inurba_marseille","lat":43.30532,"lon":5.38077,"is_reserved":false,"is_disabled":false,"rental_uris":{"android":"levelo://app?vid=296d0da0-4cc4-40ab-acd1-7c240f5eee02","ios":"levelo://app?vid=296d0da0-4cc4-40ab-acd1-7c240f5eee02"},"vehicle_type_id":"4","last_reported":1743264602,"current_range_meters":10800,"station_id":"","pricing_plan_id":"cebpf4jnsgd1na2vs0mg"},{"bike_id":"10365f62-ee2b-4687-92a1-782d737acef1","system_id":"levelo_inurba_marseille","lat":43.2594,"lon":5.40899,"is_reserved":false,"is_disabled":false,"rental_uris":{"android":"levelo://app?vid=10365f62-ee2b-4687-92a1-782d737acef1","ios":"levelo://app?vid=10365f62-ee2b-4687-92a1-782d737acef1"},"vehicle_type_id":"4","last_reported":1743264602,"current_range_meters":10800,"station_id":"ce4bhm92rcd13ifvqglg","pricing_plan_id":"cebpf4jnsgd1na2vs0mg"},{"bike_id":"96ac20e8-5840-4579-b371-184ec6253952","system_id":"levelo_inurba_marseille","lat":43.27503,"lon":5.41145,"is_reserved":false,"is_disabled":false,"rental_uris":{"android":"levelo://app?vid=96ac20e8-5840-4579-b371-184ec6253952","ios":"levelo://app?vid=96ac20e8-5840-4579-b371-184ec6253952"},"vehicle_type_id":"4","last_reported":1743264602,"current_range_meters":10800,"station_id":"","pricing_plan_id":"cebpf4jnsgd1na2vs0mg"},{"bike_id":"ead84735-1991-4501-b506-2229ced7058a","system_id":"levelo_inurba_marseille","lat":43.23058,"lon":5.35498,"is_reserved":false,"is_disabled":false,"rental_uris":{"android":"levelo://app?vid=ead84735-1991-4501-b506-2229ced7058a","ios":"levelo://app?vid=ead84735-1991-4501-b506-2229ced7058a"},"vehicle_type_id":"4","last_reported":1743264602,"current_range_meters":10800,"station_id":"cpo3342slgdg3j2ifvpg","pricing_plan_id":"cebpf4jnsgd1na2vs0mg"},{"bike_id":"89b372e0-e34b-4448-a651-9f0d9816c98e","system_id":"levelo_inurba_marseille","lat":43.24171,"lon":5.36436,"is_reserved":false,"is_disabled":false,"rental_uris":{"android":"levelo://app?vid=89b372e0-e34b-4448-a651-9f0d9816c98e","ios":"levelo://app?vid=89b372e0-e34b-4448-a651-9f0d9816c98e"},"vehicle_type_id":"4","last_reported":1743264602,"current_range_meters":10800,"station_id":"cpo36qri1sfpv3e86is0","pricing_plan_id":"cebpf4jnsgd1na2vs0mg"},{"bike_id":"c68acff6-fdcf-4193-b7a7-aed92b607147","system_id":"levelo_inurba_marseille","lat":43.2668,"lon":5.38264,"is_reserved":false,"is_disabled":false,"rental_uris":{"android":"levelo://app?vid=c68acff6-fdcf-4193-b7a7-aed92b607147","ios":"levelo://app?vid=c68acff6-fdcf-4193-b7a7-aed92b607147"},"vehicle_type_id":"4","last_reported":1743264602,"current_range_meters":10800,"station_id":"ce4bhg92rcd13ifvqf90","pricing_plan_id":"cebpf4jnsgd1na2vs0mg"},{"bike_id":"0018b987-2a7a-4a9c-80b2-45a82c3f3de7","system_id":"levelo_inurba_marseille","lat":43.24111,"lon":5.37764,"is_reserved":false,"is_disabled":false,"rental_uris":{"android":"levelo://app?vid=0018b987-2a7a-4a9c-80b2-45a82c3f3de7","ios":"levelo://app?vid=0018b987-2a7a-4a9c-80b2-45a82c3f3de7"},"vehicle_type_id":"4","last_reported":1743264602,"current_range_meters":11200,"station_id":"ce4bhnp2rcd13ifvqgvg","pricing_plan_id":"cebpf4jnsgd1na2vs0mg"},{"bike_id":"11937ec0-7724-4483-b735-de58d98bc53b","system_id":"levelo_inurba_marseille","lat":43.25503,"lon":5.37649,"is_reserved":false,"is_disabled":false,"rental_uris":{"android":"levelo://app?vid=11937ec0-7724-4483-b735-de58d98bc53b","ios":"levelo://app?vid=11937ec0-7724-4483-b735-de58d98bc53b"},"vehicle_type_id":"4","last_reported":1743264602,"current_range_meters":11200,"station_id":"ce4bhh12rcd13ifvqff0","pricing_plan_id":"cebpf4jnsgd1na2vs0mg"},{"bike_id":"8964994f-01e2-49e5-90d2-1dd7115283f3","system_id":"levelo_inurba_marseille","lat":43.23065,"lon":5.35504,"is_reserved":false,"is_disabled":false,"rental_uris":{"android":"levelo://app?vid=8964994f-01e2-49e5-90d2-1dd7115283f3","ios":"levelo://app?vid=8964994f-01e2-49e5-90d2-1dd7115283f3"},"vehicle_type_id":"4","last_reported":1743264602,"current_range_meters":11200,"station_id":"cpo3342slgdg3j2ifvpg","pricing_plan_id":"cebpf4jnsgd1na2vs0mg"},{"bike_id":"7fb8c394-4b57-4905-8986-2e4392265d88","system_id":"levelo_inurba_marseille","lat":43.2406,"lon":5.37762,"is_reserved":false,"is_disabled":false,"rental_uris":{"android":"levelo://app?vid=7fb8c394-4b57-4905-8986-2e4392265d88","ios":"levelo://app?vid=7fb8c394-4b57-4905-8986-2e4392265d88"},"vehicle_type_id":"4","last_reported":1743264602,"current_range_meters":11200,"station_id":"ce4bhnp2rcd13ifvqgvg","pricing_plan_id":"cebpf4jnsgd1na2vs0mg"},{"bike_id":"3f2bcfca-c616-4059-a95b-b1ee7948eb41","system_id":"levelo_inurba_marseille","lat":43.29909,"lon":5.3978,"is_reserved":false,"is_disabled":false,"rental_uris":{"android":"levelo://app?vid=3f2bcfca-c616-4059-a95b-b1ee7948eb41","ios":"levelo://app?vid=3f2bcfca-c616-4059-a95b-b1ee7948eb41"},"vehicle_type_id":"4","last_reported":1743264602,"current_range_meters":11200,"station_id":"","pricing_plan_id":"cebpf4jnsgd1na2vs0mg"},{"bike_id":"699cb6a9-80bb-4d7b-8f84-b25847471872","system_id":"levelo_inurba_marseille","lat":43.28937,"lon":5.36402,"is_reserved":false,"is_disabled":false,"rental_uris":{"android":"levelo://app?vid=699cb6a9-80bb-4d7b-8f84-b25847471872","ios":"levelo://app?vid=699cb6a9-80bb-4d7b-8f84-b25847471872"},"vehicle_type_id":"4","last_reported":1743264602,"current_range_meters":11200,"station_id":"ce4bhc92rcd13ifvqetg","pricing_plan_id":"cebpf4jnsgd1na2vs0mg"},{"bike_id":"2233b525-49b7-4802-85ff-1f6204af96f1","system_id":"levelo_inurba_marseille","lat":43.27998,"lon":5.40016,"is_reserved":false,"is_disabled":false,"rental_uris":{"android":"levelo://app?vid=2233b525-49b7-4802-85ff-1f6204af96f1","ios":"levelo://app?vid=2233b525-49b7-4802-85ff-1f6204af96f1"},"vehicle_type_id":"4","last_reported":1743264602,"current_range_meters":11200,"station_id":"ce4bho92rcd13ifvqh4g","pricing_plan_id":"cebpf4jnsgd1na2vs0mg"},{"bike_id":"02578301-968f-4db5-8d14-677a8ef1e53b","system_id":"levelo_inurba_marseille","lat":43.29532,"lon":5.37492,"is_reserved":false,"is_disabled":false,"rental_uris":{"android":"levelo://app?vid=02578301-968f-4db5-8d14-677a8ef1e53b","ios":"levelo://app?vid=02578301-968f-4db5-8d14-677a8ef1e53b"},"vehicle_type_id":"4","last_reported":1743264602,"current_range_meters":11200,"station_id":"ce4bgkp2rcd13ifvqbmg","pricing_plan_id":"cebpf4jnsgd1na2vs0mg"},{"bike_id":"004ed55f-f985-4268-b523-9ed16ba4ea3b","system_id":"levelo_inurba_marseille","lat":43.29274,"lon":5.36837,"is_reserved":false,"is_disabled":true,"rental_uris":{"android":"levelo://app?vid=004ed55f-f985-4268-b523-9ed16ba4ea3b","ios":"levelo://app?vid=004ed55f-f985-4268-b523-9ed16ba4ea3b"},"vehicle_type_id":"4","last_reported":1743264602,"current_range_meters":11600,"station_id":"ce4bhbp2rcd13ifvqesg","pricing_plan_id":"cebpf4jnsgd1na2vs0mg"},{"bike_id":"e6967797-29d0-4947-88e5-61bc42de65df","system_id":"levelo_inurba_marseille","lat":43.2862,"lon":5.35104,"is_reserved":false,"is_disabled":false,"rental_uris":{"android":"levelo://app?vid=e6967797-29d0-4947-88e5-61bc42de65df","ios":"levelo://app?vid=e6967797-29d0-4947-88e5-61bc42de65df"},"vehicle_type_id":"4","last_reported":1743264602,"current_range_meters":11600,"station_id":"ce4bhch2rcd13ifvqeug","pricing_plan_id":"cebpf4jnsgd1na2vs0mg"},{"bike_id":"747d2bc2-6706-42d9-8381-8fcc8fac62bd","system_id":"levelo_inurba_marseille","lat":43.286011,"lon":5.370777,"is_reserved":false,"is_disabled":true,"rental_uris":{"android":"levelo://app?vid=747d2bc2-6706-42d9-8381-8fcc8fac62bd","ios":"levelo://app?vid=747d2bc2-6706-42d9-8381-8fcc8fac62bd"},"vehicle_type_id":"4","last_reported":1743264602,"current_range_meters":11600,"station_id":"ce4bht12rcd13ifvqi60","pricing_plan_id":"cebpf4jnsgd1na2vs0mg"},{"bike_id":"33836e2c-7907-43ab-ad9a-f3c381e10698","system_id":"levelo_inurba_marseille","lat":43.29187,"lon":5.39305,"is_reserved":false,"is_disabled":false,"rental_uris":{"android":"levelo://app?vid=33836e2c-7907-43ab-ad9a-f3c381e10698","ios":"levelo://app?vid=33836e2c-7907-43ab-ad9a-f3c381e10698"},"vehicle_type_id":"4","last_reported":1743264602,"current_range_meters":11600,"station_id":"ce4bh192rcd13ifvqdd0","pricing_plan_id":"cebpf4jnsgd1na2vs0mg"},{"bike_id":"8f79bbd2-f560-4827-a4da-1b989f27d82b","system_id":"levelo_inurba_marseille","lat":43.2958,"lon":5.39978,"is_reserved":false,"is_disabled":false,"rental_uris":{"android":"levelo://app?vid=8f79bbd2-f560-4827-a4da-1b989f27d82b","ios":"levelo://app?vid=8f79bbd2-f560-4827-a4da-1b989f27d82b"},"vehicle_type_id":"4","last_reported":1743264602,"current_range_meters":11600,"station_id":"ce4bh312rcd13ifvqdj0","pricing_plan_id":"cebpf4jnsgd1na2vs0mg"},{"bike_id":"516eec70-9871-443d-bcef-31d65d51e4f5","system_id":"levelo_inurba_marseille","lat":43.30291,"lon":5.37703,"is_reserved":false,"is_disabled":false,"rental_uris":{"android":"levelo://app?vid=516eec70-9871-443d-bcef-31d65d51e4f5","ios":"levelo://app?vid=516eec70-9871-443d-bcef-31d65d51e4f5"},"vehicle_type_id":"4","last_reported":1743264602,"current_range_meters":11600,"station_id":"ce4bguh2rcd13ifvqcj0","pricing_plan_id":"cebpf4jnsgd1na2vs0mg"},{"bike_id":"acf1e1c3-a629-4c7b-a838-cba3f3b54603","system_id":"levelo_inurba_marseille","lat":43.31869,"lon":5.37634,"is_reserved":false,"is_disabled":false,"rental_uris":{"android":"levelo://app?vid=acf1e1c3-a629-4c7b-a838-cba3f3b54603","ios":"levelo://app?vid=acf1e1c3-a629-4c7b-a838-cba3f3b54603"},"vehicle_type_id":"4","last_reported":1743264602,"current_range_meters":11600,"station_id":"","pricing_plan_id":"cebpf4jnsgd1na2vs0mg"},{"bike_id":"25bb5fbc-8229-4010-b703-31f5ee6ac141","system_id":"levelo_inurba_marseille","lat":43.30623,"lon":5.36565,"is_reserved":false,"is_disabled":false,"rental_uris":{"android":"levelo://app?vid=25bb5fbc-8229-4010-b703-31f5ee6ac141","ios":"levelo://app?vid=25bb5fbc-8229-4010-b703-31f5ee6ac141"},"vehicle_type_id":"4","last_reported":1743264602,"current_range_meters":12000,"station_id":"","pricing_plan_id":"cebpf4jnsgd1na2vs0mg"},{"bike_id":"906b540e-e920-417f-92b5-0ef35349f644","system_id":"levelo_inurba_marseille","lat":43.31539,"lon":5.3969,"is_reserved":false,"is_disabled":false,"rental_uris":{"android":"levelo://app?vid=906b540e-e920-417f-92b5-0ef35349f644","ios":"levelo://app?vid=906b540e-e920-417f-92b5-0ef35349f644"},"vehicle_type_id":"4","last_reported":1743264602,"current_range_meters":12000,"station_id":"","pricing_plan_id":"cebpf4jnsgd1na2vs0mg"},{"bike_id":"21d26bfa-cd6a-4f5a-bc3a-db48f441a6f6","system_id":"levelo_inurba_marseille","lat":43.29537,"lon":5.38547,"is_reserved":false,"is_disabled":false,"rental_uris":{"android":"levelo://app?vid=21d26bfa-cd6a-4f5a-bc3a-db48f441a6f6","ios":"levelo://app?vid=21d26bfa-cd6a-4f5a-bc3a-db48f441a6f6"},"vehicle_type_id":"4","last_reported":1743264602,"current_range_meters":12000,"station_id":"ce4bgih2rcd13ifvqba0","pricing_plan_id":"cebpf4jnsgd1na2vs0mg"},{"bike_id":"f14f703a-e9a4-4f8a-8684-da5b5c0a7402","system_id":"levelo_inurba_marseille","lat":43.25493,"lon":5.37651,"is_reserved":false,"is_disabled":false,"rental_uris":{"android":"levelo://app?vid=f14f703a-e9a4-4f8a-8684-da5b5c0a7402","ios":"levelo://app?vid=f14f703a-e9a4-4f8a-8684-da5b5c0a7402"},"vehicle_type_id":"4","last_reported":1743264602,"current_range_meters":12000,"station_id":"ce4bhh12rcd13ifvqff0","pricing_plan_id":"cebpf4jnsgd1na2vs0mg"},{"bike_id":"fa3c96ba-c753-485a-a01c-e492ffe30acb","system_id":"levelo_inurba_marseille","lat":43.28617,"lon":5.35102,"is_reserved":false,"is_disabled":false,"rental_uris":{"android":"levelo://app?vid=fa3c96ba-c753-485a-a01c-e492ffe30acb","ios":"levelo://app?vid=fa3c96ba-c753-485a-a01c-e492ffe30acb"},"vehicle_type_id":"4","last_reported":1743264602,"current_range_meters":12000,"station_id":"ce4bhch2rcd13ifvqeug","pricing_plan_id":"cebpf4jnsgd1na2vs0mg"},{"bike_id":"76d4ed16-8625-4a14-a5f1-d28ac2574c13","system_id":"levelo_inurba_marseille","lat":43.24549,"lon":5.39533,"is_reserved":false,"is_disabled":false,"rental_uris":{"android":"levelo://app?vid=76d4ed16-8625-4a14-a5f1-d28ac2574c13","ios":"levelo://app?vid=76d4ed16-8625-4a14-a5f1-d28ac2574c13"},"vehicle_type_id":"4","last_reported":1743264602,"current_range_meters":12400,"station_id":"","pricing_plan_id":"cebpf4jnsgd1na2vs0mg"},{"bike_id":"1bf928b2-7ac9-41a7-adcc-77e0f5608510","system_id":"levelo_inurba_marseille","lat":43.32449,"lon":5.36391,"is_reserved":false,"is_disabled":false,"rental_uris":{"android":"levelo://app?vid=1bf928b2-7ac9-41a7-adcc-77e0f5608510","ios":"levelo://app?vid=1bf928b2-7ac9-41a7-adcc-77e0f5608510"},"vehicle_type_id":"4","last_reported":1743264602,"current_range_meters":12400,"station_id":"","pricing_plan_id":"cebpf4jnsgd1na2vs0mg"},{"bike_id":"92bfecbf-789d-4c73-ae76-0e5a1e2a6e8a","system_id":"levelo_inurba_marseille","lat":43.25575,"lon":5.38236,"is_reserved":false,"is_disabled":false,"rental_uris":{"android":"levelo://app?vid=92bfecbf-789d-4c73-ae76-0e5a1e2a6e8a","ios":"levelo://app?vid=92bfecbf-789d-4c73-ae76-0e5a1e2a6e8a"},"vehicle_type_id":"4","last_reported":1743264602,"current_range_meters":12400,"station_id":"ce4bhih2rcd13ifvqfs0","pricing_plan_id":"cebpf4jnsgd1na2vs0mg"},{"bike_id":"c84282f9-0e94-46f6-a3ee-68da449c7e4d","system_id":"levelo_inurba_marseille","lat":43.29248,"lon":5.383987,"is_reserved":false,"is_disabled":false,"rental_uris":{"android":"levelo://app?vid=c84282f9-0e94-46f6-a3ee-68da449c7e4d","ios":"levelo://app?vid=c84282f9-0e94-46f6-a3ee-68da449c7e4d"},"vehicle_type_id":"4","last_reported":1743264602,"current_range_meters":12400,"station_id":"ce4bh692rcd13ifvqea0","pricing_plan_id":"cebpf4jnsgd1na2vs0mg"},{"bike_id":"e686807f-2a2b-4130-83bd-f265bc14135e","system_id":"levelo_inurba_marseille","lat":43.25513,"lon":5.37654,"is_reserved":false,"is_disabled":false,"rental_uris":{"android":"levelo://app?vid=e686807f-2a2b-4130-83bd-f265bc14135e","ios":"levelo://app?vid=e686807f-2a2b-4130-83bd-f265bc14135e"},"vehicle_type_id":"4","last_reported":1743264602,"current_range_meters":16800,"station_id":"ce4bhgh2rcd13ifvqfb0","pricing_plan_id":"cebpf4jnsgd1na2vs0mg"},{"bike_id":"6085d848-d4d7-4bf9-a9f7-b8eaf0415c97","system_id":"levelo_inurba_marseille","lat":43.30947,"lon":5.39035,"is_reserved":false,"is_disabled":false,"rental_uris":{"android":"levelo://app?vid=6085d848-d4d7-4bf9-a9f7-b8eaf0415c97","ios":"levelo://app?vid=6085d848-d4d7-4bf9-a9f7-b8eaf0415c97"},"vehicle_type_id":"4","last_reported":1743264602,"current_range_meters":12800,"station_id":"ce4bgup2rcd13ifvqco0","pricing_plan_id":"cebpf4jnsgd1na2vs0mg"},{"bike_id":"e53fb0b6-4828-47af-a0d0-116bdf650cf4","system_id":"levelo_inurba_marseille","lat":43.2669,"lon":5.38266,"is_reserved":false,"is_disabled":false,"rental_uris":{"android":"levelo://app?vid=e53fb0b6-4828-47af-a0d0-116bdf650cf4","ios":"levelo://app?vid=e53fb0b6-4828-47af-a0d0-116bdf650cf4"},"vehicle_type_id":"4","last_reported":1743264602,"current_range_meters":12800,"station_id":"ce4bhg92rcd13ifvqf90","pricing_plan_id":"cebpf4jnsgd1na2vs0mg"},{"bike_id":"74df4a5e-b014-4fba-87d9-1691b26e5ad5","system_id":"levelo_inurba_marseille","lat":43.301462,"lon":5.374242,"is_reserved":false,"is_disabled":false,"rental_uris":{"android":"levelo://app?vid=74df4a5e-b014-4fba-87d9-1691b26e5ad5","ios":"levelo://app?vid=74df4a5e-b014-4fba-87d9-1691b26e5ad5"},"vehicle_type_id":"4","last_reported":1743264602,"current_range_meters":12800,"station_id":"ce4bgs92rcd13ifvqcc0","pricing_plan_id":"cebpf4jnsgd1na2vs0mg"},{"bike_id":"9f50066e-01fa-4519-9f61-8109fe65f5d9","system_id":"levelo_inurba_marseille","lat":43.29711,"lon":5.37143,"is_reserved":false,"is_disabled":false,"rental_uris":{"android":"levelo://app?vid=9f50066e-01fa-4519-9f61-8109fe65f5d9","ios":"levelo://app?vid=9f50066e-01fa-4519-9f61-8109fe65f5d9"},"vehicle_type_id":"4","last_reported":1743264602,"current_range_meters":12800,"station_id":"","pricing_plan_id":"cebpf4jnsgd1na2vs0mg"},{"bike_id":"ed4c32e6-40d4-422c-8e97-469bb3589b3b","system_id":"levelo_inurba_marseille","lat":43.30144,"lon":5.38059,"is_reserved":false,"is_disabled":false,"rental_uris":{"android":"levelo://app?vid=ed4c32e6-40d4-422c-8e97-469bb3589b3b","ios":"levelo://app?vid=ed4c32e6-40d4-422c-8e97-469bb3589b3b"},"vehicle_type_id":"4","last_reported":1743264602,"current_range_meters":12800,"station_id":"ce4bgjp2rcd13ifvqbh0","pricing_plan_id":"cebpf4jnsgd1na2vs0mg"},{"bike_id":"4b0bdaa8-99fd-4295-a9bf-43adbe1dcff9","system_id":"levelo_inurba_marseille","lat":43.28933,"lon":5.36618,"is_reserved":false,"is_disabled":false,"rental_uris":{"android":"levelo://app?vid=4b0bdaa8-99fd-4295-a9bf-43adbe1dcff9","ios":"levelo://app?vid=4b0bdaa8-99fd-4295-a9bf-43adbe1dcff9"},"vehicle_type_id":"4","last_reported":1743264602,"current_range_meters":12800,"station_id":"ce4bhap2rcd13ifvqek0","pricing_plan_id":"cebpf4jnsgd1na2vs0mg"},{"bike_id":"db8100b0-1e27-486d-ac1c-36a60ed1d709","system_id":"levelo_inurba_marseille","lat":43.29272,"lon":5.3843,"is_reserved":false,"is_disabled":false,"rental_uris":{"android":"levelo://app?vid=db8100b0-1e27-486d-ac1c-36a60ed1d709","ios":"levelo://app?vid=db8100b0-1e27-486d-ac1c-36a60ed1d709"},"vehicle_type_id":"4","last_reported":1743264602,"current_range_meters":12800,"station_id":"ce4bh692rcd13ifvqea0","pricing_plan_id":"cebpf4jnsgd1na2vs0mg"},{"bike_id":"21b7dfed-4bf3-42a6-9071-9b2b5259da3c","system_id":"levelo_inurba_marseille","lat":43.29635,"lon":5.37154,"is_reserved":false,"is_disabled":true,"rental_uris":{"android":"levelo://app?vid=21b7dfed-4bf3-42a6-9071-9b2b5259da3c","ios":"levelo://app?vid=21b7dfed-4bf3-42a6-9071-9b2b5259da3c"},"vehicle_type_id":"4","last_reported":1743264602,"current_range_meters":12800,"station_id":"ce4bgnh2rcd13ifvqc0g","pricing_plan_id":"cebpf4jnsgd1na2vs0mg"},{"bike_id":"211e02b6-c381-4993-a223-66dc669f8c37","system_id":"levelo_inurba_marseille","lat":43.30146,"lon":5.37414,"is_reserved":false,"is_disabled":false,"rental_uris":{"android":"levelo://app?vid=211e02b6-c381-4993-a223-66dc669f8c37","ios":"levelo://app?vid=211e02b6-c381-4993-a223-66dc669f8c37"},"vehicle_type_id":"4","last_reported":1743264602,"current_range_meters":13600,"station_id":"ce4bgs92rcd13ifvqcc0","pricing_plan_id":"cebpf4jnsgd1na2vs0mg"},{"bike_id":"f1161fa1-c324-4ce7-b7de-06f9f41ed748","system_id":"levelo_inurba_marseille","lat":43.28453,"lon":5.3589,"is_reserved":false,"is_disabled":false,"rental_uris":{"android":"levelo://app?vid=f1161fa1-c324-4ce7-b7de-06f9f41ed748","ios":"levelo://app?vid=f1161fa1-c324-4ce7-b7de-06f9f41ed748"},"vehicle_type_id":"4","last_reported":1743264602,"current_range_meters":13600,"station_id":"ce4bhah2rcd13ifvqei0","pricing_plan_id":"cebpf4jnsgd1na2vs0mg"},{"bike_id":"653ea6de-a177-4007-9cfa-5f3f77e975f6","system_id":"levelo_inurba_marseille","lat":43.24808,"lon":5.37471,"is_reserved":false,"is_disabled":false,"rental_uris":{"android":"levelo://app?vid=653ea6de-a177-4007-9cfa-5f3f77e975f6","ios":"levelo://app?vid=653ea6de-a177-4007-9cfa-5f3f77e975f6"},"vehicle_type_id":"4","last_reported":1743264602,"current_range_meters":13600,"station_id":"ce4bhgh2rcd13ifvqfb0","pricing_plan_id":"cebpf4jnsgd1na2vs0mg"},{"bike_id":"f3dc96b3-fb6d-4932-8f80-b115aa9c03e6","system_id":"levelo_inurba_marseille","lat":43.25871,"lon":5.39893,"is_reserved":false,"is_disabled":false,"rental_uris":{"android":"levelo://app?vid=f3dc96b3-fb6d-4932-8f80-b115aa9c03e6","ios":"levelo://app?vid=f3dc96b3-fb6d-4932-8f80-b115aa9c03e6"},"vehicle_type_id":"4","last_reported":1743264602,"current_range_meters":13600,"station_id":"ce4bhl92rcd13ifvqghg","pricing_plan_id":"cebpf4jnsgd1na2vs0mg"},{"bike_id":"e1f39489-366e-4c51-a52d-46e1e2648fdc","system_id":"levelo_inurba_marseille","lat":43.23195,"lon":5.35551,"is_reserved":false,"is_disabled":false,"rental_uris":{"android":"levelo://app?vid=e1f39489-366e-4c51-a52d-46e1e2648fdc","ios":"levelo://app?vid=e1f39489-366e-4c51-a52d-46e1e2648fdc"},"vehicle_type_id":"4","last_reported":1743264602,"current_range_meters":14000,"station_id":"ce4bhu92rcd13ifvqi70","pricing_plan_id":"cebpf4jnsgd1na2vs0mg"},{"bike_id":"1194d893-debc-41d7-b347-816267570776","system_id":"levelo_inurba_marseille","lat":43.33735,"lon":5.39191,"is_reserved":false,"is_disabled":false,"rental_uris":{"android":"levelo://app?vid=1194d893-debc-41d7-b347-816267570776","ios":"levelo://app?vid=1194d893-debc-41d7-b347-816267570776"},"vehicle_type_id":"4","last_reported":1743264602,"current_range_meters":14000,"station_id":"ce4bhr92rcd13ifvqhsg","pricing_plan_id":"cebpf4jnsgd1na2vs0mg"},{"bike_id":"93956d39-0e8f-4505-bb7b-6526b7702517","system_id":"levelo_inurba_marseille","lat":43.30532,"lon":5.3655,"is_reserved":false,"is_disabled":false,"rental_uris":{"android":"levelo://app?vid=93956d39-0e8f-4505-bb7b-6526b7702517","ios":"levelo://app?vid=93956d39-0e8f-4505-bb7b-6526b7702517"},"vehicle_type_id":"4","last_reported":1743264602,"current_range_meters":14000,"station_id":"ce4bgs12rcd13ifvqcag","pricing_plan_id":"cebpf4jnsgd1na2vs0mg"},{"bike_id":"a90d481a-7039-457f-a5b9-3dabbed904f5","system_id":"levelo_inurba_marseille","lat":43.27961,"lon":5.41059,"is_reserved":false,"is_disabled":false,"rental_uris":{"android":"levelo://app?vid=a90d481a-7039-457f-a5b9-3dabbed904f5","ios":"levelo://app?vid=a90d481a-7039-457f-a5b9-3dabbed904f5"},"vehicle_type_id":"4","last_reported":1743264602,"current_range_meters":14000,"station_id":"ce4bhnp2rcd13ifvqh0g","pricing_plan_id":"cebpf4jnsgd1na2vs0mg"},{"bike_id":"7564a4eb-fcbd-47e7-87b5-86c0ae53d2e9","system_id":"levelo_inurba_marseille","lat":43.26697,"lon":5.38266,"is_reserved":false,"is_disabled":false,"rental_uris":{"android":"levelo://app?vid=7564a4eb-fcbd-47e7-87b5-86c0ae53d2e9","ios":"levelo://app?vid=7564a4eb-fcbd-47e7-87b5-86c0ae53d2e9"},"vehicle_type_id":"4","last_reported":1743264602,"current_range_meters":14000,"station_id":"ce4bhg92rcd13ifvqf90","pricing_plan_id":"cebpf4jnsgd1na2vs0mg"},{"bike_id":"bd7f5400-a284-40cf-8192-527d988e947b","system_id":"levelo_inurba_marseille","lat":43.29709,"lon":5.3658,"is_reserved":false,"is_disabled":false,"rental_uris":{"android":"levelo://app?vid=bd7f5400-a284-40cf-8192-527d988e947b","ios":"levelo://app?vid=bd7f5400-a284-40cf-8192-527d988e947b"},"vehicle_type_id":"4","last_reported":1743264602,"current_range_meters":14000,"station_id":"ce4bgn12rcd13ifvqbt0","pricing_plan_id":"cebpf4jnsgd1na2vs0mg"},{"bike_id":"f7a24c9b-d23c-40a3-83cb-9f8f8d282ead","system_id":"levelo_inurba_marseille","lat":43.29265,"lon":5.36848,"is_reserved":false,"is_disabled":false,"rental_uris":{"android":"levelo://app?vid=f7a24c9b-d23c-40a3-83cb-9f8f8d282ead","ios":"levelo://app?vid=f7a24c9b-d23c-40a3-83cb-9f8f8d282ead"},"vehicle_type_id":"4","last_reported":1743264602,"current_range_meters":14400,"station_id":"ce4bhbp2rcd13ifvqesg","pricing_plan_id":"cebpf4jnsgd1na2vs0mg"},{"bike_id":"3fc690cc-514e-49af-8c16-561a3329ac3e","system_id":"levelo_inurba_marseille","lat":43.27036,"lon":5.42275,"is_reserved":false,"is_disabled":false,"rental_uris":{"android":"levelo://app?vid=3fc690cc-514e-49af-8c16-561a3329ac3e","ios":"levelo://app?vid=3fc690cc-514e-49af-8c16-561a3329ac3e"},"vehicle_type_id":"4","last_reported":1743264602,"current_range_meters":14400,"station_id":"ce4bhk92rcd13ifvqgb0","pricing_plan_id":"cebpf4jnsgd1na2vs0mg"},{"bike_id":"5536d184-ecf1-4ce5-bc6f-b181e3f1fef5","system_id":"levelo_inurba_marseille","lat":43.29569,"lon":5.37512,"is_reserved":false,"is_disabled":false,"rental_uris":{"android":"levelo://app?vid=5536d184-ecf1-4ce5-bc6f-b181e3f1fef5","ios":"levelo://app?vid=5536d184-ecf1-4ce5-bc6f-b181e3f1fef5"},"vehicle_type_id":"4","last_reported":1743264602,"current_range_meters":14400,"station_id":"ce4bgh92rcd13ifvqb50","pricing_plan_id":"cebpf4jnsgd1na2vs0mg"},{"bike_id":"bd90bf75-9c99-4619-93c2-7a5fd83388b5","system_id":"levelo_inurba_marseille","lat":43.313603,"lon":5.388284,"is_reserved":false,"is_disabled":false,"rental_uris":{"android":"levelo://app?vid=bd90bf75-9c99-4619-93c2-7a5fd83388b5","ios":"levelo://app?vid=bd90bf75-9c99-4619-93c2-7a5fd83388b5"},"vehicle_type_id":"4","last_reported":1743264602,"current_range_meters":14800,"station_id":"ce4bgt92rcd13ifvqcf0","pricing_plan_id":"cebpf4jnsgd1na2vs0mg"},{"bike_id":"2d0a842d-5992-4aa5-9cf0-69a1079a58e6","system_id":"levelo_inurba_marseille","lat":43.31759,"lon":5.39036,"is_reserved":false,"is_disabled":false,"rental_uris":{"android":"levelo://app?vid=2d0a842d-5992-4aa5-9cf0-69a1079a58e6","ios":"levelo://app?vid=2d0a842d-5992-4aa5-9cf0-69a1079a58e6"},"vehicle_type_id":"4","last_reported":1743264602,"current_range_meters":14800,"station_id":"ce4bhqp2rcd13ifvqhng","pricing_plan_id":"cebpf4jnsgd1na2vs0mg"},{"bike_id":"c2e21607-79db-417b-b5ad-b42b2e8e9cf0","system_id":"levelo_inurba_marseille","lat":43.23971,"lon":5.36633,"is_reserved":false,"is_disabled":false,"rental_uris":{"android":"levelo://app?vid=c2e21607-79db-417b-b5ad-b42b2e8e9cf0","ios":"levelo://app?vid=c2e21607-79db-417b-b5ad-b42b2e8e9cf0"},"vehicle_type_id":"4","last_reported":1743264602,"current_range_meters":14800,"station_id":"ce4bhi12rcd13ifvqfp0","pricing_plan_id":"cebpf4jnsgd1na2vs0mg"},{"bike_id":"827e85c1-a7d5-4df8-a0d4-3cfc0c57b58e","system_id":"levelo_inurba_marseille","lat":43.30136,"lon":5.37426,"is_reserved":false,"is_disabled":false,"rental_uris":{"android":"levelo://app?vid=827e85c1-a7d5-4df8-a0d4-3cfc0c57b58e","ios":"levelo://app?vid=827e85c1-a7d5-4df8-a0d4-3cfc0c57b58e"},"vehicle_type_id":"4","last_reported":1743264602,"current_range_meters":14800,"station_id":"ce4bgs92rcd13ifvqcc0","pricing_plan_id":"cebpf4jnsgd1na2vs0mg"},{"bike_id":"b6c18930-83f3-4e7b-a959-51413652e158","system_id":"levelo_inurba_marseille","lat":43.26694,"lon":5.3827,"is_reserved":false,"is_disabled":false,"rental_uris":{"android":"levelo://app?vid=b6c18930-83f3-4e7b-a959-51413652e158","ios":"levelo://app?vid=b6c18930-83f3-4e7b-a959-51413652e158"},"vehicle_type_id":"4","last_reported":1743264602,"current_range_meters":14800,"station_id":"ce4bhg92rcd13ifvqf90","pricing_plan_id":"cebpf4jnsgd1na2vs0mg"},{"bike_id":"ed5a1ae2-fa61-4587-b9a2-42244092b811","system_id":"levelo_inurba_marseille","lat":43.30149,"lon":5.38109,"is_reserved":false,"is_disabled":false,"rental_uris":{"android":"levelo://app?vid=ed5a1ae2-fa61-4587-b9a2-42244092b811","ios":"levelo://app?vid=ed5a1ae2-fa61-4587-b9a2-42244092b811"},"vehicle_type_id":"4","last_reported":1743264602,"current_range_meters":14800,"station_id":"ce4bgjp2rcd13ifvqbh0","pricing_plan_id":"cebpf4jnsgd1na2vs0mg"},{"bike_id":"6f85d16b-6791-421f-9655-2cbde3f9e73b","system_id":"levelo_inurba_marseille","lat":43.27486,"lon":5.42449,"is_reserved":false,"is_disabled":false,"rental_uris":{"android":"levelo://app?vid=6f85d16b-6791-421f-9655-2cbde3f9e73b","ios":"levelo://app?vid=6f85d16b-6791-421f-9655-2cbde3f9e73b"},"vehicle_type_id":"4","last_reported":1743264602,"current_range_meters":14800,"station_id":"ce4bhn92rcd13ifvqgrg","pricing_plan_id":"cebpf4jnsgd1na2vs0mg"},{"bike_id":"98ac69c4-c4f6-494b-b39d-4197e6e20392","system_id":"levelo_inurba_marseille","lat":43.26685,"lon":5.3827,"is_reserved":false,"is_disabled":false,"rental_uris":{"android":"levelo://app?vid=98ac69c4-c4f6-494b-b39d-4197e6e20392","ios":"levelo://app?vid=98ac69c4-c4f6-494b-b39d-4197e6e20392"},"vehicle_type_id":"4","last_reported":1743264602,"current_range_meters":14800,"station_id":"ce4bhg92rcd13ifvqf90","pricing_plan_id":"cebpf4jnsgd1na2vs0mg"},{"bike_id":"2a651215-29ff-4da6-821d-6aba547eb86b","system_id":"levelo_inurba_marseille","lat":43.29202,"lon":5.36051,"is_reserved":false,"is_disabled":false,"rental_uris":{"android":"levelo://app?vid=2a651215-29ff-4da6-821d-6aba547eb86b","ios":"levelo://app?vid=2a651215-29ff-4da6-821d-6aba547eb86b"},"vehicle_type_id":"4","last_reported":1743264602,"current_range_meters":14800,"station_id":"ce4bhbh2rcd13ifvqeqg","pricing_plan_id":"cebpf4jnsgd1na2vs0mg"},{"bike_id":"a104ab6c-23d2-4bc9-8525-a85c5320e4d9","system_id":"levelo_inurba_marseille","lat":43.29566,"lon":5.37509,"is_reserved":false,"is_disabled":false,"rental_uris":{"android":"levelo://app?vid=a104ab6c-23d2-4bc9-8525-a85c5320e4d9","ios":"levelo://app?vid=a104ab6c-23d2-4bc9-8525-a85c5320e4d9"},"vehicle_type_id":"4","last_reported":1743264602,"current_range_meters":14800,"station_id":"ce4bgh92rcd13ifvqb50","pricing_plan_id":"cebpf4jnsgd1na2vs0mg"},{"bike_id":"e06f87aa-4f35-468c-851d-b54acba4b3c7","system_id":"levelo_inurba_marseille","lat":43.26683,"lon":5.38268,"is_reserved":false,"is_disabled":false,"rental_uris":{"android":"levelo://app?vid=e06f87aa-4f35-468c-851d-b54acba4b3c7","ios":"levelo://app?vid=e06f87aa-4f35-468c-851d-b54acba4b3c7"},"vehicle_type_id":"4","last_reported":1743264602,"current_range_meters":14800,"station_id":"ce4bhg92rcd13ifvqf90","pricing_plan_id":"cebpf4jnsgd1na2vs0mg"},{"bike_id":"8bcc045e-f28b-442a-a0af-38457b26197c","system_id":"levelo_inurba_marseille","lat":43.24161,"lon":5.36428,"is_reserved":false,"is_disabled":false,"rental_uris":{"android":"levelo://app?vid=8bcc045e-f28b-442a-a0af-38457b26197c","ios":"levelo://app?vid=8bcc045e-f28b-442a-a0af-38457b26197c"},"vehicle_type_id":"4","last_reported":1743264602,"current_range_meters":14800,"station_id":"cpo36qri1sfpv3e86is0","pricing_plan_id":"cebpf4jnsgd1na2vs0mg"},{"bike_id":"e12d4c9b-d3a1-40f4-9d5a-35d0d53e0080","system_id":"levelo_inurba_marseille","lat":43.3171,"lon":5.4044,"is_reserved":false,"is_disabled":false,"rental_uris":{"android":"levelo://app?vid=e12d4c9b-d3a1-40f4-9d5a-35d0d53e0080","ios":"levelo://app?vid=e12d4c9b-d3a1-40f4-9d5a-35d0d53e0080"},"vehicle_type_id":"4","last_reported":1743264602,"current_range_meters":15200,"station_id":"ce4bh012rcd13ifvqd00","pricing_plan_id":"cebpf4jnsgd1na2vs0mg"},{"bike_id":"cccdfc50-9172-4019-9d86-2d339a3ec58f","system_id":"levelo_inurba_marseille","lat":43.24666,"lon":5.38158,"is_reserved":false,"is_disabled":false,"rental_uris":{"android":"levelo://app?vid=cccdfc50-9172-4019-9d86-2d339a3ec58f","ios":"levelo://app?vid=cccdfc50-9172-4019-9d86-2d339a3ec58f"},"vehicle_type_id":"4","last_reported":1743264602,"current_range_meters":15200,"station_id":"ce4bhih2rcd13ifvqfr0","pricing_plan_id":"cebpf4jnsgd1na2vs0mg"},{"bike_id":"ea212a2c-ebda-4fd3-87a5-afdf194e9b39","system_id":"levelo_inurba_marseille","lat":43.3158,"lon":5.38973,"is_reserved":false,"is_disabled":false,"rental_uris":{"android":"levelo://app?vid=ea212a2c-ebda-4fd3-87a5-afdf194e9b39","ios":"levelo://app?vid=ea212a2c-ebda-4fd3-87a5-afdf194e9b39"},"vehicle_type_id":"4","last_reported":1743264602,"current_range_meters":15200,"station_id":"","pricing_plan_id":"cebpf4jnsgd1na2vs0mg"},{"bike_id":"69223c9e-6d1a-4bcb-b72e-d6a7834a2893","system_id":"levelo_inurba_marseille","lat":43.283274,"lon":5.381089,"is_reserved":false,"is_disabled":false,"rental_uris":{"android":"levelo://app?vid=69223c9e-6d1a-4bcb-b72e-d6a7834a2893","ios":"levelo://app?vid=69223c9e-6d1a-4bcb-b72e-d6a7834a2893"},"vehicle_type_id":"4","last_reported":1743264602,"current_range_meters":15200,"station_id":"ce4bh412rcd13ifvqdr0","pricing_plan_id":"cebpf4jnsgd1na2vs0mg"},{"bike_id":"8a625d05-ee93-4cd1-8252-4a801f814f4d","system_id":"levelo_inurba_marseille","lat":43.2954,"lon":5.37483,"is_reserved":false,"is_disabled":false,"rental_uris":{"android":"levelo://app?vid=8a625d05-ee93-4cd1-8252-4a801f814f4d","ios":"levelo://app?vid=8a625d05-ee93-4cd1-8252-4a801f814f4d"},"vehicle_type_id":"4","last_reported":1743264602,"current_range_meters":15200,"station_id":"ce4bgkp2rcd13ifvqbmg","pricing_plan_id":"cebpf4jnsgd1na2vs0mg"},{"bike_id":"3a67c5ba-9611-4c0f-b47a-c557f105944e","system_id":"levelo_inurba_marseille","lat":43.30111,"lon":5.3985,"is_reserved":false,"is_disabled":false,"rental_uris":{"android":"levelo://app?vid=3a67c5ba-9611-4c0f-b47a-c557f105944e","ios":"levelo://app?vid=3a67c5ba-9611-4c0f-b47a-c557f105944e"},"vehicle_type_id":"4","last_reported":1743264602,"current_range_meters":15200,"station_id":"ce4bh0h2rcd13ifvqd40","pricing_plan_id":"cebpf4jnsgd1na2vs0mg"},{"bike_id":"61b93b3e-de2c-498f-9067-20d081913f50","system_id":"levelo_inurba_marseille","lat":43.29188,"lon":5.35789,"is_reserved":false,"is_disabled":false,"rental_uris":{"android":"levelo://app?vid=61b93b3e-de2c-498f-9067-20d081913f50","ios":"levelo://app?vid=61b93b3e-de2c-498f-9067-20d081913f50"},"vehicle_type_id":"4","last_reported":1743264602,"current_range_meters":15200,"station_id":"ce4bhb12rcd13ifvqel0","pricing_plan_id":"cebpf4jnsgd1na2vs0mg"},{"bike_id":"0a9ec2eb-1e79-43a5-ae4d-326ab3ba938e","system_id":"levelo_inurba_marseille","lat":43.2864,"lon":5.35091,"is_reserved":false,"is_disabled":false,"rental_uris":{"android":"levelo://app?vid=0a9ec2eb-1e79-43a5-ae4d-326ab3ba938e","ios":"levelo://app?vid=0a9ec2eb-1e79-43a5-ae4d-326ab3ba938e"},"vehicle_type_id":"4","last_reported":1743264602,"current_range_meters":15200,"station_id":"ce4bhch2rcd13ifvqeug","pricing_plan_id":"cebpf4jnsgd1na2vs0mg"},{"bike_id":"80c99ea8-3c3d-4e68-bc69-1332da7c7e51","system_id":"levelo_inurba_marseille","lat":43.28463,"lon":5.35889,"is_reserved":false,"is_disabled":false,"rental_uris":{"android":"levelo://app?vid=80c99ea8-3c3d-4e68-bc69-1332da7c7e51","ios":"levelo://app?vid=80c99ea8-3c3d-4e68-bc69-1332da7c7e51"},"vehicle_type_id":"4","last_reported":1743264602,"current_range_meters":15200,"station_id":"ce4bhah2rcd13ifvqei0","pricing_plan_id":"cebpf4jnsgd1na2vs0mg"},{"bike_id":"0e9d92a7-df29-43d8-906d-2a51c6561f7d","system_id":"levelo_inurba_marseille","lat":43.28434,"lon":5.34988,"is_reserved":false,"is_disabled":false,"rental_uris":{"android":"levelo://app?vid=0e9d92a7-df29-43d8-906d-2a51c6561f7d","ios":"levelo://app?vid=0e9d92a7-df29-43d8-906d-2a51c6561f7d"},"vehicle_type_id":"4","last_reported":1743264602,"current_range_meters":15200,"station_id":"ce4bhbh2rcd13ifvqepg","pricing_plan_id":"cebpf4jnsgd1na2vs0mg"},{"bike_id":"871f3035-10bb-4a28-afa0-18619600e1a6","system_id":"levelo_inurba_marseille","lat":43.2995,"lon":5.36544,"is_reserved":false,"is_disabled":true,"rental_uris":{"android":"levelo://app?vid=871f3035-10bb-4a28-afa0-18619600e1a6","ios":"levelo://app?vid=871f3035-10bb-4a28-afa0-18619600e1a6"},"vehicle_type_id":"4","last_reported":1743264602,"current_range_meters":16000,"station_id":"ce4bgm92rcd13ifvqbr0","pricing_plan_id":"cebpf4jnsgd1na2vs0mg"},{"bike_id":"bfcad82b-6acc-493c-b418-93ec0bae17e4","system_id":"levelo_inurba_marseille","lat":43.32045,"lon":5.36773,"is_reserved":false,"is_disabled":false,"rental_uris":{"android":"levelo://app?vid=bfcad82b-6acc-493c-b418-93ec0bae17e4","ios":"levelo://app?vid=bfcad82b-6acc-493c-b418-93ec0bae17e4"},"vehicle_type_id":"4","last_reported":1743264602,"current_range_meters":16000,"station_id":"","pricing_plan_id":"cebpf4jnsgd1na2vs0mg"},{"bike_id":"59359988-faf5-47a1-b5f8-d319a6e1abfa","system_id":"levelo_inurba_marseille","lat":43.28433,"lon":5.34989,"is_reserved":false,"is_disabled":false,"rental_uris":{"android":"levelo://app?vid=59359988-faf5-47a1-b5f8-d319a6e1abfa","ios":"levelo://app?vid=59359988-faf5-47a1-b5f8-d319a6e1abfa"},"vehicle_type_id":"4","last_reported":1743264602,"current_range_meters":16000,"station_id":"ce4bhbh2rcd13ifvqepg","pricing_plan_id":"cebpf4jnsgd1na2vs0mg"},{"bike_id":"7ead70c6-d31b-4f5e-ac3c-001be24cc1a4","system_id":"levelo_inurba_marseille","lat":43.2669,"lon":5.38269,"is_reserved":false,"is_disabled":false,"rental_uris":{"android":"levelo://app?vid=7ead70c6-d31b-4f5e-ac3c-001be24cc1a4","ios":"levelo://app?vid=7ead70c6-d31b-4f5e-ac3c-001be24cc1a4"},"vehicle_type_id":"4","last_reported":1743264602,"current_range_meters":16000,"station_id":"ce4bhg92rcd13ifvqf90","pricing_plan_id":"cebpf4jnsgd1na2vs0mg"},{"bike_id":"7fcdb0f9-3334-43bd-bbaa-eef4e1209a76","system_id":"levelo_inurba_marseille","lat":43.30323,"lon":5.40438,"is_reserved":false,"is_disabled":false,"rental_uris":{"android":"levelo://app?vid=7fcdb0f9-3334-43bd-bbaa-eef4e1209a76","ios":"levelo://app?vid=7fcdb0f9-3334-43bd-bbaa-eef4e1209a76"},"vehicle_type_id":"4","last_reported":1743264602,"current_range_meters":16000,"station_id":"ce4bh012rcd13ifvqd10","pricing_plan_id":"cebpf4jnsgd1na2vs0mg"},{"bike_id":"82be5020-df29-4bb6-b821-10f31b9ed89a","system_id":"levelo_inurba_marseille","lat":43.28412,"lon":5.34994,"is_reserved":false,"is_disabled":false,"rental_uris":{"android":"levelo://app?vid=82be5020-df29-4bb6-b821-10f31b9ed89a","ios":"levelo://app?vid=82be5020-df29-4bb6-b821-10f31b9ed89a"},"vehicle_type_id":"4","last_reported":1743264602,"current_range_meters":16000,"station_id":"ce4bhbh2rcd13ifvqepg","pricing_plan_id":"cebpf4jnsgd1na2vs0mg"},{"bike_id":"8e69e7f9-76b5-4d0a-8b34-45d50fc637f3","system_id":"levelo_inurba_marseille","lat":43.24217,"lon":5.384173,"is_reserved":false,"is_disabled":false,"rental_uris":{"android":"levelo://app?vid=8e69e7f9-76b5-4d0a-8b34-45d50fc637f3","ios":"levelo://app?vid=8e69e7f9-76b5-4d0a-8b34-45d50fc637f3"},"vehicle_type_id":"4","last_reported":1743264602,"current_range_meters":16000,"station_id":"","pricing_plan_id":"cebpf4jnsgd1na2vs0mg"},{"bike_id":"6ef18dd7-1cb9-4ef6-bfdd-052cde57f183","system_id":"levelo_inurba_marseille","lat":43.32111,"lon":5.36808,"is_reserved":false,"is_disabled":false,"rental_uris":{"android":"levelo://app?vid=6ef18dd7-1cb9-4ef6-bfdd-052cde57f183","ios":"levelo://app?vid=6ef18dd7-1cb9-4ef6-bfdd-052cde57f183"},"vehicle_type_id":"4","last_reported":1743264602,"current_range_meters":16000,"station_id":"ce4bhrh2rcd13ifvqhug","pricing_plan_id":"cebpf4jnsgd1na2vs0mg"},{"bike_id":"8f64141a-2ef2-4baf-b236-bf2036d745e1","system_id":"levelo_inurba_marseille","lat":43.30531,"lon":5.38418,"is_reserved":false,"is_disabled":false,"rental_uris":{"android":"levelo://app?vid=8f64141a-2ef2-4baf-b236-bf2036d745e1","ios":"levelo://app?vid=8f64141a-2ef2-4baf-b236-bf2036d745e1"},"vehicle_type_id":"4","last_reported":1743264602,"current_range_meters":16400,"station_id":"ce4bgg92rcd13ifvqb30","pricing_plan_id":"cebpf4jnsgd1na2vs0mg"},{"bike_id":"275bc6b6-1772-4183-a522-de0f246b39c2","system_id":"levelo_inurba_marseille","lat":43.316,"lon":5.38832,"is_reserved":false,"is_disabled":false,"rental_uris":{"android":"levelo://app?vid=275bc6b6-1772-4183-a522-de0f246b39c2","ios":"levelo://app?vid=275bc6b6-1772-4183-a522-de0f246b39c2"},"vehicle_type_id":"4","last_reported":1743264602,"current_range_meters":16400,"station_id":"","pricing_plan_id":"cebpf4jnsgd1na2vs0mg"},{"bike_id":"57574d51-3863-4dfd-a480-3fb0acc908a0","system_id":"levelo_inurba_marseille","lat":43.28645,"lon":5.351,"is_reserved":false,"is_disabled":false,"rental_uris":{"android":"levelo://app?vid=57574d51-3863-4dfd-a480-3fb0acc908a0","ios":"levelo://app?vid=57574d51-3863-4dfd-a480-3fb0acc908a0"},"vehicle_type_id":"4","last_reported":1743264602,"current_range_meters":16400,"station_id":"ce4bhch2rcd13ifvqeug","pricing_plan_id":"cebpf4jnsgd1na2vs0mg"},{"bike_id":"47e6f4ff-646c-46db-927e-00d53be82ced","system_id":"levelo_inurba_marseille","lat":43.29815,"lon":5.39423,"is_reserved":false,"is_disabled":false,"rental_uris":{"android":"levelo://app?vid=47e6f4ff-646c-46db-927e-00d53be82ced","ios":"levelo://app?vid=47e6f4ff-646c-46db-927e-00d53be82ced"},"vehicle_type_id":"4","last_reported":1743264602,"current_range_meters":16400,"station_id":"chh1huq6cuj3fo74tm60","pricing_plan_id":"cebpf4jnsgd1na2vs0mg"},{"bike_id":"fc955607-216b-4c06-bebb-9a9b61d8688e","system_id":"levelo_inurba_marseille","lat":43.28942,"lon":5.36653,"is_reserved":false,"is_disabled":false,"rental_uris":{"android":"levelo://app?vid=fc955607-216b-4c06-bebb-9a9b61d8688e","ios":"levelo://app?vid=fc955607-216b-4c06-bebb-9a9b61d8688e"},"vehicle_type_id":"4","last_reported":1743264602,"current_range_meters":16400,"station_id":"ce4bhap2rcd13ifvqek0","pricing_plan_id":"cebpf4jnsgd1na2vs0mg"},{"bike_id":"dd7f0814-304f-4cff-b1e9-71567d28462b","system_id":"levelo_inurba_marseille","lat":43.28857,"lon":5.35846,"is_reserved":false,"is_disabled":false,"rental_uris":{"android":"levelo://app?vid=dd7f0814-304f-4cff-b1e9-71567d28462b","ios":"levelo://app?vid=dd7f0814-304f-4cff-b1e9-71567d28462b"},"vehicle_type_id":"4","last_reported":1743264602,"current_range_meters":16400,"station_id":"ce4bhb12rcd13ifvqem0","pricing_plan_id":"cebpf4jnsgd1na2vs0mg"},{"bike_id":"d6e935b9-243e-49e7-8058-81c8e3c418d2","system_id":"levelo_inurba_marseille","lat":43.28934,"lon":5.36637,"is_reserved":false,"is_disabled":false,"rental_uris":{"android":"levelo://app?vid=d6e935b9-243e-49e7-8058-81c8e3c418d2","ios":"levelo://app?vid=d6e935b9-243e-49e7-8058-81c8e3c418d2"},"vehicle_type_id":"4","last_reported":1743264602,"current_range_meters":16400,"station_id":"ce4bhap2rcd13ifvqek0","pricing_plan_id":"cebpf4jnsgd1na2vs0mg"},{"bike_id":"419fff72-1c3c-4c1a-8e95-10dd3be97eb5","system_id":"levelo_inurba_marseille","lat":43.292492,"lon":5.409009,"is_reserved":false,"is_disabled":false,"rental_uris":{"android":"levelo://app?vid=419fff72-1c3c-4c1a-8e95-10dd3be97eb5","ios":"levelo://app?vid=419fff72-1c3c-4c1a-8e95-10dd3be97eb5"},"vehicle_type_id":"4","last_reported":1743264602,"current_range_meters":16400,"station_id":"ce4bh192rcd13ifvqdc0","pricing_plan_id":"cebpf4jnsgd1na2vs0mg"},{"bike_id":"cf411cc6-972e-4843-b476-fa1ba62e274b","system_id":"levelo_inurba_marseille","lat":43.29598,"lon":5.38111,"is_reserved":false,"is_disabled":false,"rental_uris":{"android":"levelo://app?vid=cf411cc6-972e-4843-b476-fa1ba62e274b","ios":"levelo://app?vid=cf411cc6-972e-4843-b476-fa1ba62e274b"},"vehicle_type_id":"4","last_reported":1743264602,"current_range_meters":16800,"station_id":"ce4bgl12rcd13ifvqbo0","pricing_plan_id":"cebpf4jnsgd1na2vs0mg"},{"bike_id":"529ce95e-c051-4814-927a-f080f833e063","system_id":"levelo_inurba_marseille","lat":43.30525,"lon":5.36707,"is_reserved":false,"is_disabled":false,"rental_uris":{"android":"levelo://app?vid=529ce95e-c051-4814-927a-f080f833e063","ios":"levelo://app?vid=529ce95e-c051-4814-927a-f080f833e063"},"vehicle_type_id":"4","last_reported":1743264602,"current_range_meters":16800,"station_id":"ce4bgrp2rcd13ifvqc9g","pricing_plan_id":"cebpf4jnsgd1na2vs0mg"},{"bike_id":"76859129-4009-4843-90a4-dc4d2b65271a","system_id":"levelo_inurba_marseille","lat":43.24181,"lon":5.36413,"is_reserved":false,"is_disabled":false,"rental_uris":{"android":"levelo://app?vid=76859129-4009-4843-90a4-dc4d2b65271a","ios":"levelo://app?vid=76859129-4009-4843-90a4-dc4d2b65271a"},"vehicle_type_id":"4","last_reported":1743264602,"current_range_meters":16800,"station_id":"cpo36qri1sfpv3e86is0","pricing_plan_id":"cebpf4jnsgd1na2vs0mg"},{"bike_id":"75b246c3-9b73-468c-8861-c6f26c95cf35","system_id":"levelo_inurba_marseille","lat":43.30136,"lon":5.37412,"is_reserved":false,"is_disabled":false,"rental_uris":{"android":"levelo://app?vid=75b246c3-9b73-468c-8861-c6f26c95cf35","ios":"levelo://app?vid=75b246c3-9b73-468c-8861-c6f26c95cf35"},"vehicle_type_id":"4","last_reported":1743264602,"current_range_meters":16800,"station_id":"ce4bgs92rcd13ifvqcc0","pricing_plan_id":"cebpf4jnsgd1na2vs0mg"},{"bike_id":"2386e558-0348-460d-9229-436b247f18ac","system_id":"levelo_inurba_marseille","lat":43.29555,"lon":5.42293,"is_reserved":false,"is_disabled":false,"rental_uris":{"android":"levelo://app?vid=2386e558-0348-460d-9229-436b247f18ac","ios":"levelo://app?vid=2386e558-0348-460d-9229-436b247f18ac"},"vehicle_type_id":"4","last_reported":1743264602,"current_range_meters":16800,"station_id":"ce4bhph2rcd13ifvqhdg","pricing_plan_id":"cebpf4jnsgd1na2vs0mg"},{"bike_id":"253d47e1-0c5a-49ae-b1d3-7961b5aee848","system_id":"levelo_inurba_marseille","lat":43.29796,"lon":5.38082,"is_reserved":false,"is_disabled":false,"rental_uris":{"android":"levelo://app?vid=253d47e1-0c5a-49ae-b1d3-7961b5aee848","ios":"levelo://app?vid=253d47e1-0c5a-49ae-b1d3-7961b5aee848"},"vehicle_type_id":"4","last_reported":1743264602,"current_range_meters":16800,"station_id":"ce4bgip2rcd13ifvqbb0","pricing_plan_id":"cebpf4jnsgd1na2vs0mg"},{"bike_id":"dfff4ac6-1eee-409a-8935-f1f18c2bf799","system_id":"levelo_inurba_marseille","lat":43.29054,"lon":5.35927,"is_reserved":false,"is_disabled":false,"rental_uris":{"android":"levelo://app?vid=dfff4ac6-1eee-409a-8935-f1f18c2bf799","ios":"levelo://app?vid=dfff4ac6-1eee-409a-8935-f1f18c2bf799"},"vehicle_type_id":"4","last_reported":1743264602,"current_range_meters":17200,"station_id":"ce4bha92rcd13ifvqeg0","pricing_plan_id":"cebpf4jnsgd1na2vs0mg"},{"bike_id":"468765c5-a3c7-4141-b682-b0c03b325a44","system_id":"levelo_inurba_marseille","lat":43.30157,"lon":5.37413,"is_reserved":false,"is_disabled":false,"rental_uris":{"android":"levelo://app?vid=468765c5-a3c7-4141-b682-b0c03b325a44","ios":"levelo://app?vid=468765c5-a3c7-4141-b682-b0c03b325a44"},"vehicle_type_id":"4","last_reported":1743264602,"current_range_meters":17200,"station_id":"ce4bgs92rcd13ifvqcc0","pricing_plan_id":"cebpf4jnsgd1na2vs0mg"},{"bike_id":"8800990b-0588-4701-9f9b-d00ff201f1bf","system_id":"levelo_inurba_marseille","lat":43.31765,"lon":5.39021,"is_reserved":false,"is_disabled":false,"rental_uris":{"android":"levelo://app?vid=8800990b-0588-4701-9f9b-d00ff201f1bf","ios":"levelo://app?vid=8800990b-0588-4701-9f9b-d00ff201f1bf"},"vehicle_type_id":"4","last_reported":1743264602,"current_range_meters":17200,"station_id":"ce4bhqp2rcd13ifvqhng","pricing_plan_id":"cebpf4jnsgd1na2vs0mg"},{"bike_id":"68cd5ad6-dde4-4259-9010-52275aba753a","system_id":"levelo_inurba_marseille","lat":43.32335,"lon":5.40621,"is_reserved":false,"is_disabled":false,"rental_uris":{"android":"levelo://app?vid=68cd5ad6-dde4-4259-9010-52275aba753a","ios":"levelo://app?vid=68cd5ad6-dde4-4259-9010-52275aba753a"},"vehicle_type_id":"4","last_reported":1743264602,"current_range_meters":17200,"station_id":"ce4bhq92rcd13ifvqhjg","pricing_plan_id":"cebpf4jnsgd1na2vs0mg"},{"bike_id":"bf8f06f8-9f7a-4ca6-97ef-3f544d07990e","system_id":"levelo_inurba_marseille","lat":43.29941,"lon":5.39406,"is_reserved":false,"is_disabled":false,"rental_uris":{"android":"levelo://app?vid=bf8f06f8-9f7a-4ca6-97ef-3f544d07990e","ios":"levelo://app?vid=bf8f06f8-9f7a-4ca6-97ef-3f544d07990e"},"vehicle_type_id":"4","last_reported":1743264602,"current_range_meters":17200,"station_id":"","pricing_plan_id":"cebpf4jnsgd1na2vs0mg"},{"bike_id":"4503e1bd-6c53-4055-8ba2-3634f2ebc935","system_id":"levelo_inurba_marseille","lat":43.29614,"lon":5.37727,"is_reserved":false,"is_disabled":false,"rental_uris":{"android":"levelo://app?vid=4503e1bd-6c53-4055-8ba2-3634f2ebc935","ios":"levelo://app?vid=4503e1bd-6c53-4055-8ba2-3634f2ebc935"},"vehicle_type_id":"4","last_reported":1743264602,"current_range_meters":17200,"station_id":"ce4bgi92rcd13ifvqb90","pricing_plan_id":"cebpf4jnsgd1na2vs0mg"},{"bike_id":"53f761d4-21b0-4fd7-8692-e773e94358c1","system_id":"levelo_inurba_marseille","lat":43.30415,"lon":5.41287,"is_reserved":false,"is_disabled":false,"rental_uris":{"android":"levelo://app?vid=53f761d4-21b0-4fd7-8692-e773e94358c1","ios":"levelo://app?vid=53f761d4-21b0-4fd7-8692-e773e94358c1"},"vehicle_type_id":"4","last_reported":1743264602,"current_range_meters":17200,"station_id":"ce4bhop2rcd13ifvqh8g","pricing_plan_id":"cebpf4jnsgd1na2vs0mg"},{"bike_id":"82d3c38f-f612-4fed-9ee4-86bddb211889","system_id":"levelo_inurba_marseille","lat":43.25002,"lon":5.38952,"is_reserved":false,"is_disabled":false,"rental_uris":{"android":"levelo://app?vid=82d3c38f-f612-4fed-9ee4-86bddb211889","ios":"levelo://app?vid=82d3c38f-f612-4fed-9ee4-86bddb211889"},"vehicle_type_id":"4","last_reported":1743264602,"current_range_meters":17200,"station_id":"ce4bhgp2rcd13ifvqfd0","pricing_plan_id":"cebpf4jnsgd1na2vs0mg"},{"bike_id":"ae7c4f3d-a477-4d89-bef5-fd98d7d296d3","system_id":"levelo_inurba_marseille","lat":43.29884,"lon":5.39553,"is_reserved":false,"is_disabled":false,"rental_uris":{"android":"levelo://app?vid=ae7c4f3d-a477-4d89-bef5-fd98d7d296d3","ios":"levelo://app?vid=ae7c4f3d-a477-4d89-bef5-fd98d7d296d3"},"vehicle_type_id":"4","last_reported":1743264602,"current_range_meters":17200,"station_id":"","pricing_plan_id":"cebpf4jnsgd1na2vs0mg"},{"bike_id":"a5fc5a83-13fe-42d4-88ba-dffad6e27ad6","system_id":"levelo_inurba_marseille","lat":43.295222,"lon":5.375035,"is_reserved":false,"is_disabled":false,"rental_uris":{"android":"levelo://app?vid=a5fc5a83-13fe-42d4-88ba-dffad6e27ad6","ios":"levelo://app?vid=a5fc5a83-13fe-42d4-88ba-dffad6e27ad6"},"vehicle_type_id":"4","last_reported":1743264602,"current_range_meters":17600,"station_id":"ce4bgkp2rcd13ifvqbmg","pricing_plan_id":"cebpf4jnsgd1na2vs0mg"},{"bike_id":"1959cc84-d2d5-4b16-bac3-c017c27eb3d7","system_id":"levelo_inurba_marseille","lat":43.32358,"lon":5.3674,"is_reserved":false,"is_disabled":false,"rental_uris":{"android":"levelo://app?vid=1959cc84-d2d5-4b16-bac3-c017c27eb3d7","ios":"levelo://app?vid=1959cc84-d2d5-4b16-bac3-c017c27eb3d7"},"vehicle_type_id":"4","last_reported":1743264602,"current_range_meters":17600,"station_id":"ce4bhsh2rcd13ifvqi2g","pricing_plan_id":"cebpf4jnsgd1na2vs0mg"},{"bike_id":"c2e94277-389b-4482-ae7e-0f90e44fa1e2","system_id":"levelo_inurba_marseille","lat":43.32099,"lon":5.36794,"is_reserved":false,"is_disabled":false,"rental_uris":{"android":"levelo://app?vid=c2e94277-389b-4482-ae7e-0f90e44fa1e2","ios":"levelo://app?vid=c2e94277-389b-4482-ae7e-0f90e44fa1e2"},"vehicle_type_id":"4","last_reported":1743264602,"current_range_meters":17600,"station_id":"ce4bhrh2rcd13ifvqhug","pricing_plan_id":"cebpf4jnsgd1na2vs0mg"},{"bike_id":"2fdb9863-45cf-4c2d-a289-94d56fb8df3c","system_id":"levelo_inurba_marseille","lat":43.26955,"lon":5.3863,"is_reserved":false,"is_disabled":false,"rental_uris":{"android":"levelo://app?vid=2fdb9863-45cf-4c2d-a289-94d56fb8df3c","ios":"levelo://app?vid=2fdb9863-45cf-4c2d-a289-94d56fb8df3c"},"vehicle_type_id":"4","last_reported":1743264602,"current_range_meters":17600,"station_id":"ce4bhh92rcd13ifvqfh0","pricing_plan_id":"cebpf4jnsgd1na2vs0mg"},{"bike_id":"720aa9ff-bf9e-4b12-b6dc-ad3a905d748f","system_id":"levelo_inurba_marseille","lat":43.304268,"lon":5.397396,"is_reserved":false,"is_disabled":false,"rental_uris":{"android":"levelo://app?vid=720aa9ff-bf9e-4b12-b6dc-ad3a905d748f","ios":"levelo://app?vid=720aa9ff-bf9e-4b12-b6dc-ad3a905d748f"},"vehicle_type_id":"4","last_reported":1743264602,"current_range_meters":17600,"station_id":"ce4bh092rcd13ifvqd20","pricing_plan_id":"cebpf4jnsgd1na2vs0mg"},{"bike_id":"7bcef57b-2b32-4033-b8b4-6fd7fe51a930","system_id":"levelo_inurba_marseille","lat":43.28619,"lon":5.35101,"is_reserved":false,"is_disabled":false,"rental_uris":{"android":"levelo://app?vid=7bcef57b-2b32-4033-b8b4-6fd7fe51a930","ios":"levelo://app?vid=7bcef57b-2b32-4033-b8b4-6fd7fe51a930"},"vehicle_type_id":"4","last_reported":1743264602,"current_range_meters":17600,"station_id":"ce4bhch2rcd13ifvqeug","pricing_plan_id":"cebpf4jnsgd1na2vs0mg"},{"bike_id":"cb0fbdca-c9b7-42c5-a416-ec0198564b78","system_id":"levelo_inurba_marseille","lat":43.296397,"lon":5.377832,"is_reserved":false,"is_disabled":false,"rental_uris":{"android":"levelo://app?vid=cb0fbdca-c9b7-42c5-a416-ec0198564b78","ios":"levelo://app?vid=cb0fbdca-c9b7-42c5-a416-ec0198564b78"},"vehicle_type_id":"4","last_reported":1743264602,"current_range_meters":17600,"station_id":"","pricing_plan_id":"cebpf4jnsgd1na2vs0mg"},{"bike_id":"fef6fa8a-9e66-42f9-bc5a-ae2fdb9299ec","system_id":"levelo_inurba_marseille","lat":43.31169,"lon":5.38716,"is_reserved":false,"is_disabled":false,"rental_uris":{"android":"levelo://app?vid=fef6fa8a-9e66-42f9-bc5a-ae2fdb9299ec","ios":"levelo://app?vid=fef6fa8a-9e66-42f9-bc5a-ae2fdb9299ec"},"vehicle_type_id":"4","last_reported":1743264602,"current_range_meters":18000,"station_id":"ce4bgv12rcd13ifvqcp0","pricing_plan_id":"cebpf4jnsgd1na2vs0mg"},{"bike_id":"90999d59-def8-4d4d-a0de-1b61966a032f","system_id":"levelo_inurba_marseille","lat":43.24073,"lon":5.37743,"is_reserved":false,"is_disabled":false,"rental_uris":{"android":"levelo://app?vid=90999d59-def8-4d4d-a0de-1b61966a032f","ios":"levelo://app?vid=90999d59-def8-4d4d-a0de-1b61966a032f"},"vehicle_type_id":"4","last_reported":1743264602,"current_range_meters":17600,"station_id":"ce4bhnp2rcd13ifvqgvg","pricing_plan_id":"cebpf4jnsgd1na2vs0mg"},{"bike_id":"cfcc8c35-63e8-43b7-9bb2-be95db5729b3","system_id":"levelo_inurba_marseille","lat":43.2743,"lon":5.39418,"is_reserved":false,"is_disabled":false,"rental_uris":{"android":"levelo://app?vid=cfcc8c35-63e8-43b7-9bb2-be95db5729b3","ios":"levelo://app?vid=cfcc8c35-63e8-43b7-9bb2-be95db5729b3"},"vehicle_type_id":"4","last_reported":1743264602,"current_range_meters":17600,"station_id":"ce4bhdp2rcd13ifvqf20","pricing_plan_id":"cebpf4jnsgd1na2vs0mg"},{"bike_id":"b25416cd-3cf8-47b8-9c43-66c48f3f9cec","system_id":"levelo_inurba_marseille","lat":43.30522,"lon":5.3655,"is_reserved":false,"is_disabled":false,"rental_uris":{"android":"levelo://app?vid=b25416cd-3cf8-47b8-9c43-66c48f3f9cec","ios":"levelo://app?vid=b25416cd-3cf8-47b8-9c43-66c48f3f9cec"},"vehicle_type_id":"4","last_reported":1743264602,"current_range_meters":18000,"station_id":"ce4bgs12rcd13ifvqcag","pricing_plan_id":"cebpf4jnsgd1na2vs0mg"},{"bike_id":"d2bdab8d-508c-4617-a487-d6f2ad6bec6a","system_id":"levelo_inurba_marseille","lat":43.28619,"lon":5.351,"is_reserved":false,"is_disabled":false,"rental_uris":{"android":"levelo://app?vid=d2bdab8d-508c-4617-a487-d6f2ad6bec6a","ios":"levelo://app?vid=d2bdab8d-508c-4617-a487-d6f2ad6bec6a"},