{"last_updated":1730578196,"ttl":60,"version":"2.2","data":{"bikes":[{"bike_id":"daa5500f-6039-4d77-bf02-00710b3acec6","system_id":"levelo_inurba_marseille","lat":43.25932,"lon":5.409,"is_reserved":false,"is_disabled":false,"rental_uris":{"android":"levelo://app?vid=daa5500f-6039-4d77-bf02-00710b3acec6","ios":"levelo://app?vid=daa5500f-6039-4d77-bf02-00710b3acec6"},"vehicle_type_id":"4","last_reported":1730578196,"current_range_meters":8400,"station_id":"ce4bhm92rcd13ifvqglg","pricing_plan_id":"cebpf4jnsgd1na2vs0mg"},{"bike_id":"bbedcf01-8d16-416e-bedd-d7dbe6c10a70","system_id":"levelo_inurba_marseille","lat":43.29032,"lon":5.38139,"is_reserved":false,"is_disabled":false,"rental_uris":{"android":"levelo://app?vid=bbedcf01-8d16-416e-bedd-d7dbe6c10a70","ios":"levelo://app?vid=bbedcf01-8d16-416e-bedd-d7dbe6c10a70"},"vehicle_type_id":"4","last_reported":1730578196,"current_range_meters":8800,"station_id":"ce4bh4p2rcd13ifvqe1g","pricing_plan_id":"cebpf4jnsgd1na2vs0mg"},{"bike_id":"5662c3ec-16ac-4646-ad92-7b800105b64d","system_id":"levelo_inurba_marseille","lat":43.25113,"lon":5.40332,"is_reserved":false,"is_disabled":false,"rental_uris":{"android":"levelo://app?vid=5662c3ec-16ac-4646-ad92-7b800105b64d","ios":"levelo://app?vid=5662c3ec-16ac-4646-ad92-7b800105b64d"},"vehicle_type_id":"4","last_reported":1730578196,"current_range_meters":9200,"station_id":"ce4bhlh2rcd13ifvqgig","pricing_plan_id":"cebpf4jnsgd1na2vs0mg"},{"bike_id":"b3291122-c7a5-4136-9d27-54c339264b6a","system_id":"levelo_inurba_marseille","lat":43.316791,"lon":5.404746,"is_reserved":false,"is_disabled":false,"rental_uris":{"android":"levelo://app?vid=b3291122-c7a5-4136-9d27-54c339264b6a","ios":"levelo://app?vid=b3291122-c7a5-4136-9d27-54c339264b6a"},"vehicle_type_id":"4","last_reported":1730578196,"current_range_meters":7200,"station_id":"ce4bh012rcd13ifvqd00","pricing_plan_id":"cebpf4jnsgd1na2vs0mg"},{"bike_id":"9553eed1-9199-4349-9adf-95907cd33043","system_id":"levelo_inurba_marseille","lat":43.30284,"lon":5.37711,"is_reserved":false,"is_disabled":false,"rental_uris":{"android":"levelo://app?vid=9553eed1-9199-4349-9adf-95907cd33043","ios":"levelo://app?vid=9553eed1-9199-4349-9adf-95907cd33043"},"vehicle_type_id":"4","last_reported":1730578196,"current_range_meters":38000,"station_id":"ce4bguh2rcd13ifvqcj0","pricing_plan_id":"cebpf4jnsgd1na2vs0mg"},{"bike_id":"4f63a1a0-74bc-4095-92d6-edf4cb2d7393","system_id":"levelo_inurba_marseille","lat":43.28921,"lon":5.38395,"is_reserved":false,"is_disabled":false,"rental_uris":{"android":"levelo://app?vid=4f63a1a0-74bc-4095-92d6-edf4cb2d7393","ios":"levelo://app?vid=4f63a1a0-74bc-4095-92d6-edf4cb2d7393"},"vehicle_type_id":"4","last_reported":1730578196,"current_range_meters":27200,"station_id":"ce4bh612rcd13ifvqe6g","pricing_plan_id":"cebpf4jnsgd1na2vs0mg"},{"bike_id":"bb251bd2-01e1-4d58-b0e0-a5ddcb7dfa56","system_id":"levelo_inurba_marseille","lat":43.24675,"lon":5.38164,"is_reserved":false,"is_disabled":false,"rental_uris":{"android":"levelo://app?vid=bb251bd2-01e1-4d58-b0e0-a5ddcb7dfa56","ios":"levelo://app?vid=bb251bd2-01e1-4d58-b0e0-a5ddcb7dfa56"},"vehicle_type_id":"4","last_reported":1730578196,"current_range_meters":38000,"station_id":"ce4bhih2rcd13ifvqfr0","pricing_plan_id":"cebpf4jnsgd1na2vs0mg"},{"bike_id":"37063947-a07e-4679-957d-4b507daa086a","system_id":"levelo_inurba_marseille","lat":43.29977,"lon":5.38495,"is_reserved":false,"is_disabled":false,"rental_uris":{"android":"levelo://app?vid=37063947-a07e-4679-957d-4b507daa086a","ios":"levelo://app?vid=37063947-a07e-4679-957d-4b507daa086a"},"vehicle_type_id":"4","last_reported":1730578196,"current_range_meters":38000,"station_id":"ce4bgj92rcd13ifvqbd0","pricing_plan_id":"cebpf4jnsgd1na2vs0mg"},{"bike_id":"30e0557d-7c00-4cc4-b98a-d3389aae5dda","system_id":"levelo_inurba_marseille","lat":43.30895,"lon":5.39649,"is_reserved":false,"is_disabled":false,"rental_uris":{"android":"levelo://app?vid=30e0557d-7c00-4cc4-b98a-d3389aae5dda","ios":"levelo://app?vid=30e0557d-7c00-4cc4-b98a-d3389aae5dda"},"vehicle_type_id":"4","last_reported":1730578196,"current_range_meters":27600,"station_id":"ce4bh012rcd13ifvqcv0","pricing_plan_id":"cebpf4jnsgd1na2vs0mg"},{"bike_id":"463a5fa2-247f-46f7-a9ca-b55d6029c4c8","system_id":"levelo_inurba_marseille","lat":43.27501,"lon":5.42454,"is_reserved":false,"is_disabled":false,"rental_uris":{"android":"levelo://app?vid=463a5fa2-247f-46f7-a9ca-b55d6029c4c8","ios":"levelo://app?vid=463a5fa2-247f-46f7-a9ca-b55d6029c4c8"},"vehicle_type_id":"4","last_reported":1730578196,"current_range_meters":40000,"station_id":"ce4bhn92rcd13ifvqgrg","pricing_plan_id":"cebpf4jnsgd1na2vs0mg"},{"bike_id":"58a97ccd-c78e-42ea-bbe5-395d87745a47","system_id":"levelo_inurba_marseille","lat":43.29602,"lon":5.38099,"is_reserved":false,"is_disabled":false,"rental_uris":{"android":"levelo://app?vid=58a97ccd-c78e-42ea-bbe5-395d87745a47","ios":"levelo://app?vid=58a97ccd-c78e-42ea-bbe5-395d87745a47"},"vehicle_type_id":"4","last_reported":1730578196,"current_range_meters":6400,"station_id":"ce4bgl12rcd13ifvqbo0","pricing_plan_id":"cebpf4jnsgd1na2vs0mg"},{"bike_id":"06bb3136-de31-411d-a1e3-31b723768622","system_id":"levelo_inurba_marseille","lat":43.29534,"lon":5.38545,"is_reserved":false,"is_disabled":false,"rental_uris":{"android":"levelo://app?vid=06bb3136-de31-411d-a1e3-31b723768622","ios":"levelo://app?vid=06bb3136-de31-411d-a1e3-31b723768622"},"vehicle_type_id":"4","last_reported":1730578196,"current_range_meters":38800,"station_id":"ce4bgih2rcd13ifvqba0","pricing_plan_id":"cebpf4jnsgd1na2vs0mg"},{"bike_id":"3d4bafe7-d527-4205-b862-55fe7a9e28db","system_id":"levelo_inurba_marseille","lat":43.26803,"lon":5.40271,"is_reserved":false,"is_disabled":false,"rental_uris":{"android":"levelo://app?vid=3d4bafe7-d527-4205-b862-55fe7a9e28db","ios":"levelo://app?vid=3d4bafe7-d527-4205-b862-55fe7a9e28db"},"vehicle_type_id":"4","last_reported":1730578196,"current_range_meters":2800,"station_id":"ce501612rcd8frsf0b60","pricing_plan_id":"cebpf4jnsgd1na2vs0mg"},{"bike_id":"16869cb2-a83c-40e2-9d7b-80e1114c2015","system_id":"levelo_inurba_marseille","lat":43.22927,"lon":5.35376,"is_reserved":false,"is_disabled":false,"rental_uris":{"android":"levelo://app?vid=16869cb2-a83c-40e2-9d7b-80e1114c2015","ios":"levelo://app?vid=16869cb2-a83c-40e2-9d7b-80e1114c2015"},"vehicle_type_id":"4","last_reported":1730578196,"current_range_meters":38800,"station_id":"cpo3532slgdg3j2ikp40","pricing_plan_id":"cebpf4jnsgd1na2vs0mg"},{"bike_id":"5818a6ac-2d40-4bf0-a920-aefa2e8a89fa","system_id":"levelo_inurba_marseille","lat":43.26491,"lon":5.3955,"is_reserved":false,"is_disabled":false,"rental_uris":{"android":"levelo://app?vid=5818a6ac-2d40-4bf0-a920-aefa2e8a89fa","ios":"levelo://app?vid=5818a6ac-2d40-4bf0-a920-aefa2e8a89fa"},"vehicle_type_id":"4","last_reported":1730578196,"current_range_meters":27600,"station_id":"ce4bhi12rcd13ifvqfq0","pricing_plan_id":"cebpf4jnsgd1na2vs0mg"},{"bike_id":"39e48f94-e636-4fd8-a174-0a1f227ded4f","system_id":"levelo_inurba_marseille","lat":43.29254,"lon":5.38436,"is_reserved":false,"is_disabled":false,"rental_uris":{"android":"levelo://app?vid=39e48f94-e636-4fd8-a174-0a1f227ded4f","ios":"levelo://app?vid=39e48f94-e636-4fd8-a174-0a1f227ded4f"},"vehicle_type_id":"4","last_reported":1730578196,"current_range_meters":17200,"station_id":"ce4bh692rcd13ifvqea0","pricing_plan_id":"cebpf4jnsgd1na2vs0mg"},{"bike_id":"3aae935e-f19b-4b82-860a-9e86c4796487","system_id":"levelo_inurba_marseille","lat":43.25867,"lon":5.39903,"is_reserved":false,"is_disabled":false,"rental_uris":{"android":"levelo://app?vid=3aae935e-f19b-4b82-860a-9e86c4796487","ios":"levelo://app?vid=3aae935e-f19b-4b82-860a-9e86c4796487"},"vehicle_type_id":"4","last_reported":1730578196,"current_range_meters":8000,"station_id":"ce4bhl92rcd13ifvqghg","pricing_plan_id":"cebpf4jnsgd1na2vs0mg"},{"bike_id":"09cd329c-1fa7-4b20-a274-2cdef2d8cd4f","system_id":"levelo_inurba_marseille","lat":43.24072,"lon":5.3776,"is_reserved":false,"is_disabled":false,"rental_uris":{"android":"levelo://app?vid=09cd329c-1fa7-4b20-a274-2cdef2d8cd4f","ios":"levelo://app?vid=09cd329c-1fa7-4b20-a274-2cdef2d8cd4f"},"vehicle_type_id":"4","last_reported":1730578196,"current_range_meters":38800,"station_id":"ce4bhnp2rcd13ifvqgvg","pricing_plan_id":"cebpf4jnsgd1na2vs0mg"},{"bike_id":"6aee0ce1-c7a0-45e8-a515-069ca31b3763","system_id":"levelo_inurba_marseille","lat":43.25729,"lon":5.41117,"is_reserved":false,"is_disabled":false,"rental_uris":{"android":"levelo://app?vid=6aee0ce1-c7a0-45e8-a515-069ca31b3763","ios":"levelo://app?vid=6aee0ce1-c7a0-45e8-a515-069ca31b3763"},"vehicle_type_id":"4","last_reported":1730578196,"current_range_meters":37600,"station_id":"ce4bhkp2rcd13ifvqgd0","pricing_plan_id":"cebpf4jnsgd1na2vs0mg"},{"bike_id":"cecfe0cd-745f-48d6-88c2-20872f9b12fa","system_id":"levelo_inurba_marseille","lat":43.25868,"lon":5.399,"is_reserved":false,"is_disabled":false,"rental_uris":{"android":"levelo://app?vid=cecfe0cd-745f-48d6-88c2-20872f9b12fa","ios":"levelo://app?vid=cecfe0cd-745f-48d6-88c2-20872f9b12fa"},"vehicle_type_id":"4","last_reported":1730578196,"current_range_meters":21600,"station_id":"ce4bhl92rcd13ifvqghg","pricing_plan_id":"cebpf4jnsgd1na2vs0mg"},{"bike_id":"40a0df66-1640-4ca8-b679-3dd5aaaa8983","system_id":"levelo_inurba_marseille","lat":43.29597,"lon":5.38105,"is_reserved":false,"is_disabled":false,"rental_uris":{"android":"levelo://app?vid=40a0df66-1640-4ca8-b679-3dd5aaaa8983","ios":"levelo://app?vid=40a0df66-1640-4ca8-b679-3dd5aaaa8983"},"vehicle_type_id":"4","last_reported":1730578196,"current_range_meters":38800,"station_id":"ce4bgl12rcd13ifvqbo0","pricing_plan_id":"cebpf4jnsgd1na2vs0mg"},{"bike_id":"6535e471-b2bd-4843-8ca0-ee6c16f1d74f","system_id":"levelo_inurba_marseille","lat":43.29532,"lon":5.38542,"is_reserved":false,"is_disabled":false,"rental_uris":{"android":"levelo://app?vid=6535e471-b2bd-4843-8ca0-ee6c16f1d74f","ios":"levelo://app?vid=6535e471-b2bd-4843-8ca0-ee6c16f1d74f"},"vehicle_type_id":"4","last_reported":1730578196,"current_range_meters":37600,"station_id":"ce4bgih2rcd13ifvqba0","pricing_plan_id":"cebpf4jnsgd1na2vs0mg"},{"bike_id":"de11b8f7-6d15-484a-821b-fa6044d2145a","system_id":"levelo_inurba_marseille","lat":43.29034,"lon":5.38636,"is_reserved":false,"is_disabled":false,"rental_uris":{"android":"levelo://app?vid=de11b8f7-6d15-484a-821b-fa6044d2145a","ios":"levelo://app?vid=de11b8f7-6d15-484a-821b-fa6044d2145a"},"vehicle_type_id":"4","last_reported":1730578196,"current_range_meters":13600,"station_id":"ce4bh4p2rcd13ifvqe0g","pricing_plan_id":"cebpf4jnsgd1na2vs0mg"},{"bike_id":"41e69a9b-66f4-4c88-9e8e-24877c19a722","system_id":"levelo_inurba_marseille","lat":43.26548,"lon":5.37288,"is_reserved":false,"is_disabled":false,"rental_uris":{"android":"levelo://app?vid=41e69a9b-66f4-4c88-9e8e-24877c19a722","ios":"levelo://app?vid=41e69a9b-66f4-4c88-9e8e-24877c19a722"},"vehicle_type_id":"4","last_reported":1730578196,"current_range_meters":38800,"station_id":"ce4bhg12rcd13ifvqf70","pricing_plan_id":"cebpf4jnsgd1na2vs0mg"},{"bike_id":"22cb7bf5-d924-4c42-b792-42240584238f","system_id":"levelo_inurba_marseille","lat":43.23154,"lon":5.43719,"is_reserved":false,"is_disabled":false,"rental_uris":{"android":"levelo://app?vid=22cb7bf5-d924-4c42-b792-42240584238f","ios":"levelo://app?vid=22cb7bf5-d924-4c42-b792-42240584238f"},"vehicle_type_id":"4","last_reported":1730578196,"current_range_meters":38800,"station_id":"ce4bhmp2rcd13ifvqgog","pricing_plan_id":"cebpf4jnsgd1na2vs0mg"},{"bike_id":"f3644f25-acbb-49ac-ab9c-e91b11f01fa4","system_id":"levelo_inurba_marseille","lat":43.25871,"lon":5.39903,"is_reserved":false,"is_disabled":false,"rental_uris":{"android":"levelo://app?vid=f3644f25-acbb-49ac-ab9c-e91b11f01fa4","ios":"levelo://app?vid=f3644f25-acbb-49ac-ab9c-e91b11f01fa4"},"vehicle_type_id":"4","last_reported":1730578196,"current_range_meters":28400,"station_id":"ce4bhl92rcd13ifvqghg","pricing_plan_id":"cebpf4jnsgd1na2vs0mg"},{"bike_id":"eeda0a49-c95e-447a-b118-263faeb6a58f","system_id":"levelo_inurba_marseille","lat":43.29694,"lon":5.37769,"is_reserved":false,"is_disabled":false,"rental_uris":{"android":"levelo://app?vid=eeda0a49-c95e-447a-b118-263faeb6a58f","ios":"levelo://app?vid=eeda0a49-c95e-447a-b118-263faeb6a58f"},"vehicle_type_id":"4","last_reported":1730578196,"current_range_meters":38400,"station_id":"","pricing_plan_id":"cebpf4jnsgd1na2vs0mg"},{"bike_id":"8d41147a-603e-48de-b882-d820dc81e6e0","system_id":"levelo_inurba_marseille","lat":43.24649,"lon":5.38889,"is_reserved":false,"is_disabled":false,"rental_uris":{"android":"levelo://app?vid=8d41147a-603e-48de-b882-d820dc81e6e0","ios":"levelo://app?vid=8d41147a-603e-48de-b882-d820dc81e6e0"},"vehicle_type_id":"4","last_reported":1730578196,"current_range_meters":12800,"station_id":"ce4bhg12rcd13ifvqf60","pricing_plan_id":"cebpf4jnsgd1na2vs0mg"},{"bike_id":"7c7d1006-c639-41fb-8494-30c1b66d395e","system_id":"levelo_inurba_marseille","lat":43.2465,"lon":5.38895,"is_reserved":false,"is_disabled":false,"rental_uris":{"android":"levelo://app?vid=7c7d1006-c639-41fb-8494-30c1b66d395e","ios":"levelo://app?vid=7c7d1006-c639-41fb-8494-30c1b66d395e"},"vehicle_type_id":"4","last_reported":1730578196,"current_range_meters":30800,"station_id":"ce4bhg12rcd13ifvqf60","pricing_plan_id":"cebpf4jnsgd1na2vs0mg"},{"bike_id":"a8973268-a639-425d-a77f-dbb234d69b4e","system_id":"levelo_inurba_marseille","lat":43.29265,"lon":5.38442,"is_reserved":false,"is_disabled":false,"rental_uris":{"android":"levelo://app?vid=a8973268-a639-425d-a77f-dbb234d69b4e","ios":"levelo://app?vid=a8973268-a639-425d-a77f-dbb234d69b4e"},"vehicle_type_id":"4","last_reported":1730578196,"current_range_meters":11600,"station_id":"ce4bh692rcd13ifvqea0","pricing_plan_id":"cebpf4jnsgd1na2vs0mg"},{"bike_id":"9b0246e2-e237-4e54-82e7-0050e841eb00","system_id":"levelo_inurba_marseille","lat":43.29369,"lon":5.40158,"is_reserved":false,"is_disabled":false,"rental_uris":{"android":"levelo://app?vid=9b0246e2-e237-4e54-82e7-0050e841eb00","ios":"levelo://app?vid=9b0246e2-e237-4e54-82e7-0050e841eb00"},"vehicle_type_id":"4","last_reported":1730578196,"current_range_meters":34000,"station_id":"ce4bh312rcd13ifvqdk0","pricing_plan_id":"cebpf4jnsgd1na2vs0mg"},{"bike_id":"6e2c93b7-ebb4-422a-b427-e48707211c9b","system_id":"levelo_inurba_marseille","lat":43.30424,"lon":5.41289,"is_reserved":false,"is_disabled":false,"rental_uris":{"android":"levelo://app?vid=6e2c93b7-ebb4-422a-b427-e48707211c9b","ios":"levelo://app?vid=6e2c93b7-ebb4-422a-b427-e48707211c9b"},"vehicle_type_id":"4","last_reported":1730578196,"current_range_meters":12000,"station_id":"ce4bhop2rcd13ifvqh8g","pricing_plan_id":"cebpf4jnsgd1na2vs0mg"},{"bike_id":"7f39b1a9-937f-4de6-9cb9-6fb824b11a9d","system_id":"levelo_inurba_marseille","lat":43.29262,"lon":5.36835,"is_reserved":false,"is_disabled":false,"rental_uris":{"android":"levelo://app?vid=7f39b1a9-937f-4de6-9cb9-6fb824b11a9d","ios":"levelo://app?vid=7f39b1a9-937f-4de6-9cb9-6fb824b11a9d"},"vehicle_type_id":"4","last_reported":1730578196,"current_range_meters":28800,"station_id":"ce4bhbp2rcd13ifvqesg","pricing_plan_id":"cebpf4jnsgd1na2vs0mg"},{"bike_id":"600c2d8d-089c-4a44-989f-9dff04562a3d","system_id":"levelo_inurba_marseille","lat":43.29268,"lon":5.36849,"is_reserved":false,"is_disabled":false,"rental_uris":{"android":"levelo://app?vid=600c2d8d-089c-4a44-989f-9dff04562a3d","ios":"levelo://app?vid=600c2d8d-089c-4a44-989f-9dff04562a3d"},"vehicle_type_id":"4","last_reported":1730578196,"current_range_meters":20400,"station_id":"ce4bhbp2rcd13ifvqesg","pricing_plan_id":"cebpf4jnsgd1na2vs0mg"},{"bike_id":"698ea456-e6e0-47cd-be00-8bce225ba3a1","system_id":"levelo_inurba_marseille","lat":43.25497,"lon":5.3765,"is_reserved":false,"is_disabled":false,"rental_uris":{"android":"levelo://app?vid=698ea456-e6e0-47cd-be00-8bce225ba3a1","ios":"levelo://app?vid=698ea456-e6e0-47cd-be00-8bce225ba3a1"},"vehicle_type_id":"4","last_reported":1730578196,"current_range_meters":36000,"station_id":"ce4bhh12rcd13ifvqff0","pricing_plan_id":"cebpf4jnsgd1na2vs0mg"},{"bike_id":"2a536592-c2cb-4e9a-9313-886fec181cf3","system_id":"levelo_inurba_marseille","lat":43.2942,"lon":5.38621,"is_reserved":false,"is_disabled":false,"rental_uris":{"android":"levelo://app?vid=2a536592-c2cb-4e9a-9313-886fec181cf3","ios":"levelo://app?vid=2a536592-c2cb-4e9a-9313-886fec181cf3"},"vehicle_type_id":"4","last_reported":1730578196,"current_range_meters":26800,"station_id":"ce4bh2h2rcd13ifvqdh0","pricing_plan_id":"cebpf4jnsgd1na2vs0mg"},{"bike_id":"7ca7398d-064f-4241-a5e2-f25f744c467b","system_id":"levelo_inurba_marseille","lat":43.29526,"lon":5.38554,"is_reserved":false,"is_disabled":false,"rental_uris":{"android":"levelo://app?vid=7ca7398d-064f-4241-a5e2-f25f744c467b","ios":"levelo://app?vid=7ca7398d-064f-4241-a5e2-f25f744c467b"},"vehicle_type_id":"4","last_reported":1730578196,"current_range_meters":38800,"station_id":"ce4bgih2rcd13ifvqba0","pricing_plan_id":"cebpf4jnsgd1na2vs0mg"},{"bike_id":"7b653e49-1238-4217-bd2b-e5c2596e9f2b","system_id":"levelo_inurba_marseille","lat":43.272014,"lon":5.391735,"is_reserved":false,"is_disabled":false,"rental_uris":{"android":"levelo://app?vid=7b653e49-1238-4217-bd2b-e5c2596e9f2b","ios":"levelo://app?vid=7b653e49-1238-4217-bd2b-e5c2596e9f2b"},"vehicle_type_id":"4","last_reported":1730578196,"current_range_meters":6000,"station_id":"ce4bhhp2rcd13ifvqfm0","pricing_plan_id":"cebpf4jnsgd1na2vs0mg"},{"bike_id":"9214ab54-3758-4eab-a1e4-9b2d618824d5","system_id":"levelo_inurba_marseille","lat":43.28729,"lon":5.36096,"is_reserved":false,"is_disabled":false,"rental_uris":{"android":"levelo://app?vid=9214ab54-3758-4eab-a1e4-9b2d618824d5","ios":"levelo://app?vid=9214ab54-3758-4eab-a1e4-9b2d618824d5"},"vehicle_type_id":"4","last_reported":1730578196,"current_range_meters":38800,"station_id":"cki0cbj6b192h4jlfktg","pricing_plan_id":"cebpf4jnsgd1na2vs0mg"},{"bike_id":"15c52a6c-d60a-43cb-838c-ca43903292d7","system_id":"levelo_inurba_marseille","lat":43.29293,"lon":5.37452,"is_reserved":false,"is_disabled":false,"rental_uris":{"android":"levelo://app?vid=15c52a6c-d60a-43cb-838c-ca43903292d7","ios":"levelo://app?vid=15c52a6c-d60a-43cb-838c-ca43903292d7"},"vehicle_type_id":"4","last_reported":1730578196,"current_range_meters":17200,"station_id":"ce4bgi12rcd13ifvqb70","pricing_plan_id":"cebpf4jnsgd1na2vs0mg"},{"bike_id":"99d7c7dc-2e91-4267-811b-4302f16a1504","system_id":"levelo_inurba_marseille","lat":43.25111,"lon":5.40322,"is_reserved":false,"is_disabled":false,"rental_uris":{"android":"levelo://app?vid=99d7c7dc-2e91-4267-811b-4302f16a1504","ios":"levelo://app?vid=99d7c7dc-2e91-4267-811b-4302f16a1504"},"vehicle_type_id":"4","last_reported":1730578196,"current_range_meters":6400,"station_id":"ce4bhlh2rcd13ifvqgig","pricing_plan_id":"cebpf4jnsgd1na2vs0mg"},{"bike_id":"2fecd123-2276-416f-a249-18b8dca5a399","system_id":"levelo_inurba_marseille","lat":43.32366,"lon":5.38891,"is_reserved":false,"is_disabled":false,"rental_uris":{"android":"levelo://app?vid=2fecd123-2276-416f-a249-18b8dca5a399","ios":"levelo://app?vid=2fecd123-2276-416f-a249-18b8dca5a399"},"vehicle_type_id":"4","last_reported":1730578196,"current_range_meters":16400,"station_id":"ce4bhqp2rcd13ifvqhog","pricing_plan_id":"cebpf4jnsgd1na2vs0mg"},{"bike_id":"f639ff21-8687-4473-bf4e-aadb72e69432","system_id":"levelo_inurba_marseille","lat":43.29978,"lon":5.38499,"is_reserved":false,"is_disabled":false,"rental_uris":{"android":"levelo://app?vid=f639ff21-8687-4473-bf4e-aadb72e69432","ios":"levelo://app?vid=f639ff21-8687-4473-bf4e-aadb72e69432"},"vehicle_type_id":"4","last_reported":1730578196,"current_range_meters":22400,"station_id":"ce4bgj92rcd13ifvqbd0","pricing_plan_id":"cebpf4jnsgd1na2vs0mg"},{"bike_id":"73c275bf-7a27-4795-a2af-ee837a10340a","system_id":"levelo_inurba_marseille","lat":43.29199,"lon":5.39333,"is_reserved":false,"is_disabled":false,"rental_uris":{"android":"levelo://app?vid=73c275bf-7a27-4795-a2af-ee837a10340a","ios":"levelo://app?vid=73c275bf-7a27-4795-a2af-ee837a10340a"},"vehicle_type_id":"4","last_reported":1730578196,"current_range_meters":34000,"station_id":"ce4bh192rcd13ifvqdd0","pricing_plan_id":"cebpf4jnsgd1na2vs0mg"},{"bike_id":"de77c2b5-da72-4876-8627-94d6e7fc04db","system_id":"levelo_inurba_marseille","lat":43.29984,"lon":5.38493,"is_reserved":false,"is_disabled":false,"rental_uris":{"android":"levelo://app?vid=de77c2b5-da72-4876-8627-94d6e7fc04db","ios":"levelo://app?vid=de77c2b5-da72-4876-8627-94d6e7fc04db"},"vehicle_type_id":"4","last_reported":1730578196,"current_range_meters":40000,"station_id":"ce4bgj92rcd13ifvqbd0","pricing_plan_id":"cebpf4jnsgd1na2vs0mg"},{"bike_id":"fd745846-a6ee-4099-aff7-8de6e0f5c52a","system_id":"levelo_inurba_marseille","lat":43.29603,"lon":5.381,"is_reserved":false,"is_disabled":false,"rental_uris":{"android":"levelo://app?vid=fd745846-a6ee-4099-aff7-8de6e0f5c52a","ios":"levelo://app?vid=fd745846-a6ee-4099-aff7-8de6e0f5c52a"},"vehicle_type_id":"4","last_reported":1730578196,"current_range_meters":38800,"station_id":"ce4bgl12rcd13ifvqbo0","pricing_plan_id":"cebpf4jnsgd1na2vs0mg"},{"bike_id":"04dc9d6e-6299-424b-ab50-91d1c8aa78be","system_id":"levelo_inurba_marseille","lat":43.28878,"lon":5.3862,"is_reserved":false,"is_disabled":false,"rental_uris":{"android":"levelo://app?vid=04dc9d6e-6299-424b-ab50-91d1c8aa78be","ios":"levelo://app?vid=04dc9d6e-6299-424b-ab50-91d1c8aa78be"},"vehicle_type_id":"4","last_reported":1730578196,"current_range_meters":29600,"station_id":"","pricing_plan_id":"cebpf4jnsgd1na2vs0mg"},{"bike_id":"082aac60-5689-48db-9609-5cc754422d4e","system_id":"levelo_inurba_marseille","lat":43.29294,"lon":5.37462,"is_reserved":false,"is_disabled":false,"rental_uris":{"android":"levelo://app?vid=082aac60-5689-48db-9609-5cc754422d4e","ios":"levelo://app?vid=082aac60-5689-48db-9609-5cc754422d4e"},"vehicle_type_id":"4","last_reported":1730578196,"current_range_meters":36400,"station_id":"ce4bgi12rcd13ifvqb70","pricing_plan_id":"cebpf4jnsgd1na2vs0mg"},{"bike_id":"60ed099f-3f6a-411e-a5a0-e97af086b24d","system_id":"levelo_inurba_marseille","lat":43.32541,"lon":5.41457,"is_reserved":false,"is_disabled":false,"rental_uris":{"android":"levelo://app?vid=60ed099f-3f6a-411e-a5a0-e97af086b24d","ios":"levelo://app?vid=60ed099f-3f6a-411e-a5a0-e97af086b24d"},"vehicle_type_id":"4","last_reported":1730578196,"current_range_meters":37600,"station_id":"ce4bhq12rcd13ifvqhhg","pricing_plan_id":"cebpf4jnsgd1na2vs0mg"},{"bike_id":"c8893d8e-f81f-4744-85fb-448d69741653","system_id":"levelo_inurba_marseille","lat":43.27619,"lon":5.36112,"is_reserved":false,"is_disabled":false,"rental_uris":{"android":"levelo://app?vid=c8893d8e-f81f-4744-85fb-448d69741653","ios":"levelo://app?vid=c8893d8e-f81f-4744-85fb-448d69741653"},"vehicle_type_id":"4","last_reported":1730578196,"current_range_meters":10000,"station_id":"ce4bgj92rcd13ifvqbe0","pricing_plan_id":"cebpf4jnsgd1na2vs0mg"},{"bike_id":"79799d26-31a6-4d94-bd46-90c1d292d30a","system_id":"levelo_inurba_marseille","lat":43.28716,"lon":5.37929,"is_reserved":false,"is_disabled":false,"rental_uris":{"android":"levelo://app?vid=79799d26-31a6-4d94-bd46-90c1d292d30a","ios":"levelo://app?vid=79799d26-31a6-4d94-bd46-90c1d292d30a"},"vehicle_type_id":"4","last_reported":1730578196,"current_range_meters":16400,"station_id":"ce4bh9p2rcd13ifvqec0","pricing_plan_id":"cebpf4jnsgd1na2vs0mg"},{"bike_id":"0a82093f-c563-43bd-960d-e5b6b25c2b85","system_id":"levelo_inurba_marseille","lat":43.31692,"lon":5.40477,"is_reserved":false,"is_disabled":false,"rental_uris":{"android":"levelo://app?vid=0a82093f-c563-43bd-960d-e5b6b25c2b85","ios":"levelo://app?vid=0a82093f-c563-43bd-960d-e5b6b25c2b85"},"vehicle_type_id":"4","last_reported":1730578196,"current_range_meters":38800,"station_id":"ce4bh012rcd13ifvqd00","pricing_plan_id":"cebpf4jnsgd1na2vs0mg"},{"bike_id":"60b2fd11-3cbf-4232-bd92-7ecebd78b656","system_id":"levelo_inurba_marseille","lat":43.28346,"lon":5.38102,"is_reserved":false,"is_disabled":false,"rental_uris":{"android":"levelo://app?vid=60b2fd11-3cbf-4232-bd92-7ecebd78b656","ios":"levelo://app?vid=60b2fd11-3cbf-4232-bd92-7ecebd78b656"},"vehicle_type_id":"4","last_reported":1730578196,"current_range_meters":38800,"station_id":"ce4bh412rcd13ifvqdr0","pricing_plan_id":"cebpf4jnsgd1na2vs0mg"},{"bike_id":"23165fa6-a2fa-4033-aeda-16e5232b0817","system_id":"levelo_inurba_marseille","lat":43.29531,"lon":5.38538,"is_reserved":false,"is_disabled":false,"rental_uris":{"android":"levelo://app?vid=23165fa6-a2fa-4033-aeda-16e5232b0817","ios":"levelo://app?vid=23165fa6-a2fa-4033-aeda-16e5232b0817"},"vehicle_type_id":"4","last_reported":1730578196,"current_range_meters":30800,"station_id":"ce4bgih2rcd13ifvqba0","pricing_plan_id":"cebpf4jnsgd1na2vs0mg"},{"bike_id":"49117932-0a39-4b95-b65b-20a53962716e","system_id":"levelo_inurba_marseille","lat":43.28465,"lon":5.38421,"is_reserved":false,"is_disabled":false,"rental_uris":{"android":"levelo://app?vid=49117932-0a39-4b95-b65b-20a53962716e","ios":"levelo://app?vid=49117932-0a39-4b95-b65b-20a53962716e"},"vehicle_type_id":"4","last_reported":1730578196,"current_range_meters":39200,"station_id":"ce4bh512rcd13ifvqe3g","pricing_plan_id":"cebpf4jnsgd1na2vs0mg"},{"bike_id":"6e569ca9-a99d-4788-9007-a9473932a6e9","system_id":"levelo_inurba_marseille","lat":43.316909,"lon":5.404827,"is_reserved":false,"is_disabled":false,"rental_uris":{"android":"levelo://app?vid=6e569ca9-a99d-4788-9007-a9473932a6e9","ios":"levelo://app?vid=6e569ca9-a99d-4788-9007-a9473932a6e9"},"vehicle_type_id":"4","last_reported":1730578196,"current_range_meters":39200,"station_id":"ce4bh012rcd13ifvqd00","pricing_plan_id":"cebpf4jnsgd1na2vs0mg"},{"bike_id":"7b54dd3d-62bb-4ea5-b392-912736a6d699","system_id":"levelo_inurba_marseille","lat":43.3059,"lon":5.39361,"is_reserved":false,"is_disabled":false,"rental_uris":{"android":"levelo://app?vid=7b54dd3d-62bb-4ea5-b392-912736a6d699","ios":"levelo://app?vid=7b54dd3d-62bb-4ea5-b392-912736a6d699"},"vehicle_type_id":"4","last_reported":1730578196,"current_range_meters":28000,"station_id":"ce4bh0p2rcd13ifvqd80","pricing_plan_id":"cebpf4jnsgd1na2vs0mg"},{"bike_id":"25bb067d-ee56-4f04-8ee3-79359475e8aa","system_id":"levelo_inurba_marseille","lat":43.284736,"lon":5.384204,"is_reserved":false,"is_disabled":false,"rental_uris":{"android":"levelo://app?vid=25bb067d-ee56-4f04-8ee3-79359475e8aa","ios":"levelo://app?vid=25bb067d-ee56-4f04-8ee3-79359475e8aa"},"vehicle_type_id":"4","last_reported":1730578196,"current_range_meters":7200,"station_id":"ce4bh512rcd13ifvqe3g","pricing_plan_id":"cebpf4jnsgd1na2vs0mg"},{"bike_id":"731cb023-8e5d-48f1-bd70-ec129db64500","system_id":"levelo_inurba_marseille","lat":43.29862,"lon":5.39732,"is_reserved":false,"is_disabled":false,"rental_uris":{"android":"levelo://app?vid=731cb023-8e5d-48f1-bd70-ec129db64500","ios":"levelo://app?vid=731cb023-8e5d-48f1-bd70-ec129db64500"},"vehicle_type_id":"4","last_reported":1730578196,"current_range_meters":24400,"station_id":"ce4bh0h2rcd13ifvqd50","pricing_plan_id":"cebpf4jnsgd1na2vs0mg"},{"bike_id":"303fa2cb-47f1-49e3-b675-215509f41865","system_id":"levelo_inurba_marseille","lat":43.326642,"lon":5.409821,"is_reserved":false,"is_disabled":false,"rental_uris":{"android":"levelo://app?vid=303fa2cb-47f1-49e3-b675-215509f41865","ios":"levelo://app?vid=303fa2cb-47f1-49e3-b675-215509f41865"},"vehicle_type_id":"4","last_reported":1730578196,"current_range_meters":28000,"station_id":"ce4bhq92rcd13ifvqhkg","pricing_plan_id":"cebpf4jnsgd1na2vs0mg"},{"bike_id":"d45b605b-8bc4-40b4-a1ae-207e62fbaade","system_id":"levelo_inurba_marseille","lat":43.2794,"lon":5.41039,"is_reserved":false,"is_disabled":false,"rental_uris":{"android":"levelo://app?vid=d45b605b-8bc4-40b4-a1ae-207e62fbaade","ios":"levelo://app?vid=d45b605b-8bc4-40b4-a1ae-207e62fbaade"},"vehicle_type_id":"4","last_reported":1730578196,"current_range_meters":6400,"station_id":"ce4bhnp2rcd13ifvqh0g","pricing_plan_id":"cebpf4jnsgd1na2vs0mg"},{"bike_id":"dba6275b-d1d9-4393-8748-f4fb7a98121b","system_id":"levelo_inurba_marseille","lat":43.25001,"lon":5.38934,"is_reserved":false,"is_disabled":false,"rental_uris":{"android":"levelo://app?vid=dba6275b-d1d9-4393-8748-f4fb7a98121b","ios":"levelo://app?vid=dba6275b-d1d9-4393-8748-f4fb7a98121b"},"vehicle_type_id":"4","last_reported":1730578196,"current_range_meters":8400,"station_id":"ce4bhgp2rcd13ifvqfd0","pricing_plan_id":"cebpf4jnsgd1na2vs0mg"},{"bike_id":"44251baf-455a-4a83-8645-ad4a0c05cb11","system_id":"levelo_inurba_marseille","lat":43.24067,"lon":5.37763,"is_reserved":false,"is_disabled":false,"rental_uris":{"android":"levelo://app?vid=44251baf-455a-4a83-8645-ad4a0c05cb11","ios":"levelo://app?vid=44251baf-455a-4a83-8645-ad4a0c05cb11"},"vehicle_type_id":"4","last_reported":1730578196,"current_range_meters":10800,"station_id":"ce4bhnp2rcd13ifvqgvg","pricing_plan_id":"cebpf4jnsgd1na2vs0mg"},{"bike_id":"d69eef29-33f1-400b-9dbd-e583b4f600d8","system_id":"levelo_inurba_marseille","lat":43.24653,"lon":5.38899,"is_reserved":false,"is_disabled":false,"rental_uris":{"android":"levelo://app?vid=d69eef29-33f1-400b-9dbd-e583b4f600d8","ios":"levelo://app?vid=d69eef29-33f1-400b-9dbd-e583b4f600d8"},"vehicle_type_id":"4","last_reported":1730578196,"current_range_meters":39200,"station_id":"ce4bhg12rcd13ifvqf60","pricing_plan_id":"cebpf4jnsgd1na2vs0mg"},{"bike_id":"e5886f7a-3da2-4ca9-ae30-1e8c1c44a26d","system_id":"levelo_inurba_marseille","lat":43.28973,"lon":5.37825,"is_reserved":false,"is_disabled":false,"rental_uris":{"android":"levelo://app?vid=e5886f7a-3da2-4ca9-ae30-1e8c1c44a26d","ios":"levelo://app?vid=e5886f7a-3da2-4ca9-ae30-1e8c1c44a26d"},"vehicle_type_id":"4","last_reported":1730578196,"current_range_meters":36400,"station_id":"ce4bh9p2rcd13ifvqed0","pricing_plan_id":"cebpf4jnsgd1na2vs0mg"},{"bike_id":"6342d8fc-804f-48c1-bab0-bb5d1f758592","system_id":"levelo_inurba_marseille","lat":43.29795,"lon":5.38111,"is_reserved":false,"is_disabled":false,"rental_uris":{"android":"levelo://app?vid=6342d8fc-804f-48c1-bab0-bb5d1f758592","ios":"levelo://app?vid=6342d8fc-804f-48c1-bab0-bb5d1f758592"},"vehicle_type_id":"4","last_reported":1730578196,"current_range_meters":38800,"station_id":"ce4bgip2rcd13ifvqbb0","pricing_plan_id":"cebpf4jnsgd1na2vs0mg"},{"bike_id":"c72f7cf5-19b1-47f5-ad26-f0caa59757b8","system_id":"levelo_inurba_marseille","lat":43.29809,"lon":5.40407,"is_reserved":false,"is_disabled":false,"rental_uris":{"android":"levelo://app?vid=c72f7cf5-19b1-47f5-ad26-f0caa59757b8","ios":"levelo://app?vid=c72f7cf5-19b1-47f5-ad26-f0caa59757b8"},"vehicle_type_id":"4","last_reported":1730578196,"current_range_meters":38000,"station_id":"ce4bh112rcd13ifvqd90","pricing_plan_id":"cebpf4jnsgd1na2vs0mg"},{"bike_id":"e698eee7-8f58-44b4-8fed-c586a89d6685","system_id":"levelo_inurba_marseille","lat":43.29791,"lon":5.38096,"is_reserved":false,"is_disabled":false,"rental_uris":{"android":"levelo://app?vid=e698eee7-8f58-44b4-8fed-c586a89d6685","ios":"levelo://app?vid=e698eee7-8f58-44b4-8fed-c586a89d6685"},"vehicle_type_id":"4","last_reported":1730578196,"current_range_meters":6800,"station_id":"ce4bgip2rcd13ifvqbb0","pricing_plan_id":"cebpf4jnsgd1na2vs0mg"},{"bike_id":"07ed26ca-4461-444f-a37e-6900b4476044","system_id":"levelo_inurba_marseille","lat":43.29028,"lon":5.38643,"is_reserved":false,"is_disabled":false,"rental_uris":{"android":"levelo://app?vid=07ed26ca-4461-444f-a37e-6900b4476044","ios":"levelo://app?vid=07ed26ca-4461-444f-a37e-6900b4476044"},"vehicle_type_id":"4","last_reported":1730578196,"current_range_meters":11200,"station_id":"ce4bh4p2rcd13ifvqe0g","pricing_plan_id":"cebpf4jnsgd1na2vs0mg"},{"bike_id":"d4986541-9a9b-4a5b-bb55-b01d5cb4582e","system_id":"levelo_inurba_marseille","lat":43.29266,"lon":5.38439,"is_reserved":false,"is_disabled":false,"rental_uris":{"android":"levelo://app?vid=d4986541-9a9b-4a5b-bb55-b01d5cb4582e","ios":"levelo://app?vid=d4986541-9a9b-4a5b-bb55-b01d5cb4582e"},"vehicle_type_id":"4","last_reported":1730578196,"current_range_meters":6800,"station_id":"ce4bh692rcd13ifvqea0","pricing_plan_id":"cebpf4jnsgd1na2vs0mg"},{"bike_id":"a2575e9a-deb3-4ec8-bc88-3a47bf2b627e","system_id":"levelo_inurba_marseille","lat":43.29251,"lon":5.38436,"is_reserved":false,"is_disabled":false,"rental_uris":{"android":"levelo://app?vid=a2575e9a-deb3-4ec8-bc88-3a47bf2b627e","ios":"levelo://app?vid=a2575e9a-deb3-4ec8-bc88-3a47bf2b627e"},"vehicle_type_id":"4","last_reported":1730578196,"current_range_meters":34000,"station_id":"ce4bh692rcd13ifvqea0","pricing_plan_id":"cebpf4jnsgd1na2vs0mg"},{"bike_id":"3a97265e-8f2d-49f6-85df-83b63390a51d","system_id":"levelo_inurba_marseille","lat":43.30782,"lon":5.37655,"is_reserved":false,"is_disabled":false,"rental_uris":{"android":"levelo://app?vid=3a97265e-8f2d-49f6-85df-83b63390a51d","ios":"levelo://app?vid=3a97265e-8f2d-49f6-85df-83b63390a51d"},"vehicle_type_id":"4","last_reported":1730578196,"current_range_meters":25600,"station_id":"ce4bgv92rcd13ifvqcq0","pricing_plan_id":"cebpf4jnsgd1na2vs0mg"},{"bike_id":"8365c946-beae-47ce-87c4-1094a86c3535","system_id":"levelo_inurba_marseille","lat":43.25118,"lon":5.40324,"is_reserved":false,"is_disabled":false,"rental_uris":{"android":"levelo://app?vid=8365c946-beae-47ce-87c4-1094a86c3535","ios":"levelo://app?vid=8365c946-beae-47ce-87c4-1094a86c3535"},"vehicle_type_id":"4","last_reported":1730578196,"current_range_meters":17600,"station_id":"ce4bhlh2rcd13ifvqgig","pricing_plan_id":"cebpf4jnsgd1na2vs0mg"},{"bike_id":"6e1fac28-e571-4551-a4f3-49b4ce0525f2","system_id":"levelo_inurba_marseille","lat":43.29414,"lon":5.38619,"is_reserved":false,"is_disabled":false,"rental_uris":{"android":"levelo://app?vid=6e1fac28-e571-4551-a4f3-49b4ce0525f2","ios":"levelo://app?vid=6e1fac28-e571-4551-a4f3-49b4ce0525f2"},"vehicle_type_id":"4","last_reported":1730578196,"current_range_meters":14800,"station_id":"ce4bh2h2rcd13ifvqdh0","pricing_plan_id":"cebpf4jnsgd1na2vs0mg"},{"bike_id":"7c846da0-afdd-4cfb-8a4c-6aeeeb828b3d","system_id":"levelo_inurba_marseille","lat":43.26491,"lon":5.39553,"is_reserved":false,"is_disabled":false,"rental_uris":{"android":"levelo://app?vid=7c846da0-afdd-4cfb-8a4c-6aeeeb828b3d","ios":"levelo://app?vid=7c846da0-afdd-4cfb-8a4c-6aeeeb828b3d"},"vehicle_type_id":"4","last_reported":1730578196,"current_range_meters":20000,"station_id":"ce4bhi12rcd13ifvqfq0","pricing_plan_id":"cebpf4jnsgd1na2vs0mg"},{"bike_id":"1b760ddd-e34d-491f-9c82-3266310982c8","system_id":"levelo_inurba_marseille","lat":43.26559,"lon":5.37285,"is_reserved":false,"is_disabled":false,"rental_uris":{"android":"levelo://app?vid=1b760ddd-e34d-491f-9c82-3266310982c8","ios":"levelo://app?vid=1b760ddd-e34d-491f-9c82-3266310982c8"},"vehicle_type_id":"4","last_reported":1730578196,"current_range_meters":6800,"station_id":"ce4bhg12rcd13ifvqf70","pricing_plan_id":"cebpf4jnsgd1na2vs0mg"},{"bike_id":"c0dc4e74-ab52-4977-9e54-51b3e1aaadb5","system_id":"levelo_inurba_marseille","lat":43.29013,"lon":5.38141,"is_reserved":false,"is_disabled":false,"rental_uris":{"android":"levelo://app?vid=c0dc4e74-ab52-4977-9e54-51b3e1aaadb5","ios":"levelo://app?vid=c0dc4e74-ab52-4977-9e54-51b3e1aaadb5"},"vehicle_type_id":"4","last_reported":1730578196,"current_range_meters":15200,"station_id":"ce4bh4p2rcd13ifvqe1g","pricing_plan_id":"cebpf4jnsgd1na2vs0mg"},{"bike_id":"0e7dc9ac-472a-4a66-8349-cd60c3504f74","system_id":"levelo_inurba_marseille","lat":43.30692,"lon":5.37363,"is_reserved":false,"is_disabled":false,"rental_uris":{"android":"levelo://app?vid=0e7dc9ac-472a-4a66-8349-cd60c3504f74","ios":"levelo://app?vid=0e7dc9ac-472a-4a66-8349-cd60c3504f74"},"vehicle_type_id":"4","last_reported":1730578196,"current_range_meters":38800,"station_id":"","pricing_plan_id":"cebpf4jnsgd1na2vs0mg"},{"bike_id":"c6176e72-1317-4a2a-99f4-9a0c6661ef54","system_id":"levelo_inurba_marseille","lat":43.29984,"lon":5.38487,"is_reserved":false,"is_disabled":false,"rental_uris":{"android":"levelo://app?vid=c6176e72-1317-4a2a-99f4-9a0c6661ef54","ios":"levelo://app?vid=c6176e72-1317-4a2a-99f4-9a0c6661ef54"},"vehicle_type_id":"4","last_reported":1730578196,"current_range_meters":25600,"station_id":"ce4bgj92rcd13ifvqbd0","pricing_plan_id":"cebpf4jnsgd1na2vs0mg"},{"bike_id":"38f76228-741a-4f06-9884-77f77e60cf4a","system_id":"levelo_inurba_marseille","lat":43.23157,"lon":5.40059,"is_reserved":false,"is_disabled":false,"rental_uris":{"android":"levelo://app?vid=38f76228-741a-4f06-9884-77f77e60cf4a","ios":"levelo://app?vid=38f76228-741a-4f06-9884-77f77e60cf4a"},"vehicle_type_id":"4","last_reported":1730578196,"current_range_meters":10000,"station_id":"","pricing_plan_id":"cebpf4jnsgd1na2vs0mg"},{"bike_id":"55f9175c-b528-4bd1-8ba2-c3100dc8688b","system_id":"levelo_inurba_marseille","lat":43.29532,"lon":5.3854,"is_reserved":false,"is_disabled":false,"rental_uris":{"android":"levelo://app?vid=55f9175c-b528-4bd1-8ba2-c3100dc8688b","ios":"levelo://app?vid=55f9175c-b528-4bd1-8ba2-c3100dc8688b"},"vehicle_type_id":"4","last_reported":1730578196,"current_range_meters":37600,"station_id":"ce4bgih2rcd13ifvqba0","pricing_plan_id":"cebpf4jnsgd1na2vs0mg"},{"bike_id":"61497ec0-6b91-4085-893e-2dc4cbab5392","system_id":"levelo_inurba_marseille","lat":43.32367,"lon":5.38894,"is_reserved":false,"is_disabled":false,"rental_uris":{"android":"levelo://app?vid=61497ec0-6b91-4085-893e-2dc4cbab5392","ios":"levelo://app?vid=61497ec0-6b91-4085-893e-2dc4cbab5392"},"vehicle_type_id":"4","last_reported":1730578196,"current_range_meters":26800,"station_id":"ce4bhqp2rcd13ifvqhog","pricing_plan_id":"cebpf4jnsgd1na2vs0mg"},{"bike_id":"fe482b33-3949-4b1e-a00e-afd6c09217c2","system_id":"levelo_inurba_marseille","lat":43.29967,"lon":5.38491,"is_reserved":false,"is_disabled":false,"rental_uris":{"android":"levelo://app?vid=fe482b33-3949-4b1e-a00e-afd6c09217c2","ios":"levelo://app?vid=fe482b33-3949-4b1e-a00e-afd6c09217c2"},"vehicle_type_id":"4","last_reported":1730578196,"current_range_meters":34000,"station_id":"ce4bgj92rcd13ifvqbd0","pricing_plan_id":"cebpf4jnsgd1na2vs0mg"},{"bike_id":"6b7a3137-f431-40ec-9caf-addf256082a5","system_id":"levelo_inurba_marseille","lat":43.29256,"lon":5.38434,"is_reserved":false,"is_disabled":false,"rental_uris":{"android":"levelo://app?vid=6b7a3137-f431-40ec-9caf-addf256082a5","ios":"levelo://app?vid=6b7a3137-f431-40ec-9caf-addf256082a5"},"vehicle_type_id":"4","last_reported":1730578196,"current_range_meters":9600,"station_id":"ce4bh692rcd13ifvqea0","pricing_plan_id":"cebpf4jnsgd1na2vs0mg"},{"bike_id":"e55d8d6f-7394-4584-af8a-c65aaa7989ef","system_id":"levelo_inurba_marseille","lat":43.26064,"lon":5.39392,"is_reserved":false,"is_disabled":false,"rental_uris":{"android":"levelo://app?vid=e55d8d6f-7394-4584-af8a-c65aaa7989ef","ios":"levelo://app?vid=e55d8d6f-7394-4584-af8a-c65aaa7989ef"},"vehicle_type_id":"4","last_reported":1730578196,"current_range_meters":8400,"station_id":"ce4bhh92rcd13ifvqfj0","pricing_plan_id":"cebpf4jnsgd1na2vs0mg"},{"bike_id":"d756c1c6-18f3-40bb-b9cc-f08b4fbfe501","system_id":"levelo_inurba_marseille","lat":43.30903,"lon":5.37857,"is_reserved":false,"is_disabled":false,"rental_uris":{"android":"levelo://app?vid=d756c1c6-18f3-40bb-b9cc-f08b4fbfe501","ios":"levelo://app?vid=d756c1c6-18f3-40bb-b9cc-f08b4fbfe501"},"vehicle_type_id":"4","last_reported":1730578196,"current_range_meters":8400,"station_id":"ce4bgv92rcd13ifvqcq0","pricing_plan_id":"cebpf4jnsgd1na2vs0mg"},{"bike_id":"d3f56f17-ac1a-464c-b9d7-9bc3311153ab","system_id":"levelo_inurba_marseille","lat":43.24661,"lon":5.38158,"is_reserved":false,"is_disabled":false,"rental_uris":{"android":"levelo://app?vid=d3f56f17-ac1a-464c-b9d7-9bc3311153ab","ios":"levelo://app?vid=d3f56f17-ac1a-464c-b9d7-9bc3311153ab"},"vehicle_type_id":"4","last_reported":1730578196,"current_range_meters":8400,"station_id":"ce4bhih2rcd13ifvqfr0","pricing_plan_id":"cebpf4jnsgd1na2vs0mg"},{"bike_id":"c9836de4-dae6-4bfc-aef6-8b7c0c537e63","system_id":"levelo_inurba_marseille","lat":43.25874,"lon":5.39901,"is_reserved":false,"is_disabled":false,"rental_uris":{"android":"levelo://app?vid=c9836de4-dae6-4bfc-aef6-8b7c0c537e63","ios":"levelo://app?vid=c9836de4-dae6-4bfc-aef6-8b7c0c537e63"},"vehicle_type_id":"4","last_reported":1730578196,"current_range_meters":11200,"station_id":"ce4bhl92rcd13ifvqghg","pricing_plan_id":"cebpf4jnsgd1na2vs0mg"},{"bike_id":"bfb22acd-ffa7-483f-9dbc-8a15a18012d1","system_id":"levelo_inurba_marseille","lat":43.29306,"lon":5.37468,"is_reserved":false,"is_disabled":false,"rental_uris":{"android":"levelo://app?vid=bfb22acd-ffa7-483f-9dbc-8a15a18012d1","ios":"levelo://app?vid=bfb22acd-ffa7-483f-9dbc-8a15a18012d1"},"vehicle_type_id":"4","last_reported":1730578196,"current_range_meters":22000,"station_id":"ce4bgi12rcd13ifvqb70","pricing_plan_id":"cebpf4jnsgd1na2vs0mg"},{"bike_id":"49f0f2d2-d3bb-4098-8c41-801a52b040be","system_id":"levelo_inurba_marseille","lat":43.28344,"lon":5.38104,"is_reserved":false,"is_disabled":false,"rental_uris":{"android":"levelo://app?vid=49f0f2d2-d3bb-4098-8c41-801a52b040be","ios":"levelo://app?vid=49f0f2d2-d3bb-4098-8c41-801a52b040be"},"vehicle_type_id":"4","last_reported":1730578196,"current_range_meters":38800,"station_id":"ce4bh412rcd13ifvqdr0","pricing_plan_id":"cebpf4jnsgd1na2vs0mg"},{"bike_id":"6338020e-474a-4c99-b365-eea26fe54739","system_id":"levelo_inurba_marseille","lat":43.32293,"lon":5.38288,"is_reserved":false,"is_disabled":false,"rental_uris":{"android":"levelo://app?vid=6338020e-474a-4c99-b365-eea26fe54739","ios":"levelo://app?vid=6338020e-474a-4c99-b365-eea26fe54739"},"vehicle_type_id":"4","last_reported":1730578196,"current_range_meters":37600,"station_id":"ce4bhr12rcd13ifvqhqg","pricing_plan_id":"cebpf4jnsgd1na2vs0mg"},{"bike_id":"3cc80ee9-2790-4698-ba87-e0a476c104f2","system_id":"levelo_inurba_marseille","lat":43.29264,"lon":5.38451,"is_reserved":false,"is_disabled":false,"rental_uris":{"android":"levelo://app?vid=3cc80ee9-2790-4698-ba87-e0a476c104f2","ios":"levelo://app?vid=3cc80ee9-2790-4698-ba87-e0a476c104f2"},"vehicle_type_id":"4","last_reported":1730578196,"current_range_meters":27600,"station_id":"ce4bh692rcd13ifvqea0","pricing_plan_id":"cebpf4jnsgd1na2vs0mg"},{"bike_id":"cd8f0d38-832b-43a2-8d6b-cb4afea04963","system_id":"levelo_inurba_marseille","lat":43.26209,"lon":5.3744,"is_reserved":false,"is_disabled":false,"rental_uris":{"android":"levelo://app?vid=cd8f0d38-832b-43a2-8d6b-cb4afea04963","ios":"levelo://app?vid=cd8f0d38-832b-43a2-8d6b-cb4afea04963"},"vehicle_type_id":"4","last_reported":1730578196,"current_range_meters":34800,"station_id":"ce4bhgp2rcd13ifvqfc0","pricing_plan_id":"cebpf4jnsgd1na2vs0mg"},{"bike_id":"34415bf6-f4b7-4156-a986-691505e07001","system_id":"levelo_inurba_marseille","lat":43.289673,"lon":5.385321,"is_reserved":false,"is_disabled":false,"rental_uris":{"android":"levelo://app?vid=34415bf6-f4b7-4156-a986-691505e07001","ios":"levelo://app?vid=34415bf6-f4b7-4156-a986-691505e07001"},"vehicle_type_id":"4","last_reported":1730578196,"current_range_meters":22400,"station_id":"","pricing_plan_id":"cebpf4jnsgd1na2vs0mg"},{"bike_id":"2049eb75-1ac5-496b-9eda-ab49e2c71d35","system_id":"levelo_inurba_marseille","lat":43.29524,"lon":5.37503,"is_reserved":false,"is_disabled":false,"rental_uris":{"android":"levelo://app?vid=2049eb75-1ac5-496b-9eda-ab49e2c71d35","ios":"levelo://app?vid=2049eb75-1ac5-496b-9eda-ab49e2c71d35"},"vehicle_type_id":"4","last_reported":1730578196,"current_range_meters":5600,"station_id":"ce4bgkp2rcd13ifvqbmg","pricing_plan_id":"cebpf4jnsgd1na2vs0mg"},{"bike_id":"f3211835-4a7f-430c-8e8d-75fd7f1453c1","system_id":"levelo_inurba_marseille","lat":43.29094,"lon":5.38135,"is_reserved":false,"is_disabled":false,"rental_uris":{"android":"levelo://app?vid=f3211835-4a7f-430c-8e8d-75fd7f1453c1","ios":"levelo://app?vid=f3211835-4a7f-430c-8e8d-75fd7f1453c1"},"vehicle_type_id":"4","last_reported":1730578196,"current_range_meters":38800,"station_id":"ce4bh512rcd13ifvqe2g","pricing_plan_id":"cebpf4jnsgd1na2vs0mg"},{"bike_id":"87a376fb-c094-4e24-8c76-8b95c273a754","system_id":"levelo_inurba_marseille","lat":43.29417,"lon":5.3863,"is_reserved":false,"is_disabled":false,"rental_uris":{"android":"levelo://app?vid=87a376fb-c094-4e24-8c76-8b95c273a754","ios":"levelo://app?vid=87a376fb-c094-4e24-8c76-8b95c273a754"},"vehicle_type_id":"4","last_reported":1730578196,"current_range_meters":38800,"station_id":"ce4bh2h2rcd13ifvqdh0","pricing_plan_id":"cebpf4jnsgd1na2vs0mg"},{"bike_id":"d38fe97d-56fb-4e9f-a1d5-fd18161f4b1f","system_id":"levelo_inurba_marseille","lat":43.31234,"lon":5.36844,"is_reserved":false,"is_disabled":false,"rental_uris":{"android":"levelo://app?vid=d38fe97d-56fb-4e9f-a1d5-fd18161f4b1f","ios":"levelo://app?vid=d38fe97d-56fb-4e9f-a1d5-fd18161f4b1f"},"vehicle_type_id":"4","last_reported":1730578196,"current_range_meters":4800,"station_id":"ce4bgl92rcd13ifvqbq0","pricing_plan_id":"cebpf4jnsgd1na2vs0mg"},{"bike_id":"92724032-217a-478a-997f-f20c7f32bd79","system_id":"levelo_inurba_marseille","lat":43.29876,"lon":5.38916,"is_reserved":false,"is_disabled":false,"rental_uris":{"android":"levelo://app?vid=92724032-217a-478a-997f-f20c7f32bd79","ios":"levelo://app?vid=92724032-217a-478a-997f-f20c7f32bd79"},"vehicle_type_id":"4","last_reported":1730578196,"current_range_meters":19200,"station_id":"ce4bh392rcd13ifvqdl0","pricing_plan_id":"cebpf4jnsgd1na2vs0mg"},{"bike_id":"10baeb8d-6037-4049-8d95-d6633cd6055b","system_id":"levelo_inurba_marseille","lat":43.24998,"lon":5.38931,"is_reserved":false,"is_disabled":false,"rental_uris":{"android":"levelo://app?vid=10baeb8d-6037-4049-8d95-d6633cd6055b","ios":"levelo://app?vid=10baeb8d-6037-4049-8d95-d6633cd6055b"},"vehicle_type_id":"4","last_reported":1730578196,"current_range_meters":29600,"station_id":"ce4bhgp2rcd13ifvqfd0","pricing_plan_id":"cebpf4jnsgd1na2vs0mg"},{"bike_id":"f35cd096-8317-409a-9875-97da0ea574d4","system_id":"levelo_inurba_marseille","lat":43.32537,"lon":5.41434,"is_reserved":false,"is_disabled":false,"rental_uris":{"android":"levelo://app?vid=f35cd096-8317-409a-9875-97da0ea574d4","ios":"levelo://app?vid=f35cd096-8317-409a-9875-97da0ea574d4"},"vehicle_type_id":"4","last_reported":1730578196,"current_range_meters":6400,"station_id":"ce4bhq12rcd13ifvqhhg","pricing_plan_id":"cebpf4jnsgd1na2vs0mg"},{"bike_id":"eebc77bc-ad92-499e-81c0-e8c6d3838057","system_id":"levelo_inurba_marseille","lat":43.2942,"lon":5.38624,"is_reserved":false,"is_disabled":false,"rental_uris":{"android":"levelo://app?vid=eebc77bc-ad92-499e-81c0-e8c6d3838057","ios":"levelo://app?vid=eebc77bc-ad92-499e-81c0-e8c6d3838057"},"vehicle_type_id":"4","last_reported":1730578196,"current_range_meters":38800,"station_id":"ce4bh2h2rcd13ifvqdh0","pricing_plan_id":"cebpf4jnsgd1na2vs0mg"},{"bike_id":"3e08d59a-decf-4e52-b8ae-947dd230d094","system_id":"levelo_inurba_marseille","lat":43.29868,"lon":5.39738,"is_reserved":false,"is_disabled":false,"rental_uris":{"android":"levelo://app?vid=3e08d59a-decf-4e52-b8ae-947dd230d094","ios":"levelo://app?vid=3e08d59a-decf-4e52-b8ae-947dd230d094"},"vehicle_type_id":"4","last_reported":1730578196,"current_range_meters":26800,"station_id":"ce4bh0h2rcd13ifvqd50","pricing_plan_id":"cebpf4jnsgd1na2vs0mg"},{"bike_id":"1ddde7ff-3953-4942-bfab-1d2712b93546","system_id":"levelo_inurba_marseille","lat":43.31708,"lon":5.37746,"is_reserved":false,"is_disabled":false,"rental_uris":{"android":"levelo://app?vid=1ddde7ff-3953-4942-bfab-1d2712b93546","ios":"levelo://app?vid=1ddde7ff-3953-4942-bfab-1d2712b93546"},"vehicle_type_id":"4","last_reported":1730578196,"current_range_meters":20400,"station_id":"ce4bgth2rcd13ifvqch0","pricing_plan_id":"cebpf4jnsgd1na2vs0mg"},{"bike_id":"ff883b97-31aa-4de2-948f-a378218b93b0","system_id":"levelo_inurba_marseille","lat":43.28151,"lon":5.42644,"is_reserved":false,"is_disabled":false,"rental_uris":{"android":"levelo://app?vid=ff883b97-31aa-4de2-948f-a378218b93b0","ios":"levelo://app?vid=ff883b97-31aa-4de2-948f-a378218b93b0"},"vehicle_type_id":"4","last_reported":1730578196,"current_range_meters":39200,"station_id":"ce4bhnh2rcd13ifvqgug","pricing_plan_id":"cebpf4jnsgd1na2vs0mg"},{"bike_id":"db21bea0-daf8-42eb-aa4f-e08727ba61be","system_id":"levelo_inurba_marseille","lat":43.29811,"lon":5.40403,"is_reserved":false,"is_disabled":false,"rental_uris":{"android":"levelo://app?vid=db21bea0-daf8-42eb-aa4f-e08727ba61be","ios":"levelo://app?vid=db21bea0-daf8-42eb-aa4f-e08727ba61be"},"vehicle_type_id":"4","last_reported":1730578196,"current_range_meters":39200,"station_id":"ce4bh112rcd13ifvqd90","pricing_plan_id":"cebpf4jnsgd1na2vs0mg"},{"bike_id":"fe160e20-0451-45fb-82b3-952dbf8df3ef","system_id":"levelo_inurba_marseille","lat":43.291159,"lon":5.381427,"is_reserved":false,"is_disabled":false,"rental_uris":{"android":"levelo://app?vid=fe160e20-0451-45fb-82b3-952dbf8df3ef","ios":"levelo://app?vid=fe160e20-0451-45fb-82b3-952dbf8df3ef"},"vehicle_type_id":"4","last_reported":1730578196,"current_range_meters":38000,"station_id":"ce4bgi12rcd13ifvqb70","pricing_plan_id":"cebpf4jnsgd1na2vs0mg"},{"bike_id":"18402065-9e87-476b-95ad-30853de181a0","system_id":"levelo_inurba_marseille","lat":43.32455,"lon":5.45555,"is_reserved":false,"is_disabled":false,"rental_uris":{"android":"levelo://app?vid=18402065-9e87-476b-95ad-30853de181a0","ios":"levelo://app?vid=18402065-9e87-476b-95ad-30853de181a0"},"vehicle_type_id":"4","last_reported":1730578196,"current_range_meters":6400,"station_id":"","pricing_plan_id":"cebpf4jnsgd1na2vs0mg"},{"bike_id":"4eb01b0d-49fc-48ee-b782-54d621657f1b","system_id":"levelo_inurba_marseille","lat":43.31889,"lon":5.40739,"is_reserved":false,"is_disabled":false,"rental_uris":{"android":"levelo://app?vid=4eb01b0d-49fc-48ee-b782-54d621657f1b","ios":"levelo://app?vid=4eb01b0d-49fc-48ee-b782-54d621657f1b"},"vehicle_type_id":"4","last_reported":1730578196,"current_range_meters":35200,"station_id":"ce4bhq12rcd13ifvqhig","pricing_plan_id":"cebpf4jnsgd1na2vs0mg"},{"bike_id":"feb6a46c-218c-4ade-9ed0-569c710ba612","system_id":"levelo_inurba_marseille","lat":43.29029,"lon":5.38648,"is_reserved":false,"is_disabled":false,"rental_uris":{"android":"levelo://app?vid=feb6a46c-218c-4ade-9ed0-569c710ba612","ios":"levelo://app?vid=feb6a46c-218c-4ade-9ed0-569c710ba612"},"vehicle_type_id":"4","last_reported":1730578196,"current_range_meters":3200,"station_id":"ce4bh4p2rcd13ifvqe0g","pricing_plan_id":"cebpf4jnsgd1na2vs0mg"},{"bike_id":"ff759631-9747-4e89-8485-4a4b07c62c2b","system_id":"levelo_inurba_marseille","lat":43.29422,"lon":5.38622,"is_reserved":false,"is_disabled":false,"rental_uris":{"android":"levelo://app?vid=ff759631-9747-4e89-8485-4a4b07c62c2b","ios":"levelo://app?vid=ff759631-9747-4e89-8485-4a4b07c62c2b"},"vehicle_type_id":"4","last_reported":1730578196,"current_range_meters":38400,"station_id":"ce4bh2h2rcd13ifvqdh0","pricing_plan_id":"cebpf4jnsgd1na2vs0mg"},{"bike_id":"9f3178e5-569d-4c41-89b0-b8d0ab45dbf4","system_id":"levelo_inurba_marseille","lat":43.31884,"lon":5.4073,"is_reserved":false,"is_disabled":false,"rental_uris":{"android":"levelo://app?vid=9f3178e5-569d-4c41-89b0-b8d0ab45dbf4","ios":"levelo://app?vid=9f3178e5-569d-4c41-89b0-b8d0ab45dbf4"},"vehicle_type_id":"4","last_reported":1730578196,"current_range_meters":30400,"station_id":"ce4bhq12rcd13ifvqhig","pricing_plan_id":"cebpf4jnsgd1na2vs0mg"},{"bike_id":"c7a6a60a-ebc3-43dc-847c-5817f23f3b49","system_id":"levelo_inurba_marseille","lat":43.25723,"lon":5.41102,"is_reserved":false,"is_disabled":false,"rental_uris":{"android":"levelo://app?vid=c7a6a60a-ebc3-43dc-847c-5817f23f3b49","ios":"levelo://app?vid=c7a6a60a-ebc3-43dc-847c-5817f23f3b49"},"vehicle_type_id":"4","last_reported":1730578196,"current_range_meters":9200,"station_id":"ce4bhkp2rcd13ifvqgd0","pricing_plan_id":"cebpf4jnsgd1na2vs0mg"},{"bike_id":"783383f5-2d80-471f-91f9-f76f30194918","system_id":"levelo_inurba_marseille","lat":43.2959,"lon":5.38091,"is_reserved":false,"is_disabled":false,"rental_uris":{"android":"levelo://app?vid=783383f5-2d80-471f-91f9-f76f30194918","ios":"levelo://app?vid=783383f5-2d80-471f-91f9-f76f30194918"},"vehicle_type_id":"4","last_reported":1730578196,"current_range_meters":12800,"station_id":"ce4bgl12rcd13ifvqbo0","pricing_plan_id":"cebpf4jnsgd1na2vs0mg"},{"bike_id":"850c91ae-1f4d-4484-a5f9-e32dfca724ff","system_id":"levelo_inurba_marseille","lat":43.29243,"lon":5.38427,"is_reserved":false,"is_disabled":false,"rental_uris":{"android":"levelo://app?vid=850c91ae-1f4d-4484-a5f9-e32dfca724ff","ios":"levelo://app?vid=850c91ae-1f4d-4484-a5f9-e32dfca724ff"},"vehicle_type_id":"4","last_reported":1730578196,"current_range_meters":32800,"station_id":"ce4bh692rcd13ifvqea0","pricing_plan_id":"cebpf4jnsgd1na2vs0mg"},{"bike_id":"8a1a733a-6176-43e5-b055-d601cf830be6","system_id":"levelo_inurba_marseille","lat":43.2926,"lon":5.38437,"is_reserved":false,"is_disabled":false,"rental_uris":{"android":"levelo://app?vid=8a1a733a-6176-43e5-b055-d601cf830be6","ios":"levelo://app?vid=8a1a733a-6176-43e5-b055-d601cf830be6"},"vehicle_type_id":"4","last_reported":1730578196,"current_range_meters":22400,"station_id":"ce4bh692rcd13ifvqea0","pricing_plan_id":"cebpf4jnsgd1na2vs0mg"},{"bike_id":"350dcabe-106f-4825-b4a5-0ffc79cd93f8","system_id":"levelo_inurba_marseille","lat":43.29272,"lon":5.36855,"is_reserved":false,"is_disabled":false,"rental_uris":{"android":"levelo://app?vid=350dcabe-106f-4825-b4a5-0ffc79cd93f8","ios":"levelo://app?vid=350dcabe-106f-4825-b4a5-0ffc79cd93f8"},"vehicle_type_id":"4","last_reported":1730578196,"current_range_meters":18800,"station_id":"ce4bhbp2rcd13ifvqesg","pricing_plan_id":"cebpf4jnsgd1na2vs0mg"},{"bike_id":"89bdb937-390a-40ee-b019-98dd281246c3","system_id":"levelo_inurba_marseille","lat":43.28417,"lon":5.37521,"is_reserved":false,"is_disabled":false,"rental_uris":{"android":"levelo://app?vid=89bdb937-390a-40ee-b019-98dd281246c3","ios":"levelo://app?vid=89bdb937-390a-40ee-b019-98dd281246c3"},"vehicle_type_id":"4","last_reported":1730578196,"current_range_meters":21600,"station_id":"ce4bh412rcd13ifvqds0","pricing_plan_id":"cebpf4jnsgd1na2vs0mg"},{"bike_id":"d8b4fbd5-7764-42f5-a8fb-df401852c903","system_id":"levelo_inurba_marseille","lat":43.2903,"lon":5.38636,"is_reserved":false,"is_disabled":false,"rental_uris":{"android":"levelo://app?vid=d8b4fbd5-7764-42f5-a8fb-df401852c903","ios":"levelo://app?vid=d8b4fbd5-7764-42f5-a8fb-df401852c903"},"vehicle_type_id":"4","last_reported":1730578196,"current_range_meters":26800,"station_id":"ce4bh4p2rcd13ifvqe0g","pricing_plan_id":"cebpf4jnsgd1na2vs0mg"},{"bike_id":"4803c46b-0071-490d-8b16-b83cd110b0e7","system_id":"levelo_inurba_marseille","lat":43.2621,"lon":5.37449,"is_reserved":false,"is_disabled":false,"rental_uris":{"android":"levelo://app?vid=4803c46b-0071-490d-8b16-b83cd110b0e7","ios":"levelo://app?vid=4803c46b-0071-490d-8b16-b83cd110b0e7"},"vehicle_type_id":"4","last_reported":1730578196,"current_range_meters":37600,"station_id":"ce4bhgp2rcd13ifvqfc0","pricing_plan_id":"cebpf4jnsgd1na2vs0mg"},{"bike_id":"e4076913-25a7-4304-83b4-9b1933c6ed9b","system_id":"levelo_inurba_marseille","lat":43.27991,"lon":5.40022,"is_reserved":false,"is_disabled":false,"rental_uris":{"android":"levelo://app?vid=e4076913-25a7-4304-83b4-9b1933c6ed9b","ios":"levelo://app?vid=e4076913-25a7-4304-83b4-9b1933c6ed9b"},"vehicle_type_id":"4","last_reported":1730578196,"current_range_meters":38800,"station_id":"ce4bho92rcd13ifvqh4g","pricing_plan_id":"cebpf4jnsgd1na2vs0mg"},{"bike_id":"c556fa49-b1bf-4288-b7eb-204f11b2e0ee","system_id":"levelo_inurba_marseille","lat":43.29416,"lon":5.38628,"is_reserved":false,"is_disabled":false,"rental_uris":{"android":"levelo://app?vid=c556fa49-b1bf-4288-b7eb-204f11b2e0ee","ios":"levelo://app?vid=c556fa49-b1bf-4288-b7eb-204f11b2e0ee"},"vehicle_type_id":"4","last_reported":1730578196,"current_range_meters":38000,"station_id":"ce4bh2h2rcd13ifvqdh0","pricing_plan_id":"cebpf4jnsgd1na2vs0mg"},{"bike_id":"3e83e42e-84a1-4fa6-80cb-e77919db3747","system_id":"levelo_inurba_marseille","lat":43.25119,"lon":5.40324,"is_reserved":false,"is_disabled":false,"rental_uris":{"android":"levelo://app?vid=3e83e42e-84a1-4fa6-80cb-e77919db3747","ios":"levelo://app?vid=3e83e42e-84a1-4fa6-80cb-e77919db3747"},"vehicle_type_id":"4","last_reported":1730578196,"current_range_meters":36000,"station_id":"ce4bhlh2rcd13ifvqgig","pricing_plan_id":"cebpf4jnsgd1na2vs0mg"},{"bike_id":"6e6c1416-464f-4f03-9742-bebcc8a06f1e","system_id":"levelo_inurba_marseille","lat":43.31756,"lon":5.39011,"is_reserved":false,"is_disabled":false,"rental_uris":{"android":"levelo://app?vid=6e6c1416-464f-4f03-9742-bebcc8a06f1e","ios":"levelo://app?vid=6e6c1416-464f-4f03-9742-bebcc8a06f1e"},"vehicle_type_id":"4","last_reported":1730578196,"current_range_meters":16400,"station_id":"ce4bhqp2rcd13ifvqhng","pricing_plan_id":"cebpf4jnsgd1na2vs0mg"},{"bike_id":"c14b910d-c438-4986-9edc-d74caf84b8bd","system_id":"levelo_inurba_marseille","lat":43.25823,"lon":5.39436,"is_reserved":false,"is_disabled":false,"rental_uris":{"android":"levelo://app?vid=c14b910d-c438-4986-9edc-d74caf84b8bd","ios":"levelo://app?vid=c14b910d-c438-4986-9edc-d74caf84b8bd"},"vehicle_type_id":"4","last_reported":1730578196,"current_range_meters":38800,"station_id":"ce4bhip2rcd13ifvqft0","pricing_plan_id":"cebpf4jnsgd1na2vs0mg"},{"bike_id":"01401264-e55f-4ab9-8d92-972bb9bb49f6","system_id":"levelo_inurba_marseille","lat":43.3024,"lon":5.40059,"is_reserved":false,"is_disabled":false,"rental_uris":{"android":"levelo://app?vid=01401264-e55f-4ab9-8d92-972bb9bb49f6","ios":"levelo://app?vid=01401264-e55f-4ab9-8d92-972bb9bb49f6"},"vehicle_type_id":"4","last_reported":1730578196,"current_range_meters":35200,"station_id":"ce4bgvh2rcd13ifvqcs0","pricing_plan_id":"cebpf4jnsgd1na2vs0mg"},{"bike_id":"e74f712e-8cad-4a9d-9601-4cfc15e43810","system_id":"levelo_inurba_marseille","lat":43.27177,"lon":5.4099,"is_reserved":false,"is_disabled":false,"rental_uris":{"android":"levelo://app?vid=e74f712e-8cad-4a9d-9601-4cfc15e43810","ios":"levelo://app?vid=e74f712e-8cad-4a9d-9601-4cfc15e43810"},"vehicle_type_id":"4","last_reported":1730578196,"current_range_meters":8000,"station_id":"ce4bhl12rcd13ifvqgf0","pricing_plan_id":"cebpf4jnsgd1na2vs0mg"},{"bike_id":"5bed4c60-b912-42f6-b099-933c6ebb8aca","system_id":"levelo_inurba_marseille","lat":43.25824,"lon":5.39429,"is_reserved":false,"is_disabled":false,"rental_uris":{"android":"levelo://app?vid=5bed4c60-b912-42f6-b099-933c6ebb8aca","ios":"levelo://app?vid=5bed4c60-b912-42f6-b099-933c6ebb8aca"},"vehicle_type_id":"4","last_reported":1730578196,"current_range_meters":38000,"station_id":"ce4bhip2rcd13ifvqft0","pricing_plan_id":"cebpf4jnsgd1na2vs0mg"},{"bike_id":"b9c605ab-d847-4d81-a947-5a3aa7b39be1","system_id":"levelo_inurba_marseille","lat":43.29876,"lon":5.38917,"is_reserved":false,"is_disabled":false,"rental_uris":{"android":"levelo://app?vid=b9c605ab-d847-4d81-a947-5a3aa7b39be1","ios":"levelo://app?vid=b9c605ab-d847-4d81-a947-5a3aa7b39be1"},"vehicle_type_id":"4","last_reported":1730578196,"current_range_meters":32000,"station_id":"ce4bh392rcd13ifvqdl0","pricing_plan_id":"cebpf4jnsgd1na2vs0mg"},{"bike_id":"631b7075-137a-4ae3-a6c3-e104f00b6db4","system_id":"levelo_inurba_marseille","lat":43.28048,"lon":5.36957,"is_reserved":false,"is_disabled":false,"rental_uris":{"android":"levelo://app?vid=631b7075-137a-4ae3-a6c3-e104f00b6db4","ios":"levelo://app?vid=631b7075-137a-4ae3-a6c3-e104f00b6db4"},"vehicle_type_id":"4","last_reported":1730578196,"current_range_meters":24400,"station_id":"ce4bha12rcd13ifvqef0","pricing_plan_id":"cebpf4jnsgd1na2vs0mg"},{"bike_id":"60f87311-ab2a-4ce1-83b3-1bbb0f12cf66","system_id":"levelo_inurba_marseille","lat":43.27427,"lon":5.39413,"is_reserved":false,"is_disabled":false,"rental_uris":{"android":"levelo://app?vid=60f87311-ab2a-4ce1-83b3-1bbb0f12cf66","ios":"levelo://app?vid=60f87311-ab2a-4ce1-83b3-1bbb0f12cf66"},"vehicle_type_id":"4","last_reported":1730578196,"current_range_meters":38800,"station_id":"ce4bhdp2rcd13ifvqf20","pricing_plan_id":"cebpf4jnsgd1na2vs0mg"},{"bike_id":"8c67d340-801d-46e5-b910-2f8aff3ff078","system_id":"levelo_inurba_marseille","lat":43.33339,"lon":5.37055,"is_reserved":false,"is_disabled":false,"rental_uris":{"android":"levelo://app?vid=8c67d340-801d-46e5-b910-2f8aff3ff078","ios":"levelo://app?vid=8c67d340-801d-46e5-b910-2f8aff3ff078"},"vehicle_type_id":"4","last_reported":1730578196,"current_range_meters":8800,"station_id":"","pricing_plan_id":"cebpf4jnsgd1na2vs0mg"},{"bike_id":"1237d480-ed8b-4271-ba17-f88842fad96f","system_id":"levelo_inurba_marseille","lat":43.29419,"lon":5.38627,"is_reserved":false,"is_disabled":false,"rental_uris":{"android":"levelo://app?vid=1237d480-ed8b-4271-ba17-f88842fad96f","ios":"levelo://app?vid=1237d480-ed8b-4271-ba17-f88842fad96f"},"vehicle_type_id":"4","last_reported":1730578196,"current_range_meters":38800,"station_id":"ce4bh2h2rcd13ifvqdh0","pricing_plan_id":"cebpf4jnsgd1na2vs0mg"},{"bike_id":"54cc4ec6-c46d-4e95-9bf2-2a04f02a40ab","system_id":"levelo_inurba_marseille","lat":43.28415,"lon":5.37514,"is_reserved":false,"is_disabled":false,"rental_uris":{"android":"levelo://app?vid=54cc4ec6-c46d-4e95-9bf2-2a04f02a40ab","ios":"levelo://app?vid=54cc4ec6-c46d-4e95-9bf2-2a04f02a40ab"},"vehicle_type_id":"4","last_reported":1730578196,"current_range_meters":32400,"station_id":"ce4bh412rcd13ifvqds0","pricing_plan_id":"cebpf4jnsgd1na2vs0mg"},{"bike_id":"e2634b22-5f17-4345-a889-22a44b7f45e9","system_id":"levelo_inurba_marseille","lat":43.28001,"lon":5.40015,"is_reserved":false,"is_disabled":false,"rental_uris":{"android":"levelo://app?vid=e2634b22-5f17-4345-a889-22a44b7f45e9","ios":"levelo://app?vid=e2634b22-5f17-4345-a889-22a44b7f45e9"},"vehicle_type_id":"4","last_reported":1730578196,"current_range_meters":22000,"station_id":"ce4bho92rcd13ifvqh4g","pricing_plan_id":"cebpf4jnsgd1na2vs0mg"},{"bike_id":"1ae70553-660a-46a6-bdc1-546ebe9e96ef","system_id":"levelo_inurba_marseille","lat":43.29964,"lon":5.38496,"is_reserved":false,"is_disabled":false,"rental_uris":{"android":"levelo://app?vid=1ae70553-660a-46a6-bdc1-546ebe9e96ef","ios":"levelo://app?vid=1ae70553-660a-46a6-bdc1-546ebe9e96ef"},"vehicle_type_id":"4","last_reported":1730578196,"current_range_meters":19600,"station_id":"ce4bgj92rcd13ifvqbd0","pricing_plan_id":"cebpf4jnsgd1na2vs0mg"},{"bike_id":"75cdb957-9f52-44af-9e55-159fe6f52584","system_id":"levelo_inurba_marseille","lat":43.29532,"lon":5.38552,"is_reserved":false,"is_disabled":false,"rental_uris":{"android":"levelo://app?vid=75cdb957-9f52-44af-9e55-159fe6f52584","ios":"levelo://app?vid=75cdb957-9f52-44af-9e55-159fe6f52584"},"vehicle_type_id":"4","last_reported":1730578196,"current_range_meters":36000,"station_id":"ce4bgih2rcd13ifvqba0","pricing_plan_id":"cebpf4jnsgd1na2vs0mg"},{"bike_id":"3cecfd6d-bd24-4212-b339-944e6377506e","system_id":"levelo_inurba_marseille","lat":43.31689,"lon":5.40477,"is_reserved":false,"is_disabled":false,"rental_uris":{"android":"levelo://app?vid=3cecfd6d-bd24-4212-b339-944e6377506e","ios":"levelo://app?vid=3cecfd6d-bd24-4212-b339-944e6377506e"},"vehicle_type_id":"4","last_reported":1730578196,"current_range_meters":20800,"station_id":"ce4bh012rcd13ifvqd00","pricing_plan_id":"cebpf4jnsgd1na2vs0mg"},{"bike_id":"3c90fc8f-ed1d-4e88-8797-d27a0c30fd70","system_id":"levelo_inurba_marseille","lat":43.25721,"lon":5.41114,"is_reserved":false,"is_disabled":false,"rental_uris":{"android":"levelo://app?vid=3c90fc8f-ed1d-4e88-8797-d27a0c30fd70","ios":"levelo://app?vid=3c90fc8f-ed1d-4e88-8797-d27a0c30fd70"},"vehicle_type_id":"4","last_reported":1730578196,"current_range_meters":28800,"station_id":"ce4bhkp2rcd13ifvqgd0","pricing_plan_id":"cebpf4jnsgd1na2vs0mg"},{"bike_id":"e82fdfe0-2a36-4219-8c6b-977b46641ec9","system_id":"levelo_inurba_marseille","lat":43.28497,"lon":5.38606,"is_reserved":false,"is_disabled":false,"rental_uris":{"android":"levelo://app?vid=e82fdfe0-2a36-4219-8c6b-977b46641ec9","ios":"levelo://app?vid=e82fdfe0-2a36-4219-8c6b-977b46641ec9"},"vehicle_type_id":"4","last_reported":1730578196,"current_range_meters":38800,"station_id":"ce4bh8p2rcd13ifvqeb0","pricing_plan_id":"cebpf4jnsgd1na2vs0mg"},{"bike_id":"a4297194-1266-4a1f-9f51-dc9850ceeb77","system_id":"levelo_inurba_marseille","lat":43.2926,"lon":5.38431,"is_reserved":false,"is_disabled":false,"rental_uris":{"android":"levelo://app?vid=a4297194-1266-4a1f-9f51-dc9850ceeb77","ios":"levelo://app?vid=a4297194-1266-4a1f-9f51-dc9850ceeb77"},"vehicle_type_id":"4","last_reported":1730578196,"current_range_meters":36400,"station_id":"ce4bh692rcd13ifvqea0","pricing_plan_id":"cebpf4jnsgd1na2vs0mg"},{"bike_id":"1b76da04-24af-4551-be92-5b5e0e7c5288","system_id":"levelo_inurba_marseille","lat":43.27496,"lon":5.42449,"is_reserved":false,"is_disabled":false,"rental_uris":{"android":"levelo://app?vid=1b76da04-24af-4551-be92-5b5e0e7c5288","ios":"levelo://app?vid=1b76da04-24af-4551-be92-5b5e0e7c5288"},"vehicle_type_id":"4","last_reported":1730578196,"current_range_meters":26000,"station_id":"ce4bhn92rcd13ifvqgrg","pricing_plan_id":"cebpf4jnsgd1na2vs0mg"},{"bike_id":"a93c236a-7c64-4cfc-8060-bc9296e0086e","system_id":"levelo_inurba_marseille","lat":43.29415,"lon":5.38618,"is_reserved":false,"is_disabled":false,"rental_uris":{"android":"levelo://app?vid=a93c236a-7c64-4cfc-8060-bc9296e0086e","ios":"levelo://app?vid=a93c236a-7c64-4cfc-8060-bc9296e0086e"},"vehicle_type_id":"4","last_reported":1730578196,"current_range_meters":24400,"station_id":"ce4bh2h2rcd13ifvqdh0","pricing_plan_id":"cebpf4jnsgd1na2vs0mg"},{"bike_id":"b9a65869-48f3-4ce2-892e-67d43f0247f3","system_id":"levelo_inurba_marseille","lat":43.29254,"lon":5.38432,"is_reserved":false,"is_disabled":false,"rental_uris":{"android":"levelo://app?vid=b9a65869-48f3-4ce2-892e-67d43f0247f3","ios":"levelo://app?vid=b9a65869-48f3-4ce2-892e-67d43f0247f3"},"vehicle_type_id":"4","last_reported":1730578196,"current_range_meters":5600,"station_id":"ce4bh692rcd13ifvqea0","pricing_plan_id":"cebpf4jnsgd1na2vs0mg"},{"bike_id":"41166d56-5bfd-46f2-885f-e535581cf396","system_id":"levelo_inurba_marseille","lat":43.31493,"lon":5.37301,"is_reserved":false,"is_disabled":false,"rental_uris":{"android":"levelo://app?vid=41166d56-5bfd-46f2-885f-e535581cf396","ios":"levelo://app?vid=41166d56-5bfd-46f2-885f-e535581cf396"},"vehicle_type_id":"4","last_reported":1730578196,"current_range_meters":18000,"station_id":"ce4bgt12rcd13ifvqcd0","pricing_plan_id":"cebpf4jnsgd1na2vs0mg"},{"bike_id":"cdf14336-e98f-458b-8f9c-c0f3e810299c","system_id":"levelo_inurba_marseille","lat":43.29537,"lon":5.38541,"is_reserved":false,"is_disabled":false,"rental_uris":{"android":"levelo://app?vid=cdf14336-e98f-458b-8f9c-c0f3e810299c","ios":"levelo://app?vid=cdf14336-e98f-458b-8f9c-c0f3e810299c"},"vehicle_type_id":"4","last_reported":1730578196,"current_range_meters":38000,"station_id":"ce4bgih2rcd13ifvqba0","pricing_plan_id":"cebpf4jnsgd1na2vs0mg"},{"bike_id":"522f79d6-c13e-4f53-b9c2-f05704d4e64e","system_id":"levelo_inurba_marseille","lat":43.29035,"lon":5.38121,"is_reserved":false,"is_disabled":false,"rental_uris":{"android":"levelo://app?vid=522f79d6-c13e-4f53-b9c2-f05704d4e64e","ios":"levelo://app?vid=522f79d6-c13e-4f53-b9c2-f05704d4e64e"},"vehicle_type_id":"4","last_reported":1730578196,"current_range_meters":18000,"station_id":"ce4bh4p2rcd13ifvqe1g","pricing_plan_id":"cebpf4jnsgd1na2vs0mg"},{"bike_id":"9bbbe19a-7daa-40b3-a509-1dd46e7fbb90","system_id":"levelo_inurba_marseille","lat":43.295265,"lon":5.38548,"is_reserved":false,"is_disabled":false,"rental_uris":{"android":"levelo://app?vid=9bbbe19a-7daa-40b3-a509-1dd46e7fbb90","ios":"levelo://app?vid=9bbbe19a-7daa-40b3-a509-1dd46e7fbb90"},"vehicle_type_id":"4","last_reported":1730578196,"current_range_meters":36800,"station_id":"ce4bgih2rcd13ifvqba0","pricing_plan_id":"cebpf4jnsgd1na2vs0mg"},{"bike_id":"6428b418-bc65-40cb-9043-73cf64bb14c6","system_id":"levelo_inurba_marseille","lat":43.30299,"lon":5.39212,"is_reserved":false,"is_disabled":false,"rental_uris":{"android":"levelo://app?vid=6428b418-bc65-40cb-9043-73cf64bb14c6","ios":"levelo://app?vid=6428b418-bc65-40cb-9043-73cf64bb14c6"},"vehicle_type_id":"4","last_reported":1730578196,"current_range_meters":37600,"station_id":"ce4bgkh2rcd13ifvqbk0","pricing_plan_id":"cebpf4jnsgd1na2vs0mg"},{"bike_id":"daeb9658-bd57-4da3-8c59-ae5480e0acd9","system_id":"levelo_inurba_marseille","lat":43.29606,"lon":5.3772,"is_reserved":false,"is_disabled":false,"rental_uris":{"android":"levelo://app?vid=daeb9658-bd57-4da3-8c59-ae5480e0acd9","ios":"levelo://app?vid=daeb9658-bd57-4da3-8c59-ae5480e0acd9"},"vehicle_type_id":"4","last_reported":1730578196,"current_range_meters":36000,"station_id":"ce4bgi92rcd13ifvqb90","pricing_plan_id":"cebpf4jnsgd1na2vs0mg"},{"bike_id":"9f176231-d37b-4c06-9ab3-4b630d7ab80a","system_id":"levelo_inurba_marseille","lat":43.29035,"lon":5.38641,"is_reserved":false,"is_disabled":false,"rental_uris":{"android":"levelo://app?vid=9f176231-d37b-4c06-9ab3-4b630d7ab80a","ios":"levelo://app?vid=9f176231-d37b-4c06-9ab3-4b630d7ab80a"},"vehicle_type_id":"4","last_reported":1730578196,"current_range_meters":38800,"station_id":"ce4bh4p2rcd13ifvqe0g","pricing_plan_id":"cebpf4jnsgd1na2vs0mg"},{"bike_id":"a87c146e-659a-472d-9b9b-de190308f775","system_id":"levelo_inurba_marseille","lat":43.24388,"lon":5.37069,"is_reserved":false,"is_disabled":false,"rental_uris":{"android":"levelo://app?vid=a87c146e-659a-472d-9b9b-de190308f775","ios":"levelo://app?vid=a87c146e-659a-472d-9b9b-de190308f775"},"vehicle_type_id":"4","last_reported":1730578196,"current_range_meters":23200,"station_id":"ce4bhhh2rcd13ifvqfk0","pricing_plan_id":"cebpf4jnsgd1na2vs0mg"},{"bike_id":"5e6872e8-36b7-42d5-946f-113bccaad415","system_id":"levelo_inurba_marseille","lat":43.25719,"lon":5.41112,"is_reserved":false,"is_disabled":false,"rental_uris":{"android":"levelo://app?vid=5e6872e8-36b7-42d5-946f-113bccaad415","ios":"levelo://app?vid=5e6872e8-36b7-42d5-946f-113bccaad415"},"vehicle_type_id":"4","last_reported":1730578196,"current_range_meters":34000,"station_id":"ce4bhkp2rcd13ifvqgd0","pricing_plan_id":"cebpf4jnsgd1na2vs0mg"},{"bike_id":"f98fbbe6-5ff1-4d3d-93bb-442d12188b85","system_id":"levelo_inurba_marseille","lat":43.25577,"lon":5.3823,"is_reserved":false,"is_disabled":false,"rental_uris":{"android":"levelo://app?vid=f98fbbe6-5ff1-4d3d-93bb-442d12188b85","ios":"levelo://app?vid=f98fbbe6-5ff1-4d3d-93bb-442d12188b85"},"vehicle_type_id":"4","last_reported":1730578196,"current_range_meters":12800,"station_id":"ce4bhih2rcd13ifvqfs0","pricing_plan_id":"cebpf4jnsgd1na2vs0mg"},{"bike_id":"f7433f79-d8b6-4068-99d2-096c7b29e49c","system_id":"levelo_inurba_marseille","lat":43.28481,"lon":5.38573,"is_reserved":false,"is_disabled":false,"rental_uris":{"android":"levelo://app?vid=f7433f79-d8b6-4068-99d2-096c7b29e49c","ios":"levelo://app?vid=f7433f79-d8b6-4068-99d2-096c7b29e49c"},"vehicle_type_id":"4","last_reported":1730578196,"current_range_meters":7200,"station_id":"ce4bh8p2rcd13ifvqeb0","pricing_plan_id":"cebpf4jnsgd1na2vs0mg"},{"bike_id":"bced097d-5c21-493a-8928-de61a680c76c","system_id":"levelo_inurba_marseille","lat":43.29733,"lon":5.37158,"is_reserved":false,"is_disabled":false,"rental_uris":{"android":"levelo://app?vid=bced097d-5c21-493a-8928-de61a680c76c","ios":"levelo://app?vid=bced097d-5c21-493a-8928-de61a680c76c"},"vehicle_type_id":"4","last_reported":1730578196,"current_range_meters":8400,"station_id":"","pricing_plan_id":"cebpf4jnsgd1na2vs0mg"},{"bike_id":"0f2f9c27-9c47-4db3-ac55-4fc0f06a8d32","system_id":"levelo_inurba_marseille","lat":43.29035,"lon":5.37571,"is_reserved":false,"is_disabled":false,"rental_uris":{"android":"levelo://app?vid=0f2f9c27-9c47-4db3-ac55-4fc0f06a8d32","ios":"levelo://app?vid=0f2f9c27-9c47-4db3-ac55-4fc0f06a8d32"},"vehicle_type_id":"4","last_reported":1730578196,"current_range_meters":20400,"station_id":"ce4bh692rcd13ifvqe90","pricing_plan_id":"cebpf4jnsgd1na2vs0mg"},{"bike_id":"c45bf95e-28b1-42f0-bd82-40d8a1a09e86","system_id":"levelo_inurba_marseille","lat":43.29415,"lon":5.38631,"is_reserved":false,"is_disabled":false,"rental_uris":{"android":"levelo://app?vid=c45bf95e-28b1-42f0-bd82-40d8a1a09e86","ios":"levelo://app?vid=c45bf95e-28b1-42f0-bd82-40d8a1a09e86"},"vehicle_type_id":"4","last_reported":1730578196,"current_range_meters":26800,"station_id":"ce4bh2h2rcd13ifvqdh0","pricing_plan_id":"cebpf4jnsgd1na2vs0mg"},{"bike_id":"084a9701-8432-4d32-9d8f-29dd5226a087","system_id":"levelo_inurba_marseille","lat":43.29531,"lon":5.38549,"is_reserved":false,"is_disabled":false,"rental_uris":{"android":"levelo://app?vid=084a9701-8432-4d32-9d8f-29dd5226a087","ios":"levelo://app?vid=084a9701-8432-4d32-9d8f-29dd5226a087"},"vehicle_type_id":"4","last_reported":1730578196,"current_range_meters":28400,"station_id":"","pricing_plan_id":"cebpf4jnsgd1na2vs0mg"},{"bike_id":"ab9cb399-eeb7-4811-b418-db73fb440597","system_id":"levelo_inurba_marseille","lat":43.26189,"lon":5.37902,"is_reserved":false,"is_disabled":false,"rental_uris":{"android":"levelo://app?vid=ab9cb399-eeb7-4811-b418-db73fb440597","ios":"levelo://app?vid=ab9cb399-eeb7-4811-b418-db73fb440597"},"vehicle_type_id":"4","last_reported":1730578196,"current_range_meters":32800,"station_id":"ce4bhjp2rcd13ifvqg90","pricing_plan_id":"cebpf4jnsgd1na2vs0mg"},{"bike_id":"fac07fca-53b2-43df-92dd-ea955a9c8337","system_id":"levelo_inurba_marseille","lat":43.29974,"lon":5.38497,"is_reserved":false,"is_disabled":false,"rental_uris":{"android":"levelo://app?vid=fac07fca-53b2-43df-92dd-ea955a9c8337","ios":"levelo://app?vid=fac07fca-53b2-43df-92dd-ea955a9c8337"},"vehicle_type_id":"4","last_reported":1730578196,"current_range_meters":40000,"station_id":"ce4bgj92rcd13ifvqbd0","pricing_plan_id":"cebpf4jnsgd1na2vs0mg"},{"bike_id":"600318fb-daf2-4836-8cfc-aaaf401910e2","system_id":"levelo_inurba_marseille","lat":43.29793,"lon":5.38112,"is_reserved":false,"is_disabled":false,"rental_uris":{"android":"levelo://app?vid=600318fb-daf2-4836-8cfc-aaaf401910e2","ios":"levelo://app?vid=600318fb-daf2-4836-8cfc-aaaf401910e2"},"vehicle_type_id":"4","last_reported":1730578196,"current_range_meters":35600,"station_id":"ce4bgip2rcd13ifvqbb0","pricing_plan_id":"cebpf4jnsgd1na2vs0mg"},{"bike_id":"aea6877e-7988-4006-87d7-08a72f9d3a89","system_id":"levelo_inurba_marseille","lat":43.29528,"lon":5.38534,"is_reserved":false,"is_disabled":false,"rental_uris":{"android":"levelo://app?vid=aea6877e-7988-4006-87d7-08a72f9d3a89","ios":"levelo://app?vid=aea6877e-7988-4006-87d7-08a72f9d3a89"},"vehicle_type_id":"4","last_reported":1730578196,"current_range_meters":30400,"station_id":"ce4bgih2rcd13ifvqba0","pricing_plan_id":"cebpf4jnsgd1na2vs0mg"},{"bike_id":"0377cd1f-1518-4404-adb5-21adee704d63","system_id":"levelo_inurba_marseille","lat":43.29276,"lon":5.36845,"is_reserved":false,"is_disabled":false,"rental_uris":{"android":"levelo://app?vid=0377cd1f-1518-4404-adb5-21adee704d63","ios":"levelo://app?vid=0377cd1f-1518-4404-adb5-21adee704d63"},"vehicle_type_id":"4","last_reported":1730578196,"current_range_meters":38800,"station_id":"ce4bhbp2rcd13ifvqesg","pricing_plan_id":"cebpf4jnsgd1na2vs0mg"},{"bike_id":"def6c069-187f-4280-8e63-cae55b29f147","system_id":"levelo_inurba_marseille","lat":43.283605,"lon":5.38628,"is_reserved":false,"is_disabled":false,"rental_uris":{"android":"levelo://app?vid=def6c069-187f-4280-8e63-cae55b29f147","ios":"levelo://app?vid=def6c069-187f-4280-8e63-cae55b29f147"},"vehicle_type_id":"4","last_reported":1730578196,"current_range_meters":38800,"station_id":"ce4bh492rcd13ifvqdvg","pricing_plan_id":"cebpf4jnsgd1na2vs0mg"},{"bike_id":"139d20f6-29a4-492f-bfd2-189d6c177e8d","system_id":"levelo_inurba_marseille","lat":43.31689,"lon":5.40469,"is_reserved":false,"is_disabled":false,"rental_uris":{"android":"levelo://app?vid=139d20f6-29a4-492f-bfd2-189d6c177e8d","ios":"levelo://app?vid=139d20f6-29a4-492f-bfd2-189d6c177e8d"},"vehicle_type_id":"4","last_reported":1730578196,"current_range_meters":30800,"station_id":"ce4bh012rcd13ifvqd00","pricing_plan_id":"cebpf4jnsgd1na2vs0mg"},{"bike_id":"b27b6b18-d801-4b0b-a4e3-bc55bc4a9aed","system_id":"levelo_inurba_marseille","lat":43.25721,"lon":5.41115,"is_reserved":false,"is_disabled":false,"rental_uris":{"android":"levelo://app?vid=b27b6b18-d801-4b0b-a4e3-bc55bc4a9aed","ios":"levelo://app?vid=b27b6b18-d801-4b0b-a4e3-bc55bc4a9aed"},"vehicle_type_id":"4","last_reported":1730578196,"current_range_meters":36800,"station_id":"ce4bhkp2rcd13ifvqgd0","pricing_plan_id":"cebpf4jnsgd1na2vs0mg"},{"bike_id":"bf4fc4b0-da91-4001-b8c3-8696ff4892a9","system_id":"levelo_inurba_marseille","lat":43.29881,"lon":5.38909,"is_reserved":false,"is_disabled":false,"rental_uris":{"android":"levelo://app?vid=bf4fc4b0-da91-4001-b8c3-8696ff4892a9","ios":"levelo://app?vid=bf4fc4b0-da91-4001-b8c3-8696ff4892a9"},"vehicle_type_id":"4","last_reported":1730578196,"current_range_meters":35600,"station_id":"ce4bh392rcd13ifvqdl0","pricing_plan_id":"cebpf4jnsgd1na2vs0mg"},{"bike_id":"2921df27-5f4d-405e-8967-ba024d0dbdcf","system_id":"levelo_inurba_marseille","lat":43.30422,"lon":5.38886,"is_reserved":false,"is_disabled":false,"rental_uris":{"android":"levelo://app?vid=2921df27-5f4d-405e-8967-ba024d0dbdcf","ios":"levelo://app?vid=2921df27-5f4d-405e-8967-ba024d0dbdcf"},"vehicle_type_id":"4","last_reported":1730578196,"current_range_meters":38800,"station_id":"ce4bgk12rcd13ifvqbi0","pricing_plan_id":"cebpf4jnsgd1na2vs0mg"},{"bike_id":"f58456e3-7a9e-4429-90f3-eefd70581764","system_id":"levelo_inurba_marseille","lat":43.29537,"lon":5.38536,"is_reserved":false,"is_disabled":false,"rental_uris":{"android":"levelo://app?vid=f58456e3-7a9e-4429-90f3-eefd70581764","ios":"levelo://app?vid=f58456e3-7a9e-4429-90f3-eefd70581764"},"vehicle_type_id":"4","last_reported":1730578196,"current_range_meters":39200,"station_id":"ce4bgih2rcd13ifvqba0","pricing_plan_id":"cebpf4jnsgd1na2vs0mg"},{"bike_id":"7c5bfcc8-7e47-44d5-834d-fc401b7520cd","system_id":"levelo_inurba_marseille","lat":43.27966,"lon":5.38721,"is_reserved":false,"is_disabled":false,"rental_uris":{"android":"levelo://app?vid=7c5bfcc8-7e47-44d5-834d-fc401b7520cd","ios":"levelo://app?vid=7c5bfcc8-7e47-44d5-834d-fc401b7520cd"},"vehicle_type_id":"4","last_reported":1730578196,"current_range_meters":37600,"station_id":"ce4bhg12rcd13ifvqf80","pricing_plan_id":"cebpf4jnsgd1na2vs0mg"},{"bike_id":"1a303e70-d1b0-4563-b13a-3d40fa7c1ccd","system_id":"levelo_inurba_marseille","lat":43.32296,"lon":5.38278,"is_reserved":false,"is_disabled":false,"rental_uris":{"android":"levelo://app?vid=1a303e70-d1b0-4563-b13a-3d40fa7c1ccd","ios":"levelo://app?vid=1a303e70-d1b0-4563-b13a-3d40fa7c1ccd"},"vehicle_type_id":"4","last_reported":1730578196,"current_range_meters":34000,"station_id":"ce4bhr12rcd13ifvqhqg","pricing_plan_id":"cebpf4jnsgd1na2vs0mg"},{"bike_id":"52aa259c-685b-441b-9c94-7771d294d476","system_id":"levelo_inurba_marseille","lat":43.29128,"lon":5.35584,"is_reserved":false,"is_disabled":false,"rental_uris":{"android":"levelo://app?vid=52aa259c-685b-441b-9c94-7771d294d476","ios":"levelo://app?vid=52aa259c-685b-441b-9c94-7771d294d476"},"vehicle_type_id":"4","last_reported":1730578196,"current_range_meters":24800,"station_id":"","pricing_plan_id":"cebpf4jnsgd1na2vs0mg"},{"bike_id":"45a9d9a7-83a5-4e18-b464-0249954955c8","system_id":"levelo_inurba_marseille","lat":43.231525,"lon":5.437003,"is_reserved":false,"is_disabled":false,"rental_uris":{"android":"levelo://app?vid=45a9d9a7-83a5-4e18-b464-0249954955c8","ios":"levelo://app?vid=45a9d9a7-83a5-4e18-b464-0249954955c8"},"vehicle_type_id":"4","last_reported":1730578196,"current_range_meters":38800,"station_id":"ce4bhmp2rcd13ifvqgog","pricing_plan_id":"cebpf4jnsgd1na2vs0mg"},{"bike_id":"3392ced6-c439-4b12-afb8-5665ace49ebd","system_id":"levelo_inurba_marseille","lat":43.29874,"lon":5.38911,"is_reserved":false,"is_disabled":false,"rental_uris":{"android":"levelo://app?vid=3392ced6-c439-4b12-afb8-5665ace49ebd","ios":"levelo://app?vid=3392ced6-c439-4b12-afb8-5665ace49ebd"},"vehicle_type_id":"4","last_reported":1730578196,"current_range_meters":23200,"station_id":"ce4bh392rcd13ifvqdl0","pricing_plan_id":"cebpf4jnsgd1na2vs0mg"},{"bike_id":"a13a6f27-c8b2-42b7-996f-8e1c0665131f","system_id":"levelo_inurba_marseille","lat":43.25111,"lon":5.40323,"is_reserved":false,"is_disabled":false,"rental_uris":{"android":"levelo://app?vid=a13a6f27-c8b2-42b7-996f-8e1c0665131f","ios":"levelo://app?vid=a13a6f27-c8b2-42b7-996f-8e1c0665131f"},"vehicle_type_id":"4","last_reported":1730578196,"current_range_meters":28000,"station_id":"ce4bhlh2rcd13ifvqgig","pricing_plan_id":"cebpf4jnsgd1na2vs0mg"},{"bike_id":"87d02c11-da85-418b-bd83-e38accdc20fd","system_id":"levelo_inurba_marseille","lat":43.31278,"lon":5.40165,"is_reserved":false,"is_disabled":false,"rental_uris":{"android":"levelo://app?vid=87d02c11-da85-418b-bd83-e38accdc20fd","ios":"levelo://app?vid=87d02c11-da85-418b-bd83-e38accdc20fd"},"vehicle_type_id":"4","last_reported":1730578196,"current_range_meters":7200,"station_id":"ce4bh092rcd13ifvqd30","pricing_plan_id":"cebpf4jnsgd1na2vs0mg"},{"bike_id":"7c8e2182-8d5d-442a-9864-1cd9e1711753","system_id":"levelo_inurba_marseille","lat":43.31269,"lon":5.4017,"is_reserved":false,"is_disabled":false,"rental_uris":{"android":"levelo://app?vid=7c8e2182-8d5d-442a-9864-1cd9e1711753","ios":"levelo://app?vid=7c8e2182-8d5d-442a-9864-1cd9e1711753"},"vehicle_type_id":"4","last_reported":1730578196,"current_range_meters":23200,"station_id":"ce4bh092rcd13ifvqd30","pricing_plan_id":"cebpf4jnsgd1na2vs0mg"},{"bike_id":"ee8a7537-03dd-414c-a49b-a881da51f5b5","system_id":"levelo_inurba_marseille","lat":43.30139,"lon":5.3989,"is_reserved":false,"is_disabled":false,"rental_uris":{"android":"levelo://app?vid=ee8a7537-03dd-414c-a49b-a881da51f5b5","ios":"levelo://app?vid=ee8a7537-03dd-414c-a49b-a881da51f5b5"},"vehicle_type_id":"4","last_reported":1730578196,"current_range_meters":29600,"station_id":"ce4bh0h2rcd13ifvqd40","pricing_plan_id":"cebpf4jnsgd1na2vs0mg"},{"bike_id":"b0d7221c-96c0-407c-9d53-96a45465d6f4","system_id":"levelo_inurba_marseille","lat":43.29029,"lon":5.38627,"is_reserved":false,"is_disabled":false,"rental_uris":{"android":"levelo://app?vid=b0d7221c-96c0-407c-9d53-96a45465d6f4","ios":"levelo://app?vid=b0d7221c-96c0-407c-9d53-96a45465d6f4"},"vehicle_type_id":"4","last_reported":1730578196,"current_range_meters":38400,"station_id":"ce4bh4p2rcd13ifvqe0g","pricing_plan_id":"cebpf4jnsgd1na2vs0mg"},{"bike_id":"a59a0526-a09b-4e1f-b799-4240ee0b7745","system_id":"levelo_inurba_marseille","lat":43.29027,"lon":5.38137,"is_reserved":false,"is_disabled":false,"rental_uris":{"android":"levelo://app?vid=a59a0526-a09b-4e1f-b799-4240ee0b7745","ios":"levelo://app?vid=a59a0526-a09b-4e1f-b799-4240ee0b7745"},"vehicle_type_id":"4","last_reported":1730578196,"current_range_meters":38800,"station_id":"ce4bh4p2rcd13ifvqe1g","pricing_plan_id":"cebpf4jnsgd1na2vs0mg"},{"bike_id":"8f426574-ac08-4461-a1bb-f746845c27e7","system_id":"levelo_inurba_marseille","lat":43.28489,"lon":5.3842,"is_reserved":false,"is_disabled":false,"rental_uris":{"android":"levelo://app?vid=8f426574-ac08-4461-a1bb-f746845c27e7","ios":"levelo://app?vid=8f426574-ac08-4461-a1bb-f746845c27e7"},"vehicle_type_id":"4","last_reported":1730578196,"current_range_meters":26800,"station_id":"ce4bh512rcd13ifvqe3g","pricing_plan_id":"cebpf4jnsgd1na2vs0mg"},{"bike_id":"ac6e4d7c-4cf4-4233-aca4-0f9953ecb824","system_id":"levelo_inurba_marseille","lat":43.32,"lon":5.38142,"is_reserved":false,"is_disabled":false,"rental_uris":{"android":"levelo://app?vid=ac6e4d7c-4cf4-4233-aca4-0f9953ecb824","ios":"levelo://app?vid=ac6e4d7c-4cf4-4233-aca4-0f9953ecb824"},"vehicle_type_id":"4","last_reported":1730578196,"current_range_meters":39200,"station_id":"ce4bhr12rcd13ifvqhpg","pricing_plan_id":"cebpf4jnsgd1na2vs0mg"},{"bike_id":"cbaf1f9d-4b0b-4c3e-b8a6-d8542d46a272","system_id":"levelo_inurba_marseille","lat":43.29179,"lon":5.37146,"is_reserved":false,"is_disabled":false,"rental_uris":{"android":"levelo://app?vid=cbaf1f9d-4b0b-4c3e-b8a6-d8542d46a272","ios":"levelo://app?vid=cbaf1f9d-4b0b-4c3e-b8a6-d8542d46a272"},"vehicle_type_id":"4","last_reported":1730578196,"current_range_meters":6400,"station_id":"ce4bha92rcd13ifvqeh0","pricing_plan_id":"cebpf4jnsgd1na2vs0mg"},{"bike_id":"40d3b2c4-2557-4414-908b-68fd972f7992","system_id":"levelo_inurba_marseille","lat":43.28445,"lon":5.39204,"is_reserved":false,"is_disabled":false,"rental_uris":{"android":"levelo://app?vid=40d3b2c4-2557-4414-908b-68fd972f7992","ios":"levelo://app?vid=40d3b2c4-2557-4414-908b-68fd972f7992"},"vehicle_type_id":"4","last_reported":1730578196,"current_range_meters":8400,"station_id":"ce4bhoh2rcd13ifvqh5g","pricing_plan_id":"cebpf4jnsgd1na2vs0mg"},{"bike_id":"b8b5f7e2-f80a-4b08-87ae-2845aa87323f","system_id":"levelo_inurba_marseille","lat":43.29422,"lon":5.38627,"is_reserved":false,"is_disabled":false,"rental_uris":{"android":"levelo://app?vid=b8b5f7e2-f80a-4b08-87ae-2845aa87323f","ios":"levelo://app?vid=b8b5f7e2-f80a-4b08-87ae-2845aa87323f"},"vehicle_type_id":"4","last_reported":1730578196,"current_range_meters":6400,"station_id":"ce4bh2h2rcd13ifvqdh0","pricing_plan_id":"cebpf4jnsgd1na2vs0mg"},{"bike_id":"5b90519b-fc85-4ce2-b356-4fa61ff4a683","system_id":"levelo_inurba_marseille","lat":43.28047,"lon":5.36955,"is_reserved":false,"is_disabled":false,"rental_uris":{"android":"levelo://app?vid=5b90519b-fc85-4ce2-b356-4fa61ff4a683","ios":"levelo://app?vid=5b90519b-fc85-4ce2-b356-4fa61ff4a683"},"vehicle_type_id":"4","last_reported":1730578196,"current_range_meters":13600,"station_id":"ce4bha12rcd13ifvqef0","pricing_plan_id":"cebpf4jnsgd1na2vs0mg"},{"bike_id":"02bf43f1-2ce4-4fae-b237-bdfecedc0a96","system_id":"levelo_inurba_marseille","lat":43.29602,"lon":5.381,"is_reserved":false,"is_disabled":false,"rental_uris":{"android":"levelo://app?vid=02bf43f1-2ce4-4fae-b237-bdfecedc0a96","ios":"levelo://app?vid=02bf43f1-2ce4-4fae-b237-bdfecedc0a96"},"vehicle_type_id":"4","last_reported":1730578196,"current_range_meters":22800,"station_id":"ce4bgl12rcd13ifvqbo0","pricing_plan_id":"cebpf4jnsgd1na2vs0mg"},{"bike_id":"fd2e1523-b60a-4332-ada8-276961823f65","system_id":"levelo_inurba_marseille","lat":43.29536,"lon":5.38548,"is_reserved":false,"is_disabled":false,"rental_uris":{"android":"levelo://app?vid=fd2e1523-b60a-4332-ada8-276961823f65","ios":"levelo://app?vid=fd2e1523-b60a-4332-ada8-276961823f65"},"vehicle_type_id":"4","last_reported":1730578196,"current_range_meters":18800,"station_id":"ce4bgih2rcd13ifvqba0","pricing_plan_id":"cebpf4jnsgd1na2vs0mg"},{"bike_id":"d2879b4e-2a2e-453c-a50c-982c6c09f394","system_id":"levelo_inurba_marseille","lat":43.3134,"lon":5.36701,"is_reserved":false,"is_disabled":false,"rental_uris":{"android":"levelo://app?vid=d2879b4e-2a2e-453c-a50c-982c6c09f394","ios":"levelo://app?vid=d2879b4e-2a2e-453c-a50c-982c6c09f394"},"vehicle_type_id":"4","last_reported":1730578196,"current_range_meters":18000,"station_id":"ce4bgr92rcd13ifvqc6g","pricing_plan_id":"cebpf4jnsgd1na2vs0mg"},{"bike_id":"624ea377-5dea-4048-b627-85e487e6ffae","system_id":"levelo_inurba_marseille","lat":43.29533,"lon":5.38548,"is_reserved":false,"is_disabled":false,"rental_uris":{"android":"levelo://app?vid=624ea377-5dea-4048-b627-85e487e6ffae","ios":"levelo://app?vid=624ea377-5dea-4048-b627-85e487e6ffae"},"vehicle_type_id":"4","last_reported":1730578196,"current_range_meters":17600,"station_id":"ce4bgih2rcd13ifvqba0","pricing_plan_id":"cebpf4jnsgd1na2vs0mg"},{"bike_id":"9aca62b1-4fce-45c0-a939-1c87758eecab","system_id":"levelo_inurba_marseille","lat":43.28115,"lon":5.37835,"is_reserved":false,"is_disabled":false,"rental_uris":{"android":"levelo://app?vid=9aca62b1-4fce-45c0-a939-1c87758eecab","ios":"levelo://app?vid=9aca62b1-4fce-45c0-a939-1c87758eecab"},"vehicle_type_id":"4","last_reported":1730578196,"current_range_meters":35600,"station_id":"ce4bha12rcd13ifvqee0","pricing_plan_id":"cebpf4jnsgd1na2vs0mg"},{"bike_id":"244d2a0b-7b2f-490a-b9a4-1990caad5e29","system_id":"levelo_inurba_marseille","lat":43.29032,"lon":5.38656,"is_reserved":false,"is_disabled":false,"rental_uris":{"android":"levelo://app?vid=244d2a0b-7b2f-490a-b9a4-1990caad5e29","ios":"levelo://app?vid=244d2a0b-7b2f-490a-b9a4-1990caad5e29"},"vehicle_type_id":"4","last_reported":1730578196,"current_range_meters":7200,"station_id":"ce4bh4p2rcd13ifvqe0g","pricing_plan_id":"cebpf4jnsgd1na2vs0mg"},{"bike_id":"17ebbbcb-2cf9-4746-aa3c-b67cb03f093d","system_id":"levelo_inurba_marseille","lat":43.34148,"lon":5.40902,"is_reserved":false,"is_disabled":false,"rental_uris":{"android":"levelo://app?vid=17ebbbcb-2cf9-4746-aa3c-b67cb03f093d","ios":"levelo://app?vid=17ebbbcb-2cf9-4746-aa3c-b67cb03f093d"},"vehicle_type_id":"4","last_reported":1730578196,"current_range_meters":35200,"station_id":"ce4bhqh2rcd13ifvqhlg","pricing_plan_id":"cebpf4jnsgd1na2vs0mg"},{"bike_id":"b66ece50-bc4f-4a5d-b2a3-ef5f9aba4661","system_id":"levelo_inurba_marseille","lat":43.292755,"lon":5.368399,"is_reserved":false,"is_disabled":false,"rental_uris":{"android":"levelo://app?vid=b66ece50-bc4f-4a5d-b2a3-ef5f9aba4661","ios":"levelo://app?vid=b66ece50-bc4f-4a5d-b2a3-ef5f9aba4661"},"vehicle_type_id":"4","last_reported":1730578196,"current_range_meters":38800,"station_id":"ce4bhbp2rcd13ifvqesg","pricing_plan_id":"cebpf4jnsgd1na2vs0mg"},{"bike_id":"648f90e1-d2ba-43f7-bb05-66a0c6508ed9","system_id":"levelo_inurba_marseille","lat":43.29293,"lon":5.36921,"is_reserved":false,"is_disabled":false,"rental_uris":{"android":"levelo://app?vid=648f90e1-d2ba-43f7-bb05-66a0c6508ed9","ios":"levelo://app?vid=648f90e1-d2ba-43f7-bb05-66a0c6508ed9"},"vehicle_type_id":"4","last_reported":1730578196,"current_range_meters":18000,"station_id":"ce4bgi12rcd13ifvqb70","pricing_plan_id":"cebpf4jnsgd1na2vs0mg"},{"bike_id":"54baa588-4308-4b18-898f-cbda25596cd9","system_id":"levelo_inurba_marseille","lat":43.30255,"lon":5.40061,"is_reserved":false,"is_disabled":false,"rental_uris":{"android":"levelo://app?vid=54baa588-4308-4b18-898f-cbda25596cd9","ios":"levelo://app?vid=54baa588-4308-4b18-898f-cbda25596cd9"},"vehicle_type_id":"4","last_reported":1730578196,"current_range_meters":38800,"station_id":"ce4bgvh2rcd13ifvqcs0","pricing_plan_id":"cebpf4jnsgd1na2vs0mg"},{"bike_id":"d859cdb4-2f9b-4050-b34b-686d7bfd090b","system_id":"levelo_inurba_marseille","lat":43.2926,"lon":5.38442,"is_reserved":false,"is_disabled":false,"rental_uris":{"android":"levelo://app?vid=d859cdb4-2f9b-4050-b34b-686d7bfd090b","ios":"levelo://app?vid=d859cdb4-2f9b-4050-b34b-686d7bfd090b"},"vehicle_type_id":"4","last_reported":1730578196,"current_range_meters":19200,"station_id":"ce4bh692rcd13ifvqea0","pricing_plan_id":"cebpf4jnsgd1na2vs0mg"},{"bike_id":"3e9b85d7-96fb-4b65-9acd-5723483a3709","system_id":"levelo_inurba_marseille","lat":43.317093,"lon":5.37755,"is_reserved":false,"is_disabled":false,"rental_uris":{"android":"levelo://app?vid=3e9b85d7-96fb-4b65-9acd-5723483a3709","ios":"levelo://app?vid=3e9b85d7-96fb-4b65-9acd-5723483a3709"},"vehicle_type_id":"4","last_reported":1730578196,"current_range_meters":12400,"station_id":"ce4bgth2rcd13ifvqch0","pricing_plan_id":"cebpf4jnsgd1na2vs0mg"},{"bike_id":"ee0f3795-6004-4e3b-8e4c-1307bf3d91cf","system_id":"levelo_inurba_marseille","lat":43.28088,"lon":5.39657,"is_reserved":false,"is_disabled":false,"rental_uris":{"android":"levelo://app?vid=ee0f3795-6004-4e3b-8e4c-1307bf3d91cf","ios":"levelo://app?vid=ee0f3795-6004-4e3b-8e4c-1307bf3d91cf"},"vehicle_type_id":"4","last_reported":1730578196,"current_range_meters":32800,"station_id":"ce4bho12rcd13ifvqh2g","pricing_plan_id":"cebpf4jnsgd1na2vs0mg"},{"bike_id":"101ec126-99e5-46d3-a7e7-98308ffb0b70","system_id":"levelo_inurba_marseille","lat":43.29607,"lon":5.37719,"is_reserved":false,"is_disabled":false,"rental_uris":{"android":"levelo://app?vid=101ec126-99e5-46d3-a7e7-98308ffb0b70","ios":"levelo://app?vid=101ec126-99e5-46d3-a7e7-98308ffb0b70"},"vehicle_type_id":"4","last_reported":1730578196,"current_range_meters":37600,"station_id":"ce4bgi92rcd13ifvqb90","pricing_plan_id":"cebpf4jnsgd1na2vs0mg"},{"bike_id":"8297bbbe-fe3e-442e-991a-ff05a61818d0","system_id":"levelo_inurba_marseille","lat":43.29422,"lon":5.3863,"is_reserved":false,"is_disabled":false,"rental_uris":{"android":"levelo://app?vid=8297bbbe-fe3e-442e-991a-ff05a61818d0","ios":"levelo://app?vid=8297bbbe-fe3e-442e-991a-ff05a61818d0"},"vehicle_type_id":"4","last_reported":1730578196,"current_range_meters":16000,"station_id":"ce4bh2h2rcd13ifvqdh0","pricing_plan_id":"cebpf4jnsgd1na2vs0mg"},{"bike_id":"95c76385-ae06-4d85-8fb0-3dfdb3d7470c","system_id":"levelo_inurba_marseille","lat":43.31689,"lon":5.40469,"is_reserved":false,"is_disabled":false,"rental_uris":{"android":"levelo://app?vid=95c76385-ae06-4d85-8fb0-3dfdb3d7470c","ios":"levelo://app?vid=95c76385-ae06-4d85-8fb0-3dfdb3d7470c"},"vehicle_type_id":"4","last_reported":1730578196,"current_range_meters":16800,"station_id":"ce4bh012rcd13ifvqd00","pricing_plan_id":"cebpf4jnsgd1na2vs0mg"},{"bike_id":"a7661224-a10e-48a0-a41b-007710435ab4","system_id":"levelo_inurba_marseille","lat":43.23062,"lon":5.35496,"is_reserved":false,"is_disabled":false,"rental_uris":{"android":"levelo://app?vid=a7661224-a10e-48a0-a41b-007710435ab4","ios":"levelo://app?vid=a7661224-a10e-48a0-a41b-007710435ab4"},"vehicle_type_id":"4","last_reported":1730578196,"current_range_meters":10000,"station_id":"cpo3342slgdg3j2ifvpg","pricing_plan_id":"cebpf4jnsgd1na2vs0mg"},{"bike_id":"107e403c-2a94-4a73-869a-573325902e57","system_id":"levelo_inurba_marseille","lat":43.28011,"lon":5.40014,"is_reserved":false,"is_disabled":false,"rental_uris":{"android":"levelo://app?vid=107e403c-2a94-4a73-869a-573325902e57","ios":"levelo://app?vid=107e403c-2a94-4a73-869a-573325902e57"},"vehicle_type_id":"4","last_reported":1730578196,"current_range_meters":25600,"station_id":"ce4bho92rcd13ifvqh4g","pricing_plan_id":"cebpf4jnsgd1na2vs0mg"},{"bike_id":"b2b69979-3c8a-4c36-9b8a-cb38d2fe1cd0","system_id":"levelo_inurba_marseille","lat":43.29409,"lon":5.38623,"is_reserved":false,"is_disabled":false,"rental_uris":{"android":"levelo://app?vid=b2b69979-3c8a-4c36-9b8a-cb38d2fe1cd0","ios":"levelo://app?vid=b2b69979-3c8a-4c36-9b8a-cb38d2fe1cd0"},"vehicle_type_id":"4","last_reported":1730578196,"current_range_meters":26800,"station_id":"ce4bh2h2rcd13ifvqdh0","pricing_plan_id":"cebpf4jnsgd1na2vs0mg"},{"bike_id":"ed7e88b0-5cfa-4b64-b10c-d95850d222b3","system_id":"levelo_inurba_marseille","lat":43.29091,"lon":5.38144,"is_reserved":false,"is_disabled":false,"rental_uris":{"android":"levelo://app?vid=ed7e88b0-5cfa-4b64-b10c-d95850d222b3","ios":"levelo://app?vid=ed7e88b0-5cfa-4b64-b10c-d95850d222b3"},"vehicle_type_id":"4","last_reported":1730578196,"current_range_meters":38800,"station_id":"ce4bh512rcd13ifvqe2g","pricing_plan_id":"cebpf4jnsgd1na2vs0mg"},{"bike_id":"f74df92c-a0ed-4b11-9a3c-ba9c645703ac","system_id":"levelo_inurba_marseille","lat":43.31271,"lon":5.40164,"is_reserved":false,"is_disabled":false,"rental_uris":{"android":"levelo://app?vid=f74df92c-a0ed-4b11-9a3c-ba9c645703ac","ios":"levelo://app?vid=f74df92c-a0ed-4b11-9a3c-ba9c645703ac"},"vehicle_type_id":"4","last_reported":1730578196,"current_range_meters":40000,"station_id":"ce4bh092rcd13ifvqd30","pricing_plan_id":"cebpf4jnsgd1na2vs0mg"},{"bike_id":"e5b26eda-a7ab-42d9-b22e-2f737f1d5dfa","system_id":"levelo_inurba_marseille","lat":43.26566,"lon":5.39003,"is_reserved":false,"is_disabled":false,"rental_uris":{"android":"levelo://app?vid=e5b26eda-a7ab-42d9-b22e-2f737f1d5dfa","ios":"levelo://app?vid=e5b26eda-a7ab-42d9-b22e-2f737f1d5dfa"},"vehicle_type_id":"4","last_reported":1730578196,"current_range_meters":6000,"station_id":"ce4bhe12rcd13ifvqf30","pricing_plan_id":"cebpf4jnsgd1na2vs0mg"},{"bike_id":"9b65e685-d819-45fe-ae53-eb6d93b76a49","system_id":"levelo_inurba_marseille","lat":43.29043,"lon":5.35913,"is_reserved":false,"is_disabled":false,"rental_uris":{"android":"levelo://app?vid=9b65e685-d819-45fe-ae53-eb6d93b76a49","ios":"levelo://app?vid=9b65e685-d819-45fe-ae53-eb6d93b76a49"},"vehicle_type_id":"4","last_reported":1730578196,"current_range_meters":27200,"station_id":"ce4bha92rcd13ifvqeg0","pricing_plan_id":"cebpf4jnsgd1na2vs0mg"},{"bike_id":"333a4ae6-d188-426c-abfa-99290b89a761","system_id":"levelo_inurba_marseille","lat":43.28102,"lon":5.3783,"is_reserved":false,"is_disabled":false,"rental_uris":{"android":"levelo://app?vid=333a4ae6-d188-426c-abfa-99290b89a761","ios":"levelo://app?vid=333a4ae6-d188-426c-abfa-99290b89a761"},"vehicle_type_id":"4","last_reported":1730578196,"current_range_meters":10000,"station_id":"ce4bha12rcd13ifvqee0","pricing_plan_id":"cebpf4jnsgd1na2vs0mg"},{"bike_id":"e327d7f6-9c96-426e-8a39-fa6673049d2c","system_id":"levelo_inurba_marseille","lat":43.32284,"lon":5.38285,"is_reserved":false,"is_disabled":false,"rental_uris":{"android":"levelo://app?vid=e327d7f6-9c96-426e-8a39-fa6673049d2c","ios":"levelo://app?vid=e327d7f6-9c96-426e-8a39-fa6673049d2c"},"vehicle_type_id":"4","last_reported":1730578196,"current_range_meters":37600,"station_id":"ce4bhr12rcd13ifvqhqg","pricing_plan_id":"cebpf4jnsgd1na2vs0mg"},{"bike_id":"c07332d5-f871-4d7c-9894-5a99fdbe9ec1","system_id":"levelo_inurba_marseille","lat":43.2508,"lon":5.39516,"is_reserved":false,"is_disabled":false,"rental_uris":{"android":"levelo://app?vid=c07332d5-f871-4d7c-9894-5a99fdbe9ec1","ios":"levelo://app?vid=c07332d5-f871-4d7c-9894-5a99fdbe9ec1"},"vehicle_type_id":"4","last_reported":1730578196,"current_range_meters":33200,"station_id":"ce4bhm12rcd13ifvqgkg","pricing_plan_id":"cebpf4jnsgd1na2vs0mg"},{"bike_id":"b1d180a8-0fef-4e72-b19b-921f96bf6160","system_id":"levelo_inurba_marseille","lat":43.29263,"lon":5.40908,"is_reserved":false,"is_disabled":false,"rental_uris":{"android":"levelo://app?vid=b1d180a8-0fef-4e72-b19b-921f96bf6160","ios":"levelo://app?vid=b1d180a8-0fef-4e72-b19b-921f96bf6160"},"vehicle_type_id":"4","last_reported":1730578196,"current_range_meters":8000,"station_id":"ce4bh192rcd13ifvqdc0","pricing_plan_id":"cebpf4jnsgd1na2vs0mg"},{"bike_id":"3dbac3a7-d4ab-4394-83db-d7ceb8242526","system_id":"levelo_inurba_marseille","lat":43.28037,"lon":5.36951,"is_reserved":false,"is_disabled":false,"rental_uris":{"android":"levelo://app?vid=3dbac3a7-d4ab-4394-83db-d7ceb8242526","ios":"levelo://app?vid=3dbac3a7-d4ab-4394-83db-d7ceb8242526"},"vehicle_type_id":"4","last_reported":1730578196,"current_range_meters":16000,"station_id":"ce4bha12rcd13ifvqef0","pricing_plan_id":"cebpf4jnsgd1na2vs0mg"},{"bike_id":"48c21651-046b-4b4f-b840-ebed0084e31b","system_id":"levelo_inurba_marseille","lat":43.29023,"lon":5.38143,"is_reserved":false,"is_disabled":false,"rental_uris":{"android":"levelo://app?vid=48c21651-046b-4b4f-b840-ebed0084e31b","ios":"levelo://app?vid=48c21651-046b-4b4f-b840-ebed0084e31b"},"vehicle_type_id":"4","last_reported":1730578196,"current_range_meters":27600,"station_id":"ce4bh4p2rcd13ifvqe1g","pricing_plan_id":"cebpf4jnsgd1na2vs0mg"},{"bike_id":"dc5cb50b-5a19-4afa-a560-cd182bc09b12","system_id":"levelo_inurba_marseille","lat":43.28471,"lon":5.38413,"is_reserved":false,"is_disabled":false,"rental_uris":{"android":"levelo://app?vid=dc5cb50b-5a19-4afa-a560-cd182bc09b12","ios":"levelo://app?vid=dc5cb50b-5a19-4afa-a560-cd182bc09b12"},"vehicle_type_id":"4","last_reported":1730578196,"current_range_meters":26000,"station_id":"ce4bh512rcd13ifvqe3g","pricing_plan_id":"cebpf4jnsgd1na2vs0mg"},{"bike_id":"c936989b-125d-4194-a57d-bd8b4df46468","system_id":"levelo_inurba_marseille","lat":43.29418,"lon":5.38623,"is_reserved":false,"is_disabled":false,"rental_uris":{"android":"levelo://app?vid=c936989b-125d-4194-a57d-bd8b4df46468","ios":"levelo://app?vid=c936989b-125d-4194-a57d-bd8b4df46468"},"vehicle_type_id":"4","last_reported":1730578196,"current_range_meters":23200,"station_id":"ce4bh2h2rcd13ifvqdh0","pricing_plan_id":"cebpf4jnsgd1na2vs0mg"},{"bike_id":"a241e345-9f8c-49e6-a1e2-e7d1f28d67c0","system_id":"levelo_inurba_marseille","lat":43.31691,"lon":5.4047,"is_reserved":false,"is_disabled":false,"rental_uris":{"android":"levelo://app?vid=a241e345-9f8c-49e6-a1e2-e7d1f28d67c0","ios":"levelo://app?vid=a241e345-9f8c-49e6-a1e2-e7d1f28d67c0"},"vehicle_type_id":"4","last_reported":1730578196,"current_range_meters":6800,"station_id":"ce4bh012rcd13ifvqd00","pricing_plan_id":"cebpf4jnsgd1na2vs0mg"},