{"last_updated":1708189543,"ttl":30,"version":"2.2","data":{"bikes":[{"bike_id":"555d889d-528e-4192-b982-4e8c8cb7b4b5","system_id":"levelo_inurba_marseille","lat":43.313391,"lon":5.36706,"is_reserved":false,"is_disabled":false,"rental_uris":{"android":"levelo://app?vid=555d889d-528e-4192-b982-4e8c8cb7b4b5","ios":"levelo://app?vid=555d889d-528e-4192-b982-4e8c8cb7b4b5"},"vehicle_type_id":"4","last_reported":1708189543,"current_range_meters":10400,"station_id":"ce4bgr92rcd13ifvqc6g","pricing_plan_id":"cebpf4jnsgd1na2vs0mg"},{"bike_id":"733c2819-e3dd-4905-9ce7-3056d47b1a25","system_id":"levelo_inurba_marseille","lat":43.313556,"lon":5.367116,"is_reserved":false,"is_disabled":false,"rental_uris":{"android":"levelo://app?vid=733c2819-e3dd-4905-9ce7-3056d47b1a25","ios":"levelo://app?vid=733c2819-e3dd-4905-9ce7-3056d47b1a25"},"vehicle_type_id":"4","last_reported":1708189543,"current_range_meters":0,"station_id":"ce4bgr92rcd13ifvqc6g","pricing_plan_id":"cebpf4jnsgd1na2vs0mg"},{"bike_id":"d6511472-e478-4e2d-8d09-28e997ca27d9","system_id":"levelo_inurba_marseille","lat":43.312239,"lon":5.368562,"is_reserved":false,"is_disabled":false,"rental_uris":{"android":"levelo://app?vid=d6511472-e478-4e2d-8d09-28e997ca27d9","ios":"levelo://app?vid=d6511472-e478-4e2d-8d09-28e997ca27d9"},"vehicle_type_id":"4","last_reported":1708189543,"current_range_meters":4000,"station_id":"ce4bgl92rcd13ifvqbq0","pricing_plan_id":"cebpf4jnsgd1na2vs0mg"},{"bike_id":"9d151270-1e43-498e-b52a-51f7c9b0b6b7","system_id":"levelo_inurba_marseille","lat":43.312239,"lon":5.368562,"is_reserved":false,"is_disabled":false,"rental_uris":{"android":"levelo://app?vid=9d151270-1e43-498e-b52a-51f7c9b0b6b7","ios":"levelo://app?vid=9d151270-1e43-498e-b52a-51f7c9b0b6b7"},"vehicle_type_id":"4","last_reported":1708189543,"current_range_meters":30800,"station_id":"ce4bgl92rcd13ifvqbq0","pricing_plan_id":"cebpf4jnsgd1na2vs0mg"},{"bike_id":"7624b2ac-6ba7-4453-b9a1-c3b38913ef7b","system_id":"levelo_inurba_marseille","lat":43.309034,"lon":5.371783,"is_reserved":false,"is_disabled":false,"rental_uris":{"android":"levelo://app?vid=7624b2ac-6ba7-4453-b9a1-c3b38913ef7b","ios":"levelo://app?vid=7624b2ac-6ba7-4453-b9a1-c3b38913ef7b"},"vehicle_type_id":"4","last_reported":1708189543,"current_range_meters":12000,"station_id":"ce4bguh2rcd13ifvqckg","pricing_plan_id":"cebpf4jnsgd1na2vs0mg"},{"bike_id":"beb9f2c8-3a4d-4ae7-9de5-c302913a4be2","system_id":"levelo_inurba_marseille","lat":43.305848,"lon":5.365592,"is_reserved":false,"is_disabled":false,"rental_uris":{"android":"levelo://app?vid=beb9f2c8-3a4d-4ae7-9de5-c302913a4be2","ios":"levelo://app?vid=beb9f2c8-3a4d-4ae7-9de5-c302913a4be2"},"vehicle_type_id":"4","last_reported":1708189543,"current_range_meters":20400,"station_id":"ce4bgs12rcd13ifvqcag","pricing_plan_id":"cebpf4jnsgd1na2vs0mg"},{"bike_id":"54264798-c9ee-4bac-ad99-8dcf14cc6056","system_id":"levelo_inurba_marseille","lat":43.305368,"lon":5.367343,"is_reserved":false,"is_disabled":false,"rental_uris":{"android":"levelo://app?vid=54264798-c9ee-4bac-ad99-8dcf14cc6056","ios":"levelo://app?vid=54264798-c9ee-4bac-ad99-8dcf14cc6056"},"vehicle_type_id":"4","last_reported":1708189543,"current_range_meters":0,"station_id":"ce4bgrp2rcd13ifvqc9g","pricing_plan_id":"cebpf4jnsgd1na2vs0mg"},{"bike_id":"1534894d-9d48-4735-b863-6ed936a31b9f","system_id":"levelo_inurba_marseille","lat":43.305989,"lon":5.37225,"is_reserved":false,"is_disabled":false,"rental_uris":{"android":"levelo://app?vid=1534894d-9d48-4735-b863-6ed936a31b9f","ios":"levelo://app?vid=1534894d-9d48-4735-b863-6ed936a31b9f"},"vehicle_type_id":"4","last_reported":1708189543,"current_range_meters":30800,"station_id":"ce4bgqh2rcd13ifvqc4g","pricing_plan_id":"cebpf4jnsgd1na2vs0mg"},{"bike_id":"8c8b5336-34d2-4563-9d70-8c0af4a268c7","system_id":"levelo_inurba_marseille","lat":43.307945,"lon":5.376487,"is_reserved":false,"is_disabled":false,"rental_uris":{"android":"levelo://app?vid=8c8b5336-34d2-4563-9d70-8c0af4a268c7","ios":"levelo://app?vid=8c8b5336-34d2-4563-9d70-8c0af4a268c7"},"vehicle_type_id":"4","last_reported":1708189543,"current_range_meters":400,"station_id":"ce4bgv92rcd13ifvqcq0","pricing_plan_id":"cebpf4jnsgd1na2vs0mg"},{"bike_id":"21fb28da-9329-450d-b6ca-ba2d39cef606","system_id":"levelo_inurba_marseille","lat":43.30786,"lon":5.37652,"is_reserved":false,"is_disabled":false,"rental_uris":{"android":"levelo://app?vid=21fb28da-9329-450d-b6ca-ba2d39cef606","ios":"levelo://app?vid=21fb28da-9329-450d-b6ca-ba2d39cef606"},"vehicle_type_id":"4","last_reported":1708189543,"current_range_meters":0,"station_id":"","pricing_plan_id":"cebpf4jnsgd1na2vs0mg"},{"bike_id":"c7d11ce6-e12d-4d95-8602-dfbbd778ab55","system_id":"levelo_inurba_marseille","lat":43.307945,"lon":5.376487,"is_reserved":false,"is_disabled":false,"rental_uris":{"android":"levelo://app?vid=c7d11ce6-e12d-4d95-8602-dfbbd778ab55","ios":"levelo://app?vid=c7d11ce6-e12d-4d95-8602-dfbbd778ab55"},"vehicle_type_id":"4","last_reported":1708189543,"current_range_meters":16800,"station_id":"ce4bgv92rcd13ifvqcq0","pricing_plan_id":"cebpf4jnsgd1na2vs0mg"},{"bike_id":"24f5789d-345b-438e-9091-eebcb5b0d324","system_id":"levelo_inurba_marseille","lat":43.317075,"lon":5.377367,"is_reserved":false,"is_disabled":false,"rental_uris":{"android":"levelo://app?vid=24f5789d-345b-438e-9091-eebcb5b0d324","ios":"levelo://app?vid=24f5789d-345b-438e-9091-eebcb5b0d324"},"vehicle_type_id":"4","last_reported":1708189543,"current_range_meters":29600,"station_id":"ce4bgth2rcd13ifvqch0","pricing_plan_id":"cebpf4jnsgd1na2vs0mg"},{"bike_id":"2c9706f0-4e9e-475c-9ea1-eeca5221679f","system_id":"levelo_inurba_marseille","lat":43.317075,"lon":5.377367,"is_reserved":false,"is_disabled":false,"rental_uris":{"android":"levelo://app?vid=2c9706f0-4e9e-475c-9ea1-eeca5221679f","ios":"levelo://app?vid=2c9706f0-4e9e-475c-9ea1-eeca5221679f"},"vehicle_type_id":"4","last_reported":1708189543,"current_range_meters":13200,"station_id":"ce4bgth2rcd13ifvqch0","pricing_plan_id":"cebpf4jnsgd1na2vs0mg"},{"bike_id":"fdbc2b35-9423-48f1-a04e-44ecc780ab5c","system_id":"levelo_inurba_marseille","lat":43.317075,"lon":5.377367,"is_reserved":false,"is_disabled":false,"rental_uris":{"android":"levelo://app?vid=fdbc2b35-9423-48f1-a04e-44ecc780ab5c","ios":"levelo://app?vid=fdbc2b35-9423-48f1-a04e-44ecc780ab5c"},"vehicle_type_id":"4","last_reported":1708189543,"current_range_meters":28800,"station_id":"ce4bgth2rcd13ifvqch0","pricing_plan_id":"cebpf4jnsgd1na2vs0mg"},{"bike_id":"381cd2ee-0875-4a3b-8048-03d423db3365","system_id":"levelo_inurba_marseille","lat":43.303046,"lon":5.368981,"is_reserved":false,"is_disabled":false,"rental_uris":{"android":"levelo://app?vid=381cd2ee-0875-4a3b-8048-03d423db3365","ios":"levelo://app?vid=381cd2ee-0875-4a3b-8048-03d423db3365"},"vehicle_type_id":"4","last_reported":1708189543,"current_range_meters":12400,"station_id":"ce4bgqh2rcd13ifvqc5g","pricing_plan_id":"cebpf4jnsgd1na2vs0mg"},{"bike_id":"999a0a8f-2611-4433-98ff-12af97d2740a","system_id":"levelo_inurba_marseille","lat":43.315293,"lon":5.380349,"is_reserved":false,"is_disabled":false,"rental_uris":{"android":"levelo://app?vid=999a0a8f-2611-4433-98ff-12af97d2740a","ios":"levelo://app?vid=999a0a8f-2611-4433-98ff-12af97d2740a"},"vehicle_type_id":"4","last_reported":1708189543,"current_range_meters":14400,"station_id":"ce4bhsp2rcd13ifvqi50","pricing_plan_id":"cebpf4jnsgd1na2vs0mg"},{"bike_id":"cc011084-1c94-4953-a92a-42803ec91860","system_id":"levelo_inurba_marseille","lat":43.32177,"lon":5.37458,"is_reserved":false,"is_disabled":false,"rental_uris":{"android":"levelo://app?vid=cc011084-1c94-4953-a92a-42803ec91860","ios":"levelo://app?vid=cc011084-1c94-4953-a92a-42803ec91860"},"vehicle_type_id":"4","last_reported":1708189543,"current_range_meters":11200,"station_id":"","pricing_plan_id":"cebpf4jnsgd1na2vs0mg"},{"bike_id":"af614bfe-91a3-4db8-95bb-4dc535e383f5","system_id":"levelo_inurba_marseille","lat":43.301939,"lon":5.366286,"is_reserved":false,"is_disabled":false,"rental_uris":{"android":"levelo://app?vid=af614bfe-91a3-4db8-95bb-4dc535e383f5","ios":"levelo://app?vid=af614bfe-91a3-4db8-95bb-4dc535e383f5"},"vehicle_type_id":"4","last_reported":1708189543,"current_range_meters":30400,"station_id":"ce4bgrh2rcd13ifvqc8g","pricing_plan_id":"cebpf4jnsgd1na2vs0mg"},{"bike_id":"0e81a5e6-936f-4cd8-bd44-f435bf69be3d","system_id":"levelo_inurba_marseille","lat":43.304606,"lon":5.379026,"is_reserved":false,"is_disabled":false,"rental_uris":{"android":"levelo://app?vid=0e81a5e6-936f-4cd8-bd44-f435bf69be3d","ios":"levelo://app?vid=0e81a5e6-936f-4cd8-bd44-f435bf69be3d"},"vehicle_type_id":"4","last_reported":1708189543,"current_range_meters":18400,"station_id":"ce4bgup2rcd13ifvqcn0","pricing_plan_id":"cebpf4jnsgd1na2vs0mg"},{"bike_id":"cd400b38-e853-4bc6-8efd-dc5ff46c228f","system_id":"levelo_inurba_marseille","lat":43.324771,"lon":5.36557,"is_reserved":false,"is_disabled":false,"rental_uris":{"android":"levelo://app?vid=cd400b38-e853-4bc6-8efd-dc5ff46c228f","ios":"levelo://app?vid=cd400b38-e853-4bc6-8efd-dc5ff46c228f"},"vehicle_type_id":"4","last_reported":1708189543,"current_range_meters":12800,"station_id":"ce4bhs12rcd13ifvqhvg","pricing_plan_id":"cebpf4jnsgd1na2vs0mg"},{"bike_id":"cff15590-55ad-4da5-bb89-f2b4a922c9ca","system_id":"levelo_inurba_marseille","lat":43.31072,"lon":5.38344,"is_reserved":false,"is_disabled":false,"rental_uris":{"android":"levelo://app?vid=cff15590-55ad-4da5-bb89-f2b4a922c9ca","ios":"levelo://app?vid=cff15590-55ad-4da5-bb89-f2b4a922c9ca"},"vehicle_type_id":"4","last_reported":1708189543,"current_range_meters":0,"station_id":"ce4bgv92rcd13ifvqcr0","pricing_plan_id":"cebpf4jnsgd1na2vs0mg"},{"bike_id":"80069458-1a81-4483-a31a-6141c10d8329","system_id":"levelo_inurba_marseille","lat":43.324771,"lon":5.36557,"is_reserved":false,"is_disabled":false,"rental_uris":{"android":"levelo://app?vid=80069458-1a81-4483-a31a-6141c10d8329","ios":"levelo://app?vid=80069458-1a81-4483-a31a-6141c10d8329"},"vehicle_type_id":"4","last_reported":1708189543,"current_range_meters":6400,"station_id":"ce4bhs12rcd13ifvqhvg","pricing_plan_id":"cebpf4jnsgd1na2vs0mg"},{"bike_id":"05e3499b-7acf-4ab9-b335-9e6489f6b173","system_id":"levelo_inurba_marseille","lat":43.310804,"lon":5.38359,"is_reserved":false,"is_disabled":false,"rental_uris":{"android":"levelo://app?vid=05e3499b-7acf-4ab9-b335-9e6489f6b173","ios":"levelo://app?vid=05e3499b-7acf-4ab9-b335-9e6489f6b173"},"vehicle_type_id":"4","last_reported":1708189543,"current_range_meters":0,"station_id":"ce4bgv92rcd13ifvqcr0","pricing_plan_id":"cebpf4jnsgd1na2vs0mg"},{"bike_id":"0ea0398a-839a-413e-a067-051fbf0473e5","system_id":"levelo_inurba_marseille","lat":43.310847,"lon":5.383633,"is_reserved":false,"is_disabled":false,"rental_uris":{"android":"levelo://app?vid=0ea0398a-839a-413e-a067-051fbf0473e5","ios":"levelo://app?vid=0ea0398a-839a-413e-a067-051fbf0473e5"},"vehicle_type_id":"4","last_reported":1708189543,"current_range_meters":400,"station_id":"ce4bgv92rcd13ifvqcr0","pricing_plan_id":"cebpf4jnsgd1na2vs0mg"},{"bike_id":"244ba138-9ba7-40fc-b223-69341dccecf8","system_id":"levelo_inurba_marseille","lat":43.31998,"lon":5.38151,"is_reserved":false,"is_disabled":false,"rental_uris":{"android":"levelo://app?vid=244ba138-9ba7-40fc-b223-69341dccecf8","ios":"levelo://app?vid=244ba138-9ba7-40fc-b223-69341dccecf8"},"vehicle_type_id":"4","last_reported":1708189543,"current_range_meters":14800,"station_id":"ce4bhr12rcd13ifvqhpg","pricing_plan_id":"cebpf4jnsgd1na2vs0mg"},{"bike_id":"470c7419-98e3-4059-adc8-fb445c6e4847","system_id":"levelo_inurba_marseille","lat":43.313571,"lon":5.384829,"is_reserved":false,"is_disabled":false,"rental_uris":{"android":"levelo://app?vid=470c7419-98e3-4059-adc8-fb445c6e4847","ios":"levelo://app?vid=470c7419-98e3-4059-adc8-fb445c6e4847"},"vehicle_type_id":"4","last_reported":1708189543,"current_range_meters":0,"station_id":"ce4bgt92rcd13ifvqcf0","pricing_plan_id":"cebpf4jnsgd1na2vs0mg"},{"bike_id":"d7122a35-34e0-4200-8fdb-176c8fed4439","system_id":"levelo_inurba_marseille","lat":43.313571,"lon":5.384829,"is_reserved":false,"is_disabled":false,"rental_uris":{"android":"levelo://app?vid=d7122a35-34e0-4200-8fdb-176c8fed4439","ios":"levelo://app?vid=d7122a35-34e0-4200-8fdb-176c8fed4439"},"vehicle_type_id":"4","last_reported":1708189543,"current_range_meters":30800,"station_id":"ce4bgt92rcd13ifvqcf0","pricing_plan_id":"cebpf4jnsgd1na2vs0mg"},{"bike_id":"d5631c1f-0568-4d39-9374-05ffee6f0aff","system_id":"levelo_inurba_marseille","lat":43.299222,"lon":5.365554,"is_reserved":false,"is_disabled":false,"rental_uris":{"android":"levelo://app?vid=d5631c1f-0568-4d39-9374-05ffee6f0aff","ios":"levelo://app?vid=d5631c1f-0568-4d39-9374-05ffee6f0aff"},"vehicle_type_id":"4","last_reported":1708189543,"current_range_meters":26000,"station_id":"ce4bgm92rcd13ifvqbr0","pricing_plan_id":"cebpf4jnsgd1na2vs0mg"},{"bike_id":"e649a1de-a839-46bb-8352-c0eda9d170a2","system_id":"levelo_inurba_marseille","lat":43.30239,"lon":5.381,"is_reserved":false,"is_disabled":false,"rental_uris":{"android":"levelo://app?vid=e649a1de-a839-46bb-8352-c0eda9d170a2","ios":"levelo://app?vid=e649a1de-a839-46bb-8352-c0eda9d170a2"},"vehicle_type_id":"4","last_reported":1708189543,"current_range_meters":4000,"station_id":"","pricing_plan_id":"cebpf4jnsgd1na2vs0mg"},{"bike_id":"cc24df15-7b53-4050-9efc-c6703712e5bb","system_id":"levelo_inurba_marseille","lat":43.298433,"lon":5.362774,"is_reserved":false,"is_disabled":false,"rental_uris":{"android":"levelo://app?vid=cc24df15-7b53-4050-9efc-c6703712e5bb","ios":"levelo://app?vid=cc24df15-7b53-4050-9efc-c6703712e5bb"},"vehicle_type_id":"4","last_reported":1708189543,"current_range_meters":0,"station_id":"ce4bgpp2rcd13ifvqc3g","pricing_plan_id":"cebpf4jnsgd1na2vs0mg"},{"bike_id":"5c14f925-46da-4665-b25a-95ae104b7bda","system_id":"levelo_inurba_marseille","lat":43.297774,"lon":5.370875,"is_reserved":false,"is_disabled":false,"rental_uris":{"android":"levelo://app?vid=5c14f925-46da-4665-b25a-95ae104b7bda","ios":"levelo://app?vid=5c14f925-46da-4665-b25a-95ae104b7bda"},"vehicle_type_id":"4","last_reported":1708189543,"current_range_meters":16000,"station_id":"ce4bgop2rcd13ifvqc1g","pricing_plan_id":"cebpf4jnsgd1na2vs0mg"},{"bike_id":"3c2db497-60b8-401a-8358-9f8e4e2f6dc2","system_id":"levelo_inurba_marseille","lat":43.2978,"lon":5.37107,"is_reserved":false,"is_disabled":false,"rental_uris":{"android":"levelo://app?vid=3c2db497-60b8-401a-8358-9f8e4e2f6dc2","ios":"levelo://app?vid=3c2db497-60b8-401a-8358-9f8e4e2f6dc2"},"vehicle_type_id":"4","last_reported":1708189543,"current_range_meters":12400,"station_id":"ce4bgop2rcd13ifvqc1g","pricing_plan_id":"cebpf4jnsgd1na2vs0mg"},{"bike_id":"9af28949-3abe-4ee4-a57a-c236655c3362","system_id":"levelo_inurba_marseille","lat":43.322872,"lon":5.382756,"is_reserved":false,"is_disabled":false,"rental_uris":{"android":"levelo://app?vid=9af28949-3abe-4ee4-a57a-c236655c3362","ios":"levelo://app?vid=9af28949-3abe-4ee4-a57a-c236655c3362"},"vehicle_type_id":"4","last_reported":1708189543,"current_range_meters":31200,"station_id":"ce4bhr12rcd13ifvqhqg","pricing_plan_id":"cebpf4jnsgd1na2vs0mg"},{"bike_id":"410a532b-f4d9-44b0-bece-5fd8115e2fc4","system_id":"levelo_inurba_marseille","lat":43.322872,"lon":5.382756,"is_reserved":false,"is_disabled":false,"rental_uris":{"android":"levelo://app?vid=410a532b-f4d9-44b0-bece-5fd8115e2fc4","ios":"levelo://app?vid=410a532b-f4d9-44b0-bece-5fd8115e2fc4"},"vehicle_type_id":"4","last_reported":1708189543,"current_range_meters":23600,"station_id":"ce4bhr12rcd13ifvqhqg","pricing_plan_id":"cebpf4jnsgd1na2vs0mg"},{"bike_id":"70fe7047-25f5-4921-82cd-938fed021886","system_id":"levelo_inurba_marseille","lat":43.322872,"lon":5.382756,"is_reserved":false,"is_disabled":false,"rental_uris":{"android":"levelo://app?vid=70fe7047-25f5-4921-82cd-938fed021886","ios":"levelo://app?vid=70fe7047-25f5-4921-82cd-938fed021886"},"vehicle_type_id":"4","last_reported":1708189543,"current_range_meters":20400,"station_id":"ce4bhr12rcd13ifvqhqg","pricing_plan_id":"cebpf4jnsgd1na2vs0mg"},{"bike_id":"798e1c77-cdb6-49fb-b2e4-2a646e449b0a","system_id":"levelo_inurba_marseille","lat":43.328371,"lon":5.366909,"is_reserved":false,"is_disabled":false,"rental_uris":{"android":"levelo://app?vid=798e1c77-cdb6-49fb-b2e4-2a646e449b0a","ios":"levelo://app?vid=798e1c77-cdb6-49fb-b2e4-2a646e449b0a"},"vehicle_type_id":"4","last_reported":1708189543,"current_range_meters":6000,"station_id":"ce4bhs92rcd13ifvqi0g","pricing_plan_id":"cebpf4jnsgd1na2vs0mg"},{"bike_id":"e4cc1337-7654-41c0-8296-b1f3b25edb39","system_id":"levelo_inurba_marseille","lat":43.32823,"lon":5.36686,"is_reserved":false,"is_disabled":false,"rental_uris":{"android":"levelo://app?vid=e4cc1337-7654-41c0-8296-b1f3b25edb39","ios":"levelo://app?vid=e4cc1337-7654-41c0-8296-b1f3b25edb39"},"vehicle_type_id":"4","last_reported":1708189543,"current_range_meters":17200,"station_id":"ce4bhs92rcd13ifvqi0g","pricing_plan_id":"cebpf4jnsgd1na2vs0mg"},{"bike_id":"ed32a763-8e77-4c64-8b87-1871dd8d623a","system_id":"levelo_inurba_marseille","lat":43.32823,"lon":5.3668,"is_reserved":false,"is_disabled":false,"rental_uris":{"android":"levelo://app?vid=ed32a763-8e77-4c64-8b87-1871dd8d623a","ios":"levelo://app?vid=ed32a763-8e77-4c64-8b87-1871dd8d623a"},"vehicle_type_id":"4","last_reported":1708189543,"current_range_meters":0,"station_id":"ce4bhs92rcd13ifvqi0g","pricing_plan_id":"cebpf4jnsgd1na2vs0mg"},{"bike_id":"d125619a-6ae6-4def-8c67-f1352fae5a27","system_id":"levelo_inurba_marseille","lat":43.32824,"lon":5.36681,"is_reserved":false,"is_disabled":false,"rental_uris":{"android":"levelo://app?vid=d125619a-6ae6-4def-8c67-f1352fae5a27","ios":"levelo://app?vid=d125619a-6ae6-4def-8c67-f1352fae5a27"},"vehicle_type_id":"4","last_reported":1708189543,"current_range_meters":18800,"station_id":"ce4bhs92rcd13ifvqi0g","pricing_plan_id":"cebpf4jnsgd1na2vs0mg"},{"bike_id":"ec21c626-faeb-41e5-9192-4d2bef3ee4d3","system_id":"levelo_inurba_marseille","lat":43.32824,"lon":5.36673,"is_reserved":false,"is_disabled":false,"rental_uris":{"android":"levelo://app?vid=ec21c626-faeb-41e5-9192-4d2bef3ee4d3","ios":"levelo://app?vid=ec21c626-faeb-41e5-9192-4d2bef3ee4d3"},"vehicle_type_id":"4","last_reported":1708189543,"current_range_meters":0,"station_id":"ce4bhs92rcd13ifvqi0g","pricing_plan_id":"cebpf4jnsgd1na2vs0mg"},{"bike_id":"aadfba98-88f5-4230-8488-f6b7556adf88","system_id":"levelo_inurba_marseille","lat":43.328249,"lon":5.36672,"is_reserved":false,"is_disabled":false,"rental_uris":{"android":"levelo://app?vid=aadfba98-88f5-4230-8488-f6b7556adf88","ios":"levelo://app?vid=aadfba98-88f5-4230-8488-f6b7556adf88"},"vehicle_type_id":"4","last_reported":1708189543,"current_range_meters":0,"station_id":"ce4bhs92rcd13ifvqi0g","pricing_plan_id":"cebpf4jnsgd1na2vs0mg"},{"bike_id":"4858fa03-d21d-48b2-a63e-a5500b96c079","system_id":"levelo_inurba_marseille","lat":43.32825,"lon":5.36677,"is_reserved":false,"is_disabled":false,"rental_uris":{"android":"levelo://app?vid=4858fa03-d21d-48b2-a63e-a5500b96c079","ios":"levelo://app?vid=4858fa03-d21d-48b2-a63e-a5500b96c079"},"vehicle_type_id":"4","last_reported":1708189543,"current_range_meters":2000,"station_id":"ce4bhs92rcd13ifvqi0g","pricing_plan_id":"cebpf4jnsgd1na2vs0mg"},{"bike_id":"45fe6c6c-2569-4aee-9c18-3f3586004f23","system_id":"levelo_inurba_marseille","lat":43.32825,"lon":5.36677,"is_reserved":false,"is_disabled":false,"rental_uris":{"android":"levelo://app?vid=45fe6c6c-2569-4aee-9c18-3f3586004f23","ios":"levelo://app?vid=45fe6c6c-2569-4aee-9c18-3f3586004f23"},"vehicle_type_id":"4","last_reported":1708189543,"current_range_meters":22000,"station_id":"ce4bhs92rcd13ifvqi0g","pricing_plan_id":"cebpf4jnsgd1na2vs0mg"},{"bike_id":"b354d40e-f748-45df-b8a4-085ee0f39b31","system_id":"levelo_inurba_marseille","lat":43.32825,"lon":5.36674,"is_reserved":false,"is_disabled":false,"rental_uris":{"android":"levelo://app?vid=b354d40e-f748-45df-b8a4-085ee0f39b31","ios":"levelo://app?vid=b354d40e-f748-45df-b8a4-085ee0f39b31"},"vehicle_type_id":"4","last_reported":1708189543,"current_range_meters":11200,"station_id":"ce4bhs92rcd13ifvqi0g","pricing_plan_id":"cebpf4jnsgd1na2vs0mg"},{"bike_id":"cc924a54-60e4-4421-b12c-5aa0bb659927","system_id":"levelo_inurba_marseille","lat":43.328251,"lon":5.366801,"is_reserved":false,"is_disabled":false,"rental_uris":{"android":"levelo://app?vid=cc924a54-60e4-4421-b12c-5aa0bb659927","ios":"levelo://app?vid=cc924a54-60e4-4421-b12c-5aa0bb659927"},"vehicle_type_id":"4","last_reported":1708189543,"current_range_meters":2400,"station_id":"ce4bhs92rcd13ifvqi0g","pricing_plan_id":"cebpf4jnsgd1na2vs0mg"},{"bike_id":"5195dc94-0b55-41c8-9198-580992dd67c5","system_id":"levelo_inurba_marseille","lat":43.32827,"lon":5.36678,"is_reserved":false,"is_disabled":false,"rental_uris":{"android":"levelo://app?vid=5195dc94-0b55-41c8-9198-580992dd67c5","ios":"levelo://app?vid=5195dc94-0b55-41c8-9198-580992dd67c5"},"vehicle_type_id":"4","last_reported":1708189543,"current_range_meters":20800,"station_id":"ce4bhs92rcd13ifvqi0g","pricing_plan_id":"cebpf4jnsgd1na2vs0mg"},{"bike_id":"2459963a-9a41-477a-9f46-310730d184fe","system_id":"levelo_inurba_marseille","lat":43.32828,"lon":5.36676,"is_reserved":false,"is_disabled":false,"rental_uris":{"android":"levelo://app?vid=2459963a-9a41-477a-9f46-310730d184fe","ios":"levelo://app?vid=2459963a-9a41-477a-9f46-310730d184fe"},"vehicle_type_id":"4","last_reported":1708189543,"current_range_meters":18000,"station_id":"ce4bhs92rcd13ifvqi0g","pricing_plan_id":"cebpf4jnsgd1na2vs0mg"},{"bike_id":"3833ec15-b081-4b20-84c5-72daf8aa7006","system_id":"levelo_inurba_marseille","lat":43.328291,"lon":5.366782,"is_reserved":false,"is_disabled":false,"rental_uris":{"android":"levelo://app?vid=3833ec15-b081-4b20-84c5-72daf8aa7006","ios":"levelo://app?vid=3833ec15-b081-4b20-84c5-72daf8aa7006"},"vehicle_type_id":"4","last_reported":1708189543,"current_range_meters":21600,"station_id":"ce4bhs92rcd13ifvqi0g","pricing_plan_id":"cebpf4jnsgd1na2vs0mg"},{"bike_id":"c9ca704a-95d9-467c-ad5a-5403d53c76ed","system_id":"levelo_inurba_marseille","lat":43.328299,"lon":5.366773,"is_reserved":false,"is_disabled":false,"rental_uris":{"android":"levelo://app?vid=c9ca704a-95d9-467c-ad5a-5403d53c76ed","ios":"levelo://app?vid=c9ca704a-95d9-467c-ad5a-5403d53c76ed"},"vehicle_type_id":"4","last_reported":1708189543,"current_range_meters":7600,"station_id":"ce4bhs92rcd13ifvqi0g","pricing_plan_id":"cebpf4jnsgd1na2vs0mg"},{"bike_id":"d059372d-713e-4306-a0dc-ef5b2b5ad059","system_id":"levelo_inurba_marseille","lat":43.3283,"lon":5.36683,"is_reserved":false,"is_disabled":false,"rental_uris":{"android":"levelo://app?vid=d059372d-713e-4306-a0dc-ef5b2b5ad059","ios":"levelo://app?vid=d059372d-713e-4306-a0dc-ef5b2b5ad059"},"vehicle_type_id":"4","last_reported":1708189543,"current_range_meters":22400,"station_id":"ce4bhs92rcd13ifvqi0g","pricing_plan_id":"cebpf4jnsgd1na2vs0mg"},{"bike_id":"9a9df145-9e54-4492-8621-de0756e6d559","system_id":"levelo_inurba_marseille","lat":43.3283,"lon":5.36679,"is_reserved":false,"is_disabled":false,"rental_uris":{"android":"levelo://app?vid=9a9df145-9e54-4492-8621-de0756e6d559","ios":"levelo://app?vid=9a9df145-9e54-4492-8621-de0756e6d559"},"vehicle_type_id":"4","last_reported":1708189543,"current_range_meters":0,"station_id":"ce4bhs92rcd13ifvqi0g","pricing_plan_id":"cebpf4jnsgd1na2vs0mg"},{"bike_id":"3ce3bf05-0e26-4ba4-9a11-4781ff3d0eb6","system_id":"levelo_inurba_marseille","lat":43.32831,"lon":5.3668,"is_reserved":false,"is_disabled":false,"rental_uris":{"android":"levelo://app?vid=3ce3bf05-0e26-4ba4-9a11-4781ff3d0eb6","ios":"levelo://app?vid=3ce3bf05-0e26-4ba4-9a11-4781ff3d0eb6"},"vehicle_type_id":"4","last_reported":1708189543,"current_range_meters":3200,"station_id":"ce4bhs92rcd13ifvqi0g","pricing_plan_id":"cebpf4jnsgd1na2vs0mg"},{"bike_id":"45a7a14e-9b1e-4a1b-ad54-93a32f013a67","system_id":"levelo_inurba_marseille","lat":43.328371,"lon":5.366909,"is_reserved":false,"is_disabled":false,"rental_uris":{"android":"levelo://app?vid=45a7a14e-9b1e-4a1b-ad54-93a32f013a67","ios":"levelo://app?vid=45a7a14e-9b1e-4a1b-ad54-93a32f013a67"},"vehicle_type_id":"4","last_reported":1708189543,"current_range_meters":11600,"station_id":"ce4bhs92rcd13ifvqi0g","pricing_plan_id":"cebpf4jnsgd1na2vs0mg"},{"bike_id":"b1a6d03f-e2ff-45bb-b890-788276a09a82","system_id":"levelo_inurba_marseille","lat":43.32833,"lon":5.36684,"is_reserved":false,"is_disabled":false,"rental_uris":{"android":"levelo://app?vid=b1a6d03f-e2ff-45bb-b890-788276a09a82","ios":"levelo://app?vid=b1a6d03f-e2ff-45bb-b890-788276a09a82"},"vehicle_type_id":"4","last_reported":1708189543,"current_range_meters":29200,"station_id":"ce4bhs92rcd13ifvqi0g","pricing_plan_id":"cebpf4jnsgd1na2vs0mg"},{"bike_id":"0e5c8abd-817f-44fe-812a-9ab674c7e2f9","system_id":"levelo_inurba_marseille","lat":43.296994,"lon":5.366556,"is_reserved":false,"is_disabled":false,"rental_uris":{"android":"levelo://app?vid=0e5c8abd-817f-44fe-812a-9ab674c7e2f9","ios":"levelo://app?vid=0e5c8abd-817f-44fe-812a-9ab674c7e2f9"},"vehicle_type_id":"4","last_reported":1708189543,"current_range_meters":4000,"station_id":"ce4bgn12rcd13ifvqbt0","pricing_plan_id":"cebpf4jnsgd1na2vs0mg"},{"bike_id":"9a99bb88-aa2a-46d4-9313-8d0e7a37e0c7","system_id":"levelo_inurba_marseille","lat":43.2968,"lon":5.37291,"is_reserved":false,"is_disabled":false,"rental_uris":{"android":"levelo://app?vid=9a99bb88-aa2a-46d4-9313-8d0e7a37e0c7","ios":"levelo://app?vid=9a99bb88-aa2a-46d4-9313-8d0e7a37e0c7"},"vehicle_type_id":"4","last_reported":1708189543,"current_range_meters":16400,"station_id":"ce4bgk12rcd13ifvqbj0","pricing_plan_id":"cebpf4jnsgd1na2vs0mg"},{"bike_id":"c45bcf5a-5ca1-4328-8c0e-9ac2e48d1c64","system_id":"levelo_inurba_marseille","lat":43.296129,"lon":5.370777,"is_reserved":false,"is_disabled":false,"rental_uris":{"android":"levelo://app?vid=c45bcf5a-5ca1-4328-8c0e-9ac2e48d1c64","ios":"levelo://app?vid=c45bcf5a-5ca1-4328-8c0e-9ac2e48d1c64"},"vehicle_type_id":"4","last_reported":1708189543,"current_range_meters":11600,"station_id":"ce4bgnh2rcd13ifvqc0g","pricing_plan_id":"cebpf4jnsgd1na2vs0mg"},{"bike_id":"99d38774-43b9-4ec3-8de2-a42ab27f4200","system_id":"levelo_inurba_marseille","lat":43.296129,"lon":5.370777,"is_reserved":false,"is_disabled":false,"rental_uris":{"android":"levelo://app?vid=99d38774-43b9-4ec3-8de2-a42ab27f4200","ios":"levelo://app?vid=99d38774-43b9-4ec3-8de2-a42ab27f4200"},"vehicle_type_id":"4","last_reported":1708189543,"current_range_meters":19600,"station_id":"ce4bgnh2rcd13ifvqc0g","pricing_plan_id":"cebpf4jnsgd1na2vs0mg"},{"bike_id":"d98d8a0d-317f-40b8-abfb-d7bd6bbef42e","system_id":"levelo_inurba_marseille","lat":43.29573,"lon":5.367355,"is_reserved":false,"is_disabled":false,"rental_uris":{"android":"levelo://app?vid=d98d8a0d-317f-40b8-abfb-d7bd6bbef42e","ios":"levelo://app?vid=d98d8a0d-317f-40b8-abfb-d7bd6bbef42e"},"vehicle_type_id":"4","last_reported":1708189543,"current_range_meters":18800,"station_id":"ce4bgph2rcd13ifvqc2g","pricing_plan_id":"cebpf4jnsgd1na2vs0mg"},{"bike_id":"a02cf294-e511-4076-a786-567ec1b7e005","system_id":"levelo_inurba_marseille","lat":43.29573,"lon":5.367355,"is_reserved":false,"is_disabled":false,"rental_uris":{"android":"levelo://app?vid=a02cf294-e511-4076-a786-567ec1b7e005","ios":"levelo://app?vid=a02cf294-e511-4076-a786-567ec1b7e005"},"vehicle_type_id":"4","last_reported":1708189543,"current_range_meters":4400,"station_id":"ce4bgph2rcd13ifvqc2g","pricing_plan_id":"cebpf4jnsgd1na2vs0mg"},{"bike_id":"8af061ab-a7f8-4817-ac43-4bb438d7ba66","system_id":"levelo_inurba_marseille","lat":43.29573,"lon":5.367355,"is_reserved":false,"is_disabled":false,"rental_uris":{"android":"levelo://app?vid=8af061ab-a7f8-4817-ac43-4bb438d7ba66","ios":"levelo://app?vid=8af061ab-a7f8-4817-ac43-4bb438d7ba66"},"vehicle_type_id":"4","last_reported":1708189543,"current_range_meters":7200,"station_id":"ce4bgph2rcd13ifvqc2g","pricing_plan_id":"cebpf4jnsgd1na2vs0mg"},{"bike_id":"d3940d41-497e-4c52-81c9-d630212c67fb","system_id":"levelo_inurba_marseille","lat":43.297186,"lon":5.377053,"is_reserved":false,"is_disabled":false,"rental_uris":{"android":"levelo://app?vid=d3940d41-497e-4c52-81c9-d630212c67fb","ios":"levelo://app?vid=d3940d41-497e-4c52-81c9-d630212c67fb"},"vehicle_type_id":"4","last_reported":1708189543,"current_range_meters":8000,"station_id":"ce4bgkh2rcd13ifvqbl0","pricing_plan_id":"cebpf4jnsgd1na2vs0mg"},{"bike_id":"7dd0589b-9c5f-47d0-abac-d6733a0158e2","system_id":"levelo_inurba_marseille","lat":43.296935,"lon":5.376544,"is_reserved":false,"is_disabled":false,"rental_uris":{"android":"levelo://app?vid=7dd0589b-9c5f-47d0-abac-d6733a0158e2","ios":"levelo://app?vid=7dd0589b-9c5f-47d0-abac-d6733a0158e2"},"vehicle_type_id":"4","last_reported":1708189543,"current_range_meters":26400,"station_id":"ce4bgkh2rcd13ifvqbl0","pricing_plan_id":"cebpf4jnsgd1na2vs0mg"},{"bike_id":"988e130d-53a3-4265-b79f-cf96a91419d5","system_id":"levelo_inurba_marseille","lat":43.309589,"lon":5.390258,"is_reserved":false,"is_disabled":false,"rental_uris":{"android":"levelo://app?vid=988e130d-53a3-4265-b79f-cf96a91419d5","ios":"levelo://app?vid=988e130d-53a3-4265-b79f-cf96a91419d5"},"vehicle_type_id":"4","last_reported":1708189543,"current_range_meters":0,"station_id":"ce4bgup2rcd13ifvqco0","pricing_plan_id":"cebpf4jnsgd1na2vs0mg"},{"bike_id":"3fa7e92a-25db-4177-8f54-bcf7d2f959b1","system_id":"levelo_inurba_marseille","lat":43.309505,"lon":5.390308,"is_reserved":false,"is_disabled":false,"rental_uris":{"android":"levelo://app?vid=3fa7e92a-25db-4177-8f54-bcf7d2f959b1","ios":"levelo://app?vid=3fa7e92a-25db-4177-8f54-bcf7d2f959b1"},"vehicle_type_id":"4","last_reported":1708189543,"current_range_meters":0,"station_id":"ce4bgup2rcd13ifvqco0","pricing_plan_id":"cebpf4jnsgd1na2vs0mg"},{"bike_id":"b3dcb9ba-bf07-48c1-aada-2fbdb761a352","system_id":"levelo_inurba_marseille","lat":43.317557,"lon":5.390173,"is_reserved":false,"is_disabled":false,"rental_uris":{"android":"levelo://app?vid=b3dcb9ba-bf07-48c1-aada-2fbdb761a352","ios":"levelo://app?vid=b3dcb9ba-bf07-48c1-aada-2fbdb761a352"},"vehicle_type_id":"4","last_reported":1708189543,"current_range_meters":31200,"station_id":"ce4bhqp2rcd13ifvqhng","pricing_plan_id":"cebpf4jnsgd1na2vs0mg"},{"bike_id":"ed87d69f-71e3-4a80-a6a0-6a1355afd957","system_id":"levelo_inurba_marseille","lat":43.31759,"lon":5.39014,"is_reserved":false,"is_disabled":false,"rental_uris":{"android":"levelo://app?vid=ed87d69f-71e3-4a80-a6a0-6a1355afd957","ios":"levelo://app?vid=ed87d69f-71e3-4a80-a6a0-6a1355afd957"},"vehicle_type_id":"4","last_reported":1708189543,"current_range_meters":10800,"station_id":"ce4bhqp2rcd13ifvqhng","pricing_plan_id":"cebpf4jnsgd1na2vs0mg"},{"bike_id":"a203661e-355b-42f4-9955-ac4c89f27d54","system_id":"levelo_inurba_marseille","lat":43.317615,"lon":5.390145,"is_reserved":false,"is_disabled":false,"rental_uris":{"android":"levelo://app?vid=a203661e-355b-42f4-9955-ac4c89f27d54","ios":"levelo://app?vid=a203661e-355b-42f4-9955-ac4c89f27d54"},"vehicle_type_id":"4","last_reported":1708189543,"current_range_meters":31200,"station_id":"ce4bhqp2rcd13ifvqhng","pricing_plan_id":"cebpf4jnsgd1na2vs0mg"},{"bike_id":"d7ff2894-9c5e-41d5-878d-d5d27747d579","system_id":"levelo_inurba_marseille","lat":43.317557,"lon":5.390173,"is_reserved":false,"is_disabled":false,"rental_uris":{"android":"levelo://app?vid=d7ff2894-9c5e-41d5-878d-d5d27747d579","ios":"levelo://app?vid=d7ff2894-9c5e-41d5-878d-d5d27747d579"},"vehicle_type_id":"4","last_reported":1708189543,"current_range_meters":10800,"station_id":"ce4bhqp2rcd13ifvqhng","pricing_plan_id":"cebpf4jnsgd1na2vs0mg"},{"bike_id":"280349c5-d3b4-4d1b-8be2-d8aafb722357","system_id":"levelo_inurba_marseille","lat":43.29806,"lon":5.38085,"is_reserved":false,"is_disabled":false,"rental_uris":{"android":"levelo://app?vid=280349c5-d3b4-4d1b-8be2-d8aafb722357","ios":"levelo://app?vid=280349c5-d3b4-4d1b-8be2-d8aafb722357"},"vehicle_type_id":"4","last_reported":1708189543,"current_range_meters":4400,"station_id":"ce4bgip2rcd13ifvqbb0","pricing_plan_id":"cebpf4jnsgd1na2vs0mg"},{"bike_id":"2d51d6d2-4990-46c9-b3fe-09820a8c211c","system_id":"levelo_inurba_marseille","lat":43.297955,"lon":5.380935,"is_reserved":false,"is_disabled":false,"rental_uris":{"android":"levelo://app?vid=2d51d6d2-4990-46c9-b3fe-09820a8c211c","ios":"levelo://app?vid=2d51d6d2-4990-46c9-b3fe-09820a8c211c"},"vehicle_type_id":"4","last_reported":1708189543,"current_range_meters":28800,"station_id":"ce4bgip2rcd13ifvqbb0","pricing_plan_id":"cebpf4jnsgd1na2vs0mg"},{"bike_id":"d2b1a75f-1699-4e1e-b245-ec5c8209dd08","system_id":"levelo_inurba_marseille","lat":43.297936,"lon":5.381079,"is_reserved":false,"is_disabled":false,"rental_uris":{"android":"levelo://app?vid=d2b1a75f-1699-4e1e-b245-ec5c8209dd08","ios":"levelo://app?vid=d2b1a75f-1699-4e1e-b245-ec5c8209dd08"},"vehicle_type_id":"4","last_reported":1708189543,"current_range_meters":0,"station_id":"ce4bgip2rcd13ifvqbb0","pricing_plan_id":"cebpf4jnsgd1na2vs0mg"},{"bike_id":"f8e51094-ac7f-45ea-be2a-94b81f5b36c1","system_id":"levelo_inurba_marseille","lat":43.304274,"lon":5.388873,"is_reserved":false,"is_disabled":false,"rental_uris":{"android":"levelo://app?vid=f8e51094-ac7f-45ea-be2a-94b81f5b36c1","ios":"levelo://app?vid=f8e51094-ac7f-45ea-be2a-94b81f5b36c1"},"vehicle_type_id":"4","last_reported":1708189543,"current_range_meters":12800,"station_id":"ce4bgk12rcd13ifvqbi0","pricing_plan_id":"cebpf4jnsgd1na2vs0mg"},{"bike_id":"a8a12d50-b835-4a74-bec5-489632abab14","system_id":"levelo_inurba_marseille","lat":43.304278,"lon":5.388868,"is_reserved":false,"is_disabled":false,"rental_uris":{"android":"levelo://app?vid=a8a12d50-b835-4a74-bec5-489632abab14","ios":"levelo://app?vid=a8a12d50-b835-4a74-bec5-489632abab14"},"vehicle_type_id":"4","last_reported":1708189543,"current_range_meters":6800,"station_id":"ce4bgk12rcd13ifvqbi0","pricing_plan_id":"cebpf4jnsgd1na2vs0mg"},{"bike_id":"1f75b60d-4e4c-48cc-b891-a1eb43f6d865","system_id":"levelo_inurba_marseille","lat":43.295748,"lon":5.37522,"is_reserved":false,"is_disabled":false,"rental_uris":{"android":"levelo://app?vid=1f75b60d-4e4c-48cc-b891-a1eb43f6d865","ios":"levelo://app?vid=1f75b60d-4e4c-48cc-b891-a1eb43f6d865"},"vehicle_type_id":"4","last_reported":1708189543,"current_range_meters":14400,"station_id":"ce4bgh92rcd13ifvqb50","pricing_plan_id":"cebpf4jnsgd1na2vs0mg"},{"bike_id":"cbcb37f2-ba3f-4b64-a18d-f51f768c8bd6","system_id":"levelo_inurba_marseille","lat":43.295748,"lon":5.37522,"is_reserved":false,"is_disabled":false,"rental_uris":{"android":"levelo://app?vid=cbcb37f2-ba3f-4b64-a18d-f51f768c8bd6","ios":"levelo://app?vid=cbcb37f2-ba3f-4b64-a18d-f51f768c8bd6"},"vehicle_type_id":"4","last_reported":1708189543,"current_range_meters":31200,"station_id":"ce4bgh92rcd13ifvqb50","pricing_plan_id":"cebpf4jnsgd1na2vs0mg"},{"bike_id":"bc4ffa10-22db-4ff4-a968-952792ca6b0e","system_id":"levelo_inurba_marseille","lat":43.295748,"lon":5.37522,"is_reserved":false,"is_disabled":false,"rental_uris":{"android":"levelo://app?vid=bc4ffa10-22db-4ff4-a968-952792ca6b0e","ios":"levelo://app?vid=bc4ffa10-22db-4ff4-a968-952792ca6b0e"},"vehicle_type_id":"4","last_reported":1708189543,"current_range_meters":27200,"station_id":"ce4bgh92rcd13ifvqb50","pricing_plan_id":"cebpf4jnsgd1na2vs0mg"},{"bike_id":"c4deb7a7-2ac6-45f5-aaa6-395419447840","system_id":"levelo_inurba_marseille","lat":43.296277,"lon":5.377108,"is_reserved":false,"is_disabled":false,"rental_uris":{"android":"levelo://app?vid=c4deb7a7-2ac6-45f5-aaa6-395419447840","ios":"levelo://app?vid=c4deb7a7-2ac6-45f5-aaa6-395419447840"},"vehicle_type_id":"4","last_reported":1708189543,"current_range_meters":2400,"station_id":"ce4bgi92rcd13ifvqb90","pricing_plan_id":"cebpf4jnsgd1na2vs0mg"},{"bike_id":"44435b2d-ad3a-45fc-84f0-6d4e977465d1","system_id":"levelo_inurba_marseille","lat":43.295279,"lon":5.375048,"is_reserved":false,"is_disabled":false,"rental_uris":{"android":"levelo://app?vid=44435b2d-ad3a-45fc-84f0-6d4e977465d1","ios":"levelo://app?vid=44435b2d-ad3a-45fc-84f0-6d4e977465d1"},"vehicle_type_id":"4","last_reported":1708189543,"current_range_meters":1200,"station_id":"ce4bgkp2rcd13ifvqbmg","pricing_plan_id":"cebpf4jnsgd1na2vs0mg"},{"bike_id":"620cf4d6-ef81-45a8-a76d-9d03a7438477","system_id":"levelo_inurba_marseille","lat":43.299707,"lon":5.384859,"is_reserved":false,"is_disabled":false,"rental_uris":{"android":"levelo://app?vid=620cf4d6-ef81-45a8-a76d-9d03a7438477","ios":"levelo://app?vid=620cf4d6-ef81-45a8-a76d-9d03a7438477"},"vehicle_type_id":"4","last_reported":1708189543,"current_range_meters":5600,"station_id":"ce4bgj92rcd13ifvqbd0","pricing_plan_id":"cebpf4jnsgd1na2vs0mg"},{"bike_id":"6c05c603-9100-428e-8841-b257d9aacf92","system_id":"levelo_inurba_marseille","lat":43.299707,"lon":5.384859,"is_reserved":false,"is_disabled":false,"rental_uris":{"android":"levelo://app?vid=6c05c603-9100-428e-8841-b257d9aacf92","ios":"levelo://app?vid=6c05c603-9100-428e-8841-b257d9aacf92"},"vehicle_type_id":"4","last_reported":1708189543,"current_range_meters":5200,"station_id":"ce4bgj92rcd13ifvqbd0","pricing_plan_id":"cebpf4jnsgd1na2vs0mg"},{"bike_id":"488e4920-0d07-446b-9b15-8b0a032d3b46","system_id":"levelo_inurba_marseille","lat":43.299707,"lon":5.384859,"is_reserved":false,"is_disabled":false,"rental_uris":{"android":"levelo://app?vid=488e4920-0d07-446b-9b15-8b0a032d3b46","ios":"levelo://app?vid=488e4920-0d07-446b-9b15-8b0a032d3b46"},"vehicle_type_id":"4","last_reported":1708189543,"current_range_meters":7200,"station_id":"ce4bgj92rcd13ifvqbd0","pricing_plan_id":"cebpf4jnsgd1na2vs0mg"},{"bike_id":"7f9a93d9-1361-4abb-bb21-20f41b6562e3","system_id":"levelo_inurba_marseille","lat":43.299717,"lon":5.384845,"is_reserved":false,"is_disabled":false,"rental_uris":{"android":"levelo://app?vid=7f9a93d9-1361-4abb-bb21-20f41b6562e3","ios":"levelo://app?vid=7f9a93d9-1361-4abb-bb21-20f41b6562e3"},"vehicle_type_id":"4","last_reported":1708189543,"current_range_meters":9200,"station_id":"ce4bgj92rcd13ifvqbd0","pricing_plan_id":"cebpf4jnsgd1na2vs0mg"},{"bike_id":"abf02539-9c70-42bf-b355-c81c70d2a27c","system_id":"levelo_inurba_marseille","lat":43.299724,"lon":5.384848,"is_reserved":false,"is_disabled":false,"rental_uris":{"android":"levelo://app?vid=abf02539-9c70-42bf-b355-c81c70d2a27c","ios":"levelo://app?vid=abf02539-9c70-42bf-b355-c81c70d2a27c"},"vehicle_type_id":"4","last_reported":1708189543,"current_range_meters":11600,"station_id":"ce4bgj92rcd13ifvqbd0","pricing_plan_id":"cebpf4jnsgd1na2vs0mg"},{"bike_id":"6d8e77ab-2d1b-47be-bf72-79caf7a1532c","system_id":"levelo_inurba_marseille","lat":43.299724,"lon":5.384848,"is_reserved":false,"is_disabled":false,"rental_uris":{"android":"levelo://app?vid=6d8e77ab-2d1b-47be-bf72-79caf7a1532c","ios":"levelo://app?vid=6d8e77ab-2d1b-47be-bf72-79caf7a1532c"},"vehicle_type_id":"4","last_reported":1708189543,"current_range_meters":7200,"station_id":"ce4bgj92rcd13ifvqbd0","pricing_plan_id":"cebpf4jnsgd1na2vs0mg"},{"bike_id":"7b3b1ee2-515f-4deb-b276-825ac0ac5de0","system_id":"levelo_inurba_marseille","lat":43.299724,"lon":5.384848,"is_reserved":false,"is_disabled":false,"rental_uris":{"android":"levelo://app?vid=7b3b1ee2-515f-4deb-b276-825ac0ac5de0","ios":"levelo://app?vid=7b3b1ee2-515f-4deb-b276-825ac0ac5de0"},"vehicle_type_id":"4","last_reported":1708189543,"current_range_meters":14800,"station_id":"ce4bgj92rcd13ifvqbd0","pricing_plan_id":"cebpf4jnsgd1na2vs0mg"},{"bike_id":"1f17d839-a5d2-44b0-b279-2eacd3ef3454","system_id":"levelo_inurba_marseille","lat":43.301427,"lon":5.388367,"is_reserved":false,"is_disabled":false,"rental_uris":{"android":"levelo://app?vid=1f17d839-a5d2-44b0-b279-2eacd3ef3454","ios":"levelo://app?vid=1f17d839-a5d2-44b0-b279-2eacd3ef3454"},"vehicle_type_id":"4","last_reported":1708189543,"current_range_meters":0,"station_id":"","pricing_plan_id":"cebpf4jnsgd1na2vs0mg"},{"bike_id":"13c55455-5afd-4f59-87e0-e5bf20168153","system_id":"levelo_inurba_marseille","lat":43.32367,"lon":5.388836,"is_reserved":false,"is_disabled":false,"rental_uris":{"android":"levelo://app?vid=13c55455-5afd-4f59-87e0-e5bf20168153","ios":"levelo://app?vid=13c55455-5afd-4f59-87e0-e5bf20168153"},"vehicle_type_id":"4","last_reported":1708189543,"current_range_meters":17600,"station_id":"ce4bhqp2rcd13ifvqhog","pricing_plan_id":"cebpf4jnsgd1na2vs0mg"},{"bike_id":"552029bf-ca42-4d0d-83fb-83812017cfd4","system_id":"levelo_inurba_marseille","lat":43.32367,"lon":5.388836,"is_reserved":false,"is_disabled":false,"rental_uris":{"android":"levelo://app?vid=552029bf-ca42-4d0d-83fb-83812017cfd4","ios":"levelo://app?vid=552029bf-ca42-4d0d-83fb-83812017cfd4"},"vehicle_type_id":"4","last_reported":1708189543,"current_range_meters":21600,"station_id":"ce4bhqp2rcd13ifvqhog","pricing_plan_id":"cebpf4jnsgd1na2vs0mg"},{"bike_id":"04bef4fc-f501-41bd-9104-a149c6db62aa","system_id":"levelo_inurba_marseille","lat":43.32367,"lon":5.388836,"is_reserved":false,"is_disabled":false,"rental_uris":{"android":"levelo://app?vid=04bef4fc-f501-41bd-9104-a149c6db62aa","ios":"levelo://app?vid=04bef4fc-f501-41bd-9104-a149c6db62aa"},"vehicle_type_id":"4","last_reported":1708189543,"current_range_meters":10400,"station_id":"ce4bhqp2rcd13ifvqhog","pricing_plan_id":"cebpf4jnsgd1na2vs0mg"},{"bike_id":"e9fb838e-b288-41f7-8b95-04552e228ee4","system_id":"levelo_inurba_marseille","lat":43.32367,"lon":5.388836,"is_reserved":false,"is_disabled":false,"rental_uris":{"android":"levelo://app?vid=e9fb838e-b288-41f7-8b95-04552e228ee4","ios":"levelo://app?vid=e9fb838e-b288-41f7-8b95-04552e228ee4"},"vehicle_type_id":"4","last_reported":1708189543,"current_range_meters":1600,"station_id":"ce4bhqp2rcd13ifvqhog","pricing_plan_id":"cebpf4jnsgd1na2vs0mg"},{"bike_id":"11f16d73-52cf-4b59-8120-4e257d4d363b","system_id":"levelo_inurba_marseille","lat":43.32367,"lon":5.388836,"is_reserved":false,"is_disabled":false,"rental_uris":{"android":"levelo://app?vid=11f16d73-52cf-4b59-8120-4e257d4d363b","ios":"levelo://app?vid=11f16d73-52cf-4b59-8120-4e257d4d363b"},"vehicle_type_id":"4","last_reported":1708189543,"current_range_meters":8000,"station_id":"ce4bhqp2rcd13ifvqhog","pricing_plan_id":"cebpf4jnsgd1na2vs0mg"},{"bike_id":"6af73b7c-3333-47f9-9c52-fb4e2c063bc2","system_id":"levelo_inurba_marseille","lat":43.32367,"lon":5.388836,"is_reserved":false,"is_disabled":false,"rental_uris":{"android":"levelo://app?vid=6af73b7c-3333-47f9-9c52-fb4e2c063bc2","ios":"levelo://app?vid=6af73b7c-3333-47f9-9c52-fb4e2c063bc2"},"vehicle_type_id":"4","last_reported":1708189543,"current_range_meters":10800,"station_id":"ce4bhqp2rcd13ifvqhog","pricing_plan_id":"cebpf4jnsgd1na2vs0mg"},{"bike_id":"85b7d3f5-0fa2-43f3-a410-8e41ce1cabfc","system_id":"levelo_inurba_marseille","lat":43.3237,"lon":5.38884,"is_reserved":false,"is_disabled":false,"rental_uris":{"android":"levelo://app?vid=85b7d3f5-0fa2-43f3-a410-8e41ce1cabfc","ios":"levelo://app?vid=85b7d3f5-0fa2-43f3-a410-8e41ce1cabfc"},"vehicle_type_id":"4","last_reported":1708189543,"current_range_meters":7600,"station_id":"ce4bhqp2rcd13ifvqhog","pricing_plan_id":"cebpf4jnsgd1na2vs0mg"},{"bike_id":"097fbc68-0e12-4cda-a32c-f9f7e74ee0ed","system_id":"levelo_inurba_marseille","lat":43.3237,"lon":5.38886,"is_reserved":false,"is_disabled":false,"rental_uris":{"android":"levelo://app?vid=097fbc68-0e12-4cda-a32c-f9f7e74ee0ed","ios":"levelo://app?vid=097fbc68-0e12-4cda-a32c-f9f7e74ee0ed"},"vehicle_type_id":"4","last_reported":1708189543,"current_range_meters":6000,"station_id":"ce4bhqp2rcd13ifvqhog","pricing_plan_id":"cebpf4jnsgd1na2vs0mg"},{"bike_id":"9d871f50-0327-4348-a9da-d10b72178825","system_id":"levelo_inurba_marseille","lat":43.32369,"lon":5.3889,"is_reserved":false,"is_disabled":false,"rental_uris":{"android":"levelo://app?vid=9d871f50-0327-4348-a9da-d10b72178825","ios":"levelo://app?vid=9d871f50-0327-4348-a9da-d10b72178825"},"vehicle_type_id":"4","last_reported":1708189543,"current_range_meters":23200,"station_id":"ce4bhqp2rcd13ifvqhog","pricing_plan_id":"cebpf4jnsgd1na2vs0mg"},{"bike_id":"046898f3-6236-4763-94e5-ac19251f1556","system_id":"levelo_inurba_marseille","lat":43.29329,"lon":5.371542,"is_reserved":false,"is_disabled":false,"rental_uris":{"android":"levelo://app?vid=046898f3-6236-4763-94e5-ac19251f1556","ios":"levelo://app?vid=046898f3-6236-4763-94e5-ac19251f1556"},"vehicle_type_id":"4","last_reported":1708189543,"current_range_meters":5200,"station_id":"ce4bgh92rcd13ifvqb40","pricing_plan_id":"cebpf4jnsgd1na2vs0mg"},{"bike_id":"b9ff7b9a-104a-4540-8290-f8fad157eb56","system_id":"levelo_inurba_marseille","lat":43.29416,"lon":5.37646,"is_reserved":false,"is_disabled":false,"rental_uris":{"android":"levelo://app?vid=b9ff7b9a-104a-4540-8290-f8fad157eb56","ios":"levelo://app?vid=b9ff7b9a-104a-4540-8290-f8fad157eb56"},"vehicle_type_id":"4","last_reported":1708189543,"current_range_meters":7600,"station_id":"","pricing_plan_id":"cebpf4jnsgd1na2vs0mg"},{"bike_id":"cad7c9de-de8f-4976-9f8e-65ba856746d0","system_id":"levelo_inurba_marseille","lat":43.292749,"lon":5.368402,"is_reserved":false,"is_disabled":false,"rental_uris":{"android":"levelo://app?vid=cad7c9de-de8f-4976-9f8e-65ba856746d0","ios":"levelo://app?vid=cad7c9de-de8f-4976-9f8e-65ba856746d0"},"vehicle_type_id":"4","last_reported":1708189543,"current_range_meters":0,"station_id":"ce4bhbp2rcd13ifvqesg","pricing_plan_id":"cebpf4jnsgd1na2vs0mg"},{"bike_id":"15b7f4b7-c5e3-4665-832b-7ded9cb38257","system_id":"levelo_inurba_marseille","lat":43.292749,"lon":5.368402,"is_reserved":false,"is_disabled":false,"rental_uris":{"android":"levelo://app?vid=15b7f4b7-c5e3-4665-832b-7ded9cb38257","ios":"levelo://app?vid=15b7f4b7-c5e3-4665-832b-7ded9cb38257"},"vehicle_type_id":"4","last_reported":1708189543,"current_range_meters":400,"station_id":"ce4bhbp2rcd13ifvqesg","pricing_plan_id":"cebpf4jnsgd1na2vs0mg"},{"bike_id":"1e28307f-2ece-47cf-a548-5a2fcf44209f","system_id":"levelo_inurba_marseille","lat":43.29304,"lon":5.37172,"is_reserved":false,"is_disabled":false,"rental_uris":{"android":"levelo://app?vid=1e28307f-2ece-47cf-a548-5a2fcf44209f","ios":"levelo://app?vid=1e28307f-2ece-47cf-a548-5a2fcf44209f"},"vehicle_type_id":"4","last_reported":1708189543,"current_range_meters":19200,"station_id":"ce4bgh92rcd13ifvqb40","pricing_plan_id":"cebpf4jnsgd1na2vs0mg"},{"bike_id":"31752200-59c8-4b63-bfc9-002e114b881d","system_id":"levelo_inurba_marseille","lat":43.293259,"lon":5.371586,"is_reserved":false,"is_disabled":false,"rental_uris":{"android":"levelo://app?vid=31752200-59c8-4b63-bfc9-002e114b881d","ios":"levelo://app?vid=31752200-59c8-4b63-bfc9-002e114b881d"},"vehicle_type_id":"4","last_reported":1708189543,"current_range_meters":2400,"station_id":"ce4bgh92rcd13ifvqb40","pricing_plan_id":"cebpf4jnsgd1na2vs0mg"},{"bike_id":"782b98ae-42a4-46bd-9df2-9cdff5b4340e","system_id":"levelo_inurba_marseille","lat":43.289468,"lon":5.363719,"is_reserved":false,"is_disabled":false,"rental_uris":{"android":"levelo://app?vid=782b98ae-42a4-46bd-9df2-9cdff5b4340e","ios":"levelo://app?vid=782b98ae-42a4-46bd-9df2-9cdff5b4340e"},"vehicle_type_id":"4","last_reported":1708189543,"current_range_meters":18400,"station_id":"ce4bhc92rcd13ifvqetg","pricing_plan_id":"cebpf4jnsgd1na2vs0mg"},{"bike_id":"f401425f-ed2c-464e-9e79-e381ce16b20a","system_id":"levelo_inurba_marseille","lat":43.292984,"lon":5.371725,"is_reserved":false,"is_disabled":false,"rental_uris":{"android":"levelo://app?vid=f401425f-ed2c-464e-9e79-e381ce16b20a","ios":"levelo://app?vid=f401425f-ed2c-464e-9e79-e381ce16b20a"},"vehicle_type_id":"4","last_reported":1708189543,"current_range_meters":22800,"station_id":"ce4bgh92rcd13ifvqb40","pricing_plan_id":"cebpf4jnsgd1na2vs0mg"},{"bike_id":"d9809558-0ded-4f85-8817-4d73c0f13318","system_id":"levelo_inurba_marseille","lat":43.29529,"lon":5.385581,"is_reserved":false,"is_disabled":false,"rental_uris":{"android":"levelo://app?vid=d9809558-0ded-4f85-8817-4d73c0f13318","ios":"levelo://app?vid=d9809558-0ded-4f85-8817-4d73c0f13318"},"vehicle_type_id":"4","last_reported":1708189543,"current_range_meters":19200,"station_id":"ce4bgih2rcd13ifvqba0","pricing_plan_id":"cebpf4jnsgd1na2vs0mg"},{"bike_id":"dae9a895-e1c7-42de-809e-aa7941a40398","system_id":"levelo_inurba_marseille","lat":43.29259,"lon":5.36681,"is_reserved":false,"is_disabled":false,"rental_uris":{"android":"levelo://app?vid=dae9a895-e1c7-42de-809e-aa7941a40398","ios":"levelo://app?vid=dae9a895-e1c7-42de-809e-aa7941a40398"},"vehicle_type_id":"4","last_reported":1708189543,"current_range_meters":0,"station_id":"","pricing_plan_id":"cebpf4jnsgd1na2vs0mg"},{"bike_id":"6f3b6381-c428-4b99-82ab-c95fab35b5a9","system_id":"levelo_inurba_marseille","lat":43.305994,"lon":5.393687,"is_reserved":false,"is_disabled":false,"rental_uris":{"android":"levelo://app?vid=6f3b6381-c428-4b99-82ab-c95fab35b5a9","ios":"levelo://app?vid=6f3b6381-c428-4b99-82ab-c95fab35b5a9"},"vehicle_type_id":"4","last_reported":1708189543,"current_range_meters":17200,"station_id":"ce4bh0p2rcd13ifvqd80","pricing_plan_id":"cebpf4jnsgd1na2vs0mg"},{"bike_id":"c4aafffc-0cf7-441d-8377-d547a7b1870f","system_id":"levelo_inurba_marseille","lat":43.305994,"lon":5.393687,"is_reserved":false,"is_disabled":false,"rental_uris":{"android":"levelo://app?vid=c4aafffc-0cf7-441d-8377-d547a7b1870f","ios":"levelo://app?vid=c4aafffc-0cf7-441d-8377-d547a7b1870f"},"vehicle_type_id":"4","last_reported":1708189543,"current_range_meters":23600,"station_id":"ce4bh0p2rcd13ifvqd80","pricing_plan_id":"cebpf4jnsgd1na2vs0mg"},{"bike_id":"98bd448f-e547-4d26-8f8f-e14073c3e877","system_id":"levelo_inurba_marseille","lat":43.305994,"lon":5.393687,"is_reserved":false,"is_disabled":false,"rental_uris":{"android":"levelo://app?vid=98bd448f-e547-4d26-8f8f-e14073c3e877","ios":"levelo://app?vid=98bd448f-e547-4d26-8f8f-e14073c3e877"},"vehicle_type_id":"4","last_reported":1708189543,"current_range_meters":0,"station_id":"ce4bh0p2rcd13ifvqd80","pricing_plan_id":"cebpf4jnsgd1na2vs0mg"},{"bike_id":"cb639fe6-3102-4178-8aed-666059daf356","system_id":"levelo_inurba_marseille","lat":43.305994,"lon":5.393687,"is_reserved":false,"is_disabled":false,"rental_uris":{"android":"levelo://app?vid=cb639fe6-3102-4178-8aed-666059daf356","ios":"levelo://app?vid=cb639fe6-3102-4178-8aed-666059daf356"},"vehicle_type_id":"4","last_reported":1708189543,"current_range_meters":9600,"station_id":"ce4bh0p2rcd13ifvqd80","pricing_plan_id":"cebpf4jnsgd1na2vs0mg"},{"bike_id":"51365658-642d-4a03-8f14-0a795d17cc77","system_id":"levelo_inurba_marseille","lat":43.303002,"lon":5.392142,"is_reserved":false,"is_disabled":false,"rental_uris":{"android":"levelo://app?vid=51365658-642d-4a03-8f14-0a795d17cc77","ios":"levelo://app?vid=51365658-642d-4a03-8f14-0a795d17cc77"},"vehicle_type_id":"4","last_reported":1708189543,"current_range_meters":9600,"station_id":"ce4bgkh2rcd13ifvqbk0","pricing_plan_id":"cebpf4jnsgd1na2vs0mg"},{"bike_id":"8dc1d34b-d4da-42ac-b1f8-648d9cf18c27","system_id":"levelo_inurba_marseille","lat":43.2936,"lon":5.37835,"is_reserved":false,"is_disabled":false,"rental_uris":{"android":"levelo://app?vid=8dc1d34b-d4da-42ac-b1f8-648d9cf18c27","ios":"levelo://app?vid=8dc1d34b-d4da-42ac-b1f8-648d9cf18c27"},"vehicle_type_id":"4","last_reported":1708189543,"current_range_meters":2000,"station_id":"ce4bgjh2rcd13ifvqbf0","pricing_plan_id":"cebpf4jnsgd1na2vs0mg"},{"bike_id":"18a237f0-0152-4287-a4c9-2c44e8f2eb39","system_id":"levelo_inurba_marseille","lat":43.303002,"lon":5.392142,"is_reserved":false,"is_disabled":false,"rental_uris":{"android":"levelo://app?vid=18a237f0-0152-4287-a4c9-2c44e8f2eb39","ios":"levelo://app?vid=18a237f0-0152-4287-a4c9-2c44e8f2eb39"},"vehicle_type_id":"4","last_reported":1708189543,"current_range_meters":5600,"station_id":"ce4bgkh2rcd13ifvqbk0","pricing_plan_id":"cebpf4jnsgd1na2vs0mg"},{"bike_id":"e85b50f0-2f3f-47c1-88a7-efd18639578d","system_id":"levelo_inurba_marseille","lat":43.302992,"lon":5.392136,"is_reserved":false,"is_disabled":false,"rental_uris":{"android":"levelo://app?vid=e85b50f0-2f3f-47c1-88a7-efd18639578d","ios":"levelo://app?vid=e85b50f0-2f3f-47c1-88a7-efd18639578d"},"vehicle_type_id":"4","last_reported":1708189543,"current_range_meters":0,"station_id":"ce4bgkh2rcd13ifvqbk0","pricing_plan_id":"cebpf4jnsgd1na2vs0mg"},{"bike_id":"cc2f24f4-15b5-4a99-a883-dac40554f31d","system_id":"levelo_inurba_marseille","lat":43.293678,"lon":5.378462,"is_reserved":false,"is_disabled":false,"rental_uris":{"android":"levelo://app?vid=cc2f24f4-15b5-4a99-a883-dac40554f31d","ios":"levelo://app?vid=cc2f24f4-15b5-4a99-a883-dac40554f31d"},"vehicle_type_id":"4","last_reported":1708189543,"current_range_meters":0,"station_id":"ce4bgjh2rcd13ifvqbf0","pricing_plan_id":"cebpf4jnsgd1na2vs0mg"},{"bike_id":"24e3e8a0-7e81-4be6-9b2a-ad98c6f79334","system_id":"levelo_inurba_marseille","lat":43.300852,"lon":5.390859,"is_reserved":false,"is_disabled":false,"rental_uris":{"android":"levelo://app?vid=24e3e8a0-7e81-4be6-9b2a-ad98c6f79334","ios":"levelo://app?vid=24e3e8a0-7e81-4be6-9b2a-ad98c6f79334"},"vehicle_type_id":"4","last_reported":1708189543,"current_range_meters":12400,"station_id":"ce4bh192rcd13ifvqdb0","pricing_plan_id":"cebpf4jnsgd1na2vs0mg"},{"bike_id":"658a511c-6f77-43bf-89ab-c6468ef69256","system_id":"levelo_inurba_marseille","lat":43.29224,"lon":5.36053,"is_reserved":false,"is_disabled":false,"rental_uris":{"android":"levelo://app?vid=658a511c-6f77-43bf-89ab-c6468ef69256","ios":"levelo://app?vid=658a511c-6f77-43bf-89ab-c6468ef69256"},"vehicle_type_id":"4","last_reported":1708189543,"current_range_meters":29600,"station_id":"ce4bhbh2rcd13ifvqeqg","pricing_plan_id":"cebpf4jnsgd1na2vs0mg"},{"bike_id":"f3adef0c-bfe0-4b5d-a0a2-66181c8f4610","system_id":"levelo_inurba_marseille","lat":43.300852,"lon":5.390859,"is_reserved":false,"is_disabled":false,"rental_uris":{"android":"levelo://app?vid=f3adef0c-bfe0-4b5d-a0a2-66181c8f4610","ios":"levelo://app?vid=f3adef0c-bfe0-4b5d-a0a2-66181c8f4610"},"vehicle_type_id":"4","last_reported":1708189543,"current_range_meters":2800,"station_id":"ce4bh192rcd13ifvqdb0","pricing_plan_id":"cebpf4jnsgd1na2vs0mg"},{"bike_id":"72b7cb3c-fb1f-4a9a-9990-3e77e74eb905","system_id":"levelo_inurba_marseille","lat":43.29223,"lon":5.36046,"is_reserved":false,"is_disabled":false,"rental_uris":{"android":"levelo://app?vid=72b7cb3c-fb1f-4a9a-9990-3e77e74eb905","ios":"levelo://app?vid=72b7cb3c-fb1f-4a9a-9990-3e77e74eb905"},"vehicle_type_id":"4","last_reported":1708189543,"current_range_meters":30400,"station_id":"ce4bhbh2rcd13ifvqeqg","pricing_plan_id":"cebpf4jnsgd1na2vs0mg"},{"bike_id":"3196dbb4-1e79-4e04-b9d5-68b80cc4989b","system_id":"levelo_inurba_marseille","lat":43.29221,"lon":5.360515,"is_reserved":false,"is_disabled":false,"rental_uris":{"android":"levelo://app?vid=3196dbb4-1e79-4e04-b9d5-68b80cc4989b","ios":"levelo://app?vid=3196dbb4-1e79-4e04-b9d5-68b80cc4989b"},"vehicle_type_id":"4","last_reported":1708189543,"current_range_meters":0,"station_id":"ce4bhbh2rcd13ifvqeqg","pricing_plan_id":"cebpf4jnsgd1na2vs0mg"},{"bike_id":"62272959-a2e3-4fe6-a94f-e791e3bd2a9d","system_id":"levelo_inurba_marseille","lat":43.293009,"lon":5.374584,"is_reserved":false,"is_disabled":false,"rental_uris":{"android":"levelo://app?vid=62272959-a2e3-4fe6-a94f-e791e3bd2a9d","ios":"levelo://app?vid=62272959-a2e3-4fe6-a94f-e791e3bd2a9d"},"vehicle_type_id":"4","last_reported":1708189543,"current_range_meters":5200,"station_id":"ce4bgi12rcd13ifvqb70","pricing_plan_id":"cebpf4jnsgd1na2vs0mg"},{"bike_id":"5891ac4e-1b61-4f05-bccb-975361ac5ee4","system_id":"levelo_inurba_marseille","lat":43.293009,"lon":5.374584,"is_reserved":false,"is_disabled":false,"rental_uris":{"android":"levelo://app?vid=5891ac4e-1b61-4f05-bccb-975361ac5ee4","ios":"levelo://app?vid=5891ac4e-1b61-4f05-bccb-975361ac5ee4"},"vehicle_type_id":"4","last_reported":1708189543,"current_range_meters":2000,"station_id":"ce4bgi12rcd13ifvqb70","pricing_plan_id":"cebpf4jnsgd1na2vs0mg"},{"bike_id":"aadf9e66-5ad4-40c6-8764-0467ec6aedf4","system_id":"levelo_inurba_marseille","lat":43.291671,"lon":5.371575,"is_reserved":false,"is_disabled":false,"rental_uris":{"android":"levelo://app?vid=aadf9e66-5ad4-40c6-8764-0467ec6aedf4","ios":"levelo://app?vid=aadf9e66-5ad4-40c6-8764-0467ec6aedf4"},"vehicle_type_id":"4","last_reported":1708189543,"current_range_meters":16800,"station_id":"ce4bha92rcd13ifvqeh0","pricing_plan_id":"cebpf4jnsgd1na2vs0mg"},{"bike_id":"1f29bbfa-bcb7-4bbd-8149-9ce0a81cafc7","system_id":"levelo_inurba_marseille","lat":43.291994,"lon":5.357886,"is_reserved":false,"is_disabled":false,"rental_uris":{"android":"levelo://app?vid=1f29bbfa-bcb7-4bbd-8149-9ce0a81cafc7","ios":"levelo://app?vid=1f29bbfa-bcb7-4bbd-8149-9ce0a81cafc7"},"vehicle_type_id":"4","last_reported":1708189543,"current_range_meters":0,"station_id":"ce4bhb12rcd13ifvqel0","pricing_plan_id":"cebpf4jnsgd1na2vs0mg"},{"bike_id":"060ebf04-24ae-4212-9faa-6f9062bae910","system_id":"levelo_inurba_marseille","lat":43.313291,"lon":5.396838,"is_reserved":false,"is_disabled":false,"rental_uris":{"android":"levelo://app?vid=060ebf04-24ae-4212-9faa-6f9062bae910","ios":"levelo://app?vid=060ebf04-24ae-4212-9faa-6f9062bae910"},"vehicle_type_id":"4","last_reported":1708189543,"current_range_meters":16800,"station_id":"ce4bgvp2rcd13ifvqcu0","pricing_plan_id":"cebpf4jnsgd1na2vs0mg"},{"bike_id":"9605bf42-65f0-44a7-98e2-72c4642a2b04","system_id":"levelo_inurba_marseille","lat":43.313291,"lon":5.396838,"is_reserved":false,"is_disabled":false,"rental_uris":{"android":"levelo://app?vid=9605bf42-65f0-44a7-98e2-72c4642a2b04","ios":"levelo://app?vid=9605bf42-65f0-44a7-98e2-72c4642a2b04"},"vehicle_type_id":"4","last_reported":1708189543,"current_range_meters":24400,"station_id":"ce4bgvp2rcd13ifvqcu0","pricing_plan_id":"cebpf4jnsgd1na2vs0mg"},{"bike_id":"44c37595-c121-416c-9301-e93f59dd584c","system_id":"levelo_inurba_marseille","lat":43.309038,"lon":5.396546,"is_reserved":false,"is_disabled":false,"rental_uris":{"android":"levelo://app?vid=44c37595-c121-416c-9301-e93f59dd584c","ios":"levelo://app?vid=44c37595-c121-416c-9301-e93f59dd584c"},"vehicle_type_id":"4","last_reported":1708189543,"current_range_meters":2400,"station_id":"ce4bh012rcd13ifvqcv0","pricing_plan_id":"cebpf4jnsgd1na2vs0mg"},{"bike_id":"2c2694d1-0ab8-4bfe-821a-10b35e961339","system_id":"levelo_inurba_marseille","lat":43.313291,"lon":5.396838,"is_reserved":false,"is_disabled":false,"rental_uris":{"android":"levelo://app?vid=2c2694d1-0ab8-4bfe-821a-10b35e961339","ios":"levelo://app?vid=2c2694d1-0ab8-4bfe-821a-10b35e961339"},"vehicle_type_id":"4","last_reported":1708189543,"current_range_meters":20000,"station_id":"ce4bgvp2rcd13ifvqcu0","pricing_plan_id":"cebpf4jnsgd1na2vs0mg"},{"bike_id":"ba6850ed-a21c-49b0-abe1-d28a44d75614","system_id":"levelo_inurba_marseille","lat":43.29533,"lon":5.3855,"is_reserved":false,"is_disabled":false,"rental_uris":{"android":"levelo://app?vid=ba6850ed-a21c-49b0-abe1-d28a44d75614","ios":"levelo://app?vid=ba6850ed-a21c-49b0-abe1-d28a44d75614"},"vehicle_type_id":"4","last_reported":1708189543,"current_range_meters":4800,"station_id":"ce4bgih2rcd13ifvqba0","pricing_plan_id":"cebpf4jnsgd1na2vs0mg"},{"bike_id":"3b9855ef-4404-4738-8858-caea7b33e4ed","system_id":"levelo_inurba_marseille","lat":43.290779,"lon":5.371482,"is_reserved":false,"is_disabled":false,"rental_uris":{"android":"levelo://app?vid=3b9855ef-4404-4738-8858-caea7b33e4ed","ios":"levelo://app?vid=3b9855ef-4404-4738-8858-caea7b33e4ed"},"vehicle_type_id":"4","last_reported":1708189543,"current_range_meters":18400,"station_id":"ce4bh5p2rcd13ifvqe4g","pricing_plan_id":"cebpf4jnsgd1na2vs0mg"},{"bike_id":"99893548-c1f6-4faf-be60-e58ba4545131","system_id":"levelo_inurba_marseille","lat":43.290779,"lon":5.371482,"is_reserved":false,"is_disabled":false,"rental_uris":{"android":"levelo://app?vid=99893548-c1f6-4faf-be60-e58ba4545131","ios":"levelo://app?vid=99893548-c1f6-4faf-be60-e58ba4545131"},"vehicle_type_id":"4","last_reported":1708189543,"current_range_meters":0,"station_id":"ce4bh5p2rcd13ifvqe4g","pricing_plan_id":"cebpf4jnsgd1na2vs0mg"},{"bike_id":"37fb6991-0dba-450c-b21c-41b466adeca2","system_id":"levelo_inurba_marseille","lat":43.302249,"lon":5.394064,"is_reserved":false,"is_disabled":false,"rental_uris":{"android":"levelo://app?vid=37fb6991-0dba-450c-b21c-41b466adeca2","ios":"levelo://app?vid=37fb6991-0dba-450c-b21c-41b466adeca2"},"vehicle_type_id":"4","last_reported":1708189543,"current_range_meters":14400,"station_id":"","pricing_plan_id":"cebpf4jnsgd1na2vs0mg"},{"bike_id":"3c3f57e6-87c6-4b18-ba4c-8ad412dee8a0","system_id":"levelo_inurba_marseille","lat":43.290779,"lon":5.371482,"is_reserved":false,"is_disabled":false,"rental_uris":{"android":"levelo://app?vid=3c3f57e6-87c6-4b18-ba4c-8ad412dee8a0","ios":"levelo://app?vid=3c3f57e6-87c6-4b18-ba4c-8ad412dee8a0"},"vehicle_type_id":"4","last_reported":1708189543,"current_range_meters":18800,"station_id":"ce4bh5p2rcd13ifvqe4g","pricing_plan_id":"cebpf4jnsgd1na2vs0mg"},{"bike_id":"4610659a-fce4-4355-9ad8-1cc6bb37db98","system_id":"levelo_inurba_marseille","lat":43.290631,"lon":5.359244,"is_reserved":false,"is_disabled":false,"rental_uris":{"android":"levelo://app?vid=4610659a-fce4-4355-9ad8-1cc6bb37db98","ios":"levelo://app?vid=4610659a-fce4-4355-9ad8-1cc6bb37db98"},"vehicle_type_id":"4","last_reported":1708189543,"current_range_meters":27200,"station_id":"ce4bha92rcd13ifvqeg0","pricing_plan_id":"cebpf4jnsgd1na2vs0mg"},{"bike_id":"43989287-bde0-4761-a933-ca3aec1b2e3b","system_id":"levelo_inurba_marseille","lat":43.29417,"lon":5.38611,"is_reserved":false,"is_disabled":false,"rental_uris":{"android":"levelo://app?vid=43989287-bde0-4761-a933-ca3aec1b2e3b","ios":"levelo://app?vid=43989287-bde0-4761-a933-ca3aec1b2e3b"},"vehicle_type_id":"4","last_reported":1708189543,"current_range_meters":0,"station_id":"ce4bh2h2rcd13ifvqdh0","pricing_plan_id":"cebpf4jnsgd1na2vs0mg"},{"bike_id":"b9aecfc8-06b1-4887-971b-77775a3e7a27","system_id":"levelo_inurba_marseille","lat":43.294153,"lon":5.386305,"is_reserved":false,"is_disabled":false,"rental_uris":{"android":"levelo://app?vid=b9aecfc8-06b1-4887-971b-77775a3e7a27","ios":"levelo://app?vid=b9aecfc8-06b1-4887-971b-77775a3e7a27"},"vehicle_type_id":"4","last_reported":1708189543,"current_range_meters":20000,"station_id":"ce4bh2h2rcd13ifvqdh0","pricing_plan_id":"cebpf4jnsgd1na2vs0mg"},{"bike_id":"fbab8fb1-c299-453b-844e-04b34699a43a","system_id":"levelo_inurba_marseille","lat":43.294153,"lon":5.386305,"is_reserved":false,"is_disabled":false,"rental_uris":{"android":"levelo://app?vid=fbab8fb1-c299-453b-844e-04b34699a43a","ios":"levelo://app?vid=fbab8fb1-c299-453b-844e-04b34699a43a"},"vehicle_type_id":"4","last_reported":1708189543,"current_range_meters":26400,"station_id":"ce4bh2h2rcd13ifvqdh0","pricing_plan_id":"cebpf4jnsgd1na2vs0mg"},{"bike_id":"c20c49ce-8909-4803-97b3-cf06251007b6","system_id":"levelo_inurba_marseille","lat":43.29419,"lon":5.38621,"is_reserved":false,"is_disabled":false,"rental_uris":{"android":"levelo://app?vid=c20c49ce-8909-4803-97b3-cf06251007b6","ios":"levelo://app?vid=c20c49ce-8909-4803-97b3-cf06251007b6"},"vehicle_type_id":"4","last_reported":1708189543,"current_range_meters":24400,"station_id":"ce4bh2h2rcd13ifvqdh0","pricing_plan_id":"cebpf4jnsgd1na2vs0mg"},{"bike_id":"0d9bdc82-e621-4b83-abb0-c6fa8d2bcebb","system_id":"levelo_inurba_marseille","lat":43.294153,"lon":5.386305,"is_reserved":false,"is_disabled":false,"rental_uris":{"android":"levelo://app?vid=0d9bdc82-e621-4b83-abb0-c6fa8d2bcebb","ios":"levelo://app?vid=0d9bdc82-e621-4b83-abb0-c6fa8d2bcebb"},"vehicle_type_id":"4","last_reported":1708189543,"current_range_meters":20800,"station_id":"ce4bh2h2rcd13ifvqdh0","pricing_plan_id":"cebpf4jnsgd1na2vs0mg"},{"bike_id":"61b4bed3-21bc-4fea-85b8-c43d8eda7644","system_id":"levelo_inurba_marseille","lat":43.290319,"lon":5.375732,"is_reserved":false,"is_disabled":false,"rental_uris":{"android":"levelo://app?vid=61b4bed3-21bc-4fea-85b8-c43d8eda7644","ios":"levelo://app?vid=61b4bed3-21bc-4fea-85b8-c43d8eda7644"},"vehicle_type_id":"4","last_reported":1708189543,"current_range_meters":2400,"station_id":"ce4bh692rcd13ifvqe90","pricing_plan_id":"cebpf4jnsgd1na2vs0mg"},{"bike_id":"b2acc2af-9255-4973-bcc9-8f695c068fa5","system_id":"levelo_inurba_marseille","lat":43.29417,"lon":5.3862,"is_reserved":false,"is_disabled":false,"rental_uris":{"android":"levelo://app?vid=b2acc2af-9255-4973-bcc9-8f695c068fa5","ios":"levelo://app?vid=b2acc2af-9255-4973-bcc9-8f695c068fa5"},"vehicle_type_id":"4","last_reported":1708189543,"current_range_meters":7600,"station_id":"ce4bh2h2rcd13ifvqdh0","pricing_plan_id":"cebpf4jnsgd1na2vs0mg"},{"bike_id":"24467816-4a8e-432d-a9f4-6f06212f4b7f","system_id":"levelo_inurba_marseille","lat":43.294162,"lon":5.386292,"is_reserved":false,"is_disabled":false,"rental_uris":{"android":"levelo://app?vid=24467816-4a8e-432d-a9f4-6f06212f4b7f","ios":"levelo://app?vid=24467816-4a8e-432d-a9f4-6f06212f4b7f"},"vehicle_type_id":"4","last_reported":1708189543,"current_range_meters":0,"station_id":"ce4bh2h2rcd13ifvqdh0","pricing_plan_id":"cebpf4jnsgd1na2vs0mg"},{"bike_id":"05a46080-d711-4a48-92b5-1cb44f12d373","system_id":"levelo_inurba_marseille","lat":43.290327,"lon":5.375711,"is_reserved":false,"is_disabled":false,"rental_uris":{"android":"levelo://app?vid=05a46080-d711-4a48-92b5-1cb44f12d373","ios":"levelo://app?vid=05a46080-d711-4a48-92b5-1cb44f12d373"},"vehicle_type_id":"4","last_reported":1708189543,"current_range_meters":20000,"station_id":"ce4bh692rcd13ifvqe90","pricing_plan_id":"cebpf4jnsgd1na2vs0mg"},{"bike_id":"01f8633d-f304-4e93-aba1-e7a5e32844c8","system_id":"levelo_inurba_marseille","lat":43.29415,"lon":5.38621,"is_reserved":false,"is_disabled":false,"rental_uris":{"android":"levelo://app?vid=01f8633d-f304-4e93-aba1-e7a5e32844c8","ios":"levelo://app?vid=01f8633d-f304-4e93-aba1-e7a5e32844c8"},"vehicle_type_id":"4","last_reported":1708189543,"current_range_meters":9200,"station_id":"ce4bh2h2rcd13ifvqdh0","pricing_plan_id":"cebpf4jnsgd1na2vs0mg"},{"bike_id":"319209d7-f7c3-4cb5-88e2-e07dd7f8d9d7","system_id":"levelo_inurba_marseille","lat":43.289184,"lon":5.366408,"is_reserved":false,"is_disabled":false,"rental_uris":{"android":"levelo://app?vid=319209d7-f7c3-4cb5-88e2-e07dd7f8d9d7","ios":"levelo://app?vid=319209d7-f7c3-4cb5-88e2-e07dd7f8d9d7"},"vehicle_type_id":"4","last_reported":1708189543,"current_range_meters":28400,"station_id":"ce4bhap2rcd13ifvqek0","pricing_plan_id":"cebpf4jnsgd1na2vs0mg"},{"bike_id":"9e27be99-34c8-4f4d-a90c-0c328be486d6","system_id":"levelo_inurba_marseille","lat":43.29416,"lon":5.38626,"is_reserved":false,"is_disabled":false,"rental_uris":{"android":"levelo://app?vid=9e27be99-34c8-4f4d-a90c-0c328be486d6","ios":"levelo://app?vid=9e27be99-34c8-4f4d-a90c-0c328be486d6"},"vehicle_type_id":"4","last_reported":1708189543,"current_range_meters":27200,"station_id":"ce4bh2h2rcd13ifvqdh0","pricing_plan_id":"cebpf4jnsgd1na2vs0mg"},{"bike_id":"7e6dd59f-23a1-457d-900d-265f8457b275","system_id":"levelo_inurba_marseille","lat":43.28943,"lon":5.36642,"is_reserved":false,"is_disabled":false,"rental_uris":{"android":"levelo://app?vid=7e6dd59f-23a1-457d-900d-265f8457b275","ios":"levelo://app?vid=7e6dd59f-23a1-457d-900d-265f8457b275"},"vehicle_type_id":"4","last_reported":1708189543,"current_range_meters":5600,"station_id":"ce4bhap2rcd13ifvqek0","pricing_plan_id":"cebpf4jnsgd1na2vs0mg"},{"bike_id":"66541458-58f9-4640-a6b7-7e477f26e4fe","system_id":"levelo_inurba_marseille","lat":43.29415,"lon":5.38628,"is_reserved":false,"is_disabled":false,"rental_uris":{"android":"levelo://app?vid=66541458-58f9-4640-a6b7-7e477f26e4fe","ios":"levelo://app?vid=66541458-58f9-4640-a6b7-7e477f26e4fe"},"vehicle_type_id":"4","last_reported":1708189543,"current_range_meters":12800,"station_id":"ce4bh2h2rcd13ifvqdh0","pricing_plan_id":"cebpf4jnsgd1na2vs0mg"},{"bike_id":"2d093c1b-2b0f-4b8f-8a46-e1678d0d0823","system_id":"levelo_inurba_marseille","lat":43.289184,"lon":5.366408,"is_reserved":false,"is_disabled":false,"rental_uris":{"android":"levelo://app?vid=2d093c1b-2b0f-4b8f-8a46-e1678d0d0823","ios":"levelo://app?vid=2d093c1b-2b0f-4b8f-8a46-e1678d0d0823"},"vehicle_type_id":"4","last_reported":1708189543,"current_range_meters":9600,"station_id":"ce4bhap2rcd13ifvqek0","pricing_plan_id":"cebpf4jnsgd1na2vs0mg"},{"bike_id":"bb86897d-d917-427c-9af9-1fbc7261075e","system_id":"levelo_inurba_marseille","lat":43.290327,"lon":5.375711,"is_reserved":false,"is_disabled":false,"rental_uris":{"android":"levelo://app?vid=bb86897d-d917-427c-9af9-1fbc7261075e","ios":"levelo://app?vid=bb86897d-d917-427c-9af9-1fbc7261075e"},"vehicle_type_id":"4","last_reported":1708189543,"current_range_meters":18400,"station_id":"ce4bh692rcd13ifvqe90","pricing_plan_id":"cebpf4jnsgd1na2vs0mg"},{"bike_id":"ca6cb896-55cd-4ac1-98e6-171c71383797","system_id":"levelo_inurba_marseille","lat":43.289184,"lon":5.366408,"is_reserved":false,"is_disabled":false,"rental_uris":{"android":"levelo://app?vid=ca6cb896-55cd-4ac1-98e6-171c71383797","ios":"levelo://app?vid=ca6cb896-55cd-4ac1-98e6-171c71383797"},"vehicle_type_id":"4","last_reported":1708189543,"current_range_meters":11600,"station_id":"ce4bhap2rcd13ifvqek0","pricing_plan_id":"cebpf4jnsgd1na2vs0mg"},{"bike_id":"65ba0bcc-4530-4d41-a9d9-d2282f2b09b9","system_id":"levelo_inurba_marseille","lat":43.289468,"lon":5.363719,"is_reserved":false,"is_disabled":false,"rental_uris":{"android":"levelo://app?vid=65ba0bcc-4530-4d41-a9d9-d2282f2b09b9","ios":"levelo://app?vid=65ba0bcc-4530-4d41-a9d9-d2282f2b09b9"},"vehicle_type_id":"4","last_reported":1708189543,"current_range_meters":31200,"station_id":"ce4bhc92rcd13ifvqetg","pricing_plan_id":"cebpf4jnsgd1na2vs0mg"},{"bike_id":"215e785b-87b0-4229-b181-5d600dc1e1b7","system_id":"levelo_inurba_marseille","lat":43.289371,"lon":5.364037,"is_reserved":false,"is_disabled":false,"rental_uris":{"android":"levelo://app?vid=215e785b-87b0-4229-b181-5d600dc1e1b7","ios":"levelo://app?vid=215e785b-87b0-4229-b181-5d600dc1e1b7"},"vehicle_type_id":"4","last_reported":1708189543,"current_range_meters":400,"station_id":"ce4bhc92rcd13ifvqetg","pricing_plan_id":"cebpf4jnsgd1na2vs0mg"},{"bike_id":"80551352-6b61-4b03-82ea-a1f8256d7088","system_id":"levelo_inurba_marseille","lat":43.289468,"lon":5.363719,"is_reserved":false,"is_disabled":false,"rental_uris":{"android":"levelo://app?vid=80551352-6b61-4b03-82ea-a1f8256d7088","ios":"levelo://app?vid=80551352-6b61-4b03-82ea-a1f8256d7088"},"vehicle_type_id":"4","last_reported":1708189543,"current_range_meters":29200,"station_id":"ce4bhc92rcd13ifvqetg","pricing_plan_id":"cebpf4jnsgd1na2vs0mg"},{"bike_id":"a3635157-7087-49e5-8635-95872137b51d","system_id":"levelo_inurba_marseille","lat":43.290214,"lon":5.357392,"is_reserved":false,"is_disabled":false,"rental_uris":{"android":"levelo://app?vid=a3635157-7087-49e5-8635-95872137b51d","ios":"levelo://app?vid=a3635157-7087-49e5-8635-95872137b51d"},"vehicle_type_id":"4","last_reported":1708189543,"current_range_meters":26800,"station_id":"ce4bhb92rcd13ifvqen0","pricing_plan_id":"cebpf4jnsgd1na2vs0mg"},{"bike_id":"f4624d5e-d89f-44e7-8b8c-2478423d9723","system_id":"levelo_inurba_marseille","lat":43.295169,"lon":5.390426,"is_reserved":false,"is_disabled":false,"rental_uris":{"android":"levelo://app?vid=f4624d5e-d89f-44e7-8b8c-2478423d9723","ios":"levelo://app?vid=f4624d5e-d89f-44e7-8b8c-2478423d9723"},"vehicle_type_id":"4","last_reported":1708189543,"current_range_meters":2400,"station_id":"ce4bh3p2rcd13ifvqdp0","pricing_plan_id":"cebpf4jnsgd1na2vs0mg"},{"bike_id":"2592ac83-4656-4125-bc54-c40c14ebf540","system_id":"levelo_inurba_marseille","lat":43.292634,"lon":5.384279,"is_reserved":false,"is_disabled":false,"rental_uris":{"android":"levelo://app?vid=2592ac83-4656-4125-bc54-c40c14ebf540","ios":"levelo://app?vid=2592ac83-4656-4125-bc54-c40c14ebf540"},"vehicle_type_id":"4","last_reported":1708189543,"current_range_meters":2800,"station_id":"ce4bh692rcd13ifvqea0","pricing_plan_id":"cebpf4jnsgd1na2vs0mg"},{"bike_id":"554e9f7c-9ad7-47f9-9217-b0279b5d0412","system_id":"levelo_inurba_marseille","lat":43.292642,"lon":5.384254,"is_reserved":false,"is_disabled":false,"rental_uris":{"android":"levelo://app?vid=554e9f7c-9ad7-47f9-9217-b0279b5d0412","ios":"levelo://app?vid=554e9f7c-9ad7-47f9-9217-b0279b5d0412"},"vehicle_type_id":"4","last_reported":1708189543,"current_range_meters":10000,"station_id":"ce4bh692rcd13ifvqea0","pricing_plan_id":"cebpf4jnsgd1na2vs0mg"},{"bike_id":"132acd51-04c7-4fcf-a53d-02da2c84d32e","system_id":"levelo_inurba_marseille","lat":43.30423,"lon":5.39745,"is_reserved":false,"is_disabled":false,"rental_uris":{"android":"levelo://app?vid=132acd51-04c7-4fcf-a53d-02da2c84d32e","ios":"levelo://app?vid=132acd51-04c7-4fcf-a53d-02da2c84d32e"},"vehicle_type_id":"4","last_reported":1708189543,"current_range_meters":0,"station_id":"ce4bh092rcd13ifvqd20","pricing_plan_id":"cebpf4jnsgd1na2vs0mg"},{"bike_id":"0f45bdb9-d832-43a2-966f-61212e4b0a84","system_id":"levelo_inurba_marseille","lat":43.304274,"lon":5.397513,"is_reserved":false,"is_disabled":false,"rental_uris":{"android":"levelo://app?vid=0f45bdb9-d832-43a2-966f-61212e4b0a84","ios":"levelo://app?vid=0f45bdb9-d832-43a2-966f-61212e4b0a84"},"vehicle_type_id":"4","last_reported":1708189543,"current_range_meters":17200,"station_id":"ce4bh092rcd13ifvqd20","pricing_plan_id":"cebpf4jnsgd1na2vs0mg"},{"bike_id":"2860ede3-885a-411d-93fa-49f61732341a","system_id":"levelo_inurba_marseille","lat":43.304296,"lon":5.397513,"is_reserved":false,"is_disabled":false,"rental_uris":{"android":"levelo://app?vid=2860ede3-885a-411d-93fa-49f61732341a","ios":"levelo://app?vid=2860ede3-885a-411d-93fa-49f61732341a"},"vehicle_type_id":"4","last_reported":1708189543,"current_range_meters":24800,"station_id":"ce4bh092rcd13ifvqd20","pricing_plan_id":"cebpf4jnsgd1na2vs0mg"},{"bike_id":"64c8a977-e817-4529-bbbf-d54830de4873","system_id":"levelo_inurba_marseille","lat":43.29103,"lon":5.38085,"is_reserved":false,"is_disabled":false,"rental_uris":{"android":"levelo://app?vid=64c8a977-e817-4529-bbbf-d54830de4873","ios":"levelo://app?vid=64c8a977-e817-4529-bbbf-d54830de4873"},"vehicle_type_id":"4","last_reported":1708189543,"current_range_meters":24000,"station_id":"","pricing_plan_id":"cebpf4jnsgd1na2vs0mg"},{"bike_id":"3074744c-9b02-4112-a22d-2988936fb666","system_id":"levelo_inurba_marseille","lat":43.290073,"lon":5.356187,"is_reserved":false,"is_disabled":false,"rental_uris":{"android":"levelo://app?vid=3074744c-9b02-4112-a22d-2988936fb666","ios":"levelo://app?vid=3074744c-9b02-4112-a22d-2988936fb666"},"vehicle_type_id":"4","last_reported":1708189543,"current_range_meters":0,"station_id":"ce4bhb92rcd13ifvqen0","pricing_plan_id":"cebpf4jnsgd1na2vs0mg"},{"bike_id":"f185aa91-b30f-4f77-a432-c994df085a99","system_id":"levelo_inurba_marseille","lat":43.29007,"lon":5.35619,"is_reserved":false,"is_disabled":false,"rental_uris":{"android":"levelo://app?vid=f185aa91-b30f-4f77-a432-c994df085a99","ios":"levelo://app?vid=f185aa91-b30f-4f77-a432-c994df085a99"},"vehicle_type_id":"4","last_reported":1708189543,"current_range_meters":30800,"station_id":"ce4bhb92rcd13ifvqen0","pricing_plan_id":"cebpf4jnsgd1na2vs0mg"},{"bike_id":"4e2d23a9-046f-458c-956f-a59b943e4805","system_id":"levelo_inurba_marseille","lat":43.29004,"lon":5.35624,"is_reserved":false,"is_disabled":false,"rental_uris":{"android":"levelo://app?vid=4e2d23a9-046f-458c-956f-a59b943e4805","ios":"levelo://app?vid=4e2d23a9-046f-458c-956f-a59b943e4805"},"vehicle_type_id":"4","last_reported":1708189543,"current_range_meters":17600,"station_id":"ce4bhb92rcd13ifvqen0","pricing_plan_id":"cebpf4jnsgd1na2vs0mg"},{"bike_id":"15e0ce17-cdd7-49e0-ad4b-f35336046358","system_id":"levelo_inurba_marseille","lat":43.29006,"lon":5.35616,"is_reserved":false,"is_disabled":false,"rental_uris":{"android":"levelo://app?vid=15e0ce17-cdd7-49e0-ad4b-f35336046358","ios":"levelo://app?vid=15e0ce17-cdd7-49e0-ad4b-f35336046358"},"vehicle_type_id":"4","last_reported":1708189543,"current_range_meters":0,"station_id":"ce4bhb92rcd13ifvqen0","pricing_plan_id":"cebpf4jnsgd1na2vs0mg"},{"bike_id":"7f0afdd3-9eeb-46f2-a302-930ed37a9edb","system_id":"levelo_inurba_marseille","lat":43.29005,"lon":5.35619,"is_reserved":false,"is_disabled":false,"rental_uris":{"android":"levelo://app?vid=7f0afdd3-9eeb-46f2-a302-930ed37a9edb","ios":"levelo://app?vid=7f0afdd3-9eeb-46f2-a302-930ed37a9edb"},"vehicle_type_id":"4","last_reported":1708189543,"current_range_meters":19200,"station_id":"ce4bhb92rcd13ifvqen0","pricing_plan_id":"cebpf4jnsgd1na2vs0mg"},{"bike_id":"b2fc0970-9d17-48f4-bbbe-06e3347d9359","system_id":"levelo_inurba_marseille","lat":43.29006,"lon":5.35611,"is_reserved":false,"is_disabled":false,"rental_uris":{"android":"levelo://app?vid=b2fc0970-9d17-48f4-bbbe-06e3347d9359","ios":"levelo://app?vid=b2fc0970-9d17-48f4-bbbe-06e3347d9359"},"vehicle_type_id":"4","last_reported":1708189543,"current_range_meters":11200,"station_id":"ce4bhb92rcd13ifvqen0","pricing_plan_id":"cebpf4jnsgd1na2vs0mg"},{"bike_id":"08ae80be-dad8-4f07-833e-d0d558f255df","system_id":"levelo_inurba_marseille","lat":43.29005,"lon":5.35614,"is_reserved":false,"is_disabled":false,"rental_uris":{"android":"levelo://app?vid=08ae80be-dad8-4f07-833e-d0d558f255df","ios":"levelo://app?vid=08ae80be-dad8-4f07-833e-d0d558f255df"},"vehicle_type_id":"4","last_reported":1708189543,"current_range_meters":9600,"station_id":"ce4bhb92rcd13ifvqen0","pricing_plan_id":"cebpf4jnsgd1na2vs0mg"},{"bike_id":"867944cc-9f64-429c-8dc3-b81f3cb7ff29","system_id":"levelo_inurba_marseille","lat":43.29002,"lon":5.35616,"is_reserved":false,"is_disabled":false,"rental_uris":{"android":"levelo://app?vid=867944cc-9f64-429c-8dc3-b81f3cb7ff29","ios":"levelo://app?vid=867944cc-9f64-429c-8dc3-b81f3cb7ff29"},"vehicle_type_id":"4","last_reported":1708189543,"current_range_meters":0,"station_id":"ce4bhb92rcd13ifvqen0","pricing_plan_id":"cebpf4jnsgd1na2vs0mg"},{"bike_id":"f83c38d8-9d7f-41ad-9a7a-1794f2133bf4","system_id":"levelo_inurba_marseille","lat":43.29003,"lon":5.35612,"is_reserved":false,"is_disabled":false,"rental_uris":{"android":"levelo://app?vid=f83c38d8-9d7f-41ad-9a7a-1794f2133bf4","ios":"levelo://app?vid=f83c38d8-9d7f-41ad-9a7a-1794f2133bf4"},"vehicle_type_id":"4","last_reported":1708189543,"current_range_meters":6800,"station_id":"ce4bhb92rcd13ifvqen0","pricing_plan_id":"cebpf4jnsgd1na2vs0mg"},{"bike_id":"67b54d1f-e233-437d-8888-5e1f42ac8510","system_id":"levelo_inurba_marseille","lat":43.290995,"lon":5.381361,"is_reserved":false,"is_disabled":false,"rental_uris":{"android":"levelo://app?vid=67b54d1f-e233-437d-8888-5e1f42ac8510","ios":"levelo://app?vid=67b54d1f-e233-437d-8888-5e1f42ac8510"},"vehicle_type_id":"4","last_reported":1708189543,"current_range_meters":2000,"station_id":"ce4bh512rcd13ifvqe2g","pricing_plan_id":"cebpf4jnsgd1na2vs0mg"},{"bike_id":"857627ae-d3e0-4670-aff1-2e2f66c6b1dd","system_id":"levelo_inurba_marseille","lat":43.289977,"lon":5.356274,"is_reserved":false,"is_disabled":false,"rental_uris":{"android":"levelo://app?vid=857627ae-d3e0-4670-aff1-2e2f66c6b1dd","ios":"levelo://app?vid=857627ae-d3e0-4670-aff1-2e2f66c6b1dd"},"vehicle_type_id":"4","last_reported":1708189543,"current_range_meters":8000,"station_id":"ce4bhb92rcd13ifvqen0","pricing_plan_id":"cebpf4jnsgd1na2vs0mg"},{"bike_id":"f37cc6f5-49d0-4ab0-b21e-a670e5ab0d55","system_id":"levelo_inurba_marseille","lat":43.289999,"lon":5.356166,"is_reserved":false,"is_disabled":false,"rental_uris":{"android":"levelo://app?vid=f37cc6f5-49d0-4ab0-b21e-a670e5ab0d55","ios":"levelo://app?vid=f37cc6f5-49d0-4ab0-b21e-a670e5ab0d55"},"vehicle_type_id":"4","last_reported":1708189543,"current_range_meters":400,"station_id":"ce4bhb92rcd13ifvqen0","pricing_plan_id":"cebpf4jnsgd1na2vs0mg"},{"bike_id":"f4094aee-88e6-43fa-b208-f2599c367079","system_id":"levelo_inurba_marseille","lat":43.290995,"lon":5.381361,"is_reserved":false,"is_disabled":false,"rental_uris":{"android":"levelo://app?vid=f4094aee-88e6-43fa-b208-f2599c367079","ios":"levelo://app?vid=f4094aee-88e6-43fa-b208-f2599c367079"},"vehicle_type_id":"4","last_reported":1708189543,"current_range_meters":28400,"station_id":"ce4bh512rcd13ifvqe2g","pricing_plan_id":"cebpf4jnsgd1na2vs0mg"},{"bike_id":"527b3f77-d8a6-4955-824c-1149b4392e74","system_id":"levelo_inurba_marseille","lat":43.290995,"lon":5.381361,"is_reserved":false,"is_disabled":false,"rental_uris":{"android":"levelo://app?vid=527b3f77-d8a6-4955-824c-1149b4392e74","ios":"levelo://app?vid=527b3f77-d8a6-4955-824c-1149b4392e74"},"vehicle_type_id":"4","last_reported":1708189543,"current_range_meters":9200,"station_id":"ce4bh512rcd13ifvqe2g","pricing_plan_id":"cebpf4jnsgd1na2vs0mg"},{"bike_id":"01ce5799-3ba5-46b8-989d-af5e76560b51","system_id":"levelo_inurba_marseille","lat":43.290995,"lon":5.381361,"is_reserved":false,"is_disabled":false,"rental_uris":{"android":"levelo://app?vid=01ce5799-3ba5-46b8-989d-af5e76560b51","ios":"levelo://app?vid=01ce5799-3ba5-46b8-989d-af5e76560b51"},"vehicle_type_id":"4","last_reported":1708189543,"current_range_meters":0,"station_id":"ce4bh512rcd13ifvqe2g","pricing_plan_id":"cebpf4jnsgd1na2vs0mg"},{"bike_id":"3bae3901-f55f-4d16-9616-185a11154886","system_id":"levelo_inurba_marseille","lat":43.29795,"lon":5.39343,"is_reserved":false,"is_disabled":false,"rental_uris":{"android":"levelo://app?vid=3bae3901-f55f-4d16-9616-185a11154886","ios":"levelo://app?vid=3bae3901-f55f-4d16-9616-185a11154886"},"vehicle_type_id":"4","last_reported":1708189543,"current_range_meters":25200,"station_id":"chh1huq6cuj3fo74tm60","pricing_plan_id":"cebpf4jnsgd1na2vs0mg"},{"bike_id":"a42babc9-d203-4d8a-bc5d-64cab8493182","system_id":"levelo_inurba_marseille","lat":43.297814,"lon":5.393355,"is_reserved":false,"is_disabled":false,"rental_uris":{"android":"levelo://app?vid=a42babc9-d203-4d8a-bc5d-64cab8493182","ios":"levelo://app?vid=a42babc9-d203-4d8a-bc5d-64cab8493182"},"vehicle_type_id":"4","last_reported":1708189543,"current_range_meters":8400,"station_id":"chh1huq6cuj3fo74tm60","pricing_plan_id":"cebpf4jnsgd1na2vs0mg"},{"bike_id":"109d8d18-68c1-40f0-8187-7ea55c4ac900","system_id":"levelo_inurba_marseille","lat":43.289743,"lon":5.378304,"is_reserved":false,"is_disabled":false,"rental_uris":{"android":"levelo://app?vid=109d8d18-68c1-40f0-8187-7ea55c4ac900","ios":"levelo://app?vid=109d8d18-68c1-40f0-8187-7ea55c4ac900"},"vehicle_type_id":"4","last_reported":1708189543,"current_range_meters":7200,"station_id":"ce4bh9p2rcd13ifvqed0","pricing_plan_id":"cebpf4jnsgd1na2vs0mg"},{"bike_id":"552957ef-a11e-4b67-8285-62e131c03149","system_id":"levelo_inurba_marseille","lat":43.330442,"lon":5.389148,"is_reserved":false,"is_disabled":false,"rental_uris":{"android":"levelo://app?vid=552957ef-a11e-4b67-8285-62e131c03149","ios":"levelo://app?vid=552957ef-a11e-4b67-8285-62e131c03149"},"vehicle_type_id":"4","last_reported":1708189543,"current_range_meters":27200,"station_id":"ce4bhr92rcd13ifvqhrg","pricing_plan_id":"cebpf4jnsgd1na2vs0mg"},{"bike_id":"0e730811-0da2-46f1-b14c-bd65434abdfb","system_id":"levelo_inurba_marseille","lat":43.289741,"lon":5.378306,"is_reserved":false,"is_disabled":false,"rental_uris":{"android":"levelo://app?vid=0e730811-0da2-46f1-b14c-bd65434abdfb","ios":"levelo://app?vid=0e730811-0da2-46f1-b14c-bd65434abdfb"},"vehicle_type_id":"4","last_reported":1708189543,"current_range_meters":28400,"station_id":"ce4bh9p2rcd13ifvqed0","pricing_plan_id":"cebpf4jnsgd1na2vs0mg"},{"bike_id":"1a047847-6425-4171-b61e-78c40aaaf197","system_id":"levelo_inurba_marseille","lat":43.330442,"lon":5.389148,"is_reserved":false,"is_disabled":false,"rental_uris":{"android":"levelo://app?vid=1a047847-6425-4171-b61e-78c40aaaf197","ios":"levelo://app?vid=1a047847-6425-4171-b61e-78c40aaaf197"},"vehicle_type_id":"4","last_reported":1708189543,"current_range_meters":27200,"station_id":"ce4bhr92rcd13ifvqhrg","pricing_plan_id":"cebpf4jnsgd1na2vs0mg"},{"bike_id":"e17a4a60-cdc6-434a-a5e5-d33cf41e3fc8","system_id":"levelo_inurba_marseille","lat":43.295169,"lon":5.390426,"is_reserved":false,"is_disabled":false,"rental_uris":{"android":"levelo://app?vid=e17a4a60-cdc6-434a-a5e5-d33cf41e3fc8","ios":"levelo://app?vid=e17a4a60-cdc6-434a-a5e5-d33cf41e3fc8"},"vehicle_type_id":"4","last_reported":1708189543,"current_range_meters":27200,"station_id":"ce4bh3p2rcd13ifvqdp0","pricing_plan_id":"cebpf4jnsgd1na2vs0mg"},{"bike_id":"6163f5b2-ef2b-4789-9cb7-7cc6c9947748","system_id":"levelo_inurba_marseille","lat":43.28971,"lon":5.37841,"is_reserved":false,"is_disabled":false,"rental_uris":{"android":"levelo://app?vid=6163f5b2-ef2b-4789-9cb7-7cc6c9947748","ios":"levelo://app?vid=6163f5b2-ef2b-4789-9cb7-7cc6c9947748"},"vehicle_type_id":"4","last_reported":1708189543,"current_range_meters":22800,"station_id":"","pricing_plan_id":"cebpf4jnsgd1na2vs0mg"},{"bike_id":"d0c7e855-123a-43d0-9f3e-24683eb5f3d0","system_id":"levelo_inurba_marseille","lat":43.330442,"lon":5.389148,"is_reserved":false,"is_disabled":false,"rental_uris":{"android":"levelo://app?vid=d0c7e855-123a-43d0-9f3e-24683eb5f3d0","ios":"levelo://app?vid=d0c7e855-123a-43d0-9f3e-24683eb5f3d0"},"vehicle_type_id":"4","last_reported":1708189543,"current_range_meters":20800,"station_id":"ce4bhr92rcd13ifvqhrg","pricing_plan_id":"cebpf4jnsgd1na2vs0mg"},{"bike_id":"911ab100-2b58-46d1-b8c0-90beca454414","system_id":"levelo_inurba_marseille","lat":43.28868,"lon":5.35847,"is_reserved":false,"is_disabled":false,"rental_uris":{"android":"levelo://app?vid=911ab100-2b58-46d1-b8c0-90beca454414","ios":"levelo://app?vid=911ab100-2b58-46d1-b8c0-90beca454414"},"vehicle_type_id":"4","last_reported":1708189543,"current_range_meters":0,"station_id":"ce4bhb12rcd13ifvqem0","pricing_plan_id":"cebpf4jnsgd1na2vs0mg"},{"bike_id":"20a81a93-93b7-4759-b27f-6427eebb642f","system_id":"levelo_inurba_marseille","lat":43.2901,"lon":5.381269,"is_reserved":false,"is_disabled":false,"rental_uris":{"android":"levelo://app?vid=20a81a93-93b7-4759-b27f-6427eebb642f","ios":"levelo://app?vid=20a81a93-93b7-4759-b27f-6427eebb642f"},"vehicle_type_id":"4","last_reported":1708189543,"current_range_meters":0,"station_id":"ce4bh4p2rcd13ifvqe1g","pricing_plan_id":"cebpf4jnsgd1na2vs0mg"},{"bike_id":"4003220f-e8bc-4783-8ecb-11b6bf6bbd9b","system_id":"levelo_inurba_marseille","lat":43.28856,"lon":5.358371,"is_reserved":false,"is_disabled":false,"rental_uris":{"android":"levelo://app?vid=4003220f-e8bc-4783-8ecb-11b6bf6bbd9b","ios":"levelo://app?vid=4003220f-e8bc-4783-8ecb-11b6bf6bbd9b"},"vehicle_type_id":"4","last_reported":1708189543,"current_range_meters":4400,"station_id":"ce4bhb12rcd13ifvqem0","pricing_plan_id":"cebpf4jnsgd1na2vs0mg"},{"bike_id":"6a9c6d3d-77b4-4875-b60b-265d24c5881f","system_id":"levelo_inurba_marseille","lat":43.29009,"lon":5.38117,"is_reserved":false,"is_disabled":false,"rental_uris":{"android":"levelo://app?vid=6a9c6d3d-77b4-4875-b60b-265d24c5881f","ios":"levelo://app?vid=6a9c6d3d-77b4-4875-b60b-265d24c5881f"},"vehicle_type_id":"4","last_reported":1708189543,"current_range_meters":0,"station_id":"ce4bh4p2rcd13ifvqe1g","pricing_plan_id":"cebpf4jnsgd1na2vs0mg"},{"bike_id":"a4d5e74d-b29a-4a38-8a18-8fb25fe1593e","system_id":"levelo_inurba_marseille","lat":43.28853,"lon":5.35848,"is_reserved":false,"is_disabled":false,"rental_uris":{"android":"levelo://app?vid=a4d5e74d-b29a-4a38-8a18-8fb25fe1593e","ios":"levelo://app?vid=a4d5e74d-b29a-4a38-8a18-8fb25fe1593e"},"vehicle_type_id":"4","last_reported":1708189543,"current_range_meters":0,"station_id":"ce4bhb12rcd13ifvqem0","pricing_plan_id":"cebpf4jnsgd1na2vs0mg"},{"bike_id":"c7c62bf1-6664-42b2-b8e3-a935ae9899bc","system_id":"levelo_inurba_marseille","lat":43.288483,"lon":5.358563,"is_reserved":false,"is_disabled":false,"rental_uris":{"android":"levelo://app?vid=c7c62bf1-6664-42b2-b8e3-a935ae9899bc","ios":"levelo://app?vid=c7c62bf1-6664-42b2-b8e3-a935ae9899bc"},"vehicle_type_id":"4","last_reported":1708189543,"current_range_meters":2000,"station_id":"ce4bhb12rcd13ifvqem0","pricing_plan_id":"cebpf4jnsgd1na2vs0mg"},{"bike_id":"1988282e-506b-41c7-a207-e5c071cc1d2e","system_id":"levelo_inurba_marseille","lat":43.28856,"lon":5.358371,"is_reserved":false,"is_disabled":false,"rental_uris":{"android":"levelo://app?vid=1988282e-506b-41c7-a207-e5c071cc1d2e","ios":"levelo://app?vid=1988282e-506b-41c7-a207-e5c071cc1d2e"},"vehicle_type_id":"4","last_reported":1708189543,"current_range_meters":11600,"station_id":"ce4bhb12rcd13ifvqem0","pricing_plan_id":"cebpf4jnsgd1na2vs0mg"},{"bike_id":"bba629ee-82a6-4c9e-8cf9-32c966a5b681","system_id":"levelo_inurba_marseille","lat":43.312609,"lon":5.401662,"is_reserved":false,"is_disabled":false,"rental_uris":{"android":"levelo://app?vid=bba629ee-82a6-4c9e-8cf9-32c966a5b681","ios":"levelo://app?vid=bba629ee-82a6-4c9e-8cf9-32c966a5b681"},"vehicle_type_id":"4","last_reported":1708189543,"current_range_meters":1600,"station_id":"ce4bh092rcd13ifvqd30","pricing_plan_id":"cebpf4jnsgd1na2vs0mg"},{"bike_id":"0a54ed06-ba23-4a39-9a2f-51e5832e2a12","system_id":"levelo_inurba_marseille","lat":43.312609,"lon":5.401662,"is_reserved":false,"is_disabled":false,"rental_uris":{"android":"levelo://app?vid=0a54ed06-ba23-4a39-9a2f-51e5832e2a12","ios":"levelo://app?vid=0a54ed06-ba23-4a39-9a2f-51e5832e2a12"},"vehicle_type_id":"4","last_reported":1708189543,"current_range_meters":11600,"station_id":"ce4bh092rcd13ifvqd30","pricing_plan_id":"cebpf4jnsgd1na2vs0mg"},{"bike_id":"c824b3df-300d-4cad-a8f8-737768589e7f","system_id":"levelo_inurba_marseille","lat":43.33744,"lon":5.37458,"is_reserved":false,"is_disabled":false,"rental_uris":{"android":"levelo://app?vid=c824b3df-300d-4cad-a8f8-737768589e7f","ios":"levelo://app?vid=c824b3df-300d-4cad-a8f8-737768589e7f"},"vehicle_type_id":"4","last_reported":1708189543,"current_range_meters":23600,"station_id":"","pricing_plan_id":"cebpf4jnsgd1na2vs0mg"},{"bike_id":"fe6bf883-a866-4d63-b6ed-bbd3739b01f1","system_id":"levelo_inurba_marseille","lat":43.312354,"lon":5.402076,"is_reserved":false,"is_disabled":false,"rental_uris":{"android":"levelo://app?vid=fe6bf883-a866-4d63-b6ed-bbd3739b01f1","ios":"levelo://app?vid=fe6bf883-a866-4d63-b6ed-bbd3739b01f1"},"vehicle_type_id":"4","last_reported":1708189543,"current_range_meters":2800,"station_id":"ce4bh092rcd13ifvqd30","pricing_plan_id":"cebpf4jnsgd1na2vs0mg"},{"bike_id":"89950bb8-2ae8-450e-83fa-d6e84203652d","system_id":"levelo_inurba_marseille","lat":43.301117,"lon":5.398795,"is_reserved":false,"is_disabled":false,"rental_uris":{"android":"levelo://app?vid=89950bb8-2ae8-450e-83fa-d6e84203652d","ios":"levelo://app?vid=89950bb8-2ae8-450e-83fa-d6e84203652d"},"vehicle_type_id":"4","last_reported":1708189543,"current_range_meters":17200,"station_id":"ce4bh0h2rcd13ifvqd40","pricing_plan_id":"cebpf4jnsgd1na2vs0mg"},{"bike_id":"f42e74a1-d3b7-41a4-bc29-150cfc4aaa55","system_id":"levelo_inurba_marseille","lat":43.301117,"lon":5.398795,"is_reserved":false,"is_disabled":false,"rental_uris":{"android":"levelo://app?vid=f42e74a1-d3b7-41a4-bc29-150cfc4aaa55","ios":"levelo://app?vid=f42e74a1-d3b7-41a4-bc29-150cfc4aaa55"},"vehicle_type_id":"4","last_reported":1708189543,"current_range_meters":11200,"station_id":"ce4bh0h2rcd13ifvqd40","pricing_plan_id":"cebpf4jnsgd1na2vs0mg"},{"bike_id":"768362e9-5e58-4de3-80d1-2941b75a1472","system_id":"levelo_inurba_marseille","lat":43.301117,"lon":5.398795,"is_reserved":false,"is_disabled":false,"rental_uris":{"android":"levelo://app?vid=768362e9-5e58-4de3-80d1-2941b75a1472","ios":"levelo://app?vid=768362e9-5e58-4de3-80d1-2941b75a1472"},"vehicle_type_id":"4","last_reported":1708189543,"current_range_meters":10000,"station_id":"ce4bh0h2rcd13ifvqd40","pricing_plan_id":"cebpf4jnsgd1na2vs0mg"},{"bike_id":"359b8eec-7c1e-4abb-9871-a03300a8bc80","system_id":"levelo_inurba_marseille","lat":43.301117,"lon":5.398795,"is_reserved":false,"is_disabled":false,"rental_uris":{"android":"levelo://app?vid=359b8eec-7c1e-4abb-9871-a03300a8bc80","ios":"levelo://app?vid=359b8eec-7c1e-4abb-9871-a03300a8bc80"},"vehicle_type_id":"4","last_reported":1708189543,"current_range_meters":4000,"station_id":"ce4bh0h2rcd13ifvqd40","pricing_plan_id":"cebpf4jnsgd1na2vs0mg"},{"bike_id":"afb14202-cdd4-4315-875a-15516dbf03da","system_id":"levelo_inurba_marseille","lat":43.301117,"lon":5.398795,"is_reserved":false,"is_disabled":false,"rental_uris":{"android":"levelo://app?vid=afb14202-cdd4-4315-875a-15516dbf03da","ios":"levelo://app?vid=afb14202-cdd4-4315-875a-15516dbf03da"},"vehicle_type_id":"4","last_reported":1708189543,"current_range_meters":19200,"station_id":"ce4bh0h2rcd13ifvqd40","pricing_plan_id":"cebpf4jnsgd1na2vs0mg"},{"bike_id":"817f6ed4-0b17-402d-abd1-a10d6bcd3507","system_id":"levelo_inurba_marseille","lat":43.309371,"lon":5.401449,"is_reserved":false,"is_disabled":false,"rental_uris":{"android":"levelo://app?vid=817f6ed4-0b17-402d-abd1-a10d6bcd3507","ios":"levelo://app?vid=817f6ed4-0b17-402d-abd1-a10d6bcd3507"},"vehicle_type_id":"4","last_reported":1708189543,"current_range_meters":10400,"station_id":"ce4bgvp2rcd13ifvqct0","pricing_plan_id":"cebpf4jnsgd1na2vs0mg"},{"bike_id":"19dc3ed7-cbe7-40ea-b76e-115ef6bd056f","system_id":"levelo_inurba_marseille","lat":43.301117,"lon":5.398795,"is_reserved":false,"is_disabled":false,"rental_uris":{"android":"levelo://app?vid=19dc3ed7-cbe7-40ea-b76e-115ef6bd056f","ios":"levelo://app?vid=19dc3ed7-cbe7-40ea-b76e-115ef6bd056f"},"vehicle_type_id":"4","last_reported":1708189543,"current_range_meters":20400,"station_id":"ce4bh0h2rcd13ifvqd40","pricing_plan_id":"cebpf4jnsgd1na2vs0mg"},{"bike_id":"f2ed887c-9aa0-4f64-9c80-87619ef48958","system_id":"levelo_inurba_marseille","lat":43.301117,"lon":5.398795,"is_reserved":false,"is_disabled":false,"rental_uris":{"android":"levelo://app?vid=f2ed887c-9aa0-4f64-9c80-87619ef48958","ios":"levelo://app?vid=f2ed887c-9aa0-4f64-9c80-87619ef48958"},"vehicle_type_id":"4","last_reported":1708189543,"current_range_meters":0,"station_id":"ce4bh0h2rcd13ifvqd40","pricing_plan_id":"cebpf4jnsgd1na2vs0mg"},{"bike_id":"7ceb355e-1ee3-40f2-8747-4bf194824902","system_id":"levelo_inurba_marseille","lat":43.28727,"lon":5.36078,"is_reserved":false,"is_disabled":false,"rental_uris":{"android":"levelo://app?vid=7ceb355e-1ee3-40f2-8747-4bf194824902","ios":"levelo://app?vid=7ceb355e-1ee3-40f2-8747-4bf194824902"},"vehicle_type_id":"4","last_reported":1708189543,"current_range_meters":4000,"station_id":"cki0cbj6b192h4jlfktg","pricing_plan_id":"cebpf4jnsgd1na2vs0mg"},{"bike_id":"6c6a9544-f9af-4fd3-9bdb-93f4f3be5cf1","system_id":"levelo_inurba_marseille","lat":43.28727,"lon":5.36078,"is_reserved":false,"is_disabled":false,"rental_uris":{"android":"levelo://app?vid=6c6a9544-f9af-4fd3-9bdb-93f4f3be5cf1","ios":"levelo://app?vid=6c6a9544-f9af-4fd3-9bdb-93f4f3be5cf1"},"vehicle_type_id":"4","last_reported":1708189543,"current_range_meters":12800,"station_id":"cki0cbj6b192h4jlfktg","pricing_plan_id":"cebpf4jnsgd1na2vs0mg"},{"bike_id":"ad101e91-ba16-4562-89a1-676c271681f8","system_id":"levelo_inurba_marseille","lat":43.298681,"lon":5.397225,"is_reserved":false,"is_disabled":false,"rental_uris":{"android":"levelo://app?vid=ad101e91-ba16-4562-89a1-676c271681f8","ios":"levelo://app?vid=ad101e91-ba16-4562-89a1-676c271681f8"},"vehicle_type_id":"4","last_reported":1708189543,"current_range_meters":8400,"station_id":"ce4bh0h2rcd13ifvqd50","pricing_plan_id":"cebpf4jnsgd1na2vs0mg"},{"bike_id":"6bab6ed0-b5a2-4562-a787-bc2cd3ad05cf","system_id":"levelo_inurba_marseille","lat":43.28667,"lon":5.36357,"is_reserved":false,"is_disabled":false,"rental_uris":{"android":"levelo://app?vid=6bab6ed0-b5a2-4562-a787-bc2cd3ad05cf","ios":"levelo://app?vid=6bab6ed0-b5a2-4562-a787-bc2cd3ad05cf"},"vehicle_type_id":"4","last_reported":1708189543,"current_range_meters":7600,"station_id":"ce4bhah2rcd13ifvqej0","pricing_plan_id":"cebpf4jnsgd1na2vs0mg"},{"bike_id":"b12a4eaa-5a38-4cd2-b059-a58ec6348e12","system_id":"levelo_inurba_marseille","lat":43.298681,"lon":5.397225,"is_reserved":false,"is_disabled":false,"rental_uris":{"android":"levelo://app?vid=b12a4eaa-5a38-4cd2-b059-a58ec6348e12","ios":"levelo://app?vid=b12a4eaa-5a38-4cd2-b059-a58ec6348e12"},"vehicle_type_id":"4","last_reported":1708189543,"current_range_meters":6800,"station_id":"ce4bh0h2rcd13ifvqd50","pricing_plan_id":"cebpf4jnsgd1na2vs0mg"},{"bike_id":"71dc8af1-0355-41b5-b778-dfd68dc04656","system_id":"levelo_inurba_marseille","lat":43.286961,"lon":5.373785,"is_reserved":false,"is_disabled":false,"rental_uris":{"android":"levelo://app?vid=71dc8af1-0355-41b5-b778-dfd68dc04656","ios":"levelo://app?vid=71dc8af1-0355-41b5-b778-dfd68dc04656"},"vehicle_type_id":"4","last_reported":1708189543,"current_range_meters":800,"station_id":"ce4bh3p2rcd13ifvqdq0","pricing_plan_id":"cebpf4jnsgd1na2vs0mg"},{"bike_id":"294a8dfd-0c1f-41d2-b044-07afc09fa75b","system_id":"levelo_inurba_marseille","lat":43.302759,"lon":5.400793,"is_reserved":false,"is_disabled":false,"rental_uris":{"android":"levelo://app?vid=294a8dfd-0c1f-41d2-b044-07afc09fa75b","ios":"levelo://app?vid=294a8dfd-0c1f-41d2-b044-07afc09fa75b"},"vehicle_type_id":"4","last_reported":1708189543,"current_range_meters":13600,"station_id":"ce4bgvh2rcd13ifvqcs0","pricing_plan_id":"cebpf4jnsgd1na2vs0mg"},{"bike_id":"cc413596-1c17-4648-b12c-8d326dd1ff8e","system_id":"levelo_inurba_marseille","lat":43.290345,"lon":5.38646,"is_reserved":false,"is_disabled":false,"rental_uris":{"android":"levelo://app?vid=cc413596-1c17-4648-b12c-8d326dd1ff8e","ios":"levelo://app?vid=cc413596-1c17-4648-b12c-8d326dd1ff8e"},"vehicle_type_id":"4","last_reported":1708189543,"current_range_meters":3600,"station_id":"ce4bh4p2rcd13ifvqe0g","pricing_plan_id":"cebpf4jnsgd1na2vs0mg"},{"bike_id":"858e3a62-84f6-4a7c-9053-b0063a3cbcf1","system_id":"levelo_inurba_marseille","lat":43.289307,"lon":5.38406,"is_reserved":false,"is_disabled":false,"rental_uris":{"android":"levelo://app?vid=858e3a62-84f6-4a7c-9053-b0063a3cbcf1","ios":"levelo://app?vid=858e3a62-84f6-4a7c-9053-b0063a3cbcf1"},"vehicle_type_id":"4","last_reported":1708189543,"current_range_meters":9600,"station_id":"ce4bh612rcd13ifvqe6g","pricing_plan_id":"cebpf4jnsgd1na2vs0mg"},{"bike_id":"4ce392cb-10db-4bc4-b173-d07d1a18a0bc","system_id":"levelo_inurba_marseille","lat":43.290345,"lon":5.38646,"is_reserved":false,"is_disabled":false,"rental_uris":{"android":"levelo://app?vid=4ce392cb-10db-4bc4-b173-d07d1a18a0bc","ios":"levelo://app?vid=4ce392cb-10db-4bc4-b173-d07d1a18a0bc"},"vehicle_type_id":"4","last_reported":1708189543,"current_range_meters":20800,"station_id":"ce4bh4p2rcd13ifvqe0g","pricing_plan_id":"cebpf4jnsgd1na2vs0mg"},{"bike_id":"66ca537c-d60c-465a-b1cc-9ef76a5e13f2","system_id":"levelo_inurba_marseille","lat":43.289307,"lon":5.38406,"is_reserved":false,"is_disabled":false,"rental_uris":{"android":"levelo://app?vid=66ca537c-d60c-465a-b1cc-9ef76a5e13f2","ios":"levelo://app?vid=66ca537c-d60c-465a-b1cc-9ef76a5e13f2"},"vehicle_type_id":"4","last_reported":1708189543,"current_range_meters":31200,"station_id":"ce4bh612rcd13ifvqe6g","pricing_plan_id":"cebpf4jnsgd1na2vs0mg"},{"bike_id":"a2e08652-fea3-4a95-9db7-137bfcaf25ee","system_id":"levelo_inurba_marseille","lat":43.29023,"lon":5.38639,"is_reserved":false,"is_disabled":false,"rental_uris":{"android":"levelo://app?vid=a2e08652-fea3-4a95-9db7-137bfcaf25ee","ios":"levelo://app?vid=a2e08652-fea3-4a95-9db7-137bfcaf25ee"},"vehicle_type_id":"4","last_reported":1708189543,"current_range_meters":3600,"station_id":"","pricing_plan_id":"cebpf4jnsgd1na2vs0mg"},{"bike_id":"115e5e8b-a8fe-4d1b-b4cf-fb3c0551cbba","system_id":"levelo_inurba_marseille","lat":43.286039,"lon":5.370679,"is_reserved":false,"is_disabled":false,"rental_uris":{"android":"levelo://app?vid=115e5e8b-a8fe-4d1b-b4cf-fb3c0551cbba","ios":"levelo://app?vid=115e5e8b-a8fe-4d1b-b4cf-fb3c0551cbba"},"vehicle_type_id":"4","last_reported":1708189543,"current_range_meters":3600,"station_id":"ce4bht12rcd13ifvqi60","pricing_plan_id":"cebpf4jnsgd1na2vs0mg"},{"bike_id":"0872dc22-afff-4185-980f-145090d6cca9","system_id":"levelo_inurba_marseille","lat":43.286039,"lon":5.370679,"is_reserved":false,"is_disabled":false,"rental_uris":{"android":"levelo://app?vid=0872dc22-afff-4185-980f-145090d6cca9","ios":"levelo://app?vid=0872dc22-afff-4185-980f-145090d6cca9"},"vehicle_type_id":"4","last_reported":1708189543,"current_range_meters":6400,"station_id":"ce4bht12rcd13ifvqi60","pricing_plan_id":"cebpf4jnsgd1na2vs0mg"},