{"last_updated":1769621057,"ttl":60,"version":"2.2","data":{"bikes":[{"bike_id":"87a820e8-1a90-48fc-ae89-7d3b435a9c17","system_id":"levelo_inurba_marseille","lat":43.285548,"lon":5.394448,"is_reserved":false,"is_disabled":false,"rental_uris":{"android":"levelo://app?vid=87a820e8-1a90-48fc-ae89-7d3b435a9c17","ios":"levelo://app?vid=87a820e8-1a90-48fc-ae89-7d3b435a9c17"},"vehicle_type_id":"4","last_reported":1769621057,"current_range_meters":2800,"station_id":"ce4bh292rcd13ifvqdg0","pricing_plan_id":"cebpf4jnsgd1na2vs0mg"},{"bike_id":"2d341e68-8682-48ca-86e7-ace06645ef34","system_id":"levelo_inurba_marseille","lat":43.24477,"lon":5.42537,"is_reserved":false,"is_disabled":false,"rental_uris":{"android":"levelo://app?vid=2d341e68-8682-48ca-86e7-ace06645ef34","ios":"levelo://app?vid=2d341e68-8682-48ca-86e7-ace06645ef34"},"vehicle_type_id":"4","last_reported":1769621057,"current_range_meters":2800,"station_id":"st_d4a3vfp97mjs738cd8kg","pricing_plan_id":"cebpf4jnsgd1na2vs0mg"},{"bike_id":"b2a12bd7-8290-48c5-a026-f44f33bd7a42","system_id":"levelo_inurba_marseille","lat":43.231571,"lon":5.437061,"is_reserved":false,"is_disabled":false,"rental_uris":{"android":"levelo://app?vid=b2a12bd7-8290-48c5-a026-f44f33bd7a42","ios":"levelo://app?vid=b2a12bd7-8290-48c5-a026-f44f33bd7a42"},"vehicle_type_id":"4","last_reported":1769621057,"current_range_meters":2800,"station_id":"ce4bhmp2rcd13ifvqgog","pricing_plan_id":"cebpf4jnsgd1na2vs0mg"},{"bike_id":"bf1a65e2-9591-4ca3-b3f7-451f813379ee","system_id":"levelo_inurba_marseille","lat":43.29435,"lon":5.39727,"is_reserved":false,"is_disabled":false,"rental_uris":{"android":"levelo://app?vid=bf1a65e2-9591-4ca3-b3f7-451f813379ee","ios":"levelo://app?vid=bf1a65e2-9591-4ca3-b3f7-451f813379ee"},"vehicle_type_id":"4","last_reported":1769621057,"current_range_meters":2800,"station_id":"ce4bh3h2rcd13ifvqdo0","pricing_plan_id":"cebpf4jnsgd1na2vs0mg"},{"bike_id":"7d9982a5-bc45-4237-abe2-f8a80718bcf2","system_id":"levelo_inurba_marseille","lat":43.3315,"lon":5.377,"is_reserved":false,"is_disabled":false,"rental_uris":{"android":"levelo://app?vid=7d9982a5-bc45-4237-abe2-f8a80718bcf2","ios":"levelo://app?vid=7d9982a5-bc45-4237-abe2-f8a80718bcf2"},"vehicle_type_id":"4","last_reported":1769621057,"current_range_meters":2800,"station_id":"st_d46cu089ee8s73dldbu0","pricing_plan_id":"cebpf4jnsgd1na2vs0mg"},{"bike_id":"a17c9b91-36d8-4f53-bd80-9b09b310f080","system_id":"levelo_inurba_marseille","lat":43.296168,"lon":5.376781,"is_reserved":false,"is_disabled":false,"rental_uris":{"android":"levelo://app?vid=a17c9b91-36d8-4f53-bd80-9b09b310f080","ios":"levelo://app?vid=a17c9b91-36d8-4f53-bd80-9b09b310f080"},"vehicle_type_id":"4","last_reported":1769621057,"current_range_meters":2800,"station_id":"ce4bgi92rcd13ifvqb90","pricing_plan_id":"cebpf4jnsgd1na2vs0mg"},{"bike_id":"daa24193-cacb-4f70-9e8f-02fa2067f483","system_id":"levelo_inurba_marseille","lat":43.27419,"lon":5.39401,"is_reserved":false,"is_disabled":false,"rental_uris":{"android":"levelo://app?vid=daa24193-cacb-4f70-9e8f-02fa2067f483","ios":"levelo://app?vid=daa24193-cacb-4f70-9e8f-02fa2067f483"},"vehicle_type_id":"4","last_reported":1769621057,"current_range_meters":2800,"station_id":"ce4bhdp2rcd13ifvqf20","pricing_plan_id":"cebpf4jnsgd1na2vs0mg"},{"bike_id":"7074f258-144e-48cc-91dc-a22502770e23","system_id":"levelo_inurba_marseille","lat":43.29793,"lon":5.39347,"is_reserved":false,"is_disabled":false,"rental_uris":{"android":"levelo://app?vid=7074f258-144e-48cc-91dc-a22502770e23","ios":"levelo://app?vid=7074f258-144e-48cc-91dc-a22502770e23"},"vehicle_type_id":"4","last_reported":1769621057,"current_range_meters":2800,"station_id":"chh1huq6cuj3fo74tm60","pricing_plan_id":"cebpf4jnsgd1na2vs0mg"},{"bike_id":"51eafa83-561f-4643-b6f6-aaaa986bfdfa","system_id":"levelo_inurba_marseille","lat":43.290148,"lon":5.386552,"is_reserved":false,"is_disabled":false,"rental_uris":{"android":"levelo://app?vid=51eafa83-561f-4643-b6f6-aaaa986bfdfa","ios":"levelo://app?vid=51eafa83-561f-4643-b6f6-aaaa986bfdfa"},"vehicle_type_id":"4","last_reported":1769621057,"current_range_meters":2800,"station_id":"ce4bh4p2rcd13ifvqe0g","pricing_plan_id":"cebpf4jnsgd1na2vs0mg"},{"bike_id":"87344e8a-9e9f-47a5-9030-122d151659ee","system_id":"levelo_inurba_marseille","lat":43.26565,"lon":5.39012,"is_reserved":false,"is_disabled":false,"rental_uris":{"android":"levelo://app?vid=87344e8a-9e9f-47a5-9030-122d151659ee","ios":"levelo://app?vid=87344e8a-9e9f-47a5-9030-122d151659ee"},"vehicle_type_id":"4","last_reported":1769621057,"current_range_meters":2800,"station_id":"ce4bhe12rcd13ifvqf30","pricing_plan_id":"cebpf4jnsgd1na2vs0mg"},{"bike_id":"b0d26d6e-9e03-40c6-8895-c102d19e080c","system_id":"levelo_inurba_marseille","lat":43.32021,"lon":5.41552,"is_reserved":false,"is_disabled":false,"rental_uris":{"android":"levelo://app?vid=b0d26d6e-9e03-40c6-8895-c102d19e080c","ios":"levelo://app?vid=b0d26d6e-9e03-40c6-8895-c102d19e080c"},"vehicle_type_id":"4","last_reported":1769621057,"current_range_meters":2800,"station_id":"ce4bhq92rcd13ifvqhkg","pricing_plan_id":"cebpf4jnsgd1na2vs0mg"},{"bike_id":"47d16ea3-2657-436e-8d25-2051a220a717","system_id":"levelo_inurba_marseille","lat":43.30134,"lon":5.39827,"is_reserved":false,"is_disabled":false,"rental_uris":{"android":"levelo://app?vid=47d16ea3-2657-436e-8d25-2051a220a717","ios":"levelo://app?vid=47d16ea3-2657-436e-8d25-2051a220a717"},"vehicle_type_id":"4","last_reported":1769621057,"current_range_meters":2800,"station_id":"ce4bh0h2rcd13ifvqd40","pricing_plan_id":"cebpf4jnsgd1na2vs0mg"},{"bike_id":"8e425141-c4db-4014-9322-886bd00ee670","system_id":"levelo_inurba_marseille","lat":43.26577,"lon":5.37282,"is_reserved":false,"is_disabled":false,"rental_uris":{"android":"levelo://app?vid=8e425141-c4db-4014-9322-886bd00ee670","ios":"levelo://app?vid=8e425141-c4db-4014-9322-886bd00ee670"},"vehicle_type_id":"4","last_reported":1769621057,"current_range_meters":2800,"station_id":"ce4bhg12rcd13ifvqf70","pricing_plan_id":"cebpf4jnsgd1na2vs0mg"},{"bike_id":"fce7e35b-f332-4d2d-94dd-182d2a0a22de","system_id":"levelo_inurba_marseille","lat":43.257861,"lon":5.410571,"is_reserved":false,"is_disabled":false,"rental_uris":{"android":"levelo://app?vid=fce7e35b-f332-4d2d-94dd-182d2a0a22de","ios":"levelo://app?vid=fce7e35b-f332-4d2d-94dd-182d2a0a22de"},"vehicle_type_id":"4","last_reported":1769621057,"current_range_meters":2800,"station_id":"ce4bhkp2rcd13ifvqgd0","pricing_plan_id":"cebpf4jnsgd1na2vs0mg"},{"bike_id":"6db66491-9eaf-4279-900d-b250b8d7a54d","system_id":"levelo_inurba_marseille","lat":43.29544,"lon":5.39038,"is_reserved":false,"is_disabled":false,"rental_uris":{"android":"levelo://app?vid=6db66491-9eaf-4279-900d-b250b8d7a54d","ios":"levelo://app?vid=6db66491-9eaf-4279-900d-b250b8d7a54d"},"vehicle_type_id":"4","last_reported":1769621057,"current_range_meters":2800,"station_id":"ce4bh3p2rcd13ifvqdp0","pricing_plan_id":"cebpf4jnsgd1na2vs0mg"},{"bike_id":"8a225959-9028-4e8e-bb41-43f7382c386a","system_id":"levelo_inurba_marseille","lat":43.25444,"lon":5.39586,"is_reserved":false,"is_disabled":false,"rental_uris":{"android":"levelo://app?vid=8a225959-9028-4e8e-bb41-43f7382c386a","ios":"levelo://app?vid=8a225959-9028-4e8e-bb41-43f7382c386a"},"vehicle_type_id":"4","last_reported":1769621057,"current_range_meters":3200,"station_id":"","pricing_plan_id":"cebpf4jnsgd1na2vs0mg"},{"bike_id":"124b9cc0-af1d-4307-a5a1-f91b30c02c89","system_id":"levelo_inurba_marseille","lat":43.28927,"lon":5.38378,"is_reserved":false,"is_disabled":false,"rental_uris":{"android":"levelo://app?vid=124b9cc0-af1d-4307-a5a1-f91b30c02c89","ios":"levelo://app?vid=124b9cc0-af1d-4307-a5a1-f91b30c02c89"},"vehicle_type_id":"4","last_reported":1769621057,"current_range_meters":3200,"station_id":"ce4bh612rcd13ifvqe6g","pricing_plan_id":"cebpf4jnsgd1na2vs0mg"},{"bike_id":"9fd5960f-95d7-4805-a778-26619291737c","system_id":"levelo_inurba_marseille","lat":43.30161,"lon":5.39858,"is_reserved":false,"is_disabled":false,"rental_uris":{"android":"levelo://app?vid=9fd5960f-95d7-4805-a778-26619291737c","ios":"levelo://app?vid=9fd5960f-95d7-4805-a778-26619291737c"},"vehicle_type_id":"4","last_reported":1769621057,"current_range_meters":3200,"station_id":"ce4bh0h2rcd13ifvqd40","pricing_plan_id":"cebpf4jnsgd1na2vs0mg"},{"bike_id":"caf214c6-f51e-422f-a150-65a2d01f29fe","system_id":"levelo_inurba_marseille","lat":43.33276,"lon":5.36602,"is_reserved":false,"is_disabled":false,"rental_uris":{"android":"levelo://app?vid=caf214c6-f51e-422f-a150-65a2d01f29fe","ios":"levelo://app?vid=caf214c6-f51e-422f-a150-65a2d01f29fe"},"vehicle_type_id":"4","last_reported":1769621057,"current_range_meters":3200,"station_id":"","pricing_plan_id":"cebpf4jnsgd1na2vs0mg"},{"bike_id":"0171a31e-8a24-47ad-9f30-3e29f3c85c80","system_id":"levelo_inurba_marseille","lat":43.280188,"lon":5.400337,"is_reserved":false,"is_disabled":false,"rental_uris":{"android":"levelo://app?vid=0171a31e-8a24-47ad-9f30-3e29f3c85c80","ios":"levelo://app?vid=0171a31e-8a24-47ad-9f30-3e29f3c85c80"},"vehicle_type_id":"4","last_reported":1769621057,"current_range_meters":3200,"station_id":"ce4bho92rcd13ifvqh4g","pricing_plan_id":"cebpf4jnsgd1na2vs0mg"},{"bike_id":"dfbbef13-d89c-429c-a8fc-5cac9243a9f8","system_id":"levelo_inurba_marseille","lat":43.28688,"lon":5.37395,"is_reserved":false,"is_disabled":false,"rental_uris":{"android":"levelo://app?vid=dfbbef13-d89c-429c-a8fc-5cac9243a9f8","ios":"levelo://app?vid=dfbbef13-d89c-429c-a8fc-5cac9243a9f8"},"vehicle_type_id":"4","last_reported":1769621057,"current_range_meters":3600,"station_id":"ce4bh3p2rcd13ifvqdq0","pricing_plan_id":"cebpf4jnsgd1na2vs0mg"},{"bike_id":"51b8f39f-e87e-4327-a9b7-dad481cf0cba","system_id":"levelo_inurba_marseille","lat":43.23788,"lon":5.36633,"is_reserved":false,"is_disabled":false,"rental_uris":{"android":"levelo://app?vid=51b8f39f-e87e-4327-a9b7-dad481cf0cba","ios":"levelo://app?vid=51b8f39f-e87e-4327-a9b7-dad481cf0cba"},"vehicle_type_id":"4","last_reported":1769621057,"current_range_meters":3600,"station_id":"st_d3nk18o9ro0c73en2l3g","pricing_plan_id":"cebpf4jnsgd1na2vs0mg"},{"bike_id":"730f088c-00d8-4b8f-a391-1a0afdcd34ad","system_id":"levelo_inurba_marseille","lat":43.25941,"lon":5.40896,"is_reserved":false,"is_disabled":false,"rental_uris":{"android":"levelo://app?vid=730f088c-00d8-4b8f-a391-1a0afdcd34ad","ios":"levelo://app?vid=730f088c-00d8-4b8f-a391-1a0afdcd34ad"},"vehicle_type_id":"4","last_reported":1769621057,"current_range_meters":3600,"station_id":"ce4bhm92rcd13ifvqglg","pricing_plan_id":"cebpf4jnsgd1na2vs0mg"},{"bike_id":"7512eb5d-5cb7-4809-85e2-bb3f020948c7","system_id":"levelo_inurba_marseille","lat":43.287154,"lon":5.37942,"is_reserved":false,"is_disabled":false,"rental_uris":{"android":"levelo://app?vid=7512eb5d-5cb7-4809-85e2-bb3f020948c7","ios":"levelo://app?vid=7512eb5d-5cb7-4809-85e2-bb3f020948c7"},"vehicle_type_id":"4","last_reported":1769621057,"current_range_meters":3600,"station_id":"ce4bh9p2rcd13ifvqec0","pricing_plan_id":"cebpf4jnsgd1na2vs0mg"},{"bike_id":"73a8b4c3-15a5-45f8-921b-f35f7a1a9524","system_id":"levelo_inurba_marseille","lat":43.29538,"lon":5.38523,"is_reserved":false,"is_disabled":false,"rental_uris":{"android":"levelo://app?vid=73a8b4c3-15a5-45f8-921b-f35f7a1a9524","ios":"levelo://app?vid=73a8b4c3-15a5-45f8-921b-f35f7a1a9524"},"vehicle_type_id":"4","last_reported":1769621057,"current_range_meters":3600,"station_id":"ce4bgih2rcd13ifvqba0","pricing_plan_id":"cebpf4jnsgd1na2vs0mg"},{"bike_id":"08decaea-9d69-4b77-8101-ea718effc54c","system_id":"levelo_inurba_marseille","lat":43.302222,"lon":5.394744,"is_reserved":false,"is_disabled":false,"rental_uris":{"android":"levelo://app?vid=08decaea-9d69-4b77-8101-ea718effc54c","ios":"levelo://app?vid=08decaea-9d69-4b77-8101-ea718effc54c"},"vehicle_type_id":"4","last_reported":1769621057,"current_range_meters":3600,"station_id":"ce4bh0p2rcd13ifvqd70","pricing_plan_id":"cebpf4jnsgd1na2vs0mg"},{"bike_id":"273febe5-a3b6-43de-a0d3-2593aeee6485","system_id":"levelo_inurba_marseille","lat":43.28678,"lon":5.38659,"is_reserved":false,"is_disabled":false,"rental_uris":{"android":"levelo://app?vid=273febe5-a3b6-43de-a0d3-2593aeee6485","ios":"levelo://app?vid=273febe5-a3b6-43de-a0d3-2593aeee6485"},"vehicle_type_id":"4","last_reported":1769621057,"current_range_meters":3600,"station_id":"ce4bh492rcd13ifvqdug","pricing_plan_id":"cebpf4jnsgd1na2vs0mg"},{"bike_id":"d890e540-b041-410e-8cbc-cfef1de7b28d","system_id":"levelo_inurba_marseille","lat":43.27812,"lon":5.40713,"is_reserved":false,"is_disabled":false,"rental_uris":{"android":"levelo://app?vid=d890e540-b041-410e-8cbc-cfef1de7b28d","ios":"levelo://app?vid=d890e540-b041-410e-8cbc-cfef1de7b28d"},"vehicle_type_id":"4","last_reported":1769621057,"current_range_meters":3600,"station_id":"ce4bhnh2rcd13ifvqgtg","pricing_plan_id":"cebpf4jnsgd1na2vs0mg"},{"bike_id":"0e3e56a8-c028-4a2f-88ed-6334be577f88","system_id":"levelo_inurba_marseille","lat":43.23148,"lon":5.43654,"is_reserved":false,"is_disabled":false,"rental_uris":{"android":"levelo://app?vid=0e3e56a8-c028-4a2f-88ed-6334be577f88","ios":"levelo://app?vid=0e3e56a8-c028-4a2f-88ed-6334be577f88"},"vehicle_type_id":"4","last_reported":1769621057,"current_range_meters":3600,"station_id":"ce4bhmp2rcd13ifvqgog","pricing_plan_id":"cebpf4jnsgd1na2vs0mg"},{"bike_id":"db91af1c-8610-46d2-8811-cba210a8ff4f","system_id":"levelo_inurba_marseille","lat":43.33273,"lon":5.37959,"is_reserved":false,"is_disabled":false,"rental_uris":{"android":"levelo://app?vid=db91af1c-8610-46d2-8811-cba210a8ff4f","ios":"levelo://app?vid=db91af1c-8610-46d2-8811-cba210a8ff4f"},"vehicle_type_id":"4","last_reported":1769621057,"current_range_meters":3600,"station_id":"","pricing_plan_id":"cebpf4jnsgd1na2vs0mg"},{"bike_id":"f73a9893-cefd-44ce-95b6-991669d1cf78","system_id":"levelo_inurba_marseille","lat":43.30246,"lon":5.40068,"is_reserved":false,"is_disabled":false,"rental_uris":{"android":"levelo://app?vid=f73a9893-cefd-44ce-95b6-991669d1cf78","ios":"levelo://app?vid=f73a9893-cefd-44ce-95b6-991669d1cf78"},"vehicle_type_id":"4","last_reported":1769621057,"current_range_meters":4000,"station_id":"ce4bgvh2rcd13ifvqcs0","pricing_plan_id":"cebpf4jnsgd1na2vs0mg"},{"bike_id":"725738f1-82fd-49fd-9e47-51637d72c16b","system_id":"levelo_inurba_marseille","lat":43.27999,"lon":5.40011,"is_reserved":false,"is_disabled":false,"rental_uris":{"android":"levelo://app?vid=725738f1-82fd-49fd-9e47-51637d72c16b","ios":"levelo://app?vid=725738f1-82fd-49fd-9e47-51637d72c16b"},"vehicle_type_id":"4","last_reported":1769621057,"current_range_meters":4000,"station_id":"ce4bho92rcd13ifvqh4g","pricing_plan_id":"cebpf4jnsgd1na2vs0mg"},{"bike_id":"19a180bb-a6c0-4673-b0de-6f3a35e7b41c","system_id":"levelo_inurba_marseille","lat":43.30256,"lon":5.40043,"is_reserved":false,"is_disabled":false,"rental_uris":{"android":"levelo://app?vid=19a180bb-a6c0-4673-b0de-6f3a35e7b41c","ios":"levelo://app?vid=19a180bb-a6c0-4673-b0de-6f3a35e7b41c"},"vehicle_type_id":"4","last_reported":1769621057,"current_range_meters":4000,"station_id":"ce4bgvh2rcd13ifvqcs0","pricing_plan_id":"cebpf4jnsgd1na2vs0mg"},{"bike_id":"6fb1f890-5400-474c-8637-4249c14b8e4d","system_id":"levelo_inurba_marseille","lat":43.30138,"lon":5.3878,"is_reserved":false,"is_disabled":false,"rental_uris":{"android":"levelo://app?vid=6fb1f890-5400-474c-8637-4249c14b8e4d","ios":"levelo://app?vid=6fb1f890-5400-474c-8637-4249c14b8e4d"},"vehicle_type_id":"4","last_reported":1769621057,"current_range_meters":4000,"station_id":"ce4bghh2rcd13ifvqb60","pricing_plan_id":"cebpf4jnsgd1na2vs0mg"},{"bike_id":"bf8cdda5-edf5-480b-8aec-863a3c13f006","system_id":"levelo_inurba_marseille","lat":43.249857,"lon":5.404585,"is_reserved":false,"is_disabled":false,"rental_uris":{"android":"levelo://app?vid=bf8cdda5-edf5-480b-8aec-863a3c13f006","ios":"levelo://app?vid=bf8cdda5-edf5-480b-8aec-863a3c13f006"},"vehicle_type_id":"4","last_reported":1769621057,"current_range_meters":4000,"station_id":"st_d2ngiaodas8pm72gd1h0","pricing_plan_id":"cebpf4jnsgd1na2vs0mg"},{"bike_id":"33719f7a-34a9-405d-9fba-7fc26fb034a5","system_id":"levelo_inurba_marseille","lat":43.31059,"lon":5.37162,"is_reserved":false,"is_disabled":false,"rental_uris":{"android":"levelo://app?vid=33719f7a-34a9-405d-9fba-7fc26fb034a5","ios":"levelo://app?vid=33719f7a-34a9-405d-9fba-7fc26fb034a5"},"vehicle_type_id":"4","last_reported":1769621057,"current_range_meters":4000,"station_id":"st_d4kl2rp97mjs73e7tdfg","pricing_plan_id":"cebpf4jnsgd1na2vs0mg"},{"bike_id":"4552afe7-3b89-49b5-bc1f-a95e2a58dbf5","system_id":"levelo_inurba_marseille","lat":43.2256,"lon":5.41634,"is_reserved":false,"is_disabled":false,"rental_uris":{"android":"levelo://app?vid=4552afe7-3b89-49b5-bc1f-a95e2a58dbf5","ios":"levelo://app?vid=4552afe7-3b89-49b5-bc1f-a95e2a58dbf5"},"vehicle_type_id":"4","last_reported":1769621057,"current_range_meters":4000,"station_id":"st_d2o4gvlbi1j2169b742g","pricing_plan_id":"cebpf4jnsgd1na2vs0mg"},{"bike_id":"5b541917-86b0-46e9-b782-3fdbd5f814c3","system_id":"levelo_inurba_marseille","lat":43.27681,"lon":5.38874,"is_reserved":false,"is_disabled":false,"rental_uris":{"android":"levelo://app?vid=5b541917-86b0-46e9-b782-3fdbd5f814c3","ios":"levelo://app?vid=5b541917-86b0-46e9-b782-3fdbd5f814c3"},"vehicle_type_id":"4","last_reported":1769621057,"current_range_meters":4000,"station_id":"ce4bhi12rcd13ifvqfo0","pricing_plan_id":"cebpf4jnsgd1na2vs0mg"},{"bike_id":"38939492-5112-461d-8788-f383260a8286","system_id":"levelo_inurba_marseille","lat":43.33164,"lon":5.37694,"is_reserved":false,"is_disabled":false,"rental_uris":{"android":"levelo://app?vid=38939492-5112-461d-8788-f383260a8286","ios":"levelo://app?vid=38939492-5112-461d-8788-f383260a8286"},"vehicle_type_id":"4","last_reported":1769621057,"current_range_meters":4000,"station_id":"st_d46cu089ee8s73dldbu0","pricing_plan_id":"cebpf4jnsgd1na2vs0mg"},{"bike_id":"958b43fb-8c80-4692-977b-3f50e641a707","system_id":"levelo_inurba_marseille","lat":43.25925,"lon":5.40889,"is_reserved":false,"is_disabled":false,"rental_uris":{"android":"levelo://app?vid=958b43fb-8c80-4692-977b-3f50e641a707","ios":"levelo://app?vid=958b43fb-8c80-4692-977b-3f50e641a707"},"vehicle_type_id":"4","last_reported":1769621057,"current_range_meters":4000,"station_id":"ce4bhm92rcd13ifvqglg","pricing_plan_id":"cebpf4jnsgd1na2vs0mg"},{"bike_id":"e52e03c8-d2a5-4efc-b969-e88b4012aeb8","system_id":"levelo_inurba_marseille","lat":43.30213,"lon":5.39465,"is_reserved":false,"is_disabled":false,"rental_uris":{"android":"levelo://app?vid=e52e03c8-d2a5-4efc-b969-e88b4012aeb8","ios":"levelo://app?vid=e52e03c8-d2a5-4efc-b969-e88b4012aeb8"},"vehicle_type_id":"4","last_reported":1769621057,"current_range_meters":4000,"station_id":"ce4bh0p2rcd13ifvqd70","pricing_plan_id":"cebpf4jnsgd1na2vs0mg"},{"bike_id":"b1ea490b-3476-450b-88b7-eda5ee6e0267","system_id":"levelo_inurba_marseille","lat":43.287296,"lon":5.388522,"is_reserved":false,"is_disabled":false,"rental_uris":{"android":"levelo://app?vid=b1ea490b-3476-450b-88b7-eda5ee6e0267","ios":"levelo://app?vid=b1ea490b-3476-450b-88b7-eda5ee6e0267"},"vehicle_type_id":"4","last_reported":1769621057,"current_range_meters":4000,"station_id":"ce4bh492rcd13ifvqdug","pricing_plan_id":"cebpf4jnsgd1na2vs0mg"},{"bike_id":"2e77998e-c517-4f35-8821-169fc0fea54e","system_id":"levelo_inurba_marseille","lat":43.23205,"lon":5.35543,"is_reserved":false,"is_disabled":false,"rental_uris":{"android":"levelo://app?vid=2e77998e-c517-4f35-8821-169fc0fea54e","ios":"levelo://app?vid=2e77998e-c517-4f35-8821-169fc0fea54e"},"vehicle_type_id":"4","last_reported":1769621057,"current_range_meters":4000,"station_id":"ce4bhu92rcd13ifvqi70","pricing_plan_id":"cebpf4jnsgd1na2vs0mg"},{"bike_id":"8ea2c33e-b9fb-4ef4-a3cb-e30f61c2a22f","system_id":"levelo_inurba_marseille","lat":43.27203,"lon":5.39186,"is_reserved":false,"is_disabled":false,"rental_uris":{"android":"levelo://app?vid=8ea2c33e-b9fb-4ef4-a3cb-e30f61c2a22f","ios":"levelo://app?vid=8ea2c33e-b9fb-4ef4-a3cb-e30f61c2a22f"},"vehicle_type_id":"4","last_reported":1769621057,"current_range_meters":4000,"station_id":"ce4bhhp2rcd13ifvqfm0","pricing_plan_id":"cebpf4jnsgd1na2vs0mg"},{"bike_id":"92ff5efc-92cd-4c5e-9d09-0413ff115055","system_id":"levelo_inurba_marseille","lat":43.28919,"lon":5.36642,"is_reserved":false,"is_disabled":false,"rental_uris":{"android":"levelo://app?vid=92ff5efc-92cd-4c5e-9d09-0413ff115055","ios":"levelo://app?vid=92ff5efc-92cd-4c5e-9d09-0413ff115055"},"vehicle_type_id":"4","last_reported":1769621057,"current_range_meters":4400,"station_id":"ce4bhap2rcd13ifvqek0","pricing_plan_id":"cebpf4jnsgd1na2vs0mg"},{"bike_id":"fa9cdf49-3805-4429-be46-3d158a754724","system_id":"levelo_inurba_marseille","lat":43.31659,"lon":5.37786,"is_reserved":false,"is_disabled":false,"rental_uris":{"android":"levelo://app?vid=fa9cdf49-3805-4429-be46-3d158a754724","ios":"levelo://app?vid=fa9cdf49-3805-4429-be46-3d158a754724"},"vehicle_type_id":"4","last_reported":1769621057,"current_range_meters":4400,"station_id":"ce4bgth2rcd13ifvqch0","pricing_plan_id":"cebpf4jnsgd1na2vs0mg"},{"bike_id":"dfbab481-3b29-4535-a902-fdfcec61e632","system_id":"levelo_inurba_marseille","lat":43.29029,"lon":5.38644,"is_reserved":false,"is_disabled":false,"rental_uris":{"android":"levelo://app?vid=dfbab481-3b29-4535-a902-fdfcec61e632","ios":"levelo://app?vid=dfbab481-3b29-4535-a902-fdfcec61e632"},"vehicle_type_id":"4","last_reported":1769621057,"current_range_meters":4400,"station_id":"ce4bh4p2rcd13ifvqe0g","pricing_plan_id":"cebpf4jnsgd1na2vs0mg"},{"bike_id":"507ed95f-36d7-4f82-88e8-a95960caf220","system_id":"levelo_inurba_marseille","lat":43.291,"lon":5.38136,"is_reserved":false,"is_disabled":false,"rental_uris":{"android":"levelo://app?vid=507ed95f-36d7-4f82-88e8-a95960caf220","ios":"levelo://app?vid=507ed95f-36d7-4f82-88e8-a95960caf220"},"vehicle_type_id":"4","last_reported":1769621057,"current_range_meters":4400,"station_id":"ce4bh512rcd13ifvqe2g","pricing_plan_id":"cebpf4jnsgd1na2vs0mg"},{"bike_id":"d2c4eb74-42b0-4647-9a1a-00c8b86dfe4c","system_id":"levelo_inurba_marseille","lat":43.25828,"lon":5.39423,"is_reserved":false,"is_disabled":false,"rental_uris":{"android":"levelo://app?vid=d2c4eb74-42b0-4647-9a1a-00c8b86dfe4c","ios":"levelo://app?vid=d2c4eb74-42b0-4647-9a1a-00c8b86dfe4c"},"vehicle_type_id":"4","last_reported":1769621057,"current_range_meters":4400,"station_id":"ce4bhip2rcd13ifvqft0","pricing_plan_id":"cebpf4jnsgd1na2vs0mg"},{"bike_id":"771ba116-739e-49c8-b5c0-d4813bce661d","system_id":"levelo_inurba_marseille","lat":43.26367,"lon":5.41081,"is_reserved":false,"is_disabled":false,"rental_uris":{"android":"levelo://app?vid=771ba116-739e-49c8-b5c0-d4813bce661d","ios":"levelo://app?vid=771ba116-739e-49c8-b5c0-d4813bce661d"},"vehicle_type_id":"4","last_reported":1769621057,"current_range_meters":4400,"station_id":"st_d4e5ca6na9uc73bfl5fg","pricing_plan_id":"cebpf4jnsgd1na2vs0mg"},{"bike_id":"832ba7eb-1c35-43cb-be63-61f58639df63","system_id":"levelo_inurba_marseille","lat":43.32351,"lon":5.36733,"is_reserved":false,"is_disabled":false,"rental_uris":{"android":"levelo://app?vid=832ba7eb-1c35-43cb-be63-61f58639df63","ios":"levelo://app?vid=832ba7eb-1c35-43cb-be63-61f58639df63"},"vehicle_type_id":"4","last_reported":1769621057,"current_range_meters":4400,"station_id":"ce4bhsh2rcd13ifvqi2g","pricing_plan_id":"cebpf4jnsgd1na2vs0mg"},{"bike_id":"37c30b6b-59f5-49b9-9e40-77ff5b67bccc","system_id":"levelo_inurba_marseille","lat":43.25119,"lon":5.40316,"is_reserved":false,"is_disabled":false,"rental_uris":{"android":"levelo://app?vid=37c30b6b-59f5-49b9-9e40-77ff5b67bccc","ios":"levelo://app?vid=37c30b6b-59f5-49b9-9e40-77ff5b67bccc"},"vehicle_type_id":"4","last_reported":1769621057,"current_range_meters":4400,"station_id":"ce4bhlh2rcd13ifvqgig","pricing_plan_id":"cebpf4jnsgd1na2vs0mg"},{"bike_id":"5204475b-2a81-4751-94d0-9c433ad9057c","system_id":"levelo_inurba_marseille","lat":43.270715,"lon":5.422874,"is_reserved":false,"is_disabled":false,"rental_uris":{"android":"levelo://app?vid=5204475b-2a81-4751-94d0-9c433ad9057c","ios":"levelo://app?vid=5204475b-2a81-4751-94d0-9c433ad9057c"},"vehicle_type_id":"4","last_reported":1769621057,"current_range_meters":4400,"station_id":"ce4bhk92rcd13ifvqgb0","pricing_plan_id":"cebpf4jnsgd1na2vs0mg"},{"bike_id":"30d5ad6b-daa5-4699-ad03-8950354a49a5","system_id":"levelo_inurba_marseille","lat":43.32137,"lon":5.36776,"is_reserved":false,"is_disabled":false,"rental_uris":{"android":"levelo://app?vid=30d5ad6b-daa5-4699-ad03-8950354a49a5","ios":"levelo://app?vid=30d5ad6b-daa5-4699-ad03-8950354a49a5"},"vehicle_type_id":"4","last_reported":1769621057,"current_range_meters":4400,"station_id":"ce4bhrh2rcd13ifvqhug","pricing_plan_id":"cebpf4jnsgd1na2vs0mg"},{"bike_id":"c3d14e3c-dfbc-4018-87cd-fd08d569fafd","system_id":"levelo_inurba_marseille","lat":43.30428,"lon":5.38884,"is_reserved":false,"is_disabled":false,"rental_uris":{"android":"levelo://app?vid=c3d14e3c-dfbc-4018-87cd-fd08d569fafd","ios":"levelo://app?vid=c3d14e3c-dfbc-4018-87cd-fd08d569fafd"},"vehicle_type_id":"4","last_reported":1769621057,"current_range_meters":4400,"station_id":"ce4bgk12rcd13ifvqbi0","pricing_plan_id":"cebpf4jnsgd1na2vs0mg"},{"bike_id":"01581b98-67ff-4bcc-9ddb-c3ce91143905","system_id":"levelo_inurba_marseille","lat":43.31196,"lon":5.39139,"is_reserved":false,"is_disabled":false,"rental_uris":{"android":"levelo://app?vid=01581b98-67ff-4bcc-9ddb-c3ce91143905","ios":"levelo://app?vid=01581b98-67ff-4bcc-9ddb-c3ce91143905"},"vehicle_type_id":"4","last_reported":1769621057,"current_range_meters":4800,"station_id":"","pricing_plan_id":"cebpf4jnsgd1na2vs0mg"},{"bike_id":"722198a9-b8c3-4c71-9e87-95386f631c25","system_id":"levelo_inurba_marseille","lat":43.30327,"lon":5.40428,"is_reserved":false,"is_disabled":false,"rental_uris":{"android":"levelo://app?vid=722198a9-b8c3-4c71-9e87-95386f631c25","ios":"levelo://app?vid=722198a9-b8c3-4c71-9e87-95386f631c25"},"vehicle_type_id":"4","last_reported":1769621057,"current_range_meters":4800,"station_id":"ce4bh012rcd13ifvqd10","pricing_plan_id":"cebpf4jnsgd1na2vs0mg"},{"bike_id":"fe070439-8026-4da8-8932-8c1556f39a2f","system_id":"levelo_inurba_marseille","lat":43.336089,"lon":5.410386,"is_reserved":false,"is_disabled":false,"rental_uris":{"android":"levelo://app?vid=fe070439-8026-4da8-8932-8c1556f39a2f","ios":"levelo://app?vid=fe070439-8026-4da8-8932-8c1556f39a2f"},"vehicle_type_id":"4","last_reported":1769621057,"current_range_meters":4800,"station_id":"ce4bhh92rcd13ifvqfi0","pricing_plan_id":"cebpf4jnsgd1na2vs0mg"},{"bike_id":"8de525a9-5bd3-43a9-9291-a02ed36bbc58","system_id":"levelo_inurba_marseille","lat":43.33158,"lon":5.37702,"is_reserved":false,"is_disabled":false,"rental_uris":{"android":"levelo://app?vid=8de525a9-5bd3-43a9-9291-a02ed36bbc58","ios":"levelo://app?vid=8de525a9-5bd3-43a9-9291-a02ed36bbc58"},"vehicle_type_id":"4","last_reported":1769621057,"current_range_meters":4800,"station_id":"st_d46cu089ee8s73dldbu0","pricing_plan_id":"cebpf4jnsgd1na2vs0mg"},{"bike_id":"c1898a7c-c9bc-4047-bb0b-eb0d5b1539e7","system_id":"levelo_inurba_marseille","lat":43.29525,"lon":5.39048,"is_reserved":false,"is_disabled":false,"rental_uris":{"android":"levelo://app?vid=c1898a7c-c9bc-4047-bb0b-eb0d5b1539e7","ios":"levelo://app?vid=c1898a7c-c9bc-4047-bb0b-eb0d5b1539e7"},"vehicle_type_id":"4","last_reported":1769621057,"current_range_meters":4800,"station_id":"ce4bh3p2rcd13ifvqdp0","pricing_plan_id":"cebpf4jnsgd1na2vs0mg"},{"bike_id":"82a6b099-0577-4798-9a60-21fb38c2bbb7","system_id":"levelo_inurba_marseille","lat":43.29813,"lon":5.44062,"is_reserved":false,"is_disabled":false,"rental_uris":{"android":"levelo://app?vid=82a6b099-0577-4798-9a60-21fb38c2bbb7","ios":"levelo://app?vid=82a6b099-0577-4798-9a60-21fb38c2bbb7"},"vehicle_type_id":"4","last_reported":1769621057,"current_range_meters":5600,"station_id":"st_d3jp68qikq2c7381ktn0","pricing_plan_id":"cebpf4jnsgd1na2vs0mg"},{"bike_id":"66ae6aa3-2353-4f94-bc9f-582095c3183b","system_id":"levelo_inurba_marseille","lat":43.26501,"lon":5.39536,"is_reserved":false,"is_disabled":false,"rental_uris":{"android":"levelo://app?vid=66ae6aa3-2353-4f94-bc9f-582095c3183b","ios":"levelo://app?vid=66ae6aa3-2353-4f94-bc9f-582095c3183b"},"vehicle_type_id":"4","last_reported":1769621057,"current_range_meters":5600,"station_id":"ce4bhi12rcd13ifvqfq0","pricing_plan_id":"cebpf4jnsgd1na2vs0mg"},{"bike_id":"09868c66-527a-496a-b9b4-d140641c18af","system_id":"levelo_inurba_marseille","lat":43.29537,"lon":5.37472,"is_reserved":false,"is_disabled":false,"rental_uris":{"android":"levelo://app?vid=09868c66-527a-496a-b9b4-d140641c18af","ios":"levelo://app?vid=09868c66-527a-496a-b9b4-d140641c18af"},"vehicle_type_id":"4","last_reported":1769621057,"current_range_meters":5600,"station_id":"ce4bgkp2rcd13ifvqbmg","pricing_plan_id":"cebpf4jnsgd1na2vs0mg"},{"bike_id":"0994699c-2493-4cc2-b13f-c5567f29cfd1","system_id":"levelo_inurba_marseille","lat":43.2511,"lon":5.40318,"is_reserved":false,"is_disabled":false,"rental_uris":{"android":"levelo://app?vid=0994699c-2493-4cc2-b13f-c5567f29cfd1","ios":"levelo://app?vid=0994699c-2493-4cc2-b13f-c5567f29cfd1"},"vehicle_type_id":"4","last_reported":1769621057,"current_range_meters":5600,"station_id":"ce4bhlh2rcd13ifvqgig","pricing_plan_id":"cebpf4jnsgd1na2vs0mg"},{"bike_id":"7040bdbc-5052-46fd-9d78-6fb9765e379a","system_id":"levelo_inurba_marseille","lat":43.23969,"lon":5.36634,"is_reserved":false,"is_disabled":false,"rental_uris":{"android":"levelo://app?vid=7040bdbc-5052-46fd-9d78-6fb9765e379a","ios":"levelo://app?vid=7040bdbc-5052-46fd-9d78-6fb9765e379a"},"vehicle_type_id":"4","last_reported":1769621057,"current_range_meters":5600,"station_id":"ce4bhi12rcd13ifvqfp0","pricing_plan_id":"cebpf4jnsgd1na2vs0mg"},{"bike_id":"32611a2f-92d2-4238-b2cc-559d99eb02ae","system_id":"levelo_inurba_marseille","lat":43.298133,"lon":5.38115,"is_reserved":false,"is_disabled":false,"rental_uris":{"android":"levelo://app?vid=32611a2f-92d2-4238-b2cc-559d99eb02ae","ios":"levelo://app?vid=32611a2f-92d2-4238-b2cc-559d99eb02ae"},"vehicle_type_id":"4","last_reported":1769621057,"current_range_meters":5600,"station_id":"","pricing_plan_id":"cebpf4jnsgd1na2vs0mg"},{"bike_id":"3aaa97e8-6cbb-46f2-8298-95220655c5c8","system_id":"levelo_inurba_marseille","lat":43.28475,"lon":5.48387,"is_reserved":false,"is_disabled":false,"rental_uris":{"android":"levelo://app?vid=3aaa97e8-6cbb-46f2-8298-95220655c5c8","ios":"levelo://app?vid=3aaa97e8-6cbb-46f2-8298-95220655c5c8"},"vehicle_type_id":"4","last_reported":1769621057,"current_range_meters":5600,"station_id":"st_d3svhcjqgbts73a3dn0g","pricing_plan_id":"cebpf4jnsgd1na2vs0mg"},{"bike_id":"d79437b2-ca90-408e-b855-945384ebb401","system_id":"levelo_inurba_marseille","lat":43.25526,"lon":5.3765,"is_reserved":false,"is_disabled":false,"rental_uris":{"android":"levelo://app?vid=d79437b2-ca90-408e-b855-945384ebb401","ios":"levelo://app?vid=d79437b2-ca90-408e-b855-945384ebb401"},"vehicle_type_id":"4","last_reported":1769621057,"current_range_meters":5600,"station_id":"ce4bhh12rcd13ifvqff0","pricing_plan_id":"cebpf4jnsgd1na2vs0mg"},{"bike_id":"d6768d42-fb38-48ae-91be-7882e37e2628","system_id":"levelo_inurba_marseille","lat":43.2928,"lon":5.40119,"is_reserved":false,"is_disabled":false,"rental_uris":{"android":"levelo://app?vid=d6768d42-fb38-48ae-91be-7882e37e2628","ios":"levelo://app?vid=d6768d42-fb38-48ae-91be-7882e37e2628"},"vehicle_type_id":"4","last_reported":1769621057,"current_range_meters":5600,"station_id":"ce4bh312rcd13ifvqdk0","pricing_plan_id":"cebpf4jnsgd1na2vs0mg"},{"bike_id":"8a063305-f0b6-4a0d-93a8-e684e5e4a7d9","system_id":"levelo_inurba_marseille","lat":43.24807,"lon":5.37444,"is_reserved":false,"is_disabled":false,"rental_uris":{"android":"levelo://app?vid=8a063305-f0b6-4a0d-93a8-e684e5e4a7d9","ios":"levelo://app?vid=8a063305-f0b6-4a0d-93a8-e684e5e4a7d9"},"vehicle_type_id":"4","last_reported":1769621057,"current_range_meters":5600,"station_id":"ce4bhgh2rcd13ifvqfb0","pricing_plan_id":"cebpf4jnsgd1na2vs0mg"},{"bike_id":"87ce2f72-7d22-4e3e-b26e-f84fd6be39ac","system_id":"levelo_inurba_marseille","lat":43.27938,"lon":5.41039,"is_reserved":false,"is_disabled":false,"rental_uris":{"android":"levelo://app?vid=87ce2f72-7d22-4e3e-b26e-f84fd6be39ac","ios":"levelo://app?vid=87ce2f72-7d22-4e3e-b26e-f84fd6be39ac"},"vehicle_type_id":"4","last_reported":1769621057,"current_range_meters":5600,"station_id":"ce4bhnp2rcd13ifvqh0g","pricing_plan_id":"cebpf4jnsgd1na2vs0mg"},{"bike_id":"2eef0bdf-c04e-4cb1-9822-8bdb3bc82798","system_id":"levelo_inurba_marseille","lat":43.29805,"lon":5.38097,"is_reserved":false,"is_disabled":false,"rental_uris":{"android":"levelo://app?vid=2eef0bdf-c04e-4cb1-9822-8bdb3bc82798","ios":"levelo://app?vid=2eef0bdf-c04e-4cb1-9822-8bdb3bc82798"},"vehicle_type_id":"4","last_reported":1769621057,"current_range_meters":5600,"station_id":"ce4bgip2rcd13ifvqbb0","pricing_plan_id":"cebpf4jnsgd1na2vs0mg"},{"bike_id":"f93ffaa3-894c-4888-9646-8f8b1680caaf","system_id":"levelo_inurba_marseille","lat":43.26069,"lon":5.39389,"is_reserved":false,"is_disabled":false,"rental_uris":{"android":"levelo://app?vid=f93ffaa3-894c-4888-9646-8f8b1680caaf","ios":"levelo://app?vid=f93ffaa3-894c-4888-9646-8f8b1680caaf"},"vehicle_type_id":"4","last_reported":1769621057,"current_range_meters":5600,"station_id":"ce4bhh92rcd13ifvqfj0","pricing_plan_id":"cebpf4jnsgd1na2vs0mg"},{"bike_id":"ae271546-2414-45b9-8ca1-cf52daa669c2","system_id":"levelo_inurba_marseille","lat":43.2534,"lon":5.42173,"is_reserved":false,"is_disabled":false,"rental_uris":{"android":"levelo://app?vid=ae271546-2414-45b9-8ca1-cf52daa669c2","ios":"levelo://app?vid=ae271546-2414-45b9-8ca1-cf52daa669c2"},"vehicle_type_id":"4","last_reported":1769621057,"current_range_meters":5600,"station_id":"st_d2m65c5bi1j21697t3ng","pricing_plan_id":"cebpf4jnsgd1na2vs0mg"},{"bike_id":"5432d7a0-1700-4fbb-98da-e9587b56686e","system_id":"levelo_inurba_marseille","lat":43.27621,"lon":5.36105,"is_reserved":false,"is_disabled":false,"rental_uris":{"android":"levelo://app?vid=5432d7a0-1700-4fbb-98da-e9587b56686e","ios":"levelo://app?vid=5432d7a0-1700-4fbb-98da-e9587b56686e"},"vehicle_type_id":"4","last_reported":1769621057,"current_range_meters":6000,"station_id":"ce4bgj92rcd13ifvqbe0","pricing_plan_id":"cebpf4jnsgd1na2vs0mg"},{"bike_id":"2be9839d-9263-4b42-a741-2b053de40991","system_id":"levelo_inurba_marseille","lat":43.28722,"lon":5.36093,"is_reserved":false,"is_disabled":false,"rental_uris":{"android":"levelo://app?vid=2be9839d-9263-4b42-a741-2b053de40991","ios":"levelo://app?vid=2be9839d-9263-4b42-a741-2b053de40991"},"vehicle_type_id":"4","last_reported":1769621057,"current_range_meters":6000,"station_id":"cki0cbj6b192h4jlfktg","pricing_plan_id":"cebpf4jnsgd1na2vs0mg"},{"bike_id":"85165d95-55d2-4d6a-ba10-247f7996ac24","system_id":"levelo_inurba_marseille","lat":43.25332,"lon":5.42175,"is_reserved":false,"is_disabled":true,"rental_uris":{"android":"levelo://app?vid=85165d95-55d2-4d6a-ba10-247f7996ac24","ios":"levelo://app?vid=85165d95-55d2-4d6a-ba10-247f7996ac24"},"vehicle_type_id":"4","last_reported":1769621057,"current_range_meters":6000,"station_id":"st_d2m65c5bi1j21697t3ng","pricing_plan_id":"cebpf4jnsgd1na2vs0mg"},{"bike_id":"c05dd82c-c313-4155-97d6-b2845c2b674b","system_id":"levelo_inurba_marseille","lat":43.3064,"lon":5.40088,"is_reserved":false,"is_disabled":false,"rental_uris":{"android":"levelo://app?vid=c05dd82c-c313-4155-97d6-b2845c2b674b","ios":"levelo://app?vid=c05dd82c-c313-4155-97d6-b2845c2b674b"},"vehicle_type_id":"4","last_reported":1769621057,"current_range_meters":6000,"station_id":"ce4bh112rcd13ifvqda0","pricing_plan_id":"cebpf4jnsgd1na2vs0mg"},{"bike_id":"83fc51a6-33d8-4514-8bb6-691df6dd60b4","system_id":"levelo_inurba_marseille","lat":43.301238,"lon":5.431267,"is_reserved":false,"is_disabled":false,"rental_uris":{"android":"levelo://app?vid=83fc51a6-33d8-4514-8bb6-691df6dd60b4","ios":"levelo://app?vid=83fc51a6-33d8-4514-8bb6-691df6dd60b4"},"vehicle_type_id":"4","last_reported":1769621057,"current_range_meters":6000,"station_id":"st_d3js3co5814s73ftftug","pricing_plan_id":"cebpf4jnsgd1na2vs0mg"},{"bike_id":"edcf7268-9037-4d86-a040-f29b3b6258a5","system_id":"levelo_inurba_marseille","lat":43.32467,"lon":5.36567,"is_reserved":false,"is_disabled":false,"rental_uris":{"android":"levelo://app?vid=edcf7268-9037-4d86-a040-f29b3b6258a5","ios":"levelo://app?vid=edcf7268-9037-4d86-a040-f29b3b6258a5"},"vehicle_type_id":"4","last_reported":1769621057,"current_range_meters":6000,"station_id":"ce4bhs12rcd13ifvqhvg","pricing_plan_id":"cebpf4jnsgd1na2vs0mg"},{"bike_id":"53b5bea4-ab8b-497c-9929-d8f0d02f189b","system_id":"levelo_inurba_marseille","lat":43.27,"lon":5.39248,"is_reserved":false,"is_disabled":false,"rental_uris":{"android":"levelo://app?vid=53b5bea4-ab8b-497c-9929-d8f0d02f189b","ios":"levelo://app?vid=53b5bea4-ab8b-497c-9929-d8f0d02f189b"},"vehicle_type_id":"4","last_reported":1769621057,"current_range_meters":6000,"station_id":"","pricing_plan_id":"cebpf4jnsgd1na2vs0mg"},{"bike_id":"66a9efd0-01de-4cac-ae4f-a848ca6a2a1d","system_id":"levelo_inurba_marseille","lat":43.26813,"lon":5.40244,"is_reserved":false,"is_disabled":false,"rental_uris":{"android":"levelo://app?vid=66a9efd0-01de-4cac-ae4f-a848ca6a2a1d","ios":"levelo://app?vid=66a9efd0-01de-4cac-ae4f-a848ca6a2a1d"},"vehicle_type_id":"4","last_reported":1769621057,"current_range_meters":6000,"station_id":"ce501612rcd8frsf0b60","pricing_plan_id":"cebpf4jnsgd1na2vs0mg"},{"bike_id":"69015cf3-bc6b-446f-9be5-f6f422a1478d","system_id":"levelo_inurba_marseille","lat":43.28861,"lon":5.42505,"is_reserved":false,"is_disabled":false,"rental_uris":{"android":"levelo://app?vid=69015cf3-bc6b-446f-9be5-f6f422a1478d","ios":"levelo://app?vid=69015cf3-bc6b-446f-9be5-f6f422a1478d"},"vehicle_type_id":"4","last_reported":1769621057,"current_range_meters":6000,"station_id":"st_d3b462108ojc7389ooeg","pricing_plan_id":"cebpf4jnsgd1na2vs0mg"},{"bike_id":"dd025a3b-8d88-4cc7-98ea-d46d5c91c806","system_id":"levelo_inurba_marseille","lat":43.27184,"lon":5.40998,"is_reserved":false,"is_disabled":false,"rental_uris":{"android":"levelo://app?vid=dd025a3b-8d88-4cc7-98ea-d46d5c91c806","ios":"levelo://app?vid=dd025a3b-8d88-4cc7-98ea-d46d5c91c806"},"vehicle_type_id":"4","last_reported":1769621057,"current_range_meters":6000,"station_id":"ce4bhl12rcd13ifvqgf0","pricing_plan_id":"cebpf4jnsgd1na2vs0mg"},{"bike_id":"8e605c7c-a289-4860-970e-e9553ff10db2","system_id":"levelo_inurba_marseille","lat":43.28605,"lon":5.38493,"is_reserved":false,"is_disabled":false,"rental_uris":{"android":"levelo://app?vid=8e605c7c-a289-4860-970e-e9553ff10db2","ios":"levelo://app?vid=8e605c7c-a289-4860-970e-e9553ff10db2"},"vehicle_type_id":"4","last_reported":1769621057,"current_range_meters":6000,"station_id":"","pricing_plan_id":"cebpf4jnsgd1na2vs0mg"},{"bike_id":"1c28b0bd-3eca-46f6-a58a-d76a26f70029","system_id":"levelo_inurba_marseille","lat":43.25589,"lon":5.38228,"is_reserved":false,"is_disabled":false,"rental_uris":{"android":"levelo://app?vid=1c28b0bd-3eca-46f6-a58a-d76a26f70029","ios":"levelo://app?vid=1c28b0bd-3eca-46f6-a58a-d76a26f70029"},"vehicle_type_id":"4","last_reported":1769621057,"current_range_meters":6400,"station_id":"ce4bhih2rcd13ifvqfs0","pricing_plan_id":"cebpf4jnsgd1na2vs0mg"},{"bike_id":"2b025830-a75f-4dd0-9345-1f4a2853b8f8","system_id":"levelo_inurba_marseille","lat":43.32357,"lon":5.36739,"is_reserved":false,"is_disabled":false,"rental_uris":{"android":"levelo://app?vid=2b025830-a75f-4dd0-9345-1f4a2853b8f8","ios":"levelo://app?vid=2b025830-a75f-4dd0-9345-1f4a2853b8f8"},"vehicle_type_id":"4","last_reported":1769621057,"current_range_meters":6400,"station_id":"ce4bhsh2rcd13ifvqi2g","pricing_plan_id":"cebpf4jnsgd1na2vs0mg"},{"bike_id":"fff0c342-16ad-44e8-9620-e201fc256991","system_id":"levelo_inurba_marseille","lat":43.27808,"lon":5.40715,"is_reserved":false,"is_disabled":false,"rental_uris":{"android":"levelo://app?vid=fff0c342-16ad-44e8-9620-e201fc256991","ios":"levelo://app?vid=fff0c342-16ad-44e8-9620-e201fc256991"},"vehicle_type_id":"4","last_reported":1769621057,"current_range_meters":6400,"station_id":"ce4bhnh2rcd13ifvqgtg","pricing_plan_id":"cebpf4jnsgd1na2vs0mg"},{"bike_id":"eb67688e-76c8-4a65-815c-e4c4f42924a9","system_id":"levelo_inurba_marseille","lat":43.279949,"lon":5.400037,"is_reserved":false,"is_disabled":false,"rental_uris":{"android":"levelo://app?vid=eb67688e-76c8-4a65-815c-e4c4f42924a9","ios":"levelo://app?vid=eb67688e-76c8-4a65-815c-e4c4f42924a9"},"vehicle_type_id":"4","last_reported":1769621057,"current_range_meters":6400,"station_id":"ce4bho92rcd13ifvqh4g","pricing_plan_id":"cebpf4jnsgd1na2vs0mg"},{"bike_id":"7f17d0e0-c551-448a-9a02-7034a1e1a800","system_id":"levelo_inurba_marseille","lat":43.28693,"lon":5.3866,"is_reserved":false,"is_disabled":false,"rental_uris":{"android":"levelo://app?vid=7f17d0e0-c551-448a-9a02-7034a1e1a800","ios":"levelo://app?vid=7f17d0e0-c551-448a-9a02-7034a1e1a800"},"vehicle_type_id":"4","last_reported":1769621057,"current_range_meters":6400,"station_id":"ce4bh492rcd13ifvqdug","pricing_plan_id":"cebpf4jnsgd1na2vs0mg"},{"bike_id":"71474573-e139-42f3-bf94-d0fc6a99c0c9","system_id":"levelo_inurba_marseille","lat":43.28122,"lon":5.42635,"is_reserved":false,"is_disabled":false,"rental_uris":{"android":"levelo://app?vid=71474573-e139-42f3-bf94-d0fc6a99c0c9","ios":"levelo://app?vid=71474573-e139-42f3-bf94-d0fc6a99c0c9"},"vehicle_type_id":"4","last_reported":1769621057,"current_range_meters":6400,"station_id":"ce4bhnh2rcd13ifvqgug","pricing_plan_id":"cebpf4jnsgd1na2vs0mg"},{"bike_id":"7c70a630-f080-4d65-8f79-af323dbedc62","system_id":"levelo_inurba_marseille","lat":43.3012,"lon":5.43081,"is_reserved":false,"is_disabled":false,"rental_uris":{"android":"levelo://app?vid=7c70a630-f080-4d65-8f79-af323dbedc62","ios":"levelo://app?vid=7c70a630-f080-4d65-8f79-af323dbedc62"},"vehicle_type_id":"4","last_reported":1769621057,"current_range_meters":6400,"station_id":"st_d3js3co5814s73ftftug","pricing_plan_id":"cebpf4jnsgd1na2vs0mg"},{"bike_id":"9e3afa06-a8af-4bd7-9c59-7be5a76fb303","system_id":"levelo_inurba_marseille","lat":43.28717,"lon":5.37942,"is_reserved":false,"is_disabled":false,"rental_uris":{"android":"levelo://app?vid=9e3afa06-a8af-4bd7-9c59-7be5a76fb303","ios":"levelo://app?vid=9e3afa06-a8af-4bd7-9c59-7be5a76fb303"},"vehicle_type_id":"4","last_reported":1769621057,"current_range_meters":6400,"station_id":"ce4bh9p2rcd13ifvqec0","pricing_plan_id":"cebpf4jnsgd1na2vs0mg"},{"bike_id":"72089be9-38d6-423c-b54b-444cdb64406b","system_id":"levelo_inurba_marseille","lat":43.28426,"lon":5.34978,"is_reserved":false,"is_disabled":false,"rental_uris":{"android":"levelo://app?vid=72089be9-38d6-423c-b54b-444cdb64406b","ios":"levelo://app?vid=72089be9-38d6-423c-b54b-444cdb64406b"},"vehicle_type_id":"4","last_reported":1769621057,"current_range_meters":6400,"station_id":"ce4bhbh2rcd13ifvqepg","pricing_plan_id":"cebpf4jnsgd1na2vs0mg"},{"bike_id":"930c65a4-41b5-4fde-b2c8-b090ce1093d6","system_id":"levelo_inurba_marseille","lat":43.2845,"lon":5.35881,"is_reserved":false,"is_disabled":false,"rental_uris":{"android":"levelo://app?vid=930c65a4-41b5-4fde-b2c8-b090ce1093d6","ios":"levelo://app?vid=930c65a4-41b5-4fde-b2c8-b090ce1093d6"},"vehicle_type_id":"4","last_reported":1769621057,"current_range_meters":6400,"station_id":"ce4bhah2rcd13ifvqei0","pricing_plan_id":"cebpf4jnsgd1na2vs0mg"},{"bike_id":"fc7d0375-7a69-418a-b8eb-0a8fbf3eb6f6","system_id":"levelo_inurba_marseille","lat":43.26553,"lon":5.38998,"is_reserved":false,"is_disabled":false,"rental_uris":{"android":"levelo://app?vid=fc7d0375-7a69-418a-b8eb-0a8fbf3eb6f6","ios":"levelo://app?vid=fc7d0375-7a69-418a-b8eb-0a8fbf3eb6f6"},"vehicle_type_id":"4","last_reported":1769621057,"current_range_meters":6400,"station_id":"ce4bhe12rcd13ifvqf30","pricing_plan_id":"cebpf4jnsgd1na2vs0mg"},{"bike_id":"cd737560-f7db-4070-9139-519c55f31a04","system_id":"levelo_inurba_marseille","lat":43.23196,"lon":5.39992,"is_reserved":false,"is_disabled":false,"rental_uris":{"android":"levelo://app?vid=cd737560-f7db-4070-9139-519c55f31a04","ios":"levelo://app?vid=cd737560-f7db-4070-9139-519c55f31a04"},"vehicle_type_id":"4","last_reported":1769621057,"current_range_meters":6400,"station_id":"ce4bhn12rcd13ifvqgqg","pricing_plan_id":"cebpf4jnsgd1na2vs0mg"},{"bike_id":"f48c1f6e-0473-4847-8c29-30c8ea2f18f5","system_id":"levelo_inurba_marseille","lat":43.29484,"lon":5.43317,"is_reserved":false,"is_disabled":false,"rental_uris":{"android":"levelo://app?vid=f48c1f6e-0473-4847-8c29-30c8ea2f18f5","ios":"levelo://app?vid=f48c1f6e-0473-4847-8c29-30c8ea2f18f5"},"vehicle_type_id":"4","last_reported":1769621057,"current_range_meters":6400,"station_id":"st_d3j5ugp08ojc73fj9d10","pricing_plan_id":"cebpf4jnsgd1na2vs0mg"},{"bike_id":"fa4f137b-a5cd-4c21-a300-5864eb1e4bc1","system_id":"levelo_inurba_marseille","lat":43.27967,"lon":5.38681,"is_reserved":false,"is_disabled":true,"rental_uris":{"android":"levelo://app?vid=fa4f137b-a5cd-4c21-a300-5864eb1e4bc1","ios":"levelo://app?vid=fa4f137b-a5cd-4c21-a300-5864eb1e4bc1"},"vehicle_type_id":"4","last_reported":1769621057,"current_range_meters":6400,"station_id":"ce4bhg12rcd13ifvqf80","pricing_plan_id":"cebpf4jnsgd1na2vs0mg"},{"bike_id":"af873c1d-cae3-4847-bba1-48ab27b0e9c1","system_id":"levelo_inurba_marseille","lat":43.28152,"lon":5.42634,"is_reserved":false,"is_disabled":false,"rental_uris":{"android":"levelo://app?vid=af873c1d-cae3-4847-bba1-48ab27b0e9c1","ios":"levelo://app?vid=af873c1d-cae3-4847-bba1-48ab27b0e9c1"},"vehicle_type_id":"4","last_reported":1769621057,"current_range_meters":6400,"station_id":"ce4bhnh2rcd13ifvqgug","pricing_plan_id":"cebpf4jnsgd1na2vs0mg"},{"bike_id":"74814f0f-6577-4e96-bd95-e1a51a0cf9e0","system_id":"levelo_inurba_marseille","lat":43.30601,"lon":5.37232,"is_reserved":false,"is_disabled":false,"rental_uris":{"android":"levelo://app?vid=74814f0f-6577-4e96-bd95-e1a51a0cf9e0","ios":"levelo://app?vid=74814f0f-6577-4e96-bd95-e1a51a0cf9e0"},"vehicle_type_id":"4","last_reported":1769621057,"current_range_meters":6400,"station_id":"ce4bgqh2rcd13ifvqc4g","pricing_plan_id":"cebpf4jnsgd1na2vs0mg"},{"bike_id":"5a4c02b9-825f-46d9-9ab2-c821bfefacdc","system_id":"levelo_inurba_marseille","lat":43.27422,"lon":5.39416,"is_reserved":false,"is_disabled":false,"rental_uris":{"android":"levelo://app?vid=5a4c02b9-825f-46d9-9ab2-c821bfefacdc","ios":"levelo://app?vid=5a4c02b9-825f-46d9-9ab2-c821bfefacdc"},"vehicle_type_id":"4","last_reported":1769621057,"current_range_meters":6400,"station_id":"ce4bhdp2rcd13ifvqf20","pricing_plan_id":"cebpf4jnsgd1na2vs0mg"},{"bike_id":"3f523c2b-ddde-4faa-8cd3-009b988feb78","system_id":"levelo_inurba_marseille","lat":43.26937,"lon":5.40256,"is_reserved":false,"is_disabled":false,"rental_uris":{"android":"levelo://app?vid=3f523c2b-ddde-4faa-8cd3-009b988feb78","ios":"levelo://app?vid=3f523c2b-ddde-4faa-8cd3-009b988feb78"},"vehicle_type_id":"4","last_reported":1769621057,"current_range_meters":6400,"station_id":"cjm6bp8fraef2m0cb0m0","pricing_plan_id":"cebpf4jnsgd1na2vs0mg"},{"bike_id":"34e4ffb8-2cc5-4b74-9e94-1535ee81ef08","system_id":"levelo_inurba_marseille","lat":43.30288,"lon":5.37717,"is_reserved":false,"is_disabled":false,"rental_uris":{"android":"levelo://app?vid=34e4ffb8-2cc5-4b74-9e94-1535ee81ef08","ios":"levelo://app?vid=34e4ffb8-2cc5-4b74-9e94-1535ee81ef08"},"vehicle_type_id":"4","last_reported":1769621057,"current_range_meters":6400,"station_id":"ce4bguh2rcd13ifvqcj0","pricing_plan_id":"cebpf4jnsgd1na2vs0mg"},{"bike_id":"a31218b5-45f9-4cee-ae20-3afb077962a4","system_id":"levelo_inurba_marseille","lat":43.26709,"lon":5.38231,"is_reserved":false,"is_disabled":false,"rental_uris":{"android":"levelo://app?vid=a31218b5-45f9-4cee-ae20-3afb077962a4","ios":"levelo://app?vid=a31218b5-45f9-4cee-ae20-3afb077962a4"},"vehicle_type_id":"4","last_reported":1769621057,"current_range_meters":6400,"station_id":"ce4bhg92rcd13ifvqf90","pricing_plan_id":"cebpf4jnsgd1na2vs0mg"},{"bike_id":"b519bc17-e693-4595-a4db-151d92295964","system_id":"levelo_inurba_marseille","lat":43.29282,"lon":5.37452,"is_reserved":false,"is_disabled":false,"rental_uris":{"android":"levelo://app?vid=b519bc17-e693-4595-a4db-151d92295964","ios":"levelo://app?vid=b519bc17-e693-4595-a4db-151d92295964"},"vehicle_type_id":"4","last_reported":1769621057,"current_range_meters":6800,"station_id":"ce4bgi12rcd13ifvqb70","pricing_plan_id":"cebpf4jnsgd1na2vs0mg"},{"bike_id":"215d9242-cc67-4957-98e5-94a2159c71f8","system_id":"levelo_inurba_marseille","lat":43.32318,"lon":5.36707,"is_reserved":false,"is_disabled":false,"rental_uris":{"android":"levelo://app?vid=215d9242-cc67-4957-98e5-94a2159c71f8","ios":"levelo://app?vid=215d9242-cc67-4957-98e5-94a2159c71f8"},"vehicle_type_id":"4","last_reported":1769621057,"current_range_meters":6800,"station_id":"","pricing_plan_id":"cebpf4jnsgd1na2vs0mg"},{"bike_id":"995bd8b9-2716-4fab-8373-e88e6817ab8f","system_id":"levelo_inurba_marseille","lat":43.302645,"lon":5.391072,"is_reserved":false,"is_disabled":false,"rental_uris":{"android":"levelo://app?vid=995bd8b9-2716-4fab-8373-e88e6817ab8f","ios":"levelo://app?vid=995bd8b9-2716-4fab-8373-e88e6817ab8f"},"vehicle_type_id":"4","last_reported":1769621057,"current_range_meters":6800,"station_id":"ce4bh0p2rcd13ifvqd80","pricing_plan_id":"cebpf4jnsgd1na2vs0mg"},{"bike_id":"72e1ff24-6af7-4c0e-a0b5-18d5a81f63fe","system_id":"levelo_inurba_marseille","lat":43.27942,"lon":5.41048,"is_reserved":false,"is_disabled":false,"rental_uris":{"android":"levelo://app?vid=72e1ff24-6af7-4c0e-a0b5-18d5a81f63fe","ios":"levelo://app?vid=72e1ff24-6af7-4c0e-a0b5-18d5a81f63fe"},"vehicle_type_id":"4","last_reported":1769621057,"current_range_meters":6800,"station_id":"ce4bhnp2rcd13ifvqh0g","pricing_plan_id":"cebpf4jnsgd1na2vs0mg"},{"bike_id":"60c02f49-2adf-4424-ade8-9c6070d15506","system_id":"levelo_inurba_marseille","lat":43.25025,"lon":5.38915,"is_reserved":false,"is_disabled":false,"rental_uris":{"android":"levelo://app?vid=60c02f49-2adf-4424-ade8-9c6070d15506","ios":"levelo://app?vid=60c02f49-2adf-4424-ade8-9c6070d15506"},"vehicle_type_id":"4","last_reported":1769621057,"current_range_meters":6800,"station_id":"ce4bhgp2rcd13ifvqfd0","pricing_plan_id":"cebpf4jnsgd1na2vs0mg"},{"bike_id":"284a4266-0db3-4ff1-a7d5-190cbb7efb7f","system_id":"levelo_inurba_marseille","lat":43.29648,"lon":5.37705,"is_reserved":false,"is_disabled":false,"rental_uris":{"android":"levelo://app?vid=284a4266-0db3-4ff1-a7d5-190cbb7efb7f","ios":"levelo://app?vid=284a4266-0db3-4ff1-a7d5-190cbb7efb7f"},"vehicle_type_id":"4","last_reported":1769621057,"current_range_meters":6800,"station_id":"ce4bgi92rcd13ifvqb90","pricing_plan_id":"cebpf4jnsgd1na2vs0mg"},{"bike_id":"ca4d0992-10b9-4132-be65-5b3c83c06cd8","system_id":"levelo_inurba_marseille","lat":43.30152,"lon":5.38084,"is_reserved":false,"is_disabled":false,"rental_uris":{"android":"levelo://app?vid=ca4d0992-10b9-4132-be65-5b3c83c06cd8","ios":"levelo://app?vid=ca4d0992-10b9-4132-be65-5b3c83c06cd8"},"vehicle_type_id":"4","last_reported":1769621057,"current_range_meters":6800,"station_id":"ce4bgjp2rcd13ifvqbh0","pricing_plan_id":"cebpf4jnsgd1na2vs0mg"},{"bike_id":"8c3521f5-2e5a-4c74-ac5c-cd97b951f803","system_id":"levelo_inurba_marseille","lat":43.24946,"lon":5.40494,"is_reserved":false,"is_disabled":false,"rental_uris":{"android":"levelo://app?vid=8c3521f5-2e5a-4c74-ac5c-cd97b951f803","ios":"levelo://app?vid=8c3521f5-2e5a-4c74-ac5c-cd97b951f803"},"vehicle_type_id":"4","last_reported":1769621057,"current_range_meters":6800,"station_id":"st_d2ngiaodas8pm72gd1h0","pricing_plan_id":"cebpf4jnsgd1na2vs0mg"},{"bike_id":"cc27b03f-94fb-410d-88ce-795966bdabac","system_id":"levelo_inurba_marseille","lat":43.28482,"lon":5.38573,"is_reserved":false,"is_disabled":false,"rental_uris":{"android":"levelo://app?vid=cc27b03f-94fb-410d-88ce-795966bdabac","ios":"levelo://app?vid=cc27b03f-94fb-410d-88ce-795966bdabac"},"vehicle_type_id":"4","last_reported":1769621057,"current_range_meters":6800,"station_id":"ce4bh8p2rcd13ifvqeb0","pricing_plan_id":"cebpf4jnsgd1na2vs0mg"},{"bike_id":"0e67fe98-9108-433b-9434-394fc2106387","system_id":"levelo_inurba_marseille","lat":43.24609,"lon":5.43172,"is_reserved":false,"is_disabled":false,"rental_uris":{"android":"levelo://app?vid=0e67fe98-9108-433b-9434-394fc2106387","ios":"levelo://app?vid=0e67fe98-9108-433b-9434-394fc2106387"},"vehicle_type_id":"4","last_reported":1769621057,"current_range_meters":6800,"station_id":"st_d2m6c4gdas8pm72e190g","pricing_plan_id":"cebpf4jnsgd1na2vs0mg"},{"bike_id":"7685a49c-8aa3-4105-b6c4-9b0fdec5d0f8","system_id":"levelo_inurba_marseille","lat":43.3148,"lon":5.37327,"is_reserved":false,"is_disabled":false,"rental_uris":{"android":"levelo://app?vid=7685a49c-8aa3-4105-b6c4-9b0fdec5d0f8","ios":"levelo://app?vid=7685a49c-8aa3-4105-b6c4-9b0fdec5d0f8"},"vehicle_type_id":"4","last_reported":1769621057,"current_range_meters":6800,"station_id":"ce4bgt12rcd13ifvqcd0","pricing_plan_id":"cebpf4jnsgd1na2vs0mg"},{"bike_id":"41c91ad2-73b9-4699-b23d-1b5a65edd284","system_id":"levelo_inurba_marseille","lat":43.33533,"lon":5.37466,"is_reserved":false,"is_disabled":false,"rental_uris":{"android":"levelo://app?vid=41c91ad2-73b9-4699-b23d-1b5a65edd284","ios":"levelo://app?vid=41c91ad2-73b9-4699-b23d-1b5a65edd284"},"vehicle_type_id":"4","last_reported":1769621057,"current_range_meters":6800,"station_id":"","pricing_plan_id":"cebpf4jnsgd1na2vs0mg"},{"bike_id":"8d798e6d-f25a-4bb0-a8e7-6f01b0dea7db","system_id":"levelo_inurba_marseille","lat":43.296225,"lon":5.377216,"is_reserved":false,"is_disabled":false,"rental_uris":{"android":"levelo://app?vid=8d798e6d-f25a-4bb0-a8e7-6f01b0dea7db","ios":"levelo://app?vid=8d798e6d-f25a-4bb0-a8e7-6f01b0dea7db"},"vehicle_type_id":"4","last_reported":1769621057,"current_range_meters":7200,"station_id":"ce4bgi92rcd13ifvqb90","pricing_plan_id":"cebpf4jnsgd1na2vs0mg"},{"bike_id":"5d05d531-ebc5-422e-a94d-fab2e789248e","system_id":"levelo_inurba_marseille","lat":43.25091,"lon":5.39517,"is_reserved":false,"is_disabled":false,"rental_uris":{"android":"levelo://app?vid=5d05d531-ebc5-422e-a94d-fab2e789248e","ios":"levelo://app?vid=5d05d531-ebc5-422e-a94d-fab2e789248e"},"vehicle_type_id":"4","last_reported":1769621057,"current_range_meters":7200,"station_id":"ce4bhm12rcd13ifvqgkg","pricing_plan_id":"cebpf4jnsgd1na2vs0mg"},{"bike_id":"80b39af1-2c58-45ab-b4de-d5db4025af96","system_id":"levelo_inurba_marseille","lat":43.24807,"lon":5.37455,"is_reserved":false,"is_disabled":false,"rental_uris":{"android":"levelo://app?vid=80b39af1-2c58-45ab-b4de-d5db4025af96","ios":"levelo://app?vid=80b39af1-2c58-45ab-b4de-d5db4025af96"},"vehicle_type_id":"4","last_reported":1769621057,"current_range_meters":7200,"station_id":"ce4bhgh2rcd13ifvqfb0","pricing_plan_id":"cebpf4jnsgd1na2vs0mg"},{"bike_id":"a69253cf-ad14-45b4-a376-a0b74b0251db","system_id":"levelo_inurba_marseille","lat":43.29604,"lon":5.38104,"is_reserved":false,"is_disabled":false,"rental_uris":{"android":"levelo://app?vid=a69253cf-ad14-45b4-a376-a0b74b0251db","ios":"levelo://app?vid=a69253cf-ad14-45b4-a376-a0b74b0251db"},"vehicle_type_id":"4","last_reported":1769621057,"current_range_meters":7200,"station_id":"ce4bgl12rcd13ifvqbo0","pricing_plan_id":"cebpf4jnsgd1na2vs0mg"},{"bike_id":"266b0834-654b-47d2-95f5-e9ad274f17f8","system_id":"levelo_inurba_marseille","lat":43.23761,"lon":5.3662,"is_reserved":false,"is_disabled":false,"rental_uris":{"android":"levelo://app?vid=266b0834-654b-47d2-95f5-e9ad274f17f8","ios":"levelo://app?vid=266b0834-654b-47d2-95f5-e9ad274f17f8"},"vehicle_type_id":"4","last_reported":1769621057,"current_range_meters":7200,"station_id":"st_d3nk18o9ro0c73en2l3g","pricing_plan_id":"cebpf4jnsgd1na2vs0mg"},{"bike_id":"8d5ad576-7df0-4e21-9440-3fe6a62ee683","system_id":"levelo_inurba_marseille","lat":43.2952,"lon":5.39064,"is_reserved":false,"is_disabled":false,"rental_uris":{"android":"levelo://app?vid=8d5ad576-7df0-4e21-9440-3fe6a62ee683","ios":"levelo://app?vid=8d5ad576-7df0-4e21-9440-3fe6a62ee683"},"vehicle_type_id":"4","last_reported":1769621057,"current_range_meters":7200,"station_id":"ce4bh3p2rcd13ifvqdp0","pricing_plan_id":"cebpf4jnsgd1na2vs0mg"},{"bike_id":"78ca3fa5-5325-4fd9-b6b5-1bb6bd866233","system_id":"levelo_inurba_marseille","lat":43.262162,"lon":5.404435,"is_reserved":false,"is_disabled":false,"rental_uris":{"android":"levelo://app?vid=78ca3fa5-5325-4fd9-b6b5-1bb6bd866233","ios":"levelo://app?vid=78ca3fa5-5325-4fd9-b6b5-1bb6bd866233"},"vehicle_type_id":"4","last_reported":1769621057,"current_range_meters":7200,"station_id":"ce4bhmh2rcd13ifvqgmg","pricing_plan_id":"cebpf4jnsgd1na2vs0mg"},{"bike_id":"11ea5605-7882-4487-a008-b5f4221886b5","system_id":"levelo_inurba_marseille","lat":43.31379,"lon":5.37406,"is_reserved":false,"is_disabled":false,"rental_uris":{"android":"levelo://app?vid=11ea5605-7882-4487-a008-b5f4221886b5","ios":"levelo://app?vid=11ea5605-7882-4487-a008-b5f4221886b5"},"vehicle_type_id":"4","last_reported":1769621057,"current_range_meters":7200,"station_id":"","pricing_plan_id":"cebpf4jnsgd1na2vs0mg"},{"bike_id":"3a560c1d-76d6-45a6-9554-036aa12f4461","system_id":"levelo_inurba_marseille","lat":43.23196,"lon":5.35552,"is_reserved":false,"is_disabled":false,"rental_uris":{"android":"levelo://app?vid=3a560c1d-76d6-45a6-9554-036aa12f4461","ios":"levelo://app?vid=3a560c1d-76d6-45a6-9554-036aa12f4461"},"vehicle_type_id":"4","last_reported":1769621057,"current_range_meters":7200,"station_id":"ce4bhu92rcd13ifvqi70","pricing_plan_id":"cebpf4jnsgd1na2vs0mg"},{"bike_id":"c00d1abe-f6f3-4677-9b5b-65f2d4348ca7","system_id":"levelo_inurba_marseille","lat":43.23213,"lon":5.35568,"is_reserved":false,"is_disabled":false,"rental_uris":{"android":"levelo://app?vid=c00d1abe-f6f3-4677-9b5b-65f2d4348ca7","ios":"levelo://app?vid=c00d1abe-f6f3-4677-9b5b-65f2d4348ca7"},"vehicle_type_id":"4","last_reported":1769621057,"current_range_meters":7200,"station_id":"ce4bhu92rcd13ifvqi70","pricing_plan_id":"cebpf4jnsgd1na2vs0mg"},{"bike_id":"b4b38f25-06d0-493b-91b1-81d4ede3259b","system_id":"levelo_inurba_marseille","lat":43.27199,"lon":5.39198,"is_reserved":false,"is_disabled":false,"rental_uris":{"android":"levelo://app?vid=b4b38f25-06d0-493b-91b1-81d4ede3259b","ios":"levelo://app?vid=b4b38f25-06d0-493b-91b1-81d4ede3259b"},"vehicle_type_id":"4","last_reported":1769621057,"current_range_meters":7200,"station_id":"ce4bhhp2rcd13ifvqfm0","pricing_plan_id":"cebpf4jnsgd1na2vs0mg"},{"bike_id":"98ed341d-47b5-4b82-bf69-aea2421933bc","system_id":"levelo_inurba_marseille","lat":43.2848,"lon":5.38533,"is_reserved":false,"is_disabled":false,"rental_uris":{"android":"levelo://app?vid=98ed341d-47b5-4b82-bf69-aea2421933bc","ios":"levelo://app?vid=98ed341d-47b5-4b82-bf69-aea2421933bc"},"vehicle_type_id":"4","last_reported":1769621057,"current_range_meters":7200,"station_id":"ce4bh8p2rcd13ifvqeb0","pricing_plan_id":"cebpf4jnsgd1na2vs0mg"},{"bike_id":"a097c751-bb29-4ebe-bc02-881e85889070","system_id":"levelo_inurba_marseille","lat":43.288617,"lon":5.425124,"is_reserved":false,"is_disabled":false,"rental_uris":{"android":"levelo://app?vid=a097c751-bb29-4ebe-bc02-881e85889070","ios":"levelo://app?vid=a097c751-bb29-4ebe-bc02-881e85889070"},"vehicle_type_id":"4","last_reported":1769621057,"current_range_meters":7200,"station_id":"st_d3b462108ojc7389ooeg","pricing_plan_id":"cebpf4jnsgd1na2vs0mg"},{"bike_id":"53266f6f-e74d-4087-beb9-c5a1742aec7c","system_id":"levelo_inurba_marseille","lat":43.24167,"lon":5.39737,"is_reserved":false,"is_disabled":false,"rental_uris":{"android":"levelo://app?vid=53266f6f-e74d-4087-beb9-c5a1742aec7c","ios":"levelo://app?vid=53266f6f-e74d-4087-beb9-c5a1742aec7c"},"vehicle_type_id":"4","last_reported":1769621057,"current_range_meters":7200,"station_id":"ce4bhn12rcd13ifvqgpg","pricing_plan_id":"cebpf4jnsgd1na2vs0mg"},{"bike_id":"9dd76e8c-07cf-4beb-9980-fa68a6b32fdb","system_id":"levelo_inurba_marseille","lat":43.28673,"lon":5.36348,"is_reserved":false,"is_disabled":false,"rental_uris":{"android":"levelo://app?vid=9dd76e8c-07cf-4beb-9980-fa68a6b32fdb","ios":"levelo://app?vid=9dd76e8c-07cf-4beb-9980-fa68a6b32fdb"},"vehicle_type_id":"4","last_reported":1769621057,"current_range_meters":7200,"station_id":"ce4bhah2rcd13ifvqej0","pricing_plan_id":"cebpf4jnsgd1na2vs0mg"},{"bike_id":"11c0b822-ed21-4cc4-ae23-9767ba2abb5a","system_id":"levelo_inurba_marseille","lat":43.30498,"lon":5.36574,"is_reserved":false,"is_disabled":false,"rental_uris":{"android":"levelo://app?vid=11c0b822-ed21-4cc4-ae23-9767ba2abb5a","ios":"levelo://app?vid=11c0b822-ed21-4cc4-ae23-9767ba2abb5a"},"vehicle_type_id":"4","last_reported":1769621057,"current_range_meters":8000,"station_id":"","pricing_plan_id":"cebpf4jnsgd1na2vs0mg"},{"bike_id":"8456174b-2425-4ed4-84a6-08ae182cc2e1","system_id":"levelo_inurba_marseille","lat":43.2957,"lon":5.39986,"is_reserved":false,"is_disabled":false,"rental_uris":{"android":"levelo://app?vid=8456174b-2425-4ed4-84a6-08ae182cc2e1","ios":"levelo://app?vid=8456174b-2425-4ed4-84a6-08ae182cc2e1"},"vehicle_type_id":"4","last_reported":1769621057,"current_range_meters":8000,"station_id":"ce4bh312rcd13ifvqdj0","pricing_plan_id":"cebpf4jnsgd1na2vs0mg"},{"bike_id":"69a8705c-622c-4687-befc-0e95f406c55e","system_id":"levelo_inurba_marseille","lat":43.22564,"lon":5.41621,"is_reserved":false,"is_disabled":false,"rental_uris":{"android":"levelo://app?vid=69a8705c-622c-4687-befc-0e95f406c55e","ios":"levelo://app?vid=69a8705c-622c-4687-befc-0e95f406c55e"},"vehicle_type_id":"4","last_reported":1769621057,"current_range_meters":8000,"station_id":"st_d2o4gvlbi1j2169b742g","pricing_plan_id":"cebpf4jnsgd1na2vs0mg"},{"bike_id":"c7e4813a-c248-4d27-817f-f64ef50a11f2","system_id":"levelo_inurba_marseille","lat":43.25927,"lon":5.40892,"is_reserved":false,"is_disabled":false,"rental_uris":{"android":"levelo://app?vid=c7e4813a-c248-4d27-817f-f64ef50a11f2","ios":"levelo://app?vid=c7e4813a-c248-4d27-817f-f64ef50a11f2"},"vehicle_type_id":"4","last_reported":1769621057,"current_range_meters":8000,"station_id":"ce4bhm92rcd13ifvqglg","pricing_plan_id":"cebpf4jnsgd1na2vs0mg"},{"bike_id":"b45c8d2c-8d88-4cef-8b61-a19c2da1c61e","system_id":"levelo_inurba_marseille","lat":43.33533,"lon":5.37467,"is_reserved":false,"is_disabled":false,"rental_uris":{"android":"levelo://app?vid=b45c8d2c-8d88-4cef-8b61-a19c2da1c61e","ios":"levelo://app?vid=b45c8d2c-8d88-4cef-8b61-a19c2da1c61e"},"vehicle_type_id":"4","last_reported":1769621057,"current_range_meters":8000,"station_id":"st_d46tts09ee8s73dlu43g","pricing_plan_id":"cebpf4jnsgd1na2vs0mg"},{"bike_id":"24dcd320-5c94-4733-84a5-fedd766ecdd0","system_id":"levelo_inurba_marseille","lat":43.28667,"lon":5.3865,"is_reserved":false,"is_disabled":false,"rental_uris":{"android":"levelo://app?vid=24dcd320-5c94-4733-84a5-fedd766ecdd0","ios":"levelo://app?vid=24dcd320-5c94-4733-84a5-fedd766ecdd0"},"vehicle_type_id":"4","last_reported":1769621057,"current_range_meters":8000,"station_id":"ce4bh492rcd13ifvqdug","pricing_plan_id":"cebpf4jnsgd1na2vs0mg"},{"bike_id":"8f81f246-6d5d-41c6-a914-40ca18e88edd","system_id":"levelo_inurba_marseille","lat":43.33213,"lon":5.4029,"is_reserved":false,"is_disabled":false,"rental_uris":{"android":"levelo://app?vid=8f81f246-6d5d-41c6-a914-40ca18e88edd","ios":"levelo://app?vid=8f81f246-6d5d-41c6-a914-40ca18e88edd"},"vehicle_type_id":"4","last_reported":1769621057,"current_range_meters":8000,"station_id":"","pricing_plan_id":"cebpf4jnsgd1na2vs0mg"},{"bike_id":"4ae21097-68ff-4a44-bcb7-3e142e11d517","system_id":"levelo_inurba_marseille","lat":43.24172,"lon":5.36382,"is_reserved":false,"is_disabled":false,"rental_uris":{"android":"levelo://app?vid=4ae21097-68ff-4a44-bcb7-3e142e11d517","ios":"levelo://app?vid=4ae21097-68ff-4a44-bcb7-3e142e11d517"},"vehicle_type_id":"4","last_reported":1769621057,"current_range_meters":8000,"station_id":"cpo36qri1sfpv3e86is0","pricing_plan_id":"cebpf4jnsgd1na2vs0mg"},{"bike_id":"9ba0872b-a869-4522-9809-2326ba94ec06","system_id":"levelo_inurba_marseille","lat":43.30542,"lon":5.36526,"is_reserved":false,"is_disabled":false,"rental_uris":{"android":"levelo://app?vid=9ba0872b-a869-4522-9809-2326ba94ec06","ios":"levelo://app?vid=9ba0872b-a869-4522-9809-2326ba94ec06"},"vehicle_type_id":"4","last_reported":1769621057,"current_range_meters":8000,"station_id":"ce4bgs12rcd13ifvqcag","pricing_plan_id":"cebpf4jnsgd1na2vs0mg"},{"bike_id":"d57c3c33-dee5-4590-9de4-20e8c15ad07e","system_id":"levelo_inurba_marseille","lat":43.3094,"lon":5.40147,"is_reserved":false,"is_disabled":false,"rental_uris":{"android":"levelo://app?vid=d57c3c33-dee5-4590-9de4-20e8c15ad07e","ios":"levelo://app?vid=d57c3c33-dee5-4590-9de4-20e8c15ad07e"},"vehicle_type_id":"4","last_reported":1769621057,"current_range_meters":8000,"station_id":"ce4bgvp2rcd13ifvqct0","pricing_plan_id":"cebpf4jnsgd1na2vs0mg"},{"bike_id":"1ffbda22-e3ce-449b-8cf2-1a8499f4ffd7","system_id":"levelo_inurba_marseille","lat":43.26967,"lon":5.38626,"is_reserved":false,"is_disabled":true,"rental_uris":{"android":"levelo://app?vid=1ffbda22-e3ce-449b-8cf2-1a8499f4ffd7","ios":"levelo://app?vid=1ffbda22-e3ce-449b-8cf2-1a8499f4ffd7"},"vehicle_type_id":"4","last_reported":1769621057,"current_range_meters":8000,"station_id":"ce4bhh92rcd13ifvqfh0","pricing_plan_id":"cebpf4jnsgd1na2vs0mg"},{"bike_id":"b96775b7-8954-4f94-990f-968813344c58","system_id":"levelo_inurba_marseille","lat":43.31292,"lon":5.37794,"is_reserved":false,"is_disabled":false,"rental_uris":{"android":"levelo://app?vid=b96775b7-8954-4f94-990f-968813344c58","ios":"levelo://app?vid=b96775b7-8954-4f94-990f-968813344c58"},"vehicle_type_id":"4","last_reported":1769621057,"current_range_meters":8000,"station_id":"","pricing_plan_id":"cebpf4jnsgd1na2vs0mg"},{"bike_id":"a508532d-bc2f-4e8a-912b-a862a072ffa7","system_id":"levelo_inurba_marseille","lat":43.29531,"lon":5.37512,"is_reserved":false,"is_disabled":false,"rental_uris":{"android":"levelo://app?vid=a508532d-bc2f-4e8a-912b-a862a072ffa7","ios":"levelo://app?vid=a508532d-bc2f-4e8a-912b-a862a072ffa7"},"vehicle_type_id":"4","last_reported":1769621057,"current_range_meters":8000,"station_id":"ce4bgkp2rcd13ifvqbmg","pricing_plan_id":"cebpf4jnsgd1na2vs0mg"},{"bike_id":"9328d8d0-a319-4fb2-9d4a-db2606a87040","system_id":"levelo_inurba_marseille","lat":43.2418,"lon":5.36393,"is_reserved":false,"is_disabled":false,"rental_uris":{"android":"levelo://app?vid=9328d8d0-a319-4fb2-9d4a-db2606a87040","ios":"levelo://app?vid=9328d8d0-a319-4fb2-9d4a-db2606a87040"},"vehicle_type_id":"4","last_reported":1769621057,"current_range_meters":8000,"station_id":"cpo36qri1sfpv3e86is0","pricing_plan_id":"cebpf4jnsgd1na2vs0mg"},{"bike_id":"816f05b1-e4c7-4154-aeb4-ef3c8e139b0b","system_id":"levelo_inurba_marseille","lat":43.32494,"lon":5.38308,"is_reserved":false,"is_disabled":false,"rental_uris":{"android":"levelo://app?vid=816f05b1-e4c7-4154-aeb4-ef3c8e139b0b","ios":"levelo://app?vid=816f05b1-e4c7-4154-aeb4-ef3c8e139b0b"},"vehicle_type_id":"4","last_reported":1769621057,"current_range_meters":8000,"station_id":"st_d4asgbiv49dc73anf9m0","pricing_plan_id":"cebpf4jnsgd1na2vs0mg"},{"bike_id":"adcf69d8-1927-438e-b914-5f915ba575b2","system_id":"levelo_inurba_marseille","lat":43.25583,"lon":5.38227,"is_reserved":false,"is_disabled":false,"rental_uris":{"android":"levelo://app?vid=adcf69d8-1927-438e-b914-5f915ba575b2","ios":"levelo://app?vid=adcf69d8-1927-438e-b914-5f915ba575b2"},"vehicle_type_id":"4","last_reported":1769621057,"current_range_meters":8000,"station_id":"ce4bhih2rcd13ifvqfs0","pricing_plan_id":"cebpf4jnsgd1na2vs0mg"},{"bike_id":"79009d73-0523-4c6d-91de-5993a965a866","system_id":"levelo_inurba_marseille","lat":43.25931,"lon":5.40915,"is_reserved":false,"is_disabled":false,"rental_uris":{"android":"levelo://app?vid=79009d73-0523-4c6d-91de-5993a965a866","ios":"levelo://app?vid=79009d73-0523-4c6d-91de-5993a965a866"},"vehicle_type_id":"4","last_reported":1769621057,"current_range_meters":8000,"station_id":"ce4bhm92rcd13ifvqglg","pricing_plan_id":"cebpf4jnsgd1na2vs0mg"},{"bike_id":"9bdb1099-5090-4ad5-a1d6-31f1a1ea458e","system_id":"levelo_inurba_marseille","lat":43.273712,"lon":5.362484,"is_reserved":false,"is_disabled":false,"rental_uris":{"android":"levelo://app?vid=9bdb1099-5090-4ad5-a1d6-31f1a1ea458e","ios":"levelo://app?vid=9bdb1099-5090-4ad5-a1d6-31f1a1ea458e"},"vehicle_type_id":"4","last_reported":1769621057,"current_range_meters":8000,"station_id":"ce4bhbh2rcd13ifvqeo0","pricing_plan_id":"cebpf4jnsgd1na2vs0mg"},{"bike_id":"9183a072-7ef7-40b6-9d57-92fed5e7631a","system_id":"levelo_inurba_marseille","lat":43.30134,"lon":5.43124,"is_reserved":false,"is_disabled":false,"rental_uris":{"android":"levelo://app?vid=9183a072-7ef7-40b6-9d57-92fed5e7631a","ios":"levelo://app?vid=9183a072-7ef7-40b6-9d57-92fed5e7631a"},"vehicle_type_id":"4","last_reported":1769621057,"current_range_meters":8400,"station_id":"st_d3js3co5814s73ftftug","pricing_plan_id":"cebpf4jnsgd1na2vs0mg"},{"bike_id":"70ec9221-7127-4c48-b3d2-1d7f4367829c","system_id":"levelo_inurba_marseille","lat":43.30595,"lon":5.3935,"is_reserved":false,"is_disabled":false,"rental_uris":{"android":"levelo://app?vid=70ec9221-7127-4c48-b3d2-1d7f4367829c","ios":"levelo://app?vid=70ec9221-7127-4c48-b3d2-1d7f4367829c"},"vehicle_type_id":"4","last_reported":1769621057,"current_range_meters":8400,"station_id":"ce4bh0p2rcd13ifvqd80","pricing_plan_id":"cebpf4jnsgd1na2vs0mg"},{"bike_id":"0bb48ec4-08e5-45ef-ab4a-4f70925a9217","system_id":"levelo_inurba_marseille","lat":43.30139,"lon":5.37413,"is_reserved":false,"is_disabled":false,"rental_uris":{"android":"levelo://app?vid=0bb48ec4-08e5-45ef-ab4a-4f70925a9217","ios":"levelo://app?vid=0bb48ec4-08e5-45ef-ab4a-4f70925a9217"},"vehicle_type_id":"4","last_reported":1769621057,"current_range_meters":8400,"station_id":"ce4bgs92rcd13ifvqcc0","pricing_plan_id":"cebpf4jnsgd1na2vs0mg"},{"bike_id":"efeafcfb-fc66-4b08-a741-f189e972e88a","system_id":"levelo_inurba_marseille","lat":43.29581,"lon":5.375,"is_reserved":false,"is_disabled":false,"rental_uris":{"android":"levelo://app?vid=efeafcfb-fc66-4b08-a741-f189e972e88a","ios":"levelo://app?vid=efeafcfb-fc66-4b08-a741-f189e972e88a"},"vehicle_type_id":"4","last_reported":1769621057,"current_range_meters":8400,"station_id":"ce4bgh92rcd13ifvqb50","pricing_plan_id":"cebpf4jnsgd1na2vs0mg"},{"bike_id":"3e6599b3-80f5-4cb4-a947-9865a5671465","system_id":"levelo_inurba_marseille","lat":43.2763,"lon":5.3612,"is_reserved":false,"is_disabled":false,"rental_uris":{"android":"levelo://app?vid=3e6599b3-80f5-4cb4-a947-9865a5671465","ios":"levelo://app?vid=3e6599b3-80f5-4cb4-a947-9865a5671465"},"vehicle_type_id":"4","last_reported":1769621057,"current_range_meters":8400,"station_id":"ce4bgj92rcd13ifvqbe0","pricing_plan_id":"cebpf4jnsgd1na2vs0mg"},{"bike_id":"026c4877-1831-48bd-a287-acc876eac368","system_id":"levelo_inurba_marseille","lat":43.29061,"lon":5.37159,"is_reserved":false,"is_disabled":false,"rental_uris":{"android":"levelo://app?vid=026c4877-1831-48bd-a287-acc876eac368","ios":"levelo://app?vid=026c4877-1831-48bd-a287-acc876eac368"},"vehicle_type_id":"4","last_reported":1769621057,"current_range_meters":8400,"station_id":"ce4bh5p2rcd13ifvqe4g","pricing_plan_id":"cebpf4jnsgd1na2vs0mg"},{"bike_id":"00291af5-ec22-4614-b75d-6464de594e46","system_id":"levelo_inurba_marseille","lat":43.2967,"lon":5.36687,"is_reserved":false,"is_disabled":false,"rental_uris":{"android":"levelo://app?vid=00291af5-ec22-4614-b75d-6464de594e46","ios":"levelo://app?vid=00291af5-ec22-4614-b75d-6464de594e46"},"vehicle_type_id":"4","last_reported":1769621057,"current_range_meters":8400,"station_id":"","pricing_plan_id":"cebpf4jnsgd1na2vs0mg"},{"bike_id":"5e315c55-0696-4832-b655-408576588f9e","system_id":"levelo_inurba_marseille","lat":43.26803,"lon":5.39403,"is_reserved":false,"is_disabled":false,"rental_uris":{"android":"levelo://app?vid=5e315c55-0696-4832-b655-408576588f9e","ios":"levelo://app?vid=5e315c55-0696-4832-b655-408576588f9e"},"vehicle_type_id":"4","last_reported":1769621057,"current_range_meters":8400,"station_id":"ce4bhh12rcd13ifvqfg0","pricing_plan_id":"cebpf4jnsgd1na2vs0mg"},{"bike_id":"1bf3f424-a95f-401a-945e-b046874bf27a","system_id":"levelo_inurba_marseille","lat":43.29557,"lon":5.42286,"is_reserved":false,"is_disabled":false,"rental_uris":{"android":"levelo://app?vid=1bf3f424-a95f-401a-945e-b046874bf27a","ios":"levelo://app?vid=1bf3f424-a95f-401a-945e-b046874bf27a"},"vehicle_type_id":"4","last_reported":1769621057,"current_range_meters":8400,"station_id":"ce4bhph2rcd13ifvqhdg","pricing_plan_id":"cebpf4jnsgd1na2vs0mg"},{"bike_id":"ed0f3651-1ad7-4478-9a41-1a10caa71c2f","system_id":"levelo_inurba_marseille","lat":43.28155,"lon":5.42643,"is_reserved":false,"is_disabled":false,"rental_uris":{"android":"levelo://app?vid=ed0f3651-1ad7-4478-9a41-1a10caa71c2f","ios":"levelo://app?vid=ed0f3651-1ad7-4478-9a41-1a10caa71c2f"},"vehicle_type_id":"4","last_reported":1769621057,"current_range_meters":8400,"station_id":"ce4bhnh2rcd13ifvqgug","pricing_plan_id":"cebpf4jnsgd1na2vs0mg"},{"bike_id":"ec92a3d7-0aaf-40cf-9513-2fb7d35cc0c4","system_id":"levelo_inurba_marseille","lat":43.23058,"lon":5.35486,"is_reserved":false,"is_disabled":false,"rental_uris":{"android":"levelo://app?vid=ec92a3d7-0aaf-40cf-9513-2fb7d35cc0c4","ios":"levelo://app?vid=ec92a3d7-0aaf-40cf-9513-2fb7d35cc0c4"},"vehicle_type_id":"4","last_reported":1769621057,"current_range_meters":8400,"station_id":"cpo3342slgdg3j2ifvpg","pricing_plan_id":"cebpf4jnsgd1na2vs0mg"},{"bike_id":"b453d1a7-0c5a-49b0-9462-d66d05743f6f","system_id":"levelo_inurba_marseille","lat":43.29607,"lon":5.37723,"is_reserved":false,"is_disabled":false,"rental_uris":{"android":"levelo://app?vid=b453d1a7-0c5a-49b0-9462-d66d05743f6f","ios":"levelo://app?vid=b453d1a7-0c5a-49b0-9462-d66d05743f6f"},"vehicle_type_id":"4","last_reported":1769621057,"current_range_meters":8400,"station_id":"ce4bgi92rcd13ifvqb90","pricing_plan_id":"cebpf4jnsgd1na2vs0mg"},{"bike_id":"3eec611c-d8cb-4b54-9748-ae62ab9ddb70","system_id":"levelo_inurba_marseille","lat":43.22921,"lon":5.3538,"is_reserved":false,"is_disabled":false,"rental_uris":{"android":"levelo://app?vid=3eec611c-d8cb-4b54-9748-ae62ab9ddb70","ios":"levelo://app?vid=3eec611c-d8cb-4b54-9748-ae62ab9ddb70"},"vehicle_type_id":"4","last_reported":1769621057,"current_range_meters":8400,"station_id":"cpo3532slgdg3j2ikp40","pricing_plan_id":"cebpf4jnsgd1na2vs0mg"},{"bike_id":"c98b11d0-0520-418d-bfc6-d6149e6ffac9","system_id":"levelo_inurba_marseille","lat":43.28476,"lon":5.48412,"is_reserved":false,"is_disabled":false,"rental_uris":{"android":"levelo://app?vid=c98b11d0-0520-418d-bfc6-d6149e6ffac9","ios":"levelo://app?vid=c98b11d0-0520-418d-bfc6-d6149e6ffac9"},"vehicle_type_id":"4","last_reported":1769621057,"current_range_meters":8400,"station_id":"st_d3svhcjqgbts73a3dn0g","pricing_plan_id":"cebpf4jnsgd1na2vs0mg"},{"bike_id":"7aa4173d-a154-43ea-841b-5ce9abf46efd","system_id":"levelo_inurba_marseille","lat":43.296238,"lon":5.371553,"is_reserved":false,"is_disabled":false,"rental_uris":{"android":"levelo://app?vid=7aa4173d-a154-43ea-841b-5ce9abf46efd","ios":"levelo://app?vid=7aa4173d-a154-43ea-841b-5ce9abf46efd"},"vehicle_type_id":"4","last_reported":1769621057,"current_range_meters":8800,"station_id":"ce4bgnh2rcd13ifvqc0g","pricing_plan_id":"cebpf4jnsgd1na2vs0mg"},{"bike_id":"bc230eaa-6d54-4e2d-8428-bb3463d83558","system_id":"levelo_inurba_marseille","lat":43.27297,"lon":5.39136,"is_reserved":false,"is_disabled":true,"rental_uris":{"android":"levelo://app?vid=bc230eaa-6d54-4e2d-8428-bb3463d83558","ios":"levelo://app?vid=bc230eaa-6d54-4e2d-8428-bb3463d83558"},"vehicle_type_id":"4","last_reported":1769621057,"current_range_meters":8800,"station_id":"","pricing_plan_id":"cebpf4jnsgd1na2vs0mg"},{"bike_id":"9806da0f-d7e9-4daf-99fc-e3fd22a4da76","system_id":"levelo_inurba_marseille","lat":43.25935,"lon":5.40881,"is_reserved":false,"is_disabled":false,"rental_uris":{"android":"levelo://app?vid=9806da0f-d7e9-4daf-99fc-e3fd22a4da76","ios":"levelo://app?vid=9806da0f-d7e9-4daf-99fc-e3fd22a4da76"},"vehicle_type_id":"4","last_reported":1769621057,"current_range_meters":8800,"station_id":"ce4bhm92rcd13ifvqglg","pricing_plan_id":"cebpf4jnsgd1na2vs0mg"},{"bike_id":"d58f344c-cd0b-44a8-8dbf-ba727762a67b","system_id":"levelo_inurba_marseille","lat":43.23153,"lon":5.437173,"is_reserved":false,"is_disabled":false,"rental_uris":{"android":"levelo://app?vid=d58f344c-cd0b-44a8-8dbf-ba727762a67b","ios":"levelo://app?vid=d58f344c-cd0b-44a8-8dbf-ba727762a67b"},"vehicle_type_id":"4","last_reported":1769621057,"current_range_meters":8800,"station_id":"ce4bhmp2rcd13ifvqgog","pricing_plan_id":"cebpf4jnsgd1na2vs0mg"},{"bike_id":"dc66320f-101f-4e51-b264-183deb212cdf","system_id":"levelo_inurba_marseille","lat":43.29033,"lon":5.38643,"is_reserved":false,"is_disabled":false,"rental_uris":{"android":"levelo://app?vid=dc66320f-101f-4e51-b264-183deb212cdf","ios":"levelo://app?vid=dc66320f-101f-4e51-b264-183deb212cdf"},"vehicle_type_id":"4","last_reported":1769621057,"current_range_meters":8800,"station_id":"ce4bh4p2rcd13ifvqe0g","pricing_plan_id":"cebpf4jnsgd1na2vs0mg"},{"bike_id":"1d30a50e-e151-4160-9e43-2ee82a0e2339","system_id":"levelo_inurba_marseille","lat":43.30432,"lon":5.38881,"is_reserved":false,"is_disabled":false,"rental_uris":{"android":"levelo://app?vid=1d30a50e-e151-4160-9e43-2ee82a0e2339","ios":"levelo://app?vid=1d30a50e-e151-4160-9e43-2ee82a0e2339"},"vehicle_type_id":"4","last_reported":1769621057,"current_range_meters":8800,"station_id":"ce4bgk12rcd13ifvqbi0","pricing_plan_id":"cebpf4jnsgd1na2vs0mg"},{"bike_id":"b429b966-0050-4ea1-b7b9-c7d25fe61968","system_id":"levelo_inurba_marseille","lat":43.31346,"lon":5.38481,"is_reserved":false,"is_disabled":false,"rental_uris":{"android":"levelo://app?vid=b429b966-0050-4ea1-b7b9-c7d25fe61968","ios":"levelo://app?vid=b429b966-0050-4ea1-b7b9-c7d25fe61968"},"vehicle_type_id":"4","last_reported":1769621057,"current_range_meters":8800,"station_id":"ce4bgt92rcd13ifvqcf0","pricing_plan_id":"cebpf4jnsgd1na2vs0mg"},{"bike_id":"dcc20a74-9ba4-4119-a5f5-ce0a76ef7ac9","system_id":"levelo_inurba_marseille","lat":43.22558,"lon":5.41627,"is_reserved":false,"is_disabled":false,"rental_uris":{"android":"levelo://app?vid=dcc20a74-9ba4-4119-a5f5-ce0a76ef7ac9","ios":"levelo://app?vid=dcc20a74-9ba4-4119-a5f5-ce0a76ef7ac9"},"vehicle_type_id":"4","last_reported":1769621057,"current_range_meters":8800,"station_id":"st_d2o4gvlbi1j2169b742g","pricing_plan_id":"cebpf4jnsgd1na2vs0mg"},{"bike_id":"541aab47-c46a-45ce-9946-ea87420fea14","system_id":"levelo_inurba_marseille","lat":43.23191,"lon":5.3997,"is_reserved":false,"is_disabled":false,"rental_uris":{"android":"levelo://app?vid=541aab47-c46a-45ce-9946-ea87420fea14","ios":"levelo://app?vid=541aab47-c46a-45ce-9946-ea87420fea14"},"vehicle_type_id":"4","last_reported":1769621057,"current_range_meters":8800,"station_id":"ce4bhn12rcd13ifvqgqg","pricing_plan_id":"cebpf4jnsgd1na2vs0mg"},{"bike_id":"d6347785-7f4b-4520-b64a-bf5bb0e98944","system_id":"levelo_inurba_marseille","lat":43.25006,"lon":5.38915,"is_reserved":false,"is_disabled":false,"rental_uris":{"android":"levelo://app?vid=d6347785-7f4b-4520-b64a-bf5bb0e98944","ios":"levelo://app?vid=d6347785-7f4b-4520-b64a-bf5bb0e98944"},"vehicle_type_id":"4","last_reported":1769621057,"current_range_meters":8800,"station_id":"ce4bhgp2rcd13ifvqfd0","pricing_plan_id":"cebpf4jnsgd1na2vs0mg"},{"bike_id":"8c50cc1b-6957-4db2-9b96-76d9d37bac03","system_id":"levelo_inurba_marseille","lat":43.2256,"lon":5.41604,"is_reserved":false,"is_disabled":false,"rental_uris":{"android":"levelo://app?vid=8c50cc1b-6957-4db2-9b96-76d9d37bac03","ios":"levelo://app?vid=8c50cc1b-6957-4db2-9b96-76d9d37bac03"},"vehicle_type_id":"4","last_reported":1769621057,"current_range_meters":8800,"station_id":"st_d2o4gvlbi1j2169b742g","pricing_plan_id":"cebpf4jnsgd1na2vs0mg"},{"bike_id":"894af8e6-15aa-4361-9e32-7bad83f2e739","system_id":"levelo_inurba_marseille","lat":43.30936,"lon":5.40143,"is_reserved":false,"is_disabled":false,"rental_uris":{"android":"levelo://app?vid=894af8e6-15aa-4361-9e32-7bad83f2e739","ios":"levelo://app?vid=894af8e6-15aa-4361-9e32-7bad83f2e739"},"vehicle_type_id":"4","last_reported":1769621057,"current_range_meters":8800,"station_id":"ce4bgvp2rcd13ifvqct0","pricing_plan_id":"cebpf4jnsgd1na2vs0mg"},{"bike_id":"58561bee-b9b4-40cb-a81c-4908ef2f3de1","system_id":"levelo_inurba_marseille","lat":43.273633,"lon":5.362521,"is_reserved":false,"is_disabled":false,"rental_uris":{"android":"levelo://app?vid=58561bee-b9b4-40cb-a81c-4908ef2f3de1","ios":"levelo://app?vid=58561bee-b9b4-40cb-a81c-4908ef2f3de1"},"vehicle_type_id":"4","last_reported":1769621057,"current_range_meters":8800,"station_id":"ce4bhbh2rcd13ifvqeo0","pricing_plan_id":"cebpf4jnsgd1na2vs0mg"},{"bike_id":"ba94ad88-2d86-4f15-a70c-04c6ad4ea30f","system_id":"levelo_inurba_marseille","lat":43.33166,"lon":5.37674,"is_reserved":false,"is_disabled":false,"rental_uris":{"android":"levelo://app?vid=ba94ad88-2d86-4f15-a70c-04c6ad4ea30f","ios":"levelo://app?vid=ba94ad88-2d86-4f15-a70c-04c6ad4ea30f"},"vehicle_type_id":"4","last_reported":1769621057,"current_range_meters":8800,"station_id":"st_d46cu089ee8s73dldbu0","pricing_plan_id":"cebpf4jnsgd1na2vs0mg"},{"bike_id":"cef89498-fbf9-4ad5-afa6-46a5eea10249","system_id":"levelo_inurba_marseille","lat":43.27346,"lon":5.40963,"is_reserved":false,"is_disabled":false,"rental_uris":{"android":"levelo://app?vid=cef89498-fbf9-4ad5-afa6-46a5eea10249","ios":"levelo://app?vid=cef89498-fbf9-4ad5-afa6-46a5eea10249"},"vehicle_type_id":"4","last_reported":1769621057,"current_range_meters":8800,"station_id":"","pricing_plan_id":"cebpf4jnsgd1na2vs0mg"},{"bike_id":"d9e74e48-23e6-471a-b00e-c0252f599ae5","system_id":"levelo_inurba_marseille","lat":43.27058,"lon":5.38309,"is_reserved":false,"is_disabled":false,"rental_uris":{"android":"levelo://app?vid=d9e74e48-23e6-471a-b00e-c0252f599ae5","ios":"levelo://app?vid=d9e74e48-23e6-471a-b00e-c0252f599ae5"},"vehicle_type_id":"4","last_reported":1769621057,"current_range_meters":8800,"station_id":"st_d3n2fo6cfp8s73cte1j0","pricing_plan_id":"cebpf4jnsgd1na2vs0mg"},{"bike_id":"b2c4bf8e-ab48-4533-9cf9-98771b9bacb3","system_id":"levelo_inurba_marseille","lat":43.27669,"lon":5.38883,"is_reserved":false,"is_disabled":false,"rental_uris":{"android":"levelo://app?vid=b2c4bf8e-ab48-4533-9cf9-98771b9bacb3","ios":"levelo://app?vid=b2c4bf8e-ab48-4533-9cf9-98771b9bacb3"},"vehicle_type_id":"4","last_reported":1769621057,"current_range_meters":8800,"station_id":"ce4bhi12rcd13ifvqfo0","pricing_plan_id":"cebpf4jnsgd1na2vs0mg"},{"bike_id":"36855e79-f7ac-4112-b45f-3779dd796963","system_id":"levelo_inurba_marseille","lat":43.30184,"lon":5.37345,"is_reserved":false,"is_disabled":false,"rental_uris":{"android":"levelo://app?vid=36855e79-f7ac-4112-b45f-3779dd796963","ios":"levelo://app?vid=36855e79-f7ac-4112-b45f-3779dd796963"},"vehicle_type_id":"4","last_reported":1769621057,"current_range_meters":8800,"station_id":"","pricing_plan_id":"cebpf4jnsgd1na2vs0mg"},{"bike_id":"ff53f9d5-5f7e-430d-99ce-acc6122108c3","system_id":"levelo_inurba_marseille","lat":43.248092,"lon":5.374602,"is_reserved":false,"is_disabled":false,"rental_uris":{"android":"levelo://app?vid=ff53f9d5-5f7e-430d-99ce-acc6122108c3","ios":"levelo://app?vid=ff53f9d5-5f7e-430d-99ce-acc6122108c3"},"vehicle_type_id":"4","last_reported":1769621057,"current_range_meters":9200,"station_id":"ce4bhgh2rcd13ifvqfb0","pricing_plan_id":"cebpf4jnsgd1na2vs0mg"},{"bike_id":"c27544b1-9726-4fee-b4f5-2e022a6e5a4a","system_id":"levelo_inurba_marseille","lat":43.26502,"lon":5.39536,"is_reserved":false,"is_disabled":false,"rental_uris":{"android":"levelo://app?vid=c27544b1-9726-4fee-b4f5-2e022a6e5a4a","ios":"levelo://app?vid=c27544b1-9726-4fee-b4f5-2e022a6e5a4a"},"vehicle_type_id":"4","last_reported":1769621057,"current_range_meters":9200,"station_id":"ce4bhi12rcd13ifvqfq0","pricing_plan_id":"cebpf4jnsgd1na2vs0mg"},{"bike_id":"884c3400-27d0-403c-a802-5822eaa80325","system_id":"levelo_inurba_marseille","lat":43.28871,"lon":5.42523,"is_reserved":false,"is_disabled":false,"rental_uris":{"android":"levelo://app?vid=884c3400-27d0-403c-a802-5822eaa80325","ios":"levelo://app?vid=884c3400-27d0-403c-a802-5822eaa80325"},"vehicle_type_id":"4","last_reported":1769621057,"current_range_meters":9200,"station_id":"st_d3b462108ojc7389ooeg","pricing_plan_id":"cebpf4jnsgd1na2vs0mg"},{"bike_id":"16199858-b735-4ef4-aea3-a073cd0a7000","system_id":"levelo_inurba_marseille","lat":43.25587,"lon":5.38224,"is_reserved":false,"is_disabled":false,"rental_uris":{"android":"levelo://app?vid=16199858-b735-4ef4-aea3-a073cd0a7000","ios":"levelo://app?vid=16199858-b735-4ef4-aea3-a073cd0a7000"},"vehicle_type_id":"4","last_reported":1769621057,"current_range_meters":9200,"station_id":"ce4bhih2rcd13ifvqfs0","pricing_plan_id":"cebpf4jnsgd1na2vs0mg"},{"bike_id":"3d405854-a3e9-4cc4-bcac-5ce2eff49e57","system_id":"levelo_inurba_marseille","lat":43.23192,"lon":5.39987,"is_reserved":false,"is_disabled":false,"rental_uris":{"android":"levelo://app?vid=3d405854-a3e9-4cc4-bcac-5ce2eff49e57","ios":"levelo://app?vid=3d405854-a3e9-4cc4-bcac-5ce2eff49e57"},"vehicle_type_id":"4","last_reported":1769621057,"current_range_meters":9200,"station_id":"ce4bhn12rcd13ifvqgqg","pricing_plan_id":"cebpf4jnsgd1na2vs0mg"},{"bike_id":"802f6e05-7249-407a-aac4-32d2041628b8","system_id":"levelo_inurba_marseille","lat":43.23056,"lon":5.35492,"is_reserved":false,"is_disabled":false,"rental_uris":{"android":"levelo://app?vid=802f6e05-7249-407a-aac4-32d2041628b8","ios":"levelo://app?vid=802f6e05-7249-407a-aac4-32d2041628b8"},"vehicle_type_id":"4","last_reported":1769621057,"current_range_meters":9200,"station_id":"cpo3342slgdg3j2ifvpg","pricing_plan_id":"cebpf4jnsgd1na2vs0mg"},{"bike_id":"9bd937c4-4e85-4e97-b2f6-e400c6f65945","system_id":"levelo_inurba_marseille","lat":43.28944,"lon":5.36403,"is_reserved":false,"is_disabled":false,"rental_uris":{"android":"levelo://app?vid=9bd937c4-4e85-4e97-b2f6-e400c6f65945","ios":"levelo://app?vid=9bd937c4-4e85-4e97-b2f6-e400c6f65945"},"vehicle_type_id":"4","last_reported":1769621057,"current_range_meters":9200,"station_id":"ce4bhc92rcd13ifvqetg","pricing_plan_id":"cebpf4jnsgd1na2vs0mg"},{"bike_id":"3ba2d6fb-07e0-4885-97fc-602edd68ee53","system_id":"levelo_inurba_marseille","lat":43.30884,"lon":5.39644,"is_reserved":false,"is_disabled":false,"rental_uris":{"android":"levelo://app?vid=3ba2d6fb-07e0-4885-97fc-602edd68ee53","ios":"levelo://app?vid=3ba2d6fb-07e0-4885-97fc-602edd68ee53"},"vehicle_type_id":"4","last_reported":1769621057,"current_range_meters":9200,"station_id":"ce4bh012rcd13ifvqcv0","pricing_plan_id":"cebpf4jnsgd1na2vs0mg"},{"bike_id":"9fa62553-7485-4dd4-bc23-74e19d037896","system_id":"levelo_inurba_marseille","lat":43.2835,"lon":5.38103,"is_reserved":false,"is_disabled":false,"rental_uris":{"android":"levelo://app?vid=9fa62553-7485-4dd4-bc23-74e19d037896","ios":"levelo://app?vid=9fa62553-7485-4dd4-bc23-74e19d037896"},"vehicle_type_id":"4","last_reported":1769621057,"current_range_meters":9200,"station_id":"ce4bh412rcd13ifvqdr0","pricing_plan_id":"cebpf4jnsgd1na2vs0mg"},{"bike_id":"4bd6cb39-f26e-431f-9c48-bc9838a79167","system_id":"levelo_inurba_marseille","lat":43.29812,"lon":5.44082,"is_reserved":false,"is_disabled":false,"rental_uris":{"android":"levelo://app?vid=4bd6cb39-f26e-431f-9c48-bc9838a79167","ios":"levelo://app?vid=4bd6cb39-f26e-431f-9c48-bc9838a79167"},"vehicle_type_id":"4","last_reported":1769621057,"current_range_meters":9200,"station_id":"st_d3jp68qikq2c7381ktn0","pricing_plan_id":"cebpf4jnsgd1na2vs0mg"},{"bike_id":"c011eaab-3612-4dad-b47c-4a59687d4408","system_id":"levelo_inurba_marseille","lat":43.27669,"lon":5.38874,"is_reserved":false,"is_disabled":false,"rental_uris":{"android":"levelo://app?vid=c011eaab-3612-4dad-b47c-4a59687d4408","ios":"levelo://app?vid=c011eaab-3612-4dad-b47c-4a59687d4408"},"vehicle_type_id":"4","last_reported":1769621057,"current_range_meters":9200,"station_id":"ce4bhi12rcd13ifvqfo0","pricing_plan_id":"cebpf4jnsgd1na2vs0mg"},{"bike_id":"bbf12486-e043-443d-8c79-9a273772c204","system_id":"levelo_inurba_marseille","lat":43.23194,"lon":5.39974,"is_reserved":false,"is_disabled":false,"rental_uris":{"android":"levelo://app?vid=bbf12486-e043-443d-8c79-9a273772c204","ios":"levelo://app?vid=bbf12486-e043-443d-8c79-9a273772c204"},"vehicle_type_id":"4","last_reported":1769621057,"current_range_meters":9600,"station_id":"ce4bhn12rcd13ifvqgqg","pricing_plan_id":"cebpf4jnsgd1na2vs0mg"},{"bike_id":"132f504b-b70f-4f5e-895b-9bef822e91c5","system_id":"levelo_inurba_marseille","lat":43.295663,"lon":5.399607,"is_reserved":false,"is_disabled":true,"rental_uris":{"android":"levelo://app?vid=132f504b-b70f-4f5e-895b-9bef822e91c5","ios":"levelo://app?vid=132f504b-b70f-4f5e-895b-9bef822e91c5"},"vehicle_type_id":"4","last_reported":1769621057,"current_range_meters":9600,"station_id":"ce4bh312rcd13ifvqdj0","pricing_plan_id":"cebpf4jnsgd1na2vs0mg"},{"bike_id":"29e658f4-2359-46f1-90c1-df0499696a70","system_id":"levelo_inurba_marseille","lat":43.30121,"lon":5.43114,"is_reserved":false,"is_disabled":false,"rental_uris":{"android":"levelo://app?vid=29e658f4-2359-46f1-90c1-df0499696a70","ios":"levelo://app?vid=29e658f4-2359-46f1-90c1-df0499696a70"},"vehicle_type_id":"4","last_reported":1769621057,"current_range_meters":9600,"station_id":"st_d3js3co5814s73ftftug","pricing_plan_id":"cebpf4jnsgd1na2vs0mg"},{"bike_id":"f9f433f8-c18c-4a42-bb0c-796736b3decc","system_id":"levelo_inurba_marseille","lat":43.23781,"lon":5.366289,"is_reserved":false,"is_disabled":false,"rental_uris":{"android":"levelo://app?vid=f9f433f8-c18c-4a42-bb0c-796736b3decc","ios":"levelo://app?vid=f9f433f8-c18c-4a42-bb0c-796736b3decc"},"vehicle_type_id":"4","last_reported":1769621057,"current_range_meters":9600,"station_id":"st_d3nk18o9ro0c73en2l3g","pricing_plan_id":"cebpf4jnsgd1na2vs0mg"},{"bike_id":"5ca7df86-652f-4ef4-a210-1e784774b230","system_id":"levelo_inurba_marseille","lat":43.31172,"lon":5.4017,"is_reserved":false,"is_disabled":false,"rental_uris":{"android":"levelo://app?vid=5ca7df86-652f-4ef4-a210-1e784774b230","ios":"levelo://app?vid=5ca7df86-652f-4ef4-a210-1e784774b230"},"vehicle_type_id":"4","last_reported":1769621057,"current_range_meters":9600,"station_id":"","pricing_plan_id":"cebpf4jnsgd1na2vs0mg"},{"bike_id":"fa3935ca-5664-431b-81b3-d462965b7a2a","system_id":"levelo_inurba_marseille","lat":43.23151,"lon":5.43722,"is_reserved":false,"is_disabled":false,"rental_uris":{"android":"levelo://app?vid=fa3935ca-5664-431b-81b3-d462965b7a2a","ios":"levelo://app?vid=fa3935ca-5664-431b-81b3-d462965b7a2a"},"vehicle_type_id":"4","last_reported":1769621057,"current_range_meters":9600,"station_id":"ce4bhmp2rcd13ifvqgog","pricing_plan_id":"cebpf4jnsgd1na2vs0mg"},{"bike_id":"9c143376-0522-4d00-a116-66d871cdb46d","system_id":"levelo_inurba_marseille","lat":43.25579,"lon":5.38252,"is_reserved":false,"is_disabled":false,"rental_uris":{"android":"levelo://app?vid=9c143376-0522-4d00-a116-66d871cdb46d","ios":"levelo://app?vid=9c143376-0522-4d00-a116-66d871cdb46d"},"vehicle_type_id":"4","last_reported":1769621057,"current_range_meters":9600,"station_id":"ce4bhih2rcd13ifvqfs0","pricing_plan_id":"cebpf4jnsgd1na2vs0mg"},{"bike_id":"29439c4d-d7b1-426c-9ee7-994011b7fd9c","system_id":"levelo_inurba_marseille","lat":43.28459,"lon":5.35882,"is_reserved":false,"is_disabled":false,"rental_uris":{"android":"levelo://app?vid=29439c4d-d7b1-426c-9ee7-994011b7fd9c","ios":"levelo://app?vid=29439c4d-d7b1-426c-9ee7-994011b7fd9c"},"vehicle_type_id":"4","last_reported":1769621057,"current_range_meters":9600,"station_id":"ce4bhah2rcd13ifvqei0","pricing_plan_id":"cebpf4jnsgd1na2vs0mg"},{"bike_id":"0491bed2-eff8-42d6-9460-8bfe4a2ab6cf","system_id":"levelo_inurba_marseille","lat":43.27898,"lon":5.39556,"is_reserved":false,"is_disabled":false,"rental_uris":{"android":"levelo://app?vid=0491bed2-eff8-42d6-9460-8bfe4a2ab6cf","ios":"levelo://app?vid=0491bed2-eff8-42d6-9460-8bfe4a2ab6cf"},"vehicle_type_id":"4","last_reported":1769621057,"current_range_meters":9600,"station_id":"ce4bhf92rcd13ifvqf40","pricing_plan_id":"cebpf4jnsgd1na2vs0mg"},{"bike_id":"d63c7dd8-668d-4210-8cec-f85b7549a456","system_id":"levelo_inurba_marseille","lat":43.2963,"lon":5.37175,"is_reserved":false,"is_disabled":false,"rental_uris":{"android":"levelo://app?vid=d63c7dd8-668d-4210-8cec-f85b7549a456","ios":"levelo://app?vid=d63c7dd8-668d-4210-8cec-f85b7549a456"},"vehicle_type_id":"4","last_reported":1769621057,"current_range_meters":9600,"station_id":"ce4bgnh2rcd13ifvqc0g","pricing_plan_id":"cebpf4jnsgd1na2vs0mg"},{"bike_id":"92ac9ca0-f0b4-4afa-9cdd-b121e9de80a9","system_id":"levelo_inurba_marseille","lat":43.26205,"lon":5.37446,"is_reserved":false,"is_disabled":false,"rental_uris":{"android":"levelo://app?vid=92ac9ca0-f0b4-4afa-9cdd-b121e9de80a9","ios":"levelo://app?vid=92ac9ca0-f0b4-4afa-9cdd-b121e9de80a9"},"vehicle_type_id":"4","last_reported":1769621057,"current_range_meters":9600,"station_id":"ce4bhgp2rcd13ifvqfc0","pricing_plan_id":"cebpf4jnsgd1na2vs0mg"},{"bike_id":"70c8e946-935d-472e-a5f3-1a97a017c367","system_id":"levelo_inurba_marseille","lat":43.32469,"lon":5.36525,"is_reserved":false,"is_disabled":false,"rental_uris":{"android":"levelo://app?vid=70c8e946-935d-472e-a5f3-1a97a017c367","ios":"levelo://app?vid=70c8e946-935d-472e-a5f3-1a97a017c367"},"vehicle_type_id":"4","last_reported":1769621057,"current_range_meters":9600,"station_id":"ce4bhs12rcd13ifvqhvg","pricing_plan_id":"cebpf4jnsgd1na2vs0mg"},{"bike_id":"85b1b1e1-c458-4711-86a6-2ddb2584b733","system_id":"levelo_inurba_marseille","lat":43.335509,"lon":5.374554,"is_reserved":false,"is_disabled":false,"rental_uris":{"android":"levelo://app?vid=85b1b1e1-c458-4711-86a6-2ddb2584b733","ios":"levelo://app?vid=85b1b1e1-c458-4711-86a6-2ddb2584b733"},"vehicle_type_id":"4","last_reported":1769621057,"current_range_meters":9600,"station_id":"st_d46tts09ee8s73dlu43g","pricing_plan_id":"cebpf4jnsgd1na2vs0mg"},{"bike_id":"fcb15118-e3ea-4d5f-a295-3e91a1691dd9","system_id":"levelo_inurba_marseille","lat":43.295303,"lon":5.385586,"is_reserved":false,"is_disabled":false,"rental_uris":{"android":"levelo://app?vid=fcb15118-e3ea-4d5f-a295-3e91a1691dd9","ios":"levelo://app?vid=fcb15118-e3ea-4d5f-a295-3e91a1691dd9"},"vehicle_type_id":"4","last_reported":1769621057,"current_range_meters":9600,"station_id":"ce4bgih2rcd13ifvqba0","pricing_plan_id":"cebpf4jnsgd1na2vs0mg"},{"bike_id":"395a65f3-5e87-44a3-9ab0-ff3266ce6068","system_id":"levelo_inurba_marseille","lat":43.28108,"lon":5.37847,"is_reserved":false,"is_disabled":false,"rental_uris":{"android":"levelo://app?vid=395a65f3-5e87-44a3-9ab0-ff3266ce6068","ios":"levelo://app?vid=395a65f3-5e87-44a3-9ab0-ff3266ce6068"},"vehicle_type_id":"4","last_reported":1769621057,"current_range_meters":9600,"station_id":"ce4bha12rcd13ifvqee0","pricing_plan_id":"cebpf4jnsgd1na2vs0mg"},{"bike_id":"a1adbbcc-56be-41a6-a560-f4a5e4282b51","system_id":"levelo_inurba_marseille","lat":43.28419,"lon":5.34988,"is_reserved":false,"is_disabled":false,"rental_uris":{"android":"levelo://app?vid=a1adbbcc-56be-41a6-a560-f4a5e4282b51","ios":"levelo://app?vid=a1adbbcc-56be-41a6-a560-f4a5e4282b51"},"vehicle_type_id":"4","last_reported":1769621057,"current_range_meters":9600,"station_id":"ce4bhbh2rcd13ifvqepg","pricing_plan_id":"cebpf4jnsgd1na2vs0mg"},{"bike_id":"e236f0a6-2e87-48ed-94ce-e49f696f4842","system_id":"levelo_inurba_marseille","lat":43.265912,"lon":5.374992,"is_reserved":false,"is_disabled":false,"rental_uris":{"android":"levelo://app?vid=e236f0a6-2e87-48ed-94ce-e49f696f4842","ios":"levelo://app?vid=e236f0a6-2e87-48ed-94ce-e49f696f4842"},"vehicle_type_id":"4","last_reported":1769621057,"current_range_meters":9600,"station_id":"","pricing_plan_id":"cebpf4jnsgd1na2vs0mg"},{"bike_id":"b160d3e8-6013-4e1d-a5e2-a6cbcdd77ebd","system_id":"levelo_inurba_marseille","lat":43.3013,"lon":5.37391,"is_reserved":false,"is_disabled":false,"rental_uris":{"android":"levelo://app?vid=b160d3e8-6013-4e1d-a5e2-a6cbcdd77ebd","ios":"levelo://app?vid=b160d3e8-6013-4e1d-a5e2-a6cbcdd77ebd"},"vehicle_type_id":"4","last_reported":1769621057,"current_range_meters":9600,"station_id":"ce4bgs92rcd13ifvqcc0","pricing_plan_id":"cebpf4jnsgd1na2vs0mg"},{"bike_id":"c9a15f5a-f34f-4068-abb3-230d98931250","system_id":"levelo_inurba_marseille","lat":43.24565,"lon":5.39506,"is_reserved":false,"is_disabled":false,"rental_uris":{"android":"levelo://app?vid=c9a15f5a-f34f-4068-abb3-230d98931250","ios":"levelo://app?vid=c9a15f5a-f34f-4068-abb3-230d98931250"},"vehicle_type_id":"4","last_reported":1769621057,"current_range_meters":9600,"station_id":"ce4bhlp2rcd13ifvqgjg","pricing_plan_id":"cebpf4jnsgd1na2vs0mg"},{"bike_id":"3d5b7d89-4627-4dc9-98dc-b3de2aa0e2ba","system_id":"levelo_inurba_marseille","lat":43.30428,"lon":5.38887,"is_reserved":false,"is_disabled":false,"rental_uris":{"android":"levelo://app?vid=3d5b7d89-4627-4dc9-98dc-b3de2aa0e2ba","ios":"levelo://app?vid=3d5b7d89-4627-4dc9-98dc-b3de2aa0e2ba"},"vehicle_type_id":"4","last_reported":1769621057,"current_range_meters":9600,"station_id":"ce4bgk12rcd13ifvqbi0","pricing_plan_id":"cebpf4jnsgd1na2vs0mg"},{"bike_id":"a58dc732-5bf5-4207-8eae-ec0e6318e474","system_id":"levelo_inurba_marseille","lat":43.28458,"lon":5.38412,"is_reserved":false,"is_disabled":false,"rental_uris":{"android":"levelo://app?vid=a58dc732-5bf5-4207-8eae-ec0e6318e474","ios":"levelo://app?vid=a58dc732-5bf5-4207-8eae-ec0e6318e474"},"vehicle_type_id":"4","last_reported":1769621057,"current_range_meters":9600,"station_id":"ce4bh512rcd13ifvqe3g","pricing_plan_id":"cebpf4jnsgd1na2vs0mg"},{"bike_id":"5c772b92-5cf5-41d4-ac55-dcfe16afe202","system_id":"levelo_inurba_marseille","lat":43.29518,"lon":5.39398,"is_reserved":false,"is_disabled":false,"rental_uris":{"android":"levelo://app?vid=5c772b92-5cf5-41d4-ac55-dcfe16afe202","ios":"levelo://app?vid=5c772b92-5cf5-41d4-ac55-dcfe16afe202"},"vehicle_type_id":"4","last_reported":1769621057,"current_range_meters":9600,"station_id":"ce4bh292rcd13ifvqdf0","pricing_plan_id":"cebpf4jnsgd1na2vs0mg"},{"bike_id":"51e33b43-0b63-43c6-8dbf-365699605da8","system_id":"levelo_inurba_marseille","lat":43.270034,"lon":5.398301,"is_reserved":false,"is_disabled":false,"rental_uris":{"android":"levelo://app?vid=51e33b43-0b63-43c6-8dbf-365699605da8","ios":"levelo://app?vid=51e33b43-0b63-43c6-8dbf-365699605da8"},"vehicle_type_id":"4","last_reported":1769621057,"current_range_meters":9600,"station_id":"","pricing_plan_id":"cebpf4jnsgd1na2vs0mg"},{"bike_id":"758f591c-dc53-4d12-9d29-27a85cd23e95","system_id":"levelo_inurba_marseille","lat":43.25584,"lon":5.38224,"is_reserved":false,"is_disabled":false,"rental_uris":{"android":"levelo://app?vid=758f591c-dc53-4d12-9d29-27a85cd23e95","ios":"levelo://app?vid=758f591c-dc53-4d12-9d29-27a85cd23e95"},"vehicle_type_id":"4","last_reported":1769621057,"current_range_meters":9600,"station_id":"ce4bhih2rcd13ifvqfs0","pricing_plan_id":"cebpf4jnsgd1na2vs0mg"},{"bike_id":"1bfe2930-bdb0-4422-9fe9-421cffed6f81","system_id":"levelo_inurba_marseille","lat":43.25934,"lon":5.40891,"is_reserved":false,"is_disabled":false,"rental_uris":{"android":"levelo://app?vid=1bfe2930-bdb0-4422-9fe9-421cffed6f81","ios":"levelo://app?vid=1bfe2930-bdb0-4422-9fe9-421cffed6f81"},"vehicle_type_id":"4","last_reported":1769621057,"current_range_meters":9600,"station_id":"ce4bhm92rcd13ifvqglg","pricing_plan_id":"cebpf4jnsgd1na2vs0mg"},{"bike_id":"91c320d2-3861-4d9c-b122-2378e23c9a68","system_id":"levelo_inurba_marseille","lat":43.24814,"lon":5.37467,"is_reserved":false,"is_disabled":false,"rental_uris":{"android":"levelo://app?vid=91c320d2-3861-4d9c-b122-2378e23c9a68","ios":"levelo://app?vid=91c320d2-3861-4d9c-b122-2378e23c9a68"},"vehicle_type_id":"4","last_reported":1769621057,"current_range_meters":9600,"station_id":"ce4bhgh2rcd13ifvqfb0","pricing_plan_id":"cebpf4jnsgd1na2vs0mg"},{"bike_id":"251a7e85-f638-4957-bf6f-fb804e09944f","system_id":"levelo_inurba_marseille","lat":43.29565,"lon":5.39979,"is_reserved":false,"is_disabled":false,"rental_uris":{"android":"levelo://app?vid=251a7e85-f638-4957-bf6f-fb804e09944f","ios":"levelo://app?vid=251a7e85-f638-4957-bf6f-fb804e09944f"},