{"last_updated":1756228150,"ttl":60,"version":"2.2","data":{"bikes":[{"bike_id":"50af81ba-de13-4986-8ef8-c14fb695e6d2","system_id":"levelo_inurba_marseille","lat":43.329,"lon":5.37991,"is_reserved":false,"is_disabled":false,"rental_uris":{"android":"levelo://app?vid=50af81ba-de13-4986-8ef8-c14fb695e6d2","ios":"levelo://app?vid=50af81ba-de13-4986-8ef8-c14fb695e6d2"},"vehicle_type_id":"4","last_reported":1756228151,"current_range_meters":3200,"station_id":"","pricing_plan_id":"cebpf4jnsgd1na2vs0mg"},{"bike_id":"ae6e7466-f79a-43dd-ba01-51043638613b","system_id":"levelo_inurba_marseille","lat":43.33769,"lon":5.37477,"is_reserved":false,"is_disabled":false,"rental_uris":{"android":"levelo://app?vid=ae6e7466-f79a-43dd-ba01-51043638613b","ios":"levelo://app?vid=ae6e7466-f79a-43dd-ba01-51043638613b"},"vehicle_type_id":"4","last_reported":1756228151,"current_range_meters":3200,"station_id":"","pricing_plan_id":"cebpf4jnsgd1na2vs0mg"},{"bike_id":"fbf1f008-58c3-4808-b396-60ac5f701ba0","system_id":"levelo_inurba_marseille","lat":43.27914,"lon":5.38013,"is_reserved":false,"is_disabled":false,"rental_uris":{"android":"levelo://app?vid=fbf1f008-58c3-4808-b396-60ac5f701ba0","ios":"levelo://app?vid=fbf1f008-58c3-4808-b396-60ac5f701ba0"},"vehicle_type_id":"4","last_reported":1756228151,"current_range_meters":3200,"station_id":"ce4bhf92rcd13ifvqf50","pricing_plan_id":"cebpf4jnsgd1na2vs0mg"},{"bike_id":"da8e4a85-db89-46b0-a6ff-79001ea73d80","system_id":"levelo_inurba_marseille","lat":43.29007,"lon":5.35606,"is_reserved":false,"is_disabled":false,"rental_uris":{"android":"levelo://app?vid=da8e4a85-db89-46b0-a6ff-79001ea73d80","ios":"levelo://app?vid=da8e4a85-db89-46b0-a6ff-79001ea73d80"},"vehicle_type_id":"4","last_reported":1756228151,"current_range_meters":3600,"station_id":"ce4bhb92rcd13ifvqen0","pricing_plan_id":"cebpf4jnsgd1na2vs0mg"},{"bike_id":"26e29c73-25a6-47c4-ac04-a06998776ab8","system_id":"levelo_inurba_marseille","lat":43.24546,"lon":5.3952,"is_reserved":false,"is_disabled":false,"rental_uris":{"android":"levelo://app?vid=26e29c73-25a6-47c4-ac04-a06998776ab8","ios":"levelo://app?vid=26e29c73-25a6-47c4-ac04-a06998776ab8"},"vehicle_type_id":"4","last_reported":1756228151,"current_range_meters":3600,"station_id":"ce4bhlp2rcd13ifvqgjg","pricing_plan_id":"cebpf4jnsgd1na2vs0mg"},{"bike_id":"b422586f-9cbe-47f0-8739-1ce8f09e0b24","system_id":"levelo_inurba_marseille","lat":43.29968,"lon":5.384786,"is_reserved":false,"is_disabled":false,"rental_uris":{"android":"levelo://app?vid=b422586f-9cbe-47f0-8739-1ce8f09e0b24","ios":"levelo://app?vid=b422586f-9cbe-47f0-8739-1ce8f09e0b24"},"vehicle_type_id":"4","last_reported":1756228151,"current_range_meters":3600,"station_id":"ce4bgj92rcd13ifvqbd0","pricing_plan_id":"cebpf4jnsgd1na2vs0mg"},{"bike_id":"18cadd98-ca5b-4518-98d8-bbb26e647823","system_id":"levelo_inurba_marseille","lat":43.21184,"lon":5.35051,"is_reserved":false,"is_disabled":false,"rental_uris":{"android":"levelo://app?vid=18cadd98-ca5b-4518-98d8-bbb26e647823","ios":"levelo://app?vid=18cadd98-ca5b-4518-98d8-bbb26e647823"},"vehicle_type_id":"4","last_reported":1756228151,"current_range_meters":3600,"station_id":"st_cvj6sg6p6f1abm77japg","pricing_plan_id":"cebpf4jnsgd1na2vs0mg"},{"bike_id":"737be013-1243-43a5-bfb6-8625395dd3d7","system_id":"levelo_inurba_marseille","lat":43.27207,"lon":5.39185,"is_reserved":false,"is_disabled":false,"rental_uris":{"android":"levelo://app?vid=737be013-1243-43a5-bfb6-8625395dd3d7","ios":"levelo://app?vid=737be013-1243-43a5-bfb6-8625395dd3d7"},"vehicle_type_id":"4","last_reported":1756228151,"current_range_meters":3600,"station_id":"ce4bhhp2rcd13ifvqfm0","pricing_plan_id":"cebpf4jnsgd1na2vs0mg"},{"bike_id":"1f278ef5-cfbb-47f5-b8b0-c8b2fb4c30a1","system_id":"levelo_inurba_marseille","lat":43.29372,"lon":5.37858,"is_reserved":false,"is_disabled":false,"rental_uris":{"android":"levelo://app?vid=1f278ef5-cfbb-47f5-b8b0-c8b2fb4c30a1","ios":"levelo://app?vid=1f278ef5-cfbb-47f5-b8b0-c8b2fb4c30a1"},"vehicle_type_id":"4","last_reported":1756228151,"current_range_meters":3600,"station_id":"ce4bgjh2rcd13ifvqbf0","pricing_plan_id":"cebpf4jnsgd1na2vs0mg"},{"bike_id":"7aca0818-1370-4327-ab37-857f64092f23","system_id":"levelo_inurba_marseille","lat":43.273239,"lon":5.390613,"is_reserved":false,"is_disabled":false,"rental_uris":{"android":"levelo://app?vid=7aca0818-1370-4327-ab37-857f64092f23","ios":"levelo://app?vid=7aca0818-1370-4327-ab37-857f64092f23"},"vehicle_type_id":"4","last_reported":1756228151,"current_range_meters":3200,"station_id":"ce4bhgp2rcd13ifvqfe0","pricing_plan_id":"cebpf4jnsgd1na2vs0mg"},{"bike_id":"a52c79ef-89bc-4634-b1df-9b5b9498c18a","system_id":"levelo_inurba_marseille","lat":43.29272,"lon":5.36858,"is_reserved":false,"is_disabled":false,"rental_uris":{"android":"levelo://app?vid=a52c79ef-89bc-4634-b1df-9b5b9498c18a","ios":"levelo://app?vid=a52c79ef-89bc-4634-b1df-9b5b9498c18a"},"vehicle_type_id":"4","last_reported":1756228151,"current_range_meters":3600,"station_id":"ce4bhbp2rcd13ifvqesg","pricing_plan_id":"cebpf4jnsgd1na2vs0mg"},{"bike_id":"d4536fa9-9241-4712-9096-e4ee0d4f8fb9","system_id":"levelo_inurba_marseille","lat":43.29964,"lon":5.38497,"is_reserved":false,"is_disabled":false,"rental_uris":{"android":"levelo://app?vid=d4536fa9-9241-4712-9096-e4ee0d4f8fb9","ios":"levelo://app?vid=d4536fa9-9241-4712-9096-e4ee0d4f8fb9"},"vehicle_type_id":"4","last_reported":1756228151,"current_range_meters":4000,"station_id":"ce4bgj92rcd13ifvqbd0","pricing_plan_id":"cebpf4jnsgd1na2vs0mg"},{"bike_id":"15bd8328-f1d3-45d9-aab7-e4d58b745d00","system_id":"levelo_inurba_marseille","lat":43.31062,"lon":5.38379,"is_reserved":false,"is_disabled":false,"rental_uris":{"android":"levelo://app?vid=15bd8328-f1d3-45d9-aab7-e4d58b745d00","ios":"levelo://app?vid=15bd8328-f1d3-45d9-aab7-e4d58b745d00"},"vehicle_type_id":"4","last_reported":1756228151,"current_range_meters":4000,"station_id":"ce4bgv92rcd13ifvqcr0","pricing_plan_id":"cebpf4jnsgd1na2vs0mg"},{"bike_id":"94d998a5-f115-4e74-9154-92f306fbab37","system_id":"levelo_inurba_marseille","lat":43.24177,"lon":5.39731,"is_reserved":false,"is_disabled":false,"rental_uris":{"android":"levelo://app?vid=94d998a5-f115-4e74-9154-92f306fbab37","ios":"levelo://app?vid=94d998a5-f115-4e74-9154-92f306fbab37"},"vehicle_type_id":"4","last_reported":1756228151,"current_range_meters":4000,"station_id":"ce4bhn12rcd13ifvqgpg","pricing_plan_id":"cebpf4jnsgd1na2vs0mg"},{"bike_id":"d3499276-b038-4510-921a-5ccfa282a72a","system_id":"levelo_inurba_marseille","lat":43.25499,"lon":5.37651,"is_reserved":false,"is_disabled":false,"rental_uris":{"android":"levelo://app?vid=d3499276-b038-4510-921a-5ccfa282a72a","ios":"levelo://app?vid=d3499276-b038-4510-921a-5ccfa282a72a"},"vehicle_type_id":"4","last_reported":1756228151,"current_range_meters":4000,"station_id":"ce4bhh12rcd13ifvqff0","pricing_plan_id":"cebpf4jnsgd1na2vs0mg"},{"bike_id":"bea334f8-0175-4293-8483-04f0b39e68da","system_id":"levelo_inurba_marseille","lat":43.28116,"lon":5.37836,"is_reserved":false,"is_disabled":false,"rental_uris":{"android":"levelo://app?vid=bea334f8-0175-4293-8483-04f0b39e68da","ios":"levelo://app?vid=bea334f8-0175-4293-8483-04f0b39e68da"},"vehicle_type_id":"4","last_reported":1756228151,"current_range_meters":4000,"station_id":"ce4bha12rcd13ifvqee0","pricing_plan_id":"cebpf4jnsgd1na2vs0mg"},{"bike_id":"04950978-9fab-4b56-a4da-990384caa45f","system_id":"levelo_inurba_marseille","lat":43.29511,"lon":5.39394,"is_reserved":false,"is_disabled":false,"rental_uris":{"android":"levelo://app?vid=04950978-9fab-4b56-a4da-990384caa45f","ios":"levelo://app?vid=04950978-9fab-4b56-a4da-990384caa45f"},"vehicle_type_id":"4","last_reported":1756228151,"current_range_meters":4400,"station_id":"ce4bh292rcd13ifvqdf0","pricing_plan_id":"cebpf4jnsgd1na2vs0mg"},{"bike_id":"fb0ecd7c-2c0f-42f1-9e73-9448c9893367","system_id":"levelo_inurba_marseille","lat":43.26474,"lon":5.37027,"is_reserved":false,"is_disabled":false,"rental_uris":{"android":"levelo://app?vid=fb0ecd7c-2c0f-42f1-9e73-9448c9893367","ios":"levelo://app?vid=fb0ecd7c-2c0f-42f1-9e73-9448c9893367"},"vehicle_type_id":"4","last_reported":1756228151,"current_range_meters":4400,"station_id":"","pricing_plan_id":"cebpf4jnsgd1na2vs0mg"},{"bike_id":"387793f6-51a5-412f-bb67-df138201abbb","system_id":"levelo_inurba_marseille","lat":43.29927,"lon":5.36548,"is_reserved":false,"is_disabled":false,"rental_uris":{"android":"levelo://app?vid=387793f6-51a5-412f-bb67-df138201abbb","ios":"levelo://app?vid=387793f6-51a5-412f-bb67-df138201abbb"},"vehicle_type_id":"4","last_reported":1756228151,"current_range_meters":4400,"station_id":"ce4bgm92rcd13ifvqbr0","pricing_plan_id":"cebpf4jnsgd1na2vs0mg"},{"bike_id":"c4ccc10f-8ccd-44be-a00a-f6ebdc6ec159","system_id":"levelo_inurba_marseille","lat":43.30394,"lon":5.43447,"is_reserved":false,"is_disabled":false,"rental_uris":{"android":"levelo://app?vid=c4ccc10f-8ccd-44be-a00a-f6ebdc6ec159","ios":"levelo://app?vid=c4ccc10f-8ccd-44be-a00a-f6ebdc6ec159"},"vehicle_type_id":"4","last_reported":1756228151,"current_range_meters":4800,"station_id":"","pricing_plan_id":"cebpf4jnsgd1na2vs0mg"},{"bike_id":"4172b2ff-6f06-483f-8bf2-fecf76665134","system_id":"levelo_inurba_marseille","lat":43.270709,"lon":5.422808,"is_reserved":false,"is_disabled":false,"rental_uris":{"android":"levelo://app?vid=4172b2ff-6f06-483f-8bf2-fecf76665134","ios":"levelo://app?vid=4172b2ff-6f06-483f-8bf2-fecf76665134"},"vehicle_type_id":"4","last_reported":1756228151,"current_range_meters":4800,"station_id":"ce4bhk92rcd13ifvqgb0","pricing_plan_id":"cebpf4jnsgd1na2vs0mg"},{"bike_id":"f4e21cd0-59ff-40ca-9d2f-92e0b824c3d3","system_id":"levelo_inurba_marseille","lat":43.303043,"lon":5.392145,"is_reserved":false,"is_disabled":false,"rental_uris":{"android":"levelo://app?vid=f4e21cd0-59ff-40ca-9d2f-92e0b824c3d3","ios":"levelo://app?vid=f4e21cd0-59ff-40ca-9d2f-92e0b824c3d3"},"vehicle_type_id":"4","last_reported":1756228151,"current_range_meters":5600,"station_id":"ce4bgkh2rcd13ifvqbk0","pricing_plan_id":"cebpf4jnsgd1na2vs0mg"},{"bike_id":"008ede97-2ead-4c50-8947-55314470b9eb","system_id":"levelo_inurba_marseille","lat":43.29623,"lon":5.37163,"is_reserved":false,"is_disabled":false,"rental_uris":{"android":"levelo://app?vid=008ede97-2ead-4c50-8947-55314470b9eb","ios":"levelo://app?vid=008ede97-2ead-4c50-8947-55314470b9eb"},"vehicle_type_id":"4","last_reported":1756228151,"current_range_meters":5600,"station_id":"ce4bgnh2rcd13ifvqc0g","pricing_plan_id":"cebpf4jnsgd1na2vs0mg"},{"bike_id":"2ddaa2b6-1894-41fa-8017-060e00852d59","system_id":"levelo_inurba_marseille","lat":43.289368,"lon":5.366363,"is_reserved":false,"is_disabled":false,"rental_uris":{"android":"levelo://app?vid=2ddaa2b6-1894-41fa-8017-060e00852d59","ios":"levelo://app?vid=2ddaa2b6-1894-41fa-8017-060e00852d59"},"vehicle_type_id":"4","last_reported":1756228151,"current_range_meters":5600,"station_id":"ce4bhap2rcd13ifvqek0","pricing_plan_id":"cebpf4jnsgd1na2vs0mg"},{"bike_id":"0e3d143f-3553-40b9-8fdd-6cb07353debd","system_id":"levelo_inurba_marseille","lat":43.28847,"lon":5.39304,"is_reserved":false,"is_disabled":false,"rental_uris":{"android":"levelo://app?vid=0e3d143f-3553-40b9-8fdd-6cb07353debd","ios":"levelo://app?vid=0e3d143f-3553-40b9-8fdd-6cb07353debd"},"vehicle_type_id":"4","last_reported":1756228151,"current_range_meters":5600,"station_id":"ce4bh2p2rcd13ifvqdi0","pricing_plan_id":"cebpf4jnsgd1na2vs0mg"},{"bike_id":"23ed1e7b-8281-4366-a119-b25dd7150abe","system_id":"levelo_inurba_marseille","lat":43.2657,"lon":5.39017,"is_reserved":false,"is_disabled":false,"rental_uris":{"android":"levelo://app?vid=23ed1e7b-8281-4366-a119-b25dd7150abe","ios":"levelo://app?vid=23ed1e7b-8281-4366-a119-b25dd7150abe"},"vehicle_type_id":"4","last_reported":1756228151,"current_range_meters":6000,"station_id":"ce4bhe12rcd13ifvqf30","pricing_plan_id":"cebpf4jnsgd1na2vs0mg"},{"bike_id":"19bd4ecd-e129-4d7b-b058-96f878377224","system_id":"levelo_inurba_marseille","lat":43.30297,"lon":5.39185,"is_reserved":false,"is_disabled":false,"rental_uris":{"android":"levelo://app?vid=19bd4ecd-e129-4d7b-b058-96f878377224","ios":"levelo://app?vid=19bd4ecd-e129-4d7b-b058-96f878377224"},"vehicle_type_id":"4","last_reported":1756228151,"current_range_meters":6000,"station_id":"ce4bgkh2rcd13ifvqbk0","pricing_plan_id":"cebpf4jnsgd1na2vs0mg"},{"bike_id":"8963a159-f3b7-43a0-8518-9e4a9c40f76e","system_id":"levelo_inurba_marseille","lat":43.33163,"lon":5.3814,"is_reserved":false,"is_disabled":false,"rental_uris":{"android":"levelo://app?vid=8963a159-f3b7-43a0-8518-9e4a9c40f76e","ios":"levelo://app?vid=8963a159-f3b7-43a0-8518-9e4a9c40f76e"},"vehicle_type_id":"4","last_reported":1756228151,"current_range_meters":6000,"station_id":"","pricing_plan_id":"cebpf4jnsgd1na2vs0mg"},{"bike_id":"c2c23109-b7c0-4f42-a2ca-14de3b7c6151","system_id":"levelo_inurba_marseille","lat":43.26026,"lon":5.37547,"is_reserved":false,"is_disabled":false,"rental_uris":{"android":"levelo://app?vid=c2c23109-b7c0-4f42-a2ca-14de3b7c6151","ios":"levelo://app?vid=c2c23109-b7c0-4f42-a2ca-14de3b7c6151"},"vehicle_type_id":"4","last_reported":1756228151,"current_range_meters":6000,"station_id":"ce4bhgh2rcd13ifvqfa0","pricing_plan_id":"cebpf4jnsgd1na2vs0mg"},{"bike_id":"06d39da9-12b8-4d5e-9e6b-32637fba83fc","system_id":"levelo_inurba_marseille","lat":43.30324,"lon":5.40437,"is_reserved":false,"is_disabled":false,"rental_uris":{"android":"levelo://app?vid=06d39da9-12b8-4d5e-9e6b-32637fba83fc","ios":"levelo://app?vid=06d39da9-12b8-4d5e-9e6b-32637fba83fc"},"vehicle_type_id":"4","last_reported":1756228151,"current_range_meters":6400,"station_id":"ce4bh012rcd13ifvqd10","pricing_plan_id":"cebpf4jnsgd1na2vs0mg"},{"bike_id":"337357a8-3015-46e9-a625-140ba631c0e7","system_id":"levelo_inurba_marseille","lat":43.30422,"lon":5.41287,"is_reserved":false,"is_disabled":false,"rental_uris":{"android":"levelo://app?vid=337357a8-3015-46e9-a625-140ba631c0e7","ios":"levelo://app?vid=337357a8-3015-46e9-a625-140ba631c0e7"},"vehicle_type_id":"4","last_reported":1756228151,"current_range_meters":6400,"station_id":"ce4bhop2rcd13ifvqh8g","pricing_plan_id":"cebpf4jnsgd1na2vs0mg"},{"bike_id":"0820d07e-5b0a-4f56-8cd9-f70a4b0ec633","system_id":"levelo_inurba_marseille","lat":43.22936,"lon":5.35373,"is_reserved":false,"is_disabled":false,"rental_uris":{"android":"levelo://app?vid=0820d07e-5b0a-4f56-8cd9-f70a4b0ec633","ios":"levelo://app?vid=0820d07e-5b0a-4f56-8cd9-f70a4b0ec633"},"vehicle_type_id":"4","last_reported":1756228151,"current_range_meters":6400,"station_id":"cpo3532slgdg3j2ikp40","pricing_plan_id":"cebpf4jnsgd1na2vs0mg"},{"bike_id":"dba9f956-d47a-4525-9718-8494d85345c1","system_id":"levelo_inurba_marseille","lat":43.28152,"lon":5.4265,"is_reserved":false,"is_disabled":false,"rental_uris":{"android":"levelo://app?vid=dba9f956-d47a-4525-9718-8494d85345c1","ios":"levelo://app?vid=dba9f956-d47a-4525-9718-8494d85345c1"},"vehicle_type_id":"4","last_reported":1756228151,"current_range_meters":6000,"station_id":"ce4bhnh2rcd13ifvqgug","pricing_plan_id":"cebpf4jnsgd1na2vs0mg"},{"bike_id":"c9a1e2f5-9ea7-4dc5-af99-4282e671d3b5","system_id":"levelo_inurba_marseille","lat":43.26189,"lon":5.37456,"is_reserved":false,"is_disabled":true,"rental_uris":{"android":"levelo://app?vid=c9a1e2f5-9ea7-4dc5-af99-4282e671d3b5","ios":"levelo://app?vid=c9a1e2f5-9ea7-4dc5-af99-4282e671d3b5"},"vehicle_type_id":"4","last_reported":1756228151,"current_range_meters":6400,"station_id":"ce4bhgp2rcd13ifvqfc0","pricing_plan_id":"cebpf4jnsgd1na2vs0mg"},{"bike_id":"053c4f32-257a-434f-a623-7800c7e444ed","system_id":"levelo_inurba_marseille","lat":43.29009,"lon":5.35619,"is_reserved":false,"is_disabled":false,"rental_uris":{"android":"levelo://app?vid=053c4f32-257a-434f-a623-7800c7e444ed","ios":"levelo://app?vid=053c4f32-257a-434f-a623-7800c7e444ed"},"vehicle_type_id":"4","last_reported":1756228151,"current_range_meters":6400,"station_id":"ce4bhb92rcd13ifvqen0","pricing_plan_id":"cebpf4jnsgd1na2vs0mg"},{"bike_id":"f0eeb0b5-4f05-4e8f-a9ec-8db44d68ceb7","system_id":"levelo_inurba_marseille","lat":43.2894,"lon":5.36378,"is_reserved":false,"is_disabled":false,"rental_uris":{"android":"levelo://app?vid=f0eeb0b5-4f05-4e8f-a9ec-8db44d68ceb7","ios":"levelo://app?vid=f0eeb0b5-4f05-4e8f-a9ec-8db44d68ceb7"},"vehicle_type_id":"4","last_reported":1756228151,"current_range_meters":6400,"station_id":"ce4bhc92rcd13ifvqetg","pricing_plan_id":"cebpf4jnsgd1na2vs0mg"},{"bike_id":"effda167-b203-4745-b638-9fcc6eb4a09b","system_id":"levelo_inurba_marseille","lat":43.27936,"lon":5.4105,"is_reserved":false,"is_disabled":false,"rental_uris":{"android":"levelo://app?vid=effda167-b203-4745-b638-9fcc6eb4a09b","ios":"levelo://app?vid=effda167-b203-4745-b638-9fcc6eb4a09b"},"vehicle_type_id":"4","last_reported":1756228151,"current_range_meters":6400,"station_id":"ce4bhnp2rcd13ifvqh0g","pricing_plan_id":"cebpf4jnsgd1na2vs0mg"},{"bike_id":"5656fa23-03ca-4cba-ad2b-faa6f0d46a22","system_id":"levelo_inurba_marseille","lat":43.2901,"lon":5.35617,"is_reserved":false,"is_disabled":false,"rental_uris":{"android":"levelo://app?vid=5656fa23-03ca-4cba-ad2b-faa6f0d46a22","ios":"levelo://app?vid=5656fa23-03ca-4cba-ad2b-faa6f0d46a22"},"vehicle_type_id":"4","last_reported":1756228151,"current_range_meters":6800,"station_id":"ce4bhb92rcd13ifvqen0","pricing_plan_id":"cebpf4jnsgd1na2vs0mg"},{"bike_id":"6b5d843a-b033-4920-b602-922b4d1fd78e","system_id":"levelo_inurba_marseille","lat":43.2957,"lon":5.39981,"is_reserved":false,"is_disabled":false,"rental_uris":{"android":"levelo://app?vid=6b5d843a-b033-4920-b602-922b4d1fd78e","ios":"levelo://app?vid=6b5d843a-b033-4920-b602-922b4d1fd78e"},"vehicle_type_id":"4","last_reported":1756228151,"current_range_meters":6800,"station_id":"ce4bh312rcd13ifvqdj0","pricing_plan_id":"cebpf4jnsgd1na2vs0mg"},{"bike_id":"2de20473-a2f2-497b-b4b3-5f5ad03c9a86","system_id":"levelo_inurba_marseille","lat":43.32475,"lon":5.36567,"is_reserved":false,"is_disabled":false,"rental_uris":{"android":"levelo://app?vid=2de20473-a2f2-497b-b4b3-5f5ad03c9a86","ios":"levelo://app?vid=2de20473-a2f2-497b-b4b3-5f5ad03c9a86"},"vehicle_type_id":"4","last_reported":1756228151,"current_range_meters":7200,"station_id":"ce4bhs12rcd13ifvqhvg","pricing_plan_id":"cebpf4jnsgd1na2vs0mg"},{"bike_id":"910a2fe9-c763-44c1-8de4-85789a7f1606","system_id":"levelo_inurba_marseille","lat":43.27399,"lon":5.39382,"is_reserved":false,"is_disabled":true,"rental_uris":{"android":"levelo://app?vid=910a2fe9-c763-44c1-8de4-85789a7f1606","ios":"levelo://app?vid=910a2fe9-c763-44c1-8de4-85789a7f1606"},"vehicle_type_id":"4","last_reported":1756228151,"current_range_meters":7200,"station_id":"ce4bhdp2rcd13ifvqf20","pricing_plan_id":"cebpf4jnsgd1na2vs0mg"},{"bike_id":"f6bd5b86-eb54-487c-8a4e-3da908b177ef","system_id":"levelo_inurba_marseille","lat":43.29568,"lon":5.37527,"is_reserved":false,"is_disabled":true,"rental_uris":{"android":"levelo://app?vid=f6bd5b86-eb54-487c-8a4e-3da908b177ef","ios":"levelo://app?vid=f6bd5b86-eb54-487c-8a4e-3da908b177ef"},"vehicle_type_id":"4","last_reported":1756228151,"current_range_meters":7200,"station_id":"","pricing_plan_id":"cebpf4jnsgd1na2vs0mg"},{"bike_id":"b72ddfe3-c483-48b6-a880-a138054f95e8","system_id":"levelo_inurba_marseille","lat":43.212,"lon":5.35044,"is_reserved":false,"is_disabled":false,"rental_uris":{"android":"levelo://app?vid=b72ddfe3-c483-48b6-a880-a138054f95e8","ios":"levelo://app?vid=b72ddfe3-c483-48b6-a880-a138054f95e8"},"vehicle_type_id":"4","last_reported":1756228151,"current_range_meters":7200,"station_id":"st_cvj6sg6p6f1abm77japg","pricing_plan_id":"cebpf4jnsgd1na2vs0mg"},{"bike_id":"39aabf79-fcbb-4403-a616-c8bbce243620","system_id":"levelo_inurba_marseille","lat":43.295042,"lon":5.375721,"is_reserved":false,"is_disabled":false,"rental_uris":{"android":"levelo://app?vid=39aabf79-fcbb-4403-a616-c8bbce243620","ios":"levelo://app?vid=39aabf79-fcbb-4403-a616-c8bbce243620"},"vehicle_type_id":"4","last_reported":1756228151,"current_range_meters":7200,"station_id":"ce4bgkp2rcd13ifvqbmg","pricing_plan_id":"cebpf4jnsgd1na2vs0mg"},{"bike_id":"236f1a17-bd84-4b8e-977f-7df7d8cf402c","system_id":"levelo_inurba_marseille","lat":43.3079,"lon":5.43512,"is_reserved":false,"is_disabled":true,"rental_uris":{"android":"levelo://app?vid=236f1a17-bd84-4b8e-977f-7df7d8cf402c","ios":"levelo://app?vid=236f1a17-bd84-4b8e-977f-7df7d8cf402c"},"vehicle_type_id":"4","last_reported":1756228151,"current_range_meters":7200,"station_id":"ce4bhph2rcd13ifvqheg","pricing_plan_id":"cebpf4jnsgd1na2vs0mg"},{"bike_id":"bdf85e08-5676-48b0-8060-453cc8bae2cf","system_id":"levelo_inurba_marseille","lat":43.29188,"lon":5.35794,"is_reserved":false,"is_disabled":true,"rental_uris":{"android":"levelo://app?vid=bdf85e08-5676-48b0-8060-453cc8bae2cf","ios":"levelo://app?vid=bdf85e08-5676-48b0-8060-453cc8bae2cf"},"vehicle_type_id":"4","last_reported":1756228151,"current_range_meters":7200,"station_id":"ce4bhb12rcd13ifvqel0","pricing_plan_id":"cebpf4jnsgd1na2vs0mg"},{"bike_id":"76fbf84f-65b0-4d7a-8b72-682bf3dac44c","system_id":"levelo_inurba_marseille","lat":43.27938,"lon":5.41048,"is_reserved":false,"is_disabled":false,"rental_uris":{"android":"levelo://app?vid=76fbf84f-65b0-4d7a-8b72-682bf3dac44c","ios":"levelo://app?vid=76fbf84f-65b0-4d7a-8b72-682bf3dac44c"},"vehicle_type_id":"4","last_reported":1756228151,"current_range_meters":7200,"station_id":"ce4bhnp2rcd13ifvqh0g","pricing_plan_id":"cebpf4jnsgd1na2vs0mg"},{"bike_id":"8c0a8a62-bea8-4ffa-b376-760a95a82a35","system_id":"levelo_inurba_marseille","lat":43.29918,"lon":5.37496,"is_reserved":false,"is_disabled":false,"rental_uris":{"android":"levelo://app?vid=8c0a8a62-bea8-4ffa-b376-760a95a82a35","ios":"levelo://app?vid=8c0a8a62-bea8-4ffa-b376-760a95a82a35"},"vehicle_type_id":"4","last_reported":1756228151,"current_range_meters":7200,"station_id":"","pricing_plan_id":"cebpf4jnsgd1na2vs0mg"},{"bike_id":"293d7893-1877-46fd-87c6-18be633235a0","system_id":"levelo_inurba_marseille","lat":43.28262,"lon":5.35085,"is_reserved":false,"is_disabled":false,"rental_uris":{"android":"levelo://app?vid=293d7893-1877-46fd-87c6-18be633235a0","ios":"levelo://app?vid=293d7893-1877-46fd-87c6-18be633235a0"},"vehicle_type_id":"4","last_reported":1756228151,"current_range_meters":8000,"station_id":"ce4bhbp2rcd13ifvqerg","pricing_plan_id":"cebpf4jnsgd1na2vs0mg"},{"bike_id":"4b60e998-4c60-4117-8ed2-4489d415109b","system_id":"levelo_inurba_marseille","lat":43.24545,"lon":5.39525,"is_reserved":false,"is_disabled":false,"rental_uris":{"android":"levelo://app?vid=4b60e998-4c60-4117-8ed2-4489d415109b","ios":"levelo://app?vid=4b60e998-4c60-4117-8ed2-4489d415109b"},"vehicle_type_id":"4","last_reported":1756228151,"current_range_meters":8000,"station_id":"ce4bhlp2rcd13ifvqgjg","pricing_plan_id":"cebpf4jnsgd1na2vs0mg"},{"bike_id":"509ec9a8-5ffd-4949-837a-6fa36ec5d168","system_id":"levelo_inurba_marseille","lat":43.2903,"lon":5.38643,"is_reserved":false,"is_disabled":false,"rental_uris":{"android":"levelo://app?vid=509ec9a8-5ffd-4949-837a-6fa36ec5d168","ios":"levelo://app?vid=509ec9a8-5ffd-4949-837a-6fa36ec5d168"},"vehicle_type_id":"4","last_reported":1756228151,"current_range_meters":8000,"station_id":"ce4bh4p2rcd13ifvqe0g","pricing_plan_id":"cebpf4jnsgd1na2vs0mg"},{"bike_id":"03be758f-3e6d-4c72-8876-95a4359600d6","system_id":"levelo_inurba_marseille","lat":43.33783,"lon":5.37477,"is_reserved":false,"is_disabled":false,"rental_uris":{"android":"levelo://app?vid=03be758f-3e6d-4c72-8876-95a4359600d6","ios":"levelo://app?vid=03be758f-3e6d-4c72-8876-95a4359600d6"},"vehicle_type_id":"4","last_reported":1756228151,"current_range_meters":8000,"station_id":"","pricing_plan_id":"cebpf4jnsgd1na2vs0mg"},{"bike_id":"02017619-5238-450d-b2c9-1edb4c08d0ca","system_id":"levelo_inurba_marseille","lat":43.28417,"lon":5.34986,"is_reserved":false,"is_disabled":false,"rental_uris":{"android":"levelo://app?vid=02017619-5238-450d-b2c9-1edb4c08d0ca","ios":"levelo://app?vid=02017619-5238-450d-b2c9-1edb4c08d0ca"},"vehicle_type_id":"4","last_reported":1756228151,"current_range_meters":8400,"station_id":"ce4bhbh2rcd13ifvqepg","pricing_plan_id":"cebpf4jnsgd1na2vs0mg"},{"bike_id":"e2b1eb5a-982c-4f0b-8b64-b6f52844efe6","system_id":"levelo_inurba_marseille","lat":43.24066,"lon":5.37763,"is_reserved":false,"is_disabled":false,"rental_uris":{"android":"levelo://app?vid=e2b1eb5a-982c-4f0b-8b64-b6f52844efe6","ios":"levelo://app?vid=e2b1eb5a-982c-4f0b-8b64-b6f52844efe6"},"vehicle_type_id":"4","last_reported":1756228151,"current_range_meters":8400,"station_id":"ce4bhnp2rcd13ifvqgvg","pricing_plan_id":"cebpf4jnsgd1na2vs0mg"},{"bike_id":"286dee07-8db1-4bc7-bac6-96c8ff01e58d","system_id":"levelo_inurba_marseille","lat":43.32358,"lon":5.36756,"is_reserved":false,"is_disabled":false,"rental_uris":{"android":"levelo://app?vid=286dee07-8db1-4bc7-bac6-96c8ff01e58d","ios":"levelo://app?vid=286dee07-8db1-4bc7-bac6-96c8ff01e58d"},"vehicle_type_id":"4","last_reported":1756228151,"current_range_meters":8400,"station_id":"ce4bhsh2rcd13ifvqi2g","pricing_plan_id":"cebpf4jnsgd1na2vs0mg"},{"bike_id":"7c369900-55e2-4fac-9aba-790a5b00bab3","system_id":"levelo_inurba_marseille","lat":43.292585,"lon":5.40909,"is_reserved":false,"is_disabled":false,"rental_uris":{"android":"levelo://app?vid=7c369900-55e2-4fac-9aba-790a5b00bab3","ios":"levelo://app?vid=7c369900-55e2-4fac-9aba-790a5b00bab3"},"vehicle_type_id":"4","last_reported":1756228151,"current_range_meters":8400,"station_id":"ce4bh192rcd13ifvqdc0","pricing_plan_id":"cebpf4jnsgd1na2vs0mg"},{"bike_id":"5cc9c6ee-570c-47c9-a7f6-0c878c187816","system_id":"levelo_inurba_marseille","lat":43.28419,"lon":5.34989,"is_reserved":false,"is_disabled":false,"rental_uris":{"android":"levelo://app?vid=5cc9c6ee-570c-47c9-a7f6-0c878c187816","ios":"levelo://app?vid=5cc9c6ee-570c-47c9-a7f6-0c878c187816"},"vehicle_type_id":"4","last_reported":1756228151,"current_range_meters":8400,"station_id":"ce4bhbh2rcd13ifvqepg","pricing_plan_id":"cebpf4jnsgd1na2vs0mg"},{"bike_id":"80ad01d4-f3ed-4141-9608-bd732abd1a75","system_id":"levelo_inurba_marseille","lat":43.30589,"lon":5.39364,"is_reserved":false,"is_disabled":false,"rental_uris":{"android":"levelo://app?vid=80ad01d4-f3ed-4141-9608-bd732abd1a75","ios":"levelo://app?vid=80ad01d4-f3ed-4141-9608-bd732abd1a75"},"vehicle_type_id":"4","last_reported":1756228151,"current_range_meters":8400,"station_id":"ce4bh0p2rcd13ifvqd80","pricing_plan_id":"cebpf4jnsgd1na2vs0mg"},{"bike_id":"ba979a9a-3936-4e25-8061-d8a105792709","system_id":"levelo_inurba_marseille","lat":43.29848,"lon":5.3629,"is_reserved":false,"is_disabled":true,"rental_uris":{"android":"levelo://app?vid=ba979a9a-3936-4e25-8061-d8a105792709","ios":"levelo://app?vid=ba979a9a-3936-4e25-8061-d8a105792709"},"vehicle_type_id":"4","last_reported":1756228151,"current_range_meters":8800,"station_id":"ce4bgpp2rcd13ifvqc3g","pricing_plan_id":"cebpf4jnsgd1na2vs0mg"},{"bike_id":"84602ed4-a3c3-4c31-a740-2fc3fa314af7","system_id":"levelo_inurba_marseille","lat":43.28403,"lon":5.37531,"is_reserved":false,"is_disabled":false,"rental_uris":{"android":"levelo://app?vid=84602ed4-a3c3-4c31-a740-2fc3fa314af7","ios":"levelo://app?vid=84602ed4-a3c3-4c31-a740-2fc3fa314af7"},"vehicle_type_id":"4","last_reported":1756228151,"current_range_meters":8800,"station_id":"ce4bh412rcd13ifvqds0","pricing_plan_id":"cebpf4jnsgd1na2vs0mg"},{"bike_id":"4edb4a63-b270-4544-85dc-355fa085068f","system_id":"levelo_inurba_marseille","lat":43.303,"lon":5.39215,"is_reserved":false,"is_disabled":false,"rental_uris":{"android":"levelo://app?vid=4edb4a63-b270-4544-85dc-355fa085068f","ios":"levelo://app?vid=4edb4a63-b270-4544-85dc-355fa085068f"},"vehicle_type_id":"4","last_reported":1756228151,"current_range_meters":8800,"station_id":"ce4bgkh2rcd13ifvqbk0","pricing_plan_id":"cebpf4jnsgd1na2vs0mg"},{"bike_id":"0dcfa62a-5e09-4d2b-ae53-5f3b8fc44da4","system_id":"levelo_inurba_marseille","lat":43.32102,"lon":5.36766,"is_reserved":false,"is_disabled":false,"rental_uris":{"android":"levelo://app?vid=0dcfa62a-5e09-4d2b-ae53-5f3b8fc44da4","ios":"levelo://app?vid=0dcfa62a-5e09-4d2b-ae53-5f3b8fc44da4"},"vehicle_type_id":"4","last_reported":1756228151,"current_range_meters":8800,"station_id":"ce4bhrh2rcd13ifvqhug","pricing_plan_id":"cebpf4jnsgd1na2vs0mg"},{"bike_id":"11f9b8ab-40f6-4f13-a827-aa1c58ac991f","system_id":"levelo_inurba_marseille","lat":43.29573,"lon":5.39982,"is_reserved":false,"is_disabled":false,"rental_uris":{"android":"levelo://app?vid=11f9b8ab-40f6-4f13-a827-aa1c58ac991f","ios":"levelo://app?vid=11f9b8ab-40f6-4f13-a827-aa1c58ac991f"},"vehicle_type_id":"4","last_reported":1756228151,"current_range_meters":8800,"station_id":"ce4bh312rcd13ifvqdj0","pricing_plan_id":"cebpf4jnsgd1na2vs0mg"},{"bike_id":"baaf0251-46f3-4964-869f-72e263f23a07","system_id":"levelo_inurba_marseille","lat":43.297772,"lon":5.371032,"is_reserved":false,"is_disabled":false,"rental_uris":{"android":"levelo://app?vid=baaf0251-46f3-4964-869f-72e263f23a07","ios":"levelo://app?vid=baaf0251-46f3-4964-869f-72e263f23a07"},"vehicle_type_id":"4","last_reported":1756228151,"current_range_meters":8400,"station_id":"ce4bgop2rcd13ifvqc1g","pricing_plan_id":"cebpf4jnsgd1na2vs0mg"},{"bike_id":"08f64df9-665a-47b5-8178-a697a3281102","system_id":"levelo_inurba_marseille","lat":43.290052,"lon":5.356117,"is_reserved":false,"is_disabled":false,"rental_uris":{"android":"levelo://app?vid=08f64df9-665a-47b5-8178-a697a3281102","ios":"levelo://app?vid=08f64df9-665a-47b5-8178-a697a3281102"},"vehicle_type_id":"4","last_reported":1756228151,"current_range_meters":8800,"station_id":"ce4bhb92rcd13ifvqen0","pricing_plan_id":"cebpf4jnsgd1na2vs0mg"},{"bike_id":"9f4b158b-d565-437b-9d62-cc21d10ea822","system_id":"levelo_inurba_marseille","lat":43.278347,"lon":5.392029,"is_reserved":false,"is_disabled":false,"rental_uris":{"android":"levelo://app?vid=9f4b158b-d565-437b-9d62-cc21d10ea822","ios":"levelo://app?vid=9f4b158b-d565-437b-9d62-cc21d10ea822"},"vehicle_type_id":"4","last_reported":1756228151,"current_range_meters":8800,"station_id":"ce4bhjp2rcd13ifvqga0","pricing_plan_id":"cebpf4jnsgd1na2vs0mg"},{"bike_id":"e4b6b5d4-5dce-4ef1-a69d-bdfba69d5887","system_id":"levelo_inurba_marseille","lat":43.28573,"lon":5.39493,"is_reserved":false,"is_disabled":false,"rental_uris":{"android":"levelo://app?vid=e4b6b5d4-5dce-4ef1-a69d-bdfba69d5887","ios":"levelo://app?vid=e4b6b5d4-5dce-4ef1-a69d-bdfba69d5887"},"vehicle_type_id":"4","last_reported":1756228151,"current_range_meters":8800,"station_id":"ce4bh292rcd13ifvqdg0","pricing_plan_id":"cebpf4jnsgd1na2vs0mg"},{"bike_id":"dad12066-3365-40c2-8baf-856a7fce7142","system_id":"levelo_inurba_marseille","lat":43.28855,"lon":5.35855,"is_reserved":false,"is_disabled":false,"rental_uris":{"android":"levelo://app?vid=dad12066-3365-40c2-8baf-856a7fce7142","ios":"levelo://app?vid=dad12066-3365-40c2-8baf-856a7fce7142"},"vehicle_type_id":"4","last_reported":1756228151,"current_range_meters":8800,"station_id":"ce4bhb12rcd13ifvqem0","pricing_plan_id":"cebpf4jnsgd1na2vs0mg"},{"bike_id":"ea3c1afb-c490-4801-bbb0-2e94734ecff2","system_id":"levelo_inurba_marseille","lat":43.30139,"lon":5.38778,"is_reserved":false,"is_disabled":false,"rental_uris":{"android":"levelo://app?vid=ea3c1afb-c490-4801-bbb0-2e94734ecff2","ios":"levelo://app?vid=ea3c1afb-c490-4801-bbb0-2e94734ecff2"},"vehicle_type_id":"4","last_reported":1756228151,"current_range_meters":8400,"station_id":"ce4bghh2rcd13ifvqb60","pricing_plan_id":"cebpf4jnsgd1na2vs0mg"},{"bike_id":"1c956e75-4c72-4686-9f7f-27069f94e6b9","system_id":"levelo_inurba_marseille","lat":43.31118,"lon":5.37784,"is_reserved":false,"is_disabled":false,"rental_uris":{"android":"levelo://app?vid=1c956e75-4c72-4686-9f7f-27069f94e6b9","ios":"levelo://app?vid=1c956e75-4c72-4686-9f7f-27069f94e6b9"},"vehicle_type_id":"4","last_reported":1756228151,"current_range_meters":9200,"station_id":"ce4bgt92rcd13ifvqcg0","pricing_plan_id":"cebpf4jnsgd1na2vs0mg"},{"bike_id":"b25a8c8f-276c-480b-a01d-3beb64576916","system_id":"levelo_inurba_marseille","lat":43.32487,"lon":5.36571,"is_reserved":false,"is_disabled":false,"rental_uris":{"android":"levelo://app?vid=b25a8c8f-276c-480b-a01d-3beb64576916","ios":"levelo://app?vid=b25a8c8f-276c-480b-a01d-3beb64576916"},"vehicle_type_id":"4","last_reported":1756228151,"current_range_meters":9200,"station_id":"ce4bhs12rcd13ifvqhvg","pricing_plan_id":"cebpf4jnsgd1na2vs0mg"},{"bike_id":"8d6721fd-b390-4068-9131-7c26c5221ee6","system_id":"levelo_inurba_marseille","lat":43.302582,"lon":5.400779,"is_reserved":false,"is_disabled":false,"rental_uris":{"android":"levelo://app?vid=8d6721fd-b390-4068-9131-7c26c5221ee6","ios":"levelo://app?vid=8d6721fd-b390-4068-9131-7c26c5221ee6"},"vehicle_type_id":"4","last_reported":1756228151,"current_range_meters":9200,"station_id":"ce4bgvh2rcd13ifvqcs0","pricing_plan_id":"cebpf4jnsgd1na2vs0mg"},{"bike_id":"298fe179-752f-4886-8906-8639b3ab7007","system_id":"levelo_inurba_marseille","lat":43.28942,"lon":5.3639,"is_reserved":false,"is_disabled":false,"rental_uris":{"android":"levelo://app?vid=298fe179-752f-4886-8906-8639b3ab7007","ios":"levelo://app?vid=298fe179-752f-4886-8906-8639b3ab7007"},"vehicle_type_id":"4","last_reported":1756228151,"current_range_meters":9200,"station_id":"ce4bhc92rcd13ifvqetg","pricing_plan_id":"cebpf4jnsgd1na2vs0mg"},{"bike_id":"edcbd490-b197-48ef-af44-1812693a42f2","system_id":"levelo_inurba_marseille","lat":43.29626,"lon":5.37731,"is_reserved":false,"is_disabled":false,"rental_uris":{"android":"levelo://app?vid=edcbd490-b197-48ef-af44-1812693a42f2","ios":"levelo://app?vid=edcbd490-b197-48ef-af44-1812693a42f2"},"vehicle_type_id":"4","last_reported":1756228151,"current_range_meters":9200,"station_id":"ce4bgi92rcd13ifvqb90","pricing_plan_id":"cebpf4jnsgd1na2vs0mg"},{"bike_id":"ce42265d-e7b4-4f9d-a7c2-bf2d599bd723","system_id":"levelo_inurba_marseille","lat":43.23764,"lon":5.362,"is_reserved":false,"is_disabled":false,"rental_uris":{"android":"levelo://app?vid=ce42265d-e7b4-4f9d-a7c2-bf2d599bd723","ios":"levelo://app?vid=ce42265d-e7b4-4f9d-a7c2-bf2d599bd723"},"vehicle_type_id":"4","last_reported":1756228151,"current_range_meters":9200,"station_id":"","pricing_plan_id":"cebpf4jnsgd1na2vs0mg"},{"bike_id":"91925d05-b825-4f8a-9212-82cf36413cb9","system_id":"levelo_inurba_marseille","lat":43.27616,"lon":5.36101,"is_reserved":false,"is_disabled":false,"rental_uris":{"android":"levelo://app?vid=91925d05-b825-4f8a-9212-82cf36413cb9","ios":"levelo://app?vid=91925d05-b825-4f8a-9212-82cf36413cb9"},"vehicle_type_id":"4","last_reported":1756228151,"current_range_meters":8800,"station_id":"ce4bgj92rcd13ifvqbe0","pricing_plan_id":"cebpf4jnsgd1na2vs0mg"},{"bike_id":"a4b833f1-490d-4b7b-a4dc-9c002f770d6e","system_id":"levelo_inurba_marseille","lat":43.310221,"lon":5.420713,"is_reserved":false,"is_disabled":false,"rental_uris":{"android":"levelo://app?vid=a4b833f1-490d-4b7b-a4dc-9c002f770d6e","ios":"levelo://app?vid=a4b833f1-490d-4b7b-a4dc-9c002f770d6e"},"vehicle_type_id":"4","last_reported":1756228151,"current_range_meters":9200,"station_id":"ce4bhp92rcd13ifvqhag","pricing_plan_id":"cebpf4jnsgd1na2vs0mg"},{"bike_id":"bea9b573-b0c0-471b-a983-7d2a5da760bb","system_id":"levelo_inurba_marseille","lat":43.303819,"lon":5.424778,"is_reserved":false,"is_disabled":false,"rental_uris":{"android":"levelo://app?vid=bea9b573-b0c0-471b-a983-7d2a5da760bb","ios":"levelo://app?vid=bea9b573-b0c0-471b-a983-7d2a5da760bb"},"vehicle_type_id":"4","last_reported":1756228151,"current_range_meters":9600,"station_id":"ce4bhoh2rcd13ifvqh6g","pricing_plan_id":"cebpf4jnsgd1na2vs0mg"},{"bike_id":"223cdea9-4e68-4d6b-9988-8e36b421f8c6","system_id":"levelo_inurba_marseille","lat":43.28037,"lon":5.36952,"is_reserved":false,"is_disabled":false,"rental_uris":{"android":"levelo://app?vid=223cdea9-4e68-4d6b-9988-8e36b421f8c6","ios":"levelo://app?vid=223cdea9-4e68-4d6b-9988-8e36b421f8c6"},"vehicle_type_id":"4","last_reported":1756228151,"current_range_meters":9600,"station_id":"ce4bha12rcd13ifvqef0","pricing_plan_id":"cebpf4jnsgd1na2vs0mg"},{"bike_id":"8bab6fe8-29f6-4876-b004-46dc505fe1e4","system_id":"levelo_inurba_marseille","lat":43.30233,"lon":5.40032,"is_reserved":false,"is_disabled":false,"rental_uris":{"android":"levelo://app?vid=8bab6fe8-29f6-4876-b004-46dc505fe1e4","ios":"levelo://app?vid=8bab6fe8-29f6-4876-b004-46dc505fe1e4"},"vehicle_type_id":"4","last_reported":1756228151,"current_range_meters":9600,"station_id":"ce4bgvh2rcd13ifvqcs0","pricing_plan_id":"cebpf4jnsgd1na2vs0mg"},{"bike_id":"9ebbca0f-8b0f-49e0-bbc0-5934ebb0e846","system_id":"levelo_inurba_marseille","lat":43.21191,"lon":5.35069,"is_reserved":false,"is_disabled":false,"rental_uris":{"android":"levelo://app?vid=9ebbca0f-8b0f-49e0-bbc0-5934ebb0e846","ios":"levelo://app?vid=9ebbca0f-8b0f-49e0-bbc0-5934ebb0e846"},"vehicle_type_id":"4","last_reported":1756228151,"current_range_meters":9600,"station_id":"st_cvj6sg6p6f1abm77japg","pricing_plan_id":"cebpf4jnsgd1na2vs0mg"},{"bike_id":"a663a2f0-d0f0-427a-acc8-82e14147fba7","system_id":"levelo_inurba_marseille","lat":43.27493,"lon":5.42454,"is_reserved":false,"is_disabled":false,"rental_uris":{"android":"levelo://app?vid=a663a2f0-d0f0-427a-acc8-82e14147fba7","ios":"levelo://app?vid=a663a2f0-d0f0-427a-acc8-82e14147fba7"},"vehicle_type_id":"4","last_reported":1756228151,"current_range_meters":9600,"station_id":"ce4bhn92rcd13ifvqgrg","pricing_plan_id":"cebpf4jnsgd1na2vs0mg"},{"bike_id":"da24cd28-a3ea-4f06-b412-bd5ad8a728bc","system_id":"levelo_inurba_marseille","lat":43.29874,"lon":5.38899,"is_reserved":false,"is_disabled":false,"rental_uris":{"android":"levelo://app?vid=da24cd28-a3ea-4f06-b412-bd5ad8a728bc","ios":"levelo://app?vid=da24cd28-a3ea-4f06-b412-bd5ad8a728bc"},"vehicle_type_id":"4","last_reported":1756228151,"current_range_meters":9600,"station_id":"ce4bh392rcd13ifvqdl0","pricing_plan_id":"cebpf4jnsgd1na2vs0mg"},{"bike_id":"48e0f9b7-1578-4dc2-ac52-21a49a13473b","system_id":"levelo_inurba_marseille","lat":43.30951,"lon":5.39023,"is_reserved":false,"is_disabled":false,"rental_uris":{"android":"levelo://app?vid=48e0f9b7-1578-4dc2-ac52-21a49a13473b","ios":"levelo://app?vid=48e0f9b7-1578-4dc2-ac52-21a49a13473b"},"vehicle_type_id":"4","last_reported":1756228151,"current_range_meters":9600,"station_id":"ce4bgup2rcd13ifvqco0","pricing_plan_id":"cebpf4jnsgd1na2vs0mg"},{"bike_id":"f781d014-afa9-4acc-b6f7-3670b0862de3","system_id":"levelo_inurba_marseille","lat":43.21165,"lon":5.35114,"is_reserved":false,"is_disabled":false,"rental_uris":{"android":"levelo://app?vid=f781d014-afa9-4acc-b6f7-3670b0862de3","ios":"levelo://app?vid=f781d014-afa9-4acc-b6f7-3670b0862de3"},"vehicle_type_id":"4","last_reported":1756228151,"current_range_meters":9600,"station_id":"st_cvj6sg6p6f1abm77japg","pricing_plan_id":"cebpf4jnsgd1na2vs0mg"},{"bike_id":"c8f19ab0-2650-42bf-bf99-315bb14cecb1","system_id":"levelo_inurba_marseille","lat":43.32347,"lon":5.36733,"is_reserved":false,"is_disabled":false,"rental_uris":{"android":"levelo://app?vid=c8f19ab0-2650-42bf-bf99-315bb14cecb1","ios":"levelo://app?vid=c8f19ab0-2650-42bf-bf99-315bb14cecb1"},"vehicle_type_id":"4","last_reported":1756228151,"current_range_meters":10000,"station_id":"ce4bhsh2rcd13ifvqi2g","pricing_plan_id":"cebpf4jnsgd1na2vs0mg"},{"bike_id":"2a05a76e-540e-4e26-8bbf-b31fdc756341","system_id":"levelo_inurba_marseille","lat":43.29304,"lon":5.37462,"is_reserved":false,"is_disabled":false,"rental_uris":{"android":"levelo://app?vid=2a05a76e-540e-4e26-8bbf-b31fdc756341","ios":"levelo://app?vid=2a05a76e-540e-4e26-8bbf-b31fdc756341"},"vehicle_type_id":"4","last_reported":1756228151,"current_range_meters":10000,"station_id":"ce4bgi12rcd13ifvqb70","pricing_plan_id":"cebpf4jnsgd1na2vs0mg"},{"bike_id":"48668c19-1fb0-45c0-aecc-cbecf0e34b15","system_id":"levelo_inurba_marseille","lat":43.30425,"lon":5.38887,"is_reserved":false,"is_disabled":false,"rental_uris":{"android":"levelo://app?vid=48668c19-1fb0-45c0-aecc-cbecf0e34b15","ios":"levelo://app?vid=48668c19-1fb0-45c0-aecc-cbecf0e34b15"},"vehicle_type_id":"4","last_reported":1756228151,"current_range_meters":10000,"station_id":"ce4bgk12rcd13ifvqbi0","pricing_plan_id":"cebpf4jnsgd1na2vs0mg"},{"bike_id":"92da91ad-4b8e-4003-b9b7-ebeec65edd1c","system_id":"levelo_inurba_marseille","lat":43.25587,"lon":5.38245,"is_reserved":false,"is_disabled":false,"rental_uris":{"android":"levelo://app?vid=92da91ad-4b8e-4003-b9b7-ebeec65edd1c","ios":"levelo://app?vid=92da91ad-4b8e-4003-b9b7-ebeec65edd1c"},"vehicle_type_id":"4","last_reported":1756228151,"current_range_meters":10000,"station_id":"ce4bhih2rcd13ifvqfs0","pricing_plan_id":"cebpf4jnsgd1na2vs0mg"},{"bike_id":"a4578e98-0c0e-42ba-b4cc-92d22d1008a9","system_id":"levelo_inurba_marseille","lat":43.29021,"lon":5.38123,"is_reserved":false,"is_disabled":true,"rental_uris":{"android":"levelo://app?vid=a4578e98-0c0e-42ba-b4cc-92d22d1008a9","ios":"levelo://app?vid=a4578e98-0c0e-42ba-b4cc-92d22d1008a9"},"vehicle_type_id":"4","last_reported":1756228151,"current_range_meters":10000,"station_id":"ce4bh4p2rcd13ifvqe1g","pricing_plan_id":"cebpf4jnsgd1na2vs0mg"},{"bike_id":"edc4c588-4db1-4b48-bddb-0eba1d72ba9f","system_id":"levelo_inurba_marseille","lat":43.21194,"lon":5.35074,"is_reserved":false,"is_disabled":false,"rental_uris":{"android":"levelo://app?vid=edc4c588-4db1-4b48-bddb-0eba1d72ba9f","ios":"levelo://app?vid=edc4c588-4db1-4b48-bddb-0eba1d72ba9f"},"vehicle_type_id":"4","last_reported":1756228151,"current_range_meters":10800,"station_id":"","pricing_plan_id":"cebpf4jnsgd1na2vs0mg"},{"bike_id":"fbbcc58d-04a0-4386-a2a4-1f85125af44d","system_id":"levelo_inurba_marseille","lat":43.28398,"lon":5.37517,"is_reserved":false,"is_disabled":false,"rental_uris":{"android":"levelo://app?vid=fbbcc58d-04a0-4386-a2a4-1f85125af44d","ios":"levelo://app?vid=fbbcc58d-04a0-4386-a2a4-1f85125af44d"},"vehicle_type_id":"4","last_reported":1756228151,"current_range_meters":10800,"station_id":"ce4bh412rcd13ifvqds0","pricing_plan_id":"cebpf4jnsgd1na2vs0mg"},{"bike_id":"70f53ff4-f592-4fdf-99f1-7cf22556f6c6","system_id":"levelo_inurba_marseille","lat":43.26028,"lon":5.37548,"is_reserved":false,"is_disabled":false,"rental_uris":{"android":"levelo://app?vid=70f53ff4-f592-4fdf-99f1-7cf22556f6c6","ios":"levelo://app?vid=70f53ff4-f592-4fdf-99f1-7cf22556f6c6"},"vehicle_type_id":"4","last_reported":1756228151,"current_range_meters":10800,"station_id":"ce4bhgh2rcd13ifvqfa0","pricing_plan_id":"cebpf4jnsgd1na2vs0mg"},{"bike_id":"435861f8-3f4a-409b-812d-5f539fd175ad","system_id":"levelo_inurba_marseille","lat":43.29773,"lon":5.38113,"is_reserved":false,"is_disabled":false,"rental_uris":{"android":"levelo://app?vid=435861f8-3f4a-409b-812d-5f539fd175ad","ios":"levelo://app?vid=435861f8-3f4a-409b-812d-5f539fd175ad"},"vehicle_type_id":"4","last_reported":1756228151,"current_range_meters":10800,"station_id":"ce4bgip2rcd13ifvqbb0","pricing_plan_id":"cebpf4jnsgd1na2vs0mg"},{"bike_id":"100f063a-2e82-41de-ae85-e7bb7b4d3f2d","system_id":"levelo_inurba_marseille","lat":43.25499,"lon":5.37649,"is_reserved":false,"is_disabled":false,"rental_uris":{"android":"levelo://app?vid=100f063a-2e82-41de-ae85-e7bb7b4d3f2d","ios":"levelo://app?vid=100f063a-2e82-41de-ae85-e7bb7b4d3f2d"},"vehicle_type_id":"4","last_reported":1756228151,"current_range_meters":10000,"station_id":"ce4bhh12rcd13ifvqff0","pricing_plan_id":"cebpf4jnsgd1na2vs0mg"},{"bike_id":"d508ba39-2103-42f4-8e6f-9d56074ff05d","system_id":"levelo_inurba_marseille","lat":43.292662,"lon":5.384342,"is_reserved":false,"is_disabled":false,"rental_uris":{"android":"levelo://app?vid=d508ba39-2103-42f4-8e6f-9d56074ff05d","ios":"levelo://app?vid=d508ba39-2103-42f4-8e6f-9d56074ff05d"},"vehicle_type_id":"4","last_reported":1756228151,"current_range_meters":10800,"station_id":"ce4bh692rcd13ifvqea0","pricing_plan_id":"cebpf4jnsgd1na2vs0mg"},{"bike_id":"3fbd4df0-0d3c-42d1-ac37-642a0f527368","system_id":"levelo_inurba_marseille","lat":43.29872,"lon":5.39741,"is_reserved":false,"is_disabled":false,"rental_uris":{"android":"levelo://app?vid=3fbd4df0-0d3c-42d1-ac37-642a0f527368","ios":"levelo://app?vid=3fbd4df0-0d3c-42d1-ac37-642a0f527368"},"vehicle_type_id":"4","last_reported":1756228151,"current_range_meters":10800,"station_id":"ce4bh0h2rcd13ifvqd50","pricing_plan_id":"cebpf4jnsgd1na2vs0mg"},{"bike_id":"5dd342d5-6532-46e9-9982-7ac82ff755d0","system_id":"levelo_inurba_marseille","lat":43.32047,"lon":5.41536,"is_reserved":false,"is_disabled":false,"rental_uris":{"android":"levelo://app?vid=5dd342d5-6532-46e9-9982-7ac82ff755d0","ios":"levelo://app?vid=5dd342d5-6532-46e9-9982-7ac82ff755d0"},"vehicle_type_id":"4","last_reported":1756228151,"current_range_meters":11200,"station_id":"ce4bhq92rcd13ifvqhkg","pricing_plan_id":"cebpf4jnsgd1na2vs0mg"},{"bike_id":"3e130ff4-87da-4c51-a264-44d1f277fd66","system_id":"levelo_inurba_marseille","lat":43.320842,"lon":5.367818,"is_reserved":false,"is_disabled":false,"rental_uris":{"android":"levelo://app?vid=3e130ff4-87da-4c51-a264-44d1f277fd66","ios":"levelo://app?vid=3e130ff4-87da-4c51-a264-44d1f277fd66"},"vehicle_type_id":"4","last_reported":1756228151,"current_range_meters":11200,"station_id":"ce4bhrh2rcd13ifvqhug","pricing_plan_id":"cebpf4jnsgd1na2vs0mg"},{"bike_id":"47c72c85-64e7-43b8-ada4-0f17a3d10859","system_id":"levelo_inurba_marseille","lat":43.21756,"lon":5.34583,"is_reserved":false,"is_disabled":true,"rental_uris":{"android":"levelo://app?vid=47c72c85-64e7-43b8-ada4-0f17a3d10859","ios":"levelo://app?vid=47c72c85-64e7-43b8-ada4-0f17a3d10859"},"vehicle_type_id":"4","last_reported":1756228151,"current_range_meters":11200,"station_id":"st_cvj6r9ubvosntc0bgbag","pricing_plan_id":"cebpf4jnsgd1na2vs0mg"},{"bike_id":"bf69c5a9-2dda-478b-a044-670a6c6ee1c5","system_id":"levelo_inurba_marseille","lat":43.273835,"lon":5.362615,"is_reserved":false,"is_disabled":false,"rental_uris":{"android":"levelo://app?vid=bf69c5a9-2dda-478b-a044-670a6c6ee1c5","ios":"levelo://app?vid=bf69c5a9-2dda-478b-a044-670a6c6ee1c5"},"vehicle_type_id":"4","last_reported":1756228151,"current_range_meters":11200,"station_id":"ce4bhbh2rcd13ifvqeo0","pricing_plan_id":"cebpf4jnsgd1na2vs0mg"},{"bike_id":"3a3cc0ab-049d-42c5-9bdd-961a3e300e58","system_id":"levelo_inurba_marseille","lat":43.27562,"lon":5.38423,"is_reserved":false,"is_disabled":false,"rental_uris":{"android":"levelo://app?vid=3a3cc0ab-049d-42c5-9bdd-961a3e300e58","ios":"levelo://app?vid=3a3cc0ab-049d-42c5-9bdd-961a3e300e58"},"vehicle_type_id":"4","last_reported":1756228151,"current_range_meters":11200,"station_id":"ce4bhh92rcd13ifvqfi0","pricing_plan_id":"cebpf4jnsgd1na2vs0mg"},{"bike_id":"df84dc5f-daf8-4107-9dff-789d78687a05","system_id":"levelo_inurba_marseille","lat":43.29534,"lon":5.38548,"is_reserved":false,"is_disabled":false,"rental_uris":{"android":"levelo://app?vid=df84dc5f-daf8-4107-9dff-789d78687a05","ios":"levelo://app?vid=df84dc5f-daf8-4107-9dff-789d78687a05"},"vehicle_type_id":"4","last_reported":1756228151,"current_range_meters":11600,"station_id":"ce4bgih2rcd13ifvqba0","pricing_plan_id":"cebpf4jnsgd1na2vs0mg"},{"bike_id":"0375cdab-3b5f-48ee-98d2-38b72ba4c553","system_id":"levelo_inurba_marseille","lat":43.29165,"lon":5.3716,"is_reserved":false,"is_disabled":false,"rental_uris":{"android":"levelo://app?vid=0375cdab-3b5f-48ee-98d2-38b72ba4c553","ios":"levelo://app?vid=0375cdab-3b5f-48ee-98d2-38b72ba4c553"},"vehicle_type_id":"4","last_reported":1756228151,"current_range_meters":11600,"station_id":"ce4bha92rcd13ifvqeh0","pricing_plan_id":"cebpf4jnsgd1na2vs0mg"},{"bike_id":"ba5c0c7c-e0c2-4a56-9e0b-e86d0e2a78d6","system_id":"levelo_inurba_marseille","lat":43.30418,"lon":5.39733,"is_reserved":false,"is_disabled":false,"rental_uris":{"android":"levelo://app?vid=ba5c0c7c-e0c2-4a56-9e0b-e86d0e2a78d6","ios":"levelo://app?vid=ba5c0c7c-e0c2-4a56-9e0b-e86d0e2a78d6"},"vehicle_type_id":"4","last_reported":1756228151,"current_range_meters":11600,"station_id":"ce4bh092rcd13ifvqd20","pricing_plan_id":"cebpf4jnsgd1na2vs0mg"},{"bike_id":"58c816d9-2fb4-43c0-b88e-24b69c21fb34","system_id":"levelo_inurba_marseille","lat":43.29528,"lon":5.38546,"is_reserved":false,"is_disabled":false,"rental_uris":{"android":"levelo://app?vid=58c816d9-2fb4-43c0-b88e-24b69c21fb34","ios":"levelo://app?vid=58c816d9-2fb4-43c0-b88e-24b69c21fb34"},"vehicle_type_id":"4","last_reported":1756228151,"current_range_meters":11600,"station_id":"ce4bgih2rcd13ifvqba0","pricing_plan_id":"cebpf4jnsgd1na2vs0mg"},{"bike_id":"eaac1ac6-6c5d-4274-970f-7bad9d177f4b","system_id":"levelo_inurba_marseille","lat":43.33767,"lon":5.37473,"is_reserved":false,"is_disabled":false,"rental_uris":{"android":"levelo://app?vid=eaac1ac6-6c5d-4274-970f-7bad9d177f4b","ios":"levelo://app?vid=eaac1ac6-6c5d-4274-970f-7bad9d177f4b"},"vehicle_type_id":"4","last_reported":1756228151,"current_range_meters":12000,"station_id":"","pricing_plan_id":"cebpf4jnsgd1na2vs0mg"},{"bike_id":"b01140c7-868d-4f61-a799-776a063501dc","system_id":"levelo_inurba_marseille","lat":43.30419,"lon":5.4128,"is_reserved":false,"is_disabled":false,"rental_uris":{"android":"levelo://app?vid=b01140c7-868d-4f61-a799-776a063501dc","ios":"levelo://app?vid=b01140c7-868d-4f61-a799-776a063501dc"},"vehicle_type_id":"4","last_reported":1756228151,"current_range_meters":12000,"station_id":"ce4bhop2rcd13ifvqh8g","pricing_plan_id":"cebpf4jnsgd1na2vs0mg"},{"bike_id":"3dbdeb5b-20b4-4795-9623-768888b49b30","system_id":"levelo_inurba_marseille","lat":43.23153,"lon":5.43711,"is_reserved":false,"is_disabled":false,"rental_uris":{"android":"levelo://app?vid=3dbdeb5b-20b4-4795-9623-768888b49b30","ios":"levelo://app?vid=3dbdeb5b-20b4-4795-9623-768888b49b30"},"vehicle_type_id":"4","last_reported":1756228151,"current_range_meters":12000,"station_id":"ce4bhmp2rcd13ifvqgog","pricing_plan_id":"cebpf4jnsgd1na2vs0mg"},{"bike_id":"99132422-e89e-4121-847d-7eb264f731a2","system_id":"levelo_inurba_marseille","lat":43.30234,"lon":5.40063,"is_reserved":false,"is_disabled":true,"rental_uris":{"android":"levelo://app?vid=99132422-e89e-4121-847d-7eb264f731a2","ios":"levelo://app?vid=99132422-e89e-4121-847d-7eb264f731a2"},"vehicle_type_id":"4","last_reported":1756228151,"current_range_meters":12000,"station_id":"ce4bgvh2rcd13ifvqcs0","pricing_plan_id":"cebpf4jnsgd1na2vs0mg"},{"bike_id":"ec6705ad-1994-4f7b-8ba1-066d763e7f38","system_id":"levelo_inurba_marseille","lat":43.25582,"lon":5.38215,"is_reserved":false,"is_disabled":true,"rental_uris":{"android":"levelo://app?vid=ec6705ad-1994-4f7b-8ba1-066d763e7f38","ios":"levelo://app?vid=ec6705ad-1994-4f7b-8ba1-066d763e7f38"},"vehicle_type_id":"4","last_reported":1756228151,"current_range_meters":12000,"station_id":"ce4bhih2rcd13ifvqfs0","pricing_plan_id":"cebpf4jnsgd1na2vs0mg"},{"bike_id":"0d502687-08ef-4491-8893-8a03d8688be8","system_id":"levelo_inurba_marseille","lat":43.29634,"lon":5.36111,"is_reserved":false,"is_disabled":false,"rental_uris":{"android":"levelo://app?vid=0d502687-08ef-4491-8893-8a03d8688be8","ios":"levelo://app?vid=0d502687-08ef-4491-8893-8a03d8688be8"},"vehicle_type_id":"4","last_reported":1756228151,"current_range_meters":12000,"station_id":"","pricing_plan_id":"cebpf4jnsgd1na2vs0mg"},{"bike_id":"30e80a26-a0af-4d54-ab30-a8689714069f","system_id":"levelo_inurba_marseille","lat":43.28958,"lon":5.36391,"is_reserved":false,"is_disabled":false,"rental_uris":{"android":"levelo://app?vid=30e80a26-a0af-4d54-ab30-a8689714069f","ios":"levelo://app?vid=30e80a26-a0af-4d54-ab30-a8689714069f"},"vehicle_type_id":"4","last_reported":1756228151,"current_range_meters":12400,"station_id":"ce4bhc92rcd13ifvqetg","pricing_plan_id":"cebpf4jnsgd1na2vs0mg"},{"bike_id":"b375d41b-9575-4c77-a6a9-d089747042e7","system_id":"levelo_inurba_marseille","lat":43.32259,"lon":5.36787,"is_reserved":false,"is_disabled":false,"rental_uris":{"android":"levelo://app?vid=b375d41b-9575-4c77-a6a9-d089747042e7","ios":"levelo://app?vid=b375d41b-9575-4c77-a6a9-d089747042e7"},"vehicle_type_id":"4","last_reported":1756228151,"current_range_meters":12400,"station_id":"","pricing_plan_id":"cebpf4jnsgd1na2vs0mg"},{"bike_id":"6642fec2-5d71-4d3c-b323-985fe54066d1","system_id":"levelo_inurba_marseille","lat":43.28568,"lon":5.39494,"is_reserved":false,"is_disabled":false,"rental_uris":{"android":"levelo://app?vid=6642fec2-5d71-4d3c-b323-985fe54066d1","ios":"levelo://app?vid=6642fec2-5d71-4d3c-b323-985fe54066d1"},"vehicle_type_id":"4","last_reported":1756228151,"current_range_meters":12400,"station_id":"ce4bh292rcd13ifvqdg0","pricing_plan_id":"cebpf4jnsgd1na2vs0mg"},{"bike_id":"dc0ed281-fdb1-42d0-b674-0be0c9625780","system_id":"levelo_inurba_marseille","lat":43.30301,"lon":5.39213,"is_reserved":false,"is_disabled":false,"rental_uris":{"android":"levelo://app?vid=dc0ed281-fdb1-42d0-b674-0be0c9625780","ios":"levelo://app?vid=dc0ed281-fdb1-42d0-b674-0be0c9625780"},"vehicle_type_id":"4","last_reported":1756228151,"current_range_meters":12400,"station_id":"ce4bgkh2rcd13ifvqbk0","pricing_plan_id":"cebpf4jnsgd1na2vs0mg"},{"bike_id":"a5e5ce7b-ebc5-4433-91a7-8f3b4c6cd646","system_id":"levelo_inurba_marseille","lat":43.29091,"lon":5.3813,"is_reserved":false,"is_disabled":false,"rental_uris":{"android":"levelo://app?vid=a5e5ce7b-ebc5-4433-91a7-8f3b4c6cd646","ios":"levelo://app?vid=a5e5ce7b-ebc5-4433-91a7-8f3b4c6cd646"},"vehicle_type_id":"4","last_reported":1756228151,"current_range_meters":12400,"station_id":"ce4bh512rcd13ifvqe2g","pricing_plan_id":"cebpf4jnsgd1na2vs0mg"},{"bike_id":"339681e2-921d-4613-9b64-9a9d11edc5a1","system_id":"levelo_inurba_marseille","lat":43.28673,"lon":5.38658,"is_reserved":false,"is_disabled":false,"rental_uris":{"android":"levelo://app?vid=339681e2-921d-4613-9b64-9a9d11edc5a1","ios":"levelo://app?vid=339681e2-921d-4613-9b64-9a9d11edc5a1"},"vehicle_type_id":"4","last_reported":1756228151,"current_range_meters":12800,"station_id":"ce4bh492rcd13ifvqdug","pricing_plan_id":"cebpf4jnsgd1na2vs0mg"},{"bike_id":"51842e17-ef10-4624-a23e-c8a182427991","system_id":"levelo_inurba_marseille","lat":43.3159,"lon":5.38211,"is_reserved":false,"is_disabled":false,"rental_uris":{"android":"levelo://app?vid=51842e17-ef10-4624-a23e-c8a182427991","ios":"levelo://app?vid=51842e17-ef10-4624-a23e-c8a182427991"},"vehicle_type_id":"4","last_reported":1756228151,"current_range_meters":12800,"station_id":"","pricing_plan_id":"cebpf4jnsgd1na2vs0mg"},{"bike_id":"5f9365e2-60dc-4158-a2c3-0e40911a7a32","system_id":"levelo_inurba_marseille","lat":43.33433,"lon":5.40051,"is_reserved":false,"is_disabled":false,"rental_uris":{"android":"levelo://app?vid=5f9365e2-60dc-4158-a2c3-0e40911a7a32","ios":"levelo://app?vid=5f9365e2-60dc-4158-a2c3-0e40911a7a32"},"vehicle_type_id":"4","last_reported":1756228151,"current_range_meters":12800,"station_id":"","pricing_plan_id":"cebpf4jnsgd1na2vs0mg"},{"bike_id":"1ebc68ef-f386-4544-9281-3d73d2bc984e","system_id":"levelo_inurba_marseille","lat":43.23963,"lon":5.36629,"is_reserved":false,"is_disabled":false,"rental_uris":{"android":"levelo://app?vid=1ebc68ef-f386-4544-9281-3d73d2bc984e","ios":"levelo://app?vid=1ebc68ef-f386-4544-9281-3d73d2bc984e"},"vehicle_type_id":"4","last_reported":1756228151,"current_range_meters":12800,"station_id":"ce4bhi12rcd13ifvqfp0","pricing_plan_id":"cebpf4jnsgd1na2vs0mg"},{"bike_id":"673ef30a-376b-4838-a923-9d17948f03ef","system_id":"levelo_inurba_marseille","lat":43.29529,"lon":5.38541,"is_reserved":false,"is_disabled":false,"rental_uris":{"android":"levelo://app?vid=673ef30a-376b-4838-a923-9d17948f03ef","ios":"levelo://app?vid=673ef30a-376b-4838-a923-9d17948f03ef"},"vehicle_type_id":"4","last_reported":1756228151,"current_range_meters":12800,"station_id":"ce4bgih2rcd13ifvqba0","pricing_plan_id":"cebpf4jnsgd1na2vs0mg"},{"bike_id":"a9c8448e-6218-4e69-a780-11bdb66755b5","system_id":"levelo_inurba_marseille","lat":43.28408,"lon":5.37505,"is_reserved":false,"is_disabled":false,"rental_uris":{"android":"levelo://app?vid=a9c8448e-6218-4e69-a780-11bdb66755b5","ios":"levelo://app?vid=a9c8448e-6218-4e69-a780-11bdb66755b5"},"vehicle_type_id":"4","last_reported":1756228151,"current_range_meters":13600,"station_id":"ce4bh412rcd13ifvqds0","pricing_plan_id":"cebpf4jnsgd1na2vs0mg"},{"bike_id":"a15a1c44-718b-407d-acaa-0383628c87d7","system_id":"levelo_inurba_marseille","lat":43.32694,"lon":5.39203,"is_reserved":false,"is_disabled":false,"rental_uris":{"android":"levelo://app?vid=a15a1c44-718b-407d-acaa-0383628c87d7","ios":"levelo://app?vid=a15a1c44-718b-407d-acaa-0383628c87d7"},"vehicle_type_id":"4","last_reported":1756228151,"current_range_meters":13600,"station_id":"","pricing_plan_id":"cebpf4jnsgd1na2vs0mg"},{"bike_id":"a2d76576-99ba-4402-be09-fc1ebaaa55fd","system_id":"levelo_inurba_marseille","lat":43.28594,"lon":5.35105,"is_reserved":false,"is_disabled":false,"rental_uris":{"android":"levelo://app?vid=a2d76576-99ba-4402-be09-fc1ebaaa55fd","ios":"levelo://app?vid=a2d76576-99ba-4402-be09-fc1ebaaa55fd"},"vehicle_type_id":"4","last_reported":1756228151,"current_range_meters":13600,"station_id":"ce4bhch2rcd13ifvqeug","pricing_plan_id":"cebpf4jnsgd1na2vs0mg"},{"bike_id":"5ebfc32c-3ff0-440a-97ee-1c808332e074","system_id":"levelo_inurba_marseille","lat":43.25006,"lon":5.389113,"is_reserved":false,"is_disabled":false,"rental_uris":{"android":"levelo://app?vid=5ebfc32c-3ff0-440a-97ee-1c808332e074","ios":"levelo://app?vid=5ebfc32c-3ff0-440a-97ee-1c808332e074"},"vehicle_type_id":"4","last_reported":1756228151,"current_range_meters":13600,"station_id":"","pricing_plan_id":"cebpf4jnsgd1na2vs0mg"},{"bike_id":"45b3a78d-313d-42fa-9aad-c537235950d4","system_id":"levelo_inurba_marseille","lat":43.27841,"lon":5.39214,"is_reserved":false,"is_disabled":false,"rental_uris":{"android":"levelo://app?vid=45b3a78d-313d-42fa-9aad-c537235950d4","ios":"levelo://app?vid=45b3a78d-313d-42fa-9aad-c537235950d4"},"vehicle_type_id":"4","last_reported":1756228151,"current_range_meters":12800,"station_id":"ce4bhjp2rcd13ifvqga0","pricing_plan_id":"cebpf4jnsgd1na2vs0mg"},{"bike_id":"497a27b1-6868-43c7-b022-46a763e63b58","system_id":"levelo_inurba_marseille","lat":43.23964,"lon":5.3663,"is_reserved":false,"is_disabled":false,"rental_uris":{"android":"levelo://app?vid=497a27b1-6868-43c7-b022-46a763e63b58","ios":"levelo://app?vid=497a27b1-6868-43c7-b022-46a763e63b58"},"vehicle_type_id":"4","last_reported":1756228151,"current_range_meters":13600,"station_id":"ce4bhi12rcd13ifvqfp0","pricing_plan_id":"cebpf4jnsgd1na2vs0mg"},{"bike_id":"6ad04a24-c823-4e3d-a9a1-0f6f7a0b3f4a","system_id":"levelo_inurba_marseille","lat":43.30425,"lon":5.38892,"is_reserved":false,"is_disabled":false,"rental_uris":{"android":"levelo://app?vid=6ad04a24-c823-4e3d-a9a1-0f6f7a0b3f4a","ios":"levelo://app?vid=6ad04a24-c823-4e3d-a9a1-0f6f7a0b3f4a"},"vehicle_type_id":"4","last_reported":1756228151,"current_range_meters":13600,"station_id":"ce4bgk12rcd13ifvqbi0","pricing_plan_id":"cebpf4jnsgd1na2vs0mg"},{"bike_id":"4d1b9277-f220-4e59-b948-36430001cc6f","system_id":"levelo_inurba_marseille","lat":43.273764,"lon":5.36259,"is_reserved":false,"is_disabled":false,"rental_uris":{"android":"levelo://app?vid=4d1b9277-f220-4e59-b948-36430001cc6f","ios":"levelo://app?vid=4d1b9277-f220-4e59-b948-36430001cc6f"},"vehicle_type_id":"4","last_reported":1756228151,"current_range_meters":14000,"station_id":"ce4bhbh2rcd13ifvqeo0","pricing_plan_id":"cebpf4jnsgd1na2vs0mg"},{"bike_id":"8ad69d7f-6d52-4611-bf92-39c173b24a99","system_id":"levelo_inurba_marseille","lat":43.29274,"lon":5.36837,"is_reserved":false,"is_disabled":false,"rental_uris":{"android":"levelo://app?vid=8ad69d7f-6d52-4611-bf92-39c173b24a99","ios":"levelo://app?vid=8ad69d7f-6d52-4611-bf92-39c173b24a99"},"vehicle_type_id":"4","last_reported":1756228151,"current_range_meters":14000,"station_id":"ce4bhbp2rcd13ifvqesg","pricing_plan_id":"cebpf4jnsgd1na2vs0mg"},{"bike_id":"b4d6c33d-a0bf-42a3-9ab7-0db80b72b559","system_id":"levelo_inurba_marseille","lat":43.28941,"lon":5.36631,"is_reserved":false,"is_disabled":true,"rental_uris":{"android":"levelo://app?vid=b4d6c33d-a0bf-42a3-9ab7-0db80b72b559","ios":"levelo://app?vid=b4d6c33d-a0bf-42a3-9ab7-0db80b72b559"},"vehicle_type_id":"4","last_reported":1756228151,"current_range_meters":14000,"station_id":"ce4bhap2rcd13ifvqek0","pricing_plan_id":"cebpf4jnsgd1na2vs0mg"},{"bike_id":"1027bb83-a668-47de-9094-84302cb909d4","system_id":"levelo_inurba_marseille","lat":43.21183,"lon":5.35046,"is_reserved":false,"is_disabled":false,"rental_uris":{"android":"levelo://app?vid=1027bb83-a668-47de-9094-84302cb909d4","ios":"levelo://app?vid=1027bb83-a668-47de-9094-84302cb909d4"},"vehicle_type_id":"4","last_reported":1756228151,"current_range_meters":14000,"station_id":"st_cvj6sg6p6f1abm77japg","pricing_plan_id":"cebpf4jnsgd1na2vs0mg"},{"bike_id":"0e256118-fe33-4307-b7cb-16c76027513c","system_id":"levelo_inurba_marseille","lat":43.240899,"lon":5.377526,"is_reserved":false,"is_disabled":false,"rental_uris":{"android":"levelo://app?vid=0e256118-fe33-4307-b7cb-16c76027513c","ios":"levelo://app?vid=0e256118-fe33-4307-b7cb-16c76027513c"},"vehicle_type_id":"4","last_reported":1756228151,"current_range_meters":14000,"station_id":"ce4bhnp2rcd13ifvqgvg","pricing_plan_id":"cebpf4jnsgd1na2vs0mg"},{"bike_id":"4e330b1f-161c-4651-9fd6-20401a194c71","system_id":"levelo_inurba_marseille","lat":43.2407,"lon":5.37768,"is_reserved":false,"is_disabled":false,"rental_uris":{"android":"levelo://app?vid=4e330b1f-161c-4651-9fd6-20401a194c71","ios":"levelo://app?vid=4e330b1f-161c-4651-9fd6-20401a194c71"},"vehicle_type_id":"4","last_reported":1756228151,"current_range_meters":14000,"station_id":"ce4bhnp2rcd13ifvqgvg","pricing_plan_id":"cebpf4jnsgd1na2vs0mg"},{"bike_id":"444185a1-99b2-4724-a588-1f691746c053","system_id":"levelo_inurba_marseille","lat":43.27048,"lon":5.42291,"is_reserved":false,"is_disabled":false,"rental_uris":{"android":"levelo://app?vid=444185a1-99b2-4724-a588-1f691746c053","ios":"levelo://app?vid=444185a1-99b2-4724-a588-1f691746c053"},"vehicle_type_id":"4","last_reported":1756228151,"current_range_meters":14400,"station_id":"ce4bhk92rcd13ifvqgb0","pricing_plan_id":"cebpf4jnsgd1na2vs0mg"},{"bike_id":"89bb2efc-5c45-48e0-b659-b8ecb63211d5","system_id":"levelo_inurba_marseille","lat":43.29788,"lon":5.39335,"is_reserved":false,"is_disabled":false,"rental_uris":{"android":"levelo://app?vid=89bb2efc-5c45-48e0-b659-b8ecb63211d5","ios":"levelo://app?vid=89bb2efc-5c45-48e0-b659-b8ecb63211d5"},"vehicle_type_id":"4","last_reported":1756228151,"current_range_meters":14400,"station_id":"chh1huq6cuj3fo74tm60","pricing_plan_id":"cebpf4jnsgd1na2vs0mg"},{"bike_id":"a9cf1c1e-0adb-4019-8eda-d6f66265d632","system_id":"levelo_inurba_marseille","lat":43.28946,"lon":5.36642,"is_reserved":false,"is_disabled":false,"rental_uris":{"android":"levelo://app?vid=a9cf1c1e-0adb-4019-8eda-d6f66265d632","ios":"levelo://app?vid=a9cf1c1e-0adb-4019-8eda-d6f66265d632"},"vehicle_type_id":"4","last_reported":1756228151,"current_range_meters":14400,"station_id":"ce4bhap2rcd13ifvqek0","pricing_plan_id":"cebpf4jnsgd1na2vs0mg"},{"bike_id":"7e0c55b1-6544-4856-a1af-5d1b3f4af96b","system_id":"levelo_inurba_marseille","lat":43.29976,"lon":5.37183,"is_reserved":false,"is_disabled":false,"rental_uris":{"android":"levelo://app?vid=7e0c55b1-6544-4856-a1af-5d1b3f4af96b","ios":"levelo://app?vid=7e0c55b1-6544-4856-a1af-5d1b3f4af96b"},"vehicle_type_id":"4","last_reported":1756228151,"current_range_meters":14400,"station_id":"ce4bgr92rcd13ifvqc7g","pricing_plan_id":"cebpf4jnsgd1na2vs0mg"},{"bike_id":"ba970b95-a7b6-4f77-a837-595acc2d0e0a","system_id":"levelo_inurba_marseille","lat":43.23964,"lon":5.36631,"is_reserved":false,"is_disabled":false,"rental_uris":{"android":"levelo://app?vid=ba970b95-a7b6-4f77-a837-595acc2d0e0a","ios":"levelo://app?vid=ba970b95-a7b6-4f77-a837-595acc2d0e0a"},"vehicle_type_id":"4","last_reported":1756228151,"current_range_meters":14000,"station_id":"ce4bhi12rcd13ifvqfp0","pricing_plan_id":"cebpf4jnsgd1na2vs0mg"},{"bike_id":"89174dde-dc73-48bf-89aa-3afa4c190598","system_id":"levelo_inurba_marseille","lat":43.2927,"lon":5.38446,"is_reserved":false,"is_disabled":false,"rental_uris":{"android":"levelo://app?vid=89174dde-dc73-48bf-89aa-3afa4c190598","ios":"levelo://app?vid=89174dde-dc73-48bf-89aa-3afa4c190598"},"vehicle_type_id":"4","last_reported":1756228151,"current_range_meters":14400,"station_id":"ce4bh692rcd13ifvqea0","pricing_plan_id":"cebpf4jnsgd1na2vs0mg"},{"bike_id":"db7d3d83-f39a-4469-8445-29697e69fec4","system_id":"levelo_inurba_marseille","lat":43.3228,"lon":5.38679,"is_reserved":false,"is_disabled":false,"rental_uris":{"android":"levelo://app?vid=db7d3d83-f39a-4469-8445-29697e69fec4","ios":"levelo://app?vid=db7d3d83-f39a-4469-8445-29697e69fec4"},"vehicle_type_id":"4","last_reported":1756228151,"current_range_meters":14400,"station_id":"","pricing_plan_id":"cebpf4jnsgd1na2vs0mg"},{"bike_id":"9b6df017-49e7-4a8a-8ea3-f95ebf7c26d7","system_id":"levelo_inurba_marseille","lat":43.286128,"lon":5.35092,"is_reserved":false,"is_disabled":false,"rental_uris":{"android":"levelo://app?vid=9b6df017-49e7-4a8a-8ea3-f95ebf7c26d7","ios":"levelo://app?vid=9b6df017-49e7-4a8a-8ea3-f95ebf7c26d7"},"vehicle_type_id":"4","last_reported":1756228151,"current_range_meters":14800,"station_id":"ce4bhch2rcd13ifvqeug","pricing_plan_id":"cebpf4jnsgd1na2vs0mg"},{"bike_id":"f2135cb1-3383-46bd-90d4-d827b77a416c","system_id":"levelo_inurba_marseille","lat":43.29527,"lon":5.38542,"is_reserved":false,"is_disabled":false,"rental_uris":{"android":"levelo://app?vid=f2135cb1-3383-46bd-90d4-d827b77a416c","ios":"levelo://app?vid=f2135cb1-3383-46bd-90d4-d827b77a416c"},"vehicle_type_id":"4","last_reported":1756228151,"current_range_meters":14800,"station_id":"ce4bgih2rcd13ifvqba0","pricing_plan_id":"cebpf4jnsgd1na2vs0mg"},{"bike_id":"af732ca8-2cea-448a-9928-59e03d12656f","system_id":"levelo_inurba_marseille","lat":43.33483,"lon":5.35776,"is_reserved":false,"is_disabled":false,"rental_uris":{"android":"levelo://app?vid=af732ca8-2cea-448a-9928-59e03d12656f","ios":"levelo://app?vid=af732ca8-2cea-448a-9928-59e03d12656f"},"vehicle_type_id":"4","last_reported":1756228151,"current_range_meters":14800,"station_id":"","pricing_plan_id":"cebpf4jnsgd1na2vs0mg"},{"bike_id":"d787ae59-ec56-4250-85ce-3f130491c870","system_id":"levelo_inurba_marseille","lat":43.301522,"lon":5.380987,"is_reserved":false,"is_disabled":false,"rental_uris":{"android":"levelo://app?vid=d787ae59-ec56-4250-85ce-3f130491c870","ios":"levelo://app?vid=d787ae59-ec56-4250-85ce-3f130491c870"},"vehicle_type_id":"4","last_reported":1756228151,"current_range_meters":14800,"station_id":"ce4bgjp2rcd13ifvqbh0","pricing_plan_id":"cebpf4jnsgd1na2vs0mg"},{"bike_id":"4d7e6be0-d2db-49a0-874b-c3c268b63c1c","system_id":"levelo_inurba_marseille","lat":43.30106,"lon":5.37436,"is_reserved":false,"is_disabled":false,"rental_uris":{"android":"levelo://app?vid=4d7e6be0-d2db-49a0-874b-c3c268b63c1c","ios":"levelo://app?vid=4d7e6be0-d2db-49a0-874b-c3c268b63c1c"},"vehicle_type_id":"4","last_reported":1756228151,"current_range_meters":14800,"station_id":"ce4bgs92rcd13ifvqcc0","pricing_plan_id":"cebpf4jnsgd1na2vs0mg"},{"bike_id":"1e7c988d-603f-4f2f-8de8-1c6db7eef2a1","system_id":"levelo_inurba_marseille","lat":43.27803,"lon":5.40723,"is_reserved":false,"is_disabled":false,"rental_uris":{"android":"levelo://app?vid=1e7c988d-603f-4f2f-8de8-1c6db7eef2a1","ios":"levelo://app?vid=1e7c988d-603f-4f2f-8de8-1c6db7eef2a1"},"vehicle_type_id":"4","last_reported":1756228151,"current_range_meters":14800,"station_id":"ce4bhnh2rcd13ifvqgtg","pricing_plan_id":"cebpf4jnsgd1na2vs0mg"},{"bike_id":"f0400c37-c7f6-4929-b1ac-d92430ff6f2d","system_id":"levelo_inurba_marseille","lat":43.27566,"lon":5.39674,"is_reserved":false,"is_disabled":false,"rental_uris":{"android":"levelo://app?vid=f0400c37-c7f6-4929-b1ac-d92430ff6f2d","ios":"levelo://app?vid=f0400c37-c7f6-4929-b1ac-d92430ff6f2d"},"vehicle_type_id":"4","last_reported":1756228151,"current_range_meters":15200,"station_id":"","pricing_plan_id":"cebpf4jnsgd1na2vs0mg"},{"bike_id":"5bce688b-fc81-4596-8277-b66f54be87c1","system_id":"levelo_inurba_marseille","lat":43.33768,"lon":5.37438,"is_reserved":false,"is_disabled":false,"rental_uris":{"android":"levelo://app?vid=5bce688b-fc81-4596-8277-b66f54be87c1","ios":"levelo://app?vid=5bce688b-fc81-4596-8277-b66f54be87c1"},"vehicle_type_id":"4","last_reported":1756228151,"current_range_meters":15200,"station_id":"","pricing_plan_id":"cebpf4jnsgd1na2vs0mg"},{"bike_id":"f85c70c6-1d05-4708-940d-74037dbdb7b8","system_id":"levelo_inurba_marseille","lat":43.27372,"lon":5.36263,"is_reserved":false,"is_disabled":false,"rental_uris":{"android":"levelo://app?vid=f85c70c6-1d05-4708-940d-74037dbdb7b8","ios":"levelo://app?vid=f85c70c6-1d05-4708-940d-74037dbdb7b8"},"vehicle_type_id":"4","last_reported":1756228151,"current_range_meters":15200,"station_id":"ce4bhbh2rcd13ifvqeo0","pricing_plan_id":"cebpf4jnsgd1na2vs0mg"},{"bike_id":"dea23081-036c-4a50-b8b6-5c2371d3892b","system_id":"levelo_inurba_marseille","lat":43.25578,"lon":5.3824,"is_reserved":false,"is_disabled":false,"rental_uris":{"android":"levelo://app?vid=dea23081-036c-4a50-b8b6-5c2371d3892b","ios":"levelo://app?vid=dea23081-036c-4a50-b8b6-5c2371d3892b"},"vehicle_type_id":"4","last_reported":1756228151,"current_range_meters":14800,"station_id":"ce4bhih2rcd13ifvqfs0","pricing_plan_id":"cebpf4jnsgd1na2vs0mg"},{"bike_id":"e55c5166-258e-4ef1-8bb0-61c40d73cb1f","system_id":"levelo_inurba_marseille","lat":43.28413,"lon":5.34985,"is_reserved":false,"is_disabled":false,"rental_uris":{"android":"levelo://app?vid=e55c5166-258e-4ef1-8bb0-61c40d73cb1f","ios":"levelo://app?vid=e55c5166-258e-4ef1-8bb0-61c40d73cb1f"},"vehicle_type_id":"4","last_reported":1756228151,"current_range_meters":15200,"station_id":"ce4bhbh2rcd13ifvqepg","pricing_plan_id":"cebpf4jnsgd1na2vs0mg"},{"bike_id":"777a8c83-aed8-4881-84b6-34465956e738","system_id":"levelo_inurba_marseille","lat":43.25736,"lon":5.41032,"is_reserved":false,"is_disabled":false,"rental_uris":{"android":"levelo://app?vid=777a8c83-aed8-4881-84b6-34465956e738","ios":"levelo://app?vid=777a8c83-aed8-4881-84b6-34465956e738"},"vehicle_type_id":"4","last_reported":1756228151,"current_range_meters":15200,"station_id":"","pricing_plan_id":"cebpf4jnsgd1na2vs0mg"},{"bike_id":"f90838ea-e7e9-40a2-8975-678438d91dfb","system_id":"levelo_inurba_marseille","lat":43.31969,"lon":5.3816,"is_reserved":false,"is_disabled":false,"rental_uris":{"android":"levelo://app?vid=f90838ea-e7e9-40a2-8975-678438d91dfb","ios":"levelo://app?vid=f90838ea-e7e9-40a2-8975-678438d91dfb"},"vehicle_type_id":"4","last_reported":1756228151,"current_range_meters":15200,"station_id":"ce4bhr12rcd13ifvqhpg","pricing_plan_id":"cebpf4jnsgd1na2vs0mg"},{"bike_id":"834a3fa2-f8ce-44bd-8af4-0818d3b8da3c","system_id":"levelo_inurba_marseille","lat":43.292776,"lon":5.368432,"is_reserved":false,"is_disabled":false,"rental_uris":{"android":"levelo://app?vid=834a3fa2-f8ce-44bd-8af4-0818d3b8da3c","ios":"levelo://app?vid=834a3fa2-f8ce-44bd-8af4-0818d3b8da3c"},"vehicle_type_id":"4","last_reported":1756228151,"current_range_meters":16000,"station_id":"ce4bhbp2rcd13ifvqesg","pricing_plan_id":"cebpf4jnsgd1na2vs0mg"},{"bike_id":"c423c61e-2a2b-4ea2-8ab8-6abc37bef34e","system_id":"levelo_inurba_marseille","lat":43.291,"lon":5.38134,"is_reserved":false,"is_disabled":false,"rental_uris":{"android":"levelo://app?vid=c423c61e-2a2b-4ea2-8ab8-6abc37bef34e","ios":"levelo://app?vid=c423c61e-2a2b-4ea2-8ab8-6abc37bef34e"},"vehicle_type_id":"4","last_reported":1756228151,"current_range_meters":16000,"station_id":"ce4bh512rcd13ifvqe2g","pricing_plan_id":"cebpf4jnsgd1na2vs0mg"},{"bike_id":"826f9c0a-980b-43d8-bf4c-e43d77c221ed","system_id":"levelo_inurba_marseille","lat":43.23169,"lon":5.39969,"is_reserved":false,"is_disabled":false,"rental_uris":{"android":"levelo://app?vid=826f9c0a-980b-43d8-bf4c-e43d77c221ed","ios":"levelo://app?vid=826f9c0a-980b-43d8-bf4c-e43d77c221ed"},"vehicle_type_id":"4","last_reported":1756228151,"current_range_meters":16000,"station_id":"ce4bhn12rcd13ifvqgqg","pricing_plan_id":"cebpf4jnsgd1na2vs0mg"},{"bike_id":"a17af2b9-45be-40a4-8ba7-ccfae6566730","system_id":"levelo_inurba_marseille","lat":43.28262,"lon":5.35071,"is_reserved":false,"is_disabled":false,"rental_uris":{"android":"levelo://app?vid=a17af2b9-45be-40a4-8ba7-ccfae6566730","ios":"levelo://app?vid=a17af2b9-45be-40a4-8ba7-ccfae6566730"},"vehicle_type_id":"4","last_reported":1756228151,"current_range_meters":16000,"station_id":"ce4bhbp2rcd13ifvqerg","pricing_plan_id":"cebpf4jnsgd1na2vs0mg"},{"bike_id":"e8c9d0c6-3d4d-4359-b200-5972333e37d8","system_id":"levelo_inurba_marseille","lat":43.32972,"lon":5.3905,"is_reserved":false,"is_disabled":false,"rental_uris":{"android":"levelo://app?vid=e8c9d0c6-3d4d-4359-b200-5972333e37d8","ios":"levelo://app?vid=e8c9d0c6-3d4d-4359-b200-5972333e37d8"},"vehicle_type_id":"4","last_reported":1756228151,"current_range_meters":16000,"station_id":"","pricing_plan_id":"cebpf4jnsgd1na2vs0mg"},{"bike_id":"ac1f1dac-314d-4f86-9c72-025e66366d61","system_id":"levelo_inurba_marseille","lat":43.273766,"lon":5.362632,"is_reserved":false,"is_disabled":false,"rental_uris":{"android":"levelo://app?vid=ac1f1dac-314d-4f86-9c72-025e66366d61","ios":"levelo://app?vid=ac1f1dac-314d-4f86-9c72-025e66366d61"},"vehicle_type_id":"4","last_reported":1756228151,"current_range_meters":16000,"station_id":"ce4bhbh2rcd13ifvqeo0","pricing_plan_id":"cebpf4jnsgd1na2vs0mg"},{"bike_id":"b60c1718-d2ab-4aea-9232-6bbbadba5350","system_id":"levelo_inurba_marseille","lat":43.29271,"lon":5.36841,"is_reserved":false,"is_disabled":false,"rental_uris":{"android":"levelo://app?vid=b60c1718-d2ab-4aea-9232-6bbbadba5350","ios":"levelo://app?vid=b60c1718-d2ab-4aea-9232-6bbbadba5350"},"vehicle_type_id":"4","last_reported":1756228151,"current_range_meters":16000,"station_id":"ce4bhbp2rcd13ifvqesg","pricing_plan_id":"cebpf4jnsgd1na2vs0mg"},{"bike_id":"af744081-2681-4d1e-9525-a9843cca33d2","system_id":"levelo_inurba_marseille","lat":43.3256,"lon":5.36483,"is_reserved":false,"is_disabled":false,"rental_uris":{"android":"levelo://app?vid=af744081-2681-4d1e-9525-a9843cca33d2","ios":"levelo://app?vid=af744081-2681-4d1e-9525-a9843cca33d2"},"vehicle_type_id":"4","last_reported":1756228151,"current_range_meters":16000,"station_id":"","pricing_plan_id":"cebpf4jnsgd1na2vs0mg"},{"bike_id":"8ebccd40-d8b0-4563-aebb-ca20c80ef991","system_id":"levelo_inurba_marseille","lat":43.24079,"lon":5.37754,"is_reserved":false,"is_disabled":false,"rental_uris":{"android":"levelo://app?vid=8ebccd40-d8b0-4563-aebb-ca20c80ef991","ios":"levelo://app?vid=8ebccd40-d8b0-4563-aebb-ca20c80ef991"},"vehicle_type_id":"4","last_reported":1756228151,"current_range_meters":16000,"station_id":"ce4bhnp2rcd13ifvqgvg","pricing_plan_id":"cebpf4jnsgd1na2vs0mg"},{"bike_id":"60919e50-7a56-4f15-9e22-263a35033cb7","system_id":"levelo_inurba_marseille","lat":43.30754,"lon":5.37656,"is_reserved":false,"is_disabled":false,"rental_uris":{"android":"levelo://app?vid=60919e50-7a56-4f15-9e22-263a35033cb7","ios":"levelo://app?vid=60919e50-7a56-4f15-9e22-263a35033cb7"},"vehicle_type_id":"4","last_reported":1756228151,"current_range_meters":16000,"station_id":"ce4bgv92rcd13ifvqcq0","pricing_plan_id":"cebpf4jnsgd1na2vs0mg"},{"bike_id":"6eb9940a-2166-4bc7-9706-0b3919bd41ef","system_id":"levelo_inurba_marseille","lat":43.279059,"lon":5.380174,"is_reserved":false,"is_disabled":false,"rental_uris":{"android":"levelo://app?vid=6eb9940a-2166-4bc7-9706-0b3919bd41ef","ios":"levelo://app?vid=6eb9940a-2166-4bc7-9706-0b3919bd41ef"},"vehicle_type_id":"4","last_reported":1756228151,"current_range_meters":16000,"station_id":"ce4bhf92rcd13ifvqf50","pricing_plan_id":"cebpf4jnsgd1na2vs0mg"},{"bike_id":"8416398e-86e9-445b-bde5-1b2db546d2f4","system_id":"levelo_inurba_marseille","lat":43.30307,"lon":5.392,"is_reserved":false,"is_disabled":false,"rental_uris":{"android":"levelo://app?vid=8416398e-86e9-445b-bde5-1b2db546d2f4","ios":"levelo://app?vid=8416398e-86e9-445b-bde5-1b2db546d2f4"},"vehicle_type_id":"4","last_reported":1756228151,"current_range_meters":16400,"station_id":"ce4bgkh2rcd13ifvqbk0","pricing_plan_id":"cebpf4jnsgd1na2vs0mg"},{"bike_id":"91e2f3be-19b5-4aea-8c69-4b59eaea104f","system_id":"levelo_inurba_marseille","lat":43.28612,"lon":5.35097,"is_reserved":false,"is_disabled":false,"rental_uris":{"android":"levelo://app?vid=91e2f3be-19b5-4aea-8c69-4b59eaea104f","ios":"levelo://app?vid=91e2f3be-19b5-4aea-8c69-4b59eaea104f"},"vehicle_type_id":"4","last_reported":1756228151,"current_range_meters":16400,"station_id":"ce4bhch2rcd13ifvqeug","pricing_plan_id":"cebpf4jnsgd1na2vs0mg"},{"bike_id":"e71745a0-e1dd-46b2-b178-c77ff9f67425","system_id":"levelo_inurba_marseille","lat":43.23187,"lon":5.3998,"is_reserved":false,"is_disabled":false,"rental_uris":{"android":"levelo://app?vid=e71745a0-e1dd-46b2-b178-c77ff9f67425","ios":"levelo://app?vid=e71745a0-e1dd-46b2-b178-c77ff9f67425"},"vehicle_type_id":"4","last_reported":1756228151,"current_range_meters":16400,"station_id":"ce4bhn12rcd13ifvqgqg","pricing_plan_id":"cebpf4jnsgd1na2vs0mg"},{"bike_id":"3eeccc0d-ab07-4357-8b12-2caaf7d1d692","system_id":"levelo_inurba_marseille","lat":43.23963,"lon":5.36631,"is_reserved":false,"is_disabled":false,"rental_uris":{"android":"levelo://app?vid=3eeccc0d-ab07-4357-8b12-2caaf7d1d692","ios":"levelo://app?vid=3eeccc0d-ab07-4357-8b12-2caaf7d1d692"},"vehicle_type_id":"4","last_reported":1756228151,"current_range_meters":16400,"station_id":"ce4bhi12rcd13ifvqfp0","pricing_plan_id":"cebpf4jnsgd1na2vs0mg"},{"bike_id":"b4db7571-0c9b-451a-b809-23f3cd426256","system_id":"levelo_inurba_marseille","lat":43.285991,"lon":5.351029,"is_reserved":false,"is_disabled":false,"rental_uris":{"android":"levelo://app?vid=b4db7571-0c9b-451a-b809-23f3cd426256","ios":"levelo://app?vid=b4db7571-0c9b-451a-b809-23f3cd426256"},"vehicle_type_id":"4","last_reported":1756228151,"current_range_meters":16400,"station_id":"ce4bhch2rcd13ifvqeug","pricing_plan_id":"cebpf4jnsgd1na2vs0mg"},{"bike_id":"89da44f1-bd6c-4ef7-a931-2b70ed7ff71d","system_id":"levelo_inurba_marseille","lat":43.28485,"lon":5.38559,"is_reserved":false,"is_disabled":false,"rental_uris":{"android":"levelo://app?vid=89da44f1-bd6c-4ef7-a931-2b70ed7ff71d","ios":"levelo://app?vid=89da44f1-bd6c-4ef7-a931-2b70ed7ff71d"},"vehicle_type_id":"4","last_reported":1756228151,"current_range_meters":16800,"station_id":"ce4bh8p2rcd13ifvqeb0","pricing_plan_id":"cebpf4jnsgd1na2vs0mg"},{"bike_id":"80f3d5ae-2129-481d-8519-a35a40bdb90f","system_id":"levelo_inurba_marseille","lat":43.2953,"lon":5.38545,"is_reserved":false,"is_disabled":false,"rental_uris":{"android":"levelo://app?vid=80f3d5ae-2129-481d-8519-a35a40bdb90f","ios":"levelo://app?vid=80f3d5ae-2129-481d-8519-a35a40bdb90f"},"vehicle_type_id":"4","last_reported":1756228151,"current_range_meters":16800,"station_id":"ce4bgih2rcd13ifvqba0","pricing_plan_id":"cebpf4jnsgd1na2vs0mg"},{"bike_id":"0306ba73-3d0f-4523-9d11-9a4554b2d8ff","system_id":"levelo_inurba_marseille","lat":43.21237,"lon":5.35043,"is_reserved":false,"is_disabled":false,"rental_uris":{"android":"levelo://app?vid=0306ba73-3d0f-4523-9d11-9a4554b2d8ff","ios":"levelo://app?vid=0306ba73-3d0f-4523-9d11-9a4554b2d8ff"},"vehicle_type_id":"4","last_reported":1756228151,"current_range_meters":16800,"station_id":"","pricing_plan_id":"cebpf4jnsgd1na2vs0mg"},{"bike_id":"d262369f-4201-4652-91ef-8adb9d2a4ede","system_id":"levelo_inurba_marseille","lat":43.2407,"lon":5.37755,"is_reserved":false,"is_disabled":false,"rental_uris":{"android":"levelo://app?vid=d262369f-4201-4652-91ef-8adb9d2a4ede","ios":"levelo://app?vid=d262369f-4201-4652-91ef-8adb9d2a4ede"},"vehicle_type_id":"4","last_reported":1756228151,"current_range_meters":16800,"station_id":"ce4bhnp2rcd13ifvqgvg","pricing_plan_id":"cebpf4jnsgd1na2vs0mg"},{"bike_id":"5092e4c6-5d7d-4ea1-9c6e-7c3ba8347241","system_id":"levelo_inurba_marseille","lat":43.29528,"lon":5.38539,"is_reserved":false,"is_disabled":false,"rental_uris":{"android":"levelo://app?vid=5092e4c6-5d7d-4ea1-9c6e-7c3ba8347241","ios":"levelo://app?vid=5092e4c6-5d7d-4ea1-9c6e-7c3ba8347241"},"vehicle_type_id":"4","last_reported":1756228151,"current_range_meters":16800,"station_id":"ce4bgih2rcd13ifvqba0","pricing_plan_id":"cebpf4jnsgd1na2vs0mg"},{"bike_id":"03c14e8b-1010-4c53-bbca-4579c771a25b","system_id":"levelo_inurba_marseille","lat":43.28939,"lon":5.36635,"is_reserved":false,"is_disabled":false,"rental_uris":{"android":"levelo://app?vid=03c14e8b-1010-4c53-bbca-4579c771a25b","ios":"levelo://app?vid=03c14e8b-1010-4c53-bbca-4579c771a25b"},"vehicle_type_id":"4","last_reported":1756228151,"current_range_meters":16800,"station_id":"ce4bhap2rcd13ifvqek0","pricing_plan_id":"cebpf4jnsgd1na2vs0mg"},{"bike_id":"c00892e6-2d4e-45f7-a2e2-b800a25b500d","system_id":"levelo_inurba_marseille","lat":43.30418,"lon":5.41276,"is_reserved":false,"is_disabled":false,"rental_uris":{"android":"levelo://app?vid=c00892e6-2d4e-45f7-a2e2-b800a25b500d","ios":"levelo://app?vid=c00892e6-2d4e-45f7-a2e2-b800a25b500d"},"vehicle_type_id":"4","last_reported":1756228151,"current_range_meters":16800,"station_id":"ce4bhop2rcd13ifvqh8g","pricing_plan_id":"cebpf4jnsgd1na2vs0mg"},{"bike_id":"fbf0e9b4-0244-4455-89e8-bb336b1646cf","system_id":"levelo_inurba_marseille","lat":43.231866,"lon":5.399892,"is_reserved":false,"is_disabled":false,"rental_uris":{"android":"levelo://app?vid=fbf0e9b4-0244-4455-89e8-bb336b1646cf","ios":"levelo://app?vid=fbf0e9b4-0244-4455-89e8-bb336b1646cf"},"vehicle_type_id":"4","last_reported":1756228151,"current_range_meters":17200,"station_id":"ce4bhn12rcd13ifvqgqg","pricing_plan_id":"cebpf4jnsgd1na2vs0mg"},{"bike_id":"3eeb81ce-ba0e-4292-ba59-8987c3dbcf03","system_id":"levelo_inurba_marseille","lat":43.28616,"lon":5.35107,"is_reserved":false,"is_disabled":false,"rental_uris":{"android":"levelo://app?vid=3eeb81ce-ba0e-4292-ba59-8987c3dbcf03","ios":"levelo://app?vid=3eeb81ce-ba0e-4292-ba59-8987c3dbcf03"},"vehicle_type_id":"4","last_reported":1756228151,"current_range_meters":17200,"station_id":"ce4bhch2rcd13ifvqeug","pricing_plan_id":"cebpf4jnsgd1na2vs0mg"},{"bike_id":"40c1fb45-9550-4904-9c4b-5647cd1299ba","system_id":"levelo_inurba_marseille","lat":43.21206,"lon":5.35056,"is_reserved":false,"is_disabled":false,"rental_uris":{"android":"levelo://app?vid=40c1fb45-9550-4904-9c4b-5647cd1299ba","ios":"levelo://app?vid=40c1fb45-9550-4904-9c4b-5647cd1299ba"},"vehicle_type_id":"4","last_reported":1756228151,"current_range_meters":17600,"station_id":"st_cvj6sg6p6f1abm77japg","pricing_plan_id":"cebpf4jnsgd1na2vs0mg"},{"bike_id":"248bf14d-378d-4e2f-9999-982acfdf56f9","system_id":"levelo_inurba_marseille","lat":43.2841,"lon":5.35001,"is_reserved":false,"is_disabled":false,"rental_uris":{"android":"levelo://app?vid=248bf14d-378d-4e2f-9999-982acfdf56f9","ios":"levelo://app?vid=248bf14d-378d-4e2f-9999-982acfdf56f9"},"vehicle_type_id":"4","last_reported":1756228151,"current_range_meters":17600,"station_id":"ce4bhbh2rcd13ifvqepg","pricing_plan_id":"cebpf4jnsgd1na2vs0mg"},{"bike_id":"cd31aaa2-df23-4238-a7ee-801d4448b60a","system_id":"levelo_inurba_marseille","lat":43.23964,"lon":5.36625,"is_reserved":false,"is_disabled":false,"rental_uris":{"android":"levelo://app?vid=cd31aaa2-df23-4238-a7ee-801d4448b60a","ios":"levelo://app?vid=cd31aaa2-df23-4238-a7ee-801d4448b60a"},"vehicle_type_id":"4","last_reported":1756228151,"current_range_meters":17600,"station_id":"ce4bhi12rcd13ifvqfp0","pricing_plan_id":"cebpf4jnsgd1na2vs0mg"},{"bike_id":"79628c36-465e-4d22-bde5-7cfe40d40abd","system_id":"levelo_inurba_marseille","lat":43.2465,"lon":5.38892,"is_reserved":false,"is_disabled":false,"rental_uris":{"android":"levelo://app?vid=79628c36-465e-4d22-bde5-7cfe40d40abd","ios":"levelo://app?vid=79628c36-465e-4d22-bde5-7cfe40d40abd"},"vehicle_type_id":"4","last_reported":1756228151,"current_range_meters":17600,"station_id":"ce4bhg12rcd13ifvqf60","pricing_plan_id":"cebpf4jnsgd1na2vs0mg"},{"bike_id":"f9ff842d-08f9-4253-9f75-acc14da3b16d","system_id":"levelo_inurba_marseille","lat":43.28948,"lon":5.36394,"is_reserved":false,"is_disabled":false,"rental_uris":{"android":"levelo://app?vid=f9ff842d-08f9-4253-9f75-acc14da3b16d","ios":"levelo://app?vid=f9ff842d-08f9-4253-9f75-acc14da3b16d"},"vehicle_type_id":"4","last_reported":1756228151,"current_range_meters":17600,"station_id":"ce4bhc92rcd13ifvqetg","pricing_plan_id":"cebpf4jnsgd1na2vs0mg"},{"bike_id":"abaf99ca-5823-4460-ba5c-ff01280743d0","system_id":"levelo_inurba_marseille","lat":43.27061,"lon":5.42264,"is_reserved":false,"is_disabled":false,"rental_uris":{"android":"levelo://app?vid=abaf99ca-5823-4460-ba5c-ff01280743d0","ios":"levelo://app?vid=abaf99ca-5823-4460-ba5c-ff01280743d0"},"vehicle_type_id":"4","last_reported":1756228151,"current_range_meters":17600,"station_id":"ce4bhk92rcd13ifvqgb0","pricing_plan_id":"cebpf4jnsgd1na2vs0mg"},{"bike_id":"4e0659a5-be1d-4124-8848-780f119099aa","system_id":"levelo_inurba_marseille","lat":43.28446,"lon":5.35048,"is_reserved":false,"is_disabled":false,"rental_uris":{"android":"levelo://app?vid=4e0659a5-be1d-4124-8848-780f119099aa","ios":"levelo://app?vid=4e0659a5-be1d-4124-8848-780f119099aa"},"vehicle_type_id":"4","last_reported":1756228151,"current_range_meters":17600,"station_id":"","pricing_plan_id":"cebpf4jnsgd1na2vs0mg"},{"bike_id":"7181e7ed-ab09-4b00-a864-1d5eb1a3ea42","system_id":"levelo_inurba_marseille","lat":43.29779,"lon":5.37096,"is_reserved":false,"is_disabled":false,"rental_uris":{"android":"levelo://app?vid=7181e7ed-ab09-4b00-a864-1d5eb1a3ea42","ios":"levelo://app?vid=7181e7ed-ab09-4b00-a864-1d5eb1a3ea42"},"vehicle_type_id":"4","last_reported":1756228151,"current_range_meters":17600,"station_id":"ce4bgop2rcd13ifvqc1g","pricing_plan_id":"cebpf4jnsgd1na2vs0mg"},{"bike_id":"3dff11d5-3872-4ffe-8cce-b5631d6c6058","system_id":"levelo_inurba_marseille","lat":43.32669,"lon":5.3916,"is_reserved":false,"is_disabled":false,"rental_uris":{"android":"levelo://app?vid=3dff11d5-3872-4ffe-8cce-b5631d6c6058","ios":"levelo://app?vid=3dff11d5-3872-4ffe-8cce-b5631d6c6058"},"vehicle_type_id":"4","last_reported":1756228151,"current_range_meters":17600,"station_id":"","pricing_plan_id":"cebpf4jnsgd1na2vs0mg"},{"bike_id":"cd822ebe-8d01-44f2-b9e8-1f0b3a981bae","system_id":"levelo_inurba_marseille","lat":43.28895,"lon":5.35828,"is_reserved":false,"is_disabled":true,"rental_uris":{"android":"levelo://app?vid=cd822ebe-8d01-44f2-b9e8-1f0b3a981bae","ios":"levelo://app?vid=cd822ebe-8d01-44f2-b9e8-1f0b3a981bae"},"vehicle_type_id":"4","last_reported":1756228151,"current_range_meters":17600,"station_id":"ce4bhb12rcd13ifvqem0","pricing_plan_id":"cebpf4jnsgd1na2vs0mg"},{"bike_id":"d704803a-d9b1-4e1a-b044-6da602203238","system_id":"levelo_inurba_marseille","lat":43.33728,"lon":5.39198,"is_reserved":false,"is_disabled":false,"rental_uris":{"android":"levelo://app?vid=d704803a-d9b1-4e1a-b044-6da602203238","ios":"levelo://app?vid=d704803a-d9b1-4e1a-b044-6da602203238"},"vehicle_type_id":"4","last_reported":1756228151,"current_range_meters":17600,"station_id":"ce4bhr92rcd13ifvqhsg","pricing_plan_id":"cebpf4jnsgd1na2vs0mg"},{"bike_id":"c56068f5-09a4-4dc5-9050-87954b0c47c2","system_id":"levelo_inurba_marseille","lat":43.25336,"lon":5.42169,"is_reserved":false,"is_disabled":false,"rental_uris":{"android":"levelo://app?vid=c56068f5-09a4-4dc5-9050-87954b0c47c2","ios":"levelo://app?vid=c56068f5-09a4-4dc5-9050-87954b0c47c2"},"vehicle_type_id":"4","last_reported":1756228151,"current_range_meters":18000,"station_id":"st_d2m65c5bi1j21697t3ng","pricing_plan_id":"cebpf4jnsgd1na2vs0mg"},{"bike_id":"b5ae0016-67e1-4c37-91cb-4d986fbc09a4","system_id":"levelo_inurba_marseille","lat":43.246327,"lon":5.431457,"is_reserved":false,"is_disabled":false,"rental_uris":{"android":"levelo://app?vid=b5ae0016-67e1-4c37-91cb-4d986fbc09a4","ios":"levelo://app?vid=b5ae0016-67e1-4c37-91cb-4d986fbc09a4"},"vehicle_type_id":"4","last_reported":1756228151,"current_range_meters":18000,"station_id":"st_d2m6c4gdas8pm72e190g","pricing_plan_id":"cebpf4jnsgd1na2vs0mg"},{"bike_id":"e5eabf25-4e1c-476e-b130-9f83cdcfc80c","system_id":"levelo_inurba_marseille","lat":43.29803,"lon":5.41691,"is_reserved":false,"is_disabled":false,"rental_uris":{"android":"levelo://app?vid=e5eabf25-4e1c-476e-b130-9f83cdcfc80c","ios":"levelo://app?vid=e5eabf25-4e1c-476e-b130-9f83cdcfc80c"},"vehicle_type_id":"4","last_reported":1756228151,"current_range_meters":18000,"station_id":"","pricing_plan_id":"cebpf4jnsgd1na2vs0mg"},{"bike_id":"03dd9e82-7a9e-40d6-b58e-65075894c8d2","system_id":"levelo_inurba_marseille","lat":43.30314,"lon":5.36894,"is_reserved":false,"is_disabled":false,"rental_uris":{"android":"levelo://app?vid=03dd9e82-7a9e-40d6-b58e-65075894c8d2","ios":"levelo://app?vid=03dd9e82-7a9e-40d6-b58e-65075894c8d2"},"vehicle_type_id":"4","last_reported":1756228151,"current_range_meters":18000,"station_id":"ce4bgqh2rcd13ifvqc5g","pricing_plan_id":"cebpf4jnsgd1na2vs0mg"},{"bike_id":"eaade948-cddd-4cad-b974-cea33bed38ef","system_id":"levelo_inurba_marseille","lat":43.27573,"lon":5.384,"is_reserved":false,"is_disabled":false,"rental_uris":{"android":"levelo://app?vid=eaade948-cddd-4cad-b974-cea33bed38ef","ios":"levelo://app?vid=eaade948-cddd-4cad-b974-cea33bed38ef"},"vehicle_type_id":"4","last_reported":1756228151,"current_range_meters":18000,"station_id":"ce4bhh92rcd13ifvqfi0","pricing_plan_id":"cebpf4jnsgd1na2vs0mg"},{"bike_id":"4dd066a3-5039-4c08-96e4-92ee4cbb306d","system_id":"levelo_inurba_marseille","lat":43.23183,"lon":5.35549,"is_reserved":false,"is_disabled":false,"rental_uris":{"android":"levelo://app?vid=4dd066a3-5039-4c08-96e4-92ee4cbb306d","ios":"levelo://app?vid=4dd066a3-5039-4c08-96e4-92ee4cbb306d"},"vehicle_type_id":"4","last_reported":1756228151,"current_range_meters":18000,"station_id":"ce4bhu92rcd13ifvqi70","pricing_plan_id":"cebpf4jnsgd1na2vs0mg"},{"bike_id":"115f05a5-882e-4ebd-bc16-8739ad4b153a","system_id":"levelo_inurba_marseille","lat":43.26025,"lon":5.37556,"is_reserved":false,"is_disabled":true,"rental_uris":{"android":"levelo://app?vid=115f05a5-882e-4ebd-bc16-8739ad4b153a","ios":"levelo://app?vid=115f05a5-882e-4ebd-bc16-8739ad4b153a"},"vehicle_type_id":"4","last_reported":1756228151,"current_range_meters":18000,"station_id":"ce4bhgh2rcd13ifvqfa0","pricing_plan_id":"cebpf4jnsgd1na2vs0mg"},{"bike_id":"7ad2097a-7ea1-460f-83ed-a57e958e7c46","system_id":"levelo_inurba_marseille","lat":43.29983,"lon":5.36766,"is_reserved":false,"is_disabled":false,"rental_uris":{"android":"levelo://app?vid=7ad2097a-7ea1-460f-83ed-a57e958e7c46","ios":"levelo://app?vid=7ad2097a-7ea1-460f-83ed-a57e958e7c46"},"vehicle_type_id":"4","last_reported":1756228151,"current_range_meters":18000,"station_id":"","pricing_plan_id":"cebpf4jnsgd1na2vs0mg"},{"bike_id":"9944abf4-eee7-49cc-9154-1b6c26394514","system_id":"levelo_inurba_marseille","lat":43.29192,"lon":5.35809,"is_reserved":false,"is_disabled":false,"rental_uris":{"android":"levelo://app?vid=9944abf4-eee7-49cc-9154-1b6c26394514","ios":"levelo://app?vid=9944abf4-eee7-49cc-9154-1b6c26394514"},"vehicle_type_id":"4","last_reported":1756228151,"current_range_meters":18000,"station_id":"ce4bhb12rcd13ifvqel0","pricing_plan_id":"cebpf4jnsgd1na2vs0mg"},{"bike_id":"cb567a16-f56a-4bcd-9c16-b35cef4fac8f","system_id":"levelo_inurba_marseille","lat":43.29868,"lon":5.38912,"is_reserved":false,"is_disabled":true,"rental_uris":{"android":"levelo://app?vid=cb567a16-f56a-4bcd-9c16-b35cef4fac8f","ios":"levelo://app?vid=cb567a16-f56a-4bcd-9c16-b35cef4fac8f"},"vehicle_type_id":"4","last_reported":1756228151,"current_range_meters":18000,"station_id":"ce4bh392rcd13ifvqdl0","pricing_plan_id":"cebpf4jnsgd1na2vs0mg"},{"bike_id":"14f2b864-cea9-45e8-a4b9-eb9637fd7d14","system_id":"levelo_inurba_marseille","lat":43.2907,"lon":5.37163,"is_reserved":false,"is_disabled":true,"rental_uris":{"android":"levelo://app?vid=14f2b864-cea9-45e8-a4b9-eb9637fd7d14","ios":"levelo://app?vid=14f2b864-cea9-45e8-a4b9-eb9637fd7d14"},"vehicle_type_id":"4","last_reported":1756228151,"current_range_meters":18000,"station_id":"ce4bh5p2rcd13ifvqe4g","pricing_plan_id":"cebpf4jnsgd1na2vs0mg"},{"bike_id":"f7213e16-6938-41df-b35d-3e745154b5b7","system_id":"levelo_inurba_marseille","lat":43.23966,"lon":5.36608,"is_reserved":false,"is_disabled":false,"rental_uris":{"android":"levelo://app?vid=f7213e16-6938-41df-b35d-3e745154b5b7","ios":"levelo://app?vid=f7213e16-6938-41df-b35d-3e745154b5b7"},"vehicle_type_id":"4","last_reported":1756228151,"current_range_meters":18800,"station_id":"ce4bhi12rcd13ifvqfp0","pricing_plan_id":"cebpf4jnsgd1na2vs0mg"},{"bike_id":"f03fd8b5-820c-4428-a47c-214be68d7e64","system_id":"levelo_inurba_marseille","lat":43.24058,"lon":5.37759,"is_reserved":false,"is_disabled":false,"rental_uris":{"android":"levelo://app?vid=f03fd8b5-820c-4428-a47c-214be68d7e64","ios":"levelo://app?vid=f03fd8b5-820c-4428-a47c-214be68d7e64"},"vehicle_type_id":"4","last_reported":1756228151,"current_range_meters":18800,"station_id":"ce4bhnp2rcd13ifvqgvg","pricing_plan_id":"cebpf4jnsgd1na2vs0mg"},{"bike_id":"685105d1-bcda-4899-9d64-d94adf158a64","system_id":"levelo_inurba_marseille","lat":43.314676,"lon":5.373608,"is_reserved":false,"is_disabled":true,"rental_uris":{"android":"levelo://app?vid=685105d1-bcda-4899-9d64-d94adf158a64","ios":"levelo://app?vid=685105d1-bcda-4899-9d64-d94adf158a64"},"vehicle_type_id":"4","last_reported":1756228151,"current_range_meters":18800,"station_id":"","pricing_plan_id":"cebpf4jnsgd1na2vs0mg"},{"bike_id":"92513039-ed08-4885-b0a8-659a6ea31224","system_id":"levelo_inurba_marseille","lat":43.3041,"lon":5.41292,"is_reserved":false,"is_disabled":false,"rental_uris":{"android":"levelo://app?vid=92513039-ed08-4885-b0a8-659a6ea31224","ios":"levelo://app?vid=92513039-ed08-4885-b0a8-659a6ea31224"},"vehicle_type_id":"4","last_reported":1756228151,"current_range_meters":18800,"station_id":"ce4bhop2rcd13ifvqh8g","pricing_plan_id":"cebpf4jnsgd1na2vs0mg"},{"bike_id":"c2d53231-5ecc-4cea-b4de-6cfb3ca20c83","system_id":"levelo_inurba_marseille","lat":43.2668,"lon":5.38269,"is_reserved":false,"is_disabled":false,"rental_uris":{"android":"levelo://app?vid=c2d53231-5ecc-4cea-b4de-6cfb3ca20c83","ios":"levelo://app?vid=c2d53231-5ecc-4cea-b4de-6cfb3ca20c83"},"vehicle_type_id":"4","last_reported":1756228151,"current_range_meters":18800,"station_id":"ce4bhg92rcd13ifvqf90","pricing_plan_id":"cebpf4jnsgd1na2vs0mg"},{"bike_id":"88eff680-93bc-47d2-963e-c814d92560f1","system_id":"levelo_inurba_marseille","lat":43.275022,"lon":5.424461,"is_reserved":false,"is_disabled":false,"rental_uris":{"android":"levelo://app?vid=88eff680-93bc-47d2-963e-c814d92560f1","ios":"levelo://app?vid=88eff680-93bc-47d2-963e-c814d92560f1"},"vehicle_type_id":"4","last_reported":1756228151,"current_range_meters":18800,"station_id":"ce4bhn92rcd13ifvqgrg","pricing_plan_id":"cebpf4jnsgd1na2vs0mg"},{"bike_id":"a08a4b4a-63cd-4e9f-ab0f-d0786aa2f179","system_id":"levelo_inurba_marseille","lat":43.29274,"lon":5.3684,"is_reserved":false,"is_disabled":false,"rental_uris":{"android":"levelo://app?vid=a08a4b4a-63cd-4e9f-ab0f-d0786aa2f179","ios":"levelo://app?vid=a08a4b4a-63cd-4e9f-ab0f-d0786aa2f179"},"vehicle_type_id":"4","last_reported":1756228151,"current_range_meters":18800,"station_id":"ce4bhbp2rcd13ifvqesg","pricing_plan_id":"cebpf4jnsgd1na2vs0mg"},{"bike_id":"09d2d494-ce32-4189-aebf-a4ccecd5b983","system_id":"levelo_inurba_marseille","lat":43.28851,"lon":5.39301,"is_reserved":false,"is_disabled":false,"rental_uris":{"android":"levelo://app?vid=09d2d494-ce32-4189-aebf-a4ccecd5b983","ios":"levelo://app?vid=09d2d494-ce32-4189-aebf-a4ccecd5b983"},"vehicle_type_id":"4","last_reported":1756228151,"current_range_meters":18000,"station_id":"ce4bh2p2rcd13ifvqdi0","pricing_plan_id":"cebpf4jnsgd1na2vs0mg"},{"bike_id":"ed7fd988-5702-4d24-b7a8-791eba92a355","system_id":"levelo_inurba_marseille","lat":43.30777,"lon":5.37641,"is_reserved":false,"is_disabled":false,"rental_uris":{"android":"levelo://app?vid=ed7fd988-5702-4d24-b7a8-791eba92a355","ios":"levelo://app?vid=ed7fd988-5702-4d24-b7a8-791eba92a355"},"vehicle_type_id":"4","last_reported":1756228151,"current_range_meters":18800,"station_id":"ce4bgv92rcd13ifvqcq0","pricing_plan_id":"cebpf4jnsgd1na2vs0mg"},{"bike_id":"63d9a24c-58b1-447e-a9f8-7d4abccf6b9d","system_id":"levelo_inurba_marseille","lat":43.28271,"lon":5.35075,"is_reserved":false,"is_disabled":false,"rental_uris":{"android":"levelo://app?vid=63d9a24c-58b1-447e-a9f8-7d4abccf6b9d","ios":"levelo://app?vid=63d9a24c-58b1-447e-a9f8-7d4abccf6b9d"},"vehicle_type_id":"4","last_reported":1756228151,"current_range_meters":18800,"station_id":"ce4bhbp2rcd13ifvqerg","pricing_plan_id":"cebpf4jnsgd1na2vs0mg"},{"bike_id":"cfd08954-fb48-4c94-bbdd-38cc6d5ebcc7","system_id":"levelo_inurba_marseille","lat":43.29782,"lon":5.39346,"is_reserved":false,"is_disabled":false,"rental_uris":{"android":"levelo://app?vid=cfd08954-fb48-4c94-bbdd-38cc6d5ebcc7","ios":"levelo://app?vid=cfd08954-fb48-4c94-bbdd-38cc6d5ebcc7"},"vehicle_type_id":"4","last_reported":1756228151,"current_range_meters":18800,"station_id":"chh1huq6cuj3fo74tm60","pricing_plan_id":"cebpf4jnsgd1na2vs0mg"},{"bike_id":"e01ba365-eb2e-427c-b71e-bd9c13402014","system_id":"levelo_inurba_marseille","lat":43.2558,"lon":5.3823,"is_reserved":false,"is_disabled":false,"rental_uris":{"android":"levelo://app?vid=e01ba365-eb2e-427c-b71e-bd9c13402014","ios":"levelo://app?vid=e01ba365-eb2e-427c-b71e-bd9c13402014"},"vehicle_type_id":"4","last_reported":1756228151,"current_range_meters":19200,"station_id":"ce4bhih2rcd13ifvqfs0","pricing_plan_id":"cebpf4jnsgd1na2vs0mg"},{"bike_id":"5c26a54e-1e97-4ad3-a16d-614ad930b130","system_id":"levelo_inurba_marseille","lat":43.32102,"lon":5.36785,"is_reserved":false,"is_disabled":false,"rental_uris":{"android":"levelo://app?vid=5c26a54e-1e97-4ad3-a16d-614ad930b130","ios":"levelo://app?vid=5c26a54e-1e97-4ad3-a16d-614ad930b130"},"vehicle_type_id":"4","last_reported":1756228151,"current_range_meters":19200,"station_id":"ce4bhrh2rcd13ifvqhug","pricing_plan_id":"cebpf4jnsgd1na2vs0mg"},{"bike_id":"71136ea1-3aaf-4521-8084-554abe261412","system_id":"levelo_inurba_marseille","lat":43.303037,"lon":5.369059,"is_reserved":false,"is_disabled":true,"rental_uris":{"android":"levelo://app?vid=71136ea1-3aaf-4521-8084-554abe261412","ios":"levelo://app?vid=71136ea1-3aaf-4521-8084-554abe261412"},"vehicle_type_id":"4","last_reported":1756228151,"current_range_meters":19200,"station_id":"","pricing_plan_id":"cebpf4jnsgd1na2vs0mg"},{"bike_id":"826435eb-6ecc-45d7-9184-a710501eeffc","system_id":"levelo_inurba_marseille","lat":43.29274,"lon":5.3685,"is_reserved":false,"is_disabled":false,"rental_uris":{"android":"levelo://app?vid=826435eb-6ecc-45d7-9184-a710501eeffc","ios":"levelo://app?vid=826435eb-6ecc-45d7-9184-a710501eeffc"},"vehicle_type_id":"4","last_reported":1756228151,"current_range_meters":19200,"station_id":"ce4bhbp2rcd13ifvqesg","pricing_plan_id":"cebpf4jnsgd1na2vs0mg"},{"bike_id":"9debf4d9-b244-4d97-8654-802b3ec59894","system_id":"levelo_inurba_marseille","lat":43.23173,"lon":5.35576,"is_reserved":false,"is_disabled":false,"rental_uris":{"android":"levelo://app?vid=9debf4d9-b244-4d97-8654-802b3ec59894","ios":"levelo://app?vid=9debf4d9-b244-4d97-8654-802b3ec59894"},"vehicle_type_id":"4","last_reported":1756228151,"current_range_meters":19200,"station_id":"ce4bhu92rcd13ifvqi70","pricing_plan_id":"cebpf4jnsgd1na2vs0mg"},{"bike_id":"69a2a214-20ef-4f37-8778-f67791536a69","system_id":"levelo_inurba_marseille","lat":43.28091,"lon":5.42686,"is_reserved":false,"is_disabled":false,"rental_uris":{"android":"levelo://app?vid=69a2a214-20ef-4f37-8778-f67791536a69","ios":"levelo://app?vid=69a2a214-20ef-4f37-8778-f67791536a69"},"vehicle_type_id":"4","last_reported":1756228151,"current_range_meters":19200,"station_id":"ce4bhnh2rcd13ifvqgug","pricing_plan_id":"cebpf4jnsgd1na2vs0mg"},{"bike_id":"a9d83b21-9821-4029-bb59-40c830188146","system_id":"levelo_inurba_marseille","lat":43.323746,"lon":5.367502,"is_reserved":false,"is_disabled":false,"rental_uris":{"android":"levelo://app?vid=a9d83b21-9821-4029-bb59-40c830188146","ios":"levelo://app?vid=a9d83b21-9821-4029-bb59-40c830188146"},"vehicle_type_id":"4","last_reported":1756228151,"current_range_meters":19200,"station_id":"ce4bhsh2rcd13ifvqi2g","pricing_plan_id":"cebpf4jnsgd1na2vs0mg"},