{"last_updated":1753280033,"ttl":60,"version":"2.2","data":{"bikes":[{"bike_id":"fc0e13bf-64b1-4a9f-b4e7-94cb093f1928","system_id":"levelo_inurba_marseille","lat":43.30481,"lon":5.37865,"is_reserved":false,"is_disabled":false,"rental_uris":{"android":"levelo://app?vid=fc0e13bf-64b1-4a9f-b4e7-94cb093f1928","ios":"levelo://app?vid=fc0e13bf-64b1-4a9f-b4e7-94cb093f1928"},"vehicle_type_id":"4","last_reported":1753280034,"current_range_meters":2800,"station_id":"ce4bgup2rcd13ifvqcn0","pricing_plan_id":"cebpf4jnsgd1na2vs0mg"},{"bike_id":"3f7bb36a-6081-4ae4-8548-b780bc276340","system_id":"levelo_inurba_marseille","lat":43.295933,"lon":5.381076,"is_reserved":false,"is_disabled":false,"rental_uris":{"android":"levelo://app?vid=3f7bb36a-6081-4ae4-8548-b780bc276340","ios":"levelo://app?vid=3f7bb36a-6081-4ae4-8548-b780bc276340"},"vehicle_type_id":"4","last_reported":1753280034,"current_range_meters":2800,"station_id":"ce4bgl12rcd13ifvqbo0","pricing_plan_id":"cebpf4jnsgd1na2vs0mg"},{"bike_id":"42413a25-16d1-4419-b44a-45580e0c6ac6","system_id":"levelo_inurba_marseille","lat":43.337588,"lon":5.374878,"is_reserved":false,"is_disabled":false,"rental_uris":{"android":"levelo://app?vid=42413a25-16d1-4419-b44a-45580e0c6ac6","ios":"levelo://app?vid=42413a25-16d1-4419-b44a-45580e0c6ac6"},"vehicle_type_id":"4","last_reported":1753280034,"current_range_meters":3200,"station_id":"","pricing_plan_id":"cebpf4jnsgd1na2vs0mg"},{"bike_id":"a35e0d3b-7b45-4544-b22a-dfb6ea3016e8","system_id":"levelo_inurba_marseille","lat":43.29486,"lon":5.38177,"is_reserved":false,"is_disabled":false,"rental_uris":{"android":"levelo://app?vid=a35e0d3b-7b45-4544-b22a-dfb6ea3016e8","ios":"levelo://app?vid=a35e0d3b-7b45-4544-b22a-dfb6ea3016e8"},"vehicle_type_id":"4","last_reported":1753280034,"current_range_meters":3200,"station_id":"","pricing_plan_id":"cebpf4jnsgd1na2vs0mg"},{"bike_id":"d2cadf82-5529-4347-be02-4ae0963e1e24","system_id":"levelo_inurba_marseille","lat":43.288555,"lon":5.35846,"is_reserved":false,"is_disabled":false,"rental_uris":{"android":"levelo://app?vid=d2cadf82-5529-4347-be02-4ae0963e1e24","ios":"levelo://app?vid=d2cadf82-5529-4347-be02-4ae0963e1e24"},"vehicle_type_id":"4","last_reported":1753280034,"current_range_meters":3600,"station_id":"ce4bhb12rcd13ifvqem0","pricing_plan_id":"cebpf4jnsgd1na2vs0mg"},{"bike_id":"2ad9d163-9da4-42d8-bf6e-567f9b73cfad","system_id":"levelo_inurba_marseille","lat":43.32354,"lon":5.36679,"is_reserved":false,"is_disabled":false,"rental_uris":{"android":"levelo://app?vid=2ad9d163-9da4-42d8-bf6e-567f9b73cfad","ios":"levelo://app?vid=2ad9d163-9da4-42d8-bf6e-567f9b73cfad"},"vehicle_type_id":"4","last_reported":1753280034,"current_range_meters":4000,"station_id":"ce4bhsh2rcd13ifvqi2g","pricing_plan_id":"cebpf4jnsgd1na2vs0mg"},{"bike_id":"fb94828e-031b-4e4b-b43d-9a865faaab57","system_id":"levelo_inurba_marseille","lat":43.32285,"lon":5.38274,"is_reserved":false,"is_disabled":false,"rental_uris":{"android":"levelo://app?vid=fb94828e-031b-4e4b-b43d-9a865faaab57","ios":"levelo://app?vid=fb94828e-031b-4e4b-b43d-9a865faaab57"},"vehicle_type_id":"4","last_reported":1753280034,"current_range_meters":4000,"station_id":"ce4bhr12rcd13ifvqhqg","pricing_plan_id":"cebpf4jnsgd1na2vs0mg"},{"bike_id":"5e08883e-08c5-4884-8e3d-365187d11bab","system_id":"levelo_inurba_marseille","lat":43.29526,"lon":5.39037,"is_reserved":false,"is_disabled":false,"rental_uris":{"android":"levelo://app?vid=5e08883e-08c5-4884-8e3d-365187d11bab","ios":"levelo://app?vid=5e08883e-08c5-4884-8e3d-365187d11bab"},"vehicle_type_id":"4","last_reported":1753280034,"current_range_meters":4400,"station_id":"ce4bh3p2rcd13ifvqdp0","pricing_plan_id":"cebpf4jnsgd1na2vs0mg"},{"bike_id":"6f0894b0-7165-40b1-b8b2-a914d3ece0a4","system_id":"levelo_inurba_marseille","lat":43.29565,"lon":5.37508,"is_reserved":false,"is_disabled":false,"rental_uris":{"android":"levelo://app?vid=6f0894b0-7165-40b1-b8b2-a914d3ece0a4","ios":"levelo://app?vid=6f0894b0-7165-40b1-b8b2-a914d3ece0a4"},"vehicle_type_id":"4","last_reported":1753280034,"current_range_meters":4400,"station_id":"ce4bgh92rcd13ifvqb50","pricing_plan_id":"cebpf4jnsgd1na2vs0mg"},{"bike_id":"35906335-5ccd-431a-baeb-b90dc23487b1","system_id":"levelo_inurba_marseille","lat":43.28416,"lon":5.34978,"is_reserved":false,"is_disabled":false,"rental_uris":{"android":"levelo://app?vid=35906335-5ccd-431a-baeb-b90dc23487b1","ios":"levelo://app?vid=35906335-5ccd-431a-baeb-b90dc23487b1"},"vehicle_type_id":"4","last_reported":1753280034,"current_range_meters":4800,"station_id":"ce4bhbh2rcd13ifvqepg","pricing_plan_id":"cebpf4jnsgd1na2vs0mg"},{"bike_id":"b1a9da3f-07cf-4437-acbe-5597cfe17b8e","system_id":"levelo_inurba_marseille","lat":43.24165,"lon":5.36405,"is_reserved":false,"is_disabled":false,"rental_uris":{"android":"levelo://app?vid=b1a9da3f-07cf-4437-acbe-5597cfe17b8e","ios":"levelo://app?vid=b1a9da3f-07cf-4437-acbe-5597cfe17b8e"},"vehicle_type_id":"4","last_reported":1753280034,"current_range_meters":4800,"station_id":"cpo36qri1sfpv3e86is0","pricing_plan_id":"cebpf4jnsgd1na2vs0mg"},{"bike_id":"ec0adf83-6184-4d63-a8bd-8a4c46331101","system_id":"levelo_inurba_marseille","lat":43.26064,"lon":5.39399,"is_reserved":false,"is_disabled":true,"rental_uris":{"android":"levelo://app?vid=ec0adf83-6184-4d63-a8bd-8a4c46331101","ios":"levelo://app?vid=ec0adf83-6184-4d63-a8bd-8a4c46331101"},"vehicle_type_id":"4","last_reported":1753280034,"current_range_meters":4800,"station_id":"ce4bhh92rcd13ifvqfj0","pricing_plan_id":"cebpf4jnsgd1na2vs0mg"},{"bike_id":"ee365644-4368-4326-81fd-37278c03cf53","system_id":"levelo_inurba_marseille","lat":43.29307,"lon":5.37168,"is_reserved":false,"is_disabled":false,"rental_uris":{"android":"levelo://app?vid=ee365644-4368-4326-81fd-37278c03cf53","ios":"levelo://app?vid=ee365644-4368-4326-81fd-37278c03cf53"},"vehicle_type_id":"4","last_reported":1753280034,"current_range_meters":5600,"station_id":"ce4bgh92rcd13ifvqb40","pricing_plan_id":"cebpf4jnsgd1na2vs0mg"},{"bike_id":"eb923096-a950-4740-81af-459540a56979","system_id":"levelo_inurba_marseille","lat":43.295136,"lon":5.390021,"is_reserved":false,"is_disabled":false,"rental_uris":{"android":"levelo://app?vid=eb923096-a950-4740-81af-459540a56979","ios":"levelo://app?vid=eb923096-a950-4740-81af-459540a56979"},"vehicle_type_id":"4","last_reported":1753280034,"current_range_meters":5600,"station_id":"","pricing_plan_id":"cebpf4jnsgd1na2vs0mg"},{"bike_id":"ac7cb056-24ff-4b91-bd9d-20b8f3ad9d91","system_id":"levelo_inurba_marseille","lat":43.24386,"lon":5.37059,"is_reserved":false,"is_disabled":false,"rental_uris":{"android":"levelo://app?vid=ac7cb056-24ff-4b91-bd9d-20b8f3ad9d91","ios":"levelo://app?vid=ac7cb056-24ff-4b91-bd9d-20b8f3ad9d91"},"vehicle_type_id":"4","last_reported":1753280034,"current_range_meters":5600,"station_id":"ce4bhhh2rcd13ifvqfk0","pricing_plan_id":"cebpf4jnsgd1na2vs0mg"},{"bike_id":"3efd6bb8-c5c8-4c7e-834d-8de2835b2d9f","system_id":"levelo_inurba_marseille","lat":43.24796,"lon":5.37459,"is_reserved":false,"is_disabled":false,"rental_uris":{"android":"levelo://app?vid=3efd6bb8-c5c8-4c7e-834d-8de2835b2d9f","ios":"levelo://app?vid=3efd6bb8-c5c8-4c7e-834d-8de2835b2d9f"},"vehicle_type_id":"4","last_reported":1753280034,"current_range_meters":6000,"station_id":"ce4bhgh2rcd13ifvqfb0","pricing_plan_id":"cebpf4jnsgd1na2vs0mg"},{"bike_id":"b46bd4d8-63f5-4590-83fb-59b010538c30","system_id":"levelo_inurba_marseille","lat":43.32052,"lon":5.41546,"is_reserved":false,"is_disabled":false,"rental_uris":{"android":"levelo://app?vid=b46bd4d8-63f5-4590-83fb-59b010538c30","ios":"levelo://app?vid=b46bd4d8-63f5-4590-83fb-59b010538c30"},"vehicle_type_id":"4","last_reported":1753280034,"current_range_meters":6000,"station_id":"ce4bhq92rcd13ifvqhkg","pricing_plan_id":"cebpf4jnsgd1na2vs0mg"},{"bike_id":"338d5c8c-c201-4687-b356-7cfe48872beb","system_id":"levelo_inurba_marseille","lat":43.28614,"lon":5.35097,"is_reserved":false,"is_disabled":false,"rental_uris":{"android":"levelo://app?vid=338d5c8c-c201-4687-b356-7cfe48872beb","ios":"levelo://app?vid=338d5c8c-c201-4687-b356-7cfe48872beb"},"vehicle_type_id":"4","last_reported":1753280034,"current_range_meters":6400,"station_id":"ce4bhch2rcd13ifvqeug","pricing_plan_id":"cebpf4jnsgd1na2vs0mg"},{"bike_id":"333b01c2-f828-4158-a424-f33b1c68cd9c","system_id":"levelo_inurba_marseille","lat":43.2996,"lon":5.41319,"is_reserved":false,"is_disabled":false,"rental_uris":{"android":"levelo://app?vid=333b01c2-f828-4158-a424-f33b1c68cd9c","ios":"levelo://app?vid=333b01c2-f828-4158-a424-f33b1c68cd9c"},"vehicle_type_id":"4","last_reported":1753280034,"current_range_meters":6400,"station_id":"ce4bhp12rcd13ifvqh9g","pricing_plan_id":"cebpf4jnsgd1na2vs0mg"},{"bike_id":"8e0de611-381e-4033-aa29-6d83b246ca34","system_id":"levelo_inurba_marseille","lat":43.29577,"lon":5.37495,"is_reserved":false,"is_disabled":true,"rental_uris":{"android":"levelo://app?vid=8e0de611-381e-4033-aa29-6d83b246ca34","ios":"levelo://app?vid=8e0de611-381e-4033-aa29-6d83b246ca34"},"vehicle_type_id":"4","last_reported":1753280034,"current_range_meters":6800,"station_id":"ce4bgh92rcd13ifvqb50","pricing_plan_id":"cebpf4jnsgd1na2vs0mg"},{"bike_id":"f3ad7f3f-05ef-4976-a8bd-7743271afd02","system_id":"levelo_inurba_marseille","lat":43.23138,"lon":5.4371,"is_reserved":false,"is_disabled":false,"rental_uris":{"android":"levelo://app?vid=f3ad7f3f-05ef-4976-a8bd-7743271afd02","ios":"levelo://app?vid=f3ad7f3f-05ef-4976-a8bd-7743271afd02"},"vehicle_type_id":"4","last_reported":1753280034,"current_range_meters":6800,"station_id":"ce4bhmp2rcd13ifvqgog","pricing_plan_id":"cebpf4jnsgd1na2vs0mg"},{"bike_id":"83766871-d64f-4fc8-9d3b-2ceaf03b1036","system_id":"levelo_inurba_marseille","lat":43.21201,"lon":5.35075,"is_reserved":false,"is_disabled":false,"rental_uris":{"android":"levelo://app?vid=83766871-d64f-4fc8-9d3b-2ceaf03b1036","ios":"levelo://app?vid=83766871-d64f-4fc8-9d3b-2ceaf03b1036"},"vehicle_type_id":"4","last_reported":1753280034,"current_range_meters":6800,"station_id":"st_cvj6sg6p6f1abm77japg","pricing_plan_id":"cebpf4jnsgd1na2vs0mg"},{"bike_id":"94f5f4d3-1ff8-4d2f-96b0-d6769a616d1a","system_id":"levelo_inurba_marseille","lat":43.299222,"lon":5.374714,"is_reserved":false,"is_disabled":false,"rental_uris":{"android":"levelo://app?vid=94f5f4d3-1ff8-4d2f-96b0-d6769a616d1a","ios":"levelo://app?vid=94f5f4d3-1ff8-4d2f-96b0-d6769a616d1a"},"vehicle_type_id":"4","last_reported":1753280034,"current_range_meters":6800,"station_id":"ce4bgjh2rcd13ifvqbg0","pricing_plan_id":"cebpf4jnsgd1na2vs0mg"},{"bike_id":"3a4392db-4bdd-4548-a81e-0a3edb3f7627","system_id":"levelo_inurba_marseille","lat":43.29798,"lon":5.40389,"is_reserved":false,"is_disabled":false,"rental_uris":{"android":"levelo://app?vid=3a4392db-4bdd-4548-a81e-0a3edb3f7627","ios":"levelo://app?vid=3a4392db-4bdd-4548-a81e-0a3edb3f7627"},"vehicle_type_id":"4","last_reported":1753280034,"current_range_meters":6800,"station_id":"ce4bh112rcd13ifvqd90","pricing_plan_id":"cebpf4jnsgd1na2vs0mg"},{"bike_id":"75714cee-af53-4c6e-98e9-89cf97f41478","system_id":"levelo_inurba_marseille","lat":43.304188,"lon":5.41285,"is_reserved":false,"is_disabled":false,"rental_uris":{"android":"levelo://app?vid=75714cee-af53-4c6e-98e9-89cf97f41478","ios":"levelo://app?vid=75714cee-af53-4c6e-98e9-89cf97f41478"},"vehicle_type_id":"4","last_reported":1753280034,"current_range_meters":6800,"station_id":"ce4bhop2rcd13ifvqh8g","pricing_plan_id":"cebpf4jnsgd1na2vs0mg"},{"bike_id":"7a10bb17-bba6-4099-a515-71b68b3217b5","system_id":"levelo_inurba_marseille","lat":43.23982,"lon":5.36617,"is_reserved":false,"is_disabled":false,"rental_uris":{"android":"levelo://app?vid=7a10bb17-bba6-4099-a515-71b68b3217b5","ios":"levelo://app?vid=7a10bb17-bba6-4099-a515-71b68b3217b5"},"vehicle_type_id":"4","last_reported":1753280034,"current_range_meters":6800,"station_id":"ce4bhi12rcd13ifvqfp0","pricing_plan_id":"cebpf4jnsgd1na2vs0mg"},{"bike_id":"438a59a3-4400-4f75-b20d-0ea2d9cf17e4","system_id":"levelo_inurba_marseille","lat":43.23194,"lon":5.39975,"is_reserved":false,"is_disabled":false,"rental_uris":{"android":"levelo://app?vid=438a59a3-4400-4f75-b20d-0ea2d9cf17e4","ios":"levelo://app?vid=438a59a3-4400-4f75-b20d-0ea2d9cf17e4"},"vehicle_type_id":"4","last_reported":1753280034,"current_range_meters":6800,"station_id":"ce4bhn12rcd13ifvqgqg","pricing_plan_id":"cebpf4jnsgd1na2vs0mg"},{"bike_id":"e95dd155-e70b-4c24-bed3-82421ea5a8d3","system_id":"levelo_inurba_marseille","lat":43.31106,"lon":5.37771,"is_reserved":false,"is_disabled":false,"rental_uris":{"android":"levelo://app?vid=e95dd155-e70b-4c24-bed3-82421ea5a8d3","ios":"levelo://app?vid=e95dd155-e70b-4c24-bed3-82421ea5a8d3"},"vehicle_type_id":"4","last_reported":1753280034,"current_range_meters":6800,"station_id":"ce4bgt92rcd13ifvqcg0","pricing_plan_id":"cebpf4jnsgd1na2vs0mg"},{"bike_id":"1b982a34-40f1-41c9-a0e2-7dcfe9f387a9","system_id":"levelo_inurba_marseille","lat":43.24069,"lon":5.37765,"is_reserved":false,"is_disabled":false,"rental_uris":{"android":"levelo://app?vid=1b982a34-40f1-41c9-a0e2-7dcfe9f387a9","ios":"levelo://app?vid=1b982a34-40f1-41c9-a0e2-7dcfe9f387a9"},"vehicle_type_id":"4","last_reported":1753280034,"current_range_meters":7200,"station_id":"ce4bhnp2rcd13ifvqgvg","pricing_plan_id":"cebpf4jnsgd1na2vs0mg"},{"bike_id":"6d91f64a-212f-4f20-ae9b-eb82e496ff6a","system_id":"levelo_inurba_marseille","lat":43.2894,"lon":5.36635,"is_reserved":false,"is_disabled":false,"rental_uris":{"android":"levelo://app?vid=6d91f64a-212f-4f20-ae9b-eb82e496ff6a","ios":"levelo://app?vid=6d91f64a-212f-4f20-ae9b-eb82e496ff6a"},"vehicle_type_id":"4","last_reported":1753280034,"current_range_meters":7200,"station_id":"ce4bhap2rcd13ifvqek0","pricing_plan_id":"cebpf4jnsgd1na2vs0mg"},{"bike_id":"2e5d8ca1-fc65-439d-80bf-bd179416b9cf","system_id":"levelo_inurba_marseille","lat":43.23068,"lon":5.35486,"is_reserved":false,"is_disabled":false,"rental_uris":{"android":"levelo://app?vid=2e5d8ca1-fc65-439d-80bf-bd179416b9cf","ios":"levelo://app?vid=2e5d8ca1-fc65-439d-80bf-bd179416b9cf"},"vehicle_type_id":"4","last_reported":1753280034,"current_range_meters":7200,"station_id":"cpo3342slgdg3j2ifvpg","pricing_plan_id":"cebpf4jnsgd1na2vs0mg"},{"bike_id":"569f2387-8b66-418a-a691-3b16b4ff4f96","system_id":"levelo_inurba_marseille","lat":43.324859,"lon":5.365702,"is_reserved":false,"is_disabled":false,"rental_uris":{"android":"levelo://app?vid=569f2387-8b66-418a-a691-3b16b4ff4f96","ios":"levelo://app?vid=569f2387-8b66-418a-a691-3b16b4ff4f96"},"vehicle_type_id":"4","last_reported":1753280034,"current_range_meters":8000,"station_id":"ce4bhs12rcd13ifvqhvg","pricing_plan_id":"cebpf4jnsgd1na2vs0mg"},{"bike_id":"4e785803-e884-4b2c-a5bd-5f44b1c215e0","system_id":"levelo_inurba_marseille","lat":43.29582,"lon":5.36745,"is_reserved":false,"is_disabled":false,"rental_uris":{"android":"levelo://app?vid=4e785803-e884-4b2c-a5bd-5f44b1c215e0","ios":"levelo://app?vid=4e785803-e884-4b2c-a5bd-5f44b1c215e0"},"vehicle_type_id":"4","last_reported":1753280034,"current_range_meters":8000,"station_id":"ce4bgph2rcd13ifvqc2g","pricing_plan_id":"cebpf4jnsgd1na2vs0mg"},{"bike_id":"bd7a1645-738f-48c8-ab53-488da510e2e2","system_id":"levelo_inurba_marseille","lat":43.28472,"lon":5.38447,"is_reserved":false,"is_disabled":false,"rental_uris":{"android":"levelo://app?vid=bd7a1645-738f-48c8-ab53-488da510e2e2","ios":"levelo://app?vid=bd7a1645-738f-48c8-ab53-488da510e2e2"},"vehicle_type_id":"4","last_reported":1753280034,"current_range_meters":8000,"station_id":"ce4bh512rcd13ifvqe3g","pricing_plan_id":"cebpf4jnsgd1na2vs0mg"},{"bike_id":"125964e7-5e31-4fdf-972d-691d9c75737f","system_id":"levelo_inurba_marseille","lat":43.29555,"lon":5.42287,"is_reserved":false,"is_disabled":false,"rental_uris":{"android":"levelo://app?vid=125964e7-5e31-4fdf-972d-691d9c75737f","ios":"levelo://app?vid=125964e7-5e31-4fdf-972d-691d9c75737f"},"vehicle_type_id":"4","last_reported":1753280034,"current_range_meters":8000,"station_id":"ce4bhph2rcd13ifvqhdg","pricing_plan_id":"cebpf4jnsgd1na2vs0mg"},{"bike_id":"11a24125-6988-4638-bf07-e2ae5192cdbc","system_id":"levelo_inurba_marseille","lat":43.2861,"lon":5.35109,"is_reserved":false,"is_disabled":false,"rental_uris":{"android":"levelo://app?vid=11a24125-6988-4638-bf07-e2ae5192cdbc","ios":"levelo://app?vid=11a24125-6988-4638-bf07-e2ae5192cdbc"},"vehicle_type_id":"4","last_reported":1753280034,"current_range_meters":8000,"station_id":"ce4bhch2rcd13ifvqeug","pricing_plan_id":"cebpf4jnsgd1na2vs0mg"},{"bike_id":"736a259d-42e5-458a-b188-81d9dc5fa867","system_id":"levelo_inurba_marseille","lat":43.31381,"lon":5.36743,"is_reserved":false,"is_disabled":false,"rental_uris":{"android":"levelo://app?vid=736a259d-42e5-458a-b188-81d9dc5fa867","ios":"levelo://app?vid=736a259d-42e5-458a-b188-81d9dc5fa867"},"vehicle_type_id":"4","last_reported":1753280034,"current_range_meters":8400,"station_id":"ce4bgr92rcd13ifvqc6g","pricing_plan_id":"cebpf4jnsgd1na2vs0mg"},{"bike_id":"9ae7d50c-a3ea-4136-8080-315c191e000a","system_id":"levelo_inurba_marseille","lat":43.287618,"lon":5.384084,"is_reserved":false,"is_disabled":false,"rental_uris":{"android":"levelo://app?vid=9ae7d50c-a3ea-4136-8080-315c191e000a","ios":"levelo://app?vid=9ae7d50c-a3ea-4136-8080-315c191e000a"},"vehicle_type_id":"4","last_reported":1753280034,"current_range_meters":8400,"station_id":"","pricing_plan_id":"cebpf4jnsgd1na2vs0mg"},{"bike_id":"5eed9fa5-5444-4e01-9ca6-2f35add3d73a","system_id":"levelo_inurba_marseille","lat":43.30811,"lon":5.38164,"is_reserved":false,"is_disabled":true,"rental_uris":{"android":"levelo://app?vid=5eed9fa5-5444-4e01-9ca6-2f35add3d73a","ios":"levelo://app?vid=5eed9fa5-5444-4e01-9ca6-2f35add3d73a"},"vehicle_type_id":"4","last_reported":1753280034,"current_range_meters":8400,"station_id":"ce4bgt12rcd13ifvqce0","pricing_plan_id":"cebpf4jnsgd1na2vs0mg"},{"bike_id":"81f48beb-cba8-4a10-929a-d7834448108c","system_id":"levelo_inurba_marseille","lat":43.33266,"lon":5.39904,"is_reserved":false,"is_disabled":false,"rental_uris":{"android":"levelo://app?vid=81f48beb-cba8-4a10-929a-d7834448108c","ios":"levelo://app?vid=81f48beb-cba8-4a10-929a-d7834448108c"},"vehicle_type_id":"4","last_reported":1753280034,"current_range_meters":8400,"station_id":"","pricing_plan_id":"cebpf4jnsgd1na2vs0mg"},{"bike_id":"03198db7-43d8-4a04-8f57-5465a858576c","system_id":"levelo_inurba_marseille","lat":43.2407,"lon":5.37767,"is_reserved":false,"is_disabled":false,"rental_uris":{"android":"levelo://app?vid=03198db7-43d8-4a04-8f57-5465a858576c","ios":"levelo://app?vid=03198db7-43d8-4a04-8f57-5465a858576c"},"vehicle_type_id":"4","last_reported":1753280034,"current_range_meters":8400,"station_id":"ce4bhnp2rcd13ifvqgvg","pricing_plan_id":"cebpf4jnsgd1na2vs0mg"},{"bike_id":"e4761578-ae86-4dfa-b146-0428e5d8cca7","system_id":"levelo_inurba_marseille","lat":43.241663,"lon":5.364059,"is_reserved":false,"is_disabled":false,"rental_uris":{"android":"levelo://app?vid=e4761578-ae86-4dfa-b146-0428e5d8cca7","ios":"levelo://app?vid=e4761578-ae86-4dfa-b146-0428e5d8cca7"},"vehicle_type_id":"4","last_reported":1753280034,"current_range_meters":8800,"station_id":"cpo36qri1sfpv3e86is0","pricing_plan_id":"cebpf4jnsgd1na2vs0mg"},{"bike_id":"f79cfa82-e901-43bd-9505-cfc8e6b0a6e4","system_id":"levelo_inurba_marseille","lat":43.30184,"lon":5.36631,"is_reserved":false,"is_disabled":false,"rental_uris":{"android":"levelo://app?vid=f79cfa82-e901-43bd-9505-cfc8e6b0a6e4","ios":"levelo://app?vid=f79cfa82-e901-43bd-9505-cfc8e6b0a6e4"},"vehicle_type_id":"4","last_reported":1753280034,"current_range_meters":8800,"station_id":"ce4bgrh2rcd13ifvqc8g","pricing_plan_id":"cebpf4jnsgd1na2vs0mg"},{"bike_id":"5c6e4dff-3217-4615-a8d4-ec8d909bf37d","system_id":"levelo_inurba_marseille","lat":43.303104,"lon":5.368934,"is_reserved":false,"is_disabled":false,"rental_uris":{"android":"levelo://app?vid=5c6e4dff-3217-4615-a8d4-ec8d909bf37d","ios":"levelo://app?vid=5c6e4dff-3217-4615-a8d4-ec8d909bf37d"},"vehicle_type_id":"4","last_reported":1753280034,"current_range_meters":8800,"station_id":"ce4bgqh2rcd13ifvqc5g","pricing_plan_id":"cebpf4jnsgd1na2vs0mg"},{"bike_id":"f09179f1-7b3c-48ae-b397-692a1f6eeb87","system_id":"levelo_inurba_marseille","lat":43.27948,"lon":5.4104,"is_reserved":false,"is_disabled":false,"rental_uris":{"android":"levelo://app?vid=f09179f1-7b3c-48ae-b397-692a1f6eeb87","ios":"levelo://app?vid=f09179f1-7b3c-48ae-b397-692a1f6eeb87"},"vehicle_type_id":"4","last_reported":1753280034,"current_range_meters":8800,"station_id":"ce4bhnp2rcd13ifvqh0g","pricing_plan_id":"cebpf4jnsgd1na2vs0mg"},{"bike_id":"e1a0fd87-39a3-42c5-a64d-3dd7b3a1941d","system_id":"levelo_inurba_marseille","lat":43.29715,"lon":5.37695,"is_reserved":false,"is_disabled":false,"rental_uris":{"android":"levelo://app?vid=e1a0fd87-39a3-42c5-a64d-3dd7b3a1941d","ios":"levelo://app?vid=e1a0fd87-39a3-42c5-a64d-3dd7b3a1941d"},"vehicle_type_id":"4","last_reported":1753280034,"current_range_meters":8800,"station_id":"ce4bgkh2rcd13ifvqbl0","pricing_plan_id":"cebpf4jnsgd1na2vs0mg"},{"bike_id":"7d752312-fa50-4b56-b3bd-f5bcb3de6d0d","system_id":"levelo_inurba_marseille","lat":43.28948,"lon":5.38388,"is_reserved":false,"is_disabled":false,"rental_uris":{"android":"levelo://app?vid=7d752312-fa50-4b56-b3bd-f5bcb3de6d0d","ios":"levelo://app?vid=7d752312-fa50-4b56-b3bd-f5bcb3de6d0d"},"vehicle_type_id":"4","last_reported":1753280034,"current_range_meters":9200,"station_id":"ce4bh612rcd13ifvqe6g","pricing_plan_id":"cebpf4jnsgd1na2vs0mg"},{"bike_id":"ac737c5b-3311-4655-bbd8-c5fb29aea54c","system_id":"levelo_inurba_marseille","lat":43.30131,"lon":5.38782,"is_reserved":false,"is_disabled":false,"rental_uris":{"android":"levelo://app?vid=ac737c5b-3311-4655-bbd8-c5fb29aea54c","ios":"levelo://app?vid=ac737c5b-3311-4655-bbd8-c5fb29aea54c"},"vehicle_type_id":"4","last_reported":1753280034,"current_range_meters":9200,"station_id":"ce4bghh2rcd13ifvqb60","pricing_plan_id":"cebpf4jnsgd1na2vs0mg"},{"bike_id":"f6f2ab6b-a592-4e7b-ab66-9e9da4ba43ec","system_id":"levelo_inurba_marseille","lat":43.2861,"lon":5.35114,"is_reserved":false,"is_disabled":false,"rental_uris":{"android":"levelo://app?vid=f6f2ab6b-a592-4e7b-ab66-9e9da4ba43ec","ios":"levelo://app?vid=f6f2ab6b-a592-4e7b-ab66-9e9da4ba43ec"},"vehicle_type_id":"4","last_reported":1753280034,"current_range_meters":9200,"station_id":"ce4bhch2rcd13ifvqeug","pricing_plan_id":"cebpf4jnsgd1na2vs0mg"},{"bike_id":"8a8c67ff-0285-441e-afaf-3eac3565f663","system_id":"levelo_inurba_marseille","lat":43.32378,"lon":5.36786,"is_reserved":false,"is_disabled":false,"rental_uris":{"android":"levelo://app?vid=8a8c67ff-0285-441e-afaf-3eac3565f663","ios":"levelo://app?vid=8a8c67ff-0285-441e-afaf-3eac3565f663"},"vehicle_type_id":"4","last_reported":1753280034,"current_range_meters":9200,"station_id":"ce4bhsh2rcd13ifvqi2g","pricing_plan_id":"cebpf4jnsgd1na2vs0mg"},{"bike_id":"7320b3ef-add8-4ba6-aa1a-400bf4719f2a","system_id":"levelo_inurba_marseille","lat":43.29448,"lon":5.39744,"is_reserved":false,"is_disabled":false,"rental_uris":{"android":"levelo://app?vid=7320b3ef-add8-4ba6-aa1a-400bf4719f2a","ios":"levelo://app?vid=7320b3ef-add8-4ba6-aa1a-400bf4719f2a"},"vehicle_type_id":"4","last_reported":1753280034,"current_range_meters":9200,"station_id":"ce4bh3h2rcd13ifvqdo0","pricing_plan_id":"cebpf4jnsgd1na2vs0mg"},{"bike_id":"b83bc0c6-f051-4634-b4ca-eaf2f7b36a44","system_id":"levelo_inurba_marseille","lat":43.28152,"lon":5.42641,"is_reserved":false,"is_disabled":false,"rental_uris":{"android":"levelo://app?vid=b83bc0c6-f051-4634-b4ca-eaf2f7b36a44","ios":"levelo://app?vid=b83bc0c6-f051-4634-b4ca-eaf2f7b36a44"},"vehicle_type_id":"4","last_reported":1753280034,"current_range_meters":9200,"station_id":"ce4bhnh2rcd13ifvqgug","pricing_plan_id":"cebpf4jnsgd1na2vs0mg"},{"bike_id":"a5f1f0d6-c678-45f4-9b29-96eaa29a3e36","system_id":"levelo_inurba_marseille","lat":43.25163,"lon":5.37328,"is_reserved":false,"is_disabled":true,"rental_uris":{"android":"levelo://app?vid=a5f1f0d6-c678-45f4-9b29-96eaa29a3e36","ios":"levelo://app?vid=a5f1f0d6-c678-45f4-9b29-96eaa29a3e36"},"vehicle_type_id":"4","last_reported":1753280034,"current_range_meters":9200,"station_id":"","pricing_plan_id":"cebpf4jnsgd1na2vs0mg"},{"bike_id":"3cef1158-540c-4055-a46b-73e02d1c17f7","system_id":"levelo_inurba_marseille","lat":43.313669,"lon":5.374501,"is_reserved":false,"is_disabled":false,"rental_uris":{"android":"levelo://app?vid=3cef1158-540c-4055-a46b-73e02d1c17f7","ios":"levelo://app?vid=3cef1158-540c-4055-a46b-73e02d1c17f7"},"vehicle_type_id":"4","last_reported":1753280034,"current_range_meters":9600,"station_id":"","pricing_plan_id":"cebpf4jnsgd1na2vs0mg"},{"bike_id":"0b453701-9a51-4baf-9e82-4c3047dd0eb8","system_id":"levelo_inurba_marseille","lat":43.29259,"lon":5.40901,"is_reserved":false,"is_disabled":false,"rental_uris":{"android":"levelo://app?vid=0b453701-9a51-4baf-9e82-4c3047dd0eb8","ios":"levelo://app?vid=0b453701-9a51-4baf-9e82-4c3047dd0eb8"},"vehicle_type_id":"4","last_reported":1753280034,"current_range_meters":9600,"station_id":"ce4bh192rcd13ifvqdc0","pricing_plan_id":"cebpf4jnsgd1na2vs0mg"},{"bike_id":"b8289e00-2058-4aad-8eea-ee4700ee911e","system_id":"levelo_inurba_marseille","lat":43.2468,"lon":5.38166,"is_reserved":false,"is_disabled":false,"rental_uris":{"android":"levelo://app?vid=b8289e00-2058-4aad-8eea-ee4700ee911e","ios":"levelo://app?vid=b8289e00-2058-4aad-8eea-ee4700ee911e"},"vehicle_type_id":"4","last_reported":1753280034,"current_range_meters":10000,"station_id":"ce4bhih2rcd13ifvqfr0","pricing_plan_id":"cebpf4jnsgd1na2vs0mg"},{"bike_id":"c9dbd36b-479c-4a5c-b200-3aa7673340d9","system_id":"levelo_inurba_marseille","lat":43.241448,"lon":5.363743,"is_reserved":false,"is_disabled":true,"rental_uris":{"android":"levelo://app?vid=c9dbd36b-479c-4a5c-b200-3aa7673340d9","ios":"levelo://app?vid=c9dbd36b-479c-4a5c-b200-3aa7673340d9"},"vehicle_type_id":"4","last_reported":1753280034,"current_range_meters":10000,"station_id":"","pricing_plan_id":"cebpf4jnsgd1na2vs0mg"},{"bike_id":"53e03623-d18e-4ff5-b6f3-94771ee2fa51","system_id":"levelo_inurba_marseille","lat":43.2466,"lon":5.38158,"is_reserved":false,"is_disabled":false,"rental_uris":{"android":"levelo://app?vid=53e03623-d18e-4ff5-b6f3-94771ee2fa51","ios":"levelo://app?vid=53e03623-d18e-4ff5-b6f3-94771ee2fa51"},"vehicle_type_id":"4","last_reported":1753280034,"current_range_meters":10000,"station_id":"ce4bhih2rcd13ifvqfr0","pricing_plan_id":"cebpf4jnsgd1na2vs0mg"},{"bike_id":"3c21b9e1-b296-4844-a6d5-b8d19c7f36c9","system_id":"levelo_inurba_marseille","lat":43.29138,"lon":5.38419,"is_reserved":false,"is_disabled":false,"rental_uris":{"android":"levelo://app?vid=3c21b9e1-b296-4844-a6d5-b8d19c7f36c9","ios":"levelo://app?vid=3c21b9e1-b296-4844-a6d5-b8d19c7f36c9"},"vehicle_type_id":"4","last_reported":1753280034,"current_range_meters":10000,"station_id":"","pricing_plan_id":"cebpf4jnsgd1na2vs0mg"},{"bike_id":"fe50cf1d-fc61-4e48-98f2-ea42037cc2b3","system_id":"levelo_inurba_marseille","lat":43.22929,"lon":5.35366,"is_reserved":false,"is_disabled":false,"rental_uris":{"android":"levelo://app?vid=fe50cf1d-fc61-4e48-98f2-ea42037cc2b3","ios":"levelo://app?vid=fe50cf1d-fc61-4e48-98f2-ea42037cc2b3"},"vehicle_type_id":"4","last_reported":1753280034,"current_range_meters":10000,"station_id":"cpo3532slgdg3j2ikp40","pricing_plan_id":"cebpf4jnsgd1na2vs0mg"},{"bike_id":"aa5097b6-6968-4aec-b711-e7780938924b","system_id":"levelo_inurba_marseille","lat":43.32955,"lon":5.35896,"is_reserved":false,"is_disabled":false,"rental_uris":{"android":"levelo://app?vid=aa5097b6-6968-4aec-b711-e7780938924b","ios":"levelo://app?vid=aa5097b6-6968-4aec-b711-e7780938924b"},"vehicle_type_id":"4","last_reported":1753280034,"current_range_meters":10000,"station_id":"","pricing_plan_id":"cebpf4jnsgd1na2vs0mg"},{"bike_id":"5c8f418f-8fff-47bf-9b6d-58b8a3e50264","system_id":"levelo_inurba_marseille","lat":43.29567,"lon":5.37525,"is_reserved":false,"is_disabled":false,"rental_uris":{"android":"levelo://app?vid=5c8f418f-8fff-47bf-9b6d-58b8a3e50264","ios":"levelo://app?vid=5c8f418f-8fff-47bf-9b6d-58b8a3e50264"},"vehicle_type_id":"4","last_reported":1753280034,"current_range_meters":10800,"station_id":"ce4bgh92rcd13ifvqb50","pricing_plan_id":"cebpf4jnsgd1na2vs0mg"},{"bike_id":"eb10a168-f272-4ccc-83f2-aa9341f541ad","system_id":"levelo_inurba_marseille","lat":43.303257,"lon":5.404357,"is_reserved":false,"is_disabled":false,"rental_uris":{"android":"levelo://app?vid=eb10a168-f272-4ccc-83f2-aa9341f541ad","ios":"levelo://app?vid=eb10a168-f272-4ccc-83f2-aa9341f541ad"},"vehicle_type_id":"4","last_reported":1753280034,"current_range_meters":10800,"station_id":"ce4bh012rcd13ifvqd10","pricing_plan_id":"cebpf4jnsgd1na2vs0mg"},{"bike_id":"baca8154-7e82-4bd8-a0cb-6a4d79f767f0","system_id":"levelo_inurba_marseille","lat":43.29058,"lon":5.3717,"is_reserved":false,"is_disabled":false,"rental_uris":{"android":"levelo://app?vid=baca8154-7e82-4bd8-a0cb-6a4d79f767f0","ios":"levelo://app?vid=baca8154-7e82-4bd8-a0cb-6a4d79f767f0"},"vehicle_type_id":"4","last_reported":1753280034,"current_range_meters":10800,"station_id":"ce4bgh92rcd13ifvqb40","pricing_plan_id":"cebpf4jnsgd1na2vs0mg"},{"bike_id":"e44893bb-5cdf-4921-b4e8-39ee578180a1","system_id":"levelo_inurba_marseille","lat":43.24024,"lon":5.37843,"is_reserved":false,"is_disabled":false,"rental_uris":{"android":"levelo://app?vid=e44893bb-5cdf-4921-b4e8-39ee578180a1","ios":"levelo://app?vid=e44893bb-5cdf-4921-b4e8-39ee578180a1"},"vehicle_type_id":"4","last_reported":1753280034,"current_range_meters":10800,"station_id":"","pricing_plan_id":"cebpf4jnsgd1na2vs0mg"},{"bike_id":"5467c0fd-0630-4da1-a12e-b4016c5ad233","system_id":"levelo_inurba_marseille","lat":43.29232,"lon":5.36852,"is_reserved":false,"is_disabled":false,"rental_uris":{"android":"levelo://app?vid=5467c0fd-0630-4da1-a12e-b4016c5ad233","ios":"levelo://app?vid=5467c0fd-0630-4da1-a12e-b4016c5ad233"},"vehicle_type_id":"4","last_reported":1753280034,"current_range_meters":10800,"station_id":"ce4bhbp2rcd13ifvqesg","pricing_plan_id":"cebpf4jnsgd1na2vs0mg"},{"bike_id":"410072cd-5ec3-4484-b8cd-6b5b0e1b1101","system_id":"levelo_inurba_marseille","lat":43.31075,"lon":5.38359,"is_reserved":false,"is_disabled":false,"rental_uris":{"android":"levelo://app?vid=410072cd-5ec3-4484-b8cd-6b5b0e1b1101","ios":"levelo://app?vid=410072cd-5ec3-4484-b8cd-6b5b0e1b1101"},"vehicle_type_id":"4","last_reported":1753280034,"current_range_meters":11200,"station_id":"ce4bgv92rcd13ifvqcr0","pricing_plan_id":"cebpf4jnsgd1na2vs0mg"},{"bike_id":"e416678d-aff5-42c8-bf6a-ac904d32d29d","system_id":"levelo_inurba_marseille","lat":43.29844,"lon":5.36271,"is_reserved":false,"is_disabled":false,"rental_uris":{"android":"levelo://app?vid=e416678d-aff5-42c8-bf6a-ac904d32d29d","ios":"levelo://app?vid=e416678d-aff5-42c8-bf6a-ac904d32d29d"},"vehicle_type_id":"4","last_reported":1753280034,"current_range_meters":11200,"station_id":"ce4bgpp2rcd13ifvqc3g","pricing_plan_id":"cebpf4jnsgd1na2vs0mg"},{"bike_id":"4af52a5e-2e17-45a4-af2d-b0a1abc38a86","system_id":"levelo_inurba_marseille","lat":43.23063,"lon":5.35492,"is_reserved":false,"is_disabled":false,"rental_uris":{"android":"levelo://app?vid=4af52a5e-2e17-45a4-af2d-b0a1abc38a86","ios":"levelo://app?vid=4af52a5e-2e17-45a4-af2d-b0a1abc38a86"},"vehicle_type_id":"4","last_reported":1753280034,"current_range_meters":11200,"station_id":"cpo3342slgdg3j2ifvpg","pricing_plan_id":"cebpf4jnsgd1na2vs0mg"},{"bike_id":"dcbf1bd8-8e8d-4c04-bfe5-8a2d7759c28b","system_id":"levelo_inurba_marseille","lat":43.29572,"lon":5.37518,"is_reserved":false,"is_disabled":false,"rental_uris":{"android":"levelo://app?vid=dcbf1bd8-8e8d-4c04-bfe5-8a2d7759c28b","ios":"levelo://app?vid=dcbf1bd8-8e8d-4c04-bfe5-8a2d7759c28b"},"vehicle_type_id":"4","last_reported":1753280034,"current_range_meters":11600,"station_id":"ce4bgh92rcd13ifvqb50","pricing_plan_id":"cebpf4jnsgd1na2vs0mg"},{"bike_id":"15376298-8032-4c2a-8bd1-9ec123dc0017","system_id":"levelo_inurba_marseille","lat":43.31494,"lon":5.37302,"is_reserved":false,"is_disabled":false,"rental_uris":{"android":"levelo://app?vid=15376298-8032-4c2a-8bd1-9ec123dc0017","ios":"levelo://app?vid=15376298-8032-4c2a-8bd1-9ec123dc0017"},"vehicle_type_id":"4","last_reported":1753280034,"current_range_meters":11600,"station_id":"ce4bgt12rcd13ifvqcd0","pricing_plan_id":"cebpf4jnsgd1na2vs0mg"},{"bike_id":"74c1770d-80e8-41eb-8c87-83bd0402b361","system_id":"levelo_inurba_marseille","lat":43.24175,"lon":5.36396,"is_reserved":false,"is_disabled":false,"rental_uris":{"android":"levelo://app?vid=74c1770d-80e8-41eb-8c87-83bd0402b361","ios":"levelo://app?vid=74c1770d-80e8-41eb-8c87-83bd0402b361"},"vehicle_type_id":"4","last_reported":1753280034,"current_range_meters":11600,"station_id":"cpo36qri1sfpv3e86is0","pricing_plan_id":"cebpf4jnsgd1na2vs0mg"},{"bike_id":"6e4e6d30-43f3-4052-86d6-96e1b2d6d052","system_id":"levelo_inurba_marseille","lat":43.23065,"lon":5.35492,"is_reserved":false,"is_disabled":false,"rental_uris":{"android":"levelo://app?vid=6e4e6d30-43f3-4052-86d6-96e1b2d6d052","ios":"levelo://app?vid=6e4e6d30-43f3-4052-86d6-96e1b2d6d052"},"vehicle_type_id":"4","last_reported":1753280034,"current_range_meters":11600,"station_id":"cpo3342slgdg3j2ifvpg","pricing_plan_id":"cebpf4jnsgd1na2vs0mg"},{"bike_id":"3b4dc901-337d-441f-a3a9-d89cc9e7723d","system_id":"levelo_inurba_marseille","lat":43.27071,"lon":5.4228,"is_reserved":false,"is_disabled":false,"rental_uris":{"android":"levelo://app?vid=3b4dc901-337d-441f-a3a9-d89cc9e7723d","ios":"levelo://app?vid=3b4dc901-337d-441f-a3a9-d89cc9e7723d"},"vehicle_type_id":"4","last_reported":1753280034,"current_range_meters":11600,"station_id":"ce4bhk92rcd13ifvqgb0","pricing_plan_id":"cebpf4jnsgd1na2vs0mg"},{"bike_id":"0ea7a10a-9a1f-48d6-ba0c-cd300cee1999","system_id":"levelo_inurba_marseille","lat":43.27077,"lon":5.42259,"is_reserved":false,"is_disabled":false,"rental_uris":{"android":"levelo://app?vid=0ea7a10a-9a1f-48d6-ba0c-cd300cee1999","ios":"levelo://app?vid=0ea7a10a-9a1f-48d6-ba0c-cd300cee1999"},"vehicle_type_id":"4","last_reported":1753280034,"current_range_meters":11600,"station_id":"ce4bhk92rcd13ifvqgb0","pricing_plan_id":"cebpf4jnsgd1na2vs0mg"},{"bike_id":"3290632a-984a-44ca-932b-f59292c19eda","system_id":"levelo_inurba_marseille","lat":43.273697,"lon":5.36258,"is_reserved":false,"is_disabled":false,"rental_uris":{"android":"levelo://app?vid=3290632a-984a-44ca-932b-f59292c19eda","ios":"levelo://app?vid=3290632a-984a-44ca-932b-f59292c19eda"},"vehicle_type_id":"4","last_reported":1753280034,"current_range_meters":12000,"station_id":"ce4bhbh2rcd13ifvqeo0","pricing_plan_id":"cebpf4jnsgd1na2vs0mg"},{"bike_id":"7f63f9a0-7ea4-40f1-844d-1425837a99f2","system_id":"levelo_inurba_marseille","lat":43.29642,"lon":5.38024,"is_reserved":false,"is_disabled":false,"rental_uris":{"android":"levelo://app?vid=7f63f9a0-7ea4-40f1-844d-1425837a99f2","ios":"levelo://app?vid=7f63f9a0-7ea4-40f1-844d-1425837a99f2"},"vehicle_type_id":"4","last_reported":1753280034,"current_range_meters":12000,"station_id":"","pricing_plan_id":"cebpf4jnsgd1na2vs0mg"},{"bike_id":"c3b4c842-89f1-49ff-abb9-fc4b30df4519","system_id":"levelo_inurba_marseille","lat":43.25576,"lon":5.38244,"is_reserved":false,"is_disabled":false,"rental_uris":{"android":"levelo://app?vid=c3b4c842-89f1-49ff-abb9-fc4b30df4519","ios":"levelo://app?vid=c3b4c842-89f1-49ff-abb9-fc4b30df4519"},"vehicle_type_id":"4","last_reported":1753280034,"current_range_meters":12000,"station_id":"ce4bhih2rcd13ifvqfs0","pricing_plan_id":"cebpf4jnsgd1na2vs0mg"},{"bike_id":"21d0ac47-6975-428d-b8b2-0b863372a7b4","system_id":"levelo_inurba_marseille","lat":43.28934,"lon":5.3663,"is_reserved":false,"is_disabled":false,"rental_uris":{"android":"levelo://app?vid=21d0ac47-6975-428d-b8b2-0b863372a7b4","ios":"levelo://app?vid=21d0ac47-6975-428d-b8b2-0b863372a7b4"},"vehicle_type_id":"4","last_reported":1753280034,"current_range_meters":12400,"station_id":"ce4bhap2rcd13ifvqek0","pricing_plan_id":"cebpf4jnsgd1na2vs0mg"},{"bike_id":"07e7ec69-2e3a-4f54-b2ae-191ac00bd485","system_id":"levelo_inurba_marseille","lat":43.298453,"lon":5.362614,"is_reserved":false,"is_disabled":false,"rental_uris":{"android":"levelo://app?vid=07e7ec69-2e3a-4f54-b2ae-191ac00bd485","ios":"levelo://app?vid=07e7ec69-2e3a-4f54-b2ae-191ac00bd485"},"vehicle_type_id":"4","last_reported":1753280034,"current_range_meters":12400,"station_id":"ce4bgpp2rcd13ifvqc3g","pricing_plan_id":"cebpf4jnsgd1na2vs0mg"},{"bike_id":"4363800f-1e1b-4fc1-a6c1-6a1af720d432","system_id":"levelo_inurba_marseille","lat":43.25499,"lon":5.37651,"is_reserved":false,"is_disabled":false,"rental_uris":{"android":"levelo://app?vid=4363800f-1e1b-4fc1-a6c1-6a1af720d432","ios":"levelo://app?vid=4363800f-1e1b-4fc1-a6c1-6a1af720d432"},"vehicle_type_id":"4","last_reported":1753280034,"current_range_meters":12400,"station_id":"ce4bhh12rcd13ifvqff0","pricing_plan_id":"cebpf4jnsgd1na2vs0mg"},{"bike_id":"ec15ad8a-0ea3-4f63-83be-f6aec521d9e5","system_id":"levelo_inurba_marseille","lat":43.27973,"lon":5.41011,"is_reserved":false,"is_disabled":false,"rental_uris":{"android":"levelo://app?vid=ec15ad8a-0ea3-4f63-83be-f6aec521d9e5","ios":"levelo://app?vid=ec15ad8a-0ea3-4f63-83be-f6aec521d9e5"},"vehicle_type_id":"4","last_reported":1753280034,"current_range_meters":12400,"station_id":"ce4bhnp2rcd13ifvqh0g","pricing_plan_id":"cebpf4jnsgd1na2vs0mg"},{"bike_id":"cc926983-7496-48df-9677-b8723ddc96b9","system_id":"levelo_inurba_marseille","lat":43.229164,"lon":5.353889,"is_reserved":false,"is_disabled":false,"rental_uris":{"android":"levelo://app?vid=cc926983-7496-48df-9677-b8723ddc96b9","ios":"levelo://app?vid=cc926983-7496-48df-9677-b8723ddc96b9"},"vehicle_type_id":"4","last_reported":1753280034,"current_range_meters":12800,"station_id":"cpo3532slgdg3j2ikp40","pricing_plan_id":"cebpf4jnsgd1na2vs0mg"},{"bike_id":"fbd6a8d8-cfc8-4324-8af3-90e01fde1bdf","system_id":"levelo_inurba_marseille","lat":43.27369,"lon":5.36252,"is_reserved":false,"is_disabled":false,"rental_uris":{"android":"levelo://app?vid=fbd6a8d8-cfc8-4324-8af3-90e01fde1bdf","ios":"levelo://app?vid=fbd6a8d8-cfc8-4324-8af3-90e01fde1bdf"},"vehicle_type_id":"4","last_reported":1753280034,"current_range_meters":12800,"station_id":"ce4bhbh2rcd13ifvqeo0","pricing_plan_id":"cebpf4jnsgd1na2vs0mg"},{"bike_id":"db4f7d16-4447-4752-b9fa-314b60a317e8","system_id":"levelo_inurba_marseille","lat":43.29905,"lon":5.37921,"is_reserved":false,"is_disabled":false,"rental_uris":{"android":"levelo://app?vid=db4f7d16-4447-4752-b9fa-314b60a317e8","ios":"levelo://app?vid=db4f7d16-4447-4752-b9fa-314b60a317e8"},"vehicle_type_id":"4","last_reported":1753280034,"current_range_meters":12800,"station_id":"","pricing_plan_id":"cebpf4jnsgd1na2vs0mg"},{"bike_id":"054d8332-4398-403c-9c2c-208d1e333728","system_id":"levelo_inurba_marseille","lat":43.25582,"lon":5.38235,"is_reserved":false,"is_disabled":false,"rental_uris":{"android":"levelo://app?vid=054d8332-4398-403c-9c2c-208d1e333728","ios":"levelo://app?vid=054d8332-4398-403c-9c2c-208d1e333728"},"vehicle_type_id":"4","last_reported":1753280034,"current_range_meters":12800,"station_id":"ce4bhih2rcd13ifvqfs0","pricing_plan_id":"cebpf4jnsgd1na2vs0mg"},{"bike_id":"4f07190e-caac-415f-b780-172edb0f66b7","system_id":"levelo_inurba_marseille","lat":43.312361,"lon":5.368753,"is_reserved":false,"is_disabled":false,"rental_uris":{"android":"levelo://app?vid=4f07190e-caac-415f-b780-172edb0f66b7","ios":"levelo://app?vid=4f07190e-caac-415f-b780-172edb0f66b7"},"vehicle_type_id":"4","last_reported":1753280034,"current_range_meters":12800,"station_id":"ce4bgl92rcd13ifvqbq0","pricing_plan_id":"cebpf4jnsgd1na2vs0mg"},{"bike_id":"587eadbb-c47e-43b0-b365-73a4bd201b2a","system_id":"levelo_inurba_marseille","lat":43.23069,"lon":5.3549,"is_reserved":false,"is_disabled":false,"rental_uris":{"android":"levelo://app?vid=587eadbb-c47e-43b0-b365-73a4bd201b2a","ios":"levelo://app?vid=587eadbb-c47e-43b0-b365-73a4bd201b2a"},"vehicle_type_id":"4","last_reported":1753280034,"current_range_meters":12800,"station_id":"cpo3342slgdg3j2ifvpg","pricing_plan_id":"cebpf4jnsgd1na2vs0mg"},{"bike_id":"d806b414-8a1f-452f-ad09-e763492cde92","system_id":"levelo_inurba_marseille","lat":43.2979,"lon":5.38098,"is_reserved":false,"is_disabled":false,"rental_uris":{"android":"levelo://app?vid=d806b414-8a1f-452f-ad09-e763492cde92","ios":"levelo://app?vid=d806b414-8a1f-452f-ad09-e763492cde92"},"vehicle_type_id":"4","last_reported":1753280034,"current_range_meters":14000,"station_id":"ce4bgip2rcd13ifvqbb0","pricing_plan_id":"cebpf4jnsgd1na2vs0mg"},{"bike_id":"bd4053fb-a507-47f8-b050-a61dab05872e","system_id":"levelo_inurba_marseille","lat":43.25601,"lon":5.38238,"is_reserved":false,"is_disabled":false,"rental_uris":{"android":"levelo://app?vid=bd4053fb-a507-47f8-b050-a61dab05872e","ios":"levelo://app?vid=bd4053fb-a507-47f8-b050-a61dab05872e"},"vehicle_type_id":"4","last_reported":1753280034,"current_range_meters":13600,"station_id":"ce4bhih2rcd13ifvqfs0","pricing_plan_id":"cebpf4jnsgd1na2vs0mg"},{"bike_id":"278e513d-3c6d-47cc-b4a9-ba688d44d7ae","system_id":"levelo_inurba_marseille","lat":43.29877,"lon":5.38904,"is_reserved":false,"is_disabled":false,"rental_uris":{"android":"levelo://app?vid=278e513d-3c6d-47cc-b4a9-ba688d44d7ae","ios":"levelo://app?vid=278e513d-3c6d-47cc-b4a9-ba688d44d7ae"},"vehicle_type_id":"4","last_reported":1753280034,"current_range_meters":13600,"station_id":"ce4bh392rcd13ifvqdl0","pricing_plan_id":"cebpf4jnsgd1na2vs0mg"},{"bike_id":"ea731c2a-e1c3-44a2-becb-45da31f72b6f","system_id":"levelo_inurba_marseille","lat":43.3138,"lon":5.36667,"is_reserved":false,"is_disabled":false,"rental_uris":{"android":"levelo://app?vid=ea731c2a-e1c3-44a2-becb-45da31f72b6f","ios":"levelo://app?vid=ea731c2a-e1c3-44a2-becb-45da31f72b6f"},"vehicle_type_id":"4","last_reported":1753280034,"current_range_meters":14000,"station_id":"","pricing_plan_id":"cebpf4jnsgd1na2vs0mg"},{"bike_id":"bbc2b271-396f-4875-9f1d-0fcc163d87b6","system_id":"levelo_inurba_marseille","lat":43.29043,"lon":5.39921,"is_reserved":false,"is_disabled":false,"rental_uris":{"android":"levelo://app?vid=bbc2b271-396f-4875-9f1d-0fcc163d87b6","ios":"levelo://app?vid=bbc2b271-396f-4875-9f1d-0fcc163d87b6"},"vehicle_type_id":"4","last_reported":1753280034,"current_range_meters":14000,"station_id":"ce4bh392rcd13ifvqdm0","pricing_plan_id":"cebpf4jnsgd1na2vs0mg"},{"bike_id":"a1a7f129-b31e-4c48-b08b-731f90d3c063","system_id":"levelo_inurba_marseille","lat":43.296814,"lon":5.372843,"is_reserved":false,"is_disabled":false,"rental_uris":{"android":"levelo://app?vid=a1a7f129-b31e-4c48-b08b-731f90d3c063","ios":"levelo://app?vid=a1a7f129-b31e-4c48-b08b-731f90d3c063"},"vehicle_type_id":"4","last_reported":1753280034,"current_range_meters":14000,"station_id":"ce4bgk12rcd13ifvqbj0","pricing_plan_id":"cebpf4jnsgd1na2vs0mg"},{"bike_id":"b147d87d-ad6b-4ee0-89e1-f2e85a2edd30","system_id":"levelo_inurba_marseille","lat":43.32131,"lon":5.36756,"is_reserved":false,"is_disabled":false,"rental_uris":{"android":"levelo://app?vid=b147d87d-ad6b-4ee0-89e1-f2e85a2edd30","ios":"levelo://app?vid=b147d87d-ad6b-4ee0-89e1-f2e85a2edd30"},"vehicle_type_id":"4","last_reported":1753280034,"current_range_meters":14400,"station_id":"ce4bhrh2rcd13ifvqhug","pricing_plan_id":"cebpf4jnsgd1na2vs0mg"},{"bike_id":"9caafdbd-3f97-4ae1-b1b7-dad552793624","system_id":"levelo_inurba_marseille","lat":43.29583,"lon":5.36752,"is_reserved":false,"is_disabled":false,"rental_uris":{"android":"levelo://app?vid=9caafdbd-3f97-4ae1-b1b7-dad552793624","ios":"levelo://app?vid=9caafdbd-3f97-4ae1-b1b7-dad552793624"},"vehicle_type_id":"4","last_reported":1753280034,"current_range_meters":14800,"station_id":"ce4bgph2rcd13ifvqc2g","pricing_plan_id":"cebpf4jnsgd1na2vs0mg"},{"bike_id":"541e3f7a-640b-4d8c-977d-949ca2a087ab","system_id":"levelo_inurba_marseille","lat":43.30796,"lon":5.379577,"is_reserved":false,"is_disabled":true,"rental_uris":{"android":"levelo://app?vid=541e3f7a-640b-4d8c-977d-949ca2a087ab","ios":"levelo://app?vid=541e3f7a-640b-4d8c-977d-949ca2a087ab"},"vehicle_type_id":"4","last_reported":1753280034,"current_range_meters":14800,"station_id":"ce4bgt12rcd13ifvqce0","pricing_plan_id":"cebpf4jnsgd1na2vs0mg"},{"bike_id":"3c8c8450-a767-4a89-b895-39c7e1d469a3","system_id":"levelo_inurba_marseille","lat":43.25492,"lon":5.37654,"is_reserved":false,"is_disabled":false,"rental_uris":{"android":"levelo://app?vid=3c8c8450-a767-4a89-b895-39c7e1d469a3","ios":"levelo://app?vid=3c8c8450-a767-4a89-b895-39c7e1d469a3"},"vehicle_type_id":"4","last_reported":1753280034,"current_range_meters":14800,"station_id":"ce4bhh12rcd13ifvqff0","pricing_plan_id":"cebpf4jnsgd1na2vs0mg"},{"bike_id":"a75aeaf9-0ffe-413d-ab70-f401185d32b1","system_id":"levelo_inurba_marseille","lat":43.29577,"lon":5.3674,"is_reserved":false,"is_disabled":false,"rental_uris":{"android":"levelo://app?vid=a75aeaf9-0ffe-413d-ab70-f401185d32b1","ios":"levelo://app?vid=a75aeaf9-0ffe-413d-ab70-f401185d32b1"},"vehicle_type_id":"4","last_reported":1753280034,"current_range_meters":14800,"station_id":"ce4bgph2rcd13ifvqc2g","pricing_plan_id":"cebpf4jnsgd1na2vs0mg"},{"bike_id":"830e678a-f1a4-4258-89a4-9be4db5634b0","system_id":"levelo_inurba_marseille","lat":43.28273,"lon":5.3509,"is_reserved":false,"is_disabled":false,"rental_uris":{"android":"levelo://app?vid=830e678a-f1a4-4258-89a4-9be4db5634b0","ios":"levelo://app?vid=830e678a-f1a4-4258-89a4-9be4db5634b0"},"vehicle_type_id":"4","last_reported":1753280034,"current_range_meters":14800,"station_id":"ce4bhbp2rcd13ifvqerg","pricing_plan_id":"cebpf4jnsgd1na2vs0mg"},{"bike_id":"6d6c8df7-00e5-48f4-9f91-d2d6d4cdb8e0","system_id":"levelo_inurba_marseille","lat":43.27382,"lon":5.36256,"is_reserved":false,"is_disabled":false,"rental_uris":{"android":"levelo://app?vid=6d6c8df7-00e5-48f4-9f91-d2d6d4cdb8e0","ios":"levelo://app?vid=6d6c8df7-00e5-48f4-9f91-d2d6d4cdb8e0"},"vehicle_type_id":"4","last_reported":1753280034,"current_range_meters":15200,"station_id":"ce4bhbh2rcd13ifvqeo0","pricing_plan_id":"cebpf4jnsgd1na2vs0mg"},{"bike_id":"4ab27091-1662-4811-87b9-a886b076324d","system_id":"levelo_inurba_marseille","lat":43.3247,"lon":5.36576,"is_reserved":false,"is_disabled":false,"rental_uris":{"android":"levelo://app?vid=4ab27091-1662-4811-87b9-a886b076324d","ios":"levelo://app?vid=4ab27091-1662-4811-87b9-a886b076324d"},"vehicle_type_id":"4","last_reported":1753280034,"current_range_meters":15200,"station_id":"ce4bhs12rcd13ifvqhvg","pricing_plan_id":"cebpf4jnsgd1na2vs0mg"},{"bike_id":"d9d607f1-dc74-4c2b-b08b-f46fc640b199","system_id":"levelo_inurba_marseille","lat":43.24152,"lon":5.36404,"is_reserved":false,"is_disabled":false,"rental_uris":{"android":"levelo://app?vid=d9d607f1-dc74-4c2b-b08b-f46fc640b199","ios":"levelo://app?vid=d9d607f1-dc74-4c2b-b08b-f46fc640b199"},"vehicle_type_id":"4","last_reported":1753280034,"current_range_meters":15200,"station_id":"cpo36qri1sfpv3e86is0","pricing_plan_id":"cebpf4jnsgd1na2vs0mg"},{"bike_id":"f26ebe3d-5edb-4a07-bae4-db0a72794a66","system_id":"levelo_inurba_marseille","lat":43.282697,"lon":5.350652,"is_reserved":false,"is_disabled":false,"rental_uris":{"android":"levelo://app?vid=f26ebe3d-5edb-4a07-bae4-db0a72794a66","ios":"levelo://app?vid=f26ebe3d-5edb-4a07-bae4-db0a72794a66"},"vehicle_type_id":"4","last_reported":1753280034,"current_range_meters":15200,"station_id":"ce4bhbp2rcd13ifvqerg","pricing_plan_id":"cebpf4jnsgd1na2vs0mg"},{"bike_id":"8ebe434f-5d79-4aab-96e5-a8436d434fd7","system_id":"levelo_inurba_marseille","lat":43.323425,"lon":5.406175,"is_reserved":false,"is_disabled":false,"rental_uris":{"android":"levelo://app?vid=8ebe434f-5d79-4aab-96e5-a8436d434fd7","ios":"levelo://app?vid=8ebe434f-5d79-4aab-96e5-a8436d434fd7"},"vehicle_type_id":"4","last_reported":1753280034,"current_range_meters":16000,"station_id":"ce4bhq92rcd13ifvqhjg","pricing_plan_id":"cebpf4jnsgd1na2vs0mg"},{"bike_id":"264dae89-a118-42be-a64f-2ede71d15c5b","system_id":"levelo_inurba_marseille","lat":43.30604,"lon":5.37224,"is_reserved":false,"is_disabled":false,"rental_uris":{"android":"levelo://app?vid=264dae89-a118-42be-a64f-2ede71d15c5b","ios":"levelo://app?vid=264dae89-a118-42be-a64f-2ede71d15c5b"},"vehicle_type_id":"4","last_reported":1753280034,"current_range_meters":15200,"station_id":"ce4bgqh2rcd13ifvqc4g","pricing_plan_id":"cebpf4jnsgd1na2vs0mg"},{"bike_id":"6ba8bf23-faf4-4e7f-a0da-6f0984da5df1","system_id":"levelo_inurba_marseille","lat":43.26237,"lon":5.37441,"is_reserved":false,"is_disabled":false,"rental_uris":{"android":"levelo://app?vid=6ba8bf23-faf4-4e7f-a0da-6f0984da5df1","ios":"levelo://app?vid=6ba8bf23-faf4-4e7f-a0da-6f0984da5df1"},"vehicle_type_id":"4","last_reported":1753280034,"current_range_meters":15200,"station_id":"ce4bhgp2rcd13ifvqfc0","pricing_plan_id":"cebpf4jnsgd1na2vs0mg"},{"bike_id":"e02c7e84-478b-4396-88dd-2640f9765250","system_id":"levelo_inurba_marseille","lat":43.28417,"lon":5.34984,"is_reserved":false,"is_disabled":false,"rental_uris":{"android":"levelo://app?vid=e02c7e84-478b-4396-88dd-2640f9765250","ios":"levelo://app?vid=e02c7e84-478b-4396-88dd-2640f9765250"},"vehicle_type_id":"4","last_reported":1753280034,"current_range_meters":16000,"station_id":"ce4bhbh2rcd13ifvqepg","pricing_plan_id":"cebpf4jnsgd1na2vs0mg"},{"bike_id":"1d774be5-8d21-4e05-8592-4b135ff73843","system_id":"levelo_inurba_marseille","lat":43.32335,"lon":5.40621,"is_reserved":false,"is_disabled":false,"rental_uris":{"android":"levelo://app?vid=1d774be5-8d21-4e05-8592-4b135ff73843","ios":"levelo://app?vid=1d774be5-8d21-4e05-8592-4b135ff73843"},"vehicle_type_id":"4","last_reported":1753280034,"current_range_meters":16000,"station_id":"ce4bhq92rcd13ifvqhjg","pricing_plan_id":"cebpf4jnsgd1na2vs0mg"},{"bike_id":"2704fd55-0669-4cd3-a002-e3ba2e827fa5","system_id":"levelo_inurba_marseille","lat":43.29871,"lon":5.36281,"is_reserved":false,"is_disabled":false,"rental_uris":{"android":"levelo://app?vid=2704fd55-0669-4cd3-a002-e3ba2e827fa5","ios":"levelo://app?vid=2704fd55-0669-4cd3-a002-e3ba2e827fa5"},"vehicle_type_id":"4","last_reported":1753280034,"current_range_meters":16000,"station_id":"ce4bgpp2rcd13ifvqc3g","pricing_plan_id":"cebpf4jnsgd1na2vs0mg"},{"bike_id":"edfccf5a-4167-40fc-b0f8-bc1198d1cb11","system_id":"levelo_inurba_marseille","lat":43.2307,"lon":5.35505,"is_reserved":false,"is_disabled":false,"rental_uris":{"android":"levelo://app?vid=edfccf5a-4167-40fc-b0f8-bc1198d1cb11","ios":"levelo://app?vid=edfccf5a-4167-40fc-b0f8-bc1198d1cb11"},"vehicle_type_id":"4","last_reported":1753280034,"current_range_meters":16000,"station_id":"cpo3342slgdg3j2ifvpg","pricing_plan_id":"cebpf4jnsgd1na2vs0mg"},{"bike_id":"5e0563f4-734a-490c-b39e-c9411c22efdb","system_id":"levelo_inurba_marseille","lat":43.28927,"lon":5.38406,"is_reserved":false,"is_disabled":false,"rental_uris":{"android":"levelo://app?vid=5e0563f4-734a-490c-b39e-c9411c22efdb","ios":"levelo://app?vid=5e0563f4-734a-490c-b39e-c9411c22efdb"},"vehicle_type_id":"4","last_reported":1753280034,"current_range_meters":16000,"station_id":"ce4bh612rcd13ifvqe6g","pricing_plan_id":"cebpf4jnsgd1na2vs0mg"},{"bike_id":"f9c9ff83-8548-4acb-a33b-495af4adeef4","system_id":"levelo_inurba_marseille","lat":43.323543,"lon":5.367474,"is_reserved":false,"is_disabled":false,"rental_uris":{"android":"levelo://app?vid=f9c9ff83-8548-4acb-a33b-495af4adeef4","ios":"levelo://app?vid=f9c9ff83-8548-4acb-a33b-495af4adeef4"},"vehicle_type_id":"4","last_reported":1753280034,"current_range_meters":16000,"station_id":"ce4bhsh2rcd13ifvqi2g","pricing_plan_id":"cebpf4jnsgd1na2vs0mg"},{"bike_id":"b5ce8d93-17c0-45a5-b2b1-eefce45c2d79","system_id":"levelo_inurba_marseille","lat":43.318131,"lon":5.435293,"is_reserved":false,"is_disabled":false,"rental_uris":{"android":"levelo://app?vid=b5ce8d93-17c0-45a5-b2b1-eefce45c2d79","ios":"levelo://app?vid=b5ce8d93-17c0-45a5-b2b1-eefce45c2d79"},"vehicle_type_id":"4","last_reported":1753280034,"current_range_meters":16000,"station_id":"","pricing_plan_id":"cebpf4jnsgd1na2vs0mg"},{"bike_id":"33f6aa60-2c09-45d1-a178-5815033ed9c8","system_id":"levelo_inurba_marseille","lat":43.27097,"lon":5.42251,"is_reserved":false,"is_disabled":false,"rental_uris":{"android":"levelo://app?vid=33f6aa60-2c09-45d1-a178-5815033ed9c8","ios":"levelo://app?vid=33f6aa60-2c09-45d1-a178-5815033ed9c8"},"vehicle_type_id":"4","last_reported":1753280034,"current_range_meters":16000,"station_id":"ce4bhk92rcd13ifvqgb0","pricing_plan_id":"cebpf4jnsgd1na2vs0mg"},{"bike_id":"a0de01aa-cd68-4a4d-8bab-65fa167b8610","system_id":"levelo_inurba_marseille","lat":43.23183,"lon":5.35561,"is_reserved":false,"is_disabled":false,"rental_uris":{"android":"levelo://app?vid=a0de01aa-cd68-4a4d-8bab-65fa167b8610","ios":"levelo://app?vid=a0de01aa-cd68-4a4d-8bab-65fa167b8610"},"vehicle_type_id":"4","last_reported":1753280034,"current_range_meters":16000,"station_id":"ce4bhu92rcd13ifvqi70","pricing_plan_id":"cebpf4jnsgd1na2vs0mg"},{"bike_id":"dc458318-423c-488a-85c3-e1ff1dd3d933","system_id":"levelo_inurba_marseille","lat":43.30316,"lon":5.40437,"is_reserved":false,"is_disabled":false,"rental_uris":{"android":"levelo://app?vid=dc458318-423c-488a-85c3-e1ff1dd3d933","ios":"levelo://app?vid=dc458318-423c-488a-85c3-e1ff1dd3d933"},"vehicle_type_id":"4","last_reported":1753280034,"current_range_meters":16000,"station_id":"ce4bh012rcd13ifvqd10","pricing_plan_id":"cebpf4jnsgd1na2vs0mg"},{"bike_id":"e8404a02-06ac-4381-bbb2-1247e5f5c9f1","system_id":"levelo_inurba_marseille","lat":43.25941,"lon":5.40884,"is_reserved":false,"is_disabled":false,"rental_uris":{"android":"levelo://app?vid=e8404a02-06ac-4381-bbb2-1247e5f5c9f1","ios":"levelo://app?vid=e8404a02-06ac-4381-bbb2-1247e5f5c9f1"},"vehicle_type_id":"4","last_reported":1753280034,"current_range_meters":16000,"station_id":"ce4bhm92rcd13ifvqglg","pricing_plan_id":"cebpf4jnsgd1na2vs0mg"},{"bike_id":"fedc9b46-f587-4e6b-b1ec-5adbe36a6c96","system_id":"levelo_inurba_marseille","lat":43.25952,"lon":5.40895,"is_reserved":false,"is_disabled":false,"rental_uris":{"android":"levelo://app?vid=fedc9b46-f587-4e6b-b1ec-5adbe36a6c96","ios":"levelo://app?vid=fedc9b46-f587-4e6b-b1ec-5adbe36a6c96"},"vehicle_type_id":"4","last_reported":1753280034,"current_range_meters":16000,"station_id":"ce4bhm92rcd13ifvqglg","pricing_plan_id":"cebpf4jnsgd1na2vs0mg"},{"bike_id":"872d6688-34e9-4e87-9a71-30f9e710a775","system_id":"levelo_inurba_marseille","lat":43.26558,"lon":5.37287,"is_reserved":false,"is_disabled":false,"rental_uris":{"android":"levelo://app?vid=872d6688-34e9-4e87-9a71-30f9e710a775","ios":"levelo://app?vid=872d6688-34e9-4e87-9a71-30f9e710a775"},"vehicle_type_id":"4","last_reported":1753280034,"current_range_meters":16000,"station_id":"ce4bhg12rcd13ifvqf70","pricing_plan_id":"cebpf4jnsgd1na2vs0mg"},{"bike_id":"9ce312f1-cb07-4159-91d6-c11a68a5ee71","system_id":"levelo_inurba_marseille","lat":43.21222,"lon":5.3506,"is_reserved":false,"is_disabled":false,"rental_uris":{"android":"levelo://app?vid=9ce312f1-cb07-4159-91d6-c11a68a5ee71","ios":"levelo://app?vid=9ce312f1-cb07-4159-91d6-c11a68a5ee71"},"vehicle_type_id":"4","last_reported":1753280034,"current_range_meters":16000,"station_id":"","pricing_plan_id":"cebpf4jnsgd1na2vs0mg"},{"bike_id":"f3217e35-0bb5-43ab-beb0-dd5e233a7114","system_id":"levelo_inurba_marseille","lat":43.25579,"lon":5.3822,"is_reserved":false,"is_disabled":false,"rental_uris":{"android":"levelo://app?vid=f3217e35-0bb5-43ab-beb0-dd5e233a7114","ios":"levelo://app?vid=f3217e35-0bb5-43ab-beb0-dd5e233a7114"},"vehicle_type_id":"4","last_reported":1753280034,"current_range_meters":16400,"station_id":"ce4bhih2rcd13ifvqfs0","pricing_plan_id":"cebpf4jnsgd1na2vs0mg"},{"bike_id":"c1a4afa7-d939-4e04-863d-f4cee6206550","system_id":"levelo_inurba_marseille","lat":43.30607,"lon":5.37225,"is_reserved":false,"is_disabled":false,"rental_uris":{"android":"levelo://app?vid=c1a4afa7-d939-4e04-863d-f4cee6206550","ios":"levelo://app?vid=c1a4afa7-d939-4e04-863d-f4cee6206550"},"vehicle_type_id":"4","last_reported":1753280034,"current_range_meters":16400,"station_id":"ce4bgqh2rcd13ifvqc4g","pricing_plan_id":"cebpf4jnsgd1na2vs0mg"},{"bike_id":"9e7bef7c-53f8-4848-95ce-ebad9a02dd2f","system_id":"levelo_inurba_marseille","lat":43.25862,"lon":5.39894,"is_reserved":false,"is_disabled":false,"rental_uris":{"android":"levelo://app?vid=9e7bef7c-53f8-4848-95ce-ebad9a02dd2f","ios":"levelo://app?vid=9e7bef7c-53f8-4848-95ce-ebad9a02dd2f"},"vehicle_type_id":"4","last_reported":1753280034,"current_range_meters":16400,"station_id":"ce4bhl92rcd13ifvqghg","pricing_plan_id":"cebpf4jnsgd1na2vs0mg"},{"bike_id":"75921511-23bf-408f-9470-1062209789d6","system_id":"levelo_inurba_marseille","lat":43.2558,"lon":5.38235,"is_reserved":false,"is_disabled":false,"rental_uris":{"android":"levelo://app?vid=75921511-23bf-408f-9470-1062209789d6","ios":"levelo://app?vid=75921511-23bf-408f-9470-1062209789d6"},"vehicle_type_id":"4","last_reported":1753280034,"current_range_meters":16800,"station_id":"ce4bhih2rcd13ifvqfs0","pricing_plan_id":"cebpf4jnsgd1na2vs0mg"},{"bike_id":"05575a90-61e8-4b5e-a808-049a312dc5a3","system_id":"levelo_inurba_marseille","lat":43.28678,"lon":5.38661,"is_reserved":false,"is_disabled":false,"rental_uris":{"android":"levelo://app?vid=05575a90-61e8-4b5e-a808-049a312dc5a3","ios":"levelo://app?vid=05575a90-61e8-4b5e-a808-049a312dc5a3"},"vehicle_type_id":"4","last_reported":1753280034,"current_range_meters":16400,"station_id":"ce4bh492rcd13ifvqdug","pricing_plan_id":"cebpf4jnsgd1na2vs0mg"},{"bike_id":"7e7f0fe1-be26-4471-8257-922dbc407504","system_id":"levelo_inurba_marseille","lat":43.26566,"lon":5.37277,"is_reserved":false,"is_disabled":false,"rental_uris":{"android":"levelo://app?vid=7e7f0fe1-be26-4471-8257-922dbc407504","ios":"levelo://app?vid=7e7f0fe1-be26-4471-8257-922dbc407504"},"vehicle_type_id":"4","last_reported":1753280034,"current_range_meters":16800,"station_id":"ce4bhg12rcd13ifvqf70","pricing_plan_id":"cebpf4jnsgd1na2vs0mg"},{"bike_id":"79ec2497-d39f-4ce1-8a44-1e9047b41431","system_id":"levelo_inurba_marseille","lat":43.26698,"lon":5.38259,"is_reserved":false,"is_disabled":false,"rental_uris":{"android":"levelo://app?vid=79ec2497-d39f-4ce1-8a44-1e9047b41431","ios":"levelo://app?vid=79ec2497-d39f-4ce1-8a44-1e9047b41431"},"vehicle_type_id":"4","last_reported":1753280034,"current_range_meters":16800,"station_id":"ce4bhg92rcd13ifvqf90","pricing_plan_id":"cebpf4jnsgd1na2vs0mg"},{"bike_id":"1c49cc0d-1a2f-4adb-9c9b-f826e5dd24e2","system_id":"levelo_inurba_marseille","lat":43.29233,"lon":5.38361,"is_reserved":false,"is_disabled":false,"rental_uris":{"android":"levelo://app?vid=1c49cc0d-1a2f-4adb-9c9b-f826e5dd24e2","ios":"levelo://app?vid=1c49cc0d-1a2f-4adb-9c9b-f826e5dd24e2"},"vehicle_type_id":"4","last_reported":1753280034,"current_range_meters":16800,"station_id":"","pricing_plan_id":"cebpf4jnsgd1na2vs0mg"},{"bike_id":"b2b7f5e4-9a64-46ef-9d20-104d4c275bfa","system_id":"levelo_inurba_marseille","lat":43.2119,"lon":5.35074,"is_reserved":false,"is_disabled":false,"rental_uris":{"android":"levelo://app?vid=b2b7f5e4-9a64-46ef-9d20-104d4c275bfa","ios":"levelo://app?vid=b2b7f5e4-9a64-46ef-9d20-104d4c275bfa"},"vehicle_type_id":"4","last_reported":1753280034,"current_range_meters":16800,"station_id":"st_cvj6sg6p6f1abm77japg","pricing_plan_id":"cebpf4jnsgd1na2vs0mg"},{"bike_id":"ea7d494c-2bc7-40bd-a488-c74e2bab859e","system_id":"levelo_inurba_marseille","lat":43.30535,"lon":5.36555,"is_reserved":false,"is_disabled":false,"rental_uris":{"android":"levelo://app?vid=ea7d494c-2bc7-40bd-a488-c74e2bab859e","ios":"levelo://app?vid=ea7d494c-2bc7-40bd-a488-c74e2bab859e"},"vehicle_type_id":"4","last_reported":1753280034,"current_range_meters":16800,"station_id":"ce4bgs12rcd13ifvqcag","pricing_plan_id":"cebpf4jnsgd1na2vs0mg"},{"bike_id":"f493a3a9-7f6b-470e-bce7-7019418af039","system_id":"levelo_inurba_marseille","lat":43.27874,"lon":5.37984,"is_reserved":false,"is_disabled":false,"rental_uris":{"android":"levelo://app?vid=f493a3a9-7f6b-470e-bce7-7019418af039","ios":"levelo://app?vid=f493a3a9-7f6b-470e-bce7-7019418af039"},"vehicle_type_id":"4","last_reported":1753280034,"current_range_meters":16800,"station_id":"ce4bhf92rcd13ifvqf50","pricing_plan_id":"cebpf4jnsgd1na2vs0mg"},{"bike_id":"154945dd-1343-4542-9a09-86ba80b94c4a","system_id":"levelo_inurba_marseille","lat":43.282663,"lon":5.350616,"is_reserved":false,"is_disabled":false,"rental_uris":{"android":"levelo://app?vid=154945dd-1343-4542-9a09-86ba80b94c4a","ios":"levelo://app?vid=154945dd-1343-4542-9a09-86ba80b94c4a"},"vehicle_type_id":"4","last_reported":1753280034,"current_range_meters":28000,"station_id":"","pricing_plan_id":"cebpf4jnsgd1na2vs0mg"},{"bike_id":"5ac85406-65d0-4336-aa89-4b04b2e6689e","system_id":"levelo_inurba_marseille","lat":43.332777,"lon":5.419698,"is_reserved":false,"is_disabled":false,"rental_uris":{"android":"levelo://app?vid=5ac85406-65d0-4336-aa89-4b04b2e6689e","ios":"levelo://app?vid=5ac85406-65d0-4336-aa89-4b04b2e6689e"},"vehicle_type_id":"4","last_reported":1753280034,"current_range_meters":17200,"station_id":"","pricing_plan_id":"cebpf4jnsgd1na2vs0mg"},{"bike_id":"496cac02-0e91-4f64-97b9-cb34cf0ab931","system_id":"levelo_inurba_marseille","lat":43.22547,"lon":5.34754,"is_reserved":false,"is_disabled":false,"rental_uris":{"android":"levelo://app?vid=496cac02-0e91-4f64-97b9-cb34cf0ab931","ios":"levelo://app?vid=496cac02-0e91-4f64-97b9-cb34cf0ab931"},"vehicle_type_id":"4","last_reported":1753280034,"current_range_meters":17200,"station_id":"st_cvj5dfep6f1abm77gieg","pricing_plan_id":"cebpf4jnsgd1na2vs0mg"},{"bike_id":"7a8cb97c-0034-46dc-a245-57a51b419f4c","system_id":"levelo_inurba_marseille","lat":43.30553,"lon":5.36706,"is_reserved":false,"is_disabled":false,"rental_uris":{"android":"levelo://app?vid=7a8cb97c-0034-46dc-a245-57a51b419f4c","ios":"levelo://app?vid=7a8cb97c-0034-46dc-a245-57a51b419f4c"},"vehicle_type_id":"4","last_reported":1753280034,"current_range_meters":17200,"station_id":"ce4bgrp2rcd13ifvqc9g","pricing_plan_id":"cebpf4jnsgd1na2vs0mg"},{"bike_id":"ccbcedb2-9dbc-4ee9-8baa-a4e195d13cdd","system_id":"levelo_inurba_marseille","lat":43.24167,"lon":5.36399,"is_reserved":false,"is_disabled":false,"rental_uris":{"android":"levelo://app?vid=ccbcedb2-9dbc-4ee9-8baa-a4e195d13cdd","ios":"levelo://app?vid=ccbcedb2-9dbc-4ee9-8baa-a4e195d13cdd"},"vehicle_type_id":"4","last_reported":1753280034,"current_range_meters":17200,"station_id":"cpo36qri1sfpv3e86is0","pricing_plan_id":"cebpf4jnsgd1na2vs0mg"},{"bike_id":"7efcf337-4140-49e9-92b0-3f0aa143c851","system_id":"levelo_inurba_marseille","lat":43.29851,"lon":5.3626,"is_reserved":false,"is_disabled":false,"rental_uris":{"android":"levelo://app?vid=7efcf337-4140-49e9-92b0-3f0aa143c851","ios":"levelo://app?vid=7efcf337-4140-49e9-92b0-3f0aa143c851"},"vehicle_type_id":"4","last_reported":1753280034,"current_range_meters":17200,"station_id":"ce4bgpp2rcd13ifvqc3g","pricing_plan_id":"cebpf4jnsgd1na2vs0mg"},{"bike_id":"8006020a-6cfe-4131-82ca-a6c8f07671d2","system_id":"levelo_inurba_marseille","lat":43.31182,"lon":5.37738,"is_reserved":false,"is_disabled":false,"rental_uris":{"android":"levelo://app?vid=8006020a-6cfe-4131-82ca-a6c8f07671d2","ios":"levelo://app?vid=8006020a-6cfe-4131-82ca-a6c8f07671d2"},"vehicle_type_id":"4","last_reported":1753280034,"current_range_meters":17200,"station_id":"","pricing_plan_id":"cebpf4jnsgd1na2vs0mg"},{"bike_id":"3cd09fc8-9554-4236-8496-0931a7be09d1","system_id":"levelo_inurba_marseille","lat":43.21199,"lon":5.35059,"is_reserved":false,"is_disabled":false,"rental_uris":{"android":"levelo://app?vid=3cd09fc8-9554-4236-8496-0931a7be09d1","ios":"levelo://app?vid=3cd09fc8-9554-4236-8496-0931a7be09d1"},"vehicle_type_id":"4","last_reported":1753280034,"current_range_meters":17200,"station_id":"st_cvj6sg6p6f1abm77japg","pricing_plan_id":"cebpf4jnsgd1na2vs0mg"},{"bike_id":"6bb1f31c-9335-4f39-9585-31374a4775f9","system_id":"levelo_inurba_marseille","lat":43.325583,"lon":5.379059,"is_reserved":false,"is_disabled":false,"rental_uris":{"android":"levelo://app?vid=6bb1f31c-9335-4f39-9585-31374a4775f9","ios":"levelo://app?vid=6bb1f31c-9335-4f39-9585-31374a4775f9"},"vehicle_type_id":"4","last_reported":1753280034,"current_range_meters":17200,"station_id":"","pricing_plan_id":"cebpf4jnsgd1na2vs0mg"},{"bike_id":"908a65a2-61a6-4bc8-baac-11bc4d5e1e65","system_id":"levelo_inurba_marseille","lat":43.28293,"lon":5.35059,"is_reserved":false,"is_disabled":false,"rental_uris":{"android":"levelo://app?vid=908a65a2-61a6-4bc8-baac-11bc4d5e1e65","ios":"levelo://app?vid=908a65a2-61a6-4bc8-baac-11bc4d5e1e65"},"vehicle_type_id":"4","last_reported":1753280034,"current_range_meters":17200,"station_id":"ce4bhbp2rcd13ifvqerg","pricing_plan_id":"cebpf4jnsgd1na2vs0mg"},{"bike_id":"1b407421-cfc6-4f2f-8e31-427c63d521b7","system_id":"levelo_inurba_marseille","lat":43.29363,"lon":5.37833,"is_reserved":false,"is_disabled":false,"rental_uris":{"android":"levelo://app?vid=1b407421-cfc6-4f2f-8e31-427c63d521b7","ios":"levelo://app?vid=1b407421-cfc6-4f2f-8e31-427c63d521b7"},"vehicle_type_id":"4","last_reported":1753280034,"current_range_meters":17200,"station_id":"ce4bgjh2rcd13ifvqbf0","pricing_plan_id":"cebpf4jnsgd1na2vs0mg"},{"bike_id":"fbc97770-8ae7-466d-8653-f7d693deca78","system_id":"levelo_inurba_marseille","lat":43.25494,"lon":5.3765,"is_reserved":false,"is_disabled":false,"rental_uris":{"android":"levelo://app?vid=fbc97770-8ae7-466d-8653-f7d693deca78","ios":"levelo://app?vid=fbc97770-8ae7-466d-8653-f7d693deca78"},"vehicle_type_id":"4","last_reported":1753280034,"current_range_meters":17200,"station_id":"ce4bhh12rcd13ifvqff0","pricing_plan_id":"cebpf4jnsgd1na2vs0mg"},{"bike_id":"a280b99a-f927-45da-9e98-7c3b9d5f878f","system_id":"levelo_inurba_marseille","lat":43.26782,"lon":5.3942,"is_reserved":false,"is_disabled":false,"rental_uris":{"android":"levelo://app?vid=a280b99a-f927-45da-9e98-7c3b9d5f878f","ios":"levelo://app?vid=a280b99a-f927-45da-9e98-7c3b9d5f878f"},"vehicle_type_id":"4","last_reported":1753280034,"current_range_meters":17200,"station_id":"ce4bhh12rcd13ifvqfg0","pricing_plan_id":"cebpf4jnsgd1na2vs0mg"},{"bike_id":"8296a2c9-4018-46bd-ba65-8bedbb4c038c","system_id":"levelo_inurba_marseille","lat":43.29912,"lon":5.37484,"is_reserved":false,"is_disabled":false,"rental_uris":{"android":"levelo://app?vid=8296a2c9-4018-46bd-ba65-8bedbb4c038c","ios":"levelo://app?vid=8296a2c9-4018-46bd-ba65-8bedbb4c038c"},"vehicle_type_id":"4","last_reported":1753280034,"current_range_meters":17200,"station_id":"ce4bgjh2rcd13ifvqbg0","pricing_plan_id":"cebpf4jnsgd1na2vs0mg"},{"bike_id":"ee20928a-7043-4220-b4e9-422dff72d720","system_id":"levelo_inurba_marseille","lat":43.2306,"lon":5.35504,"is_reserved":false,"is_disabled":false,"rental_uris":{"android":"levelo://app?vid=ee20928a-7043-4220-b4e9-422dff72d720","ios":"levelo://app?vid=ee20928a-7043-4220-b4e9-422dff72d720"},"vehicle_type_id":"4","last_reported":1753280034,"current_range_meters":17200,"station_id":"cpo3342slgdg3j2ifvpg","pricing_plan_id":"cebpf4jnsgd1na2vs0mg"},{"bike_id":"0a7e2862-d8ec-4c77-89d9-cfcdd51f8d75","system_id":"levelo_inurba_marseille","lat":43.31815,"lon":5.3736,"is_reserved":false,"is_disabled":false,"rental_uris":{"android":"levelo://app?vid=0a7e2862-d8ec-4c77-89d9-cfcdd51f8d75","ios":"levelo://app?vid=0a7e2862-d8ec-4c77-89d9-cfcdd51f8d75"},"vehicle_type_id":"4","last_reported":1753280034,"current_range_meters":17200,"station_id":"","pricing_plan_id":"cebpf4jnsgd1na2vs0mg"},{"bike_id":"5d84e1a3-b54e-4897-813d-14b2da3de96f","system_id":"levelo_inurba_marseille","lat":43.31252,"lon":5.3685,"is_reserved":false,"is_disabled":false,"rental_uris":{"android":"levelo://app?vid=5d84e1a3-b54e-4897-813d-14b2da3de96f","ios":"levelo://app?vid=5d84e1a3-b54e-4897-813d-14b2da3de96f"},"vehicle_type_id":"4","last_reported":1753280034,"current_range_meters":17600,"station_id":"ce4bgl92rcd13ifvqbq0","pricing_plan_id":"cebpf4jnsgd1na2vs0mg"},{"bike_id":"f842fdf6-95fe-4b37-8600-b468542720f1","system_id":"levelo_inurba_marseille","lat":43.259278,"lon":5.409128,"is_reserved":false,"is_disabled":false,"rental_uris":{"android":"levelo://app?vid=f842fdf6-95fe-4b37-8600-b468542720f1","ios":"levelo://app?vid=f842fdf6-95fe-4b37-8600-b468542720f1"},"vehicle_type_id":"4","last_reported":1753280034,"current_range_meters":17600,"station_id":"ce4bhm92rcd13ifvqglg","pricing_plan_id":"cebpf4jnsgd1na2vs0mg"},{"bike_id":"14168552-349d-439d-960a-cfdd0a062c30","system_id":"levelo_inurba_marseille","lat":43.314843,"lon":5.373016,"is_reserved":false,"is_disabled":false,"rental_uris":{"android":"levelo://app?vid=14168552-349d-439d-960a-cfdd0a062c30","ios":"levelo://app?vid=14168552-349d-439d-960a-cfdd0a062c30"},"vehicle_type_id":"4","last_reported":1753280034,"current_range_meters":17600,"station_id":"ce4bgt12rcd13ifvqcd0","pricing_plan_id":"cebpf4jnsgd1na2vs0mg"},{"bike_id":"c056311f-78c9-4e18-8685-91c659ddb125","system_id":"levelo_inurba_marseille","lat":43.31592,"lon":5.38985,"is_reserved":false,"is_disabled":false,"rental_uris":{"android":"levelo://app?vid=c056311f-78c9-4e18-8685-91c659ddb125","ios":"levelo://app?vid=c056311f-78c9-4e18-8685-91c659ddb125"},"vehicle_type_id":"4","last_reported":1753280034,"current_range_meters":17600,"station_id":"","pricing_plan_id":"cebpf4jnsgd1na2vs0mg"},{"bike_id":"ae131367-d818-44a0-9e1d-4aa65dcdb16a","system_id":"levelo_inurba_marseille","lat":43.27521,"lon":5.39668,"is_reserved":false,"is_disabled":false,"rental_uris":{"android":"levelo://app?vid=ae131367-d818-44a0-9e1d-4aa65dcdb16a","ios":"levelo://app?vid=ae131367-d818-44a0-9e1d-4aa65dcdb16a"},"vehicle_type_id":"4","last_reported":1753280034,"current_range_meters":17600,"station_id":"","pricing_plan_id":"cebpf4jnsgd1na2vs0mg"},{"bike_id":"eabf8af7-0ba6-4ed7-9dc1-8770e1d0db11","system_id":"levelo_inurba_marseille","lat":43.305287,"lon":5.367015,"is_reserved":false,"is_disabled":false,"rental_uris":{"android":"levelo://app?vid=eabf8af7-0ba6-4ed7-9dc1-8770e1d0db11","ios":"levelo://app?vid=eabf8af7-0ba6-4ed7-9dc1-8770e1d0db11"},"vehicle_type_id":"4","last_reported":1753280034,"current_range_meters":17600,"station_id":"ce4bgrp2rcd13ifvqc9g","pricing_plan_id":"cebpf4jnsgd1na2vs0mg"},{"bike_id":"b6b8c031-0609-4230-b642-25bc0ff457a7","system_id":"levelo_inurba_marseille","lat":43.26545,"lon":5.37294,"is_reserved":false,"is_disabled":false,"rental_uris":{"android":"levelo://app?vid=b6b8c031-0609-4230-b642-25bc0ff457a7","ios":"levelo://app?vid=b6b8c031-0609-4230-b642-25bc0ff457a7"},"vehicle_type_id":"4","last_reported":1753280034,"current_range_meters":17600,"station_id":"ce4bhg12rcd13ifvqf70","pricing_plan_id":"cebpf4jnsgd1na2vs0mg"},{"bike_id":"68f1bf8e-aa5f-434b-8de5-e433f211f420","system_id":"levelo_inurba_marseille","lat":43.26193,"lon":5.3745,"is_reserved":false,"is_disabled":false,"rental_uris":{"android":"levelo://app?vid=68f1bf8e-aa5f-434b-8de5-e433f211f420","ios":"levelo://app?vid=68f1bf8e-aa5f-434b-8de5-e433f211f420"},"vehicle_type_id":"4","last_reported":1753280034,"current_range_meters":17600,"station_id":"ce4bhgp2rcd13ifvqfc0","pricing_plan_id":"cebpf4jnsgd1na2vs0mg"},{"bike_id":"8f82b634-a1b3-41d1-bffa-37604c7c5d28","system_id":"levelo_inurba_marseille","lat":43.27416,"lon":5.39411,"is_reserved":false,"is_disabled":false,"rental_uris":{"android":"levelo://app?vid=8f82b634-a1b3-41d1-bffa-37604c7c5d28","ios":"levelo://app?vid=8f82b634-a1b3-41d1-bffa-37604c7c5d28"},"vehicle_type_id":"4","last_reported":1753280034,"current_range_meters":17600,"station_id":"ce4bhdp2rcd13ifvqf20","pricing_plan_id":"cebpf4jnsgd1na2vs0mg"},{"bike_id":"dd761ec4-01e5-4144-a46c-689b9433ac2a","system_id":"levelo_inurba_marseille","lat":43.273727,"lon":5.36259,"is_reserved":false,"is_disabled":false,"rental_uris":{"android":"levelo://app?vid=dd761ec4-01e5-4144-a46c-689b9433ac2a","ios":"levelo://app?vid=dd761ec4-01e5-4144-a46c-689b9433ac2a"},"vehicle_type_id":"4","last_reported":1753280034,"current_range_meters":17600,"station_id":"ce4bhbh2rcd13ifvqeo0","pricing_plan_id":"cebpf4jnsgd1na2vs0mg"},{"bike_id":"6a79a396-2f47-4b1c-9dce-b0d5464f72e4","system_id":"levelo_inurba_marseille","lat":43.22926,"lon":5.35377,"is_reserved":false,"is_disabled":false,"rental_uris":{"android":"levelo://app?vid=6a79a396-2f47-4b1c-9dce-b0d5464f72e4","ios":"levelo://app?vid=6a79a396-2f47-4b1c-9dce-b0d5464f72e4"},"vehicle_type_id":"4","last_reported":1753280034,"current_range_meters":17600,"station_id":"cpo3532slgdg3j2ikp40","pricing_plan_id":"cebpf4jnsgd1na2vs0mg"},{"bike_id":"bdafccd1-657b-4b53-9c64-16c0d7f6175c","system_id":"levelo_inurba_marseille","lat":43.31502,"lon":5.37311,"is_reserved":false,"is_disabled":false,"rental_uris":{"android":"levelo://app?vid=bdafccd1-657b-4b53-9c64-16c0d7f6175c","ios":"levelo://app?vid=bdafccd1-657b-4b53-9c64-16c0d7f6175c"},"vehicle_type_id":"4","last_reported":1753280034,"current_range_meters":17600,"station_id":"ce4bgt12rcd13ifvqcd0","pricing_plan_id":"cebpf4jnsgd1na2vs0mg"},{"bike_id":"54943e91-61ee-496b-9667-a7c6c3a25bb5","system_id":"levelo_inurba_marseille","lat":43.26225,"lon":5.37438,"is_reserved":false,"is_disabled":false,"rental_uris":{"android":"levelo://app?vid=54943e91-61ee-496b-9667-a7c6c3a25bb5","ios":"levelo://app?vid=54943e91-61ee-496b-9667-a7c6c3a25bb5"},"vehicle_type_id":"4","last_reported":1753280034,"current_range_meters":17600,"station_id":"ce4bhgp2rcd13ifvqfc0","pricing_plan_id":"cebpf4jnsgd1na2vs0mg"},{"bike_id":"d33a195d-1aba-4725-a7a9-74d21f9597a0","system_id":"levelo_inurba_marseille","lat":43.26224,"lon":5.37437,"is_reserved":false,"is_disabled":false,"rental_uris":{"android":"levelo://app?vid=d33a195d-1aba-4725-a7a9-74d21f9597a0","ios":"levelo://app?vid=d33a195d-1aba-4725-a7a9-74d21f9597a0"},"vehicle_type_id":"4","last_reported":1753280034,"current_range_meters":18000,"station_id":"ce4bhgp2rcd13ifvqfc0","pricing_plan_id":"cebpf4jnsgd1na2vs0mg"},{"bike_id":"83f27f29-865c-41de-816e-cdf4e10e7f86","system_id":"levelo_inurba_marseille","lat":43.28933,"lon":5.36632,"is_reserved":false,"is_disabled":false,"rental_uris":{"android":"levelo://app?vid=83f27f29-865c-41de-816e-cdf4e10e7f86","ios":"levelo://app?vid=83f27f29-865c-41de-816e-cdf4e10e7f86"},"vehicle_type_id":"4","last_reported":1753280034,"current_range_meters":18000,"station_id":"ce4bhap2rcd13ifvqek0","pricing_plan_id":"cebpf4jnsgd1na2vs0mg"},{"bike_id":"34bebe6d-c5b7-409a-8449-5dad75313f8b","system_id":"levelo_inurba_marseille","lat":43.281559,"lon":5.426408,"is_reserved":false,"is_disabled":false,"rental_uris":{"android":"levelo://app?vid=34bebe6d-c5b7-409a-8449-5dad75313f8b","ios":"levelo://app?vid=34bebe6d-c5b7-409a-8449-5dad75313f8b"},"vehicle_type_id":"4","last_reported":1753280034,"current_range_meters":18000,"station_id":"ce4bhnh2rcd13ifvqgug","pricing_plan_id":"cebpf4jnsgd1na2vs0mg"},{"bike_id":"1699da3b-157a-4d07-ba4d-8fe9df7d93c7","system_id":"levelo_inurba_marseille","lat":43.30375,"lon":5.41931,"is_reserved":false,"is_disabled":false,"rental_uris":{"android":"levelo://app?vid=1699da3b-157a-4d07-ba4d-8fe9df7d93c7","ios":"levelo://app?vid=1699da3b-157a-4d07-ba4d-8fe9df7d93c7"},"vehicle_type_id":"4","last_reported":1753280034,"current_range_meters":18000,"station_id":"","pricing_plan_id":"cebpf4jnsgd1na2vs0mg"},{"bike_id":"70737bad-8214-4681-8a7d-fa98042cf105","system_id":"levelo_inurba_marseille","lat":43.290472,"lon":5.399956,"is_reserved":false,"is_disabled":false,"rental_uris":{"android":"levelo://app?vid=70737bad-8214-4681-8a7d-fa98042cf105","ios":"levelo://app?vid=70737bad-8214-4681-8a7d-fa98042cf105"},"vehicle_type_id":"4","last_reported":1753280034,"current_range_meters":18000,"station_id":"","pricing_plan_id":"cebpf4jnsgd1na2vs0mg"},{"bike_id":"a08241da-c05b-4a2b-be85-39a69a066dba","system_id":"levelo_inurba_marseille","lat":43.29043,"lon":5.37561,"is_reserved":false,"is_disabled":false,"rental_uris":{"android":"levelo://app?vid=a08241da-c05b-4a2b-be85-39a69a066dba","ios":"levelo://app?vid=a08241da-c05b-4a2b-be85-39a69a066dba"},"vehicle_type_id":"4","last_reported":1753280034,"current_range_meters":18000,"station_id":"ce4bh692rcd13ifvqe90","pricing_plan_id":"cebpf4jnsgd1na2vs0mg"},{"bike_id":"a5c474fd-2247-4651-8125-cd6e486d34d9","system_id":"levelo_inurba_marseille","lat":43.321472,"lon":5.384864,"is_reserved":false,"is_disabled":false,"rental_uris":{"android":"levelo://app?vid=a5c474fd-2247-4651-8125-cd6e486d34d9","ios":"levelo://app?vid=a5c474fd-2247-4651-8125-cd6e486d34d9"},"vehicle_type_id":"4","last_reported":1753280034,"current_range_meters":18000,"station_id":"","pricing_plan_id":"cebpf4jnsgd1na2vs0mg"},{"bike_id":"88ba686c-e916-48b4-a187-3089cccb5922","system_id":"levelo_inurba_marseille","lat":43.31497,"lon":5.37299,"is_reserved":false,"is_disabled":false,"rental_uris":{"android":"levelo://app?vid=88ba686c-e916-48b4-a187-3089cccb5922","ios":"levelo://app?vid=88ba686c-e916-48b4-a187-3089cccb5922"},"vehicle_type_id":"4","last_reported":1753280034,"current_range_meters":18000,"station_id":"ce4bgt12rcd13ifvqcd0","pricing_plan_id":"cebpf4jnsgd1na2vs0mg"},{"bike_id":"18b86593-4f21-41ed-81b3-f3a5b378dc91","system_id":"levelo_inurba_marseille","lat":43.312339,"lon":5.381309,"is_reserved":false,"is_disabled":false,"rental_uris":{"android":"levelo://app?vid=18b86593-4f21-41ed-81b3-f3a5b378dc91","ios":"levelo://app?vid=18b86593-4f21-41ed-81b3-f3a5b378dc91"},"vehicle_type_id":"4","last_reported":1753280034,"current_range_meters":18000,"station_id":"","pricing_plan_id":"cebpf4jnsgd1na2vs0mg"},{"bike_id":"b52e74cd-ff69-4417-b50e-80e0e49ad997","system_id":"levelo_inurba_marseille","lat":43.22502,"lon":5.34781,"is_reserved":false,"is_disabled":true,"rental_uris":{"android":"levelo://app?vid=b52e74cd-ff69-4417-b50e-80e0e49ad997","ios":"levelo://app?vid=b52e74cd-ff69-4417-b50e-80e0e49ad997"},"vehicle_type_id":"4","last_reported":1753280034,"current_range_meters":18000,"station_id":"","pricing_plan_id":"cebpf4jnsgd1na2vs0mg"},{"bike_id":"8ae20bdf-bf90-461a-986c-b66f491b84cd","system_id":"levelo_inurba_marseille","lat":43.30386,"lon":5.42487,"is_reserved":false,"is_disabled":false,"rental_uris":{"android":"levelo://app?vid=8ae20bdf-bf90-461a-986c-b66f491b84cd","ios":"levelo://app?vid=8ae20bdf-bf90-461a-986c-b66f491b84cd"},"vehicle_type_id":"4","last_reported":1753280034,"current_range_meters":18000,"station_id":"ce4bhoh2rcd13ifvqh6g","pricing_plan_id":"cebpf4jnsgd1na2vs0mg"},{"bike_id":"1ad257b5-7f83-42c1-867f-92635ff1abbf","system_id":"levelo_inurba_marseille","lat":43.2293,"lon":5.35381,"is_reserved":false,"is_disabled":false,"rental_uris":{"android":"levelo://app?vid=1ad257b5-7f83-42c1-867f-92635ff1abbf","ios":"levelo://app?vid=1ad257b5-7f83-42c1-867f-92635ff1abbf"},"vehicle_type_id":"4","last_reported":1753280034,"current_range_meters":18000,"station_id":"cpo3532slgdg3j2ikp40","pricing_plan_id":"cebpf4jnsgd1na2vs0mg"},{"bike_id":"6bbcb3b2-c3d1-40eb-a700-f33e55f41542","system_id":"levelo_inurba_marseille","lat":43.24793,"lon":5.37456,"is_reserved":false,"is_disabled":false,"rental_uris":{"android":"levelo://app?vid=6bbcb3b2-c3d1-40eb-a700-f33e55f41542","ios":"levelo://app?vid=6bbcb3b2-c3d1-40eb-a700-f33e55f41542"},"vehicle_type_id":"4","last_reported":1753280034,"current_range_meters":18000,"station_id":"ce4bhgh2rcd13ifvqfb0","pricing_plan_id":"cebpf4jnsgd1na2vs0mg"},{"bike_id":"a41d286a-c628-4838-a2ba-f816a3e31899","system_id":"levelo_inurba_marseille","lat":43.2319,"lon":5.35556,"is_reserved":false,"is_disabled":false,"rental_uris":{"android":"levelo://app?vid=a41d286a-c628-4838-a2ba-f816a3e31899","ios":"levelo://app?vid=a41d286a-c628-4838-a2ba-f816a3e31899"},"vehicle_type_id":"4","last_reported":1753280034,"current_range_meters":18000,"station_id":"ce4bhu92rcd13ifvqi70","pricing_plan_id":"cebpf4jnsgd1na2vs0mg"},{"bike_id":"d30f66f5-9995-4a0a-832b-41fe2c74d0c0","system_id":"levelo_inurba_marseille","lat":43.22503,"lon":5.34793,"is_reserved":false,"is_disabled":false,"rental_uris":{"android":"levelo://app?vid=d30f66f5-9995-4a0a-832b-41fe2c74d0c0","ios":"levelo://app?vid=d30f66f5-9995-4a0a-832b-41fe2c74d0c0"},"vehicle_type_id":"4","last_reported":1753280034,"current_range_meters":18800,"station_id":"st_cvj5dfep6f1abm77gieg","pricing_plan_id":"cebpf4jnsgd1na2vs0mg"},{"bike_id":"b1dbcaf1-bfc6-4e0a-9a80-297fdd0c1f07","system_id":"levelo_inurba_marseille","lat":43.26206,"lon":5.37462,"is_reserved":false,"is_disabled":false,"rental_uris":{"android":"levelo://app?vid=b1dbcaf1-bfc6-4e0a-9a80-297fdd0c1f07","ios":"levelo://app?vid=b1dbcaf1-bfc6-4e0a-9a80-297fdd0c1f07"},"vehicle_type_id":"4","last_reported":1753280034,"current_range_meters":18800,"station_id":"ce4bhgp2rcd13ifvqfc0","pricing_plan_id":"cebpf4jnsgd1na2vs0mg"},{"bike_id":"6ccf16c0-524d-41d0-bc8f-04089f2f6617","system_id":"levelo_inurba_marseille","lat":43.3065,"lon":5.40071,"is_reserved":false,"is_disabled":false,"rental_uris":{"android":"levelo://app?vid=6ccf16c0-524d-41d0-bc8f-04089f2f6617","ios":"levelo://app?vid=6ccf16c0-524d-41d0-bc8f-04089f2f6617"},"vehicle_type_id":"4","last_reported":1753280034,"current_range_meters":18800,"station_id":"ce4bh112rcd13ifvqda0","pricing_plan_id":"cebpf4jnsgd1na2vs0mg"},{"bike_id":"5d2a4027-c4e2-4789-b8d3-60410bc4c347","system_id":"levelo_inurba_marseille","lat":43.250104,"lon":5.389127,"is_reserved":false,"is_disabled":false,"rental_uris":{"android":"levelo://app?vid=5d2a4027-c4e2-4789-b8d3-60410bc4c347","ios":"levelo://app?vid=5d2a4027-c4e2-4789-b8d3-60410bc4c347"},"vehicle_type_id":"4","last_reported":1753280034,"current_range_meters":18800,"station_id":"ce4bhgp2rcd13ifvqfd0","pricing_plan_id":"cebpf4jnsgd1na2vs0mg"},{"bike_id":"7bc1d1e5-a6b9-432d-8e59-1b2af393aef0","system_id":"levelo_inurba_marseille","lat":43.287,"lon":5.37408,"is_reserved":false,"is_disabled":false,"rental_uris":{"android":"levelo://app?vid=7bc1d1e5-a6b9-432d-8e59-1b2af393aef0","ios":"levelo://app?vid=7bc1d1e5-a6b9-432d-8e59-1b2af393aef0"},"vehicle_type_id":"4","last_reported":1753280034,"current_range_meters":18800,"station_id":"ce4bh3p2rcd13ifvqdq0","pricing_plan_id":"cebpf4jnsgd1na2vs0mg"},{"bike_id":"61cb5b9a-9cee-4d3f-8bba-365148ee2e42","system_id":"levelo_inurba_marseille","lat":43.25854,"lon":5.39913,"is_reserved":false,"is_disabled":false,"rental_uris":{"android":"levelo://app?vid=61cb5b9a-9cee-4d3f-8bba-365148ee2e42","ios":"levelo://app?vid=61cb5b9a-9cee-4d3f-8bba-365148ee2e42"},"vehicle_type_id":"4","last_reported":1753280034,"current_range_meters":18800,"station_id":"ce4bhl92rcd13ifvqghg","pricing_plan_id":"cebpf4jnsgd1na2vs0mg"},{"bike_id":"750d370d-abb4-47b3-b4f7-7ef76b03801f","system_id":"levelo_inurba_marseille","lat":43.29669,"lon":5.37941,"is_reserved":false,"is_disabled":false,"rental_uris":{"android":"levelo://app?vid=750d370d-abb4-47b3-b4f7-7ef76b03801f","ios":"levelo://app?vid=750d370d-abb4-47b3-b4f7-7ef76b03801f"},"vehicle_type_id":"4","last_reported":1753280034,"current_range_meters":18800,"station_id":"","pricing_plan_id":"cebpf4jnsgd1na2vs0mg"},{"bike_id":"f0f73c71-7331-4628-b623-754b73a8546a","system_id":"levelo_inurba_marseille","lat":43.30145,"lon":5.39888,"is_reserved":false,"is_disabled":true,"rental_uris":{"android":"levelo://app?vid=f0f73c71-7331-4628-b623-754b73a8546a","ios":"levelo://app?vid=f0f73c71-7331-4628-b623-754b73a8546a"},"vehicle_type_id":"4","last_reported":1753280034,"current_range_meters":18800,"station_id":"ce4bh0h2rcd13ifvqd40","pricing_plan_id":"cebpf4jnsgd1na2vs0mg"},{"bike_id":"76c65f84-3b49-4269-890c-8259fe6ade74","system_id":"levelo_inurba_marseille","lat":43.32368,"lon":5.36734,"is_reserved":false,"is_disabled":false,"rental_uris":{"android":"levelo://app?vid=76c65f84-3b49-4269-890c-8259fe6ade74","ios":"levelo://app?vid=76c65f84-3b49-4269-890c-8259fe6ade74"},"vehicle_type_id":"4","last_reported":1753280034,"current_range_meters":18800,"station_id":"ce4bhsh2rcd13ifvqi2g","pricing_plan_id":"cebpf4jnsgd1na2vs0mg"},{"bike_id":"5f824980-27aa-4ef2-856d-b766bebead8a","system_id":"levelo_inurba_marseille","lat":43.22504,"lon":5.3478,"is_reserved":false,"is_disabled":false,"rental_uris":{"android":"levelo://app?vid=5f824980-27aa-4ef2-856d-b766bebead8a","ios":"levelo://app?vid=5f824980-27aa-4ef2-856d-b766bebead8a"},"vehicle_type_id":"4","last_reported":1753280034,"current_range_meters":19200,"station_id":"st_cvj5dfep6f1abm77gieg","pricing_plan_id":"cebpf4jnsgd1na2vs0mg"},{"bike_id":"20586eb9-d076-4483-9da1-32bd7f971b1a","system_id":"levelo_inurba_marseille","lat":43.25934,"lon":5.40889,"is_reserved":false,"is_disabled":false,"rental_uris":{"android":"levelo://app?vid=20586eb9-d076-4483-9da1-32bd7f971b1a","ios":"levelo://app?vid=20586eb9-d076-4483-9da1-32bd7f971b1a"},"vehicle_type_id":"4","last_reported":1753280034,"current_range_meters":19200,"station_id":"ce4bhm92rcd13ifvqglg","pricing_plan_id":"cebpf4jnsgd1na2vs0mg"},{"bike_id":"bfd7e908-297b-4fb3-954a-c8cd06553c6a","system_id":"levelo_inurba_marseille","lat":43.30915,"lon":5.36861,"is_reserved":false,"is_disabled":false,"rental_uris":{"android":"levelo://app?vid=bfd7e908-297b-4fb3-954a-c8cd06553c6a","ios":"levelo://app?vid=bfd7e908-297b-4fb3-954a-c8cd06553c6a"},"vehicle_type_id":"4","last_reported":1753280034,"current_range_meters":19200,"station_id":"ce4bgn92rcd13ifvqbvg","pricing_plan_id":"cebpf4jnsgd1na2vs0mg"},{"bike_id":"f7f07796-c7c9-4a74-80e9-fb85744448b8","system_id":"levelo_inurba_marseille","lat":43.22923,"lon":5.35393,"is_reserved":false,"is_disabled":false,"rental_uris":{"android":"levelo://app?vid=f7f07796-c7c9-4a74-80e9-fb85744448b8","ios":"levelo://app?vid=f7f07796-c7c9-4a74-80e9-fb85744448b8"},"vehicle_type_id":"4","last_reported":1753280034,"current_range_meters":19200,"station_id":"cpo3532slgdg3j2ikp40","pricing_plan_id":"cebpf4jnsgd1na2vs0mg"},{"bike_id":"cb6e42a8-e13c-4257-b6e6-cd07bacb2735","system_id":"levelo_inurba_marseille","lat":43.24657,"lon":5.38165,"is_reserved":false,"is_disabled":false,"rental_uris":{"android":"levelo://app?vid=cb6e42a8-e13c-4257-b6e6-cd07bacb2735","ios":"levelo://app?vid=cb6e42a8-e13c-4257-b6e6-cd07bacb2735"},"vehicle_type_id":"4","last_reported":1753280034,"current_range_meters":19200,"station_id":"ce4bhih2rcd13ifvqfr0","pricing_plan_id":"cebpf4jnsgd1na2vs0mg"},{"bike_id":"d348d603-9a27-490f-a4e1-901d393568a1","system_id":"levelo_inurba_marseille","lat":43.29628,"lon":5.40592,"is_reserved":false,"is_disabled":false,"rental_uris":{"android":"levelo://app?vid=d348d603-9a27-490f-a4e1-901d393568a1","ios":"levelo://app?vid=d348d603-9a27-490f-a4e1-901d393568a1"},"vehicle_type_id":"4","last_reported":1753280034,"current_range_meters":19200,"station_id":"ce4bh0h2rcd13ifvqd60","pricing_plan_id":"cebpf4jnsgd1na2vs0mg"},{"bike_id":"f5a7823e-ffd4-4ba2-b05e-971aedb54812","system_id":"levelo_inurba_marseille","lat":43.27205,"lon":5.39189,"is_reserved":false,"is_disabled":false,"rental_uris":{"android":"levelo://app?vid=f5a7823e-ffd4-4ba2-b05e-971aedb54812","ios":"levelo://app?vid=f5a7823e-ffd4-4ba2-b05e-971aedb54812"},"vehicle_type_id":"4","last_reported":1753280034,"current_range_meters":18800,"station_id":"ce4bhhp2rcd13ifvqfm0","pricing_plan_id":"cebpf4jnsgd1na2vs0mg"},{"bike_id":"35a86048-76dd-4de0-afb2-7da8772fad44","system_id":"levelo_inurba_marseille","lat":43.21531,"lon":5.34729,"is_reserved":false,"is_disabled":false,"rental_uris":{"android":"levelo://app?vid=35a86048-76dd-4de0-afb2-7da8772fad44","ios":"levelo://app?vid=35a86048-76dd-4de0-afb2-7da8772fad44"},"vehicle_type_id":"4","last_reported":1753280034,"current_range_meters":19200,"station_id":"","pricing_plan_id":"cebpf4jnsgd1na2vs0mg"},{"bike_id":"154842fb-66cb-4d03-b336-ad8705751d21","system_id":"levelo_inurba_marseille","lat":43.279451,"lon":5.410449,"is_reserved":false,"is_disabled":false,"rental_uris":{"android":"levelo://app?vid=154842fb-66cb-4d03-b336-ad8705751d21","ios":"levelo://app?vid=154842fb-66cb-4d03-b336-ad8705751d21"},"vehicle_type_id":"4","last_reported":1753280034,"current_range_meters":19200,"station_id":"ce4bhnp2rcd13ifvqh0g","pricing_plan_id":"cebpf4jnsgd1na2vs0mg"},{"bike_id":"966c2235-87b9-490e-85b7-e12cfa3a752e","system_id":"levelo_inurba_marseille","lat":43.28526,"lon":5.35218,"is_reserved":false,"is_disabled":false,"rental_uris":{"android":"levelo://app?vid=966c2235-87b9-490e-85b7-e12cfa3a752e","ios":"levelo://app?vid=966c2235-87b9-490e-85b7-e12cfa3a752e"},"vehicle_type_id":"4","last_reported":1753280034,"current_range_meters":19200,"station_id":"","pricing_plan_id":"cebpf4jnsgd1na2vs0mg"},{"bike_id":"e246d1c9-8a7e-4c9d-983b-668f75fd83e7","system_id":"levelo_inurba_marseille","lat":43.26567,"lon":5.37302,"is_reserved":false,"is_disabled":false,"rental_uris":{"android":"levelo://app?vid=e246d1c9-8a7e-4c9d-983b-668f75fd83e7","ios":"levelo://app?vid=e246d1c9-8a7e-4c9d-983b-668f75fd83e7"},"vehicle_type_id":"4","last_reported":1753280034,"current_range_meters":19200,"station_id":"ce4bhg12rcd13ifvqf70","pricing_plan_id":"cebpf4jnsgd1na2vs0mg"},{"bike_id":"9d57c767-e803-46e4-9558-141862096fa7","system_id":"levelo_inurba_marseille","lat":43.30645,"lon":5.36479,"is_reserved":false,"is_disabled":false,"rental_uris":{"android":"levelo://app?vid=9d57c767-e803-46e4-9558-141862096fa7","ios":"levelo://app?vid=9d57c767-e803-46e4-9558-141862096fa7"},"vehicle_type_id":"4","last_reported":1753280034,"current_range_meters":19200,"station_id":"ce4bgs12rcd13ifvqcag","pricing_plan_id":"cebpf4jnsgd1na2vs0mg"},{"bike_id":"36934cf4-a976-489b-8f3e-dd0ab036ca3e","system_id":"levelo_inurba_marseille","lat":43.25576,"lon":5.38238,"is_reserved":false,"is_disabled":false,"rental_uris":{"android":"levelo://app?vid=36934cf4-a976-489b-8f3e-dd0ab036ca3e","ios":"levelo://app?vid=36934cf4-a976-489b-8f3e-dd0ab036ca3e"},"vehicle_type_id":"4","last_reported":1753280034,"current_range_meters":19600,"station_id":"ce4bhih2rcd13ifvqfs0","pricing_plan_id":"cebpf4jnsgd1na2vs0mg"},{"bike_id":"2a1cdeb3-2f51-46c6-b93c-9a77445b2b75","system_id":"levelo_inurba_marseille","lat":43.28615,"lon":5.35103,"is_reserved":false,"is_disabled":false,"rental_uris":{"android":"levelo://app?vid=2a1cdeb3-2f51-46c6-b93c-9a77445b2b75","ios":"levelo://app?vid=2a1cdeb3-2f51-46c6-b93c-9a77445b2b75"},"vehicle_type_id":"4","last_reported":1753280034,"current_range_meters":19600,"station_id":"ce4bhch2rcd13ifvqeug","pricing_plan_id":"cebpf4jnsgd1na2vs0mg"},{"bike_id":"c7ed7773-fd9d-4e91-849d-bd3cf28bf403","system_id":"levelo_inurba_marseille","lat":43.27672,"lon":5.38877,"is_reserved":false,"is_disabled":false,"rental_uris":{"android":"levelo://app?vid=c7ed7773-fd9d-4e91-849d-bd3cf28bf403","ios":"levelo://app?vid=c7ed7773-fd9d-4e91-849d-bd3cf28bf403"},"vehicle_type_id":"4","last_reported":1753280034,"current_range_meters":19600,"station_id":"ce4bhi12rcd13ifvqfo0","pricing_plan_id":"cebpf4jnsgd1na2vs0mg"},{"bike_id":"15d367de-17b0-4dc7-a6ae-9f74942a498e","system_id":"levelo_inurba_marseille","lat":43.3061,"lon":5.37235,"is_reserved":false,"is_disabled":false,"rental_uris":{"android":"levelo://app?vid=15d367de-17b0-4dc7-a6ae-9f74942a498e","ios":"levelo://app?vid=15d367de-17b0-4dc7-a6ae-9f74942a498e"},"vehicle_type_id":"4","last_reported":1753280034,"current_range_meters":19600,"station_id":"ce4bgqh2rcd13ifvqc4g","pricing_plan_id":"cebpf4jnsgd1na2vs0mg"},{"bike_id":"ace7e9f2-d583-4157-aafd-35aba7652150","system_id":"levelo_inurba_marseille","lat":43.28404,"lon":5.35016,"is_reserved":false,"is_disabled":false,"rental_uris":{"android":"levelo://app?vid=ace7e9f2-d583-4157-aafd-35aba7652150","ios":"levelo://app?vid=ace7e9f2-d583-4157-aafd-35aba7652150"},"vehicle_type_id":"4","last_reported":1753280034,"current_range_meters":19600,"station_id":"ce4bhbh2rcd13ifvqepg","pricing_plan_id":"cebpf4jnsgd1na2vs0mg"},{"bike_id":"63fd2c65-b5b6-4009-9137-026e4b20b7c9","system_id":"levelo_inurba_marseille","lat":43.299124,"lon":5.374818,"is_reserved":false,"is_disabled":false,"rental_uris":{"android":"levelo://app?vid=63fd2c65-b5b6-4009-9137-026e4b20b7c9","ios":"levelo://app?vid=63fd2c65-b5b6-4009-9137-026e4b20b7c9"},"vehicle_type_id":"4","last_reported":1753280034,"current_range_meters":19600,"station_id":"ce4bgjh2rcd13ifvqbg0","pricing_plan_id":"cebpf4jnsgd1na2vs0mg"},{"bike_id":"66573328-cce6-4ec1-bbb6-cb5d6bb22ede","system_id":"levelo_inurba_marseille","lat":43.28281,"lon":5.35074,"is_reserved":false,"is_disabled":false,"rental_uris":{"android":"levelo://app?vid=66573328-cce6-4ec1-bbb6-cb5d6bb22ede","ios":"levelo://app?vid=66573328-cce6-4ec1-bbb6-cb5d6bb22ede"},"vehicle_type_id":"4","last_reported":1753280034,"current_range_meters":20000,"station_id":"ce4bhbp2rcd13ifvqerg","pricing_plan_id":"cebpf4jnsgd1na2vs0mg"},{"bike_id":"3e7a6c9e-1ec8-4c70-9bc0-27ea105ed580","system_id":"levelo_inurba_marseille","lat":43.28153,"lon":5.42653,"is_reserved":false,"is_disabled":false,"rental_uris":{"android":"levelo://app?vid=3e7a6c9e-1ec8-4c70-9bc0-27ea105ed580","ios":"levelo://app?vid=3e7a6c9e-1ec8-4c70-9bc0-27ea105ed580"},"vehicle_type_id":"4","last_reported":1753280034,"current_range_meters":20000,"station_id":"ce4bhnh2rcd13ifvqgug","pricing_plan_id":"cebpf4jnsgd1na2vs0mg"},{"bike_id":"085cc398-265e-4402-bcb0-4ca5061b4738","system_id":"levelo_inurba_marseille","lat":43.22937,"lon":5.35377,"is_reserved":false,"is_disabled":false,"rental_uris":{"android":"levelo://app?vid=085cc398-265e-4402-bcb0-4ca5061b4738","ios":"levelo://app?vid=085cc398-265e-4402-bcb0-4ca5061b4738"},"vehicle_type_id":"4","last_reported":1753280034,"current_range_meters":20000,"station_id":"cpo3532slgdg3j2ikp40","pricing_plan_id":"cebpf4jnsgd1na2vs0mg"},{"bike_id":"72e8dd2b-5f96-4ec8-bae0-11ba5dde49fd","system_id":"levelo_inurba_marseille","lat":43.30618,"lon":5.37216,"is_reserved":false,"is_disabled":false,"rental_uris":{"android":"levelo://app?vid=72e8dd2b-5f96-4ec8-bae0-11ba5dde49fd","ios":"levelo://app?vid=72e8dd2b-5f96-4ec8-bae0-11ba5dde49fd"},"vehicle_type_id":"4","last_reported":1753280034,"current_range_meters":20000,"station_id":"ce4bgqh2rcd13ifvqc4g","pricing_plan_id":"cebpf4jnsgd1na2vs0mg"},{"bike_id":"2183c94f-c491-4996-9d50-1551a675fb98","system_id":"levelo_inurba_marseille","lat":43.28604,"lon":5.35093,"is_reserved":false,"is_disabled":false,"rental_uris":{"android":"levelo://app?vid=2183c94f-c491-4996-9d50-1551a675fb98","ios":"levelo://app?vid=2183c94f-c491-4996-9d50-1551a675fb98"},"vehicle_type_id":"4","last_reported":1753280034,"current_range_meters":20000,"station_id":"ce4bhch2rcd13ifvqeug","pricing_plan_id":"cebpf4jnsgd1na2vs0mg"},{"bike_id":"15f81689-88cb-4a47-b51c-ec243c13417f","system_id":"levelo_inurba_marseille","lat":43.28619,"lon":5.35111,"is_reserved":false,"is_disabled":false,"rental_uris":{"android":"levelo://app?vid=15f81689-88cb-4a47-b51c-ec243c13417f","ios":"levelo://app?vid=15f81689-88cb-4a47-b51c-ec243c13417f"},"vehicle_type_id":"4","last_reported":1753280034,"current_range_meters":20000,"station_id":"ce4bhch2rcd13ifvqeug","pricing_plan_id":"cebpf4jnsgd1na2vs0mg"},{"bike_id":"eaea15aa-98ae-4f78-b37a-80e2e4524837","system_id":"levelo_inurba_marseille","lat":43.297916,"lon":5.381026,"is_reserved":false,"is_disabled":false,"rental_uris":{"android":"levelo://app?vid=eaea15aa-98ae-4f78-b37a-80e2e4524837","ios":"levelo://app?vid=eaea15aa-98ae-4f78-b37a-80e2e4524837"},"vehicle_type_id":"4","last_reported":1753280034,"current_range_meters":20000,"station_id":"","pricing_plan_id":"cebpf4jnsgd1na2vs0mg"},{"bike_id":"707e81f4-3710-4b1f-bc6c-737bc026422b","system_id":"levelo_inurba_marseille","lat":43.30326,"lon":5.40437,"is_reserved":false,"is_disabled":false,"rental_uris":{"android":"levelo://app?vid=707e81f4-3710-4b1f-bc6c-737bc026422b","ios":"levelo://app?vid=707e81f4-3710-4b1f-bc6c-737bc026422b"},"vehicle_type_id":"4","last_reported":1753280034,"current_range_meters":19600,"station_id":"ce4bh012rcd13ifvqd10","pricing_plan_id":"cebpf4jnsgd1na2vs0mg"},{"bike_id":"b7dad234-e0b1-49ef-a753-683227550af8","system_id":"levelo_inurba_marseille","lat":43.3092,"lon":5.36855,"is_reserved":false,"is_disabled":false,"rental_uris":{"android":"levelo://app?vid=b7dad234-e0b1-49ef-a753-683227550af8","ios":"levelo://app?vid=b7dad234-e0b1-49ef-a753-683227550af8"},"vehicle_type_id":"4","last_reported":1753280034,"current_range_meters":20000,"station_id":"ce4bgn92rcd13ifvqbvg","pricing_plan_id":"cebpf4jnsgd1na2vs0mg"},{"bike_id":"4805f04c-0b3a-4068-bfe4-a0e6c02c5014","system_id":"levelo_inurba_marseille","lat":43.28694,"lon":5.37395,"is_reserved":false,"is_disabled":false,"rental_uris":{"android":"levelo://app?vid=4805f04c-0b3a-4068-bfe4-a0e6c02c5014","ios":"levelo://app?vid=4805f04c-0b3a-4068-bfe4-a0e6c02c5014"},"vehicle_type_id":"4","last_reported":1753280034,"current_range_meters":20000,"station_id":"ce4bh3p2rcd13ifvqdq0","pricing_plan_id":"cebpf4jnsgd1na2vs0mg"},{"bike_id":"0ec9883b-fe16-4276-a66e-e1cd2ea1df13","system_id":"levelo_inurba_marseille","lat":43.26221,"lon":5.40463,"is_reserved":false,"is_disabled":false,"rental_uris":{"android":"levelo://app?vid=0ec9883b-fe16-4276-a66e-e1cd2ea1df13","ios":"levelo://app?vid=0ec9883b-fe16-4276-a66e-e1cd2ea1df13"},"vehicle_type_id":"4","last_reported":1753280034,"current_range_meters":20000,"station_id":"ce4bhmh2rcd13ifvqgmg","pricing_plan_id":"cebpf4jnsgd1na2vs0mg"},{"bike_id":"f58c4a27-603e-4107-98f2-eb83a8e129fa","system_id":"levelo_inurba_marseille","lat":43.24548,"lon":5.39514,"is_reserved":false,"is_disabled":false,"rental_uris":{"android":"levelo://app?vid=f58c4a27-603e-4107-98f2-eb83a8e129fa","ios":"levelo://app?vid=f58c4a27-603e-4107-98f2-eb83a8e129fa"},"vehicle_type_id":"4","last_reported":1753280034,"current_range_meters":20000,"station_id":"ce4bhlp2rcd13ifvqgjg","pricing_plan_id":"cebpf4jnsgd1na2vs0mg"},{"bike_id":"98926446-80c4-4528-8755-3648798c1d08","system_id":"levelo_inurba_marseille","lat":43.30544,"lon":5.36553,"is_reserved":false,"is_disabled":false,"rental_uris":{"android":"levelo://app?vid=98926446-80c4-4528-8755-3648798c1d08","ios":"levelo://app?vid=98926446-80c4-4528-8755-3648798c1d08"},"vehicle_type_id":"4","last_reported":1753280034,"current_range_meters":20000,"station_id":"ce4bgs12rcd13ifvqcag","pricing_plan_id":"cebpf4jnsgd1na2vs0mg"},{"bike_id":"91ccbd06-e0ef-4e00-b311-26c65b9b8205","system_id":"levelo_inurba_marseille","lat":43.299438,"lon":5.37523,"is_reserved":false,"is_disabled":false,"rental_uris":{"android":"levelo://app?vid=91ccbd06-e0ef-4e00-b311-26c65b9b8205","ios":"levelo://app?vid=91ccbd06-e0ef-4e00-b311-26c65b9b8205"},"vehicle_type_id":"4","last_reported":1753280034,"current_range_meters":20400,"station_id":"ce4bgjh2rcd13ifvqbg0","pricing_plan_id":"cebpf4jnsgd1na2vs0mg"},{"bike_id":"fd6d8be4-d631-4edf-b2b4-b8fb08ce1035","system_id":"levelo_inurba_marseille","lat":43.26785,"lon":5.39413,"is_reserved":false,"is_disabled":false,"rental_uris":{"android":"levelo://app?vid=fd6d8be4-d631-4edf-b2b4-b8fb08ce1035","ios":"levelo://app?vid=fd6d8be4-d631-4edf-b2b4-b8fb08ce1035"},"vehicle_type_id":"4","last_reported":1753280034,"current_range_meters":20400,"station_id":"ce4bhh12rcd13ifvqfg0","pricing_plan_id":"cebpf4jnsgd1na2vs0mg"},{"bike_id":"37e19b11-1a71-4738-911e-0ef1ff0fb1e3","system_id":"levelo_inurba_marseille","lat":43.27907,"lon":5.39588,"is_reserved":false,"is_disabled":false,"rental_uris":{"android":"levelo://app?vid=37e19b11-1a71-4738-911e-0ef1ff0fb1e3","ios":"levelo://app?vid=37e19b11-1a71-4738-911e-0ef1ff0fb1e3"},"vehicle_type_id":"4","last_reported":1753280034,"current_range_meters":20400,"station_id":"ce4bhf92rcd13ifvqf40","pricing_plan_id":"cebpf4jnsgd1na2vs0mg"},{"bike_id":"8de2178d-a046-4698-88c1-346909c576e6","system_id":"levelo_inurba_marseille","lat":43.27049,"lon":5.40274,"is_reserved":false,"is_disabled":false,"rental_uris":{"android":"levelo://app?vid=8de2178d-a046-4698-88c1-346909c576e6","ios":"levelo://app?vid=8de2178d-a046-4698-88c1-346909c576e6"},"vehicle_type_id":"4","last_reported":1753280034,"current_range_meters":20400,"station_id":"ce4bhk92rcd13ifvqgc0","pricing_plan_id":"cebpf4jnsgd1na2vs0mg"},{"bike_id":"5b27c990-58ef-4f9e-9c64-9b9fdc83ba76","system_id":"levelo_inurba_marseille","lat":43.31374,"lon":5.36695,"is_reserved":false,"is_disabled":false,"rental_uris":{"android":"levelo://app?vid=5b27c990-58ef-4f9e-9c64-9b9fdc83ba76","ios":"levelo://app?vid=5b27c990-58ef-4f9e-9c64-9b9fdc83ba76"},"vehicle_type_id":"4","last_reported":1753280034,"current_range_meters":20400,"station_id":"ce4bgr92rcd13ifvqc6g","pricing_plan_id":"cebpf4jnsgd1na2vs0mg"},