{"last_updated":1686423851,"ttl":30,"version":"2.2","data":{"bikes":[{"bike_id":"3a19dcb0-42a8-45c3-bd96-e50ff56ec6b6","system_id":"levelo_inurba_marseille","lat":43.313418,"lon":5.367119,"is_reserved":false,"is_disabled":false,"rental_uris":{"android":"levelo://app?vid=3a19dcb0-42a8-45c3-bd96-e50ff56ec6b6","ios":"levelo://app?vid=3a19dcb0-42a8-45c3-bd96-e50ff56ec6b6"},"vehicle_type_id":"4","last_reported":1686423852,"current_range_meters":11200,"station_id":"ce4bgr92rcd13ifvqc6g","pricing_plan_id":"free"},{"bike_id":"bffe63b7-6d36-42fc-8e4e-50b7e96eabb5","system_id":"levelo_inurba_marseille","lat":43.312239,"lon":5.368562,"is_reserved":false,"is_disabled":false,"rental_uris":{"android":"levelo://app?vid=bffe63b7-6d36-42fc-8e4e-50b7e96eabb5","ios":"levelo://app?vid=bffe63b7-6d36-42fc-8e4e-50b7e96eabb5"},"vehicle_type_id":"4","last_reported":1686423852,"current_range_meters":8400,"station_id":"ce4bgl92rcd13ifvqbq0","pricing_plan_id":"free"},{"bike_id":"e215e44b-264e-4626-ae88-2d3a12aefe09","system_id":"levelo_inurba_marseille","lat":43.309076,"lon":5.368465,"is_reserved":false,"is_disabled":false,"rental_uris":{"android":"levelo://app?vid=e215e44b-264e-4626-ae88-2d3a12aefe09","ios":"levelo://app?vid=e215e44b-264e-4626-ae88-2d3a12aefe09"},"vehicle_type_id":"4","last_reported":1686423852,"current_range_meters":12400,"station_id":"ce4bgn92rcd13ifvqbvg","pricing_plan_id":"free"},{"bike_id":"2e52062e-7458-482f-83d4-00cf96d7471e","system_id":"levelo_inurba_marseille","lat":43.308606,"lon":5.372099,"is_reserved":false,"is_disabled":false,"rental_uris":{"android":"levelo://app?vid=2e52062e-7458-482f-83d4-00cf96d7471e","ios":"levelo://app?vid=2e52062e-7458-482f-83d4-00cf96d7471e"},"vehicle_type_id":"4","last_reported":1686423852,"current_range_meters":18000,"station_id":"ce4bguh2rcd13ifvqckg","pricing_plan_id":"free"},{"bike_id":"2dbc8303-1e1a-4d08-9dee-6babc9247d38","system_id":"levelo_inurba_marseille","lat":43.30692,"lon":5.36608,"is_reserved":false,"is_disabled":false,"rental_uris":{"android":"levelo://app?vid=2dbc8303-1e1a-4d08-9dee-6babc9247d38","ios":"levelo://app?vid=2dbc8303-1e1a-4d08-9dee-6babc9247d38"},"vehicle_type_id":"4","last_reported":1686423852,"current_range_meters":24800,"station_id":"","pricing_plan_id":"free"},{"bike_id":"726e69fe-0789-44cc-8872-aafade0684ce","system_id":"levelo_inurba_marseille","lat":43.306,"lon":5.36574,"is_reserved":false,"is_disabled":false,"rental_uris":{"android":"levelo://app?vid=726e69fe-0789-44cc-8872-aafade0684ce","ios":"levelo://app?vid=726e69fe-0789-44cc-8872-aafade0684ce"},"vehicle_type_id":"4","last_reported":1686423852,"current_range_meters":8400,"station_id":"","pricing_plan_id":"free"},{"bike_id":"f22597cd-eacc-46a1-9c31-fb1b9ddc0e7d","system_id":"levelo_inurba_marseille","lat":43.305706,"lon":5.365654,"is_reserved":false,"is_disabled":false,"rental_uris":{"android":"levelo://app?vid=f22597cd-eacc-46a1-9c31-fb1b9ddc0e7d","ios":"levelo://app?vid=f22597cd-eacc-46a1-9c31-fb1b9ddc0e7d"},"vehicle_type_id":"4","last_reported":1686423852,"current_range_meters":16400,"station_id":"ce4bgs12rcd13ifvqcag","pricing_plan_id":"free"},{"bike_id":"d5e29f0a-85ac-47f6-aba3-37eafd9733d7","system_id":"levelo_inurba_marseille","lat":43.305706,"lon":5.365654,"is_reserved":false,"is_disabled":false,"rental_uris":{"android":"levelo://app?vid=d5e29f0a-85ac-47f6-aba3-37eafd9733d7","ios":"levelo://app?vid=d5e29f0a-85ac-47f6-aba3-37eafd9733d7"},"vehicle_type_id":"4","last_reported":1686423852,"current_range_meters":22800,"station_id":"ce4bgs12rcd13ifvqcag","pricing_plan_id":"free"},{"bike_id":"c1cc527a-24d2-4e3f-b964-d56ec9e47b5f","system_id":"levelo_inurba_marseille","lat":43.305706,"lon":5.365654,"is_reserved":false,"is_disabled":false,"rental_uris":{"android":"levelo://app?vid=c1cc527a-24d2-4e3f-b964-d56ec9e47b5f","ios":"levelo://app?vid=c1cc527a-24d2-4e3f-b964-d56ec9e47b5f"},"vehicle_type_id":"4","last_reported":1686423852,"current_range_meters":27600,"station_id":"ce4bgs12rcd13ifvqcag","pricing_plan_id":"free"},{"bike_id":"58a194a0-eebf-4566-9b02-1bc6d5ff7796","system_id":"levelo_inurba_marseille","lat":43.311098,"lon":5.377612,"is_reserved":false,"is_disabled":false,"rental_uris":{"android":"levelo://app?vid=58a194a0-eebf-4566-9b02-1bc6d5ff7796","ios":"levelo://app?vid=58a194a0-eebf-4566-9b02-1bc6d5ff7796"},"vehicle_type_id":"4","last_reported":1686423852,"current_range_meters":20400,"station_id":"ce4bgt92rcd13ifvqcg0","pricing_plan_id":"free"},{"bike_id":"173d4e72-7fec-4b2d-afca-f9e7487d08b3","system_id":"levelo_inurba_marseille","lat":43.31106,"lon":5.37768,"is_reserved":false,"is_disabled":false,"rental_uris":{"android":"levelo://app?vid=173d4e72-7fec-4b2d-afca-f9e7487d08b3","ios":"levelo://app?vid=173d4e72-7fec-4b2d-afca-f9e7487d08b3"},"vehicle_type_id":"4","last_reported":1686423852,"current_range_meters":22000,"station_id":"ce4bgt92rcd13ifvqcg0","pricing_plan_id":"free"},{"bike_id":"8eca7e10-d6e4-4c71-9168-0a9e8f05aff4","system_id":"levelo_inurba_marseille","lat":43.31083,"lon":5.3799,"is_reserved":false,"is_disabled":false,"rental_uris":{"android":"levelo://app?vid=8eca7e10-d6e4-4c71-9168-0a9e8f05aff4","ios":"levelo://app?vid=8eca7e10-d6e4-4c71-9168-0a9e8f05aff4"},"vehicle_type_id":"4","last_reported":1686423852,"current_range_meters":15600,"station_id":"","pricing_plan_id":"free"},{"bike_id":"efd19717-3bbe-4907-b38b-6194078ed10b","system_id":"levelo_inurba_marseille","lat":43.308012,"lon":5.381511,"is_reserved":false,"is_disabled":false,"rental_uris":{"android":"levelo://app?vid=efd19717-3bbe-4907-b38b-6194078ed10b","ios":"levelo://app?vid=efd19717-3bbe-4907-b38b-6194078ed10b"},"vehicle_type_id":"4","last_reported":1686423852,"current_range_meters":21600,"station_id":"ce4bgt12rcd13ifvqce0","pricing_plan_id":"free"},{"bike_id":"d2e5b3b1-c634-4cbf-a28d-c47ed46287db","system_id":"levelo_inurba_marseille","lat":43.304606,"lon":5.379026,"is_reserved":false,"is_disabled":false,"rental_uris":{"android":"levelo://app?vid=d2e5b3b1-c634-4cbf-a28d-c47ed46287db","ios":"levelo://app?vid=d2e5b3b1-c634-4cbf-a28d-c47ed46287db"},"vehicle_type_id":"4","last_reported":1686423852,"current_range_meters":16400,"station_id":"ce4bgup2rcd13ifvqcn0","pricing_plan_id":"free"},{"bike_id":"69920c32-fff5-4e47-b54c-6493c9cb2318","system_id":"levelo_inurba_marseille","lat":43.3165,"lon":5.38302,"is_reserved":false,"is_disabled":false,"rental_uris":{"android":"levelo://app?vid=69920c32-fff5-4e47-b54c-6493c9cb2318","ios":"levelo://app?vid=69920c32-fff5-4e47-b54c-6493c9cb2318"},"vehicle_type_id":"4","last_reported":1686423852,"current_range_meters":8800,"station_id":"","pricing_plan_id":"free"},{"bike_id":"abf8b7f8-eede-4888-8c03-b3bd14559edb","system_id":"levelo_inurba_marseille","lat":43.30048,"lon":5.37011,"is_reserved":false,"is_disabled":false,"rental_uris":{"android":"levelo://app?vid=abf8b7f8-eede-4888-8c03-b3bd14559edb","ios":"levelo://app?vid=abf8b7f8-eede-4888-8c03-b3bd14559edb"},"vehicle_type_id":"4","last_reported":1686423852,"current_range_meters":28000,"station_id":"","pricing_plan_id":"free"},{"bike_id":"dc74567c-bb79-4144-accd-351a93b6bc41","system_id":"levelo_inurba_marseille","lat":43.319935,"lon":5.381699,"is_reserved":false,"is_disabled":false,"rental_uris":{"android":"levelo://app?vid=dc74567c-bb79-4144-accd-351a93b6bc41","ios":"levelo://app?vid=dc74567c-bb79-4144-accd-351a93b6bc41"},"vehicle_type_id":"4","last_reported":1686423852,"current_range_meters":13600,"station_id":"ce4bhr12rcd13ifvqhpg","pricing_plan_id":"free"},{"bike_id":"39782a65-5fef-478d-aa0d-b96411ca9faf","system_id":"levelo_inurba_marseille","lat":43.319935,"lon":5.381699,"is_reserved":false,"is_disabled":false,"rental_uris":{"android":"levelo://app?vid=39782a65-5fef-478d-aa0d-b96411ca9faf","ios":"levelo://app?vid=39782a65-5fef-478d-aa0d-b96411ca9faf"},"vehicle_type_id":"4","last_reported":1686423852,"current_range_meters":7200,"station_id":"ce4bhr12rcd13ifvqhpg","pricing_plan_id":"free"},{"bike_id":"f51defe9-b59a-4e18-abe6-87180b5d0df8","system_id":"levelo_inurba_marseille","lat":43.319935,"lon":5.381699,"is_reserved":false,"is_disabled":false,"rental_uris":{"android":"levelo://app?vid=f51defe9-b59a-4e18-abe6-87180b5d0df8","ios":"levelo://app?vid=f51defe9-b59a-4e18-abe6-87180b5d0df8"},"vehicle_type_id":"4","last_reported":1686423852,"current_range_meters":17600,"station_id":"ce4bhr12rcd13ifvqhpg","pricing_plan_id":"free"},{"bike_id":"c90509f5-ddb2-4e24-ab51-561ea3c41ea3","system_id":"levelo_inurba_marseille","lat":43.313571,"lon":5.384829,"is_reserved":false,"is_disabled":false,"rental_uris":{"android":"levelo://app?vid=c90509f5-ddb2-4e24-ab51-561ea3c41ea3","ios":"levelo://app?vid=c90509f5-ddb2-4e24-ab51-561ea3c41ea3"},"vehicle_type_id":"4","last_reported":1686423852,"current_range_meters":800,"station_id":"ce4bgt92rcd13ifvqcf0","pricing_plan_id":"free"},{"bike_id":"4dfb364d-7ec9-4633-bc9b-359608613c2c","system_id":"levelo_inurba_marseille","lat":43.313571,"lon":5.384829,"is_reserved":false,"is_disabled":false,"rental_uris":{"android":"levelo://app?vid=4dfb364d-7ec9-4633-bc9b-359608613c2c","ios":"levelo://app?vid=4dfb364d-7ec9-4633-bc9b-359608613c2c"},"vehicle_type_id":"4","last_reported":1686423852,"current_range_meters":16400,"station_id":"ce4bgt92rcd13ifvqcf0","pricing_plan_id":"free"},{"bike_id":"4b12bdb0-06d5-4dad-833d-ea6674b9f6a0","system_id":"levelo_inurba_marseille","lat":43.311722,"lon":5.387247,"is_reserved":false,"is_disabled":false,"rental_uris":{"android":"levelo://app?vid=4b12bdb0-06d5-4dad-833d-ea6674b9f6a0","ios":"levelo://app?vid=4b12bdb0-06d5-4dad-833d-ea6674b9f6a0"},"vehicle_type_id":"4","last_reported":1686423852,"current_range_meters":3600,"station_id":"ce4bgv12rcd13ifvqcp0","pricing_plan_id":"free"},{"bike_id":"c5e76b83-90ff-4348-81ba-476bea719a2b","system_id":"levelo_inurba_marseille","lat":43.311722,"lon":5.387247,"is_reserved":false,"is_disabled":false,"rental_uris":{"android":"levelo://app?vid=c5e76b83-90ff-4348-81ba-476bea719a2b","ios":"levelo://app?vid=c5e76b83-90ff-4348-81ba-476bea719a2b"},"vehicle_type_id":"4","last_reported":1686423852,"current_range_meters":4400,"station_id":"ce4bgv12rcd13ifvqcp0","pricing_plan_id":"free"},{"bike_id":"488397f2-c540-45ef-8842-33a4a513ec97","system_id":"levelo_inurba_marseille","lat":43.29784,"lon":5.37103,"is_reserved":false,"is_disabled":false,"rental_uris":{"android":"levelo://app?vid=488397f2-c540-45ef-8842-33a4a513ec97","ios":"levelo://app?vid=488397f2-c540-45ef-8842-33a4a513ec97"},"vehicle_type_id":"4","last_reported":1686423852,"current_range_meters":24000,"station_id":"ce4bgop2rcd13ifvqc1g","pricing_plan_id":"free"},{"bike_id":"db4101c0-6283-42ee-9567-5c1c08f378dd","system_id":"levelo_inurba_marseille","lat":43.29772,"lon":5.37105,"is_reserved":false,"is_disabled":false,"rental_uris":{"android":"levelo://app?vid=db4101c0-6283-42ee-9567-5c1c08f378dd","ios":"levelo://app?vid=db4101c0-6283-42ee-9567-5c1c08f378dd"},"vehicle_type_id":"4","last_reported":1686423852,"current_range_meters":5600,"station_id":"","pricing_plan_id":"free"},{"bike_id":"41f96b26-c056-4201-bc6e-aa41a9381948","system_id":"levelo_inurba_marseille","lat":43.328371,"lon":5.366909,"is_reserved":false,"is_disabled":false,"rental_uris":{"android":"levelo://app?vid=41f96b26-c056-4201-bc6e-aa41a9381948","ios":"levelo://app?vid=41f96b26-c056-4201-bc6e-aa41a9381948"},"vehicle_type_id":"4","last_reported":1686423852,"current_range_meters":4000,"station_id":"ce4bhs92rcd13ifvqi0g","pricing_plan_id":"free"},{"bike_id":"d2ee4f47-c99d-4207-bf1f-965db1bb1561","system_id":"levelo_inurba_marseille","lat":43.328371,"lon":5.366909,"is_reserved":false,"is_disabled":false,"rental_uris":{"android":"levelo://app?vid=d2ee4f47-c99d-4207-bf1f-965db1bb1561","ios":"levelo://app?vid=d2ee4f47-c99d-4207-bf1f-965db1bb1561"},"vehicle_type_id":"4","last_reported":1686423852,"current_range_meters":12000,"station_id":"ce4bhs92rcd13ifvqi0g","pricing_plan_id":"free"},{"bike_id":"646e9ad8-7b91-4157-a6bc-9b5f2ad20d49","system_id":"levelo_inurba_marseille","lat":43.32835,"lon":5.36678,"is_reserved":false,"is_disabled":false,"rental_uris":{"android":"levelo://app?vid=646e9ad8-7b91-4157-a6bc-9b5f2ad20d49","ios":"levelo://app?vid=646e9ad8-7b91-4157-a6bc-9b5f2ad20d49"},"vehicle_type_id":"4","last_reported":1686423852,"current_range_meters":6400,"station_id":"ce4bhs92rcd13ifvqi0g","pricing_plan_id":"free"},{"bike_id":"782cc86c-d433-4d6f-89c1-548872f65d2d","system_id":"levelo_inurba_marseille","lat":43.32836,"lon":5.36689,"is_reserved":false,"is_disabled":false,"rental_uris":{"android":"levelo://app?vid=782cc86c-d433-4d6f-89c1-548872f65d2d","ios":"levelo://app?vid=782cc86c-d433-4d6f-89c1-548872f65d2d"},"vehicle_type_id":"4","last_reported":1686423852,"current_range_meters":2000,"station_id":"ce4bhs92rcd13ifvqi0g","pricing_plan_id":"free"},{"bike_id":"a171b683-f844-4b6f-8205-0c579bd8e9e8","system_id":"levelo_inurba_marseille","lat":43.32838,"lon":5.36675,"is_reserved":false,"is_disabled":false,"rental_uris":{"android":"levelo://app?vid=a171b683-f844-4b6f-8205-0c579bd8e9e8","ios":"levelo://app?vid=a171b683-f844-4b6f-8205-0c579bd8e9e8"},"vehicle_type_id":"4","last_reported":1686423852,"current_range_meters":30800,"station_id":"ce4bhs92rcd13ifvqi0g","pricing_plan_id":"free"},{"bike_id":"03114c25-71f1-4ffc-b23f-3909ed4d045b","system_id":"levelo_inurba_marseille","lat":43.29709,"lon":5.36616,"is_reserved":false,"is_disabled":false,"rental_uris":{"android":"levelo://app?vid=03114c25-71f1-4ffc-b23f-3909ed4d045b","ios":"levelo://app?vid=03114c25-71f1-4ffc-b23f-3909ed4d045b"},"vehicle_type_id":"4","last_reported":1686423852,"current_range_meters":11600,"station_id":"","pricing_plan_id":"free"},{"bike_id":"584af7db-4fca-41fa-8d7e-f4e2b3b2383b","system_id":"levelo_inurba_marseille","lat":43.296131,"lon":5.370791,"is_reserved":false,"is_disabled":false,"rental_uris":{"android":"levelo://app?vid=584af7db-4fca-41fa-8d7e-f4e2b3b2383b","ios":"levelo://app?vid=584af7db-4fca-41fa-8d7e-f4e2b3b2383b"},"vehicle_type_id":"4","last_reported":1686423852,"current_range_meters":1600,"station_id":"ce4bgnh2rcd13ifvqc0g","pricing_plan_id":"free"},{"bike_id":"b0ade6ad-7180-4b58-8c86-45abe67e372a","system_id":"levelo_inurba_marseille","lat":43.296131,"lon":5.370791,"is_reserved":false,"is_disabled":false,"rental_uris":{"android":"levelo://app?vid=b0ade6ad-7180-4b58-8c86-45abe67e372a","ios":"levelo://app?vid=b0ade6ad-7180-4b58-8c86-45abe67e372a"},"vehicle_type_id":"4","last_reported":1686423852,"current_range_meters":400,"station_id":"ce4bgnh2rcd13ifvqc0g","pricing_plan_id":"free"},{"bike_id":"b27ab9c7-7c35-4613-a006-812b4d1e5d7b","system_id":"levelo_inurba_marseille","lat":43.309589,"lon":5.390258,"is_reserved":false,"is_disabled":false,"rental_uris":{"android":"levelo://app?vid=b27ab9c7-7c35-4613-a006-812b4d1e5d7b","ios":"levelo://app?vid=b27ab9c7-7c35-4613-a006-812b4d1e5d7b"},"vehicle_type_id":"4","last_reported":1686423852,"current_range_meters":10400,"station_id":"ce4bgup2rcd13ifvqco0","pricing_plan_id":"free"},{"bike_id":"86ee615f-9ef0-4320-8f29-51563dcb71d4","system_id":"levelo_inurba_marseille","lat":43.299028,"lon":5.381509,"is_reserved":false,"is_disabled":false,"rental_uris":{"android":"levelo://app?vid=86ee615f-9ef0-4320-8f29-51563dcb71d4","ios":"levelo://app?vid=86ee615f-9ef0-4320-8f29-51563dcb71d4"},"vehicle_type_id":"4","last_reported":1686423852,"current_range_meters":0,"station_id":"ce4bgj12rcd13ifvqbc0","pricing_plan_id":"free"},{"bike_id":"ed572158-2d4b-40f7-9f2f-745fcce79401","system_id":"levelo_inurba_marseille","lat":43.309589,"lon":5.390258,"is_reserved":false,"is_disabled":false,"rental_uris":{"android":"levelo://app?vid=ed572158-2d4b-40f7-9f2f-745fcce79401","ios":"levelo://app?vid=ed572158-2d4b-40f7-9f2f-745fcce79401"},"vehicle_type_id":"4","last_reported":1686423852,"current_range_meters":0,"station_id":"ce4bgup2rcd13ifvqco0","pricing_plan_id":"free"},{"bike_id":"a44c9e75-1e1e-41cf-8c87-e14d3db817f8","system_id":"levelo_inurba_marseille","lat":43.309589,"lon":5.390258,"is_reserved":false,"is_disabled":false,"rental_uris":{"android":"levelo://app?vid=a44c9e75-1e1e-41cf-8c87-e14d3db817f8","ios":"levelo://app?vid=a44c9e75-1e1e-41cf-8c87-e14d3db817f8"},"vehicle_type_id":"4","last_reported":1686423852,"current_range_meters":19600,"station_id":"ce4bgup2rcd13ifvqco0","pricing_plan_id":"free"},{"bike_id":"d54da76d-b6c4-40f5-afdb-aab0b39ed7e1","system_id":"levelo_inurba_marseille","lat":43.30954,"lon":5.39035,"is_reserved":false,"is_disabled":false,"rental_uris":{"android":"levelo://app?vid=d54da76d-b6c4-40f5-afdb-aab0b39ed7e1","ios":"levelo://app?vid=d54da76d-b6c4-40f5-afdb-aab0b39ed7e1"},"vehicle_type_id":"4","last_reported":1686423852,"current_range_meters":5200,"station_id":"ce4bgup2rcd13ifvqco0","pricing_plan_id":"free"},{"bike_id":"4eb0f7d5-e863-4fbe-b11f-543979f6bb3b","system_id":"levelo_inurba_marseille","lat":43.309589,"lon":5.390258,"is_reserved":false,"is_disabled":false,"rental_uris":{"android":"levelo://app?vid=4eb0f7d5-e863-4fbe-b11f-543979f6bb3b","ios":"levelo://app?vid=4eb0f7d5-e863-4fbe-b11f-543979f6bb3b"},"vehicle_type_id":"4","last_reported":1686423852,"current_range_meters":8000,"station_id":"ce4bgup2rcd13ifvqco0","pricing_plan_id":"free"},{"bike_id":"ad2274fa-86eb-47a6-bd0d-b6a003a66f4d","system_id":"levelo_inurba_marseille","lat":43.309589,"lon":5.390258,"is_reserved":false,"is_disabled":false,"rental_uris":{"android":"levelo://app?vid=ad2274fa-86eb-47a6-bd0d-b6a003a66f4d","ios":"levelo://app?vid=ad2274fa-86eb-47a6-bd0d-b6a003a66f4d"},"vehicle_type_id":"4","last_reported":1686423852,"current_range_meters":8800,"station_id":"ce4bgup2rcd13ifvqco0","pricing_plan_id":"free"},{"bike_id":"7b900b32-d732-4ef1-aa1b-3d35f9befa00","system_id":"levelo_inurba_marseille","lat":43.309589,"lon":5.390258,"is_reserved":false,"is_disabled":false,"rental_uris":{"android":"levelo://app?vid=7b900b32-d732-4ef1-aa1b-3d35f9befa00","ios":"levelo://app?vid=7b900b32-d732-4ef1-aa1b-3d35f9befa00"},"vehicle_type_id":"4","last_reported":1686423852,"current_range_meters":3200,"station_id":"ce4bgup2rcd13ifvqco0","pricing_plan_id":"free"},{"bike_id":"6e0cfe31-f7de-4674-b716-7890c354da6f","system_id":"levelo_inurba_marseille","lat":43.31758,"lon":5.39016,"is_reserved":false,"is_disabled":false,"rental_uris":{"android":"levelo://app?vid=6e0cfe31-f7de-4674-b716-7890c354da6f","ios":"levelo://app?vid=6e0cfe31-f7de-4674-b716-7890c354da6f"},"vehicle_type_id":"4","last_reported":1686423852,"current_range_meters":24800,"station_id":"ce4bhqp2rcd13ifvqhng","pricing_plan_id":"free"},{"bike_id":"36f05f42-0d7c-46ae-af57-4fca4b7e6a01","system_id":"levelo_inurba_marseille","lat":43.295748,"lon":5.37522,"is_reserved":false,"is_disabled":false,"rental_uris":{"android":"levelo://app?vid=36f05f42-0d7c-46ae-af57-4fca4b7e6a01","ios":"levelo://app?vid=36f05f42-0d7c-46ae-af57-4fca4b7e6a01"},"vehicle_type_id":"4","last_reported":1686423852,"current_range_meters":1600,"station_id":"ce4bgh92rcd13ifvqb50","pricing_plan_id":"free"},{"bike_id":"a8f8cc3c-2b2d-4bd3-8e4f-9747d496792e","system_id":"levelo_inurba_marseille","lat":43.29549,"lon":5.37519,"is_reserved":false,"is_disabled":false,"rental_uris":{"android":"levelo://app?vid=a8f8cc3c-2b2d-4bd3-8e4f-9747d496792e","ios":"levelo://app?vid=a8f8cc3c-2b2d-4bd3-8e4f-9747d496792e"},"vehicle_type_id":"4","last_reported":1686423852,"current_range_meters":0,"station_id":"ce4bgkp2rcd13ifvqbmg","pricing_plan_id":"free"},{"bike_id":"74a17d1c-f58f-481b-b29c-880e469331b0","system_id":"levelo_inurba_marseille","lat":43.299717,"lon":5.384845,"is_reserved":false,"is_disabled":false,"rental_uris":{"android":"levelo://app?vid=74a17d1c-f58f-481b-b29c-880e469331b0","ios":"levelo://app?vid=74a17d1c-f58f-481b-b29c-880e469331b0"},"vehicle_type_id":"4","last_reported":1686423852,"current_range_meters":19600,"station_id":"ce4bgj92rcd13ifvqbd0","pricing_plan_id":"free"},{"bike_id":"1207b762-7c9a-4420-8e09-df431873d737","system_id":"levelo_inurba_marseille","lat":43.29533,"lon":5.37574,"is_reserved":false,"is_disabled":false,"rental_uris":{"android":"levelo://app?vid=1207b762-7c9a-4420-8e09-df431873d737","ios":"levelo://app?vid=1207b762-7c9a-4420-8e09-df431873d737"},"vehicle_type_id":"4","last_reported":1686423852,"current_range_meters":0,"station_id":"","pricing_plan_id":"free"},{"bike_id":"12a9cd77-87f2-467d-a292-41b2c8e1f05a","system_id":"levelo_inurba_marseille","lat":43.29443,"lon":5.37434,"is_reserved":false,"is_disabled":false,"rental_uris":{"android":"levelo://app?vid=12a9cd77-87f2-467d-a292-41b2c8e1f05a","ios":"levelo://app?vid=12a9cd77-87f2-467d-a292-41b2c8e1f05a"},"vehicle_type_id":"4","last_reported":1686423852,"current_range_meters":12000,"station_id":"","pricing_plan_id":"free"},{"bike_id":"f03c7781-c54f-438e-8de1-313427dd27bd","system_id":"levelo_inurba_marseille","lat":43.32367,"lon":5.388836,"is_reserved":false,"is_disabled":false,"rental_uris":{"android":"levelo://app?vid=f03c7781-c54f-438e-8de1-313427dd27bd","ios":"levelo://app?vid=f03c7781-c54f-438e-8de1-313427dd27bd"},"vehicle_type_id":"4","last_reported":1686423852,"current_range_meters":9200,"station_id":"ce4bhqp2rcd13ifvqhog","pricing_plan_id":"free"},{"bike_id":"209a6312-0975-4191-a495-37697793a203","system_id":"levelo_inurba_marseille","lat":43.32368,"lon":5.38882,"is_reserved":false,"is_disabled":false,"rental_uris":{"android":"levelo://app?vid=209a6312-0975-4191-a495-37697793a203","ios":"levelo://app?vid=209a6312-0975-4191-a495-37697793a203"},"vehicle_type_id":"4","last_reported":1686423852,"current_range_meters":2800,"station_id":"ce4bhqp2rcd13ifvqhog","pricing_plan_id":"free"},{"bike_id":"dd66a00a-ae87-4f13-8320-0f02c4972732","system_id":"levelo_inurba_marseille","lat":43.323663,"lon":5.388856,"is_reserved":false,"is_disabled":false,"rental_uris":{"android":"levelo://app?vid=dd66a00a-ae87-4f13-8320-0f02c4972732","ios":"levelo://app?vid=dd66a00a-ae87-4f13-8320-0f02c4972732"},"vehicle_type_id":"4","last_reported":1686423852,"current_range_meters":15600,"station_id":"ce4bhqp2rcd13ifvqhog","pricing_plan_id":"free"},{"bike_id":"ebd81fcf-2a05-4ca8-ae43-6f1fcefc7eae","system_id":"levelo_inurba_marseille","lat":43.32368,"lon":5.38886,"is_reserved":false,"is_disabled":false,"rental_uris":{"android":"levelo://app?vid=ebd81fcf-2a05-4ca8-ae43-6f1fcefc7eae","ios":"levelo://app?vid=ebd81fcf-2a05-4ca8-ae43-6f1fcefc7eae"},"vehicle_type_id":"4","last_reported":1686423852,"current_range_meters":6400,"station_id":"ce4bhqp2rcd13ifvqhog","pricing_plan_id":"free"},{"bike_id":"dd7da545-0b52-4722-931b-432969a46aae","system_id":"levelo_inurba_marseille","lat":43.29601,"lon":5.381084,"is_reserved":false,"is_disabled":false,"rental_uris":{"android":"levelo://app?vid=dd7da545-0b52-4722-931b-432969a46aae","ios":"levelo://app?vid=dd7da545-0b52-4722-931b-432969a46aae"},"vehicle_type_id":"4","last_reported":1686423852,"current_range_meters":23600,"station_id":"ce4bgl12rcd13ifvqbo0","pricing_plan_id":"free"},{"bike_id":"54a89a10-15ce-41ae-9001-b87ad1ac4912","system_id":"levelo_inurba_marseille","lat":43.29602,"lon":5.381084,"is_reserved":false,"is_disabled":false,"rental_uris":{"android":"levelo://app?vid=54a89a10-15ce-41ae-9001-b87ad1ac4912","ios":"levelo://app?vid=54a89a10-15ce-41ae-9001-b87ad1ac4912"},"vehicle_type_id":"4","last_reported":1686423852,"current_range_meters":12000,"station_id":"ce4bgl12rcd13ifvqbo0","pricing_plan_id":"free"},{"bike_id":"99c7088f-9cb7-40bd-ab24-e622c8c54731","system_id":"levelo_inurba_marseille","lat":43.29281,"lon":5.36842,"is_reserved":false,"is_disabled":false,"rental_uris":{"android":"levelo://app?vid=99c7088f-9cb7-40bd-ab24-e622c8c54731","ios":"levelo://app?vid=99c7088f-9cb7-40bd-ab24-e622c8c54731"},"vehicle_type_id":"4","last_reported":1686423852,"current_range_meters":31200,"station_id":"ce4bhbp2rcd13ifvqesg","pricing_plan_id":"free"},{"bike_id":"6cdc5f13-c635-4c58-8bc2-3489ff0a17d7","system_id":"levelo_inurba_marseille","lat":43.305989,"lon":5.37225,"is_reserved":false,"is_disabled":false,"rental_uris":{"android":"levelo://app?vid=6cdc5f13-c635-4c58-8bc2-3489ff0a17d7","ios":"levelo://app?vid=6cdc5f13-c635-4c58-8bc2-3489ff0a17d7"},"vehicle_type_id":"4","last_reported":1686423852,"current_range_meters":19600,"station_id":"ce4bgqh2rcd13ifvqc4g","pricing_plan_id":"free"},{"bike_id":"6ecf436a-f22d-4fc3-965b-f7c80ee4cd74","system_id":"levelo_inurba_marseille","lat":43.29302,"lon":5.37164,"is_reserved":false,"is_disabled":false,"rental_uris":{"android":"levelo://app?vid=6ecf436a-f22d-4fc3-965b-f7c80ee4cd74","ios":"levelo://app?vid=6ecf436a-f22d-4fc3-965b-f7c80ee4cd74"},"vehicle_type_id":"4","last_reported":1686423852,"current_range_meters":3600,"station_id":"ce4bgh92rcd13ifvqb40","pricing_plan_id":"free"},{"bike_id":"206d9ead-224b-4c10-90d1-929e84d5fbfd","system_id":"levelo_inurba_marseille","lat":43.29274,"lon":5.36841,"is_reserved":false,"is_disabled":false,"rental_uris":{"android":"levelo://app?vid=206d9ead-224b-4c10-90d1-929e84d5fbfd","ios":"levelo://app?vid=206d9ead-224b-4c10-90d1-929e84d5fbfd"},"vehicle_type_id":"4","last_reported":1686423852,"current_range_meters":31200,"station_id":"ce4bhbp2rcd13ifvqesg","pricing_plan_id":"free"},{"bike_id":"b922fd78-e282-4dd4-bfd1-2808861602bd","system_id":"levelo_inurba_marseille","lat":43.29271,"lon":5.36839,"is_reserved":false,"is_disabled":false,"rental_uris":{"android":"levelo://app?vid=b922fd78-e282-4dd4-bfd1-2808861602bd","ios":"levelo://app?vid=b922fd78-e282-4dd4-bfd1-2808861602bd"},"vehicle_type_id":"4","last_reported":1686423852,"current_range_meters":5600,"station_id":"ce4bhbp2rcd13ifvqesg","pricing_plan_id":"free"},{"bike_id":"cb5d08f7-944b-4681-afaf-2d6958701417","system_id":"levelo_inurba_marseille","lat":43.29303,"lon":5.3746,"is_reserved":false,"is_disabled":false,"rental_uris":{"android":"levelo://app?vid=cb5d08f7-944b-4681-afaf-2d6958701417","ios":"levelo://app?vid=cb5d08f7-944b-4681-afaf-2d6958701417"},"vehicle_type_id":"4","last_reported":1686423852,"current_range_meters":23600,"station_id":"ce4bgi12rcd13ifvqb70","pricing_plan_id":"free"},{"bike_id":"5a7ba1aa-9d5e-4c47-b94d-4c29cbcc0d4b","system_id":"levelo_inurba_marseille","lat":43.305994,"lon":5.393687,"is_reserved":false,"is_disabled":false,"rental_uris":{"android":"levelo://app?vid=5a7ba1aa-9d5e-4c47-b94d-4c29cbcc0d4b","ios":"levelo://app?vid=5a7ba1aa-9d5e-4c47-b94d-4c29cbcc0d4b"},"vehicle_type_id":"4","last_reported":1686423852,"current_range_meters":28800,"station_id":"ce4bh0p2rcd13ifvqd80","pricing_plan_id":"free"},{"bike_id":"9ae0bfaf-45d4-4873-8035-eaee28a881eb","system_id":"levelo_inurba_marseille","lat":43.293009,"lon":5.374584,"is_reserved":false,"is_disabled":false,"rental_uris":{"android":"levelo://app?vid=9ae0bfaf-45d4-4873-8035-eaee28a881eb","ios":"levelo://app?vid=9ae0bfaf-45d4-4873-8035-eaee28a881eb"},"vehicle_type_id":"4","last_reported":1686423852,"current_range_meters":0,"station_id":"ce4bgi12rcd13ifvqb70","pricing_plan_id":"free"},{"bike_id":"0a2419dc-b0bc-4812-8843-e77c17c6b6d0","system_id":"levelo_inurba_marseille","lat":43.293009,"lon":5.374584,"is_reserved":false,"is_disabled":false,"rental_uris":{"android":"levelo://app?vid=0a2419dc-b0bc-4812-8843-e77c17c6b6d0","ios":"levelo://app?vid=0a2419dc-b0bc-4812-8843-e77c17c6b6d0"},"vehicle_type_id":"4","last_reported":1686423852,"current_range_meters":27600,"station_id":"ce4bgi12rcd13ifvqb70","pricing_plan_id":"free"},{"bike_id":"61e4ccfd-dc98-4837-8123-2dfa5e087f42","system_id":"levelo_inurba_marseille","lat":43.293723,"lon":5.378443,"is_reserved":false,"is_disabled":false,"rental_uris":{"android":"levelo://app?vid=61e4ccfd-dc98-4837-8123-2dfa5e087f42","ios":"levelo://app?vid=61e4ccfd-dc98-4837-8123-2dfa5e087f42"},"vehicle_type_id":"4","last_reported":1686423852,"current_range_meters":2800,"station_id":"","pricing_plan_id":"free"},{"bike_id":"9572ffb6-842c-4682-9968-400ef3a344dd","system_id":"levelo_inurba_marseille","lat":43.30297,"lon":5.39216,"is_reserved":false,"is_disabled":false,"rental_uris":{"android":"levelo://app?vid=9572ffb6-842c-4682-9968-400ef3a344dd","ios":"levelo://app?vid=9572ffb6-842c-4682-9968-400ef3a344dd"},"vehicle_type_id":"4","last_reported":1686423852,"current_range_meters":0,"station_id":"ce4bgkh2rcd13ifvqbk0","pricing_plan_id":"free"},{"bike_id":"abfa87a3-5fe9-48bf-bbaf-7e1b0c2481f7","system_id":"levelo_inurba_marseille","lat":43.2936,"lon":5.37835,"is_reserved":false,"is_disabled":false,"rental_uris":{"android":"levelo://app?vid=abfa87a3-5fe9-48bf-bbaf-7e1b0c2481f7","ios":"levelo://app?vid=abfa87a3-5fe9-48bf-bbaf-7e1b0c2481f7"},"vehicle_type_id":"4","last_reported":1686423852,"current_range_meters":800,"station_id":"ce4bgjh2rcd13ifvqbf0","pricing_plan_id":"free"},{"bike_id":"0fa56233-9e42-40e9-a322-e9d8849c9dca","system_id":"levelo_inurba_marseille","lat":43.30085,"lon":5.390856,"is_reserved":false,"is_disabled":false,"rental_uris":{"android":"levelo://app?vid=0fa56233-9e42-40e9-a322-e9d8849c9dca","ios":"levelo://app?vid=0fa56233-9e42-40e9-a322-e9d8849c9dca"},"vehicle_type_id":"4","last_reported":1686423852,"current_range_meters":8800,"station_id":"ce4bh192rcd13ifvqdb0","pricing_plan_id":"free"},{"bike_id":"51c57ed1-b4aa-4013-afc7-472ede136a32","system_id":"levelo_inurba_marseille","lat":43.300852,"lon":5.390859,"is_reserved":false,"is_disabled":false,"rental_uris":{"android":"levelo://app?vid=51c57ed1-b4aa-4013-afc7-472ede136a32","ios":"levelo://app?vid=51c57ed1-b4aa-4013-afc7-472ede136a32"},"vehicle_type_id":"4","last_reported":1686423852,"current_range_meters":13600,"station_id":"ce4bh192rcd13ifvqdb0","pricing_plan_id":"free"},{"bike_id":"da18d172-afc3-458c-ace5-86828bf8296b","system_id":"levelo_inurba_marseille","lat":43.291768,"lon":5.371482,"is_reserved":false,"is_disabled":false,"rental_uris":{"android":"levelo://app?vid=da18d172-afc3-458c-ace5-86828bf8296b","ios":"levelo://app?vid=da18d172-afc3-458c-ace5-86828bf8296b"},"vehicle_type_id":"4","last_reported":1686423852,"current_range_meters":4400,"station_id":"","pricing_plan_id":"free"},{"bike_id":"0d7c4552-8ef1-4710-8da4-c5de9c9edc7e","system_id":"levelo_inurba_marseille","lat":43.298764,"lon":5.388973,"is_reserved":false,"is_disabled":false,"rental_uris":{"android":"levelo://app?vid=0d7c4552-8ef1-4710-8da4-c5de9c9edc7e","ios":"levelo://app?vid=0d7c4552-8ef1-4710-8da4-c5de9c9edc7e"},"vehicle_type_id":"4","last_reported":1686423852,"current_range_meters":0,"station_id":"ce4bh392rcd13ifvqdl0","pricing_plan_id":"free"},{"bike_id":"84a287ce-171f-441f-b90b-86d21dbee805","system_id":"levelo_inurba_marseille","lat":43.291895,"lon":5.358015,"is_reserved":false,"is_disabled":false,"rental_uris":{"android":"levelo://app?vid=84a287ce-171f-441f-b90b-86d21dbee805","ios":"levelo://app?vid=84a287ce-171f-441f-b90b-86d21dbee805"},"vehicle_type_id":"4","last_reported":1686423852,"current_range_meters":0,"station_id":"ce4bhb12rcd13ifvqel0","pricing_plan_id":"free"},{"bike_id":"e8e01796-449b-44d6-9d03-59ca63ef3941","system_id":"levelo_inurba_marseille","lat":43.31323,"lon":5.39694,"is_reserved":false,"is_disabled":false,"rental_uris":{"android":"levelo://app?vid=e8e01796-449b-44d6-9d03-59ca63ef3941","ios":"levelo://app?vid=e8e01796-449b-44d6-9d03-59ca63ef3941"},"vehicle_type_id":"4","last_reported":1686423852,"current_range_meters":16800,"station_id":"ce4bgvp2rcd13ifvqcu0","pricing_plan_id":"free"},{"bike_id":"319421d1-0a77-46da-b134-bba23cabe2b6","system_id":"levelo_inurba_marseille","lat":43.3136,"lon":5.39698,"is_reserved":false,"is_disabled":false,"rental_uris":{"android":"levelo://app?vid=319421d1-0a77-46da-b134-bba23cabe2b6","ios":"levelo://app?vid=319421d1-0a77-46da-b134-bba23cabe2b6"},"vehicle_type_id":"4","last_reported":1686423852,"current_range_meters":3200,"station_id":"","pricing_plan_id":"free"},{"bike_id":"a922a9f5-fea5-49ff-ac01-d12f16622f4e","system_id":"levelo_inurba_marseille","lat":43.31396,"lon":5.39711,"is_reserved":false,"is_disabled":false,"rental_uris":{"android":"levelo://app?vid=a922a9f5-fea5-49ff-ac01-d12f16622f4e","ios":"levelo://app?vid=a922a9f5-fea5-49ff-ac01-d12f16622f4e"},"vehicle_type_id":"4","last_reported":1686423852,"current_range_meters":20000,"station_id":"","pricing_plan_id":"free"},{"bike_id":"5d7be027-e358-456d-864b-39e3b654891c","system_id":"levelo_inurba_marseille","lat":43.29528,"lon":5.38545,"is_reserved":false,"is_disabled":false,"rental_uris":{"android":"levelo://app?vid=5d7be027-e358-456d-864b-39e3b654891c","ios":"levelo://app?vid=5d7be027-e358-456d-864b-39e3b654891c"},"vehicle_type_id":"4","last_reported":1686423852,"current_range_meters":5600,"station_id":"ce4bgih2rcd13ifvqba0","pricing_plan_id":"free"},{"bike_id":"7598fb1b-3a58-472c-b703-8dce10561168","system_id":"levelo_inurba_marseille","lat":43.2907,"lon":5.37181,"is_reserved":false,"is_disabled":false,"rental_uris":{"android":"levelo://app?vid=7598fb1b-3a58-472c-b703-8dce10561168","ios":"levelo://app?vid=7598fb1b-3a58-472c-b703-8dce10561168"},"vehicle_type_id":"4","last_reported":1686423852,"current_range_meters":11600,"station_id":"","pricing_plan_id":"free"},{"bike_id":"a25de212-34b9-4460-b8e0-fa37ff5f64ea","system_id":"levelo_inurba_marseille","lat":43.290779,"lon":5.371482,"is_reserved":false,"is_disabled":false,"rental_uris":{"android":"levelo://app?vid=a25de212-34b9-4460-b8e0-fa37ff5f64ea","ios":"levelo://app?vid=a25de212-34b9-4460-b8e0-fa37ff5f64ea"},"vehicle_type_id":"4","last_reported":1686423852,"current_range_meters":19600,"station_id":"ce4bh5p2rcd13ifvqe4g","pricing_plan_id":"free"},{"bike_id":"e122b415-448b-4675-aa31-50131d7c3444","system_id":"levelo_inurba_marseille","lat":43.294162,"lon":5.386292,"is_reserved":false,"is_disabled":false,"rental_uris":{"android":"levelo://app?vid=e122b415-448b-4675-aa31-50131d7c3444","ios":"levelo://app?vid=e122b415-448b-4675-aa31-50131d7c3444"},"vehicle_type_id":"4","last_reported":1686423852,"current_range_meters":6800,"station_id":"ce4bh2h2rcd13ifvqdh0","pricing_plan_id":"free"},{"bike_id":"22605f2b-2f75-4c43-bb52-77707a9c47a8","system_id":"levelo_inurba_marseille","lat":43.29413,"lon":5.38626,"is_reserved":false,"is_disabled":false,"rental_uris":{"android":"levelo://app?vid=22605f2b-2f75-4c43-bb52-77707a9c47a8","ios":"levelo://app?vid=22605f2b-2f75-4c43-bb52-77707a9c47a8"},"vehicle_type_id":"4","last_reported":1686423852,"current_range_meters":0,"station_id":"ce4bh2h2rcd13ifvqdh0","pricing_plan_id":"free"},{"bike_id":"2eb1e3ee-7640-43c1-a2c7-ccf9c3f5001b","system_id":"levelo_inurba_marseille","lat":43.292644,"lon":5.384257,"is_reserved":false,"is_disabled":false,"rental_uris":{"android":"levelo://app?vid=2eb1e3ee-7640-43c1-a2c7-ccf9c3f5001b","ios":"levelo://app?vid=2eb1e3ee-7640-43c1-a2c7-ccf9c3f5001b"},"vehicle_type_id":"4","last_reported":1686423852,"current_range_meters":14800,"station_id":"ce4bh692rcd13ifvqea0","pricing_plan_id":"free"},{"bike_id":"bb4306a9-46b9-4cf6-bc19-0ab33b70139c","system_id":"levelo_inurba_marseille","lat":43.304274,"lon":5.397513,"is_reserved":false,"is_disabled":false,"rental_uris":{"android":"levelo://app?vid=bb4306a9-46b9-4cf6-bc19-0ab33b70139c","ios":"levelo://app?vid=bb4306a9-46b9-4cf6-bc19-0ab33b70139c"},"vehicle_type_id":"4","last_reported":1686423852,"current_range_meters":16800,"station_id":"ce4bh092rcd13ifvqd20","pricing_plan_id":"free"},{"bike_id":"e5a163b4-6215-4180-9f2d-2ebdf7767853","system_id":"levelo_inurba_marseille","lat":43.292644,"lon":5.384257,"is_reserved":false,"is_disabled":false,"rental_uris":{"android":"levelo://app?vid=e5a163b4-6215-4180-9f2d-2ebdf7767853","ios":"levelo://app?vid=e5a163b4-6215-4180-9f2d-2ebdf7767853"},"vehicle_type_id":"4","last_reported":1686423852,"current_range_meters":19200,"station_id":"ce4bh692rcd13ifvqea0","pricing_plan_id":"free"},{"bike_id":"abd414b2-ea88-4c0e-aa67-573d6f0096e3","system_id":"levelo_inurba_marseille","lat":43.292644,"lon":5.384257,"is_reserved":false,"is_disabled":false,"rental_uris":{"android":"levelo://app?vid=abd414b2-ea88-4c0e-aa67-573d6f0096e3","ios":"levelo://app?vid=abd414b2-ea88-4c0e-aa67-573d6f0096e3"},"vehicle_type_id":"4","last_reported":1686423852,"current_range_meters":12400,"station_id":"ce4bh692rcd13ifvqea0","pricing_plan_id":"free"},{"bike_id":"44e9824c-efc3-4824-80cd-a2f117b89396","system_id":"levelo_inurba_marseille","lat":43.292642,"lon":5.384254,"is_reserved":false,"is_disabled":false,"rental_uris":{"android":"levelo://app?vid=44e9824c-efc3-4824-80cd-a2f117b89396","ios":"levelo://app?vid=44e9824c-efc3-4824-80cd-a2f117b89396"},"vehicle_type_id":"4","last_reported":1686423852,"current_range_meters":22400,"station_id":"ce4bh692rcd13ifvqea0","pricing_plan_id":"free"},{"bike_id":"eebb0572-4916-4105-a791-7d74572be411","system_id":"levelo_inurba_marseille","lat":43.290103,"lon":5.356114,"is_reserved":false,"is_disabled":false,"rental_uris":{"android":"levelo://app?vid=eebb0572-4916-4105-a791-7d74572be411","ios":"levelo://app?vid=eebb0572-4916-4105-a791-7d74572be411"},"vehicle_type_id":"4","last_reported":1686423852,"current_range_meters":4400,"station_id":"ce4bhb92rcd13ifvqen0","pricing_plan_id":"free"},{"bike_id":"8d43e900-1015-44cb-90a4-a054fe93b4ba","system_id":"levelo_inurba_marseille","lat":43.29095,"lon":5.38113,"is_reserved":false,"is_disabled":false,"rental_uris":{"android":"levelo://app?vid=8d43e900-1015-44cb-90a4-a054fe93b4ba","ios":"levelo://app?vid=8d43e900-1015-44cb-90a4-a054fe93b4ba"},"vehicle_type_id":"4","last_reported":1686423852,"current_range_meters":0,"station_id":"ce4bh512rcd13ifvqe2g","pricing_plan_id":"free"},{"bike_id":"87c70246-1ad2-40ae-8ca5-4a04c8cdfd47","system_id":"levelo_inurba_marseille","lat":43.29114,"lon":5.38219,"is_reserved":false,"is_disabled":false,"rental_uris":{"android":"levelo://app?vid=87c70246-1ad2-40ae-8ca5-4a04c8cdfd47","ios":"levelo://app?vid=87c70246-1ad2-40ae-8ca5-4a04c8cdfd47"},"vehicle_type_id":"4","last_reported":1686423852,"current_range_meters":4000,"station_id":"","pricing_plan_id":"free"},{"bike_id":"f061ee55-42a7-47bb-8fae-dcc4cd1c58d3","system_id":"levelo_inurba_marseille","lat":43.290995,"lon":5.381361,"is_reserved":false,"is_disabled":false,"rental_uris":{"android":"levelo://app?vid=f061ee55-42a7-47bb-8fae-dcc4cd1c58d3","ios":"levelo://app?vid=f061ee55-42a7-47bb-8fae-dcc4cd1c58d3"},"vehicle_type_id":"4","last_reported":1686423852,"current_range_meters":4400,"station_id":"ce4bh512rcd13ifvqe2g","pricing_plan_id":"free"},{"bike_id":"cbd81082-e87f-464e-8403-56f257ffbe78","system_id":"levelo_inurba_marseille","lat":43.297814,"lon":5.393513,"is_reserved":false,"is_disabled":false,"rental_uris":{"android":"levelo://app?vid=cbd81082-e87f-464e-8403-56f257ffbe78","ios":"levelo://app?vid=cbd81082-e87f-464e-8403-56f257ffbe78"},"vehicle_type_id":"4","last_reported":1686423852,"current_range_meters":22400,"station_id":"chh1huq6cuj3fo74tm60","pricing_plan_id":"free"},{"bike_id":"d1e79c47-88c0-41ec-bfd8-d2ccd28a6cf0","system_id":"levelo_inurba_marseille","lat":43.33743,"lon":5.37458,"is_reserved":false,"is_disabled":false,"rental_uris":{"android":"levelo://app?vid=d1e79c47-88c0-41ec-bfd8-d2ccd28a6cf0","ios":"levelo://app?vid=d1e79c47-88c0-41ec-bfd8-d2ccd28a6cf0"},"vehicle_type_id":"4","last_reported":1686423852,"current_range_meters":30400,"station_id":"","pricing_plan_id":"free"},{"bike_id":"265c0905-166c-408b-8d33-95a8e86424e1","system_id":"levelo_inurba_marseille","lat":43.337582,"lon":5.374483,"is_reserved":false,"is_disabled":false,"rental_uris":{"android":"levelo://app?vid=265c0905-166c-408b-8d33-95a8e86424e1","ios":"levelo://app?vid=265c0905-166c-408b-8d33-95a8e86424e1"},"vehicle_type_id":"4","last_reported":1686423852,"current_range_meters":15200,"station_id":"","pricing_plan_id":"free"},{"bike_id":"fb041ec1-b611-46eb-9d8b-3229cfb3396a","system_id":"levelo_inurba_marseille","lat":43.33768,"lon":5.37459,"is_reserved":false,"is_disabled":false,"rental_uris":{"android":"levelo://app?vid=fb041ec1-b611-46eb-9d8b-3229cfb3396a","ios":"levelo://app?vid=fb041ec1-b611-46eb-9d8b-3229cfb3396a"},"vehicle_type_id":"4","last_reported":1686423852,"current_range_meters":22400,"station_id":"","pricing_plan_id":"free"},{"bike_id":"b0f778f4-aaef-4619-aa22-c6a03aa42b25","system_id":"levelo_inurba_marseille","lat":43.306412,"lon":5.401035,"is_reserved":false,"is_disabled":false,"rental_uris":{"android":"levelo://app?vid=b0f778f4-aaef-4619-aa22-c6a03aa42b25","ios":"levelo://app?vid=b0f778f4-aaef-4619-aa22-c6a03aa42b25"},"vehicle_type_id":"4","last_reported":1686423852,"current_range_meters":16000,"station_id":"ce4bh112rcd13ifvqda0","pricing_plan_id":"free"},{"bike_id":"7f61c605-f83d-491f-9eed-9c8e2892fd39","system_id":"levelo_inurba_marseille","lat":43.28818,"lon":5.35267,"is_reserved":false,"is_disabled":false,"rental_uris":{"android":"levelo://app?vid=7f61c605-f83d-491f-9eed-9c8e2892fd39","ios":"levelo://app?vid=7f61c605-f83d-491f-9eed-9c8e2892fd39"},"vehicle_type_id":"4","last_reported":1686423852,"current_range_meters":31200,"station_id":"","pricing_plan_id":"free"},{"bike_id":"298a9eec-a3cf-43bc-9625-b46f1c0d13bf","system_id":"levelo_inurba_marseille","lat":43.286039,"lon":5.370679,"is_reserved":false,"is_disabled":false,"rental_uris":{"android":"levelo://app?vid=298a9eec-a3cf-43bc-9625-b46f1c0d13bf","ios":"levelo://app?vid=298a9eec-a3cf-43bc-9625-b46f1c0d13bf"},"vehicle_type_id":"4","last_reported":1686423852,"current_range_meters":6000,"station_id":"ce4bht12rcd13ifvqi60","pricing_plan_id":"free"},{"bike_id":"f4706918-d0ae-4d27-8d7e-838fd41faed6","system_id":"levelo_inurba_marseille","lat":43.286039,"lon":5.370681,"is_reserved":false,"is_disabled":false,"rental_uris":{"android":"levelo://app?vid=f4706918-d0ae-4d27-8d7e-838fd41faed6","ios":"levelo://app?vid=f4706918-d0ae-4d27-8d7e-838fd41faed6"},"vehicle_type_id":"4","last_reported":1686423852,"current_range_meters":800,"station_id":"ce4bht12rcd13ifvqi60","pricing_plan_id":"free"},{"bike_id":"75f541cb-b70d-431f-a3c2-0c55e5e8a816","system_id":"levelo_inurba_marseille","lat":43.286039,"lon":5.370681,"is_reserved":false,"is_disabled":false,"rental_uris":{"android":"levelo://app?vid=75f541cb-b70d-431f-a3c2-0c55e5e8a816","ios":"levelo://app?vid=75f541cb-b70d-431f-a3c2-0c55e5e8a816"},"vehicle_type_id":"4","last_reported":1686423852,"current_range_meters":800,"station_id":"ce4bht12rcd13ifvqi60","pricing_plan_id":"free"},{"bike_id":"29c7914f-ddc1-47a1-876d-7a347a8d15f9","system_id":"levelo_inurba_marseille","lat":43.287184,"lon":5.37937,"is_reserved":false,"is_disabled":false,"rental_uris":{"android":"levelo://app?vid=29c7914f-ddc1-47a1-876d-7a347a8d15f9","ios":"levelo://app?vid=29c7914f-ddc1-47a1-876d-7a347a8d15f9"},"vehicle_type_id":"4","last_reported":1686423852,"current_range_meters":4800,"station_id":"ce4bh9p2rcd13ifvqec0","pricing_plan_id":"free"},{"bike_id":"bce023e3-9324-413e-a43e-56fea62db776","system_id":"levelo_inurba_marseille","lat":43.28714,"lon":5.37937,"is_reserved":false,"is_disabled":false,"rental_uris":{"android":"levelo://app?vid=bce023e3-9324-413e-a43e-56fea62db776","ios":"levelo://app?vid=bce023e3-9324-413e-a43e-56fea62db776"},"vehicle_type_id":"4","last_reported":1686423852,"current_range_meters":0,"station_id":"ce4bh9p2rcd13ifvqec0","pricing_plan_id":"free"},{"bike_id":"838eb03d-633b-4303-8304-5311345a60ba","system_id":"levelo_inurba_marseille","lat":43.287184,"lon":5.37937,"is_reserved":false,"is_disabled":false,"rental_uris":{"android":"levelo://app?vid=838eb03d-633b-4303-8304-5311345a60ba","ios":"levelo://app?vid=838eb03d-633b-4303-8304-5311345a60ba"},"vehicle_type_id":"4","last_reported":1686423852,"current_range_meters":0,"station_id":"ce4bh9p2rcd13ifvqec0","pricing_plan_id":"free"},{"bike_id":"eac956d3-27c7-4839-850b-2a4721cfca55","system_id":"levelo_inurba_marseille","lat":43.287184,"lon":5.37937,"is_reserved":false,"is_disabled":false,"rental_uris":{"android":"levelo://app?vid=eac956d3-27c7-4839-850b-2a4721cfca55","ios":"levelo://app?vid=eac956d3-27c7-4839-850b-2a4721cfca55"},"vehicle_type_id":"4","last_reported":1686423852,"current_range_meters":0,"station_id":"ce4bh9p2rcd13ifvqec0","pricing_plan_id":"free"},{"bike_id":"da997cb8-a410-40cc-b0d4-1edaa002a167","system_id":"levelo_inurba_marseille","lat":43.291994,"lon":5.392907,"is_reserved":false,"is_disabled":false,"rental_uris":{"android":"levelo://app?vid=da997cb8-a410-40cc-b0d4-1edaa002a167","ios":"levelo://app?vid=da997cb8-a410-40cc-b0d4-1edaa002a167"},"vehicle_type_id":"4","last_reported":1686423852,"current_range_meters":20000,"station_id":"ce4bh192rcd13ifvqdd0","pricing_plan_id":"free"},{"bike_id":"5f98b069-5ffd-4a09-bd92-fdbc60bc7fcb","system_id":"levelo_inurba_marseille","lat":43.2862,"lon":5.35111,"is_reserved":false,"is_disabled":false,"rental_uris":{"android":"levelo://app?vid=5f98b069-5ffd-4a09-bd92-fdbc60bc7fcb","ios":"levelo://app?vid=5f98b069-5ffd-4a09-bd92-fdbc60bc7fcb"},"vehicle_type_id":"4","last_reported":1686423852,"current_range_meters":30000,"station_id":"","pricing_plan_id":"free"},{"bike_id":"e6130baf-d756-490e-9cbb-f10516fa41a8","system_id":"levelo_inurba_marseille","lat":43.28619,"lon":5.35112,"is_reserved":false,"is_disabled":false,"rental_uris":{"android":"levelo://app?vid=e6130baf-d756-490e-9cbb-f10516fa41a8","ios":"levelo://app?vid=e6130baf-d756-490e-9cbb-f10516fa41a8"},"vehicle_type_id":"4","last_reported":1686423852,"current_range_meters":0,"station_id":"","pricing_plan_id":"free"},{"bike_id":"57c65897-c0fd-49f1-96f5-176dbb8c94a6","system_id":"levelo_inurba_marseille","lat":43.296263,"lon":5.40601,"is_reserved":false,"is_disabled":false,"rental_uris":{"android":"levelo://app?vid=57c65897-c0fd-49f1-96f5-176dbb8c94a6","ios":"levelo://app?vid=57c65897-c0fd-49f1-96f5-176dbb8c94a6"},"vehicle_type_id":"4","last_reported":1686423852,"current_range_meters":24000,"station_id":"ce4bh0h2rcd13ifvqd60","pricing_plan_id":"free"},{"bike_id":"7cee8e31-41b5-4468-a73a-b60780607147","system_id":"levelo_inurba_marseille","lat":43.33608,"lon":5.3923,"is_reserved":false,"is_disabled":false,"rental_uris":{"android":"levelo://app?vid=7cee8e31-41b5-4468-a73a-b60780607147","ios":"levelo://app?vid=7cee8e31-41b5-4468-a73a-b60780607147"},"vehicle_type_id":"4","last_reported":1686423852,"current_range_meters":1200,"station_id":"","pricing_plan_id":"free"},{"bike_id":"7d89e3b5-958d-47f6-80fa-adc2175a1ff9","system_id":"levelo_inurba_marseille","lat":43.32303,"lon":5.40625,"is_reserved":false,"is_disabled":false,"rental_uris":{"android":"levelo://app?vid=7d89e3b5-958d-47f6-80fa-adc2175a1ff9","ios":"levelo://app?vid=7d89e3b5-958d-47f6-80fa-adc2175a1ff9"},"vehicle_type_id":"4","last_reported":1686423852,"current_range_meters":30800,"station_id":"","pricing_plan_id":"free"},{"bike_id":"30333e77-7cc7-4ad5-b030-c99c7af00601","system_id":"levelo_inurba_marseille","lat":43.32292,"lon":5.40637,"is_reserved":false,"is_disabled":false,"rental_uris":{"android":"levelo://app?vid=30333e77-7cc7-4ad5-b030-c99c7af00601","ios":"levelo://app?vid=30333e77-7cc7-4ad5-b030-c99c7af00601"},"vehicle_type_id":"4","last_reported":1686423852,"current_range_meters":31200,"station_id":"","pricing_plan_id":"free"},{"bike_id":"deb583eb-96fb-4a10-97e9-a4d5ee7da756","system_id":"levelo_inurba_marseille","lat":43.323464,"lon":5.406297,"is_reserved":false,"is_disabled":false,"rental_uris":{"android":"levelo://app?vid=deb583eb-96fb-4a10-97e9-a4d5ee7da756","ios":"levelo://app?vid=deb583eb-96fb-4a10-97e9-a4d5ee7da756"},"vehicle_type_id":"4","last_reported":1686423852,"current_range_meters":22400,"station_id":"ce4bhq92rcd13ifvqhjg","pricing_plan_id":"free"},{"bike_id":"06cff570-236d-434b-b41a-bcb364e7356f","system_id":"levelo_inurba_marseille","lat":43.323464,"lon":5.406297,"is_reserved":false,"is_disabled":false,"rental_uris":{"android":"levelo://app?vid=06cff570-236d-434b-b41a-bcb364e7356f","ios":"levelo://app?vid=06cff570-236d-434b-b41a-bcb364e7356f"},"vehicle_type_id":"4","last_reported":1686423852,"current_range_meters":32000,"station_id":"ce4bhq92rcd13ifvqhjg","pricing_plan_id":"free"},{"bike_id":"64eead76-2dc1-42bd-a4a2-05cec358379d","system_id":"levelo_inurba_marseille","lat":43.323464,"lon":5.406297,"is_reserved":false,"is_disabled":false,"rental_uris":{"android":"levelo://app?vid=64eead76-2dc1-42bd-a4a2-05cec358379d","ios":"levelo://app?vid=64eead76-2dc1-42bd-a4a2-05cec358379d"},"vehicle_type_id":"4","last_reported":1686423852,"current_range_meters":29600,"station_id":"ce4bhq92rcd13ifvqhjg","pricing_plan_id":"free"},{"bike_id":"f74e5191-5771-4c20-82f9-b577ae627053","system_id":"levelo_inurba_marseille","lat":43.323464,"lon":5.406297,"is_reserved":false,"is_disabled":false,"rental_uris":{"android":"levelo://app?vid=f74e5191-5771-4c20-82f9-b577ae627053","ios":"levelo://app?vid=f74e5191-5771-4c20-82f9-b577ae627053"},"vehicle_type_id":"4","last_reported":1686423852,"current_range_meters":19600,"station_id":"ce4bhq92rcd13ifvqhjg","pricing_plan_id":"free"},{"bike_id":"169f6bcd-6d1c-47e9-a317-acbf7b115b6f","system_id":"levelo_inurba_marseille","lat":43.284793,"lon":5.384113,"is_reserved":false,"is_disabled":false,"rental_uris":{"android":"levelo://app?vid=169f6bcd-6d1c-47e9-a317-acbf7b115b6f","ios":"levelo://app?vid=169f6bcd-6d1c-47e9-a317-acbf7b115b6f"},"vehicle_type_id":"4","last_reported":1686423852,"current_range_meters":6000,"station_id":"ce4bh512rcd13ifvqe3g","pricing_plan_id":"free"},{"bike_id":"f51962e7-fb15-4426-8bae-3230a0fecda0","system_id":"levelo_inurba_marseille","lat":43.284787,"lon":5.384116,"is_reserved":false,"is_disabled":false,"rental_uris":{"android":"levelo://app?vid=f51962e7-fb15-4426-8bae-3230a0fecda0","ios":"levelo://app?vid=f51962e7-fb15-4426-8bae-3230a0fecda0"},"vehicle_type_id":"4","last_reported":1686423852,"current_range_meters":11200,"station_id":"ce4bh512rcd13ifvqe3g","pricing_plan_id":"free"},{"bike_id":"b530f128-fc6e-4f0e-bd93-48560cd9fcbf","system_id":"levelo_inurba_marseille","lat":43.323464,"lon":5.406297,"is_reserved":false,"is_disabled":false,"rental_uris":{"android":"levelo://app?vid=b530f128-fc6e-4f0e-bd93-48560cd9fcbf","ios":"levelo://app?vid=b530f128-fc6e-4f0e-bd93-48560cd9fcbf"},"vehicle_type_id":"4","last_reported":1686423852,"current_range_meters":10000,"station_id":"ce4bhq92rcd13ifvqhjg","pricing_plan_id":"free"},{"bike_id":"55a75671-484a-4215-b1db-aeec97fe1e47","system_id":"levelo_inurba_marseille","lat":43.283494,"lon":5.380945,"is_reserved":false,"is_disabled":false,"rental_uris":{"android":"levelo://app?vid=55a75671-484a-4215-b1db-aeec97fe1e47","ios":"levelo://app?vid=55a75671-484a-4215-b1db-aeec97fe1e47"},"vehicle_type_id":"4","last_reported":1686423852,"current_range_meters":400,"station_id":"ce4bh412rcd13ifvqdr0","pricing_plan_id":"free"},{"bike_id":"a3079b4d-45c0-4654-a084-416319c5cab5","system_id":"levelo_inurba_marseille","lat":43.32399,"lon":5.40665,"is_reserved":false,"is_disabled":false,"rental_uris":{"android":"levelo://app?vid=a3079b4d-45c0-4654-a084-416319c5cab5","ios":"levelo://app?vid=a3079b4d-45c0-4654-a084-416319c5cab5"},"vehicle_type_id":"4","last_reported":1686423852,"current_range_meters":31200,"station_id":"","pricing_plan_id":"free"},{"bike_id":"ae232d39-b160-410f-a53c-e104a0631f2e","system_id":"levelo_inurba_marseille","lat":43.32411,"lon":5.40676,"is_reserved":false,"is_disabled":false,"rental_uris":{"android":"levelo://app?vid=ae232d39-b160-410f-a53c-e104a0631f2e","ios":"levelo://app?vid=ae232d39-b160-410f-a53c-e104a0631f2e"},"vehicle_type_id":"4","last_reported":1686423852,"current_range_meters":16000,"station_id":"","pricing_plan_id":"free"},{"bike_id":"8de4e326-c58e-4d10-9b10-423bd6e6dd8c","system_id":"levelo_inurba_marseille","lat":43.292724,"lon":5.401131,"is_reserved":false,"is_disabled":false,"rental_uris":{"android":"levelo://app?vid=8de4e326-c58e-4d10-9b10-423bd6e6dd8c","ios":"levelo://app?vid=8de4e326-c58e-4d10-9b10-423bd6e6dd8c"},"vehicle_type_id":"4","last_reported":1686423852,"current_range_meters":30800,"station_id":"ce4bh312rcd13ifvqdk0","pricing_plan_id":"free"},{"bike_id":"9d7ab8e5-9d45-4d09-bbb1-3183a5beb81f","system_id":"levelo_inurba_marseille","lat":43.29041,"lon":5.399634,"is_reserved":false,"is_disabled":false,"rental_uris":{"android":"levelo://app?vid=9d7ab8e5-9d45-4d09-bbb1-3183a5beb81f","ios":"levelo://app?vid=9d7ab8e5-9d45-4d09-bbb1-3183a5beb81f"},"vehicle_type_id":"4","last_reported":1686423852,"current_range_meters":30800,"station_id":"ce4bh392rcd13ifvqdm0","pricing_plan_id":"free"},{"bike_id":"0e93e892-cd4e-4c78-8e74-f83afd808602","system_id":"levelo_inurba_marseille","lat":43.281044,"lon":5.378308,"is_reserved":false,"is_disabled":false,"rental_uris":{"android":"levelo://app?vid=0e93e892-cd4e-4c78-8e74-f83afd808602","ios":"levelo://app?vid=0e93e892-cd4e-4c78-8e74-f83afd808602"},"vehicle_type_id":"4","last_reported":1686423852,"current_range_meters":4400,"station_id":"ce4bha12rcd13ifvqee0","pricing_plan_id":"free"},{"bike_id":"24b7c505-525f-42aa-9530-037db1e41f35","system_id":"levelo_inurba_marseille","lat":43.299579,"lon":5.413255,"is_reserved":false,"is_disabled":false,"rental_uris":{"android":"levelo://app?vid=24b7c505-525f-42aa-9530-037db1e41f35","ios":"levelo://app?vid=24b7c505-525f-42aa-9530-037db1e41f35"},"vehicle_type_id":"4","last_reported":1686423852,"current_range_meters":20000,"station_id":"ce4bhp12rcd13ifvqh9g","pricing_plan_id":"free"},{"bike_id":"a8c59423-12e8-4a41-96a2-858f4c32eb37","system_id":"levelo_inurba_marseille","lat":43.28027,"lon":5.39006,"is_reserved":false,"is_disabled":false,"rental_uris":{"android":"levelo://app?vid=a8c59423-12e8-4a41-96a2-858f4c32eb37","ios":"levelo://app?vid=a8c59423-12e8-4a41-96a2-858f4c32eb37"},"vehicle_type_id":"4","last_reported":1686423852,"current_range_meters":0,"station_id":"","pricing_plan_id":"free"},{"bike_id":"709bed5a-4253-4589-bb22-33e9fa69f2bc","system_id":"levelo_inurba_marseille","lat":43.325233,"lon":5.414318,"is_reserved":false,"is_disabled":false,"rental_uris":{"android":"levelo://app?vid=709bed5a-4253-4589-bb22-33e9fa69f2bc","ios":"levelo://app?vid=709bed5a-4253-4589-bb22-33e9fa69f2bc"},"vehicle_type_id":"4","last_reported":1686423852,"current_range_meters":20400,"station_id":"ce4bhq12rcd13ifvqhhg","pricing_plan_id":"free"},{"bike_id":"085bd568-ec40-4961-8fff-65962dfcc170","system_id":"levelo_inurba_marseille","lat":43.32534,"lon":5.41433,"is_reserved":false,"is_disabled":false,"rental_uris":{"android":"levelo://app?vid=085bd568-ec40-4961-8fff-65962dfcc170","ios":"levelo://app?vid=085bd568-ec40-4961-8fff-65962dfcc170"},"vehicle_type_id":"4","last_reported":1686423852,"current_range_meters":28800,"station_id":"ce4bhq12rcd13ifvqhhg","pricing_plan_id":"free"},{"bike_id":"071f4fc7-a465-420d-bf0d-a608fc8fd59c","system_id":"levelo_inurba_marseille","lat":43.292569,"lon":5.409107,"is_reserved":false,"is_disabled":false,"rental_uris":{"android":"levelo://app?vid=071f4fc7-a465-420d-bf0d-a608fc8fd59c","ios":"levelo://app?vid=071f4fc7-a465-420d-bf0d-a608fc8fd59c"},"vehicle_type_id":"4","last_reported":1686423852,"current_range_meters":5600,"station_id":"ce4bh192rcd13ifvqdc0","pricing_plan_id":"free"},{"bike_id":"de9c86fe-b9b5-4708-88b1-5076944a2c3f","system_id":"levelo_inurba_marseille","lat":43.29261,"lon":5.40919,"is_reserved":false,"is_disabled":false,"rental_uris":{"android":"levelo://app?vid=de9c86fe-b9b5-4708-88b1-5076944a2c3f","ios":"levelo://app?vid=de9c86fe-b9b5-4708-88b1-5076944a2c3f"},"vehicle_type_id":"4","last_reported":1686423852,"current_range_meters":400,"station_id":"ce4bh192rcd13ifvqdc0","pricing_plan_id":"free"},{"bike_id":"32feb12a-f8e5-4183-b19f-f553c1a6a1d8","system_id":"levelo_inurba_marseille","lat":43.280784,"lon":5.396622,"is_reserved":false,"is_disabled":false,"rental_uris":{"android":"levelo://app?vid=32feb12a-f8e5-4183-b19f-f553c1a6a1d8","ios":"levelo://app?vid=32feb12a-f8e5-4183-b19f-f553c1a6a1d8"},"vehicle_type_id":"4","last_reported":1686423852,"current_range_meters":0,"station_id":"ce4bho12rcd13ifvqh2g","pricing_plan_id":"free"},{"bike_id":"8184123f-8628-44a0-a6d9-42186118012b","system_id":"levelo_inurba_marseille","lat":43.278401,"lon":5.392152,"is_reserved":false,"is_disabled":false,"rental_uris":{"android":"levelo://app?vid=8184123f-8628-44a0-a6d9-42186118012b","ios":"levelo://app?vid=8184123f-8628-44a0-a6d9-42186118012b"},"vehicle_type_id":"4","last_reported":1686423852,"current_range_meters":6400,"station_id":"ce4bhjp2rcd13ifvqga0","pricing_plan_id":"free"},{"bike_id":"012e93f1-006d-472c-8506-53e3765960b4","system_id":"levelo_inurba_marseille","lat":43.33612,"lon":5.410321,"is_reserved":false,"is_disabled":false,"rental_uris":{"android":"levelo://app?vid=012e93f1-006d-472c-8506-53e3765960b4","ios":"levelo://app?vid=012e93f1-006d-472c-8506-53e3765960b4"},"vehicle_type_id":"4","last_reported":1686423852,"current_range_meters":15600,"station_id":"ce4bhqh2rcd13ifvqhmg","pricing_plan_id":"free"},{"bike_id":"1a32b825-37e3-419f-9258-7e94788aebef","system_id":"levelo_inurba_marseille","lat":43.33612,"lon":5.410321,"is_reserved":false,"is_disabled":false,"rental_uris":{"android":"levelo://app?vid=1a32b825-37e3-419f-9258-7e94788aebef","ios":"levelo://app?vid=1a32b825-37e3-419f-9258-7e94788aebef"},"vehicle_type_id":"4","last_reported":1686423852,"current_range_meters":1200,"station_id":"ce4bhqh2rcd13ifvqhmg","pricing_plan_id":"free"},{"bike_id":"ea9a28ee-2273-460a-affa-d28aeed9916c","system_id":"levelo_inurba_marseille","lat":43.33612,"lon":5.410321,"is_reserved":false,"is_disabled":false,"rental_uris":{"android":"levelo://app?vid=ea9a28ee-2273-460a-affa-d28aeed9916c","ios":"levelo://app?vid=ea9a28ee-2273-460a-affa-d28aeed9916c"},"vehicle_type_id":"4","last_reported":1686423852,"current_range_meters":24800,"station_id":"ce4bhqh2rcd13ifvqhmg","pricing_plan_id":"free"},{"bike_id":"5d0612c0-b331-4e83-89f4-48858ddc4741","system_id":"levelo_inurba_marseille","lat":43.33617,"lon":5.41028,"is_reserved":false,"is_disabled":false,"rental_uris":{"android":"levelo://app?vid=5d0612c0-b331-4e83-89f4-48858ddc4741","ios":"levelo://app?vid=5d0612c0-b331-4e83-89f4-48858ddc4741"},"vehicle_type_id":"4","last_reported":1686423852,"current_range_meters":31200,"station_id":"ce4bhqh2rcd13ifvqhmg","pricing_plan_id":"free"},{"bike_id":"6526303a-08dd-4f76-a310-ddf3133a0814","system_id":"levelo_inurba_marseille","lat":43.276771,"lon":5.388799,"is_reserved":false,"is_disabled":false,"rental_uris":{"android":"levelo://app?vid=6526303a-08dd-4f76-a310-ddf3133a0814","ios":"levelo://app?vid=6526303a-08dd-4f76-a310-ddf3133a0814"},"vehicle_type_id":"4","last_reported":1686423852,"current_range_meters":8400,"station_id":"ce4bhi12rcd13ifvqfo0","pricing_plan_id":"free"},{"bike_id":"06d2cab8-ba97-47ec-8dd5-a7b1728437fb","system_id":"levelo_inurba_marseille","lat":43.310785,"lon":5.424305,"is_reserved":false,"is_disabled":false,"rental_uris":{"android":"levelo://app?vid=06d2cab8-ba97-47ec-8dd5-a7b1728437fb","ios":"levelo://app?vid=06d2cab8-ba97-47ec-8dd5-a7b1728437fb"},"vehicle_type_id":"4","last_reported":1686423852,"current_range_meters":18800,"station_id":"ce4bhp92rcd13ifvqhag","pricing_plan_id":"free"},{"bike_id":"617b2595-64a2-4548-a7e6-6274fc6c9352","system_id":"levelo_inurba_marseille","lat":43.295511,"lon":5.422926,"is_reserved":false,"is_disabled":false,"rental_uris":{"android":"levelo://app?vid=617b2595-64a2-4548-a7e6-6274fc6c9352","ios":"levelo://app?vid=617b2595-64a2-4548-a7e6-6274fc6c9352"},"vehicle_type_id":"4","last_reported":1686423852,"current_range_meters":0,"station_id":"ce4bhph2rcd13ifvqhdg","pricing_plan_id":"free"},{"bike_id":"88b1df00-04d8-4ce9-b77a-b736eebb78e2","system_id":"levelo_inurba_marseille","lat":43.278128,"lon":5.407195,"is_reserved":false,"is_disabled":false,"rental_uris":{"android":"levelo://app?vid=88b1df00-04d8-4ce9-b77a-b736eebb78e2","ios":"levelo://app?vid=88b1df00-04d8-4ce9-b77a-b736eebb78e2"},"vehicle_type_id":"4","last_reported":1686423852,"current_range_meters":8000,"station_id":"ce4bhnh2rcd13ifvqgtg","pricing_plan_id":"free"},{"bike_id":"a3ab848a-28b4-407b-93f8-eaef39c051be","system_id":"levelo_inurba_marseille","lat":43.278128,"lon":5.407195,"is_reserved":false,"is_disabled":false,"rental_uris":{"android":"levelo://app?vid=a3ab848a-28b4-407b-93f8-eaef39c051be","ios":"levelo://app?vid=a3ab848a-28b4-407b-93f8-eaef39c051be"},"vehicle_type_id":"4","last_reported":1686423852,"current_range_meters":5600,"station_id":"ce4bhnh2rcd13ifvqgtg","pricing_plan_id":"free"},{"bike_id":"7858eb7c-1c69-4474-b075-558e4f0d75ae","system_id":"levelo_inurba_marseille","lat":43.278128,"lon":5.407195,"is_reserved":false,"is_disabled":false,"rental_uris":{"android":"levelo://app?vid=7858eb7c-1c69-4474-b075-558e4f0d75ae","ios":"levelo://app?vid=7858eb7c-1c69-4474-b075-558e4f0d75ae"},"vehicle_type_id":"4","last_reported":1686423852,"current_range_meters":6400,"station_id":"ce4bhnh2rcd13ifvqgtg","pricing_plan_id":"free"},{"bike_id":"63a61a51-bb9a-414e-b334-45390c9c3b18","system_id":"levelo_inurba_marseille","lat":43.278128,"lon":5.407195,"is_reserved":false,"is_disabled":false,"rental_uris":{"android":"levelo://app?vid=63a61a51-bb9a-414e-b334-45390c9c3b18","ios":"levelo://app?vid=63a61a51-bb9a-414e-b334-45390c9c3b18"},"vehicle_type_id":"4","last_reported":1686423852,"current_range_meters":3200,"station_id":"ce4bhnh2rcd13ifvqgtg","pricing_plan_id":"free"},{"bike_id":"991760e0-8f6c-4ecd-8de8-861e7f032be5","system_id":"levelo_inurba_marseille","lat":43.278128,"lon":5.407195,"is_reserved":false,"is_disabled":false,"rental_uris":{"android":"levelo://app?vid=991760e0-8f6c-4ecd-8de8-861e7f032be5","ios":"levelo://app?vid=991760e0-8f6c-4ecd-8de8-861e7f032be5"},"vehicle_type_id":"4","last_reported":1686423852,"current_range_meters":14800,"station_id":"ce4bhnh2rcd13ifvqgtg","pricing_plan_id":"free"},{"bike_id":"f16b3e45-30dc-48af-8ca9-ed938d166639","system_id":"levelo_inurba_marseille","lat":43.269467,"lon":5.386439,"is_reserved":false,"is_disabled":false,"rental_uris":{"android":"levelo://app?vid=f16b3e45-30dc-48af-8ca9-ed938d166639","ios":"levelo://app?vid=f16b3e45-30dc-48af-8ca9-ed938d166639"},"vehicle_type_id":"4","last_reported":1686423852,"current_range_meters":400,"station_id":"ce4bhh92rcd13ifvqfh0","pricing_plan_id":"free"},{"bike_id":"a13b1c70-27ac-4a2d-a1c4-82c77b9caf72","system_id":"levelo_inurba_marseille","lat":43.278128,"lon":5.407195,"is_reserved":false,"is_disabled":false,"rental_uris":{"android":"levelo://app?vid=a13b1c70-27ac-4a2d-a1c4-82c77b9caf72","ios":"levelo://app?vid=a13b1c70-27ac-4a2d-a1c4-82c77b9caf72"},"vehicle_type_id":"4","last_reported":1686423852,"current_range_meters":26400,"station_id":"ce4bhnh2rcd13ifvqgtg","pricing_plan_id":"free"},{"bike_id":"3b6913b7-2db8-4825-864f-fcf5255d70e8","system_id":"levelo_inurba_marseille","lat":43.26681,"lon":5.382694,"is_reserved":false,"is_disabled":false,"rental_uris":{"android":"levelo://app?vid=3b6913b7-2db8-4825-864f-fcf5255d70e8","ios":"levelo://app?vid=3b6913b7-2db8-4825-864f-fcf5255d70e8"},"vehicle_type_id":"4","last_reported":1686423852,"current_range_meters":0,"station_id":"ce4bhg92rcd13ifvqf90","pricing_plan_id":"free"},{"bike_id":"c62833e3-7e24-479e-90fa-96106281bee4","system_id":"levelo_inurba_marseille","lat":43.27996,"lon":5.416624,"is_reserved":false,"is_disabled":false,"rental_uris":{"android":"levelo://app?vid=c62833e3-7e24-479e-90fa-96106281bee4","ios":"levelo://app?vid=c62833e3-7e24-479e-90fa-96106281bee4"},"vehicle_type_id":"4","last_reported":1686423852,"current_range_meters":5600,"station_id":"ce4bho12rcd13ifvqh1g","pricing_plan_id":"free"},{"bike_id":"43d5dfd9-949c-4aad-8e07-bdb40827139b","system_id":"levelo_inurba_marseille","lat":43.27989,"lon":5.41657,"is_reserved":false,"is_disabled":false,"rental_uris":{"android":"levelo://app?vid=43d5dfd9-949c-4aad-8e07-bdb40827139b","ios":"levelo://app?vid=43d5dfd9-949c-4aad-8e07-bdb40827139b"},"vehicle_type_id":"4","last_reported":1686423852,"current_range_meters":3600,"station_id":"ce4bho12rcd13ifvqh1g","pricing_plan_id":"free"},{"bike_id":"4ed72a3f-374e-446b-be1a-f09cb228d8a7","system_id":"levelo_inurba_marseille","lat":43.27996,"lon":5.416624,"is_reserved":false,"is_disabled":false,"rental_uris":{"android":"levelo://app?vid=4ed72a3f-374e-446b-be1a-f09cb228d8a7","ios":"levelo://app?vid=4ed72a3f-374e-446b-be1a-f09cb228d8a7"},"vehicle_type_id":"4","last_reported":1686423852,"current_range_meters":0,"station_id":"ce4bho12rcd13ifvqh1g","pricing_plan_id":"free"},{"bike_id":"363c3317-77c3-41ad-b585-0b42d880cbbd","system_id":"levelo_inurba_marseille","lat":43.27996,"lon":5.416624,"is_reserved":false,"is_disabled":false,"rental_uris":{"android":"levelo://app?vid=363c3317-77c3-41ad-b585-0b42d880cbbd","ios":"levelo://app?vid=363c3317-77c3-41ad-b585-0b42d880cbbd"},"vehicle_type_id":"4","last_reported":1686423852,"current_range_meters":12800,"station_id":"ce4bho12rcd13ifvqh1g","pricing_plan_id":"free"},{"bike_id":"70a14b8e-af45-4dd9-b69f-9126ee61973c","system_id":"levelo_inurba_marseille","lat":43.267966,"lon":5.393976,"is_reserved":false,"is_disabled":false,"rental_uris":{"android":"levelo://app?vid=70a14b8e-af45-4dd9-b69f-9126ee61973c","ios":"levelo://app?vid=70a14b8e-af45-4dd9-b69f-9126ee61973c"},"vehicle_type_id":"4","last_reported":1686423852,"current_range_meters":4400,"station_id":"ce4bhh12rcd13ifvqfg0","pricing_plan_id":"free"},{"bike_id":"e4bd6846-3fbf-4e69-af10-f08c838db8f1","system_id":"levelo_inurba_marseille","lat":43.267966,"lon":5.393976,"is_reserved":false,"is_disabled":false,"rental_uris":{"android":"levelo://app?vid=e4bd6846-3fbf-4e69-af10-f08c838db8f1","ios":"levelo://app?vid=e4bd6846-3fbf-4e69-af10-f08c838db8f1"},"vehicle_type_id":"4","last_reported":1686423852,"current_range_meters":5200,"station_id":"ce4bhh12rcd13ifvqfg0","pricing_plan_id":"free"},{"bike_id":"3b39904b-84db-4ec7-8233-942fe2c77a9a","system_id":"levelo_inurba_marseille","lat":43.267966,"lon":5.393976,"is_reserved":false,"is_disabled":false,"rental_uris":{"android":"levelo://app?vid=3b39904b-84db-4ec7-8233-942fe2c77a9a","ios":"levelo://app?vid=3b39904b-84db-4ec7-8233-942fe2c77a9a"},"vehicle_type_id":"4","last_reported":1686423852,"current_range_meters":28000,"station_id":"ce4bhh12rcd13ifvqfg0","pricing_plan_id":"free"},{"bike_id":"f69a0ab9-aed0-45ef-93ef-cd4aa82f1173","system_id":"levelo_inurba_marseille","lat":43.267966,"lon":5.393976,"is_reserved":false,"is_disabled":false,"rental_uris":{"android":"levelo://app?vid=f69a0ab9-aed0-45ef-93ef-cd4aa82f1173","ios":"levelo://app?vid=f69a0ab9-aed0-45ef-93ef-cd4aa82f1173"},"vehicle_type_id":"4","last_reported":1686423852,"current_range_meters":5200,"station_id":"ce4bhh12rcd13ifvqfg0","pricing_plan_id":"free"},{"bike_id":"3f027616-3c61-4bee-8fa5-e9f39b1e6b07","system_id":"levelo_inurba_marseille","lat":43.267966,"lon":5.393976,"is_reserved":false,"is_disabled":false,"rental_uris":{"android":"levelo://app?vid=3f027616-3c61-4bee-8fa5-e9f39b1e6b07","ios":"levelo://app?vid=3f027616-3c61-4bee-8fa5-e9f39b1e6b07"},"vehicle_type_id":"4","last_reported":1686423852,"current_range_meters":2000,"station_id":"ce4bhh12rcd13ifvqfg0","pricing_plan_id":"free"},{"bike_id":"1e50d4c5-46cf-4d7c-9130-3b1369edbffb","system_id":"levelo_inurba_marseille","lat":43.26978,"lon":5.40177,"is_reserved":false,"is_disabled":false,"rental_uris":{"android":"levelo://app?vid=1e50d4c5-46cf-4d7c-9130-3b1369edbffb","ios":"levelo://app?vid=1e50d4c5-46cf-4d7c-9130-3b1369edbffb"},"vehicle_type_id":"4","last_reported":1686423852,"current_range_meters":19200,"station_id":"","pricing_plan_id":"free"},{"bike_id":"f9eeff49-f17a-4155-b7fa-411650003821","system_id":"levelo_inurba_marseille","lat":43.30801,"lon":5.43526,"is_reserved":false,"is_disabled":false,"rental_uris":{"android":"levelo://app?vid=f9eeff49-f17a-4155-b7fa-411650003821","ios":"levelo://app?vid=f9eeff49-f17a-4155-b7fa-411650003821"},"vehicle_type_id":"4","last_reported":1686423852,"current_range_meters":14800,"station_id":"","pricing_plan_id":"free"},{"bike_id":"91d94c71-8533-4efc-a134-db40f05119ac","system_id":"levelo_inurba_marseille","lat":43.26234,"lon":5.37046,"is_reserved":false,"is_disabled":false,"rental_uris":{"android":"levelo://app?vid=91d94c71-8533-4efc-a134-db40f05119ac","ios":"levelo://app?vid=91d94c71-8533-4efc-a134-db40f05119ac"},"vehicle_type_id":"4","last_reported":1686423852,"current_range_meters":15600,"station_id":"","pricing_plan_id":"free"},{"bike_id":"09706511-9637-4cfb-a8cf-69d9cc386777","system_id":"levelo_inurba_marseille","lat":43.26935,"lon":5.40249,"is_reserved":false,"is_disabled":false,"rental_uris":{"android":"levelo://app?vid=09706511-9637-4cfb-a8cf-69d9cc386777","ios":"levelo://app?vid=09706511-9637-4cfb-a8cf-69d9cc386777"},"vehicle_type_id":"4","last_reported":1686423852,"current_range_meters":28400,"station_id":"","pricing_plan_id":"free"},{"bike_id":"447c63d4-a54e-46c0-af21-498e3fcd85ce","system_id":"levelo_inurba_marseille","lat":43.33235,"lon":5.43097,"is_reserved":false,"is_disabled":false,"rental_uris":{"android":"levelo://app?vid=447c63d4-a54e-46c0-af21-498e3fcd85ce","ios":"levelo://app?vid=447c63d4-a54e-46c0-af21-498e3fcd85ce"},"vehicle_type_id":"4","last_reported":1686423852,"current_range_meters":20800,"station_id":"","pricing_plan_id":"free"},{"bike_id":"8bae052b-3edc-4345-85b1-d116189b7c89","system_id":"levelo_inurba_marseille","lat":43.33167,"lon":5.43192,"is_reserved":false,"is_disabled":false,"rental_uris":{"android":"levelo://app?vid=8bae052b-3edc-4345-85b1-d116189b7c89","ios":"levelo://app?vid=8bae052b-3edc-4345-85b1-d116189b7c89"},"vehicle_type_id":"4","last_reported":1686423852,"current_range_meters":12000,"station_id":"","pricing_plan_id":"free"},{"bike_id":"733d5ef3-c1a1-4457-b49b-0da737f21249","system_id":"levelo_inurba_marseille","lat":43.261782,"lon":5.374515,"is_reserved":false,"is_disabled":false,"rental_uris":{"android":"levelo://app?vid=733d5ef3-c1a1-4457-b49b-0da737f21249","ios":"levelo://app?vid=733d5ef3-c1a1-4457-b49b-0da737f21249"},"vehicle_type_id":"4","last_reported":1686423852,"current_range_meters":0,"station_id":"ce4bhgp2rcd13ifvqfc0","pricing_plan_id":"free"},{"bike_id":"dbacc591-85cd-4a95-8e4d-7adec1d07712","system_id":"levelo_inurba_marseille","lat":43.261782,"lon":5.374515,"is_reserved":false,"is_disabled":false,"rental_uris":{"android":"levelo://app?vid=dbacc591-85cd-4a95-8e4d-7adec1d07712","ios":"levelo://app?vid=dbacc591-85cd-4a95-8e4d-7adec1d07712"},"vehicle_type_id":"4","last_reported":1686423852,"current_range_meters":0,"station_id":"ce4bhgp2rcd13ifvqfc0","pricing_plan_id":"free"},{"bike_id":"387dda57-7343-4db6-bc10-20db60e7dca6","system_id":"levelo_inurba_marseille","lat":43.27175,"lon":5.40987,"is_reserved":false,"is_disabled":false,"rental_uris":{"android":"levelo://app?vid=387dda57-7343-4db6-bc10-20db60e7dca6","ios":"levelo://app?vid=387dda57-7343-4db6-bc10-20db60e7dca6"},"vehicle_type_id":"4","last_reported":1686423852,"current_range_meters":5200,"station_id":"","pricing_plan_id":"free"},{"bike_id":"8e920f77-983f-4229-98ed-76d9d541cfc9","system_id":"levelo_inurba_marseille","lat":43.27174,"lon":5.40993,"is_reserved":false,"is_disabled":false,"rental_uris":{"android":"levelo://app?vid=8e920f77-983f-4229-98ed-76d9d541cfc9","ios":"levelo://app?vid=8e920f77-983f-4229-98ed-76d9d541cfc9"},"vehicle_type_id":"4","last_reported":1686423852,"current_range_meters":11600,"station_id":"","pricing_plan_id":"free"},{"bike_id":"d1ec23aa-41f6-44c8-b08d-1930ca296976","system_id":"levelo_inurba_marseille","lat":43.27172,"lon":5.40999,"is_reserved":false,"is_disabled":false,"rental_uris":{"android":"levelo://app?vid=d1ec23aa-41f6-44c8-b08d-1930ca296976","ios":"levelo://app?vid=d1ec23aa-41f6-44c8-b08d-1930ca296976"},"vehicle_type_id":"4","last_reported":1686423852,"current_range_meters":9600,"station_id":"","pricing_plan_id":"free"},{"bike_id":"a3d8898c-42ea-4424-b229-590f5f81bdad","system_id":"levelo_inurba_marseille","lat":43.26356,"lon":5.39255,"is_reserved":false,"is_disabled":false,"rental_uris":{"android":"levelo://app?vid=a3d8898c-42ea-4424-b229-590f5f81bdad","ios":"levelo://app?vid=a3d8898c-42ea-4424-b229-590f5f81bdad"},"vehicle_type_id":"4","last_reported":1686423852,"current_range_meters":15200,"station_id":"","pricing_plan_id":"free"},{"bike_id":"6d484bc2-80b3-4a09-a6f7-394fb1f91821","system_id":"levelo_inurba_marseille","lat":43.29897,"lon":5.43669,"is_reserved":false,"is_disabled":false,"rental_uris":{"android":"levelo://app?vid=6d484bc2-80b3-4a09-a6f7-394fb1f91821","ios":"levelo://app?vid=6d484bc2-80b3-4a09-a6f7-394fb1f91821"},"vehicle_type_id":"4","last_reported":1686423852,"current_range_meters":27200,"station_id":"","pricing_plan_id":"free"},{"bike_id":"0abd466f-ae7a-4789-a218-e3b2c168a2b3","system_id":"levelo_inurba_marseille","lat":43.25961,"lon":5.3755,"is_reserved":false,"is_disabled":false,"rental_uris":{"android":"levelo://app?vid=0abd466f-ae7a-4789-a218-e3b2c168a2b3","ios":"levelo://app?vid=0abd466f-ae7a-4789-a218-e3b2c168a2b3"},"vehicle_type_id":"4","last_reported":1686423852,"current_range_meters":1600,"station_id":"","pricing_plan_id":"free"},{"bike_id":"bd5da142-9e08-421a-929d-5d8b54469f1b","system_id":"levelo_inurba_marseille","lat":43.26782,"lon":5.41146,"is_reserved":false,"is_disabled":false,"rental_uris":{"android":"levelo://app?vid=bd5da142-9e08-421a-929d-5d8b54469f1b","ios":"levelo://app?vid=bd5da142-9e08-421a-929d-5d8b54469f1b"},"vehicle_type_id":"4","last_reported":1686423852,"current_range_meters":15600,"station_id":"","pricing_plan_id":"free"},{"bike_id":"6853ea80-78f9-4825-8105-002e10c67b8f","system_id":"levelo_inurba_marseille","lat":43.33374,"lon":5.43785,"is_reserved":false,"is_disabled":false,"rental_uris":{"android":"levelo://app?vid=6853ea80-78f9-4825-8105-002e10c67b8f","ios":"levelo://app?vid=6853ea80-78f9-4825-8105-002e10c67b8f"},"vehicle_type_id":"4","last_reported":1686423852,"current_range_meters":18000,"station_id":"","pricing_plan_id":"free"},{"bike_id":"8362e633-701d-430c-ac6c-21badf738d70","system_id":"levelo_inurba_marseille","lat":43.275028,"lon":5.424534,"is_reserved":false,"is_disabled":false,"rental_uris":{"android":"levelo://app?vid=8362e633-701d-430c-ac6c-21badf738d70","ios":"levelo://app?vid=8362e633-701d-430c-ac6c-21badf738d70"},"vehicle_type_id":"4","last_reported":1686423852,"current_range_meters":20000,"station_id":"ce4bhn92rcd13ifvqgrg","pricing_plan_id":"free"},{"bike_id":"e84f9986-654a-49b7-9d97-df5b3f3e1bd0","system_id":"levelo_inurba_marseille","lat":43.275028,"lon":5.424534,"is_reserved":false,"is_disabled":false,"rental_uris":{"android":"levelo://app?vid=e84f9986-654a-49b7-9d97-df5b3f3e1bd0","ios":"levelo://app?vid=e84f9986-654a-49b7-9d97-df5b3f3e1bd0"},"vehicle_type_id":"4","last_reported":1686423852,"current_range_meters":17600,"station_id":"ce4bhn92rcd13ifvqgrg","pricing_plan_id":"free"},{"bike_id":"507701f8-55ee-43a4-8272-76264faaef63","system_id":"levelo_inurba_marseille","lat":43.275028,"lon":5.424534,"is_reserved":false,"is_disabled":false,"rental_uris":{"android":"levelo://app?vid=507701f8-55ee-43a4-8272-76264faaef63","ios":"levelo://app?vid=507701f8-55ee-43a4-8272-76264faaef63"},"vehicle_type_id":"4","last_reported":1686423852,"current_range_meters":28400,"station_id":"ce4bhn92rcd13ifvqgrg","pricing_plan_id":"free"},{"bike_id":"a781a343-b241-4f95-ab3c-8b2df648c6cb","system_id":"levelo_inurba_marseille","lat":43.33312,"lon":5.44167,"is_reserved":false,"is_disabled":false,"rental_uris":{"android":"levelo://app?vid=a781a343-b241-4f95-ab3c-8b2df648c6cb","ios":"levelo://app?vid=a781a343-b241-4f95-ab3c-8b2df648c6cb"},"vehicle_type_id":"4","last_reported":1686423852,"current_range_meters":4800,"station_id":"","pricing_plan_id":"free"},{"bike_id":"92859991-052c-4b04-8152-024f825bd8e2","system_id":"levelo_inurba_marseille","lat":43.25575,"lon":5.38234,"is_reserved":false,"is_disabled":false,"rental_uris":{"android":"levelo://app?vid=92859991-052c-4b04-8152-024f825bd8e2","ios":"levelo://app?vid=92859991-052c-4b04-8152-024f825bd8e2"},"vehicle_type_id":"4","last_reported":1686423852,"current_range_meters":23600,"station_id":"ce4bhih2rcd13ifvqfs0","pricing_plan_id":"free"},{"bike_id":"3ad14179-836c-4cbd-8908-d89c792c0785","system_id":"levelo_inurba_marseille","lat":43.254947,"lon":5.376454,"is_reserved":false,"is_disabled":false,"rental_uris":{"android":"levelo://app?vid=3ad14179-836c-4cbd-8908-d89c792c0785","ios":"levelo://app?vid=3ad14179-836c-4cbd-8908-d89c792c0785"},"vehicle_type_id":"4","last_reported":1686423852,"current_range_meters":0,"station_id":"ce4bhh12rcd13ifvqff0","pricing_plan_id":"free"},{"bike_id":"da279841-ffb4-4a46-96e1-e9ae4f401aee","system_id":"levelo_inurba_marseille","lat":43.254947,"lon":5.376454,"is_reserved":false,"is_disabled":false,"rental_uris":{"android":"levelo://app?vid=da279841-ffb4-4a46-96e1-e9ae4f401aee","ios":"levelo://app?vid=da279841-ffb4-4a46-96e1-e9ae4f401aee"},"vehicle_type_id":"4","last_reported":1686423852,"current_range_meters":9600,"station_id":"ce4bhh12rcd13ifvqff0","pricing_plan_id":"free"},{"bike_id":"1b879122-75bb-42de-8fc8-3843d42f440b","system_id":"levelo_inurba_marseille","lat":43.254945,"lon":5.376454,"is_reserved":false,"is_disabled":false,"rental_uris":{"android":"levelo://app?vid=1b879122-75bb-42de-8fc8-3843d42f440b","ios":"levelo://app?vid=1b879122-75bb-42de-8fc8-3843d42f440b"},"vehicle_type_id":"4","last_reported":1686423852,"current_range_meters":0,"station_id":"ce4bhh12rcd13ifvqff0","pricing_plan_id":"free"},{"bike_id":"ea75c2c5-8561-4314-a103-38c08005ff32","system_id":"levelo_inurba_marseille","lat":43.270721,"lon":5.422764,"is_reserved":false,"is_disabled":false,"rental_uris":{"android":"levelo://app?vid=ea75c2c5-8561-4314-a103-38c08005ff32","ios":"levelo://app?vid=ea75c2c5-8561-4314-a103-38c08005ff32"},"vehicle_type_id":"4","last_reported":1686423852,"current_range_meters":26800,"station_id":"ce4bhk92rcd13ifvqgb0","pricing_plan_id":"free"},{"bike_id":"926456a4-683a-4130-825f-e349460ba24e","system_id":"levelo_inurba_marseille","lat":43.270721,"lon":5.422764,"is_reserved":false,"is_disabled":false,"rental_uris":{"android":"levelo://app?vid=926456a4-683a-4130-825f-e349460ba24e","ios":"levelo://app?vid=926456a4-683a-4130-825f-e349460ba24e"},"vehicle_type_id":"4","last_reported":1686423852,"current_range_meters":16000,"station_id":"ce4bhk92rcd13ifvqgb0","pricing_plan_id":"free"},{"bike_id":"aa069271-70bd-41fe-9bb6-f9833cddad4b","system_id":"levelo_inurba_marseille","lat":43.27072,"lon":5.42281,"is_reserved":false,"is_disabled":false,"rental_uris":{"android":"levelo://app?vid=aa069271-70bd-41fe-9bb6-f9833cddad4b","ios":"levelo://app?vid=aa069271-70bd-41fe-9bb6-f9833cddad4b"},"vehicle_type_id":"4","last_reported":1686423852,"current_range_meters":31200,"station_id":"ce4bhk92rcd13ifvqgb0","pricing_plan_id":"free"},{"bike_id":"76451989-5cc4-4089-b0d9-8ef45200769b","system_id":"levelo_inurba_marseille","lat":43.27071,"lon":5.42282,"is_reserved":false,"is_disabled":false,"rental_uris":{"android":"levelo://app?vid=76451989-5cc4-4089-b0d9-8ef45200769b","ios":"levelo://app?vid=76451989-5cc4-4089-b0d9-8ef45200769b"},"vehicle_type_id":"4","last_reported":1686423852,"current_range_meters":15600,"station_id":"ce4bhk92rcd13ifvqgb0","pricing_plan_id":"free"},{"bike_id":"8c1d53ba-5a6e-4bae-8086-4dbf4d87f924","system_id":"levelo_inurba_marseille","lat":43.25166,"lon":5.37336,"is_reserved":false,"is_disabled":false,"rental_uris":{"android":"levelo://app?vid=8c1d53ba-5a6e-4bae-8086-4dbf4d87f924","ios":"levelo://app?vid=8c1d53ba-5a6e-4bae-8086-4dbf4d87f924"},"vehicle_type_id":"4","last_reported":1686423852,"current_range_meters":31200,"station_id":"","pricing_plan_id":"free"},{"bike_id":"ca1a9c22-9bd1-404d-bca0-3066cc8ae75a","system_id":"levelo_inurba_marseille","lat":43.259013,"lon":5.409301,"is_reserved":false,"is_disabled":false,"rental_uris":{"android":"levelo://app?vid=ca1a9c22-9bd1-404d-bca0-3066cc8ae75a","ios":"levelo://app?vid=ca1a9c22-9bd1-404d-bca0-3066cc8ae75a"},"vehicle_type_id":"4","last_reported":1686423852,"current_range_meters":0,"station_id":"ce4bhm92rcd13ifvqglg","pricing_plan_id":"free"},{"bike_id":"acecd038-56ee-410d-881c-ffa02850a176","system_id":"levelo_inurba_marseille","lat":43.259013,"lon":5.409301,"is_reserved":false,"is_disabled":false,"rental_uris":{"android":"levelo://app?vid=acecd038-56ee-410d-881c-ffa02850a176","ios":"levelo://app?vid=acecd038-56ee-410d-881c-ffa02850a176"},"vehicle_type_id":"4","last_reported":1686423852,"current_range_meters":4400,"station_id":"ce4bhm92rcd13ifvqglg","pricing_plan_id":"free"},{"bike_id":"37324d46-6fc5-453b-9f79-216f2e158191","system_id":"levelo_inurba_marseille","lat":43.2479,"lon":5.374457,"is_reserved":false,"is_disabled":false,"rental_uris":{"android":"levelo://app?vid=37324d46-6fc5-453b-9f79-216f2e158191","ios":"levelo://app?vid=37324d46-6fc5-453b-9f79-216f2e158191"},"vehicle_type_id":"4","last_reported":1686423852,"current_range_meters":10400,"station_id":"ce4bhgh2rcd13ifvqfb0","pricing_plan_id":"free"},{"bike_id":"483c0bbf-bfc1-4dc7-94c9-421c232bfb9a","system_id":"levelo_inurba_marseille","lat":43.24693,"lon":5.382096,"is_reserved":false,"is_disabled":false,"rental_uris":{"android":"levelo://app?vid=483c0bbf-bfc1-4dc7-94c9-421c232bfb9a","ios":"levelo://app?vid=483c0bbf-bfc1-4dc7-94c9-421c232bfb9a"},"vehicle_type_id":"4","last_reported":1686423852,"current_range_meters":3200,"station_id":"ce4bhih2rcd13ifvqfr0","pricing_plan_id":"free"},{"bike_id":"a4a11845-1b20-4d82-a7f5-5818c2166b3a","system_id":"levelo_inurba_marseille","lat":43.243884,"lon":5.370736,"is_reserved":false,"is_disabled":false,"rental_uris":{"android":"levelo://app?vid=a4a11845-1b20-4d82-a7f5-5818c2166b3a","ios":"levelo://app?vid=a4a11845-1b20-4d82-a7f5-5818c2166b3a"},"vehicle_type_id":"4","last_reported":1686423852,"current_range_meters":2400,"station_id":"ce4bhhh2rcd13ifvqfk0","pricing_plan_id":"free"},{"bike_id":"2a921cd6-7658-44de-9fd9-7bdce775dd63","system_id":"levelo_inurba_marseille","lat":43.245581,"lon":5.395069,"is_reserved":false,"is_disabled":false,"rental_uris":{"android":"levelo://app?vid=2a921cd6-7658-44de-9fd9-7bdce775dd63","ios":"levelo://app?vid=2a921cd6-7658-44de-9fd9-7bdce775dd63"},"vehicle_type_id":"4","last_reported":1686423852,"current_range_meters":9200,"station_id":"ce4bhlp2rcd13ifvqgjg","pricing_plan_id":"free"},{"bike_id":"2d6599d5-b819-4044-968c-648d5cc49c7e","system_id":"levelo_inurba_marseille","lat":43.245581,"lon":5.395069,"is_reserved":false,"is_disabled":false,"rental_uris":{"android":"levelo://app?vid=2d6599d5-b819-4044-968c-648d5cc49c7e","ios":"levelo://app?vid=2d6599d5-b819-4044-968c-648d5cc49c7e"},"vehicle_type_id":"4","last_reported":1686423852,"current_range_meters":4400,"station_id":"ce4bhlp2rcd13ifvqgjg","pricing_plan_id":"free"},{"bike_id":"7b92bb4e-c37f-408a-b8c5-8d9651549545","system_id":"levelo_inurba_marseille","lat":43.29009,"lon":5.45989,"is_reserved":false,"is_disabled":false,"rental_uris":{"android":"levelo://app?vid=7b92bb4e-c37f-408a-b8c5-8d9651549545","ios":"levelo://app?vid=7b92bb4e-c37f-408a-b8c5-8d9651549545"},"vehicle_type_id":"4","last_reported":1686423852,"current_range_meters":20800,"station_id":"","pricing_plan_id":"free"},{"bike_id":"3c0d63a1-bf77-4a3b-9def-ae8da33f563f","system_id":"levelo_inurba_marseille","lat":43.23852,"lon":5.38968,"is_reserved":false,"is_disabled":false,"rental_uris":{"android":"levelo://app?vid=3c0d63a1-bf77-4a3b-9def-ae8da33f563f","ios":"levelo://app?vid=3c0d63a1-bf77-4a3b-9def-ae8da33f563f"},"vehicle_type_id":"4","last_reported":1686423852,"current_range_meters":4000,"station_id":"","pricing_plan_id":"free"},{"bike_id":"12de3828-4c9c-4f12-a7b0-5aa63b2a0c06","system_id":"levelo_inurba_marseille","lat":43.24841,"lon":5.42369,"is_reserved":false,"is_disabled":false,"rental_uris":{"android":"levelo://app?vid=12de3828-4c9c-4f12-a7b0-5aa63b2a0c06","ios":"levelo://app?vid=12de3828-4c9c-4f12-a7b0-5aa63b2a0c06"},"vehicle_type_id":"4","last_reported":1686423852,"current_range_meters":18800,"station_id":"","pricing_plan_id":"free"},{"bike_id":"f7f9d180-ac8d-4459-80e5-5518d8d28c6c","system_id":"levelo_inurba_marseille","lat":43.231923,"lon":5.355545,"is_reserved":false,"is_disabled":false,"rental_uris":{"android":"levelo://app?vid=f7f9d180-ac8d-4459-80e5-5518d8d28c6c","ios":"levelo://app?vid=f7f9d180-ac8d-4459-80e5-5518d8d28c6c"},"vehicle_type_id":"4","last_reported":1686423852,"current_range_meters":2400,"station_id":"ce4bhu92rcd13ifvqi70","pricing_plan_id":"free"},{"bike_id":"f4055306-ed12-4770-965b-c3500487729e","system_id":"levelo_inurba_marseille","lat":43.23188,"lon":5.35563,"is_reserved":false,"is_disabled":false,"rental_uris":{"android":"levelo://app?vid=f4055306-ed12-4770-965b-c3500487729e","ios":"levelo://app?vid=f4055306-ed12-4770-965b-c3500487729e"},"vehicle_type_id":"4","last_reported":1686423852,"current_range_meters":31200,"station_id":"ce4bhu92rcd13ifvqi70","pricing_plan_id":"free"}]}}