{"last_updated":1752454881,"ttl":60,"version":"2.2","data":{"bikes":[{"bike_id":"eba6a5e2-80a5-4e87-b68e-58179deab768","system_id":"levelo_inurba_marseille","lat":43.2694,"lon":5.3893,"is_reserved":false,"is_disabled":false,"rental_uris":{"android":"levelo://app?vid=eba6a5e2-80a5-4e87-b68e-58179deab768","ios":"levelo://app?vid=eba6a5e2-80a5-4e87-b68e-58179deab768"},"vehicle_type_id":"4","last_reported":1752454881,"current_range_meters":3200,"station_id":"ce4bhhh2rcd13ifvqfl0","pricing_plan_id":"cebpf4jnsgd1na2vs0mg"},{"bike_id":"69a98ef8-9b4f-490a-b1e7-11ae49fc387b","system_id":"levelo_inurba_marseille","lat":43.21197,"lon":5.35071,"is_reserved":false,"is_disabled":false,"rental_uris":{"android":"levelo://app?vid=69a98ef8-9b4f-490a-b1e7-11ae49fc387b","ios":"levelo://app?vid=69a98ef8-9b4f-490a-b1e7-11ae49fc387b"},"vehicle_type_id":"4","last_reported":1752454881,"current_range_meters":3200,"station_id":"st_cvj6sg6p6f1abm77japg","pricing_plan_id":"cebpf4jnsgd1na2vs0mg"},{"bike_id":"c448c1fd-79d9-481b-8824-11cea0b8f0a7","system_id":"levelo_inurba_marseille","lat":43.29403,"lon":5.38803,"is_reserved":false,"is_disabled":false,"rental_uris":{"android":"levelo://app?vid=c448c1fd-79d9-481b-8824-11cea0b8f0a7","ios":"levelo://app?vid=c448c1fd-79d9-481b-8824-11cea0b8f0a7"},"vehicle_type_id":"4","last_reported":1752454881,"current_range_meters":3200,"station_id":"","pricing_plan_id":"cebpf4jnsgd1na2vs0mg"},{"bike_id":"e3a75ee9-c614-467b-8cc2-f813bcef2ab1","system_id":"levelo_inurba_marseille","lat":43.33743,"lon":5.3919,"is_reserved":false,"is_disabled":true,"rental_uris":{"android":"levelo://app?vid=e3a75ee9-c614-467b-8cc2-f813bcef2ab1","ios":"levelo://app?vid=e3a75ee9-c614-467b-8cc2-f813bcef2ab1"},"vehicle_type_id":"4","last_reported":1752454881,"current_range_meters":3600,"station_id":"ce4bhr92rcd13ifvqhsg","pricing_plan_id":"cebpf4jnsgd1na2vs0mg"},{"bike_id":"36cb2f1d-db21-4eae-8417-fa1e874e8c92","system_id":"levelo_inurba_marseille","lat":43.309326,"lon":5.382311,"is_reserved":false,"is_disabled":false,"rental_uris":{"android":"levelo://app?vid=36cb2f1d-db21-4eae-8417-fa1e874e8c92","ios":"levelo://app?vid=36cb2f1d-db21-4eae-8417-fa1e874e8c92"},"vehicle_type_id":"4","last_reported":1752454881,"current_range_meters":4000,"station_id":"","pricing_plan_id":"cebpf4jnsgd1na2vs0mg"},{"bike_id":"df61839a-7a72-4634-9960-e8ea0d9a8d35","system_id":"levelo_inurba_marseille","lat":43.239474,"lon":5.366089,"is_reserved":false,"is_disabled":true,"rental_uris":{"android":"levelo://app?vid=df61839a-7a72-4634-9960-e8ea0d9a8d35","ios":"levelo://app?vid=df61839a-7a72-4634-9960-e8ea0d9a8d35"},"vehicle_type_id":"4","last_reported":1752454881,"current_range_meters":4400,"station_id":"","pricing_plan_id":"cebpf4jnsgd1na2vs0mg"},{"bike_id":"87991947-21b8-4b64-b6d4-5bae920498b7","system_id":"levelo_inurba_marseille","lat":43.3095,"lon":5.39044,"is_reserved":false,"is_disabled":true,"rental_uris":{"android":"levelo://app?vid=87991947-21b8-4b64-b6d4-5bae920498b7","ios":"levelo://app?vid=87991947-21b8-4b64-b6d4-5bae920498b7"},"vehicle_type_id":"4","last_reported":1752454881,"current_range_meters":4000,"station_id":"ce4bgup2rcd13ifvqco0","pricing_plan_id":"cebpf4jnsgd1na2vs0mg"},{"bike_id":"75ecd29a-e8a0-4e90-bdf7-303f60b220d0","system_id":"levelo_inurba_marseille","lat":43.23148,"lon":5.43722,"is_reserved":false,"is_disabled":false,"rental_uris":{"android":"levelo://app?vid=75ecd29a-e8a0-4e90-bdf7-303f60b220d0","ios":"levelo://app?vid=75ecd29a-e8a0-4e90-bdf7-303f60b220d0"},"vehicle_type_id":"4","last_reported":1752454881,"current_range_meters":4400,"station_id":"ce4bhmp2rcd13ifvqgog","pricing_plan_id":"cebpf4jnsgd1na2vs0mg"},{"bike_id":"d49b02ab-b160-4c5d-a715-7bc574eb21e6","system_id":"levelo_inurba_marseille","lat":43.30865,"lon":5.397074,"is_reserved":false,"is_disabled":false,"rental_uris":{"android":"levelo://app?vid=d49b02ab-b160-4c5d-a715-7bc574eb21e6","ios":"levelo://app?vid=d49b02ab-b160-4c5d-a715-7bc574eb21e6"},"vehicle_type_id":"4","last_reported":1752454881,"current_range_meters":4400,"station_id":"ce4bh012rcd13ifvqcv0","pricing_plan_id":"cebpf4jnsgd1na2vs0mg"},{"bike_id":"d6cfde79-22c3-4986-978e-bb885413d67e","system_id":"levelo_inurba_marseille","lat":43.305933,"lon":5.393612,"is_reserved":false,"is_disabled":true,"rental_uris":{"android":"levelo://app?vid=d6cfde79-22c3-4986-978e-bb885413d67e","ios":"levelo://app?vid=d6cfde79-22c3-4986-978e-bb885413d67e"},"vehicle_type_id":"4","last_reported":1752454881,"current_range_meters":4400,"station_id":"","pricing_plan_id":"cebpf4jnsgd1na2vs0mg"},{"bike_id":"8929c1bf-fd4d-44e4-aa66-b3eb6538c998","system_id":"levelo_inurba_marseille","lat":43.2856,"lon":5.42974,"is_reserved":false,"is_disabled":false,"rental_uris":{"android":"levelo://app?vid=8929c1bf-fd4d-44e4-aa66-b3eb6538c998","ios":"levelo://app?vid=8929c1bf-fd4d-44e4-aa66-b3eb6538c998"},"vehicle_type_id":"4","last_reported":1752454881,"current_range_meters":4800,"station_id":"","pricing_plan_id":"cebpf4jnsgd1na2vs0mg"},{"bike_id":"3440e539-2a25-45a6-91a1-9c3e29b7b1e2","system_id":"levelo_inurba_marseille","lat":43.31357,"lon":5.38511,"is_reserved":false,"is_disabled":true,"rental_uris":{"android":"levelo://app?vid=3440e539-2a25-45a6-91a1-9c3e29b7b1e2","ios":"levelo://app?vid=3440e539-2a25-45a6-91a1-9c3e29b7b1e2"},"vehicle_type_id":"4","last_reported":1752454881,"current_range_meters":4800,"station_id":"ce4bgt92rcd13ifvqcf0","pricing_plan_id":"cebpf4jnsgd1na2vs0mg"},{"bike_id":"0075684b-a504-453b-9132-a72c307964f4","system_id":"levelo_inurba_marseille","lat":43.320766,"lon":5.367681,"is_reserved":false,"is_disabled":false,"rental_uris":{"android":"levelo://app?vid=0075684b-a504-453b-9132-a72c307964f4","ios":"levelo://app?vid=0075684b-a504-453b-9132-a72c307964f4"},"vehicle_type_id":"4","last_reported":1752454881,"current_range_meters":4800,"station_id":"ce4bhrh2rcd13ifvqhug","pricing_plan_id":"cebpf4jnsgd1na2vs0mg"},{"bike_id":"7d979f4d-837d-4923-bea4-9309987ed4f7","system_id":"levelo_inurba_marseille","lat":43.27932,"lon":5.39617,"is_reserved":false,"is_disabled":true,"rental_uris":{"android":"levelo://app?vid=7d979f4d-837d-4923-bea4-9309987ed4f7","ios":"levelo://app?vid=7d979f4d-837d-4923-bea4-9309987ed4f7"},"vehicle_type_id":"4","last_reported":1752454881,"current_range_meters":4800,"station_id":"ce4bhf92rcd13ifvqf40","pricing_plan_id":"cebpf4jnsgd1na2vs0mg"},{"bike_id":"74240b37-cac9-469d-a76b-a6e5630038db","system_id":"levelo_inurba_marseille","lat":43.24172,"lon":5.36393,"is_reserved":false,"is_disabled":false,"rental_uris":{"android":"levelo://app?vid=74240b37-cac9-469d-a76b-a6e5630038db","ios":"levelo://app?vid=74240b37-cac9-469d-a76b-a6e5630038db"},"vehicle_type_id":"4","last_reported":1752454881,"current_range_meters":4800,"station_id":"cpo36qri1sfpv3e86is0","pricing_plan_id":"cebpf4jnsgd1na2vs0mg"},{"bike_id":"59abe00c-0957-499a-b148-b15351bf7c00","system_id":"levelo_inurba_marseille","lat":43.31754,"lon":5.39015,"is_reserved":false,"is_disabled":false,"rental_uris":{"android":"levelo://app?vid=59abe00c-0957-499a-b148-b15351bf7c00","ios":"levelo://app?vid=59abe00c-0957-499a-b148-b15351bf7c00"},"vehicle_type_id":"4","last_reported":1752454881,"current_range_meters":4800,"station_id":"ce4bhqp2rcd13ifvqhng","pricing_plan_id":"cebpf4jnsgd1na2vs0mg"},{"bike_id":"ec71acae-6ef7-49be-b209-c0bc07d56d5d","system_id":"levelo_inurba_marseille","lat":43.31536,"lon":5.38048,"is_reserved":false,"is_disabled":false,"rental_uris":{"android":"levelo://app?vid=ec71acae-6ef7-49be-b209-c0bc07d56d5d","ios":"levelo://app?vid=ec71acae-6ef7-49be-b209-c0bc07d56d5d"},"vehicle_type_id":"4","last_reported":1752454881,"current_range_meters":5600,"station_id":"ce4bhsp2rcd13ifvqi50","pricing_plan_id":"cebpf4jnsgd1na2vs0mg"},{"bike_id":"dbba3321-20c7-4989-a7b5-ea9ab2c4b3e8","system_id":"levelo_inurba_marseille","lat":43.261935,"lon":5.374477,"is_reserved":false,"is_disabled":true,"rental_uris":{"android":"levelo://app?vid=dbba3321-20c7-4989-a7b5-ea9ab2c4b3e8","ios":"levelo://app?vid=dbba3321-20c7-4989-a7b5-ea9ab2c4b3e8"},"vehicle_type_id":"4","last_reported":1752454881,"current_range_meters":6000,"station_id":"ce4bhgp2rcd13ifvqfc0","pricing_plan_id":"cebpf4jnsgd1na2vs0mg"},{"bike_id":"152ce229-a886-4fd8-9ef5-6177c053fc0d","system_id":"levelo_inurba_marseille","lat":43.31374,"lon":5.38503,"is_reserved":false,"is_disabled":false,"rental_uris":{"android":"levelo://app?vid=152ce229-a886-4fd8-9ef5-6177c053fc0d","ios":"levelo://app?vid=152ce229-a886-4fd8-9ef5-6177c053fc0d"},"vehicle_type_id":"4","last_reported":1752454881,"current_range_meters":6000,"station_id":"ce4bgt92rcd13ifvqcf0","pricing_plan_id":"cebpf4jnsgd1na2vs0mg"},{"bike_id":"4f8548ef-26ec-44e2-8384-bab64790c51d","system_id":"levelo_inurba_marseille","lat":43.30802,"lon":5.38166,"is_reserved":false,"is_disabled":false,"rental_uris":{"android":"levelo://app?vid=4f8548ef-26ec-44e2-8384-bab64790c51d","ios":"levelo://app?vid=4f8548ef-26ec-44e2-8384-bab64790c51d"},"vehicle_type_id":"4","last_reported":1752454881,"current_range_meters":6000,"station_id":"ce4bgt12rcd13ifvqce0","pricing_plan_id":"cebpf4jnsgd1na2vs0mg"},{"bike_id":"7b624790-b21b-46d1-a9ca-774e836eea2b","system_id":"levelo_inurba_marseille","lat":43.296938,"lon":5.366137,"is_reserved":false,"is_disabled":true,"rental_uris":{"android":"levelo://app?vid=7b624790-b21b-46d1-a9ca-774e836eea2b","ios":"levelo://app?vid=7b624790-b21b-46d1-a9ca-774e836eea2b"},"vehicle_type_id":"4","last_reported":1752454881,"current_range_meters":6000,"station_id":"ce4bgn12rcd13ifvqbt0","pricing_plan_id":"cebpf4jnsgd1na2vs0mg"},{"bike_id":"5a71ab42-51f6-4d74-8942-e5c8339f2255","system_id":"levelo_inurba_marseille","lat":43.31745,"lon":5.39019,"is_reserved":false,"is_disabled":true,"rental_uris":{"android":"levelo://app?vid=5a71ab42-51f6-4d74-8942-e5c8339f2255","ios":"levelo://app?vid=5a71ab42-51f6-4d74-8942-e5c8339f2255"},"vehicle_type_id":"4","last_reported":1752454881,"current_range_meters":6400,"station_id":"ce4bhqp2rcd13ifvqhng","pricing_plan_id":"cebpf4jnsgd1na2vs0mg"},{"bike_id":"4e18f6a0-cf0a-4e54-823e-14d073e25d70","system_id":"levelo_inurba_marseille","lat":43.28037,"lon":5.36935,"is_reserved":false,"is_disabled":true,"rental_uris":{"android":"levelo://app?vid=4e18f6a0-cf0a-4e54-823e-14d073e25d70","ios":"levelo://app?vid=4e18f6a0-cf0a-4e54-823e-14d073e25d70"},"vehicle_type_id":"4","last_reported":1752454881,"current_range_meters":6400,"station_id":"ce4bha12rcd13ifvqef0","pricing_plan_id":"cebpf4jnsgd1na2vs0mg"},{"bike_id":"02883b92-225f-428d-a8a6-4844ec1f2d26","system_id":"levelo_inurba_marseille","lat":43.30618,"lon":5.3724,"is_reserved":false,"is_disabled":true,"rental_uris":{"android":"levelo://app?vid=02883b92-225f-428d-a8a6-4844ec1f2d26","ios":"levelo://app?vid=02883b92-225f-428d-a8a6-4844ec1f2d26"},"vehicle_type_id":"4","last_reported":1752454881,"current_range_meters":6400,"station_id":"ce4bgqh2rcd13ifvqc4g","pricing_plan_id":"cebpf4jnsgd1na2vs0mg"},{"bike_id":"c943f36c-53e9-4486-b306-d9d59d955d5c","system_id":"levelo_inurba_marseille","lat":43.3041,"lon":5.39731,"is_reserved":false,"is_disabled":false,"rental_uris":{"android":"levelo://app?vid=c943f36c-53e9-4486-b306-d9d59d955d5c","ios":"levelo://app?vid=c943f36c-53e9-4486-b306-d9d59d955d5c"},"vehicle_type_id":"4","last_reported":1752454881,"current_range_meters":6800,"station_id":"ce4bh092rcd13ifvqd20","pricing_plan_id":"cebpf4jnsgd1na2vs0mg"},{"bike_id":"da71cdab-9e0a-496e-81b6-14eae102fd72","system_id":"levelo_inurba_marseille","lat":43.279189,"lon":5.39575,"is_reserved":false,"is_disabled":false,"rental_uris":{"android":"levelo://app?vid=da71cdab-9e0a-496e-81b6-14eae102fd72","ios":"levelo://app?vid=da71cdab-9e0a-496e-81b6-14eae102fd72"},"vehicle_type_id":"4","last_reported":1752454881,"current_range_meters":7200,"station_id":"ce4bhf92rcd13ifvqf40","pricing_plan_id":"cebpf4jnsgd1na2vs0mg"},{"bike_id":"696aca5a-f985-42f2-b5f7-74ca3a442dcb","system_id":"levelo_inurba_marseille","lat":43.30963,"lon":5.37145,"is_reserved":false,"is_disabled":false,"rental_uris":{"android":"levelo://app?vid=696aca5a-f985-42f2-b5f7-74ca3a442dcb","ios":"levelo://app?vid=696aca5a-f985-42f2-b5f7-74ca3a442dcb"},"vehicle_type_id":"4","last_reported":1752454881,"current_range_meters":7200,"station_id":"","pricing_plan_id":"cebpf4jnsgd1na2vs0mg"},{"bike_id":"96d54fdb-5835-4cd8-9827-093c0b08e4ca","system_id":"levelo_inurba_marseille","lat":43.21184,"lon":5.35067,"is_reserved":false,"is_disabled":false,"rental_uris":{"android":"levelo://app?vid=96d54fdb-5835-4cd8-9827-093c0b08e4ca","ios":"levelo://app?vid=96d54fdb-5835-4cd8-9827-093c0b08e4ca"},"vehicle_type_id":"4","last_reported":1752454881,"current_range_meters":8000,"station_id":"st_cvj6sg6p6f1abm77japg","pricing_plan_id":"cebpf4jnsgd1na2vs0mg"},{"bike_id":"77f25772-7624-4eeb-9279-c5dceab45101","system_id":"levelo_inurba_marseille","lat":43.31472,"lon":5.37302,"is_reserved":false,"is_disabled":false,"rental_uris":{"android":"levelo://app?vid=77f25772-7624-4eeb-9279-c5dceab45101","ios":"levelo://app?vid=77f25772-7624-4eeb-9279-c5dceab45101"},"vehicle_type_id":"4","last_reported":1752454881,"current_range_meters":8000,"station_id":"ce4bgt12rcd13ifvqcd0","pricing_plan_id":"cebpf4jnsgd1na2vs0mg"},{"bike_id":"470d1e9d-8c05-40b8-a6b2-039f183b9f6a","system_id":"levelo_inurba_marseille","lat":43.23191,"lon":5.35558,"is_reserved":false,"is_disabled":true,"rental_uris":{"android":"levelo://app?vid=470d1e9d-8c05-40b8-a6b2-039f183b9f6a","ios":"levelo://app?vid=470d1e9d-8c05-40b8-a6b2-039f183b9f6a"},"vehicle_type_id":"4","last_reported":1752454881,"current_range_meters":8000,"station_id":"ce4bhu92rcd13ifvqi70","pricing_plan_id":"cebpf4jnsgd1na2vs0mg"},{"bike_id":"2a2d61dc-f6b8-4fbe-a93d-8141ea73f0dd","system_id":"levelo_inurba_marseille","lat":43.3137,"lon":5.38507,"is_reserved":false,"is_disabled":false,"rental_uris":{"android":"levelo://app?vid=2a2d61dc-f6b8-4fbe-a93d-8141ea73f0dd","ios":"levelo://app?vid=2a2d61dc-f6b8-4fbe-a93d-8141ea73f0dd"},"vehicle_type_id":"4","last_reported":1752454881,"current_range_meters":8000,"station_id":"ce4bgt92rcd13ifvqcf0","pricing_plan_id":"cebpf4jnsgd1na2vs0mg"},{"bike_id":"6070c3be-7535-4c90-8ef1-277f2efabd61","system_id":"levelo_inurba_marseille","lat":43.29232,"lon":5.40059,"is_reserved":false,"is_disabled":false,"rental_uris":{"android":"levelo://app?vid=6070c3be-7535-4c90-8ef1-277f2efabd61","ios":"levelo://app?vid=6070c3be-7535-4c90-8ef1-277f2efabd61"},"vehicle_type_id":"4","last_reported":1752454881,"current_range_meters":8000,"station_id":"ce4bh312rcd13ifvqdk0","pricing_plan_id":"cebpf4jnsgd1na2vs0mg"},{"bike_id":"7a888645-4b0c-4379-98d8-380a5347b74c","system_id":"levelo_inurba_marseille","lat":43.27385,"lon":5.36273,"is_reserved":false,"is_disabled":true,"rental_uris":{"android":"levelo://app?vid=7a888645-4b0c-4379-98d8-380a5347b74c","ios":"levelo://app?vid=7a888645-4b0c-4379-98d8-380a5347b74c"},"vehicle_type_id":"4","last_reported":1752454881,"current_range_meters":8400,"station_id":"ce4bhbh2rcd13ifvqeo0","pricing_plan_id":"cebpf4jnsgd1na2vs0mg"},{"bike_id":"44dd919c-32df-4fe9-8b1c-c9988fb68d5b","system_id":"levelo_inurba_marseille","lat":43.26918,"lon":5.40318,"is_reserved":false,"is_disabled":true,"rental_uris":{"android":"levelo://app?vid=44dd919c-32df-4fe9-8b1c-c9988fb68d5b","ios":"levelo://app?vid=44dd919c-32df-4fe9-8b1c-c9988fb68d5b"},"vehicle_type_id":"4","last_reported":1752454881,"current_range_meters":8400,"station_id":"cjm6bp8fraef2m0cb0m0","pricing_plan_id":"cebpf4jnsgd1na2vs0mg"},{"bike_id":"988407eb-f287-4ddc-bcab-367922ef6fc0","system_id":"levelo_inurba_marseille","lat":43.29753,"lon":5.38984,"is_reserved":false,"is_disabled":false,"rental_uris":{"android":"levelo://app?vid=988407eb-f287-4ddc-bcab-367922ef6fc0","ios":"levelo://app?vid=988407eb-f287-4ddc-bcab-367922ef6fc0"},"vehicle_type_id":"4","last_reported":1752454881,"current_range_meters":8400,"station_id":"","pricing_plan_id":"cebpf4jnsgd1na2vs0mg"},{"bike_id":"0b0f1962-1ccb-4bc3-895b-70f8484b3602","system_id":"levelo_inurba_marseille","lat":43.287286,"lon":5.360951,"is_reserved":false,"is_disabled":true,"rental_uris":{"android":"levelo://app?vid=0b0f1962-1ccb-4bc3-895b-70f8484b3602","ios":"levelo://app?vid=0b0f1962-1ccb-4bc3-895b-70f8484b3602"},"vehicle_type_id":"4","last_reported":1752454881,"current_range_meters":8400,"station_id":"cki0cbj6b192h4jlfktg","pricing_plan_id":"cebpf4jnsgd1na2vs0mg"},{"bike_id":"bcfeb0b0-b94e-4e71-a216-f8eb5e1c603f","system_id":"levelo_inurba_marseille","lat":43.31117,"lon":5.37759,"is_reserved":false,"is_disabled":false,"rental_uris":{"android":"levelo://app?vid=bcfeb0b0-b94e-4e71-a216-f8eb5e1c603f","ios":"levelo://app?vid=bcfeb0b0-b94e-4e71-a216-f8eb5e1c603f"},"vehicle_type_id":"4","last_reported":1752454881,"current_range_meters":8800,"station_id":"ce4bgt92rcd13ifvqcg0","pricing_plan_id":"cebpf4jnsgd1na2vs0mg"},{"bike_id":"6f8cf215-b328-4cc7-8dc7-42e06f6bc4c6","system_id":"levelo_inurba_marseille","lat":43.33605,"lon":5.41032,"is_reserved":false,"is_disabled":false,"rental_uris":{"android":"levelo://app?vid=6f8cf215-b328-4cc7-8dc7-42e06f6bc4c6","ios":"levelo://app?vid=6f8cf215-b328-4cc7-8dc7-42e06f6bc4c6"},"vehicle_type_id":"4","last_reported":1752454881,"current_range_meters":8800,"station_id":"ce4bhqh2rcd13ifvqhmg","pricing_plan_id":"cebpf4jnsgd1na2vs0mg"},{"bike_id":"b546fde5-c916-4714-b3b3-316d003149f8","system_id":"levelo_inurba_marseille","lat":43.31116,"lon":5.37764,"is_reserved":false,"is_disabled":false,"rental_uris":{"android":"levelo://app?vid=b546fde5-c916-4714-b3b3-316d003149f8","ios":"levelo://app?vid=b546fde5-c916-4714-b3b3-316d003149f8"},"vehicle_type_id":"4","last_reported":1752454881,"current_range_meters":8800,"station_id":"ce4bgt92rcd13ifvqcg0","pricing_plan_id":"cebpf4jnsgd1na2vs0mg"},{"bike_id":"5d522e77-ec27-4fd6-a510-ea7d6f16223a","system_id":"levelo_inurba_marseille","lat":43.27586,"lon":5.37091,"is_reserved":false,"is_disabled":false,"rental_uris":{"android":"levelo://app?vid=5d522e77-ec27-4fd6-a510-ea7d6f16223a","ios":"levelo://app?vid=5d522e77-ec27-4fd6-a510-ea7d6f16223a"},"vehicle_type_id":"4","last_reported":1752454881,"current_range_meters":8800,"station_id":"","pricing_plan_id":"cebpf4jnsgd1na2vs0mg"},{"bike_id":"afb3e3b0-3b35-40a1-a3d9-2a416ca6d8c0","system_id":"levelo_inurba_marseille","lat":43.27374,"lon":5.36248,"is_reserved":false,"is_disabled":true,"rental_uris":{"android":"levelo://app?vid=afb3e3b0-3b35-40a1-a3d9-2a416ca6d8c0","ios":"levelo://app?vid=afb3e3b0-3b35-40a1-a3d9-2a416ca6d8c0"},"vehicle_type_id":"4","last_reported":1752454881,"current_range_meters":8800,"station_id":"ce4bhbh2rcd13ifvqeo0","pricing_plan_id":"cebpf4jnsgd1na2vs0mg"},{"bike_id":"1bfa1b76-fa6d-4cdd-aff5-612b86c512c4","system_id":"levelo_inurba_marseille","lat":43.265643,"lon":5.390018,"is_reserved":false,"is_disabled":true,"rental_uris":{"android":"levelo://app?vid=1bfa1b76-fa6d-4cdd-aff5-612b86c512c4","ios":"levelo://app?vid=1bfa1b76-fa6d-4cdd-aff5-612b86c512c4"},"vehicle_type_id":"4","last_reported":1752454881,"current_range_meters":8800,"station_id":"ce4bhe12rcd13ifvqf30","pricing_plan_id":"cebpf4jnsgd1na2vs0mg"},{"bike_id":"65883a7b-bd5c-4b24-ae39-eddf40b41674","system_id":"levelo_inurba_marseille","lat":43.31365,"lon":5.384946,"is_reserved":false,"is_disabled":false,"rental_uris":{"android":"levelo://app?vid=65883a7b-bd5c-4b24-ae39-eddf40b41674","ios":"levelo://app?vid=65883a7b-bd5c-4b24-ae39-eddf40b41674"},"vehicle_type_id":"4","last_reported":1752454881,"current_range_meters":8800,"station_id":"ce4bgt92rcd13ifvqcf0","pricing_plan_id":"cebpf4jnsgd1na2vs0mg"},{"bike_id":"23192353-e18f-43dd-a564-3fe03bf4eaf7","system_id":"levelo_inurba_marseille","lat":43.31679,"lon":5.4047,"is_reserved":false,"is_disabled":false,"rental_uris":{"android":"levelo://app?vid=23192353-e18f-43dd-a564-3fe03bf4eaf7","ios":"levelo://app?vid=23192353-e18f-43dd-a564-3fe03bf4eaf7"},"vehicle_type_id":"4","last_reported":1752454881,"current_range_meters":8800,"station_id":"ce4bh012rcd13ifvqd00","pricing_plan_id":"cebpf4jnsgd1na2vs0mg"},{"bike_id":"6dd3191b-b740-4337-aed4-7b685ff90cc9","system_id":"levelo_inurba_marseille","lat":43.33614,"lon":5.41033,"is_reserved":false,"is_disabled":false,"rental_uris":{"android":"levelo://app?vid=6dd3191b-b740-4337-aed4-7b685ff90cc9","ios":"levelo://app?vid=6dd3191b-b740-4337-aed4-7b685ff90cc9"},"vehicle_type_id":"4","last_reported":1752454881,"current_range_meters":8800,"station_id":"ce4bhqh2rcd13ifvqhmg","pricing_plan_id":"cebpf4jnsgd1na2vs0mg"},{"bike_id":"f79a201f-2376-4565-8a84-7d95cbfcc4ee","system_id":"levelo_inurba_marseille","lat":43.3032,"lon":5.4044,"is_reserved":false,"is_disabled":false,"rental_uris":{"android":"levelo://app?vid=f79a201f-2376-4565-8a84-7d95cbfcc4ee","ios":"levelo://app?vid=f79a201f-2376-4565-8a84-7d95cbfcc4ee"},"vehicle_type_id":"4","last_reported":1752454881,"current_range_meters":9200,"station_id":"ce4bh012rcd13ifvqd10","pricing_plan_id":"cebpf4jnsgd1na2vs0mg"},{"bike_id":"bc533fe1-5bd6-44db-b69a-7d67093a35e2","system_id":"levelo_inurba_marseille","lat":43.30792,"lon":5.3816,"is_reserved":false,"is_disabled":false,"rental_uris":{"android":"levelo://app?vid=bc533fe1-5bd6-44db-b69a-7d67093a35e2","ios":"levelo://app?vid=bc533fe1-5bd6-44db-b69a-7d67093a35e2"},"vehicle_type_id":"4","last_reported":1752454881,"current_range_meters":9200,"station_id":"ce4bgt12rcd13ifvqce0","pricing_plan_id":"cebpf4jnsgd1na2vs0mg"},{"bike_id":"49801dc2-618a-44b8-84ae-416cd87fdbe9","system_id":"levelo_inurba_marseille","lat":43.33785,"lon":5.37506,"is_reserved":false,"is_disabled":false,"rental_uris":{"android":"levelo://app?vid=49801dc2-618a-44b8-84ae-416cd87fdbe9","ios":"levelo://app?vid=49801dc2-618a-44b8-84ae-416cd87fdbe9"},"vehicle_type_id":"4","last_reported":1752454881,"current_range_meters":9200,"station_id":"","pricing_plan_id":"cebpf4jnsgd1na2vs0mg"},{"bike_id":"87ecb514-9a2c-409a-b82e-e1638cbabb13","system_id":"levelo_inurba_marseille","lat":43.31119,"lon":5.37757,"is_reserved":false,"is_disabled":false,"rental_uris":{"android":"levelo://app?vid=87ecb514-9a2c-409a-b82e-e1638cbabb13","ios":"levelo://app?vid=87ecb514-9a2c-409a-b82e-e1638cbabb13"},"vehicle_type_id":"4","last_reported":1752454881,"current_range_meters":9200,"station_id":"ce4bgt92rcd13ifvqcg0","pricing_plan_id":"cebpf4jnsgd1na2vs0mg"},{"bike_id":"31f76825-7b9f-439a-a66c-521eb63e58c1","system_id":"levelo_inurba_marseille","lat":43.29471,"lon":5.43835,"is_reserved":false,"is_disabled":false,"rental_uris":{"android":"levelo://app?vid=31f76825-7b9f-439a-a66c-521eb63e58c1","ios":"levelo://app?vid=31f76825-7b9f-439a-a66c-521eb63e58c1"},"vehicle_type_id":"4","last_reported":1752454881,"current_range_meters":9200,"station_id":"","pricing_plan_id":"cebpf4jnsgd1na2vs0mg"},{"bike_id":"9a8b0931-f754-41b1-83c6-b9eee7982ee0","system_id":"levelo_inurba_marseille","lat":43.30367,"lon":5.41891,"is_reserved":false,"is_disabled":true,"rental_uris":{"android":"levelo://app?vid=9a8b0931-f754-41b1-83c6-b9eee7982ee0","ios":"levelo://app?vid=9a8b0931-f754-41b1-83c6-b9eee7982ee0"},"vehicle_type_id":"4","last_reported":1752454881,"current_range_meters":9600,"station_id":"ce4bhop2rcd13ifvqh7g","pricing_plan_id":"cebpf4jnsgd1na2vs0mg"},{"bike_id":"1e68cf7f-f679-49ec-9fa4-c8fe322ba3d2","system_id":"levelo_inurba_marseille","lat":43.29285,"lon":5.40131,"is_reserved":false,"is_disabled":false,"rental_uris":{"android":"levelo://app?vid=1e68cf7f-f679-49ec-9fa4-c8fe322ba3d2","ios":"levelo://app?vid=1e68cf7f-f679-49ec-9fa4-c8fe322ba3d2"},"vehicle_type_id":"4","last_reported":1752454881,"current_range_meters":9600,"station_id":"ce4bh312rcd13ifvqdk0","pricing_plan_id":"cebpf4jnsgd1na2vs0mg"},{"bike_id":"7dd8d5f8-bd8e-4ae1-b837-8a5461ea4f95","system_id":"levelo_inurba_marseille","lat":43.29967,"lon":5.38496,"is_reserved":false,"is_disabled":false,"rental_uris":{"android":"levelo://app?vid=7dd8d5f8-bd8e-4ae1-b837-8a5461ea4f95","ios":"levelo://app?vid=7dd8d5f8-bd8e-4ae1-b837-8a5461ea4f95"},"vehicle_type_id":"4","last_reported":1752454881,"current_range_meters":9600,"station_id":"ce4bgj92rcd13ifvqbd0","pricing_plan_id":"cebpf4jnsgd1na2vs0mg"},{"bike_id":"dd24d546-6d4a-4f17-ba99-7a673eeeee24","system_id":"levelo_inurba_marseille","lat":43.31353,"lon":5.38507,"is_reserved":false,"is_disabled":false,"rental_uris":{"android":"levelo://app?vid=dd24d546-6d4a-4f17-ba99-7a673eeeee24","ios":"levelo://app?vid=dd24d546-6d4a-4f17-ba99-7a673eeeee24"},"vehicle_type_id":"4","last_reported":1752454881,"current_range_meters":9600,"station_id":"ce4bgt92rcd13ifvqcf0","pricing_plan_id":"cebpf4jnsgd1na2vs0mg"},{"bike_id":"3eb11630-449c-463f-b819-e0b639186e64","system_id":"levelo_inurba_marseille","lat":43.30319,"lon":5.40445,"is_reserved":false,"is_disabled":false,"rental_uris":{"android":"levelo://app?vid=3eb11630-449c-463f-b819-e0b639186e64","ios":"levelo://app?vid=3eb11630-449c-463f-b819-e0b639186e64"},"vehicle_type_id":"4","last_reported":1752454881,"current_range_meters":9600,"station_id":"ce4bh012rcd13ifvqd10","pricing_plan_id":"cebpf4jnsgd1na2vs0mg"},{"bike_id":"a645d6c0-dcdf-402b-b506-c70f20c3f081","system_id":"levelo_inurba_marseille","lat":43.31352,"lon":5.38497,"is_reserved":false,"is_disabled":true,"rental_uris":{"android":"levelo://app?vid=a645d6c0-dcdf-402b-b506-c70f20c3f081","ios":"levelo://app?vid=a645d6c0-dcdf-402b-b506-c70f20c3f081"},"vehicle_type_id":"4","last_reported":1752454881,"current_range_meters":10000,"station_id":"ce4bgt92rcd13ifvqcf0","pricing_plan_id":"cebpf4jnsgd1na2vs0mg"},{"bike_id":"ae6b9bb3-31c8-4302-91c6-0e6b059eb0f3","system_id":"levelo_inurba_marseille","lat":43.33807,"lon":5.37399,"is_reserved":false,"is_disabled":true,"rental_uris":{"android":"levelo://app?vid=ae6b9bb3-31c8-4302-91c6-0e6b059eb0f3","ios":"levelo://app?vid=ae6b9bb3-31c8-4302-91c6-0e6b059eb0f3"},"vehicle_type_id":"4","last_reported":1752454881,"current_range_meters":10000,"station_id":"","pricing_plan_id":"cebpf4jnsgd1na2vs0mg"},{"bike_id":"8b37f03f-f226-4bbc-8648-b109da7ba145","system_id":"levelo_inurba_marseille","lat":43.30536,"lon":5.366999,"is_reserved":false,"is_disabled":false,"rental_uris":{"android":"levelo://app?vid=8b37f03f-f226-4bbc-8648-b109da7ba145","ios":"levelo://app?vid=8b37f03f-f226-4bbc-8648-b109da7ba145"},"vehicle_type_id":"4","last_reported":1752454881,"current_range_meters":10000,"station_id":"","pricing_plan_id":"cebpf4jnsgd1na2vs0mg"},{"bike_id":"b26dd468-1333-4aea-ba7e-005b5d1ba5e9","system_id":"levelo_inurba_marseille","lat":43.23151,"lon":5.43714,"is_reserved":false,"is_disabled":false,"rental_uris":{"android":"levelo://app?vid=b26dd468-1333-4aea-ba7e-005b5d1ba5e9","ios":"levelo://app?vid=b26dd468-1333-4aea-ba7e-005b5d1ba5e9"},"vehicle_type_id":"4","last_reported":1752454881,"current_range_meters":10000,"station_id":"ce4bhmp2rcd13ifvqgog","pricing_plan_id":"cebpf4jnsgd1na2vs0mg"},{"bike_id":"3705f2d6-d610-4848-8b39-bbf5ffa61db7","system_id":"levelo_inurba_marseille","lat":43.30873,"lon":5.39613,"is_reserved":false,"is_disabled":false,"rental_uris":{"android":"levelo://app?vid=3705f2d6-d610-4848-8b39-bbf5ffa61db7","ios":"levelo://app?vid=3705f2d6-d610-4848-8b39-bbf5ffa61db7"},"vehicle_type_id":"4","last_reported":1752454881,"current_range_meters":10800,"station_id":"ce4bh012rcd13ifvqcv0","pricing_plan_id":"cebpf4jnsgd1na2vs0mg"},{"bike_id":"bd1431e6-d85e-4e07-a132-6569384efa06","system_id":"levelo_inurba_marseille","lat":43.31073,"lon":5.38352,"is_reserved":false,"is_disabled":false,"rental_uris":{"android":"levelo://app?vid=bd1431e6-d85e-4e07-a132-6569384efa06","ios":"levelo://app?vid=bd1431e6-d85e-4e07-a132-6569384efa06"},"vehicle_type_id":"4","last_reported":1752454881,"current_range_meters":10800,"station_id":"ce4bgv92rcd13ifvqcr0","pricing_plan_id":"cebpf4jnsgd1na2vs0mg"},{"bike_id":"cc877551-7c9b-433e-a1fe-e191a366d573","system_id":"levelo_inurba_marseille","lat":43.29261,"lon":5.4091,"is_reserved":false,"is_disabled":false,"rental_uris":{"android":"levelo://app?vid=cc877551-7c9b-433e-a1fe-e191a366d573","ios":"levelo://app?vid=cc877551-7c9b-433e-a1fe-e191a366d573"},"vehicle_type_id":"4","last_reported":1752454881,"current_range_meters":10800,"station_id":"ce4bh192rcd13ifvqdc0","pricing_plan_id":"cebpf4jnsgd1na2vs0mg"},{"bike_id":"f23760ff-ab61-4853-aa67-28aac93822c1","system_id":"levelo_inurba_marseille","lat":43.337444,"lon":5.374475,"is_reserved":false,"is_disabled":false,"rental_uris":{"android":"levelo://app?vid=f23760ff-ab61-4853-aa67-28aac93822c1","ios":"levelo://app?vid=f23760ff-ab61-4853-aa67-28aac93822c1"},"vehicle_type_id":"4","last_reported":1752454881,"current_range_meters":10800,"station_id":"","pricing_plan_id":"cebpf4jnsgd1na2vs0mg"},{"bike_id":"cb4f95d9-832a-4dca-8c8f-502cf6e82f3b","system_id":"levelo_inurba_marseille","lat":43.28709,"lon":5.3999,"is_reserved":false,"is_disabled":false,"rental_uris":{"android":"levelo://app?vid=cb4f95d9-832a-4dca-8c8f-502cf6e82f3b","ios":"levelo://app?vid=cb4f95d9-832a-4dca-8c8f-502cf6e82f3b"},"vehicle_type_id":"4","last_reported":1752454881,"current_range_meters":10800,"station_id":"ce4bho92rcd13ifvqh3g","pricing_plan_id":"cebpf4jnsgd1na2vs0mg"},{"bike_id":"6dd5347a-8512-41c8-8f48-b0b8c31c14f5","system_id":"levelo_inurba_marseille","lat":43.28843,"lon":5.35841,"is_reserved":false,"is_disabled":false,"rental_uris":{"android":"levelo://app?vid=6dd5347a-8512-41c8-8f48-b0b8c31c14f5","ios":"levelo://app?vid=6dd5347a-8512-41c8-8f48-b0b8c31c14f5"},"vehicle_type_id":"4","last_reported":1752454881,"current_range_meters":11200,"station_id":"ce4bhb12rcd13ifvqem0","pricing_plan_id":"cebpf4jnsgd1na2vs0mg"},{"bike_id":"62fac614-47b6-4ccf-9920-6cea6ff3d419","system_id":"levelo_inurba_marseille","lat":43.23049,"lon":5.355013,"is_reserved":false,"is_disabled":true,"rental_uris":{"android":"levelo://app?vid=62fac614-47b6-4ccf-9920-6cea6ff3d419","ios":"levelo://app?vid=62fac614-47b6-4ccf-9920-6cea6ff3d419"},"vehicle_type_id":"4","last_reported":1752454881,"current_range_meters":11200,"station_id":"cpo3342slgdg3j2ifvpg","pricing_plan_id":"cebpf4jnsgd1na2vs0mg"},{"bike_id":"59bd944e-8158-4d03-98d6-e97af0707782","system_id":"levelo_inurba_marseille","lat":43.21195,"lon":5.35073,"is_reserved":false,"is_disabled":false,"rental_uris":{"android":"levelo://app?vid=59bd944e-8158-4d03-98d6-e97af0707782","ios":"levelo://app?vid=59bd944e-8158-4d03-98d6-e97af0707782"},"vehicle_type_id":"4","last_reported":1752454881,"current_range_meters":11200,"station_id":"st_cvj6sg6p6f1abm77japg","pricing_plan_id":"cebpf4jnsgd1na2vs0mg"},{"bike_id":"635be547-aa9a-494f-b7ec-9288fa89b0d0","system_id":"levelo_inurba_marseille","lat":43.29518,"lon":5.39404,"is_reserved":false,"is_disabled":false,"rental_uris":{"android":"levelo://app?vid=635be547-aa9a-494f-b7ec-9288fa89b0d0","ios":"levelo://app?vid=635be547-aa9a-494f-b7ec-9288fa89b0d0"},"vehicle_type_id":"4","last_reported":1752454881,"current_range_meters":11200,"station_id":"ce4bh292rcd13ifvqdf0","pricing_plan_id":"cebpf4jnsgd1na2vs0mg"},{"bike_id":"601412b0-6528-47af-965e-1711a93589ae","system_id":"levelo_inurba_marseille","lat":43.29552,"lon":5.42286,"is_reserved":false,"is_disabled":false,"rental_uris":{"android":"levelo://app?vid=601412b0-6528-47af-965e-1711a93589ae","ios":"levelo://app?vid=601412b0-6528-47af-965e-1711a93589ae"},"vehicle_type_id":"4","last_reported":1752454881,"current_range_meters":11600,"station_id":"ce4bhph2rcd13ifvqhdg","pricing_plan_id":"cebpf4jnsgd1na2vs0mg"},{"bike_id":"755f5a2b-ffe3-41e3-b53b-f76d7bf8470a","system_id":"levelo_inurba_marseille","lat":43.27937,"lon":5.41042,"is_reserved":false,"is_disabled":false,"rental_uris":{"android":"levelo://app?vid=755f5a2b-ffe3-41e3-b53b-f76d7bf8470a","ios":"levelo://app?vid=755f5a2b-ffe3-41e3-b53b-f76d7bf8470a"},"vehicle_type_id":"4","last_reported":1752454881,"current_range_meters":11600,"station_id":"ce4bhnp2rcd13ifvqh0g","pricing_plan_id":"cebpf4jnsgd1na2vs0mg"},{"bike_id":"4e668ccc-52b2-4670-93cb-9c8695885132","system_id":"levelo_inurba_marseille","lat":43.32374,"lon":5.38899,"is_reserved":false,"is_disabled":false,"rental_uris":{"android":"levelo://app?vid=4e668ccc-52b2-4670-93cb-9c8695885132","ios":"levelo://app?vid=4e668ccc-52b2-4670-93cb-9c8695885132"},"vehicle_type_id":"4","last_reported":1752454881,"current_range_meters":11600,"station_id":"ce4bhqp2rcd13ifvqhog","pricing_plan_id":"cebpf4jnsgd1na2vs0mg"},{"bike_id":"e2ce6e8a-ef9f-4211-8776-042780e4931d","system_id":"levelo_inurba_marseille","lat":43.28304,"lon":5.34931,"is_reserved":false,"is_disabled":true,"rental_uris":{"android":"levelo://app?vid=e2ce6e8a-ef9f-4211-8776-042780e4931d","ios":"levelo://app?vid=e2ce6e8a-ef9f-4211-8776-042780e4931d"},"vehicle_type_id":"4","last_reported":1752454881,"current_range_meters":11600,"station_id":"ce4bhbh2rcd13ifvqepg","pricing_plan_id":"cebpf4jnsgd1na2vs0mg"},{"bike_id":"7048b274-bb73-4f78-bd84-2dffe4927289","system_id":"levelo_inurba_marseille","lat":43.29781,"lon":5.39352,"is_reserved":false,"is_disabled":true,"rental_uris":{"android":"levelo://app?vid=7048b274-bb73-4f78-bd84-2dffe4927289","ios":"levelo://app?vid=7048b274-bb73-4f78-bd84-2dffe4927289"},"vehicle_type_id":"4","last_reported":1752454881,"current_range_meters":11600,"station_id":"chh1huq6cuj3fo74tm60","pricing_plan_id":"cebpf4jnsgd1na2vs0mg"},{"bike_id":"0eadb807-73f6-424a-bcd7-3b07bd18ff50","system_id":"levelo_inurba_marseille","lat":43.32121,"lon":5.36784,"is_reserved":false,"is_disabled":false,"rental_uris":{"android":"levelo://app?vid=0eadb807-73f6-424a-bcd7-3b07bd18ff50","ios":"levelo://app?vid=0eadb807-73f6-424a-bcd7-3b07bd18ff50"},"vehicle_type_id":"4","last_reported":1752454881,"current_range_meters":11600,"station_id":"ce4bhrh2rcd13ifvqhug","pricing_plan_id":"cebpf4jnsgd1na2vs0mg"},{"bike_id":"bd6600f4-1058-4041-b41e-b1fea56f6cb4","system_id":"levelo_inurba_marseille","lat":43.28414,"lon":5.375172,"is_reserved":false,"is_disabled":false,"rental_uris":{"android":"levelo://app?vid=bd6600f4-1058-4041-b41e-b1fea56f6cb4","ios":"levelo://app?vid=bd6600f4-1058-4041-b41e-b1fea56f6cb4"},"vehicle_type_id":"4","last_reported":1752454881,"current_range_meters":11600,"station_id":"ce4bh412rcd13ifvqds0","pricing_plan_id":"cebpf4jnsgd1na2vs0mg"},{"bike_id":"90aa84a6-0427-4abb-8b3c-6c42a992ad92","system_id":"levelo_inurba_marseille","lat":43.26585,"lon":5.39003,"is_reserved":false,"is_disabled":false,"rental_uris":{"android":"levelo://app?vid=90aa84a6-0427-4abb-8b3c-6c42a992ad92","ios":"levelo://app?vid=90aa84a6-0427-4abb-8b3c-6c42a992ad92"},"vehicle_type_id":"4","last_reported":1752454881,"current_range_meters":12000,"station_id":"ce4bhe12rcd13ifvqf30","pricing_plan_id":"cebpf4jnsgd1na2vs0mg"},{"bike_id":"1366d683-1ebd-44a1-9e66-5d68d4b85ee8","system_id":"levelo_inurba_marseille","lat":43.25714,"lon":5.41112,"is_reserved":false,"is_disabled":false,"rental_uris":{"android":"levelo://app?vid=1366d683-1ebd-44a1-9e66-5d68d4b85ee8","ios":"levelo://app?vid=1366d683-1ebd-44a1-9e66-5d68d4b85ee8"},"vehicle_type_id":"4","last_reported":1752454881,"current_range_meters":12000,"station_id":"ce4bhkp2rcd13ifvqgd0","pricing_plan_id":"cebpf4jnsgd1na2vs0mg"},{"bike_id":"576e7513-4148-45c9-ba23-87d14622e81d","system_id":"levelo_inurba_marseille","lat":43.33599,"lon":5.41033,"is_reserved":false,"is_disabled":false,"rental_uris":{"android":"levelo://app?vid=576e7513-4148-45c9-ba23-87d14622e81d","ios":"levelo://app?vid=576e7513-4148-45c9-ba23-87d14622e81d"},"vehicle_type_id":"4","last_reported":1752454881,"current_range_meters":12000,"station_id":"ce4bhqh2rcd13ifvqhmg","pricing_plan_id":"cebpf4jnsgd1na2vs0mg"},{"bike_id":"08d804b1-df6f-4e13-8de0-b91da5966c34","system_id":"levelo_inurba_marseille","lat":43.32334,"lon":5.40619,"is_reserved":false,"is_disabled":false,"rental_uris":{"android":"levelo://app?vid=08d804b1-df6f-4e13-8de0-b91da5966c34","ios":"levelo://app?vid=08d804b1-df6f-4e13-8de0-b91da5966c34"},"vehicle_type_id":"4","last_reported":1752454881,"current_range_meters":12000,"station_id":"ce4bhq92rcd13ifvqhjg","pricing_plan_id":"cebpf4jnsgd1na2vs0mg"},{"bike_id":"a44f68aa-b920-4eb6-845e-df1183944a6b","system_id":"levelo_inurba_marseille","lat":43.28557,"lon":5.35091,"is_reserved":false,"is_disabled":true,"rental_uris":{"android":"levelo://app?vid=a44f68aa-b920-4eb6-845e-df1183944a6b","ios":"levelo://app?vid=a44f68aa-b920-4eb6-845e-df1183944a6b"},"vehicle_type_id":"4","last_reported":1752454881,"current_range_meters":12000,"station_id":"","pricing_plan_id":"cebpf4jnsgd1na2vs0mg"},{"bike_id":"7828aed1-b7d7-4656-9ffb-415890e27792","system_id":"levelo_inurba_marseille","lat":43.31688,"lon":5.40476,"is_reserved":false,"is_disabled":false,"rental_uris":{"android":"levelo://app?vid=7828aed1-b7d7-4656-9ffb-415890e27792","ios":"levelo://app?vid=7828aed1-b7d7-4656-9ffb-415890e27792"},"vehicle_type_id":"4","last_reported":1752454881,"current_range_meters":12000,"station_id":"ce4bh012rcd13ifvqd00","pricing_plan_id":"cebpf4jnsgd1na2vs0mg"},{"bike_id":"8bb2fc84-0b5a-48de-81fe-b50cfd9e11a6","system_id":"levelo_inurba_marseille","lat":43.24167,"lon":5.36392,"is_reserved":false,"is_disabled":false,"rental_uris":{"android":"levelo://app?vid=8bb2fc84-0b5a-48de-81fe-b50cfd9e11a6","ios":"levelo://app?vid=8bb2fc84-0b5a-48de-81fe-b50cfd9e11a6"},"vehicle_type_id":"4","last_reported":1752454881,"current_range_meters":12000,"station_id":"cpo36qri1sfpv3e86is0","pricing_plan_id":"cebpf4jnsgd1na2vs0mg"},{"bike_id":"74533c06-2384-4868-b838-9cd9b849e197","system_id":"levelo_inurba_marseille","lat":43.28146,"lon":5.42634,"is_reserved":false,"is_disabled":false,"rental_uris":{"android":"levelo://app?vid=74533c06-2384-4868-b838-9cd9b849e197","ios":"levelo://app?vid=74533c06-2384-4868-b838-9cd9b849e197"},"vehicle_type_id":"4","last_reported":1752454881,"current_range_meters":12400,"station_id":"ce4bhnh2rcd13ifvqgug","pricing_plan_id":"cebpf4jnsgd1na2vs0mg"},{"bike_id":"c6831e47-16b3-420c-b036-b32c6f9f7658","system_id":"levelo_inurba_marseille","lat":43.24157,"lon":5.39409,"is_reserved":false,"is_disabled":false,"rental_uris":{"android":"levelo://app?vid=c6831e47-16b3-420c-b036-b32c6f9f7658","ios":"levelo://app?vid=c6831e47-16b3-420c-b036-b32c6f9f7658"},"vehicle_type_id":"4","last_reported":1752454881,"current_range_meters":12400,"station_id":"","pricing_plan_id":"cebpf4jnsgd1na2vs0mg"},{"bike_id":"9a46b9ab-a60b-45fc-88a3-caad63ae5b94","system_id":"levelo_inurba_marseille","lat":43.33797,"lon":5.37468,"is_reserved":false,"is_disabled":true,"rental_uris":{"android":"levelo://app?vid=9a46b9ab-a60b-45fc-88a3-caad63ae5b94","ios":"levelo://app?vid=9a46b9ab-a60b-45fc-88a3-caad63ae5b94"},"vehicle_type_id":"4","last_reported":1752454881,"current_range_meters":12400,"station_id":"","pricing_plan_id":"cebpf4jnsgd1na2vs0mg"},{"bike_id":"eb3fc7e1-f44d-4380-819b-160aef6ef53e","system_id":"levelo_inurba_marseille","lat":43.31088,"lon":5.38355,"is_reserved":false,"is_disabled":false,"rental_uris":{"android":"levelo://app?vid=eb3fc7e1-f44d-4380-819b-160aef6ef53e","ios":"levelo://app?vid=eb3fc7e1-f44d-4380-819b-160aef6ef53e"},"vehicle_type_id":"4","last_reported":1752454881,"current_range_meters":12400,"station_id":"ce4bgv92rcd13ifvqcr0","pricing_plan_id":"cebpf4jnsgd1na2vs0mg"},{"bike_id":"1a469edf-5352-481f-91e3-cfaef6ee1547","system_id":"levelo_inurba_marseille","lat":43.21201,"lon":5.35114,"is_reserved":false,"is_disabled":false,"rental_uris":{"android":"levelo://app?vid=1a469edf-5352-481f-91e3-cfaef6ee1547","ios":"levelo://app?vid=1a469edf-5352-481f-91e3-cfaef6ee1547"},"vehicle_type_id":"4","last_reported":1752454881,"current_range_meters":13600,"station_id":"st_cvj6sg6p6f1abm77japg","pricing_plan_id":"cebpf4jnsgd1na2vs0mg"},{"bike_id":"7c10536b-30de-46ef-908c-8076b603b176","system_id":"levelo_inurba_marseille","lat":43.31357,"lon":5.38499,"is_reserved":false,"is_disabled":false,"rental_uris":{"android":"levelo://app?vid=7c10536b-30de-46ef-908c-8076b603b176","ios":"levelo://app?vid=7c10536b-30de-46ef-908c-8076b603b176"},"vehicle_type_id":"4","last_reported":1752454881,"current_range_meters":13600,"station_id":"ce4bgt92rcd13ifvqcf0","pricing_plan_id":"cebpf4jnsgd1na2vs0mg"},{"bike_id":"4a363f4c-7fdb-40d4-a5e1-7ce76340cec0","system_id":"levelo_inurba_marseille","lat":43.292474,"lon":5.409115,"is_reserved":false,"is_disabled":false,"rental_uris":{"android":"levelo://app?vid=4a363f4c-7fdb-40d4-a5e1-7ce76340cec0","ios":"levelo://app?vid=4a363f4c-7fdb-40d4-a5e1-7ce76340cec0"},"vehicle_type_id":"4","last_reported":1752454881,"current_range_meters":13600,"station_id":"ce4bh192rcd13ifvqdc0","pricing_plan_id":"cebpf4jnsgd1na2vs0mg"},{"bike_id":"1fc7943e-d748-4371-8d27-16bb473fa194","system_id":"levelo_inurba_marseille","lat":43.31083,"lon":5.38345,"is_reserved":false,"is_disabled":false,"rental_uris":{"android":"levelo://app?vid=1fc7943e-d748-4371-8d27-16bb473fa194","ios":"levelo://app?vid=1fc7943e-d748-4371-8d27-16bb473fa194"},"vehicle_type_id":"4","last_reported":1752454881,"current_range_meters":13600,"station_id":"ce4bgv92rcd13ifvqcr0","pricing_plan_id":"cebpf4jnsgd1na2vs0mg"},{"bike_id":"79c3059b-23ae-4eba-a288-c035e60ff0fd","system_id":"levelo_inurba_marseille","lat":43.28703,"lon":5.3998,"is_reserved":false,"is_disabled":false,"rental_uris":{"android":"levelo://app?vid=79c3059b-23ae-4eba-a288-c035e60ff0fd","ios":"levelo://app?vid=79c3059b-23ae-4eba-a288-c035e60ff0fd"},"vehicle_type_id":"4","last_reported":1752454881,"current_range_meters":13600,"station_id":"ce4bho92rcd13ifvqh3g","pricing_plan_id":"cebpf4jnsgd1na2vs0mg"},{"bike_id":"7b01c54a-1435-4269-9be3-6a000260f3d9","system_id":"levelo_inurba_marseille","lat":43.303205,"lon":5.404443,"is_reserved":false,"is_disabled":false,"rental_uris":{"android":"levelo://app?vid=7b01c54a-1435-4269-9be3-6a000260f3d9","ios":"levelo://app?vid=7b01c54a-1435-4269-9be3-6a000260f3d9"},"vehicle_type_id":"4","last_reported":1752454881,"current_range_meters":14000,"station_id":"ce4bh012rcd13ifvqd10","pricing_plan_id":"cebpf4jnsgd1na2vs0mg"},{"bike_id":"58375fde-ca97-4dab-be52-59caf98323d3","system_id":"levelo_inurba_marseille","lat":43.26565,"lon":5.37289,"is_reserved":false,"is_disabled":true,"rental_uris":{"android":"levelo://app?vid=58375fde-ca97-4dab-be52-59caf98323d3","ios":"levelo://app?vid=58375fde-ca97-4dab-be52-59caf98323d3"},"vehicle_type_id":"4","last_reported":1752454881,"current_range_meters":14000,"station_id":"ce4bhg12rcd13ifvqf70","pricing_plan_id":"cebpf4jnsgd1na2vs0mg"},{"bike_id":"79ac9d5c-87ca-42a3-a25e-34606432c125","system_id":"levelo_inurba_marseille","lat":43.211856,"lon":5.3508,"is_reserved":false,"is_disabled":false,"rental_uris":{"android":"levelo://app?vid=79ac9d5c-87ca-42a3-a25e-34606432c125","ios":"levelo://app?vid=79ac9d5c-87ca-42a3-a25e-34606432c125"},"vehicle_type_id":"4","last_reported":1752454881,"current_range_meters":14000,"station_id":"st_cvj6sg6p6f1abm77japg","pricing_plan_id":"cebpf4jnsgd1na2vs0mg"},{"bike_id":"1700fcd6-30ad-4b74-a158-50e5dcb60b9b","system_id":"levelo_inurba_marseille","lat":43.28945,"lon":5.36634,"is_reserved":false,"is_disabled":true,"rental_uris":{"android":"levelo://app?vid=1700fcd6-30ad-4b74-a158-50e5dcb60b9b","ios":"levelo://app?vid=1700fcd6-30ad-4b74-a158-50e5dcb60b9b"},"vehicle_type_id":"4","last_reported":1752454881,"current_range_meters":14000,"station_id":"ce4bhap2rcd13ifvqek0","pricing_plan_id":"cebpf4jnsgd1na2vs0mg"},{"bike_id":"bfa12c31-1a7d-4ff9-9e9a-e56395392d12","system_id":"levelo_inurba_marseille","lat":43.23198,"lon":5.35561,"is_reserved":false,"is_disabled":true,"rental_uris":{"android":"levelo://app?vid=bfa12c31-1a7d-4ff9-9e9a-e56395392d12","ios":"levelo://app?vid=bfa12c31-1a7d-4ff9-9e9a-e56395392d12"},"vehicle_type_id":"4","last_reported":1752454881,"current_range_meters":14000,"station_id":"ce4bhu92rcd13ifvqi70","pricing_plan_id":"cebpf4jnsgd1na2vs0mg"},{"bike_id":"4c7b8b0f-88b0-4aff-9ba3-6dc72c40a219","system_id":"levelo_inurba_marseille","lat":43.256738,"lon":5.410729,"is_reserved":false,"is_disabled":false,"rental_uris":{"android":"levelo://app?vid=4c7b8b0f-88b0-4aff-9ba3-6dc72c40a219","ios":"levelo://app?vid=4c7b8b0f-88b0-4aff-9ba3-6dc72c40a219"},"vehicle_type_id":"4","last_reported":1752454881,"current_range_meters":14400,"station_id":"ce4bhch2rcd13ifvqeug","pricing_plan_id":"cebpf4jnsgd1na2vs0mg"},{"bike_id":"45188167-3ad3-4475-9fe8-d5ea05565916","system_id":"levelo_inurba_marseille","lat":43.32483,"lon":5.36561,"is_reserved":false,"is_disabled":false,"rental_uris":{"android":"levelo://app?vid=45188167-3ad3-4475-9fe8-d5ea05565916","ios":"levelo://app?vid=45188167-3ad3-4475-9fe8-d5ea05565916"},"vehicle_type_id":"4","last_reported":1752454881,"current_range_meters":14400,"station_id":"ce4bhs12rcd13ifvqhvg","pricing_plan_id":"cebpf4jnsgd1na2vs0mg"},{"bike_id":"a805ea15-8d19-4b47-b928-3ba7a1b1f98c","system_id":"levelo_inurba_marseille","lat":43.24171,"lon":5.36394,"is_reserved":false,"is_disabled":false,"rental_uris":{"android":"levelo://app?vid=a805ea15-8d19-4b47-b928-3ba7a1b1f98c","ios":"levelo://app?vid=a805ea15-8d19-4b47-b928-3ba7a1b1f98c"},"vehicle_type_id":"4","last_reported":1752454881,"current_range_meters":14400,"station_id":"cpo36qri1sfpv3e86is0","pricing_plan_id":"cebpf4jnsgd1na2vs0mg"},{"bike_id":"da970016-921a-459c-8ab5-665b3f95f5da","system_id":"levelo_inurba_marseille","lat":43.31334,"lon":5.39727,"is_reserved":false,"is_disabled":false,"rental_uris":{"android":"levelo://app?vid=da970016-921a-459c-8ab5-665b3f95f5da","ios":"levelo://app?vid=da970016-921a-459c-8ab5-665b3f95f5da"},"vehicle_type_id":"4","last_reported":1752454881,"current_range_meters":14400,"station_id":"ce4bgvp2rcd13ifvqcu0","pricing_plan_id":"cebpf4jnsgd1na2vs0mg"},{"bike_id":"684d7cc6-ed0a-4e68-8df1-5d6203895bf9","system_id":"levelo_inurba_marseille","lat":43.27514,"lon":5.43458,"is_reserved":false,"is_disabled":false,"rental_uris":{"android":"levelo://app?vid=684d7cc6-ed0a-4e68-8df1-5d6203895bf9","ios":"levelo://app?vid=684d7cc6-ed0a-4e68-8df1-5d6203895bf9"},"vehicle_type_id":"4","last_reported":1752454881,"current_range_meters":14400,"station_id":"","pricing_plan_id":"cebpf4jnsgd1na2vs0mg"},{"bike_id":"53a7c5a0-bf42-4a71-a975-ed65973eff06","system_id":"levelo_inurba_marseille","lat":43.30246,"lon":5.40042,"is_reserved":false,"is_disabled":false,"rental_uris":{"android":"levelo://app?vid=53a7c5a0-bf42-4a71-a975-ed65973eff06","ios":"levelo://app?vid=53a7c5a0-bf42-4a71-a975-ed65973eff06"},"vehicle_type_id":"4","last_reported":1752454881,"current_range_meters":14400,"station_id":"ce4bgvh2rcd13ifvqcs0","pricing_plan_id":"cebpf4jnsgd1na2vs0mg"},{"bike_id":"79724c7a-8951-4858-8e03-5dd8592df824","system_id":"levelo_inurba_marseille","lat":43.30182,"lon":5.36995,"is_reserved":false,"is_disabled":true,"rental_uris":{"android":"levelo://app?vid=79724c7a-8951-4858-8e03-5dd8592df824","ios":"levelo://app?vid=79724c7a-8951-4858-8e03-5dd8592df824"},"vehicle_type_id":"4","last_reported":1752454881,"current_range_meters":14800,"station_id":"ce4bgqh2rcd13ifvqc5g","pricing_plan_id":"cebpf4jnsgd1na2vs0mg"},{"bike_id":"31983777-8f2e-4731-9c64-65a88973ccfc","system_id":"levelo_inurba_marseille","lat":43.292551,"lon":5.409024,"is_reserved":false,"is_disabled":false,"rental_uris":{"android":"levelo://app?vid=31983777-8f2e-4731-9c64-65a88973ccfc","ios":"levelo://app?vid=31983777-8f2e-4731-9c64-65a88973ccfc"},"vehicle_type_id":"4","last_reported":1752454881,"current_range_meters":14800,"station_id":"ce4bh192rcd13ifvqdc0","pricing_plan_id":"cebpf4jnsgd1na2vs0mg"},{"bike_id":"a5637b1c-2724-4905-93b2-7a51ec476108","system_id":"levelo_inurba_marseille","lat":43.29801,"lon":5.40402,"is_reserved":false,"is_disabled":false,"rental_uris":{"android":"levelo://app?vid=a5637b1c-2724-4905-93b2-7a51ec476108","ios":"levelo://app?vid=a5637b1c-2724-4905-93b2-7a51ec476108"},"vehicle_type_id":"4","last_reported":1752454881,"current_range_meters":14800,"station_id":"ce4bh112rcd13ifvqd90","pricing_plan_id":"cebpf4jnsgd1na2vs0mg"},{"bike_id":"7b60e2b3-fe60-4caf-8d3e-4c917054d448","system_id":"levelo_inurba_marseille","lat":43.28421,"lon":5.34983,"is_reserved":false,"is_disabled":true,"rental_uris":{"android":"levelo://app?vid=7b60e2b3-fe60-4caf-8d3e-4c917054d448","ios":"levelo://app?vid=7b60e2b3-fe60-4caf-8d3e-4c917054d448"},"vehicle_type_id":"4","last_reported":1752454881,"current_range_meters":15200,"station_id":"ce4bhbh2rcd13ifvqepg","pricing_plan_id":"cebpf4jnsgd1na2vs0mg"},{"bike_id":"28f6661f-fa05-4b8f-8f5e-cb4158aac2c7","system_id":"levelo_inurba_marseille","lat":43.2937,"lon":5.37836,"is_reserved":false,"is_disabled":true,"rental_uris":{"android":"levelo://app?vid=28f6661f-fa05-4b8f-8f5e-cb4158aac2c7","ios":"levelo://app?vid=28f6661f-fa05-4b8f-8f5e-cb4158aac2c7"},"vehicle_type_id":"4","last_reported":1752454881,"current_range_meters":15200,"station_id":"ce4bgjh2rcd13ifvqbf0","pricing_plan_id":"cebpf4jnsgd1na2vs0mg"},{"bike_id":"31c710b8-59c4-4592-9629-b8ad795fae60","system_id":"levelo_inurba_marseille","lat":43.302457,"lon":5.400697,"is_reserved":false,"is_disabled":true,"rental_uris":{"android":"levelo://app?vid=31c710b8-59c4-4592-9629-b8ad795fae60","ios":"levelo://app?vid=31c710b8-59c4-4592-9629-b8ad795fae60"},"vehicle_type_id":"4","last_reported":1752454881,"current_range_meters":15200,"station_id":"ce4bgvh2rcd13ifvqcs0","pricing_plan_id":"cebpf4jnsgd1na2vs0mg"},{"bike_id":"a18169ac-e65a-49b0-b67b-60034da00a8e","system_id":"levelo_inurba_marseille","lat":43.27808,"lon":5.40716,"is_reserved":false,"is_disabled":false,"rental_uris":{"android":"levelo://app?vid=a18169ac-e65a-49b0-b67b-60034da00a8e","ios":"levelo://app?vid=a18169ac-e65a-49b0-b67b-60034da00a8e"},"vehicle_type_id":"4","last_reported":1752454881,"current_range_meters":15200,"station_id":"ce4bhnh2rcd13ifvqgtg","pricing_plan_id":"cebpf4jnsgd1na2vs0mg"},{"bike_id":"7269d02a-d339-42f2-9268-579d2d090d90","system_id":"levelo_inurba_marseille","lat":43.28118,"lon":5.43854,"is_reserved":false,"is_disabled":false,"rental_uris":{"android":"levelo://app?vid=7269d02a-d339-42f2-9268-579d2d090d90","ios":"levelo://app?vid=7269d02a-d339-42f2-9268-579d2d090d90"},"vehicle_type_id":"4","last_reported":1752454881,"current_range_meters":15200,"station_id":"","pricing_plan_id":"cebpf4jnsgd1na2vs0mg"},{"bike_id":"b053f929-7efb-49cd-9959-74ef096980bb","system_id":"levelo_inurba_marseille","lat":43.33762,"lon":5.37469,"is_reserved":false,"is_disabled":true,"rental_uris":{"android":"levelo://app?vid=b053f929-7efb-49cd-9959-74ef096980bb","ios":"levelo://app?vid=b053f929-7efb-49cd-9959-74ef096980bb"},"vehicle_type_id":"4","last_reported":1752454881,"current_range_meters":15200,"station_id":"","pricing_plan_id":"cebpf4jnsgd1na2vs0mg"},{"bike_id":"42c970b8-526e-4a38-b59c-65adacac7d63","system_id":"levelo_inurba_marseille","lat":43.30321,"lon":5.40444,"is_reserved":false,"is_disabled":false,"rental_uris":{"android":"levelo://app?vid=42c970b8-526e-4a38-b59c-65adacac7d63","ios":"levelo://app?vid=42c970b8-526e-4a38-b59c-65adacac7d63"},"vehicle_type_id":"4","last_reported":1752454881,"current_range_meters":15200,"station_id":"ce4bh012rcd13ifvqd10","pricing_plan_id":"cebpf4jnsgd1na2vs0mg"},{"bike_id":"34290a44-4287-4791-be94-161e8abd261f","system_id":"levelo_inurba_marseille","lat":43.27993,"lon":5.40004,"is_reserved":false,"is_disabled":false,"rental_uris":{"android":"levelo://app?vid=34290a44-4287-4791-be94-161e8abd261f","ios":"levelo://app?vid=34290a44-4287-4791-be94-161e8abd261f"},"vehicle_type_id":"4","last_reported":1752454881,"current_range_meters":15200,"station_id":"ce4bho92rcd13ifvqh4g","pricing_plan_id":"cebpf4jnsgd1na2vs0mg"},{"bike_id":"5d506469-9b9b-47b1-b1d6-01c830ef0a24","system_id":"levelo_inurba_marseille","lat":43.286966,"lon":5.400019,"is_reserved":false,"is_disabled":false,"rental_uris":{"android":"levelo://app?vid=5d506469-9b9b-47b1-b1d6-01c830ef0a24","ios":"levelo://app?vid=5d506469-9b9b-47b1-b1d6-01c830ef0a24"},"vehicle_type_id":"4","last_reported":1752454881,"current_range_meters":15200,"station_id":"ce4bho92rcd13ifvqh3g","pricing_plan_id":"cebpf4jnsgd1na2vs0mg"},{"bike_id":"95263674-6383-4f36-b819-d255b1977ec6","system_id":"levelo_inurba_marseille","lat":43.2315,"lon":5.35567,"is_reserved":false,"is_disabled":false,"rental_uris":{"android":"levelo://app?vid=95263674-6383-4f36-b819-d255b1977ec6","ios":"levelo://app?vid=95263674-6383-4f36-b819-d255b1977ec6"},"vehicle_type_id":"4","last_reported":1752454881,"current_range_meters":15200,"station_id":"ce4bhu92rcd13ifvqi70","pricing_plan_id":"cebpf4jnsgd1na2vs0mg"},{"bike_id":"2ec427da-b403-4a7e-86be-3f48ba535d18","system_id":"levelo_inurba_marseille","lat":43.21191,"lon":5.35082,"is_reserved":false,"is_disabled":false,"rental_uris":{"android":"levelo://app?vid=2ec427da-b403-4a7e-86be-3f48ba535d18","ios":"levelo://app?vid=2ec427da-b403-4a7e-86be-3f48ba535d18"},"vehicle_type_id":"4","last_reported":1752454881,"current_range_meters":16000,"station_id":"st_cvj6sg6p6f1abm77japg","pricing_plan_id":"cebpf4jnsgd1na2vs0mg"},{"bike_id":"350baf57-19b6-4304-9c57-75c381c047e9","system_id":"levelo_inurba_marseille","lat":43.3033,"lon":5.36913,"is_reserved":false,"is_disabled":false,"rental_uris":{"android":"levelo://app?vid=350baf57-19b6-4304-9c57-75c381c047e9","ios":"levelo://app?vid=350baf57-19b6-4304-9c57-75c381c047e9"},"vehicle_type_id":"4","last_reported":1752454881,"current_range_meters":16000,"station_id":"ce4bgqh2rcd13ifvqc5g","pricing_plan_id":"cebpf4jnsgd1na2vs0mg"},{"bike_id":"a0dd73db-b3fc-4149-88fc-e665a4db771d","system_id":"levelo_inurba_marseille","lat":43.27832,"lon":5.39204,"is_reserved":false,"is_disabled":false,"rental_uris":{"android":"levelo://app?vid=a0dd73db-b3fc-4149-88fc-e665a4db771d","ios":"levelo://app?vid=a0dd73db-b3fc-4149-88fc-e665a4db771d"},"vehicle_type_id":"4","last_reported":1752454881,"current_range_meters":16000,"station_id":"ce4bhjp2rcd13ifvqga0","pricing_plan_id":"cebpf4jnsgd1na2vs0mg"},{"bike_id":"91e36618-f857-45af-ac89-91d909da2db3","system_id":"levelo_inurba_marseille","lat":43.2942,"lon":5.38595,"is_reserved":false,"is_disabled":true,"rental_uris":{"android":"levelo://app?vid=91e36618-f857-45af-ac89-91d909da2db3","ios":"levelo://app?vid=91e36618-f857-45af-ac89-91d909da2db3"},"vehicle_type_id":"4","last_reported":1752454881,"current_range_meters":16000,"station_id":"ce4bh2h2rcd13ifvqdh0","pricing_plan_id":"cebpf4jnsgd1na2vs0mg"},{"bike_id":"f5a47db5-6fb2-46bd-a2de-efa4ad13bf60","system_id":"levelo_inurba_marseille","lat":43.21197,"lon":5.35086,"is_reserved":false,"is_disabled":false,"rental_uris":{"android":"levelo://app?vid=f5a47db5-6fb2-46bd-a2de-efa4ad13bf60","ios":"levelo://app?vid=f5a47db5-6fb2-46bd-a2de-efa4ad13bf60"},"vehicle_type_id":"4","last_reported":1752454881,"current_range_meters":16000,"station_id":"st_cvj6sg6p6f1abm77japg","pricing_plan_id":"cebpf4jnsgd1na2vs0mg"},{"bike_id":"2182925a-4225-44fe-b725-01c4bbe69c50","system_id":"levelo_inurba_marseille","lat":43.313647,"lon":5.385011,"is_reserved":false,"is_disabled":false,"rental_uris":{"android":"levelo://app?vid=2182925a-4225-44fe-b725-01c4bbe69c50","ios":"levelo://app?vid=2182925a-4225-44fe-b725-01c4bbe69c50"},"vehicle_type_id":"4","last_reported":1752454881,"current_range_meters":16000,"station_id":"ce4bgt92rcd13ifvqcf0","pricing_plan_id":"cebpf4jnsgd1na2vs0mg"},{"bike_id":"1aedaa42-1f03-48cc-8e38-d983e72f730b","system_id":"levelo_inurba_marseille","lat":43.270715,"lon":5.422845,"is_reserved":false,"is_disabled":false,"rental_uris":{"android":"levelo://app?vid=1aedaa42-1f03-48cc-8e38-d983e72f730b","ios":"levelo://app?vid=1aedaa42-1f03-48cc-8e38-d983e72f730b"},"vehicle_type_id":"4","last_reported":1752454881,"current_range_meters":16000,"station_id":"ce4bhk92rcd13ifvqgb0","pricing_plan_id":"cebpf4jnsgd1na2vs0mg"},{"bike_id":"6e4696eb-2f08-479d-86c9-95b434deaa02","system_id":"levelo_inurba_marseille","lat":43.319916,"lon":5.381564,"is_reserved":false,"is_disabled":true,"rental_uris":{"android":"levelo://app?vid=6e4696eb-2f08-479d-86c9-95b434deaa02","ios":"levelo://app?vid=6e4696eb-2f08-479d-86c9-95b434deaa02"},"vehicle_type_id":"4","last_reported":1752454881,"current_range_meters":16000,"station_id":"ce4bhr12rcd13ifvqhpg","pricing_plan_id":"cebpf4jnsgd1na2vs0mg"},{"bike_id":"40392a3b-1d10-4dd5-b1d6-6477ad9a4c60","system_id":"levelo_inurba_marseille","lat":43.2904,"lon":5.38037,"is_reserved":false,"is_disabled":false,"rental_uris":{"android":"levelo://app?vid=40392a3b-1d10-4dd5-b1d6-6477ad9a4c60","ios":"levelo://app?vid=40392a3b-1d10-4dd5-b1d6-6477ad9a4c60"},"vehicle_type_id":"4","last_reported":1752454881,"current_range_meters":16000,"station_id":"","pricing_plan_id":"cebpf4jnsgd1na2vs0mg"},{"bike_id":"f8e07159-d556-4c30-97dc-09582da865a5","system_id":"levelo_inurba_marseille","lat":43.24168,"lon":5.36404,"is_reserved":false,"is_disabled":false,"rental_uris":{"android":"levelo://app?vid=f8e07159-d556-4c30-97dc-09582da865a5","ios":"levelo://app?vid=f8e07159-d556-4c30-97dc-09582da865a5"},"vehicle_type_id":"4","last_reported":1752454881,"current_range_meters":16000,"station_id":"cpo36qri1sfpv3e86is0","pricing_plan_id":"cebpf4jnsgd1na2vs0mg"},{"bike_id":"c8c4de1a-846f-4f5b-aace-9fb14bf7ad52","system_id":"levelo_inurba_marseille","lat":43.21192,"lon":5.35076,"is_reserved":false,"is_disabled":false,"rental_uris":{"android":"levelo://app?vid=c8c4de1a-846f-4f5b-aace-9fb14bf7ad52","ios":"levelo://app?vid=c8c4de1a-846f-4f5b-aace-9fb14bf7ad52"},"vehicle_type_id":"4","last_reported":1752454881,"current_range_meters":16000,"station_id":"st_cvj6sg6p6f1abm77japg","pricing_plan_id":"cebpf4jnsgd1na2vs0mg"},{"bike_id":"b6771d12-4d0b-4004-8d85-15a22b02cf35","system_id":"levelo_inurba_marseille","lat":43.25572,"lon":5.38226,"is_reserved":false,"is_disabled":false,"rental_uris":{"android":"levelo://app?vid=b6771d12-4d0b-4004-8d85-15a22b02cf35","ios":"levelo://app?vid=b6771d12-4d0b-4004-8d85-15a22b02cf35"},"vehicle_type_id":"4","last_reported":1752454881,"current_range_meters":16000,"station_id":"ce4bhih2rcd13ifvqfs0","pricing_plan_id":"cebpf4jnsgd1na2vs0mg"},{"bike_id":"b8f51c20-df7e-43e0-8cd1-5c52bdb6ed2b","system_id":"levelo_inurba_marseille","lat":43.24165,"lon":5.36395,"is_reserved":false,"is_disabled":false,"rental_uris":{"android":"levelo://app?vid=b8f51c20-df7e-43e0-8cd1-5c52bdb6ed2b","ios":"levelo://app?vid=b8f51c20-df7e-43e0-8cd1-5c52bdb6ed2b"},"vehicle_type_id":"4","last_reported":1752454881,"current_range_meters":16000,"station_id":"cpo36qri1sfpv3e86is0","pricing_plan_id":"cebpf4jnsgd1na2vs0mg"},{"bike_id":"002e6944-aa53-41b5-94a1-97e8a1b31e28","system_id":"levelo_inurba_marseille","lat":43.31494,"lon":5.37312,"is_reserved":false,"is_disabled":false,"rental_uris":{"android":"levelo://app?vid=002e6944-aa53-41b5-94a1-97e8a1b31e28","ios":"levelo://app?vid=002e6944-aa53-41b5-94a1-97e8a1b31e28"},"vehicle_type_id":"4","last_reported":1752454881,"current_range_meters":16000,"station_id":"ce4bgt12rcd13ifvqcd0","pricing_plan_id":"cebpf4jnsgd1na2vs0mg"},{"bike_id":"089f1cc1-5510-4a1f-b746-0cbb6ac94a21","system_id":"levelo_inurba_marseille","lat":43.30878,"lon":5.39644,"is_reserved":false,"is_disabled":false,"rental_uris":{"android":"levelo://app?vid=089f1cc1-5510-4a1f-b746-0cbb6ac94a21","ios":"levelo://app?vid=089f1cc1-5510-4a1f-b746-0cbb6ac94a21"},"vehicle_type_id":"4","last_reported":1752454881,"current_range_meters":16400,"station_id":"ce4bh012rcd13ifvqcv0","pricing_plan_id":"cebpf4jnsgd1na2vs0mg"},{"bike_id":"45583b9b-98ff-4d18-a778-0d792c89bae3","system_id":"levelo_inurba_marseille","lat":43.2856,"lon":5.39493,"is_reserved":false,"is_disabled":true,"rental_uris":{"android":"levelo://app?vid=45583b9b-98ff-4d18-a778-0d792c89bae3","ios":"levelo://app?vid=45583b9b-98ff-4d18-a778-0d792c89bae3"},"vehicle_type_id":"4","last_reported":1752454881,"current_range_meters":16400,"station_id":"ce4bh292rcd13ifvqdg0","pricing_plan_id":"cebpf4jnsgd1na2vs0mg"},{"bike_id":"b1f565f2-83c4-4631-9b4d-1d683a0261ef","system_id":"levelo_inurba_marseille","lat":43.211869,"lon":5.35075,"is_reserved":false,"is_disabled":false,"rental_uris":{"android":"levelo://app?vid=b1f565f2-83c4-4631-9b4d-1d683a0261ef","ios":"levelo://app?vid=b1f565f2-83c4-4631-9b4d-1d683a0261ef"},"vehicle_type_id":"4","last_reported":1752454881,"current_range_meters":16400,"station_id":"st_cvj6sg6p6f1abm77japg","pricing_plan_id":"cebpf4jnsgd1na2vs0mg"},{"bike_id":"ca0eac11-53fa-490f-b485-1fc2981beea7","system_id":"levelo_inurba_marseille","lat":43.30575,"lon":5.38402,"is_reserved":false,"is_disabled":false,"rental_uris":{"android":"levelo://app?vid=ca0eac11-53fa-490f-b485-1fc2981beea7","ios":"levelo://app?vid=ca0eac11-53fa-490f-b485-1fc2981beea7"},"vehicle_type_id":"4","last_reported":1752454881,"current_range_meters":16000,"station_id":"ce4bgg92rcd13ifvqb30","pricing_plan_id":"cebpf4jnsgd1na2vs0mg"},{"bike_id":"39d4271d-b751-4c4e-8af4-0ad1244b81ca","system_id":"levelo_inurba_marseille","lat":43.30788,"lon":5.38169,"is_reserved":false,"is_disabled":false,"rental_uris":{"android":"levelo://app?vid=39d4271d-b751-4c4e-8af4-0ad1244b81ca","ios":"levelo://app?vid=39d4271d-b751-4c4e-8af4-0ad1244b81ca"},"vehicle_type_id":"4","last_reported":1752454881,"current_range_meters":16400,"station_id":"ce4bgt12rcd13ifvqce0","pricing_plan_id":"cebpf4jnsgd1na2vs0mg"},{"bike_id":"6e48ad0f-2558-4fc3-ab07-d4404a8476d6","system_id":"levelo_inurba_marseille","lat":43.32482,"lon":5.36566,"is_reserved":false,"is_disabled":false,"rental_uris":{"android":"levelo://app?vid=6e48ad0f-2558-4fc3-ab07-d4404a8476d6","ios":"levelo://app?vid=6e48ad0f-2558-4fc3-ab07-d4404a8476d6"},"vehicle_type_id":"4","last_reported":1752454881,"current_range_meters":16400,"station_id":"ce4bhs12rcd13ifvqhvg","pricing_plan_id":"cebpf4jnsgd1na2vs0mg"},{"bike_id":"e91ced2f-2041-4b38-8446-0d5d97adec95","system_id":"levelo_inurba_marseille","lat":43.25583,"lon":5.38227,"is_reserved":false,"is_disabled":true,"rental_uris":{"android":"levelo://app?vid=e91ced2f-2041-4b38-8446-0d5d97adec95","ios":"levelo://app?vid=e91ced2f-2041-4b38-8446-0d5d97adec95"},"vehicle_type_id":"4","last_reported":1752454881,"current_range_meters":16400,"station_id":"ce4bhih2rcd13ifvqfs0","pricing_plan_id":"cebpf4jnsgd1na2vs0mg"},{"bike_id":"4def0974-c56b-4add-9bd8-324e0a4ddd5f","system_id":"levelo_inurba_marseille","lat":43.3093,"lon":5.401463,"is_reserved":false,"is_disabled":false,"rental_uris":{"android":"levelo://app?vid=4def0974-c56b-4add-9bd8-324e0a4ddd5f","ios":"levelo://app?vid=4def0974-c56b-4add-9bd8-324e0a4ddd5f"},"vehicle_type_id":"4","last_reported":1752454881,"current_range_meters":16400,"station_id":"ce4bgvp2rcd13ifvqct0","pricing_plan_id":"cebpf4jnsgd1na2vs0mg"},{"bike_id":"e83439d2-4642-48a2-8689-7a894582417f","system_id":"levelo_inurba_marseille","lat":43.2122,"lon":5.35086,"is_reserved":false,"is_disabled":false,"rental_uris":{"android":"levelo://app?vid=e83439d2-4642-48a2-8689-7a894582417f","ios":"levelo://app?vid=e83439d2-4642-48a2-8689-7a894582417f"},"vehicle_type_id":"4","last_reported":1752454881,"current_range_meters":16400,"station_id":"st_cvj6sg6p6f1abm77japg","pricing_plan_id":"cebpf4jnsgd1na2vs0mg"},{"bike_id":"bf67854a-fc75-4bbe-84b3-70a770694533","system_id":"levelo_inurba_marseille","lat":43.2894,"lon":5.3962,"is_reserved":false,"is_disabled":true,"rental_uris":{"android":"levelo://app?vid=bf67854a-fc75-4bbe-84b3-70a770694533","ios":"levelo://app?vid=bf67854a-fc75-4bbe-84b3-70a770694533"},"vehicle_type_id":"4","last_reported":1752454881,"current_range_meters":16400,"station_id":"ce4bh3h2rcd13ifvqdn0","pricing_plan_id":"cebpf4jnsgd1na2vs0mg"},{"bike_id":"0327ba3d-56c5-40a2-9b87-fb20780bb2cf","system_id":"levelo_inurba_marseille","lat":43.284757,"lon":5.38438,"is_reserved":false,"is_disabled":true,"rental_uris":{"android":"levelo://app?vid=0327ba3d-56c5-40a2-9b87-fb20780bb2cf","ios":"levelo://app?vid=0327ba3d-56c5-40a2-9b87-fb20780bb2cf"},"vehicle_type_id":"4","last_reported":1752454881,"current_range_meters":16400,"station_id":"ce4bh512rcd13ifvqe3g","pricing_plan_id":"cebpf4jnsgd1na2vs0mg"},{"bike_id":"8a01e88a-8371-4085-9838-47ae11897cd3","system_id":"levelo_inurba_marseille","lat":43.2815,"lon":5.4264,"is_reserved":false,"is_disabled":true,"rental_uris":{"android":"levelo://app?vid=8a01e88a-8371-4085-9838-47ae11897cd3","ios":"levelo://app?vid=8a01e88a-8371-4085-9838-47ae11897cd3"},"vehicle_type_id":"4","last_reported":1752454881,"current_range_meters":16400,"station_id":"ce4bhnh2rcd13ifvqgug","pricing_plan_id":"cebpf4jnsgd1na2vs0mg"},{"bike_id":"f7e18cf2-342a-409f-a8c1-da3a0a116a6e","system_id":"levelo_inurba_marseille","lat":43.29964,"lon":5.385,"is_reserved":false,"is_disabled":false,"rental_uris":{"android":"levelo://app?vid=f7e18cf2-342a-409f-a8c1-da3a0a116a6e","ios":"levelo://app?vid=f7e18cf2-342a-409f-a8c1-da3a0a116a6e"},"vehicle_type_id":"4","last_reported":1752454881,"current_range_meters":16400,"station_id":"ce4bgj92rcd13ifvqbd0","pricing_plan_id":"cebpf4jnsgd1na2vs0mg"},{"bike_id":"697d5fc4-b988-4a4e-8323-c1ce5ed61a61","system_id":"levelo_inurba_marseille","lat":43.21185,"lon":5.35052,"is_reserved":false,"is_disabled":false,"rental_uris":{"android":"levelo://app?vid=697d5fc4-b988-4a4e-8323-c1ce5ed61a61","ios":"levelo://app?vid=697d5fc4-b988-4a4e-8323-c1ce5ed61a61"},"vehicle_type_id":"4","last_reported":1752454881,"current_range_meters":16800,"station_id":"st_cvj6sg6p6f1abm77japg","pricing_plan_id":"cebpf4jnsgd1na2vs0mg"},{"bike_id":"23a0fc67-4c39-4b74-8a86-2903d79b1606","system_id":"levelo_inurba_marseille","lat":43.23189,"lon":5.3556,"is_reserved":false,"is_disabled":true,"rental_uris":{"android":"levelo://app?vid=23a0fc67-4c39-4b74-8a86-2903d79b1606","ios":"levelo://app?vid=23a0fc67-4c39-4b74-8a86-2903d79b1606"},"vehicle_type_id":"4","last_reported":1752454881,"current_range_meters":16800,"station_id":"ce4bhu92rcd13ifvqi70","pricing_plan_id":"cebpf4jnsgd1na2vs0mg"},{"bike_id":"a4d07f45-19f9-4df9-9728-be6623530a64","system_id":"levelo_inurba_marseille","lat":43.23718,"lon":5.38859,"is_reserved":false,"is_disabled":false,"rental_uris":{"android":"levelo://app?vid=a4d07f45-19f9-4df9-9728-be6623530a64","ios":"levelo://app?vid=a4d07f45-19f9-4df9-9728-be6623530a64"},"vehicle_type_id":"4","last_reported":1752454881,"current_range_meters":16800,"station_id":"","pricing_plan_id":"cebpf4jnsgd1na2vs0mg"},{"bike_id":"f7cf9aab-0ed3-4931-a48c-8d0743d0c0b9","system_id":"levelo_inurba_marseille","lat":43.22918,"lon":5.35368,"is_reserved":false,"is_disabled":true,"rental_uris":{"android":"levelo://app?vid=f7cf9aab-0ed3-4931-a48c-8d0743d0c0b9","ios":"levelo://app?vid=f7cf9aab-0ed3-4931-a48c-8d0743d0c0b9"},"vehicle_type_id":"4","last_reported":1752454881,"current_range_meters":16800,"station_id":"cpo3532slgdg3j2ikp40","pricing_plan_id":"cebpf4jnsgd1na2vs0mg"},{"bike_id":"3b13cfd5-12f7-42bf-9953-7edf0f317910","system_id":"levelo_inurba_marseille","lat":43.32347,"lon":5.38905,"is_reserved":false,"is_disabled":false,"rental_uris":{"android":"levelo://app?vid=3b13cfd5-12f7-42bf-9953-7edf0f317910","ios":"levelo://app?vid=3b13cfd5-12f7-42bf-9953-7edf0f317910"},"vehicle_type_id":"4","last_reported":1752454881,"current_range_meters":16800,"station_id":"ce4bhqp2rcd13ifvqhog","pricing_plan_id":"cebpf4jnsgd1na2vs0mg"},{"bike_id":"088e6b1d-8a81-47e0-9ad0-36233ed399c0","system_id":"levelo_inurba_marseille","lat":43.27849,"lon":5.3953,"is_reserved":false,"is_disabled":true,"rental_uris":{"android":"levelo://app?vid=088e6b1d-8a81-47e0-9ad0-36233ed399c0","ios":"levelo://app?vid=088e6b1d-8a81-47e0-9ad0-36233ed399c0"},"vehicle_type_id":"4","last_reported":1752454881,"current_range_meters":16800,"station_id":"","pricing_plan_id":"cebpf4jnsgd1na2vs0mg"},{"bike_id":"aec80234-51ca-4bd6-9031-59818391974a","system_id":"levelo_inurba_marseille","lat":43.24151,"lon":5.36374,"is_reserved":false,"is_disabled":false,"rental_uris":{"android":"levelo://app?vid=aec80234-51ca-4bd6-9031-59818391974a","ios":"levelo://app?vid=aec80234-51ca-4bd6-9031-59818391974a"},"vehicle_type_id":"4","last_reported":1752454881,"current_range_meters":17200,"station_id":"cpo36qri1sfpv3e86is0","pricing_plan_id":"cebpf4jnsgd1na2vs0mg"},{"bike_id":"12d48e4d-a291-49bb-ab45-967804b53d7b","system_id":"levelo_inurba_marseille","lat":43.27614,"lon":5.36109,"is_reserved":false,"is_disabled":true,"rental_uris":{"android":"levelo://app?vid=12d48e4d-a291-49bb-ab45-967804b53d7b","ios":"levelo://app?vid=12d48e4d-a291-49bb-ab45-967804b53d7b"},"vehicle_type_id":"4","last_reported":1752454881,"current_range_meters":17200,"station_id":"ce4bgj92rcd13ifvqbe0","pricing_plan_id":"cebpf4jnsgd1na2vs0mg"},{"bike_id":"e1442ff3-c767-4bb3-901d-e5f60873ad13","system_id":"levelo_inurba_marseille","lat":43.231872,"lon":5.399926,"is_reserved":false,"is_disabled":false,"rental_uris":{"android":"levelo://app?vid=e1442ff3-c767-4bb3-901d-e5f60873ad13","ios":"levelo://app?vid=e1442ff3-c767-4bb3-901d-e5f60873ad13"},"vehicle_type_id":"4","last_reported":1752454881,"current_range_meters":17200,"station_id":"ce4bhn12rcd13ifvqgqg","pricing_plan_id":"cebpf4jnsgd1na2vs0mg"},{"bike_id":"e1928b01-bff5-4cea-b60c-f8d9223daef3","system_id":"levelo_inurba_marseille","lat":43.27076,"lon":5.42306,"is_reserved":false,"is_disabled":false,"rental_uris":{"android":"levelo://app?vid=e1928b01-bff5-4cea-b60c-f8d9223daef3","ios":"levelo://app?vid=e1928b01-bff5-4cea-b60c-f8d9223daef3"},"vehicle_type_id":"4","last_reported":1752454881,"current_range_meters":17200,"station_id":"ce4bhk92rcd13ifvqgb0","pricing_plan_id":"cebpf4jnsgd1na2vs0mg"},{"bike_id":"6ac174d4-75c5-4a9c-9699-97cd631c6e65","system_id":"levelo_inurba_marseille","lat":43.25497,"lon":5.39922,"is_reserved":false,"is_disabled":false,"rental_uris":{"android":"levelo://app?vid=6ac174d4-75c5-4a9c-9699-97cd631c6e65","ios":"levelo://app?vid=6ac174d4-75c5-4a9c-9699-97cd631c6e65"},"vehicle_type_id":"4","last_reported":1752454881,"current_range_meters":17200,"station_id":"","pricing_plan_id":"cebpf4jnsgd1na2vs0mg"},{"bike_id":"30c12139-332c-43bd-ace5-94b5c68a3d18","system_id":"levelo_inurba_marseille","lat":43.287029,"lon":5.399907,"is_reserved":false,"is_disabled":false,"rental_uris":{"android":"levelo://app?vid=30c12139-332c-43bd-ace5-94b5c68a3d18","ios":"levelo://app?vid=30c12139-332c-43bd-ace5-94b5c68a3d18"},"vehicle_type_id":"4","last_reported":1752454881,"current_range_meters":17200,"station_id":"ce4bho92rcd13ifvqh3g","pricing_plan_id":"cebpf4jnsgd1na2vs0mg"},{"bike_id":"5f48d587-f9d0-43e5-b0b2-bf2fb17b1a3c","system_id":"levelo_inurba_marseille","lat":43.29431,"lon":5.3862,"is_reserved":false,"is_disabled":true,"rental_uris":{"android":"levelo://app?vid=5f48d587-f9d0-43e5-b0b2-bf2fb17b1a3c","ios":"levelo://app?vid=5f48d587-f9d0-43e5-b0b2-bf2fb17b1a3c"},"vehicle_type_id":"4","last_reported":1752454881,"current_range_meters":17200,"station_id":"ce4bh2h2rcd13ifvqdh0","pricing_plan_id":"cebpf4jnsgd1na2vs0mg"},{"bike_id":"3af86442-0169-4917-92eb-b9a4e9e98fd0","system_id":"levelo_inurba_marseille","lat":43.28485,"lon":5.38428,"is_reserved":false,"is_disabled":false,"rental_uris":{"android":"levelo://app?vid=3af86442-0169-4917-92eb-b9a4e9e98fd0","ios":"levelo://app?vid=3af86442-0169-4917-92eb-b9a4e9e98fd0"},"vehicle_type_id":"4","last_reported":1752454881,"current_range_meters":17600,"station_id":"ce4bh512rcd13ifvqe3g","pricing_plan_id":"cebpf4jnsgd1na2vs0mg"},{"bike_id":"16c13c82-1544-4b02-88e0-9c589d9a78a3","system_id":"levelo_inurba_marseille","lat":43.23874,"lon":5.36473,"is_reserved":false,"is_disabled":false,"rental_uris":{"android":"levelo://app?vid=16c13c82-1544-4b02-88e0-9c589d9a78a3","ios":"levelo://app?vid=16c13c82-1544-4b02-88e0-9c589d9a78a3"},"vehicle_type_id":"4","last_reported":1752454881,"current_range_meters":17200,"station_id":"","pricing_plan_id":"cebpf4jnsgd1na2vs0mg"},{"bike_id":"2ec8126e-617b-4cce-b853-80d34e2082cb","system_id":"levelo_inurba_marseille","lat":43.27813,"lon":5.40715,"is_reserved":false,"is_disabled":false,"rental_uris":{"android":"levelo://app?vid=2ec8126e-617b-4cce-b853-80d34e2082cb","ios":"levelo://app?vid=2ec8126e-617b-4cce-b853-80d34e2082cb"},"vehicle_type_id":"4","last_reported":1752454881,"current_range_meters":17200,"station_id":"ce4bhnh2rcd13ifvqgtg","pricing_plan_id":"cebpf4jnsgd1na2vs0mg"},{"bike_id":"1cba2680-aee5-48bd-9ed0-8116387361eb","system_id":"levelo_inurba_marseille","lat":43.29569,"lon":5.3997,"is_reserved":false,"is_disabled":false,"rental_uris":{"android":"levelo://app?vid=1cba2680-aee5-48bd-9ed0-8116387361eb","ios":"levelo://app?vid=1cba2680-aee5-48bd-9ed0-8116387361eb"},"vehicle_type_id":"4","last_reported":1752454881,"current_range_meters":17200,"station_id":"ce4bh312rcd13ifvqdj0","pricing_plan_id":"cebpf4jnsgd1na2vs0mg"},{"bike_id":"94b4f1bf-1994-4aa7-87d1-0960c42b8d73","system_id":"levelo_inurba_marseille","lat":43.322945,"lon":5.407055,"is_reserved":false,"is_disabled":false,"rental_uris":{"android":"levelo://app?vid=94b4f1bf-1994-4aa7-87d1-0960c42b8d73","ios":"levelo://app?vid=94b4f1bf-1994-4aa7-87d1-0960c42b8d73"},"vehicle_type_id":"4","last_reported":1752454881,"current_range_meters":17200,"station_id":"ce4bhq92rcd13ifvqhjg","pricing_plan_id":"cebpf4jnsgd1na2vs0mg"},{"bike_id":"0cc32517-570d-49bd-9586-e076a44371e2","system_id":"levelo_inurba_marseille","lat":43.31328,"lon":5.396922,"is_reserved":false,"is_disabled":false,"rental_uris":{"android":"levelo://app?vid=0cc32517-570d-49bd-9586-e076a44371e2","ios":"levelo://app?vid=0cc32517-570d-49bd-9586-e076a44371e2"},"vehicle_type_id":"4","last_reported":1752454881,"current_range_meters":17600,"station_id":"ce4bgvp2rcd13ifvqcu0","pricing_plan_id":"cebpf4jnsgd1na2vs0mg"},{"bike_id":"2c81c752-b139-48bc-a4ee-7fa7f8526278","system_id":"levelo_inurba_marseille","lat":43.21751,"lon":5.34617,"is_reserved":false,"is_disabled":true,"rental_uris":{"android":"levelo://app?vid=2c81c752-b139-48bc-a4ee-7fa7f8526278","ios":"levelo://app?vid=2c81c752-b139-48bc-a4ee-7fa7f8526278"},"vehicle_type_id":"4","last_reported":1752454881,"current_range_meters":17600,"station_id":"st_cvj6r9ubvosntc0bgbag","pricing_plan_id":"cebpf4jnsgd1na2vs0mg"},{"bike_id":"3a5976e5-83bb-4825-b10d-e7766bd0ae29","system_id":"levelo_inurba_marseille","lat":43.25108,"lon":5.40326,"is_reserved":false,"is_disabled":false,"rental_uris":{"android":"levelo://app?vid=3a5976e5-83bb-4825-b10d-e7766bd0ae29","ios":"levelo://app?vid=3a5976e5-83bb-4825-b10d-e7766bd0ae29"},"vehicle_type_id":"4","last_reported":1752454881,"current_range_meters":17600,"station_id":"ce4bhlh2rcd13ifvqgig","pricing_plan_id":"cebpf4jnsgd1na2vs0mg"},{"bike_id":"1578a68a-cc35-4839-ba7b-f3c58a0a0b0f","system_id":"levelo_inurba_marseille","lat":43.25111,"lon":5.40313,"is_reserved":false,"is_disabled":false,"rental_uris":{"android":"levelo://app?vid=1578a68a-cc35-4839-ba7b-f3c58a0a0b0f","ios":"levelo://app?vid=1578a68a-cc35-4839-ba7b-f3c58a0a0b0f"},"vehicle_type_id":"4","last_reported":1752454881,"current_range_meters":17600,"station_id":"ce4bhlh2rcd13ifvqgig","pricing_plan_id":"cebpf4jnsgd1na2vs0mg"},{"bike_id":"3fb04514-ae9e-4e32-9c2c-443c01388200","system_id":"levelo_inurba_marseille","lat":43.28412,"lon":5.37527,"is_reserved":false,"is_disabled":false,"rental_uris":{"android":"levelo://app?vid=3fb04514-ae9e-4e32-9c2c-443c01388200","ios":"levelo://app?vid=3fb04514-ae9e-4e32-9c2c-443c01388200"},"vehicle_type_id":"4","last_reported":1752454881,"current_range_meters":17600,"station_id":"ce4bh412rcd13ifvqds0","pricing_plan_id":"cebpf4jnsgd1na2vs0mg"},{"bike_id":"2efb7021-4b12-4c60-9b9e-255aa9eaf858","system_id":"levelo_inurba_marseille","lat":43.31101,"lon":5.37763,"is_reserved":false,"is_disabled":false,"rental_uris":{"android":"levelo://app?vid=2efb7021-4b12-4c60-9b9e-255aa9eaf858","ios":"levelo://app?vid=2efb7021-4b12-4c60-9b9e-255aa9eaf858"},"vehicle_type_id":"4","last_reported":1752454881,"current_range_meters":18000,"station_id":"ce4bgt92rcd13ifvqcg0","pricing_plan_id":"cebpf4jnsgd1na2vs0mg"},{"bike_id":"9b59b22f-5f4b-432f-be59-c16459c4633a","system_id":"levelo_inurba_marseille","lat":43.280341,"lon":5.369509,"is_reserved":false,"is_disabled":false,"rental_uris":{"android":"levelo://app?vid=9b59b22f-5f4b-432f-be59-c16459c4633a","ios":"levelo://app?vid=9b59b22f-5f4b-432f-be59-c16459c4633a"},"vehicle_type_id":"4","last_reported":1752454881,"current_range_meters":18000,"station_id":"ce4bha12rcd13ifvqef0","pricing_plan_id":"cebpf4jnsgd1na2vs0mg"},{"bike_id":"7dfdc2c3-57a0-4a69-ae23-de970b88e6dd","system_id":"levelo_inurba_marseille","lat":43.25723,"lon":5.41108,"is_reserved":false,"is_disabled":false,"rental_uris":{"android":"levelo://app?vid=7dfdc2c3-57a0-4a69-ae23-de970b88e6dd","ios":"levelo://app?vid=7dfdc2c3-57a0-4a69-ae23-de970b88e6dd"},"vehicle_type_id":"4","last_reported":1752454881,"current_range_meters":18000,"station_id":"ce4bhkp2rcd13ifvqgd0","pricing_plan_id":"cebpf4jnsgd1na2vs0mg"},{"bike_id":"0be8b6ff-89df-4994-876a-5f9632d04ae6","system_id":"levelo_inurba_marseille","lat":43.250992,"lon":5.40325,"is_reserved":false,"is_disabled":false,"rental_uris":{"android":"levelo://app?vid=0be8b6ff-89df-4994-876a-5f9632d04ae6","ios":"levelo://app?vid=0be8b6ff-89df-4994-876a-5f9632d04ae6"},"vehicle_type_id":"4","last_reported":1752454881,"current_range_meters":18000,"station_id":"ce4bhlh2rcd13ifvqgig","pricing_plan_id":"cebpf4jnsgd1na2vs0mg"},{"bike_id":"7ce50aa9-fb46-499f-bf35-1bc8f67c6be2","system_id":"levelo_inurba_marseille","lat":43.26965,"lon":5.40269,"is_reserved":false,"is_disabled":false,"rental_uris":{"android":"levelo://app?vid=7ce50aa9-fb46-499f-bf35-1bc8f67c6be2","ios":"levelo://app?vid=7ce50aa9-fb46-499f-bf35-1bc8f67c6be2"},"vehicle_type_id":"4","last_reported":1752454881,"current_range_meters":18000,"station_id":"cjm6bp8fraef2m0cb0m0","pricing_plan_id":"cebpf4jnsgd1na2vs0mg"},{"bike_id":"ff273063-b26e-410d-a8db-735ccf894b50","system_id":"levelo_inurba_marseille","lat":43.240812,"lon":5.377696,"is_reserved":false,"is_disabled":false,"rental_uris":{"android":"levelo://app?vid=ff273063-b26e-410d-a8db-735ccf894b50","ios":"levelo://app?vid=ff273063-b26e-410d-a8db-735ccf894b50"},"vehicle_type_id":"4","last_reported":1752454881,"current_range_meters":18000,"station_id":"ce4bhnp2rcd13ifvqgvg","pricing_plan_id":"cebpf4jnsgd1na2vs0mg"},{"bike_id":"d4d09814-bfb5-45f2-8280-ce5d7b12bead","system_id":"levelo_inurba_marseille","lat":43.27945,"lon":5.41047,"is_reserved":false,"is_disabled":false,"rental_uris":{"android":"levelo://app?vid=d4d09814-bfb5-45f2-8280-ce5d7b12bead","ios":"levelo://app?vid=d4d09814-bfb5-45f2-8280-ce5d7b12bead"},"vehicle_type_id":"4","last_reported":1752454881,"current_range_meters":18000,"station_id":"ce4bhnp2rcd13ifvqh0g","pricing_plan_id":"cebpf4jnsgd1na2vs0mg"},{"bike_id":"aa260077-cb0d-43c9-8e67-329c1b69779f","system_id":"levelo_inurba_marseille","lat":43.21212,"lon":5.350691,"is_reserved":false,"is_disabled":false,"rental_uris":{"android":"levelo://app?vid=aa260077-cb0d-43c9-8e67-329c1b69779f","ios":"levelo://app?vid=aa260077-cb0d-43c9-8e67-329c1b69779f"},"vehicle_type_id":"4","last_reported":1752454881,"current_range_meters":18000,"station_id":"st_cvj6sg6p6f1abm77japg","pricing_plan_id":"cebpf4jnsgd1na2vs0mg"},{"bike_id":"08e67338-a2ff-42fc-a939-92ad435f118e","system_id":"levelo_inurba_marseille","lat":43.27674,"lon":5.35714,"is_reserved":false,"is_disabled":false,"rental_uris":{"android":"levelo://app?vid=08e67338-a2ff-42fc-a939-92ad435f118e","ios":"levelo://app?vid=08e67338-a2ff-42fc-a939-92ad435f118e"},"vehicle_type_id":"4","last_reported":1752454881,"current_range_meters":18000,"station_id":"","pricing_plan_id":"cebpf4jnsgd1na2vs0mg"},{"bike_id":"a0bccd63-fec9-42bd-8616-2760e21fc28b","system_id":"levelo_inurba_marseille","lat":43.2572,"lon":5.41117,"is_reserved":false,"is_disabled":false,"rental_uris":{"android":"levelo://app?vid=a0bccd63-fec9-42bd-8616-2760e21fc28b","ios":"levelo://app?vid=a0bccd63-fec9-42bd-8616-2760e21fc28b"},"vehicle_type_id":"4","last_reported":1752454881,"current_range_meters":18000,"station_id":"ce4bhkp2rcd13ifvqgd0","pricing_plan_id":"cebpf4jnsgd1na2vs0mg"},{"bike_id":"bbbd7405-0e12-4512-b62c-d8d1cbbecf09","system_id":"levelo_inurba_marseille","lat":43.29991,"lon":5.38503,"is_reserved":false,"is_disabled":true,"rental_uris":{"android":"levelo://app?vid=bbbd7405-0e12-4512-b62c-d8d1cbbecf09","ios":"levelo://app?vid=bbbd7405-0e12-4512-b62c-d8d1cbbecf09"},"vehicle_type_id":"4","last_reported":1752454881,"current_range_meters":18000,"station_id":"ce4bgj92rcd13ifvqbd0","pricing_plan_id":"cebpf4jnsgd1na2vs0mg"},{"bike_id":"5927d29c-58b8-4351-80df-81d5b815a637","system_id":"levelo_inurba_marseille","lat":43.24652,"lon":5.38896,"is_reserved":false,"is_disabled":false,"rental_uris":{"android":"levelo://app?vid=5927d29c-58b8-4351-80df-81d5b815a637","ios":"levelo://app?vid=5927d29c-58b8-4351-80df-81d5b815a637"},"vehicle_type_id":"4","last_reported":1752454881,"current_range_meters":18800,"station_id":"ce4bhg12rcd13ifvqf60","pricing_plan_id":"cebpf4jnsgd1na2vs0mg"},{"bike_id":"fdf41f87-deb0-46b3-9de1-6dd73b263487","system_id":"levelo_inurba_marseille","lat":43.25494,"lon":5.37651,"is_reserved":false,"is_disabled":true,"rental_uris":{"android":"levelo://app?vid=fdf41f87-deb0-46b3-9de1-6dd73b263487","ios":"levelo://app?vid=fdf41f87-deb0-46b3-9de1-6dd73b263487"},"vehicle_type_id":"4","last_reported":1752454881,"current_range_meters":18800,"station_id":"ce4bhh12rcd13ifvqff0","pricing_plan_id":"cebpf4jnsgd1na2vs0mg"},{"bike_id":"71e479f4-838c-44c9-a19e-d1950cd099a6","system_id":"levelo_inurba_marseille","lat":43.276352,"lon":5.423787,"is_reserved":false,"is_disabled":false,"rental_uris":{"android":"levelo://app?vid=71e479f4-838c-44c9-a19e-d1950cd099a6","ios":"levelo://app?vid=71e479f4-838c-44c9-a19e-d1950cd099a6"},"vehicle_type_id":"4","last_reported":1752454881,"current_range_meters":18800,"station_id":"","pricing_plan_id":"cebpf4jnsgd1na2vs0mg"},{"bike_id":"a6a93a4a-5697-4374-a5d3-20a4e4aa6310","system_id":"levelo_inurba_marseille","lat":43.262283,"lon":5.404555,"is_reserved":false,"is_disabled":false,"rental_uris":{"android":"levelo://app?vid=a6a93a4a-5697-4374-a5d3-20a4e4aa6310","ios":"levelo://app?vid=a6a93a4a-5697-4374-a5d3-20a4e4aa6310"},"vehicle_type_id":"4","last_reported":1752454881,"current_range_meters":18800,"station_id":"ce4bhmh2rcd13ifvqgmg","pricing_plan_id":"cebpf4jnsgd1na2vs0mg"},{"bike_id":"c360f436-24ad-4fcf-bb7c-639b861b27b7","system_id":"levelo_inurba_marseille","lat":43.29546,"lon":5.42298,"is_reserved":false,"is_disabled":false,"rental_uris":{"android":"levelo://app?vid=c360f436-24ad-4fcf-bb7c-639b861b27b7","ios":"levelo://app?vid=c360f436-24ad-4fcf-bb7c-639b861b27b7"},"vehicle_type_id":"4","last_reported":1752454881,"current_range_meters":18800,"station_id":"ce4bhph2rcd13ifvqhdg","pricing_plan_id":"cebpf4jnsgd1na2vs0mg"},{"bike_id":"e08ab3f9-a585-45a2-b1f6-585bd943727c","system_id":"levelo_inurba_marseille","lat":43.28432,"lon":5.39195,"is_reserved":false,"is_disabled":false,"rental_uris":{"android":"levelo://app?vid=e08ab3f9-a585-45a2-b1f6-585bd943727c","ios":"levelo://app?vid=e08ab3f9-a585-45a2-b1f6-585bd943727c"},"vehicle_type_id":"4","last_reported":1752454881,"current_range_meters":18800,"station_id":"ce4bhoh2rcd13ifvqh5g","pricing_plan_id":"cebpf4jnsgd1na2vs0mg"},{"bike_id":"2c5a0a8d-b80f-43a1-91ae-93c8cb7cac46","system_id":"levelo_inurba_marseille","lat":43.290249,"lon":5.381227,"is_reserved":false,"is_disabled":false,"rental_uris":{"android":"levelo://app?vid=2c5a0a8d-b80f-43a1-91ae-93c8cb7cac46","ios":"levelo://app?vid=2c5a0a8d-b80f-43a1-91ae-93c8cb7cac46"},"vehicle_type_id":"4","last_reported":1752454881,"current_range_meters":18800,"station_id":"","pricing_plan_id":"cebpf4jnsgd1na2vs0mg"},{"bike_id":"0be16b10-cbe3-46b1-837b-76b70ab178c1","system_id":"levelo_inurba_marseille","lat":43.30132,"lon":5.38776,"is_reserved":false,"is_disabled":false,"rental_uris":{"android":"levelo://app?vid=0be16b10-cbe3-46b1-837b-76b70ab178c1","ios":"levelo://app?vid=0be16b10-cbe3-46b1-837b-76b70ab178c1"},"vehicle_type_id":"4","last_reported":1752454881,"current_range_meters":18800,"station_id":"ce4bghh2rcd13ifvqb60","pricing_plan_id":"cebpf4jnsgd1na2vs0mg"},{"bike_id":"ce7e0f9d-fa84-4dc1-9d84-21a2c2d40a27","system_id":"levelo_inurba_marseille","lat":43.24072,"lon":5.37777,"is_reserved":false,"is_disabled":false,"rental_uris":{"android":"levelo://app?vid=ce7e0f9d-fa84-4dc1-9d84-21a2c2d40a27","ios":"levelo://app?vid=ce7e0f9d-fa84-4dc1-9d84-21a2c2d40a27"},"vehicle_type_id":"4","last_reported":1752454881,"current_range_meters":18800,"station_id":"ce4bhnp2rcd13ifvqgvg","pricing_plan_id":"cebpf4jnsgd1na2vs0mg"},{"bike_id":"00fc1402-4dd5-4160-81c9-e4ee05f4960b","system_id":"levelo_inurba_marseille","lat":43.22492,"lon":5.34794,"is_reserved":false,"is_disabled":false,"rental_uris":{"android":"levelo://app?vid=00fc1402-4dd5-4160-81c9-e4ee05f4960b","ios":"levelo://app?vid=00fc1402-4dd5-4160-81c9-e4ee05f4960b"},"vehicle_type_id":"4","last_reported":1752454881,"current_range_meters":18800,"station_id":"st_cvj5dfep6f1abm77gieg","pricing_plan_id":"cebpf4jnsgd1na2vs0mg"},{"bike_id":"c2857b8a-2544-48ae-936c-90bab1dd6ab6","system_id":"levelo_inurba_marseille","lat":43.21205,"lon":5.35096,"is_reserved":false,"is_disabled":false,"rental_uris":{"android":"levelo://app?vid=c2857b8a-2544-48ae-936c-90bab1dd6ab6","ios":"levelo://app?vid=c2857b8a-2544-48ae-936c-90bab1dd6ab6"},"vehicle_type_id":"4","last_reported":1752454881,"current_range_meters":18800,"station_id":"st_cvj6sg6p6f1abm77japg","pricing_plan_id":"cebpf4jnsgd1na2vs0mg"},{"bike_id":"fd45ce6f-4b8c-407a-91aa-8c33650e607a","system_id":"levelo_inurba_marseille","lat":43.27985,"lon":5.41649,"is_reserved":false,"is_disabled":false,"rental_uris":{"android":"levelo://app?vid=fd45ce6f-4b8c-407a-91aa-8c33650e607a","ios":"levelo://app?vid=fd45ce6f-4b8c-407a-91aa-8c33650e607a"},"vehicle_type_id":"4","last_reported":1752454881,"current_range_meters":19200,"station_id":"ce4bho12rcd13ifvqh1g","pricing_plan_id":"cebpf4jnsgd1na2vs0mg"},{"bike_id":"44e10618-e1b8-4569-bc24-980853c4bf04","system_id":"levelo_inurba_marseille","lat":43.22923,"lon":5.3538,"is_reserved":false,"is_disabled":true,"rental_uris":{"android":"levelo://app?vid=44e10618-e1b8-4569-bc24-980853c4bf04","ios":"levelo://app?vid=44e10618-e1b8-4569-bc24-980853c4bf04"},"vehicle_type_id":"4","last_reported":1752454881,"current_range_meters":19200,"station_id":"cpo3532slgdg3j2ikp40","pricing_plan_id":"cebpf4jnsgd1na2vs0mg"},{"bike_id":"dc214cbe-44e7-41d0-abbf-23227b370da2","system_id":"levelo_inurba_marseille","lat":43.27804,"lon":5.40735,"is_reserved":false,"is_disabled":false,"rental_uris":{"android":"levelo://app?vid=dc214cbe-44e7-41d0-abbf-23227b370da2","ios":"levelo://app?vid=dc214cbe-44e7-41d0-abbf-23227b370da2"},"vehicle_type_id":"4","last_reported":1752454881,"current_range_meters":19200,"station_id":"ce4bhnh2rcd13ifvqgtg","pricing_plan_id":"cebpf4jnsgd1na2vs0mg"},{"bike_id":"db05bf4a-44e7-4758-9696-1dfc7a82cee3","system_id":"levelo_inurba_marseille","lat":43.29305,"lon":5.37468,"is_reserved":false,"is_disabled":false,"rental_uris":{"android":"levelo://app?vid=db05bf4a-44e7-4758-9696-1dfc7a82cee3","ios":"levelo://app?vid=db05bf4a-44e7-4758-9696-1dfc7a82cee3"},"vehicle_type_id":"4","last_reported":1752454881,"current_range_meters":19200,"station_id":"ce4bgi12rcd13ifvqb70","pricing_plan_id":"cebpf4jnsgd1na2vs0mg"},{"bike_id":"b557b223-dad6-4fea-8f09-4a3a9f8b1c3a","system_id":"levelo_inurba_marseille","lat":43.303036,"lon":5.392081,"is_reserved":false,"is_disabled":true,"rental_uris":{"android":"levelo://app?vid=b557b223-dad6-4fea-8f09-4a3a9f8b1c3a","ios":"levelo://app?vid=b557b223-dad6-4fea-8f09-4a3a9f8b1c3a"},"vehicle_type_id":"4","last_reported":1752454881,"current_range_meters":19200,"station_id":"ce4bgkh2rcd13ifvqbk0","pricing_plan_id":"cebpf4jnsgd1na2vs0mg"},{"bike_id":"d0f90c24-dd03-411b-9731-55305f76b7c8","system_id":"levelo_inurba_marseille","lat":43.21198,"lon":5.35075,"is_reserved":false,"is_disabled":false,"rental_uris":{"android":"levelo://app?vid=d0f90c24-dd03-411b-9731-55305f76b7c8","ios":"levelo://app?vid=d0f90c24-dd03-411b-9731-55305f76b7c8"},"vehicle_type_id":"4","last_reported":1752454881,"current_range_meters":19200,"station_id":"st_cvj6sg6p6f1abm77japg","pricing_plan_id":"cebpf4jnsgd1na2vs0mg"},{"bike_id":"c76c8ff0-43c0-40a7-9b84-84c2c1d54c8e","system_id":"levelo_inurba_marseille","lat":43.294787,"lon":5.385398,"is_reserved":false,"is_disabled":false,"rental_uris":{"android":"levelo://app?vid=c76c8ff0-43c0-40a7-9b84-84c2c1d54c8e","ios":"levelo://app?vid=c76c8ff0-43c0-40a7-9b84-84c2c1d54c8e"},"vehicle_type_id":"4","last_reported":1752454881,"current_range_meters":19200,"station_id":"","pricing_plan_id":"cebpf4jnsgd1na2vs0mg"},{"bike_id":"7eaeb775-7c92-4f38-9d5e-21c9e06595c4","system_id":"levelo_inurba_marseille","lat":43.24074,"lon":5.37764,"is_reserved":false,"is_disabled":false,"rental_uris":{"android":"levelo://app?vid=7eaeb775-7c92-4f38-9d5e-21c9e06595c4","ios":"levelo://app?vid=7eaeb775-7c92-4f38-9d5e-21c9e06595c4"},"vehicle_type_id":"4","last_reported":1752454881,"current_range_meters":19200,"station_id":"ce4bhnp2rcd13ifvqgvg","pricing_plan_id":"cebpf4jnsgd1na2vs0mg"},{"bike_id":"f10941ce-d19a-4475-b0ba-1c38d332727e","system_id":"levelo_inurba_marseille","lat":43.321543,"lon":5.387012,"is_reserved":false,"is_disabled":false,"rental_uris":{"android":"levelo://app?vid=f10941ce-d19a-4475-b0ba-1c38d332727e","ios":"levelo://app?vid=f10941ce-d19a-4475-b0ba-1c38d332727e"},"vehicle_type_id":"4","last_reported":1752454881,"current_range_meters":19200,"station_id":"","pricing_plan_id":"cebpf4jnsgd1na2vs0mg"},{"bike_id":"e0b88937-0cb8-4374-8110-357b6a1974b9","system_id":"levelo_inurba_marseille","lat":43.2408,"lon":5.3777,"is_reserved":false,"is_disabled":false,"rental_uris":{"android":"levelo://app?vid=e0b88937-0cb8-4374-8110-357b6a1974b9","ios":"levelo://app?vid=e0b88937-0cb8-4374-8110-357b6a1974b9"},"vehicle_type_id":"4","last_reported":1752454881,"current_range_meters":19200,"station_id":"ce4bhnp2rcd13ifvqgvg","pricing_plan_id":"cebpf4jnsgd1na2vs0mg"},{"bike_id":"8b726028-c03f-4fa3-b49a-613ec73070c9","system_id":"levelo_inurba_marseille","lat":43.231932,"lon":5.355629,"is_reserved":false,"is_disabled":true,"rental_uris":{"android":"levelo://app?vid=8b726028-c03f-4fa3-b49a-613ec73070c9","ios":"levelo://app?vid=8b726028-c03f-4fa3-b49a-613ec73070c9"},"vehicle_type_id":"4","last_reported":1752454881,"current_range_meters":19600,"station_id":"ce4bhu92rcd13ifvqi70","pricing_plan_id":"cebpf4jnsgd1na2vs0mg"},{"bike_id":"aed1e975-5f19-42a3-9742-da625783cf2e","system_id":"levelo_inurba_marseille","lat":43.30303,"lon":5.39209,"is_reserved":false,"is_disabled":false,"rental_uris":{"android":"levelo://app?vid=aed1e975-5f19-42a3-9742-da625783cf2e","ios":"levelo://app?vid=aed1e975-5f19-42a3-9742-da625783cf2e"},"vehicle_type_id":"4","last_reported":1752454881,"current_range_meters":19600,"station_id":"ce4bgkh2rcd13ifvqbk0","pricing_plan_id":"cebpf4jnsgd1na2vs0mg"},{"bike_id":"6e5f8007-d2b0-499b-a8d7-09bbefa8f922","system_id":"levelo_inurba_marseille","lat":43.29961,"lon":5.38505,"is_reserved":false,"is_disabled":false,"rental_uris":{"android":"levelo://app?vid=6e5f8007-d2b0-499b-a8d7-09bbefa8f922","ios":"levelo://app?vid=6e5f8007-d2b0-499b-a8d7-09bbefa8f922"},"vehicle_type_id":"4","last_reported":1752454881,"current_range_meters":19600,"station_id":"ce4bgj92rcd13ifvqbd0","pricing_plan_id":"cebpf4jnsgd1na2vs0mg"},{"bike_id":"e3f18f67-f6b7-4ffc-a0eb-d59d0b014ac8","system_id":"levelo_inurba_marseille","lat":43.2416,"lon":5.36402,"is_reserved":false,"is_disabled":false,"rental_uris":{"android":"levelo://app?vid=e3f18f67-f6b7-4ffc-a0eb-d59d0b014ac8","ios":"levelo://app?vid=e3f18f67-f6b7-4ffc-a0eb-d59d0b014ac8"},"vehicle_type_id":"4","last_reported":1752454881,"current_range_meters":19600,"station_id":"cpo36qri1sfpv3e86is0","pricing_plan_id":"cebpf4jnsgd1na2vs0mg"},{"bike_id":"6ad77e3e-b64b-46c5-aacd-f441bffa9a51","system_id":"levelo_inurba_marseille","lat":43.25104,"lon":5.40374,"is_reserved":false,"is_disabled":false,"rental_uris":{"android":"levelo://app?vid=6ad77e3e-b64b-46c5-aacd-f441bffa9a51","ios":"levelo://app?vid=6ad77e3e-b64b-46c5-aacd-f441bffa9a51"},"vehicle_type_id":"4","last_reported":1752454881,"current_range_meters":19600,"station_id":"ce4bhlh2rcd13ifvqgig","pricing_plan_id":"cebpf4jnsgd1na2vs0mg"},{"bike_id":"d21404be-b430-4039-a1a0-8e3e049cbaa4","system_id":"levelo_inurba_marseille","lat":43.317543,"lon":5.390167,"is_reserved":false,"is_disabled":false,"rental_uris":{"android":"levelo://app?vid=d21404be-b430-4039-a1a0-8e3e049cbaa4","ios":"levelo://app?vid=d21404be-b430-4039-a1a0-8e3e049cbaa4"},"vehicle_type_id":"4","last_reported":1752454881,"current_range_meters":19600,"station_id":"ce4bhqp2rcd13ifvqhng","pricing_plan_id":"cebpf4jnsgd1na2vs0mg"},{"bike_id":"da25e646-0dbf-4b5e-a62f-0cfb1d007ab1","system_id":"levelo_inurba_marseille","lat":43.31518,"lon":5.38044,"is_reserved":false,"is_disabled":false,"rental_uris":{"android":"levelo://app?vid=da25e646-0dbf-4b5e-a62f-0cfb1d007ab1","ios":"levelo://app?vid=da25e646-0dbf-4b5e-a62f-0cfb1d007ab1"},"vehicle_type_id":"4","last_reported":1752454881,"current_range_meters":19600,"station_id":"ce4bhsp2rcd13ifvqi50","pricing_plan_id":"cebpf4jnsgd1na2vs0mg"},{"bike_id":"48a72147-d63a-4fad-9403-9184689656c8","system_id":"levelo_inurba_marseille","lat":43.243964,"lon":5.370712,"is_reserved":false,"is_disabled":true,"rental_uris":{"android":"levelo://app?vid=48a72147-d63a-4fad-9403-9184689656c8","ios":"levelo://app?vid=48a72147-d63a-4fad-9403-9184689656c8"},"vehicle_type_id":"4","last_reported":1752454881,"current_range_meters":19600,"station_id":"ce4bhhh2rcd13ifvqfk0","pricing_plan_id":"cebpf4jnsgd1na2vs0mg"},{"bike_id":"71e26610-b34a-4286-91b4-3a17e0577154","system_id":"levelo_inurba_marseille","lat":43.24071,"lon":5.37756,"is_reserved":false,"is_disabled":false,"rental_uris":{"android":"levelo://app?vid=71e26610-b34a-4286-91b4-3a17e0577154","ios":"levelo://app?vid=71e26610-b34a-4286-91b4-3a17e0577154"},"vehicle_type_id":"4","last_reported":1752454881,"current_range_meters":20000,"station_id":"ce4bhnp2rcd13ifvqgvg","pricing_plan_id":"cebpf4jnsgd1na2vs0mg"},{"bike_id":"f6618e0c-2b00-4ee7-8d7c-c845eca6b5fb","system_id":"levelo_inurba_marseille","lat":43.31528,"lon":5.38053,"is_reserved":false,"is_disabled":false,"rental_uris":{"android":"levelo://app?vid=f6618e0c-2b00-4ee7-8d7c-c845eca6b5fb","ios":"levelo://app?vid=f6618e0c-2b00-4ee7-8d7c-c845eca6b5fb"},"vehicle_type_id":"4","last_reported":1752454881,"current_range_meters":20000,"station_id":"ce4bhsp2rcd13ifvqi50","pricing_plan_id":"cebpf4jnsgd1na2vs0mg"},{"bike_id":"77e9ada8-09d1-4463-b2fd-4b3a01b0f415","system_id":"levelo_inurba_marseille","lat":43.30884,"lon":5.39117,"is_reserved":false,"is_disabled":true,"rental_uris":{"android":"levelo://app?vid=77e9ada8-09d1-4463-b2fd-4b3a01b0f415","ios":"levelo://app?vid=77e9ada8-09d1-4463-b2fd-4b3a01b0f415"},"vehicle_type_id":"4","last_reported":1752454881,"current_range_meters":20000,"station_id":"","pricing_plan_id":"cebpf4jnsgd1na2vs0mg"},{"bike_id":"bdb7d0b2-8378-440c-bb45-d2e975efdc67","system_id":"levelo_inurba_marseille","lat":43.229312,"lon":5.353869,"is_reserved":false,"is_disabled":true,"rental_uris":{"android":"levelo://app?vid=bdb7d0b2-8378-440c-bb45-d2e975efdc67","ios":"levelo://app?vid=bdb7d0b2-8378-440c-bb45-d2e975efdc67"},"vehicle_type_id":"4","last_reported":1752454881,"current_range_meters":20000,"station_id":"cpo3532slgdg3j2ikp40","pricing_plan_id":"cebpf4jnsgd1na2vs0mg"},{"bike_id":"0f6e2d1e-1402-4217-bd46-d4dccc77d350","system_id":"levelo_inurba_marseille","lat":43.29265,"lon":5.36706,"is_reserved":false,"is_disabled":true,"rental_uris":{"android":"levelo://app?vid=0f6e2d1e-1402-4217-bd46-d4dccc77d350","ios":"levelo://app?vid=0f6e2d1e-1402-4217-bd46-d4dccc77d350"},"vehicle_type_id":"4","last_reported":1752454881,"current_range_meters":20000,"station_id":"","pricing_plan_id":"cebpf4jnsgd1na2vs0mg"},{"bike_id":"f3a4af3d-24a3-40b1-84d2-6466ea893cd2","system_id":"levelo_inurba_marseille","lat":43.288568,"lon":5.393074,"is_reserved":false,"is_disabled":false,"rental_uris":{"android":"levelo://app?vid=f3a4af3d-24a3-40b1-84d2-6466ea893cd2","ios":"levelo://app?vid=f3a4af3d-24a3-40b1-84d2-6466ea893cd2"},"vehicle_type_id":"4","last_reported":1752454881,"current_range_meters":19600,"station_id":"ce4bh2p2rcd13ifvqdi0","pricing_plan_id":"cebpf4jnsgd1na2vs0mg"},{"bike_id":"52cb12ce-7568-4969-9d5b-e929fc857857","system_id":"levelo_inurba_marseille","lat":43.29118,"lon":5.37998,"is_reserved":false,"is_disabled":false,"rental_uris":{"android":"levelo://app?vid=52cb12ce-7568-4969-9d5b-e929fc857857","ios":"levelo://app?vid=52cb12ce-7568-4969-9d5b-e929fc857857"},"vehicle_type_id":"4","last_reported":1752454881,"current_range_meters":20000,"station_id":"","pricing_plan_id":"cebpf4jnsgd1na2vs0mg"},{"bike_id":"8c3a661a-d9b9-4888-8437-6d02eabbdf12","system_id":"levelo_inurba_marseille","lat":43.28025,"lon":5.36953,"is_reserved":false,"is_disabled":false,"rental_uris":{"android":"levelo://app?vid=8c3a661a-d9b9-4888-8437-6d02eabbdf12","ios":"levelo://app?vid=8c3a661a-d9b9-4888-8437-6d02eabbdf12"},"vehicle_type_id":"4","last_reported":1752454881,"current_range_meters":20000,"station_id":"ce4bha12rcd13ifvqef0","pricing_plan_id":"cebpf4jnsgd1na2vs0mg"},{"bike_id":"6c6d4d9a-6141-481c-9c1a-8e61054bdc43","system_id":"levelo_inurba_marseille","lat":43.24785,"lon":5.41732,"is_reserved":false,"is_disabled":false,"rental_uris":{"android":"levelo://app?vid=6c6d4d9a-6141-481c-9c1a-8e61054bdc43","ios":"levelo://app?vid=6c6d4d9a-6141-481c-9c1a-8e61054bdc43"},"vehicle_type_id":"4","last_reported":1752454881,"current_range_meters":20000,"station_id":"","pricing_plan_id":"cebpf4jnsgd1na2vs0mg"},{"bike_id":"06abd972-a2a8-4771-9680-569c3ac87a5b","system_id":"levelo_inurba_marseille","lat":43.29885,"lon":5.3766,"is_reserved":false,"is_disabled":false,"rental_uris":{"android":"levelo://app?vid=06abd972-a2a8-4771-9680-569c3ac87a5b","ios":"levelo://app?vid=06abd972-a2a8-4771-9680-569c3ac87a5b"},"vehicle_type_id":"4","last_reported":1752454881,"current_range_meters":20000,"station_id":"","pricing_plan_id":"cebpf4jnsgd1na2vs0mg"},{"bike_id":"5c604cee-8163-4508-b1f3-ec8c5d644770","system_id":"levelo_inurba_marseille","lat":43.231909,"lon":5.355553,"is_reserved":false,"is_disabled":false,"rental_uris":{"android":"levelo://app?vid=5c604cee-8163-4508-b1f3-ec8c5d644770","ios":"levelo://app?vid=5c604cee-8163-4508-b1f3-ec8c5d644770"},"vehicle_type_id":"4","last_reported":1752454881,"current_range_meters":20000,"station_id":"ce4bhu92rcd13ifvqi70","pricing_plan_id":"cebpf4jnsgd1na2vs0mg"},{"bike_id":"da75db8b-8943-4abe-858e-79fbcfcae3a3","system_id":"levelo_inurba_marseille","lat":43.24076,"lon":5.37749,"is_reserved":false,"is_disabled":false,"rental_uris":{"android":"levelo://app?vid=da75db8b-8943-4abe-858e-79fbcfcae3a3","ios":"levelo://app?vid=da75db8b-8943-4abe-858e-79fbcfcae3a3"},"vehicle_type_id":"4","last_reported":1752454881,"current_range_meters":20000,"station_id":"ce4bhnp2rcd13ifvqgvg","pricing_plan_id":"cebpf4jnsgd1na2vs0mg"},{"bike_id":"8510322a-e2f6-4968-bd02-3d1ccc7559d7","system_id":"levelo_inurba_marseille","lat":43.28615,"lon":5.35087,"is_reserved":false,"is_disabled":true,"rental_uris":{"android":"levelo://app?vid=8510322a-e2f6-4968-bd02-3d1ccc7559d7","ios":"levelo://app?vid=8510322a-e2f6-4968-bd02-3d1ccc7559d7"},"vehicle_type_id":"4","last_reported":1752454881,"current_range_meters":20000,"station_id":"ce4bhch2rcd13ifvqeug","pricing_plan_id":"cebpf4jnsgd1na2vs0mg"},{"bike_id":"11106e69-89ed-4341-b4bb-b14fbe08d9c6","system_id":"levelo_inurba_marseille","lat":43.28536,"lon":5.39504,"is_reserved":false,"is_disabled":false,"rental_uris":{"android":"levelo://app?vid=11106e69-89ed-4341-b4bb-b14fbe08d9c6","ios":"levelo://app?vid=11106e69-89ed-4341-b4bb-b14fbe08d9c6"},"vehicle_type_id":"4","last_reported":1752454881,"current_range_meters":20400,"station_id":"ce4bh292rcd13ifvqdg0","pricing_plan_id":"cebpf4jnsgd1na2vs0mg"},{"bike_id":"f2e49c32-f10c-4e91-93ab-4ab9167f079f","system_id":"levelo_inurba_marseille","lat":43.26071,"lon":5.39397,"is_reserved":false,"is_disabled":true,"rental_uris":{"android":"levelo://app?vid=f2e49c32-f10c-4e91-93ab-4ab9167f079f","ios":"levelo://app?vid=f2e49c32-f10c-4e91-93ab-4ab9167f079f"},"vehicle_type_id":"4","last_reported":1752454881,"current_range_meters":20400,"station_id":"ce4bhh92rcd13ifvqfj0","pricing_plan_id":"cebpf4jnsgd1na2vs0mg"},