{"last_updated":1761934541,"ttl":60,"version":"2.2","data":{"bikes":[{"bike_id":"e3a89f26-efe5-4743-a146-9bd29156aaab","system_id":"levelo_inurba_marseille","lat":43.30798,"lon":5.38153,"is_reserved":false,"is_disabled":false,"rental_uris":{"android":"levelo://app?vid=e3a89f26-efe5-4743-a146-9bd29156aaab","ios":"levelo://app?vid=e3a89f26-efe5-4743-a146-9bd29156aaab"},"vehicle_type_id":"4","last_reported":1761934541,"current_range_meters":2800,"station_id":"ce4bgt12rcd13ifvqce0","pricing_plan_id":"cebpf4jnsgd1na2vs0mg"},{"bike_id":"fd3821da-036f-422b-ac8c-c5b69a26c1ff","system_id":"levelo_inurba_marseille","lat":43.29008,"lon":5.35598,"is_reserved":false,"is_disabled":false,"rental_uris":{"android":"levelo://app?vid=fd3821da-036f-422b-ac8c-c5b69a26c1ff","ios":"levelo://app?vid=fd3821da-036f-422b-ac8c-c5b69a26c1ff"},"vehicle_type_id":"4","last_reported":1761934541,"current_range_meters":3200,"station_id":"ce4bhb92rcd13ifvqen0","pricing_plan_id":"cebpf4jnsgd1na2vs0mg"},{"bike_id":"0a7db400-e2a6-466a-9d48-8d066b6de5e7","system_id":"levelo_inurba_marseille","lat":43.31762,"lon":5.39002,"is_reserved":false,"is_disabled":false,"rental_uris":{"android":"levelo://app?vid=0a7db400-e2a6-466a-9d48-8d066b6de5e7","ios":"levelo://app?vid=0a7db400-e2a6-466a-9d48-8d066b6de5e7"},"vehicle_type_id":"4","last_reported":1761934541,"current_range_meters":3200,"station_id":"ce4bhqp2rcd13ifvqhng","pricing_plan_id":"cebpf4jnsgd1na2vs0mg"},{"bike_id":"4f399903-701e-450f-bce6-bc61363464bf","system_id":"levelo_inurba_marseille","lat":43.29251,"lon":5.38422,"is_reserved":false,"is_disabled":false,"rental_uris":{"android":"levelo://app?vid=4f399903-701e-450f-bce6-bc61363464bf","ios":"levelo://app?vid=4f399903-701e-450f-bce6-bc61363464bf"},"vehicle_type_id":"4","last_reported":1761934541,"current_range_meters":3200,"station_id":"ce4bh692rcd13ifvqea0","pricing_plan_id":"cebpf4jnsgd1na2vs0mg"},{"bike_id":"80cde17b-197a-4666-8e1e-92c981f7a2d9","system_id":"levelo_inurba_marseille","lat":43.2955,"lon":5.423,"is_reserved":false,"is_disabled":false,"rental_uris":{"android":"levelo://app?vid=80cde17b-197a-4666-8e1e-92c981f7a2d9","ios":"levelo://app?vid=80cde17b-197a-4666-8e1e-92c981f7a2d9"},"vehicle_type_id":"4","last_reported":1761934541,"current_range_meters":3600,"station_id":"ce4bhph2rcd13ifvqhdg","pricing_plan_id":"cebpf4jnsgd1na2vs0mg"},{"bike_id":"05f2cb5c-c9e9-487e-8da2-6f705398d38e","system_id":"levelo_inurba_marseille","lat":43.29033,"lon":5.38641,"is_reserved":false,"is_disabled":false,"rental_uris":{"android":"levelo://app?vid=05f2cb5c-c9e9-487e-8da2-6f705398d38e","ios":"levelo://app?vid=05f2cb5c-c9e9-487e-8da2-6f705398d38e"},"vehicle_type_id":"4","last_reported":1761934541,"current_range_meters":3600,"station_id":"ce4bh4p2rcd13ifvqe0g","pricing_plan_id":"cebpf4jnsgd1na2vs0mg"},{"bike_id":"a54801e0-99c7-4feb-8945-9a2eb570dd7d","system_id":"levelo_inurba_marseille","lat":43.29057,"lon":5.37161,"is_reserved":false,"is_disabled":false,"rental_uris":{"android":"levelo://app?vid=a54801e0-99c7-4feb-8945-9a2eb570dd7d","ios":"levelo://app?vid=a54801e0-99c7-4feb-8945-9a2eb570dd7d"},"vehicle_type_id":"4","last_reported":1761934541,"current_range_meters":4400,"station_id":"ce4bh5p2rcd13ifvqe4g","pricing_plan_id":"cebpf4jnsgd1na2vs0mg"},{"bike_id":"8a2d839c-118d-459d-961c-8869e1b39d74","system_id":"levelo_inurba_marseille","lat":43.24092,"lon":5.37762,"is_reserved":false,"is_disabled":false,"rental_uris":{"android":"levelo://app?vid=8a2d839c-118d-459d-961c-8869e1b39d74","ios":"levelo://app?vid=8a2d839c-118d-459d-961c-8869e1b39d74"},"vehicle_type_id":"4","last_reported":1761934541,"current_range_meters":4400,"station_id":"ce4bhnp2rcd13ifvqgvg","pricing_plan_id":"cebpf4jnsgd1na2vs0mg"},{"bike_id":"c82d5efa-8978-4f8a-a81a-2a8ff6358c53","system_id":"levelo_inurba_marseille","lat":43.273286,"lon":5.390915,"is_reserved":false,"is_disabled":false,"rental_uris":{"android":"levelo://app?vid=c82d5efa-8978-4f8a-a81a-2a8ff6358c53","ios":"levelo://app?vid=c82d5efa-8978-4f8a-a81a-2a8ff6358c53"},"vehicle_type_id":"4","last_reported":1761934541,"current_range_meters":4400,"station_id":"ce4bhgp2rcd13ifvqfe0","pricing_plan_id":"cebpf4jnsgd1na2vs0mg"},{"bike_id":"d2e5750c-87f7-43dd-b8d2-d3053442195f","system_id":"levelo_inurba_marseille","lat":43.26595,"lon":5.39019,"is_reserved":false,"is_disabled":false,"rental_uris":{"android":"levelo://app?vid=d2e5750c-87f7-43dd-b8d2-d3053442195f","ios":"levelo://app?vid=d2e5750c-87f7-43dd-b8d2-d3053442195f"},"vehicle_type_id":"4","last_reported":1761934541,"current_range_meters":4400,"station_id":"ce4bhe12rcd13ifvqf30","pricing_plan_id":"cebpf4jnsgd1na2vs0mg"},{"bike_id":"ece252ed-d5be-4d7b-ab71-6d57161dc9bf","system_id":"levelo_inurba_marseille","lat":43.22934,"lon":5.35373,"is_reserved":false,"is_disabled":false,"rental_uris":{"android":"levelo://app?vid=ece252ed-d5be-4d7b-ab71-6d57161dc9bf","ios":"levelo://app?vid=ece252ed-d5be-4d7b-ab71-6d57161dc9bf"},"vehicle_type_id":"4","last_reported":1761934541,"current_range_meters":4400,"station_id":"cpo3532slgdg3j2ikp40","pricing_plan_id":"cebpf4jnsgd1na2vs0mg"},{"bike_id":"270f36f4-9ffa-4416-8a24-098fcafec2c3","system_id":"levelo_inurba_marseille","lat":43.273764,"lon":5.39345,"is_reserved":false,"is_disabled":false,"rental_uris":{"android":"levelo://app?vid=270f36f4-9ffa-4416-8a24-098fcafec2c3","ios":"levelo://app?vid=270f36f4-9ffa-4416-8a24-098fcafec2c3"},"vehicle_type_id":"4","last_reported":1761934541,"current_range_meters":4800,"station_id":"ce4bhdp2rcd13ifvqf20","pricing_plan_id":"cebpf4jnsgd1na2vs0mg"},{"bike_id":"375a1bfd-6371-467b-8794-823c9dbee2e6","system_id":"levelo_inurba_marseille","lat":43.26209,"lon":5.37442,"is_reserved":false,"is_disabled":false,"rental_uris":{"android":"levelo://app?vid=375a1bfd-6371-467b-8794-823c9dbee2e6","ios":"levelo://app?vid=375a1bfd-6371-467b-8794-823c9dbee2e6"},"vehicle_type_id":"4","last_reported":1761934541,"current_range_meters":4800,"station_id":"ce4bhgp2rcd13ifvqfc0","pricing_plan_id":"cebpf4jnsgd1na2vs0mg"},{"bike_id":"ee424502-fd5b-4b9d-8ba8-a41d4c54f4c1","system_id":"levelo_inurba_marseille","lat":43.30953,"lon":5.39041,"is_reserved":false,"is_disabled":false,"rental_uris":{"android":"levelo://app?vid=ee424502-fd5b-4b9d-8ba8-a41d4c54f4c1","ios":"levelo://app?vid=ee424502-fd5b-4b9d-8ba8-a41d4c54f4c1"},"vehicle_type_id":"4","last_reported":1761934541,"current_range_meters":5600,"station_id":"ce4bgup2rcd13ifvqco0","pricing_plan_id":"cebpf4jnsgd1na2vs0mg"},{"bike_id":"7429e722-0140-4583-bd6d-6fc4e8aad56b","system_id":"levelo_inurba_marseille","lat":43.305343,"lon":5.370425,"is_reserved":false,"is_disabled":false,"rental_uris":{"android":"levelo://app?vid=7429e722-0140-4583-bd6d-6fc4e8aad56b","ios":"levelo://app?vid=7429e722-0140-4583-bd6d-6fc4e8aad56b"},"vehicle_type_id":"4","last_reported":1761934541,"current_range_meters":5600,"station_id":"","pricing_plan_id":"cebpf4jnsgd1na2vs0mg"},{"bike_id":"2829c7de-14aa-4891-bee5-904e78845d87","system_id":"levelo_inurba_marseille","lat":43.312542,"lon":5.401617,"is_reserved":false,"is_disabled":false,"rental_uris":{"android":"levelo://app?vid=2829c7de-14aa-4891-bee5-904e78845d87","ios":"levelo://app?vid=2829c7de-14aa-4891-bee5-904e78845d87"},"vehicle_type_id":"4","last_reported":1761934541,"current_range_meters":5600,"station_id":"ce4bh092rcd13ifvqd30","pricing_plan_id":"cebpf4jnsgd1na2vs0mg"},{"bike_id":"5ee6ea5c-4995-401a-9e44-aedf326aaa4a","system_id":"levelo_inurba_marseille","lat":43.295266,"lon":5.385471,"is_reserved":false,"is_disabled":false,"rental_uris":{"android":"levelo://app?vid=5ee6ea5c-4995-401a-9e44-aedf326aaa4a","ios":"levelo://app?vid=5ee6ea5c-4995-401a-9e44-aedf326aaa4a"},"vehicle_type_id":"4","last_reported":1761934541,"current_range_meters":6000,"station_id":"ce4bgih2rcd13ifvqba0","pricing_plan_id":"cebpf4jnsgd1na2vs0mg"},{"bike_id":"b8e8f624-25f1-4537-845a-1740b5f64814","system_id":"levelo_inurba_marseille","lat":43.29551,"lon":5.42267,"is_reserved":false,"is_disabled":false,"rental_uris":{"android":"levelo://app?vid=b8e8f624-25f1-4537-845a-1740b5f64814","ios":"levelo://app?vid=b8e8f624-25f1-4537-845a-1740b5f64814"},"vehicle_type_id":"4","last_reported":1761934541,"current_range_meters":6000,"station_id":"ce4bhph2rcd13ifvqhdg","pricing_plan_id":"cebpf4jnsgd1na2vs0mg"},{"bike_id":"6dbe9484-2256-497a-9955-1d6072c6a504","system_id":"levelo_inurba_marseille","lat":43.29109,"lon":5.38917,"is_reserved":false,"is_disabled":false,"rental_uris":{"android":"levelo://app?vid=6dbe9484-2256-497a-9955-1d6072c6a504","ios":"levelo://app?vid=6dbe9484-2256-497a-9955-1d6072c6a504"},"vehicle_type_id":"4","last_reported":1761934541,"current_range_meters":6000,"station_id":"","pricing_plan_id":"cebpf4jnsgd1na2vs0mg"},{"bike_id":"367d0762-1b06-4d9a-a18a-a702f0486348","system_id":"levelo_inurba_marseille","lat":43.26195,"lon":5.37448,"is_reserved":false,"is_disabled":false,"rental_uris":{"android":"levelo://app?vid=367d0762-1b06-4d9a-a18a-a702f0486348","ios":"levelo://app?vid=367d0762-1b06-4d9a-a18a-a702f0486348"},"vehicle_type_id":"4","last_reported":1761934541,"current_range_meters":6000,"station_id":"ce4bhgp2rcd13ifvqfc0","pricing_plan_id":"cebpf4jnsgd1na2vs0mg"},{"bike_id":"137b5ebd-6460-4010-aeb9-d0fbe524a030","system_id":"levelo_inurba_marseille","lat":43.30922,"lon":5.37197,"is_reserved":false,"is_disabled":false,"rental_uris":{"android":"levelo://app?vid=137b5ebd-6460-4010-aeb9-d0fbe524a030","ios":"levelo://app?vid=137b5ebd-6460-4010-aeb9-d0fbe524a030"},"vehicle_type_id":"4","last_reported":1761934541,"current_range_meters":6000,"station_id":"ce4bguh2rcd13ifvqckg","pricing_plan_id":"cebpf4jnsgd1na2vs0mg"},{"bike_id":"d20c4d30-7835-4848-ad1c-4a6356b1e6a5","system_id":"levelo_inurba_marseille","lat":43.31356,"lon":5.3971,"is_reserved":false,"is_disabled":false,"rental_uris":{"android":"levelo://app?vid=d20c4d30-7835-4848-ad1c-4a6356b1e6a5","ios":"levelo://app?vid=d20c4d30-7835-4848-ad1c-4a6356b1e6a5"},"vehicle_type_id":"4","last_reported":1761934541,"current_range_meters":6000,"station_id":"ce4bgvp2rcd13ifvqcu0","pricing_plan_id":"cebpf4jnsgd1na2vs0mg"},{"bike_id":"3a55813c-c1e9-479f-856f-e488f54eaec9","system_id":"levelo_inurba_marseille","lat":43.29533,"lon":5.38549,"is_reserved":false,"is_disabled":false,"rental_uris":{"android":"levelo://app?vid=3a55813c-c1e9-479f-856f-e488f54eaec9","ios":"levelo://app?vid=3a55813c-c1e9-479f-856f-e488f54eaec9"},"vehicle_type_id":"4","last_reported":1761934541,"current_range_meters":6000,"station_id":"ce4bgih2rcd13ifvqba0","pricing_plan_id":"cebpf4jnsgd1na2vs0mg"},{"bike_id":"a2992ff3-2396-4c80-be87-090eba31cc57","system_id":"levelo_inurba_marseille","lat":43.30791,"lon":5.376423,"is_reserved":false,"is_disabled":false,"rental_uris":{"android":"levelo://app?vid=a2992ff3-2396-4c80-be87-090eba31cc57","ios":"levelo://app?vid=a2992ff3-2396-4c80-be87-090eba31cc57"},"vehicle_type_id":"4","last_reported":1761934541,"current_range_meters":6000,"station_id":"ce4bgv92rcd13ifvqcq0","pricing_plan_id":"cebpf4jnsgd1na2vs0mg"},{"bike_id":"1bdb0524-fd2f-434a-9e83-4b7a1a09b5bb","system_id":"levelo_inurba_marseille","lat":43.33388,"lon":5.41127,"is_reserved":false,"is_disabled":false,"rental_uris":{"android":"levelo://app?vid=1bdb0524-fd2f-434a-9e83-4b7a1a09b5bb","ios":"levelo://app?vid=1bdb0524-fd2f-434a-9e83-4b7a1a09b5bb"},"vehicle_type_id":"4","last_reported":1761934541,"current_range_meters":6000,"station_id":"","pricing_plan_id":"cebpf4jnsgd1na2vs0mg"},{"bike_id":"6b41326e-d97f-4a01-86cf-ea687a73a091","system_id":"levelo_inurba_marseille","lat":43.2419,"lon":5.39729,"is_reserved":false,"is_disabled":false,"rental_uris":{"android":"levelo://app?vid=6b41326e-d97f-4a01-86cf-ea687a73a091","ios":"levelo://app?vid=6b41326e-d97f-4a01-86cf-ea687a73a091"},"vehicle_type_id":"4","last_reported":1761934541,"current_range_meters":6000,"station_id":"ce4bhn12rcd13ifvqgpg","pricing_plan_id":"cebpf4jnsgd1na2vs0mg"},{"bike_id":"370bf161-4b47-4251-b729-556f9f21d54e","system_id":"levelo_inurba_marseille","lat":43.28702,"lon":5.39978,"is_reserved":false,"is_disabled":false,"rental_uris":{"android":"levelo://app?vid=370bf161-4b47-4251-b729-556f9f21d54e","ios":"levelo://app?vid=370bf161-4b47-4251-b729-556f9f21d54e"},"vehicle_type_id":"4","last_reported":1761934541,"current_range_meters":6000,"station_id":"ce4bho92rcd13ifvqh3g","pricing_plan_id":"cebpf4jnsgd1na2vs0mg"},{"bike_id":"7ab95a2d-8172-4794-9210-e356b0c506aa","system_id":"levelo_inurba_marseille","lat":43.31169,"lon":5.38718,"is_reserved":false,"is_disabled":false,"rental_uris":{"android":"levelo://app?vid=7ab95a2d-8172-4794-9210-e356b0c506aa","ios":"levelo://app?vid=7ab95a2d-8172-4794-9210-e356b0c506aa"},"vehicle_type_id":"4","last_reported":1761934541,"current_range_meters":6400,"station_id":"ce4bgv12rcd13ifvqcp0","pricing_plan_id":"cebpf4jnsgd1na2vs0mg"},{"bike_id":"6357b643-31fd-4ce9-bf78-eb6c2df213a2","system_id":"levelo_inurba_marseille","lat":43.29535,"lon":5.3902,"is_reserved":false,"is_disabled":false,"rental_uris":{"android":"levelo://app?vid=6357b643-31fd-4ce9-bf78-eb6c2df213a2","ios":"levelo://app?vid=6357b643-31fd-4ce9-bf78-eb6c2df213a2"},"vehicle_type_id":"4","last_reported":1761934541,"current_range_meters":6400,"station_id":"","pricing_plan_id":"cebpf4jnsgd1na2vs0mg"},{"bike_id":"6fff56e2-dc33-4322-9554-e738206d1bc0","system_id":"levelo_inurba_marseille","lat":43.211948,"lon":5.350775,"is_reserved":false,"is_disabled":false,"rental_uris":{"android":"levelo://app?vid=6fff56e2-dc33-4322-9554-e738206d1bc0","ios":"levelo://app?vid=6fff56e2-dc33-4322-9554-e738206d1bc0"},"vehicle_type_id":"4","last_reported":1761934541,"current_range_meters":6400,"station_id":"st_cvj6sg6p6f1abm77japg","pricing_plan_id":"cebpf4jnsgd1na2vs0mg"},{"bike_id":"c5b94bb4-7320-4443-987a-92558d68e0e0","system_id":"levelo_inurba_marseille","lat":43.2953,"lon":5.38552,"is_reserved":false,"is_disabled":false,"rental_uris":{"android":"levelo://app?vid=c5b94bb4-7320-4443-987a-92558d68e0e0","ios":"levelo://app?vid=c5b94bb4-7320-4443-987a-92558d68e0e0"},"vehicle_type_id":"4","last_reported":1761934541,"current_range_meters":6400,"station_id":"ce4bgih2rcd13ifvqba0","pricing_plan_id":"cebpf4jnsgd1na2vs0mg"},{"bike_id":"cdb0f34d-1873-47e5-9008-0d84098965ae","system_id":"levelo_inurba_marseille","lat":43.27998,"lon":5.4001,"is_reserved":false,"is_disabled":false,"rental_uris":{"android":"levelo://app?vid=cdb0f34d-1873-47e5-9008-0d84098965ae","ios":"levelo://app?vid=cdb0f34d-1873-47e5-9008-0d84098965ae"},"vehicle_type_id":"4","last_reported":1761934541,"current_range_meters":6400,"station_id":"ce4bho92rcd13ifvqh4g","pricing_plan_id":"cebpf4jnsgd1na2vs0mg"},{"bike_id":"61b8096b-9705-4b47-84c7-b7fbf7ce0c66","system_id":"levelo_inurba_marseille","lat":43.30435,"lon":5.39743,"is_reserved":false,"is_disabled":false,"rental_uris":{"android":"levelo://app?vid=61b8096b-9705-4b47-84c7-b7fbf7ce0c66","ios":"levelo://app?vid=61b8096b-9705-4b47-84c7-b7fbf7ce0c66"},"vehicle_type_id":"4","last_reported":1761934541,"current_range_meters":6400,"station_id":"ce4bh092rcd13ifvqd20","pricing_plan_id":"cebpf4jnsgd1na2vs0mg"},{"bike_id":"4ea5c8d3-596b-4c15-9f77-2d54d14bff42","system_id":"levelo_inurba_marseille","lat":43.29875,"lon":5.3844,"is_reserved":false,"is_disabled":false,"rental_uris":{"android":"levelo://app?vid=4ea5c8d3-596b-4c15-9f77-2d54d14bff42","ios":"levelo://app?vid=4ea5c8d3-596b-4c15-9f77-2d54d14bff42"},"vehicle_type_id":"4","last_reported":1761934541,"current_range_meters":6800,"station_id":"","pricing_plan_id":"cebpf4jnsgd1na2vs0mg"},{"bike_id":"e37195e9-2fd7-42c0-9c23-6366ccbf96d0","system_id":"levelo_inurba_marseille","lat":43.23177,"lon":5.39992,"is_reserved":false,"is_disabled":false,"rental_uris":{"android":"levelo://app?vid=e37195e9-2fd7-42c0-9c23-6366ccbf96d0","ios":"levelo://app?vid=e37195e9-2fd7-42c0-9c23-6366ccbf96d0"},"vehicle_type_id":"4","last_reported":1761934541,"current_range_meters":6800,"station_id":"ce4bhn12rcd13ifvqgqg","pricing_plan_id":"cebpf4jnsgd1na2vs0mg"},{"bike_id":"8f2eb767-8f55-4624-b267-ea3c5034fdcf","system_id":"levelo_inurba_marseille","lat":43.21195,"lon":5.35077,"is_reserved":false,"is_disabled":false,"rental_uris":{"android":"levelo://app?vid=8f2eb767-8f55-4624-b267-ea3c5034fdcf","ios":"levelo://app?vid=8f2eb767-8f55-4624-b267-ea3c5034fdcf"},"vehicle_type_id":"4","last_reported":1761934541,"current_range_meters":7200,"station_id":"st_cvj6sg6p6f1abm77japg","pricing_plan_id":"cebpf4jnsgd1na2vs0mg"},{"bike_id":"65eb9f43-50b7-4816-8b37-7fb614d22e26","system_id":"levelo_inurba_marseille","lat":43.30468,"lon":5.36713,"is_reserved":false,"is_disabled":false,"rental_uris":{"android":"levelo://app?vid=65eb9f43-50b7-4816-8b37-7fb614d22e26","ios":"levelo://app?vid=65eb9f43-50b7-4816-8b37-7fb614d22e26"},"vehicle_type_id":"4","last_reported":1761934541,"current_range_meters":7200,"station_id":"","pricing_plan_id":"cebpf4jnsgd1na2vs0mg"},{"bike_id":"7ed5812f-a73a-4b09-816b-4b9f1c3a83e9","system_id":"levelo_inurba_marseille","lat":43.27068,"lon":5.42269,"is_reserved":false,"is_disabled":false,"rental_uris":{"android":"levelo://app?vid=7ed5812f-a73a-4b09-816b-4b9f1c3a83e9","ios":"levelo://app?vid=7ed5812f-a73a-4b09-816b-4b9f1c3a83e9"},"vehicle_type_id":"4","last_reported":1761934541,"current_range_meters":7200,"station_id":"ce4bhk92rcd13ifvqgb0","pricing_plan_id":"cebpf4jnsgd1na2vs0mg"},{"bike_id":"1400dd07-ec29-4a1b-8d13-6d3246bb6c4d","system_id":"levelo_inurba_marseille","lat":43.29238,"lon":5.40894,"is_reserved":false,"is_disabled":false,"rental_uris":{"android":"levelo://app?vid=1400dd07-ec29-4a1b-8d13-6d3246bb6c4d","ios":"levelo://app?vid=1400dd07-ec29-4a1b-8d13-6d3246bb6c4d"},"vehicle_type_id":"4","last_reported":1761934541,"current_range_meters":7200,"station_id":"ce4bh192rcd13ifvqdc0","pricing_plan_id":"cebpf4jnsgd1na2vs0mg"},{"bike_id":"688e0991-23bb-4f67-a97d-b9bb7704a66a","system_id":"levelo_inurba_marseille","lat":43.29255,"lon":5.39101,"is_reserved":false,"is_disabled":false,"rental_uris":{"android":"levelo://app?vid=688e0991-23bb-4f67-a97d-b9bb7704a66a","ios":"levelo://app?vid=688e0991-23bb-4f67-a97d-b9bb7704a66a"},"vehicle_type_id":"4","last_reported":1761934541,"current_range_meters":8000,"station_id":"","pricing_plan_id":"cebpf4jnsgd1na2vs0mg"},{"bike_id":"fcab4ddf-7c9a-4832-a957-af763c1f4abb","system_id":"levelo_inurba_marseille","lat":43.303814,"lon":5.42493,"is_reserved":false,"is_disabled":true,"rental_uris":{"android":"levelo://app?vid=fcab4ddf-7c9a-4832-a957-af763c1f4abb","ios":"levelo://app?vid=fcab4ddf-7c9a-4832-a957-af763c1f4abb"},"vehicle_type_id":"4","last_reported":1761934541,"current_range_meters":8000,"station_id":"ce4bhoh2rcd13ifvqh6g","pricing_plan_id":"cebpf4jnsgd1na2vs0mg"},{"bike_id":"ec5181de-583c-48dd-89fb-d77c786c361b","system_id":"levelo_inurba_marseille","lat":43.304295,"lon":5.388845,"is_reserved":false,"is_disabled":false,"rental_uris":{"android":"levelo://app?vid=ec5181de-583c-48dd-89fb-d77c786c361b","ios":"levelo://app?vid=ec5181de-583c-48dd-89fb-d77c786c361b"},"vehicle_type_id":"4","last_reported":1761934541,"current_range_meters":8000,"station_id":"ce4bgk12rcd13ifvqbi0","pricing_plan_id":"cebpf4jnsgd1na2vs0mg"},{"bike_id":"efe6b0d3-cb57-46ea-b27b-87744a69e2b2","system_id":"levelo_inurba_marseille","lat":43.30952,"lon":5.39024,"is_reserved":false,"is_disabled":false,"rental_uris":{"android":"levelo://app?vid=efe6b0d3-cb57-46ea-b27b-87744a69e2b2","ios":"levelo://app?vid=efe6b0d3-cb57-46ea-b27b-87744a69e2b2"},"vehicle_type_id":"4","last_reported":1761934541,"current_range_meters":8000,"station_id":"ce4bgup2rcd13ifvqco0","pricing_plan_id":"cebpf4jnsgd1na2vs0mg"},{"bike_id":"9f8d350e-3116-42ed-a432-d650d47d5608","system_id":"levelo_inurba_marseille","lat":43.28881,"lon":5.42526,"is_reserved":false,"is_disabled":false,"rental_uris":{"android":"levelo://app?vid=9f8d350e-3116-42ed-a432-d650d47d5608","ios":"levelo://app?vid=9f8d350e-3116-42ed-a432-d650d47d5608"},"vehicle_type_id":"4","last_reported":1761934541,"current_range_meters":8400,"station_id":"st_d3b462108ojc7389ooeg","pricing_plan_id":"cebpf4jnsgd1na2vs0mg"},{"bike_id":"557750aa-912f-4136-b013-12b329ffb61e","system_id":"levelo_inurba_marseille","lat":43.29053,"lon":5.37159,"is_reserved":false,"is_disabled":true,"rental_uris":{"android":"levelo://app?vid=557750aa-912f-4136-b013-12b329ffb61e","ios":"levelo://app?vid=557750aa-912f-4136-b013-12b329ffb61e"},"vehicle_type_id":"4","last_reported":1761934541,"current_range_meters":8400,"station_id":"ce4bh5p2rcd13ifvqe4g","pricing_plan_id":"cebpf4jnsgd1na2vs0mg"},{"bike_id":"2af6db0b-edff-4a39-afbb-74f678d6747b","system_id":"levelo_inurba_marseille","lat":43.29572,"lon":5.37511,"is_reserved":false,"is_disabled":false,"rental_uris":{"android":"levelo://app?vid=2af6db0b-edff-4a39-afbb-74f678d6747b","ios":"levelo://app?vid=2af6db0b-edff-4a39-afbb-74f678d6747b"},"vehicle_type_id":"4","last_reported":1761934541,"current_range_meters":8400,"station_id":"ce4bgh92rcd13ifvqb50","pricing_plan_id":"cebpf4jnsgd1na2vs0mg"},{"bike_id":"55100ab1-daad-4391-a3fa-a4a187b5c9c2","system_id":"levelo_inurba_marseille","lat":43.3096,"lon":5.39032,"is_reserved":false,"is_disabled":false,"rental_uris":{"android":"levelo://app?vid=55100ab1-daad-4391-a3fa-a4a187b5c9c2","ios":"levelo://app?vid=55100ab1-daad-4391-a3fa-a4a187b5c9c2"},"vehicle_type_id":"4","last_reported":1761934541,"current_range_meters":8400,"station_id":"ce4bgup2rcd13ifvqco0","pricing_plan_id":"cebpf4jnsgd1na2vs0mg"},{"bike_id":"98ae93b0-3aa0-49a9-b711-2d1817703f89","system_id":"levelo_inurba_marseille","lat":43.29793,"lon":5.38106,"is_reserved":false,"is_disabled":false,"rental_uris":{"android":"levelo://app?vid=98ae93b0-3aa0-49a9-b711-2d1817703f89","ios":"levelo://app?vid=98ae93b0-3aa0-49a9-b711-2d1817703f89"},"vehicle_type_id":"4","last_reported":1761934541,"current_range_meters":8800,"station_id":"ce4bgip2rcd13ifvqbb0","pricing_plan_id":"cebpf4jnsgd1na2vs0mg"},{"bike_id":"3dab03ab-b250-4b40-b286-0668266ab52e","system_id":"levelo_inurba_marseille","lat":43.28852,"lon":5.42524,"is_reserved":false,"is_disabled":false,"rental_uris":{"android":"levelo://app?vid=3dab03ab-b250-4b40-b286-0668266ab52e","ios":"levelo://app?vid=3dab03ab-b250-4b40-b286-0668266ab52e"},"vehicle_type_id":"4","last_reported":1761934541,"current_range_meters":8800,"station_id":"st_d3b462108ojc7389ooeg","pricing_plan_id":"cebpf4jnsgd1na2vs0mg"},{"bike_id":"9ae970bb-662f-494e-bf6f-6dcb125ae656","system_id":"levelo_inurba_marseille","lat":43.301225,"lon":5.39856,"is_reserved":false,"is_disabled":false,"rental_uris":{"android":"levelo://app?vid=9ae970bb-662f-494e-bf6f-6dcb125ae656","ios":"levelo://app?vid=9ae970bb-662f-494e-bf6f-6dcb125ae656"},"vehicle_type_id":"4","last_reported":1761934541,"current_range_meters":8800,"station_id":"ce4bh0h2rcd13ifvqd40","pricing_plan_id":"cebpf4jnsgd1na2vs0mg"},{"bike_id":"35ae04ca-f489-4105-8926-269451df2f98","system_id":"levelo_inurba_marseille","lat":43.237664,"lon":5.366242,"is_reserved":false,"is_disabled":false,"rental_uris":{"android":"levelo://app?vid=35ae04ca-f489-4105-8926-269451df2f98","ios":"levelo://app?vid=35ae04ca-f489-4105-8926-269451df2f98"},"vehicle_type_id":"4","last_reported":1761934541,"current_range_meters":8800,"station_id":"st_d3nk18o9ro0c73en2l3g","pricing_plan_id":"cebpf4jnsgd1na2vs0mg"},{"bike_id":"09c1866f-a377-4db7-8f96-819f38836e3f","system_id":"levelo_inurba_marseille","lat":43.25087,"lon":5.3952,"is_reserved":false,"is_disabled":false,"rental_uris":{"android":"levelo://app?vid=09c1866f-a377-4db7-8f96-819f38836e3f","ios":"levelo://app?vid=09c1866f-a377-4db7-8f96-819f38836e3f"},"vehicle_type_id":"4","last_reported":1761934541,"current_range_meters":8800,"station_id":"ce4bhm12rcd13ifvqgkg","pricing_plan_id":"cebpf4jnsgd1na2vs0mg"},{"bike_id":"c12e0371-0d61-490d-815e-76148f4837d7","system_id":"levelo_inurba_marseille","lat":43.30211,"lon":5.3947,"is_reserved":false,"is_disabled":false,"rental_uris":{"android":"levelo://app?vid=c12e0371-0d61-490d-815e-76148f4837d7","ios":"levelo://app?vid=c12e0371-0d61-490d-815e-76148f4837d7"},"vehicle_type_id":"4","last_reported":1761934541,"current_range_meters":8800,"station_id":"ce4bh0p2rcd13ifvqd70","pricing_plan_id":"cebpf4jnsgd1na2vs0mg"},{"bike_id":"dbbf01d5-146c-4703-b0d4-a6fb876476cb","system_id":"levelo_inurba_marseille","lat":43.21192,"lon":5.35079,"is_reserved":false,"is_disabled":false,"rental_uris":{"android":"levelo://app?vid=dbbf01d5-146c-4703-b0d4-a6fb876476cb","ios":"levelo://app?vid=dbbf01d5-146c-4703-b0d4-a6fb876476cb"},"vehicle_type_id":"4","last_reported":1761934541,"current_range_meters":8800,"station_id":"st_cvj6sg6p6f1abm77japg","pricing_plan_id":"cebpf4jnsgd1na2vs0mg"},{"bike_id":"00247359-cf48-4b46-aa03-aef303b32fad","system_id":"levelo_inurba_marseille","lat":43.28928,"lon":5.38388,"is_reserved":false,"is_disabled":false,"rental_uris":{"android":"levelo://app?vid=00247359-cf48-4b46-aa03-aef303b32fad","ios":"levelo://app?vid=00247359-cf48-4b46-aa03-aef303b32fad"},"vehicle_type_id":"4","last_reported":1761934541,"current_range_meters":9200,"station_id":"ce4bh612rcd13ifvqe6g","pricing_plan_id":"cebpf4jnsgd1na2vs0mg"},{"bike_id":"d99505fe-d7a7-4e44-b7f5-f0065cd01a03","system_id":"levelo_inurba_marseille","lat":43.33377,"lon":5.42912,"is_reserved":false,"is_disabled":false,"rental_uris":{"android":"levelo://app?vid=d99505fe-d7a7-4e44-b7f5-f0065cd01a03","ios":"levelo://app?vid=d99505fe-d7a7-4e44-b7f5-f0065cd01a03"},"vehicle_type_id":"4","last_reported":1761934541,"current_range_meters":9200,"station_id":"","pricing_plan_id":"cebpf4jnsgd1na2vs0mg"},{"bike_id":"01b87f6f-5c3f-4f09-9743-9e8c5ba77359","system_id":"levelo_inurba_marseille","lat":43.30149,"lon":5.37424,"is_reserved":false,"is_disabled":false,"rental_uris":{"android":"levelo://app?vid=01b87f6f-5c3f-4f09-9743-9e8c5ba77359","ios":"levelo://app?vid=01b87f6f-5c3f-4f09-9743-9e8c5ba77359"},"vehicle_type_id":"4","last_reported":1761934541,"current_range_meters":9200,"station_id":"ce4bgs92rcd13ifvqcc0","pricing_plan_id":"cebpf4jnsgd1na2vs0mg"},{"bike_id":"b7bf08da-3155-4ebd-90f6-2c65138a1e9a","system_id":"levelo_inurba_marseille","lat":43.21231,"lon":5.35056,"is_reserved":false,"is_disabled":false,"rental_uris":{"android":"levelo://app?vid=b7bf08da-3155-4ebd-90f6-2c65138a1e9a","ios":"levelo://app?vid=b7bf08da-3155-4ebd-90f6-2c65138a1e9a"},"vehicle_type_id":"4","last_reported":1761934541,"current_range_meters":9200,"station_id":"","pricing_plan_id":"cebpf4jnsgd1na2vs0mg"},{"bike_id":"a18dbf48-2c4d-4fa4-a4c5-c9871d73c9a0","system_id":"levelo_inurba_marseille","lat":43.301994,"lon":5.383462,"is_reserved":false,"is_disabled":false,"rental_uris":{"android":"levelo://app?vid=a18dbf48-2c4d-4fa4-a4c5-c9871d73c9a0","ios":"levelo://app?vid=a18dbf48-2c4d-4fa4-a4c5-c9871d73c9a0"},"vehicle_type_id":"4","last_reported":1761934541,"current_range_meters":9200,"station_id":"ce4bgup2rcd13ifvqcn0","pricing_plan_id":"cebpf4jnsgd1na2vs0mg"},{"bike_id":"59bf380c-d5b8-4c0c-86c2-453c8369bc55","system_id":"levelo_inurba_marseille","lat":43.245474,"lon":5.395264,"is_reserved":false,"is_disabled":false,"rental_uris":{"android":"levelo://app?vid=59bf380c-d5b8-4c0c-86c2-453c8369bc55","ios":"levelo://app?vid=59bf380c-d5b8-4c0c-86c2-453c8369bc55"},"vehicle_type_id":"4","last_reported":1761934541,"current_range_meters":9200,"station_id":"ce4bhlp2rcd13ifvqgjg","pricing_plan_id":"cebpf4jnsgd1na2vs0mg"},{"bike_id":"dc76191c-5ae6-4168-8cdf-9dde7e66c659","system_id":"levelo_inurba_marseille","lat":43.29253,"lon":5.38433,"is_reserved":false,"is_disabled":false,"rental_uris":{"android":"levelo://app?vid=dc76191c-5ae6-4168-8cdf-9dde7e66c659","ios":"levelo://app?vid=dc76191c-5ae6-4168-8cdf-9dde7e66c659"},"vehicle_type_id":"4","last_reported":1761934541,"current_range_meters":9200,"station_id":"ce4bh692rcd13ifvqea0","pricing_plan_id":"cebpf4jnsgd1na2vs0mg"},{"bike_id":"b28ad81a-48e7-4d1c-b708-77dc3d2e724c","system_id":"levelo_inurba_marseille","lat":43.29278,"lon":5.40923,"is_reserved":false,"is_disabled":false,"rental_uris":{"android":"levelo://app?vid=b28ad81a-48e7-4d1c-b708-77dc3d2e724c","ios":"levelo://app?vid=b28ad81a-48e7-4d1c-b708-77dc3d2e724c"},"vehicle_type_id":"4","last_reported":1761934541,"current_range_meters":9200,"station_id":"","pricing_plan_id":"cebpf4jnsgd1na2vs0mg"},{"bike_id":"a81c0e75-6551-4758-9a5e-0412d5949acb","system_id":"levelo_inurba_marseille","lat":43.30428,"lon":5.39746,"is_reserved":false,"is_disabled":false,"rental_uris":{"android":"levelo://app?vid=a81c0e75-6551-4758-9a5e-0412d5949acb","ios":"levelo://app?vid=a81c0e75-6551-4758-9a5e-0412d5949acb"},"vehicle_type_id":"4","last_reported":1761934541,"current_range_meters":9200,"station_id":"ce4bh092rcd13ifvqd20","pricing_plan_id":"cebpf4jnsgd1na2vs0mg"},{"bike_id":"cfe95386-912d-4bf5-abcf-83a4f7785b31","system_id":"levelo_inurba_marseille","lat":43.281542,"lon":5.426494,"is_reserved":false,"is_disabled":false,"rental_uris":{"android":"levelo://app?vid=cfe95386-912d-4bf5-abcf-83a4f7785b31","ios":"levelo://app?vid=cfe95386-912d-4bf5-abcf-83a4f7785b31"},"vehicle_type_id":"4","last_reported":1761934541,"current_range_meters":9200,"station_id":"ce4bhnh2rcd13ifvqgug","pricing_plan_id":"cebpf4jnsgd1na2vs0mg"},{"bike_id":"2183d405-66c3-4b9b-b7e5-1b6f29553e65","system_id":"levelo_inurba_marseille","lat":43.298685,"lon":5.397356,"is_reserved":false,"is_disabled":false,"rental_uris":{"android":"levelo://app?vid=2183d405-66c3-4b9b-b7e5-1b6f29553e65","ios":"levelo://app?vid=2183d405-66c3-4b9b-b7e5-1b6f29553e65"},"vehicle_type_id":"4","last_reported":1761934541,"current_range_meters":9200,"station_id":"ce4bh0h2rcd13ifvqd50","pricing_plan_id":"cebpf4jnsgd1na2vs0mg"},{"bike_id":"9b93b5e1-c939-4745-bf85-2d21945442dc","system_id":"levelo_inurba_marseille","lat":43.3,"lon":5.36397,"is_reserved":false,"is_disabled":false,"rental_uris":{"android":"levelo://app?vid=9b93b5e1-c939-4745-bf85-2d21945442dc","ios":"levelo://app?vid=9b93b5e1-c939-4745-bf85-2d21945442dc"},"vehicle_type_id":"4","last_reported":1761934541,"current_range_meters":9600,"station_id":"","pricing_plan_id":"cebpf4jnsgd1na2vs0mg"},{"bike_id":"bb21024e-0823-4d5d-a0e4-5d663a413489","system_id":"levelo_inurba_marseille","lat":43.28861,"lon":5.42523,"is_reserved":false,"is_disabled":false,"rental_uris":{"android":"levelo://app?vid=bb21024e-0823-4d5d-a0e4-5d663a413489","ios":"levelo://app?vid=bb21024e-0823-4d5d-a0e4-5d663a413489"},"vehicle_type_id":"4","last_reported":1761934541,"current_range_meters":9600,"station_id":"st_d3b462108ojc7389ooeg","pricing_plan_id":"cebpf4jnsgd1na2vs0mg"},{"bike_id":"ff80c186-bf89-4d44-b05c-527ca7a1211d","system_id":"levelo_inurba_marseille","lat":43.21204,"lon":5.35074,"is_reserved":false,"is_disabled":false,"rental_uris":{"android":"levelo://app?vid=ff80c186-bf89-4d44-b05c-527ca7a1211d","ios":"levelo://app?vid=ff80c186-bf89-4d44-b05c-527ca7a1211d"},"vehicle_type_id":"4","last_reported":1761934541,"current_range_meters":9600,"station_id":"ce4bhh12rcd13ifvqff0","pricing_plan_id":"cebpf4jnsgd1na2vs0mg"},{"bike_id":"69108706-86db-45ea-a8ad-5765380e7441","system_id":"levelo_inurba_marseille","lat":43.29977,"lon":5.38483,"is_reserved":false,"is_disabled":false,"rental_uris":{"android":"levelo://app?vid=69108706-86db-45ea-a8ad-5765380e7441","ios":"levelo://app?vid=69108706-86db-45ea-a8ad-5765380e7441"},"vehicle_type_id":"4","last_reported":1761934541,"current_range_meters":10000,"station_id":"ce4bgj92rcd13ifvqbd0","pricing_plan_id":"cebpf4jnsgd1na2vs0mg"},{"bike_id":"bb5beaa0-8040-437f-acdb-ac443b90c748","system_id":"levelo_inurba_marseille","lat":43.311825,"lon":5.396117,"is_reserved":false,"is_disabled":false,"rental_uris":{"android":"levelo://app?vid=bb5beaa0-8040-437f-acdb-ac443b90c748","ios":"levelo://app?vid=bb5beaa0-8040-437f-acdb-ac443b90c748"},"vehicle_type_id":"4","last_reported":1761934541,"current_range_meters":10000,"station_id":"ce4bgvp2rcd13ifvqcu0","pricing_plan_id":"cebpf4jnsgd1na2vs0mg"},{"bike_id":"8d4f3de5-fcf8-4736-a28a-103b012e8770","system_id":"levelo_inurba_marseille","lat":43.2318,"lon":5.39989,"is_reserved":false,"is_disabled":false,"rental_uris":{"android":"levelo://app?vid=8d4f3de5-fcf8-4736-a28a-103b012e8770","ios":"levelo://app?vid=8d4f3de5-fcf8-4736-a28a-103b012e8770"},"vehicle_type_id":"4","last_reported":1761934541,"current_range_meters":10000,"station_id":"ce4bhn12rcd13ifvqgqg","pricing_plan_id":"cebpf4jnsgd1na2vs0mg"},{"bike_id":"07994c72-bf44-43e1-8a8d-d1c2ed3fb617","system_id":"levelo_inurba_marseille","lat":43.29235,"lon":5.38319,"is_reserved":false,"is_disabled":false,"rental_uris":{"android":"levelo://app?vid=07994c72-bf44-43e1-8a8d-d1c2ed3fb617","ios":"levelo://app?vid=07994c72-bf44-43e1-8a8d-d1c2ed3fb617"},"vehicle_type_id":"4","last_reported":1761934541,"current_range_meters":10000,"station_id":"","pricing_plan_id":"cebpf4jnsgd1na2vs0mg"},{"bike_id":"70bebe45-9229-4f1d-9fbd-0cd22ec6476e","system_id":"levelo_inurba_marseille","lat":43.27494,"lon":5.42448,"is_reserved":false,"is_disabled":false,"rental_uris":{"android":"levelo://app?vid=70bebe45-9229-4f1d-9fbd-0cd22ec6476e","ios":"levelo://app?vid=70bebe45-9229-4f1d-9fbd-0cd22ec6476e"},"vehicle_type_id":"4","last_reported":1761934541,"current_range_meters":10800,"station_id":"ce4bhn92rcd13ifvqgrg","pricing_plan_id":"cebpf4jnsgd1na2vs0mg"},{"bike_id":"f2a16810-af1a-499d-9ddd-ff04b1ee6343","system_id":"levelo_inurba_marseille","lat":43.28823,"lon":5.37763,"is_reserved":false,"is_disabled":false,"rental_uris":{"android":"levelo://app?vid=f2a16810-af1a-499d-9ddd-ff04b1ee6343","ios":"levelo://app?vid=f2a16810-af1a-499d-9ddd-ff04b1ee6343"},"vehicle_type_id":"4","last_reported":1761934541,"current_range_meters":10800,"station_id":"","pricing_plan_id":"cebpf4jnsgd1na2vs0mg"},{"bike_id":"63115c0c-9ba8-4b22-a9e0-c03d6b851a04","system_id":"levelo_inurba_marseille","lat":43.31269,"lon":5.40172,"is_reserved":false,"is_disabled":false,"rental_uris":{"android":"levelo://app?vid=63115c0c-9ba8-4b22-a9e0-c03d6b851a04","ios":"levelo://app?vid=63115c0c-9ba8-4b22-a9e0-c03d6b851a04"},"vehicle_type_id":"4","last_reported":1761934541,"current_range_meters":10800,"station_id":"ce4bh092rcd13ifvqd30","pricing_plan_id":"cebpf4jnsgd1na2vs0mg"},{"bike_id":"b8f404d3-62c4-4489-a471-d37212346558","system_id":"levelo_inurba_marseille","lat":43.310619,"lon":5.378827,"is_reserved":false,"is_disabled":false,"rental_uris":{"android":"levelo://app?vid=b8f404d3-62c4-4489-a471-d37212346558","ios":"levelo://app?vid=b8f404d3-62c4-4489-a471-d37212346558"},"vehicle_type_id":"4","last_reported":1761934541,"current_range_meters":10800,"station_id":"","pricing_plan_id":"cebpf4jnsgd1na2vs0mg"},{"bike_id":"190c1d27-6894-4453-b4de-8a93321586c3","system_id":"levelo_inurba_marseille","lat":43.23193,"lon":5.39991,"is_reserved":false,"is_disabled":false,"rental_uris":{"android":"levelo://app?vid=190c1d27-6894-4453-b4de-8a93321586c3","ios":"levelo://app?vid=190c1d27-6894-4453-b4de-8a93321586c3"},"vehicle_type_id":"4","last_reported":1761934541,"current_range_meters":10800,"station_id":"ce4bhn12rcd13ifvqgqg","pricing_plan_id":"cebpf4jnsgd1na2vs0mg"},{"bike_id":"e4fca0ee-6ae9-4001-bada-a51ef574af17","system_id":"levelo_inurba_marseille","lat":43.2378,"lon":5.3663,"is_reserved":false,"is_disabled":false,"rental_uris":{"android":"levelo://app?vid=e4fca0ee-6ae9-4001-bada-a51ef574af17","ios":"levelo://app?vid=e4fca0ee-6ae9-4001-bada-a51ef574af17"},"vehicle_type_id":"4","last_reported":1761934541,"current_range_meters":11200,"station_id":"st_d3nk18o9ro0c73en2l3g","pricing_plan_id":"cebpf4jnsgd1na2vs0mg"},{"bike_id":"44380454-89e2-4b07-89dd-f2270434d08c","system_id":"levelo_inurba_marseille","lat":43.29451,"lon":5.39753,"is_reserved":false,"is_disabled":false,"rental_uris":{"android":"levelo://app?vid=44380454-89e2-4b07-89dd-f2270434d08c","ios":"levelo://app?vid=44380454-89e2-4b07-89dd-f2270434d08c"},"vehicle_type_id":"4","last_reported":1761934541,"current_range_meters":11200,"station_id":"ce4bh3h2rcd13ifvqdo0","pricing_plan_id":"cebpf4jnsgd1na2vs0mg"},{"bike_id":"2f477f8f-972b-406c-841a-14096d9c76ee","system_id":"levelo_inurba_marseille","lat":43.29755,"lon":5.42787,"is_reserved":false,"is_disabled":false,"rental_uris":{"android":"levelo://app?vid=2f477f8f-972b-406c-841a-14096d9c76ee","ios":"levelo://app?vid=2f477f8f-972b-406c-841a-14096d9c76ee"},"vehicle_type_id":"4","last_reported":1761934541,"current_range_meters":11200,"station_id":"st_d3md5207bmas73dh9klg","pricing_plan_id":"cebpf4jnsgd1na2vs0mg"},{"bike_id":"80c53fab-d9fd-4b9a-94e7-e3f3183e35da","system_id":"levelo_inurba_marseille","lat":43.33032,"lon":5.39037,"is_reserved":false,"is_disabled":false,"rental_uris":{"android":"levelo://app?vid=80c53fab-d9fd-4b9a-94e7-e3f3183e35da","ios":"levelo://app?vid=80c53fab-d9fd-4b9a-94e7-e3f3183e35da"},"vehicle_type_id":"4","last_reported":1761934541,"current_range_meters":11200,"station_id":"ce4bhr92rcd13ifvqhrg","pricing_plan_id":"cebpf4jnsgd1na2vs0mg"},{"bike_id":"52c9906d-aae6-424f-acd9-5d23ab6ce71f","system_id":"levelo_inurba_marseille","lat":43.2466,"lon":5.38161,"is_reserved":false,"is_disabled":false,"rental_uris":{"android":"levelo://app?vid=52c9906d-aae6-424f-acd9-5d23ab6ce71f","ios":"levelo://app?vid=52c9906d-aae6-424f-acd9-5d23ab6ce71f"},"vehicle_type_id":"4","last_reported":1761934541,"current_range_meters":11200,"station_id":"ce4bhih2rcd13ifvqfr0","pricing_plan_id":"cebpf4jnsgd1na2vs0mg"},{"bike_id":"70b7527d-67eb-4818-84c6-51aae343ca97","system_id":"levelo_inurba_marseille","lat":43.28472,"lon":5.48404,"is_reserved":false,"is_disabled":false,"rental_uris":{"android":"levelo://app?vid=70b7527d-67eb-4818-84c6-51aae343ca97","ios":"levelo://app?vid=70b7527d-67eb-4818-84c6-51aae343ca97"},"vehicle_type_id":"4","last_reported":1761934541,"current_range_meters":11200,"station_id":"st_d3svhcjqgbts73a3dn0g","pricing_plan_id":"cebpf4jnsgd1na2vs0mg"},{"bike_id":"349dacf6-700d-49d9-8366-00faae360ba3","system_id":"levelo_inurba_marseille","lat":43.3133,"lon":5.39701,"is_reserved":false,"is_disabled":false,"rental_uris":{"android":"levelo://app?vid=349dacf6-700d-49d9-8366-00faae360ba3","ios":"levelo://app?vid=349dacf6-700d-49d9-8366-00faae360ba3"},"vehicle_type_id":"4","last_reported":1761934541,"current_range_meters":11200,"station_id":"ce4bgvp2rcd13ifvqcu0","pricing_plan_id":"cebpf4jnsgd1na2vs0mg"},{"bike_id":"58e1cb3f-653f-418b-88a7-cb43e680f1d1","system_id":"levelo_inurba_marseille","lat":43.265821,"lon":5.390525,"is_reserved":false,"is_disabled":false,"rental_uris":{"android":"levelo://app?vid=58e1cb3f-653f-418b-88a7-cb43e680f1d1","ios":"levelo://app?vid=58e1cb3f-653f-418b-88a7-cb43e680f1d1"},"vehicle_type_id":"4","last_reported":1761934541,"current_range_meters":11200,"station_id":"ce4bhe12rcd13ifvqf30","pricing_plan_id":"cebpf4jnsgd1na2vs0mg"},{"bike_id":"53c57e4b-cc1e-40aa-b743-66594bfbc7b0","system_id":"levelo_inurba_marseille","lat":43.28688,"lon":5.399953,"is_reserved":false,"is_disabled":false,"rental_uris":{"android":"levelo://app?vid=53c57e4b-cc1e-40aa-b743-66594bfbc7b0","ios":"levelo://app?vid=53c57e4b-cc1e-40aa-b743-66594bfbc7b0"},"vehicle_type_id":"4","last_reported":1761934541,"current_range_meters":11200,"station_id":"ce4bho92rcd13ifvqh3g","pricing_plan_id":"cebpf4jnsgd1na2vs0mg"},{"bike_id":"a16bf7ab-2c9e-4078-a332-a6bb37e7202b","system_id":"levelo_inurba_marseille","lat":43.30634,"lon":5.40093,"is_reserved":false,"is_disabled":false,"rental_uris":{"android":"levelo://app?vid=a16bf7ab-2c9e-4078-a332-a6bb37e7202b","ios":"levelo://app?vid=a16bf7ab-2c9e-4078-a332-a6bb37e7202b"},"vehicle_type_id":"4","last_reported":1761934541,"current_range_meters":11200,"station_id":"ce4bh112rcd13ifvqda0","pricing_plan_id":"cebpf4jnsgd1na2vs0mg"},{"bike_id":"0b6f8146-41ce-4c40-a9fa-1a65c50957a2","system_id":"levelo_inurba_marseille","lat":43.29539,"lon":5.39032,"is_reserved":false,"is_disabled":false,"rental_uris":{"android":"levelo://app?vid=0b6f8146-41ce-4c40-a9fa-1a65c50957a2","ios":"levelo://app?vid=0b6f8146-41ce-4c40-a9fa-1a65c50957a2"},"vehicle_type_id":"4","last_reported":1761934541,"current_range_meters":11600,"station_id":"ce4bh3p2rcd13ifvqdp0","pricing_plan_id":"cebpf4jnsgd1na2vs0mg"},{"bike_id":"7b413409-80e1-4c27-8247-293f6220766e","system_id":"levelo_inurba_marseille","lat":43.23779,"lon":5.36637,"is_reserved":false,"is_disabled":false,"rental_uris":{"android":"levelo://app?vid=7b413409-80e1-4c27-8247-293f6220766e","ios":"levelo://app?vid=7b413409-80e1-4c27-8247-293f6220766e"},"vehicle_type_id":"4","last_reported":1761934541,"current_range_meters":11600,"station_id":"st_d3nk18o9ro0c73en2l3g","pricing_plan_id":"cebpf4jnsgd1na2vs0mg"},{"bike_id":"2994d018-154d-4226-8150-a281dd0eb3c5","system_id":"levelo_inurba_marseille","lat":43.31269,"lon":5.40174,"is_reserved":false,"is_disabled":false,"rental_uris":{"android":"levelo://app?vid=2994d018-154d-4226-8150-a281dd0eb3c5","ios":"levelo://app?vid=2994d018-154d-4226-8150-a281dd0eb3c5"},"vehicle_type_id":"4","last_reported":1761934541,"current_range_meters":11600,"station_id":"ce4bh092rcd13ifvqd30","pricing_plan_id":"cebpf4jnsgd1na2vs0mg"},{"bike_id":"9cf229d6-4a9b-4a03-b11b-176d7f2abdaf","system_id":"levelo_inurba_marseille","lat":43.30588,"lon":5.39349,"is_reserved":false,"is_disabled":false,"rental_uris":{"android":"levelo://app?vid=9cf229d6-4a9b-4a03-b11b-176d7f2abdaf","ios":"levelo://app?vid=9cf229d6-4a9b-4a03-b11b-176d7f2abdaf"},"vehicle_type_id":"4","last_reported":1761934541,"current_range_meters":11600,"station_id":"ce4bh0p2rcd13ifvqd80","pricing_plan_id":"cebpf4jnsgd1na2vs0mg"},{"bike_id":"85090ef5-9663-41b5-949b-594e411e5c7b","system_id":"levelo_inurba_marseille","lat":43.30275,"lon":5.37719,"is_reserved":false,"is_disabled":false,"rental_uris":{"android":"levelo://app?vid=85090ef5-9663-41b5-949b-594e411e5c7b","ios":"levelo://app?vid=85090ef5-9663-41b5-949b-594e411e5c7b"},"vehicle_type_id":"4","last_reported":1761934541,"current_range_meters":11600,"station_id":"ce4bguh2rcd13ifvqcj0","pricing_plan_id":"cebpf4jnsgd1na2vs0mg"},{"bike_id":"3e0d0073-614b-40b3-b03b-aa060578883c","system_id":"levelo_inurba_marseille","lat":43.290253,"lon":5.386343,"is_reserved":false,"is_disabled":false,"rental_uris":{"android":"levelo://app?vid=3e0d0073-614b-40b3-b03b-aa060578883c","ios":"levelo://app?vid=3e0d0073-614b-40b3-b03b-aa060578883c"},"vehicle_type_id":"4","last_reported":1761934541,"current_range_meters":11600,"station_id":"ce4bh4p2rcd13ifvqe0g","pricing_plan_id":"cebpf4jnsgd1na2vs0mg"},{"bike_id":"e1374d14-ca8c-4d30-bf7a-1e91101e2cee","system_id":"levelo_inurba_marseille","lat":43.28521,"lon":5.44114,"is_reserved":false,"is_disabled":false,"rental_uris":{"android":"levelo://app?vid=e1374d14-ca8c-4d30-bf7a-1e91101e2cee","ios":"levelo://app?vid=e1374d14-ca8c-4d30-bf7a-1e91101e2cee"},"vehicle_type_id":"4","last_reported":1761934541,"current_range_meters":12000,"station_id":"st_d3j3df2ikq2c7380ej80","pricing_plan_id":"cebpf4jnsgd1na2vs0mg"},{"bike_id":"f78656e7-544d-4efa-9f5c-77ee70c0c729","system_id":"levelo_inurba_marseille","lat":43.31161,"lon":5.38714,"is_reserved":false,"is_disabled":false,"rental_uris":{"android":"levelo://app?vid=f78656e7-544d-4efa-9f5c-77ee70c0c729","ios":"levelo://app?vid=f78656e7-544d-4efa-9f5c-77ee70c0c729"},"vehicle_type_id":"4","last_reported":1761934541,"current_range_meters":12000,"station_id":"ce4bgv12rcd13ifvqcp0","pricing_plan_id":"cebpf4jnsgd1na2vs0mg"},{"bike_id":"1213ff01-604d-4b83-b3a2-60440c4b245e","system_id":"levelo_inurba_marseille","lat":43.237824,"lon":5.366297,"is_reserved":false,"is_disabled":false,"rental_uris":{"android":"levelo://app?vid=1213ff01-604d-4b83-b3a2-60440c4b245e","ios":"levelo://app?vid=1213ff01-604d-4b83-b3a2-60440c4b245e"},"vehicle_type_id":"4","last_reported":1761934541,"current_range_meters":12000,"station_id":"st_d3nk18o9ro0c73en2l3g","pricing_plan_id":"cebpf4jnsgd1na2vs0mg"},{"bike_id":"96ad2f8e-1ff0-415a-a84a-9186f2a5baf6","system_id":"levelo_inurba_marseille","lat":43.29606,"lon":5.37672,"is_reserved":false,"is_disabled":false,"rental_uris":{"android":"levelo://app?vid=96ad2f8e-1ff0-415a-a84a-9186f2a5baf6","ios":"levelo://app?vid=96ad2f8e-1ff0-415a-a84a-9186f2a5baf6"},"vehicle_type_id":"4","last_reported":1761934541,"current_range_meters":12000,"station_id":"ce4bgi12rcd13ifvqb80","pricing_plan_id":"cebpf4jnsgd1na2vs0mg"},{"bike_id":"46835159-5dd5-4fc9-a732-591f6a5307e4","system_id":"levelo_inurba_marseille","lat":43.31351,"lon":5.37912,"is_reserved":false,"is_disabled":false,"rental_uris":{"android":"levelo://app?vid=46835159-5dd5-4fc9-a732-591f6a5307e4","ios":"levelo://app?vid=46835159-5dd5-4fc9-a732-591f6a5307e4"},"vehicle_type_id":"4","last_reported":1761934541,"current_range_meters":12000,"station_id":"","pricing_plan_id":"cebpf4jnsgd1na2vs0mg"},{"bike_id":"57f247e6-7a42-4a4d-8ede-f5c742194b27","system_id":"levelo_inurba_marseille","lat":43.30892,"lon":5.39655,"is_reserved":false,"is_disabled":false,"rental_uris":{"android":"levelo://app?vid=57f247e6-7a42-4a4d-8ede-f5c742194b27","ios":"levelo://app?vid=57f247e6-7a42-4a4d-8ede-f5c742194b27"},"vehicle_type_id":"4","last_reported":1761934541,"current_range_meters":12000,"station_id":"ce4bh012rcd13ifvqcv0","pricing_plan_id":"cebpf4jnsgd1na2vs0mg"},{"bike_id":"b85cc414-512a-4163-9618-c16fab5607df","system_id":"levelo_inurba_marseille","lat":43.26567,"lon":5.39006,"is_reserved":false,"is_disabled":false,"rental_uris":{"android":"levelo://app?vid=b85cc414-512a-4163-9618-c16fab5607df","ios":"levelo://app?vid=b85cc414-512a-4163-9618-c16fab5607df"},"vehicle_type_id":"4","last_reported":1761934541,"current_range_meters":12400,"station_id":"ce4bhe12rcd13ifvqf30","pricing_plan_id":"cebpf4jnsgd1na2vs0mg"},{"bike_id":"167ee44b-6468-4987-a1bb-561de0c4e247","system_id":"levelo_inurba_marseille","lat":43.28107,"lon":5.37838,"is_reserved":false,"is_disabled":false,"rental_uris":{"android":"levelo://app?vid=167ee44b-6468-4987-a1bb-561de0c4e247","ios":"levelo://app?vid=167ee44b-6468-4987-a1bb-561de0c4e247"},"vehicle_type_id":"4","last_reported":1761934541,"current_range_meters":12400,"station_id":"ce4bha12rcd13ifvqee0","pricing_plan_id":"cebpf4jnsgd1na2vs0mg"},{"bike_id":"7af2ea98-ce20-4954-bebb-ba5a49308a55","system_id":"levelo_inurba_marseille","lat":43.2379,"lon":5.36634,"is_reserved":false,"is_disabled":false,"rental_uris":{"android":"levelo://app?vid=7af2ea98-ce20-4954-bebb-ba5a49308a55","ios":"levelo://app?vid=7af2ea98-ce20-4954-bebb-ba5a49308a55"},"vehicle_type_id":"4","last_reported":1761934541,"current_range_meters":12400,"station_id":"st_d3nk18o9ro0c73en2l3g","pricing_plan_id":"cebpf4jnsgd1na2vs0mg"},{"bike_id":"a4dac4fa-66e6-48be-a654-6e17cdc7ca0b","system_id":"levelo_inurba_marseille","lat":43.337571,"lon":5.374323,"is_reserved":false,"is_disabled":false,"rental_uris":{"android":"levelo://app?vid=a4dac4fa-66e6-48be-a654-6e17cdc7ca0b","ios":"levelo://app?vid=a4dac4fa-66e6-48be-a654-6e17cdc7ca0b"},"vehicle_type_id":"4","last_reported":1761934541,"current_range_meters":12800,"station_id":"","pricing_plan_id":"cebpf4jnsgd1na2vs0mg"},{"bike_id":"8a632559-d61b-4289-915b-e6215ea4bf27","system_id":"levelo_inurba_marseille","lat":43.32374,"lon":5.36767,"is_reserved":false,"is_disabled":false,"rental_uris":{"android":"levelo://app?vid=8a632559-d61b-4289-915b-e6215ea4bf27","ios":"levelo://app?vid=8a632559-d61b-4289-915b-e6215ea4bf27"},"vehicle_type_id":"4","last_reported":1761934541,"current_range_meters":12800,"station_id":"ce4bhsh2rcd13ifvqi2g","pricing_plan_id":"cebpf4jnsgd1na2vs0mg"},{"bike_id":"f3c139a8-6005-48db-ac9e-8f35ad24db6d","system_id":"levelo_inurba_marseille","lat":43.29249,"lon":5.38448,"is_reserved":false,"is_disabled":false,"rental_uris":{"android":"levelo://app?vid=f3c139a8-6005-48db-ac9e-8f35ad24db6d","ios":"levelo://app?vid=f3c139a8-6005-48db-ac9e-8f35ad24db6d"},"vehicle_type_id":"4","last_reported":1761934541,"current_range_meters":12800,"station_id":"ce4bh692rcd13ifvqea0","pricing_plan_id":"cebpf4jnsgd1na2vs0mg"},{"bike_id":"2fd0268e-570d-49c4-9ab3-6e4e42f567a2","system_id":"levelo_inurba_marseille","lat":43.26216,"lon":5.40434,"is_reserved":false,"is_disabled":false,"rental_uris":{"android":"levelo://app?vid=2fd0268e-570d-49c4-9ab3-6e4e42f567a2","ios":"levelo://app?vid=2fd0268e-570d-49c4-9ab3-6e4e42f567a2"},"vehicle_type_id":"4","last_reported":1761934541,"current_range_meters":12800,"station_id":"ce4bhmh2rcd13ifvqgmg","pricing_plan_id":"cebpf4jnsgd1na2vs0mg"},{"bike_id":"a4411a31-dc75-48de-8b4a-eee0e7dbe4d1","system_id":"levelo_inurba_marseille","lat":43.28155,"lon":5.42642,"is_reserved":false,"is_disabled":false,"rental_uris":{"android":"levelo://app?vid=a4411a31-dc75-48de-8b4a-eee0e7dbe4d1","ios":"levelo://app?vid=a4411a31-dc75-48de-8b4a-eee0e7dbe4d1"},"vehicle_type_id":"4","last_reported":1761934541,"current_range_meters":13600,"station_id":"ce4bhnh2rcd13ifvqgug","pricing_plan_id":"cebpf4jnsgd1na2vs0mg"},{"bike_id":"7307186f-7917-4361-930d-95b9ab1a0c43","system_id":"levelo_inurba_marseille","lat":43.29815,"lon":5.38095,"is_reserved":false,"is_disabled":false,"rental_uris":{"android":"levelo://app?vid=7307186f-7917-4361-930d-95b9ab1a0c43","ios":"levelo://app?vid=7307186f-7917-4361-930d-95b9ab1a0c43"},"vehicle_type_id":"4","last_reported":1761934541,"current_range_meters":13600,"station_id":"ce4bgip2rcd13ifvqbb0","pricing_plan_id":"cebpf4jnsgd1na2vs0mg"},{"bike_id":"d97386bd-4fc3-44ef-ac97-529726812c2a","system_id":"levelo_inurba_marseille","lat":43.24664,"lon":5.3816,"is_reserved":false,"is_disabled":false,"rental_uris":{"android":"levelo://app?vid=d97386bd-4fc3-44ef-ac97-529726812c2a","ios":"levelo://app?vid=d97386bd-4fc3-44ef-ac97-529726812c2a"},"vehicle_type_id":"4","last_reported":1761934541,"current_range_meters":13600,"station_id":"ce4bhih2rcd13ifvqfr0","pricing_plan_id":"cebpf4jnsgd1na2vs0mg"},{"bike_id":"066f8f42-50ce-4c9b-b28d-05dec3aea7ee","system_id":"levelo_inurba_marseille","lat":43.29165,"lon":5.4172,"is_reserved":false,"is_disabled":false,"rental_uris":{"android":"levelo://app?vid=066f8f42-50ce-4c9b-b28d-05dec3aea7ee","ios":"levelo://app?vid=066f8f42-50ce-4c9b-b28d-05dec3aea7ee"},"vehicle_type_id":"4","last_reported":1761934541,"current_range_meters":13600,"station_id":"","pricing_plan_id":"cebpf4jnsgd1na2vs0mg"},{"bike_id":"b002f168-6d8a-4cd5-b7b7-da50dd11e3e9","system_id":"levelo_inurba_marseille","lat":43.27052,"lon":5.40257,"is_reserved":false,"is_disabled":false,"rental_uris":{"android":"levelo://app?vid=b002f168-6d8a-4cd5-b7b7-da50dd11e3e9","ios":"levelo://app?vid=b002f168-6d8a-4cd5-b7b7-da50dd11e3e9"},"vehicle_type_id":"4","last_reported":1761934541,"current_range_meters":14000,"station_id":"ce4bhk92rcd13ifvqgc0","pricing_plan_id":"cebpf4jnsgd1na2vs0mg"},{"bike_id":"510aef2b-f7cd-47a8-af4c-abff43d05514","system_id":"levelo_inurba_marseille","lat":43.29974,"lon":5.38496,"is_reserved":false,"is_disabled":false,"rental_uris":{"android":"levelo://app?vid=510aef2b-f7cd-47a8-af4c-abff43d05514","ios":"levelo://app?vid=510aef2b-f7cd-47a8-af4c-abff43d05514"},"vehicle_type_id":"4","last_reported":1761934541,"current_range_meters":14000,"station_id":"ce4bgj92rcd13ifvqbd0","pricing_plan_id":"cebpf4jnsgd1na2vs0mg"},{"bike_id":"52c96d7f-c293-4076-a557-08e8546fcc1a","system_id":"levelo_inurba_marseille","lat":43.30968,"lon":5.39046,"is_reserved":false,"is_disabled":false,"rental_uris":{"android":"levelo://app?vid=52c96d7f-c293-4076-a557-08e8546fcc1a","ios":"levelo://app?vid=52c96d7f-c293-4076-a557-08e8546fcc1a"},"vehicle_type_id":"4","last_reported":1761934541,"current_range_meters":14000,"station_id":"ce4bgup2rcd13ifvqco0","pricing_plan_id":"cebpf4jnsgd1na2vs0mg"},{"bike_id":"aad6a064-c048-4ba9-a156-1745b89548aa","system_id":"levelo_inurba_marseille","lat":43.28314,"lon":5.41114,"is_reserved":false,"is_disabled":false,"rental_uris":{"android":"levelo://app?vid=aad6a064-c048-4ba9-a156-1745b89548aa","ios":"levelo://app?vid=aad6a064-c048-4ba9-a156-1745b89548aa"},"vehicle_type_id":"4","last_reported":1761934541,"current_range_meters":14000,"station_id":"","pricing_plan_id":"cebpf4jnsgd1na2vs0mg"},{"bike_id":"a74ca4e6-9019-4ce4-a364-7a22bd8e206a","system_id":"levelo_inurba_marseille","lat":43.265097,"lon":5.385288,"is_reserved":false,"is_disabled":false,"rental_uris":{"android":"levelo://app?vid=a74ca4e6-9019-4ce4-a364-7a22bd8e206a","ios":"levelo://app?vid=a74ca4e6-9019-4ce4-a364-7a22bd8e206a"},"vehicle_type_id":"4","last_reported":1761934541,"current_range_meters":14000,"station_id":"","pricing_plan_id":"cebpf4jnsgd1na2vs0mg"},{"bike_id":"a69271fc-9048-4491-a27b-991f0ccd6854","system_id":"levelo_inurba_marseille","lat":43.29247,"lon":5.3844,"is_reserved":false,"is_disabled":false,"rental_uris":{"android":"levelo://app?vid=a69271fc-9048-4491-a27b-991f0ccd6854","ios":"levelo://app?vid=a69271fc-9048-4491-a27b-991f0ccd6854"},"vehicle_type_id":"4","last_reported":1761934541,"current_range_meters":14000,"station_id":"ce4bh692rcd13ifvqea0","pricing_plan_id":"cebpf4jnsgd1na2vs0mg"},{"bike_id":"263cdd87-315a-4bc8-919f-ecb1d6ede58c","system_id":"levelo_inurba_marseille","lat":43.29863,"lon":5.39741,"is_reserved":false,"is_disabled":false,"rental_uris":{"android":"levelo://app?vid=263cdd87-315a-4bc8-919f-ecb1d6ede58c","ios":"levelo://app?vid=263cdd87-315a-4bc8-919f-ecb1d6ede58c"},"vehicle_type_id":"4","last_reported":1761934541,"current_range_meters":14000,"station_id":"ce4bh0h2rcd13ifvqd50","pricing_plan_id":"cebpf4jnsgd1na2vs0mg"},{"bike_id":"319b8584-93f2-449c-b056-ea3f20ebc971","system_id":"levelo_inurba_marseille","lat":43.28524,"lon":5.4303,"is_reserved":false,"is_disabled":false,"rental_uris":{"android":"levelo://app?vid=319b8584-93f2-449c-b056-ea3f20ebc971","ios":"levelo://app?vid=319b8584-93f2-449c-b056-ea3f20ebc971"},"vehicle_type_id":"4","last_reported":1761934541,"current_range_meters":14000,"station_id":"","pricing_plan_id":"cebpf4jnsgd1na2vs0mg"},{"bike_id":"6cd59db7-cb12-4301-8385-22b87d7a5cfd","system_id":"levelo_inurba_marseille","lat":43.285313,"lon":5.441081,"is_reserved":false,"is_disabled":false,"rental_uris":{"android":"levelo://app?vid=6cd59db7-cb12-4301-8385-22b87d7a5cfd","ios":"levelo://app?vid=6cd59db7-cb12-4301-8385-22b87d7a5cfd"},"vehicle_type_id":"4","last_reported":1761934541,"current_range_meters":14400,"station_id":"st_d3j3df2ikq2c7380ej80","pricing_plan_id":"cebpf4jnsgd1na2vs0mg"},{"bike_id":"0dc930ae-88e6-493c-ab95-8df0b3ac1f8b","system_id":"levelo_inurba_marseille","lat":43.29879,"lon":5.43673,"is_reserved":false,"is_disabled":false,"rental_uris":{"android":"levelo://app?vid=0dc930ae-88e6-493c-ab95-8df0b3ac1f8b","ios":"levelo://app?vid=0dc930ae-88e6-493c-ab95-8df0b3ac1f8b"},"vehicle_type_id":"4","last_reported":1761934541,"current_range_meters":14800,"station_id":"ce4bhpp2rcd13ifvqhfg","pricing_plan_id":"cebpf4jnsgd1na2vs0mg"},{"bike_id":"41e181d7-9852-4c8e-8d4a-c1d989c8d12a","system_id":"levelo_inurba_marseille","lat":43.29248,"lon":5.38441,"is_reserved":false,"is_disabled":false,"rental_uris":{"android":"levelo://app?vid=41e181d7-9852-4c8e-8d4a-c1d989c8d12a","ios":"levelo://app?vid=41e181d7-9852-4c8e-8d4a-c1d989c8d12a"},"vehicle_type_id":"4","last_reported":1761934541,"current_range_meters":14800,"station_id":"ce4bh692rcd13ifvqea0","pricing_plan_id":"cebpf4jnsgd1na2vs0mg"},{"bike_id":"aad731fe-f402-47a2-a9e2-d1ab53621c21","system_id":"levelo_inurba_marseille","lat":43.23782,"lon":5.36635,"is_reserved":false,"is_disabled":false,"rental_uris":{"android":"levelo://app?vid=aad731fe-f402-47a2-a9e2-d1ab53621c21","ios":"levelo://app?vid=aad731fe-f402-47a2-a9e2-d1ab53621c21"},"vehicle_type_id":"4","last_reported":1761934541,"current_range_meters":14800,"station_id":"st_d3nk18o9ro0c73en2l3g","pricing_plan_id":"cebpf4jnsgd1na2vs0mg"},{"bike_id":"c8040d7a-5b03-4796-9cb6-4c706e6e2ddd","system_id":"levelo_inurba_marseille","lat":43.29275,"lon":5.40119,"is_reserved":false,"is_disabled":false,"rental_uris":{"android":"levelo://app?vid=c8040d7a-5b03-4796-9cb6-4c706e6e2ddd","ios":"levelo://app?vid=c8040d7a-5b03-4796-9cb6-4c706e6e2ddd"},"vehicle_type_id":"4","last_reported":1761934541,"current_range_meters":14800,"station_id":"ce4bh312rcd13ifvqdk0","pricing_plan_id":"cebpf4jnsgd1na2vs0mg"},{"bike_id":"d3b96a45-0c36-482a-b421-c63df9f9d284","system_id":"levelo_inurba_marseille","lat":43.29244,"lon":5.38446,"is_reserved":false,"is_disabled":false,"rental_uris":{"android":"levelo://app?vid=d3b96a45-0c36-482a-b421-c63df9f9d284","ios":"levelo://app?vid=d3b96a45-0c36-482a-b421-c63df9f9d284"},"vehicle_type_id":"4","last_reported":1761934541,"current_range_meters":14800,"station_id":"ce4bh692rcd13ifvqea0","pricing_plan_id":"cebpf4jnsgd1na2vs0mg"},{"bike_id":"3740c981-d833-4365-b5f4-331357ab0875","system_id":"levelo_inurba_marseille","lat":43.28664,"lon":5.38668,"is_reserved":false,"is_disabled":false,"rental_uris":{"android":"levelo://app?vid=3740c981-d833-4365-b5f4-331357ab0875","ios":"levelo://app?vid=3740c981-d833-4365-b5f4-331357ab0875"},"vehicle_type_id":"4","last_reported":1761934541,"current_range_meters":14800,"station_id":"ce4bh492rcd13ifvqdug","pricing_plan_id":"cebpf4jnsgd1na2vs0mg"},{"bike_id":"98d10a64-5b1c-423c-87e7-a8af1618811d","system_id":"levelo_inurba_marseille","lat":43.29536,"lon":5.38542,"is_reserved":false,"is_disabled":false,"rental_uris":{"android":"levelo://app?vid=98d10a64-5b1c-423c-87e7-a8af1618811d","ios":"levelo://app?vid=98d10a64-5b1c-423c-87e7-a8af1618811d"},"vehicle_type_id":"4","last_reported":1761934541,"current_range_meters":14800,"station_id":"ce4bgih2rcd13ifvqba0","pricing_plan_id":"cebpf4jnsgd1na2vs0mg"},{"bike_id":"ba1b1acf-8ef6-4f78-8ef2-e702d1721b32","system_id":"levelo_inurba_marseille","lat":43.29529,"lon":5.38545,"is_reserved":false,"is_disabled":false,"rental_uris":{"android":"levelo://app?vid=ba1b1acf-8ef6-4f78-8ef2-e702d1721b32","ios":"levelo://app?vid=ba1b1acf-8ef6-4f78-8ef2-e702d1721b32"},"vehicle_type_id":"4","last_reported":1761934541,"current_range_meters":15200,"station_id":"ce4bgih2rcd13ifvqba0","pricing_plan_id":"cebpf4jnsgd1na2vs0mg"},{"bike_id":"5a1a3f29-649a-4e51-8569-c7c858695985","system_id":"levelo_inurba_marseille","lat":43.29257,"lon":5.38445,"is_reserved":false,"is_disabled":false,"rental_uris":{"android":"levelo://app?vid=5a1a3f29-649a-4e51-8569-c7c858695985","ios":"levelo://app?vid=5a1a3f29-649a-4e51-8569-c7c858695985"},"vehicle_type_id":"4","last_reported":1761934541,"current_range_meters":15200,"station_id":"ce4bh692rcd13ifvqea0","pricing_plan_id":"cebpf4jnsgd1na2vs0mg"},{"bike_id":"400880ee-f0a1-4337-b2d0-b6771fc24163","system_id":"levelo_inurba_marseille","lat":43.24809,"lon":5.37456,"is_reserved":false,"is_disabled":false,"rental_uris":{"android":"levelo://app?vid=400880ee-f0a1-4337-b2d0-b6771fc24163","ios":"levelo://app?vid=400880ee-f0a1-4337-b2d0-b6771fc24163"},"vehicle_type_id":"4","last_reported":1761934541,"current_range_meters":15200,"station_id":"ce4bhgh2rcd13ifvqfb0","pricing_plan_id":"cebpf4jnsgd1na2vs0mg"},{"bike_id":"42e986d2-36be-4b0e-87e8-71dc3f97c04d","system_id":"levelo_inurba_marseille","lat":43.24661,"lon":5.38165,"is_reserved":false,"is_disabled":false,"rental_uris":{"android":"levelo://app?vid=42e986d2-36be-4b0e-87e8-71dc3f97c04d","ios":"levelo://app?vid=42e986d2-36be-4b0e-87e8-71dc3f97c04d"},"vehicle_type_id":"4","last_reported":1761934541,"current_range_meters":15200,"station_id":"ce4bhih2rcd13ifvqfr0","pricing_plan_id":"cebpf4jnsgd1na2vs0mg"},{"bike_id":"b2ce8e73-e59b-4d30-b8e2-e59e2e1e3b22","system_id":"levelo_inurba_marseille","lat":43.33775,"lon":5.37482,"is_reserved":false,"is_disabled":false,"rental_uris":{"android":"levelo://app?vid=b2ce8e73-e59b-4d30-b8e2-e59e2e1e3b22","ios":"levelo://app?vid=b2ce8e73-e59b-4d30-b8e2-e59e2e1e3b22"},"vehicle_type_id":"4","last_reported":1761934541,"current_range_meters":15200,"station_id":"","pricing_plan_id":"cebpf4jnsgd1na2vs0mg"},{"bike_id":"4ab47f87-778b-4dae-b553-df3905436e24","system_id":"levelo_inurba_marseille","lat":43.295139,"lon":5.375084,"is_reserved":false,"is_disabled":false,"rental_uris":{"android":"levelo://app?vid=4ab47f87-778b-4dae-b553-df3905436e24","ios":"levelo://app?vid=4ab47f87-778b-4dae-b553-df3905436e24"},"vehicle_type_id":"4","last_reported":1761934541,"current_range_meters":15200,"station_id":"ce4bgkp2rcd13ifvqbmg","pricing_plan_id":"cebpf4jnsgd1na2vs0mg"},{"bike_id":"e7ead618-cc2b-4c53-bc61-330caff21889","system_id":"levelo_inurba_marseille","lat":43.25344,"lon":5.42172,"is_reserved":false,"is_disabled":false,"rental_uris":{"android":"levelo://app?vid=e7ead618-cc2b-4c53-bc61-330caff21889","ios":"levelo://app?vid=e7ead618-cc2b-4c53-bc61-330caff21889"},"vehicle_type_id":"4","last_reported":1761934541,"current_range_meters":15200,"station_id":"st_d2m65c5bi1j21697t3ng","pricing_plan_id":"cebpf4jnsgd1na2vs0mg"},{"bike_id":"9a2513e5-89a1-4655-809a-8b0e79879274","system_id":"levelo_inurba_marseille","lat":43.288673,"lon":5.42551,"is_reserved":false,"is_disabled":false,"rental_uris":{"android":"levelo://app?vid=9a2513e5-89a1-4655-809a-8b0e79879274","ios":"levelo://app?vid=9a2513e5-89a1-4655-809a-8b0e79879274"},"vehicle_type_id":"4","last_reported":1761934541,"current_range_meters":15200,"station_id":"st_d3b462108ojc7389ooeg","pricing_plan_id":"cebpf4jnsgd1na2vs0mg"},{"bike_id":"52b117f2-4c01-4f66-887d-006722496528","system_id":"levelo_inurba_marseille","lat":43.30861,"lon":5.37133,"is_reserved":false,"is_disabled":false,"rental_uris":{"android":"levelo://app?vid=52b117f2-4c01-4f66-887d-006722496528","ios":"levelo://app?vid=52b117f2-4c01-4f66-887d-006722496528"},"vehicle_type_id":"4","last_reported":1761934541,"current_range_meters":15200,"station_id":"","pricing_plan_id":"cebpf4jnsgd1na2vs0mg"},{"bike_id":"3a644204-4cf0-4c7d-87c9-d392aea26a35","system_id":"levelo_inurba_marseille","lat":43.29519,"lon":5.39039,"is_reserved":false,"is_disabled":false,"rental_uris":{"android":"levelo://app?vid=3a644204-4cf0-4c7d-87c9-d392aea26a35","ios":"levelo://app?vid=3a644204-4cf0-4c7d-87c9-d392aea26a35"},"vehicle_type_id":"4","last_reported":1761934541,"current_range_meters":15200,"station_id":"ce4bh3p2rcd13ifvqdp0","pricing_plan_id":"cebpf4jnsgd1na2vs0mg"},{"bike_id":"9e893191-8b5c-4b2c-ad78-82c77d203f32","system_id":"levelo_inurba_marseille","lat":43.268934,"lon":5.388546,"is_reserved":false,"is_disabled":false,"rental_uris":{"android":"levelo://app?vid=9e893191-8b5c-4b2c-ad78-82c77d203f32","ios":"levelo://app?vid=9e893191-8b5c-4b2c-ad78-82c77d203f32"},"vehicle_type_id":"4","last_reported":1761934541,"current_range_meters":15200,"station_id":"ce4bhhh2rcd13ifvqfl0","pricing_plan_id":"cebpf4jnsgd1na2vs0mg"},{"bike_id":"e0770628-4acc-4ff1-b7ee-57c51fe99778","system_id":"levelo_inurba_marseille","lat":43.305404,"lon":5.367101,"is_reserved":false,"is_disabled":false,"rental_uris":{"android":"levelo://app?vid=e0770628-4acc-4ff1-b7ee-57c51fe99778","ios":"levelo://app?vid=e0770628-4acc-4ff1-b7ee-57c51fe99778"},"vehicle_type_id":"4","last_reported":1761934541,"current_range_meters":16000,"station_id":"ce4bgrp2rcd13ifvqc9g","pricing_plan_id":"cebpf4jnsgd1na2vs0mg"},{"bike_id":"643966de-51bf-4033-8728-ec1da08c8dd0","system_id":"levelo_inurba_marseille","lat":43.29597,"lon":5.38109,"is_reserved":false,"is_disabled":false,"rental_uris":{"android":"levelo://app?vid=643966de-51bf-4033-8728-ec1da08c8dd0","ios":"levelo://app?vid=643966de-51bf-4033-8728-ec1da08c8dd0"},"vehicle_type_id":"4","last_reported":1761934541,"current_range_meters":16000,"station_id":"ce4bgl12rcd13ifvqbo0","pricing_plan_id":"cebpf4jnsgd1na2vs0mg"},{"bike_id":"0dcccf73-fe4d-4b2d-bd90-e0dfcd4df4e7","system_id":"levelo_inurba_marseille","lat":43.316668,"lon":5.436215,"is_reserved":false,"is_disabled":false,"rental_uris":{"android":"levelo://app?vid=0dcccf73-fe4d-4b2d-bd90-e0dfcd4df4e7","ios":"levelo://app?vid=0dcccf73-fe4d-4b2d-bd90-e0dfcd4df4e7"},"vehicle_type_id":"4","last_reported":1761934541,"current_range_meters":16000,"station_id":"ce4bhp92rcd13ifvqhcg","pricing_plan_id":"cebpf4jnsgd1na2vs0mg"},{"bike_id":"b1e81361-2b17-4ef1-8a58-6def5753471b","system_id":"levelo_inurba_marseille","lat":43.33753,"lon":5.37484,"is_reserved":false,"is_disabled":false,"rental_uris":{"android":"levelo://app?vid=b1e81361-2b17-4ef1-8a58-6def5753471b","ios":"levelo://app?vid=b1e81361-2b17-4ef1-8a58-6def5753471b"},"vehicle_type_id":"4","last_reported":1761934541,"current_range_meters":16000,"station_id":"","pricing_plan_id":"cebpf4jnsgd1na2vs0mg"},{"bike_id":"4db252b4-3397-46be-a8f0-78dc4f64f35e","system_id":"levelo_inurba_marseille","lat":43.30428,"lon":5.38897,"is_reserved":false,"is_disabled":false,"rental_uris":{"android":"levelo://app?vid=4db252b4-3397-46be-a8f0-78dc4f64f35e","ios":"levelo://app?vid=4db252b4-3397-46be-a8f0-78dc4f64f35e"},"vehicle_type_id":"4","last_reported":1761934541,"current_range_meters":16000,"station_id":"ce4bgk12rcd13ifvqbi0","pricing_plan_id":"cebpf4jnsgd1na2vs0mg"},{"bike_id":"03db304a-cb59-4406-8b46-22cf3ab62767","system_id":"levelo_inurba_marseille","lat":43.29535,"lon":5.38543,"is_reserved":false,"is_disabled":false,"rental_uris":{"android":"levelo://app?vid=03db304a-cb59-4406-8b46-22cf3ab62767","ios":"levelo://app?vid=03db304a-cb59-4406-8b46-22cf3ab62767"},"vehicle_type_id":"4","last_reported":1761934541,"current_range_meters":16000,"station_id":"ce4bgih2rcd13ifvqba0","pricing_plan_id":"cebpf4jnsgd1na2vs0mg"},{"bike_id":"fa5869a3-6afa-4d29-911f-5cf319089ede","system_id":"levelo_inurba_marseille","lat":43.285704,"lon":5.394952,"is_reserved":false,"is_disabled":false,"rental_uris":{"android":"levelo://app?vid=fa5869a3-6afa-4d29-911f-5cf319089ede","ios":"levelo://app?vid=fa5869a3-6afa-4d29-911f-5cf319089ede"},"vehicle_type_id":"4","last_reported":1761934541,"current_range_meters":16400,"station_id":"ce4bh292rcd13ifvqdg0","pricing_plan_id":"cebpf4jnsgd1na2vs0mg"},{"bike_id":"8b032cc8-c06d-4881-a24b-2ba32be757e9","system_id":"levelo_inurba_marseille","lat":43.2468,"lon":5.38143,"is_reserved":false,"is_disabled":false,"rental_uris":{"android":"levelo://app?vid=8b032cc8-c06d-4881-a24b-2ba32be757e9","ios":"levelo://app?vid=8b032cc8-c06d-4881-a24b-2ba32be757e9"},"vehicle_type_id":"4","last_reported":1761934541,"current_range_meters":16400,"station_id":"ce4bhih2rcd13ifvqfr0","pricing_plan_id":"cebpf4jnsgd1na2vs0mg"},{"bike_id":"719cab00-fc05-4a10-b7e7-f67576adad60","system_id":"levelo_inurba_marseille","lat":43.231527,"lon":5.437058,"is_reserved":false,"is_disabled":false,"rental_uris":{"android":"levelo://app?vid=719cab00-fc05-4a10-b7e7-f67576adad60","ios":"levelo://app?vid=719cab00-fc05-4a10-b7e7-f67576adad60"},"vehicle_type_id":"4","last_reported":1761934541,"current_range_meters":16400,"station_id":"ce4bhmp2rcd13ifvqgog","pricing_plan_id":"cebpf4jnsgd1na2vs0mg"},{"bike_id":"902cb9d8-ef70-438b-8a4e-f92339b55170","system_id":"levelo_inurba_marseille","lat":43.29248,"lon":5.38448,"is_reserved":false,"is_disabled":false,"rental_uris":{"android":"levelo://app?vid=902cb9d8-ef70-438b-8a4e-f92339b55170","ios":"levelo://app?vid=902cb9d8-ef70-438b-8a4e-f92339b55170"},"vehicle_type_id":"4","last_reported":1761934541,"current_range_meters":16400,"station_id":"ce4bh692rcd13ifvqea0","pricing_plan_id":"cebpf4jnsgd1na2vs0mg"},{"bike_id":"18c00e7d-721f-4d25-a68e-daf8d59c810e","system_id":"levelo_inurba_marseille","lat":43.32114,"lon":5.36767,"is_reserved":false,"is_disabled":false,"rental_uris":{"android":"levelo://app?vid=18c00e7d-721f-4d25-a68e-daf8d59c810e","ios":"levelo://app?vid=18c00e7d-721f-4d25-a68e-daf8d59c810e"},"vehicle_type_id":"4","last_reported":1761934541,"current_range_meters":16400,"station_id":"ce4bhrh2rcd13ifvqhug","pricing_plan_id":"cebpf4jnsgd1na2vs0mg"},{"bike_id":"d6446781-8b1b-4dff-b5ff-e244759886aa","system_id":"levelo_inurba_marseille","lat":43.27945,"lon":5.41043,"is_reserved":false,"is_disabled":false,"rental_uris":{"android":"levelo://app?vid=d6446781-8b1b-4dff-b5ff-e244759886aa","ios":"levelo://app?vid=d6446781-8b1b-4dff-b5ff-e244759886aa"},"vehicle_type_id":"4","last_reported":1761934541,"current_range_meters":16400,"station_id":"ce4bhnp2rcd13ifvqh0g","pricing_plan_id":"cebpf4jnsgd1na2vs0mg"},{"bike_id":"36a40590-ec8d-4911-b110-4cf64635fc24","system_id":"levelo_inurba_marseille","lat":43.2925,"lon":5.38438,"is_reserved":false,"is_disabled":false,"rental_uris":{"android":"levelo://app?vid=36a40590-ec8d-4911-b110-4cf64635fc24","ios":"levelo://app?vid=36a40590-ec8d-4911-b110-4cf64635fc24"},"vehicle_type_id":"4","last_reported":1761934541,"current_range_meters":16800,"station_id":"ce4bh692rcd13ifvqea0","pricing_plan_id":"cebpf4jnsgd1na2vs0mg"},{"bike_id":"472a1028-9e29-4e6f-b089-eae1dc72cf56","system_id":"levelo_inurba_marseille","lat":43.23069,"lon":5.35495,"is_reserved":false,"is_disabled":false,"rental_uris":{"android":"levelo://app?vid=472a1028-9e29-4e6f-b089-eae1dc72cf56","ios":"levelo://app?vid=472a1028-9e29-4e6f-b089-eae1dc72cf56"},"vehicle_type_id":"4","last_reported":1761934541,"current_range_meters":16800,"station_id":"cpo3342slgdg3j2ifvpg","pricing_plan_id":"cebpf4jnsgd1na2vs0mg"},{"bike_id":"eadc9446-c4d5-401b-ae02-a39cea0189dd","system_id":"levelo_inurba_marseille","lat":43.29883,"lon":5.39741,"is_reserved":false,"is_disabled":false,"rental_uris":{"android":"levelo://app?vid=eadc9446-c4d5-401b-ae02-a39cea0189dd","ios":"levelo://app?vid=eadc9446-c4d5-401b-ae02-a39cea0189dd"},"vehicle_type_id":"4","last_reported":1761934541,"current_range_meters":16800,"station_id":"ce4bh0h2rcd13ifvqd50","pricing_plan_id":"cebpf4jnsgd1na2vs0mg"},{"bike_id":"a5a16550-6fb4-48f8-8a89-89ded033084f","system_id":"levelo_inurba_marseille","lat":43.281581,"lon":5.426487,"is_reserved":false,"is_disabled":false,"rental_uris":{"android":"levelo://app?vid=a5a16550-6fb4-48f8-8a89-89ded033084f","ios":"levelo://app?vid=a5a16550-6fb4-48f8-8a89-89ded033084f"},"vehicle_type_id":"4","last_reported":1761934541,"current_range_meters":16800,"station_id":"ce4bhnh2rcd13ifvqgug","pricing_plan_id":"cebpf4jnsgd1na2vs0mg"},{"bike_id":"5329277d-b696-4f32-9412-95d13ccb7cbb","system_id":"levelo_inurba_marseille","lat":43.29818,"lon":5.440736,"is_reserved":false,"is_disabled":false,"rental_uris":{"android":"levelo://app?vid=5329277d-b696-4f32-9412-95d13ccb7cbb","ios":"levelo://app?vid=5329277d-b696-4f32-9412-95d13ccb7cbb"},"vehicle_type_id":"4","last_reported":1761934541,"current_range_meters":16800,"station_id":"st_d3jp68qikq2c7381ktn0","pricing_plan_id":"cebpf4jnsgd1na2vs0mg"},{"bike_id":"c2807477-fd8d-44ed-9bdc-b3f90f0cbde0","system_id":"levelo_inurba_marseille","lat":43.318719,"lon":5.399948,"is_reserved":false,"is_disabled":false,"rental_uris":{"android":"levelo://app?vid=c2807477-fd8d-44ed-9bdc-b3f90f0cbde0","ios":"levelo://app?vid=c2807477-fd8d-44ed-9bdc-b3f90f0cbde0"},"vehicle_type_id":"4","last_reported":1761934541,"current_range_meters":16800,"station_id":"","pricing_plan_id":"cebpf4jnsgd1na2vs0mg"},{"bike_id":"9ee030a8-2096-47dc-9a00-9b0afd75e3d0","system_id":"levelo_inurba_marseille","lat":43.32658,"lon":5.40992,"is_reserved":false,"is_disabled":false,"rental_uris":{"android":"levelo://app?vid=9ee030a8-2096-47dc-9a00-9b0afd75e3d0","ios":"levelo://app?vid=9ee030a8-2096-47dc-9a00-9b0afd75e3d0"},"vehicle_type_id":"4","last_reported":1761934541,"current_range_meters":16800,"station_id":"ce4bhpp2rcd13ifvqhgg","pricing_plan_id":"cebpf4jnsgd1na2vs0mg"},{"bike_id":"2a9fca9b-011c-4340-b638-3143672ac7a2","system_id":"levelo_inurba_marseille","lat":43.30298,"lon":5.39205,"is_reserved":false,"is_disabled":false,"rental_uris":{"android":"levelo://app?vid=2a9fca9b-011c-4340-b638-3143672ac7a2","ios":"levelo://app?vid=2a9fca9b-011c-4340-b638-3143672ac7a2"},"vehicle_type_id":"4","last_reported":1761934541,"current_range_meters":16800,"station_id":"ce4bgkh2rcd13ifvqbk0","pricing_plan_id":"cebpf4jnsgd1na2vs0mg"},{"bike_id":"e97bd841-a757-4f02-af2a-2c6920cfa105","system_id":"levelo_inurba_marseille","lat":43.28156,"lon":5.42639,"is_reserved":false,"is_disabled":false,"rental_uris":{"android":"levelo://app?vid=e97bd841-a757-4f02-af2a-2c6920cfa105","ios":"levelo://app?vid=e97bd841-a757-4f02-af2a-2c6920cfa105"},"vehicle_type_id":"4","last_reported":1761934541,"current_range_meters":17200,"station_id":"ce4bhnh2rcd13ifvqgug","pricing_plan_id":"cebpf4jnsgd1na2vs0mg"},{"bike_id":"77cb26a1-52f9-40bd-b524-f34c2c796d9a","system_id":"levelo_inurba_marseille","lat":43.278316,"lon":5.392116,"is_reserved":false,"is_disabled":false,"rental_uris":{"android":"levelo://app?vid=77cb26a1-52f9-40bd-b524-f34c2c796d9a","ios":"levelo://app?vid=77cb26a1-52f9-40bd-b524-f34c2c796d9a"},"vehicle_type_id":"4","last_reported":1761934541,"current_range_meters":17200,"station_id":"ce4bhjp2rcd13ifvqga0","pricing_plan_id":"cebpf4jnsgd1na2vs0mg"},{"bike_id":"e04f332d-b41c-47fd-b12f-6fdc7d63f429","system_id":"levelo_inurba_marseille","lat":43.308381,"lon":5.382971,"is_reserved":false,"is_disabled":false,"rental_uris":{"android":"levelo://app?vid=e04f332d-b41c-47fd-b12f-6fdc7d63f429","ios":"levelo://app?vid=e04f332d-b41c-47fd-b12f-6fdc7d63f429"},"vehicle_type_id":"4","last_reported":1761934541,"current_range_meters":17200,"station_id":"","pricing_plan_id":"cebpf4jnsgd1na2vs0mg"},{"bike_id":"ced8b747-e5ab-4e7a-b1f4-22a1ebc20f6f","system_id":"levelo_inurba_marseille","lat":43.30783,"lon":5.37658,"is_reserved":false,"is_disabled":true,"rental_uris":{"android":"levelo://app?vid=ced8b747-e5ab-4e7a-b1f4-22a1ebc20f6f","ios":"levelo://app?vid=ced8b747-e5ab-4e7a-b1f4-22a1ebc20f6f"},"vehicle_type_id":"4","last_reported":1761934541,"current_range_meters":17200,"station_id":"ce4bgv92rcd13ifvqcq0","pricing_plan_id":"cebpf4jnsgd1na2vs0mg"},{"bike_id":"6f998e20-b3aa-4ee1-9f1f-50a78166f993","system_id":"levelo_inurba_marseille","lat":43.28617,"lon":5.35098,"is_reserved":false,"is_disabled":false,"rental_uris":{"android":"levelo://app?vid=6f998e20-b3aa-4ee1-9f1f-50a78166f993","ios":"levelo://app?vid=6f998e20-b3aa-4ee1-9f1f-50a78166f993"},"vehicle_type_id":"4","last_reported":1761934541,"current_range_meters":17200,"station_id":"ce4bhch2rcd13ifvqeug","pricing_plan_id":"cebpf4jnsgd1na2vs0mg"},{"bike_id":"e7186159-6317-4509-a122-1fc321847afd","system_id":"levelo_inurba_marseille","lat":43.29034,"lon":5.38654,"is_reserved":false,"is_disabled":false,"rental_uris":{"android":"levelo://app?vid=e7186159-6317-4509-a122-1fc321847afd","ios":"levelo://app?vid=e7186159-6317-4509-a122-1fc321847afd"},"vehicle_type_id":"4","last_reported":1761934541,"current_range_meters":17200,"station_id":"ce4bh4p2rcd13ifvqe0g","pricing_plan_id":"cebpf4jnsgd1na2vs0mg"},{"bike_id":"c42de068-ba0a-471e-b3b4-17e367f4671b","system_id":"levelo_inurba_marseille","lat":43.29531,"lon":5.39039,"is_reserved":false,"is_disabled":false,"rental_uris":{"android":"levelo://app?vid=c42de068-ba0a-471e-b3b4-17e367f4671b","ios":"levelo://app?vid=c42de068-ba0a-471e-b3b4-17e367f4671b"},"vehicle_type_id":"4","last_reported":1761934541,"current_range_meters":17200,"station_id":"ce4bh3p2rcd13ifvqdp0","pricing_plan_id":"cebpf4jnsgd1na2vs0mg"},{"bike_id":"becbc939-b35d-42dc-9c44-eff774fe6eaf","system_id":"levelo_inurba_marseille","lat":43.30373,"lon":5.42484,"is_reserved":false,"is_disabled":false,"rental_uris":{"android":"levelo://app?vid=becbc939-b35d-42dc-9c44-eff774fe6eaf","ios":"levelo://app?vid=becbc939-b35d-42dc-9c44-eff774fe6eaf"},"vehicle_type_id":"4","last_reported":1761934541,"current_range_meters":17200,"station_id":"ce4bhoh2rcd13ifvqh6g","pricing_plan_id":"cebpf4jnsgd1na2vs0mg"},{"bike_id":"4fd9f5aa-a2d3-48e0-aee2-704d6db584ac","system_id":"levelo_inurba_marseille","lat":43.254997,"lon":5.376498,"is_reserved":false,"is_disabled":false,"rental_uris":{"android":"levelo://app?vid=4fd9f5aa-a2d3-48e0-aee2-704d6db584ac","ios":"levelo://app?vid=4fd9f5aa-a2d3-48e0-aee2-704d6db584ac"},"vehicle_type_id":"4","last_reported":1761934541,"current_range_meters":17200,"station_id":"ce4bhh12rcd13ifvqff0","pricing_plan_id":"cebpf4jnsgd1na2vs0mg"},{"bike_id":"777cfa10-928a-4819-b277-9fbcd74ee499","system_id":"levelo_inurba_marseille","lat":43.24081,"lon":5.37757,"is_reserved":false,"is_disabled":false,"rental_uris":{"android":"levelo://app?vid=777cfa10-928a-4819-b277-9fbcd74ee499","ios":"levelo://app?vid=777cfa10-928a-4819-b277-9fbcd74ee499"},"vehicle_type_id":"4","last_reported":1761934541,"current_range_meters":17200,"station_id":"ce4bhnp2rcd13ifvqgvg","pricing_plan_id":"cebpf4jnsgd1na2vs0mg"},{"bike_id":"c2063314-8221-4f6d-8f6b-599872227512","system_id":"levelo_inurba_marseille","lat":43.27915,"lon":5.3958,"is_reserved":false,"is_disabled":false,"rental_uris":{"android":"levelo://app?vid=c2063314-8221-4f6d-8f6b-599872227512","ios":"levelo://app?vid=c2063314-8221-4f6d-8f6b-599872227512"},"vehicle_type_id":"4","last_reported":1761934541,"current_range_meters":17200,"station_id":"ce4bhf92rcd13ifvqf40","pricing_plan_id":"cebpf4jnsgd1na2vs0mg"},{"bike_id":"6e47d07f-a213-4ab9-be32-be9f167e419b","system_id":"levelo_inurba_marseille","lat":43.279418,"lon":5.410508,"is_reserved":false,"is_disabled":false,"rental_uris":{"android":"levelo://app?vid=6e47d07f-a213-4ab9-be32-be9f167e419b","ios":"levelo://app?vid=6e47d07f-a213-4ab9-be32-be9f167e419b"},"vehicle_type_id":"4","last_reported":1761934541,"current_range_meters":17600,"station_id":"ce4bhnp2rcd13ifvqh0g","pricing_plan_id":"cebpf4jnsgd1na2vs0mg"},{"bike_id":"fe731e5b-2a0a-4ca3-b8a5-84120d1e2023","system_id":"levelo_inurba_marseille","lat":43.248015,"lon":5.374546,"is_reserved":false,"is_disabled":false,"rental_uris":{"android":"levelo://app?vid=fe731e5b-2a0a-4ca3-b8a5-84120d1e2023","ios":"levelo://app?vid=fe731e5b-2a0a-4ca3-b8a5-84120d1e2023"},"vehicle_type_id":"4","last_reported":1761934541,"current_range_meters":17600,"station_id":"ce4bho92rcd13ifvqh4g","pricing_plan_id":"cebpf4jnsgd1na2vs0mg"},{"bike_id":"d7914cbb-c2cb-4c66-9c9b-d8f12c608389","system_id":"levelo_inurba_marseille","lat":43.29096,"lon":5.38147,"is_reserved":false,"is_disabled":false,"rental_uris":{"android":"levelo://app?vid=d7914cbb-c2cb-4c66-9c9b-d8f12c608389","ios":"levelo://app?vid=d7914cbb-c2cb-4c66-9c9b-d8f12c608389"},"vehicle_type_id":"4","last_reported":1761934541,"current_range_meters":17600,"station_id":"ce4bh512rcd13ifvqe2g","pricing_plan_id":"cebpf4jnsgd1na2vs0mg"},{"bike_id":"c04ea6ec-c85d-4b9a-aa74-f0de2415a6d2","system_id":"levelo_inurba_marseille","lat":43.31553,"lon":5.38385,"is_reserved":false,"is_disabled":false,"rental_uris":{"android":"levelo://app?vid=c04ea6ec-c85d-4b9a-aa74-f0de2415a6d2","ios":"levelo://app?vid=c04ea6ec-c85d-4b9a-aa74-f0de2415a6d2"},"vehicle_type_id":"4","last_reported":1761934541,"current_range_meters":17600,"station_id":"","pricing_plan_id":"cebpf4jnsgd1na2vs0mg"},{"bike_id":"fbcc5886-69e3-488f-96fd-e45314a075e6","system_id":"levelo_inurba_marseille","lat":43.288623,"lon":5.425229,"is_reserved":false,"is_disabled":false,"rental_uris":{"android":"levelo://app?vid=fbcc5886-69e3-488f-96fd-e45314a075e6","ios":"levelo://app?vid=fbcc5886-69e3-488f-96fd-e45314a075e6"},"vehicle_type_id":"4","last_reported":1761934541,"current_range_meters":17600,"station_id":"st_d3b462108ojc7389ooeg","pricing_plan_id":"cebpf4jnsgd1na2vs0mg"},{"bike_id":"38472dd5-3884-4e27-926c-94aa986e12a3","system_id":"levelo_inurba_marseille","lat":43.29529,"lon":5.38532,"is_reserved":false,"is_disabled":false,"rental_uris":{"android":"levelo://app?vid=38472dd5-3884-4e27-926c-94aa986e12a3","ios":"levelo://app?vid=38472dd5-3884-4e27-926c-94aa986e12a3"},"vehicle_type_id":"4","last_reported":1761934541,"current_range_meters":17600,"station_id":"ce4bgih2rcd13ifvqba0","pricing_plan_id":"cebpf4jnsgd1na2vs0mg"},{"bike_id":"9d832a88-fb3e-488e-879c-da730ebebd41","system_id":"levelo_inurba_marseille","lat":43.30142,"lon":5.37426,"is_reserved":false,"is_disabled":false,"rental_uris":{"android":"levelo://app?vid=9d832a88-fb3e-488e-879c-da730ebebd41","ios":"levelo://app?vid=9d832a88-fb3e-488e-879c-da730ebebd41"},"vehicle_type_id":"4","last_reported":1761934541,"current_range_meters":17600,"station_id":"ce4bgs92rcd13ifvqcc0","pricing_plan_id":"cebpf4jnsgd1na2vs0mg"},{"bike_id":"55ad36f3-53f2-4213-bf99-6aeb8a7c3eb6","system_id":"levelo_inurba_marseille","lat":43.29249,"lon":5.38444,"is_reserved":false,"is_disabled":false,"rental_uris":{"android":"levelo://app?vid=55ad36f3-53f2-4213-bf99-6aeb8a7c3eb6","ios":"levelo://app?vid=55ad36f3-53f2-4213-bf99-6aeb8a7c3eb6"},"vehicle_type_id":"4","last_reported":1761934541,"current_range_meters":17600,"station_id":"ce4bh692rcd13ifvqea0","pricing_plan_id":"cebpf4jnsgd1na2vs0mg"},{"bike_id":"f4138efc-7778-4d94-abf8-053b4cd27475","system_id":"levelo_inurba_marseille","lat":43.23179,"lon":5.35544,"is_reserved":false,"is_disabled":false,"rental_uris":{"android":"levelo://app?vid=f4138efc-7778-4d94-abf8-053b4cd27475","ios":"levelo://app?vid=f4138efc-7778-4d94-abf8-053b4cd27475"},"vehicle_type_id":"4","last_reported":1761934541,"current_range_meters":18000,"station_id":"ce4bhu92rcd13ifvqi70","pricing_plan_id":"cebpf4jnsgd1na2vs0mg"},{"bike_id":"2dd8674b-f416-441c-b99c-92b52121bd0a","system_id":"levelo_inurba_marseille","lat":43.29767,"lon":5.37032,"is_reserved":false,"is_disabled":false,"rental_uris":{"android":"levelo://app?vid=2dd8674b-f416-441c-b99c-92b52121bd0a","ios":"levelo://app?vid=2dd8674b-f416-441c-b99c-92b52121bd0a"},"vehicle_type_id":"4","last_reported":1761934541,"current_range_meters":18000,"station_id":"","pricing_plan_id":"cebpf4jnsgd1na2vs0mg"},{"bike_id":"3c288d13-b6e7-436f-851a-67ca2f4274ef","system_id":"levelo_inurba_marseille","lat":43.29078,"lon":5.37158,"is_reserved":false,"is_disabled":false,"rental_uris":{"android":"levelo://app?vid=3c288d13-b6e7-436f-851a-67ca2f4274ef","ios":"levelo://app?vid=3c288d13-b6e7-436f-851a-67ca2f4274ef"},"vehicle_type_id":"4","last_reported":1761934541,"current_range_meters":18000,"station_id":"ce4bh5p2rcd13ifvqe4g","pricing_plan_id":"cebpf4jnsgd1na2vs0mg"},{"bike_id":"0d780e83-2e2b-47e0-963e-4cfdb9b8769c","system_id":"levelo_inurba_marseille","lat":43.28938,"lon":5.3839,"is_reserved":false,"is_disabled":false,"rental_uris":{"android":"levelo://app?vid=0d780e83-2e2b-47e0-963e-4cfdb9b8769c","ios":"levelo://app?vid=0d780e83-2e2b-47e0-963e-4cfdb9b8769c"},"vehicle_type_id":"4","last_reported":1761934541,"current_range_meters":18000,"station_id":"ce4bh612rcd13ifvqe6g","pricing_plan_id":"cebpf4jnsgd1na2vs0mg"},{"bike_id":"6da830a8-111a-4fc5-a34c-ced64d9d2dc3","system_id":"levelo_inurba_marseille","lat":43.30602,"lon":5.3936,"is_reserved":false,"is_disabled":true,"rental_uris":{"android":"levelo://app?vid=6da830a8-111a-4fc5-a34c-ced64d9d2dc3","ios":"levelo://app?vid=6da830a8-111a-4fc5-a34c-ced64d9d2dc3"},"vehicle_type_id":"4","last_reported":1761934541,"current_range_meters":18000,"station_id":"ce4bh0p2rcd13ifvqd80","pricing_plan_id":"cebpf4jnsgd1na2vs0mg"},{"bike_id":"97ab2cfd-962c-4c10-9621-eed2d49b259d","system_id":"levelo_inurba_marseille","lat":43.26188,"lon":5.37443,"is_reserved":false,"is_disabled":false,"rental_uris":{"android":"levelo://app?vid=97ab2cfd-962c-4c10-9621-eed2d49b259d","ios":"levelo://app?vid=97ab2cfd-962c-4c10-9621-eed2d49b259d"},"vehicle_type_id":"4","last_reported":1761934541,"current_range_meters":18000,"station_id":"ce4bhgp2rcd13ifvqfc0","pricing_plan_id":"cebpf4jnsgd1na2vs0mg"},{"bike_id":"252ff558-e70b-4ae0-9044-acc668b445bb","system_id":"levelo_inurba_marseille","lat":43.21187,"lon":5.35074,"is_reserved":false,"is_disabled":false,"rental_uris":{"android":"levelo://app?vid=252ff558-e70b-4ae0-9044-acc668b445bb","ios":"levelo://app?vid=252ff558-e70b-4ae0-9044-acc668b445bb"},"vehicle_type_id":"4","last_reported":1761934541,"current_range_meters":18000,"station_id":"st_cvj6sg6p6f1abm77japg","pricing_plan_id":"cebpf4jnsgd1na2vs0mg"},{"bike_id":"2be10835-ea68-447a-a61d-1deba522f7d7","system_id":"levelo_inurba_marseille","lat":43.32049,"lon":5.41541,"is_reserved":false,"is_disabled":false,"rental_uris":{"android":"levelo://app?vid=2be10835-ea68-447a-a61d-1deba522f7d7","ios":"levelo://app?vid=2be10835-ea68-447a-a61d-1deba522f7d7"},"vehicle_type_id":"4","last_reported":1761934541,"current_range_meters":18000,"station_id":"ce4bhq92rcd13ifvqhkg","pricing_plan_id":"cebpf4jnsgd1na2vs0mg"},{"bike_id":"4e54111d-f227-41f6-8c56-6e1811feaf6c","system_id":"levelo_inurba_marseille","lat":43.29246,"lon":5.38448,"is_reserved":false,"is_disabled":false,"rental_uris":{"android":"levelo://app?vid=4e54111d-f227-41f6-8c56-6e1811feaf6c","ios":"levelo://app?vid=4e54111d-f227-41f6-8c56-6e1811feaf6c"},"vehicle_type_id":"4","last_reported":1761934541,"current_range_meters":18000,"station_id":"ce4bh692rcd13ifvqea0","pricing_plan_id":"cebpf4jnsgd1na2vs0mg"},{"bike_id":"3708e1d2-c0c2-45b9-9650-3c749e33056e","system_id":"levelo_inurba_marseille","lat":43.25085,"lon":5.39506,"is_reserved":false,"is_disabled":false,"rental_uris":{"android":"levelo://app?vid=3708e1d2-c0c2-45b9-9650-3c749e33056e","ios":"levelo://app?vid=3708e1d2-c0c2-45b9-9650-3c749e33056e"},"vehicle_type_id":"4","last_reported":1761934541,"current_range_meters":18000,"station_id":"ce4bhm12rcd13ifvqgkg","pricing_plan_id":"cebpf4jnsgd1na2vs0mg"},{"bike_id":"f9a376bb-e16d-419c-884a-492ffebe4f2f","system_id":"levelo_inurba_marseille","lat":43.25338,"lon":5.42172,"is_reserved":false,"is_disabled":false,"rental_uris":{"android":"levelo://app?vid=f9a376bb-e16d-419c-884a-492ffebe4f2f","ios":"levelo://app?vid=f9a376bb-e16d-419c-884a-492ffebe4f2f"},"vehicle_type_id":"4","last_reported":1761934541,"current_range_meters":18000,"station_id":"st_d2m65c5bi1j21697t3ng","pricing_plan_id":"cebpf4jnsgd1na2vs0mg"},{"bike_id":"6248c83a-e2fb-475b-bca1-f257957314d3","system_id":"levelo_inurba_marseille","lat":43.297994,"lon":5.380828,"is_reserved":false,"is_disabled":false,"rental_uris":{"android":"levelo://app?vid=6248c83a-e2fb-475b-bca1-f257957314d3","ios":"levelo://app?vid=6248c83a-e2fb-475b-bca1-f257957314d3"},"vehicle_type_id":"4","last_reported":1761934541,"current_range_meters":18000,"station_id":"","pricing_plan_id":"cebpf4jnsgd1na2vs0mg"},{"bike_id":"8a188ebd-315d-43dd-89eb-20625f41c09f","system_id":"levelo_inurba_marseille","lat":43.303173,"lon":5.404399,"is_reserved":false,"is_disabled":false,"rental_uris":{"android":"levelo://app?vid=8a188ebd-315d-43dd-89eb-20625f41c09f","ios":"levelo://app?vid=8a188ebd-315d-43dd-89eb-20625f41c09f"},"vehicle_type_id":"4","last_reported":1761934541,"current_range_meters":18000,"station_id":"ce4bh012rcd13ifvqd10","pricing_plan_id":"cebpf4jnsgd1na2vs0mg"},{"bike_id":"d5327565-bf7b-4196-a85b-6fe3a2c8fc6d","system_id":"levelo_inurba_marseille","lat":43.290892,"lon":5.355887,"is_reserved":false,"is_disabled":false,"rental_uris":{"android":"levelo://app?vid=d5327565-bf7b-4196-a85b-6fe3a2c8fc6d","ios":"levelo://app?vid=d5327565-bf7b-4196-a85b-6fe3a2c8fc6d"},"vehicle_type_id":"4","last_reported":1761934541,"current_range_meters":18000,"station_id":"ce4bhb92rcd13ifvqen0","pricing_plan_id":"cebpf4jnsgd1na2vs0mg"},{"bike_id":"6fc97bb7-b2ce-4bec-a2a7-5137f555c3be","system_id":"levelo_inurba_marseille","lat":43.30589,"lon":5.39355,"is_reserved":false,"is_disabled":false,"rental_uris":{"android":"levelo://app?vid=6fc97bb7-b2ce-4bec-a2a7-5137f555c3be","ios":"levelo://app?vid=6fc97bb7-b2ce-4bec-a2a7-5137f555c3be"},"vehicle_type_id":"4","last_reported":1761934541,"current_range_meters":18800,"station_id":"ce4bh0p2rcd13ifvqd80","pricing_plan_id":"cebpf4jnsgd1na2vs0mg"},{"bike_id":"ab317b96-30d0-46ca-bbf5-30dabb1d91eb","system_id":"levelo_inurba_marseille","lat":43.30541,"lon":5.36533,"is_reserved":false,"is_disabled":false,"rental_uris":{"android":"levelo://app?vid=ab317b96-30d0-46ca-bbf5-30dabb1d91eb","ios":"levelo://app?vid=ab317b96-30d0-46ca-bbf5-30dabb1d91eb"},"vehicle_type_id":"4","last_reported":1761934541,"current_range_meters":18800,"station_id":"ce4bgs12rcd13ifvqcag","pricing_plan_id":"cebpf4jnsgd1na2vs0mg"},{"bike_id":"8019bc24-b6f0-4979-bef8-1dc343436602","system_id":"levelo_inurba_marseille","lat":43.29255,"lon":5.38449,"is_reserved":false,"is_disabled":false,"rental_uris":{"android":"levelo://app?vid=8019bc24-b6f0-4979-bef8-1dc343436602","ios":"levelo://app?vid=8019bc24-b6f0-4979-bef8-1dc343436602"},"vehicle_type_id":"4","last_reported":1761934541,"current_range_meters":18800,"station_id":"ce4bh692rcd13ifvqea0","pricing_plan_id":"cebpf4jnsgd1na2vs0mg"},{"bike_id":"0089665c-d050-4f0d-8d27-e9a6af9208fc","system_id":"levelo_inurba_marseille","lat":43.3018,"lon":5.38041,"is_reserved":false,"is_disabled":false,"rental_uris":{"android":"levelo://app?vid=0089665c-d050-4f0d-8d27-e9a6af9208fc","ios":"levelo://app?vid=0089665c-d050-4f0d-8d27-e9a6af9208fc"},"vehicle_type_id":"4","last_reported":1761934541,"current_range_meters":18800,"station_id":"","pricing_plan_id":"cebpf4jnsgd1na2vs0mg"},{"bike_id":"b35896a0-ed01-46a1-9bfb-413ede6fd355","system_id":"levelo_inurba_marseille","lat":43.24662,"lon":5.38162,"is_reserved":false,"is_disabled":false,"rental_uris":{"android":"levelo://app?vid=b35896a0-ed01-46a1-9bfb-413ede6fd355","ios":"levelo://app?vid=b35896a0-ed01-46a1-9bfb-413ede6fd355"},"vehicle_type_id":"4","last_reported":1761934541,"current_range_meters":18800,"station_id":"ce4bhih2rcd13ifvqfr0","pricing_plan_id":"cebpf4jnsgd1na2vs0mg"},{"bike_id":"0c3bfe72-1bfa-4fe4-8ec1-abc531b0b6c5","system_id":"levelo_inurba_marseille","lat":43.26551,"lon":5.37296,"is_reserved":false,"is_disabled":true,"rental_uris":{"android":"levelo://app?vid=0c3bfe72-1bfa-4fe4-8ec1-abc531b0b6c5","ios":"levelo://app?vid=0c3bfe72-1bfa-4fe4-8ec1-abc531b0b6c5"},"vehicle_type_id":"4","last_reported":1761934541,"current_range_meters":18800,"station_id":"ce4bhg12rcd13ifvqf70","pricing_plan_id":"cebpf4jnsgd1na2vs0mg"},{"bike_id":"1c2315ac-cc3c-449d-8f44-c9ae80360ca4","system_id":"levelo_inurba_marseille","lat":43.25121,"lon":5.40314,"is_reserved":false,"is_disabled":false,"rental_uris":{"android":"levelo://app?vid=1c2315ac-cc3c-449d-8f44-c9ae80360ca4","ios":"levelo://app?vid=1c2315ac-cc3c-449d-8f44-c9ae80360ca4"},"vehicle_type_id":"4","last_reported":1761934541,"current_range_meters":18800,"station_id":"ce4bhlh2rcd13ifvqgig","pricing_plan_id":"cebpf4jnsgd1na2vs0mg"},{"bike_id":"1b727c94-5686-4e69-a92e-6d1f91603b89","system_id":"levelo_inurba_marseille","lat":43.28153,"lon":5.42651,"is_reserved":false,"is_disabled":false,"rental_uris":{"android":"levelo://app?vid=1b727c94-5686-4e69-a92e-6d1f91603b89","ios":"levelo://app?vid=1b727c94-5686-4e69-a92e-6d1f91603b89"},"vehicle_type_id":"4","last_reported":1761934541,"current_range_meters":18800,"station_id":"ce4bhnh2rcd13ifvqgug","pricing_plan_id":"cebpf4jnsgd1na2vs0mg"},{"bike_id":"4d4ab821-bffc-4890-8da5-332edfe2e097","system_id":"levelo_inurba_marseille","lat":43.31687,"lon":5.40479,"is_reserved":false,"is_disabled":false,"rental_uris":{"android":"levelo://app?vid=4d4ab821-bffc-4890-8da5-332edfe2e097","ios":"levelo://app?vid=4d4ab821-bffc-4890-8da5-332edfe2e097"},"vehicle_type_id":"4","last_reported":1761934541,"current_range_meters":19200,"station_id":"ce4bh012rcd13ifvqd00","pricing_plan_id":"cebpf4jnsgd1na2vs0mg"},{"bike_id":"0b951a33-8ea4-4d55-9b90-e84b0ed21ff0","system_id":"levelo_inurba_marseille","lat":43.29251,"lon":5.38438,"is_reserved":false,"is_disabled":true,"rental_uris":{"android":"levelo://app?vid=0b951a33-8ea4-4d55-9b90-e84b0ed21ff0","ios":"levelo://app?vid=0b951a33-8ea4-4d55-9b90-e84b0ed21ff0"},"vehicle_type_id":"4","last_reported":1761934541,"current_range_meters":19200,"station_id":"ce4bh692rcd13ifvqea0","pricing_plan_id":"cebpf4jnsgd1na2vs0mg"},{"bike_id":"e3fb49f5-399b-4d6f-8db8-5b0bff4d385f","system_id":"levelo_inurba_marseille","lat":43.337617,"lon":5.37424,"is_reserved":false,"is_disabled":false,"rental_uris":{"android":"levelo://app?vid=e3fb49f5-399b-4d6f-8db8-5b0bff4d385f","ios":"levelo://app?vid=e3fb49f5-399b-4d6f-8db8-5b0bff4d385f"},"vehicle_type_id":"4","last_reported":1761934541,"current_range_meters":19200,"station_id":"ce4bh612rcd13ifvqe6g","pricing_plan_id":"cebpf4jnsgd1na2vs0mg"},{"bike_id":"a62c8899-99d3-4b36-998e-f99186dfc0b8","system_id":"levelo_inurba_marseille","lat":43.27825,"lon":5.39208,"is_reserved":false,"is_disabled":false,"rental_uris":{"android":"levelo://app?vid=a62c8899-99d3-4b36-998e-f99186dfc0b8","ios":"levelo://app?vid=a62c8899-99d3-4b36-998e-f99186dfc0b8"},"vehicle_type_id":"4","last_reported":1761934541,"current_range_meters":19200,"station_id":"ce4bhjp2rcd13ifvqga0","pricing_plan_id":"cebpf4jnsgd1na2vs0mg"},{"bike_id":"06bde4a7-497c-469a-9516-37b9f9755e65","system_id":"levelo_inurba_marseille","lat":43.337444,"lon":5.374475,"is_reserved":false,"is_disabled":false,"rental_uris":{"android":"levelo://app?vid=06bde4a7-497c-469a-9516-37b9f9755e65","ios":"levelo://app?vid=06bde4a7-497c-469a-9516-37b9f9755e65"},"vehicle_type_id":"4","last_reported":1761934541,"current_range_meters":19200,"station_id":"ce4bhnh2rcd13ifvqgug","pricing_plan_id":"cebpf4jnsgd1na2vs0mg"},{"bike_id":"769e4fca-c0d9-49e6-bbb4-78e90ef17f3c","system_id":"levelo_inurba_marseille","lat":43.267813,"lon":5.394152,"is_reserved":false,"is_disabled":false,"rental_uris":{"android":"levelo://app?vid=769e4fca-c0d9-49e6-bbb4-78e90ef17f3c","ios":"levelo://app?vid=769e4fca-c0d9-49e6-bbb4-78e90ef17f3c"},"vehicle_type_id":"4","last_reported":1761934541,"current_range_meters":19200,"station_id":"ce4bhh12rcd13ifvqfg0","pricing_plan_id":"cebpf4jnsgd1na2vs0mg"},{"bike_id":"78153eca-a788-46e2-bd12-2d70970b1dd8","system_id":"levelo_inurba_marseille","lat":43.2742,"lon":5.39416,"is_reserved":false,"is_disabled":false,"rental_uris":{"android":"levelo://app?vid=78153eca-a788-46e2-bd12-2d70970b1dd8","ios":"levelo://app?vid=78153eca-a788-46e2-bd12-2d70970b1dd8"},"vehicle_type_id":"4","last_reported":1761934541,"current_range_meters":19200,"station_id":"ce4bhdp2rcd13ifvqf20","pricing_plan_id":"cebpf4jnsgd1na2vs0mg"},{"bike_id":"3150b169-6d8b-4786-81cd-4b890da98702","system_id":"levelo_inurba_marseille","lat":43.23778,"lon":5.36637,"is_reserved":false,"is_disabled":false,"rental_uris":{"android":"levelo://app?vid=3150b169-6d8b-4786-81cd-4b890da98702","ios":"levelo://app?vid=3150b169-6d8b-4786-81cd-4b890da98702"},"vehicle_type_id":"4","last_reported":1761934541,"current_range_meters":19200,"station_id":"st_d3nk18o9ro0c73en2l3g","pricing_plan_id":"cebpf4jnsgd1na2vs0mg"},{"bike_id":"bd7c7830-5b54-4cc5-8d44-35642a045e33","system_id":"levelo_inurba_marseille","lat":43.28721,"lon":5.36099,"is_reserved":false,"is_disabled":false,"rental_uris":{"android":"levelo://app?vid=bd7c7830-5b54-4cc5-8d44-35642a045e33","ios":"levelo://app?vid=bd7c7830-5b54-4cc5-8d44-35642a045e33"},"vehicle_type_id":"4","last_reported":1761934541,"current_range_meters":19200,"station_id":"cki0cbj6b192h4jlfktg","pricing_plan_id":"cebpf4jnsgd1na2vs0mg"},{"bike_id":"cd863979-95f7-4e5c-a2c4-d0799c22e8f1","system_id":"levelo_inurba_marseille","lat":43.28853,"lon":5.42517,"is_reserved":false,"is_disabled":false,"rental_uris":{"android":"levelo://app?vid=cd863979-95f7-4e5c-a2c4-d0799c22e8f1","ios":"levelo://app?vid=cd863979-95f7-4e5c-a2c4-d0799c22e8f1"},"vehicle_type_id":"4","last_reported":1761934541,"current_range_meters":19200,"station_id":"st_d3b462108ojc7389ooeg","pricing_plan_id":"cebpf4jnsgd1na2vs0mg"},{"bike_id":"669824cb-69b9-450d-be87-26d3807f76d0","system_id":"levelo_inurba_marseille","lat":43.28616,"lon":5.35089,"is_reserved":false,"is_disabled":false,"rental_uris":{"android":"levelo://app?vid=669824cb-69b9-450d-be87-26d3807f76d0","ios":"levelo://app?vid=669824cb-69b9-450d-be87-26d3807f76d0"},"vehicle_type_id":"4","last_reported":1761934541,"current_range_meters":19200,"station_id":"ce4bhch2rcd13ifvqeug","pricing_plan_id":"cebpf4jnsgd1na2vs0mg"},{"bike_id":"bd83d58a-3593-4b85-b8cd-ac029950348c","system_id":"levelo_inurba_marseille","lat":43.26577,"lon":5.40313,"is_reserved":false,"is_disabled":false,"rental_uris":{"android":"levelo://app?vid=bd83d58a-3593-4b85-b8cd-ac029950348c","ios":"levelo://app?vid=bd83d58a-3593-4b85-b8cd-ac029950348c"},"vehicle_type_id":"4","last_reported":1761934541,"current_range_meters":19600,"station_id":"ce4bhmp2rcd13ifvqgng","pricing_plan_id":"cebpf4jnsgd1na2vs0mg"},{"bike_id":"3fc33beb-0ec0-47c6-acb2-a952e43c09df","system_id":"levelo_inurba_marseille","lat":43.29864,"lon":5.39731,"is_reserved":false,"is_disabled":false,"rental_uris":{"android":"levelo://app?vid=3fc33beb-0ec0-47c6-acb2-a952e43c09df","ios":"levelo://app?vid=3fc33beb-0ec0-47c6-acb2-a952e43c09df"},"vehicle_type_id":"4","last_reported":1761934541,"current_range_meters":19600,"station_id":"ce4bh0h2rcd13ifvqd50","pricing_plan_id":"cebpf4jnsgd1na2vs0mg"},{"bike_id":"94084d75-b1ec-4cf5-8736-b1d0c7eed7ce","system_id":"levelo_inurba_marseille","lat":43.33024,"lon":5.39041,"is_reserved":false,"is_disabled":false,"rental_uris":{"android":"levelo://app?vid=94084d75-b1ec-4cf5-8736-b1d0c7eed7ce","ios":"levelo://app?vid=94084d75-b1ec-4cf5-8736-b1d0c7eed7ce"},"vehicle_type_id":"4","last_reported":1761934541,"current_range_meters":19600,"station_id":"ce4bhr92rcd13ifvqhrg","pricing_plan_id":"cebpf4jnsgd1na2vs0mg"},{"bike_id":"3017331a-02ef-4202-8047-8adba4e2156c","system_id":"levelo_inurba_marseille","lat":43.33725,"lon":5.39183,"is_reserved":false,"is_disabled":false,"rental_uris":{"android":"levelo://app?vid=3017331a-02ef-4202-8047-8adba4e2156c","ios":"levelo://app?vid=3017331a-02ef-4202-8047-8adba4e2156c"},"vehicle_type_id":"4","last_reported":1761934541,"current_range_meters":19600,"station_id":"ce4bhr92rcd13ifvqhsg","pricing_plan_id":"cebpf4jnsgd1na2vs0mg"},{"bike_id":"38fc318d-1865-4990-a7e1-f5e9a0aeb1bd","system_id":"levelo_inurba_marseille","lat":43.25002,"lon":5.389226,"is_reserved":false,"is_disabled":false,"rental_uris":{"android":"levelo://app?vid=38fc318d-1865-4990-a7e1-f5e9a0aeb1bd","ios":"levelo://app?vid=38fc318d-1865-4990-a7e1-f5e9a0aeb1bd"},"vehicle_type_id":"4","last_reported":1761934541,"current_range_meters":19600,"station_id":"ce4bhgp2rcd13ifvqfd0","pricing_plan_id":"cebpf4jnsgd1na2vs0mg"},{"bike_id":"8760d142-a1f9-4d12-9ae6-68c9dc93f123","system_id":"levelo_inurba_marseille","lat":43.29245,"lon":5.38443,"is_reserved":false,"is_disabled":false,"rental_uris":{"android":"levelo://app?vid=8760d142-a1f9-4d12-9ae6-68c9dc93f123","ios":"levelo://app?vid=8760d142-a1f9-4d12-9ae6-68c9dc93f123"},"vehicle_type_id":"4","last_reported":1761934541,"current_range_meters":19600,"station_id":"ce4bh692rcd13ifvqea0","pricing_plan_id":"cebpf4jnsgd1na2vs0mg"},{"bike_id":"0c0607aa-36a7-47fb-be45-40bfeb0a1054","system_id":"levelo_inurba_marseille","lat":43.27372,"lon":5.36258,"is_reserved":false,"is_disabled":false,"rental_uris":{"android":"levelo://app?vid=0c0607aa-36a7-47fb-be45-40bfeb0a1054","ios":"levelo://app?vid=0c0607aa-36a7-47fb-be45-40bfeb0a1054"},"vehicle_type_id":"4","last_reported":1761934541,"current_range_meters":19600,"station_id":"ce4bhbh2rcd13ifvqeo0","pricing_plan_id":"cebpf4jnsgd1na2vs0mg"},{"bike_id":"32632625-b281-4348-990f-071d78c42b84","system_id":"levelo_inurba_marseille","lat":43.26569,"lon":5.39014,"is_reserved":false,"is_disabled":false,"rental_uris":{"android":"levelo://app?vid=32632625-b281-4348-990f-071d78c42b84","ios":"levelo://app?vid=32632625-b281-4348-990f-071d78c42b84"},"vehicle_type_id":"4","last_reported":1761934541,"current_range_meters":19600,"station_id":"","pricing_plan_id":"cebpf4jnsgd1na2vs0mg"},{"bike_id":"b6e49b07-e21b-4c6b-adb0-168c356ff472","system_id":"levelo_inurba_marseille","lat":43.3127,"lon":5.40169,"is_reserved":false,"is_disabled":false,"rental_uris":{"android":"levelo://app?vid=b6e49b07-e21b-4c6b-adb0-168c356ff472","ios":"levelo://app?vid=b6e49b07-e21b-4c6b-adb0-168c356ff472"},"vehicle_type_id":"4","last_reported":1761934541,"current_range_meters":19600,"station_id":"ce4bh092rcd13ifvqd30","pricing_plan_id":"cebpf4jnsgd1na2vs0mg"},{"bike_id":"f569b2a4-837c-4f1c-b341-b00b880d631f","system_id":"levelo_inurba_marseille","lat":43.3008,"lon":5.39075,"is_reserved":false,"is_disabled":false,"rental_uris":{"android":"levelo://app?vid=f569b2a4-837c-4f1c-b341-b00b880d631f","ios":"levelo://app?vid=f569b2a4-837c-4f1c-b341-b00b880d631f"},"vehicle_type_id":"4","last_reported":1761934541,"current_range_meters":19600,"station_id":"ce4bh192rcd13ifvqdb0","pricing_plan_id":"cebpf4jnsgd1na2vs0mg"},{"bike_id":"a5f9d115-2eb0-463d-bf65-9070eaddf3fb","system_id":"levelo_inurba_marseille","lat":43.23956,"lon":5.3663,"is_reserved":false,"is_disabled":false,"rental_uris":{"android":"levelo://app?vid=a5f9d115-2eb0-463d-bf65-9070eaddf3fb","ios":"levelo://app?vid=a5f9d115-2eb0-463d-bf65-9070eaddf3fb"},