{"last_updated":1727816925,"ttl":60,"version":"2.2","data":{"bikes":[{"bike_id":"7cc11cea-3abf-48c3-a8f8-224dff680c54","system_id":"levelo_inurba_marseille","lat":43.30138,"lon":5.39859,"is_reserved":false,"is_disabled":false,"rental_uris":{"android":"levelo://app?vid=7cc11cea-3abf-48c3-a8f8-224dff680c54","ios":"levelo://app?vid=7cc11cea-3abf-48c3-a8f8-224dff680c54"},"vehicle_type_id":"4","last_reported":1727816925,"current_range_meters":31200,"station_id":"ce4bh0h2rcd13ifvqd40","pricing_plan_id":"cebpf4jnsgd1na2vs0mg"},{"bike_id":"0dad2b78-97a5-4360-bc03-7abb402aa5b3","system_id":"levelo_inurba_marseille","lat":43.290358,"lon":5.375563,"is_reserved":false,"is_disabled":false,"rental_uris":{"android":"levelo://app?vid=0dad2b78-97a5-4360-bc03-7abb402aa5b3","ios":"levelo://app?vid=0dad2b78-97a5-4360-bc03-7abb402aa5b3"},"vehicle_type_id":"4","last_reported":1727816925,"current_range_meters":28400,"station_id":"","pricing_plan_id":"cebpf4jnsgd1na2vs0mg"},{"bike_id":"d97196d4-185e-4916-bd86-5eb6fdf18447","system_id":"levelo_inurba_marseille","lat":43.33025,"lon":5.39043,"is_reserved":false,"is_disabled":false,"rental_uris":{"android":"levelo://app?vid=d97196d4-185e-4916-bd86-5eb6fdf18447","ios":"levelo://app?vid=d97196d4-185e-4916-bd86-5eb6fdf18447"},"vehicle_type_id":"4","last_reported":1727816925,"current_range_meters":24000,"station_id":"ce4bhr92rcd13ifvqhrg","pricing_plan_id":"cebpf4jnsgd1na2vs0mg"},{"bike_id":"c1f8fd95-7047-428b-8805-d2bc5bdc3363","system_id":"levelo_inurba_marseille","lat":43.3303,"lon":5.39035,"is_reserved":false,"is_disabled":false,"rental_uris":{"android":"levelo://app?vid=c1f8fd95-7047-428b-8805-d2bc5bdc3363","ios":"levelo://app?vid=c1f8fd95-7047-428b-8805-d2bc5bdc3363"},"vehicle_type_id":"4","last_reported":1727816925,"current_range_meters":37600,"station_id":"ce4bhr92rcd13ifvqhrg","pricing_plan_id":"cebpf4jnsgd1na2vs0mg"},{"bike_id":"590a8d58-4170-45bf-9ac5-837bd3ff5b81","system_id":"levelo_inurba_marseille","lat":43.2707,"lon":5.42273,"is_reserved":false,"is_disabled":false,"rental_uris":{"android":"levelo://app?vid=590a8d58-4170-45bf-9ac5-837bd3ff5b81","ios":"levelo://app?vid=590a8d58-4170-45bf-9ac5-837bd3ff5b81"},"vehicle_type_id":"4","last_reported":1727816925,"current_range_meters":26000,"station_id":"ce4bhk92rcd13ifvqgb0","pricing_plan_id":"cebpf4jnsgd1na2vs0mg"},{"bike_id":"a814215c-f3f0-4b2e-be81-e83f4e5a2fd2","system_id":"levelo_inurba_marseille","lat":43.24073,"lon":5.37763,"is_reserved":false,"is_disabled":false,"rental_uris":{"android":"levelo://app?vid=a814215c-f3f0-4b2e-be81-e83f4e5a2fd2","ios":"levelo://app?vid=a814215c-f3f0-4b2e-be81-e83f4e5a2fd2"},"vehicle_type_id":"4","last_reported":1727816925,"current_range_meters":35600,"station_id":"ce4bhnp2rcd13ifvqgvg","pricing_plan_id":"cebpf4jnsgd1na2vs0mg"},{"bike_id":"83e07b7c-5a31-4eac-92e4-4f0fe5973f81","system_id":"levelo_inurba_marseille","lat":43.246516,"lon":5.389026,"is_reserved":false,"is_disabled":false,"rental_uris":{"android":"levelo://app?vid=83e07b7c-5a31-4eac-92e4-4f0fe5973f81","ios":"levelo://app?vid=83e07b7c-5a31-4eac-92e4-4f0fe5973f81"},"vehicle_type_id":"4","last_reported":1727816925,"current_range_meters":14800,"station_id":"ce4bhg12rcd13ifvqf60","pricing_plan_id":"cebpf4jnsgd1na2vs0mg"},{"bike_id":"eed7e329-6797-484d-911e-085f4531d31b","system_id":"levelo_inurba_marseille","lat":43.25589,"lon":5.38239,"is_reserved":false,"is_disabled":false,"rental_uris":{"android":"levelo://app?vid=eed7e329-6797-484d-911e-085f4531d31b","ios":"levelo://app?vid=eed7e329-6797-484d-911e-085f4531d31b"},"vehicle_type_id":"4","last_reported":1727816925,"current_range_meters":8800,"station_id":"ce4bhih2rcd13ifvqfs0","pricing_plan_id":"cebpf4jnsgd1na2vs0mg"},{"bike_id":"1a3ec3a1-7767-4940-a140-a358655f8458","system_id":"levelo_inurba_marseille","lat":43.29552,"lon":5.42273,"is_reserved":false,"is_disabled":false,"rental_uris":{"android":"levelo://app?vid=1a3ec3a1-7767-4940-a140-a358655f8458","ios":"levelo://app?vid=1a3ec3a1-7767-4940-a140-a358655f8458"},"vehicle_type_id":"4","last_reported":1727816925,"current_range_meters":37600,"station_id":"ce4bhph2rcd13ifvqhdg","pricing_plan_id":"cebpf4jnsgd1na2vs0mg"},{"bike_id":"93f04ffb-9b3b-4e31-8816-cc0d96bf80d4","system_id":"levelo_inurba_marseille","lat":43.23976,"lon":5.36629,"is_reserved":false,"is_disabled":false,"rental_uris":{"android":"levelo://app?vid=93f04ffb-9b3b-4e31-8816-cc0d96bf80d4","ios":"levelo://app?vid=93f04ffb-9b3b-4e31-8816-cc0d96bf80d4"},"vehicle_type_id":"4","last_reported":1727816925,"current_range_meters":33200,"station_id":"ce4bhi12rcd13ifvqfp0","pricing_plan_id":"cebpf4jnsgd1na2vs0mg"},{"bike_id":"acec0df2-76a5-4e08-bd34-e0b2de725b1b","system_id":"levelo_inurba_marseille","lat":43.28413,"lon":5.37519,"is_reserved":false,"is_disabled":false,"rental_uris":{"android":"levelo://app?vid=acec0df2-76a5-4e08-bd34-e0b2de725b1b","ios":"levelo://app?vid=acec0df2-76a5-4e08-bd34-e0b2de725b1b"},"vehicle_type_id":"4","last_reported":1727816925,"current_range_meters":16400,"station_id":"ce4bh412rcd13ifvqds0","pricing_plan_id":"cebpf4jnsgd1na2vs0mg"},{"bike_id":"09ae8c03-4961-49ed-b29a-bf4a8ba84722","system_id":"levelo_inurba_marseille","lat":43.25109,"lon":5.40339,"is_reserved":false,"is_disabled":false,"rental_uris":{"android":"levelo://app?vid=09ae8c03-4961-49ed-b29a-bf4a8ba84722","ios":"levelo://app?vid=09ae8c03-4961-49ed-b29a-bf4a8ba84722"},"vehicle_type_id":"4","last_reported":1727816925,"current_range_meters":6000,"station_id":"ce4bhlh2rcd13ifvqgig","pricing_plan_id":"cebpf4jnsgd1na2vs0mg"},{"bike_id":"3d107f9a-8ace-4686-b421-7aac96a91c78","system_id":"levelo_inurba_marseille","lat":43.284781,"lon":5.385744,"is_reserved":false,"is_disabled":false,"rental_uris":{"android":"levelo://app?vid=3d107f9a-8ace-4686-b421-7aac96a91c78","ios":"levelo://app?vid=3d107f9a-8ace-4686-b421-7aac96a91c78"},"vehicle_type_id":"4","last_reported":1727816925,"current_range_meters":9600,"station_id":"ce4bh8p2rcd13ifvqeb0","pricing_plan_id":"cebpf4jnsgd1na2vs0mg"},{"bike_id":"7344032b-ea9b-412c-a003-5a86ebc7ff71","system_id":"levelo_inurba_marseille","lat":43.24091,"lon":5.37754,"is_reserved":false,"is_disabled":false,"rental_uris":{"android":"levelo://app?vid=7344032b-ea9b-412c-a003-5a86ebc7ff71","ios":"levelo://app?vid=7344032b-ea9b-412c-a003-5a86ebc7ff71"},"vehicle_type_id":"4","last_reported":1727816925,"current_range_meters":15200,"station_id":"ce4bhnp2rcd13ifvqgvg","pricing_plan_id":"cebpf4jnsgd1na2vs0mg"},{"bike_id":"f139bc38-1ba2-4d42-a550-2a060e4202e5","system_id":"levelo_inurba_marseille","lat":43.27815,"lon":5.40715,"is_reserved":false,"is_disabled":false,"rental_uris":{"android":"levelo://app?vid=f139bc38-1ba2-4d42-a550-2a060e4202e5","ios":"levelo://app?vid=f139bc38-1ba2-4d42-a550-2a060e4202e5"},"vehicle_type_id":"4","last_reported":1727816925,"current_range_meters":39200,"station_id":"ce4bhnh2rcd13ifvqgtg","pricing_plan_id":"cebpf4jnsgd1na2vs0mg"},{"bike_id":"2a62678b-7307-4fb5-9cbc-d335087ba1ad","system_id":"levelo_inurba_marseille","lat":43.2844,"lon":5.39184,"is_reserved":false,"is_disabled":false,"rental_uris":{"android":"levelo://app?vid=2a62678b-7307-4fb5-9cbc-d335087ba1ad","ios":"levelo://app?vid=2a62678b-7307-4fb5-9cbc-d335087ba1ad"},"vehicle_type_id":"4","last_reported":1727816925,"current_range_meters":6800,"station_id":"ce4bhoh2rcd13ifvqh5g","pricing_plan_id":"cebpf4jnsgd1na2vs0mg"},{"bike_id":"fb54197c-bcfe-4fae-91f5-5917564b6317","system_id":"levelo_inurba_marseille","lat":43.30895,"lon":5.39648,"is_reserved":false,"is_disabled":false,"rental_uris":{"android":"levelo://app?vid=fb54197c-bcfe-4fae-91f5-5917564b6317","ios":"levelo://app?vid=fb54197c-bcfe-4fae-91f5-5917564b6317"},"vehicle_type_id":"4","last_reported":1727816925,"current_range_meters":16800,"station_id":"ce4bh012rcd13ifvqcv0","pricing_plan_id":"cebpf4jnsgd1na2vs0mg"},{"bike_id":"42192154-4da7-4f6f-b30d-139dbc01a9e6","system_id":"levelo_inurba_marseille","lat":43.29165,"lon":5.37164,"is_reserved":false,"is_disabled":false,"rental_uris":{"android":"levelo://app?vid=42192154-4da7-4f6f-b30d-139dbc01a9e6","ios":"levelo://app?vid=42192154-4da7-4f6f-b30d-139dbc01a9e6"},"vehicle_type_id":"4","last_reported":1727816925,"current_range_meters":11600,"station_id":"ce4bha92rcd13ifvqeh0","pricing_plan_id":"cebpf4jnsgd1na2vs0mg"},{"bike_id":"1e84daf4-1a98-40c4-9cf2-6fabdc622846","system_id":"levelo_inurba_marseille","lat":43.31177,"lon":5.38718,"is_reserved":false,"is_disabled":false,"rental_uris":{"android":"levelo://app?vid=1e84daf4-1a98-40c4-9cf2-6fabdc622846","ios":"levelo://app?vid=1e84daf4-1a98-40c4-9cf2-6fabdc622846"},"vehicle_type_id":"4","last_reported":1727816925,"current_range_meters":38000,"station_id":"ce4bgv12rcd13ifvqcp0","pricing_plan_id":"cebpf4jnsgd1na2vs0mg"},{"bike_id":"bcd3d28a-ea65-4172-8f36-03236c255f65","system_id":"levelo_inurba_marseille","lat":43.30329,"lon":5.40438,"is_reserved":false,"is_disabled":false,"rental_uris":{"android":"levelo://app?vid=bcd3d28a-ea65-4172-8f36-03236c255f65","ios":"levelo://app?vid=bcd3d28a-ea65-4172-8f36-03236c255f65"},"vehicle_type_id":"4","last_reported":1727816925,"current_range_meters":38800,"station_id":"ce4bh012rcd13ifvqd10","pricing_plan_id":"cebpf4jnsgd1na2vs0mg"},{"bike_id":"a4224d16-b792-43d4-bccc-ee1385fa6dad","system_id":"levelo_inurba_marseille","lat":43.32551,"lon":5.41444,"is_reserved":false,"is_disabled":false,"rental_uris":{"android":"levelo://app?vid=a4224d16-b792-43d4-bccc-ee1385fa6dad","ios":"levelo://app?vid=a4224d16-b792-43d4-bccc-ee1385fa6dad"},"vehicle_type_id":"4","last_reported":1727816925,"current_range_meters":20000,"station_id":"ce4bhq12rcd13ifvqhhg","pricing_plan_id":"cebpf4jnsgd1na2vs0mg"},{"bike_id":"9ea65383-a0de-4a50-8614-6075feadc120","system_id":"levelo_inurba_marseille","lat":43.31324,"lon":5.39692,"is_reserved":false,"is_disabled":false,"rental_uris":{"android":"levelo://app?vid=9ea65383-a0de-4a50-8614-6075feadc120","ios":"levelo://app?vid=9ea65383-a0de-4a50-8614-6075feadc120"},"vehicle_type_id":"4","last_reported":1727816925,"current_range_meters":36400,"station_id":"ce4bgvp2rcd13ifvqcu0","pricing_plan_id":"cebpf4jnsgd1na2vs0mg"},{"bike_id":"e4da1860-dbbe-45a3-a6fe-897786fa274b","system_id":"levelo_inurba_marseille","lat":43.28451,"lon":5.392,"is_reserved":false,"is_disabled":false,"rental_uris":{"android":"levelo://app?vid=e4da1860-dbbe-45a3-a6fe-897786fa274b","ios":"levelo://app?vid=e4da1860-dbbe-45a3-a6fe-897786fa274b"},"vehicle_type_id":"4","last_reported":1727816925,"current_range_meters":38000,"station_id":"ce4bhoh2rcd13ifvqh5g","pricing_plan_id":"cebpf4jnsgd1na2vs0mg"},{"bike_id":"f30c6e29-7174-4c5b-ae4f-59ab9ac73532","system_id":"levelo_inurba_marseille","lat":43.31221,"lon":5.36843,"is_reserved":false,"is_disabled":false,"rental_uris":{"android":"levelo://app?vid=f30c6e29-7174-4c5b-ae4f-59ab9ac73532","ios":"levelo://app?vid=f30c6e29-7174-4c5b-ae4f-59ab9ac73532"},"vehicle_type_id":"4","last_reported":1727816925,"current_range_meters":14800,"station_id":"ce4bgl92rcd13ifvqbq0","pricing_plan_id":"cebpf4jnsgd1na2vs0mg"},{"bike_id":"43c1e5a4-b8d0-43e7-82b5-8d7b9ca74bff","system_id":"levelo_inurba_marseille","lat":43.31359,"lon":5.38495,"is_reserved":false,"is_disabled":false,"rental_uris":{"android":"levelo://app?vid=43c1e5a4-b8d0-43e7-82b5-8d7b9ca74bff","ios":"levelo://app?vid=43c1e5a4-b8d0-43e7-82b5-8d7b9ca74bff"},"vehicle_type_id":"4","last_reported":1727816925,"current_range_meters":23200,"station_id":"ce4bgt92rcd13ifvqcf0","pricing_plan_id":"cebpf4jnsgd1na2vs0mg"},{"bike_id":"7e76f61d-1104-460b-895f-03b2abf7da39","system_id":"levelo_inurba_marseille","lat":43.24076,"lon":5.37754,"is_reserved":false,"is_disabled":false,"rental_uris":{"android":"levelo://app?vid=7e76f61d-1104-460b-895f-03b2abf7da39","ios":"levelo://app?vid=7e76f61d-1104-460b-895f-03b2abf7da39"},"vehicle_type_id":"4","last_reported":1727816925,"current_range_meters":16000,"station_id":"ce4bhnp2rcd13ifvqgvg","pricing_plan_id":"cebpf4jnsgd1na2vs0mg"},{"bike_id":"857a4f54-b09e-427f-89a4-f8ebb75f9e7f","system_id":"levelo_inurba_marseille","lat":43.3089,"lon":5.39638,"is_reserved":false,"is_disabled":false,"rental_uris":{"android":"levelo://app?vid=857a4f54-b09e-427f-89a4-f8ebb75f9e7f","ios":"levelo://app?vid=857a4f54-b09e-427f-89a4-f8ebb75f9e7f"},"vehicle_type_id":"4","last_reported":1727816925,"current_range_meters":38000,"station_id":"ce4bh012rcd13ifvqcv0","pricing_plan_id":"cebpf4jnsgd1na2vs0mg"},{"bike_id":"c32d92b6-7ce5-4d09-bf38-7781f66ad1d1","system_id":"levelo_inurba_marseille","lat":43.25718,"lon":5.41114,"is_reserved":false,"is_disabled":false,"rental_uris":{"android":"levelo://app?vid=c32d92b6-7ce5-4d09-bf38-7781f66ad1d1","ios":"levelo://app?vid=c32d92b6-7ce5-4d09-bf38-7781f66ad1d1"},"vehicle_type_id":"4","last_reported":1727816925,"current_range_meters":8000,"station_id":"ce4bhkp2rcd13ifvqgd0","pricing_plan_id":"cebpf4jnsgd1na2vs0mg"},{"bike_id":"259eaa39-41cd-49da-afdf-9b857b269a04","system_id":"levelo_inurba_marseille","lat":43.31075,"lon":5.38353,"is_reserved":false,"is_disabled":false,"rental_uris":{"android":"levelo://app?vid=259eaa39-41cd-49da-afdf-9b857b269a04","ios":"levelo://app?vid=259eaa39-41cd-49da-afdf-9b857b269a04"},"vehicle_type_id":"4","last_reported":1727816925,"current_range_meters":38800,"station_id":"ce4bgv92rcd13ifvqcr0","pricing_plan_id":"cebpf4jnsgd1na2vs0mg"},{"bike_id":"e24c17eb-50c5-4f74-8372-e38785c54118","system_id":"levelo_inurba_marseille","lat":43.33028,"lon":5.39047,"is_reserved":false,"is_disabled":false,"rental_uris":{"android":"levelo://app?vid=e24c17eb-50c5-4f74-8372-e38785c54118","ios":"levelo://app?vid=e24c17eb-50c5-4f74-8372-e38785c54118"},"vehicle_type_id":"4","last_reported":1727816925,"current_range_meters":20400,"station_id":"ce4bhr92rcd13ifvqhrg","pricing_plan_id":"cebpf4jnsgd1na2vs0mg"},{"bike_id":"d8aca88c-2b37-438e-a894-303d677e2f8e","system_id":"levelo_inurba_marseille","lat":43.30786,"lon":5.37651,"is_reserved":false,"is_disabled":false,"rental_uris":{"android":"levelo://app?vid=d8aca88c-2b37-438e-a894-303d677e2f8e","ios":"levelo://app?vid=d8aca88c-2b37-438e-a894-303d677e2f8e"},"vehicle_type_id":"4","last_reported":1727816925,"current_range_meters":8800,"station_id":"ce4bgv92rcd13ifvqcq0","pricing_plan_id":"cebpf4jnsgd1na2vs0mg"},{"bike_id":"e33f8a79-4b8f-428d-917a-d0abba2a4c62","system_id":"levelo_inurba_marseille","lat":43.31692,"lon":5.40464,"is_reserved":false,"is_disabled":false,"rental_uris":{"android":"levelo://app?vid=e33f8a79-4b8f-428d-917a-d0abba2a4c62","ios":"levelo://app?vid=e33f8a79-4b8f-428d-917a-d0abba2a4c62"},"vehicle_type_id":"4","last_reported":1727816925,"current_range_meters":32400,"station_id":"ce4bh012rcd13ifvqd00","pricing_plan_id":"cebpf4jnsgd1na2vs0mg"},{"bike_id":"81750190-39ad-463e-969c-0a74da3c78de","system_id":"levelo_inurba_marseille","lat":43.29256,"lon":5.40922,"is_reserved":false,"is_disabled":false,"rental_uris":{"android":"levelo://app?vid=81750190-39ad-463e-969c-0a74da3c78de","ios":"levelo://app?vid=81750190-39ad-463e-969c-0a74da3c78de"},"vehicle_type_id":"4","last_reported":1727816925,"current_range_meters":8800,"station_id":"ce4bh192rcd13ifvqdc0","pricing_plan_id":"cebpf4jnsgd1na2vs0mg"},{"bike_id":"1fbe0a1f-a531-4fd1-908d-5fc9cbf24982","system_id":"levelo_inurba_marseille","lat":43.29604,"lon":5.38102,"is_reserved":false,"is_disabled":false,"rental_uris":{"android":"levelo://app?vid=1fbe0a1f-a531-4fd1-908d-5fc9cbf24982","ios":"levelo://app?vid=1fbe0a1f-a531-4fd1-908d-5fc9cbf24982"},"vehicle_type_id":"4","last_reported":1727816925,"current_range_meters":30800,"station_id":"ce4bgl12rcd13ifvqbo0","pricing_plan_id":"cebpf4jnsgd1na2vs0mg"},{"bike_id":"2980cbd1-864f-4c15-a4a9-c2b79523868d","system_id":"levelo_inurba_marseille","lat":43.28482,"lon":5.38414,"is_reserved":false,"is_disabled":false,"rental_uris":{"android":"levelo://app?vid=2980cbd1-864f-4c15-a4a9-c2b79523868d","ios":"levelo://app?vid=2980cbd1-864f-4c15-a4a9-c2b79523868d"},"vehicle_type_id":"4","last_reported":1727816925,"current_range_meters":28800,"station_id":"ce4bh512rcd13ifvqe3g","pricing_plan_id":"cebpf4jnsgd1na2vs0mg"},{"bike_id":"cc348d5e-b637-44b1-84a4-6c92ec751a0c","system_id":"levelo_inurba_marseille","lat":43.31167,"lon":5.38712,"is_reserved":false,"is_disabled":false,"rental_uris":{"android":"levelo://app?vid=cc348d5e-b637-44b1-84a4-6c92ec751a0c","ios":"levelo://app?vid=cc348d5e-b637-44b1-84a4-6c92ec751a0c"},"vehicle_type_id":"4","last_reported":1727816925,"current_range_meters":31200,"station_id":"ce4bgv12rcd13ifvqcp0","pricing_plan_id":"cebpf4jnsgd1na2vs0mg"},{"bike_id":"6f145e4b-a2f1-447b-ae74-c4e533f7e679","system_id":"levelo_inurba_marseille","lat":43.32662,"lon":5.40987,"is_reserved":false,"is_disabled":false,"rental_uris":{"android":"levelo://app?vid=6f145e4b-a2f1-447b-ae74-c4e533f7e679","ios":"levelo://app?vid=6f145e4b-a2f1-447b-ae74-c4e533f7e679"},"vehicle_type_id":"4","last_reported":1727816925,"current_range_meters":38800,"station_id":"ce4bhpp2rcd13ifvqhgg","pricing_plan_id":"cebpf4jnsgd1na2vs0mg"},{"bike_id":"8884666a-6177-4a7b-b0cb-8adad2eb0450","system_id":"levelo_inurba_marseille","lat":43.30607,"lon":5.37226,"is_reserved":false,"is_disabled":false,"rental_uris":{"android":"levelo://app?vid=8884666a-6177-4a7b-b0cb-8adad2eb0450","ios":"levelo://app?vid=8884666a-6177-4a7b-b0cb-8adad2eb0450"},"vehicle_type_id":"4","last_reported":1727816925,"current_range_meters":38800,"station_id":"ce4bgqh2rcd13ifvqc4g","pricing_plan_id":"cebpf4jnsgd1na2vs0mg"},{"bike_id":"d616de3c-fdcc-449b-aaab-950f4c46fdd3","system_id":"levelo_inurba_marseille","lat":43.3211,"lon":5.3677,"is_reserved":false,"is_disabled":false,"rental_uris":{"android":"levelo://app?vid=d616de3c-fdcc-449b-aaab-950f4c46fdd3","ios":"levelo://app?vid=d616de3c-fdcc-449b-aaab-950f4c46fdd3"},"vehicle_type_id":"4","last_reported":1727816925,"current_range_meters":11600,"station_id":"ce4bhrh2rcd13ifvqhug","pricing_plan_id":"cebpf4jnsgd1na2vs0mg"},{"bike_id":"e120433e-e781-4ebb-876d-c324d1229f23","system_id":"levelo_inurba_marseille","lat":43.29285,"lon":5.40128,"is_reserved":false,"is_disabled":false,"rental_uris":{"android":"levelo://app?vid=e120433e-e781-4ebb-876d-c324d1229f23","ios":"levelo://app?vid=e120433e-e781-4ebb-876d-c324d1229f23"},"vehicle_type_id":"4","last_reported":1727816925,"current_range_meters":27200,"station_id":"ce4bh312rcd13ifvqdk0","pricing_plan_id":"cebpf4jnsgd1na2vs0mg"},{"bike_id":"7591ea0b-abb3-40af-b0ae-8e51bed0d8b4","system_id":"levelo_inurba_marseille","lat":43.29812,"lon":5.38103,"is_reserved":false,"is_disabled":false,"rental_uris":{"android":"levelo://app?vid=7591ea0b-abb3-40af-b0ae-8e51bed0d8b4","ios":"levelo://app?vid=7591ea0b-abb3-40af-b0ae-8e51bed0d8b4"},"vehicle_type_id":"4","last_reported":1727816925,"current_range_meters":38800,"station_id":"ce4bgip2rcd13ifvqbb0","pricing_plan_id":"cebpf4jnsgd1na2vs0mg"},{"bike_id":"196d312b-4c3a-4864-9b4b-d156fba48afb","system_id":"levelo_inurba_marseille","lat":43.279144,"lon":5.383233,"is_reserved":false,"is_disabled":false,"rental_uris":{"android":"levelo://app?vid=196d312b-4c3a-4864-9b4b-d156fba48afb","ios":"levelo://app?vid=196d312b-4c3a-4864-9b4b-d156fba48afb"},"vehicle_type_id":"4","last_reported":1727816925,"current_range_meters":31200,"station_id":"ce4bh0h2rcd13ifvqd50","pricing_plan_id":"cebpf4jnsgd1na2vs0mg"},{"bike_id":"c3bd477f-1cfd-4699-95b7-bd853a8e55cb","system_id":"levelo_inurba_marseille","lat":43.313418,"lon":5.397081,"is_reserved":false,"is_disabled":false,"rental_uris":{"android":"levelo://app?vid=c3bd477f-1cfd-4699-95b7-bd853a8e55cb","ios":"levelo://app?vid=c3bd477f-1cfd-4699-95b7-bd853a8e55cb"},"vehicle_type_id":"4","last_reported":1727816925,"current_range_meters":38800,"station_id":"ce4bgvp2rcd13ifvqcu0","pricing_plan_id":"cebpf4jnsgd1na2vs0mg"},{"bike_id":"d9935980-1a1e-417b-9dde-bc0953e2ec18","system_id":"levelo_inurba_marseille","lat":43.26205,"lon":5.37934,"is_reserved":false,"is_disabled":false,"rental_uris":{"android":"levelo://app?vid=d9935980-1a1e-417b-9dde-bc0953e2ec18","ios":"levelo://app?vid=d9935980-1a1e-417b-9dde-bc0953e2ec18"},"vehicle_type_id":"4","last_reported":1727816925,"current_range_meters":33200,"station_id":"ce4bhjp2rcd13ifvqg90","pricing_plan_id":"cebpf4jnsgd1na2vs0mg"},{"bike_id":"e61b0e2b-f600-47ed-a252-8caf712f924c","system_id":"levelo_inurba_marseille","lat":43.2456,"lon":5.39527,"is_reserved":false,"is_disabled":false,"rental_uris":{"android":"levelo://app?vid=e61b0e2b-f600-47ed-a252-8caf712f924c","ios":"levelo://app?vid=e61b0e2b-f600-47ed-a252-8caf712f924c"},"vehicle_type_id":"4","last_reported":1727816925,"current_range_meters":22000,"station_id":"ce4bhlp2rcd13ifvqgjg","pricing_plan_id":"cebpf4jnsgd1na2vs0mg"},{"bike_id":"736bcb89-3fa5-4423-83ab-c46b1faa6d18","system_id":"levelo_inurba_marseille","lat":43.34499,"lon":5.41635,"is_reserved":false,"is_disabled":false,"rental_uris":{"android":"levelo://app?vid=736bcb89-3fa5-4423-83ab-c46b1faa6d18","ios":"levelo://app?vid=736bcb89-3fa5-4423-83ab-c46b1faa6d18"},"vehicle_type_id":"4","last_reported":1727816925,"current_range_meters":8400,"station_id":"","pricing_plan_id":"cebpf4jnsgd1na2vs0mg"},{"bike_id":"c87cbcf6-5323-4613-b4d0-9266fc83505c","system_id":"levelo_inurba_marseille","lat":43.2781,"lon":5.40732,"is_reserved":false,"is_disabled":false,"rental_uris":{"android":"levelo://app?vid=c87cbcf6-5323-4613-b4d0-9266fc83505c","ios":"levelo://app?vid=c87cbcf6-5323-4613-b4d0-9266fc83505c"},"vehicle_type_id":"4","last_reported":1727816925,"current_range_meters":18000,"station_id":"ce4bhnh2rcd13ifvqgtg","pricing_plan_id":"cebpf4jnsgd1na2vs0mg"},{"bike_id":"6ea05692-adf3-408b-868f-40336bbd4929","system_id":"levelo_inurba_marseille","lat":43.29204,"lon":5.39321,"is_reserved":false,"is_disabled":false,"rental_uris":{"android":"levelo://app?vid=6ea05692-adf3-408b-868f-40336bbd4929","ios":"levelo://app?vid=6ea05692-adf3-408b-868f-40336bbd4929"},"vehicle_type_id":"4","last_reported":1727816925,"current_range_meters":16400,"station_id":"ce4bh192rcd13ifvqdd0","pricing_plan_id":"cebpf4jnsgd1na2vs0mg"},{"bike_id":"b3b87ae3-cc69-4050-a286-c81c14552435","system_id":"levelo_inurba_marseille","lat":43.23968,"lon":5.36634,"is_reserved":false,"is_disabled":false,"rental_uris":{"android":"levelo://app?vid=b3b87ae3-cc69-4050-a286-c81c14552435","ios":"levelo://app?vid=b3b87ae3-cc69-4050-a286-c81c14552435"},"vehicle_type_id":"4","last_reported":1727816925,"current_range_meters":10000,"station_id":"ce4bhi12rcd13ifvqfp0","pricing_plan_id":"cebpf4jnsgd1na2vs0mg"},{"bike_id":"2cb0e818-0cd7-4b14-b3e2-a4fe86b5667b","system_id":"levelo_inurba_marseille","lat":43.27926,"lon":5.39586,"is_reserved":false,"is_disabled":false,"rental_uris":{"android":"levelo://app?vid=2cb0e818-0cd7-4b14-b3e2-a4fe86b5667b","ios":"levelo://app?vid=2cb0e818-0cd7-4b14-b3e2-a4fe86b5667b"},"vehicle_type_id":"4","last_reported":1727816925,"current_range_meters":38000,"station_id":"ce4bhf92rcd13ifvqf40","pricing_plan_id":"cebpf4jnsgd1na2vs0mg"},{"bike_id":"8e0ee0d6-72fa-4006-90aa-68211f78ca72","system_id":"levelo_inurba_marseille","lat":43.27823,"lon":5.40716,"is_reserved":false,"is_disabled":false,"rental_uris":{"android":"levelo://app?vid=8e0ee0d6-72fa-4006-90aa-68211f78ca72","ios":"levelo://app?vid=8e0ee0d6-72fa-4006-90aa-68211f78ca72"},"vehicle_type_id":"4","last_reported":1727816925,"current_range_meters":39200,"station_id":"ce4bhnh2rcd13ifvqgtg","pricing_plan_id":"cebpf4jnsgd1na2vs0mg"},{"bike_id":"609844d3-402e-4c83-8b7f-d2093120cb67","system_id":"levelo_inurba_marseille","lat":43.325365,"lon":5.414515,"is_reserved":false,"is_disabled":false,"rental_uris":{"android":"levelo://app?vid=609844d3-402e-4c83-8b7f-d2093120cb67","ios":"levelo://app?vid=609844d3-402e-4c83-8b7f-d2093120cb67"},"vehicle_type_id":"4","last_reported":1727816925,"current_range_meters":38000,"station_id":"ce4bhq12rcd13ifvqhhg","pricing_plan_id":"cebpf4jnsgd1na2vs0mg"},{"bike_id":"649b0ebd-72c1-4ccb-bdb5-0127394604e7","system_id":"levelo_inurba_marseille","lat":43.33619,"lon":5.41015,"is_reserved":false,"is_disabled":false,"rental_uris":{"android":"levelo://app?vid=649b0ebd-72c1-4ccb-bdb5-0127394604e7","ios":"levelo://app?vid=649b0ebd-72c1-4ccb-bdb5-0127394604e7"},"vehicle_type_id":"4","last_reported":1727816925,"current_range_meters":38800,"station_id":"ce4bhqh2rcd13ifvqhmg","pricing_plan_id":"cebpf4jnsgd1na2vs0mg"},{"bike_id":"918f31ac-5e35-42ae-929d-dd73ac1c0926","system_id":"levelo_inurba_marseille","lat":43.29971,"lon":5.38496,"is_reserved":false,"is_disabled":false,"rental_uris":{"android":"levelo://app?vid=918f31ac-5e35-42ae-929d-dd73ac1c0926","ios":"levelo://app?vid=918f31ac-5e35-42ae-929d-dd73ac1c0926"},"vehicle_type_id":"4","last_reported":1727816925,"current_range_meters":12000,"station_id":"ce4bgj92rcd13ifvqbd0","pricing_plan_id":"cebpf4jnsgd1na2vs0mg"},{"bike_id":"2efe889c-d7f9-441d-afae-d38011cb4d35","system_id":"levelo_inurba_marseille","lat":43.28457,"lon":5.35887,"is_reserved":false,"is_disabled":false,"rental_uris":{"android":"levelo://app?vid=2efe889c-d7f9-441d-afae-d38011cb4d35","ios":"levelo://app?vid=2efe889c-d7f9-441d-afae-d38011cb4d35"},"vehicle_type_id":"4","last_reported":1727816925,"current_range_meters":38800,"station_id":"ce4bhah2rcd13ifvqei0","pricing_plan_id":"cebpf4jnsgd1na2vs0mg"},{"bike_id":"badc5055-4aa9-4c97-9de0-29a63bf1dab8","system_id":"levelo_inurba_marseille","lat":43.31525,"lon":5.38032,"is_reserved":false,"is_disabled":false,"rental_uris":{"android":"levelo://app?vid=badc5055-4aa9-4c97-9de0-29a63bf1dab8","ios":"levelo://app?vid=badc5055-4aa9-4c97-9de0-29a63bf1dab8"},"vehicle_type_id":"4","last_reported":1727816925,"current_range_meters":26800,"station_id":"ce4bhsp2rcd13ifvqi50","pricing_plan_id":"cebpf4jnsgd1na2vs0mg"},{"bike_id":"cc4d67ad-30d6-4ec4-9225-0aea9258758d","system_id":"levelo_inurba_marseille","lat":43.29197,"lon":5.35807,"is_reserved":false,"is_disabled":false,"rental_uris":{"android":"levelo://app?vid=cc4d67ad-30d6-4ec4-9225-0aea9258758d","ios":"levelo://app?vid=cc4d67ad-30d6-4ec4-9225-0aea9258758d"},"vehicle_type_id":"4","last_reported":1727816925,"current_range_meters":35200,"station_id":"ce4bhb12rcd13ifvqel0","pricing_plan_id":"cebpf4jnsgd1na2vs0mg"},{"bike_id":"c0930808-f56f-44c0-832d-f564381e4521","system_id":"levelo_inurba_marseille","lat":43.27846,"lon":5.40718,"is_reserved":false,"is_disabled":false,"rental_uris":{"android":"levelo://app?vid=c0930808-f56f-44c0-832d-f564381e4521","ios":"levelo://app?vid=c0930808-f56f-44c0-832d-f564381e4521"},"vehicle_type_id":"4","last_reported":1727816925,"current_range_meters":38800,"station_id":"ce4bhnh2rcd13ifvqgtg","pricing_plan_id":"cebpf4jnsgd1na2vs0mg"},{"bike_id":"a6c37045-26fb-40d6-ae77-b2591c2f9179","system_id":"levelo_inurba_marseille","lat":43.29369,"lon":5.37849,"is_reserved":false,"is_disabled":false,"rental_uris":{"android":"levelo://app?vid=a6c37045-26fb-40d6-ae77-b2591c2f9179","ios":"levelo://app?vid=a6c37045-26fb-40d6-ae77-b2591c2f9179"},"vehicle_type_id":"4","last_reported":1727816925,"current_range_meters":24800,"station_id":"ce4bgjh2rcd13ifvqbf0","pricing_plan_id":"cebpf4jnsgd1na2vs0mg"},{"bike_id":"6c05f302-12d0-4100-b4f1-ff2bc6f80530","system_id":"levelo_inurba_marseille","lat":43.30599,"lon":5.37219,"is_reserved":false,"is_disabled":false,"rental_uris":{"android":"levelo://app?vid=6c05f302-12d0-4100-b4f1-ff2bc6f80530","ios":"levelo://app?vid=6c05f302-12d0-4100-b4f1-ff2bc6f80530"},"vehicle_type_id":"4","last_reported":1727816925,"current_range_meters":10800,"station_id":"ce4bgqh2rcd13ifvqc4g","pricing_plan_id":"cebpf4jnsgd1na2vs0mg"},{"bike_id":"26d718c7-9f7d-4c2c-82a6-84e58e5afac1","system_id":"levelo_inurba_marseille","lat":43.24084,"lon":5.37747,"is_reserved":false,"is_disabled":false,"rental_uris":{"android":"levelo://app?vid=26d718c7-9f7d-4c2c-82a6-84e58e5afac1","ios":"levelo://app?vid=26d718c7-9f7d-4c2c-82a6-84e58e5afac1"},"vehicle_type_id":"4","last_reported":1727816925,"current_range_meters":12000,"station_id":"ce4bhnp2rcd13ifvqgvg","pricing_plan_id":"cebpf4jnsgd1na2vs0mg"},{"bike_id":"de1e7b09-ca4b-4b48-a3fd-23a534e7333f","system_id":"levelo_inurba_marseille","lat":43.31758,"lon":5.39019,"is_reserved":false,"is_disabled":false,"rental_uris":{"android":"levelo://app?vid=de1e7b09-ca4b-4b48-a3fd-23a534e7333f","ios":"levelo://app?vid=de1e7b09-ca4b-4b48-a3fd-23a534e7333f"},"vehicle_type_id":"4","last_reported":1727816925,"current_range_meters":38800,"station_id":"ce4bhqp2rcd13ifvqhng","pricing_plan_id":"cebpf4jnsgd1na2vs0mg"},{"bike_id":"d4ee366f-491d-4484-8ef6-3ee33462286b","system_id":"levelo_inurba_marseille","lat":43.30972,"lon":5.39006,"is_reserved":false,"is_disabled":false,"rental_uris":{"android":"levelo://app?vid=d4ee366f-491d-4484-8ef6-3ee33462286b","ios":"levelo://app?vid=d4ee366f-491d-4484-8ef6-3ee33462286b"},"vehicle_type_id":"4","last_reported":1727816925,"current_range_meters":17600,"station_id":"","pricing_plan_id":"cebpf4jnsgd1na2vs0mg"},{"bike_id":"9673fe2a-561b-4bb3-b217-4beb54e09d67","system_id":"levelo_inurba_marseille","lat":43.31111,"lon":5.377715,"is_reserved":false,"is_disabled":false,"rental_uris":{"android":"levelo://app?vid=9673fe2a-561b-4bb3-b217-4beb54e09d67","ios":"levelo://app?vid=9673fe2a-561b-4bb3-b217-4beb54e09d67"},"vehicle_type_id":"4","last_reported":1727816925,"current_range_meters":36800,"station_id":"ce4bgt92rcd13ifvqcg0","pricing_plan_id":"cebpf4jnsgd1na2vs0mg"},{"bike_id":"2ae79f09-d280-47e8-864e-c5ffdd4f6c88","system_id":"levelo_inurba_marseille","lat":43.28577,"lon":5.39495,"is_reserved":false,"is_disabled":false,"rental_uris":{"android":"levelo://app?vid=2ae79f09-d280-47e8-864e-c5ffdd4f6c88","ios":"levelo://app?vid=2ae79f09-d280-47e8-864e-c5ffdd4f6c88"},"vehicle_type_id":"4","last_reported":1727816925,"current_range_meters":25200,"station_id":"ce4bh292rcd13ifvqdg0","pricing_plan_id":"cebpf4jnsgd1na2vs0mg"},{"bike_id":"98796747-ed9b-4562-a96c-8ab785ac535f","system_id":"levelo_inurba_marseille","lat":43.31069,"lon":5.38353,"is_reserved":false,"is_disabled":false,"rental_uris":{"android":"levelo://app?vid=98796747-ed9b-4562-a96c-8ab785ac535f","ios":"levelo://app?vid=98796747-ed9b-4562-a96c-8ab785ac535f"},"vehicle_type_id":"4","last_reported":1727816925,"current_range_meters":27600,"station_id":"ce4bgv92rcd13ifvqcr0","pricing_plan_id":"cebpf4jnsgd1na2vs0mg"},{"bike_id":"ca903a14-a01e-4576-bbf8-bb497a06cc75","system_id":"levelo_inurba_marseille","lat":43.28663,"lon":5.36356,"is_reserved":false,"is_disabled":false,"rental_uris":{"android":"levelo://app?vid=ca903a14-a01e-4576-bbf8-bb497a06cc75","ios":"levelo://app?vid=ca903a14-a01e-4576-bbf8-bb497a06cc75"},"vehicle_type_id":"4","last_reported":1727816925,"current_range_meters":4000,"station_id":"ce4bhah2rcd13ifvqej0","pricing_plan_id":"cebpf4jnsgd1na2vs0mg"},{"bike_id":"31ce676b-4b5b-4ea4-99ad-85a0c9961324","system_id":"levelo_inurba_marseille","lat":43.28851,"lon":5.39312,"is_reserved":false,"is_disabled":false,"rental_uris":{"android":"levelo://app?vid=31ce676b-4b5b-4ea4-99ad-85a0c9961324","ios":"levelo://app?vid=31ce676b-4b5b-4ea4-99ad-85a0c9961324"},"vehicle_type_id":"4","last_reported":1727816925,"current_range_meters":17200,"station_id":"ce4bh2p2rcd13ifvqdi0","pricing_plan_id":"cebpf4jnsgd1na2vs0mg"},{"bike_id":"5fe35ec6-6769-47b1-bbc1-9656592de788","system_id":"levelo_inurba_marseille","lat":43.29423,"lon":5.38625,"is_reserved":false,"is_disabled":false,"rental_uris":{"android":"levelo://app?vid=5fe35ec6-6769-47b1-bbc1-9656592de788","ios":"levelo://app?vid=5fe35ec6-6769-47b1-bbc1-9656592de788"},"vehicle_type_id":"4","last_reported":1727816925,"current_range_meters":38400,"station_id":"ce4bh2h2rcd13ifvqdh0","pricing_plan_id":"cebpf4jnsgd1na2vs0mg"},{"bike_id":"e39cd6f1-548c-400d-9f96-bf8b0c294a2d","system_id":"levelo_inurba_marseille","lat":43.24084,"lon":5.37751,"is_reserved":false,"is_disabled":false,"rental_uris":{"android":"levelo://app?vid=e39cd6f1-548c-400d-9f96-bf8b0c294a2d","ios":"levelo://app?vid=e39cd6f1-548c-400d-9f96-bf8b0c294a2d"},"vehicle_type_id":"4","last_reported":1727816925,"current_range_meters":10800,"station_id":"ce4bhnp2rcd13ifvqgvg","pricing_plan_id":"cebpf4jnsgd1na2vs0mg"},{"bike_id":"fdea5bfa-15eb-4746-9162-46b5986608e3","system_id":"levelo_inurba_marseille","lat":43.27951,"lon":5.41041,"is_reserved":false,"is_disabled":false,"rental_uris":{"android":"levelo://app?vid=fdea5bfa-15eb-4746-9162-46b5986608e3","ios":"levelo://app?vid=fdea5bfa-15eb-4746-9162-46b5986608e3"},"vehicle_type_id":"4","last_reported":1727816925,"current_range_meters":38400,"station_id":"ce4bhnp2rcd13ifvqh0g","pricing_plan_id":"cebpf4jnsgd1na2vs0mg"},{"bike_id":"3baa6935-96c4-4261-90b6-046b87419675","system_id":"levelo_inurba_marseille","lat":43.31065,"lon":5.38352,"is_reserved":false,"is_disabled":false,"rental_uris":{"android":"levelo://app?vid=3baa6935-96c4-4261-90b6-046b87419675","ios":"levelo://app?vid=3baa6935-96c4-4261-90b6-046b87419675"},"vehicle_type_id":"4","last_reported":1727816925,"current_range_meters":38800,"station_id":"ce4bgv92rcd13ifvqcr0","pricing_plan_id":"cebpf4jnsgd1na2vs0mg"},{"bike_id":"97e51c0e-64f8-4ffc-97e9-8ff5d02f96b0","system_id":"levelo_inurba_marseille","lat":43.28709,"lon":5.39996,"is_reserved":false,"is_disabled":false,"rental_uris":{"android":"levelo://app?vid=97e51c0e-64f8-4ffc-97e9-8ff5d02f96b0","ios":"levelo://app?vid=97e51c0e-64f8-4ffc-97e9-8ff5d02f96b0"},"vehicle_type_id":"4","last_reported":1727816925,"current_range_meters":34800,"station_id":"ce4bho92rcd13ifvqh3g","pricing_plan_id":"cebpf4jnsgd1na2vs0mg"},{"bike_id":"f09c731c-5c02-47d4-ad6f-4b608712d763","system_id":"levelo_inurba_marseille","lat":43.27182,"lon":5.40991,"is_reserved":false,"is_disabled":false,"rental_uris":{"android":"levelo://app?vid=f09c731c-5c02-47d4-ad6f-4b608712d763","ios":"levelo://app?vid=f09c731c-5c02-47d4-ad6f-4b608712d763"},"vehicle_type_id":"4","last_reported":1727816925,"current_range_meters":26000,"station_id":"ce4bhl12rcd13ifvqgf0","pricing_plan_id":"cebpf4jnsgd1na2vs0mg"},{"bike_id":"276b07fa-11c6-4a63-818a-49ca8e97f509","system_id":"levelo_inurba_marseille","lat":43.2799,"lon":5.40012,"is_reserved":false,"is_disabled":false,"rental_uris":{"android":"levelo://app?vid=276b07fa-11c6-4a63-818a-49ca8e97f509","ios":"levelo://app?vid=276b07fa-11c6-4a63-818a-49ca8e97f509"},"vehicle_type_id":"4","last_reported":1727816925,"current_range_meters":24000,"station_id":"ce4bho92rcd13ifvqh4g","pricing_plan_id":"cebpf4jnsgd1na2vs0mg"},{"bike_id":"134a88fb-c4a2-4650-a0e7-749ffca99de4","system_id":"levelo_inurba_marseille","lat":43.27918,"lon":5.3956,"is_reserved":false,"is_disabled":false,"rental_uris":{"android":"levelo://app?vid=134a88fb-c4a2-4650-a0e7-749ffca99de4","ios":"levelo://app?vid=134a88fb-c4a2-4650-a0e7-749ffca99de4"},"vehicle_type_id":"4","last_reported":1727816925,"current_range_meters":38400,"station_id":"ce4bhf92rcd13ifvqf40","pricing_plan_id":"cebpf4jnsgd1na2vs0mg"},{"bike_id":"f8f518e3-bd48-40f5-801a-4ead88758ee2","system_id":"levelo_inurba_marseille","lat":43.32113,"lon":5.36771,"is_reserved":false,"is_disabled":false,"rental_uris":{"android":"levelo://app?vid=f8f518e3-bd48-40f5-801a-4ead88758ee2","ios":"levelo://app?vid=f8f518e3-bd48-40f5-801a-4ead88758ee2"},"vehicle_type_id":"4","last_reported":1727816925,"current_range_meters":12800,"station_id":"ce4bhrh2rcd13ifvqhug","pricing_plan_id":"cebpf4jnsgd1na2vs0mg"},{"bike_id":"825e540e-c347-466c-934f-a004f4db3118","system_id":"levelo_inurba_marseille","lat":43.289835,"lon":5.37831,"is_reserved":false,"is_disabled":false,"rental_uris":{"android":"levelo://app?vid=825e540e-c347-466c-934f-a004f4db3118","ios":"levelo://app?vid=825e540e-c347-466c-934f-a004f4db3118"},"vehicle_type_id":"4","last_reported":1727816925,"current_range_meters":36400,"station_id":"ce4bh492rcd13ifvqdug","pricing_plan_id":"cebpf4jnsgd1na2vs0mg"},{"bike_id":"ea93fcf4-b5e9-40c1-b370-a567f9b54856","system_id":"levelo_inurba_marseille","lat":43.28964,"lon":5.39704,"is_reserved":false,"is_disabled":false,"rental_uris":{"android":"levelo://app?vid=ea93fcf4-b5e9-40c1-b370-a567f9b54856","ios":"levelo://app?vid=ea93fcf4-b5e9-40c1-b370-a567f9b54856"},"vehicle_type_id":"4","last_reported":1727816925,"current_range_meters":32000,"station_id":"","pricing_plan_id":"cebpf4jnsgd1na2vs0mg"},{"bike_id":"d1fd22c9-724e-4047-974b-0b6e64659788","system_id":"levelo_inurba_marseille","lat":43.307734,"lon":5.376537,"is_reserved":false,"is_disabled":false,"rental_uris":{"android":"levelo://app?vid=d1fd22c9-724e-4047-974b-0b6e64659788","ios":"levelo://app?vid=d1fd22c9-724e-4047-974b-0b6e64659788"},"vehicle_type_id":"4","last_reported":1727816925,"current_range_meters":19200,"station_id":"ce4bgv92rcd13ifvqcq0","pricing_plan_id":"cebpf4jnsgd1na2vs0mg"},{"bike_id":"18f0ebb9-80ba-4131-b0ed-701fab87af48","system_id":"levelo_inurba_marseille","lat":43.3117,"lon":5.38704,"is_reserved":false,"is_disabled":false,"rental_uris":{"android":"levelo://app?vid=18f0ebb9-80ba-4131-b0ed-701fab87af48","ios":"levelo://app?vid=18f0ebb9-80ba-4131-b0ed-701fab87af48"},"vehicle_type_id":"4","last_reported":1727816925,"current_range_meters":38800,"station_id":"ce4bgv12rcd13ifvqcp0","pricing_plan_id":"cebpf4jnsgd1na2vs0mg"},{"bike_id":"ff0c3ffe-a45a-4d7c-a518-9099eb9d2e67","system_id":"levelo_inurba_marseille","lat":43.29253,"lon":5.40913,"is_reserved":false,"is_disabled":false,"rental_uris":{"android":"levelo://app?vid=ff0c3ffe-a45a-4d7c-a518-9099eb9d2e67","ios":"levelo://app?vid=ff0c3ffe-a45a-4d7c-a518-9099eb9d2e67"},"vehicle_type_id":"4","last_reported":1727816925,"current_range_meters":16800,"station_id":"ce4bh192rcd13ifvqdc0","pricing_plan_id":"cebpf4jnsgd1na2vs0mg"},{"bike_id":"bea7e37e-fa1e-4668-9960-2263c08217c3","system_id":"levelo_inurba_marseille","lat":43.28847,"lon":5.3931,"is_reserved":false,"is_disabled":false,"rental_uris":{"android":"levelo://app?vid=bea7e37e-fa1e-4668-9960-2263c08217c3","ios":"levelo://app?vid=bea7e37e-fa1e-4668-9960-2263c08217c3"},"vehicle_type_id":"4","last_reported":1727816925,"current_range_meters":36800,"station_id":"ce4bh2p2rcd13ifvqdi0","pricing_plan_id":"cebpf4jnsgd1na2vs0mg"},{"bike_id":"687558df-7ee9-4f8d-a7da-2f3f213ede0a","system_id":"levelo_inurba_marseille","lat":43.30244,"lon":5.40069,"is_reserved":false,"is_disabled":false,"rental_uris":{"android":"levelo://app?vid=687558df-7ee9-4f8d-a7da-2f3f213ede0a","ios":"levelo://app?vid=687558df-7ee9-4f8d-a7da-2f3f213ede0a"},"vehicle_type_id":"4","last_reported":1727816925,"current_range_meters":8000,"station_id":"ce4bgvh2rcd13ifvqcs0","pricing_plan_id":"cebpf4jnsgd1na2vs0mg"},{"bike_id":"c0726d95-92ce-4d02-ad3e-566e7d2b5f43","system_id":"levelo_inurba_marseille","lat":43.28104,"lon":5.37836,"is_reserved":false,"is_disabled":false,"rental_uris":{"android":"levelo://app?vid=c0726d95-92ce-4d02-ad3e-566e7d2b5f43","ios":"levelo://app?vid=c0726d95-92ce-4d02-ad3e-566e7d2b5f43"},"vehicle_type_id":"4","last_reported":1727816925,"current_range_meters":8400,"station_id":"ce4bha12rcd13ifvqee0","pricing_plan_id":"cebpf4jnsgd1na2vs0mg"},{"bike_id":"f0cde73e-7a23-4658-949c-057962d03ded","system_id":"levelo_inurba_marseille","lat":43.30541,"lon":5.3842,"is_reserved":false,"is_disabled":false,"rental_uris":{"android":"levelo://app?vid=f0cde73e-7a23-4658-949c-057962d03ded","ios":"levelo://app?vid=f0cde73e-7a23-4658-949c-057962d03ded"},"vehicle_type_id":"4","last_reported":1727816925,"current_range_meters":26000,"station_id":"ce4bgg92rcd13ifvqb30","pricing_plan_id":"cebpf4jnsgd1na2vs0mg"},{"bike_id":"dc03e946-be64-435d-a6e2-304d0c9f3ef5","system_id":"levelo_inurba_marseille","lat":43.31532,"lon":5.38031,"is_reserved":false,"is_disabled":false,"rental_uris":{"android":"levelo://app?vid=dc03e946-be64-435d-a6e2-304d0c9f3ef5","ios":"levelo://app?vid=dc03e946-be64-435d-a6e2-304d0c9f3ef5"},"vehicle_type_id":"4","last_reported":1727816925,"current_range_meters":39200,"station_id":"ce4bhsp2rcd13ifvqi50","pricing_plan_id":"cebpf4jnsgd1na2vs0mg"},{"bike_id":"17e5d5e0-335e-48e1-95ad-43afe7d21f6d","system_id":"levelo_inurba_marseille","lat":43.28933,"lon":5.36403,"is_reserved":false,"is_disabled":false,"rental_uris":{"android":"levelo://app?vid=17e5d5e0-335e-48e1-95ad-43afe7d21f6d","ios":"levelo://app?vid=17e5d5e0-335e-48e1-95ad-43afe7d21f6d"},"vehicle_type_id":"4","last_reported":1727816925,"current_range_meters":21600,"station_id":"ce4bhc92rcd13ifvqetg","pricing_plan_id":"cebpf4jnsgd1na2vs0mg"},{"bike_id":"d995d233-d2fe-4db9-b69b-baa1337469bf","system_id":"levelo_inurba_marseille","lat":43.26747,"lon":5.40249,"is_reserved":false,"is_disabled":false,"rental_uris":{"android":"levelo://app?vid=d995d233-d2fe-4db9-b69b-baa1337469bf","ios":"levelo://app?vid=d995d233-d2fe-4db9-b69b-baa1337469bf"},"vehicle_type_id":"4","last_reported":1727816925,"current_range_meters":12000,"station_id":"ce4bhm92rcd13ifvqglg","pricing_plan_id":"cebpf4jnsgd1na2vs0mg"},{"bike_id":"3ddf769c-c1f4-4c07-a643-d89d6207fa69","system_id":"levelo_inurba_marseille","lat":43.26685,"lon":5.3827,"is_reserved":false,"is_disabled":false,"rental_uris":{"android":"levelo://app?vid=3ddf769c-c1f4-4c07-a643-d89d6207fa69","ios":"levelo://app?vid=3ddf769c-c1f4-4c07-a643-d89d6207fa69"},"vehicle_type_id":"4","last_reported":1727816925,"current_range_meters":36400,"station_id":"ce4bhg92rcd13ifvqf90","pricing_plan_id":"cebpf4jnsgd1na2vs0mg"},{"bike_id":"9ae55583-61da-4955-afe0-934f7c2a6fdd","system_id":"levelo_inurba_marseille","lat":43.24652,"lon":5.389,"is_reserved":false,"is_disabled":false,"rental_uris":{"android":"levelo://app?vid=9ae55583-61da-4955-afe0-934f7c2a6fdd","ios":"levelo://app?vid=9ae55583-61da-4955-afe0-934f7c2a6fdd"},"vehicle_type_id":"4","last_reported":1727816925,"current_range_meters":39200,"station_id":"ce4bhg12rcd13ifvqf60","pricing_plan_id":"cebpf4jnsgd1na2vs0mg"},{"bike_id":"a8ed16c8-6bda-457e-bb60-4eabfdb421ad","system_id":"levelo_inurba_marseille","lat":43.29283,"lon":5.40117,"is_reserved":false,"is_disabled":false,"rental_uris":{"android":"levelo://app?vid=a8ed16c8-6bda-457e-bb60-4eabfdb421ad","ios":"levelo://app?vid=a8ed16c8-6bda-457e-bb60-4eabfdb421ad"},"vehicle_type_id":"4","last_reported":1727816925,"current_range_meters":20000,"station_id":"ce4bh312rcd13ifvqdk0","pricing_plan_id":"cebpf4jnsgd1na2vs0mg"},{"bike_id":"fdaf5d56-9664-4c7b-b6ff-6e3c2ee99d23","system_id":"levelo_inurba_marseille","lat":43.306417,"lon":5.400747,"is_reserved":false,"is_disabled":false,"rental_uris":{"android":"levelo://app?vid=fdaf5d56-9664-4c7b-b6ff-6e3c2ee99d23","ios":"levelo://app?vid=fdaf5d56-9664-4c7b-b6ff-6e3c2ee99d23"},"vehicle_type_id":"4","last_reported":1727816925,"current_range_meters":36400,"station_id":"ce4bh112rcd13ifvqda0","pricing_plan_id":"cebpf4jnsgd1na2vs0mg"},{"bike_id":"d4b171c0-5a57-42ef-84b8-c61382f739fb","system_id":"levelo_inurba_marseille","lat":43.30305,"lon":5.3921,"is_reserved":false,"is_disabled":false,"rental_uris":{"android":"levelo://app?vid=d4b171c0-5a57-42ef-84b8-c61382f739fb","ios":"levelo://app?vid=d4b171c0-5a57-42ef-84b8-c61382f739fb"},"vehicle_type_id":"4","last_reported":1727816925,"current_range_meters":39200,"station_id":"ce4bgkh2rcd13ifvqbk0","pricing_plan_id":"cebpf4jnsgd1na2vs0mg"},{"bike_id":"7c8e102b-8729-45dd-a2e0-c8af2fc278ec","system_id":"levelo_inurba_marseille","lat":43.25637,"lon":5.40036,"is_reserved":false,"is_disabled":false,"rental_uris":{"android":"levelo://app?vid=7c8e102b-8729-45dd-a2e0-c8af2fc278ec","ios":"levelo://app?vid=7c8e102b-8729-45dd-a2e0-c8af2fc278ec"},"vehicle_type_id":"4","last_reported":1727816925,"current_range_meters":6000,"station_id":"ce4bhlh2rcd13ifvqgig","pricing_plan_id":"cebpf4jnsgd1na2vs0mg"},{"bike_id":"f0daa2cd-46cc-4b5a-b08f-c36c76d727af","system_id":"levelo_inurba_marseille","lat":43.32291,"lon":5.38281,"is_reserved":false,"is_disabled":false,"rental_uris":{"android":"levelo://app?vid=f0daa2cd-46cc-4b5a-b08f-c36c76d727af","ios":"levelo://app?vid=f0daa2cd-46cc-4b5a-b08f-c36c76d727af"},"vehicle_type_id":"4","last_reported":1727816925,"current_range_meters":17600,"station_id":"ce4bhr12rcd13ifvqhqg","pricing_plan_id":"cebpf4jnsgd1na2vs0mg"},{"bike_id":"b652f429-09b8-4697-9c1b-3b9adc3c55d8","system_id":"levelo_inurba_marseille","lat":43.26871,"lon":5.39135,"is_reserved":false,"is_disabled":false,"rental_uris":{"android":"levelo://app?vid=b652f429-09b8-4697-9c1b-3b9adc3c55d8","ios":"levelo://app?vid=b652f429-09b8-4697-9c1b-3b9adc3c55d8"},"vehicle_type_id":"4","last_reported":1727816925,"current_range_meters":6000,"station_id":"","pricing_plan_id":"cebpf4jnsgd1na2vs0mg"},{"bike_id":"61a947e1-a421-40aa-a820-d6e19a6f0fe4","system_id":"levelo_inurba_marseille","lat":43.31725,"lon":5.42409,"is_reserved":false,"is_disabled":false,"rental_uris":{"android":"levelo://app?vid=61a947e1-a421-40aa-a820-d6e19a6f0fe4","ios":"levelo://app?vid=61a947e1-a421-40aa-a820-d6e19a6f0fe4"},"vehicle_type_id":"4","last_reported":1727816925,"current_range_meters":25600,"station_id":"ce4bhp92rcd13ifvqhbg","pricing_plan_id":"cebpf4jnsgd1na2vs0mg"},{"bike_id":"37623181-9101-4c73-bb6a-5aa8fec97674","system_id":"levelo_inurba_marseille","lat":43.28426,"lon":5.37519,"is_reserved":false,"is_disabled":false,"rental_uris":{"android":"levelo://app?vid=37623181-9101-4c73-bb6a-5aa8fec97674","ios":"levelo://app?vid=37623181-9101-4c73-bb6a-5aa8fec97674"},"vehicle_type_id":"4","last_reported":1727816925,"current_range_meters":9200,"station_id":"ce4bhah2rcd13ifvqei0","pricing_plan_id":"cebpf4jnsgd1na2vs0mg"},{"bike_id":"1cbb5b9f-27fd-4647-944e-96013dabaee7","system_id":"levelo_inurba_marseille","lat":43.31758,"lon":5.39009,"is_reserved":false,"is_disabled":false,"rental_uris":{"android":"levelo://app?vid=1cbb5b9f-27fd-4647-944e-96013dabaee7","ios":"levelo://app?vid=1cbb5b9f-27fd-4647-944e-96013dabaee7"},"vehicle_type_id":"4","last_reported":1727816925,"current_range_meters":38800,"station_id":"ce4bhqp2rcd13ifvqhng","pricing_plan_id":"cebpf4jnsgd1na2vs0mg"},{"bike_id":"cc334f47-266c-4194-bd67-059ec0658e9f","system_id":"levelo_inurba_marseille","lat":43.31274,"lon":5.40177,"is_reserved":false,"is_disabled":false,"rental_uris":{"android":"levelo://app?vid=cc334f47-266c-4194-bd67-059ec0658e9f","ios":"levelo://app?vid=cc334f47-266c-4194-bd67-059ec0658e9f"},"vehicle_type_id":"4","last_reported":1727816925,"current_range_meters":30400,"station_id":"ce4bh092rcd13ifvqd30","pricing_plan_id":"cebpf4jnsgd1na2vs0mg"},{"bike_id":"c63483ce-43a1-4857-920f-4864d962891e","system_id":"levelo_inurba_marseille","lat":43.31113,"lon":5.37761,"is_reserved":false,"is_disabled":false,"rental_uris":{"android":"levelo://app?vid=c63483ce-43a1-4857-920f-4864d962891e","ios":"levelo://app?vid=c63483ce-43a1-4857-920f-4864d962891e"},"vehicle_type_id":"4","last_reported":1727816925,"current_range_meters":38800,"station_id":"ce4bgt92rcd13ifvqcg0","pricing_plan_id":"cebpf4jnsgd1na2vs0mg"},{"bike_id":"fc9e99cc-979b-415a-9acc-5060ea04e9bc","system_id":"levelo_inurba_marseille","lat":43.295685,"lon":5.3756,"is_reserved":false,"is_disabled":false,"rental_uris":{"android":"levelo://app?vid=fc9e99cc-979b-415a-9acc-5060ea04e9bc","ios":"levelo://app?vid=fc9e99cc-979b-415a-9acc-5060ea04e9bc"},"vehicle_type_id":"4","last_reported":1727816925,"current_range_meters":30400,"station_id":"ce4bh312rcd13ifvqdj0","pricing_plan_id":"cebpf4jnsgd1na2vs0mg"},{"bike_id":"43ec8304-b11c-44d9-9f47-bc865890f14a","system_id":"levelo_inurba_marseille","lat":43.25092,"lon":5.39514,"is_reserved":false,"is_disabled":false,"rental_uris":{"android":"levelo://app?vid=43ec8304-b11c-44d9-9f47-bc865890f14a","ios":"levelo://app?vid=43ec8304-b11c-44d9-9f47-bc865890f14a"},"vehicle_type_id":"4","last_reported":1727816925,"current_range_meters":15200,"station_id":"ce4bhm12rcd13ifvqgkg","pricing_plan_id":"cebpf4jnsgd1na2vs0mg"},{"bike_id":"0726aaf9-3448-465a-8d21-944ad6140277","system_id":"levelo_inurba_marseille","lat":43.31365,"lon":5.38489,"is_reserved":false,"is_disabled":false,"rental_uris":{"android":"levelo://app?vid=0726aaf9-3448-465a-8d21-944ad6140277","ios":"levelo://app?vid=0726aaf9-3448-465a-8d21-944ad6140277"},"vehicle_type_id":"4","last_reported":1727816925,"current_range_meters":18000,"station_id":"ce4bgt92rcd13ifvqcf0","pricing_plan_id":"cebpf4jnsgd1na2vs0mg"},{"bike_id":"e5f61d33-8415-4a03-ae60-f12eae9e325c","system_id":"levelo_inurba_marseille","lat":43.28026,"lon":5.36954,"is_reserved":false,"is_disabled":false,"rental_uris":{"android":"levelo://app?vid=e5f61d33-8415-4a03-ae60-f12eae9e325c","ios":"levelo://app?vid=e5f61d33-8415-4a03-ae60-f12eae9e325c"},"vehicle_type_id":"4","last_reported":1727816925,"current_range_meters":10800,"station_id":"ce4bha12rcd13ifvqef0","pricing_plan_id":"cebpf4jnsgd1na2vs0mg"},{"bike_id":"382a442a-a2da-4ef2-bb13-81937cd21851","system_id":"levelo_inurba_marseille","lat":43.29024,"lon":5.38657,"is_reserved":false,"is_disabled":false,"rental_uris":{"android":"levelo://app?vid=382a442a-a2da-4ef2-bb13-81937cd21851","ios":"levelo://app?vid=382a442a-a2da-4ef2-bb13-81937cd21851"},"vehicle_type_id":"4","last_reported":1727816925,"current_range_meters":34800,"station_id":"ce4bhoh2rcd13ifvqh5g","pricing_plan_id":"cebpf4jnsgd1na2vs0mg"},{"bike_id":"152be7fe-903a-4137-9bfe-6e779d55c33f","system_id":"levelo_inurba_marseille","lat":43.26805,"lon":5.40255,"is_reserved":false,"is_disabled":false,"rental_uris":{"android":"levelo://app?vid=152be7fe-903a-4137-9bfe-6e779d55c33f","ios":"levelo://app?vid=152be7fe-903a-4137-9bfe-6e779d55c33f"},"vehicle_type_id":"4","last_reported":1727816925,"current_range_meters":23200,"station_id":"ce501612rcd8frsf0b60","pricing_plan_id":"cebpf4jnsgd1na2vs0mg"},{"bike_id":"dcd6badb-1eac-4c0b-9ffe-abb59b56da4b","system_id":"levelo_inurba_marseille","lat":43.30195,"lon":5.36624,"is_reserved":false,"is_disabled":false,"rental_uris":{"android":"levelo://app?vid=dcd6badb-1eac-4c0b-9ffe-abb59b56da4b","ios":"levelo://app?vid=dcd6badb-1eac-4c0b-9ffe-abb59b56da4b"},"vehicle_type_id":"4","last_reported":1727816925,"current_range_meters":8000,"station_id":"ce4bgrh2rcd13ifvqc8g","pricing_plan_id":"cebpf4jnsgd1na2vs0mg"},{"bike_id":"6924d85d-646d-4ecf-87b0-80d4898aabc8","system_id":"levelo_inurba_marseille","lat":43.2857,"lon":5.39501,"is_reserved":false,"is_disabled":false,"rental_uris":{"android":"levelo://app?vid=6924d85d-646d-4ecf-87b0-80d4898aabc8","ios":"levelo://app?vid=6924d85d-646d-4ecf-87b0-80d4898aabc8"},"vehicle_type_id":"4","last_reported":1727816925,"current_range_meters":24800,"station_id":"ce4bh292rcd13ifvqdg0","pricing_plan_id":"cebpf4jnsgd1na2vs0mg"},{"bike_id":"0385b8aa-f99f-4f2f-a4a1-989fe579f52f","system_id":"levelo_inurba_marseille","lat":43.32044,"lon":5.41544,"is_reserved":false,"is_disabled":false,"rental_uris":{"android":"levelo://app?vid=0385b8aa-f99f-4f2f-a4a1-989fe579f52f","ios":"levelo://app?vid=0385b8aa-f99f-4f2f-a4a1-989fe579f52f"},"vehicle_type_id":"4","last_reported":1727816925,"current_range_meters":6400,"station_id":"ce4bhq92rcd13ifvqhkg","pricing_plan_id":"cebpf4jnsgd1na2vs0mg"},{"bike_id":"e602d960-7762-4556-87f3-7ca7eb9e1588","system_id":"levelo_inurba_marseille","lat":43.31888,"lon":5.40731,"is_reserved":false,"is_disabled":false,"rental_uris":{"android":"levelo://app?vid=e602d960-7762-4556-87f3-7ca7eb9e1588","ios":"levelo://app?vid=e602d960-7762-4556-87f3-7ca7eb9e1588"},"vehicle_type_id":"4","last_reported":1727816925,"current_range_meters":13600,"station_id":"ce4bhq12rcd13ifvqhig","pricing_plan_id":"cebpf4jnsgd1na2vs0mg"},{"bike_id":"03f20321-c27e-4a89-a49d-93410733ba67","system_id":"levelo_inurba_marseille","lat":43.28726,"lon":5.37929,"is_reserved":false,"is_disabled":false,"rental_uris":{"android":"levelo://app?vid=03f20321-c27e-4a89-a49d-93410733ba67","ios":"levelo://app?vid=03f20321-c27e-4a89-a49d-93410733ba67"},"vehicle_type_id":"4","last_reported":1727816925,"current_range_meters":5600,"station_id":"ce4bh9p2rcd13ifvqec0","pricing_plan_id":"cebpf4jnsgd1na2vs0mg"},{"bike_id":"d996e2bc-d8ee-403c-a5c7-3d92d7662249","system_id":"levelo_inurba_marseille","lat":43.31216,"lon":5.36848,"is_reserved":false,"is_disabled":false,"rental_uris":{"android":"levelo://app?vid=d996e2bc-d8ee-403c-a5c7-3d92d7662249","ios":"levelo://app?vid=d996e2bc-d8ee-403c-a5c7-3d92d7662249"},"vehicle_type_id":"4","last_reported":1727816925,"current_range_meters":17600,"station_id":"","pricing_plan_id":"cebpf4jnsgd1na2vs0mg"},{"bike_id":"89b9dfd5-0dc9-4197-bb8d-be7f07ee51ff","system_id":"levelo_inurba_marseille","lat":43.31532,"lon":5.38027,"is_reserved":false,"is_disabled":false,"rental_uris":{"android":"levelo://app?vid=89b9dfd5-0dc9-4197-bb8d-be7f07ee51ff","ios":"levelo://app?vid=89b9dfd5-0dc9-4197-bb8d-be7f07ee51ff"},"vehicle_type_id":"4","last_reported":1727816925,"current_range_meters":32800,"station_id":"ce4bhsp2rcd13ifvqi50","pricing_plan_id":"cebpf4jnsgd1na2vs0mg"},{"bike_id":"2e6db03b-89d0-4b7f-9255-d4415cec9b74","system_id":"levelo_inurba_marseille","lat":43.25091,"lon":5.39518,"is_reserved":false,"is_disabled":false,"rental_uris":{"android":"levelo://app?vid=2e6db03b-89d0-4b7f-9255-d4415cec9b74","ios":"levelo://app?vid=2e6db03b-89d0-4b7f-9255-d4415cec9b74"},"vehicle_type_id":"4","last_reported":1727816925,"current_range_meters":2800,"station_id":"ce4bhm12rcd13ifvqgkg","pricing_plan_id":"cebpf4jnsgd1na2vs0mg"},{"bike_id":"6ae20033-92da-495d-9743-905496a75472","system_id":"levelo_inurba_marseille","lat":43.336028,"lon":5.410351,"is_reserved":false,"is_disabled":false,"rental_uris":{"android":"levelo://app?vid=6ae20033-92da-495d-9743-905496a75472","ios":"levelo://app?vid=6ae20033-92da-495d-9743-905496a75472"},"vehicle_type_id":"4","last_reported":1727816925,"current_range_meters":38800,"station_id":"ce4bhqh2rcd13ifvqhmg","pricing_plan_id":"cebpf4jnsgd1na2vs0mg"},{"bike_id":"6ff016f9-d31d-4e50-9002-5dee01876d27","system_id":"levelo_inurba_marseille","lat":43.31331,"lon":5.39692,"is_reserved":false,"is_disabled":false,"rental_uris":{"android":"levelo://app?vid=6ff016f9-d31d-4e50-9002-5dee01876d27","ios":"levelo://app?vid=6ff016f9-d31d-4e50-9002-5dee01876d27"},"vehicle_type_id":"4","last_reported":1727816925,"current_range_meters":16000,"station_id":"ce4bgvp2rcd13ifvqcu0","pricing_plan_id":"cebpf4jnsgd1na2vs0mg"},{"bike_id":"27932a63-cf7f-453e-b5e6-aab75167bbe5","system_id":"levelo_inurba_marseille","lat":43.30094,"lon":5.39088,"is_reserved":false,"is_disabled":false,"rental_uris":{"android":"levelo://app?vid=27932a63-cf7f-453e-b5e6-aab75167bbe5","ios":"levelo://app?vid=27932a63-cf7f-453e-b5e6-aab75167bbe5"},"vehicle_type_id":"4","last_reported":1727816925,"current_range_meters":28000,"station_id":"ce4bh192rcd13ifvqdb0","pricing_plan_id":"cebpf4jnsgd1na2vs0mg"},{"bike_id":"972f0298-3b6a-4a5a-9a88-2b3812e933f5","system_id":"levelo_inurba_marseille","lat":43.27922,"lon":5.39589,"is_reserved":false,"is_disabled":false,"rental_uris":{"android":"levelo://app?vid=972f0298-3b6a-4a5a-9a88-2b3812e933f5","ios":"levelo://app?vid=972f0298-3b6a-4a5a-9a88-2b3812e933f5"},"vehicle_type_id":"4","last_reported":1727816925,"current_range_meters":6800,"station_id":"ce4bhf92rcd13ifvqf40","pricing_plan_id":"cebpf4jnsgd1na2vs0mg"},{"bike_id":"9d98c167-ce53-4a4d-871d-1c099d57722c","system_id":"levelo_inurba_marseille","lat":43.30622,"lon":5.37233,"is_reserved":false,"is_disabled":false,"rental_uris":{"android":"levelo://app?vid=9d98c167-ce53-4a4d-871d-1c099d57722c","ios":"levelo://app?vid=9d98c167-ce53-4a4d-871d-1c099d57722c"},"vehicle_type_id":"4","last_reported":1727816925,"current_range_meters":11600,"station_id":"ce4bgqh2rcd13ifvqc4g","pricing_plan_id":"cebpf4jnsgd1na2vs0mg"},{"bike_id":"b19d6f71-956a-439f-b8b5-91f0a6d9d8f5","system_id":"levelo_inurba_marseille","lat":43.29975,"lon":5.37181,"is_reserved":false,"is_disabled":false,"rental_uris":{"android":"levelo://app?vid=b19d6f71-956a-439f-b8b5-91f0a6d9d8f5","ios":"levelo://app?vid=b19d6f71-956a-439f-b8b5-91f0a6d9d8f5"},"vehicle_type_id":"4","last_reported":1727816925,"current_range_meters":37600,"station_id":"ce4bgr92rcd13ifvqc7g","pricing_plan_id":"cebpf4jnsgd1na2vs0mg"},{"bike_id":"82c2475c-c35b-4b23-a470-b125ed8a5409","system_id":"levelo_inurba_marseille","lat":43.3035,"lon":5.4188,"is_reserved":false,"is_disabled":false,"rental_uris":{"android":"levelo://app?vid=82c2475c-c35b-4b23-a470-b125ed8a5409","ios":"levelo://app?vid=82c2475c-c35b-4b23-a470-b125ed8a5409"},"vehicle_type_id":"4","last_reported":1727816925,"current_range_meters":8800,"station_id":"ce4bhop2rcd13ifvqh7g","pricing_plan_id":"cebpf4jnsgd1na2vs0mg"},{"bike_id":"f9513343-bb02-463c-8632-95c3b71adbe3","system_id":"levelo_inurba_marseille","lat":43.29715,"lon":5.36617,"is_reserved":false,"is_disabled":false,"rental_uris":{"android":"levelo://app?vid=f9513343-bb02-463c-8632-95c3b71adbe3","ios":"levelo://app?vid=f9513343-bb02-463c-8632-95c3b71adbe3"},"vehicle_type_id":"4","last_reported":1727816925,"current_range_meters":38400,"station_id":"ce4bgn12rcd13ifvqbt0","pricing_plan_id":"cebpf4jnsgd1na2vs0mg"},{"bike_id":"78b1dac7-5bed-47e2-8698-6f2dc96554bd","system_id":"levelo_inurba_marseille","lat":43.31527,"lon":5.38034,"is_reserved":false,"is_disabled":false,"rental_uris":{"android":"levelo://app?vid=78b1dac7-5bed-47e2-8698-6f2dc96554bd","ios":"levelo://app?vid=78b1dac7-5bed-47e2-8698-6f2dc96554bd"},"vehicle_type_id":"4","last_reported":1727816925,"current_range_meters":30800,"station_id":"ce4bhsp2rcd13ifvqi50","pricing_plan_id":"cebpf4jnsgd1na2vs0mg"},{"bike_id":"2b889d16-9dfb-4234-b9cd-a1f18c4d7543","system_id":"levelo_inurba_marseille","lat":43.28054,"lon":5.3695,"is_reserved":false,"is_disabled":false,"rental_uris":{"android":"levelo://app?vid=2b889d16-9dfb-4234-b9cd-a1f18c4d7543","ios":"levelo://app?vid=2b889d16-9dfb-4234-b9cd-a1f18c4d7543"},"vehicle_type_id":"4","last_reported":1727816925,"current_range_meters":25600,"station_id":"ce4bha12rcd13ifvqef0","pricing_plan_id":"cebpf4jnsgd1na2vs0mg"},{"bike_id":"75f7d3bd-f2a1-4d79-867f-cd81045ec393","system_id":"levelo_inurba_marseille","lat":43.30336,"lon":5.40445,"is_reserved":false,"is_disabled":false,"rental_uris":{"android":"levelo://app?vid=75f7d3bd-f2a1-4d79-867f-cd81045ec393","ios":"levelo://app?vid=75f7d3bd-f2a1-4d79-867f-cd81045ec393"},"vehicle_type_id":"4","last_reported":1727816925,"current_range_meters":30400,"station_id":"ce4bh012rcd13ifvqd10","pricing_plan_id":"cebpf4jnsgd1na2vs0mg"},{"bike_id":"1b0da400-df7f-46cf-a71b-f878e1e3bfe9","system_id":"levelo_inurba_marseille","lat":43.24074,"lon":5.37761,"is_reserved":false,"is_disabled":false,"rental_uris":{"android":"levelo://app?vid=1b0da400-df7f-46cf-a71b-f878e1e3bfe9","ios":"levelo://app?vid=1b0da400-df7f-46cf-a71b-f878e1e3bfe9"},"vehicle_type_id":"4","last_reported":1727816925,"current_range_meters":28800,"station_id":"ce4bhnp2rcd13ifvqgvg","pricing_plan_id":"cebpf4jnsgd1na2vs0mg"},{"bike_id":"ea406843-fe78-418a-9b6e-69d4f1583cd6","system_id":"levelo_inurba_marseille","lat":43.29278,"lon":5.40128,"is_reserved":false,"is_disabled":false,"rental_uris":{"android":"levelo://app?vid=ea406843-fe78-418a-9b6e-69d4f1583cd6","ios":"levelo://app?vid=ea406843-fe78-418a-9b6e-69d4f1583cd6"},"vehicle_type_id":"4","last_reported":1727816925,"current_range_meters":24800,"station_id":"ce4bh312rcd13ifvqdk0","pricing_plan_id":"cebpf4jnsgd1na2vs0mg"},{"bike_id":"aae274d4-174b-48df-8d7a-32f65846d636","system_id":"levelo_inurba_marseille","lat":43.27837,"lon":5.39215,"is_reserved":false,"is_disabled":false,"rental_uris":{"android":"levelo://app?vid=aae274d4-174b-48df-8d7a-32f65846d636","ios":"levelo://app?vid=aae274d4-174b-48df-8d7a-32f65846d636"},"vehicle_type_id":"4","last_reported":1727816925,"current_range_meters":37600,"station_id":"ce4bhjp2rcd13ifvqga0","pricing_plan_id":"cebpf4jnsgd1na2vs0mg"},{"bike_id":"d22ae321-847f-4577-8563-9e21e8a7db72","system_id":"levelo_inurba_marseille","lat":43.30779,"lon":5.37654,"is_reserved":false,"is_disabled":false,"rental_uris":{"android":"levelo://app?vid=d22ae321-847f-4577-8563-9e21e8a7db72","ios":"levelo://app?vid=d22ae321-847f-4577-8563-9e21e8a7db72"},"vehicle_type_id":"4","last_reported":1727816925,"current_range_meters":26800,"station_id":"ce4bgv92rcd13ifvqcq0","pricing_plan_id":"cebpf4jnsgd1na2vs0mg"},{"bike_id":"2ad48f66-d496-4774-9d3a-071b3547565a","system_id":"levelo_inurba_marseille","lat":43.30335,"lon":5.40443,"is_reserved":false,"is_disabled":false,"rental_uris":{"android":"levelo://app?vid=2ad48f66-d496-4774-9d3a-071b3547565a","ios":"levelo://app?vid=2ad48f66-d496-4774-9d3a-071b3547565a"},"vehicle_type_id":"4","last_reported":1727816925,"current_range_meters":6000,"station_id":"ce4bh012rcd13ifvqd10","pricing_plan_id":"cebpf4jnsgd1na2vs0mg"},{"bike_id":"8a9a5a88-54ba-43dc-8df1-8efce13be32e","system_id":"levelo_inurba_marseille","lat":43.27911,"lon":5.39589,"is_reserved":false,"is_disabled":false,"rental_uris":{"android":"levelo://app?vid=8a9a5a88-54ba-43dc-8df1-8efce13be32e","ios":"levelo://app?vid=8a9a5a88-54ba-43dc-8df1-8efce13be32e"},"vehicle_type_id":"4","last_reported":1727816925,"current_range_meters":38800,"station_id":"ce4bhf92rcd13ifvqf40","pricing_plan_id":"cebpf4jnsgd1na2vs0mg"},{"bike_id":"c070c241-857d-41ab-837e-b7196074f68c","system_id":"levelo_inurba_marseille","lat":43.29257,"lon":5.40916,"is_reserved":false,"is_disabled":false,"rental_uris":{"android":"levelo://app?vid=c070c241-857d-41ab-837e-b7196074f68c","ios":"levelo://app?vid=c070c241-857d-41ab-837e-b7196074f68c"},"vehicle_type_id":"4","last_reported":1727816925,"current_range_meters":38800,"station_id":"ce4bh192rcd13ifvqdc0","pricing_plan_id":"cebpf4jnsgd1na2vs0mg"},{"bike_id":"060a1bfa-2e51-45b7-8d05-0e7fbf1a2b7d","system_id":"levelo_inurba_marseille","lat":43.28372,"lon":5.38622,"is_reserved":false,"is_disabled":false,"rental_uris":{"android":"levelo://app?vid=060a1bfa-2e51-45b7-8d05-0e7fbf1a2b7d","ios":"levelo://app?vid=060a1bfa-2e51-45b7-8d05-0e7fbf1a2b7d"},"vehicle_type_id":"4","last_reported":1727816925,"current_range_meters":20000,"station_id":"ce4bh492rcd13ifvqdvg","pricing_plan_id":"cebpf4jnsgd1na2vs0mg"},{"bike_id":"98f1a612-88d8-478b-ad87-9b7a044bda5e","system_id":"levelo_inurba_marseille","lat":43.30236,"lon":5.36519,"is_reserved":false,"is_disabled":false,"rental_uris":{"android":"levelo://app?vid=98f1a612-88d8-478b-ad87-9b7a044bda5e","ios":"levelo://app?vid=98f1a612-88d8-478b-ad87-9b7a044bda5e"},"vehicle_type_id":"4","last_reported":1727816925,"current_range_meters":16400,"station_id":"","pricing_plan_id":"cebpf4jnsgd1na2vs0mg"},{"bike_id":"f8cabb24-b291-43a7-b863-b2f6c298db17","system_id":"levelo_inurba_marseille","lat":43.309,"lon":5.39646,"is_reserved":false,"is_disabled":false,"rental_uris":{"android":"levelo://app?vid=f8cabb24-b291-43a7-b863-b2f6c298db17","ios":"levelo://app?vid=f8cabb24-b291-43a7-b863-b2f6c298db17"},"vehicle_type_id":"4","last_reported":1727816925,"current_range_meters":9200,"station_id":"ce4bh012rcd13ifvqcv0","pricing_plan_id":"cebpf4jnsgd1na2vs0mg"},{"bike_id":"3de46255-c6e1-48e0-a9f2-f2a84e57df1b","system_id":"levelo_inurba_marseille","lat":43.29977,"lon":5.37176,"is_reserved":false,"is_disabled":false,"rental_uris":{"android":"levelo://app?vid=3de46255-c6e1-48e0-a9f2-f2a84e57df1b","ios":"levelo://app?vid=3de46255-c6e1-48e0-a9f2-f2a84e57df1b"},"vehicle_type_id":"4","last_reported":1727816925,"current_range_meters":30000,"station_id":"ce4bgr92rcd13ifvqc7g","pricing_plan_id":"cebpf4jnsgd1na2vs0mg"},{"bike_id":"8ceb96fe-a74c-49c6-8577-bc4076ef5c3c","system_id":"levelo_inurba_marseille","lat":43.3229,"lon":5.38277,"is_reserved":false,"is_disabled":false,"rental_uris":{"android":"levelo://app?vid=8ceb96fe-a74c-49c6-8577-bc4076ef5c3c","ios":"levelo://app?vid=8ceb96fe-a74c-49c6-8577-bc4076ef5c3c"},"vehicle_type_id":"4","last_reported":1727816925,"current_range_meters":8800,"station_id":"ce4bhr12rcd13ifvqhqg","pricing_plan_id":"cebpf4jnsgd1na2vs0mg"},{"bike_id":"f372cd08-c32f-4394-9800-23a546b49bec","system_id":"levelo_inurba_marseille","lat":43.29608,"lon":5.38095,"is_reserved":false,"is_disabled":false,"rental_uris":{"android":"levelo://app?vid=f372cd08-c32f-4394-9800-23a546b49bec","ios":"levelo://app?vid=f372cd08-c32f-4394-9800-23a546b49bec"},"vehicle_type_id":"4","last_reported":1727816925,"current_range_meters":38800,"station_id":"ce4bgl12rcd13ifvqbo0","pricing_plan_id":"cebpf4jnsgd1na2vs0mg"},{"bike_id":"b337bd20-f5ab-4d71-a842-ea60a4480d01","system_id":"levelo_inurba_marseille","lat":43.33752,"lon":5.37462,"is_reserved":false,"is_disabled":false,"rental_uris":{"android":"levelo://app?vid=b337bd20-f5ab-4d71-a842-ea60a4480d01","ios":"levelo://app?vid=b337bd20-f5ab-4d71-a842-ea60a4480d01"},"vehicle_type_id":"4","last_reported":1727816925,"current_range_meters":36400,"station_id":"","pricing_plan_id":"cebpf4jnsgd1na2vs0mg"},{"bike_id":"2d1e394b-c65c-48dd-8f6c-7fbd688f784e","system_id":"levelo_inurba_marseille","lat":43.31645,"lon":5.38798,"is_reserved":false,"is_disabled":false,"rental_uris":{"android":"levelo://app?vid=2d1e394b-c65c-48dd-8f6c-7fbd688f784e","ios":"levelo://app?vid=2d1e394b-c65c-48dd-8f6c-7fbd688f784e"},"vehicle_type_id":"4","last_reported":1727816925,"current_range_meters":10800,"station_id":"ce4bhqp2rcd13ifvqhng","pricing_plan_id":"cebpf4jnsgd1na2vs0mg"},{"bike_id":"737387ba-9b3a-423e-82d6-7f2519af15e7","system_id":"levelo_inurba_marseille","lat":43.3267,"lon":5.40993,"is_reserved":false,"is_disabled":false,"rental_uris":{"android":"levelo://app?vid=737387ba-9b3a-423e-82d6-7f2519af15e7","ios":"levelo://app?vid=737387ba-9b3a-423e-82d6-7f2519af15e7"},"vehicle_type_id":"4","last_reported":1727816925,"current_range_meters":38000,"station_id":"ce4bhpp2rcd13ifvqhgg","pricing_plan_id":"cebpf4jnsgd1na2vs0mg"},{"bike_id":"a839f8c2-1f19-41c9-b661-130324e30c0f","system_id":"levelo_inurba_marseille","lat":43.322918,"lon":5.382797,"is_reserved":false,"is_disabled":false,"rental_uris":{"android":"levelo://app?vid=a839f8c2-1f19-41c9-b661-130324e30c0f","ios":"levelo://app?vid=a839f8c2-1f19-41c9-b661-130324e30c0f"},"vehicle_type_id":"4","last_reported":1727816925,"current_range_meters":38800,"station_id":"ce4bhr12rcd13ifvqhqg","pricing_plan_id":"cebpf4jnsgd1na2vs0mg"},{"bike_id":"a08fb8e3-178d-48a6-81dd-3d2b604c8945","system_id":"levelo_inurba_marseille","lat":43.29935,"lon":5.36541,"is_reserved":false,"is_disabled":false,"rental_uris":{"android":"levelo://app?vid=a08fb8e3-178d-48a6-81dd-3d2b604c8945","ios":"levelo://app?vid=a08fb8e3-178d-48a6-81dd-3d2b604c8945"},"vehicle_type_id":"4","last_reported":1727816925,"current_range_meters":3600,"station_id":"ce4bgm92rcd13ifvqbr0","pricing_plan_id":"cebpf4jnsgd1na2vs0mg"},{"bike_id":"42b39daf-2a0c-403d-81df-ff40365bdd87","system_id":"levelo_inurba_marseille","lat":43.32657,"lon":5.40992,"is_reserved":false,"is_disabled":false,"rental_uris":{"android":"levelo://app?vid=42b39daf-2a0c-403d-81df-ff40365bdd87","ios":"levelo://app?vid=42b39daf-2a0c-403d-81df-ff40365bdd87"},"vehicle_type_id":"4","last_reported":1727816925,"current_range_meters":36800,"station_id":"ce4bhpp2rcd13ifvqhgg","pricing_plan_id":"cebpf4jnsgd1na2vs0mg"},{"bike_id":"f493192b-13c6-47a1-9573-739dd32e633f","system_id":"levelo_inurba_marseille","lat":43.337444,"lon":5.374475,"is_reserved":false,"is_disabled":false,"rental_uris":{"android":"levelo://app?vid=f493192b-13c6-47a1-9573-739dd32e633f","ios":"levelo://app?vid=f493192b-13c6-47a1-9573-739dd32e633f"},"vehicle_type_id":"4","last_reported":1727816925,"current_range_meters":15200,"station_id":"","pricing_plan_id":"cebpf4jnsgd1na2vs0mg"},{"bike_id":"b8a5d0e2-7dce-4cea-b8d0-0d75b8c2b4df","system_id":"levelo_inurba_marseille","lat":43.26928,"lon":5.38922,"is_reserved":false,"is_disabled":false,"rental_uris":{"android":"levelo://app?vid=b8a5d0e2-7dce-4cea-b8d0-0d75b8c2b4df","ios":"levelo://app?vid=b8a5d0e2-7dce-4cea-b8d0-0d75b8c2b4df"},"vehicle_type_id":"4","last_reported":1727816925,"current_range_meters":30800,"station_id":"ce4bhhh2rcd13ifvqfl0","pricing_plan_id":"cebpf4jnsgd1na2vs0mg"},{"bike_id":"441f094e-6466-462e-98bf-9aeceeeab288","system_id":"levelo_inurba_marseille","lat":43.27815,"lon":5.40713,"is_reserved":false,"is_disabled":false,"rental_uris":{"android":"levelo://app?vid=441f094e-6466-462e-98bf-9aeceeeab288","ios":"levelo://app?vid=441f094e-6466-462e-98bf-9aeceeeab288"},"vehicle_type_id":"4","last_reported":1727816925,"current_range_meters":38800,"station_id":"ce4bhnh2rcd13ifvqgtg","pricing_plan_id":"cebpf4jnsgd1na2vs0mg"},{"bike_id":"77f4d60e-8fce-42bf-87a6-fba55031adb0","system_id":"levelo_inurba_marseille","lat":43.29554,"lon":5.42281,"is_reserved":false,"is_disabled":false,"rental_uris":{"android":"levelo://app?vid=77f4d60e-8fce-42bf-87a6-fba55031adb0","ios":"levelo://app?vid=77f4d60e-8fce-42bf-87a6-fba55031adb0"},"vehicle_type_id":"4","last_reported":1727816925,"current_range_meters":32800,"station_id":"ce4bhph2rcd13ifvqhdg","pricing_plan_id":"cebpf4jnsgd1na2vs0mg"},{"bike_id":"dc3289b7-5397-463d-b8ee-3f7e34403a59","system_id":"levelo_inurba_marseille","lat":43.28453,"lon":5.35886,"is_reserved":false,"is_disabled":false,"rental_uris":{"android":"levelo://app?vid=dc3289b7-5397-463d-b8ee-3f7e34403a59","ios":"levelo://app?vid=dc3289b7-5397-463d-b8ee-3f7e34403a59"},"vehicle_type_id":"4","last_reported":1727816925,"current_range_meters":27200,"station_id":"ce4bhah2rcd13ifvqei0","pricing_plan_id":"cebpf4jnsgd1na2vs0mg"},{"bike_id":"d0f3ba74-2db6-4276-a970-d6d9e934005a","system_id":"levelo_inurba_marseille","lat":43.33731,"lon":5.39179,"is_reserved":false,"is_disabled":false,"rental_uris":{"android":"levelo://app?vid=d0f3ba74-2db6-4276-a970-d6d9e934005a","ios":"levelo://app?vid=d0f3ba74-2db6-4276-a970-d6d9e934005a"},"vehicle_type_id":"4","last_reported":1727816925,"current_range_meters":38800,"station_id":"ce4bhr92rcd13ifvqhsg","pricing_plan_id":"cebpf4jnsgd1na2vs0mg"},{"bike_id":"4d3444c8-50a8-4f41-836f-65a7013a60a5","system_id":"levelo_inurba_marseille","lat":43.31534,"lon":5.3802,"is_reserved":false,"is_disabled":false,"rental_uris":{"android":"levelo://app?vid=4d3444c8-50a8-4f41-836f-65a7013a60a5","ios":"levelo://app?vid=4d3444c8-50a8-4f41-836f-65a7013a60a5"},"vehicle_type_id":"4","last_reported":1727816925,"current_range_meters":38000,"station_id":"ce4bhsp2rcd13ifvqi50","pricing_plan_id":"cebpf4jnsgd1na2vs0mg"},{"bike_id":"34383601-aa67-462a-9da5-2c47a712e3e8","system_id":"levelo_inurba_marseille","lat":43.33028,"lon":5.39041,"is_reserved":false,"is_disabled":false,"rental_uris":{"android":"levelo://app?vid=34383601-aa67-462a-9da5-2c47a712e3e8","ios":"levelo://app?vid=34383601-aa67-462a-9da5-2c47a712e3e8"},"vehicle_type_id":"4","last_reported":1727816925,"current_range_meters":20400,"station_id":"ce4bhr92rcd13ifvqhrg","pricing_plan_id":"cebpf4jnsgd1na2vs0mg"},{"bike_id":"1a4cde06-d65b-46ab-b941-d222868e51c5","system_id":"levelo_inurba_marseille","lat":43.23961,"lon":5.36636,"is_reserved":false,"is_disabled":false,"rental_uris":{"android":"levelo://app?vid=1a4cde06-d65b-46ab-b941-d222868e51c5","ios":"levelo://app?vid=1a4cde06-d65b-46ab-b941-d222868e51c5"},"vehicle_type_id":"4","last_reported":1727816925,"current_range_meters":18800,"station_id":"ce4bhi12rcd13ifvqfp0","pricing_plan_id":"cebpf4jnsgd1na2vs0mg"},{"bike_id":"7d719436-d69c-4d48-8fe9-74cb17994169","system_id":"levelo_inurba_marseille","lat":43.28726,"lon":5.36096,"is_reserved":false,"is_disabled":false,"rental_uris":{"android":"levelo://app?vid=7d719436-d69c-4d48-8fe9-74cb17994169","ios":"levelo://app?vid=7d719436-d69c-4d48-8fe9-74cb17994169"},"vehicle_type_id":"4","last_reported":1727816925,"current_range_meters":14400,"station_id":"cki0cbj6b192h4jlfktg","pricing_plan_id":"cebpf4jnsgd1na2vs0mg"},{"bike_id":"f1dd1acd-6ae2-46a7-8d62-c777e527ff0c","system_id":"levelo_inurba_marseille","lat":43.28458,"lon":5.35886,"is_reserved":false,"is_disabled":false,"rental_uris":{"android":"levelo://app?vid=f1dd1acd-6ae2-46a7-8d62-c777e527ff0c","ios":"levelo://app?vid=f1dd1acd-6ae2-46a7-8d62-c777e527ff0c"},"vehicle_type_id":"4","last_reported":1727816925,"current_range_meters":3600,"station_id":"ce4bhah2rcd13ifvqei0","pricing_plan_id":"cebpf4jnsgd1na2vs0mg"},{"bike_id":"4c4f3085-7816-4fff-97e5-4cd36e0a2328","system_id":"levelo_inurba_marseille","lat":43.26559,"lon":5.37287,"is_reserved":false,"is_disabled":false,"rental_uris":{"android":"levelo://app?vid=4c4f3085-7816-4fff-97e5-4cd36e0a2328","ios":"levelo://app?vid=4c4f3085-7816-4fff-97e5-4cd36e0a2328"},"vehicle_type_id":"4","last_reported":1727816925,"current_range_meters":38800,"station_id":"ce4bhg12rcd13ifvqf70","pricing_plan_id":"cebpf4jnsgd1na2vs0mg"},{"bike_id":"e1a22575-397e-4cd2-9953-1ff35d4fc195","system_id":"levelo_inurba_marseille","lat":43.26559,"lon":5.37292,"is_reserved":false,"is_disabled":false,"rental_uris":{"android":"levelo://app?vid=e1a22575-397e-4cd2-9953-1ff35d4fc195","ios":"levelo://app?vid=e1a22575-397e-4cd2-9953-1ff35d4fc195"},"vehicle_type_id":"4","last_reported":1727816925,"current_range_meters":38800,"station_id":"ce4bhg12rcd13ifvqf70","pricing_plan_id":"cebpf4jnsgd1na2vs0mg"},{"bike_id":"91217aa2-592d-4efc-9f8a-5a0b94d0dcb6","system_id":"levelo_inurba_marseille","lat":43.299744,"lon":5.384855,"is_reserved":false,"is_disabled":false,"rental_uris":{"android":"levelo://app?vid=91217aa2-592d-4efc-9f8a-5a0b94d0dcb6","ios":"levelo://app?vid=91217aa2-592d-4efc-9f8a-5a0b94d0dcb6"},"vehicle_type_id":"4","last_reported":1727816925,"current_range_meters":25600,"station_id":"ce4bgj92rcd13ifvqbd0","pricing_plan_id":"cebpf4jnsgd1na2vs0mg"},{"bike_id":"c21885d0-f98b-408a-b33e-348332f887e9","system_id":"levelo_inurba_marseille","lat":43.25583,"lon":5.38234,"is_reserved":false,"is_disabled":false,"rental_uris":{"android":"levelo://app?vid=c21885d0-f98b-408a-b33e-348332f887e9","ios":"levelo://app?vid=c21885d0-f98b-408a-b33e-348332f887e9"},"vehicle_type_id":"4","last_reported":1727816925,"current_range_meters":28400,"station_id":"ce4bhih2rcd13ifvqfs0","pricing_plan_id":"cebpf4jnsgd1na2vs0mg"},{"bike_id":"7acc4f54-6a14-4172-91fe-2ee65d4056a4","system_id":"levelo_inurba_marseille","lat":43.31891,"lon":5.40735,"is_reserved":false,"is_disabled":false,"rental_uris":{"android":"levelo://app?vid=7acc4f54-6a14-4172-91fe-2ee65d4056a4","ios":"levelo://app?vid=7acc4f54-6a14-4172-91fe-2ee65d4056a4"},"vehicle_type_id":"4","last_reported":1727816925,"current_range_meters":9200,"station_id":"ce4bhq12rcd13ifvqhig","pricing_plan_id":"cebpf4jnsgd1na2vs0mg"},{"bike_id":"287c03eb-8ee1-4db4-9cff-516e83d373b5","system_id":"levelo_inurba_marseille","lat":43.30317,"lon":5.36892,"is_reserved":false,"is_disabled":false,"rental_uris":{"android":"levelo://app?vid=287c03eb-8ee1-4db4-9cff-516e83d373b5","ios":"levelo://app?vid=287c03eb-8ee1-4db4-9cff-516e83d373b5"},"vehicle_type_id":"4","last_reported":1727816925,"current_range_meters":23200,"station_id":"ce4bgqh2rcd13ifvqc5g","pricing_plan_id":"cebpf4jnsgd1na2vs0mg"},{"bike_id":"d022b99b-b10b-4272-8564-6b4dae0455df","system_id":"levelo_inurba_marseille","lat":43.29092,"lon":5.38139,"is_reserved":false,"is_disabled":false,"rental_uris":{"android":"levelo://app?vid=d022b99b-b10b-4272-8564-6b4dae0455df","ios":"levelo://app?vid=d022b99b-b10b-4272-8564-6b4dae0455df"},"vehicle_type_id":"4","last_reported":1727816925,"current_range_meters":37600,"station_id":"ce4bh512rcd13ifvqe2g","pricing_plan_id":"cebpf4jnsgd1na2vs0mg"},{"bike_id":"2bf7e306-f8f9-4dd3-b221-2dc4bd7dabc2","system_id":"levelo_inurba_marseille","lat":43.28459,"lon":5.35892,"is_reserved":false,"is_disabled":false,"rental_uris":{"android":"levelo://app?vid=2bf7e306-f8f9-4dd3-b221-2dc4bd7dabc2","ios":"levelo://app?vid=2bf7e306-f8f9-4dd3-b221-2dc4bd7dabc2"},"vehicle_type_id":"4","last_reported":1727816925,"current_range_meters":16400,"station_id":"ce4bhah2rcd13ifvqei0","pricing_plan_id":"cebpf4jnsgd1na2vs0mg"},{"bike_id":"759c996f-08c4-4a1e-98b0-a7fbf3e3168e","system_id":"levelo_inurba_marseille","lat":43.25494,"lon":5.3765,"is_reserved":false,"is_disabled":false,"rental_uris":{"android":"levelo://app?vid=759c996f-08c4-4a1e-98b0-a7fbf3e3168e","ios":"levelo://app?vid=759c996f-08c4-4a1e-98b0-a7fbf3e3168e"},"vehicle_type_id":"4","last_reported":1727816925,"current_range_meters":26000,"station_id":"ce4bhh12rcd13ifvqff0","pricing_plan_id":"cebpf4jnsgd1na2vs0mg"},{"bike_id":"a2ae8adb-cbe8-4c0b-89c0-a433c1504522","system_id":"levelo_inurba_marseille","lat":43.31273,"lon":5.4017,"is_reserved":false,"is_disabled":false,"rental_uris":{"android":"levelo://app?vid=a2ae8adb-cbe8-4c0b-89c0-a433c1504522","ios":"levelo://app?vid=a2ae8adb-cbe8-4c0b-89c0-a433c1504522"},"vehicle_type_id":"4","last_reported":1727816925,"current_range_meters":28000,"station_id":"ce4bh092rcd13ifvqd30","pricing_plan_id":"cebpf4jnsgd1na2vs0mg"},{"bike_id":"4fb691f8-2128-44d0-9d29-e30c9a90ff83","system_id":"levelo_inurba_marseille","lat":43.2846,"lon":5.3589,"is_reserved":false,"is_disabled":false,"rental_uris":{"android":"levelo://app?vid=4fb691f8-2128-44d0-9d29-e30c9a90ff83","ios":"levelo://app?vid=4fb691f8-2128-44d0-9d29-e30c9a90ff83"},"vehicle_type_id":"4","last_reported":1727816925,"current_range_meters":7200,"station_id":"ce4bhah2rcd13ifvqei0","pricing_plan_id":"cebpf4jnsgd1na2vs0mg"},{"bike_id":"fcccda81-809a-4553-8ca0-0b7e830f53d0","system_id":"levelo_inurba_marseille","lat":43.29309,"lon":5.37179,"is_reserved":false,"is_disabled":false,"rental_uris":{"android":"levelo://app?vid=fcccda81-809a-4553-8ca0-0b7e830f53d0","ios":"levelo://app?vid=fcccda81-809a-4553-8ca0-0b7e830f53d0"},"vehicle_type_id":"4","last_reported":1727816925,"current_range_meters":26000,"station_id":"ce4bgh92rcd13ifvqb40","pricing_plan_id":"cebpf4jnsgd1na2vs0mg"},{"bike_id":"0b7a5177-7bc1-4350-bceb-f8d35eb45312","system_id":"levelo_inurba_marseille","lat":43.2923,"lon":5.39486,"is_reserved":false,"is_disabled":false,"rental_uris":{"android":"levelo://app?vid=0b7a5177-7bc1-4350-bceb-f8d35eb45312","ios":"levelo://app?vid=0b7a5177-7bc1-4350-bceb-f8d35eb45312"},"vehicle_type_id":"4","last_reported":1727816925,"current_range_meters":26000,"station_id":"","pricing_plan_id":"cebpf4jnsgd1na2vs0mg"},{"bike_id":"849785e9-3354-451b-a4b8-9dfecd3e3883","system_id":"levelo_inurba_marseille","lat":43.26689,"lon":5.38268,"is_reserved":false,"is_disabled":false,"rental_uris":{"android":"levelo://app?vid=849785e9-3354-451b-a4b8-9dfecd3e3883","ios":"levelo://app?vid=849785e9-3354-451b-a4b8-9dfecd3e3883"},"vehicle_type_id":"4","last_reported":1727816925,"current_range_meters":38800,"station_id":"ce4bhg92rcd13ifvqf90","pricing_plan_id":"cebpf4jnsgd1na2vs0mg"},{"bike_id":"b7a4367c-fc71-4ab7-95c7-5d35b416dab0","system_id":"levelo_inurba_marseille","lat":43.31545,"lon":5.38003,"is_reserved":false,"is_disabled":false,"rental_uris":{"android":"levelo://app?vid=b7a4367c-fc71-4ab7-95c7-5d35b416dab0","ios":"levelo://app?vid=b7a4367c-fc71-4ab7-95c7-5d35b416dab0"},"vehicle_type_id":"4","last_reported":1727816925,"current_range_meters":39200,"station_id":"ce4bhsp2rcd13ifvqi50","pricing_plan_id":"cebpf4jnsgd1na2vs0mg"},{"bike_id":"27512735-eefc-4be7-8f61-b1a66e823331","system_id":"levelo_inurba_marseille","lat":43.30896,"lon":5.37202,"is_reserved":false,"is_disabled":false,"rental_uris":{"android":"levelo://app?vid=27512735-eefc-4be7-8f61-b1a66e823331","ios":"levelo://app?vid=27512735-eefc-4be7-8f61-b1a66e823331"},"vehicle_type_id":"4","last_reported":1727816925,"current_range_meters":12800,"station_id":"ce4bguh2rcd13ifvqckg","pricing_plan_id":"cebpf4jnsgd1na2vs0mg"},{"bike_id":"37621281-5028-4585-b6ad-dbe94e6e8663","system_id":"levelo_inurba_marseille","lat":43.3302,"lon":5.39041,"is_reserved":false,"is_disabled":false,"rental_uris":{"android":"levelo://app?vid=37621281-5028-4585-b6ad-dbe94e6e8663","ios":"levelo://app?vid=37621281-5028-4585-b6ad-dbe94e6e8663"},"vehicle_type_id":"4","last_reported":1727816925,"current_range_meters":38800,"station_id":"ce4bhr92rcd13ifvqhrg","pricing_plan_id":"cebpf4jnsgd1na2vs0mg"},{"bike_id":"9c9cc226-5222-4b9b-9b93-130a0a217ed8","system_id":"levelo_inurba_marseille","lat":43.28455,"lon":5.39179,"is_reserved":false,"is_disabled":false,"rental_uris":{"android":"levelo://app?vid=9c9cc226-5222-4b9b-9b93-130a0a217ed8","ios":"levelo://app?vid=9c9cc226-5222-4b9b-9b93-130a0a217ed8"},"vehicle_type_id":"4","last_reported":1727816925,"current_range_meters":14000,"station_id":"ce4bhoh2rcd13ifvqh5g","pricing_plan_id":"cebpf4jnsgd1na2vs0mg"},{"bike_id":"0a1e60ad-dbb2-449d-aa59-60eb9b9b930e","system_id":"levelo_inurba_marseille","lat":43.27998,"lon":5.40013,"is_reserved":false,"is_disabled":false,"rental_uris":{"android":"levelo://app?vid=0a1e60ad-dbb2-449d-aa59-60eb9b9b930e","ios":"levelo://app?vid=0a1e60ad-dbb2-449d-aa59-60eb9b9b930e"},"vehicle_type_id":"4","last_reported":1727816925,"current_range_meters":34800,"station_id":"ce4bho92rcd13ifvqh4g","pricing_plan_id":"cebpf4jnsgd1na2vs0mg"},{"bike_id":"2d206e1a-412a-43c5-aa5a-7208962f0ec1","system_id":"levelo_inurba_marseille","lat":43.29554,"lon":5.42295,"is_reserved":false,"is_disabled":false,"rental_uris":{"android":"levelo://app?vid=2d206e1a-412a-43c5-aa5a-7208962f0ec1","ios":"levelo://app?vid=2d206e1a-412a-43c5-aa5a-7208962f0ec1"},"vehicle_type_id":"4","last_reported":1727816925,"current_range_meters":16400,"station_id":"ce4bhph2rcd13ifvqhdg","pricing_plan_id":"cebpf4jnsgd1na2vs0mg"},{"bike_id":"17cca3cb-f8be-4fd7-87f6-b3c1e02379f1","system_id":"levelo_inurba_marseille","lat":43.30102,"lon":5.39102,"is_reserved":false,"is_disabled":false,"rental_uris":{"android":"levelo://app?vid=17cca3cb-f8be-4fd7-87f6-b3c1e02379f1","ios":"levelo://app?vid=17cca3cb-f8be-4fd7-87f6-b3c1e02379f1"},"vehicle_type_id":"4","last_reported":1727816925,"current_range_meters":30000,"station_id":"ce4bh192rcd13ifvqdb0","pricing_plan_id":"cebpf4jnsgd1na2vs0mg"},{"bike_id":"b46a91f9-0b26-498d-b8ac-ec249396e291","system_id":"levelo_inurba_marseille","lat":43.29897,"lon":5.43633,"is_reserved":false,"is_disabled":false,"rental_uris":{"android":"levelo://app?vid=b46a91f9-0b26-498d-b8ac-ec249396e291","ios":"levelo://app?vid=b46a91f9-0b26-498d-b8ac-ec249396e291"},"vehicle_type_id":"4","last_reported":1727816925,"current_range_meters":20800,"station_id":"ce4bhpp2rcd13ifvqhfg","pricing_plan_id":"cebpf4jnsgd1na2vs0mg"},{"bike_id":"fc5c105a-c59f-4229-a971-efc068d7566f","system_id":"levelo_inurba_marseille","lat":43.29164,"lon":5.37167,"is_reserved":false,"is_disabled":false,"rental_uris":{"android":"levelo://app?vid=fc5c105a-c59f-4229-a971-efc068d7566f","ios":"levelo://app?vid=fc5c105a-c59f-4229-a971-efc068d7566f"},"vehicle_type_id":"4","last_reported":1727816925,"current_range_meters":37600,"station_id":"ce4bha92rcd13ifvqeh0","pricing_plan_id":"cebpf4jnsgd1na2vs0mg"},{"bike_id":"bea98f12-f887-4527-9795-e1ed0ce7c624","system_id":"levelo_inurba_marseille","lat":43.27618,"lon":5.3611,"is_reserved":false,"is_disabled":false,"rental_uris":{"android":"levelo://app?vid=bea98f12-f887-4527-9795-e1ed0ce7c624","ios":"levelo://app?vid=bea98f12-f887-4527-9795-e1ed0ce7c624"},"vehicle_type_id":"4","last_reported":1727816925,"current_range_meters":37600,"station_id":"ce4bgj92rcd13ifvqbe0","pricing_plan_id":"cebpf4jnsgd1na2vs0mg"},{"bike_id":"02dda933-dd15-4efa-a784-08bc79d05aef","system_id":"levelo_inurba_marseille","lat":43.306582,"lon":5.400922,"is_reserved":false,"is_disabled":false,"rental_uris":{"android":"levelo://app?vid=02dda933-dd15-4efa-a784-08bc79d05aef","ios":"levelo://app?vid=02dda933-dd15-4efa-a784-08bc79d05aef"},"vehicle_type_id":"4","last_reported":1727816925,"current_range_meters":38800,"station_id":"ce4bh112rcd13ifvqda0","pricing_plan_id":"cebpf4jnsgd1na2vs0mg"},{"bike_id":"03e6508b-5e63-46d0-a44b-3dfbe099be42","system_id":"levelo_inurba_marseille","lat":43.33602,"lon":5.41034,"is_reserved":false,"is_disabled":false,"rental_uris":{"android":"levelo://app?vid=03e6508b-5e63-46d0-a44b-3dfbe099be42","ios":"levelo://app?vid=03e6508b-5e63-46d0-a44b-3dfbe099be42"},"vehicle_type_id":"4","last_reported":1727816925,"current_range_meters":16800,"station_id":"ce4bhqh2rcd13ifvqhmg","pricing_plan_id":"cebpf4jnsgd1na2vs0mg"},{"bike_id":"e48ce07a-4bb7-42cb-84a2-fd19eb66d3f1","system_id":"levelo_inurba_marseille","lat":43.32673,"lon":5.41008,"is_reserved":false,"is_disabled":false,"rental_uris":{"android":"levelo://app?vid=e48ce07a-4bb7-42cb-84a2-fd19eb66d3f1","ios":"levelo://app?vid=e48ce07a-4bb7-42cb-84a2-fd19eb66d3f1"},"vehicle_type_id":"4","last_reported":1727816925,"current_range_meters":38800,"station_id":"ce4bhpp2rcd13ifvqhgg","pricing_plan_id":"cebpf4jnsgd1na2vs0mg"},{"bike_id":"a10b66f3-5191-4bcf-9ca0-d0990ebbc47b","system_id":"levelo_inurba_marseille","lat":43.30931,"lon":5.40139,"is_reserved":false,"is_disabled":false,"rental_uris":{"android":"levelo://app?vid=a10b66f3-5191-4bcf-9ca0-d0990ebbc47b","ios":"levelo://app?vid=a10b66f3-5191-4bcf-9ca0-d0990ebbc47b"},"vehicle_type_id":"4","last_reported":1727816925,"current_range_meters":37600,"station_id":"ce4bgvp2rcd13ifvqct0","pricing_plan_id":"cebpf4jnsgd1na2vs0mg"},{"bike_id":"01773c95-0a26-40c8-a7d0-47caef74ae78","system_id":"levelo_inurba_marseille","lat":43.28976,"lon":5.3783,"is_reserved":false,"is_disabled":false,"rental_uris":{"android":"levelo://app?vid=01773c95-0a26-40c8-a7d0-47caef74ae78","ios":"levelo://app?vid=01773c95-0a26-40c8-a7d0-47caef74ae78"},"vehicle_type_id":"4","last_reported":1727816925,"current_range_meters":38000,"station_id":"ce4bh9p2rcd13ifvqed0","pricing_plan_id":"cebpf4jnsgd1na2vs0mg"},{"bike_id":"e6b5a5f3-c537-48f7-b27d-38f823e69116","system_id":"levelo_inurba_marseille","lat":43.28943,"lon":5.39624,"is_reserved":false,"is_disabled":false,"rental_uris":{"android":"levelo://app?vid=e6b5a5f3-c537-48f7-b27d-38f823e69116","ios":"levelo://app?vid=e6b5a5f3-c537-48f7-b27d-38f823e69116"},"vehicle_type_id":"4","last_reported":1727816925,"current_range_meters":38000,"station_id":"ce4bh3h2rcd13ifvqdn0","pricing_plan_id":"cebpf4jnsgd1na2vs0mg"},{"bike_id":"720424b8-8b1d-49e9-bb63-2d457023a3a2","system_id":"levelo_inurba_marseille","lat":43.27921,"lon":5.39589,"is_reserved":false,"is_disabled":false,"rental_uris":{"android":"levelo://app?vid=720424b8-8b1d-49e9-bb63-2d457023a3a2","ios":"levelo://app?vid=720424b8-8b1d-49e9-bb63-2d457023a3a2"},"vehicle_type_id":"4","last_reported":1727816925,"current_range_meters":38800,"station_id":"ce4bhf92rcd13ifvqf40","pricing_plan_id":"cebpf4jnsgd1na2vs0mg"},{"bike_id":"94cf3bc3-c86e-4456-8699-f764d7d6fc5d","system_id":"levelo_inurba_marseille","lat":43.31123,"lon":5.37769,"is_reserved":false,"is_disabled":false,"rental_uris":{"android":"levelo://app?vid=94cf3bc3-c86e-4456-8699-f764d7d6fc5d","ios":"levelo://app?vid=94cf3bc3-c86e-4456-8699-f764d7d6fc5d"},"vehicle_type_id":"4","last_reported":1727816925,"current_range_meters":38800,"station_id":"ce4bgt92rcd13ifvqcg0","pricing_plan_id":"cebpf4jnsgd1na2vs0mg"},{"bike_id":"c4432127-0b97-48c8-b745-bef6023d020a","system_id":"levelo_inurba_marseille","lat":43.33727,"lon":5.39187,"is_reserved":false,"is_disabled":false,"rental_uris":{"android":"levelo://app?vid=c4432127-0b97-48c8-b745-bef6023d020a","ios":"levelo://app?vid=c4432127-0b97-48c8-b745-bef6023d020a"},"vehicle_type_id":"4","last_reported":1727816925,"current_range_meters":30400,"station_id":"ce4bhr92rcd13ifvqhsg","pricing_plan_id":"cebpf4jnsgd1na2vs0mg"},{"bike_id":"264a5026-e85b-436d-92e7-7dc0a5ede071","system_id":"levelo_inurba_marseille","lat":43.2583,"lon":5.39436,"is_reserved":false,"is_disabled":false,"rental_uris":{"android":"levelo://app?vid=264a5026-e85b-436d-92e7-7dc0a5ede071","ios":"levelo://app?vid=264a5026-e85b-436d-92e7-7dc0a5ede071"},"vehicle_type_id":"4","last_reported":1727816925,"current_range_meters":18800,"station_id":"ce4bhip2rcd13ifvqft0","pricing_plan_id":"cebpf4jnsgd1na2vs0mg"},{"bike_id":"60ddbf9b-6978-48d7-8b7f-34b70038e92c","system_id":"levelo_inurba_marseille","lat":43.29277,"lon":5.40126,"is_reserved":false,"is_disabled":false,"rental_uris":{"android":"levelo://app?vid=60ddbf9b-6978-48d7-8b7f-34b70038e92c","ios":"levelo://app?vid=60ddbf9b-6978-48d7-8b7f-34b70038e92c"},"vehicle_type_id":"4","last_reported":1727816925,"current_range_meters":38800,"station_id":"ce4bh312rcd13ifvqdk0","pricing_plan_id":"cebpf4jnsgd1na2vs0mg"},{"bike_id":"d1cbc06a-e3a4-43d2-805a-6cf225011306","system_id":"levelo_inurba_marseille","lat":43.23968,"lon":5.36634,"is_reserved":false,"is_disabled":false,"rental_uris":{"android":"levelo://app?vid=d1cbc06a-e3a4-43d2-805a-6cf225011306","ios":"levelo://app?vid=d1cbc06a-e3a4-43d2-805a-6cf225011306"},"vehicle_type_id":"4","last_reported":1727816925,"current_range_meters":30000,"station_id":"ce4bhi12rcd13ifvqfp0","pricing_plan_id":"cebpf4jnsgd1na2vs0mg"},{"bike_id":"73a28578-476d-45af-acfa-f5f1666599f1","system_id":"levelo_inurba_marseille","lat":43.3153,"lon":5.38036,"is_reserved":false,"is_disabled":false,"rental_uris":{"android":"levelo://app?vid=73a28578-476d-45af-acfa-f5f1666599f1","ios":"levelo://app?vid=73a28578-476d-45af-acfa-f5f1666599f1"},"vehicle_type_id":"4","last_reported":1727816925,"current_range_meters":36800,"station_id":"ce4bhsp2rcd13ifvqi50","pricing_plan_id":"cebpf4jnsgd1na2vs0mg"},{"bike_id":"d3f22c51-11b6-49c2-8c77-8af07fd74dee","system_id":"levelo_inurba_marseille","lat":43.30146,"lon":5.3987,"is_reserved":false,"is_disabled":false,"rental_uris":{"android":"levelo://app?vid=d3f22c51-11b6-49c2-8c77-8af07fd74dee","ios":"levelo://app?vid=d3f22c51-11b6-49c2-8c77-8af07fd74dee"},"vehicle_type_id":"4","last_reported":1727816925,"current_range_meters":15200,"station_id":"ce4bh0h2rcd13ifvqd40","pricing_plan_id":"cebpf4jnsgd1na2vs0mg"},{"bike_id":"13bf8249-df3c-453e-97f3-fd299880241f","system_id":"levelo_inurba_marseille","lat":43.297028,"lon":5.366034,"is_reserved":false,"is_disabled":false,"rental_uris":{"android":"levelo://app?vid=13bf8249-df3c-453e-97f3-fd299880241f","ios":"levelo://app?vid=13bf8249-df3c-453e-97f3-fd299880241f"},"vehicle_type_id":"4","last_reported":1727816925,"current_range_meters":38000,"station_id":"ce4bgn12rcd13ifvqbt0","pricing_plan_id":"cebpf4jnsgd1na2vs0mg"},{"bike_id":"d1db18f8-1c4b-4828-9b2c-027f685c46fe","system_id":"levelo_inurba_marseille","lat":43.31164,"lon":5.38709,"is_reserved":false,"is_disabled":false,"rental_uris":{"android":"levelo://app?vid=d1db18f8-1c4b-4828-9b2c-027f685c46fe","ios":"levelo://app?vid=d1db18f8-1c4b-4828-9b2c-027f685c46fe"},"vehicle_type_id":"4","last_reported":1727816925,"current_range_meters":15200,"station_id":"ce4bgv12rcd13ifvqcp0","pricing_plan_id":"cebpf4jnsgd1na2vs0mg"},{"bike_id":"d5353e03-4c3a-4f47-896d-6a0484755018","system_id":"levelo_inurba_marseille","lat":43.30594,"lon":5.39356,"is_reserved":false,"is_disabled":false,"rental_uris":{"android":"levelo://app?vid=d5353e03-4c3a-4f47-896d-6a0484755018","ios":"levelo://app?vid=d5353e03-4c3a-4f47-896d-6a0484755018"},"vehicle_type_id":"4","last_reported":1727816925,"current_range_meters":22800,"station_id":"ce4bh0p2rcd13ifvqd80","pricing_plan_id":"cebpf4jnsgd1na2vs0mg"},{"bike_id":"de66679d-f152-4314-9262-da36d9d070eb","system_id":"levelo_inurba_marseille","lat":43.28031,"lon":5.36956,"is_reserved":false,"is_disabled":false,"rental_uris":{"android":"levelo://app?vid=de66679d-f152-4314-9262-da36d9d070eb","ios":"levelo://app?vid=de66679d-f152-4314-9262-da36d9d070eb"},"vehicle_type_id":"4","last_reported":1727816925,"current_range_meters":25200,"station_id":"ce4bha12rcd13ifvqef0","pricing_plan_id":"cebpf4jnsgd1na2vs0mg"},{"bike_id":"af924da6-063d-4061-abcf-623ee171c598","system_id":"levelo_inurba_marseille","lat":43.29285,"lon":5.40125,"is_reserved":false,"is_disabled":false,"rental_uris":{"android":"levelo://app?vid=af924da6-063d-4061-abcf-623ee171c598","ios":"levelo://app?vid=af924da6-063d-4061-abcf-623ee171c598"},"vehicle_type_id":"4","last_reported":1727816925,"current_range_meters":17600,"station_id":"ce4bh312rcd13ifvqdk0","pricing_plan_id":"cebpf4jnsgd1na2vs0mg"},{"bike_id":"2faff174-8bd4-4e90-b2f9-3ea1a48d7246","system_id":"levelo_inurba_marseille","lat":43.28417,"lon":5.37514,"is_reserved":false,"is_disabled":false,"rental_uris":{"android":"levelo://app?vid=2faff174-8bd4-4e90-b2f9-3ea1a48d7246","ios":"levelo://app?vid=2faff174-8bd4-4e90-b2f9-3ea1a48d7246"},"vehicle_type_id":"4","last_reported":1727816925,"current_range_meters":3200,"station_id":"ce4bh412rcd13ifvqds0","pricing_plan_id":"cebpf4jnsgd1na2vs0mg"},{"bike_id":"80cd2eb9-6d61-4806-bcbf-bdc942195b61","system_id":"levelo_inurba_marseille","lat":43.28662,"lon":5.36354,"is_reserved":false,"is_disabled":false,"rental_uris":{"android":"levelo://app?vid=80cd2eb9-6d61-4806-bcbf-bdc942195b61","ios":"levelo://app?vid=80cd2eb9-6d61-4806-bcbf-bdc942195b61"},"vehicle_type_id":"4","last_reported":1727816925,"current_range_meters":38800,"station_id":"ce4bhah2rcd13ifvqej0","pricing_plan_id":"cebpf4jnsgd1na2vs0mg"},{"bike_id":"d02732f0-a413-4720-a3bc-e52746670bfb","system_id":"levelo_inurba_marseille","lat":43.32292,"lon":5.38264,"is_reserved":false,"is_disabled":false,"rental_uris":{"android":"levelo://app?vid=d02732f0-a413-4720-a3bc-e52746670bfb","ios":"levelo://app?vid=d02732f0-a413-4720-a3bc-e52746670bfb"},"vehicle_type_id":"4","last_reported":1727816925,"current_range_meters":26000,"station_id":"ce4bhr12rcd13ifvqhqg","pricing_plan_id":"cebpf4jnsgd1na2vs0mg"},{"bike_id":"b11ad43b-c46e-408b-8084-a135505e015e","system_id":"levelo_inurba_marseille","lat":43.25416,"lon":5.39429,"is_reserved":false,"is_disabled":false,"rental_uris":{"android":"levelo://app?vid=b11ad43b-c46e-408b-8084-a135505e015e","ios":"levelo://app?vid=b11ad43b-c46e-408b-8084-a135505e015e"},"vehicle_type_id":"4","last_reported":1727816925,"current_range_meters":9600,"station_id":"","pricing_plan_id":"cebpf4jnsgd1na2vs0mg"},{"bike_id":"19a79987-6316-41a2-8523-4d4a06624895","system_id":"levelo_inurba_marseille","lat":43.29977,"lon":5.3718,"is_reserved":false,"is_disabled":false,"rental_uris":{"android":"levelo://app?vid=19a79987-6316-41a2-8523-4d4a06624895","ios":"levelo://app?vid=19a79987-6316-41a2-8523-4d4a06624895"},"vehicle_type_id":"4","last_reported":1727816925,"current_range_meters":28400,"station_id":"ce4bgr92rcd13ifvqc7g","pricing_plan_id":"cebpf4jnsgd1na2vs0mg"},{"bike_id":"ab932a5f-6aba-4bb1-ade3-2d0ba12729b9","system_id":"levelo_inurba_marseille","lat":43.32292,"lon":5.3827,"is_reserved":false,"is_disabled":false,"rental_uris":{"android":"levelo://app?vid=ab932a5f-6aba-4bb1-ade3-2d0ba12729b9","ios":"levelo://app?vid=ab932a5f-6aba-4bb1-ade3-2d0ba12729b9"},"vehicle_type_id":"4","last_reported":1727816925,"current_range_meters":20400,"station_id":"ce4bhr12rcd13ifvqhqg","pricing_plan_id":"cebpf4jnsgd1na2vs0mg"},{"bike_id":"7a58c2c8-50c0-4818-855c-4b86297baff1","system_id":"levelo_inurba_marseille","lat":43.337444,"lon":5.374475,"is_reserved":false,"is_disabled":false,"rental_uris":{"android":"levelo://app?vid=7a58c2c8-50c0-4818-855c-4b86297baff1","ios":"levelo://app?vid=7a58c2c8-50c0-4818-855c-4b86297baff1"},"vehicle_type_id":"4","last_reported":1727816925,"current_range_meters":30400,"station_id":"","pricing_plan_id":"cebpf4jnsgd1na2vs0mg"},{"bike_id":"f0db11ce-2498-4a56-b762-7aa0a64821f6","system_id":"levelo_inurba_marseille","lat":43.32482,"lon":5.36567,"is_reserved":false,"is_disabled":false,"rental_uris":{"android":"levelo://app?vid=f0db11ce-2498-4a56-b762-7aa0a64821f6","ios":"levelo://app?vid=f0db11ce-2498-4a56-b762-7aa0a64821f6"},"vehicle_type_id":"4","last_reported":1727816925,"current_range_meters":12000,"station_id":"ce4bhs12rcd13ifvqhvg","pricing_plan_id":"cebpf4jnsgd1na2vs0mg"},{"bike_id":"a4965236-212c-45e4-a4f6-fb116ae8f51f","system_id":"levelo_inurba_marseille","lat":43.3088,"lon":5.39622,"is_reserved":false,"is_disabled":false,"rental_uris":{"android":"levelo://app?vid=a4965236-212c-45e4-a4f6-fb116ae8f51f","ios":"levelo://app?vid=a4965236-212c-45e4-a4f6-fb116ae8f51f"},"vehicle_type_id":"4","last_reported":1727816925,"current_range_meters":38800,"station_id":"ce4bh012rcd13ifvqcv0","pricing_plan_id":"cebpf4jnsgd1na2vs0mg"},{"bike_id":"e650637e-f231-4eae-9c5d-c52eba283438","system_id":"levelo_inurba_marseille","lat":43.28725,"lon":5.36083,"is_reserved":false,"is_disabled":false,"rental_uris":{"android":"levelo://app?vid=e650637e-f231-4eae-9c5d-c52eba283438","ios":"levelo://app?vid=e650637e-f231-4eae-9c5d-c52eba283438"},"vehicle_type_id":"4","last_reported":1727816925,"current_range_meters":7200,"station_id":"cki0cbj6b192h4jlfktg","pricing_plan_id":"cebpf4jnsgd1na2vs0mg"},{"bike_id":"a9d054f3-c8f1-45d2-8a4a-7a8f2317d8d9","system_id":"levelo_inurba_marseille","lat":43.28585,"lon":5.39486,"is_reserved":false,"is_disabled":false,"rental_uris":{"android":"levelo://app?vid=a9d054f3-c8f1-45d2-8a4a-7a8f2317d8d9","ios":"levelo://app?vid=a9d054f3-c8f1-45d2-8a4a-7a8f2317d8d9"},"vehicle_type_id":"4","last_reported":1727816925,"current_range_meters":38800,"station_id":"ce4bh292rcd13ifvqdg0","pricing_plan_id":"cebpf4jnsgd1na2vs0mg"},{"bike_id":"645e0675-e3a3-4232-80db-8a26c764b155","system_id":"levelo_inurba_marseille","lat":43.27072,"lon":5.42281,"is_reserved":false,"is_disabled":false,"rental_uris":{"android":"levelo://app?vid=645e0675-e3a3-4232-80db-8a26c764b155","ios":"levelo://app?vid=645e0675-e3a3-4232-80db-8a26c764b155"},"vehicle_type_id":"4","last_reported":1727816925,"current_range_meters":36800,"station_id":"ce4bhk92rcd13ifvqgb0","pricing_plan_id":"cebpf4jnsgd1na2vs0mg"},{"bike_id":"3767ee69-4db7-436b-b78a-60cd947bf0bf","system_id":"levelo_inurba_marseille","lat":43.33609,"lon":5.41027,"is_reserved":false,"is_disabled":false,"rental_uris":{"android":"levelo://app?vid=3767ee69-4db7-436b-b78a-60cd947bf0bf","ios":"levelo://app?vid=3767ee69-4db7-436b-b78a-60cd947bf0bf"},"vehicle_type_id":"4","last_reported":1727816925,"current_range_meters":20000,"station_id":"ce4bhqh2rcd13ifvqhmg","pricing_plan_id":"cebpf4jnsgd1na2vs0mg"},{"bike_id":"cbc4634d-3a71-47bd-89a3-d675f140fbbf","system_id":"levelo_inurba_marseille","lat":43.3034,"lon":5.40435,"is_reserved":false,"is_disabled":false,"rental_uris":{"android":"levelo://app?vid=cbc4634d-3a71-47bd-89a3-d675f140fbbf","ios":"levelo://app?vid=cbc4634d-3a71-47bd-89a3-d675f140fbbf"},"vehicle_type_id":"4","last_reported":1727816925,"current_range_meters":24000,"station_id":"ce4bh012rcd13ifvqd10","pricing_plan_id":"cebpf4jnsgd1na2vs0mg"},{"bike_id":"712701f1-c013-4734-866d-dd2b310cc80e","system_id":"levelo_inurba_marseille","lat":43.29171,"lon":5.37172,"is_reserved":false,"is_disabled":false,"rental_uris":{"android":"levelo://app?vid=712701f1-c013-4734-866d-dd2b310cc80e","ios":"levelo://app?vid=712701f1-c013-4734-866d-dd2b310cc80e"},"vehicle_type_id":"4","last_reported":1727816925,"current_range_meters":16800,"station_id":"ce4bha92rcd13ifvqeh0","pricing_plan_id":"cebpf4jnsgd1na2vs0mg"},{"bike_id":"92ac41bb-ab36-44e8-ace8-2147f0b6a10d","system_id":"levelo_inurba_marseille","lat":43.30802,"lon":5.43522,"is_reserved":false,"is_disabled":false,"rental_uris":{"android":"levelo://app?vid=92ac41bb-ab36-44e8-ace8-2147f0b6a10d","ios":"levelo://app?vid=92ac41bb-ab36-44e8-ace8-2147f0b6a10d"},"vehicle_type_id":"4","last_reported":1727816925,"current_range_meters":14400,"station_id":"ce4bhph2rcd13ifvqheg","pricing_plan_id":"cebpf4jnsgd1na2vs0mg"},{"bike_id":"7bbd42bb-c4e7-40ae-a7c0-13453c6dffe6","system_id":"levelo_inurba_marseille","lat":43.31755,"lon":5.3902,"is_reserved":false,"is_disabled":false,"rental_uris":{"android":"levelo://app?vid=7bbd42bb-c4e7-40ae-a7c0-13453c6dffe6","ios":"levelo://app?vid=7bbd42bb-c4e7-40ae-a7c0-13453c6dffe6"},"vehicle_type_id":"4","last_reported":1727816925,"current_range_meters":38400,"station_id":"ce4bhqp2rcd13ifvqhng","pricing_plan_id":"cebpf4jnsgd1na2vs0mg"},{"bike_id":"84a5d309-c017-45e4-b54b-c1202248de5a","system_id":"levelo_inurba_marseille","lat":43.27917,"lon":5.39585,"is_reserved":false,"is_disabled":false,"rental_uris":{"android":"levelo://app?vid=84a5d309-c017-45e4-b54b-c1202248de5a","ios":"levelo://app?vid=84a5d309-c017-45e4-b54b-c1202248de5a"},"vehicle_type_id":"4","last_reported":1727816925,"current_range_meters":27600,"station_id":"ce4bhf92rcd13ifvqf40","pricing_plan_id":"cebpf4jnsgd1na2vs0mg"},{"bike_id":"a6124b5f-0ac8-4114-9a30-d59aa06912a6","system_id":"levelo_inurba_marseille","lat":43.31323,"lon":5.39698,"is_reserved":false,"is_disabled":false,"rental_uris":{"android":"levelo://app?vid=a6124b5f-0ac8-4114-9a30-d59aa06912a6","ios":"levelo://app?vid=a6124b5f-0ac8-4114-9a30-d59aa06912a6"},"vehicle_type_id":"4","last_reported":1727816925,"current_range_meters":38800,"station_id":"ce4bgvp2rcd13ifvqcu0","pricing_plan_id":"cebpf4jnsgd1na2vs0mg"},