{"last_updated":1745219443,"ttl":60,"version":"2.2","data":{"bikes":[{"bike_id":"602bbc1e-381c-4bff-bc08-d8b66b4b34a7","system_id":"levelo_inurba_marseille","lat":43.29264,"lon":5.3686,"is_reserved":false,"is_disabled":false,"rental_uris":{"android":"levelo://app?vid=602bbc1e-381c-4bff-bc08-d8b66b4b34a7","ios":"levelo://app?vid=602bbc1e-381c-4bff-bc08-d8b66b4b34a7"},"vehicle_type_id":"4","last_reported":1745219443,"current_range_meters":2800,"station_id":"ce4bhbp2rcd13ifvqesg","pricing_plan_id":"cebpf4jnsgd1na2vs0mg"},{"bike_id":"186380b9-3dab-457b-b648-71d123fa0368","system_id":"levelo_inurba_marseille","lat":43.251079,"lon":5.403293,"is_reserved":false,"is_disabled":true,"rental_uris":{"android":"levelo://app?vid=186380b9-3dab-457b-b648-71d123fa0368","ios":"levelo://app?vid=186380b9-3dab-457b-b648-71d123fa0368"},"vehicle_type_id":"4","last_reported":1745219443,"current_range_meters":2800,"station_id":"ce4bhlh2rcd13ifvqgig","pricing_plan_id":"cebpf4jnsgd1na2vs0mg"},{"bike_id":"a4f53f83-a203-4112-88cd-432220291605","system_id":"levelo_inurba_marseille","lat":43.28432,"lon":5.35004,"is_reserved":false,"is_disabled":true,"rental_uris":{"android":"levelo://app?vid=a4f53f83-a203-4112-88cd-432220291605","ios":"levelo://app?vid=a4f53f83-a203-4112-88cd-432220291605"},"vehicle_type_id":"4","last_reported":1745219443,"current_range_meters":3200,"station_id":"ce4bhbh2rcd13ifvqepg","pricing_plan_id":"cebpf4jnsgd1na2vs0mg"},{"bike_id":"1b4a8f9d-2faa-464e-b7a7-813f9c13d848","system_id":"levelo_inurba_marseille","lat":43.2418,"lon":5.364154,"is_reserved":false,"is_disabled":true,"rental_uris":{"android":"levelo://app?vid=1b4a8f9d-2faa-464e-b7a7-813f9c13d848","ios":"levelo://app?vid=1b4a8f9d-2faa-464e-b7a7-813f9c13d848"},"vehicle_type_id":"4","last_reported":1745219443,"current_range_meters":3600,"station_id":"cpo36qri1sfpv3e86is0","pricing_plan_id":"cebpf4jnsgd1na2vs0mg"},{"bike_id":"4e2d7459-c30f-4125-8783-49ae2904310d","system_id":"levelo_inurba_marseille","lat":43.29214,"lon":5.39343,"is_reserved":false,"is_disabled":false,"rental_uris":{"android":"levelo://app?vid=4e2d7459-c30f-4125-8783-49ae2904310d","ios":"levelo://app?vid=4e2d7459-c30f-4125-8783-49ae2904310d"},"vehicle_type_id":"4","last_reported":1745219443,"current_range_meters":4000,"station_id":"ce4bh192rcd13ifvqdd0","pricing_plan_id":"cebpf4jnsgd1na2vs0mg"},{"bike_id":"0a536dcd-fe91-4f8e-9e67-10acda8e38c2","system_id":"levelo_inurba_marseille","lat":43.28456,"lon":5.35898,"is_reserved":false,"is_disabled":false,"rental_uris":{"android":"levelo://app?vid=0a536dcd-fe91-4f8e-9e67-10acda8e38c2","ios":"levelo://app?vid=0a536dcd-fe91-4f8e-9e67-10acda8e38c2"},"vehicle_type_id":"4","last_reported":1745219443,"current_range_meters":4000,"station_id":"ce4bhah2rcd13ifvqei0","pricing_plan_id":"cebpf4jnsgd1na2vs0mg"},{"bike_id":"a969d1ed-77d3-4189-b5a7-0bf8cf90d349","system_id":"levelo_inurba_marseille","lat":43.23054,"lon":5.35503,"is_reserved":false,"is_disabled":false,"rental_uris":{"android":"levelo://app?vid=a969d1ed-77d3-4189-b5a7-0bf8cf90d349","ios":"levelo://app?vid=a969d1ed-77d3-4189-b5a7-0bf8cf90d349"},"vehicle_type_id":"4","last_reported":1745219443,"current_range_meters":4400,"station_id":"","pricing_plan_id":"cebpf4jnsgd1na2vs0mg"},{"bike_id":"0dd13644-e942-427d-9540-f17eaef6dd89","system_id":"levelo_inurba_marseille","lat":43.27022,"lon":5.38796,"is_reserved":false,"is_disabled":true,"rental_uris":{"android":"levelo://app?vid=0dd13644-e942-427d-9540-f17eaef6dd89","ios":"levelo://app?vid=0dd13644-e942-427d-9540-f17eaef6dd89"},"vehicle_type_id":"4","last_reported":1745219443,"current_range_meters":4800,"station_id":"","pricing_plan_id":"cebpf4jnsgd1na2vs0mg"},{"bike_id":"b157dc81-51c5-45f3-a677-9e9c3cf6283b","system_id":"levelo_inurba_marseille","lat":43.308258,"lon":5.371236,"is_reserved":false,"is_disabled":false,"rental_uris":{"android":"levelo://app?vid=b157dc81-51c5-45f3-a677-9e9c3cf6283b","ios":"levelo://app?vid=b157dc81-51c5-45f3-a677-9e9c3cf6283b"},"vehicle_type_id":"4","last_reported":1745219443,"current_range_meters":4800,"station_id":"","pricing_plan_id":"cebpf4jnsgd1na2vs0mg"},{"bike_id":"8dcdbddf-c32e-4b31-8e8c-b20dbb5dcd33","system_id":"levelo_inurba_marseille","lat":43.27955,"lon":5.41079,"is_reserved":false,"is_disabled":false,"rental_uris":{"android":"levelo://app?vid=8dcdbddf-c32e-4b31-8e8c-b20dbb5dcd33","ios":"levelo://app?vid=8dcdbddf-c32e-4b31-8e8c-b20dbb5dcd33"},"vehicle_type_id":"4","last_reported":1745219443,"current_range_meters":4800,"station_id":"ce4bhnp2rcd13ifvqh0g","pricing_plan_id":"cebpf4jnsgd1na2vs0mg"},{"bike_id":"2d46f81e-bf83-4416-bba9-7e11b13652fc","system_id":"levelo_inurba_marseille","lat":43.30126,"lon":5.37426,"is_reserved":false,"is_disabled":true,"rental_uris":{"android":"levelo://app?vid=2d46f81e-bf83-4416-bba9-7e11b13652fc","ios":"levelo://app?vid=2d46f81e-bf83-4416-bba9-7e11b13652fc"},"vehicle_type_id":"4","last_reported":1745219443,"current_range_meters":4800,"station_id":"ce4bgs92rcd13ifvqcc0","pricing_plan_id":"cebpf4jnsgd1na2vs0mg"},{"bike_id":"c7bcb425-6a3e-46d0-9451-728e5831e9b4","system_id":"levelo_inurba_marseille","lat":43.26655,"lon":5.38303,"is_reserved":false,"is_disabled":false,"rental_uris":{"android":"levelo://app?vid=c7bcb425-6a3e-46d0-9451-728e5831e9b4","ios":"levelo://app?vid=c7bcb425-6a3e-46d0-9451-728e5831e9b4"},"vehicle_type_id":"4","last_reported":1745219443,"current_range_meters":5600,"station_id":"ce4bhg92rcd13ifvqf90","pricing_plan_id":"cebpf4jnsgd1na2vs0mg"},{"bike_id":"138d6608-886e-4863-a664-7df6e5cc9a47","system_id":"levelo_inurba_marseille","lat":43.32633,"lon":5.422,"is_reserved":false,"is_disabled":false,"rental_uris":{"android":"levelo://app?vid=138d6608-886e-4863-a664-7df6e5cc9a47","ios":"levelo://app?vid=138d6608-886e-4863-a664-7df6e5cc9a47"},"vehicle_type_id":"4","last_reported":1745219443,"current_range_meters":5600,"station_id":"","pricing_plan_id":"cebpf4jnsgd1na2vs0mg"},{"bike_id":"c1cf7e7e-3484-4493-be00-fedbf732cf36","system_id":"levelo_inurba_marseille","lat":43.31489,"lon":5.37293,"is_reserved":false,"is_disabled":false,"rental_uris":{"android":"levelo://app?vid=c1cf7e7e-3484-4493-be00-fedbf732cf36","ios":"levelo://app?vid=c1cf7e7e-3484-4493-be00-fedbf732cf36"},"vehicle_type_id":"4","last_reported":1745219443,"current_range_meters":6000,"station_id":"ce4bgt12rcd13ifvqcd0","pricing_plan_id":"cebpf4jnsgd1na2vs0mg"},{"bike_id":"24213b37-b766-4d9c-a174-f6bf34920497","system_id":"levelo_inurba_marseille","lat":43.28469,"lon":5.384178,"is_reserved":false,"is_disabled":false,"rental_uris":{"android":"levelo://app?vid=24213b37-b766-4d9c-a174-f6bf34920497","ios":"levelo://app?vid=24213b37-b766-4d9c-a174-f6bf34920497"},"vehicle_type_id":"4","last_reported":1745219443,"current_range_meters":6000,"station_id":"ce4bh512rcd13ifvqe3g","pricing_plan_id":"cebpf4jnsgd1na2vs0mg"},{"bike_id":"6565ca44-2e63-4f42-a847-09fa2bdb37f3","system_id":"levelo_inurba_marseille","lat":43.31994,"lon":5.38149,"is_reserved":false,"is_disabled":true,"rental_uris":{"android":"levelo://app?vid=6565ca44-2e63-4f42-a847-09fa2bdb37f3","ios":"levelo://app?vid=6565ca44-2e63-4f42-a847-09fa2bdb37f3"},"vehicle_type_id":"4","last_reported":1745219443,"current_range_meters":6000,"station_id":"ce4bhr12rcd13ifvqhpg","pricing_plan_id":"cebpf4jnsgd1na2vs0mg"},{"bike_id":"2ba8c5c4-f0af-4f23-add7-feee032d7669","system_id":"levelo_inurba_marseille","lat":43.282584,"lon":5.350849,"is_reserved":false,"is_disabled":false,"rental_uris":{"android":"levelo://app?vid=2ba8c5c4-f0af-4f23-add7-feee032d7669","ios":"levelo://app?vid=2ba8c5c4-f0af-4f23-add7-feee032d7669"},"vehicle_type_id":"4","last_reported":1745219443,"current_range_meters":6000,"station_id":"ce4bhbp2rcd13ifvqerg","pricing_plan_id":"cebpf4jnsgd1na2vs0mg"},{"bike_id":"cb1906e0-eddc-4a43-b28c-29be8c0aa51a","system_id":"levelo_inurba_marseille","lat":43.27486,"lon":5.42475,"is_reserved":false,"is_disabled":true,"rental_uris":{"android":"levelo://app?vid=cb1906e0-eddc-4a43-b28c-29be8c0aa51a","ios":"levelo://app?vid=cb1906e0-eddc-4a43-b28c-29be8c0aa51a"},"vehicle_type_id":"4","last_reported":1745219443,"current_range_meters":6400,"station_id":"ce4bhn92rcd13ifvqgrg","pricing_plan_id":"cebpf4jnsgd1na2vs0mg"},{"bike_id":"ab9be9a2-b412-4e12-b774-0ac14e1c75f2","system_id":"levelo_inurba_marseille","lat":43.23162,"lon":5.43716,"is_reserved":false,"is_disabled":false,"rental_uris":{"android":"levelo://app?vid=ab9be9a2-b412-4e12-b774-0ac14e1c75f2","ios":"levelo://app?vid=ab9be9a2-b412-4e12-b774-0ac14e1c75f2"},"vehicle_type_id":"4","last_reported":1745219443,"current_range_meters":6400,"station_id":"","pricing_plan_id":"cebpf4jnsgd1na2vs0mg"},{"bike_id":"9810eab0-14d5-401c-ae8f-b57e44462930","system_id":"levelo_inurba_marseille","lat":43.23172,"lon":5.39995,"is_reserved":false,"is_disabled":false,"rental_uris":{"android":"levelo://app?vid=9810eab0-14d5-401c-ae8f-b57e44462930","ios":"levelo://app?vid=9810eab0-14d5-401c-ae8f-b57e44462930"},"vehicle_type_id":"4","last_reported":1745219443,"current_range_meters":6400,"station_id":"ce4bhn12rcd13ifvqgqg","pricing_plan_id":"cebpf4jnsgd1na2vs0mg"},{"bike_id":"f0b6af0d-1cbf-47a3-af07-dab09fabbbf0","system_id":"levelo_inurba_marseille","lat":43.23193,"lon":5.35537,"is_reserved":false,"is_disabled":false,"rental_uris":{"android":"levelo://app?vid=f0b6af0d-1cbf-47a3-af07-dab09fabbbf0","ios":"levelo://app?vid=f0b6af0d-1cbf-47a3-af07-dab09fabbbf0"},"vehicle_type_id":"4","last_reported":1745219443,"current_range_meters":6400,"station_id":"ce4bhu92rcd13ifvqi70","pricing_plan_id":"cebpf4jnsgd1na2vs0mg"},{"bike_id":"868b379d-e27f-4516-8288-d0bec557660c","system_id":"levelo_inurba_marseille","lat":43.30696,"lon":5.38076,"is_reserved":false,"is_disabled":false,"rental_uris":{"android":"levelo://app?vid=868b379d-e27f-4516-8288-d0bec557660c","ios":"levelo://app?vid=868b379d-e27f-4516-8288-d0bec557660c"},"vehicle_type_id":"4","last_reported":1745219443,"current_range_meters":6400,"station_id":"","pricing_plan_id":"cebpf4jnsgd1na2vs0mg"},{"bike_id":"7afeef51-2056-4d06-b296-c2c124d55600","system_id":"levelo_inurba_marseille","lat":43.31727,"lon":5.42418,"is_reserved":false,"is_disabled":false,"rental_uris":{"android":"levelo://app?vid=7afeef51-2056-4d06-b296-c2c124d55600","ios":"levelo://app?vid=7afeef51-2056-4d06-b296-c2c124d55600"},"vehicle_type_id":"4","last_reported":1745219443,"current_range_meters":6400,"station_id":"ce4bhp92rcd13ifvqhbg","pricing_plan_id":"cebpf4jnsgd1na2vs0mg"},{"bike_id":"97e50bb0-9a70-481b-b370-e509345e710a","system_id":"levelo_inurba_marseille","lat":43.280367,"lon":5.36939,"is_reserved":false,"is_disabled":true,"rental_uris":{"android":"levelo://app?vid=97e50bb0-9a70-481b-b370-e509345e710a","ios":"levelo://app?vid=97e50bb0-9a70-481b-b370-e509345e710a"},"vehicle_type_id":"4","last_reported":1745219443,"current_range_meters":6800,"station_id":"ce4bha12rcd13ifvqef0","pricing_plan_id":"cebpf4jnsgd1na2vs0mg"},{"bike_id":"1b64a06c-8c3f-4044-b435-0c5447524fd5","system_id":"levelo_inurba_marseille","lat":43.2871,"lon":5.37395,"is_reserved":false,"is_disabled":true,"rental_uris":{"android":"levelo://app?vid=1b64a06c-8c3f-4044-b435-0c5447524fd5","ios":"levelo://app?vid=1b64a06c-8c3f-4044-b435-0c5447524fd5"},"vehicle_type_id":"4","last_reported":1745219443,"current_range_meters":6800,"station_id":"ce4bh3p2rcd13ifvqdq0","pricing_plan_id":"cebpf4jnsgd1na2vs0mg"},{"bike_id":"d0395819-ea40-46d3-acfe-3a01d6c396c0","system_id":"levelo_inurba_marseille","lat":43.23163,"lon":5.39994,"is_reserved":false,"is_disabled":false,"rental_uris":{"android":"levelo://app?vid=d0395819-ea40-46d3-acfe-3a01d6c396c0","ios":"levelo://app?vid=d0395819-ea40-46d3-acfe-3a01d6c396c0"},"vehicle_type_id":"4","last_reported":1745219443,"current_range_meters":6800,"station_id":"ce4bhn12rcd13ifvqgqg","pricing_plan_id":"cebpf4jnsgd1na2vs0mg"},{"bike_id":"1cccbe64-5245-4d11-beba-70459f6539fa","system_id":"levelo_inurba_marseille","lat":43.29351,"lon":5.37862,"is_reserved":false,"is_disabled":false,"rental_uris":{"android":"levelo://app?vid=1cccbe64-5245-4d11-beba-70459f6539fa","ios":"levelo://app?vid=1cccbe64-5245-4d11-beba-70459f6539fa"},"vehicle_type_id":"4","last_reported":1745219443,"current_range_meters":7200,"station_id":"ce4bgjh2rcd13ifvqbf0","pricing_plan_id":"cebpf4jnsgd1na2vs0mg"},{"bike_id":"527fac75-0783-4b2c-bd4e-07f2f2fee902","system_id":"levelo_inurba_marseille","lat":43.311215,"lon":5.378005,"is_reserved":false,"is_disabled":false,"rental_uris":{"android":"levelo://app?vid=527fac75-0783-4b2c-bd4e-07f2f2fee902","ios":"levelo://app?vid=527fac75-0783-4b2c-bd4e-07f2f2fee902"},"vehicle_type_id":"4","last_reported":1745219443,"current_range_meters":7200,"station_id":"ce4bgt92rcd13ifvqcg0","pricing_plan_id":"cebpf4jnsgd1na2vs0mg"},{"bike_id":"cb9127a5-76f8-4cfa-9e72-3f333449e26a","system_id":"levelo_inurba_marseille","lat":43.27952,"lon":5.41054,"is_reserved":false,"is_disabled":false,"rental_uris":{"android":"levelo://app?vid=cb9127a5-76f8-4cfa-9e72-3f333449e26a","ios":"levelo://app?vid=cb9127a5-76f8-4cfa-9e72-3f333449e26a"},"vehicle_type_id":"4","last_reported":1745219443,"current_range_meters":8000,"station_id":"ce4bhnp2rcd13ifvqh0g","pricing_plan_id":"cebpf4jnsgd1na2vs0mg"},{"bike_id":"035649de-666e-4cc2-a5ff-45d9877cbd67","system_id":"levelo_inurba_marseille","lat":43.29029,"lon":5.35927,"is_reserved":false,"is_disabled":false,"rental_uris":{"android":"levelo://app?vid=035649de-666e-4cc2-a5ff-45d9877cbd67","ios":"levelo://app?vid=035649de-666e-4cc2-a5ff-45d9877cbd67"},"vehicle_type_id":"4","last_reported":1745219443,"current_range_meters":8000,"station_id":"ce4bha92rcd13ifvqeg0","pricing_plan_id":"cebpf4jnsgd1na2vs0mg"},{"bike_id":"4e6892ef-dbe3-43e4-bc69-b2da5d802c90","system_id":"levelo_inurba_marseille","lat":43.27381,"lon":5.3625,"is_reserved":false,"is_disabled":true,"rental_uris":{"android":"levelo://app?vid=4e6892ef-dbe3-43e4-bc69-b2da5d802c90","ios":"levelo://app?vid=4e6892ef-dbe3-43e4-bc69-b2da5d802c90"},"vehicle_type_id":"4","last_reported":1745219443,"current_range_meters":8000,"station_id":"ce4bhbh2rcd13ifvqeo0","pricing_plan_id":"cebpf4jnsgd1na2vs0mg"},{"bike_id":"4e0feb4b-9af5-4c5c-a215-eabded87c4f9","system_id":"levelo_inurba_marseille","lat":43.24449,"lon":5.42746,"is_reserved":false,"is_disabled":false,"rental_uris":{"android":"levelo://app?vid=4e0feb4b-9af5-4c5c-a215-eabded87c4f9","ios":"levelo://app?vid=4e0feb4b-9af5-4c5c-a215-eabded87c4f9"},"vehicle_type_id":"4","last_reported":1745219443,"current_range_meters":8000,"station_id":"","pricing_plan_id":"cebpf4jnsgd1na2vs0mg"},{"bike_id":"a360f0f1-2725-4615-9b2f-399546db3eef","system_id":"levelo_inurba_marseille","lat":43.26497,"lon":5.3954,"is_reserved":false,"is_disabled":false,"rental_uris":{"android":"levelo://app?vid=a360f0f1-2725-4615-9b2f-399546db3eef","ios":"levelo://app?vid=a360f0f1-2725-4615-9b2f-399546db3eef"},"vehicle_type_id":"4","last_reported":1745219443,"current_range_meters":8000,"station_id":"ce4bhi12rcd13ifvqfq0","pricing_plan_id":"cebpf4jnsgd1na2vs0mg"},{"bike_id":"1886fb80-2895-40f7-844d-7933f5d904dc","system_id":"levelo_inurba_marseille","lat":43.27885,"lon":5.39319,"is_reserved":false,"is_disabled":false,"rental_uris":{"android":"levelo://app?vid=1886fb80-2895-40f7-844d-7933f5d904dc","ios":"levelo://app?vid=1886fb80-2895-40f7-844d-7933f5d904dc"},"vehicle_type_id":"4","last_reported":1745219443,"current_range_meters":8000,"station_id":"","pricing_plan_id":"cebpf4jnsgd1na2vs0mg"},{"bike_id":"dbcb3890-93e8-4d00-ad8f-8f065bfebff0","system_id":"levelo_inurba_marseille","lat":43.2962,"lon":5.38134,"is_reserved":false,"is_disabled":true,"rental_uris":{"android":"levelo://app?vid=dbcb3890-93e8-4d00-ad8f-8f065bfebff0","ios":"levelo://app?vid=dbcb3890-93e8-4d00-ad8f-8f065bfebff0"},"vehicle_type_id":"4","last_reported":1745219443,"current_range_meters":8400,"station_id":"ce4bgl12rcd13ifvqbo0","pricing_plan_id":"cebpf4jnsgd1na2vs0mg"},{"bike_id":"d8754dce-3ce6-4f68-ba47-f64cfc8b26ab","system_id":"levelo_inurba_marseille","lat":43.231931,"lon":5.355582,"is_reserved":false,"is_disabled":false,"rental_uris":{"android":"levelo://app?vid=d8754dce-3ce6-4f68-ba47-f64cfc8b26ab","ios":"levelo://app?vid=d8754dce-3ce6-4f68-ba47-f64cfc8b26ab"},"vehicle_type_id":"4","last_reported":1745219443,"current_range_meters":8400,"station_id":"ce4bhu92rcd13ifvqi70","pricing_plan_id":"cebpf4jnsgd1na2vs0mg"},{"bike_id":"ddf08875-1592-475b-ae64-af5865607585","system_id":"levelo_inurba_marseille","lat":43.304125,"lon":5.412888,"is_reserved":false,"is_disabled":false,"rental_uris":{"android":"levelo://app?vid=ddf08875-1592-475b-ae64-af5865607585","ios":"levelo://app?vid=ddf08875-1592-475b-ae64-af5865607585"},"vehicle_type_id":"4","last_reported":1745219443,"current_range_meters":8400,"station_id":"ce4bhop2rcd13ifvqh8g","pricing_plan_id":"cebpf4jnsgd1na2vs0mg"},{"bike_id":"575ecb3d-9a37-407e-bd15-e9b0ede0cfdd","system_id":"levelo_inurba_marseille","lat":43.2929,"lon":5.40159,"is_reserved":false,"is_disabled":false,"rental_uris":{"android":"levelo://app?vid=575ecb3d-9a37-407e-bd15-e9b0ede0cfdd","ios":"levelo://app?vid=575ecb3d-9a37-407e-bd15-e9b0ede0cfdd"},"vehicle_type_id":"4","last_reported":1745219443,"current_range_meters":8400,"station_id":"ce4bh312rcd13ifvqdk0","pricing_plan_id":"cebpf4jnsgd1na2vs0mg"},{"bike_id":"d5ef647d-00ca-43ce-8de2-a9826ded3f15","system_id":"levelo_inurba_marseille","lat":43.21201,"lon":5.35078,"is_reserved":false,"is_disabled":false,"rental_uris":{"android":"levelo://app?vid=d5ef647d-00ca-43ce-8de2-a9826ded3f15","ios":"levelo://app?vid=d5ef647d-00ca-43ce-8de2-a9826ded3f15"},"vehicle_type_id":"4","last_reported":1745219443,"current_range_meters":8400,"station_id":"st_cvj6sg6p6f1abm77japg","pricing_plan_id":"cebpf4jnsgd1na2vs0mg"},{"bike_id":"fa22f285-c123-45a4-984d-fec5c2b43250","system_id":"levelo_inurba_marseille","lat":43.251191,"lon":5.403199,"is_reserved":false,"is_disabled":false,"rental_uris":{"android":"levelo://app?vid=fa22f285-c123-45a4-984d-fec5c2b43250","ios":"levelo://app?vid=fa22f285-c123-45a4-984d-fec5c2b43250"},"vehicle_type_id":"4","last_reported":1745219443,"current_range_meters":8400,"station_id":"ce4bhlh2rcd13ifvqgig","pricing_plan_id":"cebpf4jnsgd1na2vs0mg"},{"bike_id":"d177bdcb-ba4d-4c2e-8899-f6b0f9af395c","system_id":"levelo_inurba_marseille","lat":43.25953,"lon":5.40872,"is_reserved":false,"is_disabled":false,"rental_uris":{"android":"levelo://app?vid=d177bdcb-ba4d-4c2e-8899-f6b0f9af395c","ios":"levelo://app?vid=d177bdcb-ba4d-4c2e-8899-f6b0f9af395c"},"vehicle_type_id":"4","last_reported":1745219443,"current_range_meters":8800,"station_id":"ce4bhm92rcd13ifvqglg","pricing_plan_id":"cebpf4jnsgd1na2vs0mg"},{"bike_id":"33399c5a-7b71-4ae2-a964-55b2f2e618d0","system_id":"levelo_inurba_marseille","lat":43.3021,"lon":5.36569,"is_reserved":false,"is_disabled":true,"rental_uris":{"android":"levelo://app?vid=33399c5a-7b71-4ae2-a964-55b2f2e618d0","ios":"levelo://app?vid=33399c5a-7b71-4ae2-a964-55b2f2e618d0"},"vehicle_type_id":"4","last_reported":1745219443,"current_range_meters":8800,"station_id":"","pricing_plan_id":"cebpf4jnsgd1na2vs0mg"},{"bike_id":"37388e1a-253d-422c-ba73-4a19c8b5c62e","system_id":"levelo_inurba_marseille","lat":43.28717,"lon":5.36098,"is_reserved":false,"is_disabled":false,"rental_uris":{"android":"levelo://app?vid=37388e1a-253d-422c-ba73-4a19c8b5c62e","ios":"levelo://app?vid=37388e1a-253d-422c-ba73-4a19c8b5c62e"},"vehicle_type_id":"4","last_reported":1745219443,"current_range_meters":8800,"station_id":"cki0cbj6b192h4jlfktg","pricing_plan_id":"cebpf4jnsgd1na2vs0mg"},{"bike_id":"e6bafddd-a5d9-44f3-8c65-30a0518f53d4","system_id":"levelo_inurba_marseille","lat":43.25482,"lon":5.37659,"is_reserved":false,"is_disabled":true,"rental_uris":{"android":"levelo://app?vid=e6bafddd-a5d9-44f3-8c65-30a0518f53d4","ios":"levelo://app?vid=e6bafddd-a5d9-44f3-8c65-30a0518f53d4"},"vehicle_type_id":"4","last_reported":1745219443,"current_range_meters":8800,"station_id":"ce4bhh12rcd13ifvqff0","pricing_plan_id":"cebpf4jnsgd1na2vs0mg"},{"bike_id":"f01fc261-033f-49c7-b09e-b9967362bd76","system_id":"levelo_inurba_marseille","lat":43.2886,"lon":5.3584,"is_reserved":false,"is_disabled":true,"rental_uris":{"android":"levelo://app?vid=f01fc261-033f-49c7-b09e-b9967362bd76","ios":"levelo://app?vid=f01fc261-033f-49c7-b09e-b9967362bd76"},"vehicle_type_id":"4","last_reported":1745219443,"current_range_meters":8800,"station_id":"ce4bhb12rcd13ifvqem0","pricing_plan_id":"cebpf4jnsgd1na2vs0mg"},{"bike_id":"ff62b9d0-0cdf-448d-ada3-96d9918ce15c","system_id":"levelo_inurba_marseille","lat":43.311042,"lon":5.369323,"is_reserved":false,"is_disabled":false,"rental_uris":{"android":"levelo://app?vid=ff62b9d0-0cdf-448d-ada3-96d9918ce15c","ios":"levelo://app?vid=ff62b9d0-0cdf-448d-ada3-96d9918ce15c"},"vehicle_type_id":"4","last_reported":1745219443,"current_range_meters":9200,"station_id":"","pricing_plan_id":"cebpf4jnsgd1na2vs0mg"},{"bike_id":"073480d0-53ac-4e40-83c9-067dbb74221e","system_id":"levelo_inurba_marseille","lat":43.29227,"lon":5.36057,"is_reserved":false,"is_disabled":false,"rental_uris":{"android":"levelo://app?vid=073480d0-53ac-4e40-83c9-067dbb74221e","ios":"levelo://app?vid=073480d0-53ac-4e40-83c9-067dbb74221e"},"vehicle_type_id":"4","last_reported":1745219443,"current_range_meters":9200,"station_id":"ce4bhbh2rcd13ifvqeqg","pricing_plan_id":"cebpf4jnsgd1na2vs0mg"},{"bike_id":"3c68d4af-f244-4d5b-a673-170645748e37","system_id":"levelo_inurba_marseille","lat":43.27684,"lon":5.398,"is_reserved":false,"is_disabled":false,"rental_uris":{"android":"levelo://app?vid=3c68d4af-f244-4d5b-a673-170645748e37","ios":"levelo://app?vid=3c68d4af-f244-4d5b-a673-170645748e37"},"vehicle_type_id":"4","last_reported":1745219443,"current_range_meters":9200,"station_id":"","pricing_plan_id":"cebpf4jnsgd1na2vs0mg"},{"bike_id":"3f9b351e-24c7-4831-949f-a89b33917557","system_id":"levelo_inurba_marseille","lat":43.24045,"lon":5.37769,"is_reserved":false,"is_disabled":false,"rental_uris":{"android":"levelo://app?vid=3f9b351e-24c7-4831-949f-a89b33917557","ios":"levelo://app?vid=3f9b351e-24c7-4831-949f-a89b33917557"},"vehicle_type_id":"4","last_reported":1745219443,"current_range_meters":9200,"station_id":"ce4bhnp2rcd13ifvqgvg","pricing_plan_id":"cebpf4jnsgd1na2vs0mg"},{"bike_id":"044b6cdf-529a-462e-b435-6c399001a1a6","system_id":"levelo_inurba_marseille","lat":43.30913,"lon":5.40156,"is_reserved":false,"is_disabled":false,"rental_uris":{"android":"levelo://app?vid=044b6cdf-529a-462e-b435-6c399001a1a6","ios":"levelo://app?vid=044b6cdf-529a-462e-b435-6c399001a1a6"},"vehicle_type_id":"4","last_reported":1745219443,"current_range_meters":9200,"station_id":"ce4bgvp2rcd13ifvqct0","pricing_plan_id":"cebpf4jnsgd1na2vs0mg"},{"bike_id":"59216526-d01c-4d77-b6e3-a6c766976571","system_id":"levelo_inurba_marseille","lat":43.22511,"lon":5.34768,"is_reserved":false,"is_disabled":false,"rental_uris":{"android":"levelo://app?vid=59216526-d01c-4d77-b6e3-a6c766976571","ios":"levelo://app?vid=59216526-d01c-4d77-b6e3-a6c766976571"},"vehicle_type_id":"4","last_reported":1745219443,"current_range_meters":9200,"station_id":"st_cvj5dfep6f1abm77gieg","pricing_plan_id":"cebpf4jnsgd1na2vs0mg"},{"bike_id":"478adf2f-07e1-4396-965c-e1a74e1fa681","system_id":"levelo_inurba_marseille","lat":43.27917,"lon":5.38046,"is_reserved":false,"is_disabled":false,"rental_uris":{"android":"levelo://app?vid=478adf2f-07e1-4396-965c-e1a74e1fa681","ios":"levelo://app?vid=478adf2f-07e1-4396-965c-e1a74e1fa681"},"vehicle_type_id":"4","last_reported":1745219443,"current_range_meters":9200,"station_id":"ce4bhf92rcd13ifvqf50","pricing_plan_id":"cebpf4jnsgd1na2vs0mg"},{"bike_id":"72335dcd-8b2d-4e7b-bae6-1179c991ff40","system_id":"levelo_inurba_marseille","lat":43.2549,"lon":5.37649,"is_reserved":false,"is_disabled":false,"rental_uris":{"android":"levelo://app?vid=72335dcd-8b2d-4e7b-bae6-1179c991ff40","ios":"levelo://app?vid=72335dcd-8b2d-4e7b-bae6-1179c991ff40"},"vehicle_type_id":"4","last_reported":1745219443,"current_range_meters":9600,"station_id":"ce4bhh12rcd13ifvqff0","pricing_plan_id":"cebpf4jnsgd1na2vs0mg"},{"bike_id":"cab64969-2640-47ee-abb9-f11afb1f3a59","system_id":"levelo_inurba_marseille","lat":43.28603,"lon":5.35107,"is_reserved":false,"is_disabled":true,"rental_uris":{"android":"levelo://app?vid=cab64969-2640-47ee-abb9-f11afb1f3a59","ios":"levelo://app?vid=cab64969-2640-47ee-abb9-f11afb1f3a59"},"vehicle_type_id":"4","last_reported":1745219443,"current_range_meters":9600,"station_id":"ce4bhch2rcd13ifvqeug","pricing_plan_id":"cebpf4jnsgd1na2vs0mg"},{"bike_id":"1ace1b61-e2c8-4a41-a3cf-5c94b36f34ae","system_id":"levelo_inurba_marseille","lat":43.211874,"lon":5.350829,"is_reserved":false,"is_disabled":false,"rental_uris":{"android":"levelo://app?vid=1ace1b61-e2c8-4a41-a3cf-5c94b36f34ae","ios":"levelo://app?vid=1ace1b61-e2c8-4a41-a3cf-5c94b36f34ae"},"vehicle_type_id":"4","last_reported":1745219443,"current_range_meters":9600,"station_id":"st_cvj6sg6p6f1abm77japg","pricing_plan_id":"cebpf4jnsgd1na2vs0mg"},{"bike_id":"9ec00016-bdd1-44d1-be62-4b7d926dd044","system_id":"levelo_inurba_marseille","lat":43.30925,"lon":5.37322,"is_reserved":false,"is_disabled":false,"rental_uris":{"android":"levelo://app?vid=9ec00016-bdd1-44d1-be62-4b7d926dd044","ios":"levelo://app?vid=9ec00016-bdd1-44d1-be62-4b7d926dd044"},"vehicle_type_id":"4","last_reported":1745219443,"current_range_meters":9600,"station_id":"","pricing_plan_id":"cebpf4jnsgd1na2vs0mg"},{"bike_id":"f15e6d6c-4e91-4850-86dd-4c3b99eca958","system_id":"levelo_inurba_marseille","lat":43.28071,"lon":5.39621,"is_reserved":false,"is_disabled":false,"rental_uris":{"android":"levelo://app?vid=f15e6d6c-4e91-4850-86dd-4c3b99eca958","ios":"levelo://app?vid=f15e6d6c-4e91-4850-86dd-4c3b99eca958"},"vehicle_type_id":"4","last_reported":1745219443,"current_range_meters":9600,"station_id":"ce4bho12rcd13ifvqh2g","pricing_plan_id":"cebpf4jnsgd1na2vs0mg"},{"bike_id":"a3dd9a0b-1e95-49bd-9b52-a761b312f104","system_id":"levelo_inurba_marseille","lat":43.25597,"lon":5.383,"is_reserved":false,"is_disabled":false,"rental_uris":{"android":"levelo://app?vid=a3dd9a0b-1e95-49bd-9b52-a761b312f104","ios":"levelo://app?vid=a3dd9a0b-1e95-49bd-9b52-a761b312f104"},"vehicle_type_id":"4","last_reported":1745219443,"current_range_meters":10000,"station_id":"","pricing_plan_id":"cebpf4jnsgd1na2vs0mg"},{"bike_id":"31daaaea-e3d1-46f6-8391-a46d550b149c","system_id":"levelo_inurba_marseille","lat":43.279364,"lon":5.410449,"is_reserved":false,"is_disabled":false,"rental_uris":{"android":"levelo://app?vid=31daaaea-e3d1-46f6-8391-a46d550b149c","ios":"levelo://app?vid=31daaaea-e3d1-46f6-8391-a46d550b149c"},"vehicle_type_id":"4","last_reported":1745219443,"current_range_meters":10000,"station_id":"ce4bhnp2rcd13ifvqh0g","pricing_plan_id":"cebpf4jnsgd1na2vs0mg"},{"bike_id":"50720bbe-5512-41d7-86e0-3df313b565c6","system_id":"levelo_inurba_marseille","lat":43.32371,"lon":5.38885,"is_reserved":false,"is_disabled":true,"rental_uris":{"android":"levelo://app?vid=50720bbe-5512-41d7-86e0-3df313b565c6","ios":"levelo://app?vid=50720bbe-5512-41d7-86e0-3df313b565c6"},"vehicle_type_id":"4","last_reported":1745219443,"current_range_meters":10000,"station_id":"ce4bhqp2rcd13ifvqhog","pricing_plan_id":"cebpf4jnsgd1na2vs0mg"},{"bike_id":"f1e1bc98-6c86-455e-bb78-02898a313f74","system_id":"levelo_inurba_marseille","lat":43.31055,"lon":5.3836,"is_reserved":false,"is_disabled":false,"rental_uris":{"android":"levelo://app?vid=f1e1bc98-6c86-455e-bb78-02898a313f74","ios":"levelo://app?vid=f1e1bc98-6c86-455e-bb78-02898a313f74"},"vehicle_type_id":"4","last_reported":1745219443,"current_range_meters":10000,"station_id":"ce4bgv92rcd13ifvqcr0","pricing_plan_id":"cebpf4jnsgd1na2vs0mg"},{"bike_id":"03f102b8-ab4b-4753-8b71-67c3da32f218","system_id":"levelo_inurba_marseille","lat":43.31694,"lon":5.40474,"is_reserved":false,"is_disabled":false,"rental_uris":{"android":"levelo://app?vid=03f102b8-ab4b-4753-8b71-67c3da32f218","ios":"levelo://app?vid=03f102b8-ab4b-4753-8b71-67c3da32f218"},"vehicle_type_id":"4","last_reported":1745219443,"current_range_meters":10000,"station_id":"ce4bh012rcd13ifvqd00","pricing_plan_id":"cebpf4jnsgd1na2vs0mg"},{"bike_id":"1184e7cb-97e6-48bd-84cd-8e59c100c07b","system_id":"levelo_inurba_marseille","lat":43.292661,"lon":5.368451,"is_reserved":false,"is_disabled":true,"rental_uris":{"android":"levelo://app?vid=1184e7cb-97e6-48bd-84cd-8e59c100c07b","ios":"levelo://app?vid=1184e7cb-97e6-48bd-84cd-8e59c100c07b"},"vehicle_type_id":"4","last_reported":1745219443,"current_range_meters":10800,"station_id":"ce4bhbp2rcd13ifvqesg","pricing_plan_id":"cebpf4jnsgd1na2vs0mg"},{"bike_id":"d53e964c-f934-484c-a259-3e8f23cdd819","system_id":"levelo_inurba_marseille","lat":43.33745,"lon":5.39179,"is_reserved":false,"is_disabled":false,"rental_uris":{"android":"levelo://app?vid=d53e964c-f934-484c-a259-3e8f23cdd819","ios":"levelo://app?vid=d53e964c-f934-484c-a259-3e8f23cdd819"},"vehicle_type_id":"4","last_reported":1745219443,"current_range_meters":10800,"station_id":"ce4bhr92rcd13ifvqhsg","pricing_plan_id":"cebpf4jnsgd1na2vs0mg"},{"bike_id":"54333f71-3852-4e7b-b374-b14e492e4962","system_id":"levelo_inurba_marseille","lat":43.30426,"lon":5.41276,"is_reserved":false,"is_disabled":true,"rental_uris":{"android":"levelo://app?vid=54333f71-3852-4e7b-b374-b14e492e4962","ios":"levelo://app?vid=54333f71-3852-4e7b-b374-b14e492e4962"},"vehicle_type_id":"4","last_reported":1745219443,"current_range_meters":10800,"station_id":"ce4bhop2rcd13ifvqh8g","pricing_plan_id":"cebpf4jnsgd1na2vs0mg"},{"bike_id":"f189c969-32b5-44ac-9d90-7e5f9f22e08d","system_id":"levelo_inurba_marseille","lat":43.3111,"lon":5.37766,"is_reserved":false,"is_disabled":false,"rental_uris":{"android":"levelo://app?vid=f189c969-32b5-44ac-9d90-7e5f9f22e08d","ios":"levelo://app?vid=f189c969-32b5-44ac-9d90-7e5f9f22e08d"},"vehicle_type_id":"4","last_reported":1745219443,"current_range_meters":10800,"station_id":"ce4bgt92rcd13ifvqcg0","pricing_plan_id":"cebpf4jnsgd1na2vs0mg"},{"bike_id":"1737dea4-541f-4bc8-9731-1ab03c2deae6","system_id":"levelo_inurba_marseille","lat":43.239664,"lon":5.366163,"is_reserved":false,"is_disabled":true,"rental_uris":{"android":"levelo://app?vid=1737dea4-541f-4bc8-9731-1ab03c2deae6","ios":"levelo://app?vid=1737dea4-541f-4bc8-9731-1ab03c2deae6"},"vehicle_type_id":"4","last_reported":1745219443,"current_range_meters":10800,"station_id":"ce4bhi12rcd13ifvqfp0","pricing_plan_id":"cebpf4jnsgd1na2vs0mg"},{"bike_id":"b25b6470-ff43-4d6b-b299-0f21ec070f27","system_id":"levelo_inurba_marseille","lat":43.29877,"lon":5.38178,"is_reserved":false,"is_disabled":true,"rental_uris":{"android":"levelo://app?vid=b25b6470-ff43-4d6b-b299-0f21ec070f27","ios":"levelo://app?vid=b25b6470-ff43-4d6b-b299-0f21ec070f27"},"vehicle_type_id":"4","last_reported":1745219443,"current_range_meters":11200,"station_id":"ce4bgj12rcd13ifvqbc0","pricing_plan_id":"cebpf4jnsgd1na2vs0mg"},{"bike_id":"d66f2fbf-84c1-4006-a003-d92ef3aa9479","system_id":"levelo_inurba_marseille","lat":43.24776,"lon":5.40022,"is_reserved":false,"is_disabled":false,"rental_uris":{"android":"levelo://app?vid=d66f2fbf-84c1-4006-a003-d92ef3aa9479","ios":"levelo://app?vid=d66f2fbf-84c1-4006-a003-d92ef3aa9479"},"vehicle_type_id":"4","last_reported":1745219443,"current_range_meters":11200,"station_id":"","pricing_plan_id":"cebpf4jnsgd1na2vs0mg"},{"bike_id":"7c874957-fd8c-4332-809c-6583befbbac0","system_id":"levelo_inurba_marseille","lat":43.25855,"lon":5.39904,"is_reserved":false,"is_disabled":false,"rental_uris":{"android":"levelo://app?vid=7c874957-fd8c-4332-809c-6583befbbac0","ios":"levelo://app?vid=7c874957-fd8c-4332-809c-6583befbbac0"},"vehicle_type_id":"4","last_reported":1745219443,"current_range_meters":11200,"station_id":"ce4bhl92rcd13ifvqghg","pricing_plan_id":"cebpf4jnsgd1na2vs0mg"},{"bike_id":"cb04d036-524e-497d-b1e8-d53251979b05","system_id":"levelo_inurba_marseille","lat":43.29874,"lon":5.39771,"is_reserved":false,"is_disabled":true,"rental_uris":{"android":"levelo://app?vid=cb04d036-524e-497d-b1e8-d53251979b05","ios":"levelo://app?vid=cb04d036-524e-497d-b1e8-d53251979b05"},"vehicle_type_id":"4","last_reported":1745219443,"current_range_meters":11600,"station_id":"ce4bh0h2rcd13ifvqd50","pricing_plan_id":"cebpf4jnsgd1na2vs0mg"},{"bike_id":"e6ae1dcd-e0c4-4296-a4a6-c24fd790d5d2","system_id":"levelo_inurba_marseille","lat":43.3014,"lon":5.39849,"is_reserved":false,"is_disabled":false,"rental_uris":{"android":"levelo://app?vid=e6ae1dcd-e0c4-4296-a4a6-c24fd790d5d2","ios":"levelo://app?vid=e6ae1dcd-e0c4-4296-a4a6-c24fd790d5d2"},"vehicle_type_id":"4","last_reported":1745219443,"current_range_meters":11600,"station_id":"ce4bh0h2rcd13ifvqd40","pricing_plan_id":"cebpf4jnsgd1na2vs0mg"},{"bike_id":"4d8ee2c5-8346-4b66-ae86-f443b6bdd2d9","system_id":"levelo_inurba_marseille","lat":43.245431,"lon":5.412994,"is_reserved":false,"is_disabled":false,"rental_uris":{"android":"levelo://app?vid=4d8ee2c5-8346-4b66-ae86-f443b6bdd2d9","ios":"levelo://app?vid=4d8ee2c5-8346-4b66-ae86-f443b6bdd2d9"},"vehicle_type_id":"4","last_reported":1745219443,"current_range_meters":11600,"station_id":"","pricing_plan_id":"cebpf4jnsgd1na2vs0mg"},{"bike_id":"879c4764-ec34-4053-99a8-4501c6e0ccc4","system_id":"levelo_inurba_marseille","lat":43.25726,"lon":5.41125,"is_reserved":false,"is_disabled":true,"rental_uris":{"android":"levelo://app?vid=879c4764-ec34-4053-99a8-4501c6e0ccc4","ios":"levelo://app?vid=879c4764-ec34-4053-99a8-4501c6e0ccc4"},"vehicle_type_id":"4","last_reported":1745219443,"current_range_meters":11600,"station_id":"ce4bhkp2rcd13ifvqgd0","pricing_plan_id":"cebpf4jnsgd1na2vs0mg"},{"bike_id":"c3c71f16-ef33-4f79-8399-916ef3b21df4","system_id":"levelo_inurba_marseille","lat":43.29074,"lon":5.38192,"is_reserved":false,"is_disabled":false,"rental_uris":{"android":"levelo://app?vid=c3c71f16-ef33-4f79-8399-916ef3b21df4","ios":"levelo://app?vid=c3c71f16-ef33-4f79-8399-916ef3b21df4"},"vehicle_type_id":"4","last_reported":1745219443,"current_range_meters":11200,"station_id":"ce4bh512rcd13ifvqe2g","pricing_plan_id":"cebpf4jnsgd1na2vs0mg"},{"bike_id":"c9992ae2-060e-483b-bf4f-875f74b57b5b","system_id":"levelo_inurba_marseille","lat":43.265513,"lon":5.372883,"is_reserved":false,"is_disabled":false,"rental_uris":{"android":"levelo://app?vid=c9992ae2-060e-483b-bf4f-875f74b57b5b","ios":"levelo://app?vid=c9992ae2-060e-483b-bf4f-875f74b57b5b"},"vehicle_type_id":"4","last_reported":1745219443,"current_range_meters":12000,"station_id":"ce4bhg12rcd13ifvqf70","pricing_plan_id":"cebpf4jnsgd1na2vs0mg"},{"bike_id":"9cd66f20-0974-44a3-a00c-3af08e74ebf2","system_id":"levelo_inurba_marseille","lat":43.26026,"lon":5.41742,"is_reserved":false,"is_disabled":false,"rental_uris":{"android":"levelo://app?vid=9cd66f20-0974-44a3-a00c-3af08e74ebf2","ios":"levelo://app?vid=9cd66f20-0974-44a3-a00c-3af08e74ebf2"},"vehicle_type_id":"4","last_reported":1745219443,"current_range_meters":12000,"station_id":"","pricing_plan_id":"cebpf4jnsgd1na2vs0mg"},{"bike_id":"f95b6ba3-4ffd-4dee-8387-c1e0a51dcdd2","system_id":"levelo_inurba_marseille","lat":43.27943,"lon":5.41049,"is_reserved":false,"is_disabled":false,"rental_uris":{"android":"levelo://app?vid=f95b6ba3-4ffd-4dee-8387-c1e0a51dcdd2","ios":"levelo://app?vid=f95b6ba3-4ffd-4dee-8387-c1e0a51dcdd2"},"vehicle_type_id":"4","last_reported":1745219443,"current_range_meters":12000,"station_id":"ce4bhnp2rcd13ifvqh0g","pricing_plan_id":"cebpf4jnsgd1na2vs0mg"},{"bike_id":"ee108982-a75c-4778-b397-ee2aff953ab3","system_id":"levelo_inurba_marseille","lat":43.28331,"lon":5.38112,"is_reserved":false,"is_disabled":false,"rental_uris":{"android":"levelo://app?vid=ee108982-a75c-4778-b397-ee2aff953ab3","ios":"levelo://app?vid=ee108982-a75c-4778-b397-ee2aff953ab3"},"vehicle_type_id":"4","last_reported":1745219443,"current_range_meters":12400,"station_id":"ce4bh412rcd13ifvqdr0","pricing_plan_id":"cebpf4jnsgd1na2vs0mg"},{"bike_id":"46600b5c-7330-43b7-8392-789f98f83f0b","system_id":"levelo_inurba_marseille","lat":43.309243,"lon":5.401614,"is_reserved":false,"is_disabled":false,"rental_uris":{"android":"levelo://app?vid=46600b5c-7330-43b7-8392-789f98f83f0b","ios":"levelo://app?vid=46600b5c-7330-43b7-8392-789f98f83f0b"},"vehicle_type_id":"4","last_reported":1745219443,"current_range_meters":12400,"station_id":"ce4bgvp2rcd13ifvqct0","pricing_plan_id":"cebpf4jnsgd1na2vs0mg"},{"bike_id":"1e56c845-c052-465c-aa20-9f674f4c5764","system_id":"levelo_inurba_marseille","lat":43.30414,"lon":5.38903,"is_reserved":false,"is_disabled":false,"rental_uris":{"android":"levelo://app?vid=1e56c845-c052-465c-aa20-9f674f4c5764","ios":"levelo://app?vid=1e56c845-c052-465c-aa20-9f674f4c5764"},"vehicle_type_id":"4","last_reported":1745219443,"current_range_meters":12400,"station_id":"ce4bgk12rcd13ifvqbi0","pricing_plan_id":"cebpf4jnsgd1na2vs0mg"},{"bike_id":"f4f7624b-eec9-47f5-9227-aa44836a7a81","system_id":"levelo_inurba_marseille","lat":43.24487,"lon":5.42773,"is_reserved":false,"is_disabled":false,"rental_uris":{"android":"levelo://app?vid=f4f7624b-eec9-47f5-9227-aa44836a7a81","ios":"levelo://app?vid=f4f7624b-eec9-47f5-9227-aa44836a7a81"},"vehicle_type_id":"4","last_reported":1745219443,"current_range_meters":12400,"station_id":"","pricing_plan_id":"cebpf4jnsgd1na2vs0mg"},{"bike_id":"a049c569-0294-4594-b06b-589d19df1531","system_id":"levelo_inurba_marseille","lat":43.248531,"lon":5.38213,"is_reserved":false,"is_disabled":false,"rental_uris":{"android":"levelo://app?vid=a049c569-0294-4594-b06b-589d19df1531","ios":"levelo://app?vid=a049c569-0294-4594-b06b-589d19df1531"},"vehicle_type_id":"4","last_reported":1745219443,"current_range_meters":12800,"station_id":"","pricing_plan_id":"cebpf4jnsgd1na2vs0mg"},{"bike_id":"03b0feb9-b884-47a1-be20-0c6741f42ab4","system_id":"levelo_inurba_marseille","lat":43.30419,"lon":5.4128,"is_reserved":false,"is_disabled":false,"rental_uris":{"android":"levelo://app?vid=03b0feb9-b884-47a1-be20-0c6741f42ab4","ios":"levelo://app?vid=03b0feb9-b884-47a1-be20-0c6741f42ab4"},"vehicle_type_id":"4","last_reported":1745219443,"current_range_meters":12800,"station_id":"ce4bhop2rcd13ifvqh8g","pricing_plan_id":"cebpf4jnsgd1na2vs0mg"},{"bike_id":"a5984312-2869-4820-8cb6-c49aefed6914","system_id":"levelo_inurba_marseille","lat":43.28029,"lon":5.36939,"is_reserved":false,"is_disabled":false,"rental_uris":{"android":"levelo://app?vid=a5984312-2869-4820-8cb6-c49aefed6914","ios":"levelo://app?vid=a5984312-2869-4820-8cb6-c49aefed6914"},"vehicle_type_id":"4","last_reported":1745219443,"current_range_meters":12800,"station_id":"ce4bha12rcd13ifvqef0","pricing_plan_id":"cebpf4jnsgd1na2vs0mg"},{"bike_id":"c4fc050b-7c58-4380-8033-ffe242748317","system_id":"levelo_inurba_marseille","lat":43.29532,"lon":5.39397,"is_reserved":false,"is_disabled":true,"rental_uris":{"android":"levelo://app?vid=c4fc050b-7c58-4380-8033-ffe242748317","ios":"levelo://app?vid=c4fc050b-7c58-4380-8033-ffe242748317"},"vehicle_type_id":"4","last_reported":1745219443,"current_range_meters":13600,"station_id":"ce4bh292rcd13ifvqdf0","pricing_plan_id":"cebpf4jnsgd1na2vs0mg"},{"bike_id":"5060df55-1a6f-40ec-8e54-5aaa6badef85","system_id":"levelo_inurba_marseille","lat":43.31085,"lon":5.38323,"is_reserved":false,"is_disabled":false,"rental_uris":{"android":"levelo://app?vid=5060df55-1a6f-40ec-8e54-5aaa6badef85","ios":"levelo://app?vid=5060df55-1a6f-40ec-8e54-5aaa6badef85"},"vehicle_type_id":"4","last_reported":1745219443,"current_range_meters":13600,"station_id":"ce4bgv92rcd13ifvqcr0","pricing_plan_id":"cebpf4jnsgd1na2vs0mg"},{"bike_id":"b1a92491-f6da-45e2-a9a5-178685f0efe8","system_id":"levelo_inurba_marseille","lat":43.30936,"lon":5.40163,"is_reserved":false,"is_disabled":false,"rental_uris":{"android":"levelo://app?vid=b1a92491-f6da-45e2-a9a5-178685f0efe8","ios":"levelo://app?vid=b1a92491-f6da-45e2-a9a5-178685f0efe8"},"vehicle_type_id":"4","last_reported":1745219443,"current_range_meters":14000,"station_id":"ce4bgvp2rcd13ifvqct0","pricing_plan_id":"cebpf4jnsgd1na2vs0mg"},{"bike_id":"acb337f8-9a02-4c16-ad32-3a6e67af21e4","system_id":"levelo_inurba_marseille","lat":43.28455,"lon":5.35881,"is_reserved":false,"is_disabled":true,"rental_uris":{"android":"levelo://app?vid=acb337f8-9a02-4c16-ad32-3a6e67af21e4","ios":"levelo://app?vid=acb337f8-9a02-4c16-ad32-3a6e67af21e4"},"vehicle_type_id":"4","last_reported":1745219443,"current_range_meters":14000,"station_id":"ce4bhah2rcd13ifvqei0","pricing_plan_id":"cebpf4jnsgd1na2vs0mg"},{"bike_id":"b63b7a5e-a38c-41b2-b8ca-03dcb2ce1a70","system_id":"levelo_inurba_marseille","lat":43.25111,"lon":5.39519,"is_reserved":false,"is_disabled":false,"rental_uris":{"android":"levelo://app?vid=b63b7a5e-a38c-41b2-b8ca-03dcb2ce1a70","ios":"levelo://app?vid=b63b7a5e-a38c-41b2-b8ca-03dcb2ce1a70"},"vehicle_type_id":"4","last_reported":1745219443,"current_range_meters":14000,"station_id":"ce4bhm12rcd13ifvqgkg","pricing_plan_id":"cebpf4jnsgd1na2vs0mg"},{"bike_id":"04494bc7-45b7-4bae-8033-eab647359250","system_id":"levelo_inurba_marseille","lat":43.29197,"lon":5.3933,"is_reserved":false,"is_disabled":false,"rental_uris":{"android":"levelo://app?vid=04494bc7-45b7-4bae-8033-eab647359250","ios":"levelo://app?vid=04494bc7-45b7-4bae-8033-eab647359250"},"vehicle_type_id":"4","last_reported":1745219443,"current_range_meters":14400,"station_id":"ce4bh192rcd13ifvqdd0","pricing_plan_id":"cebpf4jnsgd1na2vs0mg"},{"bike_id":"7974a0b9-d888-4717-8913-9d7bc8fa8019","system_id":"levelo_inurba_marseille","lat":43.30049,"lon":5.36551,"is_reserved":false,"is_disabled":false,"rental_uris":{"android":"levelo://app?vid=7974a0b9-d888-4717-8913-9d7bc8fa8019","ios":"levelo://app?vid=7974a0b9-d888-4717-8913-9d7bc8fa8019"},"vehicle_type_id":"4","last_reported":1745219443,"current_range_meters":14400,"station_id":"","pricing_plan_id":"cebpf4jnsgd1na2vs0mg"},{"bike_id":"4cec43c2-5f50-4b41-80bd-a9aa2383ae93","system_id":"levelo_inurba_marseille","lat":43.32346,"lon":5.40608,"is_reserved":false,"is_disabled":false,"rental_uris":{"android":"levelo://app?vid=4cec43c2-5f50-4b41-80bd-a9aa2383ae93","ios":"levelo://app?vid=4cec43c2-5f50-4b41-80bd-a9aa2383ae93"},"vehicle_type_id":"4","last_reported":1745219443,"current_range_meters":14400,"station_id":"ce4bhq92rcd13ifvqhjg","pricing_plan_id":"cebpf4jnsgd1na2vs0mg"},{"bike_id":"54f0d2d4-b0f8-4db8-a984-f8751855f3a9","system_id":"levelo_inurba_marseille","lat":43.25481,"lon":5.37659,"is_reserved":false,"is_disabled":true,"rental_uris":{"android":"levelo://app?vid=54f0d2d4-b0f8-4db8-a984-f8751855f3a9","ios":"levelo://app?vid=54f0d2d4-b0f8-4db8-a984-f8751855f3a9"},"vehicle_type_id":"4","last_reported":1745219443,"current_range_meters":14400,"station_id":"ce4bhh12rcd13ifvqff0","pricing_plan_id":"cebpf4jnsgd1na2vs0mg"},{"bike_id":"2fda3edf-4979-4bf6-9149-c1970b298671","system_id":"levelo_inurba_marseille","lat":43.25862,"lon":5.39904,"is_reserved":false,"is_disabled":false,"rental_uris":{"android":"levelo://app?vid=2fda3edf-4979-4bf6-9149-c1970b298671","ios":"levelo://app?vid=2fda3edf-4979-4bf6-9149-c1970b298671"},"vehicle_type_id":"4","last_reported":1745219443,"current_range_meters":14400,"station_id":"ce4bhl92rcd13ifvqghg","pricing_plan_id":"cebpf4jnsgd1na2vs0mg"},{"bike_id":"a5ac99e7-3bfe-4bdf-b59d-68957b05ee92","system_id":"levelo_inurba_marseille","lat":43.31208,"lon":5.38653,"is_reserved":false,"is_disabled":false,"rental_uris":{"android":"levelo://app?vid=a5ac99e7-3bfe-4bdf-b59d-68957b05ee92","ios":"levelo://app?vid=a5ac99e7-3bfe-4bdf-b59d-68957b05ee92"},"vehicle_type_id":"4","last_reported":1745219443,"current_range_meters":14800,"station_id":"","pricing_plan_id":"cebpf4jnsgd1na2vs0mg"},{"bike_id":"4d0c211d-cc3b-4460-a3c4-121acaf031ae","system_id":"levelo_inurba_marseille","lat":43.33732,"lon":5.39193,"is_reserved":false,"is_disabled":false,"rental_uris":{"android":"levelo://app?vid=4d0c211d-cc3b-4460-a3c4-121acaf031ae","ios":"levelo://app?vid=4d0c211d-cc3b-4460-a3c4-121acaf031ae"},"vehicle_type_id":"4","last_reported":1745219443,"current_range_meters":15200,"station_id":"ce4bhr92rcd13ifvqhsg","pricing_plan_id":"cebpf4jnsgd1na2vs0mg"},{"bike_id":"37c2bca0-8d17-4681-b908-adafbea4e0d8","system_id":"levelo_inurba_marseille","lat":43.29257,"lon":5.37614,"is_reserved":false,"is_disabled":false,"rental_uris":{"android":"levelo://app?vid=37c2bca0-8d17-4681-b908-adafbea4e0d8","ios":"levelo://app?vid=37c2bca0-8d17-4681-b908-adafbea4e0d8"},"vehicle_type_id":"4","last_reported":1745219443,"current_range_meters":15200,"station_id":"ce4bgi12rcd13ifvqb80","pricing_plan_id":"cebpf4jnsgd1na2vs0mg"},{"bike_id":"5421f91f-c5b9-4312-b8b1-ba44221bb5c0","system_id":"levelo_inurba_marseille","lat":43.262104,"lon":5.37917,"is_reserved":false,"is_disabled":true,"rental_uris":{"android":"levelo://app?vid=5421f91f-c5b9-4312-b8b1-ba44221bb5c0","ios":"levelo://app?vid=5421f91f-c5b9-4312-b8b1-ba44221bb5c0"},"vehicle_type_id":"4","last_reported":1745219443,"current_range_meters":15200,"station_id":"ce4bhjp2rcd13ifvqg90","pricing_plan_id":"cebpf4jnsgd1na2vs0mg"},{"bike_id":"878b7bad-6baa-4a9a-97e3-cb147f9aea9b","system_id":"levelo_inurba_marseille","lat":43.2397,"lon":5.36621,"is_reserved":false,"is_disabled":false,"rental_uris":{"android":"levelo://app?vid=878b7bad-6baa-4a9a-97e3-cb147f9aea9b","ios":"levelo://app?vid=878b7bad-6baa-4a9a-97e3-cb147f9aea9b"},"vehicle_type_id":"4","last_reported":1745219443,"current_range_meters":15200,"station_id":"ce4bhi12rcd13ifvqfp0","pricing_plan_id":"cebpf4jnsgd1na2vs0mg"},{"bike_id":"a7f91fb8-2846-493f-a68f-69867197cfa1","system_id":"levelo_inurba_marseille","lat":43.33686,"lon":5.39758,"is_reserved":false,"is_disabled":false,"rental_uris":{"android":"levelo://app?vid=a7f91fb8-2846-493f-a68f-69867197cfa1","ios":"levelo://app?vid=a7f91fb8-2846-493f-a68f-69867197cfa1"},"vehicle_type_id":"4","last_reported":1745219443,"current_range_meters":16000,"station_id":"","pricing_plan_id":"cebpf4jnsgd1na2vs0mg"},{"bike_id":"1496c68b-9915-4e58-a409-5e573a0a3a5b","system_id":"levelo_inurba_marseille","lat":43.31121,"lon":5.37762,"is_reserved":false,"is_disabled":false,"rental_uris":{"android":"levelo://app?vid=1496c68b-9915-4e58-a409-5e573a0a3a5b","ios":"levelo://app?vid=1496c68b-9915-4e58-a409-5e573a0a3a5b"},"vehicle_type_id":"4","last_reported":1745219443,"current_range_meters":16000,"station_id":"ce4bgt92rcd13ifvqcg0","pricing_plan_id":"cebpf4jnsgd1na2vs0mg"},{"bike_id":"68501225-8cea-4f95-ae47-484785f78e68","system_id":"levelo_inurba_marseille","lat":43.32358,"lon":5.38908,"is_reserved":false,"is_disabled":true,"rental_uris":{"android":"levelo://app?vid=68501225-8cea-4f95-ae47-484785f78e68","ios":"levelo://app?vid=68501225-8cea-4f95-ae47-484785f78e68"},"vehicle_type_id":"4","last_reported":1745219443,"current_range_meters":16000,"station_id":"ce4bhqp2rcd13ifvqhog","pricing_plan_id":"cebpf4jnsgd1na2vs0mg"},{"bike_id":"49e44546-d950-48d4-81ad-6ad303d08980","system_id":"levelo_inurba_marseille","lat":43.2175,"lon":5.34608,"is_reserved":false,"is_disabled":true,"rental_uris":{"android":"levelo://app?vid=49e44546-d950-48d4-81ad-6ad303d08980","ios":"levelo://app?vid=49e44546-d950-48d4-81ad-6ad303d08980"},"vehicle_type_id":"4","last_reported":1745219443,"current_range_meters":16000,"station_id":"","pricing_plan_id":"cebpf4jnsgd1na2vs0mg"},{"bike_id":"54547122-c9e3-44aa-92d3-ee29b2aa8445","system_id":"levelo_inurba_marseille","lat":43.28435,"lon":5.34977,"is_reserved":false,"is_disabled":true,"rental_uris":{"android":"levelo://app?vid=54547122-c9e3-44aa-92d3-ee29b2aa8445","ios":"levelo://app?vid=54547122-c9e3-44aa-92d3-ee29b2aa8445"},"vehicle_type_id":"4","last_reported":1745219443,"current_range_meters":16000,"station_id":"ce4bhbh2rcd13ifvqepg","pricing_plan_id":"cebpf4jnsgd1na2vs0mg"},{"bike_id":"0df66e0a-9fc8-4b65-8ac4-cdbc9cef329a","system_id":"levelo_inurba_marseille","lat":43.31077,"lon":5.38344,"is_reserved":false,"is_disabled":false,"rental_uris":{"android":"levelo://app?vid=0df66e0a-9fc8-4b65-8ac4-cdbc9cef329a","ios":"levelo://app?vid=0df66e0a-9fc8-4b65-8ac4-cdbc9cef329a"},"vehicle_type_id":"4","last_reported":1745219443,"current_range_meters":16000,"station_id":"ce4bgv92rcd13ifvqcr0","pricing_plan_id":"cebpf4jnsgd1na2vs0mg"},{"bike_id":"1ac1b160-80aa-4c3d-8047-868b15af45f6","system_id":"levelo_inurba_marseille","lat":43.27911,"lon":5.39598,"is_reserved":false,"is_disabled":false,"rental_uris":{"android":"levelo://app?vid=1ac1b160-80aa-4c3d-8047-868b15af45f6","ios":"levelo://app?vid=1ac1b160-80aa-4c3d-8047-868b15af45f6"},"vehicle_type_id":"4","last_reported":1745219443,"current_range_meters":16000,"station_id":"ce4bhf92rcd13ifvqf40","pricing_plan_id":"cebpf4jnsgd1na2vs0mg"},{"bike_id":"20b3f01b-ef5e-47b5-8ff6-3db856ddded6","system_id":"levelo_inurba_marseille","lat":43.25485,"lon":5.3768,"is_reserved":false,"is_disabled":false,"rental_uris":{"android":"levelo://app?vid=20b3f01b-ef5e-47b5-8ff6-3db856ddded6","ios":"levelo://app?vid=20b3f01b-ef5e-47b5-8ff6-3db856ddded6"},"vehicle_type_id":"4","last_reported":1745219443,"current_range_meters":15200,"station_id":"ce4bhh12rcd13ifvqff0","pricing_plan_id":"cebpf4jnsgd1na2vs0mg"},{"bike_id":"a8c1401d-fdbb-49e8-9954-b915072c3f0b","system_id":"levelo_inurba_marseille","lat":43.303477,"lon":5.392768,"is_reserved":false,"is_disabled":false,"rental_uris":{"android":"levelo://app?vid=a8c1401d-fdbb-49e8-9954-b915072c3f0b","ios":"levelo://app?vid=a8c1401d-fdbb-49e8-9954-b915072c3f0b"},"vehicle_type_id":"4","last_reported":1745219443,"current_range_meters":16000,"station_id":"ce4bgup2rcd13ifvqco0","pricing_plan_id":"cebpf4jnsgd1na2vs0mg"},{"bike_id":"2b9dc3a3-9ca1-4379-9bb7-4b8dbd4e17cf","system_id":"levelo_inurba_marseille","lat":43.23969,"lon":5.36638,"is_reserved":false,"is_disabled":false,"rental_uris":{"android":"levelo://app?vid=2b9dc3a3-9ca1-4379-9bb7-4b8dbd4e17cf","ios":"levelo://app?vid=2b9dc3a3-9ca1-4379-9bb7-4b8dbd4e17cf"},"vehicle_type_id":"4","last_reported":1745219443,"current_range_meters":16400,"station_id":"ce4bhi12rcd13ifvqfp0","pricing_plan_id":"cebpf4jnsgd1na2vs0mg"},{"bike_id":"af5ba08c-0730-4dda-a43c-3e08ff505b3c","system_id":"levelo_inurba_marseille","lat":43.232165,"lon":5.355645,"is_reserved":false,"is_disabled":false,"rental_uris":{"android":"levelo://app?vid=af5ba08c-0730-4dda-a43c-3e08ff505b3c","ios":"levelo://app?vid=af5ba08c-0730-4dda-a43c-3e08ff505b3c"},"vehicle_type_id":"4","last_reported":1745219443,"current_range_meters":16400,"station_id":"ce4bhu92rcd13ifvqi70","pricing_plan_id":"cebpf4jnsgd1na2vs0mg"},{"bike_id":"1bee1f6b-dcb8-46b9-a0b3-876cad04fee4","system_id":"levelo_inurba_marseille","lat":43.24666,"lon":5.38202,"is_reserved":false,"is_disabled":false,"rental_uris":{"android":"levelo://app?vid=1bee1f6b-dcb8-46b9-a0b3-876cad04fee4","ios":"levelo://app?vid=1bee1f6b-dcb8-46b9-a0b3-876cad04fee4"},"vehicle_type_id":"4","last_reported":1745219443,"current_range_meters":16400,"station_id":"ce4bhih2rcd13ifvqfr0","pricing_plan_id":"cebpf4jnsgd1na2vs0mg"},{"bike_id":"f5082407-ad9f-416d-b3f3-a40cd04bfde3","system_id":"levelo_inurba_marseille","lat":43.230113,"lon":5.354814,"is_reserved":false,"is_disabled":false,"rental_uris":{"android":"levelo://app?vid=f5082407-ad9f-416d-b3f3-a40cd04bfde3","ios":"levelo://app?vid=f5082407-ad9f-416d-b3f3-a40cd04bfde3"},"vehicle_type_id":"4","last_reported":1745219443,"current_range_meters":16400,"station_id":"cpo3342slgdg3j2ifvpg","pricing_plan_id":"cebpf4jnsgd1na2vs0mg"},{"bike_id":"2dd9d4b1-3cbb-4df9-882d-6e5c4af7e4cb","system_id":"levelo_inurba_marseille","lat":43.30885,"lon":5.39655,"is_reserved":false,"is_disabled":false,"rental_uris":{"android":"levelo://app?vid=2dd9d4b1-3cbb-4df9-882d-6e5c4af7e4cb","ios":"levelo://app?vid=2dd9d4b1-3cbb-4df9-882d-6e5c4af7e4cb"},"vehicle_type_id":"4","last_reported":1745219443,"current_range_meters":16400,"station_id":"ce4bh012rcd13ifvqcv0","pricing_plan_id":"cebpf4jnsgd1na2vs0mg"},{"bike_id":"b27a9d1c-abb4-43c8-8463-09cd46049d42","system_id":"levelo_inurba_marseille","lat":43.26188,"lon":5.37455,"is_reserved":false,"is_disabled":true,"rental_uris":{"android":"levelo://app?vid=b27a9d1c-abb4-43c8-8463-09cd46049d42","ios":"levelo://app?vid=b27a9d1c-abb4-43c8-8463-09cd46049d42"},"vehicle_type_id":"4","last_reported":1745219443,"current_range_meters":16400,"station_id":"ce4bhgp2rcd13ifvqfc0","pricing_plan_id":"cebpf4jnsgd1na2vs0mg"},{"bike_id":"228e8a8e-b299-4215-92d5-0f3b9410f014","system_id":"levelo_inurba_marseille","lat":43.27684,"lon":5.38875,"is_reserved":false,"is_disabled":false,"rental_uris":{"android":"levelo://app?vid=228e8a8e-b299-4215-92d5-0f3b9410f014","ios":"levelo://app?vid=228e8a8e-b299-4215-92d5-0f3b9410f014"},"vehicle_type_id":"4","last_reported":1745219443,"current_range_meters":16000,"station_id":"ce4bhi12rcd13ifvqfo0","pricing_plan_id":"cebpf4jnsgd1na2vs0mg"},{"bike_id":"3fdf44d0-0f38-41f2-b0fa-ff002adf13d7","system_id":"levelo_inurba_marseille","lat":43.3095,"lon":5.39056,"is_reserved":false,"is_disabled":false,"rental_uris":{"android":"levelo://app?vid=3fdf44d0-0f38-41f2-b0fa-ff002adf13d7","ios":"levelo://app?vid=3fdf44d0-0f38-41f2-b0fa-ff002adf13d7"},"vehicle_type_id":"4","last_reported":1745219443,"current_range_meters":16400,"station_id":"ce4bgup2rcd13ifvqco0","pricing_plan_id":"cebpf4jnsgd1na2vs0mg"},{"bike_id":"74f8973c-43cf-4dde-ba9d-517e369d28d9","system_id":"levelo_inurba_marseille","lat":43.27592,"lon":5.39418,"is_reserved":false,"is_disabled":false,"rental_uris":{"android":"levelo://app?vid=74f8973c-43cf-4dde-ba9d-517e369d28d9","ios":"levelo://app?vid=74f8973c-43cf-4dde-ba9d-517e369d28d9"},"vehicle_type_id":"4","last_reported":1745219443,"current_range_meters":16800,"station_id":"","pricing_plan_id":"cebpf4jnsgd1na2vs0mg"},{"bike_id":"8e09c260-562e-47ac-9cbf-89490298ff42","system_id":"levelo_inurba_marseille","lat":43.30663,"lon":5.40739,"is_reserved":false,"is_disabled":false,"rental_uris":{"android":"levelo://app?vid=8e09c260-562e-47ac-9cbf-89490298ff42","ios":"levelo://app?vid=8e09c260-562e-47ac-9cbf-89490298ff42"},"vehicle_type_id":"4","last_reported":1745219443,"current_range_meters":16800,"station_id":"","pricing_plan_id":"cebpf4jnsgd1na2vs0mg"},{"bike_id":"495096e8-215c-4369-b42a-f8123bca3e0d","system_id":"levelo_inurba_marseille","lat":43.26254,"lon":5.40435,"is_reserved":false,"is_disabled":false,"rental_uris":{"android":"levelo://app?vid=495096e8-215c-4369-b42a-f8123bca3e0d","ios":"levelo://app?vid=495096e8-215c-4369-b42a-f8123bca3e0d"},"vehicle_type_id":"4","last_reported":1745219443,"current_range_meters":16800,"station_id":"ce4bhmh2rcd13ifvqgmg","pricing_plan_id":"cebpf4jnsgd1na2vs0mg"},{"bike_id":"948d5a35-9c81-459d-880f-1bf6fdb9262c","system_id":"levelo_inurba_marseille","lat":43.337719,"lon":5.374771,"is_reserved":false,"is_disabled":false,"rental_uris":{"android":"levelo://app?vid=948d5a35-9c81-459d-880f-1bf6fdb9262c","ios":"levelo://app?vid=948d5a35-9c81-459d-880f-1bf6fdb9262c"},"vehicle_type_id":"4","last_reported":1745219443,"current_range_meters":16800,"station_id":"","pricing_plan_id":"cebpf4jnsgd1na2vs0mg"},{"bike_id":"e024b5f0-c8a8-4c59-83b8-9fea0a0da8d5","system_id":"levelo_inurba_marseille","lat":43.31053,"lon":5.38334,"is_reserved":false,"is_disabled":false,"rental_uris":{"android":"levelo://app?vid=e024b5f0-c8a8-4c59-83b8-9fea0a0da8d5","ios":"levelo://app?vid=e024b5f0-c8a8-4c59-83b8-9fea0a0da8d5"},"vehicle_type_id":"4","last_reported":1745219443,"current_range_meters":16800,"station_id":"ce4bgv92rcd13ifvqcr0","pricing_plan_id":"cebpf4jnsgd1na2vs0mg"},{"bike_id":"ea2496f7-060a-4ea4-a276-ef75c1ff31be","system_id":"levelo_inurba_marseille","lat":43.24648,"lon":5.38894,"is_reserved":false,"is_disabled":false,"rental_uris":{"android":"levelo://app?vid=ea2496f7-060a-4ea4-a276-ef75c1ff31be","ios":"levelo://app?vid=ea2496f7-060a-4ea4-a276-ef75c1ff31be"},"vehicle_type_id":"4","last_reported":1745219443,"current_range_meters":16800,"station_id":"ce4bhg12rcd13ifvqf60","pricing_plan_id":"cebpf4jnsgd1na2vs0mg"},{"bike_id":"3cd6e764-35d0-4055-a8a2-3896bb09f920","system_id":"levelo_inurba_marseille","lat":43.33648,"lon":5.39752,"is_reserved":false,"is_disabled":false,"rental_uris":{"android":"levelo://app?vid=3cd6e764-35d0-4055-a8a2-3896bb09f920","ios":"levelo://app?vid=3cd6e764-35d0-4055-a8a2-3896bb09f920"},"vehicle_type_id":"4","last_reported":1745219443,"current_range_meters":17200,"station_id":"","pricing_plan_id":"cebpf4jnsgd1na2vs0mg"},{"bike_id":"57fa8f5b-772c-43d0-a9df-35a917243059","system_id":"levelo_inurba_marseille","lat":43.28815,"lon":5.35854,"is_reserved":false,"is_disabled":true,"rental_uris":{"android":"levelo://app?vid=57fa8f5b-772c-43d0-a9df-35a917243059","ios":"levelo://app?vid=57fa8f5b-772c-43d0-a9df-35a917243059"},"vehicle_type_id":"4","last_reported":1745219443,"current_range_meters":17200,"station_id":"ce4bhb12rcd13ifvqem0","pricing_plan_id":"cebpf4jnsgd1na2vs0mg"},{"bike_id":"c5e3d54c-a3b9-49be-b43b-87868e82f29e","system_id":"levelo_inurba_marseille","lat":43.262303,"lon":5.404748,"is_reserved":false,"is_disabled":false,"rental_uris":{"android":"levelo://app?vid=c5e3d54c-a3b9-49be-b43b-87868e82f29e","ios":"levelo://app?vid=c5e3d54c-a3b9-49be-b43b-87868e82f29e"},"vehicle_type_id":"4","last_reported":1745219443,"current_range_meters":17200,"station_id":"ce4bhmh2rcd13ifvqgmg","pricing_plan_id":"cebpf4jnsgd1na2vs0mg"},{"bike_id":"2b22eb8e-177c-4ead-8259-66e572a51a0a","system_id":"levelo_inurba_marseille","lat":43.30901,"lon":5.40209,"is_reserved":false,"is_disabled":false,"rental_uris":{"android":"levelo://app?vid=2b22eb8e-177c-4ead-8259-66e572a51a0a","ios":"levelo://app?vid=2b22eb8e-177c-4ead-8259-66e572a51a0a"},"vehicle_type_id":"4","last_reported":1745219443,"current_range_meters":17200,"station_id":"","pricing_plan_id":"cebpf4jnsgd1na2vs0mg"},{"bike_id":"d2afc502-7c0e-4c30-953a-05089d63cf8f","system_id":"levelo_inurba_marseille","lat":43.30394,"lon":5.41309,"is_reserved":false,"is_disabled":false,"rental_uris":{"android":"levelo://app?vid=d2afc502-7c0e-4c30-953a-05089d63cf8f","ios":"levelo://app?vid=d2afc502-7c0e-4c30-953a-05089d63cf8f"},"vehicle_type_id":"4","last_reported":1745219443,"current_range_meters":17200,"station_id":"ce4bhop2rcd13ifvqh8g","pricing_plan_id":"cebpf4jnsgd1na2vs0mg"},{"bike_id":"9235e989-b644-4df1-b668-556e4921b40e","system_id":"levelo_inurba_marseille","lat":43.24187,"lon":5.39719,"is_reserved":false,"is_disabled":true,"rental_uris":{"android":"levelo://app?vid=9235e989-b644-4df1-b668-556e4921b40e","ios":"levelo://app?vid=9235e989-b644-4df1-b668-556e4921b40e"},"vehicle_type_id":"4","last_reported":1745219443,"current_range_meters":17600,"station_id":"ce4bhn12rcd13ifvqgpg","pricing_plan_id":"cebpf4jnsgd1na2vs0mg"},{"bike_id":"76453cd1-7d95-428f-9fac-4fd01a322ba9","system_id":"levelo_inurba_marseille","lat":43.29017,"lon":5.35631,"is_reserved":false,"is_disabled":false,"rental_uris":{"android":"levelo://app?vid=76453cd1-7d95-428f-9fac-4fd01a322ba9","ios":"levelo://app?vid=76453cd1-7d95-428f-9fac-4fd01a322ba9"},"vehicle_type_id":"4","last_reported":1745219443,"current_range_meters":17200,"station_id":"ce4bhb92rcd13ifvqen0","pricing_plan_id":"cebpf4jnsgd1na2vs0mg"},{"bike_id":"815228c1-b05e-49cf-9e82-cf6be4d5757f","system_id":"levelo_inurba_marseille","lat":43.30376,"lon":5.42491,"is_reserved":false,"is_disabled":false,"rental_uris":{"android":"levelo://app?vid=815228c1-b05e-49cf-9e82-cf6be4d5757f","ios":"levelo://app?vid=815228c1-b05e-49cf-9e82-cf6be4d5757f"},"vehicle_type_id":"4","last_reported":1745219443,"current_range_meters":18000,"station_id":"ce4bhoh2rcd13ifvqh6g","pricing_plan_id":"cebpf4jnsgd1na2vs0mg"},{"bike_id":"9ebb9e31-b181-4120-a985-5579f166c1c4","system_id":"levelo_inurba_marseille","lat":43.27982,"lon":5.40011,"is_reserved":false,"is_disabled":true,"rental_uris":{"android":"levelo://app?vid=9ebb9e31-b181-4120-a985-5579f166c1c4","ios":"levelo://app?vid=9ebb9e31-b181-4120-a985-5579f166c1c4"},"vehicle_type_id":"4","last_reported":1745219443,"current_range_meters":18000,"station_id":"ce4bho92rcd13ifvqh4g","pricing_plan_id":"cebpf4jnsgd1na2vs0mg"},{"bike_id":"3242031d-70ee-42c4-80dd-fc750a7fa2d1","system_id":"levelo_inurba_marseille","lat":43.33725,"lon":5.35621,"is_reserved":false,"is_disabled":false,"rental_uris":{"android":"levelo://app?vid=3242031d-70ee-42c4-80dd-fc750a7fa2d1","ios":"levelo://app?vid=3242031d-70ee-42c4-80dd-fc750a7fa2d1"},"vehicle_type_id":"4","last_reported":1745219443,"current_range_meters":18000,"station_id":"","pricing_plan_id":"cebpf4jnsgd1na2vs0mg"},{"bike_id":"00ffbdc2-2962-4e85-97f2-b2875d1e2753","system_id":"levelo_inurba_marseille","lat":43.28291,"lon":5.35078,"is_reserved":false,"is_disabled":true,"rental_uris":{"android":"levelo://app?vid=00ffbdc2-2962-4e85-97f2-b2875d1e2753","ios":"levelo://app?vid=00ffbdc2-2962-4e85-97f2-b2875d1e2753"},"vehicle_type_id":"4","last_reported":1745219443,"current_range_meters":18000,"station_id":"ce4bhbp2rcd13ifvqerg","pricing_plan_id":"cebpf4jnsgd1na2vs0mg"},{"bike_id":"da12a936-18fd-4cef-bde1-14ba30917661","system_id":"levelo_inurba_marseille","lat":43.32376,"lon":5.40618,"is_reserved":false,"is_disabled":false,"rental_uris":{"android":"levelo://app?vid=da12a936-18fd-4cef-bde1-14ba30917661","ios":"levelo://app?vid=da12a936-18fd-4cef-bde1-14ba30917661"},"vehicle_type_id":"4","last_reported":1745219443,"current_range_meters":18000,"station_id":"ce4bhq92rcd13ifvqhjg","pricing_plan_id":"cebpf4jnsgd1na2vs0mg"},{"bike_id":"7fbfc9a0-3123-40fa-bbce-c6ce9edda5ed","system_id":"levelo_inurba_marseille","lat":43.27074,"lon":5.42272,"is_reserved":false,"is_disabled":true,"rental_uris":{"android":"levelo://app?vid=7fbfc9a0-3123-40fa-bbce-c6ce9edda5ed","ios":"levelo://app?vid=7fbfc9a0-3123-40fa-bbce-c6ce9edda5ed"},"vehicle_type_id":"4","last_reported":1745219443,"current_range_meters":18000,"station_id":"ce4bhk92rcd13ifvqgb0","pricing_plan_id":"cebpf4jnsgd1na2vs0mg"},{"bike_id":"edb5d909-a522-40a7-afb8-0b251bbbb305","system_id":"levelo_inurba_marseille","lat":43.26934,"lon":5.38645,"is_reserved":false,"is_disabled":true,"rental_uris":{"android":"levelo://app?vid=edb5d909-a522-40a7-afb8-0b251bbbb305","ios":"levelo://app?vid=edb5d909-a522-40a7-afb8-0b251bbbb305"},"vehicle_type_id":"4","last_reported":1745219443,"current_range_meters":18800,"station_id":"ce4bhh92rcd13ifvqfh0","pricing_plan_id":"cebpf4jnsgd1na2vs0mg"},{"bike_id":"f2578bcc-cf04-45b7-b6c9-54723449f9b1","system_id":"levelo_inurba_marseille","lat":43.288514,"lon":5.358533,"is_reserved":false,"is_disabled":false,"rental_uris":{"android":"levelo://app?vid=f2578bcc-cf04-45b7-b6c9-54723449f9b1","ios":"levelo://app?vid=f2578bcc-cf04-45b7-b6c9-54723449f9b1"},"vehicle_type_id":"4","last_reported":1745219443,"current_range_meters":18800,"station_id":"ce4bhb12rcd13ifvqem0","pricing_plan_id":"cebpf4jnsgd1na2vs0mg"},{"bike_id":"b8f1b8ef-455a-4891-ac6b-7ffde9116060","system_id":"levelo_inurba_marseille","lat":43.30907,"lon":5.39621,"is_reserved":false,"is_disabled":true,"rental_uris":{"android":"levelo://app?vid=b8f1b8ef-455a-4891-ac6b-7ffde9116060","ios":"levelo://app?vid=b8f1b8ef-455a-4891-ac6b-7ffde9116060"},"vehicle_type_id":"4","last_reported":1745219443,"current_range_meters":18800,"station_id":"ce4bh012rcd13ifvqcv0","pricing_plan_id":"cebpf4jnsgd1na2vs0mg"},{"bike_id":"1acfafe7-850e-4a2d-b08f-d1ac70c876c9","system_id":"levelo_inurba_marseille","lat":43.27085,"lon":5.40367,"is_reserved":false,"is_disabled":false,"rental_uris":{"android":"levelo://app?vid=1acfafe7-850e-4a2d-b08f-d1ac70c876c9","ios":"levelo://app?vid=1acfafe7-850e-4a2d-b08f-d1ac70c876c9"},"vehicle_type_id":"4","last_reported":1745219443,"current_range_meters":18800,"station_id":"","pricing_plan_id":"cebpf4jnsgd1na2vs0mg"},{"bike_id":"2463abb5-088d-4259-bcd2-1be7d175a30a","system_id":"levelo_inurba_marseille","lat":43.24805,"lon":5.37457,"is_reserved":false,"is_disabled":false,"rental_uris":{"android":"levelo://app?vid=2463abb5-088d-4259-bcd2-1be7d175a30a","ios":"levelo://app?vid=2463abb5-088d-4259-bcd2-1be7d175a30a"},"vehicle_type_id":"4","last_reported":1745219443,"current_range_meters":19200,"station_id":"ce4bhgh2rcd13ifvqfb0","pricing_plan_id":"cebpf4jnsgd1na2vs0mg"},{"bike_id":"c0ac41c5-c845-40e1-a3b6-89315ac1fad7","system_id":"levelo_inurba_marseille","lat":43.29916,"lon":5.40857,"is_reserved":false,"is_disabled":false,"rental_uris":{"android":"levelo://app?vid=c0ac41c5-c845-40e1-a3b6-89315ac1fad7","ios":"levelo://app?vid=c0ac41c5-c845-40e1-a3b6-89315ac1fad7"},"vehicle_type_id":"4","last_reported":1745219443,"current_range_meters":19200,"station_id":"","pricing_plan_id":"cebpf4jnsgd1na2vs0mg"},{"bike_id":"11523877-2f6c-49d8-9233-0bd89a3be448","system_id":"levelo_inurba_marseille","lat":43.33734,"lon":5.39188,"is_reserved":false,"is_disabled":false,"rental_uris":{"android":"levelo://app?vid=11523877-2f6c-49d8-9233-0bd89a3be448","ios":"levelo://app?vid=11523877-2f6c-49d8-9233-0bd89a3be448"},"vehicle_type_id":"4","last_reported":1745219443,"current_range_meters":19200,"station_id":"ce4bhr92rcd13ifvqhsg","pricing_plan_id":"cebpf4jnsgd1na2vs0mg"},{"bike_id":"bee65c0e-3969-4a3e-9a94-ddda99c1298d","system_id":"levelo_inurba_marseille","lat":43.3044,"lon":5.41285,"is_reserved":false,"is_disabled":false,"rental_uris":{"android":"levelo://app?vid=bee65c0e-3969-4a3e-9a94-ddda99c1298d","ios":"levelo://app?vid=bee65c0e-3969-4a3e-9a94-ddda99c1298d"},"vehicle_type_id":"4","last_reported":1745219443,"current_range_meters":19200,"station_id":"ce4bhop2rcd13ifvqh8g","pricing_plan_id":"cebpf4jnsgd1na2vs0mg"},{"bike_id":"bd1912d7-7895-42d7-a752-6e5f512ff085","system_id":"levelo_inurba_marseille","lat":43.29036,"lon":5.39967,"is_reserved":false,"is_disabled":false,"rental_uris":{"android":"levelo://app?vid=bd1912d7-7895-42d7-a752-6e5f512ff085","ios":"levelo://app?vid=bd1912d7-7895-42d7-a752-6e5f512ff085"},"vehicle_type_id":"4","last_reported":1745219443,"current_range_meters":19600,"station_id":"ce4bh392rcd13ifvqdm0","pricing_plan_id":"cebpf4jnsgd1na2vs0mg"},{"bike_id":"b261fe84-cd86-4730-b2ee-802177904fc1","system_id":"levelo_inurba_marseille","lat":43.31731,"lon":5.37776,"is_reserved":false,"is_disabled":false,"rental_uris":{"android":"levelo://app?vid=b261fe84-cd86-4730-b2ee-802177904fc1","ios":"levelo://app?vid=b261fe84-cd86-4730-b2ee-802177904fc1"},"vehicle_type_id":"4","last_reported":1745219443,"current_range_meters":19600,"station_id":"ce4bgth2rcd13ifvqch0","pricing_plan_id":"cebpf4jnsgd1na2vs0mg"},{"bike_id":"5a46db62-513a-4883-9f49-f4d5b01aab0e","system_id":"levelo_inurba_marseille","lat":43.31533,"lon":5.38026,"is_reserved":false,"is_disabled":false,"rental_uris":{"android":"levelo://app?vid=5a46db62-513a-4883-9f49-f4d5b01aab0e","ios":"levelo://app?vid=5a46db62-513a-4883-9f49-f4d5b01aab0e"},"vehicle_type_id":"4","last_reported":1745219443,"current_range_meters":19600,"station_id":"ce4bhsp2rcd13ifvqi50","pricing_plan_id":"cebpf4jnsgd1na2vs0mg"},{"bike_id":"0ea403e7-0bae-4fc6-85cb-2bcadf8a0a3b","system_id":"levelo_inurba_marseille","lat":43.31115,"lon":5.37768,"is_reserved":false,"is_disabled":false,"rental_uris":{"android":"levelo://app?vid=0ea403e7-0bae-4fc6-85cb-2bcadf8a0a3b","ios":"levelo://app?vid=0ea403e7-0bae-4fc6-85cb-2bcadf8a0a3b"},"vehicle_type_id":"4","last_reported":1745219443,"current_range_meters":19600,"station_id":"ce4bgt92rcd13ifvqcg0","pricing_plan_id":"cebpf4jnsgd1na2vs0mg"},{"bike_id":"fc29c697-c8dc-4b48-8f04-ef505590e058","system_id":"levelo_inurba_marseille","lat":43.265892,"lon":5.389944,"is_reserved":false,"is_disabled":false,"rental_uris":{"android":"levelo://app?vid=fc29c697-c8dc-4b48-8f04-ef505590e058","ios":"levelo://app?vid=fc29c697-c8dc-4b48-8f04-ef505590e058"},"vehicle_type_id":"4","last_reported":1745219443,"current_range_meters":19600,"station_id":"","pricing_plan_id":"cebpf4jnsgd1na2vs0mg"},{"bike_id":"48a90738-15ce-4a6e-9b02-d3de2ab6faf0","system_id":"levelo_inurba_marseille","lat":43.301481,"lon":5.380724,"is_reserved":false,"is_disabled":false,"rental_uris":{"android":"levelo://app?vid=48a90738-15ce-4a6e-9b02-d3de2ab6faf0","ios":"levelo://app?vid=48a90738-15ce-4a6e-9b02-d3de2ab6faf0"},"vehicle_type_id":"4","last_reported":1745219443,"current_range_meters":19600,"station_id":"ce4bgjp2rcd13ifvqbh0","pricing_plan_id":"cebpf4jnsgd1na2vs0mg"},{"bike_id":"59e0332a-055c-4a55-bbe7-35149d5556ed","system_id":"levelo_inurba_marseille","lat":43.24069,"lon":5.37713,"is_reserved":false,"is_disabled":false,"rental_uris":{"android":"levelo://app?vid=59e0332a-055c-4a55-bbe7-35149d5556ed","ios":"levelo://app?vid=59e0332a-055c-4a55-bbe7-35149d5556ed"},"vehicle_type_id":"4","last_reported":1745219443,"current_range_meters":20000,"station_id":"ce4bhnp2rcd13ifvqgvg","pricing_plan_id":"cebpf4jnsgd1na2vs0mg"},{"bike_id":"a79fb0f7-3487-47ce-865f-146ad377c1c2","system_id":"levelo_inurba_marseille","lat":43.24668,"lon":5.38157,"is_reserved":false,"is_disabled":false,"rental_uris":{"android":"levelo://app?vid=a79fb0f7-3487-47ce-865f-146ad377c1c2","ios":"levelo://app?vid=a79fb0f7-3487-47ce-865f-146ad377c1c2"},"vehicle_type_id":"4","last_reported":1745219443,"current_range_meters":20000,"station_id":"ce4bhih2rcd13ifvqfr0","pricing_plan_id":"cebpf4jnsgd1na2vs0mg"},{"bike_id":"55525e6f-32e0-4f7f-8769-c75e89ae7128","system_id":"levelo_inurba_marseille","lat":43.290379,"lon":5.399624,"is_reserved":false,"is_disabled":false,"rental_uris":{"android":"levelo://app?vid=55525e6f-32e0-4f7f-8769-c75e89ae7128","ios":"levelo://app?vid=55525e6f-32e0-4f7f-8769-c75e89ae7128"},"vehicle_type_id":"4","last_reported":1745219443,"current_range_meters":20000,"station_id":"ce4bh392rcd13ifvqdm0","pricing_plan_id":"cebpf4jnsgd1na2vs0mg"},{"bike_id":"93bdd22c-9d10-4d08-be03-b7bf86338f98","system_id":"levelo_inurba_marseille","lat":43.29891,"lon":5.43666,"is_reserved":false,"is_disabled":true,"rental_uris":{"android":"levelo://app?vid=93bdd22c-9d10-4d08-be03-b7bf86338f98","ios":"levelo://app?vid=93bdd22c-9d10-4d08-be03-b7bf86338f98"},"vehicle_type_id":"4","last_reported":1745219443,"current_range_meters":20000,"station_id":"ce4bhpp2rcd13ifvqhfg","pricing_plan_id":"cebpf4jnsgd1na2vs0mg"},{"bike_id":"fa56eefd-8d10-45c5-b0e1-b4b133c6abe6","system_id":"levelo_inurba_marseille","lat":43.30772,"lon":5.37663,"is_reserved":false,"is_disabled":false,"rental_uris":{"android":"levelo://app?vid=fa56eefd-8d10-45c5-b0e1-b4b133c6abe6","ios":"levelo://app?vid=fa56eefd-8d10-45c5-b0e1-b4b133c6abe6"},"vehicle_type_id":"4","last_reported":1745219443,"current_range_meters":20000,"station_id":"ce4bgv92rcd13ifvqcq0","pricing_plan_id":"cebpf4jnsgd1na2vs0mg"},{"bike_id":"18e3b8e3-4921-4d42-8ca8-50d09a9007c8","system_id":"levelo_inurba_marseille","lat":43.30924,"lon":5.40174,"is_reserved":false,"is_disabled":false,"rental_uris":{"android":"levelo://app?vid=18e3b8e3-4921-4d42-8ca8-50d09a9007c8","ios":"levelo://app?vid=18e3b8e3-4921-4d42-8ca8-50d09a9007c8"},"vehicle_type_id":"4","last_reported":1745219443,"current_range_meters":20400,"station_id":"ce4bgvp2rcd13ifvqct0","pricing_plan_id":"cebpf4jnsgd1na2vs0mg"},{"bike_id":"b9d60e5e-cd40-479d-b43a-ba51c570ca86","system_id":"levelo_inurba_marseille","lat":43.29303,"lon":5.37178,"is_reserved":false,"is_disabled":false,"rental_uris":{"android":"levelo://app?vid=b9d60e5e-cd40-479d-b43a-ba51c570ca86","ios":"levelo://app?vid=b9d60e5e-cd40-479d-b43a-ba51c570ca86"},"vehicle_type_id":"4","last_reported":1745219443,"current_range_meters":20400,"station_id":"ce4bgh92rcd13ifvqb40","pricing_plan_id":"cebpf4jnsgd1na2vs0mg"},{"bike_id":"cfde290e-eb1f-41f2-8764-c44c415e0110","system_id":"levelo_inurba_marseille","lat":43.26221,"lon":5.40438,"is_reserved":false,"is_disabled":false,"rental_uris":{"android":"levelo://app?vid=cfde290e-eb1f-41f2-8764-c44c415e0110","ios":"levelo://app?vid=cfde290e-eb1f-41f2-8764-c44c415e0110"},"vehicle_type_id":"4","last_reported":1745219443,"current_range_meters":20400,"station_id":"ce4bhmh2rcd13ifvqgmg","pricing_plan_id":"cebpf4jnsgd1na2vs0mg"},{"bike_id":"f526e5c1-8e93-488d-a92e-0bcec7b169c5","system_id":"levelo_inurba_marseille","lat":43.29909,"lon":5.39666,"is_reserved":false,"is_disabled":false,"rental_uris":{"android":"levelo://app?vid=f526e5c1-8e93-488d-a92e-0bcec7b169c5","ios":"levelo://app?vid=f526e5c1-8e93-488d-a92e-0bcec7b169c5"},"vehicle_type_id":"4","last_reported":1745219443,"current_range_meters":20400,"station_id":"","pricing_plan_id":"cebpf4jnsgd1na2vs0mg"},{"bike_id":"2e62bd50-8ce6-4b79-8517-7402c9904232","system_id":"levelo_inurba_marseille","lat":43.23178,"lon":5.39989,"is_reserved":false,"is_disabled":false,"rental_uris":{"android":"levelo://app?vid=2e62bd50-8ce6-4b79-8517-7402c9904232","ios":"levelo://app?vid=2e62bd50-8ce6-4b79-8517-7402c9904232"},"vehicle_type_id":"4","last_reported":1745219443,"current_range_meters":20800,"station_id":"ce4bhn12rcd13ifvqgqg","pricing_plan_id":"cebpf4jnsgd1na2vs0mg"},{"bike_id":"06fb5e40-db85-4507-b971-ab19e05a2d92","system_id":"levelo_inurba_marseille","lat":43.30939,"lon":5.39064,"is_reserved":false,"is_disabled":false,"rental_uris":{"android":"levelo://app?vid=06fb5e40-db85-4507-b971-ab19e05a2d92","ios":"levelo://app?vid=06fb5e40-db85-4507-b971-ab19e05a2d92"},"vehicle_type_id":"4","last_reported":1745219443,"current_range_meters":20800,"station_id":"ce4bgup2rcd13ifvqco0","pricing_plan_id":"cebpf4jnsgd1na2vs0mg"},{"bike_id":"0b044c5d-9d6e-407a-a0f4-56217862b4cf","system_id":"levelo_inurba_marseille","lat":43.278966,"lon":5.380074,"is_reserved":false,"is_disabled":false,"rental_uris":{"android":"levelo://app?vid=0b044c5d-9d6e-407a-a0f4-56217862b4cf","ios":"levelo://app?vid=0b044c5d-9d6e-407a-a0f4-56217862b4cf"},"vehicle_type_id":"4","last_reported":1745219443,"current_range_meters":20800,"station_id":"ce4bhf92rcd13ifvqf50","pricing_plan_id":"cebpf4jnsgd1na2vs0mg"},{"bike_id":"dc6f1c25-388d-4263-85e6-cf1beda449af","system_id":"levelo_inurba_marseille","lat":43.288493,"lon":5.393077,"is_reserved":false,"is_disabled":false,"rental_uris":{"android":"levelo://app?vid=dc6f1c25-388d-4263-85e6-cf1beda449af","ios":"levelo://app?vid=dc6f1c25-388d-4263-85e6-cf1beda449af"},"vehicle_type_id":"4","last_reported":1745219443,"current_range_meters":20800,"station_id":"ce4bh2p2rcd13ifvqdi0","pricing_plan_id":"cebpf4jnsgd1na2vs0mg"},{"bike_id":"8b130a09-aaaf-4aa6-818b-7046c9a559b0","system_id":"levelo_inurba_marseille","lat":43.24669,"lon":5.38142,"is_reserved":false,"is_disabled":false,"rental_uris":{"android":"levelo://app?vid=8b130a09-aaaf-4aa6-818b-7046c9a559b0","ios":"levelo://app?vid=8b130a09-aaaf-4aa6-818b-7046c9a559b0"},"vehicle_type_id":"4","last_reported":1745219443,"current_range_meters":20800,"station_id":"ce4bhih2rcd13ifvqfr0","pricing_plan_id":"cebpf4jnsgd1na2vs0mg"},{"bike_id":"9dcf2f68-e3b9-4712-8127-66a431ae16f9","system_id":"levelo_inurba_marseille","lat":43.280436,"lon":5.363042,"is_reserved":false,"is_disabled":false,"rental_uris":{"android":"levelo://app?vid=9dcf2f68-e3b9-4712-8127-66a431ae16f9","ios":"levelo://app?vid=9dcf2f68-e3b9-4712-8127-66a431ae16f9"},"vehicle_type_id":"4","last_reported":1745219443,"current_range_meters":22800,"station_id":"ce4bhah2rcd13ifvqei0","pricing_plan_id":"cebpf4jnsgd1na2vs0mg"},{"bike_id":"cb9917fc-856e-4194-b94e-d83b0fe1bd27","system_id":"levelo_inurba_marseille","lat":43.31186,"lon":5.41626,"is_reserved":false,"is_disabled":false,"rental_uris":{"android":"levelo://app?vid=cb9917fc-856e-4194-b94e-d83b0fe1bd27","ios":"levelo://app?vid=cb9917fc-856e-4194-b94e-d83b0fe1bd27"},"vehicle_type_id":"4","last_reported":1745219443,"current_range_meters":21600,"station_id":"","pricing_plan_id":"cebpf4jnsgd1na2vs0mg"},{"bike_id":"6cca0f45-3fb0-4821-b226-c607cbe77613","system_id":"levelo_inurba_marseille","lat":43.262117,"lon":5.374422,"is_reserved":false,"is_disabled":false,"rental_uris":{"android":"levelo://app?vid=6cca0f45-3fb0-4821-b226-c607cbe77613","ios":"levelo://app?vid=6cca0f45-3fb0-4821-b226-c607cbe77613"},"vehicle_type_id":"4","last_reported":1745219443,"current_range_meters":21600,"station_id":"ce4bhgp2rcd13ifvqfc0","pricing_plan_id":"cebpf4jnsgd1na2vs0mg"},{"bike_id":"922ebf99-0297-4920-86fd-77f2def5a6f2","system_id":"levelo_inurba_marseille","lat":43.2602,"lon":5.41732,"is_reserved":false,"is_disabled":false,"rental_uris":{"android":"levelo://app?vid=922ebf99-0297-4920-86fd-77f2def5a6f2","ios":"levelo://app?vid=922ebf99-0297-4920-86fd-77f2def5a6f2"},"vehicle_type_id":"4","last_reported":1745219443,"current_range_meters":21600,"station_id":"","pricing_plan_id":"cebpf4jnsgd1na2vs0mg"},{"bike_id":"5346160b-695d-44d0-915a-5dfd75ed6529","system_id":"levelo_inurba_marseille","lat":43.26219,"lon":5.40467,"is_reserved":false,"is_disabled":false,"rental_uris":{"android":"levelo://app?vid=5346160b-695d-44d0-915a-5dfd75ed6529","ios":"levelo://app?vid=5346160b-695d-44d0-915a-5dfd75ed6529"},"vehicle_type_id":"4","last_reported":1745219443,"current_range_meters":21600,"station_id":"ce4bhmh2rcd13ifvqgmg","pricing_plan_id":"cebpf4jnsgd1na2vs0mg"},{"bike_id":"5a4030a3-e20e-4b79-8be2-0a55825b7aac","system_id":"levelo_inurba_marseille","lat":43.28015,"lon":5.36936,"is_reserved":false,"is_disabled":false,"rental_uris":{"android":"levelo://app?vid=5a4030a3-e20e-4b79-8be2-0a55825b7aac","ios":"levelo://app?vid=5a4030a3-e20e-4b79-8be2-0a55825b7aac"},"vehicle_type_id":"4","last_reported":1745219443,"current_range_meters":21600,"station_id":"ce4bha12rcd13ifvqef0","pricing_plan_id":"cebpf4jnsgd1na2vs0mg"},{"bike_id":"7b184fcb-8493-418c-970a-b38700a9d83d","system_id":"levelo_inurba_marseille","lat":43.321015,"lon":5.367972,"is_reserved":false,"is_disabled":false,"rental_uris":{"android":"levelo://app?vid=7b184fcb-8493-418c-970a-b38700a9d83d","ios":"levelo://app?vid=7b184fcb-8493-418c-970a-b38700a9d83d"},"vehicle_type_id":"4","last_reported":1745219443,"current_range_meters":21600,"station_id":"ce4bhrh2rcd13ifvqhug","pricing_plan_id":"cebpf4jnsgd1na2vs0mg"},{"bike_id":"94fa3da0-4e78-4c53-9afd-6fd044721a0e","system_id":"levelo_inurba_marseille","lat":43.28484,"lon":5.38554,"is_reserved":false,"is_disabled":false,"rental_uris":{"android":"levelo://app?vid=94fa3da0-4e78-4c53-9afd-6fd044721a0e","ios":"levelo://app?vid=94fa3da0-4e78-4c53-9afd-6fd044721a0e"},"vehicle_type_id":"4","last_reported":1745219443,"current_range_meters":21600,"station_id":"ce4bh8p2rcd13ifvqeb0","pricing_plan_id":"cebpf4jnsgd1na2vs0mg"},{"bike_id":"92918a7f-df96-4c5a-8eb5-64b292a739f8","system_id":"levelo_inurba_marseille","lat":43.22493,"lon":5.34777,"is_reserved":false,"is_disabled":true,"rental_uris":{"android":"levelo://app?vid=92918a7f-df96-4c5a-8eb5-64b292a739f8","ios":"levelo://app?vid=92918a7f-df96-4c5a-8eb5-64b292a739f8"},"vehicle_type_id":"4","last_reported":1745219443,"current_range_meters":22000,"station_id":"st_cvj5dfep6f1abm77gieg","pricing_plan_id":"cebpf4jnsgd1na2vs0mg"},{"bike_id":"d3d48819-6ba5-465a-95d2-07e3ecabee36","system_id":"levelo_inurba_marseille","lat":43.29878,"lon":5.39749,"is_reserved":false,"is_disabled":true,"rental_uris":{"android":"levelo://app?vid=d3d48819-6ba5-465a-95d2-07e3ecabee36","ios":"levelo://app?vid=d3d48819-6ba5-465a-95d2-07e3ecabee36"},"vehicle_type_id":"4","last_reported":1745219443,"current_range_meters":22000,"station_id":"ce4bh0h2rcd13ifvqd50","pricing_plan_id":"cebpf4jnsgd1na2vs0mg"},{"bike_id":"fc66f50d-eb39-4d21-925a-1ba1591bf8b2","system_id":"levelo_inurba_marseille","lat":43.2842,"lon":5.34979,"is_reserved":false,"is_disabled":false,"rental_uris":{"android":"levelo://app?vid=fc66f50d-eb39-4d21-925a-1ba1591bf8b2","ios":"levelo://app?vid=fc66f50d-eb39-4d21-925a-1ba1591bf8b2"},"vehicle_type_id":"4","last_reported":1745219443,"current_range_meters":22000,"station_id":"ce4bhbh2rcd13ifvqepg","pricing_plan_id":"cebpf4jnsgd1na2vs0mg"},{"bike_id":"6cfd21b2-c273-4eb4-9fc4-c2ea758609f6","system_id":"levelo_inurba_marseille","lat":43.30962,"lon":5.39037,"is_reserved":false,"is_disabled":false,"rental_uris":{"android":"levelo://app?vid=6cfd21b2-c273-4eb4-9fc4-c2ea758609f6","ios":"levelo://app?vid=6cfd21b2-c273-4eb4-9fc4-c2ea758609f6"},"vehicle_type_id":"4","last_reported":1745219443,"current_range_meters":20000,"station_id":"ce4bgup2rcd13ifvqco0","pricing_plan_id":"cebpf4jnsgd1na2vs0mg"},{"bike_id":"d9455f13-a47f-46b8-b4e4-f326fbee9108","system_id":"levelo_inurba_marseille","lat":43.30151,"lon":5.39843,"is_reserved":false,"is_disabled":true,"rental_uris":{"android":"levelo://app?vid=d9455f13-a47f-46b8-b4e4-f326fbee9108","ios":"levelo://app?vid=d9455f13-a47f-46b8-b4e4-f326fbee9108"},"vehicle_type_id":"4","last_reported":1745219443,"current_range_meters":22000,"station_id":"ce4bh0h2rcd13ifvqd40","pricing_plan_id":"cebpf4jnsgd1na2vs0mg"},{"bike_id":"3ea7ea1f-3674-4cbd-a197-e0181d49cc24","system_id":"levelo_inurba_marseille","lat":43.29226,"lon":5.36069,"is_reserved":false,"is_disabled":false,"rental_uris":{"android":"levelo://app?vid=3ea7ea1f-3674-4cbd-a197-e0181d49cc24","ios":"levelo://app?vid=3ea7ea1f-3674-4cbd-a197-e0181d49cc24"},"vehicle_type_id":"4","last_reported":1745219443,"current_range_meters":22000,"station_id":"ce4bhbh2rcd13ifvqeqg","pricing_plan_id":"cebpf4jnsgd1na2vs0mg"},{"bike_id":"cdd5db1d-b589-4ca1-94c1-202d30db1e56","system_id":"levelo_inurba_marseille","lat":43.23958,"lon":5.36663,"is_reserved":false,"is_disabled":false,"rental_uris":{"android":"levelo://app?vid=cdd5db1d-b589-4ca1-94c1-202d30db1e56","ios":"levelo://app?vid=cdd5db1d-b589-4ca1-94c1-202d30db1e56"},"vehicle_type_id":"4","last_reported":1745219443,"current_range_meters":22000,"station_id":"ce4bhi12rcd13ifvqfp0","pricing_plan_id":"cebpf4jnsgd1na2vs0mg"},{"bike_id":"04c8951e-3a8b-40df-8ac4-0ebf1b70c9b4","system_id":"levelo_inurba_marseille","lat":43.247389,"lon":5.411856,"is_reserved":false,"is_disabled":false,"rental_uris":{"android":"levelo://app?vid=04c8951e-3a8b-40df-8ac4-0ebf1b70c9b4","ios":"levelo://app?vid=04c8951e-3a8b-40df-8ac4-0ebf1b70c9b4"},"vehicle_type_id":"4","last_reported":1745219443,"current_range_meters":22000,"station_id":"","pricing_plan_id":"cebpf4jnsgd1na2vs0mg"},{"bike_id":"6d98458a-f292-45cd-9108-e91653a5ec28","system_id":"levelo_inurba_marseille","lat":43.28276,"lon":5.35074,"is_reserved":false,"is_disabled":true,"rental_uris":{"android":"levelo://app?vid=6d98458a-f292-45cd-9108-e91653a5ec28","ios":"levelo://app?vid=6d98458a-f292-45cd-9108-e91653a5ec28"},"vehicle_type_id":"4","last_reported":1745219443,"current_range_meters":22400,"station_id":"ce4bhbp2rcd13ifvqerg","pricing_plan_id":"cebpf4jnsgd1na2vs0mg"},{"bike_id":"ef588677-e937-4fb6-8359-89032b9d9c2e","system_id":"levelo_inurba_marseille","lat":43.25933,"lon":5.40898,"is_reserved":false,"is_disabled":false,"rental_uris":{"android":"levelo://app?vid=ef588677-e937-4fb6-8359-89032b9d9c2e","ios":"levelo://app?vid=ef588677-e937-4fb6-8359-89032b9d9c2e"},"vehicle_type_id":"4","last_reported":1745219443,"current_range_meters":22400,"station_id":"ce4bhm92rcd13ifvqglg","pricing_plan_id":"cebpf4jnsgd1na2vs0mg"},{"bike_id":"b86c102c-2e6f-4fdf-b748-7c9ef19704fe","system_id":"levelo_inurba_marseille","lat":43.28127,"lon":5.43815,"is_reserved":false,"is_disabled":false,"rental_uris":{"android":"levelo://app?vid=b86c102c-2e6f-4fdf-b748-7c9ef19704fe","ios":"levelo://app?vid=b86c102c-2e6f-4fdf-b748-7c9ef19704fe"},"vehicle_type_id":"4","last_reported":1745219443,"current_range_meters":22400,"station_id":"","pricing_plan_id":"cebpf4jnsgd1na2vs0mg"},{"bike_id":"278ee132-281e-4a56-a4a6-ae5a169037d3","system_id":"levelo_inurba_marseille","lat":43.23962,"lon":5.36633,"is_reserved":false,"is_disabled":false,"rental_uris":{"android":"levelo://app?vid=278ee132-281e-4a56-a4a6-ae5a169037d3","ios":"levelo://app?vid=278ee132-281e-4a56-a4a6-ae5a169037d3"},"vehicle_type_id":"4","last_reported":1745219443,"current_range_meters":22400,"station_id":"ce4bhi12rcd13ifvqfp0","pricing_plan_id":"cebpf4jnsgd1na2vs0mg"},{"bike_id":"d6a38c5b-337b-4262-ae3c-59cb13009f66","system_id":"levelo_inurba_marseille","lat":43.29622,"lon":5.37168,"is_reserved":false,"is_disabled":false,"rental_uris":{"android":"levelo://app?vid=d6a38c5b-337b-4262-ae3c-59cb13009f66","ios":"levelo://app?vid=d6a38c5b-337b-4262-ae3c-59cb13009f66"},"vehicle_type_id":"4","last_reported":1745219443,"current_range_meters":22800,"station_id":"ce4bgnh2rcd13ifvqc0g","pricing_plan_id":"cebpf4jnsgd1na2vs0mg"},{"bike_id":"657bade1-8f00-49d7-97a1-ed9c214df2b5","system_id":"levelo_inurba_marseille","lat":43.288473,"lon":5.393046,"is_reserved":false,"is_disabled":false,"rental_uris":{"android":"levelo://app?vid=657bade1-8f00-49d7-97a1-ed9c214df2b5","ios":"levelo://app?vid=657bade1-8f00-49d7-97a1-ed9c214df2b5"},"vehicle_type_id":"4","last_reported":1745219443,"current_range_meters":22800,"station_id":"ce4bh2p2rcd13ifvqdi0","pricing_plan_id":"cebpf4jnsgd1na2vs0mg"},{"bike_id":"ee4868f0-b3b2-4242-9970-c5b8a8297085","system_id":"levelo_inurba_marseille","lat":43.337444,"lon":5.374475,"is_reserved":false,"is_disabled":false,"rental_uris":{"android":"levelo://app?vid=ee4868f0-b3b2-4242-9970-c5b8a8297085","ios":"levelo://app?vid=ee4868f0-b3b2-4242-9970-c5b8a8297085"},"vehicle_type_id":"4","last_reported":1745219443,"current_range_meters":22800,"station_id":"","pricing_plan_id":"cebpf4jnsgd1na2vs0mg"},{"bike_id":"dcd5bb9c-e6f1-4673-8a5c-fb3ff8d5b13f","system_id":"levelo_inurba_marseille","lat":43.28616,"lon":5.35099,"is_reserved":false,"is_disabled":false,"rental_uris":{"android":"levelo://app?vid=dcd5bb9c-e6f1-4673-8a5c-fb3ff8d5b13f","ios":"levelo://app?vid=dcd5bb9c-e6f1-4673-8a5c-fb3ff8d5b13f"},"vehicle_type_id":"4","last_reported":1745219443,"current_range_meters":22800,"station_id":"ce4bhch2rcd13ifvqeug","pricing_plan_id":"cebpf4jnsgd1na2vs0mg"},{"bike_id":"bf0d59a1-6560-40af-be85-69c12e5dd0a0","system_id":"levelo_inurba_marseille","lat":43.25109,"lon":5.39513,"is_reserved":false,"is_disabled":false,"rental_uris":{"android":"levelo://app?vid=bf0d59a1-6560-40af-be85-69c12e5dd0a0","ios":"levelo://app?vid=bf0d59a1-6560-40af-be85-69c12e5dd0a0"},"vehicle_type_id":"4","last_reported":1745219443,"current_range_meters":22800,"station_id":"ce4bhm12rcd13ifvqgkg","pricing_plan_id":"cebpf4jnsgd1na2vs0mg"},{"bike_id":"2ce15294-7e2e-46d9-9d6e-18cba0cffb01","system_id":"levelo_inurba_marseille","lat":43.25712,"lon":5.41129,"is_reserved":false,"is_disabled":false,"rental_uris":{"android":"levelo://app?vid=2ce15294-7e2e-46d9-9d6e-18cba0cffb01","ios":"levelo://app?vid=2ce15294-7e2e-46d9-9d6e-18cba0cffb01"},"vehicle_type_id":"4","last_reported":1745219443,"current_range_meters":22800,"station_id":"ce4bhkp2rcd13ifvqgd0","pricing_plan_id":"cebpf4jnsgd1na2vs0mg"},{"bike_id":"5ff2e27b-0d2a-4abe-9c30-9a094e3bf541","system_id":"levelo_inurba_marseille","lat":43.30927,"lon":5.40164,"is_reserved":false,"is_disabled":false,"rental_uris":{"android":"levelo://app?vid=5ff2e27b-0d2a-4abe-9c30-9a094e3bf541","ios":"levelo://app?vid=5ff2e27b-0d2a-4abe-9c30-9a094e3bf541"},"vehicle_type_id":"4","last_reported":1745219443,"current_range_meters":22800,"station_id":"ce4bgvp2rcd13ifvqct0","pricing_plan_id":"cebpf4jnsgd1na2vs0mg"},{"bike_id":"33b1874c-4f87-4f55-b098-52aea0cce46c","system_id":"levelo_inurba_marseille","lat":43.33798,"lon":5.37465,"is_reserved":false,"is_disabled":false,"rental_uris":{"android":"levelo://app?vid=33b1874c-4f87-4f55-b098-52aea0cce46c","ios":"levelo://app?vid=33b1874c-4f87-4f55-b098-52aea0cce46c"},"vehicle_type_id":"4","last_reported":1745219443,"current_range_meters":22800,"station_id":"","pricing_plan_id":"cebpf4jnsgd1na2vs0mg"},{"bike_id":"69577fef-7f26-4fb1-af97-a71b88990142","system_id":"levelo_inurba_marseille","lat":43.34018,"lon":5.3753,"is_reserved":false,"is_disabled":false,"rental_uris":{"android":"levelo://app?vid=69577fef-7f26-4fb1-af97-a71b88990142","ios":"levelo://app?vid=69577fef-7f26-4fb1-af97-a71b88990142"},"vehicle_type_id":"4","last_reported":1745219443,"current_range_meters":23200,"station_id":"","pricing_plan_id":"cebpf4jnsgd1na2vs0mg"},{"bike_id":"a29dbf01-7588-43b8-8eaf-15da94811583","system_id":"levelo_inurba_marseille","lat":43.28402,"lon":5.34997,"is_reserved":false,"is_disabled":false,"rental_uris":{"android":"levelo://app?vid=a29dbf01-7588-43b8-8eaf-15da94811583","ios":"levelo://app?vid=a29dbf01-7588-43b8-8eaf-15da94811583"},"vehicle_type_id":"4","last_reported":1745219443,"current_range_meters":23200,"station_id":"ce4bhbh2rcd13ifvqepg","pricing_plan_id":"cebpf4jnsgd1na2vs0mg"},{"bike_id":"8f40bc13-4cce-4791-87c7-e1159dc1930b","system_id":"levelo_inurba_marseille","lat":43.241119,"lon":5.363091,"is_reserved":false,"is_disabled":false,"rental_uris":{"android":"levelo://app?vid=8f40bc13-4cce-4791-87c7-e1159dc1930b","ios":"levelo://app?vid=8f40bc13-4cce-4791-87c7-e1159dc1930b"},"vehicle_type_id":"4","last_reported":1745219443,"current_range_meters":23200,"station_id":"","pricing_plan_id":"cebpf4jnsgd1na2vs0mg"},{"bike_id":"c75ebd47-d00c-4a00-bae0-f7d70d535712","system_id":"levelo_inurba_marseille","lat":43.31534,"lon":5.38043,"is_reserved":false,"is_disabled":false,"rental_uris":{"android":"levelo://app?vid=c75ebd47-d00c-4a00-bae0-f7d70d535712","ios":"levelo://app?vid=c75ebd47-d00c-4a00-bae0-f7d70d535712"},"vehicle_type_id":"4","last_reported":1745219443,"current_range_meters":23200,"station_id":"ce4bhsp2rcd13ifvqi50","pricing_plan_id":"cebpf4jnsgd1na2vs0mg"},{"bike_id":"36d23774-007b-492c-882e-5817475a3a79","system_id":"levelo_inurba_marseille","lat":43.23167,"lon":5.43706,"is_reserved":false,"is_disabled":true,"rental_uris":{"android":"levelo://app?vid=36d23774-007b-492c-882e-5817475a3a79","ios":"levelo://app?vid=36d23774-007b-492c-882e-5817475a3a79"},"vehicle_type_id":"4","last_reported":1745219443,"current_range_meters":23200,"station_id":"","pricing_plan_id":"cebpf4jnsgd1na2vs0mg"},{"bike_id":"3bf1552d-5c91-4e41-bf6a-e902216d54a7","system_id":"levelo_inurba_marseille","lat":43.323399,"lon":5.406306,"is_reserved":false,"is_disabled":false,"rental_uris":{"android":"levelo://app?vid=3bf1552d-5c91-4e41-bf6a-e902216d54a7","ios":"levelo://app?vid=3bf1552d-5c91-4e41-bf6a-e902216d54a7"},"vehicle_type_id":"4","last_reported":1745219443,"current_range_meters":23200,"station_id":"ce4bhq92rcd13ifvqhjg","pricing_plan_id":"cebpf4jnsgd1na2vs0mg"},{"bike_id":"94be0a70-5c69-4482-97d1-e69b7a23106a","system_id":"levelo_inurba_marseille","lat":43.28603,"lon":5.35113,"is_reserved":false,"is_disabled":true,"rental_uris":{"android":"levelo://app?vid=94be0a70-5c69-4482-97d1-e69b7a23106a","ios":"levelo://app?vid=94be0a70-5c69-4482-97d1-e69b7a23106a"},"vehicle_type_id":"4","last_reported":1745219443,"current_range_meters":23200,"station_id":"","pricing_plan_id":"cebpf4jnsgd1na2vs0mg"},{"bike_id":"17ccb6ab-aa28-4a94-9fb6-779158eb711a","system_id":"levelo_inurba_marseille","lat":43.28427,"lon":5.34987,"is_reserved":false,"is_disabled":true,"rental_uris":{"android":"levelo://app?vid=17ccb6ab-aa28-4a94-9fb6-779158eb711a","ios":"levelo://app?vid=17ccb6ab-aa28-4a94-9fb6-779158eb711a"},"vehicle_type_id":"4","last_reported":1745219443,"current_range_meters":23200,"station_id":"ce4bhbh2rcd13ifvqepg","pricing_plan_id":"cebpf4jnsgd1na2vs0mg"},{"bike_id":"72fb13b8-35f9-409c-bb3f-5d8726d2f96f","system_id":"levelo_inurba_marseille","lat":43.27079,"lon":5.42263,"is_reserved":false,"is_disabled":true,"rental_uris":{"android":"levelo://app?vid=72fb13b8-35f9-409c-bb3f-5d8726d2f96f","ios":"levelo://app?vid=72fb13b8-35f9-409c-bb3f-5d8726d2f96f"},"vehicle_type_id":"4","last_reported":1745219443,"current_range_meters":23200,"station_id":"ce4bhk92rcd13ifvqgb0","pricing_plan_id":"cebpf4jnsgd1na2vs0mg"},{"bike_id":"fd17e20a-aff8-4d80-a102-1d589289c851","system_id":"levelo_inurba_marseille","lat":43.32104,"lon":5.36772,"is_reserved":false,"is_disabled":false,"rental_uris":{"android":"levelo://app?vid=fd17e20a-aff8-4d80-a102-1d589289c851","ios":"levelo://app?vid=fd17e20a-aff8-4d80-a102-1d589289c851"},"vehicle_type_id":"4","last_reported":1745219443,"current_range_meters":24000,"station_id":"ce4bhrh2rcd13ifvqhug","pricing_plan_id":"cebpf4jnsgd1na2vs0mg"},{"bike_id":"bc80344e-63a1-4b75-a029-4ba27bd23388","system_id":"levelo_inurba_marseille","lat":43.29226,"lon":5.40903,"is_reserved":false,"is_disabled":false,"rental_uris":{"android":"levelo://app?vid=bc80344e-63a1-4b75-a029-4ba27bd23388","ios":"levelo://app?vid=bc80344e-63a1-4b75-a029-4ba27bd23388"},"vehicle_type_id":"4","last_reported":1745219443,"current_range_meters":24000,"station_id":"ce4bh192rcd13ifvqdc0","pricing_plan_id":"cebpf4jnsgd1na2vs0mg"},{"bike_id":"118071b1-e062-44fa-b5b9-1b4410a6676f","system_id":"levelo_inurba_marseille","lat":43.298667,"lon":5.397283,"is_reserved":false,"is_disabled":false,"rental_uris":{"android":"levelo://app?vid=118071b1-e062-44fa-b5b9-1b4410a6676f","ios":"levelo://app?vid=118071b1-e062-44fa-b5b9-1b4410a6676f"},"vehicle_type_id":"4","last_reported":1745219443,"current_range_meters":24000,"station_id":"","pricing_plan_id":"cebpf4jnsgd1na2vs0mg"},{"bike_id":"46c7f1b9-fe2d-46f4-83fc-5f3c2992562e","system_id":"levelo_inurba_marseille","lat":43.23137,"lon":5.43731,"is_reserved":false,"is_disabled":false,"rental_uris":{"android":"levelo://app?vid=46c7f1b9-fe2d-46f4-83fc-5f3c2992562e","ios":"levelo://app?vid=46c7f1b9-fe2d-46f4-83fc-5f3c2992562e"},"vehicle_type_id":"4","last_reported":1745219443,"current_range_meters":24000,"station_id":"","pricing_plan_id":"cebpf4jnsgd1na2vs0mg"},{"bike_id":"f62f09c7-6ba1-4eae-9074-d423f6fc834e","system_id":"levelo_inurba_marseille","lat":43.30155,"lon":5.38079,"is_reserved":false,"is_disabled":false,"rental_uris":{"android":"levelo://app?vid=f62f09c7-6ba1-4eae-9074-d423f6fc834e","ios":"levelo://app?vid=f62f09c7-6ba1-4eae-9074-d423f6fc834e"},"vehicle_type_id":"4","last_reported":1745219443,"current_range_meters":24000,"station_id":"ce4bgjp2rcd13ifvqbh0","pricing_plan_id":"cebpf4jnsgd1na2vs0mg"},{"bike_id":"6f7ad708-9dd7-4b28-817c-a9054049512f","system_id":"levelo_inurba_marseille","lat":43.29444,"lon":5.37432,"is_reserved":false,"is_disabled":true,"rental_uris":{"android":"levelo://app?vid=6f7ad708-9dd7-4b28-817c-a9054049512f","ios":"levelo://app?vid=6f7ad708-9dd7-4b28-817c-a9054049512f"},"vehicle_type_id":"4","last_reported":1745219443,"current_range_meters":24000,"station_id":"","pricing_plan_id":"cebpf4jnsgd1na2vs0mg"},{"bike_id":"f515ea15-ac40-455f-a94f-c7a73139c359","system_id":"levelo_inurba_marseille","lat":43.29908,"lon":5.43646,"is_reserved":false,"is_disabled":false,"rental_uris":{"android":"levelo://app?vid=f515ea15-ac40-455f-a94f-c7a73139c359","ios":"levelo://app?vid=f515ea15-ac40-455f-a94f-c7a73139c359"},"vehicle_type_id":"4","last_reported":1745219443,"current_range_meters":24000,"station_id":"ce4bhpp2rcd13ifvqhfg","pricing_plan_id":"cebpf4jnsgd1na2vs0mg"},{"bike_id":"7fe7d677-4ad0-422d-97da-bf7fc39c6905","system_id":"levelo_inurba_marseille","lat":43.31716,"lon":5.43702,"is_reserved":false,"is_disabled":true,"rental_uris":{"android":"levelo://app?vid=7fe7d677-4ad0-422d-97da-bf7fc39c6905","ios":"levelo://app?vid=7fe7d677-4ad0-422d-97da-bf7fc39c6905"},"vehicle_type_id":"4","last_reported":1745219443,"current_range_meters":24000,"station_id":"ce4bhp92rcd13ifvqhcg","pricing_plan_id":"cebpf4jnsgd1na2vs0mg"},{"bike_id":"f345e4c0-15d3-42e7-89b0-e9abc184ea3d","system_id":"levelo_inurba_marseille","lat":43.23145,"lon":5.43717,"is_reserved":false,"is_disabled":false,"rental_uris":{"android":"levelo://app?vid=f345e4c0-15d3-42e7-89b0-e9abc184ea3d","ios":"levelo://app?vid=f345e4c0-15d3-42e7-89b0-e9abc184ea3d"},"vehicle_type_id":"4","last_reported":1745219443,"current_range_meters":24000,"station_id":"","pricing_plan_id":"cebpf4jnsgd1na2vs0mg"},{"bike_id":"c5d4097d-aa37-4948-a9c8-f35f75eafbd0","system_id":"levelo_inurba_marseille","lat":43.28028,"lon":5.36943,"is_reserved":false,"is_disabled":true,"rental_uris":{"android":"levelo://app?vid=c5d4097d-aa37-4948-a9c8-f35f75eafbd0","ios":"levelo://app?vid=c5d4097d-aa37-4948-a9c8-f35f75eafbd0"},"vehicle_type_id":"4","last_reported":1745219443,"current_range_meters":24000,"station_id":"ce4bha12rcd13ifvqef0","pricing_plan_id":"cebpf4jnsgd1na2vs0mg"},{"bike_id":"ae62f105-3ed5-4dfe-a72f-18d52a47d093","system_id":"levelo_inurba_marseille","lat":43.3046,"lon":5.37899,"is_reserved":false,"is_disabled":false,"rental_uris":{"android":"levelo://app?vid=ae62f105-3ed5-4dfe-a72f-18d52a47d093","ios":"levelo://app?vid=ae62f105-3ed5-4dfe-a72f-18d52a47d093"},"vehicle_type_id":"4","last_reported":1745219443,"current_range_meters":24400,"station_id":"ce4bgup2rcd13ifvqcn0","pricing_plan_id":"cebpf4jnsgd1na2vs0mg"},{"bike_id":"b6b22047-b6f0-42eb-ba8d-d45b85b187ed","system_id":"levelo_inurba_marseille","lat":43.292843,"lon":5.36852,"is_reserved":false,"is_disabled":true,"rental_uris":{"android":"levelo://app?vid=b6b22047-b6f0-42eb-ba8d-d45b85b187ed","ios":"levelo://app?vid=b6b22047-b6f0-42eb-ba8d-d45b85b187ed"},"vehicle_type_id":"4","last_reported":1745219443,"current_range_meters":24400,"station_id":"ce4bhbp2rcd13ifvqesg","pricing_plan_id":"cebpf4jnsgd1na2vs0mg"},{"bike_id":"c228713f-fda4-4bae-aced-6a54967e734a","system_id":"levelo_inurba_marseille","lat":43.26552,"lon":5.37299,"is_reserved":false,"is_disabled":false,"rental_uris":{"android":"levelo://app?vid=c228713f-fda4-4bae-aced-6a54967e734a","ios":"levelo://app?vid=c228713f-fda4-4bae-aced-6a54967e734a"},"vehicle_type_id":"4","last_reported":1745219443,"current_range_meters":24400,"station_id":"ce4bhg12rcd13ifvqf70","pricing_plan_id":"cebpf4jnsgd1na2vs0mg"},{"bike_id":"9c9ab54d-ae8c-40bc-9f0e-ac327c20a8e6","system_id":"levelo_inurba_marseille","lat":43.28334,"lon":5.38108,"is_reserved":false,"is_disabled":false,"rental_uris":{"android":"levelo://app?vid=9c9ab54d-ae8c-40bc-9f0e-ac327c20a8e6","ios":"levelo://app?vid=9c9ab54d-ae8c-40bc-9f0e-ac327c20a8e6"},"vehicle_type_id":"4","last_reported":1745219443,"current_range_meters":24400,"station_id":"ce4bh412rcd13ifvqdr0","pricing_plan_id":"cebpf4jnsgd1na2vs0mg"},{"bike_id":"5d8cc962-a906-41fb-854a-c674130cfb76","system_id":"levelo_inurba_marseille","lat":43.31359,"lon":5.38516,"is_reserved":false,"is_disabled":true,"rental_uris":{"android":"levelo://app?vid=5d8cc962-a906-41fb-854a-c674130cfb76","ios":"levelo://app?vid=5d8cc962-a906-41fb-854a-c674130cfb76"},"vehicle_type_id":"4","last_reported":1745219443,"current_range_meters":24400,"station_id":"ce4bgt92rcd13ifvqcf0","pricing_plan_id":"cebpf4jnsgd1na2vs0mg"},{"bike_id":"70f428fc-8ad1-4a8b-a165-9869f9e3a5a6","system_id":"levelo_inurba_marseille","lat":43.30932,"lon":5.39022,"is_reserved":false,"is_disabled":false,"rental_uris":{"android":"levelo://app?vid=70f428fc-8ad1-4a8b-a165-9869f9e3a5a6","ios":"levelo://app?vid=70f428fc-8ad1-4a8b-a165-9869f9e3a5a6"},"vehicle_type_id":"4","last_reported":1745219443,"current_range_meters":24400,"station_id":"ce4bgup2rcd13ifvqco0","pricing_plan_id":"cebpf4jnsgd1na2vs0mg"},{"bike_id":"4e6976f0-7ea4-4c19-88e5-1bfe86d536b4","system_id":"levelo_inurba_marseille","lat":43.2983,"lon":5.37228,"is_reserved":false,"is_disabled":true,"rental_uris":{"android":"levelo://app?vid=4e6976f0-7ea4-4c19-88e5-1bfe86d536b4","ios":"levelo://app?vid=4e6976f0-7ea4-4c19-88e5-1bfe86d536b4"},"vehicle_type_id":"4","last_reported":1745219443,"current_range_meters":24400,"station_id":"","pricing_plan_id":"cebpf4jnsgd1na2vs0mg"},{"bike_id":"aacacb18-cf7f-4a31-8175-381e93ff4933","system_id":"levelo_inurba_marseille","lat":43.32555,"lon":5.41428,"is_reserved":false,"is_disabled":false,"rental_uris":{"android":"levelo://app?vid=aacacb18-cf7f-4a31-8175-381e93ff4933","ios":"levelo://app?vid=aacacb18-cf7f-4a31-8175-381e93ff4933"},"vehicle_type_id":"4","last_reported":1745219443,"current_range_meters":24800,"station_id":"ce4bhq12rcd13ifvqhhg","pricing_plan_id":"cebpf4jnsgd1na2vs0mg"},{"bike_id":"fa373165-770b-4d57-98a9-24e0d3e1b706","system_id":"levelo_inurba_marseille","lat":43.29279,"lon":5.36849,"is_reserved":false,"is_disabled":false,"rental_uris":{"android":"levelo://app?vid=fa373165-770b-4d57-98a9-24e0d3e1b706","ios":"levelo://app?vid=fa373165-770b-4d57-98a9-24e0d3e1b706"},"vehicle_type_id":"4","last_reported":1745219443,"current_range_meters":24800,"station_id":"ce4bhbp2rcd13ifvqesg","pricing_plan_id":"cebpf4jnsgd1na2vs0mg"},{"bike_id":"94e13a2b-003f-4f3e-86af-abb3befec1fa","system_id":"levelo_inurba_marseille","lat":43.284395,"lon":5.391804,"is_reserved":false,"is_disabled":true,"rental_uris":{"android":"levelo://app?vid=94e13a2b-003f-4f3e-86af-abb3befec1fa","ios":"levelo://app?vid=94e13a2b-003f-4f3e-86af-abb3befec1fa"},