{"last_updated":1756156152,"ttl":60,"version":"2.2","data":{"bikes":[{"bike_id":"f6b446ec-44ce-4b23-ae91-4480bdd7e97f","system_id":"levelo_inurba_marseille","lat":43.27322,"lon":5.39084,"is_reserved":false,"is_disabled":false,"rental_uris":{"android":"levelo://app?vid=f6b446ec-44ce-4b23-ae91-4480bdd7e97f","ios":"levelo://app?vid=f6b446ec-44ce-4b23-ae91-4480bdd7e97f"},"vehicle_type_id":"4","last_reported":1756156152,"current_range_meters":2800,"station_id":"ce4bhgp2rcd13ifvqfe0","pricing_plan_id":"cebpf4jnsgd1na2vs0mg"},{"bike_id":"b54d8ed5-780d-4d46-ab23-55c4d389674d","system_id":"levelo_inurba_marseille","lat":43.31692,"lon":5.37279,"is_reserved":false,"is_disabled":true,"rental_uris":{"android":"levelo://app?vid=b54d8ed5-780d-4d46-ab23-55c4d389674d","ios":"levelo://app?vid=b54d8ed5-780d-4d46-ab23-55c4d389674d"},"vehicle_type_id":"4","last_reported":1756156152,"current_range_meters":3200,"station_id":"","pricing_plan_id":"cebpf4jnsgd1na2vs0mg"},{"bike_id":"c82f170e-1266-4f52-b259-298435bfc163","system_id":"levelo_inurba_marseille","lat":43.2848,"lon":5.38534,"is_reserved":false,"is_disabled":true,"rental_uris":{"android":"levelo://app?vid=c82f170e-1266-4f52-b259-298435bfc163","ios":"levelo://app?vid=c82f170e-1266-4f52-b259-298435bfc163"},"vehicle_type_id":"4","last_reported":1756156152,"current_range_meters":3200,"station_id":"ce4bh8p2rcd13ifvqeb0","pricing_plan_id":"cebpf4jnsgd1na2vs0mg"},{"bike_id":"8059e22e-3d98-4200-bee2-ef559efb3eb9","system_id":"levelo_inurba_marseille","lat":43.21753,"lon":5.34604,"is_reserved":false,"is_disabled":true,"rental_uris":{"android":"levelo://app?vid=8059e22e-3d98-4200-bee2-ef559efb3eb9","ios":"levelo://app?vid=8059e22e-3d98-4200-bee2-ef559efb3eb9"},"vehicle_type_id":"4","last_reported":1756156152,"current_range_meters":3200,"station_id":"st_cvj6r9ubvosntc0bgbag","pricing_plan_id":"cebpf4jnsgd1na2vs0mg"},{"bike_id":"7adbac07-0a90-46d2-a401-d44336298bdb","system_id":"levelo_inurba_marseille","lat":43.30036,"lon":5.3755,"is_reserved":false,"is_disabled":false,"rental_uris":{"android":"levelo://app?vid=7adbac07-0a90-46d2-a401-d44336298bdb","ios":"levelo://app?vid=7adbac07-0a90-46d2-a401-d44336298bdb"},"vehicle_type_id":"4","last_reported":1756156152,"current_range_meters":3600,"station_id":"","pricing_plan_id":"cebpf4jnsgd1na2vs0mg"},{"bike_id":"e904bfbb-b035-4c09-86cc-09aef9061dcc","system_id":"levelo_inurba_marseille","lat":43.2762,"lon":5.3611,"is_reserved":false,"is_disabled":false,"rental_uris":{"android":"levelo://app?vid=e904bfbb-b035-4c09-86cc-09aef9061dcc","ios":"levelo://app?vid=e904bfbb-b035-4c09-86cc-09aef9061dcc"},"vehicle_type_id":"4","last_reported":1756156152,"current_range_meters":3600,"station_id":"ce4bgj92rcd13ifvqbe0","pricing_plan_id":"cebpf4jnsgd1na2vs0mg"},{"bike_id":"e31e9df9-7cf4-4041-849a-55499646b54e","system_id":"levelo_inurba_marseille","lat":43.2118,"lon":5.35066,"is_reserved":false,"is_disabled":false,"rental_uris":{"android":"levelo://app?vid=e31e9df9-7cf4-4041-849a-55499646b54e","ios":"levelo://app?vid=e31e9df9-7cf4-4041-849a-55499646b54e"},"vehicle_type_id":"4","last_reported":1756156152,"current_range_meters":4000,"station_id":"st_cvj6sg6p6f1abm77japg","pricing_plan_id":"cebpf4jnsgd1na2vs0mg"},{"bike_id":"ed59b77e-4265-4c70-bda3-d1a47126d7d3","system_id":"levelo_inurba_marseille","lat":43.25343,"lon":5.42172,"is_reserved":false,"is_disabled":false,"rental_uris":{"android":"levelo://app?vid=ed59b77e-4265-4c70-bda3-d1a47126d7d3","ios":"levelo://app?vid=ed59b77e-4265-4c70-bda3-d1a47126d7d3"},"vehicle_type_id":"4","last_reported":1756156152,"current_range_meters":4000,"station_id":"st_d2m65c5bi1j21697t3ng","pricing_plan_id":"cebpf4jnsgd1na2vs0mg"},{"bike_id":"39429f76-267a-407a-8e64-e5f563fd90f9","system_id":"levelo_inurba_marseille","lat":43.30785,"lon":5.3764,"is_reserved":false,"is_disabled":false,"rental_uris":{"android":"levelo://app?vid=39429f76-267a-407a-8e64-e5f563fd90f9","ios":"levelo://app?vid=39429f76-267a-407a-8e64-e5f563fd90f9"},"vehicle_type_id":"4","last_reported":1756156152,"current_range_meters":4000,"station_id":"ce4bgv92rcd13ifvqcq0","pricing_plan_id":"cebpf4jnsgd1na2vs0mg"},{"bike_id":"d41a2369-2dd6-4ae8-88eb-4ab7d465c3ff","system_id":"levelo_inurba_marseille","lat":43.29852,"lon":5.39735,"is_reserved":false,"is_disabled":false,"rental_uris":{"android":"levelo://app?vid=d41a2369-2dd6-4ae8-88eb-4ab7d465c3ff","ios":"levelo://app?vid=d41a2369-2dd6-4ae8-88eb-4ab7d465c3ff"},"vehicle_type_id":"4","last_reported":1756156152,"current_range_meters":4800,"station_id":"ce4bh0h2rcd13ifvqd50","pricing_plan_id":"cebpf4jnsgd1na2vs0mg"},{"bike_id":"bdfcbd9f-91ba-4aff-afdd-0d6c5d79a03f","system_id":"levelo_inurba_marseille","lat":43.24808,"lon":5.37454,"is_reserved":false,"is_disabled":true,"rental_uris":{"android":"levelo://app?vid=bdfcbd9f-91ba-4aff-afdd-0d6c5d79a03f","ios":"levelo://app?vid=bdfcbd9f-91ba-4aff-afdd-0d6c5d79a03f"},"vehicle_type_id":"4","last_reported":1756156152,"current_range_meters":5600,"station_id":"ce4bhgh2rcd13ifvqfb0","pricing_plan_id":"cebpf4jnsgd1na2vs0mg"},{"bike_id":"67ca4d0b-41f3-41a9-83f9-c38bc8743d21","system_id":"levelo_inurba_marseille","lat":43.28159,"lon":5.42672,"is_reserved":false,"is_disabled":false,"rental_uris":{"android":"levelo://app?vid=67ca4d0b-41f3-41a9-83f9-c38bc8743d21","ios":"levelo://app?vid=67ca4d0b-41f3-41a9-83f9-c38bc8743d21"},"vehicle_type_id":"4","last_reported":1756156152,"current_range_meters":6400,"station_id":"ce4bhnh2rcd13ifvqgug","pricing_plan_id":"cebpf4jnsgd1na2vs0mg"},{"bike_id":"158fe4a9-48cc-491f-95fd-2aa73bd55cc0","system_id":"levelo_inurba_marseille","lat":43.305747,"lon":5.369102,"is_reserved":false,"is_disabled":false,"rental_uris":{"android":"levelo://app?vid=158fe4a9-48cc-491f-95fd-2aa73bd55cc0","ios":"levelo://app?vid=158fe4a9-48cc-491f-95fd-2aa73bd55cc0"},"vehicle_type_id":"4","last_reported":1756156152,"current_range_meters":6400,"station_id":"","pricing_plan_id":"cebpf4jnsgd1na2vs0mg"},{"bike_id":"e4af25ae-7b86-4d70-bdec-5d83eeeefc0e","system_id":"levelo_inurba_marseille","lat":43.29895,"lon":5.38152,"is_reserved":false,"is_disabled":false,"rental_uris":{"android":"levelo://app?vid=e4af25ae-7b86-4d70-bdec-5d83eeeefc0e","ios":"levelo://app?vid=e4af25ae-7b86-4d70-bdec-5d83eeeefc0e"},"vehicle_type_id":"4","last_reported":1756156152,"current_range_meters":6400,"station_id":"ce4bgj12rcd13ifvqbc0","pricing_plan_id":"cebpf4jnsgd1na2vs0mg"},{"bike_id":"a8437692-6695-484c-81e7-fd93770ffd5f","system_id":"levelo_inurba_marseille","lat":43.29939,"lon":5.36558,"is_reserved":false,"is_disabled":false,"rental_uris":{"android":"levelo://app?vid=a8437692-6695-484c-81e7-fd93770ffd5f","ios":"levelo://app?vid=a8437692-6695-484c-81e7-fd93770ffd5f"},"vehicle_type_id":"4","last_reported":1756156152,"current_range_meters":6400,"station_id":"ce4bgm92rcd13ifvqbr0","pricing_plan_id":"cebpf4jnsgd1na2vs0mg"},{"bike_id":"3fcb1ecf-014d-414b-8e46-6cb5a3a18d8d","system_id":"levelo_inurba_marseille","lat":43.271036,"lon":5.387253,"is_reserved":false,"is_disabled":false,"rental_uris":{"android":"levelo://app?vid=3fcb1ecf-014d-414b-8e46-6cb5a3a18d8d","ios":"levelo://app?vid=3fcb1ecf-014d-414b-8e46-6cb5a3a18d8d"},"vehicle_type_id":"4","last_reported":1756156152,"current_range_meters":6800,"station_id":"","pricing_plan_id":"cebpf4jnsgd1na2vs0mg"},{"bike_id":"dc87a039-7c6d-478a-afe7-e47db1d88996","system_id":"levelo_inurba_marseille","lat":43.21185,"lon":5.35096,"is_reserved":false,"is_disabled":false,"rental_uris":{"android":"levelo://app?vid=dc87a039-7c6d-478a-afe7-e47db1d88996","ios":"levelo://app?vid=dc87a039-7c6d-478a-afe7-e47db1d88996"},"vehicle_type_id":"4","last_reported":1756156152,"current_range_meters":6800,"station_id":"st_cvj6sg6p6f1abm77japg","pricing_plan_id":"cebpf4jnsgd1na2vs0mg"},{"bike_id":"0490c530-845d-44f9-bf75-09a8b4d2b9b9","system_id":"levelo_inurba_marseille","lat":43.29743,"lon":5.38097,"is_reserved":false,"is_disabled":true,"rental_uris":{"android":"levelo://app?vid=0490c530-845d-44f9-bf75-09a8b4d2b9b9","ios":"levelo://app?vid=0490c530-845d-44f9-bf75-09a8b4d2b9b9"},"vehicle_type_id":"4","last_reported":1756156152,"current_range_meters":6800,"station_id":"ce4bgip2rcd13ifvqbb0","pricing_plan_id":"cebpf4jnsgd1na2vs0mg"},{"bike_id":"7103aa72-ee37-4842-9155-02ea9850d8cd","system_id":"levelo_inurba_marseille","lat":43.31086,"lon":5.42431,"is_reserved":false,"is_disabled":false,"rental_uris":{"android":"levelo://app?vid=7103aa72-ee37-4842-9155-02ea9850d8cd","ios":"levelo://app?vid=7103aa72-ee37-4842-9155-02ea9850d8cd"},"vehicle_type_id":"4","last_reported":1756156152,"current_range_meters":6800,"station_id":"ce4bhp92rcd13ifvqhag","pricing_plan_id":"cebpf4jnsgd1na2vs0mg"},{"bike_id":"8e3c1d96-db3d-493f-9f1f-6750dcd1e8bc","system_id":"levelo_inurba_marseille","lat":43.32755,"lon":5.38794,"is_reserved":false,"is_disabled":false,"rental_uris":{"android":"levelo://app?vid=8e3c1d96-db3d-493f-9f1f-6750dcd1e8bc","ios":"levelo://app?vid=8e3c1d96-db3d-493f-9f1f-6750dcd1e8bc"},"vehicle_type_id":"4","last_reported":1756156152,"current_range_meters":6800,"station_id":"","pricing_plan_id":"cebpf4jnsgd1na2vs0mg"},{"bike_id":"f8ef2d14-bc4d-47da-87df-9e55a8ecd50b","system_id":"levelo_inurba_marseille","lat":43.280787,"lon":5.396576,"is_reserved":false,"is_disabled":false,"rental_uris":{"android":"levelo://app?vid=f8ef2d14-bc4d-47da-87df-9e55a8ecd50b","ios":"levelo://app?vid=f8ef2d14-bc4d-47da-87df-9e55a8ecd50b"},"vehicle_type_id":"4","last_reported":1756156152,"current_range_meters":7200,"station_id":"ce4bho12rcd13ifvqh2g","pricing_plan_id":"cebpf4jnsgd1na2vs0mg"},{"bike_id":"9d12bc86-537a-4023-9cd9-23676cd80bf4","system_id":"levelo_inurba_marseille","lat":43.2795,"lon":5.41028,"is_reserved":false,"is_disabled":false,"rental_uris":{"android":"levelo://app?vid=9d12bc86-537a-4023-9cd9-23676cd80bf4","ios":"levelo://app?vid=9d12bc86-537a-4023-9cd9-23676cd80bf4"},"vehicle_type_id":"4","last_reported":1756156152,"current_range_meters":7200,"station_id":"ce4bhnp2rcd13ifvqh0g","pricing_plan_id":"cebpf4jnsgd1na2vs0mg"},{"bike_id":"b567829f-d8c9-4b06-9b96-c7f8ee845620","system_id":"levelo_inurba_marseille","lat":43.292641,"lon":5.408914,"is_reserved":false,"is_disabled":false,"rental_uris":{"android":"levelo://app?vid=b567829f-d8c9-4b06-9b96-c7f8ee845620","ios":"levelo://app?vid=b567829f-d8c9-4b06-9b96-c7f8ee845620"},"vehicle_type_id":"4","last_reported":1756156152,"current_range_meters":8000,"station_id":"ce4bh192rcd13ifvqdc0","pricing_plan_id":"cebpf4jnsgd1na2vs0mg"},{"bike_id":"e0791c0f-ad52-4724-86e0-76d122fa325b","system_id":"levelo_inurba_marseille","lat":43.30811,"lon":5.43524,"is_reserved":false,"is_disabled":false,"rental_uris":{"android":"levelo://app?vid=e0791c0f-ad52-4724-86e0-76d122fa325b","ios":"levelo://app?vid=e0791c0f-ad52-4724-86e0-76d122fa325b"},"vehicle_type_id":"4","last_reported":1756156152,"current_range_meters":7200,"station_id":"ce4bhph2rcd13ifvqheg","pricing_plan_id":"cebpf4jnsgd1na2vs0mg"},{"bike_id":"8278d03d-5584-48a8-a86a-7847a162c713","system_id":"levelo_inurba_marseille","lat":43.30939,"lon":5.38142,"is_reserved":false,"is_disabled":false,"rental_uris":{"android":"levelo://app?vid=8278d03d-5584-48a8-a86a-7847a162c713","ios":"levelo://app?vid=8278d03d-5584-48a8-a86a-7847a162c713"},"vehicle_type_id":"4","last_reported":1756156152,"current_range_meters":8000,"station_id":"","pricing_plan_id":"cebpf4jnsgd1na2vs0mg"},{"bike_id":"bf7b44e9-4899-4c25-b31f-ed43e6aca59c","system_id":"levelo_inurba_marseille","lat":43.30277,"lon":5.37723,"is_reserved":false,"is_disabled":false,"rental_uris":{"android":"levelo://app?vid=bf7b44e9-4899-4c25-b31f-ed43e6aca59c","ios":"levelo://app?vid=bf7b44e9-4899-4c25-b31f-ed43e6aca59c"},"vehicle_type_id":"4","last_reported":1756156152,"current_range_meters":8400,"station_id":"ce4bguh2rcd13ifvqcj0","pricing_plan_id":"cebpf4jnsgd1na2vs0mg"},{"bike_id":"d4e44849-9eff-4b1a-857d-5eda5b467760","system_id":"levelo_inurba_marseille","lat":43.28399,"lon":5.37528,"is_reserved":false,"is_disabled":false,"rental_uris":{"android":"levelo://app?vid=d4e44849-9eff-4b1a-857d-5eda5b467760","ios":"levelo://app?vid=d4e44849-9eff-4b1a-857d-5eda5b467760"},"vehicle_type_id":"4","last_reported":1756156152,"current_range_meters":8400,"station_id":"ce4bh412rcd13ifvqds0","pricing_plan_id":"cebpf4jnsgd1na2vs0mg"},{"bike_id":"3edf7491-954f-4957-8a6a-205691a11ec5","system_id":"levelo_inurba_marseille","lat":43.315186,"lon":5.387287,"is_reserved":false,"is_disabled":false,"rental_uris":{"android":"levelo://app?vid=3edf7491-954f-4957-8a6a-205691a11ec5","ios":"levelo://app?vid=3edf7491-954f-4957-8a6a-205691a11ec5"},"vehicle_type_id":"4","last_reported":1756156152,"current_range_meters":6800,"station_id":"","pricing_plan_id":"cebpf4jnsgd1na2vs0mg"},{"bike_id":"a3ee7e5c-9cf7-43c5-93e5-2bc43df4e2a3","system_id":"levelo_inurba_marseille","lat":43.26561,"lon":5.403233,"is_reserved":false,"is_disabled":false,"rental_uris":{"android":"levelo://app?vid=a3ee7e5c-9cf7-43c5-93e5-2bc43df4e2a3","ios":"levelo://app?vid=a3ee7e5c-9cf7-43c5-93e5-2bc43df4e2a3"},"vehicle_type_id":"4","last_reported":1756156152,"current_range_meters":8400,"station_id":"ce4bhmp2rcd13ifvqgng","pricing_plan_id":"cebpf4jnsgd1na2vs0mg"},{"bike_id":"318a994a-51ff-465f-b40c-534a36bf7044","system_id":"levelo_inurba_marseille","lat":43.30092,"lon":5.38309,"is_reserved":false,"is_disabled":false,"rental_uris":{"android":"levelo://app?vid=318a994a-51ff-465f-b40c-534a36bf7044","ios":"levelo://app?vid=318a994a-51ff-465f-b40c-534a36bf7044"},"vehicle_type_id":"4","last_reported":1756156152,"current_range_meters":8400,"station_id":"","pricing_plan_id":"cebpf4jnsgd1na2vs0mg"},{"bike_id":"8518bded-4733-4e5e-9522-f030c96f848a","system_id":"levelo_inurba_marseille","lat":43.21194,"lon":5.35075,"is_reserved":false,"is_disabled":true,"rental_uris":{"android":"levelo://app?vid=8518bded-4733-4e5e-9522-f030c96f848a","ios":"levelo://app?vid=8518bded-4733-4e5e-9522-f030c96f848a"},"vehicle_type_id":"4","last_reported":1756156152,"current_range_meters":8400,"station_id":"","pricing_plan_id":"cebpf4jnsgd1na2vs0mg"},{"bike_id":"fb0ecd7c-2c0f-42f1-9e73-9448c9893367","system_id":"levelo_inurba_marseille","lat":43.26483,"lon":5.37025,"is_reserved":false,"is_disabled":false,"rental_uris":{"android":"levelo://app?vid=fb0ecd7c-2c0f-42f1-9e73-9448c9893367","ios":"levelo://app?vid=fb0ecd7c-2c0f-42f1-9e73-9448c9893367"},"vehicle_type_id":"4","last_reported":1756156152,"current_range_meters":8800,"station_id":"","pricing_plan_id":"cebpf4jnsgd1na2vs0mg"},{"bike_id":"075cae18-8db5-4c33-9f4e-112036039dbe","system_id":"levelo_inurba_marseille","lat":43.28882,"lon":5.35879,"is_reserved":false,"is_disabled":false,"rental_uris":{"android":"levelo://app?vid=075cae18-8db5-4c33-9f4e-112036039dbe","ios":"levelo://app?vid=075cae18-8db5-4c33-9f4e-112036039dbe"},"vehicle_type_id":"4","last_reported":1756156152,"current_range_meters":9200,"station_id":"ce4bhb12rcd13ifvqem0","pricing_plan_id":"cebpf4jnsgd1na2vs0mg"},{"bike_id":"f827924e-764d-464b-bd85-3fbe8fd49a38","system_id":"levelo_inurba_marseille","lat":43.28147,"lon":5.42646,"is_reserved":false,"is_disabled":false,"rental_uris":{"android":"levelo://app?vid=f827924e-764d-464b-bd85-3fbe8fd49a38","ios":"levelo://app?vid=f827924e-764d-464b-bd85-3fbe8fd49a38"},"vehicle_type_id":"4","last_reported":1756156152,"current_range_meters":9200,"station_id":"ce4bhnh2rcd13ifvqgug","pricing_plan_id":"cebpf4jnsgd1na2vs0mg"},{"bike_id":"461999fd-44c1-455e-834d-df855ec61407","system_id":"levelo_inurba_marseille","lat":43.27082,"lon":5.42298,"is_reserved":false,"is_disabled":false,"rental_uris":{"android":"levelo://app?vid=461999fd-44c1-455e-834d-df855ec61407","ios":"levelo://app?vid=461999fd-44c1-455e-834d-df855ec61407"},"vehicle_type_id":"4","last_reported":1756156152,"current_range_meters":9200,"station_id":"ce4bhk92rcd13ifvqgb0","pricing_plan_id":"cebpf4jnsgd1na2vs0mg"},{"bike_id":"402606c4-bd50-4955-9406-929ebe1e1c94","system_id":"levelo_inurba_marseille","lat":43.29805,"lon":5.39362,"is_reserved":false,"is_disabled":false,"rental_uris":{"android":"levelo://app?vid=402606c4-bd50-4955-9406-929ebe1e1c94","ios":"levelo://app?vid=402606c4-bd50-4955-9406-929ebe1e1c94"},"vehicle_type_id":"4","last_reported":1756156152,"current_range_meters":9600,"station_id":"chh1huq6cuj3fo74tm60","pricing_plan_id":"cebpf4jnsgd1na2vs0mg"},{"bike_id":"5e31023c-154b-45cd-bd09-370c558602a4","system_id":"levelo_inurba_marseille","lat":43.27836,"lon":5.39204,"is_reserved":false,"is_disabled":false,"rental_uris":{"android":"levelo://app?vid=5e31023c-154b-45cd-bd09-370c558602a4","ios":"levelo://app?vid=5e31023c-154b-45cd-bd09-370c558602a4"},"vehicle_type_id":"4","last_reported":1756156152,"current_range_meters":9200,"station_id":"ce4bhjp2rcd13ifvqga0","pricing_plan_id":"cebpf4jnsgd1na2vs0mg"},{"bike_id":"f50e029c-78e4-4943-96e6-f587e062386c","system_id":"levelo_inurba_marseille","lat":43.31721,"lon":5.424,"is_reserved":false,"is_disabled":false,"rental_uris":{"android":"levelo://app?vid=f50e029c-78e4-4943-96e6-f587e062386c","ios":"levelo://app?vid=f50e029c-78e4-4943-96e6-f587e062386c"},"vehicle_type_id":"4","last_reported":1756156152,"current_range_meters":9600,"station_id":"ce4bhp92rcd13ifvqhbg","pricing_plan_id":"cebpf4jnsgd1na2vs0mg"},{"bike_id":"689178bc-5c72-427e-9882-887899b3c3e0","system_id":"levelo_inurba_marseille","lat":43.28954,"lon":5.3639,"is_reserved":false,"is_disabled":false,"rental_uris":{"android":"levelo://app?vid=689178bc-5c72-427e-9882-887899b3c3e0","ios":"levelo://app?vid=689178bc-5c72-427e-9882-887899b3c3e0"},"vehicle_type_id":"4","last_reported":1756156152,"current_range_meters":10000,"station_id":"ce4bhc92rcd13ifvqetg","pricing_plan_id":"cebpf4jnsgd1na2vs0mg"},{"bike_id":"2f785e67-4567-45cb-88ef-bded455e5656","system_id":"levelo_inurba_marseille","lat":43.31453,"lon":5.37395,"is_reserved":false,"is_disabled":false,"rental_uris":{"android":"levelo://app?vid=2f785e67-4567-45cb-88ef-bded455e5656","ios":"levelo://app?vid=2f785e67-4567-45cb-88ef-bded455e5656"},"vehicle_type_id":"4","last_reported":1756156152,"current_range_meters":10000,"station_id":"","pricing_plan_id":"cebpf4jnsgd1na2vs0mg"},{"bike_id":"7c3f5242-e418-484e-a55c-f4fba4d3a1e9","system_id":"levelo_inurba_marseille","lat":43.25341,"lon":5.42173,"is_reserved":false,"is_disabled":false,"rental_uris":{"android":"levelo://app?vid=7c3f5242-e418-484e-a55c-f4fba4d3a1e9","ios":"levelo://app?vid=7c3f5242-e418-484e-a55c-f4fba4d3a1e9"},"vehicle_type_id":"4","last_reported":1756156152,"current_range_meters":10000,"station_id":"st_d2m65c5bi1j21697t3ng","pricing_plan_id":"cebpf4jnsgd1na2vs0mg"},{"bike_id":"9adbc700-fdec-4c91-b21e-39574edfca3d","system_id":"levelo_inurba_marseille","lat":43.28015,"lon":5.40002,"is_reserved":false,"is_disabled":false,"rental_uris":{"android":"levelo://app?vid=9adbc700-fdec-4c91-b21e-39574edfca3d","ios":"levelo://app?vid=9adbc700-fdec-4c91-b21e-39574edfca3d"},"vehicle_type_id":"4","last_reported":1756156152,"current_range_meters":10800,"station_id":"ce4bho92rcd13ifvqh4g","pricing_plan_id":"cebpf4jnsgd1na2vs0mg"},{"bike_id":"9fd9bfdc-8b34-43c0-bc2d-e6c6f49f9499","system_id":"levelo_inurba_marseille","lat":43.29541,"lon":5.38539,"is_reserved":false,"is_disabled":false,"rental_uris":{"android":"levelo://app?vid=9fd9bfdc-8b34-43c0-bc2d-e6c6f49f9499","ios":"levelo://app?vid=9fd9bfdc-8b34-43c0-bc2d-e6c6f49f9499"},"vehicle_type_id":"4","last_reported":1756156152,"current_range_meters":10800,"station_id":"ce4bgih2rcd13ifvqba0","pricing_plan_id":"cebpf4jnsgd1na2vs0mg"},{"bike_id":"7203aa12-6f27-4868-bb54-60c3b620f3ff","system_id":"levelo_inurba_marseille","lat":43.29511,"lon":5.39397,"is_reserved":false,"is_disabled":true,"rental_uris":{"android":"levelo://app?vid=7203aa12-6f27-4868-bb54-60c3b620f3ff","ios":"levelo://app?vid=7203aa12-6f27-4868-bb54-60c3b620f3ff"},"vehicle_type_id":"4","last_reported":1756156152,"current_range_meters":10800,"station_id":"ce4bh292rcd13ifvqdf0","pricing_plan_id":"cebpf4jnsgd1na2vs0mg"},{"bike_id":"236f1a17-bd84-4b8e-977f-7df7d8cf402c","system_id":"levelo_inurba_marseille","lat":43.30807,"lon":5.43523,"is_reserved":false,"is_disabled":true,"rental_uris":{"android":"levelo://app?vid=236f1a17-bd84-4b8e-977f-7df7d8cf402c","ios":"levelo://app?vid=236f1a17-bd84-4b8e-977f-7df7d8cf402c"},"vehicle_type_id":"4","last_reported":1756156152,"current_range_meters":10800,"station_id":"ce4bhph2rcd13ifvqheg","pricing_plan_id":"cebpf4jnsgd1na2vs0mg"},{"bike_id":"4df71f0f-c74e-4ac3-acf8-818e23b9a99b","system_id":"levelo_inurba_marseille","lat":43.29281,"lon":5.38566,"is_reserved":false,"is_disabled":false,"rental_uris":{"android":"levelo://app?vid=4df71f0f-c74e-4ac3-acf8-818e23b9a99b","ios":"levelo://app?vid=4df71f0f-c74e-4ac3-acf8-818e23b9a99b"},"vehicle_type_id":"4","last_reported":1756156152,"current_range_meters":10800,"station_id":"","pricing_plan_id":"cebpf4jnsgd1na2vs0mg"},{"bike_id":"dbdd3534-9e12-4e0b-a95a-e7db6454e82e","system_id":"levelo_inurba_marseille","lat":43.28705,"lon":5.3739,"is_reserved":false,"is_disabled":false,"rental_uris":{"android":"levelo://app?vid=dbdd3534-9e12-4e0b-a95a-e7db6454e82e","ios":"levelo://app?vid=dbdd3534-9e12-4e0b-a95a-e7db6454e82e"},"vehicle_type_id":"4","last_reported":1756156152,"current_range_meters":12400,"station_id":"ce4bh3p2rcd13ifvqdq0","pricing_plan_id":"cebpf4jnsgd1na2vs0mg"},{"bike_id":"7a30216f-7684-4915-8ef1-ebb11b332bd2","system_id":"levelo_inurba_marseille","lat":43.30796,"lon":5.38161,"is_reserved":false,"is_disabled":false,"rental_uris":{"android":"levelo://app?vid=7a30216f-7684-4915-8ef1-ebb11b332bd2","ios":"levelo://app?vid=7a30216f-7684-4915-8ef1-ebb11b332bd2"},"vehicle_type_id":"4","last_reported":1756156152,"current_range_meters":10800,"station_id":"ce4bgt12rcd13ifvqce0","pricing_plan_id":"cebpf4jnsgd1na2vs0mg"},{"bike_id":"5bc159b2-6625-4331-8d47-866182c3fe54","system_id":"levelo_inurba_marseille","lat":43.28697,"lon":5.37377,"is_reserved":false,"is_disabled":false,"rental_uris":{"android":"levelo://app?vid=5bc159b2-6625-4331-8d47-866182c3fe54","ios":"levelo://app?vid=5bc159b2-6625-4331-8d47-866182c3fe54"},"vehicle_type_id":"4","last_reported":1756156152,"current_range_meters":11200,"station_id":"ce4bh3p2rcd13ifvqdq0","pricing_plan_id":"cebpf4jnsgd1na2vs0mg"},{"bike_id":"bdf9cdaf-1841-4395-9aa4-66303e07210c","system_id":"levelo_inurba_marseille","lat":43.28945,"lon":5.36632,"is_reserved":false,"is_disabled":false,"rental_uris":{"android":"levelo://app?vid=bdf9cdaf-1841-4395-9aa4-66303e07210c","ios":"levelo://app?vid=bdf9cdaf-1841-4395-9aa4-66303e07210c"},"vehicle_type_id":"4","last_reported":1756156152,"current_range_meters":11200,"station_id":"ce4bhap2rcd13ifvqek0","pricing_plan_id":"cebpf4jnsgd1na2vs0mg"},{"bike_id":"22249665-236e-4215-b6bd-4047b3ba7f37","system_id":"levelo_inurba_marseille","lat":43.26495,"lon":5.39538,"is_reserved":false,"is_disabled":false,"rental_uris":{"android":"levelo://app?vid=22249665-236e-4215-b6bd-4047b3ba7f37","ios":"levelo://app?vid=22249665-236e-4215-b6bd-4047b3ba7f37"},"vehicle_type_id":"4","last_reported":1756156152,"current_range_meters":11200,"station_id":"ce4bhi12rcd13ifvqfq0","pricing_plan_id":"cebpf4jnsgd1na2vs0mg"},{"bike_id":"a4a408b3-aa81-4fa0-99b2-8d0a08e384bc","system_id":"levelo_inurba_marseille","lat":43.32111,"lon":5.36773,"is_reserved":false,"is_disabled":true,"rental_uris":{"android":"levelo://app?vid=a4a408b3-aa81-4fa0-99b2-8d0a08e384bc","ios":"levelo://app?vid=a4a408b3-aa81-4fa0-99b2-8d0a08e384bc"},"vehicle_type_id":"4","last_reported":1756156152,"current_range_meters":11200,"station_id":"ce4bhrh2rcd13ifvqhug","pricing_plan_id":"cebpf4jnsgd1na2vs0mg"},{"bike_id":"b0d6a657-c78e-47de-85ac-cbf4564acdcb","system_id":"levelo_inurba_marseille","lat":43.28132,"lon":5.42662,"is_reserved":false,"is_disabled":false,"rental_uris":{"android":"levelo://app?vid=b0d6a657-c78e-47de-85ac-cbf4564acdcb","ios":"levelo://app?vid=b0d6a657-c78e-47de-85ac-cbf4564acdcb"},"vehicle_type_id":"4","last_reported":1756156152,"current_range_meters":11600,"station_id":"ce4bhnh2rcd13ifvqgug","pricing_plan_id":"cebpf4jnsgd1na2vs0mg"},{"bike_id":"1cd21559-399f-4936-b4ac-cb1d7223c9c3","system_id":"levelo_inurba_marseille","lat":43.239941,"lon":5.362734,"is_reserved":false,"is_disabled":false,"rental_uris":{"android":"levelo://app?vid=1cd21559-399f-4936-b4ac-cb1d7223c9c3","ios":"levelo://app?vid=1cd21559-399f-4936-b4ac-cb1d7223c9c3"},"vehicle_type_id":"4","last_reported":1756156152,"current_range_meters":11600,"station_id":"","pricing_plan_id":"cebpf4jnsgd1na2vs0mg"},{"bike_id":"df75f1fa-75ae-4074-a5b6-5911a8c1b6a8","system_id":"levelo_inurba_marseille","lat":43.30752,"lon":5.37172,"is_reserved":false,"is_disabled":false,"rental_uris":{"android":"levelo://app?vid=df75f1fa-75ae-4074-a5b6-5911a8c1b6a8","ios":"levelo://app?vid=df75f1fa-75ae-4074-a5b6-5911a8c1b6a8"},"vehicle_type_id":"4","last_reported":1756156152,"current_range_meters":11600,"station_id":"","pricing_plan_id":"cebpf4jnsgd1na2vs0mg"},{"bike_id":"16f088cf-33d5-499e-92ec-61848c07c510","system_id":"levelo_inurba_marseille","lat":43.28878,"lon":5.35859,"is_reserved":false,"is_disabled":false,"rental_uris":{"android":"levelo://app?vid=16f088cf-33d5-499e-92ec-61848c07c510","ios":"levelo://app?vid=16f088cf-33d5-499e-92ec-61848c07c510"},"vehicle_type_id":"4","last_reported":1756156152,"current_range_meters":12000,"station_id":"ce4bhb12rcd13ifvqem0","pricing_plan_id":"cebpf4jnsgd1na2vs0mg"},{"bike_id":"37ee34ea-f1e1-4241-a19a-4060e53b71a9","system_id":"levelo_inurba_marseille","lat":43.27375,"lon":5.36229,"is_reserved":false,"is_disabled":false,"rental_uris":{"android":"levelo://app?vid=37ee34ea-f1e1-4241-a19a-4060e53b71a9","ios":"levelo://app?vid=37ee34ea-f1e1-4241-a19a-4060e53b71a9"},"vehicle_type_id":"4","last_reported":1756156152,"current_range_meters":12000,"station_id":"ce4bhbh2rcd13ifvqeo0","pricing_plan_id":"cebpf4jnsgd1na2vs0mg"},{"bike_id":"af4f25ab-3f23-4eef-b561-a9bfc5ac7a45","system_id":"levelo_inurba_marseille","lat":43.29281,"lon":5.38427,"is_reserved":false,"is_disabled":false,"rental_uris":{"android":"levelo://app?vid=af4f25ab-3f23-4eef-b561-a9bfc5ac7a45","ios":"levelo://app?vid=af4f25ab-3f23-4eef-b561-a9bfc5ac7a45"},"vehicle_type_id":"4","last_reported":1756156152,"current_range_meters":12000,"station_id":"ce4bh692rcd13ifvqea0","pricing_plan_id":"cebpf4jnsgd1na2vs0mg"},{"bike_id":"48945d1d-35ab-48d4-91c6-c6017b6a6954","system_id":"levelo_inurba_marseille","lat":43.27966,"lon":5.38765,"is_reserved":false,"is_disabled":false,"rental_uris":{"android":"levelo://app?vid=48945d1d-35ab-48d4-91c6-c6017b6a6954","ios":"levelo://app?vid=48945d1d-35ab-48d4-91c6-c6017b6a6954"},"vehicle_type_id":"4","last_reported":1756156152,"current_range_meters":12000,"station_id":"ce4bhg12rcd13ifvqf80","pricing_plan_id":"cebpf4jnsgd1na2vs0mg"},{"bike_id":"5372f1fe-6bdb-48de-952a-7410d5eb9e37","system_id":"levelo_inurba_marseille","lat":43.29543,"lon":5.38545,"is_reserved":false,"is_disabled":false,"rental_uris":{"android":"levelo://app?vid=5372f1fe-6bdb-48de-952a-7410d5eb9e37","ios":"levelo://app?vid=5372f1fe-6bdb-48de-952a-7410d5eb9e37"},"vehicle_type_id":"4","last_reported":1756156152,"current_range_meters":12000,"station_id":"ce4bgih2rcd13ifvqba0","pricing_plan_id":"cebpf4jnsgd1na2vs0mg"},{"bike_id":"01a29392-8b5c-42c8-9a48-f0ad02749a8b","system_id":"levelo_inurba_marseille","lat":43.273342,"lon":5.39111,"is_reserved":false,"is_disabled":true,"rental_uris":{"android":"levelo://app?vid=01a29392-8b5c-42c8-9a48-f0ad02749a8b","ios":"levelo://app?vid=01a29392-8b5c-42c8-9a48-f0ad02749a8b"},"vehicle_type_id":"4","last_reported":1756156152,"current_range_meters":12400,"station_id":"ce4bhgp2rcd13ifvqfe0","pricing_plan_id":"cebpf4jnsgd1na2vs0mg"},{"bike_id":"1f8501a7-4674-4d39-83d9-7ec9c7fb9041","system_id":"levelo_inurba_marseille","lat":43.2922,"lon":5.38471,"is_reserved":false,"is_disabled":false,"rental_uris":{"android":"levelo://app?vid=1f8501a7-4674-4d39-83d9-7ec9c7fb9041","ios":"levelo://app?vid=1f8501a7-4674-4d39-83d9-7ec9c7fb9041"},"vehicle_type_id":"4","last_reported":1756156152,"current_range_meters":12400,"station_id":"","pricing_plan_id":"cebpf4jnsgd1na2vs0mg"},{"bike_id":"3f4a45cc-e5bb-4b35-88d4-61431d4f60e6","system_id":"levelo_inurba_marseille","lat":43.32913,"lon":5.39051,"is_reserved":false,"is_disabled":false,"rental_uris":{"android":"levelo://app?vid=3f4a45cc-e5bb-4b35-88d4-61431d4f60e6","ios":"levelo://app?vid=3f4a45cc-e5bb-4b35-88d4-61431d4f60e6"},"vehicle_type_id":"4","last_reported":1756156152,"current_range_meters":12800,"station_id":"","pricing_plan_id":"cebpf4jnsgd1na2vs0mg"},{"bike_id":"d94a3e2d-afbd-4e20-9e99-a5beeae0f186","system_id":"levelo_inurba_marseille","lat":43.28161,"lon":5.42633,"is_reserved":false,"is_disabled":false,"rental_uris":{"android":"levelo://app?vid=d94a3e2d-afbd-4e20-9e99-a5beeae0f186","ios":"levelo://app?vid=d94a3e2d-afbd-4e20-9e99-a5beeae0f186"},"vehicle_type_id":"4","last_reported":1756156152,"current_range_meters":12800,"station_id":"ce4bhnh2rcd13ifvqgug","pricing_plan_id":"cebpf4jnsgd1na2vs0mg"},{"bike_id":"07850d4c-44e0-4eb6-97ad-900d506a2da3","system_id":"levelo_inurba_marseille","lat":43.28616,"lon":5.35115,"is_reserved":false,"is_disabled":true,"rental_uris":{"android":"levelo://app?vid=07850d4c-44e0-4eb6-97ad-900d506a2da3","ios":"levelo://app?vid=07850d4c-44e0-4eb6-97ad-900d506a2da3"},"vehicle_type_id":"4","last_reported":1756156152,"current_range_meters":12800,"station_id":"ce4bhch2rcd13ifvqeug","pricing_plan_id":"cebpf4jnsgd1na2vs0mg"},{"bike_id":"7189d6f5-1678-4c32-8153-93fc07bd4708","system_id":"levelo_inurba_marseille","lat":43.2871,"lon":5.40002,"is_reserved":false,"is_disabled":false,"rental_uris":{"android":"levelo://app?vid=7189d6f5-1678-4c32-8153-93fc07bd4708","ios":"levelo://app?vid=7189d6f5-1678-4c32-8153-93fc07bd4708"},"vehicle_type_id":"4","last_reported":1756156152,"current_range_meters":12800,"station_id":"ce4bho92rcd13ifvqh3g","pricing_plan_id":"cebpf4jnsgd1na2vs0mg"},{"bike_id":"19783fba-7475-4b86-95a6-08d3d4fa647f","system_id":"levelo_inurba_marseille","lat":43.29896,"lon":5.43673,"is_reserved":false,"is_disabled":false,"rental_uris":{"android":"levelo://app?vid=19783fba-7475-4b86-95a6-08d3d4fa647f","ios":"levelo://app?vid=19783fba-7475-4b86-95a6-08d3d4fa647f"},"vehicle_type_id":"4","last_reported":1756156152,"current_range_meters":13600,"station_id":"ce4bhpp2rcd13ifvqhfg","pricing_plan_id":"cebpf4jnsgd1na2vs0mg"},{"bike_id":"d0999127-b16f-4437-8178-2bcfe37baaed","system_id":"levelo_inurba_marseille","lat":43.27814,"lon":5.40685,"is_reserved":false,"is_disabled":false,"rental_uris":{"android":"levelo://app?vid=d0999127-b16f-4437-8178-2bcfe37baaed","ios":"levelo://app?vid=d0999127-b16f-4437-8178-2bcfe37baaed"},"vehicle_type_id":"4","last_reported":1756156152,"current_range_meters":13600,"station_id":"ce4bhnh2rcd13ifvqgtg","pricing_plan_id":"cebpf4jnsgd1na2vs0mg"},{"bike_id":"c676dccd-ea96-467b-a7a4-8b7521ddd99d","system_id":"levelo_inurba_marseille","lat":43.25113,"lon":5.40312,"is_reserved":false,"is_disabled":false,"rental_uris":{"android":"levelo://app?vid=c676dccd-ea96-467b-a7a4-8b7521ddd99d","ios":"levelo://app?vid=c676dccd-ea96-467b-a7a4-8b7521ddd99d"},"vehicle_type_id":"4","last_reported":1756156152,"current_range_meters":14000,"station_id":"ce4bhlh2rcd13ifvqgig","pricing_plan_id":"cebpf4jnsgd1na2vs0mg"},{"bike_id":"5e87222d-dffd-48cc-9697-e2303be83f89","system_id":"levelo_inurba_marseille","lat":43.294877,"lon":5.378683,"is_reserved":false,"is_disabled":false,"rental_uris":{"android":"levelo://app?vid=5e87222d-dffd-48cc-9697-e2303be83f89","ios":"levelo://app?vid=5e87222d-dffd-48cc-9697-e2303be83f89"},"vehicle_type_id":"4","last_reported":1756156152,"current_range_meters":14000,"station_id":"","pricing_plan_id":"cebpf4jnsgd1na2vs0mg"},{"bike_id":"6c671f27-35d1-40e3-9752-28d915a832d4","system_id":"levelo_inurba_marseille","lat":43.27197,"lon":5.39163,"is_reserved":false,"is_disabled":false,"rental_uris":{"android":"levelo://app?vid=6c671f27-35d1-40e3-9752-28d915a832d4","ios":"levelo://app?vid=6c671f27-35d1-40e3-9752-28d915a832d4"},"vehicle_type_id":"4","last_reported":1756156152,"current_range_meters":14000,"station_id":"ce4bhhp2rcd13ifvqfm0","pricing_plan_id":"cebpf4jnsgd1na2vs0mg"},{"bike_id":"78c01866-7c31-4b0c-93fb-94177f5e298a","system_id":"levelo_inurba_marseille","lat":43.2293,"lon":5.35426,"is_reserved":false,"is_disabled":false,"rental_uris":{"android":"levelo://app?vid=78c01866-7c31-4b0c-93fb-94177f5e298a","ios":"levelo://app?vid=78c01866-7c31-4b0c-93fb-94177f5e298a"},"vehicle_type_id":"4","last_reported":1756156152,"current_range_meters":14000,"station_id":"cpo3532slgdg3j2ikp40","pricing_plan_id":"cebpf4jnsgd1na2vs0mg"},{"bike_id":"322142a9-6cb3-49c2-bb0e-0e2c0fda1e2e","system_id":"levelo_inurba_marseille","lat":43.32941,"lon":5.38961,"is_reserved":false,"is_disabled":false,"rental_uris":{"android":"levelo://app?vid=322142a9-6cb3-49c2-bb0e-0e2c0fda1e2e","ios":"levelo://app?vid=322142a9-6cb3-49c2-bb0e-0e2c0fda1e2e"},"vehicle_type_id":"4","last_reported":1756156152,"current_range_meters":14000,"station_id":"","pricing_plan_id":"cebpf4jnsgd1na2vs0mg"},{"bike_id":"34b05bf9-5565-47a9-a704-66fe97becf52","system_id":"levelo_inurba_marseille","lat":43.30598,"lon":5.3721,"is_reserved":false,"is_disabled":false,"rental_uris":{"android":"levelo://app?vid=34b05bf9-5565-47a9-a704-66fe97becf52","ios":"levelo://app?vid=34b05bf9-5565-47a9-a704-66fe97becf52"},"vehicle_type_id":"4","last_reported":1756156152,"current_range_meters":14400,"station_id":"ce4bgqh2rcd13ifvqc4g","pricing_plan_id":"cebpf4jnsgd1na2vs0mg"},{"bike_id":"2cb3c564-fbdd-46e4-9a16-b8f4e6f31c63","system_id":"levelo_inurba_marseille","lat":43.26061,"lon":5.39374,"is_reserved":false,"is_disabled":true,"rental_uris":{"android":"levelo://app?vid=2cb3c564-fbdd-46e4-9a16-b8f4e6f31c63","ios":"levelo://app?vid=2cb3c564-fbdd-46e4-9a16-b8f4e6f31c63"},"vehicle_type_id":"4","last_reported":1756156152,"current_range_meters":14400,"station_id":"ce4bhh92rcd13ifvqfj0","pricing_plan_id":"cebpf4jnsgd1na2vs0mg"},{"bike_id":"f101968b-6033-4aaa-b37c-4e1f2550de08","system_id":"levelo_inurba_marseille","lat":43.30309,"lon":5.392,"is_reserved":false,"is_disabled":false,"rental_uris":{"android":"levelo://app?vid=f101968b-6033-4aaa-b37c-4e1f2550de08","ios":"levelo://app?vid=f101968b-6033-4aaa-b37c-4e1f2550de08"},"vehicle_type_id":"4","last_reported":1756156152,"current_range_meters":14400,"station_id":"ce4bgkh2rcd13ifvqbk0","pricing_plan_id":"cebpf4jnsgd1na2vs0mg"},{"bike_id":"8b09d6e8-3175-46a4-a882-3f13b9ad4be3","system_id":"levelo_inurba_marseille","lat":43.24624,"lon":5.43151,"is_reserved":false,"is_disabled":false,"rental_uris":{"android":"levelo://app?vid=8b09d6e8-3175-46a4-a882-3f13b9ad4be3","ios":"levelo://app?vid=8b09d6e8-3175-46a4-a882-3f13b9ad4be3"},"vehicle_type_id":"4","last_reported":1756156152,"current_range_meters":14400,"station_id":"st_d2m6c4gdas8pm72e190g","pricing_plan_id":"cebpf4jnsgd1na2vs0mg"},{"bike_id":"89f7b340-1be7-40f8-a3ee-1bb5c0729786","system_id":"levelo_inurba_marseille","lat":43.32538,"lon":5.41439,"is_reserved":false,"is_disabled":true,"rental_uris":{"android":"levelo://app?vid=89f7b340-1be7-40f8-a3ee-1bb5c0729786","ios":"levelo://app?vid=89f7b340-1be7-40f8-a3ee-1bb5c0729786"},"vehicle_type_id":"4","last_reported":1756156152,"current_range_meters":14400,"station_id":"ce4bhq12rcd13ifvqhhg","pricing_plan_id":"cebpf4jnsgd1na2vs0mg"},{"bike_id":"175d4d6c-90af-4fa7-a4f3-5bffbe2112bb","system_id":"levelo_inurba_marseille","lat":43.27228,"lon":5.39195,"is_reserved":false,"is_disabled":false,"rental_uris":{"android":"levelo://app?vid=175d4d6c-90af-4fa7-a4f3-5bffbe2112bb","ios":"levelo://app?vid=175d4d6c-90af-4fa7-a4f3-5bffbe2112bb"},"vehicle_type_id":"4","last_reported":1756156152,"current_range_meters":14800,"station_id":"ce4bhhp2rcd13ifvqfm0","pricing_plan_id":"cebpf4jnsgd1na2vs0mg"},{"bike_id":"fd4a67e8-6ee6-48ff-a9f2-0b08e1c025de","system_id":"levelo_inurba_marseille","lat":43.25106,"lon":5.40318,"is_reserved":false,"is_disabled":true,"rental_uris":{"android":"levelo://app?vid=fd4a67e8-6ee6-48ff-a9f2-0b08e1c025de","ios":"levelo://app?vid=fd4a67e8-6ee6-48ff-a9f2-0b08e1c025de"},"vehicle_type_id":"4","last_reported":1756156152,"current_range_meters":14800,"station_id":"ce4bhlh2rcd13ifvqgig","pricing_plan_id":"cebpf4jnsgd1na2vs0mg"},{"bike_id":"98223d85-0604-4f52-974d-d9a417faa44d","system_id":"levelo_inurba_marseille","lat":43.29601,"lon":5.3811,"is_reserved":false,"is_disabled":false,"rental_uris":{"android":"levelo://app?vid=98223d85-0604-4f52-974d-d9a417faa44d","ios":"levelo://app?vid=98223d85-0604-4f52-974d-d9a417faa44d"},"vehicle_type_id":"4","last_reported":1756156152,"current_range_meters":14800,"station_id":"ce4bgl12rcd13ifvqbo0","pricing_plan_id":"cebpf4jnsgd1na2vs0mg"},{"bike_id":"ffdfecd3-4af8-4309-98a5-091f78f240da","system_id":"levelo_inurba_marseille","lat":43.293042,"lon":5.374581,"is_reserved":false,"is_disabled":false,"rental_uris":{"android":"levelo://app?vid=ffdfecd3-4af8-4309-98a5-091f78f240da","ios":"levelo://app?vid=ffdfecd3-4af8-4309-98a5-091f78f240da"},"vehicle_type_id":"4","last_reported":1756156152,"current_range_meters":14800,"station_id":"ce4bgi12rcd13ifvqb70","pricing_plan_id":"cebpf4jnsgd1na2vs0mg"},{"bike_id":"a14433c3-7aa9-4f80-9c97-d039e5623647","system_id":"levelo_inurba_marseille","lat":43.28702,"lon":5.37384,"is_reserved":false,"is_disabled":false,"rental_uris":{"android":"levelo://app?vid=a14433c3-7aa9-4f80-9c97-d039e5623647","ios":"levelo://app?vid=a14433c3-7aa9-4f80-9c97-d039e5623647"},"vehicle_type_id":"4","last_reported":1756156152,"current_range_meters":14800,"station_id":"ce4bh3p2rcd13ifvqdq0","pricing_plan_id":"cebpf4jnsgd1na2vs0mg"},{"bike_id":"66fe0d3d-3f11-4f9b-b708-9233fa227550","system_id":"levelo_inurba_marseille","lat":43.31446,"lon":5.37365,"is_reserved":false,"is_disabled":false,"rental_uris":{"android":"levelo://app?vid=66fe0d3d-3f11-4f9b-b708-9233fa227550","ios":"levelo://app?vid=66fe0d3d-3f11-4f9b-b708-9233fa227550"},"vehicle_type_id":"4","last_reported":1756156152,"current_range_meters":14800,"station_id":"","pricing_plan_id":"cebpf4jnsgd1na2vs0mg"},{"bike_id":"999f1b99-11e2-4673-abf1-59581d0753f4","system_id":"levelo_inurba_marseille","lat":43.21762,"lon":5.34622,"is_reserved":false,"is_disabled":true,"rental_uris":{"android":"levelo://app?vid=999f1b99-11e2-4673-abf1-59581d0753f4","ios":"levelo://app?vid=999f1b99-11e2-4673-abf1-59581d0753f4"},"vehicle_type_id":"4","last_reported":1756156152,"current_range_meters":14800,"station_id":"st_cvj6r9ubvosntc0bgbag","pricing_plan_id":"cebpf4jnsgd1na2vs0mg"},{"bike_id":"909f8a34-207c-47bc-a045-0789f6825cce","system_id":"levelo_inurba_marseille","lat":43.21746,"lon":5.34619,"is_reserved":false,"is_disabled":true,"rental_uris":{"android":"levelo://app?vid=909f8a34-207c-47bc-a045-0789f6825cce","ios":"levelo://app?vid=909f8a34-207c-47bc-a045-0789f6825cce"},"vehicle_type_id":"4","last_reported":1756156152,"current_range_meters":14800,"station_id":"st_cvj6r9ubvosntc0bgbag","pricing_plan_id":"cebpf4jnsgd1na2vs0mg"},{"bike_id":"bef1ea93-deaf-4192-a900-4eadac6b30ea","system_id":"levelo_inurba_marseille","lat":43.30212,"lon":5.39468,"is_reserved":false,"is_disabled":false,"rental_uris":{"android":"levelo://app?vid=bef1ea93-deaf-4192-a900-4eadac6b30ea","ios":"levelo://app?vid=bef1ea93-deaf-4192-a900-4eadac6b30ea"},"vehicle_type_id":"4","last_reported":1756156152,"current_range_meters":14800,"station_id":"ce4bh0p2rcd13ifvqd70","pricing_plan_id":"cebpf4jnsgd1na2vs0mg"},{"bike_id":"b781a5a0-6633-425e-89d0-234145a32713","system_id":"levelo_inurba_marseille","lat":43.29591,"lon":5.38076,"is_reserved":false,"is_disabled":false,"rental_uris":{"android":"levelo://app?vid=b781a5a0-6633-425e-89d0-234145a32713","ios":"levelo://app?vid=b781a5a0-6633-425e-89d0-234145a32713"},"vehicle_type_id":"4","last_reported":1756156152,"current_range_meters":14800,"station_id":"ce4bgl12rcd13ifvqbo0","pricing_plan_id":"cebpf4jnsgd1na2vs0mg"},{"bike_id":"3e3169e7-1702-48fc-825b-2fcd7adf6998","system_id":"levelo_inurba_marseille","lat":43.31325,"lon":5.39697,"is_reserved":false,"is_disabled":false,"rental_uris":{"android":"levelo://app?vid=3e3169e7-1702-48fc-825b-2fcd7adf6998","ios":"levelo://app?vid=3e3169e7-1702-48fc-825b-2fcd7adf6998"},"vehicle_type_id":"4","last_reported":1756156152,"current_range_meters":15200,"station_id":"ce4bgvp2rcd13ifvqcu0","pricing_plan_id":"cebpf4jnsgd1na2vs0mg"},{"bike_id":"5e9b3ae6-a5ff-4ea1-95bd-9da15cf469f6","system_id":"levelo_inurba_marseille","lat":43.29261,"lon":5.40905,"is_reserved":false,"is_disabled":false,"rental_uris":{"android":"levelo://app?vid=5e9b3ae6-a5ff-4ea1-95bd-9da15cf469f6","ios":"levelo://app?vid=5e9b3ae6-a5ff-4ea1-95bd-9da15cf469f6"},"vehicle_type_id":"4","last_reported":1756156152,"current_range_meters":15200,"station_id":"ce4bh192rcd13ifvqdc0","pricing_plan_id":"cebpf4jnsgd1na2vs0mg"},{"bike_id":"e71013d2-dbe3-4826-8a5b-4baa1d2a4ed9","system_id":"levelo_inurba_marseille","lat":43.29255,"lon":5.40128,"is_reserved":false,"is_disabled":false,"rental_uris":{"android":"levelo://app?vid=e71013d2-dbe3-4826-8a5b-4baa1d2a4ed9","ios":"levelo://app?vid=e71013d2-dbe3-4826-8a5b-4baa1d2a4ed9"},"vehicle_type_id":"4","last_reported":1756156152,"current_range_meters":15200,"station_id":"","pricing_plan_id":"cebpf4jnsgd1na2vs0mg"},{"bike_id":"b0170a75-f823-42a2-b9cb-d41486c907bb","system_id":"levelo_inurba_marseille","lat":43.32371,"lon":5.36772,"is_reserved":false,"is_disabled":false,"rental_uris":{"android":"levelo://app?vid=b0170a75-f823-42a2-b9cb-d41486c907bb","ios":"levelo://app?vid=b0170a75-f823-42a2-b9cb-d41486c907bb"},"vehicle_type_id":"4","last_reported":1756156152,"current_range_meters":15200,"station_id":"ce4bhsh2rcd13ifvqi2g","pricing_plan_id":"cebpf4jnsgd1na2vs0mg"},{"bike_id":"be11ee8e-d6e8-4b5a-9526-c98af2d376fa","system_id":"levelo_inurba_marseille","lat":43.28144,"lon":5.42679,"is_reserved":false,"is_disabled":false,"rental_uris":{"android":"levelo://app?vid=be11ee8e-d6e8-4b5a-9526-c98af2d376fa","ios":"levelo://app?vid=be11ee8e-d6e8-4b5a-9526-c98af2d376fa"},"vehicle_type_id":"4","last_reported":1756156152,"current_range_meters":15200,"station_id":"ce4bhnh2rcd13ifvqgug","pricing_plan_id":"cebpf4jnsgd1na2vs0mg"},{"bike_id":"1e717a90-c853-4831-a30a-21a593345e4c","system_id":"levelo_inurba_marseille","lat":43.28426,"lon":5.35917,"is_reserved":false,"is_disabled":false,"rental_uris":{"android":"levelo://app?vid=1e717a90-c853-4831-a30a-21a593345e4c","ios":"levelo://app?vid=1e717a90-c853-4831-a30a-21a593345e4c"},"vehicle_type_id":"4","last_reported":1756156152,"current_range_meters":15200,"station_id":"ce4bhah2rcd13ifvqei0","pricing_plan_id":"cebpf4jnsgd1na2vs0mg"},{"bike_id":"af732ca8-2cea-448a-9928-59e03d12656f","system_id":"levelo_inurba_marseille","lat":43.33597,"lon":5.35876,"is_reserved":false,"is_disabled":false,"rental_uris":{"android":"levelo://app?vid=af732ca8-2cea-448a-9928-59e03d12656f","ios":"levelo://app?vid=af732ca8-2cea-448a-9928-59e03d12656f"},"vehicle_type_id":"4","last_reported":1756156152,"current_range_meters":15200,"station_id":"","pricing_plan_id":"cebpf4jnsgd1na2vs0mg"},{"bike_id":"268cd559-7a2d-4e5c-bedb-fd24d5efe9ac","system_id":"levelo_inurba_marseille","lat":43.32662,"lon":5.40993,"is_reserved":false,"is_disabled":false,"rental_uris":{"android":"levelo://app?vid=268cd559-7a2d-4e5c-bedb-fd24d5efe9ac","ios":"levelo://app?vid=268cd559-7a2d-4e5c-bedb-fd24d5efe9ac"},"vehicle_type_id":"4","last_reported":1756156152,"current_range_meters":15200,"station_id":"ce4bhpp2rcd13ifvqhgg","pricing_plan_id":"cebpf4jnsgd1na2vs0mg"},{"bike_id":"7b43efcb-8762-4c7d-8e32-a6fa51130619","system_id":"levelo_inurba_marseille","lat":43.28419,"lon":5.37525,"is_reserved":false,"is_disabled":false,"rental_uris":{"android":"levelo://app?vid=7b43efcb-8762-4c7d-8e32-a6fa51130619","ios":"levelo://app?vid=7b43efcb-8762-4c7d-8e32-a6fa51130619"},"vehicle_type_id":"4","last_reported":1756156152,"current_range_meters":15200,"station_id":"ce4bh412rcd13ifvqds0","pricing_plan_id":"cebpf4jnsgd1na2vs0mg"},{"bike_id":"a68f5e70-decd-4d36-ad32-79daf85e8cf0","system_id":"levelo_inurba_marseille","lat":43.29266,"lon":5.3845,"is_reserved":false,"is_disabled":false,"rental_uris":{"android":"levelo://app?vid=a68f5e70-decd-4d36-ad32-79daf85e8cf0","ios":"levelo://app?vid=a68f5e70-decd-4d36-ad32-79daf85e8cf0"},"vehicle_type_id":"4","last_reported":1756156152,"current_range_meters":15200,"station_id":"ce4bh692rcd13ifvqea0","pricing_plan_id":"cebpf4jnsgd1na2vs0mg"},{"bike_id":"e2b0f307-cfe9-4ad5-b104-d661fcb0d809","system_id":"levelo_inurba_marseille","lat":43.22941,"lon":5.35384,"is_reserved":false,"is_disabled":false,"rental_uris":{"android":"levelo://app?vid=e2b0f307-cfe9-4ad5-b104-d661fcb0d809","ios":"levelo://app?vid=e2b0f307-cfe9-4ad5-b104-d661fcb0d809"},"vehicle_type_id":"4","last_reported":1756156152,"current_range_meters":16000,"station_id":"cpo3532slgdg3j2ikp40","pricing_plan_id":"cebpf4jnsgd1na2vs0mg"},{"bike_id":"161b023b-749b-4341-aafc-4b4374f405d6","system_id":"levelo_inurba_marseille","lat":43.30379,"lon":5.42489,"is_reserved":false,"is_disabled":false,"rental_uris":{"android":"levelo://app?vid=161b023b-749b-4341-aafc-4b4374f405d6","ios":"levelo://app?vid=161b023b-749b-4341-aafc-4b4374f405d6"},"vehicle_type_id":"4","last_reported":1756156152,"current_range_meters":16000,"station_id":"ce4bhoh2rcd13ifvqh6g","pricing_plan_id":"cebpf4jnsgd1na2vs0mg"},{"bike_id":"8857da2d-18c4-4517-ab0f-603ccd2730ac","system_id":"levelo_inurba_marseille","lat":43.30467,"lon":5.37894,"is_reserved":false,"is_disabled":true,"rental_uris":{"android":"levelo://app?vid=8857da2d-18c4-4517-ab0f-603ccd2730ac","ios":"levelo://app?vid=8857da2d-18c4-4517-ab0f-603ccd2730ac"},"vehicle_type_id":"4","last_reported":1756156152,"current_range_meters":16000,"station_id":"ce4bgup2rcd13ifvqcn0","pricing_plan_id":"cebpf4jnsgd1na2vs0mg"},{"bike_id":"6030ebdc-126c-463d-a229-e3b8a84b3c35","system_id":"levelo_inurba_marseille","lat":43.29795,"lon":5.39353,"is_reserved":false,"is_disabled":false,"rental_uris":{"android":"levelo://app?vid=6030ebdc-126c-463d-a229-e3b8a84b3c35","ios":"levelo://app?vid=6030ebdc-126c-463d-a229-e3b8a84b3c35"},"vehicle_type_id":"4","last_reported":1756156152,"current_range_meters":16000,"station_id":"chh1huq6cuj3fo74tm60","pricing_plan_id":"cebpf4jnsgd1na2vs0mg"},{"bike_id":"278443b4-269a-4082-9316-7b2e5ce64d5e","system_id":"levelo_inurba_marseille","lat":43.25113,"lon":5.40327,"is_reserved":false,"is_disabled":true,"rental_uris":{"android":"levelo://app?vid=278443b4-269a-4082-9316-7b2e5ce64d5e","ios":"levelo://app?vid=278443b4-269a-4082-9316-7b2e5ce64d5e"},"vehicle_type_id":"4","last_reported":1756156152,"current_range_meters":16000,"station_id":"ce4bhlh2rcd13ifvqgig","pricing_plan_id":"cebpf4jnsgd1na2vs0mg"},{"bike_id":"c30b301c-7f7b-494a-8ee4-1d6c5f9cce1b","system_id":"levelo_inurba_marseille","lat":43.2841,"lon":5.3752,"is_reserved":false,"is_disabled":true,"rental_uris":{"android":"levelo://app?vid=c30b301c-7f7b-494a-8ee4-1d6c5f9cce1b","ios":"levelo://app?vid=c30b301c-7f7b-494a-8ee4-1d6c5f9cce1b"},"vehicle_type_id":"4","last_reported":1756156152,"current_range_meters":16000,"station_id":"ce4bh412rcd13ifvqds0","pricing_plan_id":"cebpf4jnsgd1na2vs0mg"},{"bike_id":"8ea70c9a-6664-4e1d-9b58-499929bd3925","system_id":"levelo_inurba_marseille","lat":43.28702,"lon":5.37394,"is_reserved":false,"is_disabled":false,"rental_uris":{"android":"levelo://app?vid=8ea70c9a-6664-4e1d-9b58-499929bd3925","ios":"levelo://app?vid=8ea70c9a-6664-4e1d-9b58-499929bd3925"},"vehicle_type_id":"4","last_reported":1756156152,"current_range_meters":16000,"station_id":"ce4bh3p2rcd13ifvqdq0","pricing_plan_id":"cebpf4jnsgd1na2vs0mg"},{"bike_id":"643dbe3c-78ed-48c8-b230-3a389f8673b6","system_id":"levelo_inurba_marseille","lat":43.28722,"lon":5.37937,"is_reserved":false,"is_disabled":false,"rental_uris":{"android":"levelo://app?vid=643dbe3c-78ed-48c8-b230-3a389f8673b6","ios":"levelo://app?vid=643dbe3c-78ed-48c8-b230-3a389f8673b6"},"vehicle_type_id":"4","last_reported":1756156152,"current_range_meters":16000,"station_id":"ce4bh9p2rcd13ifvqec0","pricing_plan_id":"cebpf4jnsgd1na2vs0mg"},{"bike_id":"3e130ff4-87da-4c51-a264-44d1f277fd66","system_id":"levelo_inurba_marseille","lat":43.32113,"lon":5.36786,"is_reserved":false,"is_disabled":false,"rental_uris":{"android":"levelo://app?vid=3e130ff4-87da-4c51-a264-44d1f277fd66","ios":"levelo://app?vid=3e130ff4-87da-4c51-a264-44d1f277fd66"},"vehicle_type_id":"4","last_reported":1756156152,"current_range_meters":16000,"station_id":"ce4bhrh2rcd13ifvqhug","pricing_plan_id":"cebpf4jnsgd1na2vs0mg"},{"bike_id":"a894d54c-2e8e-4f0d-8840-26f3adb2c9cf","system_id":"levelo_inurba_marseille","lat":43.29077,"lon":5.3716,"is_reserved":false,"is_disabled":false,"rental_uris":{"android":"levelo://app?vid=a894d54c-2e8e-4f0d-8840-26f3adb2c9cf","ios":"levelo://app?vid=a894d54c-2e8e-4f0d-8840-26f3adb2c9cf"},"vehicle_type_id":"4","last_reported":1756156152,"current_range_meters":16000,"station_id":"ce4bh5p2rcd13ifvqe4g","pricing_plan_id":"cebpf4jnsgd1na2vs0mg"},{"bike_id":"a62bbef0-3352-497d-8263-d3eaa8f385fb","system_id":"levelo_inurba_marseille","lat":43.31328,"lon":5.39698,"is_reserved":false,"is_disabled":false,"rental_uris":{"android":"levelo://app?vid=a62bbef0-3352-497d-8263-d3eaa8f385fb","ios":"levelo://app?vid=a62bbef0-3352-497d-8263-d3eaa8f385fb"},"vehicle_type_id":"4","last_reported":1756156152,"current_range_meters":16400,"station_id":"ce4bgvp2rcd13ifvqcu0","pricing_plan_id":"cebpf4jnsgd1na2vs0mg"},{"bike_id":"6be30591-0a99-4a51-b5fb-adc6a4519459","system_id":"levelo_inurba_marseille","lat":43.25586,"lon":5.38244,"is_reserved":false,"is_disabled":false,"rental_uris":{"android":"levelo://app?vid=6be30591-0a99-4a51-b5fb-adc6a4519459","ios":"levelo://app?vid=6be30591-0a99-4a51-b5fb-adc6a4519459"},"vehicle_type_id":"4","last_reported":1756156152,"current_range_meters":16400,"station_id":"ce4bhih2rcd13ifvqfs0","pricing_plan_id":"cebpf4jnsgd1na2vs0mg"},{"bike_id":"b375d41b-9575-4c77-a6a9-d089747042e7","system_id":"levelo_inurba_marseille","lat":43.32286,"lon":5.36784,"is_reserved":false,"is_disabled":false,"rental_uris":{"android":"levelo://app?vid=b375d41b-9575-4c77-a6a9-d089747042e7","ios":"levelo://app?vid=b375d41b-9575-4c77-a6a9-d089747042e7"},"vehicle_type_id":"4","last_reported":1756156152,"current_range_meters":16400,"station_id":"","pricing_plan_id":"cebpf4jnsgd1na2vs0mg"},{"bike_id":"579ec967-0d20-4aa6-876f-64b0e7633fa6","system_id":"levelo_inurba_marseille","lat":43.29527,"lon":5.38534,"is_reserved":false,"is_disabled":false,"rental_uris":{"android":"levelo://app?vid=579ec967-0d20-4aa6-876f-64b0e7633fa6","ios":"levelo://app?vid=579ec967-0d20-4aa6-876f-64b0e7633fa6"},"vehicle_type_id":"4","last_reported":1756156152,"current_range_meters":16400,"station_id":"ce4bgih2rcd13ifvqba0","pricing_plan_id":"cebpf4jnsgd1na2vs0mg"},{"bike_id":"1c9aa376-cf03-43e6-bd79-a69ad984688d","system_id":"levelo_inurba_marseille","lat":43.27084,"lon":5.42278,"is_reserved":false,"is_disabled":false,"rental_uris":{"android":"levelo://app?vid=1c9aa376-cf03-43e6-bd79-a69ad984688d","ios":"levelo://app?vid=1c9aa376-cf03-43e6-bd79-a69ad984688d"},"vehicle_type_id":"4","last_reported":1756156152,"current_range_meters":16400,"station_id":"ce4bhk92rcd13ifvqgb0","pricing_plan_id":"cebpf4jnsgd1na2vs0mg"},{"bike_id":"1ee55bf8-0332-46d8-a873-afb26ccc3d94","system_id":"levelo_inurba_marseille","lat":43.265554,"lon":5.390166,"is_reserved":false,"is_disabled":false,"rental_uris":{"android":"levelo://app?vid=1ee55bf8-0332-46d8-a873-afb26ccc3d94","ios":"levelo://app?vid=1ee55bf8-0332-46d8-a873-afb26ccc3d94"},"vehicle_type_id":"4","last_reported":1756156152,"current_range_meters":16400,"station_id":"ce4bhe12rcd13ifvqf30","pricing_plan_id":"cebpf4jnsgd1na2vs0mg"},{"bike_id":"a01ef020-79c4-412a-9851-ac59f6733a94","system_id":"levelo_inurba_marseille","lat":43.27977,"lon":5.38743,"is_reserved":false,"is_disabled":false,"rental_uris":{"android":"levelo://app?vid=a01ef020-79c4-412a-9851-ac59f6733a94","ios":"levelo://app?vid=a01ef020-79c4-412a-9851-ac59f6733a94"},"vehicle_type_id":"4","last_reported":1756156152,"current_range_meters":16400,"station_id":"ce4bhg12rcd13ifvqf80","pricing_plan_id":"cebpf4jnsgd1na2vs0mg"},{"bike_id":"0d502687-08ef-4491-8893-8a03d8688be8","system_id":"levelo_inurba_marseille","lat":43.29594,"lon":5.36147,"is_reserved":false,"is_disabled":false,"rental_uris":{"android":"levelo://app?vid=0d502687-08ef-4491-8893-8a03d8688be8","ios":"levelo://app?vid=0d502687-08ef-4491-8893-8a03d8688be8"},"vehicle_type_id":"4","last_reported":1756156152,"current_range_meters":16400,"station_id":"","pricing_plan_id":"cebpf4jnsgd1na2vs0mg"},{"bike_id":"93a1eae9-543f-4901-9c20-2061b820b840","system_id":"levelo_inurba_marseille","lat":43.31886,"lon":5.40744,"is_reserved":false,"is_disabled":false,"rental_uris":{"android":"levelo://app?vid=93a1eae9-543f-4901-9c20-2061b820b840","ios":"levelo://app?vid=93a1eae9-543f-4901-9c20-2061b820b840"},"vehicle_type_id":"4","last_reported":1756156152,"current_range_meters":16400,"station_id":"ce4bhq12rcd13ifvqhig","pricing_plan_id":"cebpf4jnsgd1na2vs0mg"},{"bike_id":"7612c145-8535-4ccf-96ee-de62f40b9550","system_id":"levelo_inurba_marseille","lat":43.32386,"lon":5.38977,"is_reserved":false,"is_disabled":false,"rental_uris":{"android":"levelo://app?vid=7612c145-8535-4ccf-96ee-de62f40b9550","ios":"levelo://app?vid=7612c145-8535-4ccf-96ee-de62f40b9550"},"vehicle_type_id":"4","last_reported":1756156152,"current_range_meters":16400,"station_id":"","pricing_plan_id":"cebpf4jnsgd1na2vs0mg"},{"bike_id":"d8890a48-37ea-4a9d-9890-fccf52c8b289","system_id":"levelo_inurba_marseille","lat":43.2952,"lon":5.39022,"is_reserved":false,"is_disabled":false,"rental_uris":{"android":"levelo://app?vid=d8890a48-37ea-4a9d-9890-fccf52c8b289","ios":"levelo://app?vid=d8890a48-37ea-4a9d-9890-fccf52c8b289"},"vehicle_type_id":"4","last_reported":1756156152,"current_range_meters":16400,"station_id":"ce4bh3p2rcd13ifvqdp0","pricing_plan_id":"cebpf4jnsgd1na2vs0mg"},{"bike_id":"be3901fe-85e9-4ed1-973f-a14a85b9f1a7","system_id":"levelo_inurba_marseille","lat":43.28081,"lon":5.39661,"is_reserved":false,"is_disabled":false,"rental_uris":{"android":"levelo://app?vid=be3901fe-85e9-4ed1-973f-a14a85b9f1a7","ios":"levelo://app?vid=be3901fe-85e9-4ed1-973f-a14a85b9f1a7"},"vehicle_type_id":"4","last_reported":1756156152,"current_range_meters":16400,"station_id":"ce4bho12rcd13ifvqh2g","pricing_plan_id":"cebpf4jnsgd1na2vs0mg"},{"bike_id":"43988c87-51ce-4992-a481-25f525deb229","system_id":"levelo_inurba_marseille","lat":43.308066,"lon":5.381462,"is_reserved":false,"is_disabled":false,"rental_uris":{"android":"levelo://app?vid=43988c87-51ce-4992-a481-25f525deb229","ios":"levelo://app?vid=43988c87-51ce-4992-a481-25f525deb229"},"vehicle_type_id":"4","last_reported":1756156152,"current_range_meters":16400,"station_id":"ce4bgt12rcd13ifvqce0","pricing_plan_id":"cebpf4jnsgd1na2vs0mg"},{"bike_id":"9e570ae1-33db-425d-9529-cbab626f0414","system_id":"levelo_inurba_marseille","lat":43.31361,"lon":5.38487,"is_reserved":false,"is_disabled":false,"rental_uris":{"android":"levelo://app?vid=9e570ae1-33db-425d-9529-cbab626f0414","ios":"levelo://app?vid=9e570ae1-33db-425d-9529-cbab626f0414"},"vehicle_type_id":"4","last_reported":1756156152,"current_range_meters":16800,"station_id":"ce4bgt92rcd13ifvqcf0","pricing_plan_id":"cebpf4jnsgd1na2vs0mg"},{"bike_id":"3672ec75-cbd9-4613-9a10-bb95e070b7c0","system_id":"levelo_inurba_marseille","lat":43.2931,"lon":5.37469,"is_reserved":false,"is_disabled":false,"rental_uris":{"android":"levelo://app?vid=3672ec75-cbd9-4613-9a10-bb95e070b7c0","ios":"levelo://app?vid=3672ec75-cbd9-4613-9a10-bb95e070b7c0"},"vehicle_type_id":"4","last_reported":1756156152,"current_range_meters":16800,"station_id":"ce4bgi12rcd13ifvqb70","pricing_plan_id":"cebpf4jnsgd1na2vs0mg"},{"bike_id":"b891d3ff-c9da-40a4-99de-c8abd0aa5eb1","system_id":"levelo_inurba_marseille","lat":43.24393,"lon":5.37076,"is_reserved":false,"is_disabled":true,"rental_uris":{"android":"levelo://app?vid=b891d3ff-c9da-40a4-99de-c8abd0aa5eb1","ios":"levelo://app?vid=b891d3ff-c9da-40a4-99de-c8abd0aa5eb1"},"vehicle_type_id":"4","last_reported":1756156152,"current_range_meters":16800,"station_id":"ce4bhhh2rcd13ifvqfk0","pricing_plan_id":"cebpf4jnsgd1na2vs0mg"},{"bike_id":"4013e68f-4861-4b40-82e9-654d25ade300","system_id":"levelo_inurba_marseille","lat":43.30429,"lon":5.389,"is_reserved":false,"is_disabled":false,"rental_uris":{"android":"levelo://app?vid=4013e68f-4861-4b40-82e9-654d25ade300","ios":"levelo://app?vid=4013e68f-4861-4b40-82e9-654d25ade300"},"vehicle_type_id":"4","last_reported":1756156152,"current_range_meters":16800,"station_id":"ce4bgk12rcd13ifvqbi0","pricing_plan_id":"cebpf4jnsgd1na2vs0mg"},{"bike_id":"2198d534-1e4e-4e7b-b2b3-d1e3dccee066","system_id":"levelo_inurba_marseille","lat":43.32107,"lon":5.368069,"is_reserved":false,"is_disabled":false,"rental_uris":{"android":"levelo://app?vid=2198d534-1e4e-4e7b-b2b3-d1e3dccee066","ios":"levelo://app?vid=2198d534-1e4e-4e7b-b2b3-d1e3dccee066"},"vehicle_type_id":"4","last_reported":1756156152,"current_range_meters":16800,"station_id":"ce4bhrh2rcd13ifvqhug","pricing_plan_id":"cebpf4jnsgd1na2vs0mg"},{"bike_id":"f84f46c8-243d-42cd-b308-2b289e4c09d3","system_id":"levelo_inurba_marseille","lat":43.334514,"lon":5.356717,"is_reserved":false,"is_disabled":false,"rental_uris":{"android":"levelo://app?vid=f84f46c8-243d-42cd-b308-2b289e4c09d3","ios":"levelo://app?vid=f84f46c8-243d-42cd-b308-2b289e4c09d3"},"vehicle_type_id":"4","last_reported":1756156152,"current_range_meters":16800,"station_id":"","pricing_plan_id":"cebpf4jnsgd1na2vs0mg"},{"bike_id":"5f9365e2-60dc-4158-a2c3-0e40911a7a32","system_id":"levelo_inurba_marseille","lat":43.33448,"lon":5.40048,"is_reserved":false,"is_disabled":false,"rental_uris":{"android":"levelo://app?vid=5f9365e2-60dc-4158-a2c3-0e40911a7a32","ios":"levelo://app?vid=5f9365e2-60dc-4158-a2c3-0e40911a7a32"},"vehicle_type_id":"4","last_reported":1756156152,"current_range_meters":16800,"station_id":"","pricing_plan_id":"cebpf4jnsgd1na2vs0mg"},{"bike_id":"6fc2079e-5b3f-41c8-a7e3-90ecc13eb86c","system_id":"levelo_inurba_marseille","lat":43.30331,"lon":5.40442,"is_reserved":false,"is_disabled":false,"rental_uris":{"android":"levelo://app?vid=6fc2079e-5b3f-41c8-a7e3-90ecc13eb86c","ios":"levelo://app?vid=6fc2079e-5b3f-41c8-a7e3-90ecc13eb86c"},"vehicle_type_id":"4","last_reported":1756156152,"current_range_meters":16800,"station_id":"ce4bh012rcd13ifvqd10","pricing_plan_id":"cebpf4jnsgd1na2vs0mg"},{"bike_id":"db7d3d83-f39a-4469-8445-29697e69fec4","system_id":"levelo_inurba_marseille","lat":43.32222,"lon":5.38534,"is_reserved":false,"is_disabled":false,"rental_uris":{"android":"levelo://app?vid=db7d3d83-f39a-4469-8445-29697e69fec4","ios":"levelo://app?vid=db7d3d83-f39a-4469-8445-29697e69fec4"},"vehicle_type_id":"4","last_reported":1756156152,"current_range_meters":16800,"station_id":"","pricing_plan_id":"cebpf4jnsgd1na2vs0mg"},{"bike_id":"b92b68c3-c808-4f97-81eb-5fc5fbc4c9e6","system_id":"levelo_inurba_marseille","lat":43.29597,"lon":5.38105,"is_reserved":false,"is_disabled":false,"rental_uris":{"android":"levelo://app?vid=b92b68c3-c808-4f97-81eb-5fc5fbc4c9e6","ios":"levelo://app?vid=b92b68c3-c808-4f97-81eb-5fc5fbc4c9e6"},"vehicle_type_id":"4","last_reported":1756156152,"current_range_meters":16800,"station_id":"ce4bgl12rcd13ifvqbo0","pricing_plan_id":"cebpf4jnsgd1na2vs0mg"},{"bike_id":"50080086-5ad6-41c2-b993-d4f4d5e2439a","system_id":"levelo_inurba_marseille","lat":43.32906,"lon":5.3909,"is_reserved":false,"is_disabled":false,"rental_uris":{"android":"levelo://app?vid=50080086-5ad6-41c2-b993-d4f4d5e2439a","ios":"levelo://app?vid=50080086-5ad6-41c2-b993-d4f4d5e2439a"},"vehicle_type_id":"4","last_reported":1756156152,"current_range_meters":17200,"station_id":"ce4bhr92rcd13ifvqhrg","pricing_plan_id":"cebpf4jnsgd1na2vs0mg"},{"bike_id":"e022ebb3-e2b1-4623-9b6a-f0e8d1502cf0","system_id":"levelo_inurba_marseille","lat":43.262,"lon":5.40403,"is_reserved":false,"is_disabled":false,"rental_uris":{"android":"levelo://app?vid=e022ebb3-e2b1-4623-9b6a-f0e8d1502cf0","ios":"levelo://app?vid=e022ebb3-e2b1-4623-9b6a-f0e8d1502cf0"},"vehicle_type_id":"4","last_reported":1756156152,"current_range_meters":17200,"station_id":"ce4bhmh2rcd13ifvqgmg","pricing_plan_id":"cebpf4jnsgd1na2vs0mg"},{"bike_id":"51842e17-ef10-4624-a23e-c8a182427991","system_id":"levelo_inurba_marseille","lat":43.31592,"lon":5.382,"is_reserved":false,"is_disabled":false,"rental_uris":{"android":"levelo://app?vid=51842e17-ef10-4624-a23e-c8a182427991","ios":"levelo://app?vid=51842e17-ef10-4624-a23e-c8a182427991"},"vehicle_type_id":"4","last_reported":1756156152,"current_range_meters":17200,"station_id":"","pricing_plan_id":"cebpf4jnsgd1na2vs0mg"},{"bike_id":"1c385591-f8e9-4470-ac2b-1b0c97248728","system_id":"levelo_inurba_marseille","lat":43.27955,"lon":5.38702,"is_reserved":false,"is_disabled":false,"rental_uris":{"android":"levelo://app?vid=1c385591-f8e9-4470-ac2b-1b0c97248728","ios":"levelo://app?vid=1c385591-f8e9-4470-ac2b-1b0c97248728"},"vehicle_type_id":"4","last_reported":1756156152,"current_range_meters":17200,"station_id":"ce4bhg12rcd13ifvqf80","pricing_plan_id":"cebpf4jnsgd1na2vs0mg"},{"bike_id":"3c9d4245-aa2d-4b2f-828a-0c53e1c9b8ab","system_id":"levelo_inurba_marseille","lat":43.30308,"lon":5.39209,"is_reserved":false,"is_disabled":false,"rental_uris":{"android":"levelo://app?vid=3c9d4245-aa2d-4b2f-828a-0c53e1c9b8ab","ios":"levelo://app?vid=3c9d4245-aa2d-4b2f-828a-0c53e1c9b8ab"},"vehicle_type_id":"4","last_reported":1756156152,"current_range_meters":17200,"station_id":"ce4bgkh2rcd13ifvqbk0","pricing_plan_id":"cebpf4jnsgd1na2vs0mg"},{"bike_id":"753534a0-adf5-43d0-afa3-a24c95972afc","system_id":"levelo_inurba_marseille","lat":43.25509,"lon":5.37652,"is_reserved":false,"is_disabled":false,"rental_uris":{"android":"levelo://app?vid=753534a0-adf5-43d0-afa3-a24c95972afc","ios":"levelo://app?vid=753534a0-adf5-43d0-afa3-a24c95972afc"},"vehicle_type_id":"4","last_reported":1756156152,"current_range_meters":17200,"station_id":"ce4bhh12rcd13ifvqff0","pricing_plan_id":"cebpf4jnsgd1na2vs0mg"},{"bike_id":"8712f85a-a105-41d0-8d5b-173a8d0d8c70","system_id":"levelo_inurba_marseille","lat":43.3043,"lon":5.38898,"is_reserved":false,"is_disabled":false,"rental_uris":{"android":"levelo://app?vid=8712f85a-a105-41d0-8d5b-173a8d0d8c70","ios":"levelo://app?vid=8712f85a-a105-41d0-8d5b-173a8d0d8c70"},"vehicle_type_id":"4","last_reported":1756156152,"current_range_meters":17200,"station_id":"","pricing_plan_id":"cebpf4jnsgd1na2vs0mg"},{"bike_id":"89b6284f-5367-4110-8009-1bc4e162dd91","system_id":"levelo_inurba_marseille","lat":43.29097,"lon":5.38159,"is_reserved":false,"is_disabled":false,"rental_uris":{"android":"levelo://app?vid=89b6284f-5367-4110-8009-1bc4e162dd91","ios":"levelo://app?vid=89b6284f-5367-4110-8009-1bc4e162dd91"},"vehicle_type_id":"4","last_reported":1756156152,"current_range_meters":17600,"station_id":"ce4bh512rcd13ifvqe2g","pricing_plan_id":"cebpf4jnsgd1na2vs0mg"},{"bike_id":"96a0eeab-9497-4ad3-944b-4bedd9f0993a","system_id":"levelo_inurba_marseille","lat":43.32488,"lon":5.36581,"is_reserved":false,"is_disabled":true,"rental_uris":{"android":"levelo://app?vid=96a0eeab-9497-4ad3-944b-4bedd9f0993a","ios":"levelo://app?vid=96a0eeab-9497-4ad3-944b-4bedd9f0993a"},"vehicle_type_id":"4","last_reported":1756156152,"current_range_meters":17600,"station_id":"ce4bhs12rcd13ifvqhvg","pricing_plan_id":"cebpf4jnsgd1na2vs0mg"},{"bike_id":"943d95a7-9535-411f-ba22-8068aaf6ac69","system_id":"levelo_inurba_marseille","lat":43.2958,"lon":5.38099,"is_reserved":false,"is_disabled":true,"rental_uris":{"android":"levelo://app?vid=943d95a7-9535-411f-ba22-8068aaf6ac69","ios":"levelo://app?vid=943d95a7-9535-411f-ba22-8068aaf6ac69"},"vehicle_type_id":"4","last_reported":1756156152,"current_range_meters":17600,"station_id":"ce4bgl12rcd13ifvqbo0","pricing_plan_id":"cebpf4jnsgd1na2vs0mg"},{"bike_id":"90106b61-39ba-4550-9728-cd6a51353a17","system_id":"levelo_inurba_marseille","lat":43.212,"lon":5.35119,"is_reserved":false,"is_disabled":false,"rental_uris":{"android":"levelo://app?vid=90106b61-39ba-4550-9728-cd6a51353a17","ios":"levelo://app?vid=90106b61-39ba-4550-9728-cd6a51353a17"},"vehicle_type_id":"4","last_reported":1756156152,"current_range_meters":17600,"station_id":"st_cvj6sg6p6f1abm77japg","pricing_plan_id":"cebpf4jnsgd1na2vs0mg"},{"bike_id":"4fbb537c-da52-43ff-8dfa-5616d8049e22","system_id":"levelo_inurba_marseille","lat":43.2928,"lon":5.38454,"is_reserved":false,"is_disabled":false,"rental_uris":{"android":"levelo://app?vid=4fbb537c-da52-43ff-8dfa-5616d8049e22","ios":"levelo://app?vid=4fbb537c-da52-43ff-8dfa-5616d8049e22"},"vehicle_type_id":"4","last_reported":1756156152,"current_range_meters":17600,"station_id":"ce4bh692rcd13ifvqea0","pricing_plan_id":"cebpf4jnsgd1na2vs0mg"},{"bike_id":"f94104fc-adc0-48f1-a784-9f0b257ae160","system_id":"levelo_inurba_marseille","lat":43.30127,"lon":5.39862,"is_reserved":false,"is_disabled":false,"rental_uris":{"android":"levelo://app?vid=f94104fc-adc0-48f1-a784-9f0b257ae160","ios":"levelo://app?vid=f94104fc-adc0-48f1-a784-9f0b257ae160"},"vehicle_type_id":"4","last_reported":1756156152,"current_range_meters":17600,"station_id":"ce4bh0h2rcd13ifvqd40","pricing_plan_id":"cebpf4jnsgd1na2vs0mg"},{"bike_id":"71f2187f-7c06-4afd-b6d4-5f58c2f8533e","system_id":"levelo_inurba_marseille","lat":43.2968,"lon":5.37695,"is_reserved":false,"is_disabled":false,"rental_uris":{"android":"levelo://app?vid=71f2187f-7c06-4afd-b6d4-5f58c2f8533e","ios":"levelo://app?vid=71f2187f-7c06-4afd-b6d4-5f58c2f8533e"},"vehicle_type_id":"4","last_reported":1756156152,"current_range_meters":17600,"station_id":"ce4bgkh2rcd13ifvqbl0","pricing_plan_id":"cebpf4jnsgd1na2vs0mg"},{"bike_id":"1c889b09-8cad-434d-bfd5-5f7e6198ad13","system_id":"levelo_inurba_marseille","lat":43.23195,"lon":5.39989,"is_reserved":false,"is_disabled":false,"rental_uris":{"android":"levelo://app?vid=1c889b09-8cad-434d-bfd5-5f7e6198ad13","ios":"levelo://app?vid=1c889b09-8cad-434d-bfd5-5f7e6198ad13"},"vehicle_type_id":"4","last_reported":1756156152,"current_range_meters":17600,"station_id":"ce4bhn12rcd13ifvqgqg","pricing_plan_id":"cebpf4jnsgd1na2vs0mg"},{"bike_id":"45bc046a-ccea-4c00-b616-232704e6d7df","system_id":"levelo_inurba_marseille","lat":43.33038,"lon":5.39028,"is_reserved":false,"is_disabled":false,"rental_uris":{"android":"levelo://app?vid=45bc046a-ccea-4c00-b616-232704e6d7df","ios":"levelo://app?vid=45bc046a-ccea-4c00-b616-232704e6d7df"},"vehicle_type_id":"4","last_reported":1756156152,"current_range_meters":17600,"station_id":"ce4bhr92rcd13ifvqhrg","pricing_plan_id":"cebpf4jnsgd1na2vs0mg"},{"bike_id":"298f7c47-d906-4b0b-bc79-7d628bf4c26d","system_id":"levelo_inurba_marseille","lat":43.26794,"lon":5.39411,"is_reserved":false,"is_disabled":false,"rental_uris":{"android":"levelo://app?vid=298f7c47-d906-4b0b-bc79-7d628bf4c26d","ios":"levelo://app?vid=298f7c47-d906-4b0b-bc79-7d628bf4c26d"},"vehicle_type_id":"4","last_reported":1756156152,"current_range_meters":17600,"station_id":"ce4bhh12rcd13ifvqfg0","pricing_plan_id":"cebpf4jnsgd1na2vs0mg"},{"bike_id":"c52af379-7ffc-4800-a6f9-6e5ea70df2d5","system_id":"levelo_inurba_marseille","lat":43.24692,"lon":5.38145,"is_reserved":false,"is_disabled":false,"rental_uris":{"android":"levelo://app?vid=c52af379-7ffc-4800-a6f9-6e5ea70df2d5","ios":"levelo://app?vid=c52af379-7ffc-4800-a6f9-6e5ea70df2d5"},"vehicle_type_id":"4","last_reported":1756156152,"current_range_meters":17600,"station_id":"ce4bhih2rcd13ifvqfr0","pricing_plan_id":"cebpf4jnsgd1na2vs0mg"},{"bike_id":"96cf428c-1255-4640-8745-b402a4f7d814","system_id":"levelo_inurba_marseille","lat":43.30646,"lon":5.40096,"is_reserved":false,"is_disabled":false,"rental_uris":{"android":"levelo://app?vid=96cf428c-1255-4640-8745-b402a4f7d814","ios":"levelo://app?vid=96cf428c-1255-4640-8745-b402a4f7d814"},"vehicle_type_id":"4","last_reported":1756156152,"current_range_meters":18000,"station_id":"ce4bh112rcd13ifvqda0","pricing_plan_id":"cebpf4jnsgd1na2vs0mg"},{"bike_id":"72f6893b-e1a6-4741-aa57-e762849eda44","system_id":"levelo_inurba_marseille","lat":43.31729,"lon":5.38993,"is_reserved":false,"is_disabled":true,"rental_uris":{"android":"levelo://app?vid=72f6893b-e1a6-4741-aa57-e762849eda44","ios":"levelo://app?vid=72f6893b-e1a6-4741-aa57-e762849eda44"},"vehicle_type_id":"4","last_reported":1756156152,"current_range_meters":18000,"station_id":"ce4bhqp2rcd13ifvqhng","pricing_plan_id":"cebpf4jnsgd1na2vs0mg"},{"bike_id":"00749c5a-2954-4755-9f4f-2b966581ffb4","system_id":"levelo_inurba_marseille","lat":43.25002,"lon":5.38933,"is_reserved":false,"is_disabled":false,"rental_uris":{"android":"levelo://app?vid=00749c5a-2954-4755-9f4f-2b966581ffb4","ios":"levelo://app?vid=00749c5a-2954-4755-9f4f-2b966581ffb4"},"vehicle_type_id":"4","last_reported":1756156152,"current_range_meters":18000,"station_id":"ce4bhgp2rcd13ifvqfd0","pricing_plan_id":"cebpf4jnsgd1na2vs0mg"},{"bike_id":"28e91e36-aa54-4454-97e5-9b3e8770e221","system_id":"levelo_inurba_marseille","lat":43.30603,"lon":5.37226,"is_reserved":false,"is_disabled":false,"rental_uris":{"android":"levelo://app?vid=28e91e36-aa54-4454-97e5-9b3e8770e221","ios":"levelo://app?vid=28e91e36-aa54-4454-97e5-9b3e8770e221"},"vehicle_type_id":"4","last_reported":1756156152,"current_range_meters":18000,"station_id":"ce4bgqh2rcd13ifvqc4g","pricing_plan_id":"cebpf4jnsgd1na2vs0mg"},{"bike_id":"8d83cc9d-8e83-4488-9e51-1d17b12366fd","system_id":"levelo_inurba_marseille","lat":43.30307,"lon":5.39212,"is_reserved":false,"is_disabled":false,"rental_uris":{"android":"levelo://app?vid=8d83cc9d-8e83-4488-9e51-1d17b12366fd","ios":"levelo://app?vid=8d83cc9d-8e83-4488-9e51-1d17b12366fd"},"vehicle_type_id":"4","last_reported":1756156152,"current_range_meters":18000,"station_id":"ce4bgkh2rcd13ifvqbk0","pricing_plan_id":"cebpf4jnsgd1na2vs0mg"},{"bike_id":"7086516c-0d43-4b8d-89b8-04fb0b7a77d5","system_id":"levelo_inurba_marseille","lat":43.30304,"lon":5.39216,"is_reserved":false,"is_disabled":false,"rental_uris":{"android":"levelo://app?vid=7086516c-0d43-4b8d-89b8-04fb0b7a77d5","ios":"levelo://app?vid=7086516c-0d43-4b8d-89b8-04fb0b7a77d5"},"vehicle_type_id":"4","last_reported":1756156152,"current_range_meters":18000,"station_id":"ce4bgkh2rcd13ifvqbk0","pricing_plan_id":"cebpf4jnsgd1na2vs0mg"},{"bike_id":"4b6d03d5-c489-44f5-894a-b511c0aa6886","system_id":"levelo_inurba_marseille","lat":43.29571,"lon":5.42298,"is_reserved":false,"is_disabled":false,"rental_uris":{"android":"levelo://app?vid=4b6d03d5-c489-44f5-894a-b511c0aa6886","ios":"levelo://app?vid=4b6d03d5-c489-44f5-894a-b511c0aa6886"},"vehicle_type_id":"4","last_reported":1756156152,"current_range_meters":18000,"station_id":"ce4bhph2rcd13ifvqhdg","pricing_plan_id":"cebpf4jnsgd1na2vs0mg"},{"bike_id":"2bede151-7a7f-4b87-aa7d-9c2554a5ad23","system_id":"levelo_inurba_marseille","lat":43.29616,"lon":5.3809,"is_reserved":false,"is_disabled":false,"rental_uris":{"android":"levelo://app?vid=2bede151-7a7f-4b87-aa7d-9c2554a5ad23","ios":"levelo://app?vid=2bede151-7a7f-4b87-aa7d-9c2554a5ad23"},"vehicle_type_id":"4","last_reported":1756156152,"current_range_meters":18000,"station_id":"ce4bgl12rcd13ifvqbo0","pricing_plan_id":"cebpf4jnsgd1na2vs0mg"},{"bike_id":"b08d0d63-d495-4173-8c85-a055b48de9dc","system_id":"levelo_inurba_marseille","lat":43.29006,"lon":5.35607,"is_reserved":false,"is_disabled":true,"rental_uris":{"android":"levelo://app?vid=b08d0d63-d495-4173-8c85-a055b48de9dc","ios":"levelo://app?vid=b08d0d63-d495-4173-8c85-a055b48de9dc"},"vehicle_type_id":"4","last_reported":1756156152,"current_range_meters":18000,"station_id":"ce4bhb92rcd13ifvqen0","pricing_plan_id":"cebpf4jnsgd1na2vs0mg"},{"bike_id":"52bc4315-a7c2-4586-a599-94c920651d09","system_id":"levelo_inurba_marseille","lat":43.29543,"lon":5.38556,"is_reserved":false,"is_disabled":false,"rental_uris":{"android":"levelo://app?vid=52bc4315-a7c2-4586-a599-94c920651d09","ios":"levelo://app?vid=52bc4315-a7c2-4586-a599-94c920651d09"},"vehicle_type_id":"4","last_reported":1756156152,"current_range_meters":18800,"station_id":"ce4bgih2rcd13ifvqba0","pricing_plan_id":"cebpf4jnsgd1na2vs0mg"},{"bike_id":"35e75433-5ab8-4e54-b75e-e9c5e810f2fe","system_id":"levelo_inurba_marseille","lat":43.29537,"lon":5.38561,"is_reserved":false,"is_disabled":false,"rental_uris":{"android":"levelo://app?vid=35e75433-5ab8-4e54-b75e-e9c5e810f2fe","ios":"levelo://app?vid=35e75433-5ab8-4e54-b75e-e9c5e810f2fe"},"vehicle_type_id":"4","last_reported":1756156152,"current_range_meters":18800,"station_id":"ce4bgih2rcd13ifvqba0","pricing_plan_id":"cebpf4jnsgd1na2vs0mg"},{"bike_id":"700117f8-c8dd-4850-bcff-93af3307325a","system_id":"levelo_inurba_marseille","lat":43.26211,"lon":5.37442,"is_reserved":false,"is_disabled":false,"rental_uris":{"android":"levelo://app?vid=700117f8-c8dd-4850-bcff-93af3307325a","ios":"levelo://app?vid=700117f8-c8dd-4850-bcff-93af3307325a"},"vehicle_type_id":"4","last_reported":1756156152,"current_range_meters":18800,"station_id":"ce4bhgp2rcd13ifvqfc0","pricing_plan_id":"cebpf4jnsgd1na2vs0mg"},{"bike_id":"f0400c37-c7f6-4929-b1ac-d92430ff6f2d","system_id":"levelo_inurba_marseille","lat":43.276517,"lon":5.396368,"is_reserved":false,"is_disabled":false,"rental_uris":{"android":"levelo://app?vid=f0400c37-c7f6-4929-b1ac-d92430ff6f2d","ios":"levelo://app?vid=f0400c37-c7f6-4929-b1ac-d92430ff6f2d"},"vehicle_type_id":"4","last_reported":1756156152,"current_range_meters":18800,"station_id":"","pricing_plan_id":"cebpf4jnsgd1na2vs0mg"},{"bike_id":"05864527-a77a-483e-b9d7-9f6517e21449","system_id":"levelo_inurba_marseille","lat":43.30328,"lon":5.40443,"is_reserved":false,"is_disabled":false,"rental_uris":{"android":"levelo://app?vid=05864527-a77a-483e-b9d7-9f6517e21449","ios":"levelo://app?vid=05864527-a77a-483e-b9d7-9f6517e21449"},"vehicle_type_id":"4","last_reported":1756156152,"current_range_meters":18800,"station_id":"ce4bh012rcd13ifvqd10","pricing_plan_id":"cebpf4jnsgd1na2vs0mg"},{"bike_id":"25005ec9-f891-41e5-8761-b371983667d5","system_id":"levelo_inurba_marseille","lat":43.28436,"lon":5.35009,"is_reserved":false,"is_disabled":false,"rental_uris":{"android":"levelo://app?vid=25005ec9-f891-41e5-8761-b371983667d5","ios":"levelo://app?vid=25005ec9-f891-41e5-8761-b371983667d5"},"vehicle_type_id":"4","last_reported":1756156152,"current_range_meters":18800,"station_id":"ce4bhbh2rcd13ifvqepg","pricing_plan_id":"cebpf4jnsgd1na2vs0mg"},{"bike_id":"db84aae5-bd74-44c2-877e-c6a4b9a0199c","system_id":"levelo_inurba_marseille","lat":43.29318,"lon":5.37193,"is_reserved":false,"is_disabled":true,"rental_uris":{"android":"levelo://app?vid=db84aae5-bd74-44c2-877e-c6a4b9a0199c","ios":"levelo://app?vid=db84aae5-bd74-44c2-877e-c6a4b9a0199c"},"vehicle_type_id":"4","last_reported":1756156152,"current_range_meters":18800,"station_id":"ce4bgh92rcd13ifvqb40","pricing_plan_id":"cebpf4jnsgd1na2vs0mg"},{"bike_id":"150e78ac-a5f4-4248-9747-4c3d95090267","system_id":"levelo_inurba_marseille","lat":43.30934,"lon":5.40163,"is_reserved":false,"is_disabled":false,"rental_uris":{"android":"levelo://app?vid=150e78ac-a5f4-4248-9747-4c3d95090267","ios":"levelo://app?vid=150e78ac-a5f4-4248-9747-4c3d95090267"},"vehicle_type_id":"4","last_reported":1756156152,"current_range_meters":18800,"station_id":"ce4bgvp2rcd13ifvqct0","pricing_plan_id":"cebpf4jnsgd1na2vs0mg"},{"bike_id":"93df59dd-5cda-4c40-8ded-d1dd8a69b6dc","system_id":"levelo_inurba_marseille","lat":43.25106,"lon":5.4032,"is_reserved":false,"is_disabled":false,"rental_uris":{"android":"levelo://app?vid=93df59dd-5cda-4c40-8ded-d1dd8a69b6dc","ios":"levelo://app?vid=93df59dd-5cda-4c40-8ded-d1dd8a69b6dc"},"vehicle_type_id":"4","last_reported":1756156152,"current_range_meters":18800,"station_id":"ce4bhlh2rcd13ifvqgig","pricing_plan_id":"cebpf4jnsgd1na2vs0mg"},{"bike_id":"9725bc7d-eff6-4b6b-a4db-8e702cce8e55","system_id":"levelo_inurba_marseille","lat":43.28266,"lon":5.3507,"is_reserved":false,"is_disabled":false,"rental_uris":{"android":"levelo://app?vid=9725bc7d-eff6-4b6b-a4db-8e702cce8e55","ios":"levelo://app?vid=9725bc7d-eff6-4b6b-a4db-8e702cce8e55"},"vehicle_type_id":"4","last_reported":1756156152,"current_range_meters":18800,"station_id":"ce4bhbp2rcd13ifvqerg","pricing_plan_id":"cebpf4jnsgd1na2vs0mg"},{"bike_id":"bc4fabc1-49d3-4d30-ae41-26261331568a","system_id":"levelo_inurba_marseille","lat":43.28149,"lon":5.42638,"is_reserved":false,"is_disabled":false,"rental_uris":{"android":"levelo://app?vid=bc4fabc1-49d3-4d30-ae41-26261331568a","ios":"levelo://app?vid=bc4fabc1-49d3-4d30-ae41-26261331568a"},"vehicle_type_id":"4","last_reported":1756156152,"current_range_meters":18800,"station_id":"ce4bhnh2rcd13ifvqgug","pricing_plan_id":"cebpf4jnsgd1na2vs0mg"},{"bike_id":"777a8c83-aed8-4881-84b6-34465956e738","system_id":"levelo_inurba_marseille","lat":43.25743,"lon":5.41005,"is_reserved":false,"is_disabled":false,"rental_uris":{"android":"levelo://app?vid=777a8c83-aed8-4881-84b6-34465956e738","ios":"levelo://app?vid=777a8c83-aed8-4881-84b6-34465956e738"},"vehicle_type_id":"4","last_reported":1756156152,"current_range_meters":18800,"station_id":"","pricing_plan_id":"cebpf4jnsgd1na2vs0mg"},{"bike_id":"507bfa7a-77ad-4faf-874f-5e94ad334f53","system_id":"levelo_inurba_marseille","lat":43.23197,"lon":5.39993,"is_reserved":false,"is_disabled":false,"rental_uris":{"android":"levelo://app?vid=507bfa7a-77ad-4faf-874f-5e94ad334f53","ios":"levelo://app?vid=507bfa7a-77ad-4faf-874f-5e94ad334f53"},"vehicle_type_id":"4","last_reported":1756156152,"current_range_meters":18800,"station_id":"ce4bhn12rcd13ifvqgqg","pricing_plan_id":"cebpf4jnsgd1na2vs0mg"},{"bike_id":"0d24da6e-7a69-486b-8f76-cd261cf49b5c","system_id":"levelo_inurba_marseille","lat":43.276858,"lon":5.383888,"is_reserved":false,"is_disabled":false,"rental_uris":{"android":"levelo://app?vid=0d24da6e-7a69-486b-8f76-cd261cf49b5c","ios":"levelo://app?vid=0d24da6e-7a69-486b-8f76-cd261cf49b5c"},"vehicle_type_id":"4","last_reported":1756156152,"current_range_meters":18800,"station_id":"ce4bhh92rcd13ifvqfi0","pricing_plan_id":"cebpf4jnsgd1na2vs0mg"},{"bike_id":"af744081-2681-4d1e-9525-a9843cca33d2","system_id":"levelo_inurba_marseille","lat":43.32532,"lon":5.36477,"is_reserved":false,"is_disabled":false,"rental_uris":{"android":"levelo://app?vid=af744081-2681-4d1e-9525-a9843cca33d2","ios":"levelo://app?vid=af744081-2681-4d1e-9525-a9843cca33d2"},"vehicle_type_id":"4","last_reported":1756156152,"current_range_meters":18800,"station_id":"","pricing_plan_id":"cebpf4jnsgd1na2vs0mg"},{"bike_id":"aabc51fa-f4f5-405f-b6b7-78d5b8c97b32","system_id":"levelo_inurba_marseille","lat":43.2847,"lon":5.35899,"is_reserved":false,"is_disabled":false,"rental_uris":{"android":"levelo://app?vid=aabc51fa-f4f5-405f-b6b7-78d5b8c97b32","ios":"levelo://app?vid=aabc51fa-f4f5-405f-b6b7-78d5b8c97b32"},"vehicle_type_id":"4","last_reported":1756156152,"current_range_meters":19200,"station_id":"ce4bhah2rcd13ifvqei0","pricing_plan_id":"cebpf4jnsgd1na2vs0mg"},{"bike_id":"9996e59a-f30b-460d-ba62-97a10965155b","system_id":"levelo_inurba_marseille","lat":43.29537,"lon":5.38552,"is_reserved":false,"is_disabled":false,"rental_uris":{"android":"levelo://app?vid=9996e59a-f30b-460d-ba62-97a10965155b","ios":"levelo://app?vid=9996e59a-f30b-460d-ba62-97a10965155b"},"vehicle_type_id":"4","last_reported":1756156152,"current_range_meters":19200,"station_id":"ce4bgih2rcd13ifvqba0","pricing_plan_id":"cebpf4jnsgd1na2vs0mg"},{"bike_id":"e21bef84-30b9-4eea-a892-1bf40b604f70","system_id":"levelo_inurba_marseille","lat":43.30177,"lon":5.38046,"is_reserved":false,"is_disabled":false,"rental_uris":{"android":"levelo://app?vid=e21bef84-30b9-4eea-a892-1bf40b604f70","ios":"levelo://app?vid=e21bef84-30b9-4eea-a892-1bf40b604f70"},"vehicle_type_id":"4","last_reported":1756156152,"current_range_meters":19200,"station_id":"","pricing_plan_id":"cebpf4jnsgd1na2vs0mg"},{"bike_id":"547e9b96-9c55-431a-bfba-68a5bf6594bc","system_id":"levelo_inurba_marseille","lat":43.29002,"lon":5.35614,"is_reserved":false,"is_disabled":true,"rental_uris":{"android":"levelo://app?vid=547e9b96-9c55-431a-bfba-68a5bf6594bc","ios":"levelo://app?vid=547e9b96-9c55-431a-bfba-68a5bf6594bc"},"vehicle_type_id":"4","last_reported":1756156152,"current_range_meters":19200,"station_id":"ce4bhb92rcd13ifvqen0","pricing_plan_id":"cebpf4jnsgd1na2vs0mg"},{"bike_id":"c074df6b-f094-42e8-9430-f2f34f0ef1eb","system_id":"levelo_inurba_marseille","lat":43.2986,"lon":5.36311,"is_reserved":false,"is_disabled":true,"rental_uris":{"android":"levelo://app?vid=c074df6b-f094-42e8-9430-f2f34f0ef1eb","ios":"levelo://app?vid=c074df6b-f094-42e8-9430-f2f34f0ef1eb"},"vehicle_type_id":"4","last_reported":1756156152,"current_range_meters":19200,"station_id":"ce4bgpp2rcd13ifvqc3g","pricing_plan_id":"cebpf4jnsgd1na2vs0mg"},{"bike_id":"a5e51e24-ab9a-41f2-b8a9-101abf1cf291","system_id":"levelo_inurba_marseille","lat":43.26067,"lon":5.39402,"is_reserved":false,"is_disabled":true,"rental_uris":{"android":"levelo://app?vid=a5e51e24-ab9a-41f2-b8a9-101abf1cf291","ios":"levelo://app?vid=a5e51e24-ab9a-41f2-b8a9-101abf1cf291"},"vehicle_type_id":"4","last_reported":1756156152,"current_range_meters":19200,"station_id":"ce4bhh92rcd13ifvqfj0","pricing_plan_id":"cebpf4jnsgd1na2vs0mg"},{"bike_id":"cffb9439-fae5-4cc6-a643-12ac96b0c6e2","system_id":"levelo_inurba_marseille","lat":43.30956,"lon":5.39025,"is_reserved":false,"is_disabled":false,"rental_uris":{"android":"levelo://app?vid=cffb9439-fae5-4cc6-a643-12ac96b0c6e2","ios":"levelo://app?vid=cffb9439-fae5-4cc6-a643-12ac96b0c6e2"},"vehicle_type_id":"4","last_reported":1756156152,"current_range_meters":19200,"station_id":"ce4bgup2rcd13ifvqco0","pricing_plan_id":"cebpf4jnsgd1na2vs0mg"},{"bike_id":"070c5c08-8102-4233-9aa2-6dc44cc7988e","system_id":"levelo_inurba_marseille","lat":43.302783,"lon":5.384178,"is_reserved":false,"is_disabled":false,"rental_uris":{"android":"levelo://app?vid=070c5c08-8102-4233-9aa2-6dc44cc7988e","ios":"levelo://app?vid=070c5c08-8102-4233-9aa2-6dc44cc7988e"},"vehicle_type_id":"4","last_reported":1756156152,"current_range_meters":19600,"station_id":"","pricing_plan_id":"cebpf4jnsgd1na2vs0mg"},{"bike_id":"39665dfe-0da4-401a-a163-a7c2423711a2","system_id":"levelo_inurba_marseille","lat":43.28706,"lon":5.37385,"is_reserved":false,"is_disabled":false,"rental_uris":{"android":"levelo://app?vid=39665dfe-0da4-401a-a163-a7c2423711a2","ios":"levelo://app?vid=39665dfe-0da4-401a-a163-a7c2423711a2"},"vehicle_type_id":"4","last_reported":1756156152,"current_range_meters":19600,"station_id":"ce4bh3p2rcd13ifvqdq0","pricing_plan_id":"cebpf4jnsgd1na2vs0mg"},{"bike_id":"22693b60-2d8a-498a-91f4-7207536f89fd","system_id":"levelo_inurba_marseille","lat":43.30302,"lon":5.39213,"is_reserved":false,"is_disabled":false,"rental_uris":{"android":"levelo://app?vid=22693b60-2d8a-498a-91f4-7207536f89fd","ios":"levelo://app?vid=22693b60-2d8a-498a-91f4-7207536f89fd"},"vehicle_type_id":"4","last_reported":1756156152,"current_range_meters":19600,"station_id":"ce4bgkh2rcd13ifvqbk0","pricing_plan_id":"cebpf4jnsgd1na2vs0mg"},{"bike_id":"15e71e2c-4ab1-4a5b-be9d-54efb4387ec7","system_id":"levelo_inurba_marseille","lat":43.24075,"lon":5.37763,"is_reserved":false,"is_disabled":false,"rental_uris":{"android":"levelo://app?vid=15e71e2c-4ab1-4a5b-be9d-54efb4387ec7","ios":"levelo://app?vid=15e71e2c-4ab1-4a5b-be9d-54efb4387ec7"},"vehicle_type_id":"4","last_reported":1756156152,"current_range_meters":19600,"station_id":"ce4bhnp2rcd13ifvqgvg","pricing_plan_id":"cebpf4jnsgd1na2vs0mg"},{"bike_id":"46f310ad-db88-4657-ac79-768fd2ce2217","system_id":"levelo_inurba_marseille","lat":43.29613,"lon":5.37702,"is_reserved":false,"is_disabled":true,"rental_uris":{"android":"levelo://app?vid=46f310ad-db88-4657-ac79-768fd2ce2217","ios":"levelo://app?vid=46f310ad-db88-4657-ac79-768fd2ce2217"},"vehicle_type_id":"4","last_reported":1756156152,"current_range_meters":20000,"station_id":"ce4bgi92rcd13ifvqb90","pricing_plan_id":"cebpf4jnsgd1na2vs0mg"},{"bike_id":"1f8abda0-b398-458e-b1d4-8f630b737e5e","system_id":"levelo_inurba_marseille","lat":43.257237,"lon":5.411177,"is_reserved":false,"is_disabled":false,"rental_uris":{"android":"levelo://app?vid=1f8abda0-b398-458e-b1d4-8f630b737e5e","ios":"levelo://app?vid=1f8abda0-b398-458e-b1d4-8f630b737e5e"},"vehicle_type_id":"4","last_reported":1756156152,"current_range_meters":19600,"station_id":"ce4bhkp2rcd13ifvqgd0","pricing_plan_id":"cebpf4jnsgd1na2vs0mg"},{"bike_id":"788fa37c-e342-4325-962d-2bf4b1e583f9","system_id":"levelo_inurba_marseille","lat":43.29888,"lon":5.38916,"is_reserved":false,"is_disabled":false,"rental_uris":{"android":"levelo://app?vid=788fa37c-e342-4325-962d-2bf4b1e583f9","ios":"levelo://app?vid=788fa37c-e342-4325-962d-2bf4b1e583f9"},"vehicle_type_id":"4","last_reported":1756156152,"current_range_meters":19600,"station_id":"ce4bh392rcd13ifvqdl0","pricing_plan_id":"cebpf4jnsgd1na2vs0mg"},{"bike_id":"9ff18348-555f-4cde-bb7b-dc1f37d18527","system_id":"levelo_inurba_marseille","lat":43.28352,"lon":5.38109,"is_reserved":false,"is_disabled":false,"rental_uris":{"android":"levelo://app?vid=9ff18348-555f-4cde-bb7b-dc1f37d18527","ios":"levelo://app?vid=9ff18348-555f-4cde-bb7b-dc1f37d18527"},"vehicle_type_id":"4","last_reported":1756156152,"current_range_meters":19600,"station_id":"ce4bh412rcd13ifvqdr0","pricing_plan_id":"cebpf4jnsgd1na2vs0mg"},{"bike_id":"d8eaf8ad-6c3f-4888-8227-c610affa2d19","system_id":"levelo_inurba_marseille","lat":43.30109,"lon":5.39886,"is_reserved":false,"is_disabled":true,"rental_uris":{"android":"levelo://app?vid=d8eaf8ad-6c3f-4888-8227-c610affa2d19","ios":"levelo://app?vid=d8eaf8ad-6c3f-4888-8227-c610affa2d19"},"vehicle_type_id":"4","last_reported":1756156152,"current_range_meters":19600,"station_id":"ce4bh0h2rcd13ifvqd40","pricing_plan_id":"cebpf4jnsgd1na2vs0mg"},{"bike_id":"91383c20-4d1e-4e83-8b75-5f1e191e9575","system_id":"levelo_inurba_marseille","lat":43.29911,"lon":5.38151,"is_reserved":false,"is_disabled":false,"rental_uris":{"android":"levelo://app?vid=91383c20-4d1e-4e83-8b75-5f1e191e9575","ios":"levelo://app?vid=91383c20-4d1e-4e83-8b75-5f1e191e9575"},"vehicle_type_id":"4","last_reported":1756156152,"current_range_meters":19600,"station_id":"ce4bgj12rcd13ifvqbc0","pricing_plan_id":"cebpf4jnsgd1na2vs0mg"},{"bike_id":"7bcee3a5-b2f0-40b3-ac35-58ad6f7aa7c7","system_id":"levelo_inurba_marseille","lat":43.28028,"lon":5.36561,"is_reserved":false,"is_disabled":false,"rental_uris":{"android":"levelo://app?vid=7bcee3a5-b2f0-40b3-ac35-58ad6f7aa7c7","ios":"levelo://app?vid=7bcee3a5-b2f0-40b3-ac35-58ad6f7aa7c7"},"vehicle_type_id":"4","last_reported":1756156152,"current_range_meters":19600,"station_id":"","pricing_plan_id":"cebpf4jnsgd1na2vs0mg"},{"bike_id":"12b52f93-1c3a-4d46-9ac3-2c24be81660a","system_id":"levelo_inurba_marseille","lat":43.21203,"lon":5.35073,"is_reserved":false,"is_disabled":false,"rental_uris":{"android":"levelo://app?vid=12b52f93-1c3a-4d46-9ac3-2c24be81660a","ios":"levelo://app?vid=12b52f93-1c3a-4d46-9ac3-2c24be81660a"},"vehicle_type_id":"4","last_reported":1756156152,"current_range_meters":20000,"station_id":"st_cvj6sg6p6f1abm77japg","pricing_plan_id":"cebpf4jnsgd1na2vs0mg"},{"bike_id":"9d00c3f2-394a-452e-81aa-a0f04b664229","system_id":"levelo_inurba_marseille","lat":43.30426,"lon":5.3889,"is_reserved":false,"is_disabled":false,"rental_uris":{"android":"levelo://app?vid=9d00c3f2-394a-452e-81aa-a0f04b664229","ios":"levelo://app?vid=9d00c3f2-394a-452e-81aa-a0f04b664229"},"vehicle_type_id":"4","last_reported":1756156152,"current_range_meters":20000,"station_id":"ce4bgk12rcd13ifvqbi0","pricing_plan_id":"cebpf4jnsgd1na2vs0mg"},{"bike_id":"0005b112-9341-46f3-983d-4174eb3a8e0b","system_id":"levelo_inurba_marseille","lat":43.30303,"lon":5.39211,"is_reserved":false,"is_disabled":true,"rental_uris":{"android":"levelo://app?vid=0005b112-9341-46f3-983d-4174eb3a8e0b","ios":"levelo://app?vid=0005b112-9341-46f3-983d-4174eb3a8e0b"},"vehicle_type_id":"4","last_reported":1756156152,"current_range_meters":20000,"station_id":"ce4bgkh2rcd13ifvqbk0","pricing_plan_id":"cebpf4jnsgd1na2vs0mg"},{"bike_id":"9088aabd-dc58-40cc-a765-35686c1c444b","system_id":"levelo_inurba_marseille","lat":43.29001,"lon":5.38624,"is_reserved":false,"is_disabled":false,"rental_uris":{"android":"levelo://app?vid=9088aabd-dc58-40cc-a765-35686c1c444b","ios":"levelo://app?vid=9088aabd-dc58-40cc-a765-35686c1c444b"},"vehicle_type_id":"4","last_reported":1756156152,"current_range_meters":20000,"station_id":"ce4bh4p2rcd13ifvqe0g","pricing_plan_id":"cebpf4jnsgd1na2vs0mg"},{"bike_id":"534df56e-9c38-4341-9dfd-f105fa072c74","system_id":"levelo_inurba_marseille","lat":43.30099,"lon":5.39079,"is_reserved":false,"is_disabled":false,"rental_uris":{"android":"levelo://app?vid=534df56e-9c38-4341-9dfd-f105fa072c74","ios":"levelo://app?vid=534df56e-9c38-4341-9dfd-f105fa072c74"},"vehicle_type_id":"4","last_reported":1756156152,"current_range_meters":20000,"station_id":"ce4bh192rcd13ifvqdb0","pricing_plan_id":"cebpf4jnsgd1na2vs0mg"},{"bike_id":"b4330464-2203-4dca-a614-3112ed0839a1","system_id":"levelo_inurba_marseille","lat":43.28708,"lon":5.3999,"is_reserved":false,"is_disabled":false,"rental_uris":{"android":"levelo://app?vid=b4330464-2203-4dca-a614-3112ed0839a1","ios":"levelo://app?vid=b4330464-2203-4dca-a614-3112ed0839a1"},"vehicle_type_id":"4","last_reported":1756156152,"current_range_meters":20000,"station_id":"ce4bho92rcd13ifvqh3g","pricing_plan_id":"cebpf4jnsgd1na2vs0mg"},{"bike_id":"16a9132b-234e-4899-8882-5038bd337a94","system_id":"levelo_inurba_marseille","lat":43.30305,"lon":5.39214,"is_reserved":false,"is_disabled":false,"rental_uris":{"android":"levelo://app?vid=16a9132b-234e-4899-8882-5038bd337a94","ios":"levelo://app?vid=16a9132b-234e-4899-8882-5038bd337a94"},"vehicle_type_id":"4","last_reported":1756156152,"current_range_meters":20000,"station_id":"ce4bgkh2rcd13ifvqbk0","pricing_plan_id":"cebpf4jnsgd1na2vs0mg"},{"bike_id":"7af523f3-8a51-4bf6-b605-68aa8c8982fe","system_id":"levelo_inurba_marseille","lat":43.31368,"lon":5.36695,"is_reserved":false,"is_disabled":false,"rental_uris":{"android":"levelo://app?vid=7af523f3-8a51-4bf6-b605-68aa8c8982fe","ios":"levelo://app?vid=7af523f3-8a51-4bf6-b605-68aa8c8982fe"},"vehicle_type_id":"4","last_reported":1756156152,"current_range_meters":20000,"station_id":"ce4bgr92rcd13ifvqc6g","pricing_plan_id":"cebpf4jnsgd1na2vs0mg"},{"bike_id":"fd29ef02-0c4c-4676-a7e3-a84467b88cf7","system_id":"levelo_inurba_marseille","lat":43.28342,"lon":5.38106,"is_reserved":false,"is_disabled":true,"rental_uris":{"android":"levelo://app?vid=fd29ef02-0c4c-4676-a7e3-a84467b88cf7","ios":"levelo://app?vid=fd29ef02-0c4c-4676-a7e3-a84467b88cf7"},"vehicle_type_id":"4","last_reported":1756156152,"current_range_meters":20000,"station_id":"ce4bh412rcd13ifvqdr0","pricing_plan_id":"cebpf4jnsgd1na2vs0mg"},{"bike_id":"5878eb62-a5a8-48e7-aea3-f375b9878b8e","system_id":"levelo_inurba_marseille","lat":43.30896,"lon":5.37207,"is_reserved":false,"is_disabled":false,"rental_uris":{"android":"levelo://app?vid=5878eb62-a5a8-48e7-aea3-f375b9878b8e","ios":"levelo://app?vid=5878eb62-a5a8-48e7-aea3-f375b9878b8e"},"vehicle_type_id":"4","last_reported":1756156152,"current_range_meters":20400,"station_id":"ce4bguh2rcd13ifvqckg","pricing_plan_id":"cebpf4jnsgd1na2vs0mg"},{"bike_id":"21c37970-c9a1-4ed2-b171-97ab7e4a15a1","system_id":"levelo_inurba_marseille","lat":43.289436,"lon":5.364012,"is_reserved":false,"is_disabled":false,"rental_uris":{"android":"levelo://app?vid=21c37970-c9a1-4ed2-b171-97ab7e4a15a1","ios":"levelo://app?vid=21c37970-c9a1-4ed2-b171-97ab7e4a15a1"},"vehicle_type_id":"4","last_reported":1756156152,"current_range_meters":20400,"station_id":"ce4bhc92rcd13ifvqetg","pricing_plan_id":"cebpf4jnsgd1na2vs0mg"},{"bike_id":"eb02809f-773c-49e0-b482-1fcdaa44b907","system_id":"levelo_inurba_marseille","lat":43.30612,"lon":5.37214,"is_reserved":false,"is_disabled":false,"rental_uris":{"android":"levelo://app?vid=eb02809f-773c-49e0-b482-1fcdaa44b907","ios":"levelo://app?vid=eb02809f-773c-49e0-b482-1fcdaa44b907"},"vehicle_type_id":"4","last_reported":1756156152,"current_range_meters":20400,"station_id":"ce4bgqh2rcd13ifvqc4g","pricing_plan_id":"cebpf4jnsgd1na2vs0mg"},{"bike_id":"b6769fe8-4c93-4d75-b2a3-a0ccd2ec704d","system_id":"levelo_inurba_marseille","lat":43.32443,"lon":5.36597,"is_reserved":false,"is_disabled":true,"rental_uris":{"android":"levelo://app?vid=b6769fe8-4c93-4d75-b2a3-a0ccd2ec704d","ios":"levelo://app?vid=b6769fe8-4c93-4d75-b2a3-a0ccd2ec704d"},"vehicle_type_id":"4","last_reported":1756156152,"current_range_meters":20400,"station_id":"ce4bhs12rcd13ifvqhvg","pricing_plan_id":"cebpf4jnsgd1na2vs0mg"},{"bike_id":"93250767-f638-463f-88e4-36b6ed8f816a","system_id":"levelo_inurba_marseille","lat":43.23185,"lon":5.39989,"is_reserved":false,"is_disabled":false,"rental_uris":{"android":"levelo://app?vid=93250767-f638-463f-88e4-36b6ed8f816a","ios":"levelo://app?vid=93250767-f638-463f-88e4-36b6ed8f816a"},"vehicle_type_id":"4","last_reported":1756156152,"current_range_meters":20400,"station_id":"ce4bhn12rcd13ifvqgqg","pricing_plan_id":"cebpf4jnsgd1na2vs0mg"},{"bike_id":"9237f631-41f9-4140-b91a-4364c8f78928","system_id":"levelo_inurba_marseille","lat":43.29078,"lon":5.38146,"is_reserved":false,"is_disabled":false,"rental_uris":{"android":"levelo://app?vid=9237f631-41f9-4140-b91a-4364c8f78928","ios":"levelo://app?vid=9237f631-41f9-4140-b91a-4364c8f78928"},"vehicle_type_id":"4","last_reported":1756156152,"current_range_meters":20400,"station_id":"ce4bh512rcd13ifvqe2g","pricing_plan_id":"cebpf4jnsgd1na2vs0mg"},{"bike_id":"22d37b03-64c1-44b3-a429-9f0476ecd808","system_id":"levelo_inurba_marseille","lat":43.29416,"lon":5.37392,"is_reserved":false,"is_disabled":false,"rental_uris":{"android":"levelo://app?vid=22d37b03-64c1-44b3-a429-9f0476ecd808","ios":"levelo://app?vid=22d37b03-64c1-44b3-a429-9f0476ecd808"},"vehicle_type_id":"4","last_reported":1756156152,"current_range_meters":20400,"station_id":"","pricing_plan_id":"cebpf4jnsgd1na2vs0mg"},{"bike_id":"a5ecb7b8-a67f-42dc-8894-37642ee66055","system_id":"levelo_inurba_marseille","lat":43.28725,"lon":5.37939,"is_reserved":false,"is_disabled":false,"rental_uris":{"android":"levelo://app?vid=a5ecb7b8-a67f-42dc-8894-37642ee66055","ios":"levelo://app?vid=a5ecb7b8-a67f-42dc-8894-37642ee66055"},"vehicle_type_id":"4","last_reported":1756156152,"current_range_meters":20800,"station_id":"ce4bh9p2rcd13ifvqec0","pricing_plan_id":"cebpf4jnsgd1na2vs0mg"},{"bike_id":"162441e5-2e3b-4dc8-93f8-80ae2457d49c","system_id":"levelo_inurba_marseille","lat":43.28095,"lon":5.37858,"is_reserved":false,"is_disabled":true,"rental_uris":{"android":"levelo://app?vid=162441e5-2e3b-4dc8-93f8-80ae2457d49c","ios":"levelo://app?vid=162441e5-2e3b-4dc8-93f8-80ae2457d49c"},"vehicle_type_id":"4","last_reported":1756156152,"current_range_meters":20800,"station_id":"ce4bha12rcd13ifvqee0","pricing_plan_id":"cebpf4jnsgd1na2vs0mg"},{"bike_id":"1b019108-2dca-4f70-8882-afb1292136cb","system_id":"levelo_inurba_marseille","lat":43.29603,"lon":5.38113,"is_reserved":false,"is_disabled":false,"rental_uris":{"android":"levelo://app?vid=1b019108-2dca-4f70-8882-afb1292136cb","ios":"levelo://app?vid=1b019108-2dca-4f70-8882-afb1292136cb"},"vehicle_type_id":"4","last_reported":1756156152,"current_range_meters":20800,"station_id":"ce4bgl12rcd13ifvqbo0","pricing_plan_id":"cebpf4jnsgd1na2vs0mg"},{"bike_id":"ec4ec16a-2deb-46be-90cc-d05d145ea567","system_id":"levelo_inurba_marseille","lat":43.23967,"lon":5.36629,"is_reserved":false,"is_disabled":false,"rental_uris":{"android":"levelo://app?vid=ec4ec16a-2deb-46be-90cc-d05d145ea567","ios":"levelo://app?vid=ec4ec16a-2deb-46be-90cc-d05d145ea567"},"vehicle_type_id":"4","last_reported":1756156152,"current_range_meters":20800,"station_id":"ce4bhi12rcd13ifvqfp0","pricing_plan_id":"cebpf4jnsgd1na2vs0mg"},{"bike_id":"819eee7a-7a3b-436f-8d28-7c4bae46dbf4","system_id":"levelo_inurba_marseille","lat":43.24667,"lon":5.381695,"is_reserved":false,"is_disabled":false,"rental_uris":{"android":"levelo://app?vid=819eee7a-7a3b-436f-8d28-7c4bae46dbf4","ios":"levelo://app?vid=819eee7a-7a3b-436f-8d28-7c4bae46dbf4"},"vehicle_type_id":"4","last_reported":1756156152,"current_range_meters":20800,"station_id":"ce4bhih2rcd13ifvqfr0","pricing_plan_id":"cebpf4jnsgd1na2vs0mg"},{"bike_id":"9e8c63ed-eeeb-46a0-97cb-fb5427dff0b4","system_id":"levelo_inurba_marseille","lat":43.28943,"lon":5.39644,"is_reserved":false,"is_disabled":false,"rental_uris":{"android":"levelo://app?vid=9e8c63ed-eeeb-46a0-97cb-fb5427dff0b4","ios":"levelo://app?vid=9e8c63ed-eeeb-46a0-97cb-fb5427dff0b4"},"vehicle_type_id":"4","last_reported":1756156152,"current_range_meters":20800,"station_id":"ce4bh3h2rcd13ifvqdn0","pricing_plan_id":"cebpf4jnsgd1na2vs0mg"},{"bike_id":"d2042780-aaf7-41dd-933e-c79aad9932d4","system_id":"levelo_inurba_marseille","lat":43.31997,"lon":5.38168,"is_reserved":false,"is_disabled":false,"rental_uris":{"android":"levelo://app?vid=d2042780-aaf7-41dd-933e-c79aad9932d4","ios":"levelo://app?vid=d2042780-aaf7-41dd-933e-c79aad9932d4"},"vehicle_type_id":"4","last_reported":1756156152,"current_range_meters":20800,"station_id":"ce4bhr12rcd13ifvqhpg","pricing_plan_id":"cebpf4jnsgd1na2vs0mg"},{"bike_id":"55e366fc-40f8-4879-9031-d7d131c436f8","system_id":"levelo_inurba_marseille","lat":43.25113,"lon":5.4032,"is_reserved":false,"is_disabled":false,"rental_uris":{"android":"levelo://app?vid=55e366fc-40f8-4879-9031-d7d131c436f8","ios":"levelo://app?vid=55e366fc-40f8-4879-9031-d7d131c436f8"},"vehicle_type_id":"4","last_reported":1756156152,"current_range_meters":20800,"station_id":"ce4bhlh2rcd13ifvqgig","pricing_plan_id":"cebpf4jnsgd1na2vs0mg"},{"bike_id":"01475f28-2a66-4fe3-a338-cba308225507","system_id":"levelo_inurba_marseille","lat":43.298775,"lon":5.397257,"is_reserved":false,"is_disabled":false,"rental_uris":{"android":"levelo://app?vid=01475f28-2a66-4fe3-a338-cba308225507","ios":"levelo://app?vid=01475f28-2a66-4fe3-a338-cba308225507"},"vehicle_type_id":"4","last_reported":1756156152,"current_range_meters":21600,"station_id":"","pricing_plan_id":"cebpf4jnsgd1na2vs0mg"},{"bike_id":"b841e98c-c06d-4b93-ad73-d4190410381c","system_id":"levelo_inurba_marseille","lat":43.30148,"lon":5.38077,"is_reserved":false,"is_disabled":false,"rental_uris":{"android":"levelo://app?vid=b841e98c-c06d-4b93-ad73-d4190410381c","ios":"levelo://app?vid=b841e98c-c06d-4b93-ad73-d4190410381c"},"vehicle_type_id":"4","last_reported":1756156152,"current_range_meters":21600,"station_id":"ce4bgjp2rcd13ifvqbh0","pricing_plan_id":"cebpf4jnsgd1na2vs0mg"},{"bike_id":"69bc6714-f0e3-4b10-95b3-985f60a200e6","system_id":"levelo_inurba_marseille","lat":43.29533,"lon":5.38542,"is_reserved":false,"is_disabled":false,"rental_uris":{"android":"levelo://app?vid=69bc6714-f0e3-4b10-95b3-985f60a200e6","ios":"levelo://app?vid=69bc6714-f0e3-4b10-95b3-985f60a200e6"},"vehicle_type_id":"4","last_reported":1756156152,"current_range_meters":21600,"station_id":"ce4bgih2rcd13ifvqba0","pricing_plan_id":"cebpf4jnsgd1na2vs0mg"},{"bike_id":"abaf99ca-5823-4460-ba5c-ff01280743d0","system_id":"levelo_inurba_marseille","lat":43.27077,"lon":5.42275,"is_reserved":false,"is_disabled":false,"rental_uris":{"android":"levelo://app?vid=abaf99ca-5823-4460-ba5c-ff01280743d0","ios":"levelo://app?vid=abaf99ca-5823-4460-ba5c-ff01280743d0"},"vehicle_type_id":"4","last_reported":1756156152,"current_range_meters":21600,"station_id":"ce4bhk92rcd13ifvqgb0","pricing_plan_id":"cebpf4jnsgd1na2vs0mg"},{"bike_id":"0ee329fa-d181-4774-99d7-504535030df1","system_id":"levelo_inurba_marseille","lat":43.291994,"lon":5.385458,"is_reserved":false,"is_disabled":false,"rental_uris":{"android":"levelo://app?vid=0ee329fa-d181-4774-99d7-504535030df1","ios":"levelo://app?vid=0ee329fa-d181-4774-99d7-504535030df1"},"vehicle_type_id":"4","last_reported":1756156152,"current_range_meters":21600,"station_id":"","pricing_plan_id":"cebpf4jnsgd1na2vs0mg"},