{"last_updated":1774341496,"ttl":60,"version":"2.2","data":{"bikes":[{"bike_id":"abff041e-413d-46c4-8728-f99d059b03be","system_id":"levelo_inurba_marseille","lat":43.32476,"lon":5.36585,"is_reserved":false,"is_disabled":true,"rental_uris":{"android":"levelo://app?vid=abff041e-413d-46c4-8728-f99d059b03be","ios":"levelo://app?vid=abff041e-413d-46c4-8728-f99d059b03be"},"vehicle_type_id":"4","last_reported":1774341497,"current_range_meters":2800,"station_id":"ce4bhs12rcd13ifvqhvg","pricing_plan_id":"cebpf4jnsgd1na2vs0mg"},{"bike_id":"c830f674-b031-4781-8c51-2587f107055e","system_id":"levelo_inurba_marseille","lat":43.28704,"lon":5.37938,"is_reserved":false,"is_disabled":false,"rental_uris":{"android":"levelo://app?vid=c830f674-b031-4781-8c51-2587f107055e","ios":"levelo://app?vid=c830f674-b031-4781-8c51-2587f107055e"},"vehicle_type_id":"4","last_reported":1774341497,"current_range_meters":2800,"station_id":"ce4bh9p2rcd13ifvqec0","pricing_plan_id":"cebpf4jnsgd1na2vs0mg"},{"bike_id":"2c778cc4-029b-4096-919b-a2ad8483e38f","system_id":"levelo_inurba_marseille","lat":43.30175,"lon":5.36633,"is_reserved":false,"is_disabled":false,"rental_uris":{"android":"levelo://app?vid=2c778cc4-029b-4096-919b-a2ad8483e38f","ios":"levelo://app?vid=2c778cc4-029b-4096-919b-a2ad8483e38f"},"vehicle_type_id":"4","last_reported":1774341497,"current_range_meters":2800,"station_id":"ce4bgrh2rcd13ifvqc8g","pricing_plan_id":"cebpf4jnsgd1na2vs0mg"},{"bike_id":"9841420b-9d3f-4a1b-88ef-a3431bb43bf8","system_id":"levelo_inurba_marseille","lat":43.28425,"lon":5.3499,"is_reserved":false,"is_disabled":false,"rental_uris":{"android":"levelo://app?vid=9841420b-9d3f-4a1b-88ef-a3431bb43bf8","ios":"levelo://app?vid=9841420b-9d3f-4a1b-88ef-a3431bb43bf8"},"vehicle_type_id":"4","last_reported":1774341497,"current_range_meters":2800,"station_id":"ce4bhbh2rcd13ifvqepg","pricing_plan_id":"cebpf4jnsgd1na2vs0mg"},{"bike_id":"db5cb38a-3863-4ca9-b2de-4dce955ac55a","system_id":"levelo_inurba_marseille","lat":43.29775,"lon":5.37106,"is_reserved":false,"is_disabled":false,"rental_uris":{"android":"levelo://app?vid=db5cb38a-3863-4ca9-b2de-4dce955ac55a","ios":"levelo://app?vid=db5cb38a-3863-4ca9-b2de-4dce955ac55a"},"vehicle_type_id":"4","last_reported":1774341497,"current_range_meters":2800,"station_id":"ce4bgop2rcd13ifvqc1g","pricing_plan_id":"cebpf4jnsgd1na2vs0mg"},{"bike_id":"c2eb95cf-2b9c-4b11-a0de-dcac2c2e30b9","system_id":"levelo_inurba_marseille","lat":43.29021,"lon":5.39962,"is_reserved":false,"is_disabled":false,"rental_uris":{"android":"levelo://app?vid=c2eb95cf-2b9c-4b11-a0de-dcac2c2e30b9","ios":"levelo://app?vid=c2eb95cf-2b9c-4b11-a0de-dcac2c2e30b9"},"vehicle_type_id":"4","last_reported":1774341497,"current_range_meters":2800,"station_id":"ce4bh392rcd13ifvqdm0","pricing_plan_id":"cebpf4jnsgd1na2vs0mg"},{"bike_id":"91b45c3d-d4dd-49ea-b0fb-e5bf21dde7c8","system_id":"levelo_inurba_marseille","lat":43.31217,"lon":5.36817,"is_reserved":false,"is_disabled":false,"rental_uris":{"android":"levelo://app?vid=91b45c3d-d4dd-49ea-b0fb-e5bf21dde7c8","ios":"levelo://app?vid=91b45c3d-d4dd-49ea-b0fb-e5bf21dde7c8"},"vehicle_type_id":"4","last_reported":1774341497,"current_range_meters":2800,"station_id":"ce4bgl92rcd13ifvqbq0","pricing_plan_id":"cebpf4jnsgd1na2vs0mg"},{"bike_id":"ef8f663b-0075-416a-88fe-1fde798c71ff","system_id":"levelo_inurba_marseille","lat":43.23415,"lon":5.41251,"is_reserved":false,"is_disabled":false,"rental_uris":{"android":"levelo://app?vid=ef8f663b-0075-416a-88fe-1fde798c71ff","ios":"levelo://app?vid=ef8f663b-0075-416a-88fe-1fde798c71ff"},"vehicle_type_id":"4","last_reported":1774341497,"current_range_meters":2800,"station_id":"","pricing_plan_id":"cebpf4jnsgd1na2vs0mg"},{"bike_id":"36416c63-064a-41da-b572-d9554edc85fc","system_id":"levelo_inurba_marseille","lat":43.29257,"lon":5.40136,"is_reserved":false,"is_disabled":false,"rental_uris":{"android":"levelo://app?vid=36416c63-064a-41da-b572-d9554edc85fc","ios":"levelo://app?vid=36416c63-064a-41da-b572-d9554edc85fc"},"vehicle_type_id":"4","last_reported":1774341497,"current_range_meters":2800,"station_id":"ce4bh312rcd13ifvqdk0","pricing_plan_id":"cebpf4jnsgd1na2vs0mg"},{"bike_id":"7fe9747d-28db-4222-bf1e-9f52c313d5a2","system_id":"levelo_inurba_marseille","lat":43.27815,"lon":5.40714,"is_reserved":false,"is_disabled":false,"rental_uris":{"android":"levelo://app?vid=7fe9747d-28db-4222-bf1e-9f52c313d5a2","ios":"levelo://app?vid=7fe9747d-28db-4222-bf1e-9f52c313d5a2"},"vehicle_type_id":"4","last_reported":1774341497,"current_range_meters":2800,"station_id":"ce4bhnh2rcd13ifvqgtg","pricing_plan_id":"cebpf4jnsgd1na2vs0mg"},{"bike_id":"0b8272f2-cb19-4693-b668-5b8718886d8d","system_id":"levelo_inurba_marseille","lat":43.29019,"lon":5.39989,"is_reserved":false,"is_disabled":false,"rental_uris":{"android":"levelo://app?vid=0b8272f2-cb19-4693-b668-5b8718886d8d","ios":"levelo://app?vid=0b8272f2-cb19-4693-b668-5b8718886d8d"},"vehicle_type_id":"4","last_reported":1774341497,"current_range_meters":3200,"station_id":"ce4bh392rcd13ifvqdm0","pricing_plan_id":"cebpf4jnsgd1na2vs0mg"},{"bike_id":"87959183-40cb-4bb7-9431-851bf8fbf873","system_id":"levelo_inurba_marseille","lat":43.24066,"lon":5.37765,"is_reserved":false,"is_disabled":false,"rental_uris":{"android":"levelo://app?vid=87959183-40cb-4bb7-9431-851bf8fbf873","ios":"levelo://app?vid=87959183-40cb-4bb7-9431-851bf8fbf873"},"vehicle_type_id":"4","last_reported":1774341497,"current_range_meters":3200,"station_id":"ce4bhnp2rcd13ifvqgvg","pricing_plan_id":"cebpf4jnsgd1na2vs0mg"},{"bike_id":"85d0a95e-bc0b-4d36-bde7-fd46008d21e4","system_id":"levelo_inurba_marseille","lat":43.2466,"lon":5.38149,"is_reserved":false,"is_disabled":false,"rental_uris":{"android":"levelo://app?vid=85d0a95e-bc0b-4d36-bde7-fd46008d21e4","ios":"levelo://app?vid=85d0a95e-bc0b-4d36-bde7-fd46008d21e4"},"vehicle_type_id":"4","last_reported":1774341497,"current_range_meters":3200,"station_id":"ce4bhih2rcd13ifvqfr0","pricing_plan_id":"cebpf4jnsgd1na2vs0mg"},{"bike_id":"2733f5d6-4126-4a8b-9735-e5f56c1a5a0c","system_id":"levelo_inurba_marseille","lat":43.23876,"lon":5.37462,"is_reserved":false,"is_disabled":false,"rental_uris":{"android":"levelo://app?vid=2733f5d6-4126-4a8b-9735-e5f56c1a5a0c","ios":"levelo://app?vid=2733f5d6-4126-4a8b-9735-e5f56c1a5a0c"},"vehicle_type_id":"4","last_reported":1774341497,"current_range_meters":3200,"station_id":"st_d6sm7csbq4hs73f8fpjg","pricing_plan_id":"cebpf4jnsgd1na2vs0mg"},{"bike_id":"7d0e7181-3a70-4370-9354-bef3948a92c8","system_id":"levelo_inurba_marseille","lat":43.29959,"lon":5.41327,"is_reserved":false,"is_disabled":false,"rental_uris":{"android":"levelo://app?vid=7d0e7181-3a70-4370-9354-bef3948a92c8","ios":"levelo://app?vid=7d0e7181-3a70-4370-9354-bef3948a92c8"},"vehicle_type_id":"4","last_reported":1774341497,"current_range_meters":3600,"station_id":"ce4bhp12rcd13ifvqh9g","pricing_plan_id":"cebpf4jnsgd1na2vs0mg"},{"bike_id":"315a04d5-e354-4ddb-9147-4c5da6b6a983","system_id":"levelo_inurba_marseille","lat":43.30245,"lon":5.40037,"is_reserved":false,"is_disabled":false,"rental_uris":{"android":"levelo://app?vid=315a04d5-e354-4ddb-9147-4c5da6b6a983","ios":"levelo://app?vid=315a04d5-e354-4ddb-9147-4c5da6b6a983"},"vehicle_type_id":"4","last_reported":1774341497,"current_range_meters":3600,"station_id":"ce4bgvh2rcd13ifvqcs0","pricing_plan_id":"cebpf4jnsgd1na2vs0mg"},{"bike_id":"b8879df9-c18b-456f-946a-fdbada807c01","system_id":"levelo_inurba_marseille","lat":43.29702,"lon":5.377,"is_reserved":false,"is_disabled":false,"rental_uris":{"android":"levelo://app?vid=b8879df9-c18b-456f-946a-fdbada807c01","ios":"levelo://app?vid=b8879df9-c18b-456f-946a-fdbada807c01"},"vehicle_type_id":"4","last_reported":1774341497,"current_range_meters":3600,"station_id":"ce4bgkh2rcd13ifvqbl0","pricing_plan_id":"cebpf4jnsgd1na2vs0mg"},{"bike_id":"6c544108-dcdf-4d4d-a2b0-9600fafbc564","system_id":"levelo_inurba_marseille","lat":43.29705,"lon":5.3771,"is_reserved":false,"is_disabled":false,"rental_uris":{"android":"levelo://app?vid=6c544108-dcdf-4d4d-a2b0-9600fafbc564","ios":"levelo://app?vid=6c544108-dcdf-4d4d-a2b0-9600fafbc564"},"vehicle_type_id":"4","last_reported":1774341497,"current_range_meters":3600,"station_id":"ce4bgkh2rcd13ifvqbl0","pricing_plan_id":"cebpf4jnsgd1na2vs0mg"},{"bike_id":"0f88d6b7-883f-4b13-98ff-b1b3b7d422a5","system_id":"levelo_inurba_marseille","lat":43.25925,"lon":5.40903,"is_reserved":false,"is_disabled":true,"rental_uris":{"android":"levelo://app?vid=0f88d6b7-883f-4b13-98ff-b1b3b7d422a5","ios":"levelo://app?vid=0f88d6b7-883f-4b13-98ff-b1b3b7d422a5"},"vehicle_type_id":"4","last_reported":1774341497,"current_range_meters":3600,"station_id":"ce4bhm92rcd13ifvqglg","pricing_plan_id":"cebpf4jnsgd1na2vs0mg"},{"bike_id":"53cb771c-4835-4f88-bc38-aacc8686a1ea","system_id":"levelo_inurba_marseille","lat":43.2897,"lon":5.37829,"is_reserved":false,"is_disabled":false,"rental_uris":{"android":"levelo://app?vid=53cb771c-4835-4f88-bc38-aacc8686a1ea","ios":"levelo://app?vid=53cb771c-4835-4f88-bc38-aacc8686a1ea"},"vehicle_type_id":"4","last_reported":1774341497,"current_range_meters":3600,"station_id":"ce4bh9p2rcd13ifvqed0","pricing_plan_id":"cebpf4jnsgd1na2vs0mg"},{"bike_id":"82d19d95-2492-495d-b746-799a9f30f6d5","system_id":"levelo_inurba_marseille","lat":43.28219,"lon":5.40837,"is_reserved":false,"is_disabled":false,"rental_uris":{"android":"levelo://app?vid=82d19d95-2492-495d-b746-799a9f30f6d5","ios":"levelo://app?vid=82d19d95-2492-495d-b746-799a9f30f6d5"},"vehicle_type_id":"4","last_reported":1774341497,"current_range_meters":3600,"station_id":"","pricing_plan_id":"cebpf4jnsgd1na2vs0mg"},{"bike_id":"6f3fdbf9-917f-421d-aa86-02187d7ba65c","system_id":"levelo_inurba_marseille","lat":43.28498,"lon":5.48387,"is_reserved":false,"is_disabled":false,"rental_uris":{"android":"levelo://app?vid=6f3fdbf9-917f-421d-aa86-02187d7ba65c","ios":"levelo://app?vid=6f3fdbf9-917f-421d-aa86-02187d7ba65c"},"vehicle_type_id":"4","last_reported":1774341497,"current_range_meters":3600,"station_id":"st_d3svhcjqgbts73a3dn0g","pricing_plan_id":"cebpf4jnsgd1na2vs0mg"},{"bike_id":"59545450-ecb6-4dfe-bfbb-15f817335748","system_id":"levelo_inurba_marseille","lat":43.29275,"lon":5.37631,"is_reserved":false,"is_disabled":false,"rental_uris":{"android":"levelo://app?vid=59545450-ecb6-4dfe-bfbb-15f817335748","ios":"levelo://app?vid=59545450-ecb6-4dfe-bfbb-15f817335748"},"vehicle_type_id":"4","last_reported":1774341497,"current_range_meters":3600,"station_id":"ce4bgi12rcd13ifvqb80","pricing_plan_id":"cebpf4jnsgd1na2vs0mg"},{"bike_id":"c3f3c8ac-b6d1-4026-a061-65e7cfa764fe","system_id":"levelo_inurba_marseille","lat":43.28471,"lon":5.48393,"is_reserved":false,"is_disabled":false,"rental_uris":{"android":"levelo://app?vid=c3f3c8ac-b6d1-4026-a061-65e7cfa764fe","ios":"levelo://app?vid=c3f3c8ac-b6d1-4026-a061-65e7cfa764fe"},"vehicle_type_id":"4","last_reported":1774341497,"current_range_meters":3600,"station_id":"","pricing_plan_id":"cebpf4jnsgd1na2vs0mg"},{"bike_id":"46f4ddec-e1d5-4eda-a5b1-409ded23cf52","system_id":"levelo_inurba_marseille","lat":43.28737,"lon":5.37931,"is_reserved":false,"is_disabled":false,"rental_uris":{"android":"levelo://app?vid=46f4ddec-e1d5-4eda-a5b1-409ded23cf52","ios":"levelo://app?vid=46f4ddec-e1d5-4eda-a5b1-409ded23cf52"},"vehicle_type_id":"4","last_reported":1774341497,"current_range_meters":3600,"station_id":"ce4bh9p2rcd13ifvqec0","pricing_plan_id":"cebpf4jnsgd1na2vs0mg"},{"bike_id":"ab047c40-24eb-4f38-8934-1229e1ada97d","system_id":"levelo_inurba_marseille","lat":43.31253,"lon":5.36874,"is_reserved":false,"is_disabled":false,"rental_uris":{"android":"levelo://app?vid=ab047c40-24eb-4f38-8934-1229e1ada97d","ios":"levelo://app?vid=ab047c40-24eb-4f38-8934-1229e1ada97d"},"vehicle_type_id":"4","last_reported":1774341497,"current_range_meters":3600,"station_id":"ce4bgl92rcd13ifvqbq0","pricing_plan_id":"cebpf4jnsgd1na2vs0mg"},{"bike_id":"19816687-f443-4a5d-b7aa-e3cfd2cb0259","system_id":"levelo_inurba_marseille","lat":43.31519,"lon":5.4452,"is_reserved":false,"is_disabled":false,"rental_uris":{"android":"levelo://app?vid=19816687-f443-4a5d-b7aa-e3cfd2cb0259","ios":"levelo://app?vid=19816687-f443-4a5d-b7aa-e3cfd2cb0259"},"vehicle_type_id":"4","last_reported":1774341497,"current_range_meters":4000,"station_id":"","pricing_plan_id":"cebpf4jnsgd1na2vs0mg"},{"bike_id":"4bc91efc-5348-4dd5-84c0-807354869870","system_id":"levelo_inurba_marseille","lat":43.27828,"lon":5.40723,"is_reserved":false,"is_disabled":false,"rental_uris":{"android":"levelo://app?vid=4bc91efc-5348-4dd5-84c0-807354869870","ios":"levelo://app?vid=4bc91efc-5348-4dd5-84c0-807354869870"},"vehicle_type_id":"4","last_reported":1774341497,"current_range_meters":4000,"station_id":"ce4bhnh2rcd13ifvqgtg","pricing_plan_id":"cebpf4jnsgd1na2vs0mg"},{"bike_id":"6d8d09fd-043e-40dd-92de-c6d036fa5ea9","system_id":"levelo_inurba_marseille","lat":43.28948,"lon":5.38382,"is_reserved":false,"is_disabled":false,"rental_uris":{"android":"levelo://app?vid=6d8d09fd-043e-40dd-92de-c6d036fa5ea9","ios":"levelo://app?vid=6d8d09fd-043e-40dd-92de-c6d036fa5ea9"},"vehicle_type_id":"4","last_reported":1774341497,"current_range_meters":4000,"station_id":"ce4bh612rcd13ifvqe6g","pricing_plan_id":"cebpf4jnsgd1na2vs0mg"},{"bike_id":"63fb6336-17f6-4435-9585-e8e9f8fc71fb","system_id":"levelo_inurba_marseille","lat":43.23126,"lon":5.43726,"is_reserved":false,"is_disabled":false,"rental_uris":{"android":"levelo://app?vid=63fb6336-17f6-4435-9585-e8e9f8fc71fb","ios":"levelo://app?vid=63fb6336-17f6-4435-9585-e8e9f8fc71fb"},"vehicle_type_id":"4","last_reported":1774341497,"current_range_meters":4000,"station_id":"ce4bhmp2rcd13ifvqgog","pricing_plan_id":"cebpf4jnsgd1na2vs0mg"},{"bike_id":"f88785b3-6943-4637-92b7-314729fe3c58","system_id":"levelo_inurba_marseille","lat":43.30839,"lon":5.38318,"is_reserved":false,"is_disabled":false,"rental_uris":{"android":"levelo://app?vid=f88785b3-6943-4637-92b7-314729fe3c58","ios":"levelo://app?vid=f88785b3-6943-4637-92b7-314729fe3c58"},"vehicle_type_id":"4","last_reported":1774341497,"current_range_meters":4000,"station_id":"","pricing_plan_id":"cebpf4jnsgd1na2vs0mg"},{"bike_id":"ffb98fb8-da98-43fb-9eac-ddb2ee1141c2","system_id":"levelo_inurba_marseille","lat":43.24638,"lon":5.4163,"is_reserved":false,"is_disabled":false,"rental_uris":{"android":"levelo://app?vid=ffb98fb8-da98-43fb-9eac-ddb2ee1141c2","ios":"levelo://app?vid=ffb98fb8-da98-43fb-9eac-ddb2ee1141c2"},"vehicle_type_id":"4","last_reported":1774341497,"current_range_meters":4000,"station_id":"","pricing_plan_id":"cebpf4jnsgd1na2vs0mg"},{"bike_id":"f554888c-9515-430c-b3e9-327a4cc15db0","system_id":"levelo_inurba_marseille","lat":43.2964,"lon":5.42423,"is_reserved":false,"is_disabled":false,"rental_uris":{"android":"levelo://app?vid=f554888c-9515-430c-b3e9-327a4cc15db0","ios":"levelo://app?vid=f554888c-9515-430c-b3e9-327a4cc15db0"},"vehicle_type_id":"4","last_reported":1774341497,"current_range_meters":4000,"station_id":"","pricing_plan_id":"cebpf4jnsgd1na2vs0mg"},{"bike_id":"72c8e3c0-52d4-49e1-9aa9-201dd7c27a60","system_id":"levelo_inurba_marseille","lat":43.31081,"lon":5.37778,"is_reserved":false,"is_disabled":false,"rental_uris":{"android":"levelo://app?vid=72c8e3c0-52d4-49e1-9aa9-201dd7c27a60","ios":"levelo://app?vid=72c8e3c0-52d4-49e1-9aa9-201dd7c27a60"},"vehicle_type_id":"4","last_reported":1774341497,"current_range_meters":4000,"station_id":"ce4bgt92rcd13ifvqcg0","pricing_plan_id":"cebpf4jnsgd1na2vs0mg"},{"bike_id":"a16c8f6e-15ac-44f0-ba6a-5540a873d429","system_id":"levelo_inurba_marseille","lat":43.29964,"lon":5.38493,"is_reserved":false,"is_disabled":false,"rental_uris":{"android":"levelo://app?vid=a16c8f6e-15ac-44f0-ba6a-5540a873d429","ios":"levelo://app?vid=a16c8f6e-15ac-44f0-ba6a-5540a873d429"},"vehicle_type_id":"4","last_reported":1774341497,"current_range_meters":4000,"station_id":"ce4bgj92rcd13ifvqbd0","pricing_plan_id":"cebpf4jnsgd1na2vs0mg"},{"bike_id":"45dce166-316a-4135-9e35-25f23e240924","system_id":"levelo_inurba_marseille","lat":43.23894,"lon":5.37458,"is_reserved":false,"is_disabled":false,"rental_uris":{"android":"levelo://app?vid=45dce166-316a-4135-9e35-25f23e240924","ios":"levelo://app?vid=45dce166-316a-4135-9e35-25f23e240924"},"vehicle_type_id":"4","last_reported":1774341497,"current_range_meters":4000,"station_id":"st_d6sm7csbq4hs73f8fpjg","pricing_plan_id":"cebpf4jnsgd1na2vs0mg"},{"bike_id":"1143d4ec-ebb9-411a-b269-cd3888575505","system_id":"levelo_inurba_marseille","lat":43.3095,"lon":5.36936,"is_reserved":false,"is_disabled":false,"rental_uris":{"android":"levelo://app?vid=1143d4ec-ebb9-411a-b269-cd3888575505","ios":"levelo://app?vid=1143d4ec-ebb9-411a-b269-cd3888575505"},"vehicle_type_id":"4","last_reported":1774341497,"current_range_meters":4000,"station_id":"","pricing_plan_id":"cebpf4jnsgd1na2vs0mg"},{"bike_id":"e03c399d-9358-47c3-bf08-3dd11dfc9a9f","system_id":"levelo_inurba_marseille","lat":43.30907,"lon":5.3684,"is_reserved":false,"is_disabled":false,"rental_uris":{"android":"levelo://app?vid=e03c399d-9358-47c3-bf08-3dd11dfc9a9f","ios":"levelo://app?vid=e03c399d-9358-47c3-bf08-3dd11dfc9a9f"},"vehicle_type_id":"4","last_reported":1774341497,"current_range_meters":4000,"station_id":"ce4bgn92rcd13ifvqbvg","pricing_plan_id":"cebpf4jnsgd1na2vs0mg"},{"bike_id":"e33e44b3-6742-4d53-bcb6-714865b6cd9c","system_id":"levelo_inurba_marseille","lat":43.30135,"lon":5.38794,"is_reserved":false,"is_disabled":true,"rental_uris":{"android":"levelo://app?vid=e33e44b3-6742-4d53-bcb6-714865b6cd9c","ios":"levelo://app?vid=e33e44b3-6742-4d53-bcb6-714865b6cd9c"},"vehicle_type_id":"4","last_reported":1774341497,"current_range_meters":4000,"station_id":"ce4bghh2rcd13ifvqb60","pricing_plan_id":"cebpf4jnsgd1na2vs0mg"},{"bike_id":"b207dab1-3250-4004-981c-5514248a7bc0","system_id":"levelo_inurba_marseille","lat":43.24222,"lon":5.41151,"is_reserved":false,"is_disabled":false,"rental_uris":{"android":"levelo://app?vid=b207dab1-3250-4004-981c-5514248a7bc0","ios":"levelo://app?vid=b207dab1-3250-4004-981c-5514248a7bc0"},"vehicle_type_id":"4","last_reported":1774341497,"current_range_meters":4000,"station_id":"","pricing_plan_id":"cebpf4jnsgd1na2vs0mg"},{"bike_id":"6a361988-483c-4fea-b668-fae45fefb959","system_id":"levelo_inurba_marseille","lat":43.32115,"lon":5.36793,"is_reserved":false,"is_disabled":false,"rental_uris":{"android":"levelo://app?vid=6a361988-483c-4fea-b668-fae45fefb959","ios":"levelo://app?vid=6a361988-483c-4fea-b668-fae45fefb959"},"vehicle_type_id":"4","last_reported":1774341497,"current_range_meters":4400,"station_id":"ce4bhrh2rcd13ifvqhug","pricing_plan_id":"cebpf4jnsgd1na2vs0mg"},{"bike_id":"fdcfb309-7b42-4850-beef-733c900c13f3","system_id":"levelo_inurba_marseille","lat":43.28975,"lon":5.37836,"is_reserved":false,"is_disabled":false,"rental_uris":{"android":"levelo://app?vid=fdcfb309-7b42-4850-beef-733c900c13f3","ios":"levelo://app?vid=fdcfb309-7b42-4850-beef-733c900c13f3"},"vehicle_type_id":"4","last_reported":1774341497,"current_range_meters":4400,"station_id":"ce4bh9p2rcd13ifvqed0","pricing_plan_id":"cebpf4jnsgd1na2vs0mg"},{"bike_id":"134ec09b-de3e-41f0-93c9-aa86737c6894","system_id":"levelo_inurba_marseille","lat":43.32503,"lon":5.38306,"is_reserved":false,"is_disabled":false,"rental_uris":{"android":"levelo://app?vid=134ec09b-de3e-41f0-93c9-aa86737c6894","ios":"levelo://app?vid=134ec09b-de3e-41f0-93c9-aa86737c6894"},"vehicle_type_id":"4","last_reported":1774341497,"current_range_meters":4400,"station_id":"st_d4asgbiv49dc73anf9m0","pricing_plan_id":"cebpf4jnsgd1na2vs0mg"},{"bike_id":"3e17c080-334a-421a-b58f-3f2a4143f5ae","system_id":"levelo_inurba_marseille","lat":43.26469,"lon":5.39557,"is_reserved":false,"is_disabled":false,"rental_uris":{"android":"levelo://app?vid=3e17c080-334a-421a-b58f-3f2a4143f5ae","ios":"levelo://app?vid=3e17c080-334a-421a-b58f-3f2a4143f5ae"},"vehicle_type_id":"4","last_reported":1774341497,"current_range_meters":4400,"station_id":"ce4bhi12rcd13ifvqfq0","pricing_plan_id":"cebpf4jnsgd1na2vs0mg"},{"bike_id":"4d88734a-162e-4307-92a3-61e5ee7aa63f","system_id":"levelo_inurba_marseille","lat":43.29205,"lon":5.42586,"is_reserved":false,"is_disabled":true,"rental_uris":{"android":"levelo://app?vid=4d88734a-162e-4307-92a3-61e5ee7aa63f","ios":"levelo://app?vid=4d88734a-162e-4307-92a3-61e5ee7aa63f"},"vehicle_type_id":"4","last_reported":1774341497,"current_range_meters":4400,"station_id":"","pricing_plan_id":"cebpf4jnsgd1na2vs0mg"},{"bike_id":"9f8c5aae-214b-4b16-b28e-49c211477f37","system_id":"levelo_inurba_marseille","lat":43.2854,"lon":5.44093,"is_reserved":false,"is_disabled":false,"rental_uris":{"android":"levelo://app?vid=9f8c5aae-214b-4b16-b28e-49c211477f37","ios":"levelo://app?vid=9f8c5aae-214b-4b16-b28e-49c211477f37"},"vehicle_type_id":"4","last_reported":1774341497,"current_range_meters":4400,"station_id":"st_d3j3df2ikq2c7380ej80","pricing_plan_id":"cebpf4jnsgd1na2vs0mg"},{"bike_id":"c1af2eca-cb1d-451f-a2e9-025bc5e4557d","system_id":"levelo_inurba_marseille","lat":43.302,"lon":5.366,"is_reserved":false,"is_disabled":false,"rental_uris":{"android":"levelo://app?vid=c1af2eca-cb1d-451f-a2e9-025bc5e4557d","ios":"levelo://app?vid=c1af2eca-cb1d-451f-a2e9-025bc5e4557d"},"vehicle_type_id":"4","last_reported":1774341497,"current_range_meters":4400,"station_id":"ce4bgrh2rcd13ifvqc8g","pricing_plan_id":"cebpf4jnsgd1na2vs0mg"},{"bike_id":"7b6c8f1e-bc5a-4218-9383-b05da73318e0","system_id":"levelo_inurba_marseille","lat":43.32363,"lon":5.36747,"is_reserved":false,"is_disabled":false,"rental_uris":{"android":"levelo://app?vid=7b6c8f1e-bc5a-4218-9383-b05da73318e0","ios":"levelo://app?vid=7b6c8f1e-bc5a-4218-9383-b05da73318e0"},"vehicle_type_id":"4","last_reported":1774341497,"current_range_meters":4800,"station_id":"ce4bhsh2rcd13ifvqi2g","pricing_plan_id":"cebpf4jnsgd1na2vs0mg"},{"bike_id":"b27bd564-b966-4fad-baab-5d269eba48d9","system_id":"levelo_inurba_marseille","lat":43.30328,"lon":5.36919,"is_reserved":false,"is_disabled":false,"rental_uris":{"android":"levelo://app?vid=b27bd564-b966-4fad-baab-5d269eba48d9","ios":"levelo://app?vid=b27bd564-b966-4fad-baab-5d269eba48d9"},"vehicle_type_id":"4","last_reported":1774341497,"current_range_meters":4800,"station_id":"ce4bgqh2rcd13ifvqc5g","pricing_plan_id":"cebpf4jnsgd1na2vs0mg"},{"bike_id":"a941ca79-c8d5-4e1d-baab-7c94c20ef5c6","system_id":"levelo_inurba_marseille","lat":43.29551,"lon":5.39975,"is_reserved":false,"is_disabled":false,"rental_uris":{"android":"levelo://app?vid=a941ca79-c8d5-4e1d-baab-7c94c20ef5c6","ios":"levelo://app?vid=a941ca79-c8d5-4e1d-baab-7c94c20ef5c6"},"vehicle_type_id":"4","last_reported":1774341497,"current_range_meters":4800,"station_id":"ce4bh312rcd13ifvqdj0","pricing_plan_id":"cebpf4jnsgd1na2vs0mg"},{"bike_id":"41172bf4-9073-4c63-9a20-35e7325b6630","system_id":"levelo_inurba_marseille","lat":43.27069,"lon":5.42289,"is_reserved":false,"is_disabled":false,"rental_uris":{"android":"levelo://app?vid=41172bf4-9073-4c63-9a20-35e7325b6630","ios":"levelo://app?vid=41172bf4-9073-4c63-9a20-35e7325b6630"},"vehicle_type_id":"4","last_reported":1774341497,"current_range_meters":4800,"station_id":"ce4bhk92rcd13ifvqgb0","pricing_plan_id":"cebpf4jnsgd1na2vs0mg"},{"bike_id":"c0ede030-ab9a-4615-a9c7-01479ac5ac50","system_id":"levelo_inurba_marseille","lat":43.2667,"lon":5.38267,"is_reserved":false,"is_disabled":false,"rental_uris":{"android":"levelo://app?vid=c0ede030-ab9a-4615-a9c7-01479ac5ac50","ios":"levelo://app?vid=c0ede030-ab9a-4615-a9c7-01479ac5ac50"},"vehicle_type_id":"4","last_reported":1774341497,"current_range_meters":4800,"station_id":"ce4bhg92rcd13ifvqf90","pricing_plan_id":"cebpf4jnsgd1na2vs0mg"},{"bike_id":"cd77c72d-45c0-4926-91d9-dfce0e819382","system_id":"levelo_inurba_marseille","lat":43.29029,"lon":5.38643,"is_reserved":false,"is_disabled":false,"rental_uris":{"android":"levelo://app?vid=cd77c72d-45c0-4926-91d9-dfce0e819382","ios":"levelo://app?vid=cd77c72d-45c0-4926-91d9-dfce0e819382"},"vehicle_type_id":"4","last_reported":1774341497,"current_range_meters":4800,"station_id":"ce4bh4p2rcd13ifvqe0g","pricing_plan_id":"cebpf4jnsgd1na2vs0mg"},{"bike_id":"0add2a96-b6be-483b-ad2e-88265dc5481b","system_id":"levelo_inurba_marseille","lat":43.23894,"lon":5.3746,"is_reserved":false,"is_disabled":false,"rental_uris":{"android":"levelo://app?vid=0add2a96-b6be-483b-ad2e-88265dc5481b","ios":"levelo://app?vid=0add2a96-b6be-483b-ad2e-88265dc5481b"},"vehicle_type_id":"4","last_reported":1774341497,"current_range_meters":4800,"station_id":"st_d6sm7csbq4hs73f8fpjg","pricing_plan_id":"cebpf4jnsgd1na2vs0mg"},{"bike_id":"87cab354-e36c-4dc9-949d-1832434988fa","system_id":"levelo_inurba_marseille","lat":43.31318,"lon":5.38421,"is_reserved":false,"is_disabled":false,"rental_uris":{"android":"levelo://app?vid=87cab354-e36c-4dc9-949d-1832434988fa","ios":"levelo://app?vid=87cab354-e36c-4dc9-949d-1832434988fa"},"vehicle_type_id":"4","last_reported":1774341497,"current_range_meters":4800,"station_id":"","pricing_plan_id":"cebpf4jnsgd1na2vs0mg"},{"bike_id":"3f595750-3ba3-40fd-aaea-a3ea0fd581bb","system_id":"levelo_inurba_marseille","lat":43.26332,"lon":5.41061,"is_reserved":false,"is_disabled":false,"rental_uris":{"android":"levelo://app?vid=3f595750-3ba3-40fd-aaea-a3ea0fd581bb","ios":"levelo://app?vid=3f595750-3ba3-40fd-aaea-a3ea0fd581bb"},"vehicle_type_id":"4","last_reported":1774341497,"current_range_meters":4800,"station_id":"st_d4e5ca6na9uc73bfl5fg","pricing_plan_id":"cebpf4jnsgd1na2vs0mg"},{"bike_id":"4b159fff-61f1-49df-a775-c5d0a2ea5786","system_id":"levelo_inurba_marseille","lat":43.30563,"lon":5.36534,"is_reserved":false,"is_disabled":false,"rental_uris":{"android":"levelo://app?vid=4b159fff-61f1-49df-a775-c5d0a2ea5786","ios":"levelo://app?vid=4b159fff-61f1-49df-a775-c5d0a2ea5786"},"vehicle_type_id":"4","last_reported":1774341497,"current_range_meters":5600,"station_id":"ce4bgs12rcd13ifvqcag","pricing_plan_id":"cebpf4jnsgd1na2vs0mg"},{"bike_id":"bf5af6f8-69a5-4b76-be3f-994c76781739","system_id":"levelo_inurba_marseille","lat":43.26566,"lon":5.39028,"is_reserved":false,"is_disabled":true,"rental_uris":{"android":"levelo://app?vid=bf5af6f8-69a5-4b76-be3f-994c76781739","ios":"levelo://app?vid=bf5af6f8-69a5-4b76-be3f-994c76781739"},"vehicle_type_id":"4","last_reported":1774341497,"current_range_meters":5600,"station_id":"ce4bhe12rcd13ifvqf30","pricing_plan_id":"cebpf4jnsgd1na2vs0mg"},{"bike_id":"2a5f80a6-a530-40e8-8b57-fb3c7d7e0c72","system_id":"levelo_inurba_marseille","lat":43.25935,"lon":5.409,"is_reserved":false,"is_disabled":false,"rental_uris":{"android":"levelo://app?vid=2a5f80a6-a530-40e8-8b57-fb3c7d7e0c72","ios":"levelo://app?vid=2a5f80a6-a530-40e8-8b57-fb3c7d7e0c72"},"vehicle_type_id":"4","last_reported":1774341497,"current_range_meters":5600,"station_id":"ce4bhm92rcd13ifvqglg","pricing_plan_id":"cebpf4jnsgd1na2vs0mg"},{"bike_id":"7138f3d0-d80a-478e-a513-940d807a157a","system_id":"levelo_inurba_marseille","lat":43.28334,"lon":5.38099,"is_reserved":false,"is_disabled":false,"rental_uris":{"android":"levelo://app?vid=7138f3d0-d80a-478e-a513-940d807a157a","ios":"levelo://app?vid=7138f3d0-d80a-478e-a513-940d807a157a"},"vehicle_type_id":"4","last_reported":1774341497,"current_range_meters":5600,"station_id":"ce4bh412rcd13ifvqdr0","pricing_plan_id":"cebpf4jnsgd1na2vs0mg"},{"bike_id":"bbb20be4-a4e3-4756-bf9e-de6efa0abbb9","system_id":"levelo_inurba_marseille","lat":43.29224,"lon":5.42606,"is_reserved":false,"is_disabled":false,"rental_uris":{"android":"levelo://app?vid=bbb20be4-a4e3-4756-bf9e-de6efa0abbb9","ios":"levelo://app?vid=bbb20be4-a4e3-4756-bf9e-de6efa0abbb9"},"vehicle_type_id":"4","last_reported":1774341497,"current_range_meters":5600,"station_id":"","pricing_plan_id":"cebpf4jnsgd1na2vs0mg"},{"bike_id":"24f866d7-4e87-45b2-8d49-c3d4a9d235b7","system_id":"levelo_inurba_marseille","lat":43.30904,"lon":5.36865,"is_reserved":false,"is_disabled":false,"rental_uris":{"android":"levelo://app?vid=24f866d7-4e87-45b2-8d49-c3d4a9d235b7","ios":"levelo://app?vid=24f866d7-4e87-45b2-8d49-c3d4a9d235b7"},"vehicle_type_id":"4","last_reported":1774341497,"current_range_meters":5600,"station_id":"ce4bgn92rcd13ifvqbvg","pricing_plan_id":"cebpf4jnsgd1na2vs0mg"},{"bike_id":"721cfa1d-7039-41dc-a600-4a7b81e0fa79","system_id":"levelo_inurba_marseille","lat":43.29586,"lon":5.37732,"is_reserved":false,"is_disabled":false,"rental_uris":{"android":"levelo://app?vid=721cfa1d-7039-41dc-a600-4a7b81e0fa79","ios":"levelo://app?vid=721cfa1d-7039-41dc-a600-4a7b81e0fa79"},"vehicle_type_id":"4","last_reported":1774341497,"current_range_meters":5600,"station_id":"ce4bgi92rcd13ifvqb90","pricing_plan_id":"cebpf4jnsgd1na2vs0mg"},{"bike_id":"18e2f97e-453d-4b92-92f8-ca28a1859cd9","system_id":"levelo_inurba_marseille","lat":43.31342,"lon":5.36715,"is_reserved":false,"is_disabled":false,"rental_uris":{"android":"levelo://app?vid=18e2f97e-453d-4b92-92f8-ca28a1859cd9","ios":"levelo://app?vid=18e2f97e-453d-4b92-92f8-ca28a1859cd9"},"vehicle_type_id":"4","last_reported":1774341497,"current_range_meters":5600,"station_id":"ce4bgr92rcd13ifvqc6g","pricing_plan_id":"cebpf4jnsgd1na2vs0mg"},{"bike_id":"91a59853-688c-43ce-9120-159216f2448c","system_id":"levelo_inurba_marseille","lat":43.25719,"lon":5.41112,"is_reserved":false,"is_disabled":false,"rental_uris":{"android":"levelo://app?vid=91a59853-688c-43ce-9120-159216f2448c","ios":"levelo://app?vid=91a59853-688c-43ce-9120-159216f2448c"},"vehicle_type_id":"4","last_reported":1774341497,"current_range_meters":5600,"station_id":"ce4bhkp2rcd13ifvqgd0","pricing_plan_id":"cebpf4jnsgd1na2vs0mg"},{"bike_id":"801aedc6-324f-46c7-8ddd-275b629d5f3c","system_id":"levelo_inurba_marseille","lat":43.28541,"lon":5.44109,"is_reserved":false,"is_disabled":false,"rental_uris":{"android":"levelo://app?vid=801aedc6-324f-46c7-8ddd-275b629d5f3c","ios":"levelo://app?vid=801aedc6-324f-46c7-8ddd-275b629d5f3c"},"vehicle_type_id":"4","last_reported":1774341497,"current_range_meters":5600,"station_id":"st_d3j3df2ikq2c7380ej80","pricing_plan_id":"cebpf4jnsgd1na2vs0mg"},{"bike_id":"c407ccdd-5670-47ef-93cf-4509ec85f728","system_id":"levelo_inurba_marseille","lat":43.31366,"lon":5.3672,"is_reserved":false,"is_disabled":false,"rental_uris":{"android":"levelo://app?vid=c407ccdd-5670-47ef-93cf-4509ec85f728","ios":"levelo://app?vid=c407ccdd-5670-47ef-93cf-4509ec85f728"},"vehicle_type_id":"4","last_reported":1774341497,"current_range_meters":6000,"station_id":"ce4bgr92rcd13ifvqc6g","pricing_plan_id":"cebpf4jnsgd1na2vs0mg"},{"bike_id":"9ee9e783-2c85-4849-91db-12992211c84e","system_id":"levelo_inurba_marseille","lat":43.23138,"lon":5.43713,"is_reserved":false,"is_disabled":false,"rental_uris":{"android":"levelo://app?vid=9ee9e783-2c85-4849-91db-12992211c84e","ios":"levelo://app?vid=9ee9e783-2c85-4849-91db-12992211c84e"},"vehicle_type_id":"4","last_reported":1774341497,"current_range_meters":6400,"station_id":"ce4bhmp2rcd13ifvqgog","pricing_plan_id":"cebpf4jnsgd1na2vs0mg"},{"bike_id":"053d7caf-bf7e-4339-a603-3c4fc241d05e","system_id":"levelo_inurba_marseille","lat":43.30265,"lon":5.37703,"is_reserved":false,"is_disabled":false,"rental_uris":{"android":"levelo://app?vid=053d7caf-bf7e-4339-a603-3c4fc241d05e","ios":"levelo://app?vid=053d7caf-bf7e-4339-a603-3c4fc241d05e"},"vehicle_type_id":"4","last_reported":1774341497,"current_range_meters":6400,"station_id":"ce4bguh2rcd13ifvqcj0","pricing_plan_id":"cebpf4jnsgd1na2vs0mg"},{"bike_id":"a2fabdf4-bd61-4352-82b4-201f5349c59d","system_id":"levelo_inurba_marseille","lat":43.26559,"lon":5.39015,"is_reserved":false,"is_disabled":true,"rental_uris":{"android":"levelo://app?vid=a2fabdf4-bd61-4352-82b4-201f5349c59d","ios":"levelo://app?vid=a2fabdf4-bd61-4352-82b4-201f5349c59d"},"vehicle_type_id":"4","last_reported":1774341497,"current_range_meters":6400,"station_id":"ce4bhe12rcd13ifvqf30","pricing_plan_id":"cebpf4jnsgd1na2vs0mg"},{"bike_id":"e41c893a-4032-48f3-bf3a-8efcbfe1465c","system_id":"levelo_inurba_marseille","lat":43.25852,"lon":5.39449,"is_reserved":false,"is_disabled":true,"rental_uris":{"android":"levelo://app?vid=e41c893a-4032-48f3-bf3a-8efcbfe1465c","ios":"levelo://app?vid=e41c893a-4032-48f3-bf3a-8efcbfe1465c"},"vehicle_type_id":"4","last_reported":1774341497,"current_range_meters":6400,"station_id":"ce4bhip2rcd13ifvqft0","pricing_plan_id":"cebpf4jnsgd1na2vs0mg"},{"bike_id":"1d0f3067-7ca2-4fbd-8b40-b921c6748a4a","system_id":"levelo_inurba_marseille","lat":43.28454,"lon":5.48414,"is_reserved":false,"is_disabled":false,"rental_uris":{"android":"levelo://app?vid=1d0f3067-7ca2-4fbd-8b40-b921c6748a4a","ios":"levelo://app?vid=1d0f3067-7ca2-4fbd-8b40-b921c6748a4a"},"vehicle_type_id":"4","last_reported":1774341497,"current_range_meters":6400,"station_id":"","pricing_plan_id":"cebpf4jnsgd1na2vs0mg"},{"bike_id":"203d2434-a090-4c32-b00d-a405dcbaad39","system_id":"levelo_inurba_marseille","lat":43.28976,"lon":5.37829,"is_reserved":false,"is_disabled":false,"rental_uris":{"android":"levelo://app?vid=203d2434-a090-4c32-b00d-a405dcbaad39","ios":"levelo://app?vid=203d2434-a090-4c32-b00d-a405dcbaad39"},"vehicle_type_id":"4","last_reported":1774341497,"current_range_meters":6400,"station_id":"ce4bh9p2rcd13ifvqed0","pricing_plan_id":"cebpf4jnsgd1na2vs0mg"},{"bike_id":"67fa727b-a75e-43f5-8f7f-0420dd73f369","system_id":"levelo_inurba_marseille","lat":43.31509,"lon":5.37253,"is_reserved":false,"is_disabled":false,"rental_uris":{"android":"levelo://app?vid=67fa727b-a75e-43f5-8f7f-0420dd73f369","ios":"levelo://app?vid=67fa727b-a75e-43f5-8f7f-0420dd73f369"},"vehicle_type_id":"4","last_reported":1774341497,"current_range_meters":6400,"station_id":"","pricing_plan_id":"cebpf4jnsgd1na2vs0mg"},{"bike_id":"72999db3-62c4-4d6b-9c7f-3129997c7dc6","system_id":"levelo_inurba_marseille","lat":43.28128,"lon":5.40944,"is_reserved":false,"is_disabled":false,"rental_uris":{"android":"levelo://app?vid=72999db3-62c4-4d6b-9c7f-3129997c7dc6","ios":"levelo://app?vid=72999db3-62c4-4d6b-9c7f-3129997c7dc6"},"vehicle_type_id":"4","last_reported":1774341497,"current_range_meters":6400,"station_id":"","pricing_plan_id":"cebpf4jnsgd1na2vs0mg"},{"bike_id":"6ca3922c-b8e6-48a1-8678-c04367c2e0a3","system_id":"levelo_inurba_marseille","lat":43.24091,"lon":5.37757,"is_reserved":false,"is_disabled":false,"rental_uris":{"android":"levelo://app?vid=6ca3922c-b8e6-48a1-8678-c04367c2e0a3","ios":"levelo://app?vid=6ca3922c-b8e6-48a1-8678-c04367c2e0a3"},"vehicle_type_id":"4","last_reported":1774341497,"current_range_meters":6400,"station_id":"ce4bhnp2rcd13ifvqgvg","pricing_plan_id":"cebpf4jnsgd1na2vs0mg"},{"bike_id":"d2260517-36eb-498b-95a6-a249410b03cf","system_id":"levelo_inurba_marseille","lat":43.26578,"lon":5.39815,"is_reserved":false,"is_disabled":false,"rental_uris":{"android":"levelo://app?vid=d2260517-36eb-498b-95a6-a249410b03cf","ios":"levelo://app?vid=d2260517-36eb-498b-95a6-a249410b03cf"},"vehicle_type_id":"4","last_reported":1774341497,"current_range_meters":6400,"station_id":"","pricing_plan_id":"cebpf4jnsgd1na2vs0mg"},{"bike_id":"a79f30c6-bfcd-4d19-9257-2c133e759681","system_id":"levelo_inurba_marseille","lat":43.29608,"lon":5.38082,"is_reserved":false,"is_disabled":false,"rental_uris":{"android":"levelo://app?vid=a79f30c6-bfcd-4d19-9257-2c133e759681","ios":"levelo://app?vid=a79f30c6-bfcd-4d19-9257-2c133e759681"},"vehicle_type_id":"4","last_reported":1774341497,"current_range_meters":6400,"station_id":"ce4bgl12rcd13ifvqbo0","pricing_plan_id":"cebpf4jnsgd1na2vs0mg"},{"bike_id":"bbcec521-b2cb-4752-a30b-3cc813f9ce07","system_id":"levelo_inurba_marseille","lat":43.2873,"lon":5.4486,"is_reserved":false,"is_disabled":false,"rental_uris":{"android":"levelo://app?vid=bbcec521-b2cb-4752-a30b-3cc813f9ce07","ios":"levelo://app?vid=bbcec521-b2cb-4752-a30b-3cc813f9ce07"},"vehicle_type_id":"4","last_reported":1774341497,"current_range_meters":6400,"station_id":"","pricing_plan_id":"cebpf4jnsgd1na2vs0mg"},{"bike_id":"fd4c652f-19a4-4deb-b930-9fdbed17a9b7","system_id":"levelo_inurba_marseille","lat":43.29886,"lon":5.37483,"is_reserved":false,"is_disabled":false,"rental_uris":{"android":"levelo://app?vid=fd4c652f-19a4-4deb-b930-9fdbed17a9b7","ios":"levelo://app?vid=fd4c652f-19a4-4deb-b930-9fdbed17a9b7"},"vehicle_type_id":"4","last_reported":1774341497,"current_range_meters":6400,"station_id":"ce4bgjh2rcd13ifvqbg0","pricing_plan_id":"cebpf4jnsgd1na2vs0mg"},{"bike_id":"883ac642-aa93-440f-8991-0aee71836f6a","system_id":"levelo_inurba_marseille","lat":43.27815,"lon":5.40719,"is_reserved":false,"is_disabled":false,"rental_uris":{"android":"levelo://app?vid=883ac642-aa93-440f-8991-0aee71836f6a","ios":"levelo://app?vid=883ac642-aa93-440f-8991-0aee71836f6a"},"vehicle_type_id":"4","last_reported":1774341497,"current_range_meters":6400,"station_id":"ce4bhnh2rcd13ifvqgtg","pricing_plan_id":"cebpf4jnsgd1na2vs0mg"},{"bike_id":"98aa1c8a-7d98-4320-b367-9e51480a2f7e","system_id":"levelo_inurba_marseille","lat":43.33539,"lon":5.37472,"is_reserved":false,"is_disabled":false,"rental_uris":{"android":"levelo://app?vid=98aa1c8a-7d98-4320-b367-9e51480a2f7e","ios":"levelo://app?vid=98aa1c8a-7d98-4320-b367-9e51480a2f7e"},"vehicle_type_id":"4","last_reported":1774341497,"current_range_meters":6400,"station_id":"","pricing_plan_id":"cebpf4jnsgd1na2vs0mg"},{"bike_id":"96ef8b23-5054-4ed2-9788-4da8cf353732","system_id":"levelo_inurba_marseille","lat":43.25932,"lon":5.40899,"is_reserved":false,"is_disabled":false,"rental_uris":{"android":"levelo://app?vid=96ef8b23-5054-4ed2-9788-4da8cf353732","ios":"levelo://app?vid=96ef8b23-5054-4ed2-9788-4da8cf353732"},"vehicle_type_id":"4","last_reported":1774341497,"current_range_meters":6400,"station_id":"ce4bhm92rcd13ifvqglg","pricing_plan_id":"cebpf4jnsgd1na2vs0mg"},{"bike_id":"40906df4-17dd-4d9f-ac1f-0880c5eb117e","system_id":"levelo_inurba_marseille","lat":43.32388,"lon":5.36784,"is_reserved":false,"is_disabled":false,"rental_uris":{"android":"levelo://app?vid=40906df4-17dd-4d9f-ac1f-0880c5eb117e","ios":"levelo://app?vid=40906df4-17dd-4d9f-ac1f-0880c5eb117e"},"vehicle_type_id":"4","last_reported":1774341497,"current_range_meters":6800,"station_id":"","pricing_plan_id":"cebpf4jnsgd1na2vs0mg"},{"bike_id":"70f8d488-4403-4061-8339-e4440f67f142","system_id":"levelo_inurba_marseille","lat":43.30885,"lon":5.39644,"is_reserved":false,"is_disabled":false,"rental_uris":{"android":"levelo://app?vid=70f8d488-4403-4061-8339-e4440f67f142","ios":"levelo://app?vid=70f8d488-4403-4061-8339-e4440f67f142"},"vehicle_type_id":"4","last_reported":1774341497,"current_range_meters":6800,"station_id":"ce4bh012rcd13ifvqcv0","pricing_plan_id":"cebpf4jnsgd1na2vs0mg"},{"bike_id":"2593cae9-07d2-4801-88ca-9c556e6b12e5","system_id":"levelo_inurba_marseille","lat":43.30905,"lon":5.36853,"is_reserved":false,"is_disabled":false,"rental_uris":{"android":"levelo://app?vid=2593cae9-07d2-4801-88ca-9c556e6b12e5","ios":"levelo://app?vid=2593cae9-07d2-4801-88ca-9c556e6b12e5"},"vehicle_type_id":"4","last_reported":1774341497,"current_range_meters":6800,"station_id":"ce4bgn92rcd13ifvqbvg","pricing_plan_id":"cebpf4jnsgd1na2vs0mg"},{"bike_id":"80322e6f-586a-421f-ad90-23d802ed8962","system_id":"levelo_inurba_marseille","lat":43.24075,"lon":5.37758,"is_reserved":false,"is_disabled":false,"rental_uris":{"android":"levelo://app?vid=80322e6f-586a-421f-ad90-23d802ed8962","ios":"levelo://app?vid=80322e6f-586a-421f-ad90-23d802ed8962"},"vehicle_type_id":"4","last_reported":1774341497,"current_range_meters":6800,"station_id":"ce4bhnp2rcd13ifvqgvg","pricing_plan_id":"cebpf4jnsgd1na2vs0mg"},{"bike_id":"a9fcd02c-7b6b-4ad8-a39d-d88606ee3ac0","system_id":"levelo_inurba_marseille","lat":43.25008,"lon":5.38917,"is_reserved":false,"is_disabled":true,"rental_uris":{"android":"levelo://app?vid=a9fcd02c-7b6b-4ad8-a39d-d88606ee3ac0","ios":"levelo://app?vid=a9fcd02c-7b6b-4ad8-a39d-d88606ee3ac0"},"vehicle_type_id":"4","last_reported":1774341497,"current_range_meters":6800,"station_id":"ce4bhgp2rcd13ifvqfd0","pricing_plan_id":"cebpf4jnsgd1na2vs0mg"},{"bike_id":"ee698121-d38a-42d7-b2ad-b69bddb1a86c","system_id":"levelo_inurba_marseille","lat":43.28441,"lon":5.34997,"is_reserved":false,"is_disabled":false,"rental_uris":{"android":"levelo://app?vid=ee698121-d38a-42d7-b2ad-b69bddb1a86c","ios":"levelo://app?vid=ee698121-d38a-42d7-b2ad-b69bddb1a86c"},"vehicle_type_id":"4","last_reported":1774341497,"current_range_meters":6800,"station_id":"ce4bhbh2rcd13ifvqepg","pricing_plan_id":"cebpf4jnsgd1na2vs0mg"},{"bike_id":"177c45f7-f11e-43b9-b2f9-1f790a42002f","system_id":"levelo_inurba_marseille","lat":43.31335,"lon":5.36724,"is_reserved":false,"is_disabled":false,"rental_uris":{"android":"levelo://app?vid=177c45f7-f11e-43b9-b2f9-1f790a42002f","ios":"levelo://app?vid=177c45f7-f11e-43b9-b2f9-1f790a42002f"},"vehicle_type_id":"4","last_reported":1774341497,"current_range_meters":6800,"station_id":"ce4bgr92rcd13ifvqc6g","pricing_plan_id":"cebpf4jnsgd1na2vs0mg"},{"bike_id":"88ea6883-c6c4-40a1-8e0b-5a327dfa70dd","system_id":"levelo_inurba_marseille","lat":43.24056,"lon":5.37769,"is_reserved":false,"is_disabled":false,"rental_uris":{"android":"levelo://app?vid=88ea6883-c6c4-40a1-8e0b-5a327dfa70dd","ios":"levelo://app?vid=88ea6883-c6c4-40a1-8e0b-5a327dfa70dd"},"vehicle_type_id":"4","last_reported":1774341497,"current_range_meters":6800,"station_id":"ce4bhnp2rcd13ifvqgvg","pricing_plan_id":"cebpf4jnsgd1na2vs0mg"},{"bike_id":"e3b76d08-9638-41fb-992e-9889dd2115d8","system_id":"levelo_inurba_marseille","lat":43.33606,"lon":5.4103,"is_reserved":false,"is_disabled":false,"rental_uris":{"android":"levelo://app?vid=e3b76d08-9638-41fb-992e-9889dd2115d8","ios":"levelo://app?vid=e3b76d08-9638-41fb-992e-9889dd2115d8"},"vehicle_type_id":"4","last_reported":1774341497,"current_range_meters":6800,"station_id":"ce4bhqh2rcd13ifvqhmg","pricing_plan_id":"cebpf4jnsgd1na2vs0mg"},{"bike_id":"4ce98637-072f-4197-bd69-11f207a88eab","system_id":"levelo_inurba_marseille","lat":43.28496,"lon":5.47279,"is_reserved":false,"is_disabled":false,"rental_uris":{"android":"levelo://app?vid=4ce98637-072f-4197-bd69-11f207a88eab","ios":"levelo://app?vid=4ce98637-072f-4197-bd69-11f207a88eab"},"vehicle_type_id":"4","last_reported":1774341497,"current_range_meters":6800,"station_id":"","pricing_plan_id":"cebpf4jnsgd1na2vs0mg"},{"bike_id":"7d2e5880-8e1b-4d26-8fba-6b4e852927dd","system_id":"levelo_inurba_marseille","lat":43.29366,"lon":5.37837,"is_reserved":false,"is_disabled":false,"rental_uris":{"android":"levelo://app?vid=7d2e5880-8e1b-4d26-8fba-6b4e852927dd","ios":"levelo://app?vid=7d2e5880-8e1b-4d26-8fba-6b4e852927dd"},"vehicle_type_id":"4","last_reported":1774341497,"current_range_meters":6800,"station_id":"ce4bgjh2rcd13ifvqbf0","pricing_plan_id":"cebpf4jnsgd1na2vs0mg"},{"bike_id":"69a34fac-fc80-43dc-bb66-91eee3bdfb90","system_id":"levelo_inurba_marseille","lat":43.28732,"lon":5.35374,"is_reserved":false,"is_disabled":false,"rental_uris":{"android":"levelo://app?vid=69a34fac-fc80-43dc-bb66-91eee3bdfb90","ios":"levelo://app?vid=69a34fac-fc80-43dc-bb66-91eee3bdfb90"},"vehicle_type_id":"4","last_reported":1774341497,"current_range_meters":6800,"station_id":"","pricing_plan_id":"cebpf4jnsgd1na2vs0mg"},{"bike_id":"f1bc83ea-26fe-4df3-b9d3-8b9230193c14","system_id":"levelo_inurba_marseille","lat":43.26781,"lon":5.3942,"is_reserved":false,"is_disabled":false,"rental_uris":{"android":"levelo://app?vid=f1bc83ea-26fe-4df3-b9d3-8b9230193c14","ios":"levelo://app?vid=f1bc83ea-26fe-4df3-b9d3-8b9230193c14"},"vehicle_type_id":"4","last_reported":1774341497,"current_range_meters":6800,"station_id":"ce4bhh12rcd13ifvqfg0","pricing_plan_id":"cebpf4jnsgd1na2vs0mg"},{"bike_id":"ddd19851-2813-4f37-ad2a-16ff941ac458","system_id":"levelo_inurba_marseille","lat":43.26961,"lon":5.4027,"is_reserved":false,"is_disabled":false,"rental_uris":{"android":"levelo://app?vid=ddd19851-2813-4f37-ad2a-16ff941ac458","ios":"levelo://app?vid=ddd19851-2813-4f37-ad2a-16ff941ac458"},"vehicle_type_id":"4","last_reported":1774341497,"current_range_meters":6800,"station_id":"cjm6bp8fraef2m0cb0m0","pricing_plan_id":"cebpf4jnsgd1na2vs0mg"},{"bike_id":"1d4e3a03-a311-40a6-bbc3-9c5b094efb9a","system_id":"levelo_inurba_marseille","lat":43.25932,"lon":5.4091,"is_reserved":false,"is_disabled":false,"rental_uris":{"android":"levelo://app?vid=1d4e3a03-a311-40a6-bbc3-9c5b094efb9a","ios":"levelo://app?vid=1d4e3a03-a311-40a6-bbc3-9c5b094efb9a"},"vehicle_type_id":"4","last_reported":1774341497,"current_range_meters":6800,"station_id":"ce4bhm92rcd13ifvqglg","pricing_plan_id":"cebpf4jnsgd1na2vs0mg"},{"bike_id":"d89b1915-483d-4d09-b44a-47b8df915eef","system_id":"levelo_inurba_marseille","lat":43.231,"lon":5.35494,"is_reserved":false,"is_disabled":false,"rental_uris":{"android":"levelo://app?vid=d89b1915-483d-4d09-b44a-47b8df915eef","ios":"levelo://app?vid=d89b1915-483d-4d09-b44a-47b8df915eef"},"vehicle_type_id":"4","last_reported":1774341497,"current_range_meters":6800,"station_id":"","pricing_plan_id":"cebpf4jnsgd1na2vs0mg"},{"bike_id":"f910acab-e234-4475-91c9-ec3fea6d1bf3","system_id":"levelo_inurba_marseille","lat":43.29898,"lon":5.43674,"is_reserved":false,"is_disabled":false,"rental_uris":{"android":"levelo://app?vid=f910acab-e234-4475-91c9-ec3fea6d1bf3","ios":"levelo://app?vid=f910acab-e234-4475-91c9-ec3fea6d1bf3"},"vehicle_type_id":"4","last_reported":1774341497,"current_range_meters":7200,"station_id":"ce4bhpp2rcd13ifvqhfg","pricing_plan_id":"cebpf4jnsgd1na2vs0mg"},{"bike_id":"e777dc2e-9308-43c6-a6be-09685ee35cc2","system_id":"levelo_inurba_marseille","lat":43.28519,"lon":5.44114,"is_reserved":false,"is_disabled":false,"rental_uris":{"android":"levelo://app?vid=e777dc2e-9308-43c6-a6be-09685ee35cc2","ios":"levelo://app?vid=e777dc2e-9308-43c6-a6be-09685ee35cc2"},"vehicle_type_id":"4","last_reported":1774341497,"current_range_meters":7200,"station_id":"st_d3j3df2ikq2c7380ej80","pricing_plan_id":"cebpf4jnsgd1na2vs0mg"},{"bike_id":"5cca4b32-612b-471f-a02d-66912cbe70ff","system_id":"levelo_inurba_marseille","lat":43.21184,"lon":5.35078,"is_reserved":false,"is_disabled":true,"rental_uris":{"android":"levelo://app?vid=5cca4b32-612b-471f-a02d-66912cbe70ff","ios":"levelo://app?vid=5cca4b32-612b-471f-a02d-66912cbe70ff"},"vehicle_type_id":"4","last_reported":1774341497,"current_range_meters":7200,"station_id":"st_cvj6sg6p6f1abm77japg","pricing_plan_id":"cebpf4jnsgd1na2vs0mg"},{"bike_id":"aa929685-e4dd-4a31-a1c6-979463fa81a3","system_id":"levelo_inurba_marseille","lat":43.28466,"lon":5.48419,"is_reserved":false,"is_disabled":false,"rental_uris":{"android":"levelo://app?vid=aa929685-e4dd-4a31-a1c6-979463fa81a3","ios":"levelo://app?vid=aa929685-e4dd-4a31-a1c6-979463fa81a3"},"vehicle_type_id":"4","last_reported":1774341497,"current_range_meters":7200,"station_id":"st_d3svhcjqgbts73a3dn0g","pricing_plan_id":"cebpf4jnsgd1na2vs0mg"},{"bike_id":"de080062-3a9b-4bf2-bc8f-71e6332f2301","system_id":"levelo_inurba_marseille","lat":43.21743,"lon":5.34579,"is_reserved":false,"is_disabled":false,"rental_uris":{"android":"levelo://app?vid=de080062-3a9b-4bf2-bc8f-71e6332f2301","ios":"levelo://app?vid=de080062-3a9b-4bf2-bc8f-71e6332f2301"},"vehicle_type_id":"4","last_reported":1774341497,"current_range_meters":7200,"station_id":"st_cvj6r9ubvosntc0bgbag","pricing_plan_id":"cebpf4jnsgd1na2vs0mg"},{"bike_id":"c3fb6ac0-526f-4836-98cf-d46bdb9ad792","system_id":"levelo_inurba_marseille","lat":43.31059,"lon":5.37136,"is_reserved":false,"is_disabled":false,"rental_uris":{"android":"levelo://app?vid=c3fb6ac0-526f-4836-98cf-d46bdb9ad792","ios":"levelo://app?vid=c3fb6ac0-526f-4836-98cf-d46bdb9ad792"},"vehicle_type_id":"4","last_reported":1774341497,"current_range_meters":7200,"station_id":"st_d4kl2rp97mjs73e7tdfg","pricing_plan_id":"cebpf4jnsgd1na2vs0mg"},{"bike_id":"073c79ac-ecc6-41bf-afbb-1751ccb98970","system_id":"levelo_inurba_marseille","lat":43.29248,"lon":5.38436,"is_reserved":false,"is_disabled":false,"rental_uris":{"android":"levelo://app?vid=073c79ac-ecc6-41bf-afbb-1751ccb98970","ios":"levelo://app?vid=073c79ac-ecc6-41bf-afbb-1751ccb98970"},"vehicle_type_id":"4","last_reported":1774341497,"current_range_meters":7200,"station_id":"ce4bh692rcd13ifvqea0","pricing_plan_id":"cebpf4jnsgd1na2vs0mg"},{"bike_id":"3f30f2ff-40f2-4f9d-996a-0de8bac95dfa","system_id":"levelo_inurba_marseille","lat":43.26579,"lon":5.37319,"is_reserved":false,"is_disabled":false,"rental_uris":{"android":"levelo://app?vid=3f30f2ff-40f2-4f9d-996a-0de8bac95dfa","ios":"levelo://app?vid=3f30f2ff-40f2-4f9d-996a-0de8bac95dfa"},"vehicle_type_id":"4","last_reported":1774341497,"current_range_meters":7200,"station_id":"ce4bhg12rcd13ifvqf70","pricing_plan_id":"cebpf4jnsgd1na2vs0mg"},{"bike_id":"b593522b-4dc4-4146-b9c4-53fba15d8af1","system_id":"levelo_inurba_marseille","lat":43.26904,"lon":5.38935,"is_reserved":false,"is_disabled":false,"rental_uris":{"android":"levelo://app?vid=b593522b-4dc4-4146-b9c4-53fba15d8af1","ios":"levelo://app?vid=b593522b-4dc4-4146-b9c4-53fba15d8af1"},"vehicle_type_id":"4","last_reported":1774341497,"current_range_meters":7200,"station_id":"ce4bhhh2rcd13ifvqfl0","pricing_plan_id":"cebpf4jnsgd1na2vs0mg"},{"bike_id":"f35a9644-f102-427c-8b00-579a35988db3","system_id":"levelo_inurba_marseille","lat":43.21201,"lon":5.35077,"is_reserved":false,"is_disabled":false,"rental_uris":{"android":"levelo://app?vid=f35a9644-f102-427c-8b00-579a35988db3","ios":"levelo://app?vid=f35a9644-f102-427c-8b00-579a35988db3"},"vehicle_type_id":"4","last_reported":1774341497,"current_range_meters":7200,"station_id":"st_cvj6sg6p6f1abm77japg","pricing_plan_id":"cebpf4jnsgd1na2vs0mg"},{"bike_id":"6e12c744-c386-4fad-befe-29eb201902c0","system_id":"levelo_inurba_marseille","lat":43.27063,"lon":5.42281,"is_reserved":false,"is_disabled":false,"rental_uris":{"android":"levelo://app?vid=6e12c744-c386-4fad-befe-29eb201902c0","ios":"levelo://app?vid=6e12c744-c386-4fad-befe-29eb201902c0"},"vehicle_type_id":"4","last_reported":1774341497,"current_range_meters":7200,"station_id":"ce4bhk92rcd13ifvqgb0","pricing_plan_id":"cebpf4jnsgd1na2vs0mg"},{"bike_id":"923244c8-37da-4f09-b4b2-3c178e1e0238","system_id":"levelo_inurba_marseille","lat":43.30281,"lon":5.36897,"is_reserved":false,"is_disabled":false,"rental_uris":{"android":"levelo://app?vid=923244c8-37da-4f09-b4b2-3c178e1e0238","ios":"levelo://app?vid=923244c8-37da-4f09-b4b2-3c178e1e0238"},"vehicle_type_id":"4","last_reported":1774341497,"current_range_meters":7200,"station_id":"ce4bgqh2rcd13ifvqc5g","pricing_plan_id":"cebpf4jnsgd1na2vs0mg"},{"bike_id":"63ecf3e2-b359-4df6-b223-76ae007149f8","system_id":"levelo_inurba_marseille","lat":43.29544,"lon":5.37511,"is_reserved":false,"is_disabled":false,"rental_uris":{"android":"levelo://app?vid=63ecf3e2-b359-4df6-b223-76ae007149f8","ios":"levelo://app?vid=63ecf3e2-b359-4df6-b223-76ae007149f8"},"vehicle_type_id":"4","last_reported":1774341497,"current_range_meters":7200,"station_id":"ce4bgkp2rcd13ifvqbmg","pricing_plan_id":"cebpf4jnsgd1na2vs0mg"},{"bike_id":"473ed07b-2d37-4630-a37e-1afd19298580","system_id":"levelo_inurba_marseille","lat":43.33622,"lon":5.41019,"is_reserved":false,"is_disabled":false,"rental_uris":{"android":"levelo://app?vid=473ed07b-2d37-4630-a37e-1afd19298580","ios":"levelo://app?vid=473ed07b-2d37-4630-a37e-1afd19298580"},"vehicle_type_id":"4","last_reported":1774341497,"current_range_meters":7200,"station_id":"ce4bhqh2rcd13ifvqhmg","pricing_plan_id":"cebpf4jnsgd1na2vs0mg"},{"bike_id":"82aadc8f-eda7-4252-b082-5aefae0edd2f","system_id":"levelo_inurba_marseille","lat":43.26686,"lon":5.38261,"is_reserved":false,"is_disabled":false,"rental_uris":{"android":"levelo://app?vid=82aadc8f-eda7-4252-b082-5aefae0edd2f","ios":"levelo://app?vid=82aadc8f-eda7-4252-b082-5aefae0edd2f"},"vehicle_type_id":"4","last_reported":1774341497,"current_range_meters":7200,"station_id":"ce4bhg92rcd13ifvqf90","pricing_plan_id":"cebpf4jnsgd1na2vs0mg"},{"bike_id":"add12537-c22e-4fa6-8a00-691f2005125e","system_id":"levelo_inurba_marseille","lat":43.29595,"lon":5.37729,"is_reserved":false,"is_disabled":false,"rental_uris":{"android":"levelo://app?vid=add12537-c22e-4fa6-8a00-691f2005125e","ios":"levelo://app?vid=add12537-c22e-4fa6-8a00-691f2005125e"},"vehicle_type_id":"4","last_reported":1774341497,"current_range_meters":7200,"station_id":"ce4bgi92rcd13ifvqb90","pricing_plan_id":"cebpf4jnsgd1na2vs0mg"},{"bike_id":"0e2f4137-e82a-401c-945f-6a1c7c098239","system_id":"levelo_inurba_marseille","lat":43.29618,"lon":5.37142,"is_reserved":false,"is_disabled":false,"rental_uris":{"android":"levelo://app?vid=0e2f4137-e82a-401c-945f-6a1c7c098239","ios":"levelo://app?vid=0e2f4137-e82a-401c-945f-6a1c7c098239"},"vehicle_type_id":"4","last_reported":1774341497,"current_range_meters":8000,"station_id":"ce4bgnh2rcd13ifvqc0g","pricing_plan_id":"cebpf4jnsgd1na2vs0mg"},{"bike_id":"b75036ac-d81d-4bfd-a9c8-a051a6ff39fe","system_id":"levelo_inurba_marseille","lat":43.28529,"lon":5.44126,"is_reserved":false,"is_disabled":false,"rental_uris":{"android":"levelo://app?vid=b75036ac-d81d-4bfd-a9c8-a051a6ff39fe","ios":"levelo://app?vid=b75036ac-d81d-4bfd-a9c8-a051a6ff39fe"},"vehicle_type_id":"4","last_reported":1774341497,"current_range_meters":8000,"station_id":"st_d3j3df2ikq2c7380ej80","pricing_plan_id":"cebpf4jnsgd1na2vs0mg"},{"bike_id":"77deb619-deef-42c1-ade2-8dca83a843fb","system_id":"levelo_inurba_marseille","lat":43.29489,"lon":5.43301,"is_reserved":false,"is_disabled":false,"rental_uris":{"android":"levelo://app?vid=77deb619-deef-42c1-ade2-8dca83a843fb","ios":"levelo://app?vid=77deb619-deef-42c1-ade2-8dca83a843fb"},"vehicle_type_id":"4","last_reported":1774341497,"current_range_meters":8000,"station_id":"st_d3j5ugp08ojc73fj9d10","pricing_plan_id":"cebpf4jnsgd1na2vs0mg"},{"bike_id":"723e7a23-5678-4097-b3d4-28ccc2fdcf61","system_id":"levelo_inurba_marseille","lat":43.28609,"lon":5.35101,"is_reserved":false,"is_disabled":true,"rental_uris":{"android":"levelo://app?vid=723e7a23-5678-4097-b3d4-28ccc2fdcf61","ios":"levelo://app?vid=723e7a23-5678-4097-b3d4-28ccc2fdcf61"},"vehicle_type_id":"4","last_reported":1774341497,"current_range_meters":8000,"station_id":"ce4bhch2rcd13ifvqeug","pricing_plan_id":"cebpf4jnsgd1na2vs0mg"},{"bike_id":"0b786319-6d9f-4d1c-890a-5150198e272a","system_id":"levelo_inurba_marseille","lat":43.28475,"lon":5.48395,"is_reserved":false,"is_disabled":false,"rental_uris":{"android":"levelo://app?vid=0b786319-6d9f-4d1c-890a-5150198e272a","ios":"levelo://app?vid=0b786319-6d9f-4d1c-890a-5150198e272a"},"vehicle_type_id":"4","last_reported":1774341497,"current_range_meters":8000,"station_id":"st_d3svhcjqgbts73a3dn0g","pricing_plan_id":"cebpf4jnsgd1na2vs0mg"},{"bike_id":"bbf06f99-10eb-4743-9c34-2b5936013bcc","system_id":"levelo_inurba_marseille","lat":43.23783,"lon":5.36624,"is_reserved":false,"is_disabled":false,"rental_uris":{"android":"levelo://app?vid=bbf06f99-10eb-4743-9c34-2b5936013bcc","ios":"levelo://app?vid=bbf06f99-10eb-4743-9c34-2b5936013bcc"},"vehicle_type_id":"4","last_reported":1774341497,"current_range_meters":8000,"station_id":"st_d3nk18o9ro0c73en2l3g","pricing_plan_id":"cebpf4jnsgd1na2vs0mg"},{"bike_id":"17c1f954-7ef7-4a5f-844e-17131e305a89","system_id":"levelo_inurba_marseille","lat":43.2389,"lon":5.37465,"is_reserved":false,"is_disabled":false,"rental_uris":{"android":"levelo://app?vid=17c1f954-7ef7-4a5f-844e-17131e305a89","ios":"levelo://app?vid=17c1f954-7ef7-4a5f-844e-17131e305a89"},"vehicle_type_id":"4","last_reported":1774341497,"current_range_meters":8000,"station_id":"st_d6sm7csbq4hs73f8fpjg","pricing_plan_id":"cebpf4jnsgd1na2vs0mg"},{"bike_id":"29a311a2-8c83-4778-b76c-56070b790302","system_id":"levelo_inurba_marseille","lat":43.27077,"lon":5.42269,"is_reserved":false,"is_disabled":false,"rental_uris":{"android":"levelo://app?vid=29a311a2-8c83-4778-b76c-56070b790302","ios":"levelo://app?vid=29a311a2-8c83-4778-b76c-56070b790302"},"vehicle_type_id":"4","last_reported":1774341497,"current_range_meters":8000,"station_id":"ce4bhk92rcd13ifvqgb0","pricing_plan_id":"cebpf4jnsgd1na2vs0mg"},{"bike_id":"7e03e45c-d69c-4371-8267-aa26cde43729","system_id":"levelo_inurba_marseille","lat":43.25577,"lon":5.3824,"is_reserved":false,"is_disabled":true,"rental_uris":{"android":"levelo://app?vid=7e03e45c-d69c-4371-8267-aa26cde43729","ios":"levelo://app?vid=7e03e45c-d69c-4371-8267-aa26cde43729"},"vehicle_type_id":"4","last_reported":1774341497,"current_range_meters":8000,"station_id":"ce4bhih2rcd13ifvqfs0","pricing_plan_id":"cebpf4jnsgd1na2vs0mg"},{"bike_id":"04e42d2b-817b-4033-8935-148ae7f53cb4","system_id":"levelo_inurba_marseille","lat":43.28191,"lon":5.39076,"is_reserved":false,"is_disabled":true,"rental_uris":{"android":"levelo://app?vid=04e42d2b-817b-4033-8935-148ae7f53cb4","ios":"levelo://app?vid=04e42d2b-817b-4033-8935-148ae7f53cb4"},"vehicle_type_id":"4","last_reported":1774341497,"current_range_meters":8000,"station_id":"ce4bhn92rcd13ifvqgsg","pricing_plan_id":"cebpf4jnsgd1na2vs0mg"},{"bike_id":"92ee54a6-63c9-4c33-8048-d4e5a1dc1020","system_id":"levelo_inurba_marseille","lat":43.33618,"lon":5.41002,"is_reserved":false,"is_disabled":true,"rental_uris":{"android":"levelo://app?vid=92ee54a6-63c9-4c33-8048-d4e5a1dc1020","ios":"levelo://app?vid=92ee54a6-63c9-4c33-8048-d4e5a1dc1020"},"vehicle_type_id":"4","last_reported":1774341497,"current_range_meters":8000,"station_id":"ce4bhqh2rcd13ifvqhmg","pricing_plan_id":"cebpf4jnsgd1na2vs0mg"},{"bike_id":"852a94cf-f5ea-49e2-9b33-9185af509173","system_id":"levelo_inurba_marseille","lat":43.24088,"lon":5.37758,"is_reserved":false,"is_disabled":false,"rental_uris":{"android":"levelo://app?vid=852a94cf-f5ea-49e2-9b33-9185af509173","ios":"levelo://app?vid=852a94cf-f5ea-49e2-9b33-9185af509173"},"vehicle_type_id":"4","last_reported":1774341497,"current_range_meters":8000,"station_id":"","pricing_plan_id":"cebpf4jnsgd1na2vs0mg"},{"bike_id":"5ac4332e-454f-48c2-9a20-24e49f2ccb9d","system_id":"levelo_inurba_marseille","lat":43.29353,"lon":5.37847,"is_reserved":false,"is_disabled":false,"rental_uris":{"android":"levelo://app?vid=5ac4332e-454f-48c2-9a20-24e49f2ccb9d","ios":"levelo://app?vid=5ac4332e-454f-48c2-9a20-24e49f2ccb9d"},"vehicle_type_id":"4","last_reported":1774341497,"current_range_meters":8000,"station_id":"ce4bgjh2rcd13ifvqbf0","pricing_plan_id":"cebpf4jnsgd1na2vs0mg"},{"bike_id":"dc6b5f99-fae1-4f22-a1a9-6f28e41db96e","system_id":"levelo_inurba_marseille","lat":43.31491,"lon":5.37318,"is_reserved":false,"is_disabled":false,"rental_uris":{"android":"levelo://app?vid=dc6b5f99-fae1-4f22-a1a9-6f28e41db96e","ios":"levelo://app?vid=dc6b5f99-fae1-4f22-a1a9-6f28e41db96e"},"vehicle_type_id":"4","last_reported":1774341497,"current_range_meters":8000,"station_id":"ce4bgt12rcd13ifvqcd0","pricing_plan_id":"cebpf4jnsgd1na2vs0mg"},{"bike_id":"10fd2269-34bf-4b8a-a12a-74a968419364","system_id":"levelo_inurba_marseille","lat":43.27326,"lon":5.39133,"is_reserved":false,"is_disabled":false,"rental_uris":{"android":"levelo://app?vid=10fd2269-34bf-4b8a-a12a-74a968419364","ios":"levelo://app?vid=10fd2269-34bf-4b8a-a12a-74a968419364"},"vehicle_type_id":"4","last_reported":1774341497,"current_range_meters":8000,"station_id":"ce4bhgp2rcd13ifvqfe0","pricing_plan_id":"cebpf4jnsgd1na2vs0mg"},{"bike_id":"c0e1b114-ccb8-4953-8422-a48e9e52cb00","system_id":"levelo_inurba_marseille","lat":43.26208,"lon":5.37924,"is_reserved":false,"is_disabled":false,"rental_uris":{"android":"levelo://app?vid=c0e1b114-ccb8-4953-8422-a48e9e52cb00","ios":"levelo://app?vid=c0e1b114-ccb8-4953-8422-a48e9e52cb00"},"vehicle_type_id":"4","last_reported":1774341497,"current_range_meters":8400,"station_id":"ce4bhjp2rcd13ifvqg90","pricing_plan_id":"cebpf4jnsgd1na2vs0mg"},{"bike_id":"a14d2edd-85c5-4116-8db5-355e3fb2ddbe","system_id":"levelo_inurba_marseille","lat":43.3355,"lon":5.37467,"is_reserved":false,"is_disabled":false,"rental_uris":{"android":"levelo://app?vid=a14d2edd-85c5-4116-8db5-355e3fb2ddbe","ios":"levelo://app?vid=a14d2edd-85c5-4116-8db5-355e3fb2ddbe"},"vehicle_type_id":"4","last_reported":1774341497,"current_range_meters":8400,"station_id":"st_d46tts09ee8s73dlu43g","pricing_plan_id":"cebpf4jnsgd1na2vs0mg"},{"bike_id":"edda675a-b62b-421d-aa8f-95ea6d9ae219","system_id":"levelo_inurba_marseille","lat":43.31479,"lon":5.37306,"is_reserved":false,"is_disabled":false,"rental_uris":{"android":"levelo://app?vid=edda675a-b62b-421d-aa8f-95ea6d9ae219","ios":"levelo://app?vid=edda675a-b62b-421d-aa8f-95ea6d9ae219"},"vehicle_type_id":"4","last_reported":1774341497,"current_range_meters":8400,"station_id":"ce4bgt12rcd13ifvqcd0","pricing_plan_id":"cebpf4jnsgd1na2vs0mg"},{"bike_id":"5c941c2b-f0fa-4f64-af96-831f9028136a","system_id":"levelo_inurba_marseille","lat":43.32213,"lon":5.37111,"is_reserved":false,"is_disabled":false,"rental_uris":{"android":"levelo://app?vid=5c941c2b-f0fa-4f64-af96-831f9028136a","ios":"levelo://app?vid=5c941c2b-f0fa-4f64-af96-831f9028136a"},"vehicle_type_id":"4","last_reported":1774341497,"current_range_meters":8400,"station_id":"","pricing_plan_id":"cebpf4jnsgd1na2vs0mg"},{"bike_id":"ee0008af-b338-43bd-8cd8-01b4212c701e","system_id":"levelo_inurba_marseille","lat":43.30929,"lon":5.39021,"is_reserved":false,"is_disabled":false,"rental_uris":{"android":"levelo://app?vid=ee0008af-b338-43bd-8cd8-01b4212c701e","ios":"levelo://app?vid=ee0008af-b338-43bd-8cd8-01b4212c701e"},"vehicle_type_id":"4","last_reported":1774341497,"current_range_meters":8400,"station_id":"ce4bgup2rcd13ifvqco0","pricing_plan_id":"cebpf4jnsgd1na2vs0mg"},{"bike_id":"4de1cd7a-94f4-4cce-af70-876c013fe504","system_id":"levelo_inurba_marseille","lat":43.30906,"lon":5.36842,"is_reserved":false,"is_disabled":false,"rental_uris":{"android":"levelo://app?vid=4de1cd7a-94f4-4cce-af70-876c013fe504","ios":"levelo://app?vid=4de1cd7a-94f4-4cce-af70-876c013fe504"},"vehicle_type_id":"4","last_reported":1774341497,"current_range_meters":8400,"station_id":"ce4bgn92rcd13ifvqbvg","pricing_plan_id":"cebpf4jnsgd1na2vs0mg"},{"bike_id":"8e331d09-f777-47e4-a327-164db2e188a9","system_id":"levelo_inurba_marseille","lat":43.26574,"lon":5.40323,"is_reserved":false,"is_disabled":true,"rental_uris":{"android":"levelo://app?vid=8e331d09-f777-47e4-a327-164db2e188a9","ios":"levelo://app?vid=8e331d09-f777-47e4-a327-164db2e188a9"},"vehicle_type_id":"4","last_reported":1774341497,"current_range_meters":8400,"station_id":"ce4bhmp2rcd13ifvqgng","pricing_plan_id":"cebpf4jnsgd1na2vs0mg"},{"bike_id":"29f49a32-ba08-40ef-839e-89650b416d04","system_id":"levelo_inurba_marseille","lat":43.31031,"lon":5.37914,"is_reserved":false,"is_disabled":false,"rental_uris":{"android":"levelo://app?vid=29f49a32-ba08-40ef-839e-89650b416d04","ios":"levelo://app?vid=29f49a32-ba08-40ef-839e-89650b416d04"},"vehicle_type_id":"4","last_reported":1774341497,"current_range_meters":8400,"station_id":"","pricing_plan_id":"cebpf4jnsgd1na2vs0mg"},{"bike_id":"5bd9aec4-f639-4190-9ebd-ffd6e8dfa9b4","system_id":"levelo_inurba_marseille","lat":43.31044,"lon":5.37176,"is_reserved":false,"is_disabled":false,"rental_uris":{"android":"levelo://app?vid=5bd9aec4-f639-4190-9ebd-ffd6e8dfa9b4","ios":"levelo://app?vid=5bd9aec4-f639-4190-9ebd-ffd6e8dfa9b4"},"vehicle_type_id":"4","last_reported":1774341497,"current_range_meters":8400,"station_id":"st_d4kl2rp97mjs73e7tdfg","pricing_plan_id":"cebpf4jnsgd1na2vs0mg"},{"bike_id":"e8428cd4-c8c7-4157-bdf7-045d0e008d43","system_id":"levelo_inurba_marseille","lat":43.24184,"lon":5.39725,"is_reserved":false,"is_disabled":false,"rental_uris":{"android":"levelo://app?vid=e8428cd4-c8c7-4157-bdf7-045d0e008d43","ios":"levelo://app?vid=e8428cd4-c8c7-4157-bdf7-045d0e008d43"},"vehicle_type_id":"4","last_reported":1774341497,"current_range_meters":8400,"station_id":"ce4bhn12rcd13ifvqgpg","pricing_plan_id":"cebpf4jnsgd1na2vs0mg"},{"bike_id":"87127584-f74b-4d76-bea0-cc99f4de70a6","system_id":"levelo_inurba_marseille","lat":43.309,"lon":5.36841,"is_reserved":false,"is_disabled":false,"rental_uris":{"android":"levelo://app?vid=87127584-f74b-4d76-bea0-cc99f4de70a6","ios":"levelo://app?vid=87127584-f74b-4d76-bea0-cc99f4de70a6"},"vehicle_type_id":"4","last_reported":1774341497,"current_range_meters":8400,"station_id":"ce4bgn92rcd13ifvqbvg","pricing_plan_id":"cebpf4jnsgd1na2vs0mg"},{"bike_id":"8679a3d0-a1bd-4347-96a5-0c0bb2a5f465","system_id":"levelo_inurba_marseille","lat":43.26782,"lon":5.39426,"is_reserved":false,"is_disabled":false,"rental_uris":{"android":"levelo://app?vid=8679a3d0-a1bd-4347-96a5-0c0bb2a5f465","ios":"levelo://app?vid=8679a3d0-a1bd-4347-96a5-0c0bb2a5f465"},"vehicle_type_id":"4","last_reported":1774341497,"current_range_meters":8400,"station_id":"ce4bhh12rcd13ifvqfg0","pricing_plan_id":"cebpf4jnsgd1na2vs0mg"},{"bike_id":"462d44ce-bead-4a48-a99d-d566d3c0e73f","system_id":"levelo_inurba_marseille","lat":43.32496,"lon":5.38287,"is_reserved":false,"is_disabled":false,"rental_uris":{"android":"levelo://app?vid=462d44ce-bead-4a48-a99d-d566d3c0e73f","ios":"levelo://app?vid=462d44ce-bead-4a48-a99d-d566d3c0e73f"},"vehicle_type_id":"4","last_reported":1774341497,"current_range_meters":8400,"station_id":"st_d4asgbiv49dc73anf9m0","pricing_plan_id":"cebpf4jnsgd1na2vs0mg"},{"bike_id":"0c2fdc4e-08e4-4dac-9f9e-4246e4d92192","system_id":"levelo_inurba_marseille","lat":43.28829,"lon":5.39333,"is_reserved":false,"is_disabled":false,"rental_uris":{"android":"levelo://app?vid=0c2fdc4e-08e4-4dac-9f9e-4246e4d92192","ios":"levelo://app?vid=0c2fdc4e-08e4-4dac-9f9e-4246e4d92192"},"vehicle_type_id":"4","last_reported":1774341497,"current_range_meters":8400,"station_id":"ce4bh2p2rcd13ifvqdi0","pricing_plan_id":"cebpf4jnsgd1na2vs0mg"},{"bike_id":"b06ca3aa-4115-4d3b-82de-a3ec0b6205c3","system_id":"levelo_inurba_marseille","lat":43.30596,"lon":5.37198,"is_reserved":false,"is_disabled":true,"rental_uris":{"android":"levelo://app?vid=b06ca3aa-4115-4d3b-82de-a3ec0b6205c3","ios":"levelo://app?vid=b06ca3aa-4115-4d3b-82de-a3ec0b6205c3"},"vehicle_type_id":"4","last_reported":1774341497,"current_range_meters":8400,"station_id":"ce4bgqh2rcd13ifvqc4g","pricing_plan_id":"cebpf4jnsgd1na2vs0mg"},{"bike_id":"b4f72913-3e7d-4b53-9172-f4df71a9ecb6","system_id":"levelo_inurba_marseille","lat":43.31309,"lon":5.36746,"is_reserved":false,"is_disabled":false,"rental_uris":{"android":"levelo://app?vid=b4f72913-3e7d-4b53-9172-f4df71a9ecb6","ios":"levelo://app?vid=b4f72913-3e7d-4b53-9172-f4df71a9ecb6"},"vehicle_type_id":"4","last_reported":1774341497,"current_range_meters":8400,"station_id":"ce4bgr92rcd13ifvqc6g","pricing_plan_id":"cebpf4jnsgd1na2vs0mg"},{"bike_id":"2e4408b1-4f10-4104-87c2-00f9c6cc7b1b","system_id":"levelo_inurba_marseille","lat":43.30135,"lon":5.43116,"is_reserved":false,"is_disabled":false,"rental_uris":{"android":"levelo://app?vid=2e4408b1-4f10-4104-87c2-00f9c6cc7b1b","ios":"levelo://app?vid=2e4408b1-4f10-4104-87c2-00f9c6cc7b1b"},"vehicle_type_id":"4","last_reported":1774341497,"current_range_meters":8400,"station_id":"st_d3js3co5814s73ftftug","pricing_plan_id":"cebpf4jnsgd1na2vs0mg"},{"bike_id":"19f1add8-fb4d-4df2-9f34-3abb6a2112fe","system_id":"levelo_inurba_marseille","lat":43.2118,"lon":5.35063,"is_reserved":false,"is_disabled":false,"rental_uris":{"android":"levelo://app?vid=19f1add8-fb4d-4df2-9f34-3abb6a2112fe","ios":"levelo://app?vid=19f1add8-fb4d-4df2-9f34-3abb6a2112fe"},"vehicle_type_id":"4","last_reported":1774341497,"current_range_meters":8400,"station_id":"st_cvj6sg6p6f1abm77japg","pricing_plan_id":"cebpf4jnsgd1na2vs0mg"},{"bike_id":"6711ca2b-9a4e-46b1-892e-1007cc2a656e","system_id":"levelo_inurba_marseille","lat":43.28525,"lon":5.44136,"is_reserved":false,"is_disabled":false,"rental_uris":{"android":"levelo://app?vid=6711ca2b-9a4e-46b1-892e-1007cc2a656e","ios":"levelo://app?vid=6711ca2b-9a4e-46b1-892e-1007cc2a656e"},"vehicle_type_id":"4","last_reported":1774341497,"current_range_meters":8400,"station_id":"st_d3j3df2ikq2c7380ej80","pricing_plan_id":"cebpf4jnsgd1na2vs0mg"},{"bike_id":"de73c310-f5b2-40f5-b1ca-fa0887319316","system_id":"levelo_inurba_marseille","lat":43.33031,"lon":5.39037,"is_reserved":false,"is_disabled":false,"rental_uris":{"android":"levelo://app?vid=de73c310-f5b2-40f5-b1ca-fa0887319316","ios":"levelo://app?vid=de73c310-f5b2-40f5-b1ca-fa0887319316"},"vehicle_type_id":"4","last_reported":1774341497,"current_range_meters":8400,"station_id":"ce4bhr92rcd13ifvqhrg","pricing_plan_id":"cebpf4jnsgd1na2vs0mg"},{"bike_id":"f3dccb27-25f8-415f-8a8c-207408b72398","system_id":"levelo_inurba_marseille","lat":43.32061,"lon":5.36722,"is_reserved":false,"is_disabled":false,"rental_uris":{"android":"levelo://app?vid=f3dccb27-25f8-415f-8a8c-207408b72398","ios":"levelo://app?vid=f3dccb27-25f8-415f-8a8c-207408b72398"},"vehicle_type_id":"4","last_reported":1774341497,"current_range_meters":8400,"station_id":"ce4bhrh2rcd13ifvqhug","pricing_plan_id":"cebpf4jnsgd1na2vs0mg"},{"bike_id":"f5bf2a91-4a23-4a10-8554-6fb9fc8b417e","system_id":"levelo_inurba_marseille","lat":43.23386,"lon":5.41238,"is_reserved":false,"is_disabled":false,"rental_uris":{"android":"levelo://app?vid=f5bf2a91-4a23-4a10-8554-6fb9fc8b417e","ios":"levelo://app?vid=f5bf2a91-4a23-4a10-8554-6fb9fc8b417e"},"vehicle_type_id":"4","last_reported":1774341497,"current_range_meters":8400,"station_id":"","pricing_plan_id":"cebpf4jnsgd1na2vs0mg"},{"bike_id":"16a7dced-6a2f-422e-be4a-76bd029df418","system_id":"levelo_inurba_marseille","lat":43.29037,"lon":5.37573,"is_reserved":false,"is_disabled":false,"rental_uris":{"android":"levelo://app?vid=16a7dced-6a2f-422e-be4a-76bd029df418","ios":"levelo://app?vid=16a7dced-6a2f-422e-be4a-76bd029df418"},"vehicle_type_id":"4","last_reported":1774341497,"current_range_meters":8400,"station_id":"ce4bh692rcd13ifvqe90","pricing_plan_id":"cebpf4jnsgd1na2vs0mg"},{"bike_id":"a35cd57a-a85a-4199-af90-0e8344d73999","system_id":"levelo_inurba_marseille","lat":43.24652,"lon":5.38901,"is_reserved":false,"is_disabled":false,"rental_uris":{"android":"levelo://app?vid=a35cd57a-a85a-4199-af90-0e8344d73999","ios":"levelo://app?vid=a35cd57a-a85a-4199-af90-0e8344d73999"},"vehicle_type_id":"4","last_reported":1774341497,"current_range_meters":8400,"station_id":"ce4bhg12rcd13ifvqf60","pricing_plan_id":"cebpf4jnsgd1na2vs0mg"},{"bike_id":"5208ee98-7e4f-445b-9dbc-5d8fbec80d74","system_id":"levelo_inurba_marseille","lat":43.23381,"lon":5.41245,"is_reserved":false,"is_disabled":false,"rental_uris":{"android":"levelo://app?vid=5208ee98-7e4f-445b-9dbc-5d8fbec80d74","ios":"levelo://app?vid=5208ee98-7e4f-445b-9dbc-5d8fbec80d74"},"vehicle_type_id":"4","last_reported":1774341497,"current_range_meters":8400,"station_id":"","pricing_plan_id":"cebpf4jnsgd1na2vs0mg"},{"bike_id":"5ecae002-d94a-48c0-9c56-03698e32a88c","system_id":"levelo_inurba_marseille","lat":43.23898,"lon":5.37466,"is_reserved":false,"is_disabled":false,"rental_uris":{"android":"levelo://app?vid=5ecae002-d94a-48c0-9c56-03698e32a88c","ios":"levelo://app?vid=5ecae002-d94a-48c0-9c56-03698e32a88c"},"vehicle_type_id":"4","last_reported":1774341497,"current_range_meters":8400,"station_id":"st_d6sm7csbq4hs73f8fpjg","pricing_plan_id":"cebpf4jnsgd1na2vs0mg"},{"bike_id":"aac16f30-8732-48f4-bb17-1bd0acbb479e","system_id":"levelo_inurba_marseille","lat":43.26554,"lon":5.37287,"is_reserved":false,"is_disabled":false,"rental_uris":{"android":"levelo://app?vid=aac16f30-8732-48f4-bb17-1bd0acbb479e","ios":"levelo://app?vid=aac16f30-8732-48f4-bb17-1bd0acbb479e"},"vehicle_type_id":"4","last_reported":1774341497,"current_range_meters":8800,"station_id":"ce4bhg12rcd13ifvqf70","pricing_plan_id":"cebpf4jnsgd1na2vs0mg"},{"bike_id":"02a29044-af44-4ad0-ad60-be49d8de6622","system_id":"levelo_inurba_marseille","lat":43.29784,"lon":5.42781,"is_reserved":false,"is_disabled":false,"rental_uris":{"android":"levelo://app?vid=02a29044-af44-4ad0-ad60-be49d8de6622","ios":"levelo://app?vid=02a29044-af44-4ad0-ad60-be49d8de6622"},"vehicle_type_id":"4","last_reported":1774341497,"current_range_meters":8800,"station_id":"st_d3md5207bmas73dh9klg","pricing_plan_id":"cebpf4jnsgd1na2vs0mg"},{"bike_id":"4078e5c4-b784-4a81-827e-b1a58b5db34d","system_id":"levelo_inurba_marseille","lat":43.30562,"lon":5.36538,"is_reserved":false,"is_disabled":false,"rental_uris":{"android":"levelo://app?vid=4078e5c4-b784-4a81-827e-b1a58b5db34d","ios":"levelo://app?vid=4078e5c4-b784-4a81-827e-b1a58b5db34d"},"vehicle_type_id":"4","last_reported":1774341497,"current_range_meters":8800,"station_id":"ce4bgs12rcd13ifvqcag","pricing_plan_id":"cebpf4jnsgd1na2vs0mg"},{"bike_id":"5016f481-c4f2-49ee-b195-5a686f3fce52","system_id":"levelo_inurba_marseille","lat":43.288522,"lon":5.358479,"is_reserved":false,"is_disabled":true,"rental_uris":{"android":"levelo://app?vid=5016f481-c4f2-49ee-b195-5a686f3fce52","ios":"levelo://app?vid=5016f481-c4f2-49ee-b195-5a686f3fce52"},"vehicle_type_id":"4","last_reported":1774341497,"current_range_meters":8800,"station_id":"","pricing_plan_id":"cebpf4jnsgd1na2vs0mg"},{"bike_id":"da6972b3-b161-480b-8ef0-1ff556fc7299","system_id":"levelo_inurba_marseille","lat":43.23796,"lon":5.36607,"is_reserved":false,"is_disabled":false,"rental_uris":{"android":"levelo://app?vid=da6972b3-b161-480b-8ef0-1ff556fc7299","ios":"levelo://app?vid=da6972b3-b161-480b-8ef0-1ff556fc7299"},"vehicle_type_id":"4","last_reported":1774341497,"current_range_meters":8800,"station_id":"st_d3nk18o9ro0c73en2l3g","pricing_plan_id":"cebpf4jnsgd1na2vs0mg"},{"bike_id":"445a363e-6635-4c6f-9d9b-6ed1d223c4e8","system_id":"levelo_inurba_marseille","lat":43.29553,"lon":5.43872,"is_reserved":false,"is_disabled":false,"rental_uris":{"android":"levelo://app?vid=445a363e-6635-4c6f-9d9b-6ed1d223c4e8","ios":"levelo://app?vid=445a363e-6635-4c6f-9d9b-6ed1d223c4e8"},"vehicle_type_id":"4","last_reported":1774341497,"current_range_meters":8800,"station_id":"","pricing_plan_id":"cebpf4jnsgd1na2vs0mg"},{"bike_id":"a211272b-3b4c-4657-b446-724519fa2a85","system_id":"levelo_inurba_marseille","lat":43.25001,"lon":5.38925,"is_reserved":false,"is_disabled":false,"rental_uris":{"android":"levelo://app?vid=a211272b-3b4c-4657-b446-724519fa2a85","ios":"levelo://app?vid=a211272b-3b4c-4657-b446-724519fa2a85"},"vehicle_type_id":"4","last_reported":1774341497,"current_range_meters":8800,"station_id":"ce4bhgp2rcd13ifvqfd0","pricing_plan_id":"cebpf4jnsgd1na2vs0mg"},{"bike_id":"253bfbd1-c3f6-4b72-a716-55890f3b4db7","system_id":"levelo_inurba_marseille","lat":43.28494,"lon":5.48385,"is_reserved":false,"is_disabled":false,"rental_uris":{"android":"levelo://app?vid=253bfbd1-c3f6-4b72-a716-55890f3b4db7","ios":"levelo://app?vid=253bfbd1-c3f6-4b72-a716-55890f3b4db7"},"vehicle_type_id":"4","last_reported":1774341497,"current_range_meters":8800,"station_id":"","pricing_plan_id":"cebpf4jnsgd1na2vs0mg"},{"bike_id":"066cfe81-714d-4a28-ba8d-e13baf5bbb1b","system_id":"levelo_inurba_marseille","lat":43.27266,"lon":5.41147,"is_reserved":false,"is_disabled":false,"rental_uris":{"android":"levelo://app?vid=066cfe81-714d-4a28-ba8d-e13baf5bbb1b","ios":"levelo://app?vid=066cfe81-714d-4a28-ba8d-e13baf5bbb1b"},"vehicle_type_id":"4","last_reported":1774341497,"current_range_meters":8800,"station_id":"","pricing_plan_id":"cebpf4jnsgd1na2vs0mg"},{"bike_id":"05741d21-e827-4da6-b826-ff066a7f8ddd","system_id":"levelo_inurba_marseille","lat":43.29894,"lon":5.37449,"is_reserved":false,"is_disabled":false,"rental_uris":{"android":"levelo://app?vid=05741d21-e827-4da6-b826-ff066a7f8ddd","ios":"levelo://app?vid=05741d21-e827-4da6-b826-ff066a7f8ddd"},"vehicle_type_id":"4","last_reported":1774341497,"current_range_meters":8800,"station_id":"ce4bgjh2rcd13ifvqbg0","pricing_plan_id":"cebpf4jnsgd1na2vs0mg"},{"bike_id":"fa7dd13f-d4cb-42ef-bfca-8d5007f792f7","system_id":"levelo_inurba_marseille","lat":43.28735,"lon":5.37933,"is_reserved":false,"is_disabled":false,"rental_uris":{"android":"levelo://app?vid=fa7dd13f-d4cb-42ef-bfca-8d5007f792f7","ios":"levelo://app?vid=fa7dd13f-d4cb-42ef-bfca-8d5007f792f7"},"vehicle_type_id":"4","last_reported":1774341497,"current_range_meters":8800,"station_id":"ce4bh9p2rcd13ifvqec0","pricing_plan_id":"cebpf4jnsgd1na2vs0mg"},{"bike_id":"8aa507e7-e6bd-4861-b754-6c06023061cc","system_id":"levelo_inurba_marseille","lat":43.29682,"lon":5.38255,"is_reserved":false,"is_disabled":false,"rental_uris":{"android":"levelo://app?vid=8aa507e7-e6bd-4861-b754-6c06023061cc","ios":"levelo://app?vid=8aa507e7-e6bd-4861-b754-6c06023061cc"},"vehicle_type_id":"4","last_reported":1774341497,"current_range_meters":8800,"station_id":"","pricing_plan_id":"cebpf4jnsgd1na2vs0mg"},{"bike_id":"e7af9571-85f2-4d04-a90b-8ea65f35209b","system_id":"levelo_inurba_marseille","lat":43.29704,"lon":5.37666,"is_reserved":false,"is_disabled":false,"rental_uris":{"android":"levelo://app?vid=e7af9571-85f2-4d04-a90b-8ea65f35209b","ios":"levelo://app?vid=e7af9571-85f2-4d04-a90b-8ea65f35209b"},"vehicle_type_id":"4","last_reported":1774341497,"current_range_meters":8800,"station_id":"ce4bgkh2rcd13ifvqbl0","pricing_plan_id":"cebpf4jnsgd1na2vs0mg"},{"bike_id":"759581f5-36a0-459f-99d4-9362499e97d4","system_id":"levelo_inurba_marseille","lat":43.24079,"lon":5.37754,"is_reserved":false,"is_disabled":false,"rental_uris":{"android":"levelo://app?vid=759581f5-36a0-459f-99d4-9362499e97d4","ios":"levelo://app?vid=759581f5-36a0-459f-99d4-9362499e97d4"},"vehicle_type_id":"4","last_reported":1774341497,"current_range_meters":8800,"station_id":"","pricing_plan_id":"cebpf4jnsgd1na2vs0mg"},{"bike_id":"8edde19f-14bb-4a9f-b9ee-19b95f05ec2f","system_id":"levelo_inurba_marseille","lat":43.33558,"lon":5.37458,"is_reserved":false,"is_disabled":false,"rental_uris":{"android":"levelo://app?vid=8edde19f-14bb-4a9f-b9ee-19b95f05ec2f","ios":"levelo://app?vid=8edde19f-14bb-4a9f-b9ee-19b95f05ec2f"},"vehicle_type_id":"4","last_reported":1774341497,"current_range_meters":8800,"station_id":"st_d46tts09ee8s73dlu43g","pricing_plan_id":"cebpf4jnsgd1na2vs0mg"},{"bike_id":"b02ad429-f927-49f8-b3da-0cab70258bda","system_id":"levelo_inurba_marseille","lat":43.31363,"lon":5.36738,"is_reserved":false,"is_disabled":false,"rental_uris":{"android":"levelo://app?vid=b02ad429-f927-49f8-b3da-0cab70258bda","ios":"levelo://app?vid=b02ad429-f927-49f8-b3da-0cab70258bda"},"vehicle_type_id":"4","last_reported":1774341497,"current_range_meters":8800,"station_id":"ce4bgr92rcd13ifvqc6g","pricing_plan_id":"cebpf4jnsgd1na2vs0mg"},{"bike_id":"8d8566de-f03a-4e5e-aa8c-ad2e3c17ab03","system_id":"levelo_inurba_marseille","lat":43.31567,"lon":5.37291,"is_reserved":false,"is_disabled":false,"rental_uris":{"android":"levelo://app?vid=8d8566de-f03a-4e5e-aa8c-ad2e3c17ab03","ios":"levelo://app?vid=8d8566de-f03a-4e5e-aa8c-ad2e3c17ab03"},"vehicle_type_id":"4","last_reported":1774341497,"current_range_meters":8800,"station_id":"","pricing_plan_id":"cebpf4jnsgd1na2vs0mg"},{"bike_id":"1206b80d-08df-4dbc-999c-48aabe775d89","system_id":"levelo_inurba_marseille","lat":43.30291,"lon":5.44957,"is_reserved":false,"is_disabled":false,"rental_uris":{"android":"levelo://app?vid=1206b80d-08df-4dbc-999c-48aabe775d89","ios":"levelo://app?vid=1206b80d-08df-4dbc-999c-48aabe775d89"},"vehicle_type_id":"4","last_reported":1774341497,"current_range_meters":8800,"station_id":"","pricing_plan_id":"cebpf4jnsgd1na2vs0mg"},{"bike_id":"1956b4b1-2733-4998-b5d8-2f8c7a4333e6","system_id":"levelo_inurba_marseille","lat":43.29655,"lon":5.37295,"is_reserved":false,"is_disabled":false,"rental_uris":{"android":"levelo://app?vid=1956b4b1-2733-4998-b5d8-2f8c7a4333e6","ios":"levelo://app?vid=1956b4b1-2733-4998-b5d8-2f8c7a4333e6"},"vehicle_type_id":"4","last_reported":1774341497,"current_range_meters":9200,"station_id":"ce4bgk12rcd13ifvqbj0","pricing_plan_id":"cebpf4jnsgd1na2vs0mg"},{"bike_id":"66a43d55-32c7-48fb-b013-3d7574d12857","system_id":"levelo_inurba_marseille","lat":43.25,"lon":5.38917,"is_reserved":false,"is_disabled":true,"rental_uris":{"android":"levelo://app?vid=66a43d55-32c7-48fb-b013-3d7574d12857","ios":"levelo://app?vid=66a43d55-32c7-48fb-b013-3d7574d12857"},"vehicle_type_id":"4","last_reported":1774341497,"current_range_meters":9200,"station_id":"ce4bhgp2rcd13ifvqfd0","pricing_plan_id":"cebpf4jnsgd1na2vs0mg"},{"bike_id":"b8d7a02a-f8e6-461d-88a3-e73fba899271","system_id":"levelo_inurba_marseille","lat":43.21752,"lon":5.34615,"is_reserved":false,"is_disabled":true,"rental_uris":{"android":"levelo://app?vid=b8d7a02a-f8e6-461d-88a3-e73fba899271","ios":"levelo://app?vid=b8d7a02a-f8e6-461d-88a3-e73fba899271"},"vehicle_type_id":"4","last_reported":1774341497,"current_range_meters":9200,"station_id":"st_cvj6r9ubvosntc0bgbag","pricing_plan_id":"cebpf4jnsgd1na2vs0mg"},{"bike_id":"22a24422-8367-44e3-afc2-fd1672c2c7f5","system_id":"levelo_inurba_marseille","lat":43.28478,"lon":5.484,"is_reserved":false,"is_disabled":false,"rental_uris":{"android":"levelo://app?vid=22a24422-8367-44e3-afc2-fd1672c2c7f5","ios":"levelo://app?vid=22a24422-8367-44e3-afc2-fd1672c2c7f5"},"vehicle_type_id":"4","last_reported":1774341497,"current_range_meters":9200,"station_id":"","pricing_plan_id":"cebpf4jnsgd1na2vs0mg"},{"bike_id":"6c5ce1b8-2f73-474e-ae0a-1d6b29cce0cb","system_id":"levelo_inurba_marseille","lat":43.29305,"lon":5.37146,"is_reserved":false,"is_disabled":false,"rental_uris":{"android":"levelo://app?vid=6c5ce1b8-2f73-474e-ae0a-1d6b29cce0cb","ios":"levelo://app?vid=6c5ce1b8-2f73-474e-ae0a-1d6b29cce0cb"},"vehicle_type_id":"4","last_reported":1774341497,"current_range_meters":9200,"station_id":"ce4bgh92rcd13ifvqb40","pricing_plan_id":"cebpf4jnsgd1na2vs0mg"},{"bike_id":"f5c03b01-d29b-4410-a5f0-a0b3d299600e","system_id":"levelo_inurba_marseille","lat":43.27492,"lon":5.42458,"is_reserved":false,"is_disabled":false,"rental_uris":{"android":"levelo://app?vid=f5c03b01-d29b-4410-a5f0-a0b3d299600e","ios":"levelo://app?vid=f5c03b01-d29b-4410-a5f0-a0b3d299600e"},"vehicle_type_id":"4","last_reported":1774341497,"current_range_meters":9200,"station_id":"","pricing_plan_id":"cebpf4jnsgd1na2vs0mg"},{"bike_id":"21be2084-39c9-42fa-95f7-1e541ba00ca8","system_id":"levelo_inurba_marseille","lat":43.29041,"lon":5.37564,"is_reserved":false,"is_disabled":false,"rental_uris":{"android":"levelo://app?vid=21be2084-39c9-42fa-95f7-1e541ba00ca8","ios":"levelo://app?vid=21be2084-39c9-42fa-95f7-1e541ba00ca8"},"vehicle_type_id":"4","last_reported":1774341497,"current_range_meters":9200,"station_id":"ce4bh692rcd13ifvqe90","pricing_plan_id":"cebpf4jnsgd1na2vs0mg"},{"bike_id":"7ccfa77f-5187-4b13-a240-5cc7dcbdd5f8","system_id":"levelo_inurba_marseille","lat":43.31321,"lon":5.36716,"is_reserved":false,"is_disabled":false,"rental_uris":{"android":"levelo://app?vid=7ccfa77f-5187-4b13-a240-5cc7dcbdd5f8","ios":"levelo://app?vid=7ccfa77f-5187-4b13-a240-5cc7dcbdd5f8"},"vehicle_type_id":"4","last_reported":1774341497,"current_range_meters":9200,"station_id":"ce4bgr92rcd13ifvqc6g","pricing_plan_id":"cebpf4jnsgd1na2vs0mg"},{"bike_id":"087ae484-a014-4feb-b455-9332febb4b58","system_id":"levelo_inurba_marseille","lat":43.2893,"lon":5.36458,"is_reserved":false,"is_disabled":false,"rental_uris":{"android":"levelo://app?vid=087ae484-a014-4feb-b455-9332febb4b58","ios":"levelo://app?vid=087ae484-a014-4feb-b455-9332febb4b58"},"vehicle_type_id":"4","last_reported":1774341497,"current_range_meters":9200,"station_id":"","pricing_plan_id":"cebpf4jnsgd1na2vs0mg"},{"bike_id":"7c59c074-6646-4968-803b-ea035a59d3f4","system_id":"levelo_inurba_marseille","lat":43.23787,"lon":5.36626,"is_reserved":false,"is_disabled":false,"rental_uris":{"android":"levelo://app?vid=7c59c074-6646-4968-803b-ea035a59d3f4","ios":"levelo://app?vid=7c59c074-6646-4968-803b-ea035a59d3f4"},"vehicle_type_id":"4","last_reported":1774341497,"current_range_meters":9200,"station_id":"st_d3nk18o9ro0c73en2l3g","pricing_plan_id":"cebpf4jnsgd1na2vs0mg"},{"bike_id":"5ccdcd21-c3e3-4d5d-8a1a-710743bb66d0","system_id":"levelo_inurba_marseille","lat":43.23884,"lon":5.37456,"is_reserved":false,"is_disabled":false,"rental_uris":{"android":"levelo://app?vid=5ccdcd21-c3e3-4d5d-8a1a-710743bb66d0","ios":"levelo://app?vid=5ccdcd21-c3e3-4d5d-8a1a-710743bb66d0"},"vehicle_type_id":"4","last_reported":1774341497,"current_range_meters":9200,"station_id":"st_d6sm7csbq4hs73f8fpjg","pricing_plan_id":"cebpf4jnsgd1na2vs0mg"},{"bike_id":"e6349eb3-2730-461c-ae14-f386689052fa","system_id":"levelo_inurba_marseille","lat":43.31624,"lon":5.37805,"is_reserved":false,"is_disabled":true,"rental_uris":{"android":"levelo://app?vid=e6349eb3-2730-461c-ae14-f386689052fa","ios":"levelo://app?vid=e6349eb3-2730-461c-ae14-f386689052fa"},"vehicle_type_id":"4","last_reported":1774341497,"current_range_meters":9200,"station_id":"","pricing_plan_id":"cebpf4jnsgd1na2vs0mg"},{"bike_id":"584125c6-2468-4f45-a44d-fd68c53d0920","system_id":"levelo_inurba_marseille","lat":43.30945,"lon":5.39061,"is_reserved":false,"is_disabled":false,"rental_uris":{"android":"levelo://app?vid=584125c6-2468-4f45-a44d-fd68c53d0920","ios":"levelo://app?vid=584125c6-2468-4f45-a44d-fd68c53d0920"},"vehicle_type_id":"4","last_reported":1774341497,"current_range_meters":9200,"station_id":"ce4bgup2rcd13ifvqco0","pricing_plan_id":"cebpf4jnsgd1na2vs0mg"},{"bike_id":"cbe143e8-3e8d-46c8-8239-3389a4661d28","system_id":"levelo_inurba_marseille","lat":43.30327,"lon":5.36924,"is_reserved":false,"is_disabled":false,"rental_uris":{"android":"levelo://app?vid=cbe143e8-3e8d-46c8-8239-3389a4661d28","ios":"levelo://app?vid=cbe143e8-3e8d-46c8-8239-3389a4661d28"},"vehicle_type_id":"4","last_reported":1774341497,"current_range_meters":9200,"station_id":"ce4bgqh2rcd13ifvqc5g","pricing_plan_id":"cebpf4jnsgd1na2vs0mg"},{"bike_id":"762eba06-8520-41c7-b0b4-8147df78de21","system_id":"levelo_inurba_marseille","lat":43.33156,"lon":5.37704,"is_reserved":false,"is_disabled":false,"rental_uris":{"android":"levelo://app?vid=762eba06-8520-41c7-b0b4-8147df78de21","ios":"levelo://app?vid=762eba06-8520-41c7-b0b4-8147df78de21"},"vehicle_type_id":"4","last_reported":1774341497,"current_range_meters":9200,"station_id":"st_d46cu089ee8s73dldbu0","pricing_plan_id":"cebpf4jnsgd1na2vs0mg"},{"bike_id":"067dd6ed-8fb1-4e26-83cb-d5d0bd606076","system_id":"levelo_inurba_marseille","lat":43.3014,"lon":5.3742,"is_reserved":false,"is_disabled":false,"rental_uris":{"android":"levelo://app?vid=067dd6ed-8fb1-4e26-83cb-d5d0bd606076","ios":"levelo://app?vid=067dd6ed-8fb1-4e26-83cb-d5d0bd606076"},"vehicle_type_id":"4","last_reported":1774341497,"current_range_meters":9200,"station_id":"ce4bgs92rcd13ifvqcc0","pricing_plan_id":"cebpf4jnsgd1na2vs0mg"},{"bike_id":"d520c672-a946-4bd2-bc2d-9a95f6b0b226","system_id":"levelo_inurba_marseille","lat":43.23903,"lon":5.37453,"is_reserved":false,"is_disabled":false,"rental_uris":{"android":"levelo://app?vid=d520c672-a946-4bd2-bc2d-9a95f6b0b226","ios":"levelo://app?vid=d520c672-a946-4bd2-bc2d-9a95f6b0b226"},"vehicle_type_id":"4","last_reported":1774341497,"current_range_meters":9200,"station_id":"st_d6sm7csbq4hs73f8fpjg","pricing_plan_id":"cebpf4jnsgd1na2vs0mg"},{"bike_id":"b9d157e4-adb0-4d64-b93d-349f42c39fcf","system_id":"levelo_inurba_marseille","lat":43.31892,"lon":5.36811,"is_reserved":false,"is_disabled":false,"rental_uris":{"android":"levelo://app?vid=b9d157e4-adb0-4d64-b93d-349f42c39fcf","ios":"levelo://app?vid=b9d157e4-adb0-4d64-b93d-349f42c39fcf"},"vehicle_type_id":"4","last_reported":1774341497,"current_range_meters":9200,"station_id":"st_d6o2h0d0559c73evc1b0","pricing_plan_id":"cebpf4jnsgd1na2vs0mg"},{"bike_id":"e0dfd533-af70-4356-b761-e1b91e9e88b2","system_id":"levelo_inurba_marseille","lat":43.29563,"lon":5.3753,"is_reserved":false,"is_disabled":false,"rental_uris":{"android":"levelo://app?vid=e0dfd533-af70-4356-b761-e1b91e9e88b2","ios":"levelo://app?vid=e0dfd533-af70-4356-b761-e1b91e9e88b2"},"vehicle_type_id":"4","last_reported":1774341497,"current_range_meters":9600,"station_id":"ce4bgh92rcd13ifvqb50","pricing_plan_id":"cebpf4jnsgd1na2vs0mg"},{"bike_id":"a9abd8af-8bd4-41e9-9b12-068972ec99fa","system_id":"levelo_inurba_marseille","lat":43.33548,"lon":5.37472,"is_reserved":false,"is_disabled":false,"rental_uris":{"android":"levelo://app?vid=a9abd8af-8bd4-41e9-9b12-068972ec99fa","ios":"levelo://app?vid=a9abd8af-8bd4-41e9-9b12-068972ec99fa"},"vehicle_type_id":"4","last_reported":1774341497,"current_range_meters":9600,"station_id":"st_d46tts09ee8s73dlu43g","pricing_plan_id":"cebpf4jnsgd1na2vs0mg"},{"bike_id":"f6c1dcc9-a293-44c6-82bb-b59819e897d6","system_id":"levelo_inurba_marseille","lat":43.24082,"lon":5.37747,"is_reserved":false,"is_disabled":false,"rental_uris":{"android":"levelo://app?vid=f6c1dcc9-a293-44c6-82bb-b59819e897d6","ios":"levelo://app?vid=f6c1dcc9-a293-44c6-82bb-b59819e897d6"},"vehicle_type_id":"4","last_reported":1774341497,"current_range_meters":9600,"station_id":"ce4bhnp2rcd13ifvqgvg","pricing_plan_id":"cebpf4jnsgd1na2vs0mg"},{"bike_id":"affefcff-6c8a-4e5a-ba6e-9e2ae0cd3a15","system_id":"levelo_inurba_marseille","lat":43.3139,"lon":5.36781,"is_reserved":false,"is_disabled":false,"rental_uris":{"android":"levelo://app?vid=affefcff-6c8a-4e5a-ba6e-9e2ae0cd3a15","ios":"levelo://app?vid=affefcff-6c8a-4e5a-ba6e-9e2ae0cd3a15"},"vehicle_type_id":"4","last_reported":1774341497,"current_range_meters":9600,"station_id":"","pricing_plan_id":"cebpf4jnsgd1na2vs0mg"},{"bike_id":"992d461f-8839-4086-b27a-9edc1d38b03d","system_id":"levelo_inurba_marseille","lat":43.33557,"lon":5.37458,"is_reserved":false,"is_disabled":false,"rental_uris":{"android":"levelo://app?vid=992d461f-8839-4086-b27a-9edc1d38b03d","ios":"levelo://app?vid=992d461f-8839-4086-b27a-9edc1d38b03d"},"vehicle_type_id":"4","last_reported":1774341497,"current_range_meters":9600,"station_id":"st_d46tts09ee8s73dlu43g","pricing_plan_id":"cebpf4jnsgd1na2vs0mg"},{"bike_id":"cfa07362-56e8-41cd-8e9d-ddb2a38a7039","system_id":"levelo_inurba_marseille","lat":43.32697,"lon":5.40987,"is_reserved":false,"is_disabled":false,"rental_uris":{"android":"levelo://app?vid=cfa07362-56e8-41cd-8e9d-ddb2a38a7039","ios":"levelo://app?vid=cfa07362-56e8-41cd-8e9d-ddb2a38a7039"},"vehicle_type_id":"4","last_reported":1774341497,"current_range_meters":9600,"station_id":"ce4bhpp2rcd13ifvqhgg","pricing_plan_id":"cebpf4jnsgd1na2vs0mg"},{"bike_id":"62c0eda8-c666-40c1-b62d-71242266f316","system_id":"levelo_inurba_marseille","lat":43.28515,"lon":5.39178,"is_reserved":false,"is_disabled":true,"rental_uris":{"android":"levelo://app?vid=62c0eda8-c666-40c1-b62d-71242266f316","ios":"levelo://app?vid=62c0eda8-c666-40c1-b62d-71242266f316"},"vehicle_type_id":"4","last_reported":1774341497,"current_range_meters":9600,"station_id":"","pricing_plan_id":"cebpf4jnsgd1na2vs0mg"},{"bike_id":"022369b7-d0ac-45d7-b6d7-0c20b9ca63c6","system_id":"levelo_inurba_marseille","lat":43.28949,"lon":5.36619,"is_reserved":false,"is_disabled":false,"rental_uris":{"android":"levelo://app?vid=022369b7-d0ac-45d7-b6d7-0c20b9ca63c6","ios":"levelo://app?vid=022369b7-d0ac-45d7-b6d7-0c20b9ca63c6"},"vehicle_type_id":"4","last_reported":1774341497,"current_range_meters":9600,"station_id":"ce4bhap2rcd13ifvqek0","pricing_plan_id":"cebpf4jnsgd1na2vs0mg"},{"bike_id":"ce06bf40-96ae-4e86-a452-564173754271","system_id":"levelo_inurba_marseille","lat":43.27078,"lon":5.42264,"is_reserved":false,"is_disabled":false,"rental_uris":{"android":"levelo://app?vid=ce06bf40-96ae-4e86-a452-564173754271","ios":"levelo://app?vid=ce06bf40-96ae-4e86-a452-564173754271"},"vehicle_type_id":"4","last_reported":1774341497,"current_range_meters":9600,"station_id":"ce4bhk92rcd13ifvqgb0","pricing_plan_id":"cebpf4jnsgd1na2vs0mg"},{"bike_id":"489b1f47-9bf9-4f10-90f5-3b4dff230700","system_id":"levelo_inurba_marseille","lat":43.23768,"lon":5.36621,"is_reserved":false,"is_disabled":false,"rental_uris":{"android":"levelo://app?vid=489b1f47-9bf9-4f10-90f5-3b4dff230700","ios":"levelo://app?vid=489b1f47-9bf9-4f10-90f5-3b4dff230700"},"vehicle_type_id":"4","last_reported":1774341497,"current_range_meters":9600,"station_id":"st_d3nk18o9ro0c73en2l3g","pricing_plan_id":"cebpf4jnsgd1na2vs0mg"},{"bike_id":"15c49336-f029-4990-a1dc-d78a3cdf9a97","system_id":"levelo_inurba_marseille","lat":43.33605,"lon":5.41038,"is_reserved":false,"is_disabled":false,"rental_uris":{"android":"levelo://app?vid=15c49336-f029-4990-a1dc-d78a3cdf9a97","ios":"levelo://app?vid=15c49336-f029-4990-a1dc-d78a3cdf9a97"},"vehicle_type_id":"4","last_reported":1774341497,"current_range_meters":9600,"station_id":"ce4bhqh2rcd13ifvqhmg","pricing_plan_id":"cebpf4jnsgd1na2vs0mg"},{"bike_id":"ed8243ec-cff9-4edf-9bea-a305e68a8102","system_id":"levelo_inurba_marseille","lat":43.29345,"lon":5.37847,"is_reserved":false,"is_disabled":false,"rental_uris":{"android":"levelo://app?vid=ed8243ec-cff9-4edf-9bea-a305e68a8102","ios":"levelo://app?vid=ed8243ec-cff9-4edf-9bea-a305e68a8102"},"vehicle_type_id":"4","last_reported":1774341497,"current_range_meters":9600,"station_id":"","pricing_plan_id":"cebpf4jnsgd1na2vs0mg"},{"bike_id":"7dcaeaa2-921b-448b-99f6-95ad8a58532a","system_id":"levelo_inurba_marseille","lat":43.2903,"lon":5.37572,"is_reserved":false,"is_disabled":false,"rental_uris":{"android":"levelo://app?vid=7dcaeaa2-921b-448b-99f6-95ad8a58532a","ios":"levelo://app?vid=7dcaeaa2-921b-448b-99f6-95ad8a58532a"},"vehicle_type_id":"4","last_reported":1774341497,"current_range_meters":9600,"station_id":"ce4bh692rcd13ifvqe90","pricing_plan_id":"cebpf4jnsgd1na2vs0mg"},{"bike_id":"f4a22ed4-27e4-4a1b-8711-0d5edbbeb7a6","system_id":"levelo_inurba_marseille","lat":43.27838,"lon":5.39212,"is_reserved":false,"is_disabled":false,"rental_uris":{"android":"levelo://app?vid=f4a22ed4-27e4-4a1b-8711-0d5edbbeb7a6","ios":"levelo://app?vid=f4a22ed4-27e4-4a1b-8711-0d5edbbeb7a6"},"vehicle_type_id":"4","last_reported":1774341497,"current_range_meters":9600,"station_id":"ce4bhjp2rcd13ifvqga0","pricing_plan_id":"cebpf4jnsgd1na2vs0mg"},{"bike_id":"847181fb-3038-4b7e-a4c6-051ce56e30c2","system_id":"levelo_inurba_marseille","lat":43.27562,"lon":5.38436,"is_reserved":false,"is_disabled":false,"rental_uris":{"android":"levelo://app?vid=847181fb-3038-4b7e-a4c6-051ce56e30c2","ios":"levelo://app?vid=847181fb-3038-4b7e-a4c6-051ce56e30c2"},"vehicle_type_id":"4","last_reported":1774341497,"current_range_meters":9600,"station_id":"ce4bhh92rcd13ifvqfi0","pricing_plan_id":"cebpf4jnsgd1na2vs0mg"},{"bike_id":"df98898b-c83c-4f80-be16-f04ebf6b0c77","system_id":"levelo_inurba_marseille","lat":43.32139,"lon":5.36797,"is_reserved":false,"is_disabled":false,"rental_uris":{"android":"levelo://app?vid=df98898b-c83c-4f80-be16-f04ebf6b0c77","ios":"levelo://app?vid=df98898b-c83c-4f80-be16-f04ebf6b0c77"},"vehicle_type_id":"4","last_reported":1774341497,"current_range_meters":9600,"station_id":"","pricing_plan_id":"cebpf4jnsgd1na2vs0mg"},{"bike_id":"99c12050-22eb-4861-a833-8a01ec4e2574","system_id":"levelo_inurba_marseille","lat":43.30414,"lon":5.41282,"is_reserved":false,"is_disabled":false,"rental_uris":{"android":"levelo://app?vid=99c12050-22eb-4861-a833-8a01ec4e2574","ios":"levelo://app?vid=99c12050-22eb-4861-a833-8a01ec4e2574"},"vehicle_type_id":"4","last_reported":1774341497,"current_range_meters":9600,"station_id":"ce4bhop2rcd13ifvqh8g","pricing_plan_id":"cebpf4jnsgd1na2vs0mg"},{"bike_id":"8e9627d6-25fb-4a0a-ab59-7d4b2afa277b","system_id":"levelo_inurba_marseille","lat":43.3015,"lon":5.37406,"is_reserved":false,"is_disabled":false,"rental_uris":{"android":"levelo://app?vid=8e9627d6-25fb-4a0a-ab59-7d4b2afa277b","ios":"levelo://app?vid=8e9627d6-25fb-4a0a-ab59-7d4b2afa277b"},"vehicle_type_id":"4","last_reported":1774341497,"current_range_meters":9600,"station_id":"ce4bgs92rcd13ifvqcc0","pricing_plan_id":"cebpf4jnsgd1na2vs0mg"},{"bike_id":"3ee0098a-0575-4633-8c79-f35bd2707156","system_id":"levelo_inurba_marseille","lat":43.2454,"lon":5.39528,"is_reserved":false,"is_disabled":false,"rental_uris":{"android":"levelo://app?vid=3ee0098a-0575-4633-8c79-f35bd2707156","ios":"levelo://app?vid=3ee0098a-0575-4633-8c79-f35bd2707156"},"vehicle_type_id":"4","last_reported":1774341497,"current_range_meters":10000,"station_id":"ce4bhlp2rcd13ifvqgjg","pricing_plan_id":"cebpf4jnsgd1na2vs0mg"},{"bike_id":"fd62c189-7ce6-44b0-ae3a-61d9148ec2e6","system_id":"levelo_inurba_marseille","lat":43.272034,"lon":5.391859,"is_reserved":false,"is_disabled":true,"rental_uris":{"android":"levelo://app?vid=fd62c189-7ce6-44b0-ae3a-61d9148ec2e6","ios":"levelo://app?vid=fd62c189-7ce6-44b0-ae3a-61d9148ec2e6"},"vehicle_type_id":"4","last_reported":1774341497,"current_range_meters":10000,"station_id":"","pricing_plan_id":"cebpf4jnsgd1na2vs0mg"},{"bike_id":"906f17c0-60c6-4dfc-84c3-93d15fbf23d8","system_id":"levelo_inurba_marseille","lat":43.26683,"lon":5.38265,"is_reserved":false,"is_disabled":false,"rental_uris":{"android":"levelo://app?vid=906f17c0-60c6-4dfc-84c3-93d15fbf23d8","ios":"levelo://app?vid=906f17c0-60c6-4dfc-84c3-93d15fbf23d8"},"vehicle_type_id":"4","last_reported":1774341497,"current_range_meters":10000,"station_id":"ce4bhg92rcd13ifvqf90","pricing_plan_id":"cebpf4jnsgd1na2vs0mg"},{"bike_id":"6d4d6582-e142-4f9d-84a4-d2c7bfe5f79c","system_id":"levelo_inurba_marseille","lat":43.24078,"lon":5.37753,"is_reserved":false,"is_disabled":false,"rental_uris":{"android":"levelo://app?vid=6d4d6582-e142-4f9d-84a4-d2c7bfe5f79c","ios":"levelo://app?vid=6d4d6582-e142-4f9d-84a4-d2c7bfe5f79c"},"vehicle_type_id":"4","last_reported":1774341497,"current_range_meters":10000,"station_id":"","pricing_plan_id":"cebpf4jnsgd1na2vs0mg"},{"bike_id":"6b8acac9-ccf3-4647-89ff-89fbb46b6df8","system_id":"levelo_inurba_marseille","lat":43.30331,"lon":5.45016,"is_reserved":false,"is_disabled":false,"rental_uris":{"android":"levelo://app?vid=6b8acac9-ccf3-4647-89ff-89fbb46b6df8","ios":"levelo://app?vid=6b8acac9-ccf3-4647-89ff-89fbb46b6df8"},"vehicle_type_id":"4","last_reported":1774341497,"current_range_meters":10000,"station_id":"","pricing_plan_id":"cebpf4jnsgd1na2vs0mg"},{"bike_id":"66071a2b-b2ee-4a77-b65d-976f06c79310","system_id":"levelo_inurba_marseille","lat":43.26381,"lon":5.41061,"is_reserved":false,"is_disabled":false,"rental_uris":{"android":"levelo://app?vid=66071a2b-b2ee-4a77-b65d-976f06c79310","ios":"levelo://app?vid=66071a2b-b2ee-4a77-b65d-976f06c79310"},"vehicle_type_id":"4","last_reported":1774341497,"current_range_meters":10000,"station_id":"st_d4e5ca6na9uc73bfl5fg","pricing_plan_id":"cebpf4jnsgd1na2vs0mg"},{"bike_id":"afe0a86a-bdb1-4d45-9157-9ef00bbb9918","system_id":"levelo_inurba_marseille","lat":43.26767,"lon":5.39421,"is_reserved":false,"is_disabled":false,"rental_uris":{"android":"levelo://app?vid=afe0a86a-bdb1-4d45-9157-9ef00bbb9918","ios":"levelo://app?vid=afe0a86a-bdb1-4d45-9157-9ef00bbb9918"},"vehicle_type_id":"4","last_reported":1774341497,"current_range_meters":10000,"station_id":"ce4bhh12rcd13ifvqfg0","pricing_plan_id":"cebpf4jnsgd1na2vs0mg"},{"bike_id":"258e3f3a-acf3-4559-92b8-8bc767199efa","system_id":"levelo_inurba_marseille","lat":43.25729,"lon":5.41107,"is_reserved":false,"is_disabled":false,"rental_uris":{"android":"levelo://app?vid=258e3f3a-acf3-4559-92b8-8bc767199efa","ios":"levelo://app?vid=258e3f3a-acf3-4559-92b8-8bc767199efa"},"vehicle_type_id":"4","last_reported":1774341497,"current_range_meters":10000,"station_id":"ce4bhkp2rcd13ifvqgd0","pricing_plan_id":"cebpf4jnsgd1na2vs0mg"},{"bike_id":"22a23811-103e-4b7f-b397-9a9c52a96d9b","system_id":"levelo_inurba_marseille","lat":43.29576,"lon":5.37507,"is_reserved":false,"is_disabled":false,"rental_uris":{"android":"levelo://app?vid=22a23811-103e-4b7f-b397-9a9c52a96d9b","ios":"levelo://app?vid=22a23811-103e-4b7f-b397-9a9c52a96d9b"},"vehicle_type_id":"4","last_reported":1774341497,"current_range_meters":10000,"station_id":"ce4bgh92rcd13ifvqb50","pricing_plan_id":"cebpf4jnsgd1na2vs0mg"},{"bike_id":"db23ebda-ef7b-4738-b1a2-70195b447c20","system_id":"levelo_inurba_marseille","lat":43.22565,"lon":5.41638,"is_reserved":false,"is_disabled":false,"rental_uris":{"android":"levelo://app?vid=db23ebda-ef7b-4738-b1a2-70195b447c20","ios":"levelo://app?vid=db23ebda-ef7b-4738-b1a2-70195b447c20"},"vehicle_type_id":"4","last_reported":1774341497,"current_range_meters":10000,"station_id":"st_d2o4gvlbi1j2169b742g","pricing_plan_id":"cebpf4jnsgd1na2vs0mg"},{"bike_id":"1e918871-5864-4c70-b8b0-f948647bad08","system_id":"levelo_inurba_marseille","lat":43.24558,"lon":5.39534,"is_reserved":false,"is_disabled":false,"rental_uris":{"android":"levelo://app?vid=1e918871-5864-4c70-b8b0-f948647bad08","ios":"levelo://app?vid=1e918871-5864-4c70-b8b0-f948647bad08"},"vehicle_type_id":"4","last_reported":1774341497,"current_range_meters":10000,"station_id":"ce4bhlp2rcd13ifvqgjg","pricing_plan_id":"cebpf4jnsgd1na2vs0mg"},