{"last_updated":1752876662,"ttl":60,"version":"2.2","data":{"bikes":[{"bike_id":"53b742a7-31ae-4272-9bba-7740339e2a2f","system_id":"levelo_inurba_marseille","lat":43.33747,"lon":5.37463,"is_reserved":false,"is_disabled":false,"rental_uris":{"android":"levelo://app?vid=53b742a7-31ae-4272-9bba-7740339e2a2f","ios":"levelo://app?vid=53b742a7-31ae-4272-9bba-7740339e2a2f"},"vehicle_type_id":"1","last_reported":1752876663,"current_range_meters":18000,"station_id":"","pricing_plan_id":"cebpf4jnsgd1na2vs0mg"},{"bike_id":"010beabc-e898-4f36-9cbf-d2287e69157b","system_id":"levelo_inurba_marseille","lat":43.278413,"lon":5.391879,"is_reserved":false,"is_disabled":false,"rental_uris":{"android":"levelo://app?vid=010beabc-e898-4f36-9cbf-d2287e69157b","ios":"levelo://app?vid=010beabc-e898-4f36-9cbf-d2287e69157b"},"vehicle_type_id":"4","last_reported":1752876663,"current_range_meters":2800,"station_id":"ce4bhjp2rcd13ifvqga0","pricing_plan_id":"cebpf4jnsgd1na2vs0mg"},{"bike_id":"a1c831e6-cd46-44b5-a475-1b9be53cc370","system_id":"levelo_inurba_marseille","lat":43.27814,"lon":5.40712,"is_reserved":false,"is_disabled":false,"rental_uris":{"android":"levelo://app?vid=a1c831e6-cd46-44b5-a475-1b9be53cc370","ios":"levelo://app?vid=a1c831e6-cd46-44b5-a475-1b9be53cc370"},"vehicle_type_id":"4","last_reported":1752876663,"current_range_meters":3200,"station_id":"ce4bhnh2rcd13ifvqgtg","pricing_plan_id":"cebpf4jnsgd1na2vs0mg"},{"bike_id":"c27ced46-316b-4542-b79e-caf776aed47e","system_id":"levelo_inurba_marseille","lat":43.31645,"lon":5.37237,"is_reserved":false,"is_disabled":false,"rental_uris":{"android":"levelo://app?vid=c27ced46-316b-4542-b79e-caf776aed47e","ios":"levelo://app?vid=c27ced46-316b-4542-b79e-caf776aed47e"},"vehicle_type_id":"4","last_reported":1752876663,"current_range_meters":3600,"station_id":"","pricing_plan_id":"cebpf4jnsgd1na2vs0mg"},{"bike_id":"b23ffdf0-2b90-417d-bb80-16f3793ebe4b","system_id":"levelo_inurba_marseille","lat":43.292869,"lon":5.368561,"is_reserved":false,"is_disabled":false,"rental_uris":{"android":"levelo://app?vid=b23ffdf0-2b90-417d-bb80-16f3793ebe4b","ios":"levelo://app?vid=b23ffdf0-2b90-417d-bb80-16f3793ebe4b"},"vehicle_type_id":"4","last_reported":1752876663,"current_range_meters":3600,"station_id":"ce4bgjh2rcd13ifvqbf0","pricing_plan_id":"cebpf4jnsgd1na2vs0mg"},{"bike_id":"00ecada3-8577-4c51-98e2-f760bc2bb718","system_id":"levelo_inurba_marseille","lat":43.29424,"lon":5.43232,"is_reserved":false,"is_disabled":false,"rental_uris":{"android":"levelo://app?vid=00ecada3-8577-4c51-98e2-f760bc2bb718","ios":"levelo://app?vid=00ecada3-8577-4c51-98e2-f760bc2bb718"},"vehicle_type_id":"4","last_reported":1752876663,"current_range_meters":3600,"station_id":"","pricing_plan_id":"cebpf4jnsgd1na2vs0mg"},{"bike_id":"13714f23-a220-49c1-8f85-943b16f13cb2","system_id":"levelo_inurba_marseille","lat":43.31164,"lon":5.36957,"is_reserved":false,"is_disabled":false,"rental_uris":{"android":"levelo://app?vid=13714f23-a220-49c1-8f85-943b16f13cb2","ios":"levelo://app?vid=13714f23-a220-49c1-8f85-943b16f13cb2"},"vehicle_type_id":"4","last_reported":1752876663,"current_range_meters":4000,"station_id":"ce4bgl92rcd13ifvqbq0","pricing_plan_id":"cebpf4jnsgd1na2vs0mg"},{"bike_id":"20e1cc30-ccbe-478e-bcb7-dc20e13576d1","system_id":"levelo_inurba_marseille","lat":43.28409,"lon":5.34987,"is_reserved":false,"is_disabled":true,"rental_uris":{"android":"levelo://app?vid=20e1cc30-ccbe-478e-bcb7-dc20e13576d1","ios":"levelo://app?vid=20e1cc30-ccbe-478e-bcb7-dc20e13576d1"},"vehicle_type_id":"4","last_reported":1752876663,"current_range_meters":4400,"station_id":"ce4bhbh2rcd13ifvqepg","pricing_plan_id":"cebpf4jnsgd1na2vs0mg"},{"bike_id":"200b9085-2b93-48be-9ca1-52d15b3d325c","system_id":"levelo_inurba_marseille","lat":43.34143,"lon":5.44356,"is_reserved":false,"is_disabled":false,"rental_uris":{"android":"levelo://app?vid=200b9085-2b93-48be-9ca1-52d15b3d325c","ios":"levelo://app?vid=200b9085-2b93-48be-9ca1-52d15b3d325c"},"vehicle_type_id":"4","last_reported":1752876663,"current_range_meters":5600,"station_id":"","pricing_plan_id":"cebpf4jnsgd1na2vs0mg"},{"bike_id":"a21af788-3543-4355-b87b-99d973fff7af","system_id":"levelo_inurba_marseille","lat":43.28702,"lon":5.39987,"is_reserved":false,"is_disabled":false,"rental_uris":{"android":"levelo://app?vid=a21af788-3543-4355-b87b-99d973fff7af","ios":"levelo://app?vid=a21af788-3543-4355-b87b-99d973fff7af"},"vehicle_type_id":"4","last_reported":1752876663,"current_range_meters":5600,"station_id":"ce4bho92rcd13ifvqh3g","pricing_plan_id":"cebpf4jnsgd1na2vs0mg"},{"bike_id":"75a21491-57a5-4198-a34e-94a9e7346b3b","system_id":"levelo_inurba_marseille","lat":43.297062,"lon":5.366019,"is_reserved":false,"is_disabled":false,"rental_uris":{"android":"levelo://app?vid=75a21491-57a5-4198-a34e-94a9e7346b3b","ios":"levelo://app?vid=75a21491-57a5-4198-a34e-94a9e7346b3b"},"vehicle_type_id":"4","last_reported":1752876663,"current_range_meters":6000,"station_id":"ce4bhh12rcd13ifvqff0","pricing_plan_id":"cebpf4jnsgd1na2vs0mg"},{"bike_id":"9eafc5c0-f0bc-49de-b2bb-b0d2ea9740c1","system_id":"levelo_inurba_marseille","lat":43.23963,"lon":5.36629,"is_reserved":false,"is_disabled":false,"rental_uris":{"android":"levelo://app?vid=9eafc5c0-f0bc-49de-b2bb-b0d2ea9740c1","ios":"levelo://app?vid=9eafc5c0-f0bc-49de-b2bb-b0d2ea9740c1"},"vehicle_type_id":"4","last_reported":1752876663,"current_range_meters":6000,"station_id":"ce4bhi12rcd13ifvqfp0","pricing_plan_id":"cebpf4jnsgd1na2vs0mg"},{"bike_id":"0552ea12-01c1-4fc3-9631-ab4df8c50dde","system_id":"levelo_inurba_marseille","lat":43.22506,"lon":5.34783,"is_reserved":false,"is_disabled":false,"rental_uris":{"android":"levelo://app?vid=0552ea12-01c1-4fc3-9631-ab4df8c50dde","ios":"levelo://app?vid=0552ea12-01c1-4fc3-9631-ab4df8c50dde"},"vehicle_type_id":"4","last_reported":1752876663,"current_range_meters":6000,"station_id":"st_cvj5dfep6f1abm77gieg","pricing_plan_id":"cebpf4jnsgd1na2vs0mg"},{"bike_id":"e95b1477-33a1-48a7-a021-3878a6895222","system_id":"levelo_inurba_marseille","lat":43.21749,"lon":5.34605,"is_reserved":false,"is_disabled":false,"rental_uris":{"android":"levelo://app?vid=e95b1477-33a1-48a7-a021-3878a6895222","ios":"levelo://app?vid=e95b1477-33a1-48a7-a021-3878a6895222"},"vehicle_type_id":"4","last_reported":1752876663,"current_range_meters":6000,"station_id":"st_cvj6r9ubvosntc0bgbag","pricing_plan_id":"cebpf4jnsgd1na2vs0mg"},{"bike_id":"411c9023-efd6-4473-aa82-a2dbf5dcc280","system_id":"levelo_inurba_marseille","lat":43.3383,"lon":5.38357,"is_reserved":false,"is_disabled":false,"rental_uris":{"android":"levelo://app?vid=411c9023-efd6-4473-aa82-a2dbf5dcc280","ios":"levelo://app?vid=411c9023-efd6-4473-aa82-a2dbf5dcc280"},"vehicle_type_id":"4","last_reported":1752876663,"current_range_meters":6400,"station_id":"","pricing_plan_id":"cebpf4jnsgd1na2vs0mg"},{"bike_id":"04d15a50-cb94-495c-969c-c09473f1fcda","system_id":"levelo_inurba_marseille","lat":43.296196,"lon":5.377039,"is_reserved":false,"is_disabled":true,"rental_uris":{"android":"levelo://app?vid=04d15a50-cb94-495c-969c-c09473f1fcda","ios":"levelo://app?vid=04d15a50-cb94-495c-969c-c09473f1fcda"},"vehicle_type_id":"4","last_reported":1752876663,"current_range_meters":6400,"station_id":"","pricing_plan_id":"cebpf4jnsgd1na2vs0mg"},{"bike_id":"ca258444-33e9-4715-89c3-e2fc49c4e371","system_id":"levelo_inurba_marseille","lat":43.30457,"lon":5.37912,"is_reserved":false,"is_disabled":false,"rental_uris":{"android":"levelo://app?vid=ca258444-33e9-4715-89c3-e2fc49c4e371","ios":"levelo://app?vid=ca258444-33e9-4715-89c3-e2fc49c4e371"},"vehicle_type_id":"4","last_reported":1752876663,"current_range_meters":6400,"station_id":"ce4bgup2rcd13ifvqcn0","pricing_plan_id":"cebpf4jnsgd1na2vs0mg"},{"bike_id":"37437322-8c8c-42de-b8fa-18f1317c54a8","system_id":"levelo_inurba_marseille","lat":43.23268,"lon":5.36822,"is_reserved":false,"is_disabled":false,"rental_uris":{"android":"levelo://app?vid=37437322-8c8c-42de-b8fa-18f1317c54a8","ios":"levelo://app?vid=37437322-8c8c-42de-b8fa-18f1317c54a8"},"vehicle_type_id":"4","last_reported":1752876663,"current_range_meters":6400,"station_id":"","pricing_plan_id":"cebpf4jnsgd1na2vs0mg"},{"bike_id":"fac0282f-8464-40c0-a555-366aaf51e0f8","system_id":"levelo_inurba_marseille","lat":43.294215,"lon":5.386173,"is_reserved":false,"is_disabled":false,"rental_uris":{"android":"levelo://app?vid=fac0282f-8464-40c0-a555-366aaf51e0f8","ios":"levelo://app?vid=fac0282f-8464-40c0-a555-366aaf51e0f8"},"vehicle_type_id":"4","last_reported":1752876663,"current_range_meters":6400,"station_id":"ce4bgih2rcd13ifvqba0","pricing_plan_id":"cebpf4jnsgd1na2vs0mg"},{"bike_id":"3444bdc6-514a-4ba6-9650-f9073305e33d","system_id":"levelo_inurba_marseille","lat":43.29682,"lon":5.3698,"is_reserved":false,"is_disabled":false,"rental_uris":{"android":"levelo://app?vid=3444bdc6-514a-4ba6-9650-f9073305e33d","ios":"levelo://app?vid=3444bdc6-514a-4ba6-9650-f9073305e33d"},"vehicle_type_id":"4","last_reported":1752876663,"current_range_meters":6800,"station_id":"","pricing_plan_id":"cebpf4jnsgd1na2vs0mg"},{"bike_id":"555bc53e-5286-4fb6-9154-af42b3fd9792","system_id":"levelo_inurba_marseille","lat":43.30061,"lon":5.37288,"is_reserved":false,"is_disabled":false,"rental_uris":{"android":"levelo://app?vid=555bc53e-5286-4fb6-9154-af42b3fd9792","ios":"levelo://app?vid=555bc53e-5286-4fb6-9154-af42b3fd9792"},"vehicle_type_id":"4","last_reported":1752876663,"current_range_meters":6800,"station_id":"","pricing_plan_id":"cebpf4jnsgd1na2vs0mg"},{"bike_id":"390e500f-7aa0-4756-a0c7-a031c9a38372","system_id":"levelo_inurba_marseille","lat":43.24077,"lon":5.37755,"is_reserved":false,"is_disabled":false,"rental_uris":{"android":"levelo://app?vid=390e500f-7aa0-4756-a0c7-a031c9a38372","ios":"levelo://app?vid=390e500f-7aa0-4756-a0c7-a031c9a38372"},"vehicle_type_id":"4","last_reported":1752876663,"current_range_meters":6800,"station_id":"ce4bhnp2rcd13ifvqgvg","pricing_plan_id":"cebpf4jnsgd1na2vs0mg"},{"bike_id":"1959c683-b7ff-4369-860e-da034b28261e","system_id":"levelo_inurba_marseille","lat":43.23182,"lon":5.3999,"is_reserved":false,"is_disabled":false,"rental_uris":{"android":"levelo://app?vid=1959c683-b7ff-4369-860e-da034b28261e","ios":"levelo://app?vid=1959c683-b7ff-4369-860e-da034b28261e"},"vehicle_type_id":"4","last_reported":1752876663,"current_range_meters":7200,"station_id":"ce4bhn12rcd13ifvqgqg","pricing_plan_id":"cebpf4jnsgd1na2vs0mg"},{"bike_id":"fcb43646-13dd-4cea-b3e4-460cae3cbed7","system_id":"levelo_inurba_marseille","lat":43.22476,"lon":5.34827,"is_reserved":false,"is_disabled":false,"rental_uris":{"android":"levelo://app?vid=fcb43646-13dd-4cea-b3e4-460cae3cbed7","ios":"levelo://app?vid=fcb43646-13dd-4cea-b3e4-460cae3cbed7"},"vehicle_type_id":"4","last_reported":1752876663,"current_range_meters":7200,"station_id":"st_cvj5dfep6f1abm77gieg","pricing_plan_id":"cebpf4jnsgd1na2vs0mg"},{"bike_id":"d1b1ae6f-562f-42f0-a958-cbc912a1619d","system_id":"levelo_inurba_marseille","lat":43.2761,"lon":5.36114,"is_reserved":false,"is_disabled":true,"rental_uris":{"android":"levelo://app?vid=d1b1ae6f-562f-42f0-a958-cbc912a1619d","ios":"levelo://app?vid=d1b1ae6f-562f-42f0-a958-cbc912a1619d"},"vehicle_type_id":"4","last_reported":1752876663,"current_range_meters":7200,"station_id":"ce4bgj92rcd13ifvqbe0","pricing_plan_id":"cebpf4jnsgd1na2vs0mg"},{"bike_id":"8333e135-74e5-42e9-b49a-4694a2ab0908","system_id":"levelo_inurba_marseille","lat":43.31494,"lon":5.37292,"is_reserved":false,"is_disabled":false,"rental_uris":{"android":"levelo://app?vid=8333e135-74e5-42e9-b49a-4694a2ab0908","ios":"levelo://app?vid=8333e135-74e5-42e9-b49a-4694a2ab0908"},"vehicle_type_id":"4","last_reported":1752876663,"current_range_meters":7200,"station_id":"ce4bgt12rcd13ifvqcd0","pricing_plan_id":"cebpf4jnsgd1na2vs0mg"},{"bike_id":"28d27c17-e6ca-4cec-aec9-f1f6696b8a12","system_id":"levelo_inurba_marseille","lat":43.29923,"lon":5.43644,"is_reserved":false,"is_disabled":true,"rental_uris":{"android":"levelo://app?vid=28d27c17-e6ca-4cec-aec9-f1f6696b8a12","ios":"levelo://app?vid=28d27c17-e6ca-4cec-aec9-f1f6696b8a12"},"vehicle_type_id":"4","last_reported":1752876663,"current_range_meters":7200,"station_id":"","pricing_plan_id":"cebpf4jnsgd1na2vs0mg"},{"bike_id":"2452b50b-caf6-4a15-b4bb-226573f08ecc","system_id":"levelo_inurba_marseille","lat":43.290985,"lon":5.381293,"is_reserved":false,"is_disabled":false,"rental_uris":{"android":"levelo://app?vid=2452b50b-caf6-4a15-b4bb-226573f08ecc","ios":"levelo://app?vid=2452b50b-caf6-4a15-b4bb-226573f08ecc"},"vehicle_type_id":"4","last_reported":1752876663,"current_range_meters":8000,"station_id":"ce4bh512rcd13ifvqe2g","pricing_plan_id":"cebpf4jnsgd1na2vs0mg"},{"bike_id":"0913d053-f79e-4728-beb9-d5b7cfdcdc58","system_id":"levelo_inurba_marseille","lat":43.29493,"lon":5.38557,"is_reserved":false,"is_disabled":false,"rental_uris":{"android":"levelo://app?vid=0913d053-f79e-4728-beb9-d5b7cfdcdc58","ios":"levelo://app?vid=0913d053-f79e-4728-beb9-d5b7cfdcdc58"},"vehicle_type_id":"4","last_reported":1752876663,"current_range_meters":8000,"station_id":"ce4bgih2rcd13ifvqba0","pricing_plan_id":"cebpf4jnsgd1na2vs0mg"},{"bike_id":"f897316b-05ba-46b0-b0d4-12469937bce4","system_id":"levelo_inurba_marseille","lat":43.33026,"lon":5.39055,"is_reserved":false,"is_disabled":false,"rental_uris":{"android":"levelo://app?vid=f897316b-05ba-46b0-b0d4-12469937bce4","ios":"levelo://app?vid=f897316b-05ba-46b0-b0d4-12469937bce4"},"vehicle_type_id":"4","last_reported":1752876663,"current_range_meters":8000,"station_id":"ce4bhr92rcd13ifvqhrg","pricing_plan_id":"cebpf4jnsgd1na2vs0mg"},{"bike_id":"56d35fb4-c3fa-422a-a14b-9ed987a4f56f","system_id":"levelo_inurba_marseille","lat":43.24804,"lon":5.3746,"is_reserved":false,"is_disabled":true,"rental_uris":{"android":"levelo://app?vid=56d35fb4-c3fa-422a-a14b-9ed987a4f56f","ios":"levelo://app?vid=56d35fb4-c3fa-422a-a14b-9ed987a4f56f"},"vehicle_type_id":"4","last_reported":1752876663,"current_range_meters":8400,"station_id":"ce4bhgh2rcd13ifvqfb0","pricing_plan_id":"cebpf4jnsgd1na2vs0mg"},{"bike_id":"07f5ae19-0925-43ef-aab4-48ec58bc62b9","system_id":"levelo_inurba_marseille","lat":43.31448,"lon":5.37432,"is_reserved":false,"is_disabled":false,"rental_uris":{"android":"levelo://app?vid=07f5ae19-0925-43ef-aab4-48ec58bc62b9","ios":"levelo://app?vid=07f5ae19-0925-43ef-aab4-48ec58bc62b9"},"vehicle_type_id":"4","last_reported":1752876663,"current_range_meters":8400,"station_id":"","pricing_plan_id":"cebpf4jnsgd1na2vs0mg"},{"bike_id":"819e175b-32dd-482c-940d-f12d4db97fd5","system_id":"levelo_inurba_marseille","lat":43.24176,"lon":5.39731,"is_reserved":false,"is_disabled":false,"rental_uris":{"android":"levelo://app?vid=819e175b-32dd-482c-940d-f12d4db97fd5","ios":"levelo://app?vid=819e175b-32dd-482c-940d-f12d4db97fd5"},"vehicle_type_id":"4","last_reported":1752876663,"current_range_meters":8400,"station_id":"ce4bhn12rcd13ifvqgpg","pricing_plan_id":"cebpf4jnsgd1na2vs0mg"},{"bike_id":"b29b4439-b50e-4dd9-8839-d0b59179f1e7","system_id":"levelo_inurba_marseille","lat":43.26961,"lon":5.38611,"is_reserved":false,"is_disabled":true,"rental_uris":{"android":"levelo://app?vid=b29b4439-b50e-4dd9-8839-d0b59179f1e7","ios":"levelo://app?vid=b29b4439-b50e-4dd9-8839-d0b59179f1e7"},"vehicle_type_id":"4","last_reported":1752876663,"current_range_meters":8800,"station_id":"ce4bhh92rcd13ifvqfh0","pricing_plan_id":"cebpf4jnsgd1na2vs0mg"},{"bike_id":"ae96ba32-0084-410c-9322-19d27d32da0b","system_id":"levelo_inurba_marseille","lat":43.3136,"lon":5.36698,"is_reserved":false,"is_disabled":false,"rental_uris":{"android":"levelo://app?vid=ae96ba32-0084-410c-9322-19d27d32da0b","ios":"levelo://app?vid=ae96ba32-0084-410c-9322-19d27d32da0b"},"vehicle_type_id":"4","last_reported":1752876663,"current_range_meters":8800,"station_id":"ce4bgr92rcd13ifvqc6g","pricing_plan_id":"cebpf4jnsgd1na2vs0mg"},{"bike_id":"79e00cba-979b-4370-b320-7e4857db9893","system_id":"levelo_inurba_marseille","lat":43.33788,"lon":5.37444,"is_reserved":false,"is_disabled":false,"rental_uris":{"android":"levelo://app?vid=79e00cba-979b-4370-b320-7e4857db9893","ios":"levelo://app?vid=79e00cba-979b-4370-b320-7e4857db9893"},"vehicle_type_id":"4","last_reported":1752876663,"current_range_meters":8800,"station_id":"","pricing_plan_id":"cebpf4jnsgd1na2vs0mg"},{"bike_id":"255f63b3-d391-461e-9168-7b692342f2c5","system_id":"levelo_inurba_marseille","lat":43.21197,"lon":5.35072,"is_reserved":false,"is_disabled":false,"rental_uris":{"android":"levelo://app?vid=255f63b3-d391-461e-9168-7b692342f2c5","ios":"levelo://app?vid=255f63b3-d391-461e-9168-7b692342f2c5"},"vehicle_type_id":"4","last_reported":1752876663,"current_range_meters":8800,"station_id":"st_cvj6sg6p6f1abm77japg","pricing_plan_id":"cebpf4jnsgd1na2vs0mg"},{"bike_id":"514a2618-38ad-417b-9509-3bafb6563917","system_id":"levelo_inurba_marseille","lat":43.28359,"lon":5.38632,"is_reserved":false,"is_disabled":false,"rental_uris":{"android":"levelo://app?vid=514a2618-38ad-417b-9509-3bafb6563917","ios":"levelo://app?vid=514a2618-38ad-417b-9509-3bafb6563917"},"vehicle_type_id":"4","last_reported":1752876663,"current_range_meters":8800,"station_id":"ce4bh492rcd13ifvqdvg","pricing_plan_id":"cebpf4jnsgd1na2vs0mg"},{"bike_id":"2ac93549-5c94-4228-8eea-782a21384d10","system_id":"levelo_inurba_marseille","lat":43.29634,"lon":5.37793,"is_reserved":false,"is_disabled":false,"rental_uris":{"android":"levelo://app?vid=2ac93549-5c94-4228-8eea-782a21384d10","ios":"levelo://app?vid=2ac93549-5c94-4228-8eea-782a21384d10"},"vehicle_type_id":"4","last_reported":1752876663,"current_range_meters":8800,"station_id":"","pricing_plan_id":"cebpf4jnsgd1na2vs0mg"},{"bike_id":"5c512656-cb55-4e17-89ea-c883f7f63553","system_id":"levelo_inurba_marseille","lat":43.21771,"lon":5.3458,"is_reserved":false,"is_disabled":true,"rental_uris":{"android":"levelo://app?vid=5c512656-cb55-4e17-89ea-c883f7f63553","ios":"levelo://app?vid=5c512656-cb55-4e17-89ea-c883f7f63553"},"vehicle_type_id":"4","last_reported":1752876663,"current_range_meters":8800,"station_id":"st_cvj6r9ubvosntc0bgbag","pricing_plan_id":"cebpf4jnsgd1na2vs0mg"},{"bike_id":"971a06d2-2927-4fda-994c-56f583ff41e1","system_id":"levelo_inurba_marseille","lat":43.30544,"lon":5.38414,"is_reserved":false,"is_disabled":false,"rental_uris":{"android":"levelo://app?vid=971a06d2-2927-4fda-994c-56f583ff41e1","ios":"levelo://app?vid=971a06d2-2927-4fda-994c-56f583ff41e1"},"vehicle_type_id":"4","last_reported":1752876663,"current_range_meters":9200,"station_id":"ce4bgg92rcd13ifvqb30","pricing_plan_id":"cebpf4jnsgd1na2vs0mg"},{"bike_id":"369e4f54-9d31-4707-bb5c-8f049f9a5870","system_id":"levelo_inurba_marseille","lat":43.28935,"lon":5.36637,"is_reserved":false,"is_disabled":false,"rental_uris":{"android":"levelo://app?vid=369e4f54-9d31-4707-bb5c-8f049f9a5870","ios":"levelo://app?vid=369e4f54-9d31-4707-bb5c-8f049f9a5870"},"vehicle_type_id":"4","last_reported":1752876663,"current_range_meters":9200,"station_id":"ce4bhap2rcd13ifvqek0","pricing_plan_id":"cebpf4jnsgd1na2vs0mg"},{"bike_id":"e555b545-304c-4dce-8496-1643c0f2600e","system_id":"levelo_inurba_marseille","lat":43.337444,"lon":5.374475,"is_reserved":false,"is_disabled":false,"rental_uris":{"android":"levelo://app?vid=e555b545-304c-4dce-8496-1643c0f2600e","ios":"levelo://app?vid=e555b545-304c-4dce-8496-1643c0f2600e"},"vehicle_type_id":"4","last_reported":1752876663,"current_range_meters":9200,"station_id":"","pricing_plan_id":"cebpf4jnsgd1na2vs0mg"},{"bike_id":"14c83551-7685-4cac-8222-2e51547866f1","system_id":"levelo_inurba_marseille","lat":43.29307,"lon":5.37168,"is_reserved":false,"is_disabled":false,"rental_uris":{"android":"levelo://app?vid=14c83551-7685-4cac-8222-2e51547866f1","ios":"levelo://app?vid=14c83551-7685-4cac-8222-2e51547866f1"},"vehicle_type_id":"4","last_reported":1752876663,"current_range_meters":9200,"station_id":"ce4bgh92rcd13ifvqb40","pricing_plan_id":"cebpf4jnsgd1na2vs0mg"},{"bike_id":"79e7801b-2dd2-44d7-9cff-395ecced3149","system_id":"levelo_inurba_marseille","lat":43.30524,"lon":5.36528,"is_reserved":false,"is_disabled":false,"rental_uris":{"android":"levelo://app?vid=79e7801b-2dd2-44d7-9cff-395ecced3149","ios":"levelo://app?vid=79e7801b-2dd2-44d7-9cff-395ecced3149"},"vehicle_type_id":"4","last_reported":1752876663,"current_range_meters":9200,"station_id":"","pricing_plan_id":"cebpf4jnsgd1na2vs0mg"},{"bike_id":"a84b9b21-0409-45e0-a48d-e727dfc94e9c","system_id":"levelo_inurba_marseille","lat":43.27378,"lon":5.36258,"is_reserved":false,"is_disabled":false,"rental_uris":{"android":"levelo://app?vid=a84b9b21-0409-45e0-a48d-e727dfc94e9c","ios":"levelo://app?vid=a84b9b21-0409-45e0-a48d-e727dfc94e9c"},"vehicle_type_id":"4","last_reported":1752876663,"current_range_meters":9200,"station_id":"ce4bhbh2rcd13ifvqeo0","pricing_plan_id":"cebpf4jnsgd1na2vs0mg"},{"bike_id":"1dc34a01-2678-4e18-a488-204011082480","system_id":"levelo_inurba_marseille","lat":43.330461,"lon":5.406881,"is_reserved":false,"is_disabled":false,"rental_uris":{"android":"levelo://app?vid=1dc34a01-2678-4e18-a488-204011082480","ios":"levelo://app?vid=1dc34a01-2678-4e18-a488-204011082480"},"vehicle_type_id":"4","last_reported":1752876663,"current_range_meters":9600,"station_id":"ce4bhqh2rcd13ifvqhmg","pricing_plan_id":"cebpf4jnsgd1na2vs0mg"},{"bike_id":"35c5e64a-45e1-45dc-95df-b5b79c8c9e7a","system_id":"levelo_inurba_marseille","lat":43.296,"lon":5.38081,"is_reserved":false,"is_disabled":false,"rental_uris":{"android":"levelo://app?vid=35c5e64a-45e1-45dc-95df-b5b79c8c9e7a","ios":"levelo://app?vid=35c5e64a-45e1-45dc-95df-b5b79c8c9e7a"},"vehicle_type_id":"4","last_reported":1752876663,"current_range_meters":9600,"station_id":"ce4bgl12rcd13ifvqbo0","pricing_plan_id":"cebpf4jnsgd1na2vs0mg"},{"bike_id":"da891840-0cec-4ccc-961c-48903736c6fa","system_id":"levelo_inurba_marseille","lat":43.31139,"lon":5.37692,"is_reserved":false,"is_disabled":false,"rental_uris":{"android":"levelo://app?vid=da891840-0cec-4ccc-961c-48903736c6fa","ios":"levelo://app?vid=da891840-0cec-4ccc-961c-48903736c6fa"},"vehicle_type_id":"4","last_reported":1752876663,"current_range_meters":9600,"station_id":"","pricing_plan_id":"cebpf4jnsgd1na2vs0mg"},{"bike_id":"8a1b5911-b98b-4034-99da-072095d662b3","system_id":"levelo_inurba_marseille","lat":43.29959,"lon":5.38508,"is_reserved":false,"is_disabled":false,"rental_uris":{"android":"levelo://app?vid=8a1b5911-b98b-4034-99da-072095d662b3","ios":"levelo://app?vid=8a1b5911-b98b-4034-99da-072095d662b3"},"vehicle_type_id":"4","last_reported":1752876663,"current_range_meters":9600,"station_id":"ce4bgj92rcd13ifvqbd0","pricing_plan_id":"cebpf4jnsgd1na2vs0mg"},{"bike_id":"537df271-1e3d-4ffc-ad70-ada379266803","system_id":"levelo_inurba_marseille","lat":43.21744,"lon":5.34601,"is_reserved":false,"is_disabled":false,"rental_uris":{"android":"levelo://app?vid=537df271-1e3d-4ffc-ad70-ada379266803","ios":"levelo://app?vid=537df271-1e3d-4ffc-ad70-ada379266803"},"vehicle_type_id":"4","last_reported":1752876663,"current_range_meters":10000,"station_id":"st_cvj6r9ubvosntc0bgbag","pricing_plan_id":"cebpf4jnsgd1na2vs0mg"},{"bike_id":"ca8c6aa6-b746-4d50-9cc1-13b1f831b9f4","system_id":"levelo_inurba_marseille","lat":43.29442,"lon":5.38574,"is_reserved":false,"is_disabled":false,"rental_uris":{"android":"levelo://app?vid=ca8c6aa6-b746-4d50-9cc1-13b1f831b9f4","ios":"levelo://app?vid=ca8c6aa6-b746-4d50-9cc1-13b1f831b9f4"},"vehicle_type_id":"4","last_reported":1752876663,"current_range_meters":10000,"station_id":"ce4bh2h2rcd13ifvqdh0","pricing_plan_id":"cebpf4jnsgd1na2vs0mg"},{"bike_id":"b18457b6-b744-4542-873e-ebb7266cf94f","system_id":"levelo_inurba_marseille","lat":43.28603,"lon":5.37067,"is_reserved":false,"is_disabled":false,"rental_uris":{"android":"levelo://app?vid=b18457b6-b744-4542-873e-ebb7266cf94f","ios":"levelo://app?vid=b18457b6-b744-4542-873e-ebb7266cf94f"},"vehicle_type_id":"4","last_reported":1752876663,"current_range_meters":10000,"station_id":"ce4bht12rcd13ifvqi60","pricing_plan_id":"cebpf4jnsgd1na2vs0mg"},{"bike_id":"dad73b19-9225-4aa5-b2bc-3dbd3eb4349c","system_id":"levelo_inurba_marseille","lat":43.28153,"lon":5.42639,"is_reserved":false,"is_disabled":false,"rental_uris":{"android":"levelo://app?vid=dad73b19-9225-4aa5-b2bc-3dbd3eb4349c","ios":"levelo://app?vid=dad73b19-9225-4aa5-b2bc-3dbd3eb4349c"},"vehicle_type_id":"4","last_reported":1752876663,"current_range_meters":10000,"station_id":"ce4bhnh2rcd13ifvqgug","pricing_plan_id":"cebpf4jnsgd1na2vs0mg"},{"bike_id":"8a66b07f-1eed-424c-95bb-32b33b24cdca","system_id":"levelo_inurba_marseille","lat":43.283992,"lon":5.384967,"is_reserved":false,"is_disabled":false,"rental_uris":{"android":"levelo://app?vid=8a66b07f-1eed-424c-95bb-32b33b24cdca","ios":"levelo://app?vid=8a66b07f-1eed-424c-95bb-32b33b24cdca"},"vehicle_type_id":"4","last_reported":1752876663,"current_range_meters":10000,"station_id":"ce4bh512rcd13ifvqe3g","pricing_plan_id":"cebpf4jnsgd1na2vs0mg"},{"bike_id":"1b722bc5-24da-4137-ab35-d5b894be166b","system_id":"levelo_inurba_marseille","lat":43.30128,"lon":5.3877,"is_reserved":false,"is_disabled":false,"rental_uris":{"android":"levelo://app?vid=1b722bc5-24da-4137-ab35-d5b894be166b","ios":"levelo://app?vid=1b722bc5-24da-4137-ab35-d5b894be166b"},"vehicle_type_id":"4","last_reported":1752876663,"current_range_meters":10000,"station_id":"ce4bghh2rcd13ifvqb60","pricing_plan_id":"cebpf4jnsgd1na2vs0mg"},{"bike_id":"a198bfec-3db2-402f-a311-e1361c0d3e2b","system_id":"levelo_inurba_marseille","lat":43.28095,"lon":5.37851,"is_reserved":false,"is_disabled":false,"rental_uris":{"android":"levelo://app?vid=a198bfec-3db2-402f-a311-e1361c0d3e2b","ios":"levelo://app?vid=a198bfec-3db2-402f-a311-e1361c0d3e2b"},"vehicle_type_id":"4","last_reported":1752876663,"current_range_meters":10800,"station_id":"ce4bha12rcd13ifvqee0","pricing_plan_id":"cebpf4jnsgd1na2vs0mg"},{"bike_id":"44bf74f9-0a90-4bf5-bc27-21dada9d010a","system_id":"levelo_inurba_marseille","lat":43.29196,"lon":5.3932,"is_reserved":false,"is_disabled":false,"rental_uris":{"android":"levelo://app?vid=44bf74f9-0a90-4bf5-bc27-21dada9d010a","ios":"levelo://app?vid=44bf74f9-0a90-4bf5-bc27-21dada9d010a"},"vehicle_type_id":"4","last_reported":1752876663,"current_range_meters":10800,"station_id":"ce4bh192rcd13ifvqdd0","pricing_plan_id":"cebpf4jnsgd1na2vs0mg"},{"bike_id":"24acb9a1-74ee-4907-b7e4-ab985796556b","system_id":"levelo_inurba_marseille","lat":43.31122,"lon":5.37756,"is_reserved":false,"is_disabled":false,"rental_uris":{"android":"levelo://app?vid=24acb9a1-74ee-4907-b7e4-ab985796556b","ios":"levelo://app?vid=24acb9a1-74ee-4907-b7e4-ab985796556b"},"vehicle_type_id":"4","last_reported":1752876663,"current_range_meters":10800,"station_id":"ce4bgt92rcd13ifvqcg0","pricing_plan_id":"cebpf4jnsgd1na2vs0mg"},{"bike_id":"3549c4e7-5a10-4ab6-9608-31c69153babd","system_id":"levelo_inurba_marseille","lat":43.2742,"lon":5.39418,"is_reserved":false,"is_disabled":false,"rental_uris":{"android":"levelo://app?vid=3549c4e7-5a10-4ab6-9608-31c69153babd","ios":"levelo://app?vid=3549c4e7-5a10-4ab6-9608-31c69153babd"},"vehicle_type_id":"4","last_reported":1752876663,"current_range_meters":8800,"station_id":"ce4bhdp2rcd13ifvqf20","pricing_plan_id":"cebpf4jnsgd1na2vs0mg"},{"bike_id":"b3454ca1-7216-444e-a62f-2968c656b14a","system_id":"levelo_inurba_marseille","lat":43.3088,"lon":5.39644,"is_reserved":false,"is_disabled":false,"rental_uris":{"android":"levelo://app?vid=b3454ca1-7216-444e-a62f-2968c656b14a","ios":"levelo://app?vid=b3454ca1-7216-444e-a62f-2968c656b14a"},"vehicle_type_id":"4","last_reported":1752876663,"current_range_meters":10800,"station_id":"ce4bh012rcd13ifvqcv0","pricing_plan_id":"cebpf4jnsgd1na2vs0mg"},{"bike_id":"5b72a834-e535-4458-8084-f9453fb8ed78","system_id":"levelo_inurba_marseille","lat":43.27426,"lon":5.39412,"is_reserved":false,"is_disabled":false,"rental_uris":{"android":"levelo://app?vid=5b72a834-e535-4458-8084-f9453fb8ed78","ios":"levelo://app?vid=5b72a834-e535-4458-8084-f9453fb8ed78"},"vehicle_type_id":"4","last_reported":1752876663,"current_range_meters":10800,"station_id":"ce4bhdp2rcd13ifvqf20","pricing_plan_id":"cebpf4jnsgd1na2vs0mg"},{"bike_id":"ade6b85c-6a6c-4230-abc0-6dc967d7d481","system_id":"levelo_inurba_marseille","lat":43.29271,"lon":5.40152,"is_reserved":false,"is_disabled":false,"rental_uris":{"android":"levelo://app?vid=ade6b85c-6a6c-4230-abc0-6dc967d7d481","ios":"levelo://app?vid=ade6b85c-6a6c-4230-abc0-6dc967d7d481"},"vehicle_type_id":"4","last_reported":1752876663,"current_range_meters":10800,"station_id":"ce4bh312rcd13ifvqdk0","pricing_plan_id":"cebpf4jnsgd1na2vs0mg"},{"bike_id":"792c6d19-d2aa-43d0-ba46-67942c12daaa","system_id":"levelo_inurba_marseille","lat":43.28607,"lon":5.37069,"is_reserved":false,"is_disabled":false,"rental_uris":{"android":"levelo://app?vid=792c6d19-d2aa-43d0-ba46-67942c12daaa","ios":"levelo://app?vid=792c6d19-d2aa-43d0-ba46-67942c12daaa"},"vehicle_type_id":"4","last_reported":1752876663,"current_range_meters":10800,"station_id":"ce4bht12rcd13ifvqi60","pricing_plan_id":"cebpf4jnsgd1na2vs0mg"},{"bike_id":"2d95b47d-d06f-40a4-bb6e-c13e954e3c8f","system_id":"levelo_inurba_marseille","lat":43.27726,"lon":5.41418,"is_reserved":false,"is_disabled":false,"rental_uris":{"android":"levelo://app?vid=2d95b47d-d06f-40a4-bb6e-c13e954e3c8f","ios":"levelo://app?vid=2d95b47d-d06f-40a4-bb6e-c13e954e3c8f"},"vehicle_type_id":"4","last_reported":1752876663,"current_range_meters":11200,"station_id":"","pricing_plan_id":"cebpf4jnsgd1na2vs0mg"},{"bike_id":"b004baab-db70-453e-84a5-9312df4bd1d6","system_id":"levelo_inurba_marseille","lat":43.22508,"lon":5.34777,"is_reserved":false,"is_disabled":false,"rental_uris":{"android":"levelo://app?vid=b004baab-db70-453e-84a5-9312df4bd1d6","ios":"levelo://app?vid=b004baab-db70-453e-84a5-9312df4bd1d6"},"vehicle_type_id":"4","last_reported":1752876663,"current_range_meters":11200,"station_id":"st_cvj5dfep6f1abm77gieg","pricing_plan_id":"cebpf4jnsgd1na2vs0mg"},{"bike_id":"4eaf6730-c9d5-4f24-944c-090bd8992e0b","system_id":"levelo_inurba_marseille","lat":43.287338,"lon":5.360955,"is_reserved":false,"is_disabled":false,"rental_uris":{"android":"levelo://app?vid=4eaf6730-c9d5-4f24-944c-090bd8992e0b","ios":"levelo://app?vid=4eaf6730-c9d5-4f24-944c-090bd8992e0b"},"vehicle_type_id":"4","last_reported":1752876663,"current_range_meters":11200,"station_id":"cki0cbj6b192h4jlfktg","pricing_plan_id":"cebpf4jnsgd1na2vs0mg"},{"bike_id":"600ce411-a2cd-4cfb-b393-c3e72d5cd832","system_id":"levelo_inurba_marseille","lat":43.31747,"lon":5.40367,"is_reserved":false,"is_disabled":false,"rental_uris":{"android":"levelo://app?vid=600ce411-a2cd-4cfb-b393-c3e72d5cd832","ios":"levelo://app?vid=600ce411-a2cd-4cfb-b393-c3e72d5cd832"},"vehicle_type_id":"4","last_reported":1752876663,"current_range_meters":11200,"station_id":"ce4bh012rcd13ifvqd00","pricing_plan_id":"cebpf4jnsgd1na2vs0mg"},{"bike_id":"ce7bd25b-5213-4881-a28b-f582e6a1d712","system_id":"levelo_inurba_marseille","lat":43.31336,"lon":5.36712,"is_reserved":false,"is_disabled":true,"rental_uris":{"android":"levelo://app?vid=ce7bd25b-5213-4881-a28b-f582e6a1d712","ios":"levelo://app?vid=ce7bd25b-5213-4881-a28b-f582e6a1d712"},"vehicle_type_id":"4","last_reported":1752876663,"current_range_meters":11200,"station_id":"ce4bgr92rcd13ifvqc6g","pricing_plan_id":"cebpf4jnsgd1na2vs0mg"},{"bike_id":"29c44405-5852-4d48-a871-a9bc5e60ce4b","system_id":"levelo_inurba_marseille","lat":43.28669,"lon":5.3865,"is_reserved":false,"is_disabled":true,"rental_uris":{"android":"levelo://app?vid=29c44405-5852-4d48-a871-a9bc5e60ce4b","ios":"levelo://app?vid=29c44405-5852-4d48-a871-a9bc5e60ce4b"},"vehicle_type_id":"4","last_reported":1752876663,"current_range_meters":11600,"station_id":"ce4bh492rcd13ifvqdug","pricing_plan_id":"cebpf4jnsgd1na2vs0mg"},{"bike_id":"89388cd0-57f4-44ac-a107-97aed21ad33d","system_id":"levelo_inurba_marseille","lat":43.28706,"lon":5.37953,"is_reserved":false,"is_disabled":false,"rental_uris":{"android":"levelo://app?vid=89388cd0-57f4-44ac-a107-97aed21ad33d","ios":"levelo://app?vid=89388cd0-57f4-44ac-a107-97aed21ad33d"},"vehicle_type_id":"4","last_reported":1752876663,"current_range_meters":11200,"station_id":"ce4bh9p2rcd13ifvqec0","pricing_plan_id":"cebpf4jnsgd1na2vs0mg"},{"bike_id":"5ac93e7c-286a-4c1e-b6c0-4e9963e5a9f8","system_id":"levelo_inurba_marseille","lat":43.211905,"lon":5.350702,"is_reserved":false,"is_disabled":false,"rental_uris":{"android":"levelo://app?vid=5ac93e7c-286a-4c1e-b6c0-4e9963e5a9f8","ios":"levelo://app?vid=5ac93e7c-286a-4c1e-b6c0-4e9963e5a9f8"},"vehicle_type_id":"4","last_reported":1752876663,"current_range_meters":11600,"station_id":"st_cvj6sg6p6f1abm77japg","pricing_plan_id":"cebpf4jnsgd1na2vs0mg"},{"bike_id":"c6db0f6a-96fe-4e1d-8ded-c2ef38c9bab4","system_id":"levelo_inurba_marseille","lat":43.305688,"lon":5.418387,"is_reserved":false,"is_disabled":true,"rental_uris":{"android":"levelo://app?vid=c6db0f6a-96fe-4e1d-8ded-c2ef38c9bab4","ios":"levelo://app?vid=c6db0f6a-96fe-4e1d-8ded-c2ef38c9bab4"},"vehicle_type_id":"4","last_reported":1752876663,"current_range_meters":12000,"station_id":"ce4bht12rcd13ifvqi60","pricing_plan_id":"cebpf4jnsgd1na2vs0mg"},{"bike_id":"fd5491f9-40f8-453d-a9e7-e7f270eeba7a","system_id":"levelo_inurba_marseille","lat":43.248,"lon":5.37457,"is_reserved":false,"is_disabled":true,"rental_uris":{"android":"levelo://app?vid=fd5491f9-40f8-453d-a9e7-e7f270eeba7a","ios":"levelo://app?vid=fd5491f9-40f8-453d-a9e7-e7f270eeba7a"},"vehicle_type_id":"4","last_reported":1752876663,"current_range_meters":12000,"station_id":"ce4bhgh2rcd13ifvqfb0","pricing_plan_id":"cebpf4jnsgd1na2vs0mg"},{"bike_id":"4607398c-5481-406b-ba58-548c4b76f331","system_id":"levelo_inurba_marseille","lat":43.271854,"lon":5.362776,"is_reserved":false,"is_disabled":false,"rental_uris":{"android":"levelo://app?vid=4607398c-5481-406b-ba58-548c4b76f331","ios":"levelo://app?vid=4607398c-5481-406b-ba58-548c4b76f331"},"vehicle_type_id":"4","last_reported":1752876663,"current_range_meters":12000,"station_id":"","pricing_plan_id":"cebpf4jnsgd1na2vs0mg"},{"bike_id":"35965273-4af4-457c-87a3-4f7523a4ce80","system_id":"levelo_inurba_marseille","lat":43.28998,"lon":5.35614,"is_reserved":false,"is_disabled":true,"rental_uris":{"android":"levelo://app?vid=35965273-4af4-457c-87a3-4f7523a4ce80","ios":"levelo://app?vid=35965273-4af4-457c-87a3-4f7523a4ce80"},"vehicle_type_id":"4","last_reported":1752876663,"current_range_meters":12000,"station_id":"ce4bhb92rcd13ifvqen0","pricing_plan_id":"cebpf4jnsgd1na2vs0mg"},{"bike_id":"3440effd-0c20-499a-8b33-630b70093c8c","system_id":"levelo_inurba_marseille","lat":43.28711,"lon":5.37939,"is_reserved":false,"is_disabled":false,"rental_uris":{"android":"levelo://app?vid=3440effd-0c20-499a-8b33-630b70093c8c","ios":"levelo://app?vid=3440effd-0c20-499a-8b33-630b70093c8c"},"vehicle_type_id":"4","last_reported":1752876663,"current_range_meters":12000,"station_id":"ce4bh9p2rcd13ifvqec0","pricing_plan_id":"cebpf4jnsgd1na2vs0mg"},{"bike_id":"4dd02715-0aa1-486a-a4d8-01f96f8c7a72","system_id":"levelo_inurba_marseille","lat":43.28157,"lon":5.426363,"is_reserved":false,"is_disabled":false,"rental_uris":{"android":"levelo://app?vid=4dd02715-0aa1-486a-a4d8-01f96f8c7a72","ios":"levelo://app?vid=4dd02715-0aa1-486a-a4d8-01f96f8c7a72"},"vehicle_type_id":"4","last_reported":1752876663,"current_range_meters":12000,"station_id":"ce4bhnh2rcd13ifvqgug","pricing_plan_id":"cebpf4jnsgd1na2vs0mg"},{"bike_id":"be60c88c-1453-4626-be80-200258f79626","system_id":"levelo_inurba_marseille","lat":43.23205,"lon":5.35545,"is_reserved":false,"is_disabled":false,"rental_uris":{"android":"levelo://app?vid=be60c88c-1453-4626-be80-200258f79626","ios":"levelo://app?vid=be60c88c-1453-4626-be80-200258f79626"},"vehicle_type_id":"4","last_reported":1752876663,"current_range_meters":12400,"station_id":"ce4bhu92rcd13ifvqi70","pricing_plan_id":"cebpf4jnsgd1na2vs0mg"},{"bike_id":"cfb52d04-9134-4c86-8269-771716b20f27","system_id":"levelo_inurba_marseille","lat":43.211929,"lon":5.350721,"is_reserved":false,"is_disabled":false,"rental_uris":{"android":"levelo://app?vid=cfb52d04-9134-4c86-8269-771716b20f27","ios":"levelo://app?vid=cfb52d04-9134-4c86-8269-771716b20f27"},"vehicle_type_id":"4","last_reported":1752876663,"current_range_meters":12400,"station_id":"st_cvj6sg6p6f1abm77japg","pricing_plan_id":"cebpf4jnsgd1na2vs0mg"},{"bike_id":"0b250332-c99a-4726-ac2a-74deb04ffed3","system_id":"levelo_inurba_marseille","lat":43.279249,"lon":5.395715,"is_reserved":false,"is_disabled":true,"rental_uris":{"android":"levelo://app?vid=0b250332-c99a-4726-ac2a-74deb04ffed3","ios":"levelo://app?vid=0b250332-c99a-4726-ac2a-74deb04ffed3"},"vehicle_type_id":"4","last_reported":1752876663,"current_range_meters":12800,"station_id":"ce4bhf92rcd13ifvqf40","pricing_plan_id":"cebpf4jnsgd1na2vs0mg"},{"bike_id":"313426e1-aa4c-41c0-81e3-4fb604910541","system_id":"levelo_inurba_marseille","lat":43.30298,"lon":5.39203,"is_reserved":false,"is_disabled":false,"rental_uris":{"android":"levelo://app?vid=313426e1-aa4c-41c0-81e3-4fb604910541","ios":"levelo://app?vid=313426e1-aa4c-41c0-81e3-4fb604910541"},"vehicle_type_id":"4","last_reported":1752876663,"current_range_meters":12800,"station_id":"ce4bgkh2rcd13ifvqbk0","pricing_plan_id":"cebpf4jnsgd1na2vs0mg"},{"bike_id":"b7fe52dd-f025-4212-9e78-19e7f6f09593","system_id":"levelo_inurba_marseille","lat":43.21185,"lon":5.35075,"is_reserved":false,"is_disabled":false,"rental_uris":{"android":"levelo://app?vid=b7fe52dd-f025-4212-9e78-19e7f6f09593","ios":"levelo://app?vid=b7fe52dd-f025-4212-9e78-19e7f6f09593"},"vehicle_type_id":"4","last_reported":1752876663,"current_range_meters":12800,"station_id":"st_cvj6sg6p6f1abm77japg","pricing_plan_id":"cebpf4jnsgd1na2vs0mg"},{"bike_id":"c02e701f-fd4c-476c-9ae3-a7f484819b06","system_id":"levelo_inurba_marseille","lat":43.28719,"lon":5.36099,"is_reserved":false,"is_disabled":false,"rental_uris":{"android":"levelo://app?vid=c02e701f-fd4c-476c-9ae3-a7f484819b06","ios":"levelo://app?vid=c02e701f-fd4c-476c-9ae3-a7f484819b06"},"vehicle_type_id":"4","last_reported":1752876663,"current_range_meters":12400,"station_id":"cki0cbj6b192h4jlfktg","pricing_plan_id":"cebpf4jnsgd1na2vs0mg"},{"bike_id":"9805b6be-e321-4a0a-8e9d-cc6a3a4a94bc","system_id":"levelo_inurba_marseille","lat":43.28695,"lon":5.39982,"is_reserved":false,"is_disabled":false,"rental_uris":{"android":"levelo://app?vid=9805b6be-e321-4a0a-8e9d-cc6a3a4a94bc","ios":"levelo://app?vid=9805b6be-e321-4a0a-8e9d-cc6a3a4a94bc"},"vehicle_type_id":"4","last_reported":1752876663,"current_range_meters":12800,"station_id":"ce4bho92rcd13ifvqh3g","pricing_plan_id":"cebpf4jnsgd1na2vs0mg"},{"bike_id":"70a3940c-c40a-4ef4-8e48-8b68d4968bc7","system_id":"levelo_inurba_marseille","lat":43.23954,"lon":5.36645,"is_reserved":false,"is_disabled":true,"rental_uris":{"android":"levelo://app?vid=70a3940c-c40a-4ef4-8e48-8b68d4968bc7","ios":"levelo://app?vid=70a3940c-c40a-4ef4-8e48-8b68d4968bc7"},"vehicle_type_id":"4","last_reported":1752876663,"current_range_meters":13600,"station_id":"ce4bhi12rcd13ifvqfp0","pricing_plan_id":"cebpf4jnsgd1na2vs0mg"},{"bike_id":"c50a074c-aa80-4a16-bd32-c3dfb5ca56c3","system_id":"levelo_inurba_marseille","lat":43.29507,"lon":5.39034,"is_reserved":false,"is_disabled":false,"rental_uris":{"android":"levelo://app?vid=c50a074c-aa80-4a16-bd32-c3dfb5ca56c3","ios":"levelo://app?vid=c50a074c-aa80-4a16-bd32-c3dfb5ca56c3"},"vehicle_type_id":"4","last_reported":1752876663,"current_range_meters":13600,"station_id":"ce4bh3p2rcd13ifvqdp0","pricing_plan_id":"cebpf4jnsgd1na2vs0mg"},{"bike_id":"bc977b0f-983a-4d9d-9324-cb3136b41199","system_id":"levelo_inurba_marseille","lat":43.29401,"lon":5.38634,"is_reserved":false,"is_disabled":false,"rental_uris":{"android":"levelo://app?vid=bc977b0f-983a-4d9d-9324-cb3136b41199","ios":"levelo://app?vid=bc977b0f-983a-4d9d-9324-cb3136b41199"},"vehicle_type_id":"4","last_reported":1752876663,"current_range_meters":13600,"station_id":"ce4bh2h2rcd13ifvqdh0","pricing_plan_id":"cebpf4jnsgd1na2vs0mg"},{"bike_id":"c3ac509c-e93b-452a-bc2a-82079aaa6a85","system_id":"levelo_inurba_marseille","lat":43.30587,"lon":5.40473,"is_reserved":false,"is_disabled":false,"rental_uris":{"android":"levelo://app?vid=c3ac509c-e93b-452a-bc2a-82079aaa6a85","ios":"levelo://app?vid=c3ac509c-e93b-452a-bc2a-82079aaa6a85"},"vehicle_type_id":"4","last_reported":1752876663,"current_range_meters":13600,"station_id":"","pricing_plan_id":"cebpf4jnsgd1na2vs0mg"},{"bike_id":"57a30f0b-84eb-4b98-8989-8d3c02b43bf0","system_id":"levelo_inurba_marseille","lat":43.28605,"lon":5.37081,"is_reserved":false,"is_disabled":false,"rental_uris":{"android":"levelo://app?vid=57a30f0b-84eb-4b98-8989-8d3c02b43bf0","ios":"levelo://app?vid=57a30f0b-84eb-4b98-8989-8d3c02b43bf0"},"vehicle_type_id":"4","last_reported":1752876663,"current_range_meters":13600,"station_id":"ce4bht12rcd13ifvqi60","pricing_plan_id":"cebpf4jnsgd1na2vs0mg"},{"bike_id":"06f1862a-f727-431f-8fbc-515f26d4d520","system_id":"levelo_inurba_marseille","lat":43.30604,"lon":5.37241,"is_reserved":false,"is_disabled":false,"rental_uris":{"android":"levelo://app?vid=06f1862a-f727-431f-8fbc-515f26d4d520","ios":"levelo://app?vid=06f1862a-f727-431f-8fbc-515f26d4d520"},"vehicle_type_id":"4","last_reported":1752876663,"current_range_meters":13600,"station_id":"ce4bgqh2rcd13ifvqc4g","pricing_plan_id":"cebpf4jnsgd1na2vs0mg"},{"bike_id":"a67156ae-789e-45f5-ab3f-ed7d95b24540","system_id":"levelo_inurba_marseille","lat":43.2119,"lon":5.35074,"is_reserved":false,"is_disabled":false,"rental_uris":{"android":"levelo://app?vid=a67156ae-789e-45f5-ab3f-ed7d95b24540","ios":"levelo://app?vid=a67156ae-789e-45f5-ab3f-ed7d95b24540"},"vehicle_type_id":"4","last_reported":1752876663,"current_range_meters":13600,"station_id":"st_cvj6sg6p6f1abm77japg","pricing_plan_id":"cebpf4jnsgd1na2vs0mg"},{"bike_id":"f27f677b-81ad-455a-bb38-48ea8a12fa6f","system_id":"levelo_inurba_marseille","lat":43.2963,"lon":5.40593,"is_reserved":false,"is_disabled":false,"rental_uris":{"android":"levelo://app?vid=f27f677b-81ad-455a-bb38-48ea8a12fa6f","ios":"levelo://app?vid=f27f677b-81ad-455a-bb38-48ea8a12fa6f"},"vehicle_type_id":"4","last_reported":1752876663,"current_range_meters":13600,"station_id":"ce4bh0h2rcd13ifvqd60","pricing_plan_id":"cebpf4jnsgd1na2vs0mg"},{"bike_id":"c8b4fa10-98a4-46b1-b21a-a4559bac1692","system_id":"levelo_inurba_marseille","lat":43.30806,"lon":5.38182,"is_reserved":false,"is_disabled":false,"rental_uris":{"android":"levelo://app?vid=c8b4fa10-98a4-46b1-b21a-a4559bac1692","ios":"levelo://app?vid=c8b4fa10-98a4-46b1-b21a-a4559bac1692"},"vehicle_type_id":"4","last_reported":1752876663,"current_range_meters":14000,"station_id":"ce4bgt12rcd13ifvqce0","pricing_plan_id":"cebpf4jnsgd1na2vs0mg"},{"bike_id":"af6fdea6-c101-416b-877b-51604dc8b140","system_id":"levelo_inurba_marseille","lat":43.30318,"lon":5.40443,"is_reserved":false,"is_disabled":false,"rental_uris":{"android":"levelo://app?vid=af6fdea6-c101-416b-877b-51604dc8b140","ios":"levelo://app?vid=af6fdea6-c101-416b-877b-51604dc8b140"},"vehicle_type_id":"4","last_reported":1752876663,"current_range_meters":14000,"station_id":"ce4bh012rcd13ifvqd10","pricing_plan_id":"cebpf4jnsgd1na2vs0mg"},{"bike_id":"e571b882-1b31-481a-9f98-8ab8eeeef29c","system_id":"levelo_inurba_marseille","lat":43.286957,"lon":5.37391,"is_reserved":false,"is_disabled":false,"rental_uris":{"android":"levelo://app?vid=e571b882-1b31-481a-9f98-8ab8eeeef29c","ios":"levelo://app?vid=e571b882-1b31-481a-9f98-8ab8eeeef29c"},"vehicle_type_id":"4","last_reported":1752876663,"current_range_meters":14000,"station_id":"ce4bh3p2rcd13ifvqdq0","pricing_plan_id":"cebpf4jnsgd1na2vs0mg"},{"bike_id":"0dae2f6b-f1bd-438b-8bb0-cdbd38ad2295","system_id":"levelo_inurba_marseille","lat":43.317649,"lon":5.426208,"is_reserved":false,"is_disabled":false,"rental_uris":{"android":"levelo://app?vid=0dae2f6b-f1bd-438b-8bb0-cdbd38ad2295","ios":"levelo://app?vid=0dae2f6b-f1bd-438b-8bb0-cdbd38ad2295"},"vehicle_type_id":"4","last_reported":1752876663,"current_range_meters":14000,"station_id":"ce4bhp92rcd13ifvqhbg","pricing_plan_id":"cebpf4jnsgd1na2vs0mg"},{"bike_id":"29d87656-5c35-48e5-bad7-2af75076ba1a","system_id":"levelo_inurba_marseille","lat":43.29274,"lon":5.38444,"is_reserved":false,"is_disabled":false,"rental_uris":{"android":"levelo://app?vid=29d87656-5c35-48e5-bad7-2af75076ba1a","ios":"levelo://app?vid=29d87656-5c35-48e5-bad7-2af75076ba1a"},"vehicle_type_id":"4","last_reported":1752876663,"current_range_meters":14000,"station_id":"ce4bh692rcd13ifvqea0","pricing_plan_id":"cebpf4jnsgd1na2vs0mg"},{"bike_id":"5ed7e33c-75eb-4f80-9ced-f5eee5190af4","system_id":"levelo_inurba_marseille","lat":43.29547,"lon":5.4229,"is_reserved":false,"is_disabled":false,"rental_uris":{"android":"levelo://app?vid=5ed7e33c-75eb-4f80-9ced-f5eee5190af4","ios":"levelo://app?vid=5ed7e33c-75eb-4f80-9ced-f5eee5190af4"},"vehicle_type_id":"4","last_reported":1752876663,"current_range_meters":14800,"station_id":"ce4bhph2rcd13ifvqhdg","pricing_plan_id":"cebpf4jnsgd1na2vs0mg"},{"bike_id":"66b835d3-4d3b-46cc-b87d-f568c8bdd416","system_id":"levelo_inurba_marseille","lat":43.29443,"lon":5.38556,"is_reserved":false,"is_disabled":false,"rental_uris":{"android":"levelo://app?vid=66b835d3-4d3b-46cc-b87d-f568c8bdd416","ios":"levelo://app?vid=66b835d3-4d3b-46cc-b87d-f568c8bdd416"},"vehicle_type_id":"4","last_reported":1752876663,"current_range_meters":14800,"station_id":"","pricing_plan_id":"cebpf4jnsgd1na2vs0mg"},{"bike_id":"ac0ed4be-466c-4caa-b855-3c6bbe5a11b5","system_id":"levelo_inurba_marseille","lat":43.2675,"lon":5.3719,"is_reserved":false,"is_disabled":false,"rental_uris":{"android":"levelo://app?vid=ac0ed4be-466c-4caa-b855-3c6bbe5a11b5","ios":"levelo://app?vid=ac0ed4be-466c-4caa-b855-3c6bbe5a11b5"},"vehicle_type_id":"4","last_reported":1752876663,"current_range_meters":14400,"station_id":"","pricing_plan_id":"cebpf4jnsgd1na2vs0mg"},{"bike_id":"2fd3d782-24a7-42a3-b248-8e69e5a88f8a","system_id":"levelo_inurba_marseille","lat":43.31727,"lon":5.40425,"is_reserved":false,"is_disabled":false,"rental_uris":{"android":"levelo://app?vid=2fd3d782-24a7-42a3-b248-8e69e5a88f8a","ios":"levelo://app?vid=2fd3d782-24a7-42a3-b248-8e69e5a88f8a"},"vehicle_type_id":"4","last_reported":1752876663,"current_range_meters":14400,"station_id":"","pricing_plan_id":"cebpf4jnsgd1na2vs0mg"},{"bike_id":"edd0079d-996b-4ae3-9a31-d781f3a059ec","system_id":"levelo_inurba_marseille","lat":43.33786,"lon":5.37426,"is_reserved":false,"is_disabled":false,"rental_uris":{"android":"levelo://app?vid=edd0079d-996b-4ae3-9a31-d781f3a059ec","ios":"levelo://app?vid=edd0079d-996b-4ae3-9a31-d781f3a059ec"},"vehicle_type_id":"4","last_reported":1752876663,"current_range_meters":14400,"station_id":"","pricing_plan_id":"cebpf4jnsgd1na2vs0mg"},{"bike_id":"3dbe5912-b178-4d6a-b0a5-780c833ee7fa","system_id":"levelo_inurba_marseille","lat":43.29042,"lon":5.356003,"is_reserved":false,"is_disabled":false,"rental_uris":{"android":"levelo://app?vid=3dbe5912-b178-4d6a-b0a5-780c833ee7fa","ios":"levelo://app?vid=3dbe5912-b178-4d6a-b0a5-780c833ee7fa"},"vehicle_type_id":"4","last_reported":1752876663,"current_range_meters":14800,"station_id":"","pricing_plan_id":"cebpf4jnsgd1na2vs0mg"},{"bike_id":"a2e60430-2882-4a9a-84fb-3518d7d8ee90","system_id":"levelo_inurba_marseille","lat":43.29591,"lon":5.38109,"is_reserved":false,"is_disabled":false,"rental_uris":{"android":"levelo://app?vid=a2e60430-2882-4a9a-84fb-3518d7d8ee90","ios":"levelo://app?vid=a2e60430-2882-4a9a-84fb-3518d7d8ee90"},"vehicle_type_id":"4","last_reported":1752876663,"current_range_meters":14800,"station_id":"ce4bgl12rcd13ifvqbo0","pricing_plan_id":"cebpf4jnsgd1na2vs0mg"},{"bike_id":"3814635e-c316-4110-8601-0b3bc41ad6bc","system_id":"levelo_inurba_marseille","lat":43.31117,"lon":5.37768,"is_reserved":false,"is_disabled":false,"rental_uris":{"android":"levelo://app?vid=3814635e-c316-4110-8601-0b3bc41ad6bc","ios":"levelo://app?vid=3814635e-c316-4110-8601-0b3bc41ad6bc"},"vehicle_type_id":"4","last_reported":1752876663,"current_range_meters":14800,"station_id":"ce4bgt92rcd13ifvqcg0","pricing_plan_id":"cebpf4jnsgd1na2vs0mg"},{"bike_id":"0ffec689-ea73-4886-a8a8-e9075fc0366f","system_id":"levelo_inurba_marseille","lat":43.307328,"lon":5.424471,"is_reserved":false,"is_disabled":true,"rental_uris":{"android":"levelo://app?vid=0ffec689-ea73-4886-a8a8-e9075fc0366f","ios":"levelo://app?vid=0ffec689-ea73-4886-a8a8-e9075fc0366f"},"vehicle_type_id":"4","last_reported":1752876663,"current_range_meters":14800,"station_id":"st_cvj6ca6bvosntc0bfgr0","pricing_plan_id":"cebpf4jnsgd1na2vs0mg"},{"bike_id":"bd518e6e-194d-4927-be7d-5826845cbc8f","system_id":"levelo_inurba_marseille","lat":43.28998,"lon":5.38619,"is_reserved":false,"is_disabled":false,"rental_uris":{"android":"levelo://app?vid=bd518e6e-194d-4927-be7d-5826845cbc8f","ios":"levelo://app?vid=bd518e6e-194d-4927-be7d-5826845cbc8f"},"vehicle_type_id":"4","last_reported":1752876663,"current_range_meters":14800,"station_id":"ce4bh4p2rcd13ifvqe0g","pricing_plan_id":"cebpf4jnsgd1na2vs0mg"},{"bike_id":"8e79a85b-71cd-44e2-9769-4ad285ff7c49","system_id":"levelo_inurba_marseille","lat":43.21757,"lon":5.34603,"is_reserved":false,"is_disabled":false,"rental_uris":{"android":"levelo://app?vid=8e79a85b-71cd-44e2-9769-4ad285ff7c49","ios":"levelo://app?vid=8e79a85b-71cd-44e2-9769-4ad285ff7c49"},"vehicle_type_id":"4","last_reported":1752876663,"current_range_meters":14800,"station_id":"st_cvj6r9ubvosntc0bgbag","pricing_plan_id":"cebpf4jnsgd1na2vs0mg"},{"bike_id":"782021d6-37ef-4fe1-8e48-2f487b2e357c","system_id":"levelo_inurba_marseille","lat":43.2656,"lon":5.39035,"is_reserved":false,"is_disabled":false,"rental_uris":{"android":"levelo://app?vid=782021d6-37ef-4fe1-8e48-2f487b2e357c","ios":"levelo://app?vid=782021d6-37ef-4fe1-8e48-2f487b2e357c"},"vehicle_type_id":"4","last_reported":1752876663,"current_range_meters":14800,"station_id":"ce4bhe12rcd13ifvqf30","pricing_plan_id":"cebpf4jnsgd1na2vs0mg"},{"bike_id":"31db4018-9a02-47e5-832f-a3642905b99e","system_id":"levelo_inurba_marseille","lat":43.29027,"lon":5.38637,"is_reserved":false,"is_disabled":false,"rental_uris":{"android":"levelo://app?vid=31db4018-9a02-47e5-832f-a3642905b99e","ios":"levelo://app?vid=31db4018-9a02-47e5-832f-a3642905b99e"},"vehicle_type_id":"4","last_reported":1752876663,"current_range_meters":14800,"station_id":"ce4bh4p2rcd13ifvqe0g","pricing_plan_id":"cebpf4jnsgd1na2vs0mg"},{"bike_id":"e3a07c16-1459-476d-926e-4b7b0c49fbb9","system_id":"levelo_inurba_marseille","lat":43.26558,"lon":5.3731,"is_reserved":false,"is_disabled":false,"rental_uris":{"android":"levelo://app?vid=e3a07c16-1459-476d-926e-4b7b0c49fbb9","ios":"levelo://app?vid=e3a07c16-1459-476d-926e-4b7b0c49fbb9"},"vehicle_type_id":"4","last_reported":1752876663,"current_range_meters":15200,"station_id":"ce4bhg12rcd13ifvqf70","pricing_plan_id":"cebpf4jnsgd1na2vs0mg"},{"bike_id":"08a94e68-7279-4c26-9ca7-7cd2e2f2fe4c","system_id":"levelo_inurba_marseille","lat":43.24178,"lon":5.36379,"is_reserved":false,"is_disabled":true,"rental_uris":{"android":"levelo://app?vid=08a94e68-7279-4c26-9ca7-7cd2e2f2fe4c","ios":"levelo://app?vid=08a94e68-7279-4c26-9ca7-7cd2e2f2fe4c"},"vehicle_type_id":"4","last_reported":1752876663,"current_range_meters":15200,"station_id":"cpo36qri1sfpv3e86is0","pricing_plan_id":"cebpf4jnsgd1na2vs0mg"},{"bike_id":"262bba80-9a85-4074-97aa-225c3aedc3b7","system_id":"levelo_inurba_marseille","lat":43.30698,"lon":5.40054,"is_reserved":false,"is_disabled":true,"rental_uris":{"android":"levelo://app?vid=262bba80-9a85-4074-97aa-225c3aedc3b7","ios":"levelo://app?vid=262bba80-9a85-4074-97aa-225c3aedc3b7"},"vehicle_type_id":"4","last_reported":1752876663,"current_range_meters":15200,"station_id":"ce4bh112rcd13ifvqda0","pricing_plan_id":"cebpf4jnsgd1na2vs0mg"},{"bike_id":"1a794689-0399-4bd8-871c-778f85fe0438","system_id":"levelo_inurba_marseille","lat":43.274904,"lon":5.424605,"is_reserved":false,"is_disabled":false,"rental_uris":{"android":"levelo://app?vid=1a794689-0399-4bd8-871c-778f85fe0438","ios":"levelo://app?vid=1a794689-0399-4bd8-871c-778f85fe0438"},"vehicle_type_id":"4","last_reported":1752876663,"current_range_meters":16000,"station_id":"ce4bhn92rcd13ifvqgrg","pricing_plan_id":"cebpf4jnsgd1na2vs0mg"},{"bike_id":"25c5ff19-fef2-474f-83a9-cf6aee639b65","system_id":"levelo_inurba_marseille","lat":43.24802,"lon":5.3746,"is_reserved":false,"is_disabled":false,"rental_uris":{"android":"levelo://app?vid=25c5ff19-fef2-474f-83a9-cf6aee639b65","ios":"levelo://app?vid=25c5ff19-fef2-474f-83a9-cf6aee639b65"},"vehicle_type_id":"4","last_reported":1752876663,"current_range_meters":15200,"station_id":"ce4bhgh2rcd13ifvqfb0","pricing_plan_id":"cebpf4jnsgd1na2vs0mg"},{"bike_id":"c6f3ff05-acb0-4554-9e0d-c20acadd38dc","system_id":"levelo_inurba_marseille","lat":43.26743,"lon":5.41289,"is_reserved":false,"is_disabled":false,"rental_uris":{"android":"levelo://app?vid=c6f3ff05-acb0-4554-9e0d-c20acadd38dc","ios":"levelo://app?vid=c6f3ff05-acb0-4554-9e0d-c20acadd38dc"},"vehicle_type_id":"4","last_reported":1752876663,"current_range_meters":15200,"station_id":"","pricing_plan_id":"cebpf4jnsgd1na2vs0mg"},{"bike_id":"454aaeb2-199f-47fa-a9b0-a67206cd14cf","system_id":"levelo_inurba_marseille","lat":43.2943,"lon":5.38595,"is_reserved":false,"is_disabled":false,"rental_uris":{"android":"levelo://app?vid=454aaeb2-199f-47fa-a9b0-a67206cd14cf","ios":"levelo://app?vid=454aaeb2-199f-47fa-a9b0-a67206cd14cf"},"vehicle_type_id":"4","last_reported":1752876663,"current_range_meters":15200,"station_id":"ce4bh2h2rcd13ifvqdh0","pricing_plan_id":"cebpf4jnsgd1na2vs0mg"},{"bike_id":"9ff1fd3c-c920-4dba-94c3-c5ca49db834d","system_id":"levelo_inurba_marseille","lat":43.25566,"lon":5.38244,"is_reserved":false,"is_disabled":false,"rental_uris":{"android":"levelo://app?vid=9ff1fd3c-c920-4dba-94c3-c5ca49db834d","ios":"levelo://app?vid=9ff1fd3c-c920-4dba-94c3-c5ca49db834d"},"vehicle_type_id":"4","last_reported":1752876663,"current_range_meters":16000,"station_id":"ce4bhih2rcd13ifvqfs0","pricing_plan_id":"cebpf4jnsgd1na2vs0mg"},{"bike_id":"e6ed5a81-2a33-4c37-a36e-2bb390f1a720","system_id":"levelo_inurba_marseille","lat":43.27609,"lon":5.36113,"is_reserved":false,"is_disabled":false,"rental_uris":{"android":"levelo://app?vid=e6ed5a81-2a33-4c37-a36e-2bb390f1a720","ios":"levelo://app?vid=e6ed5a81-2a33-4c37-a36e-2bb390f1a720"},"vehicle_type_id":"4","last_reported":1752876663,"current_range_meters":16000,"station_id":"ce4bgj92rcd13ifvqbe0","pricing_plan_id":"cebpf4jnsgd1na2vs0mg"},{"bike_id":"6e7fdf49-e424-46c1-b02b-628c0ea0e41b","system_id":"levelo_inurba_marseille","lat":43.26203,"lon":5.37456,"is_reserved":false,"is_disabled":false,"rental_uris":{"android":"levelo://app?vid=6e7fdf49-e424-46c1-b02b-628c0ea0e41b","ios":"levelo://app?vid=6e7fdf49-e424-46c1-b02b-628c0ea0e41b"},"vehicle_type_id":"4","last_reported":1752876663,"current_range_meters":16000,"station_id":"ce4bhgp2rcd13ifvqfc0","pricing_plan_id":"cebpf4jnsgd1na2vs0mg"},{"bike_id":"0916292f-c60f-4ec2-a3c5-bb862cec8507","system_id":"levelo_inurba_marseille","lat":43.23162,"lon":5.35599,"is_reserved":false,"is_disabled":false,"rental_uris":{"android":"levelo://app?vid=0916292f-c60f-4ec2-a3c5-bb862cec8507","ios":"levelo://app?vid=0916292f-c60f-4ec2-a3c5-bb862cec8507"},"vehicle_type_id":"4","last_reported":1752876663,"current_range_meters":16000,"station_id":"","pricing_plan_id":"cebpf4jnsgd1na2vs0mg"},{"bike_id":"7f02cd16-abf2-40a4-97c2-19dc0dd97d66","system_id":"levelo_inurba_marseille","lat":43.26216,"lon":5.40479,"is_reserved":false,"is_disabled":false,"rental_uris":{"android":"levelo://app?vid=7f02cd16-abf2-40a4-97c2-19dc0dd97d66","ios":"levelo://app?vid=7f02cd16-abf2-40a4-97c2-19dc0dd97d66"},"vehicle_type_id":"4","last_reported":1752876663,"current_range_meters":16400,"station_id":"ce4bhmh2rcd13ifvqgmg","pricing_plan_id":"cebpf4jnsgd1na2vs0mg"},{"bike_id":"0e3e9a19-a32e-45e2-bce2-fa6c5fad95bf","system_id":"levelo_inurba_marseille","lat":43.31064,"lon":5.38346,"is_reserved":false,"is_disabled":false,"rental_uris":{"android":"levelo://app?vid=0e3e9a19-a32e-45e2-bce2-fa6c5fad95bf","ios":"levelo://app?vid=0e3e9a19-a32e-45e2-bce2-fa6c5fad95bf"},"vehicle_type_id":"4","last_reported":1752876663,"current_range_meters":16400,"station_id":"","pricing_plan_id":"cebpf4jnsgd1na2vs0mg"},{"bike_id":"e752e002-660d-41c6-b44b-59721bbfcc60","system_id":"levelo_inurba_marseille","lat":43.28609,"lon":5.37062,"is_reserved":false,"is_disabled":false,"rental_uris":{"android":"levelo://app?vid=e752e002-660d-41c6-b44b-59721bbfcc60","ios":"levelo://app?vid=e752e002-660d-41c6-b44b-59721bbfcc60"},"vehicle_type_id":"4","last_reported":1752876663,"current_range_meters":16400,"station_id":"ce4bht12rcd13ifvqi60","pricing_plan_id":"cebpf4jnsgd1na2vs0mg"},{"bike_id":"afc91c81-7042-4270-a28e-07e325ae83c9","system_id":"levelo_inurba_marseille","lat":43.21189,"lon":5.35078,"is_reserved":false,"is_disabled":false,"rental_uris":{"android":"levelo://app?vid=afc91c81-7042-4270-a28e-07e325ae83c9","ios":"levelo://app?vid=afc91c81-7042-4270-a28e-07e325ae83c9"},"vehicle_type_id":"4","last_reported":1752876663,"current_range_meters":16400,"station_id":"st_cvj6sg6p6f1abm77japg","pricing_plan_id":"cebpf4jnsgd1na2vs0mg"},{"bike_id":"b57a9841-47a2-4f44-8f8c-748c4f134d1d","system_id":"levelo_inurba_marseille","lat":43.31118,"lon":5.37801,"is_reserved":false,"is_disabled":false,"rental_uris":{"android":"levelo://app?vid=b57a9841-47a2-4f44-8f8c-748c4f134d1d","ios":"levelo://app?vid=b57a9841-47a2-4f44-8f8c-748c4f134d1d"},"vehicle_type_id":"4","last_reported":1752876663,"current_range_meters":16000,"station_id":"ce4bgt92rcd13ifvqcg0","pricing_plan_id":"cebpf4jnsgd1na2vs0mg"},{"bike_id":"524a6576-8d33-4edc-a399-b075b65b725f","system_id":"levelo_inurba_marseille","lat":43.28676,"lon":5.38659,"is_reserved":false,"is_disabled":false,"rental_uris":{"android":"levelo://app?vid=524a6576-8d33-4edc-a399-b075b65b725f","ios":"levelo://app?vid=524a6576-8d33-4edc-a399-b075b65b725f"},"vehicle_type_id":"4","last_reported":1752876663,"current_range_meters":16400,"station_id":"ce4bh492rcd13ifvqdug","pricing_plan_id":"cebpf4jnsgd1na2vs0mg"},{"bike_id":"90f1924f-336d-4405-b5b1-03dcfd5afe7c","system_id":"levelo_inurba_marseille","lat":43.27849,"lon":5.38503,"is_reserved":false,"is_disabled":false,"rental_uris":{"android":"levelo://app?vid=90f1924f-336d-4405-b5b1-03dcfd5afe7c","ios":"levelo://app?vid=90f1924f-336d-4405-b5b1-03dcfd5afe7c"},"vehicle_type_id":"4","last_reported":1752876663,"current_range_meters":16400,"station_id":"","pricing_plan_id":"cebpf4jnsgd1na2vs0mg"},{"bike_id":"83a58fe8-eeff-4a92-856b-d25c4e809f7b","system_id":"levelo_inurba_marseille","lat":43.2602,"lon":5.37563,"is_reserved":false,"is_disabled":false,"rental_uris":{"android":"levelo://app?vid=83a58fe8-eeff-4a92-856b-d25c4e809f7b","ios":"levelo://app?vid=83a58fe8-eeff-4a92-856b-d25c4e809f7b"},"vehicle_type_id":"4","last_reported":1752876663,"current_range_meters":16400,"station_id":"ce4bhgh2rcd13ifvqfa0","pricing_plan_id":"cebpf4jnsgd1na2vs0mg"},{"bike_id":"552f10ae-ebe9-4a43-9161-2070e2842bf6","system_id":"levelo_inurba_marseille","lat":43.32337,"lon":5.40625,"is_reserved":false,"is_disabled":false,"rental_uris":{"android":"levelo://app?vid=552f10ae-ebe9-4a43-9161-2070e2842bf6","ios":"levelo://app?vid=552f10ae-ebe9-4a43-9161-2070e2842bf6"},"vehicle_type_id":"4","last_reported":1752876663,"current_range_meters":16400,"station_id":"ce4bhq92rcd13ifvqhjg","pricing_plan_id":"cebpf4jnsgd1na2vs0mg"},{"bike_id":"3f0bffb6-1ede-47da-b069-4baf0009613c","system_id":"levelo_inurba_marseille","lat":43.29255,"lon":5.409056,"is_reserved":false,"is_disabled":false,"rental_uris":{"android":"levelo://app?vid=3f0bffb6-1ede-47da-b069-4baf0009613c","ios":"levelo://app?vid=3f0bffb6-1ede-47da-b069-4baf0009613c"},"vehicle_type_id":"4","last_reported":1752876663,"current_range_meters":16400,"station_id":"ce4bh192rcd13ifvqdc0","pricing_plan_id":"cebpf4jnsgd1na2vs0mg"},{"bike_id":"840d15da-ce07-4216-bc7e-2f3d01c3b30c","system_id":"levelo_inurba_marseille","lat":43.29422,"lon":5.38602,"is_reserved":false,"is_disabled":false,"rental_uris":{"android":"levelo://app?vid=840d15da-ce07-4216-bc7e-2f3d01c3b30c","ios":"levelo://app?vid=840d15da-ce07-4216-bc7e-2f3d01c3b30c"},"vehicle_type_id":"4","last_reported":1752876663,"current_range_meters":16400,"station_id":"ce4bh2h2rcd13ifvqdh0","pricing_plan_id":"cebpf4jnsgd1na2vs0mg"},{"bike_id":"ac4e4166-6d6f-44ff-970a-72a8811e7ede","system_id":"levelo_inurba_marseille","lat":43.28857,"lon":5.35847,"is_reserved":false,"is_disabled":false,"rental_uris":{"android":"levelo://app?vid=ac4e4166-6d6f-44ff-970a-72a8811e7ede","ios":"levelo://app?vid=ac4e4166-6d6f-44ff-970a-72a8811e7ede"},"vehicle_type_id":"4","last_reported":1752876663,"current_range_meters":16400,"station_id":"ce4bhb12rcd13ifvqem0","pricing_plan_id":"cebpf4jnsgd1na2vs0mg"},{"bike_id":"94c07cb2-0943-4d24-99f2-97bdab47aa3f","system_id":"levelo_inurba_marseille","lat":43.337444,"lon":5.374475,"is_reserved":false,"is_disabled":false,"rental_uris":{"android":"levelo://app?vid=94c07cb2-0943-4d24-99f2-97bdab47aa3f","ios":"levelo://app?vid=94c07cb2-0943-4d24-99f2-97bdab47aa3f"},"vehicle_type_id":"4","last_reported":1752876663,"current_range_meters":16400,"station_id":"","pricing_plan_id":"cebpf4jnsgd1na2vs0mg"},{"bike_id":"c8e10a84-8673-4319-8137-00e890df4628","system_id":"levelo_inurba_marseille","lat":43.29774,"lon":5.39358,"is_reserved":false,"is_disabled":false,"rental_uris":{"android":"levelo://app?vid=c8e10a84-8673-4319-8137-00e890df4628","ios":"levelo://app?vid=c8e10a84-8673-4319-8137-00e890df4628"},"vehicle_type_id":"4","last_reported":1752876663,"current_range_meters":16800,"station_id":"chh1huq6cuj3fo74tm60","pricing_plan_id":"cebpf4jnsgd1na2vs0mg"},{"bike_id":"9103a42e-78b1-4533-a2bd-1e13ff1b00ab","system_id":"levelo_inurba_marseille","lat":43.29021,"lon":5.38646,"is_reserved":false,"is_disabled":false,"rental_uris":{"android":"levelo://app?vid=9103a42e-78b1-4533-a2bd-1e13ff1b00ab","ios":"levelo://app?vid=9103a42e-78b1-4533-a2bd-1e13ff1b00ab"},"vehicle_type_id":"4","last_reported":1752876663,"current_range_meters":16800,"station_id":"ce4bh4p2rcd13ifvqe0g","pricing_plan_id":"cebpf4jnsgd1na2vs0mg"},{"bike_id":"468b083c-3762-4d9d-9df7-37fee0d08873","system_id":"levelo_inurba_marseille","lat":43.31361,"lon":5.384857,"is_reserved":false,"is_disabled":false,"rental_uris":{"android":"levelo://app?vid=468b083c-3762-4d9d-9df7-37fee0d08873","ios":"levelo://app?vid=468b083c-3762-4d9d-9df7-37fee0d08873"},"vehicle_type_id":"4","last_reported":1752876663,"current_range_meters":16800,"station_id":"ce4bgt92rcd13ifvqcf0","pricing_plan_id":"cebpf4jnsgd1na2vs0mg"},{"bike_id":"221a8f03-67cb-485b-8573-9abcf816d5d5","system_id":"levelo_inurba_marseille","lat":43.29868,"lon":5.39734,"is_reserved":false,"is_disabled":false,"rental_uris":{"android":"levelo://app?vid=221a8f03-67cb-485b-8573-9abcf816d5d5","ios":"levelo://app?vid=221a8f03-67cb-485b-8573-9abcf816d5d5"},"vehicle_type_id":"4","last_reported":1752876663,"current_range_meters":16800,"station_id":"","pricing_plan_id":"cebpf4jnsgd1na2vs0mg"},{"bike_id":"2e73ca94-9293-404b-9207-03d0f48ea2b6","system_id":"levelo_inurba_marseille","lat":43.29884,"lon":5.39746,"is_reserved":false,"is_disabled":false,"rental_uris":{"android":"levelo://app?vid=2e73ca94-9293-404b-9207-03d0f48ea2b6","ios":"levelo://app?vid=2e73ca94-9293-404b-9207-03d0f48ea2b6"},"vehicle_type_id":"4","last_reported":1752876663,"current_range_meters":16800,"station_id":"ce4bh0h2rcd13ifvqd50","pricing_plan_id":"cebpf4jnsgd1na2vs0mg"},{"bike_id":"9e944c0d-2dd7-4c1a-b131-d5121e0f348e","system_id":"levelo_inurba_marseille","lat":43.31058,"lon":5.3835,"is_reserved":false,"is_disabled":false,"rental_uris":{"android":"levelo://app?vid=9e944c0d-2dd7-4c1a-b131-d5121e0f348e","ios":"levelo://app?vid=9e944c0d-2dd7-4c1a-b131-d5121e0f348e"},"vehicle_type_id":"4","last_reported":1752876663,"current_range_meters":16800,"station_id":"ce4bgv92rcd13ifvqcr0","pricing_plan_id":"cebpf4jnsgd1na2vs0mg"},{"bike_id":"e7184304-2571-4324-a17d-f339f53cb33e","system_id":"levelo_inurba_marseille","lat":43.2794,"lon":5.41045,"is_reserved":false,"is_disabled":true,"rental_uris":{"android":"levelo://app?vid=e7184304-2571-4324-a17d-f339f53cb33e","ios":"levelo://app?vid=e7184304-2571-4324-a17d-f339f53cb33e"},"vehicle_type_id":"4","last_reported":1752876663,"current_range_meters":16800,"station_id":"ce4bhnp2rcd13ifvqh0g","pricing_plan_id":"cebpf4jnsgd1na2vs0mg"},{"bike_id":"b970126c-c1c3-439a-8880-44ad88bd90cf","system_id":"levelo_inurba_marseille","lat":43.32091,"lon":5.36787,"is_reserved":false,"is_disabled":false,"rental_uris":{"android":"levelo://app?vid=b970126c-c1c3-439a-8880-44ad88bd90cf","ios":"levelo://app?vid=b970126c-c1c3-439a-8880-44ad88bd90cf"},"vehicle_type_id":"4","last_reported":1752876663,"current_range_meters":16800,"station_id":"ce4bhrh2rcd13ifvqhug","pricing_plan_id":"cebpf4jnsgd1na2vs0mg"},{"bike_id":"27365226-d24e-483d-a772-f64e5e2087d5","system_id":"levelo_inurba_marseille","lat":43.29975,"lon":5.3849,"is_reserved":false,"is_disabled":false,"rental_uris":{"android":"levelo://app?vid=27365226-d24e-483d-a772-f64e5e2087d5","ios":"levelo://app?vid=27365226-d24e-483d-a772-f64e5e2087d5"},"vehicle_type_id":"4","last_reported":1752876663,"current_range_meters":16800,"station_id":"ce4bgj92rcd13ifvqbd0","pricing_plan_id":"cebpf4jnsgd1na2vs0mg"},{"bike_id":"63544c20-a54b-4b9a-8d7a-43dd4c48cc49","system_id":"levelo_inurba_marseille","lat":43.28097,"lon":5.37838,"is_reserved":false,"is_disabled":false,"rental_uris":{"android":"levelo://app?vid=63544c20-a54b-4b9a-8d7a-43dd4c48cc49","ios":"levelo://app?vid=63544c20-a54b-4b9a-8d7a-43dd4c48cc49"},"vehicle_type_id":"4","last_reported":1752876663,"current_range_meters":16800,"station_id":"ce4bha12rcd13ifvqee0","pricing_plan_id":"cebpf4jnsgd1na2vs0mg"},{"bike_id":"cd5a9591-6e46-4776-8003-ff3824872e9f","system_id":"levelo_inurba_marseille","lat":43.28989,"lon":5.35637,"is_reserved":false,"is_disabled":true,"rental_uris":{"android":"levelo://app?vid=cd5a9591-6e46-4776-8003-ff3824872e9f","ios":"levelo://app?vid=cd5a9591-6e46-4776-8003-ff3824872e9f"},"vehicle_type_id":"4","last_reported":1752876663,"current_range_meters":16800,"station_id":"ce4bhb92rcd13ifvqen0","pricing_plan_id":"cebpf4jnsgd1na2vs0mg"},{"bike_id":"7360b2c1-827d-4a45-ba07-948ef7d2fc35","system_id":"levelo_inurba_marseille","lat":43.229295,"lon":5.353761,"is_reserved":false,"is_disabled":false,"rental_uris":{"android":"levelo://app?vid=7360b2c1-827d-4a45-ba07-948ef7d2fc35","ios":"levelo://app?vid=7360b2c1-827d-4a45-ba07-948ef7d2fc35"},"vehicle_type_id":"4","last_reported":1752876663,"current_range_meters":16800,"station_id":"","pricing_plan_id":"cebpf4jnsgd1na2vs0mg"},{"bike_id":"96579d04-b9e9-484c-9b9a-af500e5e8552","system_id":"levelo_inurba_marseille","lat":43.32681,"lon":5.36392,"is_reserved":false,"is_disabled":false,"rental_uris":{"android":"levelo://app?vid=96579d04-b9e9-484c-9b9a-af500e5e8552","ios":"levelo://app?vid=96579d04-b9e9-484c-9b9a-af500e5e8552"},"vehicle_type_id":"4","last_reported":1752876663,"current_range_meters":16800,"station_id":"","pricing_plan_id":"cebpf4jnsgd1na2vs0mg"},{"bike_id":"b7f96c45-a300-4f35-b4a9-3c09c88cf0cd","system_id":"levelo_inurba_marseille","lat":43.295093,"lon":5.390393,"is_reserved":false,"is_disabled":false,"rental_uris":{"android":"levelo://app?vid=b7f96c45-a300-4f35-b4a9-3c09c88cf0cd","ios":"levelo://app?vid=b7f96c45-a300-4f35-b4a9-3c09c88cf0cd"},"vehicle_type_id":"4","last_reported":1752876663,"current_range_meters":16800,"station_id":"ce4bh3p2rcd13ifvqdp0","pricing_plan_id":"cebpf4jnsgd1na2vs0mg"},{"bike_id":"86f85a13-331e-45f9-9efb-b247a4a4e103","system_id":"levelo_inurba_marseille","lat":43.31675,"lon":5.43771,"is_reserved":false,"is_disabled":false,"rental_uris":{"android":"levelo://app?vid=86f85a13-331e-45f9-9efb-b247a4a4e103","ios":"levelo://app?vid=86f85a13-331e-45f9-9efb-b247a4a4e103"},"vehicle_type_id":"4","last_reported":1752876663,"current_range_meters":16800,"station_id":"ce4bhp92rcd13ifvqhcg","pricing_plan_id":"cebpf4jnsgd1na2vs0mg"},{"bike_id":"d5cf0ddb-4301-4e01-9253-a4393d968d0a","system_id":"levelo_inurba_marseille","lat":43.22511,"lon":5.34814,"is_reserved":false,"is_disabled":false,"rental_uris":{"android":"levelo://app?vid=d5cf0ddb-4301-4e01-9253-a4393d968d0a","ios":"levelo://app?vid=d5cf0ddb-4301-4e01-9253-a4393d968d0a"},"vehicle_type_id":"4","last_reported":1752876663,"current_range_meters":17200,"station_id":"st_cvj5dfep6f1abm77gieg","pricing_plan_id":"cebpf4jnsgd1na2vs0mg"},{"bike_id":"50ac0c09-9043-4b23-af84-09e2b33c2139","system_id":"levelo_inurba_marseille","lat":43.28339,"lon":5.381,"is_reserved":false,"is_disabled":false,"rental_uris":{"android":"levelo://app?vid=50ac0c09-9043-4b23-af84-09e2b33c2139","ios":"levelo://app?vid=50ac0c09-9043-4b23-af84-09e2b33c2139"},"vehicle_type_id":"4","last_reported":1752876663,"current_range_meters":17200,"station_id":"ce4bh412rcd13ifvqdr0","pricing_plan_id":"cebpf4jnsgd1na2vs0mg"},{"bike_id":"c4ae43b8-2e77-42dc-8b54-db8c691062b4","system_id":"levelo_inurba_marseille","lat":43.29939,"lon":5.36563,"is_reserved":false,"is_disabled":false,"rental_uris":{"android":"levelo://app?vid=c4ae43b8-2e77-42dc-8b54-db8c691062b4","ios":"levelo://app?vid=c4ae43b8-2e77-42dc-8b54-db8c691062b4"},"vehicle_type_id":"4","last_reported":1752876663,"current_range_meters":17200,"station_id":"ce4bgm92rcd13ifvqbr0","pricing_plan_id":"cebpf4jnsgd1na2vs0mg"},{"bike_id":"cb7b541b-4aa0-476b-ac1b-c83b6acaa65d","system_id":"levelo_inurba_marseille","lat":43.24164,"lon":5.36414,"is_reserved":false,"is_disabled":false,"rental_uris":{"android":"levelo://app?vid=cb7b541b-4aa0-476b-ac1b-c83b6acaa65d","ios":"levelo://app?vid=cb7b541b-4aa0-476b-ac1b-c83b6acaa65d"},"vehicle_type_id":"4","last_reported":1752876663,"current_range_meters":17200,"station_id":"cpo36qri1sfpv3e86is0","pricing_plan_id":"cebpf4jnsgd1na2vs0mg"},{"bike_id":"7ba4e5d7-cb43-4db7-9f84-79b21b7ded7d","system_id":"levelo_inurba_marseille","lat":43.29279,"lon":5.40133,"is_reserved":false,"is_disabled":false,"rental_uris":{"android":"levelo://app?vid=7ba4e5d7-cb43-4db7-9f84-79b21b7ded7d","ios":"levelo://app?vid=7ba4e5d7-cb43-4db7-9f84-79b21b7ded7d"},"vehicle_type_id":"4","last_reported":1752876663,"current_range_meters":17200,"station_id":"ce4bh312rcd13ifvqdk0","pricing_plan_id":"cebpf4jnsgd1na2vs0mg"},{"bike_id":"02bf18cb-f3cd-4abe-bc47-4aa93e03fad6","system_id":"levelo_inurba_marseille","lat":43.30526,"lon":5.36605,"is_reserved":false,"is_disabled":false,"rental_uris":{"android":"levelo://app?vid=02bf18cb-f3cd-4abe-bc47-4aa93e03fad6","ios":"levelo://app?vid=02bf18cb-f3cd-4abe-bc47-4aa93e03fad6"},"vehicle_type_id":"4","last_reported":1752876663,"current_range_meters":17200,"station_id":"","pricing_plan_id":"cebpf4jnsgd1na2vs0mg"},{"bike_id":"63387519-3281-4b86-a20e-163b20d7bf3e","system_id":"levelo_inurba_marseille","lat":43.29185,"lon":5.39326,"is_reserved":false,"is_disabled":false,"rental_uris":{"android":"levelo://app?vid=63387519-3281-4b86-a20e-163b20d7bf3e","ios":"levelo://app?vid=63387519-3281-4b86-a20e-163b20d7bf3e"},"vehicle_type_id":"4","last_reported":1752876663,"current_range_meters":17200,"station_id":"ce4bh192rcd13ifvqdd0","pricing_plan_id":"cebpf4jnsgd1na2vs0mg"},{"bike_id":"7e714015-389d-46d4-b4a1-86f1c62ca6ec","system_id":"levelo_inurba_marseille","lat":43.29564,"lon":5.39992,"is_reserved":false,"is_disabled":false,"rental_uris":{"android":"levelo://app?vid=7e714015-389d-46d4-b4a1-86f1c62ca6ec","ios":"levelo://app?vid=7e714015-389d-46d4-b4a1-86f1c62ca6ec"},"vehicle_type_id":"4","last_reported":1752876663,"current_range_meters":17200,"station_id":"ce4bh312rcd13ifvqdj0","pricing_plan_id":"cebpf4jnsgd1na2vs0mg"},{"bike_id":"681466f0-b3ed-4f33-8427-279f0d403529","system_id":"levelo_inurba_marseille","lat":43.25543,"lon":5.38271,"is_reserved":false,"is_disabled":false,"rental_uris":{"android":"levelo://app?vid=681466f0-b3ed-4f33-8427-279f0d403529","ios":"levelo://app?vid=681466f0-b3ed-4f33-8427-279f0d403529"},"vehicle_type_id":"4","last_reported":1752876663,"current_range_meters":17200,"station_id":"ce4bhih2rcd13ifvqfs0","pricing_plan_id":"cebpf4jnsgd1na2vs0mg"},{"bike_id":"884e0144-f177-4e33-87d1-60cf70276633","system_id":"levelo_inurba_marseille","lat":43.284821,"lon":5.385728,"is_reserved":false,"is_disabled":false,"rental_uris":{"android":"levelo://app?vid=884e0144-f177-4e33-87d1-60cf70276633","ios":"levelo://app?vid=884e0144-f177-4e33-87d1-60cf70276633"},"vehicle_type_id":"4","last_reported":1752876663,"current_range_meters":17200,"station_id":"ce4bh8p2rcd13ifvqeb0","pricing_plan_id":"cebpf4jnsgd1na2vs0mg"},{"bike_id":"cc3f34ee-fa57-4e88-a4ff-47d444416ce9","system_id":"levelo_inurba_marseille","lat":43.295288,"lon":5.385381,"is_reserved":false,"is_disabled":false,"rental_uris":{"android":"levelo://app?vid=cc3f34ee-fa57-4e88-a4ff-47d444416ce9","ios":"levelo://app?vid=cc3f34ee-fa57-4e88-a4ff-47d444416ce9"},"vehicle_type_id":"4","last_reported":1752876663,"current_range_meters":17200,"station_id":"","pricing_plan_id":"cebpf4jnsgd1na2vs0mg"},{"bike_id":"8ca6ce9f-7393-43fe-b8b9-a2c91da1891b","system_id":"levelo_inurba_marseille","lat":43.29419,"lon":5.38599,"is_reserved":false,"is_disabled":false,"rental_uris":{"android":"levelo://app?vid=8ca6ce9f-7393-43fe-b8b9-a2c91da1891b","ios":"levelo://app?vid=8ca6ce9f-7393-43fe-b8b9-a2c91da1891b"},"vehicle_type_id":"4","last_reported":1752876663,"current_range_meters":17200,"station_id":"ce4bh2h2rcd13ifvqdh0","pricing_plan_id":"cebpf4jnsgd1na2vs0mg"},{"bike_id":"0bd1c369-58ad-4872-b48a-611756bac434","system_id":"levelo_inurba_marseille","lat":43.29524,"lon":5.38542,"is_reserved":false,"is_disabled":false,"rental_uris":{"android":"levelo://app?vid=0bd1c369-58ad-4872-b48a-611756bac434","ios":"levelo://app?vid=0bd1c369-58ad-4872-b48a-611756bac434"},"vehicle_type_id":"4","last_reported":1752876663,"current_range_meters":17200,"station_id":"ce4bgih2rcd13ifvqba0","pricing_plan_id":"cebpf4jnsgd1na2vs0mg"},{"bike_id":"9eee562f-c74b-4c1a-8fa0-1792764207de","system_id":"levelo_inurba_marseille","lat":43.25486,"lon":5.3766,"is_reserved":false,"is_disabled":true,"rental_uris":{"android":"levelo://app?vid=9eee562f-c74b-4c1a-8fa0-1792764207de","ios":"levelo://app?vid=9eee562f-c74b-4c1a-8fa0-1792764207de"},"vehicle_type_id":"4","last_reported":1752876663,"current_range_meters":17600,"station_id":"ce4bhh12rcd13ifvqff0","pricing_plan_id":"cebpf4jnsgd1na2vs0mg"},{"bike_id":"90bc8238-ff07-4cad-a4ea-2d97fe8e0889","system_id":"levelo_inurba_marseille","lat":43.28356,"lon":5.38137,"is_reserved":false,"is_disabled":false,"rental_uris":{"android":"levelo://app?vid=90bc8238-ff07-4cad-a4ea-2d97fe8e0889","ios":"levelo://app?vid=90bc8238-ff07-4cad-a4ea-2d97fe8e0889"},"vehicle_type_id":"4","last_reported":1752876663,"current_range_meters":17600,"station_id":"ce4bh412rcd13ifvqdr0","pricing_plan_id":"cebpf4jnsgd1na2vs0mg"},{"bike_id":"94384395-6746-44d0-8207-c06965f79dc0","system_id":"levelo_inurba_marseille","lat":43.33608,"lon":5.41046,"is_reserved":false,"is_disabled":false,"rental_uris":{"android":"levelo://app?vid=94384395-6746-44d0-8207-c06965f79dc0","ios":"levelo://app?vid=94384395-6746-44d0-8207-c06965f79dc0"},"vehicle_type_id":"4","last_reported":1752876663,"current_range_meters":17600,"station_id":"ce4bhqh2rcd13ifvqhmg","pricing_plan_id":"cebpf4jnsgd1na2vs0mg"},{"bike_id":"d1e9c72e-7489-4052-b944-813b64bc55b4","system_id":"levelo_inurba_marseille","lat":43.31612,"lon":5.38955,"is_reserved":false,"is_disabled":false,"rental_uris":{"android":"levelo://app?vid=d1e9c72e-7489-4052-b944-813b64bc55b4","ios":"levelo://app?vid=d1e9c72e-7489-4052-b944-813b64bc55b4"},"vehicle_type_id":"4","last_reported":1752876663,"current_range_meters":17600,"station_id":"","pricing_plan_id":"cebpf4jnsgd1na2vs0mg"},{"bike_id":"07bbbafb-f73a-4253-96a8-de814b4d7534","system_id":"levelo_inurba_marseille","lat":43.29427,"lon":5.38602,"is_reserved":false,"is_disabled":false,"rental_uris":{"android":"levelo://app?vid=07bbbafb-f73a-4253-96a8-de814b4d7534","ios":"levelo://app?vid=07bbbafb-f73a-4253-96a8-de814b4d7534"},"vehicle_type_id":"4","last_reported":1752876663,"current_range_meters":18000,"station_id":"ce4bh2h2rcd13ifvqdh0","pricing_plan_id":"cebpf4jnsgd1na2vs0mg"},{"bike_id":"b5d9ad6d-e11e-44d7-8049-22d1b0858342","system_id":"levelo_inurba_marseille","lat":43.2952,"lon":5.39041,"is_reserved":false,"is_disabled":false,"rental_uris":{"android":"levelo://app?vid=b5d9ad6d-e11e-44d7-8049-22d1b0858342","ios":"levelo://app?vid=b5d9ad6d-e11e-44d7-8049-22d1b0858342"},"vehicle_type_id":"4","last_reported":1752876663,"current_range_meters":18000,"station_id":"ce4bh3p2rcd13ifvqdp0","pricing_plan_id":"cebpf4jnsgd1na2vs0mg"},{"bike_id":"11342935-5a92-4c88-b8f2-92ebce078e64","system_id":"levelo_inurba_marseille","lat":43.29552,"lon":5.38521,"is_reserved":false,"is_disabled":false,"rental_uris":{"android":"levelo://app?vid=11342935-5a92-4c88-b8f2-92ebce078e64","ios":"levelo://app?vid=11342935-5a92-4c88-b8f2-92ebce078e64"},"vehicle_type_id":"4","last_reported":1752876663,"current_range_meters":18000,"station_id":"ce4bgih2rcd13ifvqba0","pricing_plan_id":"cebpf4jnsgd1na2vs0mg"},{"bike_id":"dfa94b84-ac88-4a7a-be31-a75037d5303f","system_id":"levelo_inurba_marseille","lat":43.28695,"lon":5.40002,"is_reserved":false,"is_disabled":false,"rental_uris":{"android":"levelo://app?vid=dfa94b84-ac88-4a7a-be31-a75037d5303f","ios":"levelo://app?vid=dfa94b84-ac88-4a7a-be31-a75037d5303f"},"vehicle_type_id":"4","last_reported":1752876663,"current_range_meters":18000,"station_id":"ce4bho92rcd13ifvqh3g","pricing_plan_id":"cebpf4jnsgd1na2vs0mg"},{"bike_id":"5c5917cc-64fe-46d2-bfcd-0f2f2c428adc","system_id":"levelo_inurba_marseille","lat":43.28935,"lon":5.39622,"is_reserved":false,"is_disabled":false,"rental_uris":{"android":"levelo://app?vid=5c5917cc-64fe-46d2-bfcd-0f2f2c428adc","ios":"levelo://app?vid=5c5917cc-64fe-46d2-bfcd-0f2f2c428adc"},"vehicle_type_id":"4","last_reported":1752876663,"current_range_meters":18000,"station_id":"ce4bh3h2rcd13ifvqdn0","pricing_plan_id":"cebpf4jnsgd1na2vs0mg"},{"bike_id":"5de510b7-74a7-44d9-b827-3f81b08075ae","system_id":"levelo_inurba_marseille","lat":43.296273,"lon":5.405984,"is_reserved":false,"is_disabled":false,"rental_uris":{"android":"levelo://app?vid=5de510b7-74a7-44d9-b827-3f81b08075ae","ios":"levelo://app?vid=5de510b7-74a7-44d9-b827-3f81b08075ae"},"vehicle_type_id":"4","last_reported":1752876663,"current_range_meters":18000,"station_id":"","pricing_plan_id":"cebpf4jnsgd1na2vs0mg"},{"bike_id":"a5652ae6-c8b4-45d1-99c1-70ac377ced5d","system_id":"levelo_inurba_marseille","lat":43.30792,"lon":5.38169,"is_reserved":false,"is_disabled":false,"rental_uris":{"android":"levelo://app?vid=a5652ae6-c8b4-45d1-99c1-70ac377ced5d","ios":"levelo://app?vid=a5652ae6-c8b4-45d1-99c1-70ac377ced5d"},"vehicle_type_id":"4","last_reported":1752876663,"current_range_meters":18000,"station_id":"ce4bgt12rcd13ifvqce0","pricing_plan_id":"cebpf4jnsgd1na2vs0mg"},{"bike_id":"592baa1b-818b-4502-b2f1-eeb093beaf90","system_id":"levelo_inurba_marseille","lat":43.298007,"lon":5.381115,"is_reserved":false,"is_disabled":false,"rental_uris":{"android":"levelo://app?vid=592baa1b-818b-4502-b2f1-eeb093beaf90","ios":"levelo://app?vid=592baa1b-818b-4502-b2f1-eeb093beaf90"},"vehicle_type_id":"4","last_reported":1752876663,"current_range_meters":18800,"station_id":"ce4bgip2rcd13ifvqbb0","pricing_plan_id":"cebpf4jnsgd1na2vs0mg"},{"bike_id":"b1ada478-a2e8-487c-a85a-740af8cfc031","system_id":"levelo_inurba_marseille","lat":43.26553,"lon":5.37285,"is_reserved":false,"is_disabled":false,"rental_uris":{"android":"levelo://app?vid=b1ada478-a2e8-487c-a85a-740af8cfc031","ios":"levelo://app?vid=b1ada478-a2e8-487c-a85a-740af8cfc031"},"vehicle_type_id":"4","last_reported":1752876663,"current_range_meters":18800,"station_id":"ce4bhg12rcd13ifvqf70","pricing_plan_id":"cebpf4jnsgd1na2vs0mg"},{"bike_id":"6a157030-de0e-43bf-b121-1c326a6250da","system_id":"levelo_inurba_marseille","lat":43.303129,"lon":5.404393,"is_reserved":false,"is_disabled":false,"rental_uris":{"android":"levelo://app?vid=6a157030-de0e-43bf-b121-1c326a6250da","ios":"levelo://app?vid=6a157030-de0e-43bf-b121-1c326a6250da"},"vehicle_type_id":"4","last_reported":1752876663,"current_range_meters":18800,"station_id":"ce4bh012rcd13ifvqd10","pricing_plan_id":"cebpf4jnsgd1na2vs0mg"},{"bike_id":"fd806d2f-27dc-49d1-a81b-d89193bc0b5b","system_id":"levelo_inurba_marseille","lat":43.2846,"lon":5.35893,"is_reserved":false,"is_disabled":false,"rental_uris":{"android":"levelo://app?vid=fd806d2f-27dc-49d1-a81b-d89193bc0b5b","ios":"levelo://app?vid=fd806d2f-27dc-49d1-a81b-d89193bc0b5b"},"vehicle_type_id":"4","last_reported":1752876663,"current_range_meters":18800,"station_id":"ce4bhah2rcd13ifvqei0","pricing_plan_id":"cebpf4jnsgd1na2vs0mg"},{"bike_id":"45dea0eb-918d-49f1-8341-001e35c226f0","system_id":"levelo_inurba_marseille","lat":43.211934,"lon":5.350667,"is_reserved":false,"is_disabled":false,"rental_uris":{"android":"levelo://app?vid=45dea0eb-918d-49f1-8341-001e35c226f0","ios":"levelo://app?vid=45dea0eb-918d-49f1-8341-001e35c226f0"},"vehicle_type_id":"4","last_reported":1752876663,"current_range_meters":18800,"station_id":"st_cvj6sg6p6f1abm77japg","pricing_plan_id":"cebpf4jnsgd1na2vs0mg"},{"bike_id":"372575c0-0b42-4a86-9937-9781291465e3","system_id":"levelo_inurba_marseille","lat":43.28709,"lon":5.3792,"is_reserved":false,"is_disabled":false,"rental_uris":{"android":"levelo://app?vid=372575c0-0b42-4a86-9937-9781291465e3","ios":"levelo://app?vid=372575c0-0b42-4a86-9937-9781291465e3"},"vehicle_type_id":"4","last_reported":1752876663,"current_range_meters":18800,"station_id":"ce4bh9p2rcd13ifvqec0","pricing_plan_id":"cebpf4jnsgd1na2vs0mg"},{"bike_id":"f440fd1b-af7a-4f35-8b2c-16d025292724","system_id":"levelo_inurba_marseille","lat":43.28156,"lon":5.42646,"is_reserved":false,"is_disabled":false,"rental_uris":{"android":"levelo://app?vid=f440fd1b-af7a-4f35-8b2c-16d025292724","ios":"levelo://app?vid=f440fd1b-af7a-4f35-8b2c-16d025292724"},"vehicle_type_id":"4","last_reported":1752876663,"current_range_meters":18000,"station_id":"ce4bhnh2rcd13ifvqgug","pricing_plan_id":"cebpf4jnsgd1na2vs0mg"},{"bike_id":"bdce7403-6e48-4ac5-9804-c5a665a89c9c","system_id":"levelo_inurba_marseille","lat":43.28707,"lon":5.3794,"is_reserved":false,"is_disabled":false,"rental_uris":{"android":"levelo://app?vid=bdce7403-6e48-4ac5-9804-c5a665a89c9c","ios":"levelo://app?vid=bdce7403-6e48-4ac5-9804-c5a665a89c9c"},"vehicle_type_id":"4","last_reported":1752876663,"current_range_meters":18800,"station_id":"ce4bh9p2rcd13ifvqec0","pricing_plan_id":"cebpf4jnsgd1na2vs0mg"},{"bike_id":"f4d50b9f-67c5-4a4e-82cd-5fb34bc9ddef","system_id":"levelo_inurba_marseille","lat":43.25441,"lon":5.38248,"is_reserved":false,"is_disabled":false,"rental_uris":{"android":"levelo://app?vid=f4d50b9f-67c5-4a4e-82cd-5fb34bc9ddef","ios":"levelo://app?vid=f4d50b9f-67c5-4a4e-82cd-5fb34bc9ddef"},"vehicle_type_id":"4","last_reported":1752876663,"current_range_meters":18800,"station_id":"","pricing_plan_id":"cebpf4jnsgd1na2vs0mg"},{"bike_id":"ae514fe1-85ea-4b12-b065-9e5a24663928","system_id":"levelo_inurba_marseille","lat":43.21192,"lon":5.35075,"is_reserved":false,"is_disabled":false,"rental_uris":{"android":"levelo://app?vid=ae514fe1-85ea-4b12-b065-9e5a24663928","ios":"levelo://app?vid=ae514fe1-85ea-4b12-b065-9e5a24663928"},"vehicle_type_id":"4","last_reported":1752876663,"current_range_meters":18800,"station_id":"st_cvj6sg6p6f1abm77japg","pricing_plan_id":"cebpf4jnsgd1na2vs0mg"},{"bike_id":"a0e6de25-53a6-4e2c-ba56-d0c89144a59d","system_id":"levelo_inurba_marseille","lat":43.31118,"lon":5.377681,"is_reserved":false,"is_disabled":false,"rental_uris":{"android":"levelo://app?vid=a0e6de25-53a6-4e2c-ba56-d0c89144a59d","ios":"levelo://app?vid=a0e6de25-53a6-4e2c-ba56-d0c89144a59d"},"vehicle_type_id":"4","last_reported":1752876663,"current_range_meters":18800,"station_id":"ce4bgt92rcd13ifvqcg0","pricing_plan_id":"cebpf4jnsgd1na2vs0mg"},{"bike_id":"fdbeb289-adb3-4e25-b0dd-c635efbe92b2","system_id":"levelo_inurba_marseille","lat":43.31685,"lon":5.40471,"is_reserved":false,"is_disabled":false,"rental_uris":{"android":"levelo://app?vid=fdbeb289-adb3-4e25-b0dd-c635efbe92b2","ios":"levelo://app?vid=fdbeb289-adb3-4e25-b0dd-c635efbe92b2"},"vehicle_type_id":"4","last_reported":1752876663,"current_range_meters":18800,"station_id":"ce4bh012rcd13ifvqd00","pricing_plan_id":"cebpf4jnsgd1na2vs0mg"},{"bike_id":"44e89ad7-16a2-4910-805f-061f2aee5ab7","system_id":"levelo_inurba_marseille","lat":43.23183,"lon":5.3557,"is_reserved":false,"is_disabled":false,"rental_uris":{"android":"levelo://app?vid=44e89ad7-16a2-4910-805f-061f2aee5ab7","ios":"levelo://app?vid=44e89ad7-16a2-4910-805f-061f2aee5ab7"},"vehicle_type_id":"4","last_reported":1752876663,"current_range_meters":18800,"station_id":"ce4bhu92rcd13ifvqi70","pricing_plan_id":"cebpf4jnsgd1na2vs0mg"},{"bike_id":"b22b912d-c2aa-4638-b821-9588263e410c","system_id":"levelo_inurba_marseille","lat":43.32369,"lon":5.38886,"is_reserved":false,"is_disabled":false,"rental_uris":{"android":"levelo://app?vid=b22b912d-c2aa-4638-b821-9588263e410c","ios":"levelo://app?vid=b22b912d-c2aa-4638-b821-9588263e410c"},"vehicle_type_id":"4","last_reported":1752876663,"current_range_meters":18800,"station_id":"ce4bhqp2rcd13ifvqhog","pricing_plan_id":"cebpf4jnsgd1na2vs0mg"},{"bike_id":"c563397a-8e95-43de-9482-c447bf9c775e","system_id":"levelo_inurba_marseille","lat":43.29311,"lon":5.41189,"is_reserved":false,"is_disabled":false,"rental_uris":{"android":"levelo://app?vid=c563397a-8e95-43de-9482-c447bf9c775e","ios":"levelo://app?vid=c563397a-8e95-43de-9482-c447bf9c775e"},"vehicle_type_id":"4","last_reported":1752876663,"current_range_meters":18800,"station_id":"","pricing_plan_id":"cebpf4jnsgd1na2vs0mg"},{"bike_id":"f19e1191-a499-43e5-aa16-7ca6394ef18a","system_id":"levelo_inurba_marseille","lat":43.30307,"lon":5.36946,"is_reserved":false,"is_disabled":false,"rental_uris":{"android":"levelo://app?vid=f19e1191-a499-43e5-aa16-7ca6394ef18a","ios":"levelo://app?vid=f19e1191-a499-43e5-aa16-7ca6394ef18a"},"vehicle_type_id":"4","last_reported":1752876663,"current_range_meters":18800,"station_id":"ce4bgqh2rcd13ifvqc5g","pricing_plan_id":"cebpf4jnsgd1na2vs0mg"},{"bike_id":"3b8fa8a7-26fc-4aab-bee1-b8a56cdc1d43","system_id":"levelo_inurba_marseille","lat":43.286939,"lon":5.39973,"is_reserved":false,"is_disabled":true,"rental_uris":{"android":"levelo://app?vid=3b8fa8a7-26fc-4aab-bee1-b8a56cdc1d43","ios":"levelo://app?vid=3b8fa8a7-26fc-4aab-bee1-b8a56cdc1d43"},"vehicle_type_id":"4","last_reported":1752876663,"current_range_meters":18800,"station_id":"ce4bho92rcd13ifvqh3g","pricing_plan_id":"cebpf4jnsgd1na2vs0mg"},{"bike_id":"2b7a92bb-5931-40b1-8a8a-707e84c83b9f","system_id":"levelo_inurba_marseille","lat":43.2963,"lon":5.40598,"is_reserved":false,"is_disabled":false,"rental_uris":{"android":"levelo://app?vid=2b7a92bb-5931-40b1-8a8a-707e84c83b9f","ios":"levelo://app?vid=2b7a92bb-5931-40b1-8a8a-707e84c83b9f"},"vehicle_type_id":"4","last_reported":1752876663,"current_range_meters":18800,"station_id":"ce4bh0h2rcd13ifvqd60","pricing_plan_id":"cebpf4jnsgd1na2vs0mg"},{"bike_id":"9eb19af1-3ac3-436d-805d-794abdcba832","system_id":"levelo_inurba_marseille","lat":43.23205,"lon":5.35544,"is_reserved":false,"is_disabled":false,"rental_uris":{"android":"levelo://app?vid=9eb19af1-3ac3-436d-805d-794abdcba832","ios":"levelo://app?vid=9eb19af1-3ac3-436d-805d-794abdcba832"},"vehicle_type_id":"4","last_reported":1752876663,"current_range_meters":19200,"station_id":"ce4bhu92rcd13ifvqi70","pricing_plan_id":"cebpf4jnsgd1na2vs0mg"},{"bike_id":"9f00b516-2e6c-49ff-b45a-2a85d3e69abf","system_id":"levelo_inurba_marseille","lat":43.29259,"lon":5.39145,"is_reserved":false,"is_disabled":false,"rental_uris":{"android":"levelo://app?vid=9f00b516-2e6c-49ff-b45a-2a85d3e69abf","ios":"levelo://app?vid=9f00b516-2e6c-49ff-b45a-2a85d3e69abf"},"vehicle_type_id":"4","last_reported":1752876663,"current_range_meters":20000,"station_id":"","pricing_plan_id":"cebpf4jnsgd1na2vs0mg"},{"bike_id":"4a2af6fb-f040-4dff-9ff5-d70c4f952e83","system_id":"levelo_inurba_marseille","lat":43.31513,"lon":5.37297,"is_reserved":false,"is_disabled":true,"rental_uris":{"android":"levelo://app?vid=4a2af6fb-f040-4dff-9ff5-d70c4f952e83","ios":"levelo://app?vid=4a2af6fb-f040-4dff-9ff5-d70c4f952e83"},"vehicle_type_id":"4","last_reported":1752876663,"current_range_meters":19200,"station_id":"ce4bgt12rcd13ifvqcd0","pricing_plan_id":"cebpf4jnsgd1na2vs0mg"},{"bike_id":"863ff14f-99c4-4119-81c8-9db5c196840c","system_id":"levelo_inurba_marseille","lat":43.280857,"lon":5.396801,"is_reserved":false,"is_disabled":false,"rental_uris":{"android":"levelo://app?vid=863ff14f-99c4-4119-81c8-9db5c196840c","ios":"levelo://app?vid=863ff14f-99c4-4119-81c8-9db5c196840c"},"vehicle_type_id":"4","last_reported":1752876663,"current_range_meters":19200,"station_id":"ce4bho12rcd13ifvqh2g","pricing_plan_id":"cebpf4jnsgd1na2vs0mg"},{"bike_id":"1258aff2-f6d7-4c75-9ed4-20c97af87cb3","system_id":"levelo_inurba_marseille","lat":43.29821,"lon":5.36237,"is_reserved":false,"is_disabled":false,"rental_uris":{"android":"levelo://app?vid=1258aff2-f6d7-4c75-9ed4-20c97af87cb3","ios":"levelo://app?vid=1258aff2-f6d7-4c75-9ed4-20c97af87cb3"},"vehicle_type_id":"4","last_reported":1752876663,"current_range_meters":19200,"station_id":"ce4bgpp2rcd13ifvqc3g","pricing_plan_id":"cebpf4jnsgd1na2vs0mg"},{"bike_id":"c86f5e91-2a70-4daf-9919-cfaa2e057fea","system_id":"levelo_inurba_marseille","lat":43.2847,"lon":5.35877,"is_reserved":false,"is_disabled":false,"rental_uris":{"android":"levelo://app?vid=c86f5e91-2a70-4daf-9919-cfaa2e057fea","ios":"levelo://app?vid=c86f5e91-2a70-4daf-9919-cfaa2e057fea"},"vehicle_type_id":"4","last_reported":1752876663,"current_range_meters":19200,"station_id":"ce4bhah2rcd13ifvqei0","pricing_plan_id":"cebpf4jnsgd1na2vs0mg"},{"bike_id":"19294ff6-3995-4603-9d99-733afb04fb97","system_id":"levelo_inurba_marseille","lat":43.24384,"lon":5.37056,"is_reserved":false,"is_disabled":false,"rental_uris":{"android":"levelo://app?vid=19294ff6-3995-4603-9d99-733afb04fb97","ios":"levelo://app?vid=19294ff6-3995-4603-9d99-733afb04fb97"},"vehicle_type_id":"4","last_reported":1752876663,"current_range_meters":19200,"station_id":"ce4bhhh2rcd13ifvqfk0","pricing_plan_id":"cebpf4jnsgd1na2vs0mg"},{"bike_id":"a168d389-ea1d-4756-ad9b-cf73a31ab442","system_id":"levelo_inurba_marseille","lat":43.288747,"lon":5.400098,"is_reserved":false,"is_disabled":false,"rental_uris":{"android":"levelo://app?vid=a168d389-ea1d-4756-ad9b-cf73a31ab442","ios":"levelo://app?vid=a168d389-ea1d-4756-ad9b-cf73a31ab442"},"vehicle_type_id":"4","last_reported":1752876663,"current_range_meters":19200,"station_id":"","pricing_plan_id":"cebpf4jnsgd1na2vs0mg"},{"bike_id":"9559e427-3602-497a-95e3-a1d3f481e734","system_id":"levelo_inurba_marseille","lat":43.28674,"lon":5.38663,"is_reserved":false,"is_disabled":false,"rental_uris":{"android":"levelo://app?vid=9559e427-3602-497a-95e3-a1d3f481e734","ios":"levelo://app?vid=9559e427-3602-497a-95e3-a1d3f481e734"},"vehicle_type_id":"4","last_reported":1752876663,"current_range_meters":19200,"station_id":"ce4bh492rcd13ifvqdug","pricing_plan_id":"cebpf4jnsgd1na2vs0mg"},{"bike_id":"18e37192-0bb0-4cf3-92a4-4708ff21aee3","system_id":"levelo_inurba_marseille","lat":43.285623,"lon":5.395034,"is_reserved":false,"is_disabled":false,"rental_uris":{"android":"levelo://app?vid=18e37192-0bb0-4cf3-92a4-4708ff21aee3","ios":"levelo://app?vid=18e37192-0bb0-4cf3-92a4-4708ff21aee3"},"vehicle_type_id":"4","last_reported":1752876663,"current_range_meters":19200,"station_id":"ce4bh292rcd13ifvqdg0","pricing_plan_id":"cebpf4jnsgd1na2vs0mg"},{"bike_id":"40554783-0f20-442d-ac5c-5f05c23f3026","system_id":"levelo_inurba_marseille","lat":43.31103,"lon":5.38341,"is_reserved":false,"is_disabled":false,"rental_uris":{"android":"levelo://app?vid=40554783-0f20-442d-ac5c-5f05c23f3026","ios":"levelo://app?vid=40554783-0f20-442d-ac5c-5f05c23f3026"},"vehicle_type_id":"4","last_reported":1752876663,"current_range_meters":19200,"station_id":"ce4bgv92rcd13ifvqcr0","pricing_plan_id":"cebpf4jnsgd1na2vs0mg"},{"bike_id":"b5c2bed6-80c4-411b-b74d-2fd4372672e8","system_id":"levelo_inurba_marseille","lat":43.28441,"lon":5.39207,"is_reserved":false,"is_disabled":false,"rental_uris":{"android":"levelo://app?vid=b5c2bed6-80c4-411b-b74d-2fd4372672e8","ios":"levelo://app?vid=b5c2bed6-80c4-411b-b74d-2fd4372672e8"},"vehicle_type_id":"4","last_reported":1752876663,"current_range_meters":19200,"station_id":"ce4bhoh2rcd13ifvqh5g","pricing_plan_id":"cebpf4jnsgd1na2vs0mg"},{"bike_id":"7592d3b0-727d-4107-ba81-a2966cdc2b34","system_id":"levelo_inurba_marseille","lat":43.26216,"lon":5.40451,"is_reserved":false,"is_disabled":false,"rental_uris":{"android":"levelo://app?vid=7592d3b0-727d-4107-ba81-a2966cdc2b34","ios":"levelo://app?vid=7592d3b0-727d-4107-ba81-a2966cdc2b34"},"vehicle_type_id":"4","last_reported":1752876663,"current_range_meters":19200,"station_id":"ce4bhmh2rcd13ifvqgmg","pricing_plan_id":"cebpf4jnsgd1na2vs0mg"},{"bike_id":"20233012-dd7e-44a8-b0a8-431c62034015","system_id":"levelo_inurba_marseille","lat":43.30801,"lon":5.38153,"is_reserved":false,"is_disabled":false,"rental_uris":{"android":"levelo://app?vid=20233012-dd7e-44a8-b0a8-431c62034015","ios":"levelo://app?vid=20233012-dd7e-44a8-b0a8-431c62034015"},"vehicle_type_id":"4","last_reported":1752876663,"current_range_meters":19200,"station_id":"ce4bgt12rcd13ifvqce0","pricing_plan_id":"cebpf4jnsgd1na2vs0mg"},{"bike_id":"3f2a30cf-771f-4eab-ae6a-ba63928efc37","system_id":"levelo_inurba_marseille","lat":43.29526,"lon":5.39033,"is_reserved":false,"is_disabled":false,"rental_uris":{"android":"levelo://app?vid=3f2a30cf-771f-4eab-ae6a-ba63928efc37","ios":"levelo://app?vid=3f2a30cf-771f-4eab-ae6a-ba63928efc37"},"vehicle_type_id":"4","last_reported":1752876663,"current_range_meters":19200,"station_id":"ce4bh3p2rcd13ifvqdp0","pricing_plan_id":"cebpf4jnsgd1na2vs0mg"},{"bike_id":"f9101506-ca8f-440e-9339-d4025942f371","system_id":"levelo_inurba_marseille","lat":43.30308,"lon":5.39202,"is_reserved":false,"is_disabled":false,"rental_uris":{"android":"levelo://app?vid=f9101506-ca8f-440e-9339-d4025942f371","ios":"levelo://app?vid=f9101506-ca8f-440e-9339-d4025942f371"},"vehicle_type_id":"4","last_reported":1752876663,"current_range_meters":18800,"station_id":"ce4bgkh2rcd13ifvqbk0","pricing_plan_id":"cebpf4jnsgd1na2vs0mg"},{"bike_id":"ed8fbac9-e5c7-4f6f-8094-8714434b7733","system_id":"levelo_inurba_marseille","lat":43.31101,"lon":5.3778,"is_reserved":false,"is_disabled":false,"rental_uris":{"android":"levelo://app?vid=ed8fbac9-e5c7-4f6f-8094-8714434b7733","ios":"levelo://app?vid=ed8fbac9-e5c7-4f6f-8094-8714434b7733"},"vehicle_type_id":"4","last_reported":1752876663,"current_range_meters":19600,"station_id":"ce4bgt92rcd13ifvqcg0","pricing_plan_id":"cebpf4jnsgd1na2vs0mg"},{"bike_id":"25c61d91-92f9-47bc-ba2a-34ec5d0a2e05","system_id":"levelo_inurba_marseille","lat":43.22925,"lon":5.35373,"is_reserved":false,"is_disabled":false,"rental_uris":{"android":"levelo://app?vid=25c61d91-92f9-47bc-ba2a-34ec5d0a2e05","ios":"levelo://app?vid=25c61d91-92f9-47bc-ba2a-34ec5d0a2e05"},"vehicle_type_id":"4","last_reported":1752876663,"current_range_meters":19600,"station_id":"cpo3532slgdg3j2ikp40","pricing_plan_id":"cebpf4jnsgd1na2vs0mg"},{"bike_id":"0ac9b427-819d-4139-8162-77866abdf07d","system_id":"levelo_inurba_marseille","lat":43.24633,"lon":5.38922,"is_reserved":false,"is_disabled":false,"rental_uris":{"android":"levelo://app?vid=0ac9b427-819d-4139-8162-77866abdf07d","ios":"levelo://app?vid=0ac9b427-819d-4139-8162-77866abdf07d"},"vehicle_type_id":"4","last_reported":1752876663,"current_range_meters":19600,"station_id":"ce4bhg12rcd13ifvqf60","pricing_plan_id":"cebpf4jnsgd1na2vs0mg"},{"bike_id":"f7ce773e-15f5-44bc-a617-fbb6272e7314","system_id":"levelo_inurba_marseille","lat":43.295363,"lon":5.385453,"is_reserved":false,"is_disabled":false,"rental_uris":{"android":"levelo://app?vid=f7ce773e-15f5-44bc-a617-fbb6272e7314","ios":"levelo://app?vid=f7ce773e-15f5-44bc-a617-fbb6272e7314"},"vehicle_type_id":"4","last_reported":1752876663,"current_range_meters":19600,"station_id":"ce4bgih2rcd13ifvqba0","pricing_plan_id":"cebpf4jnsgd1na2vs0mg"},{"bike_id":"ef93e590-7b6e-4bac-b080-c41d46a405e8","system_id":"levelo_inurba_marseille","lat":43.31491,"lon":5.37309,"is_reserved":false,"is_disabled":false,"rental_uris":{"android":"levelo://app?vid=ef93e590-7b6e-4bac-b080-c41d46a405e8","ios":"levelo://app?vid=ef93e590-7b6e-4bac-b080-c41d46a405e8"},"vehicle_type_id":"4","last_reported":1752876663,"current_range_meters":19600,"station_id":"ce4bgt12rcd13ifvqcd0","pricing_plan_id":"cebpf4jnsgd1na2vs0mg"},{"bike_id":"f17e706c-6889-40f2-ad71-2ce5c9d2d5e0","system_id":"levelo_inurba_marseille","lat":43.28355,"lon":5.38657,"is_reserved":false,"is_disabled":false,"rental_uris":{"android":"levelo://app?vid=f17e706c-6889-40f2-ad71-2ce5c9d2d5e0","ios":"levelo://app?vid=f17e706c-6889-40f2-ad71-2ce5c9d2d5e0"},"vehicle_type_id":"4","last_reported":1752876663,"current_range_meters":19600,"station_id":"ce4bh492rcd13ifvqdvg","pricing_plan_id":"cebpf4jnsgd1na2vs0mg"},{"bike_id":"733c402f-6bbd-4ff7-9cc1-681ba0e2f489","system_id":"levelo_inurba_marseille","lat":43.330336,"lon":5.390456,"is_reserved":false,"is_disabled":false,"rental_uris":{"android":"levelo://app?vid=733c402f-6bbd-4ff7-9cc1-681ba0e2f489","ios":"levelo://app?vid=733c402f-6bbd-4ff7-9cc1-681ba0e2f489"},"vehicle_type_id":"4","last_reported":1752876663,"current_range_meters":19600,"station_id":"ce4bhr92rcd13ifvqhrg","pricing_plan_id":"cebpf4jnsgd1na2vs0mg"},{"bike_id":"783cc84a-a041-4bdd-8002-c343b62c1731","system_id":"levelo_inurba_marseille","lat":43.29205,"lon":5.36087,"is_reserved":false,"is_disabled":true,"rental_uris":{"android":"levelo://app?vid=783cc84a-a041-4bdd-8002-c343b62c1731","ios":"levelo://app?vid=783cc84a-a041-4bdd-8002-c343b62c1731"},"vehicle_type_id":"4","last_reported":1752876663,"current_range_meters":19600,"station_id":"ce4bhbh2rcd13ifvqeqg","pricing_plan_id":"cebpf4jnsgd1na2vs0mg"},{"bike_id":"b2d8de19-5228-47c5-a04d-d8664c46de68","system_id":"levelo_inurba_marseille","lat":43.22929,"lon":5.35389,"is_reserved":false,"is_disabled":false,"rental_uris":{"android":"levelo://app?vid=b2d8de19-5228-47c5-a04d-d8664c46de68","ios":"levelo://app?vid=b2d8de19-5228-47c5-a04d-d8664c46de68"},"vehicle_type_id":"4","last_reported":1752876663,"current_range_meters":19600,"station_id":"cpo3532slgdg3j2ikp40","pricing_plan_id":"cebpf4jnsgd1na2vs0mg"},{"bike_id":"2c77e1be-20d4-428a-b875-bc5d532780db","system_id":"levelo_inurba_marseille","lat":43.28998,"lon":5.35566,"is_reserved":false,"is_disabled":true,"rental_uris":{"android":"levelo://app?vid=2c77e1be-20d4-428a-b875-bc5d532780db","ios":"levelo://app?vid=2c77e1be-20d4-428a-b875-bc5d532780db"},"vehicle_type_id":"4","last_reported":1752876663,"current_range_meters":19600,"station_id":"ce4bhb92rcd13ifvqen0","pricing_plan_id":"cebpf4jnsgd1na2vs0mg"},{"bike_id":"a18e57bc-cb61-462d-845a-1b79b97ed408","system_id":"levelo_inurba_marseille","lat":43.2904,"lon":5.37566,"is_reserved":false,"is_disabled":false,"rental_uris":{"android":"levelo://app?vid=a18e57bc-cb61-462d-845a-1b79b97ed408","ios":"levelo://app?vid=a18e57bc-cb61-462d-845a-1b79b97ed408"},"vehicle_type_id":"4","last_reported":1752876663,"current_range_meters":19600,"station_id":"ce4bh692rcd13ifvqe90","pricing_plan_id":"cebpf4jnsgd1na2vs0mg"},{"bike_id":"158422b9-1628-470c-9ef7-ebee5ce90c1e","system_id":"levelo_inurba_marseille","lat":43.21173,"lon":5.35089,"is_reserved":false,"is_disabled":false,"rental_uris":{"android":"levelo://app?vid=158422b9-1628-470c-9ef7-ebee5ce90c1e","ios":"levelo://app?vid=158422b9-1628-470c-9ef7-ebee5ce90c1e"},"vehicle_type_id":"4","last_reported":1752876663,"current_range_meters":19600,"station_id":"st_cvj6sg6p6f1abm77japg","pricing_plan_id":"cebpf4jnsgd1na2vs0mg"},