{"last_updated":1781375037,"ttl":60,"version":"2.2","data":{"bikes":[{"bike_id":"ec12d144-24c8-4071-abf6-197e520eae96","system_id":"levelo_inurba_marseille","lat":43.337444,"lon":5.374475,"is_reserved":false,"is_disabled":false,"rental_uris":{"android":"levelo://app?vid=ec12d144-24c8-4071-abf6-197e520eae96","ios":"levelo://app?vid=ec12d144-24c8-4071-abf6-197e520eae96"},"vehicle_type_id":"4","last_reported":1781375038,"current_range_meters":0,"station_id":"","pricing_plan_id":"cebpf4jnsgd1na2vs0mg"},{"bike_id":"4bbd9026-ac9b-4dc1-97ad-6610089734db","system_id":"levelo_inurba_marseille","lat":43.31556,"lon":5.38785,"is_reserved":false,"is_disabled":false,"rental_uris":{"android":"levelo://app?vid=4bbd9026-ac9b-4dc1-97ad-6610089734db","ios":"levelo://app?vid=4bbd9026-ac9b-4dc1-97ad-6610089734db"},"vehicle_type_id":"4","last_reported":1781375038,"current_range_meters":2800,"station_id":"","pricing_plan_id":"cebpf4jnsgd1na2vs0mg"},{"bike_id":"d484de21-ca44-4b4e-b017-24074d2741d1","system_id":"levelo_inurba_marseille","lat":43.29318,"lon":5.37187,"is_reserved":false,"is_disabled":true,"rental_uris":{"android":"levelo://app?vid=d484de21-ca44-4b4e-b017-24074d2741d1","ios":"levelo://app?vid=d484de21-ca44-4b4e-b017-24074d2741d1"},"vehicle_type_id":"4","last_reported":1781375038,"current_range_meters":2800,"station_id":"ce4bgh92rcd13ifvqb40","pricing_plan_id":"cebpf4jnsgd1na2vs0mg"},{"bike_id":"9c9fb8c1-1b33-42f9-9077-b3ba6a1a3b7a","system_id":"levelo_inurba_marseille","lat":43.2635,"lon":5.37821,"is_reserved":false,"is_disabled":false,"rental_uris":{"android":"levelo://app?vid=9c9fb8c1-1b33-42f9-9077-b3ba6a1a3b7a","ios":"levelo://app?vid=9c9fb8c1-1b33-42f9-9077-b3ba6a1a3b7a"},"vehicle_type_id":"4","last_reported":1781375038,"current_range_meters":2800,"station_id":"st_d163nis0mtpqnht9uue0","pricing_plan_id":"cebpf4jnsgd1na2vs0mg"},{"bike_id":"d39db183-6bf7-420a-96f5-b25822544857","system_id":"levelo_inurba_marseille","lat":43.32356,"lon":5.36742,"is_reserved":false,"is_disabled":false,"rental_uris":{"android":"levelo://app?vid=d39db183-6bf7-420a-96f5-b25822544857","ios":"levelo://app?vid=d39db183-6bf7-420a-96f5-b25822544857"},"vehicle_type_id":"4","last_reported":1781375038,"current_range_meters":2800,"station_id":"ce4bhsh2rcd13ifvqi2g","pricing_plan_id":"cebpf4jnsgd1na2vs0mg"},{"bike_id":"9f776e54-2f48-424b-be39-3cd052e992d3","system_id":"levelo_inurba_marseille","lat":43.296224,"lon":5.377078,"is_reserved":false,"is_disabled":false,"rental_uris":{"android":"levelo://app?vid=9f776e54-2f48-424b-be39-3cd052e992d3","ios":"levelo://app?vid=9f776e54-2f48-424b-be39-3cd052e992d3"},"vehicle_type_id":"4","last_reported":1781375038,"current_range_meters":2800,"station_id":"ce4bgi92rcd13ifvqb90","pricing_plan_id":"cebpf4jnsgd1na2vs0mg"},{"bike_id":"0c5e9745-869b-4f02-a980-c6b09aa31af3","system_id":"levelo_inurba_marseille","lat":43.26679,"lon":5.38259,"is_reserved":false,"is_disabled":false,"rental_uris":{"android":"levelo://app?vid=0c5e9745-869b-4f02-a980-c6b09aa31af3","ios":"levelo://app?vid=0c5e9745-869b-4f02-a980-c6b09aa31af3"},"vehicle_type_id":"4","last_reported":1781375038,"current_range_meters":2800,"station_id":"ce4bhg92rcd13ifvqf90","pricing_plan_id":"cebpf4jnsgd1na2vs0mg"},{"bike_id":"eb38be04-731d-4131-a20f-2e4877b94f70","system_id":"levelo_inurba_marseille","lat":43.30191,"lon":5.36455,"is_reserved":false,"is_disabled":false,"rental_uris":{"android":"levelo://app?vid=eb38be04-731d-4131-a20f-2e4877b94f70","ios":"levelo://app?vid=eb38be04-731d-4131-a20f-2e4877b94f70"},"vehicle_type_id":"4","last_reported":1781375038,"current_range_meters":2800,"station_id":"","pricing_plan_id":"cebpf4jnsgd1na2vs0mg"},{"bike_id":"ad9fd30f-35be-4c10-94fc-08fe26c07676","system_id":"levelo_inurba_marseille","lat":43.26211,"lon":5.37442,"is_reserved":false,"is_disabled":false,"rental_uris":{"android":"levelo://app?vid=ad9fd30f-35be-4c10-94fc-08fe26c07676","ios":"levelo://app?vid=ad9fd30f-35be-4c10-94fc-08fe26c07676"},"vehicle_type_id":"4","last_reported":1781375038,"current_range_meters":2800,"station_id":"ce4bhgp2rcd13ifvqfc0","pricing_plan_id":"cebpf4jnsgd1na2vs0mg"},{"bike_id":"cd1e740a-e822-41ff-b908-e207e1d97ee2","system_id":"levelo_inurba_marseille","lat":43.28841,"lon":5.39305,"is_reserved":false,"is_disabled":false,"rental_uris":{"android":"levelo://app?vid=cd1e740a-e822-41ff-b908-e207e1d97ee2","ios":"levelo://app?vid=cd1e740a-e822-41ff-b908-e207e1d97ee2"},"vehicle_type_id":"4","last_reported":1781375038,"current_range_meters":2800,"station_id":"ce4bh2p2rcd13ifvqdi0","pricing_plan_id":"cebpf4jnsgd1na2vs0mg"},{"bike_id":"bc300ece-330e-47b8-8411-e5067fbe2ea9","system_id":"levelo_inurba_marseille","lat":43.24467,"lon":5.42529,"is_reserved":false,"is_disabled":false,"rental_uris":{"android":"levelo://app?vid=bc300ece-330e-47b8-8411-e5067fbe2ea9","ios":"levelo://app?vid=bc300ece-330e-47b8-8411-e5067fbe2ea9"},"vehicle_type_id":"4","last_reported":1781375038,"current_range_meters":2800,"station_id":"st_d4a3vfp97mjs738cd8kg","pricing_plan_id":"cebpf4jnsgd1na2vs0mg"},{"bike_id":"fb2a1f7d-f7e9-4d12-bb3c-32e8cd55f82d","system_id":"levelo_inurba_marseille","lat":43.29068,"lon":5.4426,"is_reserved":false,"is_disabled":false,"rental_uris":{"android":"levelo://app?vid=fb2a1f7d-f7e9-4d12-bb3c-32e8cd55f82d","ios":"levelo://app?vid=fb2a1f7d-f7e9-4d12-bb3c-32e8cd55f82d"},"vehicle_type_id":"4","last_reported":1781375038,"current_range_meters":2800,"station_id":"","pricing_plan_id":"cebpf4jnsgd1na2vs0mg"},{"bike_id":"d3efbfd3-28f5-4e45-b224-dd326d26e02e","system_id":"levelo_inurba_marseille","lat":43.263535,"lon":5.378157,"is_reserved":false,"is_disabled":false,"rental_uris":{"android":"levelo://app?vid=d3efbfd3-28f5-4e45-b224-dd326d26e02e","ios":"levelo://app?vid=d3efbfd3-28f5-4e45-b224-dd326d26e02e"},"vehicle_type_id":"4","last_reported":1781375038,"current_range_meters":2800,"station_id":"","pricing_plan_id":"cebpf4jnsgd1na2vs0mg"},{"bike_id":"82a77da2-1a1a-4133-8bb3-ece100f8683c","system_id":"levelo_inurba_marseille","lat":43.255762,"lon":5.382239,"is_reserved":false,"is_disabled":false,"rental_uris":{"android":"levelo://app?vid=82a77da2-1a1a-4133-8bb3-ece100f8683c","ios":"levelo://app?vid=82a77da2-1a1a-4133-8bb3-ece100f8683c"},"vehicle_type_id":"4","last_reported":1781375038,"current_range_meters":2800,"station_id":"ce4bhih2rcd13ifvqfs0","pricing_plan_id":"cebpf4jnsgd1na2vs0mg"},{"bike_id":"aff89a10-f72c-47b4-82fa-9621bec0c53f","system_id":"levelo_inurba_marseille","lat":43.25088,"lon":5.39515,"is_reserved":false,"is_disabled":false,"rental_uris":{"android":"levelo://app?vid=aff89a10-f72c-47b4-82fa-9621bec0c53f","ios":"levelo://app?vid=aff89a10-f72c-47b4-82fa-9621bec0c53f"},"vehicle_type_id":"4","last_reported":1781375038,"current_range_meters":2800,"station_id":"ce4bhm12rcd13ifvqgkg","pricing_plan_id":"cebpf4jnsgd1na2vs0mg"},{"bike_id":"13c0ec7c-c23d-4de3-b74a-5565e6a328ed","system_id":"levelo_inurba_marseille","lat":43.23146,"lon":5.43684,"is_reserved":false,"is_disabled":false,"rental_uris":{"android":"levelo://app?vid=13c0ec7c-c23d-4de3-b74a-5565e6a328ed","ios":"levelo://app?vid=13c0ec7c-c23d-4de3-b74a-5565e6a328ed"},"vehicle_type_id":"4","last_reported":1781375038,"current_range_meters":2800,"station_id":"ce4bhmp2rcd13ifvqgog","pricing_plan_id":"cebpf4jnsgd1na2vs0mg"},{"bike_id":"b4eee8dd-9aab-4977-a14f-d9c2d8af5d4e","system_id":"levelo_inurba_marseille","lat":43.21715,"lon":5.34527,"is_reserved":false,"is_disabled":false,"rental_uris":{"android":"levelo://app?vid=b4eee8dd-9aab-4977-a14f-d9c2d8af5d4e","ios":"levelo://app?vid=b4eee8dd-9aab-4977-a14f-d9c2d8af5d4e"},"vehicle_type_id":"4","last_reported":1781375038,"current_range_meters":2800,"station_id":"","pricing_plan_id":"cebpf4jnsgd1na2vs0mg"},{"bike_id":"348a1e35-1fbb-42ad-bf12-bd2a06df5667","system_id":"levelo_inurba_marseille","lat":43.3013,"lon":5.398586,"is_reserved":false,"is_disabled":false,"rental_uris":{"android":"levelo://app?vid=348a1e35-1fbb-42ad-bf12-bd2a06df5667","ios":"levelo://app?vid=348a1e35-1fbb-42ad-bf12-bd2a06df5667"},"vehicle_type_id":"4","last_reported":1781375038,"current_range_meters":2800,"station_id":"ce4bh0h2rcd13ifvqd40","pricing_plan_id":"cebpf4jnsgd1na2vs0mg"},{"bike_id":"fc86a715-7844-4ddf-9d04-744a0c8c2116","system_id":"levelo_inurba_marseille","lat":43.23156,"lon":5.43699,"is_reserved":false,"is_disabled":false,"rental_uris":{"android":"levelo://app?vid=fc86a715-7844-4ddf-9d04-744a0c8c2116","ios":"levelo://app?vid=fc86a715-7844-4ddf-9d04-744a0c8c2116"},"vehicle_type_id":"4","last_reported":1781375038,"current_range_meters":2800,"station_id":"ce4bhmp2rcd13ifvqgog","pricing_plan_id":"cebpf4jnsgd1na2vs0mg"},{"bike_id":"9e0f36c3-3683-4ca6-860d-982bbc91c309","system_id":"levelo_inurba_marseille","lat":43.292079,"lon":5.393223,"is_reserved":false,"is_disabled":true,"rental_uris":{"android":"levelo://app?vid=9e0f36c3-3683-4ca6-860d-982bbc91c309","ios":"levelo://app?vid=9e0f36c3-3683-4ca6-860d-982bbc91c309"},"vehicle_type_id":"4","last_reported":1781375038,"current_range_meters":2800,"station_id":"ce4bh192rcd13ifvqdd0","pricing_plan_id":"cebpf4jnsgd1na2vs0mg"},{"bike_id":"e31d74fd-ceae-43c9-b8d5-3df8b00ebbde","system_id":"levelo_inurba_marseille","lat":43.28504,"lon":5.40642,"is_reserved":false,"is_disabled":false,"rental_uris":{"android":"levelo://app?vid=e31d74fd-ceae-43c9-b8d5-3df8b00ebbde","ios":"levelo://app?vid=e31d74fd-ceae-43c9-b8d5-3df8b00ebbde"},"vehicle_type_id":"4","last_reported":1781375038,"current_range_meters":2800,"station_id":"","pricing_plan_id":"cebpf4jnsgd1na2vs0mg"},{"bike_id":"3075afec-5c0f-4797-8c5b-e8ba88c0fd64","system_id":"levelo_inurba_marseille","lat":43.23192,"lon":5.35556,"is_reserved":false,"is_disabled":false,"rental_uris":{"android":"levelo://app?vid=3075afec-5c0f-4797-8c5b-e8ba88c0fd64","ios":"levelo://app?vid=3075afec-5c0f-4797-8c5b-e8ba88c0fd64"},"vehicle_type_id":"4","last_reported":1781375038,"current_range_meters":2800,"station_id":"ce4bhu92rcd13ifvqi70","pricing_plan_id":"cebpf4jnsgd1na2vs0mg"},{"bike_id":"2a9de7db-88b7-40ae-a2d6-f811130f7add","system_id":"levelo_inurba_marseille","lat":43.26237,"lon":5.38757,"is_reserved":false,"is_disabled":false,"rental_uris":{"android":"levelo://app?vid=2a9de7db-88b7-40ae-a2d6-f811130f7add","ios":"levelo://app?vid=2a9de7db-88b7-40ae-a2d6-f811130f7add"},"vehicle_type_id":"4","last_reported":1781375038,"current_range_meters":2800,"station_id":"st_d8gjfg747rts73coq3b0","pricing_plan_id":"cebpf4jnsgd1na2vs0mg"},{"bike_id":"d0be296a-d5ea-437d-ba11-136ab0eeb325","system_id":"levelo_inurba_marseille","lat":43.28629,"lon":5.39884,"is_reserved":false,"is_disabled":false,"rental_uris":{"android":"levelo://app?vid=d0be296a-d5ea-437d-ba11-136ab0eeb325","ios":"levelo://app?vid=d0be296a-d5ea-437d-ba11-136ab0eeb325"},"vehicle_type_id":"4","last_reported":1781375038,"current_range_meters":2800,"station_id":"st_d4a7ka997mjs738ck50g","pricing_plan_id":"cebpf4jnsgd1na2vs0mg"},{"bike_id":"334578c6-920b-460e-81ca-d46b8e304e13","system_id":"levelo_inurba_marseille","lat":43.29942,"lon":5.36539,"is_reserved":false,"is_disabled":false,"rental_uris":{"android":"levelo://app?vid=334578c6-920b-460e-81ca-d46b8e304e13","ios":"levelo://app?vid=334578c6-920b-460e-81ca-d46b8e304e13"},"vehicle_type_id":"4","last_reported":1781375038,"current_range_meters":2800,"station_id":"ce4bgm92rcd13ifvqbr0","pricing_plan_id":"cebpf4jnsgd1na2vs0mg"},{"bike_id":"df1f2165-f18e-4559-9234-6ef26e1dd4dc","system_id":"levelo_inurba_marseille","lat":43.28413,"lon":5.37522,"is_reserved":false,"is_disabled":false,"rental_uris":{"android":"levelo://app?vid=df1f2165-f18e-4559-9234-6ef26e1dd4dc","ios":"levelo://app?vid=df1f2165-f18e-4559-9234-6ef26e1dd4dc"},"vehicle_type_id":"4","last_reported":1781375038,"current_range_meters":2800,"station_id":"ce4bh412rcd13ifvqds0","pricing_plan_id":"cebpf4jnsgd1na2vs0mg"},{"bike_id":"cfc1fd7a-86fe-4625-ad49-4f065273c26e","system_id":"levelo_inurba_marseille","lat":43.24557,"lon":5.39531,"is_reserved":false,"is_disabled":false,"rental_uris":{"android":"levelo://app?vid=cfc1fd7a-86fe-4625-ad49-4f065273c26e","ios":"levelo://app?vid=cfc1fd7a-86fe-4625-ad49-4f065273c26e"},"vehicle_type_id":"4","last_reported":1781375038,"current_range_meters":2800,"station_id":"ce4bhlp2rcd13ifvqgjg","pricing_plan_id":"cebpf4jnsgd1na2vs0mg"},{"bike_id":"8f361732-5d9e-4989-ab2a-14520c00e48c","system_id":"levelo_inurba_marseille","lat":43.26365,"lon":5.41068,"is_reserved":false,"is_disabled":false,"rental_uris":{"android":"levelo://app?vid=8f361732-5d9e-4989-ab2a-14520c00e48c","ios":"levelo://app?vid=8f361732-5d9e-4989-ab2a-14520c00e48c"},"vehicle_type_id":"4","last_reported":1781375038,"current_range_meters":3200,"station_id":"st_d4e5ca6na9uc73bfl5fg","pricing_plan_id":"cebpf4jnsgd1na2vs0mg"},{"bike_id":"44577758-9781-4e26-a98a-6f13509dbbf8","system_id":"levelo_inurba_marseille","lat":43.3374,"lon":5.39187,"is_reserved":false,"is_disabled":false,"rental_uris":{"android":"levelo://app?vid=44577758-9781-4e26-a98a-6f13509dbbf8","ios":"levelo://app?vid=44577758-9781-4e26-a98a-6f13509dbbf8"},"vehicle_type_id":"4","last_reported":1781375038,"current_range_meters":3200,"station_id":"ce4bhr92rcd13ifvqhsg","pricing_plan_id":"cebpf4jnsgd1na2vs0mg"},{"bike_id":"a45d89a8-4407-44fa-b94f-1522f15ad762","system_id":"levelo_inurba_marseille","lat":43.272149,"lon":5.391872,"is_reserved":false,"is_disabled":false,"rental_uris":{"android":"levelo://app?vid=a45d89a8-4407-44fa-b94f-1522f15ad762","ios":"levelo://app?vid=a45d89a8-4407-44fa-b94f-1522f15ad762"},"vehicle_type_id":"4","last_reported":1781375038,"current_range_meters":3200,"station_id":"ce4bhhp2rcd13ifvqfm0","pricing_plan_id":"cebpf4jnsgd1na2vs0mg"},{"bike_id":"a921a687-4f8b-4d1b-a254-2ddeeeaf8a37","system_id":"levelo_inurba_marseille","lat":43.24219,"lon":5.37085,"is_reserved":false,"is_disabled":false,"rental_uris":{"android":"levelo://app?vid=a921a687-4f8b-4d1b-a254-2ddeeeaf8a37","ios":"levelo://app?vid=a921a687-4f8b-4d1b-a254-2ddeeeaf8a37"},"vehicle_type_id":"4","last_reported":1781375038,"current_range_meters":3200,"station_id":"","pricing_plan_id":"cebpf4jnsgd1na2vs0mg"},{"bike_id":"a0d2ac5f-fff6-43f6-831d-dfa81e9c3981","system_id":"levelo_inurba_marseille","lat":43.29599,"lon":5.36405,"is_reserved":false,"is_disabled":false,"rental_uris":{"android":"levelo://app?vid=a0d2ac5f-fff6-43f6-831d-dfa81e9c3981","ios":"levelo://app?vid=a0d2ac5f-fff6-43f6-831d-dfa81e9c3981"},"vehicle_type_id":"4","last_reported":1781375038,"current_range_meters":3200,"station_id":"","pricing_plan_id":"cebpf4jnsgd1na2vs0mg"},{"bike_id":"cd6209c5-f5a8-47ac-ada3-8020e4be9262","system_id":"levelo_inurba_marseille","lat":43.26343,"lon":5.378216,"is_reserved":false,"is_disabled":false,"rental_uris":{"android":"levelo://app?vid=cd6209c5-f5a8-47ac-ada3-8020e4be9262","ios":"levelo://app?vid=cd6209c5-f5a8-47ac-ada3-8020e4be9262"},"vehicle_type_id":"4","last_reported":1781375038,"current_range_meters":3200,"station_id":"st_d163nis0mtpqnht9uue0","pricing_plan_id":"cebpf4jnsgd1na2vs0mg"},{"bike_id":"1b5dd99b-38ad-44f7-95c5-1e51cf6530d6","system_id":"levelo_inurba_marseille","lat":43.26998,"lon":5.36545,"is_reserved":false,"is_disabled":false,"rental_uris":{"android":"levelo://app?vid=1b5dd99b-38ad-44f7-95c5-1e51cf6530d6","ios":"levelo://app?vid=1b5dd99b-38ad-44f7-95c5-1e51cf6530d6"},"vehicle_type_id":"4","last_reported":1781375038,"current_range_meters":3200,"station_id":"","pricing_plan_id":"cebpf4jnsgd1na2vs0mg"},{"bike_id":"8a9f3474-1ba5-4fc3-b4e6-1d2f8579f9d1","system_id":"levelo_inurba_marseille","lat":43.26581,"lon":5.39004,"is_reserved":false,"is_disabled":true,"rental_uris":{"android":"levelo://app?vid=8a9f3474-1ba5-4fc3-b4e6-1d2f8579f9d1","ios":"levelo://app?vid=8a9f3474-1ba5-4fc3-b4e6-1d2f8579f9d1"},"vehicle_type_id":"4","last_reported":1781375038,"current_range_meters":3200,"station_id":"ce4bhe12rcd13ifvqf30","pricing_plan_id":"cebpf4jnsgd1na2vs0mg"},{"bike_id":"44c94aa1-6d43-4de1-bf1f-52b0672a538b","system_id":"levelo_inurba_marseille","lat":43.263412,"lon":5.378188,"is_reserved":false,"is_disabled":false,"rental_uris":{"android":"levelo://app?vid=44c94aa1-6d43-4de1-bf1f-52b0672a538b","ios":"levelo://app?vid=44c94aa1-6d43-4de1-bf1f-52b0672a538b"},"vehicle_type_id":"4","last_reported":1781375038,"current_range_meters":3200,"station_id":"st_d163nis0mtpqnht9uue0","pricing_plan_id":"cebpf4jnsgd1na2vs0mg"},{"bike_id":"8acd7999-529f-4383-a738-85442bba2534","system_id":"levelo_inurba_marseille","lat":43.263378,"lon":5.378187,"is_reserved":false,"is_disabled":false,"rental_uris":{"android":"levelo://app?vid=8acd7999-529f-4383-a738-85442bba2534","ios":"levelo://app?vid=8acd7999-529f-4383-a738-85442bba2534"},"vehicle_type_id":"4","last_reported":1781375038,"current_range_meters":3200,"station_id":"st_d163nis0mtpqnht9uue0","pricing_plan_id":"cebpf4jnsgd1na2vs0mg"},{"bike_id":"9baebc47-9a21-445a-b575-5e8cc4ed7549","system_id":"levelo_inurba_marseille","lat":43.28481,"lon":5.48412,"is_reserved":false,"is_disabled":false,"rental_uris":{"android":"levelo://app?vid=9baebc47-9a21-445a-b575-5e8cc4ed7549","ios":"levelo://app?vid=9baebc47-9a21-445a-b575-5e8cc4ed7549"},"vehicle_type_id":"4","last_reported":1781375038,"current_range_meters":3200,"station_id":"st_d3svhcjqgbts73a3dn0g","pricing_plan_id":"cebpf4jnsgd1na2vs0mg"},{"bike_id":"7717390a-9f55-4678-b2a5-ba0a73b8a548","system_id":"levelo_inurba_marseille","lat":43.31591,"lon":5.36965,"is_reserved":false,"is_disabled":false,"rental_uris":{"android":"levelo://app?vid=7717390a-9f55-4678-b2a5-ba0a73b8a548","ios":"levelo://app?vid=7717390a-9f55-4678-b2a5-ba0a73b8a548"},"vehicle_type_id":"4","last_reported":1781375038,"current_range_meters":3200,"station_id":"","pricing_plan_id":"cebpf4jnsgd1na2vs0mg"},{"bike_id":"f7706536-2b3b-4ef9-9d79-aee87a7d7f28","system_id":"levelo_inurba_marseille","lat":43.238,"lon":5.36635,"is_reserved":false,"is_disabled":false,"rental_uris":{"android":"levelo://app?vid=f7706536-2b3b-4ef9-9d79-aee87a7d7f28","ios":"levelo://app?vid=f7706536-2b3b-4ef9-9d79-aee87a7d7f28"},"vehicle_type_id":"4","last_reported":1781375038,"current_range_meters":3200,"station_id":"st_d3nk18o9ro0c73en2l3g","pricing_plan_id":"cebpf4jnsgd1na2vs0mg"},{"bike_id":"5484f946-9bed-45f7-a193-2f2111a077f2","system_id":"levelo_inurba_marseille","lat":43.28671,"lon":5.36349,"is_reserved":false,"is_disabled":false,"rental_uris":{"android":"levelo://app?vid=5484f946-9bed-45f7-a193-2f2111a077f2","ios":"levelo://app?vid=5484f946-9bed-45f7-a193-2f2111a077f2"},"vehicle_type_id":"4","last_reported":1781375038,"current_range_meters":3200,"station_id":"ce4bhah2rcd13ifvqej0","pricing_plan_id":"cebpf4jnsgd1na2vs0mg"},{"bike_id":"e6a5a0bd-f894-47d4-9f06-b2cc9414a98a","system_id":"levelo_inurba_marseille","lat":43.301382,"lon":5.387778,"is_reserved":false,"is_disabled":false,"rental_uris":{"android":"levelo://app?vid=e6a5a0bd-f894-47d4-9f06-b2cc9414a98a","ios":"levelo://app?vid=e6a5a0bd-f894-47d4-9f06-b2cc9414a98a"},"vehicle_type_id":"4","last_reported":1781375038,"current_range_meters":3200,"station_id":"ce4bghh2rcd13ifvqb60","pricing_plan_id":"cebpf4jnsgd1na2vs0mg"},{"bike_id":"8c9669fa-ccdd-484b-9183-2daa2ca137e8","system_id":"levelo_inurba_marseille","lat":43.263437,"lon":5.378252,"is_reserved":false,"is_disabled":false,"rental_uris":{"android":"levelo://app?vid=8c9669fa-ccdd-484b-9183-2daa2ca137e8","ios":"levelo://app?vid=8c9669fa-ccdd-484b-9183-2daa2ca137e8"},"vehicle_type_id":"4","last_reported":1781375038,"current_range_meters":3200,"station_id":"st_d163nis0mtpqnht9uue0","pricing_plan_id":"cebpf4jnsgd1na2vs0mg"},{"bike_id":"78c22f8e-a698-4b52-958d-e10205548923","system_id":"levelo_inurba_marseille","lat":43.27374,"lon":5.36268,"is_reserved":false,"is_disabled":false,"rental_uris":{"android":"levelo://app?vid=78c22f8e-a698-4b52-958d-e10205548923","ios":"levelo://app?vid=78c22f8e-a698-4b52-958d-e10205548923"},"vehicle_type_id":"4","last_reported":1781375038,"current_range_meters":3600,"station_id":"ce4bhbh2rcd13ifvqeo0","pricing_plan_id":"cebpf4jnsgd1na2vs0mg"},{"bike_id":"4850c776-50c7-4caa-a927-79415fa5d261","system_id":"levelo_inurba_marseille","lat":43.28362,"lon":5.38104,"is_reserved":false,"is_disabled":false,"rental_uris":{"android":"levelo://app?vid=4850c776-50c7-4caa-a927-79415fa5d261","ios":"levelo://app?vid=4850c776-50c7-4caa-a927-79415fa5d261"},"vehicle_type_id":"4","last_reported":1781375038,"current_range_meters":3600,"station_id":"","pricing_plan_id":"cebpf4jnsgd1na2vs0mg"},{"bike_id":"a88c18f7-a05b-424b-a2e6-87c48e40dd60","system_id":"levelo_inurba_marseille","lat":43.23889,"lon":5.37476,"is_reserved":false,"is_disabled":true,"rental_uris":{"android":"levelo://app?vid=a88c18f7-a05b-424b-a2e6-87c48e40dd60","ios":"levelo://app?vid=a88c18f7-a05b-424b-a2e6-87c48e40dd60"},"vehicle_type_id":"4","last_reported":1781375038,"current_range_meters":3600,"station_id":"st_d6sm7csbq4hs73f8fpjg","pricing_plan_id":"cebpf4jnsgd1na2vs0mg"},{"bike_id":"93e709b7-7c4a-4a7a-abae-3d000df7a72c","system_id":"levelo_inurba_marseille","lat":43.2997,"lon":5.36554,"is_reserved":false,"is_disabled":false,"rental_uris":{"android":"levelo://app?vid=93e709b7-7c4a-4a7a-abae-3d000df7a72c","ios":"levelo://app?vid=93e709b7-7c4a-4a7a-abae-3d000df7a72c"},"vehicle_type_id":"4","last_reported":1781375038,"current_range_meters":3600,"station_id":"","pricing_plan_id":"cebpf4jnsgd1na2vs0mg"},{"bike_id":"5c667f38-d564-4e54-99db-b1426b3030cf","system_id":"levelo_inurba_marseille","lat":43.27376,"lon":5.36256,"is_reserved":false,"is_disabled":false,"rental_uris":{"android":"levelo://app?vid=5c667f38-d564-4e54-99db-b1426b3030cf","ios":"levelo://app?vid=5c667f38-d564-4e54-99db-b1426b3030cf"},"vehicle_type_id":"4","last_reported":1781375038,"current_range_meters":3600,"station_id":"ce4bhbh2rcd13ifvqeo0","pricing_plan_id":"cebpf4jnsgd1na2vs0mg"},{"bike_id":"98c0a183-7ee6-4b0b-b809-46c8824508e7","system_id":"levelo_inurba_marseille","lat":43.29615,"lon":5.4192,"is_reserved":false,"is_disabled":false,"rental_uris":{"android":"levelo://app?vid=98c0a183-7ee6-4b0b-b809-46c8824508e7","ios":"levelo://app?vid=98c0a183-7ee6-4b0b-b809-46c8824508e7"},"vehicle_type_id":"4","last_reported":1781375038,"current_range_meters":3600,"station_id":"","pricing_plan_id":"cebpf4jnsgd1na2vs0mg"},{"bike_id":"f312a474-3688-43e4-8515-a784a5c48528","system_id":"levelo_inurba_marseille","lat":43.21187,"lon":5.35078,"is_reserved":false,"is_disabled":true,"rental_uris":{"android":"levelo://app?vid=f312a474-3688-43e4-8515-a784a5c48528","ios":"levelo://app?vid=f312a474-3688-43e4-8515-a784a5c48528"},"vehicle_type_id":"4","last_reported":1781375038,"current_range_meters":3600,"station_id":"st_cvj6sg6p6f1abm77japg","pricing_plan_id":"cebpf4jnsgd1na2vs0mg"},{"bike_id":"314bd59d-abc3-40b7-9916-3279d88b1da4","system_id":"levelo_inurba_marseille","lat":43.26548,"lon":5.37277,"is_reserved":false,"is_disabled":false,"rental_uris":{"android":"levelo://app?vid=314bd59d-abc3-40b7-9916-3279d88b1da4","ios":"levelo://app?vid=314bd59d-abc3-40b7-9916-3279d88b1da4"},"vehicle_type_id":"4","last_reported":1781375038,"current_range_meters":3600,"station_id":"ce4bhg12rcd13ifvqf70","pricing_plan_id":"cebpf4jnsgd1na2vs0mg"},{"bike_id":"1604ce63-55c7-46ac-bdbb-dd37aeac50f3","system_id":"levelo_inurba_marseille","lat":43.260668,"lon":5.393968,"is_reserved":false,"is_disabled":false,"rental_uris":{"android":"levelo://app?vid=1604ce63-55c7-46ac-bdbb-dd37aeac50f3","ios":"levelo://app?vid=1604ce63-55c7-46ac-bdbb-dd37aeac50f3"},"vehicle_type_id":"4","last_reported":1781375038,"current_range_meters":3600,"station_id":"ce4bhh92rcd13ifvqfj0","pricing_plan_id":"cebpf4jnsgd1na2vs0mg"},{"bike_id":"7bf6aea3-b6b7-4a23-9f60-b150cc23b36a","system_id":"levelo_inurba_marseille","lat":43.26036,"lon":5.37578,"is_reserved":false,"is_disabled":false,"rental_uris":{"android":"levelo://app?vid=7bf6aea3-b6b7-4a23-9f60-b150cc23b36a","ios":"levelo://app?vid=7bf6aea3-b6b7-4a23-9f60-b150cc23b36a"},"vehicle_type_id":"4","last_reported":1781375038,"current_range_meters":3600,"station_id":"ce4bhgh2rcd13ifvqfa0","pricing_plan_id":"cebpf4jnsgd1na2vs0mg"},{"bike_id":"7aa235c2-37fd-404c-a99d-3ed40bc835b2","system_id":"levelo_inurba_marseille","lat":43.23883,"lon":5.37464,"is_reserved":false,"is_disabled":false,"rental_uris":{"android":"levelo://app?vid=7aa235c2-37fd-404c-a99d-3ed40bc835b2","ios":"levelo://app?vid=7aa235c2-37fd-404c-a99d-3ed40bc835b2"},"vehicle_type_id":"4","last_reported":1781375038,"current_range_meters":3600,"station_id":"st_d6sm7csbq4hs73f8fpjg","pricing_plan_id":"cebpf4jnsgd1na2vs0mg"},{"bike_id":"e6a05f18-e75c-47b6-8e84-506a85469b8f","system_id":"levelo_inurba_marseille","lat":43.26376,"lon":5.37804,"is_reserved":false,"is_disabled":false,"rental_uris":{"android":"levelo://app?vid=e6a05f18-e75c-47b6-8e84-506a85469b8f","ios":"levelo://app?vid=e6a05f18-e75c-47b6-8e84-506a85469b8f"},"vehicle_type_id":"4","last_reported":1781375038,"current_range_meters":3600,"station_id":"st_d163nis0mtpqnht9uue0","pricing_plan_id":"cebpf4jnsgd1na2vs0mg"},{"bike_id":"bd996783-eebb-4217-ab38-d6f2909000c4","system_id":"levelo_inurba_marseille","lat":43.23199,"lon":5.35563,"is_reserved":false,"is_disabled":false,"rental_uris":{"android":"levelo://app?vid=bd996783-eebb-4217-ab38-d6f2909000c4","ios":"levelo://app?vid=bd996783-eebb-4217-ab38-d6f2909000c4"},"vehicle_type_id":"4","last_reported":1781375038,"current_range_meters":3600,"station_id":"ce4bhu92rcd13ifvqi70","pricing_plan_id":"cebpf4jnsgd1na2vs0mg"},{"bike_id":"e37613eb-2b80-45f6-8be7-6bbc2d17cf64","system_id":"levelo_inurba_marseille","lat":43.24811,"lon":5.37454,"is_reserved":false,"is_disabled":true,"rental_uris":{"android":"levelo://app?vid=e37613eb-2b80-45f6-8be7-6bbc2d17cf64","ios":"levelo://app?vid=e37613eb-2b80-45f6-8be7-6bbc2d17cf64"},"vehicle_type_id":"4","last_reported":1781375038,"current_range_meters":3600,"station_id":"ce4bhgh2rcd13ifvqfb0","pricing_plan_id":"cebpf4jnsgd1na2vs0mg"},{"bike_id":"77a3e5cd-10a1-4b18-bd77-e146c62f220c","system_id":"levelo_inurba_marseille","lat":43.28016,"lon":5.37504,"is_reserved":false,"is_disabled":false,"rental_uris":{"android":"levelo://app?vid=77a3e5cd-10a1-4b18-bd77-e146c62f220c","ios":"levelo://app?vid=77a3e5cd-10a1-4b18-bd77-e146c62f220c"},"vehicle_type_id":"4","last_reported":1781375038,"current_range_meters":3600,"station_id":"","pricing_plan_id":"cebpf4jnsgd1na2vs0mg"},{"bike_id":"789bb187-05f0-427e-a77f-6842144ea4ab","system_id":"levelo_inurba_marseille","lat":43.24632,"lon":5.4315,"is_reserved":false,"is_disabled":false,"rental_uris":{"android":"levelo://app?vid=789bb187-05f0-427e-a77f-6842144ea4ab","ios":"levelo://app?vid=789bb187-05f0-427e-a77f-6842144ea4ab"},"vehicle_type_id":"4","last_reported":1781375038,"current_range_meters":3600,"station_id":"st_d2m6c4gdas8pm72e190g","pricing_plan_id":"cebpf4jnsgd1na2vs0mg"},{"bike_id":"1c2ef152-9632-42ad-be32-9cbea9645d01","system_id":"levelo_inurba_marseille","lat":43.25398,"lon":5.37627,"is_reserved":false,"is_disabled":false,"rental_uris":{"android":"levelo://app?vid=1c2ef152-9632-42ad-be32-9cbea9645d01","ios":"levelo://app?vid=1c2ef152-9632-42ad-be32-9cbea9645d01"},"vehicle_type_id":"4","last_reported":1781375038,"current_range_meters":4000,"station_id":"","pricing_plan_id":"cebpf4jnsgd1na2vs0mg"},{"bike_id":"6a27404a-fd45-46ef-b0c6-d19df52b0472","system_id":"levelo_inurba_marseille","lat":43.3008,"lon":5.37755,"is_reserved":false,"is_disabled":false,"rental_uris":{"android":"levelo://app?vid=6a27404a-fd45-46ef-b0c6-d19df52b0472","ios":"levelo://app?vid=6a27404a-fd45-46ef-b0c6-d19df52b0472"},"vehicle_type_id":"4","last_reported":1781375038,"current_range_meters":4000,"station_id":"","pricing_plan_id":"cebpf4jnsgd1na2vs0mg"},{"bike_id":"d2af5be2-8988-401b-9ba7-ce6f44f94617","system_id":"levelo_inurba_marseille","lat":43.26348,"lon":5.37818,"is_reserved":false,"is_disabled":false,"rental_uris":{"android":"levelo://app?vid=d2af5be2-8988-401b-9ba7-ce6f44f94617","ios":"levelo://app?vid=d2af5be2-8988-401b-9ba7-ce6f44f94617"},"vehicle_type_id":"4","last_reported":1781375038,"current_range_meters":4000,"station_id":"","pricing_plan_id":"cebpf4jnsgd1na2vs0mg"},{"bike_id":"476b5676-81cf-4ca6-b12b-10b286c36c4a","system_id":"levelo_inurba_marseille","lat":43.26957,"lon":5.38622,"is_reserved":false,"is_disabled":false,"rental_uris":{"android":"levelo://app?vid=476b5676-81cf-4ca6-b12b-10b286c36c4a","ios":"levelo://app?vid=476b5676-81cf-4ca6-b12b-10b286c36c4a"},"vehicle_type_id":"4","last_reported":1781375038,"current_range_meters":4000,"station_id":"ce4bhh92rcd13ifvqfh0","pricing_plan_id":"cebpf4jnsgd1na2vs0mg"},{"bike_id":"45ac15c3-424d-4290-accf-af4c1f1ee7b7","system_id":"levelo_inurba_marseille","lat":43.26372,"lon":5.41082,"is_reserved":false,"is_disabled":false,"rental_uris":{"android":"levelo://app?vid=45ac15c3-424d-4290-accf-af4c1f1ee7b7","ios":"levelo://app?vid=45ac15c3-424d-4290-accf-af4c1f1ee7b7"},"vehicle_type_id":"4","last_reported":1781375038,"current_range_meters":4000,"station_id":"st_d4e5ca6na9uc73bfl5fg","pricing_plan_id":"cebpf4jnsgd1na2vs0mg"},{"bike_id":"61abc050-794c-43f3-96ae-15565612cd1b","system_id":"levelo_inurba_marseille","lat":43.28683,"lon":5.46675,"is_reserved":false,"is_disabled":false,"rental_uris":{"android":"levelo://app?vid=61abc050-794c-43f3-96ae-15565612cd1b","ios":"levelo://app?vid=61abc050-794c-43f3-96ae-15565612cd1b"},"vehicle_type_id":"4","last_reported":1781375038,"current_range_meters":4000,"station_id":"st_d6tc3vkotcvc738tfjhg","pricing_plan_id":"cebpf4jnsgd1na2vs0mg"},{"bike_id":"15c515a6-06bb-429f-9e0a-7eec203d0738","system_id":"levelo_inurba_marseille","lat":43.28931,"lon":5.36403,"is_reserved":false,"is_disabled":false,"rental_uris":{"android":"levelo://app?vid=15c515a6-06bb-429f-9e0a-7eec203d0738","ios":"levelo://app?vid=15c515a6-06bb-429f-9e0a-7eec203d0738"},"vehicle_type_id":"4","last_reported":1781375038,"current_range_meters":4000,"station_id":"ce4bhc92rcd13ifvqetg","pricing_plan_id":"cebpf4jnsgd1na2vs0mg"},{"bike_id":"40331548-b44e-4f82-9abe-fed343e427de","system_id":"levelo_inurba_marseille","lat":43.2635,"lon":5.3782,"is_reserved":false,"is_disabled":false,"rental_uris":{"android":"levelo://app?vid=40331548-b44e-4f82-9abe-fed343e427de","ios":"levelo://app?vid=40331548-b44e-4f82-9abe-fed343e427de"},"vehicle_type_id":"4","last_reported":1781375038,"current_range_meters":4000,"station_id":"st_d163nis0mtpqnht9uue0","pricing_plan_id":"cebpf4jnsgd1na2vs0mg"},{"bike_id":"122a98ce-bdb3-4dc5-9b5c-4057220912be","system_id":"levelo_inurba_marseille","lat":43.27375,"lon":5.36258,"is_reserved":false,"is_disabled":false,"rental_uris":{"android":"levelo://app?vid=122a98ce-bdb3-4dc5-9b5c-4057220912be","ios":"levelo://app?vid=122a98ce-bdb3-4dc5-9b5c-4057220912be"},"vehicle_type_id":"4","last_reported":1781375038,"current_range_meters":4000,"station_id":"ce4bhbh2rcd13ifvqeo0","pricing_plan_id":"cebpf4jnsgd1na2vs0mg"},{"bike_id":"1f4cf7cf-98e2-40ce-8e0b-c74ae682295d","system_id":"levelo_inurba_marseille","lat":43.26236,"lon":5.38763,"is_reserved":false,"is_disabled":false,"rental_uris":{"android":"levelo://app?vid=1f4cf7cf-98e2-40ce-8e0b-c74ae682295d","ios":"levelo://app?vid=1f4cf7cf-98e2-40ce-8e0b-c74ae682295d"},"vehicle_type_id":"4","last_reported":1781375038,"current_range_meters":4000,"station_id":"st_d8gjfg747rts73coq3b0","pricing_plan_id":"cebpf4jnsgd1na2vs0mg"},{"bike_id":"a42c346c-88ec-4568-8bc6-84fce72f279e","system_id":"levelo_inurba_marseille","lat":43.26353,"lon":5.37812,"is_reserved":false,"is_disabled":false,"rental_uris":{"android":"levelo://app?vid=a42c346c-88ec-4568-8bc6-84fce72f279e","ios":"levelo://app?vid=a42c346c-88ec-4568-8bc6-84fce72f279e"},"vehicle_type_id":"4","last_reported":1781375038,"current_range_meters":4000,"station_id":"st_d163nis0mtpqnht9uue0","pricing_plan_id":"cebpf4jnsgd1na2vs0mg"},{"bike_id":"0d39e764-ddff-4fa0-9b21-b47d2f686cbc","system_id":"levelo_inurba_marseille","lat":43.26572,"lon":5.39029,"is_reserved":false,"is_disabled":false,"rental_uris":{"android":"levelo://app?vid=0d39e764-ddff-4fa0-9b21-b47d2f686cbc","ios":"levelo://app?vid=0d39e764-ddff-4fa0-9b21-b47d2f686cbc"},"vehicle_type_id":"4","last_reported":1781375038,"current_range_meters":4000,"station_id":"ce4bhe12rcd13ifvqf30","pricing_plan_id":"cebpf4jnsgd1na2vs0mg"},{"bike_id":"f13edbc8-c7a1-4b19-a7a9-c0c1a48e16fa","system_id":"levelo_inurba_marseille","lat":43.26358,"lon":5.37814,"is_reserved":false,"is_disabled":false,"rental_uris":{"android":"levelo://app?vid=f13edbc8-c7a1-4b19-a7a9-c0c1a48e16fa","ios":"levelo://app?vid=f13edbc8-c7a1-4b19-a7a9-c0c1a48e16fa"},"vehicle_type_id":"4","last_reported":1781375038,"current_range_meters":4000,"station_id":"st_d163nis0mtpqnht9uue0","pricing_plan_id":"cebpf4jnsgd1na2vs0mg"},{"bike_id":"5b66547b-8be8-42a5-b10f-2f00f0daccbf","system_id":"levelo_inurba_marseille","lat":43.29855,"lon":5.36284,"is_reserved":false,"is_disabled":false,"rental_uris":{"android":"levelo://app?vid=5b66547b-8be8-42a5-b10f-2f00f0daccbf","ios":"levelo://app?vid=5b66547b-8be8-42a5-b10f-2f00f0daccbf"},"vehicle_type_id":"4","last_reported":1781375038,"current_range_meters":4000,"station_id":"ce4bgpp2rcd13ifvqc3g","pricing_plan_id":"cebpf4jnsgd1na2vs0mg"},{"bike_id":"292ba82b-0dab-46c1-b4a2-48a52268ff1c","system_id":"levelo_inurba_marseille","lat":43.26621,"lon":5.39093,"is_reserved":false,"is_disabled":true,"rental_uris":{"android":"levelo://app?vid=292ba82b-0dab-46c1-b4a2-48a52268ff1c","ios":"levelo://app?vid=292ba82b-0dab-46c1-b4a2-48a52268ff1c"},"vehicle_type_id":"4","last_reported":1781375038,"current_range_meters":4000,"station_id":"ce4bhe12rcd13ifvqf30","pricing_plan_id":"cebpf4jnsgd1na2vs0mg"},{"bike_id":"bd6fa762-e644-446a-abf7-290f25ca3f95","system_id":"levelo_inurba_marseille","lat":43.26237,"lon":5.37423,"is_reserved":false,"is_disabled":false,"rental_uris":{"android":"levelo://app?vid=bd6fa762-e644-446a-abf7-290f25ca3f95","ios":"levelo://app?vid=bd6fa762-e644-446a-abf7-290f25ca3f95"},"vehicle_type_id":"4","last_reported":1781375038,"current_range_meters":4000,"station_id":"ce4bhgp2rcd13ifvqfc0","pricing_plan_id":"cebpf4jnsgd1na2vs0mg"},{"bike_id":"eda98293-5c91-4dae-89c6-486a45b00f60","system_id":"levelo_inurba_marseille","lat":43.23261,"lon":5.40087,"is_reserved":false,"is_disabled":false,"rental_uris":{"android":"levelo://app?vid=eda98293-5c91-4dae-89c6-486a45b00f60","ios":"levelo://app?vid=eda98293-5c91-4dae-89c6-486a45b00f60"},"vehicle_type_id":"4","last_reported":1781375038,"current_range_meters":4000,"station_id":"","pricing_plan_id":"cebpf4jnsgd1na2vs0mg"},{"bike_id":"fffde128-20e0-45cd-8d7e-015357b6f2ff","system_id":"levelo_inurba_marseille","lat":43.254,"lon":5.37631,"is_reserved":false,"is_disabled":false,"rental_uris":{"android":"levelo://app?vid=fffde128-20e0-45cd-8d7e-015357b6f2ff","ios":"levelo://app?vid=fffde128-20e0-45cd-8d7e-015357b6f2ff"},"vehicle_type_id":"4","last_reported":1781375038,"current_range_meters":4000,"station_id":"","pricing_plan_id":"cebpf4jnsgd1na2vs0mg"},{"bike_id":"06522c3b-a1de-486b-9e71-c8b149c2b92d","system_id":"levelo_inurba_marseille","lat":43.2798,"lon":5.40015,"is_reserved":false,"is_disabled":false,"rental_uris":{"android":"levelo://app?vid=06522c3b-a1de-486b-9e71-c8b149c2b92d","ios":"levelo://app?vid=06522c3b-a1de-486b-9e71-c8b149c2b92d"},"vehicle_type_id":"4","last_reported":1781375038,"current_range_meters":4000,"station_id":"ce4bho92rcd13ifvqh4g","pricing_plan_id":"cebpf4jnsgd1na2vs0mg"},{"bike_id":"493dfc89-091c-4d46-adf1-e225a83c8f30","system_id":"levelo_inurba_marseille","lat":43.28859,"lon":5.42524,"is_reserved":false,"is_disabled":false,"rental_uris":{"android":"levelo://app?vid=493dfc89-091c-4d46-adf1-e225a83c8f30","ios":"levelo://app?vid=493dfc89-091c-4d46-adf1-e225a83c8f30"},"vehicle_type_id":"4","last_reported":1781375038,"current_range_meters":4000,"station_id":"st_d3b462108ojc7389ooeg","pricing_plan_id":"cebpf4jnsgd1na2vs0mg"},{"bike_id":"2da49bc2-114e-4776-8539-fc7b31b58185","system_id":"levelo_inurba_marseille","lat":43.31242,"lon":5.36889,"is_reserved":false,"is_disabled":false,"rental_uris":{"android":"levelo://app?vid=2da49bc2-114e-4776-8539-fc7b31b58185","ios":"levelo://app?vid=2da49bc2-114e-4776-8539-fc7b31b58185"},"vehicle_type_id":"4","last_reported":1781375038,"current_range_meters":4000,"station_id":"ce4bgl92rcd13ifvqbq0","pricing_plan_id":"cebpf4jnsgd1na2vs0mg"},{"bike_id":"db8c5b68-a2ae-4ccd-8b82-df47b61ade41","system_id":"levelo_inurba_marseille","lat":43.2464,"lon":5.37928,"is_reserved":false,"is_disabled":false,"rental_uris":{"android":"levelo://app?vid=db8c5b68-a2ae-4ccd-8b82-df47b61ade41","ios":"levelo://app?vid=db8c5b68-a2ae-4ccd-8b82-df47b61ade41"},"vehicle_type_id":"4","last_reported":1781375038,"current_range_meters":4000,"station_id":"","pricing_plan_id":"cebpf4jnsgd1na2vs0mg"},{"bike_id":"671a0d43-ebf6-420b-9e33-6aa7845581a6","system_id":"levelo_inurba_marseille","lat":43.26338,"lon":5.378313,"is_reserved":false,"is_disabled":false,"rental_uris":{"android":"levelo://app?vid=671a0d43-ebf6-420b-9e33-6aa7845581a6","ios":"levelo://app?vid=671a0d43-ebf6-420b-9e33-6aa7845581a6"},"vehicle_type_id":"4","last_reported":1781375038,"current_range_meters":4000,"station_id":"","pricing_plan_id":"cebpf4jnsgd1na2vs0mg"},{"bike_id":"ed1b8ea2-ecf3-46da-8352-26963074c835","system_id":"levelo_inurba_marseille","lat":43.24458,"lon":5.42548,"is_reserved":false,"is_disabled":false,"rental_uris":{"android":"levelo://app?vid=ed1b8ea2-ecf3-46da-8352-26963074c835","ios":"levelo://app?vid=ed1b8ea2-ecf3-46da-8352-26963074c835"},"vehicle_type_id":"4","last_reported":1781375038,"current_range_meters":4000,"station_id":"st_d4a3vfp97mjs738cd8kg","pricing_plan_id":"cebpf4jnsgd1na2vs0mg"},{"bike_id":"2f5a2eb1-a60a-4fe8-a5aa-002259731410","system_id":"levelo_inurba_marseille","lat":43.31079,"lon":5.37166,"is_reserved":false,"is_disabled":true,"rental_uris":{"android":"levelo://app?vid=2f5a2eb1-a60a-4fe8-a5aa-002259731410","ios":"levelo://app?vid=2f5a2eb1-a60a-4fe8-a5aa-002259731410"},"vehicle_type_id":"4","last_reported":1781375038,"current_range_meters":4000,"station_id":"st_d4kl2rp97mjs73e7tdfg","pricing_plan_id":"cebpf4jnsgd1na2vs0mg"},{"bike_id":"b5aa67fa-f19e-4ca6-924b-fcea46f94ee1","system_id":"levelo_inurba_marseille","lat":43.262069,"lon":5.374434,"is_reserved":false,"is_disabled":false,"rental_uris":{"android":"levelo://app?vid=b5aa67fa-f19e-4ca6-924b-fcea46f94ee1","ios":"levelo://app?vid=b5aa67fa-f19e-4ca6-924b-fcea46f94ee1"},"vehicle_type_id":"4","last_reported":1781375038,"current_range_meters":4000,"station_id":"ce4bhgp2rcd13ifvqfc0","pricing_plan_id":"cebpf4jnsgd1na2vs0mg"},{"bike_id":"9f069751-295a-496b-b19c-281f4491a5fd","system_id":"levelo_inurba_marseille","lat":43.35094,"lon":5.35055,"is_reserved":false,"is_disabled":false,"rental_uris":{"android":"levelo://app?vid=9f069751-295a-496b-b19c-281f4491a5fd","ios":"levelo://app?vid=9f069751-295a-496b-b19c-281f4491a5fd"},"vehicle_type_id":"4","last_reported":1781375038,"current_range_meters":4400,"station_id":"","pricing_plan_id":"cebpf4jnsgd1na2vs0mg"},{"bike_id":"0633c0b2-cd61-4107-9084-a3953fc3765a","system_id":"levelo_inurba_marseille","lat":43.29211,"lon":5.37679,"is_reserved":false,"is_disabled":true,"rental_uris":{"android":"levelo://app?vid=0633c0b2-cd61-4107-9084-a3953fc3765a","ios":"levelo://app?vid=0633c0b2-cd61-4107-9084-a3953fc3765a"},"vehicle_type_id":"4","last_reported":1781375038,"current_range_meters":4400,"station_id":"","pricing_plan_id":"cebpf4jnsgd1na2vs0mg"},{"bike_id":"3e16236a-b1a7-4f74-90d7-ef9461349247","system_id":"levelo_inurba_marseille","lat":43.260253,"lon":5.375539,"is_reserved":false,"is_disabled":false,"rental_uris":{"android":"levelo://app?vid=3e16236a-b1a7-4f74-90d7-ef9461349247","ios":"levelo://app?vid=3e16236a-b1a7-4f74-90d7-ef9461349247"},"vehicle_type_id":"4","last_reported":1781375038,"current_range_meters":4400,"station_id":"ce4bhgh2rcd13ifvqfa0","pricing_plan_id":"cebpf4jnsgd1na2vs0mg"},{"bike_id":"41ea6779-9979-4cd2-a1a1-bea99fc99dc3","system_id":"levelo_inurba_marseille","lat":43.30212,"lon":5.39462,"is_reserved":false,"is_disabled":true,"rental_uris":{"android":"levelo://app?vid=41ea6779-9979-4cd2-a1a1-bea99fc99dc3","ios":"levelo://app?vid=41ea6779-9979-4cd2-a1a1-bea99fc99dc3"},"vehicle_type_id":"4","last_reported":1781375038,"current_range_meters":4400,"station_id":"ce4bh0p2rcd13ifvqd70","pricing_plan_id":"cebpf4jnsgd1na2vs0mg"},{"bike_id":"1f5802ef-cbce-44cf-bc9f-145934a6cdfb","system_id":"levelo_inurba_marseille","lat":43.25588,"lon":5.38215,"is_reserved":false,"is_disabled":false,"rental_uris":{"android":"levelo://app?vid=1f5802ef-cbce-44cf-bc9f-145934a6cdfb","ios":"levelo://app?vid=1f5802ef-cbce-44cf-bc9f-145934a6cdfb"},"vehicle_type_id":"4","last_reported":1781375038,"current_range_meters":4400,"station_id":"ce4bhih2rcd13ifvqfs0","pricing_plan_id":"cebpf4jnsgd1na2vs0mg"},{"bike_id":"e0c70bb9-08e0-46ee-a9d7-e66dc600c696","system_id":"levelo_inurba_marseille","lat":43.28853,"lon":5.39322,"is_reserved":false,"is_disabled":false,"rental_uris":{"android":"levelo://app?vid=e0c70bb9-08e0-46ee-a9d7-e66dc600c696","ios":"levelo://app?vid=e0c70bb9-08e0-46ee-a9d7-e66dc600c696"},"vehicle_type_id":"4","last_reported":1781375038,"current_range_meters":4400,"station_id":"ce4bh2p2rcd13ifvqdi0","pricing_plan_id":"cebpf4jnsgd1na2vs0mg"},{"bike_id":"ad5e660b-66e9-455a-8bb5-4e2c5b70134d","system_id":"levelo_inurba_marseille","lat":43.25578,"lon":5.38237,"is_reserved":false,"is_disabled":false,"rental_uris":{"android":"levelo://app?vid=ad5e660b-66e9-455a-8bb5-4e2c5b70134d","ios":"levelo://app?vid=ad5e660b-66e9-455a-8bb5-4e2c5b70134d"},"vehicle_type_id":"4","last_reported":1781375038,"current_range_meters":4400,"station_id":"ce4bhih2rcd13ifvqfs0","pricing_plan_id":"cebpf4jnsgd1na2vs0mg"},{"bike_id":"35565049-90de-4fb4-b35d-e9c548924e41","system_id":"levelo_inurba_marseille","lat":43.26798,"lon":5.39417,"is_reserved":false,"is_disabled":true,"rental_uris":{"android":"levelo://app?vid=35565049-90de-4fb4-b35d-e9c548924e41","ios":"levelo://app?vid=35565049-90de-4fb4-b35d-e9c548924e41"},"vehicle_type_id":"4","last_reported":1781375038,"current_range_meters":4400,"station_id":"ce4bhh12rcd13ifvqfg0","pricing_plan_id":"cebpf4jnsgd1na2vs0mg"},{"bike_id":"fae9e422-64fd-48b6-a83b-e62363853497","system_id":"levelo_inurba_marseille","lat":43.30114,"lon":5.38279,"is_reserved":false,"is_disabled":false,"rental_uris":{"android":"levelo://app?vid=fae9e422-64fd-48b6-a83b-e62363853497","ios":"levelo://app?vid=fae9e422-64fd-48b6-a83b-e62363853497"},"vehicle_type_id":"4","last_reported":1781375038,"current_range_meters":4400,"station_id":"","pricing_plan_id":"cebpf4jnsgd1na2vs0mg"},{"bike_id":"08d233d4-b9b2-422d-bac4-66b122c8337c","system_id":"levelo_inurba_marseille","lat":43.25108,"lon":5.40326,"is_reserved":false,"is_disabled":false,"rental_uris":{"android":"levelo://app?vid=08d233d4-b9b2-422d-bac4-66b122c8337c","ios":"levelo://app?vid=08d233d4-b9b2-422d-bac4-66b122c8337c"},"vehicle_type_id":"4","last_reported":1781375038,"current_range_meters":4400,"station_id":"ce4bhlh2rcd13ifvqgig","pricing_plan_id":"cebpf4jnsgd1na2vs0mg"},{"bike_id":"6b580ee5-48af-4bc7-99e4-d71bf2e6b931","system_id":"levelo_inurba_marseille","lat":43.31993,"lon":5.38156,"is_reserved":false,"is_disabled":false,"rental_uris":{"android":"levelo://app?vid=6b580ee5-48af-4bc7-99e4-d71bf2e6b931","ios":"levelo://app?vid=6b580ee5-48af-4bc7-99e4-d71bf2e6b931"},"vehicle_type_id":"4","last_reported":1781375038,"current_range_meters":4400,"station_id":"ce4bhr12rcd13ifvqhpg","pricing_plan_id":"cebpf4jnsgd1na2vs0mg"},{"bike_id":"1625d25d-0aae-4e8f-bda7-815f82406869","system_id":"levelo_inurba_marseille","lat":43.299268,"lon":5.413193,"is_reserved":false,"is_disabled":true,"rental_uris":{"android":"levelo://app?vid=1625d25d-0aae-4e8f-bda7-815f82406869","ios":"levelo://app?vid=1625d25d-0aae-4e8f-bda7-815f82406869"},"vehicle_type_id":"4","last_reported":1781375038,"current_range_meters":4400,"station_id":"","pricing_plan_id":"cebpf4jnsgd1na2vs0mg"},{"bike_id":"01974ce9-2ce7-4184-9698-03768bec9bb4","system_id":"levelo_inurba_marseille","lat":43.28679,"lon":5.46661,"is_reserved":false,"is_disabled":false,"rental_uris":{"android":"levelo://app?vid=01974ce9-2ce7-4184-9698-03768bec9bb4","ios":"levelo://app?vid=01974ce9-2ce7-4184-9698-03768bec9bb4"},"vehicle_type_id":"4","last_reported":1781375038,"current_range_meters":4400,"station_id":"st_d6tc3vkotcvc738tfjhg","pricing_plan_id":"cebpf4jnsgd1na2vs0mg"},{"bike_id":"626cb758-6f24-46c0-b417-f4560003d4cd","system_id":"levelo_inurba_marseille","lat":43.26211,"lon":5.37439,"is_reserved":false,"is_disabled":false,"rental_uris":{"android":"levelo://app?vid=626cb758-6f24-46c0-b417-f4560003d4cd","ios":"levelo://app?vid=626cb758-6f24-46c0-b417-f4560003d4cd"},"vehicle_type_id":"4","last_reported":1781375038,"current_range_meters":4400,"station_id":"ce4bhgp2rcd13ifvqfc0","pricing_plan_id":"cebpf4jnsgd1na2vs0mg"},{"bike_id":"b84d86b9-dae2-4bd3-8192-45fb26520144","system_id":"levelo_inurba_marseille","lat":43.25879,"lon":5.39889,"is_reserved":false,"is_disabled":false,"rental_uris":{"android":"levelo://app?vid=b84d86b9-dae2-4bd3-8192-45fb26520144","ios":"levelo://app?vid=b84d86b9-dae2-4bd3-8192-45fb26520144"},"vehicle_type_id":"4","last_reported":1781375038,"current_range_meters":4400,"station_id":"ce4bhl92rcd13ifvqghg","pricing_plan_id":"cebpf4jnsgd1na2vs0mg"},{"bike_id":"5f189998-b2b6-4e38-b849-68910c9a3d84","system_id":"levelo_inurba_marseille","lat":43.317514,"lon":5.39012,"is_reserved":false,"is_disabled":false,"rental_uris":{"android":"levelo://app?vid=5f189998-b2b6-4e38-b849-68910c9a3d84","ios":"levelo://app?vid=5f189998-b2b6-4e38-b849-68910c9a3d84"},"vehicle_type_id":"4","last_reported":1781375038,"current_range_meters":4400,"station_id":"","pricing_plan_id":"cebpf4jnsgd1na2vs0mg"},{"bike_id":"65ee29c8-f6ef-42a8-8f4f-f73588eec90a","system_id":"levelo_inurba_marseille","lat":43.280373,"lon":5.369539,"is_reserved":false,"is_disabled":false,"rental_uris":{"android":"levelo://app?vid=65ee29c8-f6ef-42a8-8f4f-f73588eec90a","ios":"levelo://app?vid=65ee29c8-f6ef-42a8-8f4f-f73588eec90a"},"vehicle_type_id":"4","last_reported":1781375038,"current_range_meters":4400,"station_id":"ce4bha12rcd13ifvqef0","pricing_plan_id":"cebpf4jnsgd1na2vs0mg"},{"bike_id":"fdfd2d4a-9965-45b4-9bc6-c525eb58800a","system_id":"levelo_inurba_marseille","lat":43.29471,"lon":5.37425,"is_reserved":false,"is_disabled":false,"rental_uris":{"android":"levelo://app?vid=fdfd2d4a-9965-45b4-9bc6-c525eb58800a","ios":"levelo://app?vid=fdfd2d4a-9965-45b4-9bc6-c525eb58800a"},"vehicle_type_id":"4","last_reported":1781375038,"current_range_meters":4400,"station_id":"","pricing_plan_id":"cebpf4jnsgd1na2vs0mg"},{"bike_id":"6db0e189-20d1-4d92-ab9f-a2ad8e479225","system_id":"levelo_inurba_marseille","lat":43.29268,"lon":5.35549,"is_reserved":false,"is_disabled":false,"rental_uris":{"android":"levelo://app?vid=6db0e189-20d1-4d92-ab9f-a2ad8e479225","ios":"levelo://app?vid=6db0e189-20d1-4d92-ab9f-a2ad8e479225"},"vehicle_type_id":"4","last_reported":1781375038,"current_range_meters":4400,"station_id":"","pricing_plan_id":"cebpf4jnsgd1na2vs0mg"},{"bike_id":"5dc15031-7375-48f3-9752-4e6a0f01c672","system_id":"levelo_inurba_marseille","lat":43.24459,"lon":5.42532,"is_reserved":false,"is_disabled":false,"rental_uris":{"android":"levelo://app?vid=5dc15031-7375-48f3-9752-4e6a0f01c672","ios":"levelo://app?vid=5dc15031-7375-48f3-9752-4e6a0f01c672"},"vehicle_type_id":"4","last_reported":1781375038,"current_range_meters":4400,"station_id":"st_d4a3vfp97mjs738cd8kg","pricing_plan_id":"cebpf4jnsgd1na2vs0mg"},{"bike_id":"fb0238fe-6452-4fc7-b8e3-03a66ec6b9ad","system_id":"levelo_inurba_marseille","lat":43.31991,"lon":5.38164,"is_reserved":false,"is_disabled":false,"rental_uris":{"android":"levelo://app?vid=fb0238fe-6452-4fc7-b8e3-03a66ec6b9ad","ios":"levelo://app?vid=fb0238fe-6452-4fc7-b8e3-03a66ec6b9ad"},"vehicle_type_id":"4","last_reported":1781375038,"current_range_meters":4800,"station_id":"ce4bhr12rcd13ifvqhpg","pricing_plan_id":"cebpf4jnsgd1na2vs0mg"},{"bike_id":"2f70ef4e-6af0-41d0-bdb7-405718b4158d","system_id":"levelo_inurba_marseille","lat":43.24515,"lon":5.372983,"is_reserved":false,"is_disabled":false,"rental_uris":{"android":"levelo://app?vid=2f70ef4e-6af0-41d0-bdb7-405718b4158d","ios":"levelo://app?vid=2f70ef4e-6af0-41d0-bdb7-405718b4158d"},"vehicle_type_id":"4","last_reported":1781375038,"current_range_meters":4800,"station_id":"st_cvj6r9ubvosntc0bgbag","pricing_plan_id":"cebpf4jnsgd1na2vs0mg"},{"bike_id":"6edf579f-78f6-4a80-8faa-35bdd39ec8f9","system_id":"levelo_inurba_marseille","lat":43.30533,"lon":5.36545,"is_reserved":false,"is_disabled":false,"rental_uris":{"android":"levelo://app?vid=6edf579f-78f6-4a80-8faa-35bdd39ec8f9","ios":"levelo://app?vid=6edf579f-78f6-4a80-8faa-35bdd39ec8f9"},"vehicle_type_id":"4","last_reported":1781375038,"current_range_meters":4800,"station_id":"ce4bgs12rcd13ifvqcag","pricing_plan_id":"cebpf4jnsgd1na2vs0mg"},{"bike_id":"defef8f6-5c45-4441-99ec-6ae8cb03b08c","system_id":"levelo_inurba_marseille","lat":43.26344,"lon":5.3782,"is_reserved":false,"is_disabled":false,"rental_uris":{"android":"levelo://app?vid=defef8f6-5c45-4441-99ec-6ae8cb03b08c","ios":"levelo://app?vid=defef8f6-5c45-4441-99ec-6ae8cb03b08c"},"vehicle_type_id":"4","last_reported":1781375038,"current_range_meters":4800,"station_id":"","pricing_plan_id":"cebpf4jnsgd1na2vs0mg"},{"bike_id":"a4974e1f-f79f-4da7-8cbc-b633eb3232d0","system_id":"levelo_inurba_marseille","lat":43.295962,"lon":5.380936,"is_reserved":false,"is_disabled":false,"rental_uris":{"android":"levelo://app?vid=a4974e1f-f79f-4da7-8cbc-b633eb3232d0","ios":"levelo://app?vid=a4974e1f-f79f-4da7-8cbc-b633eb3232d0"},"vehicle_type_id":"4","last_reported":1781375038,"current_range_meters":4800,"station_id":"ce4bgl12rcd13ifvqbo0","pricing_plan_id":"cebpf4jnsgd1na2vs0mg"},{"bike_id":"2f77bb04-36a4-4504-a133-5f8829e4982a","system_id":"levelo_inurba_marseille","lat":43.30222,"lon":5.39472,"is_reserved":false,"is_disabled":false,"rental_uris":{"android":"levelo://app?vid=2f77bb04-36a4-4504-a133-5f8829e4982a","ios":"levelo://app?vid=2f77bb04-36a4-4504-a133-5f8829e4982a"},"vehicle_type_id":"4","last_reported":1781375038,"current_range_meters":4800,"station_id":"ce4bh0p2rcd13ifvqd70","pricing_plan_id":"cebpf4jnsgd1na2vs0mg"},{"bike_id":"2d8a047b-0411-40fc-a69f-3169f78c4ee9","system_id":"levelo_inurba_marseille","lat":43.32361,"lon":5.36733,"is_reserved":false,"is_disabled":false,"rental_uris":{"android":"levelo://app?vid=2d8a047b-0411-40fc-a69f-3169f78c4ee9","ios":"levelo://app?vid=2d8a047b-0411-40fc-a69f-3169f78c4ee9"},"vehicle_type_id":"4","last_reported":1781375038,"current_range_meters":4800,"station_id":"ce4bhsh2rcd13ifvqi2g","pricing_plan_id":"cebpf4jnsgd1na2vs0mg"},{"bike_id":"abb500d4-9db3-49c1-855d-09267fc106f9","system_id":"levelo_inurba_marseille","lat":43.24807,"lon":5.37434,"is_reserved":false,"is_disabled":false,"rental_uris":{"android":"levelo://app?vid=abb500d4-9db3-49c1-855d-09267fc106f9","ios":"levelo://app?vid=abb500d4-9db3-49c1-855d-09267fc106f9"},"vehicle_type_id":"4","last_reported":1781375038,"current_range_meters":4800,"station_id":"ce4bhgh2rcd13ifvqfb0","pricing_plan_id":"cebpf4jnsgd1na2vs0mg"},{"bike_id":"a59802c8-8d0c-43c0-b65a-d247466873ae","system_id":"levelo_inurba_marseille","lat":43.25337,"lon":5.42175,"is_reserved":false,"is_disabled":false,"rental_uris":{"android":"levelo://app?vid=a59802c8-8d0c-43c0-b65a-d247466873ae","ios":"levelo://app?vid=a59802c8-8d0c-43c0-b65a-d247466873ae"},"vehicle_type_id":"4","last_reported":1781375038,"current_range_meters":4800,"station_id":"st_d2m65c5bi1j21697t3ng","pricing_plan_id":"cebpf4jnsgd1na2vs0mg"},{"bike_id":"945eafa8-0329-42d7-bd56-88bc2f0ddfa3","system_id":"levelo_inurba_marseille","lat":43.25818,"lon":5.39434,"is_reserved":false,"is_disabled":false,"rental_uris":{"android":"levelo://app?vid=945eafa8-0329-42d7-bd56-88bc2f0ddfa3","ios":"levelo://app?vid=945eafa8-0329-42d7-bd56-88bc2f0ddfa3"},"vehicle_type_id":"4","last_reported":1781375038,"current_range_meters":4800,"station_id":"ce4bhip2rcd13ifvqft0","pricing_plan_id":"cebpf4jnsgd1na2vs0mg"},{"bike_id":"7d037c9f-8c21-4bf9-a0a5-564b835baaa9","system_id":"levelo_inurba_marseille","lat":43.26695,"lon":5.38271,"is_reserved":false,"is_disabled":true,"rental_uris":{"android":"levelo://app?vid=7d037c9f-8c21-4bf9-a0a5-564b835baaa9","ios":"levelo://app?vid=7d037c9f-8c21-4bf9-a0a5-564b835baaa9"},"vehicle_type_id":"4","last_reported":1781375038,"current_range_meters":4800,"station_id":"ce4bhg92rcd13ifvqf90","pricing_plan_id":"cebpf4jnsgd1na2vs0mg"},{"bike_id":"b42ef211-cf04-4520-9a1d-32c61ccdf9ad","system_id":"levelo_inurba_marseille","lat":43.28616,"lon":5.39872,"is_reserved":false,"is_disabled":false,"rental_uris":{"android":"levelo://app?vid=b42ef211-cf04-4520-9a1d-32c61ccdf9ad","ios":"levelo://app?vid=b42ef211-cf04-4520-9a1d-32c61ccdf9ad"},"vehicle_type_id":"4","last_reported":1781375038,"current_range_meters":4800,"station_id":"st_d4a7ka997mjs738ck50g","pricing_plan_id":"cebpf4jnsgd1na2vs0mg"},{"bike_id":"f7e92b88-355b-4629-b37e-76118ae96937","system_id":"levelo_inurba_marseille","lat":43.295759,"lon":5.399584,"is_reserved":false,"is_disabled":false,"rental_uris":{"android":"levelo://app?vid=f7e92b88-355b-4629-b37e-76118ae96937","ios":"levelo://app?vid=f7e92b88-355b-4629-b37e-76118ae96937"},"vehicle_type_id":"4","last_reported":1781375038,"current_range_meters":4800,"station_id":"ce4bh312rcd13ifvqdj0","pricing_plan_id":"cebpf4jnsgd1na2vs0mg"},{"bike_id":"5f68454a-3f46-4716-98ea-a07b68026da7","system_id":"levelo_inurba_marseille","lat":43.30108,"lon":5.37716,"is_reserved":false,"is_disabled":false,"rental_uris":{"android":"levelo://app?vid=5f68454a-3f46-4716-98ea-a07b68026da7","ios":"levelo://app?vid=5f68454a-3f46-4716-98ea-a07b68026da7"},"vehicle_type_id":"4","last_reported":1781375038,"current_range_meters":4800,"station_id":"","pricing_plan_id":"cebpf4jnsgd1na2vs0mg"},{"bike_id":"c6a56dea-d29f-4ee7-8acf-19dc698799d8","system_id":"levelo_inurba_marseille","lat":43.26957,"lon":5.38629,"is_reserved":false,"is_disabled":false,"rental_uris":{"android":"levelo://app?vid=c6a56dea-d29f-4ee7-8acf-19dc698799d8","ios":"levelo://app?vid=c6a56dea-d29f-4ee7-8acf-19dc698799d8"},"vehicle_type_id":"4","last_reported":1781375038,"current_range_meters":4800,"station_id":"ce4bhh92rcd13ifvqfh0","pricing_plan_id":"cebpf4jnsgd1na2vs0mg"},{"bike_id":"c9ff1b5b-66fd-4a6d-8b10-9a1c456efeb0","system_id":"levelo_inurba_marseille","lat":43.25527,"lon":5.37645,"is_reserved":false,"is_disabled":false,"rental_uris":{"android":"levelo://app?vid=c9ff1b5b-66fd-4a6d-8b10-9a1c456efeb0","ios":"levelo://app?vid=c9ff1b5b-66fd-4a6d-8b10-9a1c456efeb0"},"vehicle_type_id":"4","last_reported":1781375038,"current_range_meters":4800,"station_id":"ce4bhh12rcd13ifvqff0","pricing_plan_id":"cebpf4jnsgd1na2vs0mg"},{"bike_id":"f9fc1d09-7b65-4ca8-89b5-0d551fdd1237","system_id":"levelo_inurba_marseille","lat":43.290208,"lon":5.381312,"is_reserved":false,"is_disabled":false,"rental_uris":{"android":"levelo://app?vid=f9fc1d09-7b65-4ca8-89b5-0d551fdd1237","ios":"levelo://app?vid=f9fc1d09-7b65-4ca8-89b5-0d551fdd1237"},"vehicle_type_id":"4","last_reported":1781375038,"current_range_meters":4800,"station_id":"ce4bh4p2rcd13ifvqe1g","pricing_plan_id":"cebpf4jnsgd1na2vs0mg"},{"bike_id":"fe131b0b-1ef9-4416-9fb2-6e419e6feba9","system_id":"levelo_inurba_marseille","lat":43.24401,"lon":5.37071,"is_reserved":false,"is_disabled":true,"rental_uris":{"android":"levelo://app?vid=fe131b0b-1ef9-4416-9fb2-6e419e6feba9","ios":"levelo://app?vid=fe131b0b-1ef9-4416-9fb2-6e419e6feba9"},"vehicle_type_id":"4","last_reported":1781375038,"current_range_meters":4800,"station_id":"ce4bhhh2rcd13ifvqfk0","pricing_plan_id":"cebpf4jnsgd1na2vs0mg"},{"bike_id":"437e3ba7-ea12-4e88-a20f-de0ed79ac149","system_id":"levelo_inurba_marseille","lat":43.24075,"lon":5.3774,"is_reserved":false,"is_disabled":true,"rental_uris":{"android":"levelo://app?vid=437e3ba7-ea12-4e88-a20f-de0ed79ac149","ios":"levelo://app?vid=437e3ba7-ea12-4e88-a20f-de0ed79ac149"},"vehicle_type_id":"4","last_reported":1781375038,"current_range_meters":4800,"station_id":"ce4bhnp2rcd13ifvqgvg","pricing_plan_id":"cebpf4jnsgd1na2vs0mg"},{"bike_id":"156efc28-cc38-462d-8e9a-a20accfac819","system_id":"levelo_inurba_marseille","lat":43.26035,"lon":5.37537,"is_reserved":false,"is_disabled":false,"rental_uris":{"android":"levelo://app?vid=156efc28-cc38-462d-8e9a-a20accfac819","ios":"levelo://app?vid=156efc28-cc38-462d-8e9a-a20accfac819"},"vehicle_type_id":"4","last_reported":1781375038,"current_range_meters":4800,"station_id":"ce4bhgh2rcd13ifvqfa0","pricing_plan_id":"cebpf4jnsgd1na2vs0mg"},{"bike_id":"30a3f1a5-81b2-4007-9003-d028fe10ef53","system_id":"levelo_inurba_marseille","lat":43.30948,"lon":5.39042,"is_reserved":false,"is_disabled":false,"rental_uris":{"android":"levelo://app?vid=30a3f1a5-81b2-4007-9003-d028fe10ef53","ios":"levelo://app?vid=30a3f1a5-81b2-4007-9003-d028fe10ef53"},"vehicle_type_id":"4","last_reported":1781375038,"current_range_meters":5600,"station_id":"ce4bgup2rcd13ifvqco0","pricing_plan_id":"cebpf4jnsgd1na2vs0mg"},{"bike_id":"86b4821b-066f-4af7-9341-601c3120669c","system_id":"levelo_inurba_marseille","lat":43.26228,"lon":5.38777,"is_reserved":false,"is_disabled":false,"rental_uris":{"android":"levelo://app?vid=86b4821b-066f-4af7-9341-601c3120669c","ios":"levelo://app?vid=86b4821b-066f-4af7-9341-601c3120669c"},"vehicle_type_id":"4","last_reported":1781375038,"current_range_meters":5600,"station_id":"st_d8gjfg747rts73coq3b0","pricing_plan_id":"cebpf4jnsgd1na2vs0mg"},{"bike_id":"b9d1843a-d85f-480b-9e0d-ac8e9afe5d9f","system_id":"levelo_inurba_marseille","lat":43.337444,"lon":5.374475,"is_reserved":false,"is_disabled":false,"rental_uris":{"android":"levelo://app?vid=b9d1843a-d85f-480b-9e0d-ac8e9afe5d9f","ios":"levelo://app?vid=b9d1843a-d85f-480b-9e0d-ac8e9afe5d9f"},"vehicle_type_id":"4","last_reported":1781375038,"current_range_meters":5600,"station_id":"","pricing_plan_id":"cebpf4jnsgd1na2vs0mg"},{"bike_id":"de34cc43-9c18-41de-a3e9-5ab17a96e097","system_id":"levelo_inurba_marseille","lat":43.29805,"lon":5.38109,"is_reserved":false,"is_disabled":true,"rental_uris":{"android":"levelo://app?vid=de34cc43-9c18-41de-a3e9-5ab17a96e097","ios":"levelo://app?vid=de34cc43-9c18-41de-a3e9-5ab17a96e097"},"vehicle_type_id":"4","last_reported":1781375038,"current_range_meters":5600,"station_id":"ce4bgip2rcd13ifvqbb0","pricing_plan_id":"cebpf4jnsgd1na2vs0mg"},{"bike_id":"75f2ac1b-0110-4a69-8e2b-928c67794bef","system_id":"levelo_inurba_marseille","lat":43.24475,"lon":5.42541,"is_reserved":false,"is_disabled":false,"rental_uris":{"android":"levelo://app?vid=75f2ac1b-0110-4a69-8e2b-928c67794bef","ios":"levelo://app?vid=75f2ac1b-0110-4a69-8e2b-928c67794bef"},"vehicle_type_id":"4","last_reported":1781375038,"current_range_meters":5600,"station_id":"st_d4a3vfp97mjs738cd8kg","pricing_plan_id":"cebpf4jnsgd1na2vs0mg"},{"bike_id":"14c6b8a9-d7f2-42c6-9176-ddd3504d4d0c","system_id":"levelo_inurba_marseille","lat":43.2901,"lon":5.36743,"is_reserved":false,"is_disabled":false,"rental_uris":{"android":"levelo://app?vid=14c6b8a9-d7f2-42c6-9176-ddd3504d4d0c","ios":"levelo://app?vid=14c6b8a9-d7f2-42c6-9176-ddd3504d4d0c"},"vehicle_type_id":"4","last_reported":1781375038,"current_range_meters":5600,"station_id":"","pricing_plan_id":"cebpf4jnsgd1na2vs0mg"},{"bike_id":"ac3358ce-481e-4fda-9f9b-670be68b265e","system_id":"levelo_inurba_marseille","lat":43.31482,"lon":5.40211,"is_reserved":false,"is_disabled":false,"rental_uris":{"android":"levelo://app?vid=ac3358ce-481e-4fda-9f9b-670be68b265e","ios":"levelo://app?vid=ac3358ce-481e-4fda-9f9b-670be68b265e"},"vehicle_type_id":"4","last_reported":1781375038,"current_range_meters":5600,"station_id":"","pricing_plan_id":"cebpf4jnsgd1na2vs0mg"},{"bike_id":"be004f60-661b-45b9-a00d-02d877da6c38","system_id":"levelo_inurba_marseille","lat":43.25382,"lon":5.42308,"is_reserved":false,"is_disabled":false,"rental_uris":{"android":"levelo://app?vid=be004f60-661b-45b9-a00d-02d877da6c38","ios":"levelo://app?vid=be004f60-661b-45b9-a00d-02d877da6c38"},"vehicle_type_id":"4","last_reported":1781375038,"current_range_meters":5600,"station_id":"","pricing_plan_id":"cebpf4jnsgd1na2vs0mg"},{"bike_id":"4b84cc20-93d9-4e85-811a-ba432f50bc38","system_id":"levelo_inurba_marseille","lat":43.26187,"lon":5.38083,"is_reserved":false,"is_disabled":false,"rental_uris":{"android":"levelo://app?vid=4b84cc20-93d9-4e85-811a-ba432f50bc38","ios":"levelo://app?vid=4b84cc20-93d9-4e85-811a-ba432f50bc38"},"vehicle_type_id":"4","last_reported":1781375038,"current_range_meters":5600,"station_id":"","pricing_plan_id":"cebpf4jnsgd1na2vs0mg"},{"bike_id":"70074e2a-94c4-4bb0-bbca-a24f4105eb9f","system_id":"levelo_inurba_marseille","lat":43.29099,"lon":5.38406,"is_reserved":false,"is_disabled":false,"rental_uris":{"android":"levelo://app?vid=70074e2a-94c4-4bb0-bbca-a24f4105eb9f","ios":"levelo://app?vid=70074e2a-94c4-4bb0-bbca-a24f4105eb9f"},"vehicle_type_id":"4","last_reported":1781375038,"current_range_meters":5600,"station_id":"","pricing_plan_id":"cebpf4jnsgd1na2vs0mg"},{"bike_id":"8f5b297e-a101-4dac-9b10-8764ca019902","system_id":"levelo_inurba_marseille","lat":43.313634,"lon":5.38489,"is_reserved":false,"is_disabled":true,"rental_uris":{"android":"levelo://app?vid=8f5b297e-a101-4dac-9b10-8764ca019902","ios":"levelo://app?vid=8f5b297e-a101-4dac-9b10-8764ca019902"},"vehicle_type_id":"4","last_reported":1781375038,"current_range_meters":5600,"station_id":"","pricing_plan_id":"cebpf4jnsgd1na2vs0mg"},{"bike_id":"8cd0957d-49be-4524-b25c-6b469350de00","system_id":"levelo_inurba_marseille","lat":43.28611,"lon":5.39899,"is_reserved":false,"is_disabled":false,"rental_uris":{"android":"levelo://app?vid=8cd0957d-49be-4524-b25c-6b469350de00","ios":"levelo://app?vid=8cd0957d-49be-4524-b25c-6b469350de00"},"vehicle_type_id":"4","last_reported":1781375038,"current_range_meters":5600,"station_id":"st_d4a7ka997mjs738ck50g","pricing_plan_id":"cebpf4jnsgd1na2vs0mg"},{"bike_id":"b0e1c627-e366-414e-b921-4572a58307db","system_id":"levelo_inurba_marseille","lat":43.28619,"lon":5.35097,"is_reserved":false,"is_disabled":true,"rental_uris":{"android":"levelo://app?vid=b0e1c627-e366-414e-b921-4572a58307db","ios":"levelo://app?vid=b0e1c627-e366-414e-b921-4572a58307db"},"vehicle_type_id":"4","last_reported":1781375038,"current_range_meters":5600,"station_id":"ce4bhch2rcd13ifvqeug","pricing_plan_id":"cebpf4jnsgd1na2vs0mg"},{"bike_id":"bf740f93-dcae-45bd-8189-93f0bf5977b3","system_id":"levelo_inurba_marseille","lat":43.22577,"lon":5.41626,"is_reserved":false,"is_disabled":false,"rental_uris":{"android":"levelo://app?vid=bf740f93-dcae-45bd-8189-93f0bf5977b3","ios":"levelo://app?vid=bf740f93-dcae-45bd-8189-93f0bf5977b3"},"vehicle_type_id":"4","last_reported":1781375038,"current_range_meters":5600,"station_id":"st_d2o4gvlbi1j2169b742g","pricing_plan_id":"cebpf4jnsgd1na2vs0mg"},{"bike_id":"8e220ecf-bf2e-4209-bd0b-74b77f772687","system_id":"levelo_inurba_marseille","lat":43.299568,"lon":5.385062,"is_reserved":false,"is_disabled":true,"rental_uris":{"android":"levelo://app?vid=8e220ecf-bf2e-4209-bd0b-74b77f772687","ios":"levelo://app?vid=8e220ecf-bf2e-4209-bd0b-74b77f772687"},"vehicle_type_id":"4","last_reported":1781375038,"current_range_meters":5600,"station_id":"ce4bgj92rcd13ifvqbd0","pricing_plan_id":"cebpf4jnsgd1na2vs0mg"},{"bike_id":"85c669e0-7f32-4596-873a-878e48055f74","system_id":"levelo_inurba_marseille","lat":43.2481,"lon":5.37453,"is_reserved":false,"is_disabled":false,"rental_uris":{"android":"levelo://app?vid=85c669e0-7f32-4596-873a-878e48055f74","ios":"levelo://app?vid=85c669e0-7f32-4596-873a-878e48055f74"},"vehicle_type_id":"4","last_reported":1781375038,"current_range_meters":5600,"station_id":"ce4bhgh2rcd13ifvqfb0","pricing_plan_id":"cebpf4jnsgd1na2vs0mg"},{"bike_id":"514ca461-1ef9-452d-90bb-837f0bf92baf","system_id":"levelo_inurba_marseille","lat":43.31762,"lon":5.404,"is_reserved":false,"is_disabled":false,"rental_uris":{"android":"levelo://app?vid=514ca461-1ef9-452d-90bb-837f0bf92baf","ios":"levelo://app?vid=514ca461-1ef9-452d-90bb-837f0bf92baf"},"vehicle_type_id":"4","last_reported":1781375038,"current_range_meters":5600,"station_id":"","pricing_plan_id":"cebpf4jnsgd1na2vs0mg"},{"bike_id":"063e86ff-6ab9-4944-a932-bc538dd64429","system_id":"levelo_inurba_marseille","lat":43.26233,"lon":5.38774,"is_reserved":false,"is_disabled":false,"rental_uris":{"android":"levelo://app?vid=063e86ff-6ab9-4944-a932-bc538dd64429","ios":"levelo://app?vid=063e86ff-6ab9-4944-a932-bc538dd64429"},"vehicle_type_id":"4","last_reported":1781375038,"current_range_meters":5600,"station_id":"st_d8gjfg747rts73coq3b0","pricing_plan_id":"cebpf4jnsgd1na2vs0mg"},{"bike_id":"a4367c49-3ad9-4e5d-b890-d24a763f0a44","system_id":"levelo_inurba_marseille","lat":43.28828,"lon":5.42769,"is_reserved":false,"is_disabled":false,"rental_uris":{"android":"levelo://app?vid=a4367c49-3ad9-4e5d-b890-d24a763f0a44","ios":"levelo://app?vid=a4367c49-3ad9-4e5d-b890-d24a763f0a44"},"vehicle_type_id":"4","last_reported":1781375038,"current_range_meters":5600,"station_id":"","pricing_plan_id":"cebpf4jnsgd1na2vs0mg"},{"bike_id":"6f5ccf36-5055-49b1-9836-fce2d1b63fae","system_id":"levelo_inurba_marseille","lat":43.26584,"lon":5.39014,"is_reserved":false,"is_disabled":false,"rental_uris":{"android":"levelo://app?vid=6f5ccf36-5055-49b1-9836-fce2d1b63fae","ios":"levelo://app?vid=6f5ccf36-5055-49b1-9836-fce2d1b63fae"},"vehicle_type_id":"4","last_reported":1781375038,"current_range_meters":5600,"station_id":"ce4bhe12rcd13ifvqf30","pricing_plan_id":"cebpf4jnsgd1na2vs0mg"},{"bike_id":"0a71f412-36be-4694-9adc-7fef2b7fa966","system_id":"levelo_inurba_marseille","lat":43.28948,"lon":5.36621,"is_reserved":false,"is_disabled":true,"rental_uris":{"android":"levelo://app?vid=0a71f412-36be-4694-9adc-7fef2b7fa966","ios":"levelo://app?vid=0a71f412-36be-4694-9adc-7fef2b7fa966"},"vehicle_type_id":"4","last_reported":1781375038,"current_range_meters":5600,"station_id":"ce4bhap2rcd13ifvqek0","pricing_plan_id":"cebpf4jnsgd1na2vs0mg"},{"bike_id":"62b86990-4202-4b71-b4ef-b66f9b4ab487","system_id":"levelo_inurba_marseille","lat":43.27215,"lon":5.40963,"is_reserved":false,"is_disabled":false,"rental_uris":{"android":"levelo://app?vid=62b86990-4202-4b71-b4ef-b66f9b4ab487","ios":"levelo://app?vid=62b86990-4202-4b71-b4ef-b66f9b4ab487"},"vehicle_type_id":"4","last_reported":1781375038,"current_range_meters":6000,"station_id":"","pricing_plan_id":"cebpf4jnsgd1na2vs0mg"},{"bike_id":"589d39c3-c5d3-4771-9a3e-f5ca7e8ced1c","system_id":"levelo_inurba_marseille","lat":43.26372,"lon":5.37811,"is_reserved":false,"is_disabled":false,"rental_uris":{"android":"levelo://app?vid=589d39c3-c5d3-4771-9a3e-f5ca7e8ced1c","ios":"levelo://app?vid=589d39c3-c5d3-4771-9a3e-f5ca7e8ced1c"},"vehicle_type_id":"4","last_reported":1781375038,"current_range_meters":6000,"station_id":"st_d163nis0mtpqnht9uue0","pricing_plan_id":"cebpf4jnsgd1na2vs0mg"},{"bike_id":"6d0c129a-c6a6-42fc-ab80-a6cc1505acb9","system_id":"levelo_inurba_marseille","lat":43.23966,"lon":5.36624,"is_reserved":false,"is_disabled":false,"rental_uris":{"android":"levelo://app?vid=6d0c129a-c6a6-42fc-ab80-a6cc1505acb9","ios":"levelo://app?vid=6d0c129a-c6a6-42fc-ab80-a6cc1505acb9"},"vehicle_type_id":"4","last_reported":1781375038,"current_range_meters":6000,"station_id":"ce4bhi12rcd13ifvqfp0","pricing_plan_id":"cebpf4jnsgd1na2vs0mg"},{"bike_id":"c175211b-3da4-46cc-a60f-4967a28b1b76","system_id":"levelo_inurba_marseille","lat":43.33003,"lon":5.37478,"is_reserved":false,"is_disabled":false,"rental_uris":{"android":"levelo://app?vid=c175211b-3da4-46cc-a60f-4967a28b1b76","ios":"levelo://app?vid=c175211b-3da4-46cc-a60f-4967a28b1b76"},"vehicle_type_id":"4","last_reported":1781375038,"current_range_meters":6000,"station_id":"","pricing_plan_id":"cebpf4jnsgd1na2vs0mg"},{"bike_id":"e0a4acaa-b62c-4970-818b-fd1170d95561","system_id":"levelo_inurba_marseille","lat":43.26217,"lon":5.37446,"is_reserved":false,"is_disabled":false,"rental_uris":{"android":"levelo://app?vid=e0a4acaa-b62c-4970-818b-fd1170d95561","ios":"levelo://app?vid=e0a4acaa-b62c-4970-818b-fd1170d95561"},"vehicle_type_id":"4","last_reported":1781375038,"current_range_meters":6000,"station_id":"ce4bhgp2rcd13ifvqfc0","pricing_plan_id":"cebpf4jnsgd1na2vs0mg"},{"bike_id":"60ef35b5-2df4-436e-b925-da19a11c6328","system_id":"levelo_inurba_marseille","lat":43.32114,"lon":5.36772,"is_reserved":false,"is_disabled":false,"rental_uris":{"android":"levelo://app?vid=60ef35b5-2df4-436e-b925-da19a11c6328","ios":"levelo://app?vid=60ef35b5-2df4-436e-b925-da19a11c6328"},"vehicle_type_id":"4","last_reported":1781375038,"current_range_meters":6000,"station_id":"ce4bhrh2rcd13ifvqhug","pricing_plan_id":"cebpf4jnsgd1na2vs0mg"},{"bike_id":"ff144ad8-1853-42cb-ab9d-78b610e03f53","system_id":"levelo_inurba_marseille","lat":43.26156,"lon":5.37492,"is_reserved":false,"is_disabled":false,"rental_uris":{"android":"levelo://app?vid=ff144ad8-1853-42cb-ab9d-78b610e03f53","ios":"levelo://app?vid=ff144ad8-1853-42cb-ab9d-78b610e03f53"},"vehicle_type_id":"4","last_reported":1781375038,"current_range_meters":6000,"station_id":"ce4bhgp2rcd13ifvqfc0","pricing_plan_id":"cebpf4jnsgd1na2vs0mg"},{"bike_id":"bf601120-2f22-4bcd-8556-91c5f1ccc8b1","system_id":"levelo_inurba_marseille","lat":43.31405,"lon":5.38113,"is_reserved":false,"is_disabled":false,"rental_uris":{"android":"levelo://app?vid=bf601120-2f22-4bcd-8556-91c5f1ccc8b1","ios":"levelo://app?vid=bf601120-2f22-4bcd-8556-91c5f1ccc8b1"},"vehicle_type_id":"4","last_reported":1781375038,"current_range_meters":6000,"station_id":"","pricing_plan_id":"cebpf4jnsgd1na2vs0mg"},{"bike_id":"5b5ea2fb-3ba8-4c10-841c-ca34891a615c","system_id":"levelo_inurba_marseille","lat":43.29341,"lon":5.36389,"is_reserved":false,"is_disabled":false,"rental_uris":{"android":"levelo://app?vid=5b5ea2fb-3ba8-4c10-841c-ca34891a615c","ios":"levelo://app?vid=5b5ea2fb-3ba8-4c10-841c-ca34891a615c"},"vehicle_type_id":"4","last_reported":1781375038,"current_range_meters":6000,"station_id":"","pricing_plan_id":"cebpf4jnsgd1na2vs0mg"},{"bike_id":"a303e4db-b9ba-4d63-9eff-f7e5a8e536c2","system_id":"levelo_inurba_marseille","lat":43.28031,"lon":5.4094,"is_reserved":false,"is_disabled":false,"rental_uris":{"android":"levelo://app?vid=a303e4db-b9ba-4d63-9eff-f7e5a8e536c2","ios":"levelo://app?vid=a303e4db-b9ba-4d63-9eff-f7e5a8e536c2"},"vehicle_type_id":"4","last_reported":1781375038,"current_range_meters":6000,"station_id":"","pricing_plan_id":"cebpf4jnsgd1na2vs0mg"},{"bike_id":"47c3a402-19ac-4baa-a881-b541967288d0","system_id":"levelo_inurba_marseille","lat":43.26349,"lon":5.37833,"is_reserved":false,"is_disabled":false,"rental_uris":{"android":"levelo://app?vid=47c3a402-19ac-4baa-a881-b541967288d0","ios":"levelo://app?vid=47c3a402-19ac-4baa-a881-b541967288d0"},"vehicle_type_id":"4","last_reported":1781375038,"current_range_meters":6000,"station_id":"st_d163nis0mtpqnht9uue0","pricing_plan_id":"cebpf4jnsgd1na2vs0mg"},{"bike_id":"3d5e5ce1-6f9c-42a2-9f44-a3db55058476","system_id":"levelo_inurba_marseille","lat":43.23092,"lon":5.35472,"is_reserved":false,"is_disabled":false,"rental_uris":{"android":"levelo://app?vid=3d5e5ce1-6f9c-42a2-9f44-a3db55058476","ios":"levelo://app?vid=3d5e5ce1-6f9c-42a2-9f44-a3db55058476"},"vehicle_type_id":"4","last_reported":1781375038,"current_range_meters":6000,"station_id":"cpo3342slgdg3j2ifvpg","pricing_plan_id":"cebpf4jnsgd1na2vs0mg"},{"bike_id":"132661cb-9d8a-4df2-82e1-13b15034cf8f","system_id":"levelo_inurba_marseille","lat":43.29251,"lon":5.38435,"is_reserved":false,"is_disabled":true,"rental_uris":{"android":"levelo://app?vid=132661cb-9d8a-4df2-82e1-13b15034cf8f","ios":"levelo://app?vid=132661cb-9d8a-4df2-82e1-13b15034cf8f"},"vehicle_type_id":"4","last_reported":1781375038,"current_range_meters":6000,"station_id":"ce4bh692rcd13ifvqea0","pricing_plan_id":"cebpf4jnsgd1na2vs0mg"},{"bike_id":"9a234ee4-189a-4927-904a-c6f72c9e5bbf","system_id":"levelo_inurba_marseille","lat":43.284724,"lon":5.384167,"is_reserved":false,"is_disabled":true,"rental_uris":{"android":"levelo://app?vid=9a234ee4-189a-4927-904a-c6f72c9e5bbf","ios":"levelo://app?vid=9a234ee4-189a-4927-904a-c6f72c9e5bbf"},"vehicle_type_id":"4","last_reported":1781375038,"current_range_meters":6000,"station_id":"ce4bh512rcd13ifvqe3g","pricing_plan_id":"cebpf4jnsgd1na2vs0mg"},{"bike_id":"3431c704-991e-4545-8eec-fa15e92ea294","system_id":"levelo_inurba_marseille","lat":43.31449,"lon":5.37388,"is_reserved":false,"is_disabled":true,"rental_uris":{"android":"levelo://app?vid=3431c704-991e-4545-8eec-fa15e92ea294","ios":"levelo://app?vid=3431c704-991e-4545-8eec-fa15e92ea294"},"vehicle_type_id":"4","last_reported":1781375038,"current_range_meters":6000,"station_id":"","pricing_plan_id":"cebpf4jnsgd1na2vs0mg"},{"bike_id":"74f7660a-9096-4feb-beb3-160be45c0ab9","system_id":"levelo_inurba_marseille","lat":43.25497,"lon":5.41567,"is_reserved":false,"is_disabled":false,"rental_uris":{"android":"levelo://app?vid=74f7660a-9096-4feb-beb3-160be45c0ab9","ios":"levelo://app?vid=74f7660a-9096-4feb-beb3-160be45c0ab9"},"vehicle_type_id":"4","last_reported":1781375038,"current_range_meters":6000,"station_id":"","pricing_plan_id":"cebpf4jnsgd1na2vs0mg"},{"bike_id":"c6555d54-519a-459c-a7d8-0f5386f527ae","system_id":"levelo_inurba_marseille","lat":43.29743,"lon":5.37429,"is_reserved":false,"is_disabled":false,"rental_uris":{"android":"levelo://app?vid=c6555d54-519a-459c-a7d8-0f5386f527ae","ios":"levelo://app?vid=c6555d54-519a-459c-a7d8-0f5386f527ae"},"vehicle_type_id":"4","last_reported":1781375038,"current_range_meters":6000,"station_id":"","pricing_plan_id":"cebpf4jnsgd1na2vs0mg"},{"bike_id":"8d290cb1-5b12-4d55-b3f8-47417ca102fa","system_id":"levelo_inurba_marseille","lat":43.28288,"lon":5.36079,"is_reserved":false,"is_disabled":false,"rental_uris":{"android":"levelo://app?vid=8d290cb1-5b12-4d55-b3f8-47417ca102fa","ios":"levelo://app?vid=8d290cb1-5b12-4d55-b3f8-47417ca102fa"},"vehicle_type_id":"4","last_reported":1781375038,"current_range_meters":6000,"station_id":"","pricing_plan_id":"cebpf4jnsgd1na2vs0mg"},{"bike_id":"6fb07b35-b88f-45ae-9e9e-ceed1b219374","system_id":"levelo_inurba_marseille","lat":43.32507,"lon":5.3656,"is_reserved":false,"is_disabled":true,"rental_uris":{"android":"levelo://app?vid=6fb07b35-b88f-45ae-9e9e-ceed1b219374","ios":"levelo://app?vid=6fb07b35-b88f-45ae-9e9e-ceed1b219374"},"vehicle_type_id":"4","last_reported":1781375038,"current_range_meters":6000,"station_id":"ce4bhs12rcd13ifvqhvg","pricing_plan_id":"cebpf4jnsgd1na2vs0mg"},{"bike_id":"8541f017-3968-4a6a-a25b-5885257483a8","system_id":"levelo_inurba_marseille","lat":43.24166,"lon":5.39728,"is_reserved":false,"is_disabled":false,"rental_uris":{"android":"levelo://app?vid=8541f017-3968-4a6a-a25b-5885257483a8","ios":"levelo://app?vid=8541f017-3968-4a6a-a25b-5885257483a8"},"vehicle_type_id":"4","last_reported":1781375038,"current_range_meters":6000,"station_id":"ce4bhn12rcd13ifvqgpg","pricing_plan_id":"cebpf4jnsgd1na2vs0mg"},{"bike_id":"e85eacf2-df37-4560-92c7-59f7e311147c","system_id":"levelo_inurba_marseille","lat":43.2558,"lon":5.38236,"is_reserved":false,"is_disabled":false,"rental_uris":{"android":"levelo://app?vid=e85eacf2-df37-4560-92c7-59f7e311147c","ios":"levelo://app?vid=e85eacf2-df37-4560-92c7-59f7e311147c"},"vehicle_type_id":"4","last_reported":1781375038,"current_range_meters":6000,"station_id":"ce4bhih2rcd13ifvqfs0","pricing_plan_id":"cebpf4jnsgd1na2vs0mg"},{"bike_id":"1e588e65-50f2-4b9d-8528-26687b2d891e","system_id":"levelo_inurba_marseille","lat":43.26232,"lon":5.37425,"is_reserved":false,"is_disabled":false,"rental_uris":{"android":"levelo://app?vid=1e588e65-50f2-4b9d-8528-26687b2d891e","ios":"levelo://app?vid=1e588e65-50f2-4b9d-8528-26687b2d891e"},"vehicle_type_id":"4","last_reported":1781375038,"current_range_meters":6000,"station_id":"ce4bhgp2rcd13ifvqfc0","pricing_plan_id":"cebpf4jnsgd1na2vs0mg"},{"bike_id":"3ac38b3a-df68-4ddb-8be7-f5ce5af56eb3","system_id":"levelo_inurba_marseille","lat":43.29009,"lon":5.35607,"is_reserved":false,"is_disabled":true,"rental_uris":{"android":"levelo://app?vid=3ac38b3a-df68-4ddb-8be7-f5ce5af56eb3","ios":"levelo://app?vid=3ac38b3a-df68-4ddb-8be7-f5ce5af56eb3"},"vehicle_type_id":"4","last_reported":1781375038,"current_range_meters":6000,"station_id":"ce4bhb92rcd13ifvqen0","pricing_plan_id":"cebpf4jnsgd1na2vs0mg"},{"bike_id":"1b6a2b76-8e4c-45cf-97dc-6423eee85429","system_id":"levelo_inurba_marseille","lat":43.24948,"lon":5.40494,"is_reserved":false,"is_disabled":false,"rental_uris":{"android":"levelo://app?vid=1b6a2b76-8e4c-45cf-97dc-6423eee85429","ios":"levelo://app?vid=1b6a2b76-8e4c-45cf-97dc-6423eee85429"},"vehicle_type_id":"4","last_reported":1781375038,"current_range_meters":6000,"station_id":"st_d2ngiaodas8pm72gd1h0","pricing_plan_id":"cebpf4jnsgd1na2vs0mg"},{"bike_id":"6502ec5d-4aef-4722-8c74-30033bef4cba","system_id":"levelo_inurba_marseille","lat":43.26576,"lon":5.3903,"is_reserved":false,"is_disabled":false,"rental_uris":{"android":"levelo://app?vid=6502ec5d-4aef-4722-8c74-30033bef4cba","ios":"levelo://app?vid=6502ec5d-4aef-4722-8c74-30033bef4cba"},"vehicle_type_id":"4","last_reported":1781375038,"current_range_meters":6000,"station_id":"ce4bhe12rcd13ifvqf30","pricing_plan_id":"cebpf4jnsgd1na2vs0mg"},{"bike_id":"40cb0155-c556-484f-915b-b738bc0d2ea4","system_id":"levelo_inurba_marseille","lat":43.21225,"lon":5.35047,"is_reserved":false,"is_disabled":false,"rental_uris":{"android":"levelo://app?vid=40cb0155-c556-484f-915b-b738bc0d2ea4","ios":"levelo://app?vid=40cb0155-c556-484f-915b-b738bc0d2ea4"},"vehicle_type_id":"4","last_reported":1781375038,"current_range_meters":6000,"station_id":"","pricing_plan_id":"cebpf4jnsgd1na2vs0mg"},{"bike_id":"59abd848-b938-4706-8b9d-aa54cd5d850e","system_id":"levelo_inurba_marseille","lat":43.28277,"lon":5.35071,"is_reserved":false,"is_disabled":true,"rental_uris":{"android":"levelo://app?vid=59abd848-b938-4706-8b9d-aa54cd5d850e","ios":"levelo://app?vid=59abd848-b938-4706-8b9d-aa54cd5d850e"},"vehicle_type_id":"4","last_reported":1781375038,"current_range_meters":6000,"station_id":"ce4bhbp2rcd13ifvqerg","pricing_plan_id":"cebpf4jnsgd1na2vs0mg"},{"bike_id":"45469403-b2c5-4518-9427-6181c2421365","system_id":"levelo_inurba_marseille","lat":43.22548,"lon":5.34824,"is_reserved":false,"is_disabled":false,"rental_uris":{"android":"levelo://app?vid=45469403-b2c5-4518-9427-6181c2421365","ios":"levelo://app?vid=45469403-b2c5-4518-9427-6181c2421365"},"vehicle_type_id":"4","last_reported":1781375038,"current_range_meters":6000,"station_id":"st_cvj5dfep6f1abm77gieg","pricing_plan_id":"cebpf4jnsgd1na2vs0mg"},{"bike_id":"c5c11107-a093-480d-923c-553efd4c5865","system_id":"levelo_inurba_marseille","lat":43.296244,"lon":5.377536,"is_reserved":false,"is_disabled":false,"rental_uris":{"android":"levelo://app?vid=c5c11107-a093-480d-923c-553efd4c5865","ios":"levelo://app?vid=c5c11107-a093-480d-923c-553efd4c5865"},"vehicle_type_id":"4","last_reported":1781375038,"current_range_meters":6400,"station_id":"ce4bgi92rcd13ifvqb90","pricing_plan_id":"cebpf4jnsgd1na2vs0mg"},{"bike_id":"5215f856-46a9-476f-933a-7b736a4a324f","system_id":"levelo_inurba_marseille","lat":43.28224,"lon":5.3737,"is_reserved":false,"is_disabled":false,"rental_uris":{"android":"levelo://app?vid=5215f856-46a9-476f-933a-7b736a4a324f","ios":"levelo://app?vid=5215f856-46a9-476f-933a-7b736a4a324f"},"vehicle_type_id":"4","last_reported":1781375038,"current_range_meters":6400,"station_id":"","pricing_plan_id":"cebpf4jnsgd1na2vs0mg"},{"bike_id":"96cc92e9-7841-419e-8a94-c8cd96988eba","system_id":"levelo_inurba_marseille","lat":43.23042,"lon":5.35483,"is_reserved":false,"is_disabled":false,"rental_uris":{"android":"levelo://app?vid=96cc92e9-7841-419e-8a94-c8cd96988eba","ios":"levelo://app?vid=96cc92e9-7841-419e-8a94-c8cd96988eba"},"vehicle_type_id":"4","last_reported":1781375038,"current_range_meters":6400,"station_id":"cpo3342slgdg3j2ifvpg","pricing_plan_id":"cebpf4jnsgd1na2vs0mg"},{"bike_id":"6e639ce9-199a-4916-bb3c-59a5e9a5a31f","system_id":"levelo_inurba_marseille","lat":43.24679,"lon":5.38122,"is_reserved":false,"is_disabled":false,"rental_uris":{"android":"levelo://app?vid=6e639ce9-199a-4916-bb3c-59a5e9a5a31f","ios":"levelo://app?vid=6e639ce9-199a-4916-bb3c-59a5e9a5a31f"},"vehicle_type_id":"4","last_reported":1781375038,"current_range_meters":6400,"station_id":"ce4bhih2rcd13ifvqfr0","pricing_plan_id":"cebpf4jnsgd1na2vs0mg"},{"bike_id":"c43c92bc-16e7-4616-8292-b9ed941fbd42","system_id":"levelo_inurba_marseille","lat":43.22577,"lon":5.41639,"is_reserved":false,"is_disabled":false,"rental_uris":{"android":"levelo://app?vid=c43c92bc-16e7-4616-8292-b9ed941fbd42","ios":"levelo://app?vid=c43c92bc-16e7-4616-8292-b9ed941fbd42"},"vehicle_type_id":"4","last_reported":1781375038,"current_range_meters":6400,"station_id":"st_d2o4gvlbi1j2169b742g","pricing_plan_id":"cebpf4jnsgd1na2vs0mg"},{"bike_id":"2e296511-deb4-43a9-83f0-81592d7a3463","system_id":"levelo_inurba_marseille","lat":43.33196,"lon":5.37715,"is_reserved":false,"is_disabled":false,"rental_uris":{"android":"levelo://app?vid=2e296511-deb4-43a9-83f0-81592d7a3463","ios":"levelo://app?vid=2e296511-deb4-43a9-83f0-81592d7a3463"},"vehicle_type_id":"4","last_reported":1781375038,"current_range_meters":6400,"station_id":"","pricing_plan_id":"cebpf4jnsgd1na2vs0mg"},{"bike_id":"b75b860e-f642-4d57-ae10-a57f8b9673f2","system_id":"levelo_inurba_marseille","lat":43.26232,"lon":5.38779,"is_reserved":false,"is_disabled":false,"rental_uris":{"android":"levelo://app?vid=b75b860e-f642-4d57-ae10-a57f8b9673f2","ios":"levelo://app?vid=b75b860e-f642-4d57-ae10-a57f8b9673f2"},"vehicle_type_id":"4","last_reported":1781375038,"current_range_meters":6400,"station_id":"st_d8gjfg747rts73coq3b0","pricing_plan_id":"cebpf4jnsgd1na2vs0mg"},{"bike_id":"aa4d4832-791f-46b6-b904-76b96512b7a5","system_id":"levelo_inurba_marseille","lat":43.29595,"lon":5.43992,"is_reserved":false,"is_disabled":false,"rental_uris":{"android":"levelo://app?vid=aa4d4832-791f-46b6-b904-76b96512b7a5","ios":"levelo://app?vid=aa4d4832-791f-46b6-b904-76b96512b7a5"},"vehicle_type_id":"4","last_reported":1781375038,"current_range_meters":6400,"station_id":"","pricing_plan_id":"cebpf4jnsgd1na2vs0mg"},{"bike_id":"144d356c-41f3-46da-8a8c-cf6e54c006e7","system_id":"levelo_inurba_marseille","lat":43.265529,"lon":5.372886,"is_reserved":false,"is_disabled":false,"rental_uris":{"android":"levelo://app?vid=144d356c-41f3-46da-8a8c-cf6e54c006e7","ios":"levelo://app?vid=144d356c-41f3-46da-8a8c-cf6e54c006e7"},"vehicle_type_id":"4","last_reported":1781375038,"current_range_meters":6400,"station_id":"ce4bhg12rcd13ifvqf70","pricing_plan_id":"cebpf4jnsgd1na2vs0mg"},{"bike_id":"e946dae2-a9db-4a74-9c6e-805b3abf5a48","system_id":"levelo_inurba_marseille","lat":43.2576,"lon":5.38233,"is_reserved":false,"is_disabled":false,"rental_uris":{"android":"levelo://app?vid=e946dae2-a9db-4a74-9c6e-805b3abf5a48","ios":"levelo://app?vid=e946dae2-a9db-4a74-9c6e-805b3abf5a48"},"vehicle_type_id":"4","last_reported":1781375038,"current_range_meters":6400,"station_id":"","pricing_plan_id":"cebpf4jnsgd1na2vs0mg"},{"bike_id":"a93c336f-3c51-4f38-bb2d-471c66d3c0f1","system_id":"levelo_inurba_marseille","lat":43.2594,"lon":5.40906,"is_reserved":false,"is_disabled":false,"rental_uris":{"android":"levelo://app?vid=a93c336f-3c51-4f38-bb2d-471c66d3c0f1","ios":"levelo://app?vid=a93c336f-3c51-4f38-bb2d-471c66d3c0f1"},"vehicle_type_id":"4","last_reported":1781375038,"current_range_meters":6400,"station_id":"ce4bhm92rcd13ifvqglg","pricing_plan_id":"cebpf4jnsgd1na2vs0mg"},{"bike_id":"89bd268b-fcd8-4b50-9c68-a15ca9af072e","system_id":"levelo_inurba_marseille","lat":43.28075,"lon":5.39658,"is_reserved":false,"is_disabled":false,"rental_uris":{"android":"levelo://app?vid=89bd268b-fcd8-4b50-9c68-a15ca9af072e","ios":"levelo://app?vid=89bd268b-fcd8-4b50-9c68-a15ca9af072e"},"vehicle_type_id":"4","last_reported":1781375038,"current_range_meters":6400,"station_id":"ce4bho12rcd13ifvqh2g","pricing_plan_id":"cebpf4jnsgd1na2vs0mg"},{"bike_id":"7c06680d-36de-4233-8c5f-27df3e3d92cb","system_id":"levelo_inurba_marseille","lat":43.30946,"lon":5.390251,"is_reserved":false,"is_disabled":false,"rental_uris":{"android":"levelo://app?vid=7c06680d-36de-4233-8c5f-27df3e3d92cb","ios":"levelo://app?vid=7c06680d-36de-4233-8c5f-27df3e3d92cb"},"vehicle_type_id":"4","last_reported":1781375038,"current_range_meters":6400,"station_id":"ce4bgup2rcd13ifvqco0","pricing_plan_id":"cebpf4jnsgd1na2vs0mg"},{"bike_id":"0abe587e-dcdf-44b7-9cbd-e1fd69d3fd91","system_id":"levelo_inurba_marseille","lat":43.29619,"lon":5.37726,"is_reserved":false,"is_disabled":false,"rental_uris":{"android":"levelo://app?vid=0abe587e-dcdf-44b7-9cbd-e1fd69d3fd91","ios":"levelo://app?vid=0abe587e-dcdf-44b7-9cbd-e1fd69d3fd91"},"vehicle_type_id":"4","last_reported":1781375038,"current_range_meters":6400,"station_id":"ce4bgi92rcd13ifvqb90","pricing_plan_id":"cebpf4jnsgd1na2vs0mg"},{"bike_id":"12326527-aa04-43ed-8122-fab62005bcac","system_id":"levelo_inurba_marseille","lat":43.27386,"lon":5.36241,"is_reserved":false,"is_disabled":true,"rental_uris":{"android":"levelo://app?vid=12326527-aa04-43ed-8122-fab62005bcac","ios":"levelo://app?vid=12326527-aa04-43ed-8122-fab62005bcac"},"vehicle_type_id":"4","last_reported":1781375038,"current_range_meters":6400,"station_id":"ce4bhbh2rcd13ifvqeo0","pricing_plan_id":"cebpf4jnsgd1na2vs0mg"},{"bike_id":"fdc2f588-e9f9-4d5d-92c3-be1d373f5b1f","system_id":"levelo_inurba_marseille","lat":43.29278,"lon":5.3684,"is_reserved":false,"is_disabled":true,"rental_uris":{"android":"levelo://app?vid=fdc2f588-e9f9-4d5d-92c3-be1d373f5b1f","ios":"levelo://app?vid=fdc2f588-e9f9-4d5d-92c3-be1d373f5b1f"},"vehicle_type_id":"4","last_reported":1781375038,"current_range_meters":6400,"station_id":"ce4bhbp2rcd13ifvqesg","pricing_plan_id":"cebpf4jnsgd1na2vs0mg"},{"bike_id":"dc3e3e35-560a-41ac-8b92-c31e5b3f3434","system_id":"levelo_inurba_marseille","lat":43.26687,"lon":5.39247,"is_reserved":false,"is_disabled":false,"rental_uris":{"android":"levelo://app?vid=dc3e3e35-560a-41ac-8b92-c31e5b3f3434","ios":"levelo://app?vid=dc3e3e35-560a-41ac-8b92-c31e5b3f3434"},"vehicle_type_id":"4","last_reported":1781375038,"current_range_meters":6400,"station_id":"","pricing_plan_id":"cebpf4jnsgd1na2vs0mg"},{"bike_id":"3203cca6-69a8-424a-bf02-b169bd2825a3","system_id":"levelo_inurba_marseille","lat":43.26702,"lon":5.38262,"is_reserved":false,"is_disabled":false,"rental_uris":{"android":"levelo://app?vid=3203cca6-69a8-424a-bf02-b169bd2825a3","ios":"levelo://app?vid=3203cca6-69a8-424a-bf02-b169bd2825a3"},"vehicle_type_id":"4","last_reported":1781375038,"current_range_meters":6400,"station_id":"ce4bhg92rcd13ifvqf90","pricing_plan_id":"cebpf4jnsgd1na2vs0mg"},{"bike_id":"e4d86a05-2db3-434f-a83e-222b4c27c368","system_id":"levelo_inurba_marseille","lat":43.25074,"lon":5.39516,"is_reserved":false,"is_disabled":false,"rental_uris":{"android":"levelo://app?vid=e4d86a05-2db3-434f-a83e-222b4c27c368","ios":"levelo://app?vid=e4d86a05-2db3-434f-a83e-222b4c27c368"},"vehicle_type_id":"4","last_reported":1781375038,"current_range_meters":6400,"station_id":"ce4bhm12rcd13ifvqgkg","pricing_plan_id":"cebpf4jnsgd1na2vs0mg"},{"bike_id":"c568deee-8de0-4c84-a657-c5ebd5a4591c","system_id":"levelo_inurba_marseille","lat":43.2696,"lon":5.38626,"is_reserved":false,"is_disabled":false,"rental_uris":{"android":"levelo://app?vid=c568deee-8de0-4c84-a657-c5ebd5a4591c","ios":"levelo://app?vid=c568deee-8de0-4c84-a657-c5ebd5a4591c"},"vehicle_type_id":"4","last_reported":1781375038,"current_range_meters":6400,"station_id":"ce4bhh92rcd13ifvqfh0","pricing_plan_id":"cebpf4jnsgd1na2vs0mg"},{"bike_id":"e5777fcd-75b6-4167-93ec-f3dfb9895090","system_id":"levelo_inurba_marseille","lat":43.21747,"lon":5.34591,"is_reserved":false,"is_disabled":false,"rental_uris":{"android":"levelo://app?vid=e5777fcd-75b6-4167-93ec-f3dfb9895090","ios":"levelo://app?vid=e5777fcd-75b6-4167-93ec-f3dfb9895090"},"vehicle_type_id":"4","last_reported":1781375038,"current_range_meters":6400,"station_id":"st_cvj6r9ubvosntc0bgbag","pricing_plan_id":"cebpf4jnsgd1na2vs0mg"},{"bike_id":"ef048e93-3c21-4aea-ad20-87c8427753a3","system_id":"levelo_inurba_marseille","lat":43.28863,"lon":5.42537,"is_reserved":false,"is_disabled":false,"rental_uris":{"android":"levelo://app?vid=ef048e93-3c21-4aea-ad20-87c8427753a3","ios":"levelo://app?vid=ef048e93-3c21-4aea-ad20-87c8427753a3"},"vehicle_type_id":"4","last_reported":1781375038,"current_range_meters":6400,"station_id":"st_d3b462108ojc7389ooeg","pricing_plan_id":"cebpf4jnsgd1na2vs0mg"},{"bike_id":"98ea271a-eaf8-4cce-a27a-dd3f7f2f9061","system_id":"levelo_inurba_marseille","lat":43.26334,"lon":5.37837,"is_reserved":false,"is_disabled":false,"rental_uris":{"android":"levelo://app?vid=98ea271a-eaf8-4cce-a27a-dd3f7f2f9061","ios":"levelo://app?vid=98ea271a-eaf8-4cce-a27a-dd3f7f2f9061"},"vehicle_type_id":"4","last_reported":1781375038,"current_range_meters":6400,"station_id":"st_d163nis0mtpqnht9uue0","pricing_plan_id":"cebpf4jnsgd1na2vs0mg"},{"bike_id":"7faf8b7b-0009-4b0e-8619-ce34770034b4","system_id":"levelo_inurba_marseille","lat":43.291931,"lon":5.358133,"is_reserved":false,"is_disabled":false,"rental_uris":{"android":"levelo://app?vid=7faf8b7b-0009-4b0e-8619-ce34770034b4","ios":"levelo://app?vid=7faf8b7b-0009-4b0e-8619-ce34770034b4"},"vehicle_type_id":"4","last_reported":1781375038,"current_range_meters":6400,"station_id":"ce4bhb12rcd13ifvqel0","pricing_plan_id":"cebpf4jnsgd1na2vs0mg"},{"bike_id":"5bc53581-ac65-49e4-b56b-f1ece78f0664","system_id":"levelo_inurba_marseille","lat":43.26706,"lon":5.3826,"is_reserved":false,"is_disabled":true,"rental_uris":{"android":"levelo://app?vid=5bc53581-ac65-49e4-b56b-f1ece78f0664","ios":"levelo://app?vid=5bc53581-ac65-49e4-b56b-f1ece78f0664"},"vehicle_type_id":"4","last_reported":1781375038,"current_range_meters":6400,"station_id":"ce4bhg92rcd13ifvqf90","pricing_plan_id":"cebpf4jnsgd1na2vs0mg"},{"bike_id":"9f0be29b-c3fc-43d2-88d9-7ef79e23fe90","system_id":"levelo_inurba_marseille","lat":43.24544,"lon":5.39515,"is_reserved":false,"is_disabled":false,"rental_uris":{"android":"levelo://app?vid=9f0be29b-c3fc-43d2-88d9-7ef79e23fe90","ios":"levelo://app?vid=9f0be29b-c3fc-43d2-88d9-7ef79e23fe90"},"vehicle_type_id":"4","last_reported":1781375038,"current_range_meters":6800,"station_id":"ce4bhlp2rcd13ifvqgjg","pricing_plan_id":"cebpf4jnsgd1na2vs0mg"},{"bike_id":"cf0c68e9-108f-4cb2-8999-26e59936ff8c","system_id":"levelo_inurba_marseille","lat":43.23048,"lon":5.35504,"is_reserved":false,"is_disabled":false,"rental_uris":{"android":"levelo://app?vid=cf0c68e9-108f-4cb2-8999-26e59936ff8c","ios":"levelo://app?vid=cf0c68e9-108f-4cb2-8999-26e59936ff8c"},"vehicle_type_id":"4","last_reported":1781375038,"current_range_meters":6800,"station_id":"cpo3342slgdg3j2ifvpg","pricing_plan_id":"cebpf4jnsgd1na2vs0mg"},{"bike_id":"da49f8bf-ac47-4f75-a9fc-b5a0f8173bc6","system_id":"levelo_inurba_marseille","lat":43.28446,"lon":5.35889,"is_reserved":false,"is_disabled":true,"rental_uris":{"android":"levelo://app?vid=da49f8bf-ac47-4f75-a9fc-b5a0f8173bc6","ios":"levelo://app?vid=da49f8bf-ac47-4f75-a9fc-b5a0f8173bc6"},"vehicle_type_id":"4","last_reported":1781375038,"current_range_meters":6800,"station_id":"ce4bhah2rcd13ifvqei0","pricing_plan_id":"cebpf4jnsgd1na2vs0mg"},{"bike_id":"7750fed4-d122-41f8-ad9e-d930d3ad1cf1","system_id":"levelo_inurba_marseille","lat":43.27297,"lon":5.4008,"is_reserved":false,"is_disabled":false,"rental_uris":{"android":"levelo://app?vid=7750fed4-d122-41f8-ad9e-d930d3ad1cf1","ios":"levelo://app?vid=7750fed4-d122-41f8-ad9e-d930d3ad1cf1"},"vehicle_type_id":"4","last_reported":1781375038,"current_range_meters":6800,"station_id":"","pricing_plan_id":"cebpf4jnsgd1na2vs0mg"},{"bike_id":"6ae07e84-a597-494c-be47-8b5ec8e1d7dc","system_id":"levelo_inurba_marseille","lat":43.29677,"lon":5.37287,"is_reserved":false,"is_disabled":false,"rental_uris":{"android":"levelo://app?vid=6ae07e84-a597-494c-be47-8b5ec8e1d7dc","ios":"levelo://app?vid=6ae07e84-a597-494c-be47-8b5ec8e1d7dc"},"vehicle_type_id":"4","last_reported":1781375038,"current_range_meters":6800,"station_id":"ce4bgk12rcd13ifvqbj0","pricing_plan_id":"cebpf4jnsgd1na2vs0mg"},{"bike_id":"1be84025-d267-4515-957c-91dae421ff6c","system_id":"levelo_inurba_marseille","lat":43.26681,"lon":5.3827,"is_reserved":false,"is_disabled":false,"rental_uris":{"android":"levelo://app?vid=1be84025-d267-4515-957c-91dae421ff6c","ios":"levelo://app?vid=1be84025-d267-4515-957c-91dae421ff6c"},"vehicle_type_id":"4","last_reported":1781375038,"current_range_meters":6800,"station_id":"ce4bhg92rcd13ifvqf90","pricing_plan_id":"cebpf4jnsgd1na2vs0mg"},{"bike_id":"ec7ff123-2191-49c9-b4f8-c9b1016b4d1d","system_id":"levelo_inurba_marseille","lat":43.33533,"lon":5.37436,"is_reserved":false,"is_disabled":false,"rental_uris":{"android":"levelo://app?vid=ec7ff123-2191-49c9-b4f8-c9b1016b4d1d","ios":"levelo://app?vid=ec7ff123-2191-49c9-b4f8-c9b1016b4d1d"},"vehicle_type_id":"4","last_reported":1781375038,"current_range_meters":6800,"station_id":"st_d46tts09ee8s73dlu43g","pricing_plan_id":"cebpf4jnsgd1na2vs0mg"},{"bike_id":"3964cfec-2447-4c38-a9ab-5ebac4f72b6e","system_id":"levelo_inurba_marseille","lat":43.23201,"lon":5.35582,"is_reserved":false,"is_disabled":false,"rental_uris":{"android":"levelo://app?vid=3964cfec-2447-4c38-a9ab-5ebac4f72b6e","ios":"levelo://app?vid=3964cfec-2447-4c38-a9ab-5ebac4f72b6e"},"vehicle_type_id":"4","last_reported":1781375038,"current_range_meters":6800,"station_id":"ce4bhu92rcd13ifvqi70","pricing_plan_id":"cebpf4jnsgd1na2vs0mg"},{"bike_id":"7911489c-d669-48c8-806a-ae5df483f8c3","system_id":"levelo_inurba_marseille","lat":43.26231,"lon":5.38779,"is_reserved":false,"is_disabled":false,"rental_uris":{"android":"levelo://app?vid=7911489c-d669-48c8-806a-ae5df483f8c3","ios":"levelo://app?vid=7911489c-d669-48c8-806a-ae5df483f8c3"},"vehicle_type_id":"4","last_reported":1781375038,"current_range_meters":6800,"station_id":"st_d8gjfg747rts73coq3b0","pricing_plan_id":"cebpf4jnsgd1na2vs0mg"},{"bike_id":"f1929378-7fe0-4ea7-85c3-5ee9f648bdee","system_id":"levelo_inurba_marseille","lat":43.26569,"lon":5.39028,"is_reserved":false,"is_disabled":false,"rental_uris":{"android":"levelo://app?vid=f1929378-7fe0-4ea7-85c3-5ee9f648bdee","ios":"levelo://app?vid=f1929378-7fe0-4ea7-85c3-5ee9f648bdee"},"vehicle_type_id":"4","last_reported":1781375038,"current_range_meters":6800,"station_id":"ce4bhe12rcd13ifvqf30","pricing_plan_id":"cebpf4jnsgd1na2vs0mg"},{"bike_id":"c114e69d-383c-4b2b-8d78-15befd4bcf89","system_id":"levelo_inurba_marseille","lat":43.26217,"lon":5.37442,"is_reserved":false,"is_disabled":false,"rental_uris":{"android":"levelo://app?vid=c114e69d-383c-4b2b-8d78-15befd4bcf89","ios":"levelo://app?vid=c114e69d-383c-4b2b-8d78-15befd4bcf89"},"vehicle_type_id":"4","last_reported":1781375038,"current_range_meters":6800,"station_id":"ce4bhgp2rcd13ifvqfc0","pricing_plan_id":"cebpf4jnsgd1na2vs0mg"},{"bike_id":"ad3e140f-a45b-40d3-a8a3-c8fe18e924f1","system_id":"levelo_inurba_marseille","lat":43.26551,"lon":5.37293,"is_reserved":false,"is_disabled":false,"rental_uris":{"android":"levelo://app?vid=ad3e140f-a45b-40d3-a8a3-c8fe18e924f1","ios":"levelo://app?vid=ad3e140f-a45b-40d3-a8a3-c8fe18e924f1"},"vehicle_type_id":"4","last_reported":1781375038,"current_range_meters":6800,"station_id":"ce4bhg12rcd13ifvqf70","pricing_plan_id":"cebpf4jnsgd1na2vs0mg"},{"bike_id":"7f88d112-79ee-4e95-8744-823c7c1fe48f","system_id":"levelo_inurba_marseille","lat":43.24813,"lon":5.37457,"is_reserved":false,"is_disabled":false,"rental_uris":{"android":"levelo://app?vid=7f88d112-79ee-4e95-8744-823c7c1fe48f","ios":"levelo://app?vid=7f88d112-79ee-4e95-8744-823c7c1fe48f"},"vehicle_type_id":"4","last_reported":1781375038,"current_range_meters":6800,"station_id":"ce4bhgh2rcd13ifvqfb0","pricing_plan_id":"cebpf4jnsgd1na2vs0mg"},{"bike_id":"48de77fe-85e2-4ed0-b073-9689fb2f1b98","system_id":"levelo_inurba_marseille","lat":43.30147,"lon":5.3741,"is_reserved":false,"is_disabled":true,"rental_uris":{"android":"levelo://app?vid=48de77fe-85e2-4ed0-b073-9689fb2f1b98","ios":"levelo://app?vid=48de77fe-85e2-4ed0-b073-9689fb2f1b98"},"vehicle_type_id":"4","last_reported":1781375038,"current_range_meters":6800,"station_id":"ce4bgs92rcd13ifvqcc0","pricing_plan_id":"cebpf4jnsgd1na2vs0mg"},{"bike_id":"1a2cc79c-436d-49cd-9df5-be89b503fb0d","system_id":"levelo_inurba_marseille","lat":43.25511,"lon":5.37658,"is_reserved":false,"is_disabled":false,"rental_uris":{"android":"levelo://app?vid=1a2cc79c-436d-49cd-9df5-be89b503fb0d","ios":"levelo://app?vid=1a2cc79c-436d-49cd-9df5-be89b503fb0d"},"vehicle_type_id":"4","last_reported":1781375038,"current_range_meters":6800,"station_id":"ce4bhh12rcd13ifvqff0","pricing_plan_id":"cebpf4jnsgd1na2vs0mg"},{"bike_id":"afb5d1d0-d6d3-4837-84c1-73b8786a322a","system_id":"levelo_inurba_marseille","lat":43.26681,"lon":5.3826,"is_reserved":false,"is_disabled":false,"rental_uris":{"android":"levelo://app?vid=afb5d1d0-d6d3-4837-84c1-73b8786a322a","ios":"levelo://app?vid=afb5d1d0-d6d3-4837-84c1-73b8786a322a"},"vehicle_type_id":"4","last_reported":1781375038,"current_range_meters":6800,"station_id":"ce4bhg92rcd13ifvqf90","pricing_plan_id":"cebpf4jnsgd1na2vs0mg"},{"bike_id":"61acdcff-76d7-4bb2-a256-e2ec611550e8","system_id":"levelo_inurba_marseille","lat":43.26573,"lon":5.38996,"is_reserved":false,"is_disabled":true,"rental_uris":{"android":"levelo://app?vid=61acdcff-76d7-4bb2-a256-e2ec611550e8","ios":"levelo://app?vid=61acdcff-76d7-4bb2-a256-e2ec611550e8"},"vehicle_type_id":"4","last_reported":1781375038,"current_range_meters":6800,"station_id":"ce4bhe12rcd13ifvqf30","pricing_plan_id":"cebpf4jnsgd1na2vs0mg"},{"bike_id":"c97fb99a-7c2e-4698-a401-a6886e4eb5f4","system_id":"levelo_inurba_marseille","lat":43.2876,"lon":5.42677,"is_reserved":false,"is_disabled":false,"rental_uris":{"android":"levelo://app?vid=c97fb99a-7c2e-4698-a401-a6886e4eb5f4","ios":"levelo://app?vid=c97fb99a-7c2e-4698-a401-a6886e4eb5f4"},"vehicle_type_id":"4","last_reported":1781375038,"current_range_meters":6800,"station_id":"","pricing_plan_id":"cebpf4jnsgd1na2vs0mg"},{"bike_id":"3f683387-f7ec-4b9f-9801-ff63896077b4","system_id":"levelo_inurba_marseille","lat":43.2395,"lon":5.36532,"is_reserved":false,"is_disabled":false,"rental_uris":{"android":"levelo://app?vid=3f683387-f7ec-4b9f-9801-ff63896077b4","ios":"levelo://app?vid=3f683387-f7ec-4b9f-9801-ff63896077b4"},"vehicle_type_id":"4","last_reported":1781375038,"current_range_meters":6800,"station_id":"","pricing_plan_id":"cebpf4jnsgd1na2vs0mg"},{"bike_id":"6004aea3-6207-452d-b9ed-bb8d2e427431","system_id":"levelo_inurba_marseille","lat":43.30951,"lon":5.3904,"is_reserved":false,"is_disabled":false,"rental_uris":{"android":"levelo://app?vid=6004aea3-6207-452d-b9ed-bb8d2e427431","ios":"levelo://app?vid=6004aea3-6207-452d-b9ed-bb8d2e427431"},"vehicle_type_id":"4","last_reported":1781375038,"current_range_meters":6800,"station_id":"ce4bgup2rcd13ifvqco0","pricing_plan_id":"cebpf4jnsgd1na2vs0mg"},{"bike_id":"a36de390-ab30-4051-83e7-ebdfb57a2738","system_id":"levelo_inurba_marseille","lat":43.309507,"lon":5.39028,"is_reserved":false,"is_disabled":false,"rental_uris":{"android":"levelo://app?vid=a36de390-ab30-4051-83e7-ebdfb57a2738","ios":"levelo://app?vid=a36de390-ab30-4051-83e7-ebdfb57a2738"},"vehicle_type_id":"4","last_reported":1781375038,"current_range_meters":6800,"station_id":"ce4bgup2rcd13ifvqco0","pricing_plan_id":"cebpf4jnsgd1na2vs0mg"},{"bike_id":"95fa7e89-477c-497d-868e-1ebd42d72e63","system_id":"levelo_inurba_marseille","lat":43.26343,"lon":5.37817,"is_reserved":false,"is_disabled":false,"rental_uris":{"android":"levelo://app?vid=95fa7e89-477c-497d-868e-1ebd42d72e63","ios":"levelo://app?vid=95fa7e89-477c-497d-868e-1ebd42d72e63"},"vehicle_type_id":"4","last_reported":1781375038,"current_range_meters":6800,"station_id":"st_d163nis0mtpqnht9uue0","pricing_plan_id":"cebpf4jnsgd1na2vs0mg"},