{"last_updated":1762157744,"ttl":60,"version":"2.2","data":{"bikes":[{"bike_id":"f3aa2b01-0a4c-4939-9943-856a2be759f0","system_id":"levelo_inurba_marseille","lat":43.21753,"lon":5.34607,"is_reserved":false,"is_disabled":false,"rental_uris":{"android":"levelo://app?vid=f3aa2b01-0a4c-4939-9943-856a2be759f0","ios":"levelo://app?vid=f3aa2b01-0a4c-4939-9943-856a2be759f0"},"vehicle_type_id":"4","last_reported":1762157745,"current_range_meters":2800,"station_id":"st_cvj6r9ubvosntc0bgbag","pricing_plan_id":"cebpf4jnsgd1na2vs0mg"},{"bike_id":"d14e592c-fa52-4194-b611-2b24c24a94f6","system_id":"levelo_inurba_marseille","lat":43.26926,"lon":5.38917,"is_reserved":false,"is_disabled":false,"rental_uris":{"android":"levelo://app?vid=d14e592c-fa52-4194-b611-2b24c24a94f6","ios":"levelo://app?vid=d14e592c-fa52-4194-b611-2b24c24a94f6"},"vehicle_type_id":"4","last_reported":1762157745,"current_range_meters":2800,"station_id":"ce4bhhh2rcd13ifvqfl0","pricing_plan_id":"cebpf4jnsgd1na2vs0mg"},{"bike_id":"7713a2dd-2368-4d9c-836c-ad134a3db34d","system_id":"levelo_inurba_marseille","lat":43.27501,"lon":5.42455,"is_reserved":false,"is_disabled":false,"rental_uris":{"android":"levelo://app?vid=7713a2dd-2368-4d9c-836c-ad134a3db34d","ios":"levelo://app?vid=7713a2dd-2368-4d9c-836c-ad134a3db34d"},"vehicle_type_id":"4","last_reported":1762157745,"current_range_meters":2800,"station_id":"ce4bhn92rcd13ifvqgrg","pricing_plan_id":"cebpf4jnsgd1na2vs0mg"},{"bike_id":"186661f5-751b-4683-abbf-0c5626fb503f","system_id":"levelo_inurba_marseille","lat":43.2781,"lon":5.4071,"is_reserved":false,"is_disabled":false,"rental_uris":{"android":"levelo://app?vid=186661f5-751b-4683-abbf-0c5626fb503f","ios":"levelo://app?vid=186661f5-751b-4683-abbf-0c5626fb503f"},"vehicle_type_id":"4","last_reported":1762157745,"current_range_meters":3200,"station_id":"ce4bhnh2rcd13ifvqgtg","pricing_plan_id":"cebpf4jnsgd1na2vs0mg"},{"bike_id":"d254734a-4b27-4d73-aa91-63ac63092b67","system_id":"levelo_inurba_marseille","lat":43.29034,"lon":5.37563,"is_reserved":false,"is_disabled":false,"rental_uris":{"android":"levelo://app?vid=d254734a-4b27-4d73-aa91-63ac63092b67","ios":"levelo://app?vid=d254734a-4b27-4d73-aa91-63ac63092b67"},"vehicle_type_id":"4","last_reported":1762157745,"current_range_meters":3200,"station_id":"ce4bh692rcd13ifvqe90","pricing_plan_id":"cebpf4jnsgd1na2vs0mg"},{"bike_id":"d3247068-4cb6-48b3-ac42-53e9a28a90b5","system_id":"levelo_inurba_marseille","lat":43.29621,"lon":5.37712,"is_reserved":false,"is_disabled":false,"rental_uris":{"android":"levelo://app?vid=d3247068-4cb6-48b3-ac42-53e9a28a90b5","ios":"levelo://app?vid=d3247068-4cb6-48b3-ac42-53e9a28a90b5"},"vehicle_type_id":"4","last_reported":1762157745,"current_range_meters":3200,"station_id":"ce4bgi92rcd13ifvqb90","pricing_plan_id":"cebpf4jnsgd1na2vs0mg"},{"bike_id":"c16816bd-675a-42b3-a674-d34644911dd8","system_id":"levelo_inurba_marseille","lat":43.29032,"lon":5.38644,"is_reserved":false,"is_disabled":false,"rental_uris":{"android":"levelo://app?vid=c16816bd-675a-42b3-a674-d34644911dd8","ios":"levelo://app?vid=c16816bd-675a-42b3-a674-d34644911dd8"},"vehicle_type_id":"4","last_reported":1762157745,"current_range_meters":3200,"station_id":"ce4bh4p2rcd13ifvqe0g","pricing_plan_id":"cebpf4jnsgd1na2vs0mg"},{"bike_id":"35d638e5-e289-4767-93f6-59d2ea427782","system_id":"levelo_inurba_marseille","lat":43.33608,"lon":5.41032,"is_reserved":false,"is_disabled":false,"rental_uris":{"android":"levelo://app?vid=35d638e5-e289-4767-93f6-59d2ea427782","ios":"levelo://app?vid=35d638e5-e289-4767-93f6-59d2ea427782"},"vehicle_type_id":"4","last_reported":1762157745,"current_range_meters":3600,"station_id":"ce4bhqh2rcd13ifvqhmg","pricing_plan_id":"cebpf4jnsgd1na2vs0mg"},{"bike_id":"d4102230-40fa-4ec4-bb3e-3c421492ca2f","system_id":"levelo_inurba_marseille","lat":43.27809,"lon":5.40721,"is_reserved":false,"is_disabled":false,"rental_uris":{"android":"levelo://app?vid=d4102230-40fa-4ec4-bb3e-3c421492ca2f","ios":"levelo://app?vid=d4102230-40fa-4ec4-bb3e-3c421492ca2f"},"vehicle_type_id":"4","last_reported":1762157745,"current_range_meters":4000,"station_id":"ce4bhnh2rcd13ifvqgtg","pricing_plan_id":"cebpf4jnsgd1na2vs0mg"},{"bike_id":"ed890a36-02ef-4914-b497-b0b60f616f2a","system_id":"levelo_inurba_marseille","lat":43.281528,"lon":5.426468,"is_reserved":false,"is_disabled":false,"rental_uris":{"android":"levelo://app?vid=ed890a36-02ef-4914-b497-b0b60f616f2a","ios":"levelo://app?vid=ed890a36-02ef-4914-b497-b0b60f616f2a"},"vehicle_type_id":"4","last_reported":1762157745,"current_range_meters":4000,"station_id":"ce4bhnh2rcd13ifvqgug","pricing_plan_id":"cebpf4jnsgd1na2vs0mg"},{"bike_id":"b1e81361-2b17-4ef1-8a58-6def5753471b","system_id":"levelo_inurba_marseille","lat":43.33753,"lon":5.37484,"is_reserved":false,"is_disabled":false,"rental_uris":{"android":"levelo://app?vid=b1e81361-2b17-4ef1-8a58-6def5753471b","ios":"levelo://app?vid=b1e81361-2b17-4ef1-8a58-6def5753471b"},"vehicle_type_id":"4","last_reported":1762157745,"current_range_meters":4000,"station_id":"","pricing_plan_id":"cebpf4jnsgd1na2vs0mg"},{"bike_id":"b8dc798a-4c5f-48b4-b4c9-3c3cda44d5f9","system_id":"levelo_inurba_marseille","lat":43.25936,"lon":5.40902,"is_reserved":false,"is_disabled":false,"rental_uris":{"android":"levelo://app?vid=b8dc798a-4c5f-48b4-b4c9-3c3cda44d5f9","ios":"levelo://app?vid=b8dc798a-4c5f-48b4-b4c9-3c3cda44d5f9"},"vehicle_type_id":"4","last_reported":1762157745,"current_range_meters":4000,"station_id":"ce4bhm92rcd13ifvqglg","pricing_plan_id":"cebpf4jnsgd1na2vs0mg"},{"bike_id":"4f3727ff-63d2-40fd-8ebf-7af1e991f12d","system_id":"levelo_inurba_marseille","lat":43.27308,"lon":5.39082,"is_reserved":false,"is_disabled":false,"rental_uris":{"android":"levelo://app?vid=4f3727ff-63d2-40fd-8ebf-7af1e991f12d","ios":"levelo://app?vid=4f3727ff-63d2-40fd-8ebf-7af1e991f12d"},"vehicle_type_id":"4","last_reported":1762157745,"current_range_meters":4000,"station_id":"ce4bhgp2rcd13ifvqfe0","pricing_plan_id":"cebpf4jnsgd1na2vs0mg"},{"bike_id":"98ae70a7-845f-4fca-806c-2c13fb3772f4","system_id":"levelo_inurba_marseille","lat":43.29673,"lon":5.37851,"is_reserved":false,"is_disabled":true,"rental_uris":{"android":"levelo://app?vid=98ae70a7-845f-4fca-806c-2c13fb3772f4","ios":"levelo://app?vid=98ae70a7-845f-4fca-806c-2c13fb3772f4"},"vehicle_type_id":"4","last_reported":1762157745,"current_range_meters":4000,"station_id":"","pricing_plan_id":"cebpf4jnsgd1na2vs0mg"},{"bike_id":"3d2ac210-d1e5-43ba-b4cc-8cd99b96e0c8","system_id":"levelo_inurba_marseille","lat":43.30633,"lon":5.37417,"is_reserved":false,"is_disabled":false,"rental_uris":{"android":"levelo://app?vid=3d2ac210-d1e5-43ba-b4cc-8cd99b96e0c8","ios":"levelo://app?vid=3d2ac210-d1e5-43ba-b4cc-8cd99b96e0c8"},"vehicle_type_id":"4","last_reported":1762157745,"current_range_meters":4400,"station_id":"","pricing_plan_id":"cebpf4jnsgd1na2vs0mg"},{"bike_id":"b4e492f6-3c2d-4bca-ab1f-5bb5d6d104f8","system_id":"levelo_inurba_marseille","lat":43.30535,"lon":5.36554,"is_reserved":false,"is_disabled":false,"rental_uris":{"android":"levelo://app?vid=b4e492f6-3c2d-4bca-ab1f-5bb5d6d104f8","ios":"levelo://app?vid=b4e492f6-3c2d-4bca-ab1f-5bb5d6d104f8"},"vehicle_type_id":"4","last_reported":1762157745,"current_range_meters":4400,"station_id":"ce4bgs12rcd13ifvqcag","pricing_plan_id":"cebpf4jnsgd1na2vs0mg"},{"bike_id":"e1878b1a-0eca-4297-9a22-2324eccbac4b","system_id":"levelo_inurba_marseille","lat":43.29931,"lon":5.36555,"is_reserved":false,"is_disabled":false,"rental_uris":{"android":"levelo://app?vid=e1878b1a-0eca-4297-9a22-2324eccbac4b","ios":"levelo://app?vid=e1878b1a-0eca-4297-9a22-2324eccbac4b"},"vehicle_type_id":"4","last_reported":1762157745,"current_range_meters":4400,"station_id":"ce4bgm92rcd13ifvqbr0","pricing_plan_id":"cebpf4jnsgd1na2vs0mg"},{"bike_id":"1da56141-654f-442c-b20c-6c2bd52c2965","system_id":"levelo_inurba_marseille","lat":43.3126,"lon":5.38197,"is_reserved":false,"is_disabled":true,"rental_uris":{"android":"levelo://app?vid=1da56141-654f-442c-b20c-6c2bd52c2965","ios":"levelo://app?vid=1da56141-654f-442c-b20c-6c2bd52c2965"},"vehicle_type_id":"4","last_reported":1762157745,"current_range_meters":4800,"station_id":"","pricing_plan_id":"cebpf4jnsgd1na2vs0mg"},{"bike_id":"c6262a18-1667-4ca2-8ca7-87716588d516","system_id":"levelo_inurba_marseille","lat":43.28483,"lon":5.38414,"is_reserved":false,"is_disabled":false,"rental_uris":{"android":"levelo://app?vid=c6262a18-1667-4ca2-8ca7-87716588d516","ios":"levelo://app?vid=c6262a18-1667-4ca2-8ca7-87716588d516"},"vehicle_type_id":"4","last_reported":1762157745,"current_range_meters":4800,"station_id":"ce4bh512rcd13ifvqe3g","pricing_plan_id":"cebpf4jnsgd1na2vs0mg"},{"bike_id":"bb761188-fefa-49be-a9c0-4dd9494d5c0d","system_id":"levelo_inurba_marseille","lat":43.30907,"lon":5.368477,"is_reserved":false,"is_disabled":false,"rental_uris":{"android":"levelo://app?vid=bb761188-fefa-49be-a9c0-4dd9494d5c0d","ios":"levelo://app?vid=bb761188-fefa-49be-a9c0-4dd9494d5c0d"},"vehicle_type_id":"4","last_reported":1762157745,"current_range_meters":4800,"station_id":"ce4bgn92rcd13ifvqbvg","pricing_plan_id":"cebpf4jnsgd1na2vs0mg"},{"bike_id":"dc70789f-3aaf-46d3-8c7f-243ef84916ab","system_id":"levelo_inurba_marseille","lat":43.25327,"lon":5.42167,"is_reserved":false,"is_disabled":false,"rental_uris":{"android":"levelo://app?vid=dc70789f-3aaf-46d3-8c7f-243ef84916ab","ios":"levelo://app?vid=dc70789f-3aaf-46d3-8c7f-243ef84916ab"},"vehicle_type_id":"4","last_reported":1762157745,"current_range_meters":4800,"station_id":"st_d2m65c5bi1j21697t3ng","pricing_plan_id":"cebpf4jnsgd1na2vs0mg"},{"bike_id":"60c7e9df-6bcd-4513-82ea-171bc1fa25e5","system_id":"levelo_inurba_marseille","lat":43.29673,"lon":5.38029,"is_reserved":false,"is_disabled":false,"rental_uris":{"android":"levelo://app?vid=60c7e9df-6bcd-4513-82ea-171bc1fa25e5","ios":"levelo://app?vid=60c7e9df-6bcd-4513-82ea-171bc1fa25e5"},"vehicle_type_id":"4","last_reported":1762157745,"current_range_meters":5600,"station_id":"","pricing_plan_id":"cebpf4jnsgd1na2vs0mg"},{"bike_id":"ef4bb5e7-9fea-4aea-9d78-3b7ddf5eaba0","system_id":"levelo_inurba_marseille","lat":43.251079,"lon":5.403247,"is_reserved":false,"is_disabled":false,"rental_uris":{"android":"levelo://app?vid=ef4bb5e7-9fea-4aea-9d78-3b7ddf5eaba0","ios":"levelo://app?vid=ef4bb5e7-9fea-4aea-9d78-3b7ddf5eaba0"},"vehicle_type_id":"4","last_reported":1762157745,"current_range_meters":5600,"station_id":"ce4bhlh2rcd13ifvqgig","pricing_plan_id":"cebpf4jnsgd1na2vs0mg"},{"bike_id":"059b442e-d040-495a-991c-662b79177c55","system_id":"levelo_inurba_marseille","lat":43.29363,"lon":5.45355,"is_reserved":false,"is_disabled":false,"rental_uris":{"android":"levelo://app?vid=059b442e-d040-495a-991c-662b79177c55","ios":"levelo://app?vid=059b442e-d040-495a-991c-662b79177c55"},"vehicle_type_id":"4","last_reported":1762157745,"current_range_meters":6000,"station_id":"","pricing_plan_id":"cebpf4jnsgd1na2vs0mg"},{"bike_id":"603f84c7-55e1-4d19-8f37-178ddadc668f","system_id":"levelo_inurba_marseille","lat":43.21204,"lon":5.35087,"is_reserved":false,"is_disabled":false,"rental_uris":{"android":"levelo://app?vid=603f84c7-55e1-4d19-8f37-178ddadc668f","ios":"levelo://app?vid=603f84c7-55e1-4d19-8f37-178ddadc668f"},"vehicle_type_id":"4","last_reported":1762157745,"current_range_meters":6000,"station_id":"st_cvj6sg6p6f1abm77japg","pricing_plan_id":"cebpf4jnsgd1na2vs0mg"},{"bike_id":"bed437da-01a3-4911-ba9f-f473e93d2db7","system_id":"levelo_inurba_marseille","lat":43.309167,"lon":5.372,"is_reserved":false,"is_disabled":false,"rental_uris":{"android":"levelo://app?vid=bed437da-01a3-4911-ba9f-f473e93d2db7","ios":"levelo://app?vid=bed437da-01a3-4911-ba9f-f473e93d2db7"},"vehicle_type_id":"4","last_reported":1762157745,"current_range_meters":6000,"station_id":"ce4bguh2rcd13ifvqckg","pricing_plan_id":"cebpf4jnsgd1na2vs0mg"},{"bike_id":"106a2b79-2c1a-4169-ab03-49716a965a90","system_id":"levelo_inurba_marseille","lat":43.24648,"lon":5.38896,"is_reserved":false,"is_disabled":false,"rental_uris":{"android":"levelo://app?vid=106a2b79-2c1a-4169-ab03-49716a965a90","ios":"levelo://app?vid=106a2b79-2c1a-4169-ab03-49716a965a90"},"vehicle_type_id":"4","last_reported":1762157745,"current_range_meters":6000,"station_id":"ce4bhg12rcd13ifvqf60","pricing_plan_id":"cebpf4jnsgd1na2vs0mg"},{"bike_id":"d65a4230-027e-41d2-aaa3-e42de9004d9f","system_id":"levelo_inurba_marseille","lat":43.24171,"lon":5.3974,"is_reserved":false,"is_disabled":false,"rental_uris":{"android":"levelo://app?vid=d65a4230-027e-41d2-aaa3-e42de9004d9f","ios":"levelo://app?vid=d65a4230-027e-41d2-aaa3-e42de9004d9f"},"vehicle_type_id":"4","last_reported":1762157745,"current_range_meters":6400,"station_id":"ce4bhn12rcd13ifvqgpg","pricing_plan_id":"cebpf4jnsgd1na2vs0mg"},{"bike_id":"f556ad88-b0ef-4d15-8048-f36fbe8e026c","system_id":"levelo_inurba_marseille","lat":43.28531,"lon":5.44093,"is_reserved":false,"is_disabled":false,"rental_uris":{"android":"levelo://app?vid=f556ad88-b0ef-4d15-8048-f36fbe8e026c","ios":"levelo://app?vid=f556ad88-b0ef-4d15-8048-f36fbe8e026c"},"vehicle_type_id":"4","last_reported":1762157745,"current_range_meters":6400,"station_id":"st_d3j3df2ikq2c7380ej80","pricing_plan_id":"cebpf4jnsgd1na2vs0mg"},{"bike_id":"8a759722-19f7-4a56-9646-2c26a5e7e25d","system_id":"levelo_inurba_marseille","lat":43.279821,"lon":5.387392,"is_reserved":false,"is_disabled":true,"rental_uris":{"android":"levelo://app?vid=8a759722-19f7-4a56-9646-2c26a5e7e25d","ios":"levelo://app?vid=8a759722-19f7-4a56-9646-2c26a5e7e25d"},"vehicle_type_id":"4","last_reported":1762157745,"current_range_meters":6400,"station_id":"ce4bhg12rcd13ifvqf80","pricing_plan_id":"cebpf4jnsgd1na2vs0mg"},{"bike_id":"0ab65b3e-fc77-4fa2-bd12-5d423255d5aa","system_id":"levelo_inurba_marseille","lat":43.27825,"lon":5.39209,"is_reserved":false,"is_disabled":false,"rental_uris":{"android":"levelo://app?vid=0ab65b3e-fc77-4fa2-bd12-5d423255d5aa","ios":"levelo://app?vid=0ab65b3e-fc77-4fa2-bd12-5d423255d5aa"},"vehicle_type_id":"4","last_reported":1762157745,"current_range_meters":6400,"station_id":"ce4bhjp2rcd13ifvqga0","pricing_plan_id":"cebpf4jnsgd1na2vs0mg"},{"bike_id":"dea67bbb-8d56-4994-9ad4-a92e185fa6f3","system_id":"levelo_inurba_marseille","lat":43.24085,"lon":5.37757,"is_reserved":false,"is_disabled":false,"rental_uris":{"android":"levelo://app?vid=dea67bbb-8d56-4994-9ad4-a92e185fa6f3","ios":"levelo://app?vid=dea67bbb-8d56-4994-9ad4-a92e185fa6f3"},"vehicle_type_id":"4","last_reported":1762157745,"current_range_meters":6400,"station_id":"ce4bhnp2rcd13ifvqgvg","pricing_plan_id":"cebpf4jnsgd1na2vs0mg"},{"bike_id":"ebd9fb9b-377b-41df-b8e1-261f30377cbb","system_id":"levelo_inurba_marseille","lat":43.27203,"lon":5.39195,"is_reserved":false,"is_disabled":true,"rental_uris":{"android":"levelo://app?vid=ebd9fb9b-377b-41df-b8e1-261f30377cbb","ios":"levelo://app?vid=ebd9fb9b-377b-41df-b8e1-261f30377cbb"},"vehicle_type_id":"4","last_reported":1762157745,"current_range_meters":6400,"station_id":"ce4bhhp2rcd13ifvqfm0","pricing_plan_id":"cebpf4jnsgd1na2vs0mg"},{"bike_id":"8882c213-51be-4043-896c-7ce8b584de1b","system_id":"levelo_inurba_marseille","lat":43.3169,"lon":5.40477,"is_reserved":false,"is_disabled":false,"rental_uris":{"android":"levelo://app?vid=8882c213-51be-4043-896c-7ce8b584de1b","ios":"levelo://app?vid=8882c213-51be-4043-896c-7ce8b584de1b"},"vehicle_type_id":"4","last_reported":1762157745,"current_range_meters":6800,"station_id":"ce4bh012rcd13ifvqd00","pricing_plan_id":"cebpf4jnsgd1na2vs0mg"},{"bike_id":"098d7ae5-5b2b-4d49-ad2f-d14f29937957","system_id":"levelo_inurba_marseille","lat":43.28984,"lon":5.37822,"is_reserved":false,"is_disabled":true,"rental_uris":{"android":"levelo://app?vid=098d7ae5-5b2b-4d49-ad2f-d14f29937957","ios":"levelo://app?vid=098d7ae5-5b2b-4d49-ad2f-d14f29937957"},"vehicle_type_id":"4","last_reported":1762157745,"current_range_meters":6800,"station_id":"ce4bh9p2rcd13ifvqed0","pricing_plan_id":"cebpf4jnsgd1na2vs0mg"},{"bike_id":"1d29646a-da1f-4f66-b008-0838ffb2fa84","system_id":"levelo_inurba_marseille","lat":43.30008,"lon":5.37228,"is_reserved":false,"is_disabled":false,"rental_uris":{"android":"levelo://app?vid=1d29646a-da1f-4f66-b008-0838ffb2fa84","ios":"levelo://app?vid=1d29646a-da1f-4f66-b008-0838ffb2fa84"},"vehicle_type_id":"4","last_reported":1762157745,"current_range_meters":6800,"station_id":"","pricing_plan_id":"cebpf4jnsgd1na2vs0mg"},{"bike_id":"ccbb9b89-ebba-4c6c-b9fe-acafe29ddb47","system_id":"levelo_inurba_marseille","lat":43.33507,"lon":5.42774,"is_reserved":false,"is_disabled":false,"rental_uris":{"android":"levelo://app?vid=ccbb9b89-ebba-4c6c-b9fe-acafe29ddb47","ios":"levelo://app?vid=ccbb9b89-ebba-4c6c-b9fe-acafe29ddb47"},"vehicle_type_id":"4","last_reported":1762157745,"current_range_meters":7200,"station_id":"","pricing_plan_id":"cebpf4jnsgd1na2vs0mg"},{"bike_id":"5dfe8f21-62e6-42bc-ab03-81fd62f4e29a","system_id":"levelo_inurba_marseille","lat":43.341392,"lon":5.409004,"is_reserved":false,"is_disabled":false,"rental_uris":{"android":"levelo://app?vid=5dfe8f21-62e6-42bc-ab03-81fd62f4e29a","ios":"levelo://app?vid=5dfe8f21-62e6-42bc-ab03-81fd62f4e29a"},"vehicle_type_id":"4","last_reported":1762157745,"current_range_meters":7200,"station_id":"ce4bhqh2rcd13ifvqhlg","pricing_plan_id":"cebpf4jnsgd1na2vs0mg"},{"bike_id":"e8364e93-a7f9-4205-baf5-9257c0377d32","system_id":"levelo_inurba_marseille","lat":43.25584,"lon":5.38239,"is_reserved":false,"is_disabled":false,"rental_uris":{"android":"levelo://app?vid=e8364e93-a7f9-4205-baf5-9257c0377d32","ios":"levelo://app?vid=e8364e93-a7f9-4205-baf5-9257c0377d32"},"vehicle_type_id":"4","last_reported":1762157745,"current_range_meters":7200,"station_id":"ce4bhih2rcd13ifvqfs0","pricing_plan_id":"cebpf4jnsgd1na2vs0mg"},{"bike_id":"27d7569b-9c43-432b-b520-1fe66ca7d0dd","system_id":"levelo_inurba_marseille","lat":43.29044,"lon":5.39955,"is_reserved":false,"is_disabled":false,"rental_uris":{"android":"levelo://app?vid=27d7569b-9c43-432b-b520-1fe66ca7d0dd","ios":"levelo://app?vid=27d7569b-9c43-432b-b520-1fe66ca7d0dd"},"vehicle_type_id":"4","last_reported":1762157745,"current_range_meters":7200,"station_id":"ce4bh392rcd13ifvqdm0","pricing_plan_id":"cebpf4jnsgd1na2vs0mg"},{"bike_id":"fd42cf2e-f1da-4408-b574-6e33d7bc7446","system_id":"levelo_inurba_marseille","lat":43.302493,"lon":5.400731,"is_reserved":false,"is_disabled":false,"rental_uris":{"android":"levelo://app?vid=fd42cf2e-f1da-4408-b574-6e33d7bc7446","ios":"levelo://app?vid=fd42cf2e-f1da-4408-b574-6e33d7bc7446"},"vehicle_type_id":"4","last_reported":1762157745,"current_range_meters":7200,"station_id":"","pricing_plan_id":"cebpf4jnsgd1na2vs0mg"},{"bike_id":"9cd65fc4-be3c-4fb2-8f02-9ecf51072ac1","system_id":"levelo_inurba_marseille","lat":43.30537,"lon":5.36718,"is_reserved":false,"is_disabled":false,"rental_uris":{"android":"levelo://app?vid=9cd65fc4-be3c-4fb2-8f02-9ecf51072ac1","ios":"levelo://app?vid=9cd65fc4-be3c-4fb2-8f02-9ecf51072ac1"},"vehicle_type_id":"4","last_reported":1762157745,"current_range_meters":7200,"station_id":"ce4bgrp2rcd13ifvqc9g","pricing_plan_id":"cebpf4jnsgd1na2vs0mg"},{"bike_id":"00386503-39ef-4738-b081-3876ef0c487a","system_id":"levelo_inurba_marseille","lat":43.25929,"lon":5.40909,"is_reserved":false,"is_disabled":false,"rental_uris":{"android":"levelo://app?vid=00386503-39ef-4738-b081-3876ef0c487a","ios":"levelo://app?vid=00386503-39ef-4738-b081-3876ef0c487a"},"vehicle_type_id":"4","last_reported":1762157745,"current_range_meters":7200,"station_id":"ce4bhm92rcd13ifvqglg","pricing_plan_id":"cebpf4jnsgd1na2vs0mg"},{"bike_id":"79a318af-d5b3-42a5-a645-2dfaa2b541cf","system_id":"levelo_inurba_marseille","lat":43.27207,"lon":5.39192,"is_reserved":false,"is_disabled":false,"rental_uris":{"android":"levelo://app?vid=79a318af-d5b3-42a5-a645-2dfaa2b541cf","ios":"levelo://app?vid=79a318af-d5b3-42a5-a645-2dfaa2b541cf"},"vehicle_type_id":"4","last_reported":1762157745,"current_range_meters":8000,"station_id":"ce4bhhp2rcd13ifvqfm0","pricing_plan_id":"cebpf4jnsgd1na2vs0mg"},{"bike_id":"d2200088-1917-4673-ab4a-77e399cdc031","system_id":"levelo_inurba_marseille","lat":43.30319,"lon":5.36905,"is_reserved":false,"is_disabled":false,"rental_uris":{"android":"levelo://app?vid=d2200088-1917-4673-ab4a-77e399cdc031","ios":"levelo://app?vid=d2200088-1917-4673-ab4a-77e399cdc031"},"vehicle_type_id":"4","last_reported":1762157745,"current_range_meters":8000,"station_id":"","pricing_plan_id":"cebpf4jnsgd1na2vs0mg"},{"bike_id":"39756feb-406f-4919-ab84-6fdb7cb41e9b","system_id":"levelo_inurba_marseille","lat":43.301428,"lon":5.374208,"is_reserved":false,"is_disabled":false,"rental_uris":{"android":"levelo://app?vid=39756feb-406f-4919-ab84-6fdb7cb41e9b","ios":"levelo://app?vid=39756feb-406f-4919-ab84-6fdb7cb41e9b"},"vehicle_type_id":"4","last_reported":1762157745,"current_range_meters":8000,"station_id":"ce4bgs92rcd13ifvqcc0","pricing_plan_id":"cebpf4jnsgd1na2vs0mg"},{"bike_id":"9fe11b08-4355-4407-b3e1-0ac07c184d16","system_id":"levelo_inurba_marseille","lat":43.25333,"lon":5.42172,"is_reserved":false,"is_disabled":false,"rental_uris":{"android":"levelo://app?vid=9fe11b08-4355-4407-b3e1-0ac07c184d16","ios":"levelo://app?vid=9fe11b08-4355-4407-b3e1-0ac07c184d16"},"vehicle_type_id":"4","last_reported":1762157745,"current_range_meters":8400,"station_id":"st_d2m65c5bi1j21697t3ng","pricing_plan_id":"cebpf4jnsgd1na2vs0mg"},{"bike_id":"4ba9f02a-ceb7-4144-afde-652f12ab2b3d","system_id":"levelo_inurba_marseille","lat":43.30536,"lon":5.3669,"is_reserved":false,"is_disabled":false,"rental_uris":{"android":"levelo://app?vid=4ba9f02a-ceb7-4144-afde-652f12ab2b3d","ios":"levelo://app?vid=4ba9f02a-ceb7-4144-afde-652f12ab2b3d"},"vehicle_type_id":"4","last_reported":1762157745,"current_range_meters":8400,"station_id":"ce4bgrp2rcd13ifvqc9g","pricing_plan_id":"cebpf4jnsgd1na2vs0mg"},{"bike_id":"de0ca7a8-116a-46c8-8c50-6b445a473423","system_id":"levelo_inurba_marseille","lat":43.28857,"lon":5.42528,"is_reserved":false,"is_disabled":false,"rental_uris":{"android":"levelo://app?vid=de0ca7a8-116a-46c8-8c50-6b445a473423","ios":"levelo://app?vid=de0ca7a8-116a-46c8-8c50-6b445a473423"},"vehicle_type_id":"4","last_reported":1762157745,"current_range_meters":8400,"station_id":"st_d3b462108ojc7389ooeg","pricing_plan_id":"cebpf4jnsgd1na2vs0mg"},{"bike_id":"c4c5d540-caac-4903-aba8-275aa7fb9054","system_id":"levelo_inurba_marseille","lat":43.26583,"lon":5.39874,"is_reserved":false,"is_disabled":false,"rental_uris":{"android":"levelo://app?vid=c4c5d540-caac-4903-aba8-275aa7fb9054","ios":"levelo://app?vid=c4c5d540-caac-4903-aba8-275aa7fb9054"},"vehicle_type_id":"4","last_reported":1762157745,"current_range_meters":8400,"station_id":"","pricing_plan_id":"cebpf4jnsgd1na2vs0mg"},{"bike_id":"f5d02a8f-7bae-48a8-969f-68fcb24ca511","system_id":"levelo_inurba_marseille","lat":43.29198,"lon":5.39312,"is_reserved":false,"is_disabled":true,"rental_uris":{"android":"levelo://app?vid=f5d02a8f-7bae-48a8-969f-68fcb24ca511","ios":"levelo://app?vid=f5d02a8f-7bae-48a8-969f-68fcb24ca511"},"vehicle_type_id":"4","last_reported":1762157745,"current_range_meters":8400,"station_id":"ce4bh192rcd13ifvqdd0","pricing_plan_id":"cebpf4jnsgd1na2vs0mg"},{"bike_id":"4c288aea-db6f-4c5c-a0d0-3c0842d28ca2","system_id":"levelo_inurba_marseille","lat":43.30536,"lon":5.36707,"is_reserved":false,"is_disabled":false,"rental_uris":{"android":"levelo://app?vid=4c288aea-db6f-4c5c-a0d0-3c0842d28ca2","ios":"levelo://app?vid=4c288aea-db6f-4c5c-a0d0-3c0842d28ca2"},"vehicle_type_id":"4","last_reported":1762157745,"current_range_meters":8400,"station_id":"ce4bgrp2rcd13ifvqc9g","pricing_plan_id":"cebpf4jnsgd1na2vs0mg"},{"bike_id":"38cc0e3d-e0b7-417c-beb7-86bbbcb1c656","system_id":"levelo_inurba_marseille","lat":43.290652,"lon":5.371607,"is_reserved":false,"is_disabled":false,"rental_uris":{"android":"levelo://app?vid=38cc0e3d-e0b7-417c-beb7-86bbbcb1c656","ios":"levelo://app?vid=38cc0e3d-e0b7-417c-beb7-86bbbcb1c656"},"vehicle_type_id":"4","last_reported":1762157745,"current_range_meters":8400,"station_id":"ce4bh5p2rcd13ifvqe4g","pricing_plan_id":"cebpf4jnsgd1na2vs0mg"},{"bike_id":"db64c0f8-d7ba-476c-a21d-ca7a3464767a","system_id":"levelo_inurba_marseille","lat":43.27812,"lon":5.40713,"is_reserved":false,"is_disabled":false,"rental_uris":{"android":"levelo://app?vid=db64c0f8-d7ba-476c-a21d-ca7a3464767a","ios":"levelo://app?vid=db64c0f8-d7ba-476c-a21d-ca7a3464767a"},"vehicle_type_id":"4","last_reported":1762157745,"current_range_meters":8400,"station_id":"ce4bhnh2rcd13ifvqgtg","pricing_plan_id":"cebpf4jnsgd1na2vs0mg"},{"bike_id":"4f6bb5d9-f3e6-483e-a58c-0ad27d992120","system_id":"levelo_inurba_marseille","lat":43.25736,"lon":5.41123,"is_reserved":false,"is_disabled":false,"rental_uris":{"android":"levelo://app?vid=4f6bb5d9-f3e6-483e-a58c-0ad27d992120","ios":"levelo://app?vid=4f6bb5d9-f3e6-483e-a58c-0ad27d992120"},"vehicle_type_id":"4","last_reported":1762157745,"current_range_meters":8400,"station_id":"ce4bhkp2rcd13ifvqgd0","pricing_plan_id":"cebpf4jnsgd1na2vs0mg"},{"bike_id":"2612647c-e3fa-4c57-b59e-81495c932e8b","system_id":"levelo_inurba_marseille","lat":43.29062,"lon":5.37167,"is_reserved":false,"is_disabled":false,"rental_uris":{"android":"levelo://app?vid=2612647c-e3fa-4c57-b59e-81495c932e8b","ios":"levelo://app?vid=2612647c-e3fa-4c57-b59e-81495c932e8b"},"vehicle_type_id":"4","last_reported":1762157745,"current_range_meters":8400,"station_id":"ce4bh5p2rcd13ifvqe4g","pricing_plan_id":"cebpf4jnsgd1na2vs0mg"},{"bike_id":"fcffe6c9-2d9a-4e3d-81af-efce31c8eb75","system_id":"levelo_inurba_marseille","lat":43.262453,"lon":5.374817,"is_reserved":false,"is_disabled":false,"rental_uris":{"android":"levelo://app?vid=fcffe6c9-2d9a-4e3d-81af-efce31c8eb75","ios":"levelo://app?vid=fcffe6c9-2d9a-4e3d-81af-efce31c8eb75"},"vehicle_type_id":"4","last_reported":1762157745,"current_range_meters":8800,"station_id":"ce501612rcd8frsf0b60","pricing_plan_id":"cebpf4jnsgd1na2vs0mg"},{"bike_id":"84f1bfac-8d21-499b-b8e1-fdc8049e10ac","system_id":"levelo_inurba_marseille","lat":43.312615,"lon":5.377671,"is_reserved":false,"is_disabled":false,"rental_uris":{"android":"levelo://app?vid=84f1bfac-8d21-499b-b8e1-fdc8049e10ac","ios":"levelo://app?vid=84f1bfac-8d21-499b-b8e1-fdc8049e10ac"},"vehicle_type_id":"4","last_reported":1762157745,"current_range_meters":8800,"station_id":"","pricing_plan_id":"cebpf4jnsgd1na2vs0mg"},{"bike_id":"721c632e-cb52-4d62-b0f4-f78059e85aec","system_id":"levelo_inurba_marseille","lat":43.24079,"lon":5.37734,"is_reserved":false,"is_disabled":false,"rental_uris":{"android":"levelo://app?vid=721c632e-cb52-4d62-b0f4-f78059e85aec","ios":"levelo://app?vid=721c632e-cb52-4d62-b0f4-f78059e85aec"},"vehicle_type_id":"4","last_reported":1762157745,"current_range_meters":8800,"station_id":"ce4bhnp2rcd13ifvqgvg","pricing_plan_id":"cebpf4jnsgd1na2vs0mg"},{"bike_id":"085804c7-4a54-49dd-a9ad-4a12bf3b9b02","system_id":"levelo_inurba_marseille","lat":43.25941,"lon":5.40907,"is_reserved":false,"is_disabled":false,"rental_uris":{"android":"levelo://app?vid=085804c7-4a54-49dd-a9ad-4a12bf3b9b02","ios":"levelo://app?vid=085804c7-4a54-49dd-a9ad-4a12bf3b9b02"},"vehicle_type_id":"4","last_reported":1762157745,"current_range_meters":8800,"station_id":"ce4bhm92rcd13ifvqglg","pricing_plan_id":"cebpf4jnsgd1na2vs0mg"},{"bike_id":"26451360-c1c8-464f-a7bf-bc2a31850d65","system_id":"levelo_inurba_marseille","lat":43.22534,"lon":5.34836,"is_reserved":false,"is_disabled":false,"rental_uris":{"android":"levelo://app?vid=26451360-c1c8-464f-a7bf-bc2a31850d65","ios":"levelo://app?vid=26451360-c1c8-464f-a7bf-bc2a31850d65"},"vehicle_type_id":"4","last_reported":1762157745,"current_range_meters":9200,"station_id":"","pricing_plan_id":"cebpf4jnsgd1na2vs0mg"},{"bike_id":"77679107-31f6-4769-888c-bfa8b6d2bccd","system_id":"levelo_inurba_marseille","lat":43.28859,"lon":5.42526,"is_reserved":false,"is_disabled":false,"rental_uris":{"android":"levelo://app?vid=77679107-31f6-4769-888c-bfa8b6d2bccd","ios":"levelo://app?vid=77679107-31f6-4769-888c-bfa8b6d2bccd"},"vehicle_type_id":"4","last_reported":1762157745,"current_range_meters":9200,"station_id":"st_d3b462108ojc7389ooeg","pricing_plan_id":"cebpf4jnsgd1na2vs0mg"},{"bike_id":"28547c8c-576f-4a41-96ea-6e9c6c5ce61a","system_id":"levelo_inurba_marseille","lat":43.26575,"lon":5.39004,"is_reserved":false,"is_disabled":false,"rental_uris":{"android":"levelo://app?vid=28547c8c-576f-4a41-96ea-6e9c6c5ce61a","ios":"levelo://app?vid=28547c8c-576f-4a41-96ea-6e9c6c5ce61a"},"vehicle_type_id":"4","last_reported":1762157745,"current_range_meters":9200,"station_id":"ce4bhe12rcd13ifvqf30","pricing_plan_id":"cebpf4jnsgd1na2vs0mg"},{"bike_id":"8adef542-af60-4b61-8a5b-4b604c3bcfe4","system_id":"levelo_inurba_marseille","lat":43.2463,"lon":5.43133,"is_reserved":false,"is_disabled":false,"rental_uris":{"android":"levelo://app?vid=8adef542-af60-4b61-8a5b-4b604c3bcfe4","ios":"levelo://app?vid=8adef542-af60-4b61-8a5b-4b604c3bcfe4"},"vehicle_type_id":"4","last_reported":1762157745,"current_range_meters":9200,"station_id":"st_d2m6c4gdas8pm72e190g","pricing_plan_id":"cebpf4jnsgd1na2vs0mg"},{"bike_id":"af79d3f1-ea9f-4c0b-9a2d-782b39386671","system_id":"levelo_inurba_marseille","lat":43.21754,"lon":5.34617,"is_reserved":false,"is_disabled":true,"rental_uris":{"android":"levelo://app?vid=af79d3f1-ea9f-4c0b-9a2d-782b39386671","ios":"levelo://app?vid=af79d3f1-ea9f-4c0b-9a2d-782b39386671"},"vehicle_type_id":"4","last_reported":1762157745,"current_range_meters":9200,"station_id":"st_cvj6r9ubvosntc0bgbag","pricing_plan_id":"cebpf4jnsgd1na2vs0mg"},{"bike_id":"806cc777-0c10-4f2f-b1d1-f523aaa01a63","system_id":"levelo_inurba_marseille","lat":43.2315,"lon":5.4372,"is_reserved":false,"is_disabled":false,"rental_uris":{"android":"levelo://app?vid=806cc777-0c10-4f2f-b1d1-f523aaa01a63","ios":"levelo://app?vid=806cc777-0c10-4f2f-b1d1-f523aaa01a63"},"vehicle_type_id":"4","last_reported":1762157745,"current_range_meters":9200,"station_id":"ce4bhmp2rcd13ifvqgog","pricing_plan_id":"cebpf4jnsgd1na2vs0mg"},{"bike_id":"d87e8435-a903-4228-b33e-bd6d66e6673b","system_id":"levelo_inurba_marseille","lat":43.24633,"lon":5.43145,"is_reserved":false,"is_disabled":false,"rental_uris":{"android":"levelo://app?vid=d87e8435-a903-4228-b33e-bd6d66e6673b","ios":"levelo://app?vid=d87e8435-a903-4228-b33e-bd6d66e6673b"},"vehicle_type_id":"4","last_reported":1762157745,"current_range_meters":9200,"station_id":"st_d2m6c4gdas8pm72e190g","pricing_plan_id":"cebpf4jnsgd1na2vs0mg"},{"bike_id":"ba541a52-7e4e-4241-9791-ae6f1fb03dcd","system_id":"levelo_inurba_marseille","lat":43.31991,"lon":5.41585,"is_reserved":false,"is_disabled":false,"rental_uris":{"android":"levelo://app?vid=ba541a52-7e4e-4241-9791-ae6f1fb03dcd","ios":"levelo://app?vid=ba541a52-7e4e-4241-9791-ae6f1fb03dcd"},"vehicle_type_id":"4","last_reported":1762157745,"current_range_meters":9200,"station_id":"","pricing_plan_id":"cebpf4jnsgd1na2vs0mg"},{"bike_id":"066ede02-47a2-4c83-bcb1-7eb633a370fb","system_id":"levelo_inurba_marseille","lat":43.312701,"lon":5.377619,"is_reserved":false,"is_disabled":false,"rental_uris":{"android":"levelo://app?vid=066ede02-47a2-4c83-bcb1-7eb633a370fb","ios":"levelo://app?vid=066ede02-47a2-4c83-bcb1-7eb633a370fb"},"vehicle_type_id":"4","last_reported":1762157745,"current_range_meters":9600,"station_id":"","pricing_plan_id":"cebpf4jnsgd1na2vs0mg"},{"bike_id":"ebf85bdb-1a2b-49af-a88d-03e90d4c31b8","system_id":"levelo_inurba_marseille","lat":43.23954,"lon":5.36634,"is_reserved":false,"is_disabled":true,"rental_uris":{"android":"levelo://app?vid=ebf85bdb-1a2b-49af-a88d-03e90d4c31b8","ios":"levelo://app?vid=ebf85bdb-1a2b-49af-a88d-03e90d4c31b8"},"vehicle_type_id":"4","last_reported":1762157745,"current_range_meters":9600,"station_id":"ce4bhi12rcd13ifvqfp0","pricing_plan_id":"cebpf4jnsgd1na2vs0mg"},{"bike_id":"786b9a33-20f6-4bf0-8d3a-182030c5e7e6","system_id":"levelo_inurba_marseille","lat":43.30903,"lon":5.36845,"is_reserved":false,"is_disabled":false,"rental_uris":{"android":"levelo://app?vid=786b9a33-20f6-4bf0-8d3a-182030c5e7e6","ios":"levelo://app?vid=786b9a33-20f6-4bf0-8d3a-182030c5e7e6"},"vehicle_type_id":"4","last_reported":1762157745,"current_range_meters":9600,"station_id":"ce4bgn92rcd13ifvqbvg","pricing_plan_id":"cebpf4jnsgd1na2vs0mg"},{"bike_id":"14b92a7a-0805-475a-abfd-8c979184b42b","system_id":"levelo_inurba_marseille","lat":43.30988,"lon":5.37043,"is_reserved":false,"is_disabled":false,"rental_uris":{"android":"levelo://app?vid=14b92a7a-0805-475a-abfd-8c979184b42b","ios":"levelo://app?vid=14b92a7a-0805-475a-abfd-8c979184b42b"},"vehicle_type_id":"4","last_reported":1762157745,"current_range_meters":9600,"station_id":"","pricing_plan_id":"cebpf4jnsgd1na2vs0mg"},{"bike_id":"7419db87-3322-4dfb-9891-f33725aac996","system_id":"levelo_inurba_marseille","lat":43.27069,"lon":5.42276,"is_reserved":false,"is_disabled":false,"rental_uris":{"android":"levelo://app?vid=7419db87-3322-4dfb-9891-f33725aac996","ios":"levelo://app?vid=7419db87-3322-4dfb-9891-f33725aac996"},"vehicle_type_id":"4","last_reported":1762157745,"current_range_meters":9600,"station_id":"ce4bhk92rcd13ifvqgb0","pricing_plan_id":"cebpf4jnsgd1na2vs0mg"},{"bike_id":"567fd588-76b7-4cf4-b858-6e547d095d11","system_id":"levelo_inurba_marseille","lat":43.25928,"lon":5.40911,"is_reserved":false,"is_disabled":false,"rental_uris":{"android":"levelo://app?vid=567fd588-76b7-4cf4-b858-6e547d095d11","ios":"levelo://app?vid=567fd588-76b7-4cf4-b858-6e547d095d11"},"vehicle_type_id":"4","last_reported":1762157745,"current_range_meters":9600,"station_id":"ce4bhm92rcd13ifvqglg","pricing_plan_id":"cebpf4jnsgd1na2vs0mg"},{"bike_id":"3a51dc3c-a0be-4b93-80bb-ba2978bccbb3","system_id":"levelo_inurba_marseille","lat":43.25935,"lon":5.40906,"is_reserved":false,"is_disabled":false,"rental_uris":{"android":"levelo://app?vid=3a51dc3c-a0be-4b93-80bb-ba2978bccbb3","ios":"levelo://app?vid=3a51dc3c-a0be-4b93-80bb-ba2978bccbb3"},"vehicle_type_id":"4","last_reported":1762157745,"current_range_meters":9600,"station_id":"ce4bhm92rcd13ifvqglg","pricing_plan_id":"cebpf4jnsgd1na2vs0mg"},{"bike_id":"bebae95e-1e51-4e89-9f8b-f413cb5a56ac","system_id":"levelo_inurba_marseille","lat":43.27368,"lon":5.36276,"is_reserved":false,"is_disabled":false,"rental_uris":{"android":"levelo://app?vid=bebae95e-1e51-4e89-9f8b-f413cb5a56ac","ios":"levelo://app?vid=bebae95e-1e51-4e89-9f8b-f413cb5a56ac"},"vehicle_type_id":"4","last_reported":1762157745,"current_range_meters":9600,"station_id":"ce4bhbh2rcd13ifvqeo0","pricing_plan_id":"cebpf4jnsgd1na2vs0mg"},{"bike_id":"e25f6f46-e710-44b8-a3bd-32e16af9cf13","system_id":"levelo_inurba_marseille","lat":43.30933,"lon":5.37202,"is_reserved":false,"is_disabled":false,"rental_uris":{"android":"levelo://app?vid=e25f6f46-e710-44b8-a3bd-32e16af9cf13","ios":"levelo://app?vid=e25f6f46-e710-44b8-a3bd-32e16af9cf13"},"vehicle_type_id":"4","last_reported":1762157745,"current_range_meters":9600,"station_id":"ce4bguh2rcd13ifvqckg","pricing_plan_id":"cebpf4jnsgd1na2vs0mg"},{"bike_id":"9a8800fa-24be-4848-a250-19e32415acb4","system_id":"levelo_inurba_marseille","lat":43.21204,"lon":5.35074,"is_reserved":false,"is_disabled":false,"rental_uris":{"android":"levelo://app?vid=9a8800fa-24be-4848-a250-19e32415acb4","ios":"levelo://app?vid=9a8800fa-24be-4848-a250-19e32415acb4"},"vehicle_type_id":"4","last_reported":1762157745,"current_range_meters":10000,"station_id":"st_cvj6sg6p6f1abm77japg","pricing_plan_id":"cebpf4jnsgd1na2vs0mg"},{"bike_id":"81a97519-5904-41c0-a8c7-eca9030d2094","system_id":"levelo_inurba_marseille","lat":43.25569,"lon":5.38247,"is_reserved":false,"is_disabled":false,"rental_uris":{"android":"levelo://app?vid=81a97519-5904-41c0-a8c7-eca9030d2094","ios":"levelo://app?vid=81a97519-5904-41c0-a8c7-eca9030d2094"},"vehicle_type_id":"4","last_reported":1762157745,"current_range_meters":10000,"station_id":"ce4bhih2rcd13ifvqfs0","pricing_plan_id":"cebpf4jnsgd1na2vs0mg"},{"bike_id":"668c1e7b-989b-4ccb-a79c-7d975718671f","system_id":"levelo_inurba_marseille","lat":43.26575,"lon":5.37297,"is_reserved":false,"is_disabled":false,"rental_uris":{"android":"levelo://app?vid=668c1e7b-989b-4ccb-a79c-7d975718671f","ios":"levelo://app?vid=668c1e7b-989b-4ccb-a79c-7d975718671f"},"vehicle_type_id":"4","last_reported":1762157745,"current_range_meters":10000,"station_id":"ce4bhg12rcd13ifvqf70","pricing_plan_id":"cebpf4jnsgd1na2vs0mg"},{"bike_id":"72b7d3ac-ab16-40a2-907e-1dcd4cfcddb9","system_id":"levelo_inurba_marseille","lat":43.27776,"lon":5.40656,"is_reserved":false,"is_disabled":false,"rental_uris":{"android":"levelo://app?vid=72b7d3ac-ab16-40a2-907e-1dcd4cfcddb9","ios":"levelo://app?vid=72b7d3ac-ab16-40a2-907e-1dcd4cfcddb9"},"vehicle_type_id":"4","last_reported":1762157745,"current_range_meters":10000,"station_id":"","pricing_plan_id":"cebpf4jnsgd1na2vs0mg"},{"bike_id":"c70443cc-5424-4af6-af97-f551049abf98","system_id":"levelo_inurba_marseille","lat":43.24392,"lon":5.37054,"is_reserved":false,"is_disabled":false,"rental_uris":{"android":"levelo://app?vid=c70443cc-5424-4af6-af97-f551049abf98","ios":"levelo://app?vid=c70443cc-5424-4af6-af97-f551049abf98"},"vehicle_type_id":"4","last_reported":1762157745,"current_range_meters":10000,"station_id":"ce4bhhh2rcd13ifvqfk0","pricing_plan_id":"cebpf4jnsgd1na2vs0mg"},{"bike_id":"c1912417-40da-4b26-af69-980f392dfd3f","system_id":"levelo_inurba_marseille","lat":43.29267,"lon":5.38451,"is_reserved":false,"is_disabled":false,"rental_uris":{"android":"levelo://app?vid=c1912417-40da-4b26-af69-980f392dfd3f","ios":"levelo://app?vid=c1912417-40da-4b26-af69-980f392dfd3f"},"vehicle_type_id":"4","last_reported":1762157745,"current_range_meters":10000,"station_id":"ce4bh692rcd13ifvqea0","pricing_plan_id":"cebpf4jnsgd1na2vs0mg"},{"bike_id":"2ff20ab9-b52b-4e51-beea-738711729e0e","system_id":"levelo_inurba_marseille","lat":43.2119,"lon":5.35074,"is_reserved":false,"is_disabled":false,"rental_uris":{"android":"levelo://app?vid=2ff20ab9-b52b-4e51-beea-738711729e0e","ios":"levelo://app?vid=2ff20ab9-b52b-4e51-beea-738711729e0e"},"vehicle_type_id":"4","last_reported":1762157745,"current_range_meters":10000,"station_id":"st_cvj6sg6p6f1abm77japg","pricing_plan_id":"cebpf4jnsgd1na2vs0mg"},{"bike_id":"4e440271-e188-46d2-b5ca-300fe9c5cf04","system_id":"levelo_inurba_marseille","lat":43.29851,"lon":5.36295,"is_reserved":false,"is_disabled":false,"rental_uris":{"android":"levelo://app?vid=4e440271-e188-46d2-b5ca-300fe9c5cf04","ios":"levelo://app?vid=4e440271-e188-46d2-b5ca-300fe9c5cf04"},"vehicle_type_id":"4","last_reported":1762157745,"current_range_meters":10000,"station_id":"ce4bgpp2rcd13ifvqc3g","pricing_plan_id":"cebpf4jnsgd1na2vs0mg"},{"bike_id":"23e1e3fb-2fe2-4757-b7e9-104a7defd0a7","system_id":"levelo_inurba_marseille","lat":43.24046,"lon":5.37769,"is_reserved":false,"is_disabled":false,"rental_uris":{"android":"levelo://app?vid=23e1e3fb-2fe2-4757-b7e9-104a7defd0a7","ios":"levelo://app?vid=23e1e3fb-2fe2-4757-b7e9-104a7defd0a7"},"vehicle_type_id":"4","last_reported":1762157745,"current_range_meters":10000,"station_id":"ce4bhnp2rcd13ifvqgvg","pricing_plan_id":"cebpf4jnsgd1na2vs0mg"},{"bike_id":"df58b4e5-38cc-41ba-8b5a-621a1b9239dc","system_id":"levelo_inurba_marseille","lat":43.28457,"lon":5.35891,"is_reserved":false,"is_disabled":false,"rental_uris":{"android":"levelo://app?vid=df58b4e5-38cc-41ba-8b5a-621a1b9239dc","ios":"levelo://app?vid=df58b4e5-38cc-41ba-8b5a-621a1b9239dc"},"vehicle_type_id":"4","last_reported":1762157745,"current_range_meters":10000,"station_id":"ce4bhah2rcd13ifvqei0","pricing_plan_id":"cebpf4jnsgd1na2vs0mg"},{"bike_id":"ccf27ce9-aa46-4b27-ac5a-f0a6c2b2deca","system_id":"levelo_inurba_marseille","lat":43.31231,"lon":5.36838,"is_reserved":false,"is_disabled":false,"rental_uris":{"android":"levelo://app?vid=ccf27ce9-aa46-4b27-ac5a-f0a6c2b2deca","ios":"levelo://app?vid=ccf27ce9-aa46-4b27-ac5a-f0a6c2b2deca"},"vehicle_type_id":"4","last_reported":1762157745,"current_range_meters":10800,"station_id":"ce4bgl92rcd13ifvqbq0","pricing_plan_id":"cebpf4jnsgd1na2vs0mg"},{"bike_id":"423802bb-722e-4533-9018-c0f75cce34a6","system_id":"levelo_inurba_marseille","lat":43.30662,"lon":5.38179,"is_reserved":false,"is_disabled":false,"rental_uris":{"android":"levelo://app?vid=423802bb-722e-4533-9018-c0f75cce34a6","ios":"levelo://app?vid=423802bb-722e-4533-9018-c0f75cce34a6"},"vehicle_type_id":"4","last_reported":1762157745,"current_range_meters":10800,"station_id":"","pricing_plan_id":"cebpf4jnsgd1na2vs0mg"},{"bike_id":"5bfc0a53-3678-442b-8bcd-954b3b39edbb","system_id":"levelo_inurba_marseille","lat":43.24073,"lon":5.377662,"is_reserved":false,"is_disabled":false,"rental_uris":{"android":"levelo://app?vid=5bfc0a53-3678-442b-8bcd-954b3b39edbb","ios":"levelo://app?vid=5bfc0a53-3678-442b-8bcd-954b3b39edbb"},"vehicle_type_id":"4","last_reported":1762157745,"current_range_meters":10800,"station_id":"ce4bhnp2rcd13ifvqgvg","pricing_plan_id":"cebpf4jnsgd1na2vs0mg"},{"bike_id":"3f947c23-ae34-4c1f-9a5e-d145a37c54c9","system_id":"levelo_inurba_marseille","lat":43.25336,"lon":5.42168,"is_reserved":false,"is_disabled":false,"rental_uris":{"android":"levelo://app?vid=3f947c23-ae34-4c1f-9a5e-d145a37c54c9","ios":"levelo://app?vid=3f947c23-ae34-4c1f-9a5e-d145a37c54c9"},"vehicle_type_id":"4","last_reported":1762157745,"current_range_meters":10800,"station_id":"st_d2m65c5bi1j21697t3ng","pricing_plan_id":"cebpf4jnsgd1na2vs0mg"},{"bike_id":"4fe88f25-9c82-4678-b7b4-42819f510084","system_id":"levelo_inurba_marseille","lat":43.29847,"lon":5.36271,"is_reserved":false,"is_disabled":false,"rental_uris":{"android":"levelo://app?vid=4fe88f25-9c82-4678-b7b4-42819f510084","ios":"levelo://app?vid=4fe88f25-9c82-4678-b7b4-42819f510084"},"vehicle_type_id":"4","last_reported":1762157745,"current_range_meters":10800,"station_id":"ce4bgpp2rcd13ifvqc3g","pricing_plan_id":"cebpf4jnsgd1na2vs0mg"},{"bike_id":"fe2272ea-7316-4280-b90c-d8c4db7bc73e","system_id":"levelo_inurba_marseille","lat":43.27951,"lon":5.39287,"is_reserved":false,"is_disabled":false,"rental_uris":{"android":"levelo://app?vid=fe2272ea-7316-4280-b90c-d8c4db7bc73e","ios":"levelo://app?vid=fe2272ea-7316-4280-b90c-d8c4db7bc73e"},"vehicle_type_id":"4","last_reported":1762157745,"current_range_meters":10800,"station_id":"","pricing_plan_id":"cebpf4jnsgd1na2vs0mg"},{"bike_id":"28d9a824-04c2-49bb-ba69-545403181689","system_id":"levelo_inurba_marseille","lat":43.29632,"lon":5.37166,"is_reserved":false,"is_disabled":false,"rental_uris":{"android":"levelo://app?vid=28d9a824-04c2-49bb-ba69-545403181689","ios":"levelo://app?vid=28d9a824-04c2-49bb-ba69-545403181689"},"vehicle_type_id":"4","last_reported":1762157745,"current_range_meters":10800,"station_id":"ce4bgnh2rcd13ifvqc0g","pricing_plan_id":"cebpf4jnsgd1na2vs0mg"},{"bike_id":"61a6a505-f092-4794-9aef-784bdf43c4c1","system_id":"levelo_inurba_marseille","lat":43.29261,"lon":5.38447,"is_reserved":false,"is_disabled":false,"rental_uris":{"android":"levelo://app?vid=61a6a505-f092-4794-9aef-784bdf43c4c1","ios":"levelo://app?vid=61a6a505-f092-4794-9aef-784bdf43c4c1"},"vehicle_type_id":"4","last_reported":1762157745,"current_range_meters":10800,"station_id":"ce4bh692rcd13ifvqea0","pricing_plan_id":"cebpf4jnsgd1na2vs0mg"},{"bike_id":"8188770b-a2b4-4147-bc97-7e371a28fe50","system_id":"levelo_inurba_marseille","lat":43.29367,"lon":5.37273,"is_reserved":false,"is_disabled":false,"rental_uris":{"android":"levelo://app?vid=8188770b-a2b4-4147-bc97-7e371a28fe50","ios":"levelo://app?vid=8188770b-a2b4-4147-bc97-7e371a28fe50"},"vehicle_type_id":"4","last_reported":1762157745,"current_range_meters":11200,"station_id":"ce4bgr92rcd13ifvqc6g","pricing_plan_id":"cebpf4jnsgd1na2vs0mg"},{"bike_id":"f557c786-2345-4ac4-a840-c1dcc726774f","system_id":"levelo_inurba_marseille","lat":43.31062,"lon":5.38348,"is_reserved":false,"is_disabled":true,"rental_uris":{"android":"levelo://app?vid=f557c786-2345-4ac4-a840-c1dcc726774f","ios":"levelo://app?vid=f557c786-2345-4ac4-a840-c1dcc726774f"},"vehicle_type_id":"4","last_reported":1762157745,"current_range_meters":11200,"station_id":"ce4bgv92rcd13ifvqcr0","pricing_plan_id":"cebpf4jnsgd1na2vs0mg"},{"bike_id":"314dcefd-13a2-43d4-a786-fbcaee9c7a33","system_id":"levelo_inurba_marseille","lat":43.259,"lon":5.40898,"is_reserved":false,"is_disabled":false,"rental_uris":{"android":"levelo://app?vid=314dcefd-13a2-43d4-a786-fbcaee9c7a33","ios":"levelo://app?vid=314dcefd-13a2-43d4-a786-fbcaee9c7a33"},"vehicle_type_id":"4","last_reported":1762157745,"current_range_meters":11200,"station_id":"ce4bhm92rcd13ifvqglg","pricing_plan_id":"cebpf4jnsgd1na2vs0mg"},{"bike_id":"56b63a7e-b9b0-40d0-8bb3-24abcb3893a9","system_id":"levelo_inurba_marseille","lat":43.29907,"lon":5.37483,"is_reserved":false,"is_disabled":false,"rental_uris":{"android":"levelo://app?vid=56b63a7e-b9b0-40d0-8bb3-24abcb3893a9","ios":"levelo://app?vid=56b63a7e-b9b0-40d0-8bb3-24abcb3893a9"},"vehicle_type_id":"4","last_reported":1762157745,"current_range_meters":11200,"station_id":"ce4bgjh2rcd13ifvqbg0","pricing_plan_id":"cebpf4jnsgd1na2vs0mg"},{"bike_id":"0b29fc28-1f0d-4d6c-b71f-627728651ef4","system_id":"levelo_inurba_marseille","lat":43.301347,"lon":5.387769,"is_reserved":false,"is_disabled":false,"rental_uris":{"android":"levelo://app?vid=0b29fc28-1f0d-4d6c-b71f-627728651ef4","ios":"levelo://app?vid=0b29fc28-1f0d-4d6c-b71f-627728651ef4"},"vehicle_type_id":"4","last_reported":1762157745,"current_range_meters":11600,"station_id":"ce4bghh2rcd13ifvqb60","pricing_plan_id":"cebpf4jnsgd1na2vs0mg"},{"bike_id":"0163419c-1679-45e1-9032-cce11e007e49","system_id":"levelo_inurba_marseille","lat":43.23156,"lon":5.43687,"is_reserved":false,"is_disabled":false,"rental_uris":{"android":"levelo://app?vid=0163419c-1679-45e1-9032-cce11e007e49","ios":"levelo://app?vid=0163419c-1679-45e1-9032-cce11e007e49"},"vehicle_type_id":"4","last_reported":1762157745,"current_range_meters":11600,"station_id":"ce4bhmp2rcd13ifvqgog","pricing_plan_id":"cebpf4jnsgd1na2vs0mg"},{"bike_id":"5a3b55bf-3980-4469-95ec-f32deb7bdad3","system_id":"levelo_inurba_marseille","lat":43.31418,"lon":5.39277,"is_reserved":false,"is_disabled":false,"rental_uris":{"android":"levelo://app?vid=5a3b55bf-3980-4469-95ec-f32deb7bdad3","ios":"levelo://app?vid=5a3b55bf-3980-4469-95ec-f32deb7bdad3"},"vehicle_type_id":"4","last_reported":1762157745,"current_range_meters":11600,"station_id":"","pricing_plan_id":"cebpf4jnsgd1na2vs0mg"},{"bike_id":"0ca46a2b-8aad-404c-b828-3c75693a6e60","system_id":"levelo_inurba_marseille","lat":43.32501,"lon":5.3656,"is_reserved":false,"is_disabled":false,"rental_uris":{"android":"levelo://app?vid=0ca46a2b-8aad-404c-b828-3c75693a6e60","ios":"levelo://app?vid=0ca46a2b-8aad-404c-b828-3c75693a6e60"},"vehicle_type_id":"4","last_reported":1762157745,"current_range_meters":11600,"station_id":"ce4bhs12rcd13ifvqhvg","pricing_plan_id":"cebpf4jnsgd1na2vs0mg"},{"bike_id":"aa88cf19-ef91-4b31-9de4-590009c185d9","system_id":"levelo_inurba_marseille","lat":43.292722,"lon":5.384329,"is_reserved":false,"is_disabled":false,"rental_uris":{"android":"levelo://app?vid=aa88cf19-ef91-4b31-9de4-590009c185d9","ios":"levelo://app?vid=aa88cf19-ef91-4b31-9de4-590009c185d9"},"vehicle_type_id":"4","last_reported":1762157745,"current_range_meters":11600,"station_id":"ce4bh692rcd13ifvqea0","pricing_plan_id":"cebpf4jnsgd1na2vs0mg"},{"bike_id":"0a54d18f-fe43-4be5-a009-461a89594788","system_id":"levelo_inurba_marseille","lat":43.28285,"lon":5.35057,"is_reserved":false,"is_disabled":true,"rental_uris":{"android":"levelo://app?vid=0a54d18f-fe43-4be5-a009-461a89594788","ios":"levelo://app?vid=0a54d18f-fe43-4be5-a009-461a89594788"},"vehicle_type_id":"4","last_reported":1762157745,"current_range_meters":12000,"station_id":"ce4bhbp2rcd13ifvqerg","pricing_plan_id":"cebpf4jnsgd1na2vs0mg"},{"bike_id":"357784e0-29d7-4db1-8724-5a66c8076e46","system_id":"levelo_inurba_marseille","lat":43.25576,"lon":5.382427,"is_reserved":false,"is_disabled":false,"rental_uris":{"android":"levelo://app?vid=357784e0-29d7-4db1-8724-5a66c8076e46","ios":"levelo://app?vid=357784e0-29d7-4db1-8724-5a66c8076e46"},"vehicle_type_id":"4","last_reported":1762157745,"current_range_meters":12000,"station_id":"ce4bhih2rcd13ifvqfs0","pricing_plan_id":"cebpf4jnsgd1na2vs0mg"},{"bike_id":"aef75ae5-d606-43b6-8ba5-d53a35c16de5","system_id":"levelo_inurba_marseille","lat":43.27419,"lon":5.39417,"is_reserved":false,"is_disabled":false,"rental_uris":{"android":"levelo://app?vid=aef75ae5-d606-43b6-8ba5-d53a35c16de5","ios":"levelo://app?vid=aef75ae5-d606-43b6-8ba5-d53a35c16de5"},"vehicle_type_id":"4","last_reported":1762157745,"current_range_meters":12000,"station_id":"ce4bhdp2rcd13ifvqf20","pricing_plan_id":"cebpf4jnsgd1na2vs0mg"},{"bike_id":"bbfaa054-3bde-4aa6-8d40-ce2fd793f9c3","system_id":"levelo_inurba_marseille","lat":43.241681,"lon":5.363998,"is_reserved":false,"is_disabled":true,"rental_uris":{"android":"levelo://app?vid=bbfaa054-3bde-4aa6-8d40-ce2fd793f9c3","ios":"levelo://app?vid=bbfaa054-3bde-4aa6-8d40-ce2fd793f9c3"},"vehicle_type_id":"4","last_reported":1762157745,"current_range_meters":12000,"station_id":"cpo36qri1sfpv3e86is0","pricing_plan_id":"cebpf4jnsgd1na2vs0mg"},{"bike_id":"a86e4117-515a-45fd-a9ae-9bf165d5c212","system_id":"levelo_inurba_marseille","lat":43.31286,"lon":5.37828,"is_reserved":false,"is_disabled":false,"rental_uris":{"android":"levelo://app?vid=a86e4117-515a-45fd-a9ae-9bf165d5c212","ios":"levelo://app?vid=a86e4117-515a-45fd-a9ae-9bf165d5c212"},"vehicle_type_id":"4","last_reported":1762157745,"current_range_meters":12000,"station_id":"","pricing_plan_id":"cebpf4jnsgd1na2vs0mg"},{"bike_id":"c5d53041-f905-4ecd-ba29-a7b64a51832a","system_id":"levelo_inurba_marseille","lat":43.289782,"lon":5.378341,"is_reserved":false,"is_disabled":false,"rental_uris":{"android":"levelo://app?vid=c5d53041-f905-4ecd-ba29-a7b64a51832a","ios":"levelo://app?vid=c5d53041-f905-4ecd-ba29-a7b64a51832a"},"vehicle_type_id":"4","last_reported":1762157745,"current_range_meters":12000,"station_id":"ce4bh9p2rcd13ifvqed0","pricing_plan_id":"cebpf4jnsgd1na2vs0mg"},{"bike_id":"6eb523a4-350d-4959-ac5e-1335d8f70954","system_id":"levelo_inurba_marseille","lat":43.315717,"lon":5.406423,"is_reserved":false,"is_disabled":false,"rental_uris":{"android":"levelo://app?vid=6eb523a4-350d-4959-ac5e-1335d8f70954","ios":"levelo://app?vid=6eb523a4-350d-4959-ac5e-1335d8f70954"},"vehicle_type_id":"4","last_reported":1762157745,"current_range_meters":12000,"station_id":"","pricing_plan_id":"cebpf4jnsgd1na2vs0mg"},{"bike_id":"9ee0ca18-2f71-4e87-8c60-48d7271e0e0a","system_id":"levelo_inurba_marseille","lat":43.29031,"lon":5.37567,"is_reserved":false,"is_disabled":false,"rental_uris":{"android":"levelo://app?vid=9ee0ca18-2f71-4e87-8c60-48d7271e0e0a","ios":"levelo://app?vid=9ee0ca18-2f71-4e87-8c60-48d7271e0e0a"},"vehicle_type_id":"4","last_reported":1762157745,"current_range_meters":12000,"station_id":"ce4bh692rcd13ifvqe90","pricing_plan_id":"cebpf4jnsgd1na2vs0mg"},{"bike_id":"31864a2b-bacb-4df0-9e44-4cd79833860f","system_id":"levelo_inurba_marseille","lat":43.29792,"lon":5.38116,"is_reserved":false,"is_disabled":false,"rental_uris":{"android":"levelo://app?vid=31864a2b-bacb-4df0-9e44-4cd79833860f","ios":"levelo://app?vid=31864a2b-bacb-4df0-9e44-4cd79833860f"},"vehicle_type_id":"4","last_reported":1762157745,"current_range_meters":12000,"station_id":"ce4bgip2rcd13ifvqbb0","pricing_plan_id":"cebpf4jnsgd1na2vs0mg"},{"bike_id":"5593c75f-c45e-45ed-9fae-e2676a986a0e","system_id":"levelo_inurba_marseille","lat":43.25933,"lon":5.40922,"is_reserved":false,"is_disabled":false,"rental_uris":{"android":"levelo://app?vid=5593c75f-c45e-45ed-9fae-e2676a986a0e","ios":"levelo://app?vid=5593c75f-c45e-45ed-9fae-e2676a986a0e"},"vehicle_type_id":"4","last_reported":1762157745,"current_range_meters":12400,"station_id":"ce4bhm92rcd13ifvqglg","pricing_plan_id":"cebpf4jnsgd1na2vs0mg"},{"bike_id":"d9493c75-f63c-4e3c-9735-e1df060fedd8","system_id":"levelo_inurba_marseille","lat":43.27967,"lon":5.38727,"is_reserved":false,"is_disabled":false,"rental_uris":{"android":"levelo://app?vid=d9493c75-f63c-4e3c-9735-e1df060fedd8","ios":"levelo://app?vid=d9493c75-f63c-4e3c-9735-e1df060fedd8"},"vehicle_type_id":"4","last_reported":1762157745,"current_range_meters":12400,"station_id":"ce4bhg12rcd13ifvqf80","pricing_plan_id":"cebpf4jnsgd1na2vs0mg"},{"bike_id":"d7420e2c-f073-4c34-8c4f-ea109e498c21","system_id":"levelo_inurba_marseille","lat":43.25938,"lon":5.40881,"is_reserved":false,"is_disabled":false,"rental_uris":{"android":"levelo://app?vid=d7420e2c-f073-4c34-8c4f-ea109e498c21","ios":"levelo://app?vid=d7420e2c-f073-4c34-8c4f-ea109e498c21"},"vehicle_type_id":"4","last_reported":1762157745,"current_range_meters":12400,"station_id":"ce4bhm92rcd13ifvqglg","pricing_plan_id":"cebpf4jnsgd1na2vs0mg"},{"bike_id":"e419722c-f733-4d7c-8bee-89e1642e91ec","system_id":"levelo_inurba_marseille","lat":43.313777,"lon":5.375831,"is_reserved":false,"is_disabled":false,"rental_uris":{"android":"levelo://app?vid=e419722c-f733-4d7c-8bee-89e1642e91ec","ios":"levelo://app?vid=e419722c-f733-4d7c-8bee-89e1642e91ec"},"vehicle_type_id":"4","last_reported":1762157745,"current_range_meters":12400,"station_id":"","pricing_plan_id":"cebpf4jnsgd1na2vs0mg"},{"bike_id":"b2514755-0f11-4833-b225-7d1f8289efa4","system_id":"levelo_inurba_marseille","lat":43.22939,"lon":5.35363,"is_reserved":false,"is_disabled":false,"rental_uris":{"android":"levelo://app?vid=b2514755-0f11-4833-b225-7d1f8289efa4","ios":"levelo://app?vid=b2514755-0f11-4833-b225-7d1f8289efa4"},"vehicle_type_id":"4","last_reported":1762157745,"current_range_meters":12400,"station_id":"cpo3532slgdg3j2ikp40","pricing_plan_id":"cebpf4jnsgd1na2vs0mg"},{"bike_id":"cb6c36c2-4646-44ee-b9d1-9f2d0dee0a1f","system_id":"levelo_inurba_marseille","lat":43.24088,"lon":5.37771,"is_reserved":false,"is_disabled":false,"rental_uris":{"android":"levelo://app?vid=cb6c36c2-4646-44ee-b9d1-9f2d0dee0a1f","ios":"levelo://app?vid=cb6c36c2-4646-44ee-b9d1-9f2d0dee0a1f"},"vehicle_type_id":"4","last_reported":1762157745,"current_range_meters":12400,"station_id":"ce4bhnp2rcd13ifvqgvg","pricing_plan_id":"cebpf4jnsgd1na2vs0mg"},{"bike_id":"ec1a2785-e623-4205-ae6b-d306b1402770","system_id":"levelo_inurba_marseille","lat":43.297587,"lon":5.427782,"is_reserved":false,"is_disabled":false,"rental_uris":{"android":"levelo://app?vid=ec1a2785-e623-4205-ae6b-d306b1402770","ios":"levelo://app?vid=ec1a2785-e623-4205-ae6b-d306b1402770"},"vehicle_type_id":"4","last_reported":1762157745,"current_range_meters":12400,"station_id":"ce4bhn12rcd13ifvqgqg","pricing_plan_id":"cebpf4jnsgd1na2vs0mg"},{"bike_id":"bd892b37-b9e3-4c40-a276-e0fc8291fdbb","system_id":"levelo_inurba_marseille","lat":43.27673,"lon":5.38878,"is_reserved":false,"is_disabled":false,"rental_uris":{"android":"levelo://app?vid=bd892b37-b9e3-4c40-a276-e0fc8291fdbb","ios":"levelo://app?vid=bd892b37-b9e3-4c40-a276-e0fc8291fdbb"},"vehicle_type_id":"4","last_reported":1762157745,"current_range_meters":12400,"station_id":"ce4bhi12rcd13ifvqfo0","pricing_plan_id":"cebpf4jnsgd1na2vs0mg"},{"bike_id":"05752604-98b5-4eca-b6d4-7951f7da6439","system_id":"levelo_inurba_marseille","lat":43.30916,"lon":5.3685,"is_reserved":false,"is_disabled":false,"rental_uris":{"android":"levelo://app?vid=05752604-98b5-4eca-b6d4-7951f7da6439","ios":"levelo://app?vid=05752604-98b5-4eca-b6d4-7951f7da6439"},"vehicle_type_id":"4","last_reported":1762157745,"current_range_meters":12800,"station_id":"ce4bgn92rcd13ifvqbvg","pricing_plan_id":"cebpf4jnsgd1na2vs0mg"},{"bike_id":"aa56963e-5f6a-4043-b1c7-23e4d9f05d8c","system_id":"levelo_inurba_marseille","lat":43.313499,"lon":5.379119,"is_reserved":false,"is_disabled":false,"rental_uris":{"android":"levelo://app?vid=aa56963e-5f6a-4043-b1c7-23e4d9f05d8c","ios":"levelo://app?vid=aa56963e-5f6a-4043-b1c7-23e4d9f05d8c"},"vehicle_type_id":"4","last_reported":1762157745,"current_range_meters":12800,"station_id":"","pricing_plan_id":"cebpf4jnsgd1na2vs0mg"},{"bike_id":"0878d4c6-6b1f-4d95-9084-8db9202ec85d","system_id":"levelo_inurba_marseille","lat":43.30138,"lon":5.37418,"is_reserved":false,"is_disabled":false,"rental_uris":{"android":"levelo://app?vid=0878d4c6-6b1f-4d95-9084-8db9202ec85d","ios":"levelo://app?vid=0878d4c6-6b1f-4d95-9084-8db9202ec85d"},"vehicle_type_id":"4","last_reported":1762157745,"current_range_meters":13600,"station_id":"ce4bgs92rcd13ifvqcc0","pricing_plan_id":"cebpf4jnsgd1na2vs0mg"},{"bike_id":"65959e76-2dec-43d3-b15c-b4e7433182fd","system_id":"levelo_inurba_marseille","lat":43.293631,"lon":5.371955,"is_reserved":false,"is_disabled":false,"rental_uris":{"android":"levelo://app?vid=65959e76-2dec-43d3-b15c-b4e7433182fd","ios":"levelo://app?vid=65959e76-2dec-43d3-b15c-b4e7433182fd"},"vehicle_type_id":"4","last_reported":1762157745,"current_range_meters":13600,"station_id":"","pricing_plan_id":"cebpf4jnsgd1na2vs0mg"},{"bike_id":"ef3051ac-87a4-400e-a432-5bfc2a83a3e3","system_id":"levelo_inurba_marseille","lat":43.32457,"lon":5.36602,"is_reserved":false,"is_disabled":false,"rental_uris":{"android":"levelo://app?vid=ef3051ac-87a4-400e-a432-5bfc2a83a3e3","ios":"levelo://app?vid=ef3051ac-87a4-400e-a432-5bfc2a83a3e3"},"vehicle_type_id":"4","last_reported":1762157745,"current_range_meters":13600,"station_id":"ce4bhs12rcd13ifvqhvg","pricing_plan_id":"cebpf4jnsgd1na2vs0mg"},{"bike_id":"b028a7b7-523b-439d-8e11-3c320950d782","system_id":"levelo_inurba_marseille","lat":43.30219,"lon":5.37667,"is_reserved":false,"is_disabled":false,"rental_uris":{"android":"levelo://app?vid=b028a7b7-523b-439d-8e11-3c320950d782","ios":"levelo://app?vid=b028a7b7-523b-439d-8e11-3c320950d782"},"vehicle_type_id":"4","last_reported":1762157745,"current_range_meters":13600,"station_id":"","pricing_plan_id":"cebpf4jnsgd1na2vs0mg"},{"bike_id":"f10c1fd0-819c-4bcb-a779-837cb537741a","system_id":"levelo_inurba_marseille","lat":43.29486,"lon":5.37466,"is_reserved":false,"is_disabled":false,"rental_uris":{"android":"levelo://app?vid=f10c1fd0-819c-4bcb-a779-837cb537741a","ios":"levelo://app?vid=f10c1fd0-819c-4bcb-a779-837cb537741a"},"vehicle_type_id":"4","last_reported":1762157745,"current_range_meters":13600,"station_id":"","pricing_plan_id":"cebpf4jnsgd1na2vs0mg"},{"bike_id":"d94fe113-ed87-4d14-803b-e09546003d5b","system_id":"levelo_inurba_marseille","lat":43.33602,"lon":5.410315,"is_reserved":false,"is_disabled":false,"rental_uris":{"android":"levelo://app?vid=d94fe113-ed87-4d14-803b-e09546003d5b","ios":"levelo://app?vid=d94fe113-ed87-4d14-803b-e09546003d5b"},"vehicle_type_id":"4","last_reported":1762157745,"current_range_meters":14000,"station_id":"","pricing_plan_id":"cebpf4jnsgd1na2vs0mg"},{"bike_id":"eb37c568-c2ee-4632-9af3-8a2aea623250","system_id":"levelo_inurba_marseille","lat":43.24806,"lon":5.37456,"is_reserved":false,"is_disabled":false,"rental_uris":{"android":"levelo://app?vid=eb37c568-c2ee-4632-9af3-8a2aea623250","ios":"levelo://app?vid=eb37c568-c2ee-4632-9af3-8a2aea623250"},"vehicle_type_id":"4","last_reported":1762157745,"current_range_meters":14000,"station_id":"ce4bhgh2rcd13ifvqfb0","pricing_plan_id":"cebpf4jnsgd1na2vs0mg"},{"bike_id":"85a35f22-a194-4927-a76c-4d4622f0c942","system_id":"levelo_inurba_marseille","lat":43.26677,"lon":5.38271,"is_reserved":false,"is_disabled":false,"rental_uris":{"android":"levelo://app?vid=85a35f22-a194-4927-a76c-4d4622f0c942","ios":"levelo://app?vid=85a35f22-a194-4927-a76c-4d4622f0c942"},"vehicle_type_id":"4","last_reported":1762157745,"current_range_meters":14000,"station_id":"ce4bhg92rcd13ifvqf90","pricing_plan_id":"cebpf4jnsgd1na2vs0mg"},{"bike_id":"fa26f30c-f4d8-4ef3-973f-f6b6f33bca8a","system_id":"levelo_inurba_marseille","lat":43.32993,"lon":5.40395,"is_reserved":false,"is_disabled":false,"rental_uris":{"android":"levelo://app?vid=fa26f30c-f4d8-4ef3-973f-f6b6f33bca8a","ios":"levelo://app?vid=fa26f30c-f4d8-4ef3-973f-f6b6f33bca8a"},"vehicle_type_id":"4","last_reported":1762157745,"current_range_meters":14000,"station_id":"","pricing_plan_id":"cebpf4jnsgd1na2vs0mg"},{"bike_id":"9ca5965b-2a3a-4189-abf9-c2f3f99e1969","system_id":"levelo_inurba_marseille","lat":43.292688,"lon":5.384393,"is_reserved":false,"is_disabled":false,"rental_uris":{"android":"levelo://app?vid=9ca5965b-2a3a-4189-abf9-c2f3f99e1969","ios":"levelo://app?vid=9ca5965b-2a3a-4189-abf9-c2f3f99e1969"},"vehicle_type_id":"4","last_reported":1762157745,"current_range_meters":14400,"station_id":"","pricing_plan_id":"cebpf4jnsgd1na2vs0mg"},{"bike_id":"8f7d7dd3-6094-4701-8c39-c8f400746822","system_id":"levelo_inurba_marseille","lat":43.25937,"lon":5.40908,"is_reserved":false,"is_disabled":false,"rental_uris":{"android":"levelo://app?vid=8f7d7dd3-6094-4701-8c39-c8f400746822","ios":"levelo://app?vid=8f7d7dd3-6094-4701-8c39-c8f400746822"},"vehicle_type_id":"4","last_reported":1762157745,"current_range_meters":14400,"station_id":"ce4bhm92rcd13ifvqglg","pricing_plan_id":"cebpf4jnsgd1na2vs0mg"},{"bike_id":"2457a6da-e737-4e7a-9c85-e9723cf378b9","system_id":"levelo_inurba_marseille","lat":43.27205,"lon":5.40974,"is_reserved":false,"is_disabled":false,"rental_uris":{"android":"levelo://app?vid=2457a6da-e737-4e7a-9c85-e9723cf378b9","ios":"levelo://app?vid=2457a6da-e737-4e7a-9c85-e9723cf378b9"},"vehicle_type_id":"4","last_reported":1762157745,"current_range_meters":14400,"station_id":"ce4bhl12rcd13ifvqgf0","pricing_plan_id":"cebpf4jnsgd1na2vs0mg"},{"bike_id":"f1afc2c2-f9f8-4a21-87ca-f2b6babebdd0","system_id":"levelo_inurba_marseille","lat":43.255772,"lon":5.382333,"is_reserved":false,"is_disabled":false,"rental_uris":{"android":"levelo://app?vid=f1afc2c2-f9f8-4a21-87ca-f2b6babebdd0","ios":"levelo://app?vid=f1afc2c2-f9f8-4a21-87ca-f2b6babebdd0"},"vehicle_type_id":"4","last_reported":1762157745,"current_range_meters":14400,"station_id":"ce4bhih2rcd13ifvqfs0","pricing_plan_id":"cebpf4jnsgd1na2vs0mg"},{"bike_id":"7f4ea1c9-e771-489a-82b2-fae7d0c0a729","system_id":"levelo_inurba_marseille","lat":43.29786,"lon":5.39352,"is_reserved":false,"is_disabled":true,"rental_uris":{"android":"levelo://app?vid=7f4ea1c9-e771-489a-82b2-fae7d0c0a729","ios":"levelo://app?vid=7f4ea1c9-e771-489a-82b2-fae7d0c0a729"},"vehicle_type_id":"4","last_reported":1762157745,"current_range_meters":14400,"station_id":"chh1huq6cuj3fo74tm60","pricing_plan_id":"cebpf4jnsgd1na2vs0mg"},{"bike_id":"1b1e71cc-c221-4e91-89c8-2d987f944d9c","system_id":"levelo_inurba_marseille","lat":43.2416,"lon":5.3641,"is_reserved":false,"is_disabled":true,"rental_uris":{"android":"levelo://app?vid=1b1e71cc-c221-4e91-89c8-2d987f944d9c","ios":"levelo://app?vid=1b1e71cc-c221-4e91-89c8-2d987f944d9c"},"vehicle_type_id":"4","last_reported":1762157745,"current_range_meters":14400,"station_id":"cpo36qri1sfpv3e86is0","pricing_plan_id":"cebpf4jnsgd1na2vs0mg"},{"bike_id":"06193922-fdf4-438d-bc7c-945799a56899","system_id":"levelo_inurba_marseille","lat":43.23155,"lon":5.43713,"is_reserved":false,"is_disabled":false,"rental_uris":{"android":"levelo://app?vid=06193922-fdf4-438d-bc7c-945799a56899","ios":"levelo://app?vid=06193922-fdf4-438d-bc7c-945799a56899"},"vehicle_type_id":"4","last_reported":1762157745,"current_range_meters":14400,"station_id":"ce4bhmp2rcd13ifvqgog","pricing_plan_id":"cebpf4jnsgd1na2vs0mg"},{"bike_id":"32d4a401-7eac-4706-9e22-d4c2a7e55b17","system_id":"levelo_inurba_marseille","lat":43.24638,"lon":5.43157,"is_reserved":false,"is_disabled":false,"rental_uris":{"android":"levelo://app?vid=32d4a401-7eac-4706-9e22-d4c2a7e55b17","ios":"levelo://app?vid=32d4a401-7eac-4706-9e22-d4c2a7e55b17"},"vehicle_type_id":"4","last_reported":1762157745,"current_range_meters":14800,"station_id":"st_d2m6c4gdas8pm72e190g","pricing_plan_id":"cebpf4jnsgd1na2vs0mg"},{"bike_id":"25b8b9c6-92a5-43d3-8767-0700e7c7de1c","system_id":"levelo_inurba_marseille","lat":43.3375,"lon":5.37467,"is_reserved":false,"is_disabled":false,"rental_uris":{"android":"levelo://app?vid=25b8b9c6-92a5-43d3-8767-0700e7c7de1c","ios":"levelo://app?vid=25b8b9c6-92a5-43d3-8767-0700e7c7de1c"},"vehicle_type_id":"4","last_reported":1762157745,"current_range_meters":14800,"station_id":"","pricing_plan_id":"cebpf4jnsgd1na2vs0mg"},{"bike_id":"0d2f4678-206b-466b-b246-81e90c39c925","system_id":"levelo_inurba_marseille","lat":43.28537,"lon":5.44111,"is_reserved":false,"is_disabled":true,"rental_uris":{"android":"levelo://app?vid=0d2f4678-206b-466b-b246-81e90c39c925","ios":"levelo://app?vid=0d2f4678-206b-466b-b246-81e90c39c925"},"vehicle_type_id":"4","last_reported":1762157745,"current_range_meters":14800,"station_id":"st_d3j3df2ikq2c7380ej80","pricing_plan_id":"cebpf4jnsgd1na2vs0mg"},{"bike_id":"054e5513-a18a-4fec-bab2-96a168188b7d","system_id":"levelo_inurba_marseille","lat":43.31178,"lon":5.3737,"is_reserved":false,"is_disabled":false,"rental_uris":{"android":"levelo://app?vid=054e5513-a18a-4fec-bab2-96a168188b7d","ios":"levelo://app?vid=054e5513-a18a-4fec-bab2-96a168188b7d"},"vehicle_type_id":"4","last_reported":1762157745,"current_range_meters":14800,"station_id":"","pricing_plan_id":"cebpf4jnsgd1na2vs0mg"},{"bike_id":"5b87ccf0-397d-4e8a-b61e-603b12ebe670","system_id":"levelo_inurba_marseille","lat":43.25725,"lon":5.41115,"is_reserved":false,"is_disabled":false,"rental_uris":{"android":"levelo://app?vid=5b87ccf0-397d-4e8a-b61e-603b12ebe670","ios":"levelo://app?vid=5b87ccf0-397d-4e8a-b61e-603b12ebe670"},"vehicle_type_id":"4","last_reported":1762157745,"current_range_meters":14800,"station_id":"ce4bhkp2rcd13ifvqgd0","pricing_plan_id":"cebpf4jnsgd1na2vs0mg"},{"bike_id":"5a96cc8c-7aea-4f8c-941f-8c7122bd9517","system_id":"levelo_inurba_marseille","lat":43.284778,"lon":5.483896,"is_reserved":false,"is_disabled":false,"rental_uris":{"android":"levelo://app?vid=5a96cc8c-7aea-4f8c-941f-8c7122bd9517","ios":"levelo://app?vid=5a96cc8c-7aea-4f8c-941f-8c7122bd9517"},"vehicle_type_id":"4","last_reported":1762157745,"current_range_meters":15200,"station_id":"","pricing_plan_id":"cebpf4jnsgd1na2vs0mg"},{"bike_id":"4c4b8bcf-4ef8-4551-8b0c-0892f8af6559","system_id":"levelo_inurba_marseille","lat":43.22561,"lon":5.41623,"is_reserved":false,"is_disabled":false,"rental_uris":{"android":"levelo://app?vid=4c4b8bcf-4ef8-4551-8b0c-0892f8af6559","ios":"levelo://app?vid=4c4b8bcf-4ef8-4551-8b0c-0892f8af6559"},"vehicle_type_id":"4","last_reported":1762157745,"current_range_meters":15200,"station_id":"st_d2o4gvlbi1j2169b742g","pricing_plan_id":"cebpf4jnsgd1na2vs0mg"},{"bike_id":"94fe637d-8c0a-4043-97bc-5ae6d09c4f72","system_id":"levelo_inurba_marseille","lat":43.30555,"lon":5.36564,"is_reserved":false,"is_disabled":false,"rental_uris":{"android":"levelo://app?vid=94fe637d-8c0a-4043-97bc-5ae6d09c4f72","ios":"levelo://app?vid=94fe637d-8c0a-4043-97bc-5ae6d09c4f72"},"vehicle_type_id":"4","last_reported":1762157745,"current_range_meters":15200,"station_id":"ce4bgs12rcd13ifvqcag","pricing_plan_id":"cebpf4jnsgd1na2vs0mg"},{"bike_id":"88a37c3f-2822-4e65-9019-f92712cd5915","system_id":"levelo_inurba_marseille","lat":43.212,"lon":5.35082,"is_reserved":false,"is_disabled":true,"rental_uris":{"android":"levelo://app?vid=88a37c3f-2822-4e65-9019-f92712cd5915","ios":"levelo://app?vid=88a37c3f-2822-4e65-9019-f92712cd5915"},"vehicle_type_id":"4","last_reported":1762157745,"current_range_meters":15200,"station_id":"st_cvj6sg6p6f1abm77japg","pricing_plan_id":"cebpf4jnsgd1na2vs0mg"},{"bike_id":"e76b87a5-9393-4b07-847a-8fd9996dc2c1","system_id":"levelo_inurba_marseille","lat":43.27495,"lon":5.42459,"is_reserved":false,"is_disabled":false,"rental_uris":{"android":"levelo://app?vid=e76b87a5-9393-4b07-847a-8fd9996dc2c1","ios":"levelo://app?vid=e76b87a5-9393-4b07-847a-8fd9996dc2c1"},"vehicle_type_id":"4","last_reported":1762157745,"current_range_meters":15200,"station_id":"ce4bhn92rcd13ifvqgrg","pricing_plan_id":"cebpf4jnsgd1na2vs0mg"},{"bike_id":"2f70dd19-728d-424d-ba26-5fe3ad50c685","system_id":"levelo_inurba_marseille","lat":43.25934,"lon":5.40919,"is_reserved":false,"is_disabled":false,"rental_uris":{"android":"levelo://app?vid=2f70dd19-728d-424d-ba26-5fe3ad50c685","ios":"levelo://app?vid=2f70dd19-728d-424d-ba26-5fe3ad50c685"},"vehicle_type_id":"4","last_reported":1762157745,"current_range_meters":15200,"station_id":"ce4bhm92rcd13ifvqglg","pricing_plan_id":"cebpf4jnsgd1na2vs0mg"},{"bike_id":"f64d03a0-c2a7-48f7-8f54-d388d015c7b9","system_id":"levelo_inurba_marseille","lat":43.23152,"lon":5.43728,"is_reserved":false,"is_disabled":false,"rental_uris":{"android":"levelo://app?vid=f64d03a0-c2a7-48f7-8f54-d388d015c7b9","ios":"levelo://app?vid=f64d03a0-c2a7-48f7-8f54-d388d015c7b9"},"vehicle_type_id":"4","last_reported":1762157745,"current_range_meters":15200,"station_id":"ce4bhmp2rcd13ifvqgog","pricing_plan_id":"cebpf4jnsgd1na2vs0mg"},{"bike_id":"979d7da6-2e1f-40a0-8799-0a03f2af1b76","system_id":"levelo_inurba_marseille","lat":43.29031,"lon":5.38127,"is_reserved":false,"is_disabled":true,"rental_uris":{"android":"levelo://app?vid=979d7da6-2e1f-40a0-8799-0a03f2af1b76","ios":"levelo://app?vid=979d7da6-2e1f-40a0-8799-0a03f2af1b76"},"vehicle_type_id":"4","last_reported":1762157745,"current_range_meters":16000,"station_id":"ce4bh4p2rcd13ifvqe1g","pricing_plan_id":"cebpf4jnsgd1na2vs0mg"},{"bike_id":"aad6a064-c048-4ba9-a156-1745b89548aa","system_id":"levelo_inurba_marseille","lat":43.28314,"lon":5.41097,"is_reserved":false,"is_disabled":false,"rental_uris":{"android":"levelo://app?vid=aad6a064-c048-4ba9-a156-1745b89548aa","ios":"levelo://app?vid=aad6a064-c048-4ba9-a156-1745b89548aa"},"vehicle_type_id":"4","last_reported":1762157745,"current_range_meters":16000,"station_id":"","pricing_plan_id":"cebpf4jnsgd1na2vs0mg"},{"bike_id":"ac2f2e0c-7f3a-4615-95a9-755ddbeafcff","system_id":"levelo_inurba_marseille","lat":43.27381,"lon":5.36262,"is_reserved":false,"is_disabled":true,"rental_uris":{"android":"levelo://app?vid=ac2f2e0c-7f3a-4615-95a9-755ddbeafcff","ios":"levelo://app?vid=ac2f2e0c-7f3a-4615-95a9-755ddbeafcff"},"vehicle_type_id":"4","last_reported":1762157745,"current_range_meters":16000,"station_id":"ce4bhbh2rcd13ifvqeo0","pricing_plan_id":"cebpf4jnsgd1na2vs0mg"},{"bike_id":"8cd698bd-6888-46ab-9c53-8aa2cfb0b689","system_id":"levelo_inurba_marseille","lat":43.24073,"lon":5.37763,"is_reserved":false,"is_disabled":false,"rental_uris":{"android":"levelo://app?vid=8cd698bd-6888-46ab-9c53-8aa2cfb0b689","ios":"levelo://app?vid=8cd698bd-6888-46ab-9c53-8aa2cfb0b689"},"vehicle_type_id":"4","last_reported":1762157745,"current_range_meters":16000,"station_id":"ce4bhnp2rcd13ifvqgvg","pricing_plan_id":"cebpf4jnsgd1na2vs0mg"},{"bike_id":"d1b7e294-8ae6-48ef-89d0-e05e23f9f8e0","system_id":"levelo_inurba_marseille","lat":43.2954,"lon":5.36121,"is_reserved":false,"is_disabled":true,"rental_uris":{"android":"levelo://app?vid=d1b7e294-8ae6-48ef-89d0-e05e23f9f8e0","ios":"levelo://app?vid=d1b7e294-8ae6-48ef-89d0-e05e23f9f8e0"},"vehicle_type_id":"4","last_reported":1762157745,"current_range_meters":16000,"station_id":"","pricing_plan_id":"cebpf4jnsgd1na2vs0mg"},{"bike_id":"03518348-a473-43a5-aebe-4dbf2f87920e","system_id":"levelo_inurba_marseille","lat":43.2848,"lon":5.3789,"is_reserved":false,"is_disabled":false,"rental_uris":{"android":"levelo://app?vid=03518348-a473-43a5-aebe-4dbf2f87920e","ios":"levelo://app?vid=03518348-a473-43a5-aebe-4dbf2f87920e"},"vehicle_type_id":"4","last_reported":1762157745,"current_range_meters":16000,"station_id":"","pricing_plan_id":"cebpf4jnsgd1na2vs0mg"},{"bike_id":"7047db8e-fbeb-4a57-8651-83ac429dbc8e","system_id":"levelo_inurba_marseille","lat":43.25939,"lon":5.40888,"is_reserved":false,"is_disabled":false,"rental_uris":{"android":"levelo://app?vid=7047db8e-fbeb-4a57-8651-83ac429dbc8e","ios":"levelo://app?vid=7047db8e-fbeb-4a57-8651-83ac429dbc8e"},"vehicle_type_id":"4","last_reported":1762157745,"current_range_meters":16000,"station_id":"ce4bhm92rcd13ifvqglg","pricing_plan_id":"cebpf4jnsgd1na2vs0mg"},{"bike_id":"a8ec203b-d616-4825-acb4-ec9a8037e9f2","system_id":"levelo_inurba_marseille","lat":43.2815,"lon":5.38319,"is_reserved":false,"is_disabled":false,"rental_uris":{"android":"levelo://app?vid=a8ec203b-d616-4825-acb4-ec9a8037e9f2","ios":"levelo://app?vid=a8ec203b-d616-4825-acb4-ec9a8037e9f2"},"vehicle_type_id":"4","last_reported":1762157745,"current_range_meters":16000,"station_id":"","pricing_plan_id":"cebpf4jnsgd1na2vs0mg"},{"bike_id":"c37decea-906a-43ca-8450-8ed6fad0917a","system_id":"levelo_inurba_marseille","lat":43.21759,"lon":5.34624,"is_reserved":false,"is_disabled":false,"rental_uris":{"android":"levelo://app?vid=c37decea-906a-43ca-8450-8ed6fad0917a","ios":"levelo://app?vid=c37decea-906a-43ca-8450-8ed6fad0917a"},"vehicle_type_id":"4","last_reported":1762157745,"current_range_meters":16400,"station_id":"","pricing_plan_id":"cebpf4jnsgd1na2vs0mg"},{"bike_id":"5eee67bb-3614-4f3b-ab22-554d031d3012","system_id":"levelo_inurba_marseille","lat":43.25723,"lon":5.41129,"is_reserved":false,"is_disabled":false,"rental_uris":{"android":"levelo://app?vid=5eee67bb-3614-4f3b-ab22-554d031d3012","ios":"levelo://app?vid=5eee67bb-3614-4f3b-ab22-554d031d3012"},"vehicle_type_id":"4","last_reported":1762157745,"current_range_meters":16400,"station_id":"ce4bhkp2rcd13ifvqgd0","pricing_plan_id":"cebpf4jnsgd1na2vs0mg"},{"bike_id":"145adec1-02ad-4d16-a5dd-42bf80721343","system_id":"levelo_inurba_marseille","lat":43.301297,"lon":5.3844,"is_reserved":false,"is_disabled":false,"rental_uris":{"android":"levelo://app?vid=145adec1-02ad-4d16-a5dd-42bf80721343","ios":"levelo://app?vid=145adec1-02ad-4d16-a5dd-42bf80721343"},"vehicle_type_id":"4","last_reported":1762157745,"current_range_meters":16400,"station_id":"","pricing_plan_id":"cebpf4jnsgd1na2vs0mg"},{"bike_id":"ac6602cc-4379-4a6f-9fe7-e4349e7e218d","system_id":"levelo_inurba_marseille","lat":43.30884,"lon":5.39652,"is_reserved":false,"is_disabled":false,"rental_uris":{"android":"levelo://app?vid=ac6602cc-4379-4a6f-9fe7-e4349e7e218d","ios":"levelo://app?vid=ac6602cc-4379-4a6f-9fe7-e4349e7e218d"},"vehicle_type_id":"4","last_reported":1762157745,"current_range_meters":16400,"station_id":"ce4bh012rcd13ifvqcv0","pricing_plan_id":"cebpf4jnsgd1na2vs0mg"},{"bike_id":"4316ebb6-af9e-414e-ba87-072103d4da75","system_id":"levelo_inurba_marseille","lat":43.335153,"lon":5.397537,"is_reserved":false,"is_disabled":false,"rental_uris":{"android":"levelo://app?vid=4316ebb6-af9e-414e-ba87-072103d4da75","ios":"levelo://app?vid=4316ebb6-af9e-414e-ba87-072103d4da75"},"vehicle_type_id":"4","last_reported":1762157745,"current_range_meters":16400,"station_id":"","pricing_plan_id":"cebpf4jnsgd1na2vs0mg"},{"bike_id":"0b0c3ccd-c9f7-42c0-aa5e-7e6469ec820c","system_id":"levelo_inurba_marseille","lat":43.25497,"lon":5.37652,"is_reserved":false,"is_disabled":false,"rental_uris":{"android":"levelo://app?vid=0b0c3ccd-c9f7-42c0-aa5e-7e6469ec820c","ios":"levelo://app?vid=0b0c3ccd-c9f7-42c0-aa5e-7e6469ec820c"},"vehicle_type_id":"4","last_reported":1762157745,"current_range_meters":16400,"station_id":"ce4bhh12rcd13ifvqff0","pricing_plan_id":"cebpf4jnsgd1na2vs0mg"},{"bike_id":"dfafc353-61c4-40ae-835b-c3799534af4a","system_id":"levelo_inurba_marseille","lat":43.29548,"lon":5.37531,"is_reserved":false,"is_disabled":true,"rental_uris":{"android":"levelo://app?vid=dfafc353-61c4-40ae-835b-c3799534af4a","ios":"levelo://app?vid=dfafc353-61c4-40ae-835b-c3799534af4a"},"vehicle_type_id":"4","last_reported":1762157745,"current_range_meters":16400,"station_id":"ce4bgh92rcd13ifvqb50","pricing_plan_id":"cebpf4jnsgd1na2vs0mg"},{"bike_id":"036d1e27-6e5e-4605-a4f0-1182d192479e","system_id":"levelo_inurba_marseille","lat":43.24081,"lon":5.37739,"is_reserved":false,"is_disabled":false,"rental_uris":{"android":"levelo://app?vid=036d1e27-6e5e-4605-a4f0-1182d192479e","ios":"levelo://app?vid=036d1e27-6e5e-4605-a4f0-1182d192479e"},"vehicle_type_id":"4","last_reported":1762157745,"current_range_meters":16400,"station_id":"ce4bhnp2rcd13ifvqgvg","pricing_plan_id":"cebpf4jnsgd1na2vs0mg"},{"bike_id":"7aef1029-9880-4ac1-bc62-5df1ae769dad","system_id":"levelo_inurba_marseille","lat":43.31011,"lon":5.36965,"is_reserved":false,"is_disabled":false,"rental_uris":{"android":"levelo://app?vid=7aef1029-9880-4ac1-bc62-5df1ae769dad","ios":"levelo://app?vid=7aef1029-9880-4ac1-bc62-5df1ae769dad"},"vehicle_type_id":"4","last_reported":1762157745,"current_range_meters":16400,"station_id":"","pricing_plan_id":"cebpf4jnsgd1na2vs0mg"},{"bike_id":"033952ba-57e8-46da-b3d7-527acc337bb5","system_id":"levelo_inurba_marseille","lat":43.24073,"lon":5.37761,"is_reserved":false,"is_disabled":false,"rental_uris":{"android":"levelo://app?vid=033952ba-57e8-46da-b3d7-527acc337bb5","ios":"levelo://app?vid=033952ba-57e8-46da-b3d7-527acc337bb5"},"vehicle_type_id":"4","last_reported":1762157745,"current_range_meters":16800,"station_id":"ce4bhnp2rcd13ifvqgvg","pricing_plan_id":"cebpf4jnsgd1na2vs0mg"},{"bike_id":"782a02c9-f51b-4b61-89b2-ec2ecf7d0e40","system_id":"levelo_inurba_marseille","lat":43.24964,"lon":5.40482,"is_reserved":false,"is_disabled":false,"rental_uris":{"android":"levelo://app?vid=782a02c9-f51b-4b61-89b2-ec2ecf7d0e40","ios":"levelo://app?vid=782a02c9-f51b-4b61-89b2-ec2ecf7d0e40"},"vehicle_type_id":"4","last_reported":1762157745,"current_range_meters":16800,"station_id":"st_d2ngiaodas8pm72gd1h0","pricing_plan_id":"cebpf4jnsgd1na2vs0mg"},{"bike_id":"5eb9db26-abf8-4b3a-a40c-77af04cc957e","system_id":"levelo_inurba_marseille","lat":43.24159,"lon":5.36393,"is_reserved":false,"is_disabled":false,"rental_uris":{"android":"levelo://app?vid=5eb9db26-abf8-4b3a-a40c-77af04cc957e","ios":"levelo://app?vid=5eb9db26-abf8-4b3a-a40c-77af04cc957e"},"vehicle_type_id":"4","last_reported":1762157745,"current_range_meters":16800,"station_id":"cpo36qri1sfpv3e86is0","pricing_plan_id":"cebpf4jnsgd1na2vs0mg"},{"bike_id":"1d9523b9-fa83-4b58-b433-2b486a0aeb42","system_id":"levelo_inurba_marseille","lat":43.32474,"lon":5.3658,"is_reserved":false,"is_disabled":false,"rental_uris":{"android":"levelo://app?vid=1d9523b9-fa83-4b58-b433-2b486a0aeb42","ios":"levelo://app?vid=1d9523b9-fa83-4b58-b433-2b486a0aeb42"},"vehicle_type_id":"4","last_reported":1762157745,"current_range_meters":16800,"station_id":"ce4bhs12rcd13ifvqhvg","pricing_plan_id":"cebpf4jnsgd1na2vs0mg"},{"bike_id":"7697f83b-11c1-4978-89f1-e9d9aca50ac7","system_id":"levelo_inurba_marseille","lat":43.246763,"lon":5.381874,"is_reserved":false,"is_disabled":true,"rental_uris":{"android":"levelo://app?vid=7697f83b-11c1-4978-89f1-e9d9aca50ac7","ios":"levelo://app?vid=7697f83b-11c1-4978-89f1-e9d9aca50ac7"},"vehicle_type_id":"4","last_reported":1762157745,"current_range_meters":16800,"station_id":"ce4bhih2rcd13ifvqfr0","pricing_plan_id":"cebpf4jnsgd1na2vs0mg"},{"bike_id":"609aa62b-6b42-43fc-b33d-a59982117e81","system_id":"levelo_inurba_marseille","lat":43.27427,"lon":5.39418,"is_reserved":false,"is_disabled":false,"rental_uris":{"android":"levelo://app?vid=609aa62b-6b42-43fc-b33d-a59982117e81","ios":"levelo://app?vid=609aa62b-6b42-43fc-b33d-a59982117e81"},"vehicle_type_id":"4","last_reported":1762157745,"current_range_meters":16800,"station_id":"ce4bhdp2rcd13ifvqf20","pricing_plan_id":"cebpf4jnsgd1na2vs0mg"},{"bike_id":"a529b5f8-6677-4345-8fc4-f3cece113ede","system_id":"levelo_inurba_marseille","lat":43.303088,"lon":5.369003,"is_reserved":false,"is_disabled":false,"rental_uris":{"android":"levelo://app?vid=a529b5f8-6677-4345-8fc4-f3cece113ede","ios":"levelo://app?vid=a529b5f8-6677-4345-8fc4-f3cece113ede"},"vehicle_type_id":"4","last_reported":1762157745,"current_range_meters":16800,"station_id":"ce4bgqh2rcd13ifvqc5g","pricing_plan_id":"cebpf4jnsgd1na2vs0mg"},{"bike_id":"e8b28a79-d960-431b-99a8-00e81e08fcb5","system_id":"levelo_inurba_marseille","lat":43.24633,"lon":5.4315,"is_reserved":false,"is_disabled":false,"rental_uris":{"android":"levelo://app?vid=e8b28a79-d960-431b-99a8-00e81e08fcb5","ios":"levelo://app?vid=e8b28a79-d960-431b-99a8-00e81e08fcb5"},"vehicle_type_id":"4","last_reported":1762157745,"current_range_meters":16800,"station_id":"st_d2m6c4gdas8pm72e190g","pricing_plan_id":"cebpf4jnsgd1na2vs0mg"},{"bike_id":"a8d0be4c-3e38-4247-b462-6e35f9043fea","system_id":"levelo_inurba_marseille","lat":43.25719,"lon":5.41119,"is_reserved":false,"is_disabled":true,"rental_uris":{"android":"levelo://app?vid=a8d0be4c-3e38-4247-b462-6e35f9043fea","ios":"levelo://app?vid=a8d0be4c-3e38-4247-b462-6e35f9043fea"},"vehicle_type_id":"4","last_reported":1762157745,"current_range_meters":16800,"station_id":"ce4bhkp2rcd13ifvqgd0","pricing_plan_id":"cebpf4jnsgd1na2vs0mg"},{"bike_id":"51bf3cb7-470c-477e-9e73-8c565aae20cb","system_id":"levelo_inurba_marseille","lat":43.297409,"lon":5.426916,"is_reserved":false,"is_disabled":false,"rental_uris":{"android":"levelo://app?vid=51bf3cb7-470c-477e-9e73-8c565aae20cb","ios":"levelo://app?vid=51bf3cb7-470c-477e-9e73-8c565aae20cb"},"vehicle_type_id":"4","last_reported":1762157745,"current_range_meters":17200,"station_id":"","pricing_plan_id":"cebpf4jnsgd1na2vs0mg"},{"bike_id":"462db5d6-0e34-441f-afe8-ee89f81fea2b","system_id":"levelo_inurba_marseille","lat":43.31224,"lon":5.3686,"is_reserved":false,"is_disabled":false,"rental_uris":{"android":"levelo://app?vid=462db5d6-0e34-441f-afe8-ee89f81fea2b","ios":"levelo://app?vid=462db5d6-0e34-441f-afe8-ee89f81fea2b"},"vehicle_type_id":"4","last_reported":1762157745,"current_range_meters":17200,"station_id":"ce4bgl92rcd13ifvqbq0","pricing_plan_id":"cebpf4jnsgd1na2vs0mg"},{"bike_id":"258d165a-449f-4925-b56e-beae8f481fb2","system_id":"levelo_inurba_marseille","lat":43.284004,"lon":5.349923,"is_reserved":false,"is_disabled":true,"rental_uris":{"android":"levelo://app?vid=258d165a-449f-4925-b56e-beae8f481fb2","ios":"levelo://app?vid=258d165a-449f-4925-b56e-beae8f481fb2"},"vehicle_type_id":"4","last_reported":1762157745,"current_range_meters":17200,"station_id":"","pricing_plan_id":"cebpf4jnsgd1na2vs0mg"},{"bike_id":"c7f9762a-b32c-4efc-b088-5958c79a4f80","system_id":"levelo_inurba_marseille","lat":43.30201,"lon":5.38042,"is_reserved":false,"is_disabled":false,"rental_uris":{"android":"levelo://app?vid=c7f9762a-b32c-4efc-b088-5958c79a4f80","ios":"levelo://app?vid=c7f9762a-b32c-4efc-b088-5958c79a4f80"},"vehicle_type_id":"4","last_reported":1762157745,"current_range_meters":17200,"station_id":"","pricing_plan_id":"cebpf4jnsgd1na2vs0mg"},{"bike_id":"e8adea7e-0a90-49fd-b3a2-32134cae9db0","system_id":"levelo_inurba_marseille","lat":43.21192,"lon":5.35077,"is_reserved":false,"is_disabled":false,"rental_uris":{"android":"levelo://app?vid=e8adea7e-0a90-49fd-b3a2-32134cae9db0","ios":"levelo://app?vid=e8adea7e-0a90-49fd-b3a2-32134cae9db0"},"vehicle_type_id":"4","last_reported":1762157745,"current_range_meters":17200,"station_id":"","pricing_plan_id":"cebpf4jnsgd1na2vs0mg"},{"bike_id":"bb335a03-7df2-4888-8b52-a5b22bc811a1","system_id":"levelo_inurba_marseille","lat":43.32535,"lon":5.41442,"is_reserved":false,"is_disabled":false,"rental_uris":{"android":"levelo://app?vid=bb335a03-7df2-4888-8b52-a5b22bc811a1","ios":"levelo://app?vid=bb335a03-7df2-4888-8b52-a5b22bc811a1"},"vehicle_type_id":"4","last_reported":1762157745,"current_range_meters":17200,"station_id":"ce4bhq12rcd13ifvqhhg","pricing_plan_id":"cebpf4jnsgd1na2vs0mg"},{"bike_id":"e894c9e8-7f1e-4e5b-850e-008cc5de5e6e","system_id":"levelo_inurba_marseille","lat":43.23161,"lon":5.43701,"is_reserved":false,"is_disabled":false,"rental_uris":{"android":"levelo://app?vid=e894c9e8-7f1e-4e5b-850e-008cc5de5e6e","ios":"levelo://app?vid=e894c9e8-7f1e-4e5b-850e-008cc5de5e6e"},"vehicle_type_id":"4","last_reported":1762157745,"current_range_meters":17200,"station_id":"ce4bhmp2rcd13ifvqgog","pricing_plan_id":"cebpf4jnsgd1na2vs0mg"},{"bike_id":"148f9c44-752a-403d-af38-8ba0f0a9445a","system_id":"levelo_inurba_marseille","lat":43.3125,"lon":5.36909,"is_reserved":false,"is_disabled":false,"rental_uris":{"android":"levelo://app?vid=148f9c44-752a-403d-af38-8ba0f0a9445a","ios":"levelo://app?vid=148f9c44-752a-403d-af38-8ba0f0a9445a"},"vehicle_type_id":"4","last_reported":1762157745,"current_range_meters":17200,"station_id":"ce4bgl92rcd13ifvqbq0","pricing_plan_id":"cebpf4jnsgd1na2vs0mg"},{"bike_id":"7ee96323-da9c-4c60-bbe4-d1054018acab","system_id":"levelo_inurba_marseille","lat":43.3055,"lon":5.36693,"is_reserved":false,"is_disabled":true,"rental_uris":{"android":"levelo://app?vid=7ee96323-da9c-4c60-bbe4-d1054018acab","ios":"levelo://app?vid=7ee96323-da9c-4c60-bbe4-d1054018acab"},"vehicle_type_id":"4","last_reported":1762157745,"current_range_meters":17200,"station_id":"ce4bgrp2rcd13ifvqc9g","pricing_plan_id":"cebpf4jnsgd1na2vs0mg"},{"bike_id":"206325df-21db-45dd-b7b5-57f5c84aff67","system_id":"levelo_inurba_marseille","lat":43.32536,"lon":5.41427,"is_reserved":false,"is_disabled":false,"rental_uris":{"android":"levelo://app?vid=206325df-21db-45dd-b7b5-57f5c84aff67","ios":"levelo://app?vid=206325df-21db-45dd-b7b5-57f5c84aff67"},"vehicle_type_id":"4","last_reported":1762157745,"current_range_meters":17200,"station_id":"ce4bhq12rcd13ifvqhhg","pricing_plan_id":"cebpf4jnsgd1na2vs0mg"},{"bike_id":"0f84d363-febc-4f7e-8880-21854c986ea5","system_id":"levelo_inurba_marseille","lat":43.29573,"lon":5.39983,"is_reserved":false,"is_disabled":false,"rental_uris":{"android":"levelo://app?vid=0f84d363-febc-4f7e-8880-21854c986ea5","ios":"levelo://app?vid=0f84d363-febc-4f7e-8880-21854c986ea5"},"vehicle_type_id":"4","last_reported":1762157745,"current_range_meters":17200,"station_id":"ce4bh312rcd13ifvqdj0","pricing_plan_id":"cebpf4jnsgd1na2vs0mg"},{"bike_id":"37843105-62c4-4d82-bee6-44395fbbf429","system_id":"levelo_inurba_marseille","lat":43.24575,"lon":5.41651,"is_reserved":false,"is_disabled":false,"rental_uris":{"android":"levelo://app?vid=37843105-62c4-4d82-bee6-44395fbbf429","ios":"levelo://app?vid=37843105-62c4-4d82-bee6-44395fbbf429"},"vehicle_type_id":"4","last_reported":1762157745,"current_range_meters":17200,"station_id":"","pricing_plan_id":"cebpf4jnsgd1na2vs0mg"},{"bike_id":"7b3ada81-0ff3-49e9-8471-eb10e4c9b7f2","system_id":"levelo_inurba_marseille","lat":43.290189,"lon":5.381331,"is_reserved":false,"is_disabled":false,"rental_uris":{"android":"levelo://app?vid=7b3ada81-0ff3-49e9-8471-eb10e4c9b7f2","ios":"levelo://app?vid=7b3ada81-0ff3-49e9-8471-eb10e4c9b7f2"},"vehicle_type_id":"4","last_reported":1762157745,"current_range_meters":17600,"station_id":"ce4bh4p2rcd13ifvqe1g","pricing_plan_id":"cebpf4jnsgd1na2vs0mg"},{"bike_id":"484598d9-3fc7-4dd6-8292-f3adcea97683","system_id":"levelo_inurba_marseille","lat":43.32364,"lon":5.36758,"is_reserved":false,"is_disabled":false,"rental_uris":{"android":"levelo://app?vid=484598d9-3fc7-4dd6-8292-f3adcea97683","ios":"levelo://app?vid=484598d9-3fc7-4dd6-8292-f3adcea97683"},"vehicle_type_id":"4","last_reported":1762157745,"current_range_meters":17600,"station_id":"ce4bhsh2rcd13ifvqi2g","pricing_plan_id":"cebpf4jnsgd1na2vs0mg"},{"bike_id":"9c182b54-339d-4510-b32d-4fa9957bf129","system_id":"levelo_inurba_marseille","lat":43.24064,"lon":5.37744,"is_reserved":false,"is_disabled":false,"rental_uris":{"android":"levelo://app?vid=9c182b54-339d-4510-b32d-4fa9957bf129","ios":"levelo://app?vid=9c182b54-339d-4510-b32d-4fa9957bf129"},"vehicle_type_id":"4","last_reported":1762157745,"current_range_meters":17600,"station_id":"ce4bhnp2rcd13ifvqgvg","pricing_plan_id":"cebpf4jnsgd1na2vs0mg"},{"bike_id":"7266ed46-2381-404a-9c13-a92f05fa953b","system_id":"levelo_inurba_marseille","lat":43.337608,"lon":5.374329,"is_reserved":false,"is_disabled":false,"rental_uris":{"android":"levelo://app?vid=7266ed46-2381-404a-9c13-a92f05fa953b","ios":"levelo://app?vid=7266ed46-2381-404a-9c13-a92f05fa953b"},"vehicle_type_id":"4","last_reported":1762157745,"current_range_meters":17600,"station_id":"","pricing_plan_id":"cebpf4jnsgd1na2vs0mg"},{"bike_id":"f234ad47-0901-40bf-a06a-e46adc6b907e","system_id":"levelo_inurba_marseille","lat":43.23197,"lon":5.3556,"is_reserved":false,"is_disabled":false,"rental_uris":{"android":"levelo://app?vid=f234ad47-0901-40bf-a06a-e46adc6b907e","ios":"levelo://app?vid=f234ad47-0901-40bf-a06a-e46adc6b907e"},"vehicle_type_id":"4","last_reported":1762157745,"current_range_meters":17600,"station_id":"ce4bhu92rcd13ifvqi70","pricing_plan_id":"cebpf4jnsgd1na2vs0mg"},{"bike_id":"594dbb71-1dd5-4bbb-93ca-f919e2f0c097","system_id":"levelo_inurba_marseille","lat":43.231542,"lon":5.43711,"is_reserved":false,"is_disabled":false,"rental_uris":{"android":"levelo://app?vid=594dbb71-1dd5-4bbb-93ca-f919e2f0c097","ios":"levelo://app?vid=594dbb71-1dd5-4bbb-93ca-f919e2f0c097"},"vehicle_type_id":"4","last_reported":1762157745,"current_range_meters":18000,"station_id":"ce4bhmp2rcd13ifvqgog","pricing_plan_id":"cebpf4jnsgd1na2vs0mg"},{"bike_id":"deced319-b4d4-49f8-b7e3-c2fe947e9551","system_id":"levelo_inurba_marseille","lat":43.31216,"lon":5.36831,"is_reserved":false,"is_disabled":false,"rental_uris":{"android":"levelo://app?vid=deced319-b4d4-49f8-b7e3-c2fe947e9551","ios":"levelo://app?vid=deced319-b4d4-49f8-b7e3-c2fe947e9551"},"vehicle_type_id":"4","last_reported":1762157745,"current_range_meters":18000,"station_id":"ce4bgl92rcd13ifvqbq0","pricing_plan_id":"cebpf4jnsgd1na2vs0mg"},{"bike_id":"269bfea8-f2da-4490-982b-fee6d7470d50","system_id":"levelo_inurba_marseille","lat":43.27495,"lon":5.42451,"is_reserved":false,"is_disabled":false,"rental_uris":{"android":"levelo://app?vid=269bfea8-f2da-4490-982b-fee6d7470d50","ios":"levelo://app?vid=269bfea8-f2da-4490-982b-fee6d7470d50"},"vehicle_type_id":"4","last_reported":1762157745,"current_range_meters":18000,"station_id":"ce4bhn92rcd13ifvqgrg","pricing_plan_id":"cebpf4jnsgd1na2vs0mg"},{"bike_id":"5cfd3702-7691-45d0-bc4c-dd48583392da","system_id":"levelo_inurba_marseille","lat":43.28925,"lon":5.39628,"is_reserved":false,"is_disabled":true,"rental_uris":{"android":"levelo://app?vid=5cfd3702-7691-45d0-bc4c-dd48583392da","ios":"levelo://app?vid=5cfd3702-7691-45d0-bc4c-dd48583392da"},"vehicle_type_id":"4","last_reported":1762157745,"current_range_meters":18000,"station_id":"ce4bh3h2rcd13ifvqdn0","pricing_plan_id":"cebpf4jnsgd1na2vs0mg"},{"bike_id":"9aa8e647-5d35-4da4-a0d7-9280e13a02c7","system_id":"levelo_inurba_marseille","lat":43.28147,"lon":5.42651,"is_reserved":false,"is_disabled":false,"rental_uris":{"android":"levelo://app?vid=9aa8e647-5d35-4da4-a0d7-9280e13a02c7","ios":"levelo://app?vid=9aa8e647-5d35-4da4-a0d7-9280e13a02c7"},"vehicle_type_id":"4","last_reported":1762157745,"current_range_meters":18000,"station_id":"ce4bhnh2rcd13ifvqgug","pricing_plan_id":"cebpf4jnsgd1na2vs0mg"},{"bike_id":"e7082184-bbd2-4e79-aba1-51e0892249ea","system_id":"levelo_inurba_marseille","lat":43.27066,"lon":5.42278,"is_reserved":false,"is_disabled":false,"rental_uris":{"android":"levelo://app?vid=e7082184-bbd2-4e79-aba1-51e0892249ea","ios":"levelo://app?vid=e7082184-bbd2-4e79-aba1-51e0892249ea"},"vehicle_type_id":"4","last_reported":1762157745,"current_range_meters":18000,"station_id":"ce4bhk92rcd13ifvqgb0","pricing_plan_id":"cebpf4jnsgd1na2vs0mg"},{"bike_id":"08c65225-a2b2-45ba-84d0-87a315c87514","system_id":"levelo_inurba_marseille","lat":43.28848,"lon":5.39315,"is_reserved":false,"is_disabled":false,"rental_uris":{"android":"levelo://app?vid=08c65225-a2b2-45ba-84d0-87a315c87514","ios":"levelo://app?vid=08c65225-a2b2-45ba-84d0-87a315c87514"},"vehicle_type_id":"4","last_reported":1762157745,"current_range_meters":18000,"station_id":"ce4bh2p2rcd13ifvqdi0","pricing_plan_id":"cebpf4jnsgd1na2vs0mg"},{"bike_id":"9093ad73-2260-42b4-9f29-c7641c11363b","system_id":"levelo_inurba_marseille","lat":43.3014,"lon":5.38082,"is_reserved":false,"is_disabled":false,"rental_uris":{"android":"levelo://app?vid=9093ad73-2260-42b4-9f29-c7641c11363b","ios":"levelo://app?vid=9093ad73-2260-42b4-9f29-c7641c11363b"},"vehicle_type_id":"4","last_reported":1762157745,"current_range_meters":18000,"station_id":"ce4bgjp2rcd13ifvqbh0","pricing_plan_id":"cebpf4jnsgd1na2vs0mg"},{"bike_id":"04f8b399-8425-4144-b38b-ad3afc11f504","system_id":"levelo_inurba_marseille","lat":43.259418,"lon":5.409011,"is_reserved":false,"is_disabled":false,"rental_uris":{"android":"levelo://app?vid=04f8b399-8425-4144-b38b-ad3afc11f504","ios":"levelo://app?vid=04f8b399-8425-4144-b38b-ad3afc11f504"},"vehicle_type_id":"4","last_reported":1762157745,"current_range_meters":18000,"station_id":"","pricing_plan_id":"cebpf4jnsgd1na2vs0mg"},{"bike_id":"20e70bf0-b6e6-4e7a-add8-8e0c8d57fdb0","system_id":"levelo_inurba_marseille","lat":43.24745,"lon":5.40682,"is_reserved":false,"is_disabled":false,"rental_uris":{"android":"levelo://app?vid=20e70bf0-b6e6-4e7a-add8-8e0c8d57fdb0","ios":"levelo://app?vid=20e70bf0-b6e6-4e7a-add8-8e0c8d57fdb0"},"vehicle_type_id":"4","last_reported":1762157745,"current_range_meters":18800,"station_id":"","pricing_plan_id":"cebpf4jnsgd1na2vs0mg"},{"bike_id":"a0e1d993-3158-4ac7-9e10-982da29a7220","system_id":"levelo_inurba_marseille","lat":43.29852,"lon":5.36279,"is_reserved":false,"is_disabled":false,"rental_uris":{"android":"levelo://app?vid=a0e1d993-3158-4ac7-9e10-982da29a7220","ios":"levelo://app?vid=a0e1d993-3158-4ac7-9e10-982da29a7220"},"vehicle_type_id":"4","last_reported":1762157745,"current_range_meters":18800,"station_id":"ce4bgpp2rcd13ifvqc3g","pricing_plan_id":"cebpf4jnsgd1na2vs0mg"},{"bike_id":"e63cb36e-d726-47ba-9669-f6bfde566583","system_id":"levelo_inurba_marseille","lat":43.27992,"lon":5.40025,"is_reserved":false,"is_disabled":false,"rental_uris":{"android":"levelo://app?vid=e63cb36e-d726-47ba-9669-f6bfde566583","ios":"levelo://app?vid=e63cb36e-d726-47ba-9669-f6bfde566583"},"vehicle_type_id":"4","last_reported":1762157745,"current_range_meters":18800,"station_id":"ce4bho92rcd13ifvqh4g","pricing_plan_id":"cebpf4jnsgd1na2vs0mg"},{"bike_id":"c2355dc4-632d-4ba0-8bc2-f0457cf83d4c","system_id":"levelo_inurba_marseille","lat":43.292278,"lon":5.360552,"is_reserved":false,"is_disabled":false,"rental_uris":{"android":"levelo://app?vid=c2355dc4-632d-4ba0-8bc2-f0457cf83d4c","ios":"levelo://app?vid=c2355dc4-632d-4ba0-8bc2-f0457cf83d4c"},"vehicle_type_id":"4","last_reported":1762157745,"current_range_meters":18800,"station_id":"","pricing_plan_id":"cebpf4jnsgd1na2vs0mg"},{"bike_id":"e5b0cdc5-83d2-4169-8762-fec082c6afd4","system_id":"levelo_inurba_marseille","lat":43.28863,"lon":5.42512,"is_reserved":false,"is_disabled":false,"rental_uris":{"android":"levelo://app?vid=e5b0cdc5-83d2-4169-8762-fec082c6afd4","ios":"levelo://app?vid=e5b0cdc5-83d2-4169-8762-fec082c6afd4"},"vehicle_type_id":"4","last_reported":1762157745,"current_range_meters":18800,"station_id":"st_d3b462108ojc7389ooeg","pricing_plan_id":"cebpf4jnsgd1na2vs0mg"},{"bike_id":"45178dd9-b960-4161-871b-52bd5ff2bc66","system_id":"levelo_inurba_marseille","lat":43.25511,"lon":5.37671,"is_reserved":false,"is_disabled":false,"rental_uris":{"android":"levelo://app?vid=45178dd9-b960-4161-871b-52bd5ff2bc66","ios":"levelo://app?vid=45178dd9-b960-4161-871b-52bd5ff2bc66"},"vehicle_type_id":"4","last_reported":1762157745,"current_range_meters":18800,"station_id":"ce4bhh12rcd13ifvqff0","pricing_plan_id":"cebpf4jnsgd1na2vs0mg"},{"bike_id":"2027ca7f-2d34-4bbf-9ad0-ab60b2ac1397","system_id":"levelo_inurba_marseille","lat":43.2315,"lon":5.43713,"is_reserved":false,"is_disabled":false,"rental_uris":{"android":"levelo://app?vid=2027ca7f-2d34-4bbf-9ad0-ab60b2ac1397","ios":"levelo://app?vid=2027ca7f-2d34-4bbf-9ad0-ab60b2ac1397"},"vehicle_type_id":"4","last_reported":1762157745,"current_range_meters":18800,"station_id":"ce4bhmp2rcd13ifvqgog","pricing_plan_id":"cebpf4jnsgd1na2vs0mg"},{"bike_id":"3e077524-ccee-4cee-bdb9-59100f2ede51","system_id":"levelo_inurba_marseille","lat":43.28153,"lon":5.42644,"is_reserved":false,"is_disabled":false,"rental_uris":{"android":"levelo://app?vid=3e077524-ccee-4cee-bdb9-59100f2ede51","ios":"levelo://app?vid=3e077524-ccee-4cee-bdb9-59100f2ede51"},"vehicle_type_id":"4","last_reported":1762157745,"current_range_meters":18800,"station_id":"ce4bhnh2rcd13ifvqgug","pricing_plan_id":"cebpf4jnsgd1na2vs0mg"},{"bike_id":"9c6ca871-f5b0-414f-a25e-0027df3ab686","system_id":"levelo_inurba_marseille","lat":43.24647,"lon":5.43133,"is_reserved":false,"is_disabled":false,"rental_uris":{"android":"levelo://app?vid=9c6ca871-f5b0-414f-a25e-0027df3ab686","ios":"levelo://app?vid=9c6ca871-f5b0-414f-a25e-0027df3ab686"},"vehicle_type_id":"4","last_reported":1762157745,"current_range_meters":18800,"station_id":"st_d2m6c4gdas8pm72e190g","pricing_plan_id":"cebpf4jnsgd1na2vs0mg"},{"bike_id":"3db6d5d0-e83c-4127-886f-5a5bc9533c63","system_id":"levelo_inurba_marseille","lat":43.29683,"lon":5.37288,"is_reserved":false,"is_disabled":false,"rental_uris":{"android":"levelo://app?vid=3db6d5d0-e83c-4127-886f-5a5bc9533c63","ios":"levelo://app?vid=3db6d5d0-e83c-4127-886f-5a5bc9533c63"},"vehicle_type_id":"4","last_reported":1762157745,"current_range_meters":18800,"station_id":"ce4bgk12rcd13ifvqbj0","pricing_plan_id":"cebpf4jnsgd1na2vs0mg"},{"bike_id":"aa57417c-8bed-4ac9-901e-05a2c4cc9773","system_id":"levelo_inurba_marseille","lat":43.24626,"lon":5.43148,"is_reserved":false,"is_disabled":false,"rental_uris":{"android":"levelo://app?vid=aa57417c-8bed-4ac9-901e-05a2c4cc9773","ios":"levelo://app?vid=aa57417c-8bed-4ac9-901e-05a2c4cc9773"},"vehicle_type_id":"4","last_reported":1762157745,"current_range_meters":19200,"station_id":"st_d2m6c4gdas8pm72e190g","pricing_plan_id":"cebpf4jnsgd1na2vs0mg"},{"bike_id":"1570d7aa-1e30-4265-92dc-e758a51a6bf4","system_id":"levelo_inurba_marseille","lat":43.29782,"lon":5.39352,"is_reserved":false,"is_disabled":false,"rental_uris":{"android":"levelo://app?vid=1570d7aa-1e30-4265-92dc-e758a51a6bf4","ios":"levelo://app?vid=1570d7aa-1e30-4265-92dc-e758a51a6bf4"},"vehicle_type_id":"4","last_reported":1762157745,"current_range_meters":19200,"station_id":"chh1huq6cuj3fo74tm60","pricing_plan_id":"cebpf4jnsgd1na2vs0mg"},{"bike_id":"b4dde6e3-ddc1-4617-9a9a-ccef2987eb1d","system_id":"levelo_inurba_marseille","lat":43.30217,"lon":5.38019,"is_reserved":false,"is_disabled":false,"rental_uris":{"android":"levelo://app?vid=b4dde6e3-ddc1-4617-9a9a-ccef2987eb1d","ios":"levelo://app?vid=b4dde6e3-ddc1-4617-9a9a-ccef2987eb1d"},"vehicle_type_id":"4","last_reported":1762157745,"current_range_meters":19200,"station_id":"ce4bgjp2rcd13ifvqbh0","pricing_plan_id":"cebpf4jnsgd1na2vs0mg"},{"bike_id":"a80a4097-cc84-471b-bd33-fc949d94344f","system_id":"levelo_inurba_marseille","lat":43.25942,"lon":5.40896,"is_reserved":false,"is_disabled":false,"rental_uris":{"android":"levelo://app?vid=a80a4097-cc84-471b-bd33-fc949d94344f","ios":"levelo://app?vid=a80a4097-cc84-471b-bd33-fc949d94344f"},"vehicle_type_id":"4","last_reported":1762157745,"current_range_meters":19200,"station_id":"ce4bhm92rcd13ifvqglg","pricing_plan_id":"cebpf4jnsgd1na2vs0mg"},{"bike_id":"27ccecc2-04fe-4328-a03e-09458d1cfc0d","system_id":"levelo_inurba_marseille","lat":43.26558,"lon":5.39009,"is_reserved":false,"is_disabled":false,"rental_uris":{"android":"levelo://app?vid=27ccecc2-04fe-4328-a03e-09458d1cfc0d","ios":"levelo://app?vid=27ccecc2-04fe-4328-a03e-09458d1cfc0d"},"vehicle_type_id":"4","last_reported":1762157745,"current_range_meters":19200,"station_id":"ce4bhe12rcd13ifvqf30","pricing_plan_id":"cebpf4jnsgd1na2vs0mg"},{"bike_id":"f8a00c60-56bb-47f7-ad0c-170f2e65ebf8","system_id":"levelo_inurba_marseille","lat":43.23958,"lon":5.36638,"is_reserved":false,"is_disabled":false,"rental_uris":{"android":"levelo://app?vid=f8a00c60-56bb-47f7-ad0c-170f2e65ebf8","ios":"levelo://app?vid=f8a00c60-56bb-47f7-ad0c-170f2e65ebf8"},"vehicle_type_id":"4","last_reported":1762157745,"current_range_meters":19200,"station_id":"ce4bhi12rcd13ifvqfp0","pricing_plan_id":"cebpf4jnsgd1na2vs0mg"},{"bike_id":"b792aa60-3e96-4534-bbc2-bcb4007102ba","system_id":"levelo_inurba_marseille","lat":43.23246,"lon":5.35891,"is_reserved":false,"is_disabled":false,"rental_uris":{"android":"levelo://app?vid=b792aa60-3e96-4534-bbc2-bcb4007102ba","ios":"levelo://app?vid=b792aa60-3e96-4534-bbc2-bcb4007102ba"},"vehicle_type_id":"4","last_reported":1762157745,"current_range_meters":19200,"station_id":"","pricing_plan_id":"cebpf4jnsgd1na2vs0mg"},{"bike_id":"15691e9e-4cf6-40e8-b51a-9d887bcbd0d0","system_id":"levelo_inurba_marseille","lat":43.304676,"lon":5.373284,"is_reserved":false,"is_disabled":false,"rental_uris":{"android":"levelo://app?vid=15691e9e-4cf6-40e8-b51a-9d887bcbd0d0","ios":"levelo://app?vid=15691e9e-4cf6-40e8-b51a-9d887bcbd0d0"},