{"last_updated":1714079277,"ttl":30,"version":"2.2","data":{"bikes":[{"bike_id":"7f73ae10-7fd4-4caa-8fa3-577c885596ef","system_id":"levelo_inurba_marseille","lat":43.31341,"lon":5.367098,"is_reserved":false,"is_disabled":false,"rental_uris":{"android":"levelo://app?vid=7f73ae10-7fd4-4caa-8fa3-577c885596ef","ios":"levelo://app?vid=7f73ae10-7fd4-4caa-8fa3-577c885596ef"},"vehicle_type_id":"4","last_reported":1714079277,"current_range_meters":28400,"station_id":"ce4bgr92rcd13ifvqc6g","pricing_plan_id":"cebpf4jnsgd1na2vs0mg"},{"bike_id":"89d5e278-9609-4e6c-946a-97ea946849af","system_id":"levelo_inurba_marseille","lat":43.312283,"lon":5.36863,"is_reserved":false,"is_disabled":false,"rental_uris":{"android":"levelo://app?vid=89d5e278-9609-4e6c-946a-97ea946849af","ios":"levelo://app?vid=89d5e278-9609-4e6c-946a-97ea946849af"},"vehicle_type_id":"4","last_reported":1714079277,"current_range_meters":0,"station_id":"ce4bgl92rcd13ifvqbq0","pricing_plan_id":"cebpf4jnsgd1na2vs0mg"},{"bike_id":"bfe04d9a-7390-495a-bac4-4ec94aa03129","system_id":"levelo_inurba_marseille","lat":43.312237,"lon":5.36863,"is_reserved":false,"is_disabled":false,"rental_uris":{"android":"levelo://app?vid=bfe04d9a-7390-495a-bac4-4ec94aa03129","ios":"levelo://app?vid=bfe04d9a-7390-495a-bac4-4ec94aa03129"},"vehicle_type_id":"4","last_reported":1714079277,"current_range_meters":0,"station_id":"ce4bgl92rcd13ifvqbq0","pricing_plan_id":"cebpf4jnsgd1na2vs0mg"},{"bike_id":"e9d03e1f-f578-4f58-a8d7-39488d789512","system_id":"levelo_inurba_marseille","lat":43.312239,"lon":5.368562,"is_reserved":false,"is_disabled":false,"rental_uris":{"android":"levelo://app?vid=e9d03e1f-f578-4f58-a8d7-39488d789512","ios":"levelo://app?vid=e9d03e1f-f578-4f58-a8d7-39488d789512"},"vehicle_type_id":"4","last_reported":1714079277,"current_range_meters":28400,"station_id":"ce4bgl92rcd13ifvqbq0","pricing_plan_id":"cebpf4jnsgd1na2vs0mg"},{"bike_id":"51703938-14e2-47d3-9afc-8521f626feda","system_id":"levelo_inurba_marseille","lat":43.312239,"lon":5.368562,"is_reserved":false,"is_disabled":false,"rental_uris":{"android":"levelo://app?vid=51703938-14e2-47d3-9afc-8521f626feda","ios":"levelo://app?vid=51703938-14e2-47d3-9afc-8521f626feda"},"vehicle_type_id":"4","last_reported":1714079277,"current_range_meters":4000,"station_id":"ce4bgl92rcd13ifvqbq0","pricing_plan_id":"cebpf4jnsgd1na2vs0mg"},{"bike_id":"ebf8ffca-31a3-4058-857d-f865050bc037","system_id":"levelo_inurba_marseille","lat":43.309076,"lon":5.368465,"is_reserved":false,"is_disabled":false,"rental_uris":{"android":"levelo://app?vid=ebf8ffca-31a3-4058-857d-f865050bc037","ios":"levelo://app?vid=ebf8ffca-31a3-4058-857d-f865050bc037"},"vehicle_type_id":"4","last_reported":1714079277,"current_range_meters":10000,"station_id":"ce4bgn92rcd13ifvqbvg","pricing_plan_id":"cebpf4jnsgd1na2vs0mg"},{"bike_id":"4cee523d-3892-4c32-a543-70eeaa819d19","system_id":"levelo_inurba_marseille","lat":43.314844,"lon":5.372997,"is_reserved":false,"is_disabled":false,"rental_uris":{"android":"levelo://app?vid=4cee523d-3892-4c32-a543-70eeaa819d19","ios":"levelo://app?vid=4cee523d-3892-4c32-a543-70eeaa819d19"},"vehicle_type_id":"4","last_reported":1714079277,"current_range_meters":0,"station_id":"ce4bgt12rcd13ifvqcd0","pricing_plan_id":"cebpf4jnsgd1na2vs0mg"},{"bike_id":"cfba13a7-fb3b-447d-9f46-3fc22d825b13","system_id":"levelo_inurba_marseille","lat":43.314811,"lon":5.373103,"is_reserved":false,"is_disabled":false,"rental_uris":{"android":"levelo://app?vid=cfba13a7-fb3b-447d-9f46-3fc22d825b13","ios":"levelo://app?vid=cfba13a7-fb3b-447d-9f46-3fc22d825b13"},"vehicle_type_id":"4","last_reported":1714079277,"current_range_meters":24000,"station_id":"ce4bgt12rcd13ifvqcd0","pricing_plan_id":"cebpf4jnsgd1na2vs0mg"},{"bike_id":"424eb903-d178-4cbb-97d9-7b88ce30cf49","system_id":"levelo_inurba_marseille","lat":43.314811,"lon":5.373103,"is_reserved":false,"is_disabled":false,"rental_uris":{"android":"levelo://app?vid=424eb903-d178-4cbb-97d9-7b88ce30cf49","ios":"levelo://app?vid=424eb903-d178-4cbb-97d9-7b88ce30cf49"},"vehicle_type_id":"4","last_reported":1714079277,"current_range_meters":22800,"station_id":"ce4bgt12rcd13ifvqcd0","pricing_plan_id":"cebpf4jnsgd1na2vs0mg"},{"bike_id":"854e7ca4-3713-41dd-9821-cc6058e2a7a0","system_id":"levelo_inurba_marseille","lat":43.314811,"lon":5.373104,"is_reserved":false,"is_disabled":false,"rental_uris":{"android":"levelo://app?vid=854e7ca4-3713-41dd-9821-cc6058e2a7a0","ios":"levelo://app?vid=854e7ca4-3713-41dd-9821-cc6058e2a7a0"},"vehicle_type_id":"4","last_reported":1714079277,"current_range_meters":14000,"station_id":"ce4bgt12rcd13ifvqcd0","pricing_plan_id":"cebpf4jnsgd1na2vs0mg"},{"bike_id":"8582670c-bea8-44c9-93f6-7e2462e5c74c","system_id":"levelo_inurba_marseille","lat":43.314811,"lon":5.373104,"is_reserved":false,"is_disabled":false,"rental_uris":{"android":"levelo://app?vid=8582670c-bea8-44c9-93f6-7e2462e5c74c","ios":"levelo://app?vid=8582670c-bea8-44c9-93f6-7e2462e5c74c"},"vehicle_type_id":"4","last_reported":1714079277,"current_range_meters":18800,"station_id":"ce4bgt12rcd13ifvqcd0","pricing_plan_id":"cebpf4jnsgd1na2vs0mg"},{"bike_id":"79abbba7-e9e5-472a-966e-1e4bd8a14a08","system_id":"levelo_inurba_marseille","lat":43.314811,"lon":5.373104,"is_reserved":false,"is_disabled":false,"rental_uris":{"android":"levelo://app?vid=79abbba7-e9e5-472a-966e-1e4bd8a14a08","ios":"levelo://app?vid=79abbba7-e9e5-472a-966e-1e4bd8a14a08"},"vehicle_type_id":"4","last_reported":1714079277,"current_range_meters":1200,"station_id":"ce4bgt12rcd13ifvqcd0","pricing_plan_id":"cebpf4jnsgd1na2vs0mg"},{"bike_id":"4b2b05c4-f5cd-46ae-a965-f1f19afcebee","system_id":"levelo_inurba_marseille","lat":43.314811,"lon":5.373104,"is_reserved":false,"is_disabled":false,"rental_uris":{"android":"levelo://app?vid=4b2b05c4-f5cd-46ae-a965-f1f19afcebee","ios":"levelo://app?vid=4b2b05c4-f5cd-46ae-a965-f1f19afcebee"},"vehicle_type_id":"4","last_reported":1714079277,"current_range_meters":19200,"station_id":"ce4bgt12rcd13ifvqcd0","pricing_plan_id":"cebpf4jnsgd1na2vs0mg"},{"bike_id":"0051305e-43fa-4821-af88-89623a1ebf0c","system_id":"levelo_inurba_marseille","lat":43.309039,"lon":5.371797,"is_reserved":false,"is_disabled":false,"rental_uris":{"android":"levelo://app?vid=0051305e-43fa-4821-af88-89623a1ebf0c","ios":"levelo://app?vid=0051305e-43fa-4821-af88-89623a1ebf0c"},"vehicle_type_id":"4","last_reported":1714079277,"current_range_meters":20800,"station_id":"ce4bguh2rcd13ifvqckg","pricing_plan_id":"cebpf4jnsgd1na2vs0mg"},{"bike_id":"888826fe-d8e1-41ce-b83b-39642fc51a51","system_id":"levelo_inurba_marseille","lat":43.309039,"lon":5.371797,"is_reserved":false,"is_disabled":false,"rental_uris":{"android":"levelo://app?vid=888826fe-d8e1-41ce-b83b-39642fc51a51","ios":"levelo://app?vid=888826fe-d8e1-41ce-b83b-39642fc51a51"},"vehicle_type_id":"4","last_reported":1714079277,"current_range_meters":21200,"station_id":"ce4bguh2rcd13ifvqckg","pricing_plan_id":"cebpf4jnsgd1na2vs0mg"},{"bike_id":"d8cb0325-d5d5-4843-b2dd-ed36d3f7ef8f","system_id":"levelo_inurba_marseille","lat":43.309039,"lon":5.371797,"is_reserved":false,"is_disabled":false,"rental_uris":{"android":"levelo://app?vid=d8cb0325-d5d5-4843-b2dd-ed36d3f7ef8f","ios":"levelo://app?vid=d8cb0325-d5d5-4843-b2dd-ed36d3f7ef8f"},"vehicle_type_id":"4","last_reported":1714079277,"current_range_meters":31200,"station_id":"ce4bguh2rcd13ifvqckg","pricing_plan_id":"cebpf4jnsgd1na2vs0mg"},{"bike_id":"a6dc7375-3682-47b0-bf64-68ccf98b3093","system_id":"levelo_inurba_marseille","lat":43.309034,"lon":5.371783,"is_reserved":false,"is_disabled":false,"rental_uris":{"android":"levelo://app?vid=a6dc7375-3682-47b0-bf64-68ccf98b3093","ios":"levelo://app?vid=a6dc7375-3682-47b0-bf64-68ccf98b3093"},"vehicle_type_id":"4","last_reported":1714079277,"current_range_meters":27200,"station_id":"ce4bguh2rcd13ifvqckg","pricing_plan_id":"cebpf4jnsgd1na2vs0mg"},{"bike_id":"413dd4cb-c9f8-4d76-983b-e8a0a121799e","system_id":"levelo_inurba_marseille","lat":43.292724,"lon":5.401131,"is_reserved":false,"is_disabled":false,"rental_uris":{"android":"levelo://app?vid=413dd4cb-c9f8-4d76-983b-e8a0a121799e","ios":"levelo://app?vid=413dd4cb-c9f8-4d76-983b-e8a0a121799e"},"vehicle_type_id":"4","last_reported":1714079277,"current_range_meters":12000,"station_id":"ce4bh312rcd13ifvqdk0","pricing_plan_id":"cebpf4jnsgd1na2vs0mg"},{"bike_id":"5ed74ac6-7f84-42a4-96f3-1323d6e07ec0","system_id":"levelo_inurba_marseille","lat":43.305368,"lon":5.367343,"is_reserved":false,"is_disabled":false,"rental_uris":{"android":"levelo://app?vid=5ed74ac6-7f84-42a4-96f3-1323d6e07ec0","ios":"levelo://app?vid=5ed74ac6-7f84-42a4-96f3-1323d6e07ec0"},"vehicle_type_id":"4","last_reported":1714079277,"current_range_meters":27200,"station_id":"ce4bgrp2rcd13ifvqc9g","pricing_plan_id":"cebpf4jnsgd1na2vs0mg"},{"bike_id":"e30e8490-e526-4eff-8061-01c55acf5ec9","system_id":"levelo_inurba_marseille","lat":43.311131,"lon":5.377651,"is_reserved":false,"is_disabled":false,"rental_uris":{"android":"levelo://app?vid=e30e8490-e526-4eff-8061-01c55acf5ec9","ios":"levelo://app?vid=e30e8490-e526-4eff-8061-01c55acf5ec9"},"vehicle_type_id":"4","last_reported":1714079277,"current_range_meters":6800,"station_id":"ce4bgt92rcd13ifvqcg0","pricing_plan_id":"cebpf4jnsgd1na2vs0mg"},{"bike_id":"7d9c855c-ea93-46a4-a0b6-87a8caf08e4b","system_id":"levelo_inurba_marseille","lat":43.311131,"lon":5.377651,"is_reserved":false,"is_disabled":false,"rental_uris":{"android":"levelo://app?vid=7d9c855c-ea93-46a4-a0b6-87a8caf08e4b","ios":"levelo://app?vid=7d9c855c-ea93-46a4-a0b6-87a8caf08e4b"},"vehicle_type_id":"4","last_reported":1714079277,"current_range_meters":25200,"station_id":"ce4bgt92rcd13ifvqcg0","pricing_plan_id":"cebpf4jnsgd1na2vs0mg"},{"bike_id":"886eb646-d45e-4748-8378-4f23961b3489","system_id":"levelo_inurba_marseille","lat":43.311125,"lon":5.377624,"is_reserved":false,"is_disabled":false,"rental_uris":{"android":"levelo://app?vid=886eb646-d45e-4748-8378-4f23961b3489","ios":"levelo://app?vid=886eb646-d45e-4748-8378-4f23961b3489"},"vehicle_type_id":"4","last_reported":1714079277,"current_range_meters":21200,"station_id":"ce4bgt92rcd13ifvqcg0","pricing_plan_id":"cebpf4jnsgd1na2vs0mg"},{"bike_id":"64134af2-6884-4404-b1db-5013fc115a03","system_id":"levelo_inurba_marseille","lat":43.311131,"lon":5.377651,"is_reserved":false,"is_disabled":false,"rental_uris":{"android":"levelo://app?vid=64134af2-6884-4404-b1db-5013fc115a03","ios":"levelo://app?vid=64134af2-6884-4404-b1db-5013fc115a03"},"vehicle_type_id":"4","last_reported":1714079277,"current_range_meters":10400,"station_id":"ce4bgt92rcd13ifvqcg0","pricing_plan_id":"cebpf4jnsgd1na2vs0mg"},{"bike_id":"34781ba3-bbdc-4cad-b66a-316f2e18ee0f","system_id":"levelo_inurba_marseille","lat":43.311131,"lon":5.377651,"is_reserved":false,"is_disabled":false,"rental_uris":{"android":"levelo://app?vid=34781ba3-bbdc-4cad-b66a-316f2e18ee0f","ios":"levelo://app?vid=34781ba3-bbdc-4cad-b66a-316f2e18ee0f"},"vehicle_type_id":"4","last_reported":1714079277,"current_range_meters":0,"station_id":"ce4bgt92rcd13ifvqcg0","pricing_plan_id":"cebpf4jnsgd1na2vs0mg"},{"bike_id":"9c8e2dc2-4ada-49aa-bf5f-7c60a60042de","system_id":"levelo_inurba_marseille","lat":43.311131,"lon":5.377651,"is_reserved":false,"is_disabled":false,"rental_uris":{"android":"levelo://app?vid=9c8e2dc2-4ada-49aa-bf5f-7c60a60042de","ios":"levelo://app?vid=9c8e2dc2-4ada-49aa-bf5f-7c60a60042de"},"vehicle_type_id":"4","last_reported":1714079277,"current_range_meters":16000,"station_id":"ce4bgt92rcd13ifvqcg0","pricing_plan_id":"cebpf4jnsgd1na2vs0mg"},{"bike_id":"8f62dce1-a001-485a-9426-61a696914941","system_id":"levelo_inurba_marseille","lat":43.307945,"lon":5.376487,"is_reserved":false,"is_disabled":false,"rental_uris":{"android":"levelo://app?vid=8f62dce1-a001-485a-9426-61a696914941","ios":"levelo://app?vid=8f62dce1-a001-485a-9426-61a696914941"},"vehicle_type_id":"4","last_reported":1714079277,"current_range_meters":17200,"station_id":"ce4bgv92rcd13ifvqcq0","pricing_plan_id":"cebpf4jnsgd1na2vs0mg"},{"bike_id":"4dde0a25-66f8-446a-bbd7-59360b783bab","system_id":"levelo_inurba_marseille","lat":43.307868,"lon":5.376537,"is_reserved":false,"is_disabled":false,"rental_uris":{"android":"levelo://app?vid=4dde0a25-66f8-446a-bbd7-59360b783bab","ios":"levelo://app?vid=4dde0a25-66f8-446a-bbd7-59360b783bab"},"vehicle_type_id":"4","last_reported":1714079277,"current_range_meters":12400,"station_id":"ce4bgv92rcd13ifvqcq0","pricing_plan_id":"cebpf4jnsgd1na2vs0mg"},{"bike_id":"c3a93fef-ce6f-43fc-8a57-72e9fe8b35ef","system_id":"levelo_inurba_marseille","lat":43.307945,"lon":5.376487,"is_reserved":false,"is_disabled":false,"rental_uris":{"android":"levelo://app?vid=c3a93fef-ce6f-43fc-8a57-72e9fe8b35ef","ios":"levelo://app?vid=c3a93fef-ce6f-43fc-8a57-72e9fe8b35ef"},"vehicle_type_id":"4","last_reported":1714079277,"current_range_meters":8000,"station_id":"ce4bgv92rcd13ifvqcq0","pricing_plan_id":"cebpf4jnsgd1na2vs0mg"},{"bike_id":"18382e17-6a6b-4a45-a3bc-0e5895473ddc","system_id":"levelo_inurba_marseille","lat":43.307945,"lon":5.376487,"is_reserved":false,"is_disabled":false,"rental_uris":{"android":"levelo://app?vid=18382e17-6a6b-4a45-a3bc-0e5895473ddc","ios":"levelo://app?vid=18382e17-6a6b-4a45-a3bc-0e5895473ddc"},"vehicle_type_id":"4","last_reported":1714079277,"current_range_meters":22800,"station_id":"ce4bgv92rcd13ifvqcq0","pricing_plan_id":"cebpf4jnsgd1na2vs0mg"},{"bike_id":"ac22e92e-7e8c-40e6-a7f9-b5375690c624","system_id":"levelo_inurba_marseille","lat":43.30782,"lon":5.37657,"is_reserved":false,"is_disabled":false,"rental_uris":{"android":"levelo://app?vid=ac22e92e-7e8c-40e6-a7f9-b5375690c624","ios":"levelo://app?vid=ac22e92e-7e8c-40e6-a7f9-b5375690c624"},"vehicle_type_id":"4","last_reported":1714079277,"current_range_meters":31200,"station_id":"ce4bgv92rcd13ifvqcq0","pricing_plan_id":"cebpf4jnsgd1na2vs0mg"},{"bike_id":"6cd0dc63-c6a9-4b70-a679-66b549ca9d01","system_id":"levelo_inurba_marseille","lat":43.307945,"lon":5.376487,"is_reserved":false,"is_disabled":false,"rental_uris":{"android":"levelo://app?vid=6cd0dc63-c6a9-4b70-a679-66b549ca9d01","ios":"levelo://app?vid=6cd0dc63-c6a9-4b70-a679-66b549ca9d01"},"vehicle_type_id":"4","last_reported":1714079277,"current_range_meters":24000,"station_id":"ce4bgv92rcd13ifvqcq0","pricing_plan_id":"cebpf4jnsgd1na2vs0mg"},{"bike_id":"01c8efeb-4fb7-4f8f-a731-f28ede50a3f2","system_id":"levelo_inurba_marseille","lat":43.316988,"lon":5.37743,"is_reserved":false,"is_disabled":false,"rental_uris":{"android":"levelo://app?vid=01c8efeb-4fb7-4f8f-a731-f28ede50a3f2","ios":"levelo://app?vid=01c8efeb-4fb7-4f8f-a731-f28ede50a3f2"},"vehicle_type_id":"4","last_reported":1714079277,"current_range_meters":0,"station_id":"ce4bgth2rcd13ifvqch0","pricing_plan_id":"cebpf4jnsgd1na2vs0mg"},{"bike_id":"9e65e9ca-1e3a-4f43-8b51-42e13a41197f","system_id":"levelo_inurba_marseille","lat":43.317075,"lon":5.377367,"is_reserved":false,"is_disabled":false,"rental_uris":{"android":"levelo://app?vid=9e65e9ca-1e3a-4f43-8b51-42e13a41197f","ios":"levelo://app?vid=9e65e9ca-1e3a-4f43-8b51-42e13a41197f"},"vehicle_type_id":"4","last_reported":1714079277,"current_range_meters":9600,"station_id":"ce4bgth2rcd13ifvqch0","pricing_plan_id":"cebpf4jnsgd1na2vs0mg"},{"bike_id":"4384296e-0b0b-42c2-b297-d14615187f1e","system_id":"levelo_inurba_marseille","lat":43.317075,"lon":5.377367,"is_reserved":false,"is_disabled":false,"rental_uris":{"android":"levelo://app?vid=4384296e-0b0b-42c2-b297-d14615187f1e","ios":"levelo://app?vid=4384296e-0b0b-42c2-b297-d14615187f1e"},"vehicle_type_id":"4","last_reported":1714079277,"current_range_meters":15600,"station_id":"ce4bgth2rcd13ifvqch0","pricing_plan_id":"cebpf4jnsgd1na2vs0mg"},{"bike_id":"7dc52404-cbd8-4d37-bc5d-fa2cfacdc682","system_id":"levelo_inurba_marseille","lat":43.315289,"lon":5.380349,"is_reserved":false,"is_disabled":false,"rental_uris":{"android":"levelo://app?vid=7dc52404-cbd8-4d37-bc5d-fa2cfacdc682","ios":"levelo://app?vid=7dc52404-cbd8-4d37-bc5d-fa2cfacdc682"},"vehicle_type_id":"4","last_reported":1714079277,"current_range_meters":22400,"station_id":"ce4bhsp2rcd13ifvqi50","pricing_plan_id":"cebpf4jnsgd1na2vs0mg"},{"bike_id":"13c50a3c-6f3f-4161-8774-ca9b0a3bd534","system_id":"levelo_inurba_marseille","lat":43.315293,"lon":5.380349,"is_reserved":false,"is_disabled":false,"rental_uris":{"android":"levelo://app?vid=13c50a3c-6f3f-4161-8774-ca9b0a3bd534","ios":"levelo://app?vid=13c50a3c-6f3f-4161-8774-ca9b0a3bd534"},"vehicle_type_id":"4","last_reported":1714079277,"current_range_meters":22400,"station_id":"ce4bhsp2rcd13ifvqi50","pricing_plan_id":"cebpf4jnsgd1na2vs0mg"},{"bike_id":"13db1415-349e-4c58-928f-dd2a6a86812a","system_id":"levelo_inurba_marseille","lat":43.315289,"lon":5.380349,"is_reserved":false,"is_disabled":false,"rental_uris":{"android":"levelo://app?vid=13db1415-349e-4c58-928f-dd2a6a86812a","ios":"levelo://app?vid=13db1415-349e-4c58-928f-dd2a6a86812a"},"vehicle_type_id":"4","last_reported":1714079277,"current_range_meters":7600,"station_id":"ce4bhsp2rcd13ifvqi50","pricing_plan_id":"cebpf4jnsgd1na2vs0mg"},{"bike_id":"2bb13ffb-ccb2-48be-b526-ac297325aa1c","system_id":"levelo_inurba_marseille","lat":43.301939,"lon":5.366286,"is_reserved":false,"is_disabled":false,"rental_uris":{"android":"levelo://app?vid=2bb13ffb-ccb2-48be-b526-ac297325aa1c","ios":"levelo://app?vid=2bb13ffb-ccb2-48be-b526-ac297325aa1c"},"vehicle_type_id":"4","last_reported":1714079277,"current_range_meters":6400,"station_id":"ce4bgrh2rcd13ifvqc8g","pricing_plan_id":"cebpf4jnsgd1na2vs0mg"},{"bike_id":"37162c9a-8c3f-4841-af6e-79de2354b510","system_id":"levelo_inurba_marseille","lat":43.324771,"lon":5.36557,"is_reserved":false,"is_disabled":false,"rental_uris":{"android":"levelo://app?vid=37162c9a-8c3f-4841-af6e-79de2354b510","ios":"levelo://app?vid=37162c9a-8c3f-4841-af6e-79de2354b510"},"vehicle_type_id":"4","last_reported":1714079277,"current_range_meters":800,"station_id":"ce4bhs12rcd13ifvqhvg","pricing_plan_id":"cebpf4jnsgd1na2vs0mg"},{"bike_id":"c4733f54-8572-4ab7-8908-30d2acd6540f","system_id":"levelo_inurba_marseille","lat":43.307945,"lon":5.381611,"is_reserved":false,"is_disabled":false,"rental_uris":{"android":"levelo://app?vid=c4733f54-8572-4ab7-8908-30d2acd6540f","ios":"levelo://app?vid=c4733f54-8572-4ab7-8908-30d2acd6540f"},"vehicle_type_id":"4","last_reported":1714079277,"current_range_meters":0,"station_id":"ce4bgt12rcd13ifvqce0","pricing_plan_id":"cebpf4jnsgd1na2vs0mg"},{"bike_id":"395f40bf-cf18-499e-b79a-191eb4376db7","system_id":"levelo_inurba_marseille","lat":43.308012,"lon":5.381511,"is_reserved":false,"is_disabled":false,"rental_uris":{"android":"levelo://app?vid=395f40bf-cf18-499e-b79a-191eb4376db7","ios":"levelo://app?vid=395f40bf-cf18-499e-b79a-191eb4376db7"},"vehicle_type_id":"4","last_reported":1714079277,"current_range_meters":0,"station_id":"ce4bgt12rcd13ifvqce0","pricing_plan_id":"cebpf4jnsgd1na2vs0mg"},{"bike_id":"8f88d152-971d-4d2c-8874-d58372618b70","system_id":"levelo_inurba_marseille","lat":43.32479,"lon":5.365642,"is_reserved":false,"is_disabled":false,"rental_uris":{"android":"levelo://app?vid=8f88d152-971d-4d2c-8874-d58372618b70","ios":"levelo://app?vid=8f88d152-971d-4d2c-8874-d58372618b70"},"vehicle_type_id":"4","last_reported":1714079277,"current_range_meters":4800,"station_id":"ce4bhs12rcd13ifvqhvg","pricing_plan_id":"cebpf4jnsgd1na2vs0mg"},{"bike_id":"684ca32b-421d-46fc-85d1-dc2a176cabf5","system_id":"levelo_inurba_marseille","lat":43.324771,"lon":5.36557,"is_reserved":false,"is_disabled":false,"rental_uris":{"android":"levelo://app?vid=684ca32b-421d-46fc-85d1-dc2a176cabf5","ios":"levelo://app?vid=684ca32b-421d-46fc-85d1-dc2a176cabf5"},"vehicle_type_id":"4","last_reported":1714079277,"current_range_meters":0,"station_id":"ce4bhs12rcd13ifvqhvg","pricing_plan_id":"cebpf4jnsgd1na2vs0mg"},{"bike_id":"f49a684d-610a-4500-a8c0-16dc58fc4d13","system_id":"levelo_inurba_marseille","lat":43.324771,"lon":5.36557,"is_reserved":false,"is_disabled":false,"rental_uris":{"android":"levelo://app?vid=f49a684d-610a-4500-a8c0-16dc58fc4d13","ios":"levelo://app?vid=f49a684d-610a-4500-a8c0-16dc58fc4d13"},"vehicle_type_id":"4","last_reported":1714079277,"current_range_meters":12400,"station_id":"ce4bhs12rcd13ifvqhvg","pricing_plan_id":"cebpf4jnsgd1na2vs0mg"},{"bike_id":"e7467c82-0d42-4813-a3e5-8b0fe2f5bd7b","system_id":"levelo_inurba_marseille","lat":43.324771,"lon":5.36557,"is_reserved":false,"is_disabled":false,"rental_uris":{"android":"levelo://app?vid=e7467c82-0d42-4813-a3e5-8b0fe2f5bd7b","ios":"levelo://app?vid=e7467c82-0d42-4813-a3e5-8b0fe2f5bd7b"},"vehicle_type_id":"4","last_reported":1714079277,"current_range_meters":20400,"station_id":"ce4bhs12rcd13ifvqhvg","pricing_plan_id":"cebpf4jnsgd1na2vs0mg"},{"bike_id":"ca4ca187-799d-46f4-a1d1-32619e2f58ca","system_id":"levelo_inurba_marseille","lat":43.324771,"lon":5.36557,"is_reserved":false,"is_disabled":false,"rental_uris":{"android":"levelo://app?vid=ca4ca187-799d-46f4-a1d1-32619e2f58ca","ios":"levelo://app?vid=ca4ca187-799d-46f4-a1d1-32619e2f58ca"},"vehicle_type_id":"4","last_reported":1714079277,"current_range_meters":28800,"station_id":"ce4bhs12rcd13ifvqhvg","pricing_plan_id":"cebpf4jnsgd1na2vs0mg"},{"bike_id":"375b50fc-ac68-40dd-ad99-add96c82b6e9","system_id":"levelo_inurba_marseille","lat":43.324771,"lon":5.36557,"is_reserved":false,"is_disabled":false,"rental_uris":{"android":"levelo://app?vid=375b50fc-ac68-40dd-ad99-add96c82b6e9","ios":"levelo://app?vid=375b50fc-ac68-40dd-ad99-add96c82b6e9"},"vehicle_type_id":"4","last_reported":1714079277,"current_range_meters":5600,"station_id":"ce4bhs12rcd13ifvqhvg","pricing_plan_id":"cebpf4jnsgd1na2vs0mg"},{"bike_id":"40b666b2-30b2-4933-aaa5-d61dd1849f20","system_id":"levelo_inurba_marseille","lat":43.324771,"lon":5.36557,"is_reserved":false,"is_disabled":false,"rental_uris":{"android":"levelo://app?vid=40b666b2-30b2-4933-aaa5-d61dd1849f20","ios":"levelo://app?vid=40b666b2-30b2-4933-aaa5-d61dd1849f20"},"vehicle_type_id":"4","last_reported":1714079277,"current_range_meters":28400,"station_id":"ce4bhs12rcd13ifvqhvg","pricing_plan_id":"cebpf4jnsgd1na2vs0mg"},{"bike_id":"516e5cf7-9fd5-499c-ac13-c35246d1c116","system_id":"levelo_inurba_marseille","lat":43.324771,"lon":5.36557,"is_reserved":false,"is_disabled":false,"rental_uris":{"android":"levelo://app?vid=516e5cf7-9fd5-499c-ac13-c35246d1c116","ios":"levelo://app?vid=516e5cf7-9fd5-499c-ac13-c35246d1c116"},"vehicle_type_id":"4","last_reported":1714079277,"current_range_meters":10000,"station_id":"ce4bhs12rcd13ifvqhvg","pricing_plan_id":"cebpf4jnsgd1na2vs0mg"},{"bike_id":"48791681-48d0-4948-be97-7a720fbe1e98","system_id":"levelo_inurba_marseille","lat":43.324771,"lon":5.36557,"is_reserved":false,"is_disabled":false,"rental_uris":{"android":"levelo://app?vid=48791681-48d0-4948-be97-7a720fbe1e98","ios":"levelo://app?vid=48791681-48d0-4948-be97-7a720fbe1e98"},"vehicle_type_id":"4","last_reported":1714079277,"current_range_meters":28400,"station_id":"ce4bhs12rcd13ifvqhvg","pricing_plan_id":"cebpf4jnsgd1na2vs0mg"},{"bike_id":"a8486839-3750-48ba-9549-14aa0e6b7c39","system_id":"levelo_inurba_marseille","lat":43.31078,"lon":5.38351,"is_reserved":false,"is_disabled":false,"rental_uris":{"android":"levelo://app?vid=a8486839-3750-48ba-9549-14aa0e6b7c39","ios":"levelo://app?vid=a8486839-3750-48ba-9549-14aa0e6b7c39"},"vehicle_type_id":"4","last_reported":1714079277,"current_range_meters":6000,"station_id":"ce4bgv92rcd13ifvqcr0","pricing_plan_id":"cebpf4jnsgd1na2vs0mg"},{"bike_id":"3b7b3feb-09b9-44bc-9646-c820c5dd160f","system_id":"levelo_inurba_marseille","lat":43.31074,"lon":5.38351,"is_reserved":false,"is_disabled":false,"rental_uris":{"android":"levelo://app?vid=3b7b3feb-09b9-44bc-9646-c820c5dd160f","ios":"levelo://app?vid=3b7b3feb-09b9-44bc-9646-c820c5dd160f"},"vehicle_type_id":"4","last_reported":1714079277,"current_range_meters":3200,"station_id":"ce4bgv92rcd13ifvqcr0","pricing_plan_id":"cebpf4jnsgd1na2vs0mg"},{"bike_id":"e32e3623-424f-442a-baff-7c1fda8f3a64","system_id":"levelo_inurba_marseille","lat":43.31077,"lon":5.38358,"is_reserved":false,"is_disabled":false,"rental_uris":{"android":"levelo://app?vid=e32e3623-424f-442a-baff-7c1fda8f3a64","ios":"levelo://app?vid=e32e3623-424f-442a-baff-7c1fda8f3a64"},"vehicle_type_id":"4","last_reported":1714079277,"current_range_meters":31200,"station_id":"ce4bgv92rcd13ifvqcr0","pricing_plan_id":"cebpf4jnsgd1na2vs0mg"},{"bike_id":"49587430-d4a1-4231-85c4-9af5f0e154c2","system_id":"levelo_inurba_marseille","lat":43.302784,"lon":5.377158,"is_reserved":false,"is_disabled":false,"rental_uris":{"android":"levelo://app?vid=49587430-d4a1-4231-85c4-9af5f0e154c2","ios":"levelo://app?vid=49587430-d4a1-4231-85c4-9af5f0e154c2"},"vehicle_type_id":"4","last_reported":1714079277,"current_range_meters":0,"station_id":"ce4bguh2rcd13ifvqcj0","pricing_plan_id":"cebpf4jnsgd1na2vs0mg"},{"bike_id":"c23ff1fb-c5f3-41e9-a8a0-e48f9e682b14","system_id":"levelo_inurba_marseille","lat":43.310804,"lon":5.38359,"is_reserved":false,"is_disabled":false,"rental_uris":{"android":"levelo://app?vid=c23ff1fb-c5f3-41e9-a8a0-e48f9e682b14","ios":"levelo://app?vid=c23ff1fb-c5f3-41e9-a8a0-e48f9e682b14"},"vehicle_type_id":"4","last_reported":1714079277,"current_range_meters":7200,"station_id":"ce4bgv92rcd13ifvqcr0","pricing_plan_id":"cebpf4jnsgd1na2vs0mg"},{"bike_id":"371ce480-326a-4569-8e56-9687cd2cf1f7","system_id":"levelo_inurba_marseille","lat":43.310804,"lon":5.38359,"is_reserved":false,"is_disabled":false,"rental_uris":{"android":"levelo://app?vid=371ce480-326a-4569-8e56-9687cd2cf1f7","ios":"levelo://app?vid=371ce480-326a-4569-8e56-9687cd2cf1f7"},"vehicle_type_id":"4","last_reported":1714079277,"current_range_meters":2400,"station_id":"ce4bgv92rcd13ifvqcr0","pricing_plan_id":"cebpf4jnsgd1na2vs0mg"},{"bike_id":"d9db9220-ee71-43a2-bd31-6e8aec48bb61","system_id":"levelo_inurba_marseille","lat":43.30143,"lon":5.37413,"is_reserved":false,"is_disabled":false,"rental_uris":{"android":"levelo://app?vid=d9db9220-ee71-43a2-bd31-6e8aec48bb61","ios":"levelo://app?vid=d9db9220-ee71-43a2-bd31-6e8aec48bb61"},"vehicle_type_id":"4","last_reported":1714079277,"current_range_meters":16400,"station_id":"ce4bgs92rcd13ifvqcc0","pricing_plan_id":"cebpf4jnsgd1na2vs0mg"},{"bike_id":"81f9b193-22d1-4841-88a9-1e6859aeb76b","system_id":"levelo_inurba_marseille","lat":43.319935,"lon":5.381699,"is_reserved":false,"is_disabled":false,"rental_uris":{"android":"levelo://app?vid=81f9b193-22d1-4841-88a9-1e6859aeb76b","ios":"levelo://app?vid=81f9b193-22d1-4841-88a9-1e6859aeb76b"},"vehicle_type_id":"4","last_reported":1714079277,"current_range_meters":21200,"station_id":"ce4bhr12rcd13ifvqhpg","pricing_plan_id":"cebpf4jnsgd1na2vs0mg"},{"bike_id":"5cb92a34-42be-44aa-b364-f20db1aeee5b","system_id":"levelo_inurba_marseille","lat":43.319935,"lon":5.381699,"is_reserved":false,"is_disabled":false,"rental_uris":{"android":"levelo://app?vid=5cb92a34-42be-44aa-b364-f20db1aeee5b","ios":"levelo://app?vid=5cb92a34-42be-44aa-b364-f20db1aeee5b"},"vehicle_type_id":"4","last_reported":1714079277,"current_range_meters":6000,"station_id":"ce4bhr12rcd13ifvqhpg","pricing_plan_id":"cebpf4jnsgd1na2vs0mg"},{"bike_id":"f11573ed-934e-4499-b623-ab33b8c0b243","system_id":"levelo_inurba_marseille","lat":43.319935,"lon":5.381699,"is_reserved":false,"is_disabled":false,"rental_uris":{"android":"levelo://app?vid=f11573ed-934e-4499-b623-ab33b8c0b243","ios":"levelo://app?vid=f11573ed-934e-4499-b623-ab33b8c0b243"},"vehicle_type_id":"4","last_reported":1714079277,"current_range_meters":18800,"station_id":"ce4bhr12rcd13ifvqhpg","pricing_plan_id":"cebpf4jnsgd1na2vs0mg"},{"bike_id":"c392d2a5-7b30-4977-9da0-86522e68a790","system_id":"levelo_inurba_marseille","lat":43.319935,"lon":5.381699,"is_reserved":false,"is_disabled":false,"rental_uris":{"android":"levelo://app?vid=c392d2a5-7b30-4977-9da0-86522e68a790","ios":"levelo://app?vid=c392d2a5-7b30-4977-9da0-86522e68a790"},"vehicle_type_id":"4","last_reported":1714079277,"current_range_meters":9200,"station_id":"ce4bhr12rcd13ifvqhpg","pricing_plan_id":"cebpf4jnsgd1na2vs0mg"},{"bike_id":"e9995a6b-465f-4f74-a0c2-22c38e5f0dcb","system_id":"levelo_inurba_marseille","lat":43.313571,"lon":5.384829,"is_reserved":false,"is_disabled":false,"rental_uris":{"android":"levelo://app?vid=e9995a6b-465f-4f74-a0c2-22c38e5f0dcb","ios":"levelo://app?vid=e9995a6b-465f-4f74-a0c2-22c38e5f0dcb"},"vehicle_type_id":"4","last_reported":1714079277,"current_range_meters":23600,"station_id":"ce4bgt92rcd13ifvqcf0","pricing_plan_id":"cebpf4jnsgd1na2vs0mg"},{"bike_id":"02925292-817e-4a82-9af9-403e1e55a906","system_id":"levelo_inurba_marseille","lat":43.313571,"lon":5.384829,"is_reserved":false,"is_disabled":false,"rental_uris":{"android":"levelo://app?vid=02925292-817e-4a82-9af9-403e1e55a906","ios":"levelo://app?vid=02925292-817e-4a82-9af9-403e1e55a906"},"vehicle_type_id":"4","last_reported":1714079277,"current_range_meters":7200,"station_id":"ce4bgt92rcd13ifvqcf0","pricing_plan_id":"cebpf4jnsgd1na2vs0mg"},{"bike_id":"488c5e75-2b06-45c3-9e10-ff61d00eb31e","system_id":"levelo_inurba_marseille","lat":43.313557,"lon":5.384983,"is_reserved":false,"is_disabled":false,"rental_uris":{"android":"levelo://app?vid=488c5e75-2b06-45c3-9e10-ff61d00eb31e","ios":"levelo://app?vid=488c5e75-2b06-45c3-9e10-ff61d00eb31e"},"vehicle_type_id":"4","last_reported":1714079277,"current_range_meters":2000,"station_id":"ce4bgt92rcd13ifvqcf0","pricing_plan_id":"cebpf4jnsgd1na2vs0mg"},{"bike_id":"55a8bdec-c931-450a-88b2-74e4ff3f4e60","system_id":"levelo_inurba_marseille","lat":43.299222,"lon":5.365554,"is_reserved":false,"is_disabled":false,"rental_uris":{"android":"levelo://app?vid=55a8bdec-c931-450a-88b2-74e4ff3f4e60","ios":"levelo://app?vid=55a8bdec-c931-450a-88b2-74e4ff3f4e60"},"vehicle_type_id":"4","last_reported":1714079277,"current_range_meters":4800,"station_id":"ce4bgm92rcd13ifvqbr0","pricing_plan_id":"cebpf4jnsgd1na2vs0mg"},{"bike_id":"541f191c-d57a-4832-b899-d16870b17523","system_id":"levelo_inurba_marseille","lat":43.29982,"lon":5.37179,"is_reserved":false,"is_disabled":false,"rental_uris":{"android":"levelo://app?vid=541f191c-d57a-4832-b899-d16870b17523","ios":"levelo://app?vid=541f191c-d57a-4832-b899-d16870b17523"},"vehicle_type_id":"4","last_reported":1714079277,"current_range_meters":0,"station_id":"ce4bgr92rcd13ifvqc7g","pricing_plan_id":"cebpf4jnsgd1na2vs0mg"},{"bike_id":"e454f2eb-a60e-47f9-8e52-bff95921d66f","system_id":"levelo_inurba_marseille","lat":43.299724,"lon":5.371829,"is_reserved":false,"is_disabled":false,"rental_uris":{"android":"levelo://app?vid=e454f2eb-a60e-47f9-8e52-bff95921d66f","ios":"levelo://app?vid=e454f2eb-a60e-47f9-8e52-bff95921d66f"},"vehicle_type_id":"4","last_reported":1714079277,"current_range_meters":13600,"station_id":"ce4bgr92rcd13ifvqc7g","pricing_plan_id":"cebpf4jnsgd1na2vs0mg"},{"bike_id":"0765f9c4-5dfb-492a-8a05-1d1b8d0ece04","system_id":"levelo_inurba_marseille","lat":43.299222,"lon":5.365554,"is_reserved":false,"is_disabled":false,"rental_uris":{"android":"levelo://app?vid=0765f9c4-5dfb-492a-8a05-1d1b8d0ece04","ios":"levelo://app?vid=0765f9c4-5dfb-492a-8a05-1d1b8d0ece04"},"vehicle_type_id":"4","last_reported":1714079277,"current_range_meters":19600,"station_id":"ce4bgm92rcd13ifvqbr0","pricing_plan_id":"cebpf4jnsgd1na2vs0mg"},{"bike_id":"f5faee80-c817-41ed-97cd-5d6af1dc2cc5","system_id":"levelo_inurba_marseille","lat":43.29975,"lon":5.37171,"is_reserved":false,"is_disabled":false,"rental_uris":{"android":"levelo://app?vid=f5faee80-c817-41ed-97cd-5d6af1dc2cc5","ios":"levelo://app?vid=f5faee80-c817-41ed-97cd-5d6af1dc2cc5"},"vehicle_type_id":"4","last_reported":1714079277,"current_range_meters":13200,"station_id":"ce4bgr92rcd13ifvqc7g","pricing_plan_id":"cebpf4jnsgd1na2vs0mg"},{"bike_id":"151ab5f2-27d9-47ea-ae4b-3e1b71f3614f","system_id":"levelo_inurba_marseille","lat":43.29975,"lon":5.37176,"is_reserved":false,"is_disabled":false,"rental_uris":{"android":"levelo://app?vid=151ab5f2-27d9-47ea-ae4b-3e1b71f3614f","ios":"levelo://app?vid=151ab5f2-27d9-47ea-ae4b-3e1b71f3614f"},"vehicle_type_id":"4","last_reported":1714079277,"current_range_meters":7200,"station_id":"ce4bgr92rcd13ifvqc7g","pricing_plan_id":"cebpf4jnsgd1na2vs0mg"},{"bike_id":"611b25c5-36d8-45f8-86e7-2cfbfef14812","system_id":"levelo_inurba_marseille","lat":43.299564,"lon":5.373606,"is_reserved":false,"is_disabled":false,"rental_uris":{"android":"levelo://app?vid=611b25c5-36d8-45f8-86e7-2cfbfef14812","ios":"levelo://app?vid=611b25c5-36d8-45f8-86e7-2cfbfef14812"},"vehicle_type_id":"4","last_reported":1714079277,"current_range_meters":19600,"station_id":"","pricing_plan_id":"cebpf4jnsgd1na2vs0mg"},{"bike_id":"706b7773-da0e-4a24-a5f6-dfc102b83b11","system_id":"levelo_inurba_marseille","lat":43.299243,"lon":5.374807,"is_reserved":false,"is_disabled":false,"rental_uris":{"android":"levelo://app?vid=706b7773-da0e-4a24-a5f6-dfc102b83b11","ios":"levelo://app?vid=706b7773-da0e-4a24-a5f6-dfc102b83b11"},"vehicle_type_id":"4","last_reported":1714079277,"current_range_meters":17600,"station_id":"ce4bgjh2rcd13ifvqbg0","pricing_plan_id":"cebpf4jnsgd1na2vs0mg"},{"bike_id":"4ebe1023-dc2c-4e9d-bb7b-48a1cc7c88d0","system_id":"levelo_inurba_marseille","lat":43.298433,"lon":5.362774,"is_reserved":false,"is_disabled":false,"rental_uris":{"android":"levelo://app?vid=4ebe1023-dc2c-4e9d-bb7b-48a1cc7c88d0","ios":"levelo://app?vid=4ebe1023-dc2c-4e9d-bb7b-48a1cc7c88d0"},"vehicle_type_id":"4","last_reported":1714079277,"current_range_meters":8800,"station_id":"ce4bgpp2rcd13ifvqc3g","pricing_plan_id":"cebpf4jnsgd1na2vs0mg"},{"bike_id":"9c182342-6da1-49bc-8e1d-a2047ab01ff2","system_id":"levelo_inurba_marseille","lat":43.311722,"lon":5.387247,"is_reserved":false,"is_disabled":false,"rental_uris":{"android":"levelo://app?vid=9c182342-6da1-49bc-8e1d-a2047ab01ff2","ios":"levelo://app?vid=9c182342-6da1-49bc-8e1d-a2047ab01ff2"},"vehicle_type_id":"4","last_reported":1714079277,"current_range_meters":14800,"station_id":"ce4bgv12rcd13ifvqcp0","pricing_plan_id":"cebpf4jnsgd1na2vs0mg"},{"bike_id":"67a385e5-1ef9-4656-a06c-ad6b30169780","system_id":"levelo_inurba_marseille","lat":43.311706,"lon":5.387106,"is_reserved":false,"is_disabled":false,"rental_uris":{"android":"levelo://app?vid=67a385e5-1ef9-4656-a06c-ad6b30169780","ios":"levelo://app?vid=67a385e5-1ef9-4656-a06c-ad6b30169780"},"vehicle_type_id":"4","last_reported":1714079277,"current_range_meters":0,"station_id":"ce4bgv12rcd13ifvqcp0","pricing_plan_id":"cebpf4jnsgd1na2vs0mg"},{"bike_id":"5d50484e-1e4c-456c-82bb-6fec28fe2dba","system_id":"levelo_inurba_marseille","lat":43.299243,"lon":5.37481,"is_reserved":false,"is_disabled":false,"rental_uris":{"android":"levelo://app?vid=5d50484e-1e4c-456c-82bb-6fec28fe2dba","ios":"levelo://app?vid=5d50484e-1e4c-456c-82bb-6fec28fe2dba"},"vehicle_type_id":"4","last_reported":1714079277,"current_range_meters":18400,"station_id":"ce4bgjh2rcd13ifvqbg0","pricing_plan_id":"cebpf4jnsgd1na2vs0mg"},{"bike_id":"45559035-6c24-4da3-a00f-2c6da08f30ec","system_id":"levelo_inurba_marseille","lat":43.31176,"lon":5.38718,"is_reserved":false,"is_disabled":false,"rental_uris":{"android":"levelo://app?vid=45559035-6c24-4da3-a00f-2c6da08f30ec","ios":"levelo://app?vid=45559035-6c24-4da3-a00f-2c6da08f30ec"},"vehicle_type_id":"4","last_reported":1714079277,"current_range_meters":0,"station_id":"ce4bgv12rcd13ifvqcp0","pricing_plan_id":"cebpf4jnsgd1na2vs0mg"},{"bike_id":"1509f5eb-6b03-4e47-881a-cd1a4d06a22c","system_id":"levelo_inurba_marseille","lat":43.311722,"lon":5.387247,"is_reserved":false,"is_disabled":false,"rental_uris":{"android":"levelo://app?vid=1509f5eb-6b03-4e47-881a-cd1a4d06a22c","ios":"levelo://app?vid=1509f5eb-6b03-4e47-881a-cd1a4d06a22c"},"vehicle_type_id":"4","last_reported":1714079277,"current_range_meters":22800,"station_id":"ce4bgv12rcd13ifvqcp0","pricing_plan_id":"cebpf4jnsgd1na2vs0mg"},{"bike_id":"a91c2454-fa7c-4d54-95f3-4cb5ffa34c8f","system_id":"levelo_inurba_marseille","lat":43.311722,"lon":5.387247,"is_reserved":false,"is_disabled":false,"rental_uris":{"android":"levelo://app?vid=a91c2454-fa7c-4d54-95f3-4cb5ffa34c8f","ios":"levelo://app?vid=a91c2454-fa7c-4d54-95f3-4cb5ffa34c8f"},"vehicle_type_id":"4","last_reported":1714079277,"current_range_meters":13600,"station_id":"ce4bgv12rcd13ifvqcp0","pricing_plan_id":"cebpf4jnsgd1na2vs0mg"},{"bike_id":"a4d3d695-34f3-4434-834d-8ed1be19315c","system_id":"levelo_inurba_marseille","lat":43.297794,"lon":5.370888,"is_reserved":false,"is_disabled":false,"rental_uris":{"android":"levelo://app?vid=a4d3d695-34f3-4434-834d-8ed1be19315c","ios":"levelo://app?vid=a4d3d695-34f3-4434-834d-8ed1be19315c"},"vehicle_type_id":"4","last_reported":1714079277,"current_range_meters":18400,"station_id":"ce4bgop2rcd13ifvqc1g","pricing_plan_id":"cebpf4jnsgd1na2vs0mg"},{"bike_id":"53f1b87e-8eac-41c2-ad76-f19fa21971b2","system_id":"levelo_inurba_marseille","lat":43.301538,"lon":5.381097,"is_reserved":false,"is_disabled":false,"rental_uris":{"android":"levelo://app?vid=53f1b87e-8eac-41c2-ad76-f19fa21971b2","ios":"levelo://app?vid=53f1b87e-8eac-41c2-ad76-f19fa21971b2"},"vehicle_type_id":"4","last_reported":1714079277,"current_range_meters":9600,"station_id":"","pricing_plan_id":"cebpf4jnsgd1na2vs0mg"},{"bike_id":"c1783b76-4492-4068-9215-dda74133dc81","system_id":"levelo_inurba_marseille","lat":43.322872,"lon":5.382756,"is_reserved":false,"is_disabled":false,"rental_uris":{"android":"levelo://app?vid=c1783b76-4492-4068-9215-dda74133dc81","ios":"levelo://app?vid=c1783b76-4492-4068-9215-dda74133dc81"},"vehicle_type_id":"4","last_reported":1714079277,"current_range_meters":19600,"station_id":"ce4bhr12rcd13ifvqhqg","pricing_plan_id":"cebpf4jnsgd1na2vs0mg"},{"bike_id":"a8e2ca69-f699-47f0-8ae7-ac0a3630abe3","system_id":"levelo_inurba_marseille","lat":43.322872,"lon":5.382756,"is_reserved":false,"is_disabled":false,"rental_uris":{"android":"levelo://app?vid=a8e2ca69-f699-47f0-8ae7-ac0a3630abe3","ios":"levelo://app?vid=a8e2ca69-f699-47f0-8ae7-ac0a3630abe3"},"vehicle_type_id":"4","last_reported":1714079277,"current_range_meters":12000,"station_id":"ce4bhr12rcd13ifvqhqg","pricing_plan_id":"cebpf4jnsgd1na2vs0mg"},{"bike_id":"3a030d44-086f-4717-80c1-f39d4835fb23","system_id":"levelo_inurba_marseille","lat":43.322872,"lon":5.382756,"is_reserved":false,"is_disabled":false,"rental_uris":{"android":"levelo://app?vid=3a030d44-086f-4717-80c1-f39d4835fb23","ios":"levelo://app?vid=3a030d44-086f-4717-80c1-f39d4835fb23"},"vehicle_type_id":"4","last_reported":1714079277,"current_range_meters":2000,"station_id":"ce4bhr12rcd13ifvqhqg","pricing_plan_id":"cebpf4jnsgd1na2vs0mg"},{"bike_id":"688ab85f-66af-4457-9211-0ffbe19bfef2","system_id":"levelo_inurba_marseille","lat":43.322872,"lon":5.382756,"is_reserved":false,"is_disabled":false,"rental_uris":{"android":"levelo://app?vid=688ab85f-66af-4457-9211-0ffbe19bfef2","ios":"levelo://app?vid=688ab85f-66af-4457-9211-0ffbe19bfef2"},"vehicle_type_id":"4","last_reported":1714079277,"current_range_meters":800,"station_id":"ce4bhr12rcd13ifvqhqg","pricing_plan_id":"cebpf4jnsgd1na2vs0mg"},{"bike_id":"b1fba622-dd6c-4ee5-b1ca-a89c50289df3","system_id":"levelo_inurba_marseille","lat":43.32291,"lon":5.38275,"is_reserved":false,"is_disabled":false,"rental_uris":{"android":"levelo://app?vid=b1fba622-dd6c-4ee5-b1ca-a89c50289df3","ios":"levelo://app?vid=b1fba622-dd6c-4ee5-b1ca-a89c50289df3"},"vehicle_type_id":"4","last_reported":1714079277,"current_range_meters":4400,"station_id":"ce4bhr12rcd13ifvqhqg","pricing_plan_id":"cebpf4jnsgd1na2vs0mg"},{"bike_id":"af01b064-90cb-45ce-ba16-abcd8fc35ded","system_id":"levelo_inurba_marseille","lat":43.32289,"lon":5.38278,"is_reserved":false,"is_disabled":false,"rental_uris":{"android":"levelo://app?vid=af01b064-90cb-45ce-ba16-abcd8fc35ded","ios":"levelo://app?vid=af01b064-90cb-45ce-ba16-abcd8fc35ded"},"vehicle_type_id":"4","last_reported":1714079277,"current_range_meters":19600,"station_id":"ce4bhr12rcd13ifvqhqg","pricing_plan_id":"cebpf4jnsgd1na2vs0mg"},{"bike_id":"e47fb431-2897-499a-958a-373a9ab19ebb","system_id":"levelo_inurba_marseille","lat":43.322872,"lon":5.382756,"is_reserved":false,"is_disabled":false,"rental_uris":{"android":"levelo://app?vid=e47fb431-2897-499a-958a-373a9ab19ebb","ios":"levelo://app?vid=e47fb431-2897-499a-958a-373a9ab19ebb"},"vehicle_type_id":"4","last_reported":1714079277,"current_range_meters":5600,"station_id":"ce4bhr12rcd13ifvqhqg","pricing_plan_id":"cebpf4jnsgd1na2vs0mg"},{"bike_id":"8b506ba7-9169-46bf-b217-6300b8bf2f5a","system_id":"levelo_inurba_marseille","lat":43.322872,"lon":5.382756,"is_reserved":false,"is_disabled":false,"rental_uris":{"android":"levelo://app?vid=8b506ba7-9169-46bf-b217-6300b8bf2f5a","ios":"levelo://app?vid=8b506ba7-9169-46bf-b217-6300b8bf2f5a"},"vehicle_type_id":"4","last_reported":1714079277,"current_range_meters":31200,"station_id":"ce4bhr12rcd13ifvqhqg","pricing_plan_id":"cebpf4jnsgd1na2vs0mg"},{"bike_id":"19b1322d-078d-42b4-8e35-303febda0b31","system_id":"levelo_inurba_marseille","lat":43.297163,"lon":5.365866,"is_reserved":false,"is_disabled":false,"rental_uris":{"android":"levelo://app?vid=19b1322d-078d-42b4-8e35-303febda0b31","ios":"levelo://app?vid=19b1322d-078d-42b4-8e35-303febda0b31"},"vehicle_type_id":"4","last_reported":1714079277,"current_range_meters":31200,"station_id":"ce4bgn12rcd13ifvqbt0","pricing_plan_id":"cebpf4jnsgd1na2vs0mg"},{"bike_id":"b8e0340d-f345-4f56-9ef0-5553ba51b72a","system_id":"levelo_inurba_marseille","lat":43.297163,"lon":5.365866,"is_reserved":false,"is_disabled":false,"rental_uris":{"android":"levelo://app?vid=b8e0340d-f345-4f56-9ef0-5553ba51b72a","ios":"levelo://app?vid=b8e0340d-f345-4f56-9ef0-5553ba51b72a"},"vehicle_type_id":"4","last_reported":1714079277,"current_range_meters":31200,"station_id":"ce4bgn12rcd13ifvqbt0","pricing_plan_id":"cebpf4jnsgd1na2vs0mg"},{"bike_id":"b8c81409-c793-488a-be9c-5783bd9478b1","system_id":"levelo_inurba_marseille","lat":43.29712,"lon":5.36607,"is_reserved":false,"is_disabled":false,"rental_uris":{"android":"levelo://app?vid=b8c81409-c793-488a-be9c-5783bd9478b1","ios":"levelo://app?vid=b8c81409-c793-488a-be9c-5783bd9478b1"},"vehicle_type_id":"4","last_reported":1714079277,"current_range_meters":0,"station_id":"ce4bgn12rcd13ifvqbt0","pricing_plan_id":"cebpf4jnsgd1na2vs0mg"},{"bike_id":"936a3fd4-edc3-43ee-840b-3b1fd20bc65f","system_id":"levelo_inurba_marseille","lat":43.297163,"lon":5.365866,"is_reserved":false,"is_disabled":false,"rental_uris":{"android":"levelo://app?vid=936a3fd4-edc3-43ee-840b-3b1fd20bc65f","ios":"levelo://app?vid=936a3fd4-edc3-43ee-840b-3b1fd20bc65f"},"vehicle_type_id":"4","last_reported":1714079277,"current_range_meters":20000,"station_id":"ce4bgn12rcd13ifvqbt0","pricing_plan_id":"cebpf4jnsgd1na2vs0mg"},{"bike_id":"5e5ab586-fe69-4bd6-b3e9-4bd4bf45c876","system_id":"levelo_inurba_marseille","lat":43.297163,"lon":5.365866,"is_reserved":false,"is_disabled":false,"rental_uris":{"android":"levelo://app?vid=5e5ab586-fe69-4bd6-b3e9-4bd4bf45c876","ios":"levelo://app?vid=5e5ab586-fe69-4bd6-b3e9-4bd4bf45c876"},"vehicle_type_id":"4","last_reported":1714079277,"current_range_meters":18800,"station_id":"ce4bgn12rcd13ifvqbt0","pricing_plan_id":"cebpf4jnsgd1na2vs0mg"},{"bike_id":"8d1adc41-fb61-477a-a436-98c8c6acee64","system_id":"levelo_inurba_marseille","lat":43.2968,"lon":5.37291,"is_reserved":false,"is_disabled":false,"rental_uris":{"android":"levelo://app?vid=8d1adc41-fb61-477a-a436-98c8c6acee64","ios":"levelo://app?vid=8d1adc41-fb61-477a-a436-98c8c6acee64"},"vehicle_type_id":"4","last_reported":1714079277,"current_range_meters":15600,"station_id":"ce4bgk12rcd13ifvqbj0","pricing_plan_id":"cebpf4jnsgd1na2vs0mg"},{"bike_id":"1f1b85e5-c259-4f14-ade2-5888a5970ca8","system_id":"levelo_inurba_marseille","lat":43.2968,"lon":5.37291,"is_reserved":false,"is_disabled":false,"rental_uris":{"android":"levelo://app?vid=1f1b85e5-c259-4f14-ade2-5888a5970ca8","ios":"levelo://app?vid=1f1b85e5-c259-4f14-ade2-5888a5970ca8"},"vehicle_type_id":"4","last_reported":1714079277,"current_range_meters":16000,"station_id":"ce4bgk12rcd13ifvqbj0","pricing_plan_id":"cebpf4jnsgd1na2vs0mg"},{"bike_id":"ad8127a9-2012-44eb-ae95-ab14116e4d01","system_id":"levelo_inurba_marseille","lat":43.2968,"lon":5.37291,"is_reserved":false,"is_disabled":false,"rental_uris":{"android":"levelo://app?vid=ad8127a9-2012-44eb-ae95-ab14116e4d01","ios":"levelo://app?vid=ad8127a9-2012-44eb-ae95-ab14116e4d01"},"vehicle_type_id":"4","last_reported":1714079277,"current_range_meters":22800,"station_id":"ce4bgk12rcd13ifvqbj0","pricing_plan_id":"cebpf4jnsgd1na2vs0mg"},{"bike_id":"22ee16ca-a245-4dc1-ad8a-db06da73955c","system_id":"levelo_inurba_marseille","lat":43.29599,"lon":5.36902,"is_reserved":false,"is_disabled":false,"rental_uris":{"android":"levelo://app?vid=22ee16ca-a245-4dc1-ad8a-db06da73955c","ios":"levelo://app?vid=22ee16ca-a245-4dc1-ad8a-db06da73955c"},"vehicle_type_id":"4","last_reported":1714079277,"current_range_meters":1600,"station_id":"","pricing_plan_id":"cebpf4jnsgd1na2vs0mg"},{"bike_id":"a9cddbcf-49b6-462d-bb9f-d68d503698c1","system_id":"levelo_inurba_marseille","lat":43.296129,"lon":5.370777,"is_reserved":false,"is_disabled":false,"rental_uris":{"android":"levelo://app?vid=a9cddbcf-49b6-462d-bb9f-d68d503698c1","ios":"levelo://app?vid=a9cddbcf-49b6-462d-bb9f-d68d503698c1"},"vehicle_type_id":"4","last_reported":1714079277,"current_range_meters":14400,"station_id":"ce4bgnh2rcd13ifvqc0g","pricing_plan_id":"cebpf4jnsgd1na2vs0mg"},{"bike_id":"4dcd46f0-cc02-4470-a997-6834a1ea6723","system_id":"levelo_inurba_marseille","lat":43.296129,"lon":5.370777,"is_reserved":false,"is_disabled":false,"rental_uris":{"android":"levelo://app?vid=4dcd46f0-cc02-4470-a997-6834a1ea6723","ios":"levelo://app?vid=4dcd46f0-cc02-4470-a997-6834a1ea6723"},"vehicle_type_id":"4","last_reported":1714079277,"current_range_meters":31600,"station_id":"ce4bgnh2rcd13ifvqc0g","pricing_plan_id":"cebpf4jnsgd1na2vs0mg"},{"bike_id":"653edb9d-ce9a-433d-9403-f9eff8398017","system_id":"levelo_inurba_marseille","lat":43.295815,"lon":5.367622,"is_reserved":false,"is_disabled":false,"rental_uris":{"android":"levelo://app?vid=653edb9d-ce9a-433d-9403-f9eff8398017","ios":"levelo://app?vid=653edb9d-ce9a-433d-9403-f9eff8398017"},"vehicle_type_id":"4","last_reported":1714079277,"current_range_meters":2400,"station_id":"ce4bgph2rcd13ifvqc2g","pricing_plan_id":"cebpf4jnsgd1na2vs0mg"},{"bike_id":"7be8c0a7-3629-4d5b-a48b-bef4b25ce70f","system_id":"levelo_inurba_marseille","lat":43.309529,"lon":5.390233,"is_reserved":false,"is_disabled":false,"rental_uris":{"android":"levelo://app?vid=7be8c0a7-3629-4d5b-a48b-bef4b25ce70f","ios":"levelo://app?vid=7be8c0a7-3629-4d5b-a48b-bef4b25ce70f"},"vehicle_type_id":"4","last_reported":1714079277,"current_range_meters":0,"station_id":"ce4bgup2rcd13ifvqco0","pricing_plan_id":"cebpf4jnsgd1na2vs0mg"},{"bike_id":"26e42a3e-1b42-4f16-89a3-515a872aee90","system_id":"levelo_inurba_marseille","lat":43.29873,"lon":5.38104,"is_reserved":false,"is_disabled":false,"rental_uris":{"android":"levelo://app?vid=26e42a3e-1b42-4f16-89a3-515a872aee90","ios":"levelo://app?vid=26e42a3e-1b42-4f16-89a3-515a872aee90"},"vehicle_type_id":"4","last_reported":1714079277,"current_range_meters":4800,"station_id":"ce4bgj12rcd13ifvqbc0","pricing_plan_id":"cebpf4jnsgd1na2vs0mg"},{"bike_id":"50666859-4e2a-4b3a-a519-00773bce3080","system_id":"levelo_inurba_marseille","lat":43.298037,"lon":5.381066,"is_reserved":false,"is_disabled":false,"rental_uris":{"android":"levelo://app?vid=50666859-4e2a-4b3a-a519-00773bce3080","ios":"levelo://app?vid=50666859-4e2a-4b3a-a519-00773bce3080"},"vehicle_type_id":"4","last_reported":1714079277,"current_range_meters":4800,"station_id":"ce4bgip2rcd13ifvqbb0","pricing_plan_id":"cebpf4jnsgd1na2vs0mg"},{"bike_id":"652d887c-a954-45cf-88d1-149fac9b1b93","system_id":"levelo_inurba_marseille","lat":43.304274,"lon":5.388873,"is_reserved":false,"is_disabled":false,"rental_uris":{"android":"levelo://app?vid=652d887c-a954-45cf-88d1-149fac9b1b93","ios":"levelo://app?vid=652d887c-a954-45cf-88d1-149fac9b1b93"},"vehicle_type_id":"4","last_reported":1714079277,"current_range_meters":14400,"station_id":"ce4bgk12rcd13ifvqbi0","pricing_plan_id":"cebpf4jnsgd1na2vs0mg"},{"bike_id":"a6e1942c-8d54-4ae1-9036-6997aa475b5f","system_id":"levelo_inurba_marseille","lat":43.298037,"lon":5.381066,"is_reserved":false,"is_disabled":false,"rental_uris":{"android":"levelo://app?vid=a6e1942c-8d54-4ae1-9036-6997aa475b5f","ios":"levelo://app?vid=a6e1942c-8d54-4ae1-9036-6997aa475b5f"},"vehicle_type_id":"4","last_reported":1714079277,"current_range_meters":3600,"station_id":"ce4bgip2rcd13ifvqbb0","pricing_plan_id":"cebpf4jnsgd1na2vs0mg"},{"bike_id":"47f0b41d-3de0-46d4-ba5c-512058b05032","system_id":"levelo_inurba_marseille","lat":43.304274,"lon":5.388873,"is_reserved":false,"is_disabled":false,"rental_uris":{"android":"levelo://app?vid=47f0b41d-3de0-46d4-ba5c-512058b05032","ios":"levelo://app?vid=47f0b41d-3de0-46d4-ba5c-512058b05032"},"vehicle_type_id":"4","last_reported":1714079277,"current_range_meters":22800,"station_id":"ce4bgk12rcd13ifvqbi0","pricing_plan_id":"cebpf4jnsgd1na2vs0mg"},{"bike_id":"d8e71387-18d7-480c-970e-661db7e88f33","system_id":"levelo_inurba_marseille","lat":43.295748,"lon":5.37522,"is_reserved":false,"is_disabled":false,"rental_uris":{"android":"levelo://app?vid=d8e71387-18d7-480c-970e-661db7e88f33","ios":"levelo://app?vid=d8e71387-18d7-480c-970e-661db7e88f33"},"vehicle_type_id":"4","last_reported":1714079277,"current_range_meters":26000,"station_id":"ce4bgh92rcd13ifvqb50","pricing_plan_id":"cebpf4jnsgd1na2vs0mg"},{"bike_id":"e3809b38-3781-413b-b22a-e3d90eb29555","system_id":"levelo_inurba_marseille","lat":43.304274,"lon":5.388873,"is_reserved":false,"is_disabled":false,"rental_uris":{"android":"levelo://app?vid=e3809b38-3781-413b-b22a-e3d90eb29555","ios":"levelo://app?vid=e3809b38-3781-413b-b22a-e3d90eb29555"},"vehicle_type_id":"4","last_reported":1714079277,"current_range_meters":19600,"station_id":"ce4bgk12rcd13ifvqbi0","pricing_plan_id":"cebpf4jnsgd1na2vs0mg"},{"bike_id":"5d1f3bc1-568a-4396-b8d5-03dea19f62e2","system_id":"levelo_inurba_marseille","lat":43.30438,"lon":5.38892,"is_reserved":false,"is_disabled":false,"rental_uris":{"android":"levelo://app?vid=5d1f3bc1-568a-4396-b8d5-03dea19f62e2","ios":"levelo://app?vid=5d1f3bc1-568a-4396-b8d5-03dea19f62e2"},"vehicle_type_id":"4","last_reported":1714079277,"current_range_meters":0,"station_id":"ce4bgk12rcd13ifvqbi0","pricing_plan_id":"cebpf4jnsgd1na2vs0mg"},{"bike_id":"7c699b36-9d08-4aaf-b401-5051f03352f4","system_id":"levelo_inurba_marseille","lat":43.304278,"lon":5.388868,"is_reserved":false,"is_disabled":false,"rental_uris":{"android":"levelo://app?vid=7c699b36-9d08-4aaf-b401-5051f03352f4","ios":"levelo://app?vid=7c699b36-9d08-4aaf-b401-5051f03352f4"},"vehicle_type_id":"4","last_reported":1714079277,"current_range_meters":17200,"station_id":"ce4bgk12rcd13ifvqbi0","pricing_plan_id":"cebpf4jnsgd1na2vs0mg"},{"bike_id":"3fc3c10c-a848-427e-b45a-03a38a030b34","system_id":"levelo_inurba_marseille","lat":43.29799,"lon":5.38129,"is_reserved":false,"is_disabled":false,"rental_uris":{"android":"levelo://app?vid=3fc3c10c-a848-427e-b45a-03a38a030b34","ios":"levelo://app?vid=3fc3c10c-a848-427e-b45a-03a38a030b34"},"vehicle_type_id":"4","last_reported":1714079277,"current_range_meters":1200,"station_id":"ce4bgip2rcd13ifvqbb0","pricing_plan_id":"cebpf4jnsgd1na2vs0mg"},{"bike_id":"db989ac1-d0c6-4b55-bd30-0b4a926e41f6","system_id":"levelo_inurba_marseille","lat":43.304278,"lon":5.388868,"is_reserved":false,"is_disabled":false,"rental_uris":{"android":"levelo://app?vid=db989ac1-d0c6-4b55-bd30-0b4a926e41f6","ios":"levelo://app?vid=db989ac1-d0c6-4b55-bd30-0b4a926e41f6"},"vehicle_type_id":"4","last_reported":1714079277,"current_range_meters":2000,"station_id":"ce4bgk12rcd13ifvqbi0","pricing_plan_id":"cebpf4jnsgd1na2vs0mg"},{"bike_id":"a0781db9-dd23-461f-89ad-82a83174c804","system_id":"levelo_inurba_marseille","lat":43.304278,"lon":5.388868,"is_reserved":false,"is_disabled":false,"rental_uris":{"android":"levelo://app?vid=a0781db9-dd23-461f-89ad-82a83174c804","ios":"levelo://app?vid=a0781db9-dd23-461f-89ad-82a83174c804"},"vehicle_type_id":"4","last_reported":1714079277,"current_range_meters":14800,"station_id":"ce4bgk12rcd13ifvqbi0","pricing_plan_id":"cebpf4jnsgd1na2vs0mg"},{"bike_id":"6b7914a3-ad81-45d4-9879-3dd290ecfd3d","system_id":"levelo_inurba_marseille","lat":43.304274,"lon":5.388873,"is_reserved":false,"is_disabled":false,"rental_uris":{"android":"levelo://app?vid=6b7914a3-ad81-45d4-9879-3dd290ecfd3d","ios":"levelo://app?vid=6b7914a3-ad81-45d4-9879-3dd290ecfd3d"},"vehicle_type_id":"4","last_reported":1714079277,"current_range_meters":2800,"station_id":"ce4bgk12rcd13ifvqbi0","pricing_plan_id":"cebpf4jnsgd1na2vs0mg"},{"bike_id":"6fbb9fd5-c6f0-4e02-a15d-30e946d04396","system_id":"levelo_inurba_marseille","lat":43.299724,"lon":5.384848,"is_reserved":false,"is_disabled":false,"rental_uris":{"android":"levelo://app?vid=6fbb9fd5-c6f0-4e02-a15d-30e946d04396","ios":"levelo://app?vid=6fbb9fd5-c6f0-4e02-a15d-30e946d04396"},"vehicle_type_id":"4","last_reported":1714079277,"current_range_meters":8400,"station_id":"ce4bgj92rcd13ifvqbd0","pricing_plan_id":"cebpf4jnsgd1na2vs0mg"},{"bike_id":"0b5c2987-303d-40c6-aa86-6b78321f773b","system_id":"levelo_inurba_marseille","lat":43.29972,"lon":5.38497,"is_reserved":false,"is_disabled":false,"rental_uris":{"android":"levelo://app?vid=0b5c2987-303d-40c6-aa86-6b78321f773b","ios":"levelo://app?vid=0b5c2987-303d-40c6-aa86-6b78321f773b"},"vehicle_type_id":"4","last_reported":1714079277,"current_range_meters":21600,"station_id":"ce4bgj92rcd13ifvqbd0","pricing_plan_id":"cebpf4jnsgd1na2vs0mg"},{"bike_id":"358f844c-d457-42d0-b666-2cb5a5055b0a","system_id":"levelo_inurba_marseille","lat":43.301117,"lon":5.398795,"is_reserved":false,"is_disabled":false,"rental_uris":{"android":"levelo://app?vid=358f844c-d457-42d0-b666-2cb5a5055b0a","ios":"levelo://app?vid=358f844c-d457-42d0-b666-2cb5a5055b0a"},"vehicle_type_id":"4","last_reported":1714079277,"current_range_meters":21600,"station_id":"ce4bh0h2rcd13ifvqd40","pricing_plan_id":"cebpf4jnsgd1na2vs0mg"},{"bike_id":"9f8bf2f6-57ad-453f-9c7d-8cb2e420f27c","system_id":"levelo_inurba_marseille","lat":43.299724,"lon":5.384848,"is_reserved":false,"is_disabled":false,"rental_uris":{"android":"levelo://app?vid=9f8bf2f6-57ad-453f-9c7d-8cb2e420f27c","ios":"levelo://app?vid=9f8bf2f6-57ad-453f-9c7d-8cb2e420f27c"},"vehicle_type_id":"4","last_reported":1714079277,"current_range_meters":14800,"station_id":"ce4bgj92rcd13ifvqbd0","pricing_plan_id":"cebpf4jnsgd1na2vs0mg"},{"bike_id":"f63762a8-5c3c-4f81-bb5e-64bda6a404d2","system_id":"levelo_inurba_marseille","lat":43.295279,"lon":5.375048,"is_reserved":false,"is_disabled":false,"rental_uris":{"android":"levelo://app?vid=f63762a8-5c3c-4f81-bb5e-64bda6a404d2","ios":"levelo://app?vid=f63762a8-5c3c-4f81-bb5e-64bda6a404d2"},"vehicle_type_id":"4","last_reported":1714079277,"current_range_meters":6400,"station_id":"ce4bgkp2rcd13ifvqbmg","pricing_plan_id":"cebpf4jnsgd1na2vs0mg"},{"bike_id":"06fb6d9e-3f76-4e81-840a-632f57cffc0a","system_id":"levelo_inurba_marseille","lat":43.32367,"lon":5.388836,"is_reserved":false,"is_disabled":false,"rental_uris":{"android":"levelo://app?vid=06fb6d9e-3f76-4e81-840a-632f57cffc0a","ios":"levelo://app?vid=06fb6d9e-3f76-4e81-840a-632f57cffc0a"},"vehicle_type_id":"4","last_reported":1714079277,"current_range_meters":24800,"station_id":"ce4bhqp2rcd13ifvqhog","pricing_plan_id":"cebpf4jnsgd1na2vs0mg"},{"bike_id":"3cdf8111-33be-4fc1-b6ba-2d94d0edae13","system_id":"levelo_inurba_marseille","lat":43.32367,"lon":5.388836,"is_reserved":false,"is_disabled":false,"rental_uris":{"android":"levelo://app?vid=3cdf8111-33be-4fc1-b6ba-2d94d0edae13","ios":"levelo://app?vid=3cdf8111-33be-4fc1-b6ba-2d94d0edae13"},"vehicle_type_id":"4","last_reported":1714079277,"current_range_meters":11200,"station_id":"ce4bhqp2rcd13ifvqhog","pricing_plan_id":"cebpf4jnsgd1na2vs0mg"},{"bike_id":"2e193feb-045f-42e3-90c6-3d7835dc5f86","system_id":"levelo_inurba_marseille","lat":43.29607,"lon":5.3809,"is_reserved":false,"is_disabled":false,"rental_uris":{"android":"levelo://app?vid=2e193feb-045f-42e3-90c6-3d7835dc5f86","ios":"levelo://app?vid=2e193feb-045f-42e3-90c6-3d7835dc5f86"},"vehicle_type_id":"4","last_reported":1714079277,"current_range_meters":0,"station_id":"ce4bgl12rcd13ifvqbo0","pricing_plan_id":"cebpf4jnsgd1na2vs0mg"},{"bike_id":"4726d242-feae-4f73-98e2-774030e68c0e","system_id":"levelo_inurba_marseille","lat":43.29611,"lon":5.38103,"is_reserved":false,"is_disabled":false,"rental_uris":{"android":"levelo://app?vid=4726d242-feae-4f73-98e2-774030e68c0e","ios":"levelo://app?vid=4726d242-feae-4f73-98e2-774030e68c0e"},"vehicle_type_id":"4","last_reported":1714079277,"current_range_meters":11600,"station_id":"ce4bgl12rcd13ifvqbo0","pricing_plan_id":"cebpf4jnsgd1na2vs0mg"},{"bike_id":"39cf1456-f9c5-4049-a49c-bf5470fc662c","system_id":"levelo_inurba_marseille","lat":43.29606,"lon":5.38093,"is_reserved":false,"is_disabled":false,"rental_uris":{"android":"levelo://app?vid=39cf1456-f9c5-4049-a49c-bf5470fc662c","ios":"levelo://app?vid=39cf1456-f9c5-4049-a49c-bf5470fc662c"},"vehicle_type_id":"4","last_reported":1714079277,"current_range_meters":29200,"station_id":"ce4bgl12rcd13ifvqbo0","pricing_plan_id":"cebpf4jnsgd1na2vs0mg"},{"bike_id":"27e280df-a420-4f46-acf0-001daee5a5f5","system_id":"levelo_inurba_marseille","lat":43.29602,"lon":5.381084,"is_reserved":false,"is_disabled":false,"rental_uris":{"android":"levelo://app?vid=27e280df-a420-4f46-acf0-001daee5a5f5","ios":"levelo://app?vid=27e280df-a420-4f46-acf0-001daee5a5f5"},"vehicle_type_id":"4","last_reported":1714079277,"current_range_meters":2000,"station_id":"ce4bgl12rcd13ifvqbo0","pricing_plan_id":"cebpf4jnsgd1na2vs0mg"},{"bike_id":"d34e6b53-07bb-4a33-a295-1c5f8195f227","system_id":"levelo_inurba_marseille","lat":43.29602,"lon":5.381084,"is_reserved":false,"is_disabled":false,"rental_uris":{"android":"levelo://app?vid=d34e6b53-07bb-4a33-a295-1c5f8195f227","ios":"levelo://app?vid=d34e6b53-07bb-4a33-a295-1c5f8195f227"},"vehicle_type_id":"4","last_reported":1714079277,"current_range_meters":9600,"station_id":"ce4bgl12rcd13ifvqbo0","pricing_plan_id":"cebpf4jnsgd1na2vs0mg"},{"bike_id":"69b81ecb-e108-4428-89ec-2d2c813b0e91","system_id":"levelo_inurba_marseille","lat":43.29601,"lon":5.38104,"is_reserved":false,"is_disabled":false,"rental_uris":{"android":"levelo://app?vid=69b81ecb-e108-4428-89ec-2d2c813b0e91","ios":"levelo://app?vid=69b81ecb-e108-4428-89ec-2d2c813b0e91"},"vehicle_type_id":"4","last_reported":1714079277,"current_range_meters":10400,"station_id":"ce4bgl12rcd13ifvqbo0","pricing_plan_id":"cebpf4jnsgd1na2vs0mg"},{"bike_id":"a646e6c3-4eeb-4a9d-8705-deee8df0279d","system_id":"levelo_inurba_marseille","lat":43.29602,"lon":5.381084,"is_reserved":false,"is_disabled":false,"rental_uris":{"android":"levelo://app?vid=a646e6c3-4eeb-4a9d-8705-deee8df0279d","ios":"levelo://app?vid=a646e6c3-4eeb-4a9d-8705-deee8df0279d"},"vehicle_type_id":"4","last_reported":1714079277,"current_range_meters":20000,"station_id":"ce4bgl12rcd13ifvqbo0","pricing_plan_id":"cebpf4jnsgd1na2vs0mg"},{"bike_id":"e318bfc9-90a9-423e-bf1b-04995180d9a0","system_id":"levelo_inurba_marseille","lat":43.29602,"lon":5.381084,"is_reserved":false,"is_disabled":false,"rental_uris":{"android":"levelo://app?vid=e318bfc9-90a9-423e-bf1b-04995180d9a0","ios":"levelo://app?vid=e318bfc9-90a9-423e-bf1b-04995180d9a0"},"vehicle_type_id":"4","last_reported":1714079277,"current_range_meters":20400,"station_id":"ce4bgl12rcd13ifvqbo0","pricing_plan_id":"cebpf4jnsgd1na2vs0mg"},{"bike_id":"a8d32af5-edf5-45ee-93f1-d52774e9890a","system_id":"levelo_inurba_marseille","lat":43.29602,"lon":5.381084,"is_reserved":false,"is_disabled":false,"rental_uris":{"android":"levelo://app?vid=a8d32af5-edf5-45ee-93f1-d52774e9890a","ios":"levelo://app?vid=a8d32af5-edf5-45ee-93f1-d52774e9890a"},"vehicle_type_id":"4","last_reported":1714079277,"current_range_meters":10000,"station_id":"ce4bgl12rcd13ifvqbo0","pricing_plan_id":"cebpf4jnsgd1na2vs0mg"},{"bike_id":"77fa9a90-c5b1-4aab-a90d-e2ec370a90ba","system_id":"levelo_inurba_marseille","lat":43.29313,"lon":5.37181,"is_reserved":false,"is_disabled":false,"rental_uris":{"android":"levelo://app?vid=77fa9a90-c5b1-4aab-a90d-e2ec370a90ba","ios":"levelo://app?vid=77fa9a90-c5b1-4aab-a90d-e2ec370a90ba"},"vehicle_type_id":"4","last_reported":1714079277,"current_range_meters":0,"station_id":"ce4bgh92rcd13ifvqb40","pricing_plan_id":"cebpf4jnsgd1na2vs0mg"},{"bike_id":"b1c1bfdd-293a-448e-98b9-f4abaee03231","system_id":"levelo_inurba_marseille","lat":43.29309,"lon":5.37164,"is_reserved":false,"is_disabled":false,"rental_uris":{"android":"levelo://app?vid=b1c1bfdd-293a-448e-98b9-f4abaee03231","ios":"levelo://app?vid=b1c1bfdd-293a-448e-98b9-f4abaee03231"},"vehicle_type_id":"4","last_reported":1714079277,"current_range_meters":0,"station_id":"ce4bgh92rcd13ifvqb40","pricing_plan_id":"cebpf4jnsgd1na2vs0mg"},{"bike_id":"5ec59abb-f348-4212-a7d4-1a3dfb91b71d","system_id":"levelo_inurba_marseille","lat":43.29309,"lon":5.37178,"is_reserved":false,"is_disabled":false,"rental_uris":{"android":"levelo://app?vid=5ec59abb-f348-4212-a7d4-1a3dfb91b71d","ios":"levelo://app?vid=5ec59abb-f348-4212-a7d4-1a3dfb91b71d"},"vehicle_type_id":"4","last_reported":1714079277,"current_range_meters":11600,"station_id":"ce4bgh92rcd13ifvqb40","pricing_plan_id":"cebpf4jnsgd1na2vs0mg"},{"bike_id":"e15c393c-dfa2-4a62-a515-5dd81159be15","system_id":"levelo_inurba_marseille","lat":43.29305,"lon":5.37159,"is_reserved":false,"is_disabled":false,"rental_uris":{"android":"levelo://app?vid=e15c393c-dfa2-4a62-a515-5dd81159be15","ios":"levelo://app?vid=e15c393c-dfa2-4a62-a515-5dd81159be15"},"vehicle_type_id":"4","last_reported":1714079277,"current_range_meters":4400,"station_id":"ce4bgh92rcd13ifvqb40","pricing_plan_id":"cebpf4jnsgd1na2vs0mg"},{"bike_id":"9600d761-551a-424e-82a7-096b8f31f589","system_id":"levelo_inurba_marseille","lat":43.29308,"lon":5.37184,"is_reserved":false,"is_disabled":false,"rental_uris":{"android":"levelo://app?vid=9600d761-551a-424e-82a7-096b8f31f589","ios":"levelo://app?vid=9600d761-551a-424e-82a7-096b8f31f589"},"vehicle_type_id":"4","last_reported":1714079277,"current_range_meters":0,"station_id":"ce4bgh92rcd13ifvqb40","pricing_plan_id":"cebpf4jnsgd1na2vs0mg"},{"bike_id":"45d0aeb1-18b3-4baf-a0eb-6d7f62c85303","system_id":"levelo_inurba_marseille","lat":43.29307,"lon":5.37181,"is_reserved":false,"is_disabled":false,"rental_uris":{"android":"levelo://app?vid=45d0aeb1-18b3-4baf-a0eb-6d7f62c85303","ios":"levelo://app?vid=45d0aeb1-18b3-4baf-a0eb-6d7f62c85303"},"vehicle_type_id":"4","last_reported":1714079277,"current_range_meters":4800,"station_id":"ce4bgh92rcd13ifvqb40","pricing_plan_id":"cebpf4jnsgd1na2vs0mg"},{"bike_id":"3190e011-9d54-48c3-8df4-24c375041388","system_id":"levelo_inurba_marseille","lat":43.292749,"lon":5.368402,"is_reserved":false,"is_disabled":false,"rental_uris":{"android":"levelo://app?vid=3190e011-9d54-48c3-8df4-24c375041388","ios":"levelo://app?vid=3190e011-9d54-48c3-8df4-24c375041388"},"vehicle_type_id":"4","last_reported":1714079277,"current_range_meters":17600,"station_id":"ce4bhbp2rcd13ifvqesg","pricing_plan_id":"cebpf4jnsgd1na2vs0mg"},{"bike_id":"64baefc8-c680-4509-94d1-c12266a25221","system_id":"levelo_inurba_marseille","lat":43.292749,"lon":5.368402,"is_reserved":false,"is_disabled":false,"rental_uris":{"android":"levelo://app?vid=64baefc8-c680-4509-94d1-c12266a25221","ios":"levelo://app?vid=64baefc8-c680-4509-94d1-c12266a25221"},"vehicle_type_id":"4","last_reported":1714079277,"current_range_meters":10000,"station_id":"ce4bhbp2rcd13ifvqesg","pricing_plan_id":"cebpf4jnsgd1na2vs0mg"},{"bike_id":"dfb04e16-d911-4e42-8da5-a593a152981e","system_id":"levelo_inurba_marseille","lat":43.292749,"lon":5.368402,"is_reserved":false,"is_disabled":false,"rental_uris":{"android":"levelo://app?vid=dfb04e16-d911-4e42-8da5-a593a152981e","ios":"levelo://app?vid=dfb04e16-d911-4e42-8da5-a593a152981e"},"vehicle_type_id":"4","last_reported":1714079277,"current_range_meters":28800,"station_id":"ce4bhbp2rcd13ifvqesg","pricing_plan_id":"cebpf4jnsgd1na2vs0mg"},{"bike_id":"dfb36066-65c6-4105-96bb-5d7376f5ca56","system_id":"levelo_inurba_marseille","lat":43.292749,"lon":5.368402,"is_reserved":false,"is_disabled":false,"rental_uris":{"android":"levelo://app?vid=dfb36066-65c6-4105-96bb-5d7376f5ca56","ios":"levelo://app?vid=dfb36066-65c6-4105-96bb-5d7376f5ca56"},"vehicle_type_id":"4","last_reported":1714079277,"current_range_meters":17600,"station_id":"ce4bhbp2rcd13ifvqesg","pricing_plan_id":"cebpf4jnsgd1na2vs0mg"},{"bike_id":"f1c3cd3b-78d2-4a73-a734-07784176c18e","system_id":"levelo_inurba_marseille","lat":43.292749,"lon":5.368398,"is_reserved":false,"is_disabled":false,"rental_uris":{"android":"levelo://app?vid=f1c3cd3b-78d2-4a73-a734-07784176c18e","ios":"levelo://app?vid=f1c3cd3b-78d2-4a73-a734-07784176c18e"},"vehicle_type_id":"4","last_reported":1714079277,"current_range_meters":30400,"station_id":"ce4bhbp2rcd13ifvqesg","pricing_plan_id":"cebpf4jnsgd1na2vs0mg"},{"bike_id":"ae31ae64-46cc-4ff6-bfd8-cb453c0d2ed6","system_id":"levelo_inurba_marseille","lat":43.292749,"lon":5.368402,"is_reserved":false,"is_disabled":false,"rental_uris":{"android":"levelo://app?vid=ae31ae64-46cc-4ff6-bfd8-cb453c0d2ed6","ios":"levelo://app?vid=ae31ae64-46cc-4ff6-bfd8-cb453c0d2ed6"},"vehicle_type_id":"4","last_reported":1714079277,"current_range_meters":20800,"station_id":"ce4bhbp2rcd13ifvqesg","pricing_plan_id":"cebpf4jnsgd1na2vs0mg"},{"bike_id":"fda82c65-173c-4659-9b20-7fcfcae0f822","system_id":"levelo_inurba_marseille","lat":43.292749,"lon":5.368398,"is_reserved":false,"is_disabled":false,"rental_uris":{"android":"levelo://app?vid=fda82c65-173c-4659-9b20-7fcfcae0f822","ios":"levelo://app?vid=fda82c65-173c-4659-9b20-7fcfcae0f822"},"vehicle_type_id":"4","last_reported":1714079277,"current_range_meters":31200,"station_id":"ce4bhbp2rcd13ifvqesg","pricing_plan_id":"cebpf4jnsgd1na2vs0mg"},{"bike_id":"1a04ca9d-19ff-44f2-9428-caeb248e8d4d","system_id":"levelo_inurba_marseille","lat":43.292749,"lon":5.368398,"is_reserved":false,"is_disabled":false,"rental_uris":{"android":"levelo://app?vid=1a04ca9d-19ff-44f2-9428-caeb248e8d4d","ios":"levelo://app?vid=1a04ca9d-19ff-44f2-9428-caeb248e8d4d"},"vehicle_type_id":"4","last_reported":1714079277,"current_range_meters":30800,"station_id":"ce4bhbp2rcd13ifvqesg","pricing_plan_id":"cebpf4jnsgd1na2vs0mg"},{"bike_id":"2438202e-67ac-4f26-abe2-9e4e517f6857","system_id":"levelo_inurba_marseille","lat":43.31865,"lon":5.39359,"is_reserved":false,"is_disabled":false,"rental_uris":{"android":"levelo://app?vid=2438202e-67ac-4f26-abe2-9e4e517f6857","ios":"levelo://app?vid=2438202e-67ac-4f26-abe2-9e4e517f6857"},"vehicle_type_id":"4","last_reported":1714079277,"current_range_meters":23200,"station_id":"","pricing_plan_id":"cebpf4jnsgd1na2vs0mg"},{"bike_id":"0934d2b8-2673-411a-a41d-e837c7270f24","system_id":"levelo_inurba_marseille","lat":43.29308,"lon":5.37457,"is_reserved":false,"is_disabled":false,"rental_uris":{"android":"levelo://app?vid=0934d2b8-2673-411a-a41d-e837c7270f24","ios":"levelo://app?vid=0934d2b8-2673-411a-a41d-e837c7270f24"},"vehicle_type_id":"4","last_reported":1714079277,"current_range_meters":0,"station_id":"ce4bhjp2rcd13ifvqg90","pricing_plan_id":"cebpf4jnsgd1na2vs0mg"},{"bike_id":"f13b5787-0225-4630-8d51-c29256cdcd59","system_id":"levelo_inurba_marseille","lat":43.29306,"lon":5.37463,"is_reserved":false,"is_disabled":false,"rental_uris":{"android":"levelo://app?vid=f13b5787-0225-4630-8d51-c29256cdcd59","ios":"levelo://app?vid=f13b5787-0225-4630-8d51-c29256cdcd59"},"vehicle_type_id":"4","last_reported":1714079277,"current_range_meters":4400,"station_id":"chh1huq6cuj3fo74tm60","pricing_plan_id":"cebpf4jnsgd1na2vs0mg"},{"bike_id":"c4d7022d-7026-48e8-8b49-05c126b4ff00","system_id":"levelo_inurba_marseille","lat":43.29303,"lon":5.37456,"is_reserved":false,"is_disabled":false,"rental_uris":{"android":"levelo://app?vid=c4d7022d-7026-48e8-8b49-05c126b4ff00","ios":"levelo://app?vid=c4d7022d-7026-48e8-8b49-05c126b4ff00"},"vehicle_type_id":"4","last_reported":1714079277,"current_range_meters":400,"station_id":"ce4bgi12rcd13ifvqb70","pricing_plan_id":"cebpf4jnsgd1na2vs0mg"},{"bike_id":"7702f426-3b22-4505-9f6f-71c1af910757","system_id":"levelo_inurba_marseille","lat":43.293009,"lon":5.374584,"is_reserved":false,"is_disabled":false,"rental_uris":{"android":"levelo://app?vid=7702f426-3b22-4505-9f6f-71c1af910757","ios":"levelo://app?vid=7702f426-3b22-4505-9f6f-71c1af910757"},"vehicle_type_id":"4","last_reported":1714079277,"current_range_meters":10800,"station_id":"ce4bgi12rcd13ifvqb70","pricing_plan_id":"cebpf4jnsgd1na2vs0mg"},{"bike_id":"a402c28d-23fd-4c06-9d67-2d3696127782","system_id":"levelo_inurba_marseille","lat":43.305994,"lon":5.393687,"is_reserved":false,"is_disabled":false,"rental_uris":{"android":"levelo://app?vid=a402c28d-23fd-4c06-9d67-2d3696127782","ios":"levelo://app?vid=a402c28d-23fd-4c06-9d67-2d3696127782"},"vehicle_type_id":"4","last_reported":1714079277,"current_range_meters":26000,"station_id":"ce4bh0p2rcd13ifvqd80","pricing_plan_id":"cebpf4jnsgd1na2vs0mg"},{"bike_id":"c77841c8-e6fc-4e11-95e7-8b419a5ab50d","system_id":"levelo_inurba_marseille","lat":43.306024,"lon":5.393574,"is_reserved":false,"is_disabled":false,"rental_uris":{"android":"levelo://app?vid=c77841c8-e6fc-4e11-95e7-8b419a5ab50d","ios":"levelo://app?vid=c77841c8-e6fc-4e11-95e7-8b419a5ab50d"},"vehicle_type_id":"4","last_reported":1714079277,"current_range_meters":0,"station_id":"ce4bh0p2rcd13ifvqd80","pricing_plan_id":"cebpf4jnsgd1na2vs0mg"},{"bike_id":"15331fb4-9a62-40fb-b13a-09adf713e79a","system_id":"levelo_inurba_marseille","lat":43.30592,"lon":5.39357,"is_reserved":false,"is_disabled":false,"rental_uris":{"android":"levelo://app?vid=15331fb4-9a62-40fb-b13a-09adf713e79a","ios":"levelo://app?vid=15331fb4-9a62-40fb-b13a-09adf713e79a"},"vehicle_type_id":"4","last_reported":1714079277,"current_range_meters":31200,"station_id":"ce4bh0p2rcd13ifvqd80","pricing_plan_id":"cebpf4jnsgd1na2vs0mg"},{"bike_id":"b947b593-9064-4653-b0c4-cb69839ec0a0","system_id":"levelo_inurba_marseille","lat":43.305932,"lon":5.393607,"is_reserved":false,"is_disabled":false,"rental_uris":{"android":"levelo://app?vid=b947b593-9064-4653-b0c4-cb69839ec0a0","ios":"levelo://app?vid=b947b593-9064-4653-b0c4-cb69839ec0a0"},"vehicle_type_id":"4","last_reported":1714079277,"current_range_meters":8000,"station_id":"ce4bh0p2rcd13ifvqd80","pricing_plan_id":"cebpf4jnsgd1na2vs0mg"},{"bike_id":"e4c4084b-3ddd-47d6-b8e5-cb90518b885a","system_id":"levelo_inurba_marseille","lat":43.305994,"lon":5.393687,"is_reserved":false,"is_disabled":false,"rental_uris":{"android":"levelo://app?vid=e4c4084b-3ddd-47d6-b8e5-cb90518b885a","ios":"levelo://app?vid=e4c4084b-3ddd-47d6-b8e5-cb90518b885a"},"vehicle_type_id":"4","last_reported":1714079277,"current_range_meters":8800,"station_id":"ce4bh0p2rcd13ifvqd80","pricing_plan_id":"cebpf4jnsgd1na2vs0mg"},{"bike_id":"37dd76c5-59d5-4164-b89e-421573032396","system_id":"levelo_inurba_marseille","lat":43.30597,"lon":5.39364,"is_reserved":false,"is_disabled":false,"rental_uris":{"android":"levelo://app?vid=37dd76c5-59d5-4164-b89e-421573032396","ios":"levelo://app?vid=37dd76c5-59d5-4164-b89e-421573032396"},"vehicle_type_id":"4","last_reported":1714079277,"current_range_meters":31200,"station_id":"ce4bh0p2rcd13ifvqd80","pricing_plan_id":"cebpf4jnsgd1na2vs0mg"},{"bike_id":"e53b1ddc-2862-421e-8f21-6bb3b089c40a","system_id":"levelo_inurba_marseille","lat":43.305994,"lon":5.393687,"is_reserved":false,"is_disabled":false,"rental_uris":{"android":"levelo://app?vid=e53b1ddc-2862-421e-8f21-6bb3b089c40a","ios":"levelo://app?vid=e53b1ddc-2862-421e-8f21-6bb3b089c40a"},"vehicle_type_id":"4","last_reported":1714079277,"current_range_meters":31200,"station_id":"ce4bh0p2rcd13ifvqd80","pricing_plan_id":"cebpf4jnsgd1na2vs0mg"},{"bike_id":"c6b67cae-c352-411b-b2a8-4a812eb03e2e","system_id":"levelo_inurba_marseille","lat":43.305928,"lon":5.393647,"is_reserved":false,"is_disabled":false,"rental_uris":{"android":"levelo://app?vid=c6b67cae-c352-411b-b2a8-4a812eb03e2e","ios":"levelo://app?vid=c6b67cae-c352-411b-b2a8-4a812eb03e2e"},"vehicle_type_id":"4","last_reported":1714079277,"current_range_meters":9200,"station_id":"ce4bh0p2rcd13ifvqd80","pricing_plan_id":"cebpf4jnsgd1na2vs0mg"},{"bike_id":"9edc49ec-2fac-4f9e-ae75-a7ec9b48f694","system_id":"levelo_inurba_marseille","lat":43.303002,"lon":5.392142,"is_reserved":false,"is_disabled":false,"rental_uris":{"android":"levelo://app?vid=9edc49ec-2fac-4f9e-ae75-a7ec9b48f694","ios":"levelo://app?vid=9edc49ec-2fac-4f9e-ae75-a7ec9b48f694"},"vehicle_type_id":"4","last_reported":1714079277,"current_range_meters":17600,"station_id":"ce4bgkh2rcd13ifvqbk0","pricing_plan_id":"cebpf4jnsgd1na2vs0mg"},{"bike_id":"6f42b5d6-add5-48df-92dc-f700f57aa431","system_id":"levelo_inurba_marseille","lat":43.303002,"lon":5.392142,"is_reserved":false,"is_disabled":false,"rental_uris":{"android":"levelo://app?vid=6f42b5d6-add5-48df-92dc-f700f57aa431","ios":"levelo://app?vid=6f42b5d6-add5-48df-92dc-f700f57aa431"},"vehicle_type_id":"4","last_reported":1714079277,"current_range_meters":12800,"station_id":"ce4bgkh2rcd13ifvqbk0","pricing_plan_id":"cebpf4jnsgd1na2vs0mg"},{"bike_id":"b1aa1c25-7766-4df8-af99-c99cdb2e2086","system_id":"levelo_inurba_marseille","lat":43.303002,"lon":5.392142,"is_reserved":false,"is_disabled":false,"rental_uris":{"android":"levelo://app?vid=b1aa1c25-7766-4df8-af99-c99cdb2e2086","ios":"levelo://app?vid=b1aa1c25-7766-4df8-af99-c99cdb2e2086"},"vehicle_type_id":"4","last_reported":1714079277,"current_range_meters":25200,"station_id":"ce4bgkh2rcd13ifvqbk0","pricing_plan_id":"cebpf4jnsgd1na2vs0mg"},{"bike_id":"245f2c4f-a489-455e-8b96-7ab50623df09","system_id":"levelo_inurba_marseille","lat":43.302992,"lon":5.392136,"is_reserved":false,"is_disabled":false,"rental_uris":{"android":"levelo://app?vid=245f2c4f-a489-455e-8b96-7ab50623df09","ios":"levelo://app?vid=245f2c4f-a489-455e-8b96-7ab50623df09"},"vehicle_type_id":"4","last_reported":1714079277,"current_range_meters":23600,"station_id":"ce4bgkh2rcd13ifvqbk0","pricing_plan_id":"cebpf4jnsgd1na2vs0mg"},{"bike_id":"7805857b-88ca-44ec-ae70-4a541ff907ee","system_id":"levelo_inurba_marseille","lat":43.2936,"lon":5.37835,"is_reserved":false,"is_disabled":false,"rental_uris":{"android":"levelo://app?vid=7805857b-88ca-44ec-ae70-4a541ff907ee","ios":"levelo://app?vid=7805857b-88ca-44ec-ae70-4a541ff907ee"},"vehicle_type_id":"4","last_reported":1714079277,"current_range_meters":19200,"station_id":"ce4bgjh2rcd13ifvqbf0","pricing_plan_id":"cebpf4jnsgd1na2vs0mg"},{"bike_id":"5e4b8906-0084-4f45-9017-3c64aea5b3dd","system_id":"levelo_inurba_marseille","lat":43.302992,"lon":5.392136,"is_reserved":false,"is_disabled":false,"rental_uris":{"android":"levelo://app?vid=5e4b8906-0084-4f45-9017-3c64aea5b3dd","ios":"levelo://app?vid=5e4b8906-0084-4f45-9017-3c64aea5b3dd"},"vehicle_type_id":"4","last_reported":1714079277,"current_range_meters":12400,"station_id":"ce4bgkh2rcd13ifvqbk0","pricing_plan_id":"cebpf4jnsgd1na2vs0mg"},{"bike_id":"1c404ffe-c47b-4284-95c0-57818318bcf5","system_id":"levelo_inurba_marseille","lat":43.2936,"lon":5.37835,"is_reserved":false,"is_disabled":false,"rental_uris":{"android":"levelo://app?vid=1c404ffe-c47b-4284-95c0-57818318bcf5","ios":"levelo://app?vid=1c404ffe-c47b-4284-95c0-57818318bcf5"},"vehicle_type_id":"4","last_reported":1714079277,"current_range_meters":28000,"station_id":"ce4bgjh2rcd13ifvqbf0","pricing_plan_id":"cebpf4jnsgd1na2vs0mg"},{"bike_id":"d420e42a-f2d0-4059-922f-c41f5f0f07d6","system_id":"levelo_inurba_marseille","lat":43.2936,"lon":5.37835,"is_reserved":false,"is_disabled":false,"rental_uris":{"android":"levelo://app?vid=d420e42a-f2d0-4059-922f-c41f5f0f07d6","ios":"levelo://app?vid=d420e42a-f2d0-4059-922f-c41f5f0f07d6"},"vehicle_type_id":"4","last_reported":1714079277,"current_range_meters":24400,"station_id":"ce4bgjh2rcd13ifvqbf0","pricing_plan_id":"cebpf4jnsgd1na2vs0mg"},{"bike_id":"b4988ccd-b6b7-4df5-8dd2-6261e0e327c0","system_id":"levelo_inurba_marseille","lat":43.292311,"lon":5.360731,"is_reserved":false,"is_disabled":false,"rental_uris":{"android":"levelo://app?vid=b4988ccd-b6b7-4df5-8dd2-6261e0e327c0","ios":"levelo://app?vid=b4988ccd-b6b7-4df5-8dd2-6261e0e327c0"},"vehicle_type_id":"4","last_reported":1714079277,"current_range_meters":30000,"station_id":"ce4bhbh2rcd13ifvqeqg","pricing_plan_id":"cebpf4jnsgd1na2vs0mg"},{"bike_id":"141d7240-8076-4d62-b996-1a355559914f","system_id":"levelo_inurba_marseille","lat":43.292247,"lon":5.360569,"is_reserved":false,"is_disabled":false,"rental_uris":{"android":"levelo://app?vid=141d7240-8076-4d62-b996-1a355559914f","ios":"levelo://app?vid=141d7240-8076-4d62-b996-1a355559914f"},"vehicle_type_id":"4","last_reported":1714079277,"current_range_meters":25200,"station_id":"ce4bhbh2rcd13ifvqeqg","pricing_plan_id":"cebpf4jnsgd1na2vs0mg"},{"bike_id":"2e5f2323-158d-436d-b4af-d72804229055","system_id":"levelo_inurba_marseille","lat":43.30085,"lon":5.390856,"is_reserved":false,"is_disabled":false,"rental_uris":{"android":"levelo://app?vid=2e5f2323-158d-436d-b4af-d72804229055","ios":"levelo://app?vid=2e5f2323-158d-436d-b4af-d72804229055"},"vehicle_type_id":"4","last_reported":1714079277,"current_range_meters":10000,"station_id":"ce4bh192rcd13ifvqdb0","pricing_plan_id":"cebpf4jnsgd1na2vs0mg"},{"bike_id":"c1669957-346f-4610-8c6c-f96ee4638296","system_id":"levelo_inurba_marseille","lat":43.298764,"lon":5.388973,"is_reserved":false,"is_disabled":false,"rental_uris":{"android":"levelo://app?vid=c1669957-346f-4610-8c6c-f96ee4638296","ios":"levelo://app?vid=c1669957-346f-4610-8c6c-f96ee4638296"},"vehicle_type_id":"4","last_reported":1714079277,"current_range_meters":2400,"station_id":"ce4bh392rcd13ifvqdl0","pricing_plan_id":"cebpf4jnsgd1na2vs0mg"},{"bike_id":"c0aa8142-3d69-4be0-876b-b430ebc05242","system_id":"levelo_inurba_marseille","lat":43.291671,"lon":5.371575,"is_reserved":false,"is_disabled":false,"rental_uris":{"android":"levelo://app?vid=c0aa8142-3d69-4be0-876b-b430ebc05242","ios":"levelo://app?vid=c0aa8142-3d69-4be0-876b-b430ebc05242"},"vehicle_type_id":"4","last_reported":1714079277,"current_range_meters":14800,"station_id":"ce4bha92rcd13ifvqeh0","pricing_plan_id":"cebpf4jnsgd1na2vs0mg"},{"bike_id":"d77017d4-765c-4ada-b4c4-d3c7f8607ac8","system_id":"levelo_inurba_marseille","lat":43.29876,"lon":5.38903,"is_reserved":false,"is_disabled":false,"rental_uris":{"android":"levelo://app?vid=d77017d4-765c-4ada-b4c4-d3c7f8607ac8","ios":"levelo://app?vid=d77017d4-765c-4ada-b4c4-d3c7f8607ac8"},"vehicle_type_id":"4","last_reported":1714079277,"current_range_meters":22800,"station_id":"ce4bh392rcd13ifvqdl0","pricing_plan_id":"cebpf4jnsgd1na2vs0mg"},{"bike_id":"3ca601fb-e588-4f13-8612-a70377c873fd","system_id":"levelo_inurba_marseille","lat":43.298764,"lon":5.388973,"is_reserved":false,"is_disabled":false,"rental_uris":{"android":"levelo://app?vid=3ca601fb-e588-4f13-8612-a70377c873fd","ios":"levelo://app?vid=3ca601fb-e588-4f13-8612-a70377c873fd"},"vehicle_type_id":"4","last_reported":1714079277,"current_range_meters":31200,"station_id":"ce4bh392rcd13ifvqdl0","pricing_plan_id":"cebpf4jnsgd1na2vs0mg"},{"bike_id":"b7d1ad2a-9954-4335-8c0d-7e7ffe25f303","system_id":"levelo_inurba_marseille","lat":43.29881,"lon":5.3891,"is_reserved":false,"is_disabled":false,"rental_uris":{"android":"levelo://app?vid=b7d1ad2a-9954-4335-8c0d-7e7ffe25f303","ios":"levelo://app?vid=b7d1ad2a-9954-4335-8c0d-7e7ffe25f303"},"vehicle_type_id":"4","last_reported":1714079277,"current_range_meters":30000,"station_id":"","pricing_plan_id":"cebpf4jnsgd1na2vs0mg"},{"bike_id":"a594428d-037c-449f-91d1-7efc122a763c","system_id":"levelo_inurba_marseille","lat":43.298764,"lon":5.388973,"is_reserved":false,"is_disabled":false,"rental_uris":{"android":"levelo://app?vid=a594428d-037c-449f-91d1-7efc122a763c","ios":"levelo://app?vid=a594428d-037c-449f-91d1-7efc122a763c"},"vehicle_type_id":"4","last_reported":1714079277,"current_range_meters":24800,"station_id":"ce4bh392rcd13ifvqdl0","pricing_plan_id":"cebpf4jnsgd1na2vs0mg"},{"bike_id":"ceb5c24b-78ac-4516-a1c0-8158c43ee290","system_id":"levelo_inurba_marseille","lat":43.291671,"lon":5.371575,"is_reserved":false,"is_disabled":false,"rental_uris":{"android":"levelo://app?vid=ceb5c24b-78ac-4516-a1c0-8158c43ee290","ios":"levelo://app?vid=ceb5c24b-78ac-4516-a1c0-8158c43ee290"},"vehicle_type_id":"4","last_reported":1714079277,"current_range_meters":5600,"station_id":"ce4bha92rcd13ifvqeh0","pricing_plan_id":"cebpf4jnsgd1na2vs0mg"},{"bike_id":"1e826bd9-1374-43f1-a8e6-766502ad5436","system_id":"levelo_inurba_marseille","lat":43.298764,"lon":5.388973,"is_reserved":false,"is_disabled":false,"rental_uris":{"android":"levelo://app?vid=1e826bd9-1374-43f1-a8e6-766502ad5436","ios":"levelo://app?vid=1e826bd9-1374-43f1-a8e6-766502ad5436"},"vehicle_type_id":"4","last_reported":1714079277,"current_range_meters":31200,"station_id":"ce4bh392rcd13ifvqdl0","pricing_plan_id":"cebpf4jnsgd1na2vs0mg"},{"bike_id":"8065529b-791d-4fab-a617-3ce007c46bf3","system_id":"levelo_inurba_marseille","lat":43.298764,"lon":5.388973,"is_reserved":false,"is_disabled":false,"rental_uris":{"android":"levelo://app?vid=8065529b-791d-4fab-a617-3ce007c46bf3","ios":"levelo://app?vid=8065529b-791d-4fab-a617-3ce007c46bf3"},"vehicle_type_id":"4","last_reported":1714079277,"current_range_meters":31200,"station_id":"ce4bh392rcd13ifvqdl0","pricing_plan_id":"cebpf4jnsgd1na2vs0mg"},{"bike_id":"a26e6af8-c42c-4710-80e1-381614471517","system_id":"levelo_inurba_marseille","lat":43.291675,"lon":5.371583,"is_reserved":false,"is_disabled":false,"rental_uris":{"android":"levelo://app?vid=a26e6af8-c42c-4710-80e1-381614471517","ios":"levelo://app?vid=a26e6af8-c42c-4710-80e1-381614471517"},"vehicle_type_id":"4","last_reported":1714079277,"current_range_meters":11200,"station_id":"ce4bha92rcd13ifvqeh0","pricing_plan_id":"cebpf4jnsgd1na2vs0mg"},{"bike_id":"7187bd58-cdd9-40da-96db-8b3ccf255959","system_id":"levelo_inurba_marseille","lat":43.309038,"lon":5.396546,"is_reserved":false,"is_disabled":false,"rental_uris":{"android":"levelo://app?vid=7187bd58-cdd9-40da-96db-8b3ccf255959","ios":"levelo://app?vid=7187bd58-cdd9-40da-96db-8b3ccf255959"},"vehicle_type_id":"4","last_reported":1714079277,"current_range_meters":14800,"station_id":"ce4bh012rcd13ifvqcv0","pricing_plan_id":"cebpf4jnsgd1na2vs0mg"},{"bike_id":"e10b7c04-6cde-4290-b51f-9c88b982f3e2","system_id":"levelo_inurba_marseille","lat":43.309047,"lon":5.396551,"is_reserved":false,"is_disabled":false,"rental_uris":{"android":"levelo://app?vid=e10b7c04-6cde-4290-b51f-9c88b982f3e2","ios":"levelo://app?vid=e10b7c04-6cde-4290-b51f-9c88b982f3e2"},"vehicle_type_id":"4","last_reported":1714079277,"current_range_meters":17600,"station_id":"ce4bh012rcd13ifvqcv0","pricing_plan_id":"cebpf4jnsgd1na2vs0mg"},{"bike_id":"506137fe-4151-446a-897a-04d5e8c3b462","system_id":"levelo_inurba_marseille","lat":43.309047,"lon":5.396551,"is_reserved":false,"is_disabled":false,"rental_uris":{"android":"levelo://app?vid=506137fe-4151-446a-897a-04d5e8c3b462","ios":"levelo://app?vid=506137fe-4151-446a-897a-04d5e8c3b462"},"vehicle_type_id":"4","last_reported":1714079277,"current_range_meters":6800,"station_id":"ce4bh012rcd13ifvqcv0","pricing_plan_id":"cebpf4jnsgd1na2vs0mg"},{"bike_id":"e03cb2b2-e2d6-49f8-8487-0d3564bbf3b2","system_id":"levelo_inurba_marseille","lat":43.313291,"lon":5.396838,"is_reserved":false,"is_disabled":false,"rental_uris":{"android":"levelo://app?vid=e03cb2b2-e2d6-49f8-8487-0d3564bbf3b2","ios":"levelo://app?vid=e03cb2b2-e2d6-49f8-8487-0d3564bbf3b2"},"vehicle_type_id":"4","last_reported":1714079277,"current_range_meters":7200,"station_id":"ce4bgvp2rcd13ifvqcu0","pricing_plan_id":"cebpf4jnsgd1na2vs0mg"},{"bike_id":"6b976f9e-2a7c-4a91-bda7-6cfe873aa579","system_id":"levelo_inurba_marseille","lat":43.29191,"lon":5.35791,"is_reserved":false,"is_disabled":false,"rental_uris":{"android":"levelo://app?vid=6b976f9e-2a7c-4a91-bda7-6cfe873aa579","ios":"levelo://app?vid=6b976f9e-2a7c-4a91-bda7-6cfe873aa579"},"vehicle_type_id":"4","last_reported":1714079277,"current_range_meters":11200,"station_id":"ce4bhb12rcd13ifvqel0","pricing_plan_id":"cebpf4jnsgd1na2vs0mg"},{"bike_id":"8675d7f9-61c6-47e4-b47f-da1fd35a028a","system_id":"levelo_inurba_marseille","lat":43.313291,"lon":5.396838,"is_reserved":false,"is_disabled":false,"rental_uris":{"android":"levelo://app?vid=8675d7f9-61c6-47e4-b47f-da1fd35a028a","ios":"levelo://app?vid=8675d7f9-61c6-47e4-b47f-da1fd35a028a"},"vehicle_type_id":"4","last_reported":1714079277,"current_range_meters":21200,"station_id":"ce4bgvp2rcd13ifvqcu0","pricing_plan_id":"cebpf4jnsgd1na2vs0mg"},{"bike_id":"65e70c09-60e2-4dfc-a6a8-daf0a66e2c54","system_id":"levelo_inurba_marseille","lat":43.291994,"lon":5.357886,"is_reserved":false,"is_disabled":false,"rental_uris":{"android":"levelo://app?vid=65e70c09-60e2-4dfc-a6a8-daf0a66e2c54","ios":"levelo://app?vid=65e70c09-60e2-4dfc-a6a8-daf0a66e2c54"},"vehicle_type_id":"4","last_reported":1714079277,"current_range_meters":6000,"station_id":"ce4bhb12rcd13ifvqel0","pricing_plan_id":"cebpf4jnsgd1na2vs0mg"},{"bike_id":"9591bb35-df86-4dcb-bbc7-bf97530ed58c","system_id":"levelo_inurba_marseille","lat":43.30884,"lon":5.39648,"is_reserved":false,"is_disabled":false,"rental_uris":{"android":"levelo://app?vid=9591bb35-df86-4dcb-bbc7-bf97530ed58c","ios":"levelo://app?vid=9591bb35-df86-4dcb-bbc7-bf97530ed58c"},"vehicle_type_id":"4","last_reported":1714079277,"current_range_meters":4000,"station_id":"ce4bh012rcd13ifvqcv0","pricing_plan_id":"cebpf4jnsgd1na2vs0mg"},{"bike_id":"fc787e26-9ebb-4179-940d-73c995fd89c6","system_id":"levelo_inurba_marseille","lat":43.308917,"lon":5.396513,"is_reserved":false,"is_disabled":false,"rental_uris":{"android":"levelo://app?vid=fc787e26-9ebb-4179-940d-73c995fd89c6","ios":"levelo://app?vid=fc787e26-9ebb-4179-940d-73c995fd89c6"},"vehicle_type_id":"4","last_reported":1714079277,"current_range_meters":0,"station_id":"ce4bh012rcd13ifvqcv0","pricing_plan_id":"cebpf4jnsgd1na2vs0mg"},{"bike_id":"58375fbd-6f55-4198-9964-c04222b64d8e","system_id":"levelo_inurba_marseille","lat":43.309047,"lon":5.396551,"is_reserved":false,"is_disabled":false,"rental_uris":{"android":"levelo://app?vid=58375fbd-6f55-4198-9964-c04222b64d8e","ios":"levelo://app?vid=58375fbd-6f55-4198-9964-c04222b64d8e"},"vehicle_type_id":"4","last_reported":1714079277,"current_range_meters":14000,"station_id":"ce4bh012rcd13ifvqcv0","pricing_plan_id":"cebpf4jnsgd1na2vs0mg"},{"bike_id":"caef10bb-0c2c-45ae-8e0a-9055c0ef47d4","system_id":"levelo_inurba_marseille","lat":43.31335,"lon":5.39702,"is_reserved":false,"is_disabled":false,"rental_uris":{"android":"levelo://app?vid=caef10bb-0c2c-45ae-8e0a-9055c0ef47d4","ios":"levelo://app?vid=caef10bb-0c2c-45ae-8e0a-9055c0ef47d4"},"vehicle_type_id":"4","last_reported":1714079277,"current_range_meters":0,"station_id":"ce4bgvp2rcd13ifvqcu0","pricing_plan_id":"cebpf4jnsgd1na2vs0mg"},{"bike_id":"9ab65613-1250-4f7e-9368-539bbd83600c","system_id":"levelo_inurba_marseille","lat":43.29529,"lon":5.385581,"is_reserved":false,"is_disabled":false,"rental_uris":{"android":"levelo://app?vid=9ab65613-1250-4f7e-9368-539bbd83600c","ios":"levelo://app?vid=9ab65613-1250-4f7e-9368-539bbd83600c"},"vehicle_type_id":"4","last_reported":1714079277,"current_range_meters":25600,"station_id":"ce4bgih2rcd13ifvqba0","pricing_plan_id":"cebpf4jnsgd1na2vs0mg"},{"bike_id":"3489babc-b196-453b-9d7a-2edf25d5879e","system_id":"levelo_inurba_marseille","lat":43.292571,"lon":5.409107,"is_reserved":false,"is_disabled":false,"rental_uris":{"android":"levelo://app?vid=3489babc-b196-453b-9d7a-2edf25d5879e","ios":"levelo://app?vid=3489babc-b196-453b-9d7a-2edf25d5879e"},"vehicle_type_id":"4","last_reported":1714079277,"current_range_meters":4400,"station_id":"ce4bh192rcd13ifvqdc0","pricing_plan_id":"cebpf4jnsgd1na2vs0mg"},{"bike_id":"edbe2d35-ddc1-4125-99a6-1a0e79c8b9c0","system_id":"levelo_inurba_marseille","lat":43.29529,"lon":5.385581,"is_reserved":false,"is_disabled":false,"rental_uris":{"android":"levelo://app?vid=edbe2d35-ddc1-4125-99a6-1a0e79c8b9c0","ios":"levelo://app?vid=edbe2d35-ddc1-4125-99a6-1a0e79c8b9c0"},"vehicle_type_id":"4","last_reported":1714079277,"current_range_meters":31200,"station_id":"ce4bgih2rcd13ifvqba0","pricing_plan_id":"cebpf4jnsgd1na2vs0mg"},{"bike_id":"b02f820c-1ee7-4231-ae68-d169c9642a5f","system_id":"levelo_inurba_marseille","lat":43.29539,"lon":5.38542,"is_reserved":false,"is_disabled":false,"rental_uris":{"android":"levelo://app?vid=b02f820c-1ee7-4231-ae68-d169c9642a5f","ios":"levelo://app?vid=b02f820c-1ee7-4231-ae68-d169c9642a5f"},"vehicle_type_id":"4","last_reported":1714079277,"current_range_meters":31200,"station_id":"ce4bgih2rcd13ifvqba0","pricing_plan_id":"cebpf4jnsgd1na2vs0mg"},{"bike_id":"2b914b28-b9db-48c3-9415-742a14734ee9","system_id":"levelo_inurba_marseille","lat":43.29529,"lon":5.385581,"is_reserved":false,"is_disabled":false,"rental_uris":{"android":"levelo://app?vid=2b914b28-b9db-48c3-9415-742a14734ee9","ios":"levelo://app?vid=2b914b28-b9db-48c3-9415-742a14734ee9"},"vehicle_type_id":"4","last_reported":1714079277,"current_range_meters":28400,"station_id":"ce4bgih2rcd13ifvqba0","pricing_plan_id":"cebpf4jnsgd1na2vs0mg"},{"bike_id":"827ab083-5042-410b-a411-842b2005796d","system_id":"levelo_inurba_marseille","lat":43.29529,"lon":5.385581,"is_reserved":false,"is_disabled":false,"rental_uris":{"android":"levelo://app?vid=827ab083-5042-410b-a411-842b2005796d","ios":"levelo://app?vid=827ab083-5042-410b-a411-842b2005796d"},"vehicle_type_id":"4","last_reported":1714079277,"current_range_meters":18800,"station_id":"ce4bgih2rcd13ifvqba0","pricing_plan_id":"cebpf4jnsgd1na2vs0mg"},{"bike_id":"b968b1fb-7c09-44ab-abe6-8e443562e162","system_id":"levelo_inurba_marseille","lat":43.29542,"lon":5.38549,"is_reserved":false,"is_disabled":false,"rental_uris":{"android":"levelo://app?vid=b968b1fb-7c09-44ab-abe6-8e443562e162","ios":"levelo://app?vid=b968b1fb-7c09-44ab-abe6-8e443562e162"},"vehicle_type_id":"4","last_reported":1714079277,"current_range_meters":20400,"station_id":"ce4bgih2rcd13ifvqba0","pricing_plan_id":"cebpf4jnsgd1na2vs0mg"},{"bike_id":"c0b36b02-0ad7-442b-8b7f-1ba388faf976","system_id":"levelo_inurba_marseille","lat":43.29529,"lon":5.385581,"is_reserved":false,"is_disabled":false,"rental_uris":{"android":"levelo://app?vid=c0b36b02-0ad7-442b-8b7f-1ba388faf976","ios":"levelo://app?vid=c0b36b02-0ad7-442b-8b7f-1ba388faf976"},"vehicle_type_id":"4","last_reported":1714079277,"current_range_meters":26000,"station_id":"ce4bgih2rcd13ifvqba0","pricing_plan_id":"cebpf4jnsgd1na2vs0mg"},{"bike_id":"65682cc3-f564-4bc5-b5d5-901436515c4f","system_id":"levelo_inurba_marseille","lat":43.29529,"lon":5.385581,"is_reserved":false,"is_disabled":false,"rental_uris":{"android":"levelo://app?vid=65682cc3-f564-4bc5-b5d5-901436515c4f","ios":"levelo://app?vid=65682cc3-f564-4bc5-b5d5-901436515c4f"},"vehicle_type_id":"4","last_reported":1714079277,"current_range_meters":28800,"station_id":"ce4bgih2rcd13ifvqba0","pricing_plan_id":"cebpf4jnsgd1na2vs0mg"},{"bike_id":"b4d60d8b-a995-4f5e-ba8c-5df746ae33c4","system_id":"levelo_inurba_marseille","lat":43.29537,"lon":5.38543,"is_reserved":false,"is_disabled":false,"rental_uris":{"android":"levelo://app?vid=b4d60d8b-a995-4f5e-ba8c-5df746ae33c4","ios":"levelo://app?vid=b4d60d8b-a995-4f5e-ba8c-5df746ae33c4"},"vehicle_type_id":"4","last_reported":1714079277,"current_range_meters":15200,"station_id":"ce4bgih2rcd13ifvqba0","pricing_plan_id":"cebpf4jnsgd1na2vs0mg"},{"bike_id":"9e9b3c79-c3ed-48e0-9e6b-de6c2345b8fe","system_id":"levelo_inurba_marseille","lat":43.29529,"lon":5.385581,"is_reserved":false,"is_disabled":false,"rental_uris":{"android":"levelo://app?vid=9e9b3c79-c3ed-48e0-9e6b-de6c2345b8fe","ios":"levelo://app?vid=9e9b3c79-c3ed-48e0-9e6b-de6c2345b8fe"},"vehicle_type_id":"4","last_reported":1714079277,"current_range_meters":21200,"station_id":"ce4bgih2rcd13ifvqba0","pricing_plan_id":"cebpf4jnsgd1na2vs0mg"},{"bike_id":"a0b17e9f-0ce1-4f3e-8b08-df245ac9a3c3","system_id":"levelo_inurba_marseille","lat":43.29529,"lon":5.385581,"is_reserved":false,"is_disabled":false,"rental_uris":{"android":"levelo://app?vid=a0b17e9f-0ce1-4f3e-8b08-df245ac9a3c3","ios":"levelo://app?vid=a0b17e9f-0ce1-4f3e-8b08-df245ac9a3c3"},"vehicle_type_id":"4","last_reported":1714079277,"current_range_meters":31200,"station_id":"ce4bgih2rcd13ifvqba0","pricing_plan_id":"cebpf4jnsgd1na2vs0mg"},{"bike_id":"33192fff-1534-4478-8b7b-9161ce7d5622","system_id":"levelo_inurba_marseille","lat":43.29529,"lon":5.385581,"is_reserved":false,"is_disabled":false,"rental_uris":{"android":"levelo://app?vid=33192fff-1534-4478-8b7b-9161ce7d5622","ios":"levelo://app?vid=33192fff-1534-4478-8b7b-9161ce7d5622"},"vehicle_type_id":"4","last_reported":1714079277,"current_range_meters":8000,"station_id":"ce4bgih2rcd13ifvqba0","pricing_plan_id":"cebpf4jnsgd1na2vs0mg"},{"bike_id":"a42fdd45-ea8a-4034-b7a9-ea199c5451e1","system_id":"levelo_inurba_marseille","lat":43.29535,"lon":5.38541,"is_reserved":false,"is_disabled":false,"rental_uris":{"android":"levelo://app?vid=a42fdd45-ea8a-4034-b7a9-ea199c5451e1","ios":"levelo://app?vid=a42fdd45-ea8a-4034-b7a9-ea199c5451e1"},"vehicle_type_id":"4","last_reported":1714079277,"current_range_meters":16800,"station_id":"ce4bgih2rcd13ifvqba0","pricing_plan_id":"cebpf4jnsgd1na2vs0mg"},{"bike_id":"5b60b39c-13bf-4794-a47e-b0861b00db4a","system_id":"levelo_inurba_marseille","lat":43.29529,"lon":5.385581,"is_reserved":false,"is_disabled":false,"rental_uris":{"android":"levelo://app?vid=5b60b39c-13bf-4794-a47e-b0861b00db4a","ios":"levelo://app?vid=5b60b39c-13bf-4794-a47e-b0861b00db4a"},"vehicle_type_id":"4","last_reported":1714079277,"current_range_meters":31200,"station_id":"ce4bgih2rcd13ifvqba0","pricing_plan_id":"cebpf4jnsgd1na2vs0mg"},{"bike_id":"b8aceaf1-f39e-4c93-b1ef-2c8e58c01f61","system_id":"levelo_inurba_marseille","lat":43.295333,"lon":5.385402,"is_reserved":false,"is_disabled":false,"rental_uris":{"android":"levelo://app?vid=b8aceaf1-f39e-4c93-b1ef-2c8e58c01f61","ios":"levelo://app?vid=b8aceaf1-f39e-4c93-b1ef-2c8e58c01f61"},"vehicle_type_id":"4","last_reported":1714079277,"current_range_meters":22400,"station_id":"","pricing_plan_id":"cebpf4jnsgd1na2vs0mg"},{"bike_id":"8daa5eb9-eebe-40d0-b650-0b751660bb69","system_id":"levelo_inurba_marseille","lat":43.29536,"lon":5.38546,"is_reserved":false,"is_disabled":false,"rental_uris":{"android":"levelo://app?vid=8daa5eb9-eebe-40d0-b650-0b751660bb69","ios":"levelo://app?vid=8daa5eb9-eebe-40d0-b650-0b751660bb69"},"vehicle_type_id":"4","last_reported":1714079277,"current_range_meters":8000,"station_id":"ce4bgih2rcd13ifvqba0","pricing_plan_id":"cebpf4jnsgd1na2vs0mg"},{"bike_id":"b4be3adb-72c9-4217-b2d7-e85d931a83d0","system_id":"levelo_inurba_marseille","lat":43.29537,"lon":5.3855,"is_reserved":false,"is_disabled":false,"rental_uris":{"android":"levelo://app?vid=b4be3adb-72c9-4217-b2d7-e85d931a83d0","ios":"levelo://app?vid=b4be3adb-72c9-4217-b2d7-e85d931a83d0"},"vehicle_type_id":"4","last_reported":1714079277,"current_range_meters":15200,"station_id":"ce4bgih2rcd13ifvqba0","pricing_plan_id":"cebpf4jnsgd1na2vs0mg"},{"bike_id":"c5bf58cf-c137-4e17-afa3-c0edfd1b884b","system_id":"levelo_inurba_marseille","lat":43.29529,"lon":5.385581,"is_reserved":false,"is_disabled":false,"rental_uris":{"android":"levelo://app?vid=c5bf58cf-c137-4e17-afa3-c0edfd1b884b","ios":"levelo://app?vid=c5bf58cf-c137-4e17-afa3-c0edfd1b884b"},"vehicle_type_id":"4","last_reported":1714079277,"current_range_meters":2800,"station_id":"ce4bgih2rcd13ifvqba0","pricing_plan_id":"cebpf4jnsgd1na2vs0mg"},{"bike_id":"f7ea1a99-3413-46e5-a507-18790082d049","system_id":"levelo_inurba_marseille","lat":43.29531,"lon":5.38541,"is_reserved":false,"is_disabled":false,"rental_uris":{"android":"levelo://app?vid=f7ea1a99-3413-46e5-a507-18790082d049","ios":"levelo://app?vid=f7ea1a99-3413-46e5-a507-18790082d049"},"vehicle_type_id":"4","last_reported":1714079277,"current_range_meters":22400,"station_id":"ce4bgih2rcd13ifvqba0","pricing_plan_id":"cebpf4jnsgd1na2vs0mg"},{"bike_id":"a80d9e09-6459-4fc8-8ba4-15f0617fca1b","system_id":"levelo_inurba_marseille","lat":43.29529,"lon":5.385581,"is_reserved":false,"is_disabled":false,"rental_uris":{"android":"levelo://app?vid=a80d9e09-6459-4fc8-8ba4-15f0617fca1b","ios":"levelo://app?vid=a80d9e09-6459-4fc8-8ba4-15f0617fca1b"},"vehicle_type_id":"4","last_reported":1714079277,"current_range_meters":7600,"station_id":"ce4bgih2rcd13ifvqba0","pricing_plan_id":"cebpf4jnsgd1na2vs0mg"},{"bike_id":"ca27d366-e82d-4ad4-b9dc-a1081931c6c3","system_id":"levelo_inurba_marseille","lat":43.29529,"lon":5.385581,"is_reserved":false,"is_disabled":false,"rental_uris":{"android":"levelo://app?vid=ca27d366-e82d-4ad4-b9dc-a1081931c6c3","ios":"levelo://app?vid=ca27d366-e82d-4ad4-b9dc-a1081931c6c3"},"vehicle_type_id":"4","last_reported":1714079277,"current_range_meters":10800,"station_id":"ce4bgih2rcd13ifvqba0","pricing_plan_id":"cebpf4jnsgd1na2vs0mg"},{"bike_id":"db112b89-bd36-49c6-8d6f-8bae20c6831e","system_id":"levelo_inurba_marseille","lat":43.29529,"lon":5.385581,"is_reserved":false,"is_disabled":false,"rental_uris":{"android":"levelo://app?vid=db112b89-bd36-49c6-8d6f-8bae20c6831e","ios":"levelo://app?vid=db112b89-bd36-49c6-8d6f-8bae20c6831e"},"vehicle_type_id":"4","last_reported":1714079277,"current_range_meters":13600,"station_id":"ce4bgih2rcd13ifvqba0","pricing_plan_id":"cebpf4jnsgd1na2vs0mg"},{"bike_id":"bfd663a9-66ad-4741-b41d-932eacd5a0f9","system_id":"levelo_inurba_marseille","lat":43.29529,"lon":5.385581,"is_reserved":false,"is_disabled":false,"rental_uris":{"android":"levelo://app?vid=bfd663a9-66ad-4741-b41d-932eacd5a0f9","ios":"levelo://app?vid=bfd663a9-66ad-4741-b41d-932eacd5a0f9"},"vehicle_type_id":"4","last_reported":1714079277,"current_range_meters":27600,"station_id":"ce4bgih2rcd13ifvqba0","pricing_plan_id":"cebpf4jnsgd1na2vs0mg"},{"bike_id":"55a6a304-a7bd-48fa-a7be-f36dcee783f7","system_id":"levelo_inurba_marseille","lat":43.29529,"lon":5.385581,"is_reserved":false,"is_disabled":false,"rental_uris":{"android":"levelo://app?vid=55a6a304-a7bd-48fa-a7be-f36dcee783f7","ios":"levelo://app?vid=55a6a304-a7bd-48fa-a7be-f36dcee783f7"},"vehicle_type_id":"4","last_reported":1714079277,"current_range_meters":31200,"station_id":"ce4bgih2rcd13ifvqba0","pricing_plan_id":"cebpf4jnsgd1na2vs0mg"},{"bike_id":"36a1210f-0198-4a45-81f6-39c80c4d877c","system_id":"levelo_inurba_marseille","lat":43.29529,"lon":5.385581,"is_reserved":false,"is_disabled":false,"rental_uris":{"android":"levelo://app?vid=36a1210f-0198-4a45-81f6-39c80c4d877c","ios":"levelo://app?vid=36a1210f-0198-4a45-81f6-39c80c4d877c"},"vehicle_type_id":"4","last_reported":1714079277,"current_range_meters":14000,"station_id":"ce4bgih2rcd13ifvqba0","pricing_plan_id":"cebpf4jnsgd1na2vs0mg"},{"bike_id":"26d3c39c-aa8a-4ef9-a39e-d9f7e6826f67","system_id":"levelo_inurba_marseille","lat":43.29532,"lon":5.3855,"is_reserved":false,"is_disabled":false,"rental_uris":{"android":"levelo://app?vid=26d3c39c-aa8a-4ef9-a39e-d9f7e6826f67","ios":"levelo://app?vid=26d3c39c-aa8a-4ef9-a39e-d9f7e6826f67"},"vehicle_type_id":"4","last_reported":1714079277,"current_range_meters":10000,"station_id":"ce4bgih2rcd13ifvqba0","pricing_plan_id":"cebpf4jnsgd1na2vs0mg"},{"bike_id":"d5f07020-f488-4b26-acf0-b4a8547ac292","system_id":"levelo_inurba_marseille","lat":43.29529,"lon":5.385581,"is_reserved":false,"is_disabled":false,"rental_uris":{"android":"levelo://app?vid=d5f07020-f488-4b26-acf0-b4a8547ac292","ios":"levelo://app?vid=d5f07020-f488-4b26-acf0-b4a8547ac292"},"vehicle_type_id":"4","last_reported":1714079277,"current_range_meters":8000,"station_id":"ce4bgih2rcd13ifvqba0","pricing_plan_id":"cebpf4jnsgd1na2vs0mg"},