{"last_updated":1726416585,"ttl":30,"version":"2.2","data":{"bikes":[{"bike_id":"056313ad-8265-4df1-b42f-640ec0ab3367","system_id":"levelo_inurba_marseille","lat":43.28416,"lon":5.3499,"is_reserved":false,"is_disabled":false,"rental_uris":{"android":"levelo://app?vid=056313ad-8265-4df1-b42f-640ec0ab3367","ios":"levelo://app?vid=056313ad-8265-4df1-b42f-640ec0ab3367"},"vehicle_type_id":"4","last_reported":1726416586,"current_range_meters":30000,"station_id":"ce4bhbh2rcd13ifvqepg","pricing_plan_id":"cebpf4jnsgd1na2vs0mg"},{"bike_id":"bfe2059e-2fb9-4838-88f7-02f8b1c71deb","system_id":"levelo_inurba_marseille","lat":43.27963,"lon":5.38632,"is_reserved":false,"is_disabled":false,"rental_uris":{"android":"levelo://app?vid=bfe2059e-2fb9-4838-88f7-02f8b1c71deb","ios":"levelo://app?vid=bfe2059e-2fb9-4838-88f7-02f8b1c71deb"},"vehicle_type_id":"4","last_reported":1726416586,"current_range_meters":6800,"station_id":"","pricing_plan_id":"cebpf4jnsgd1na2vs0mg"},{"bike_id":"b8e7ff7c-2a3c-4a84-ab11-b2df62170a1a","system_id":"levelo_inurba_marseille","lat":43.31294,"lon":5.37812,"is_reserved":false,"is_disabled":false,"rental_uris":{"android":"levelo://app?vid=b8e7ff7c-2a3c-4a84-ab11-b2df62170a1a","ios":"levelo://app?vid=b8e7ff7c-2a3c-4a84-ab11-b2df62170a1a"},"vehicle_type_id":"4","last_reported":1726416586,"current_range_meters":33200,"station_id":"","pricing_plan_id":"cebpf4jnsgd1na2vs0mg"},{"bike_id":"259c1082-ea70-4a9f-bd06-8385f36a05f6","system_id":"levelo_inurba_marseille","lat":43.28403,"lon":5.34969,"is_reserved":false,"is_disabled":false,"rental_uris":{"android":"levelo://app?vid=259c1082-ea70-4a9f-bd06-8385f36a05f6","ios":"levelo://app?vid=259c1082-ea70-4a9f-bd06-8385f36a05f6"},"vehicle_type_id":"4","last_reported":1726416586,"current_range_meters":34000,"station_id":"ce4bhbh2rcd13ifvqepg","pricing_plan_id":"cebpf4jnsgd1na2vs0mg"},{"bike_id":"491f625c-672a-429b-adf2-44db696ce223","system_id":"levelo_inurba_marseille","lat":43.24811,"lon":5.37454,"is_reserved":false,"is_disabled":false,"rental_uris":{"android":"levelo://app?vid=491f625c-672a-429b-adf2-44db696ce223","ios":"levelo://app?vid=491f625c-672a-429b-adf2-44db696ce223"},"vehicle_type_id":"4","last_reported":1726416586,"current_range_meters":9600,"station_id":"ce4bhgh2rcd13ifvqfb0","pricing_plan_id":"cebpf4jnsgd1na2vs0mg"},{"bike_id":"62a5057c-a5eb-4961-924c-8ce921f6570a","system_id":"levelo_inurba_marseille","lat":43.24804,"lon":5.37446,"is_reserved":false,"is_disabled":false,"rental_uris":{"android":"levelo://app?vid=62a5057c-a5eb-4961-924c-8ce921f6570a","ios":"levelo://app?vid=62a5057c-a5eb-4961-924c-8ce921f6570a"},"vehicle_type_id":"4","last_reported":1726416586,"current_range_meters":30400,"station_id":"ce4bhgh2rcd13ifvqfb0","pricing_plan_id":"cebpf4jnsgd1na2vs0mg"},{"bike_id":"7c475990-5c91-40de-8e97-2ed5070be005","system_id":"levelo_inurba_marseille","lat":43.23032,"lon":5.401,"is_reserved":false,"is_disabled":false,"rental_uris":{"android":"levelo://app?vid=7c475990-5c91-40de-8e97-2ed5070be005","ios":"levelo://app?vid=7c475990-5c91-40de-8e97-2ed5070be005"},"vehicle_type_id":"4","last_reported":1726416586,"current_range_meters":38000,"station_id":"","pricing_plan_id":"cebpf4jnsgd1na2vs0mg"},{"bike_id":"13ec4916-f0ea-4897-8afc-596425b42c42","system_id":"levelo_inurba_marseille","lat":43.23191,"lon":5.35553,"is_reserved":false,"is_disabled":false,"rental_uris":{"android":"levelo://app?vid=13ec4916-f0ea-4897-8afc-596425b42c42","ios":"levelo://app?vid=13ec4916-f0ea-4897-8afc-596425b42c42"},"vehicle_type_id":"4","last_reported":1726416586,"current_range_meters":21600,"station_id":"ce4bhu92rcd13ifvqi70","pricing_plan_id":"cebpf4jnsgd1na2vs0mg"},{"bike_id":"e8549387-9deb-4f66-b733-a7cdaa0db866","system_id":"levelo_inurba_marseille","lat":43.33027,"lon":5.3903,"is_reserved":false,"is_disabled":false,"rental_uris":{"android":"levelo://app?vid=e8549387-9deb-4f66-b733-a7cdaa0db866","ios":"levelo://app?vid=e8549387-9deb-4f66-b733-a7cdaa0db866"},"vehicle_type_id":"4","last_reported":1726416586,"current_range_meters":16000,"station_id":"ce4bhr92rcd13ifvqhrg","pricing_plan_id":"cebpf4jnsgd1na2vs0mg"},{"bike_id":"3d64c255-1660-41db-ac56-60cbee1ac9b2","system_id":"levelo_inurba_marseille","lat":43.2848,"lon":5.38544,"is_reserved":false,"is_disabled":false,"rental_uris":{"android":"levelo://app?vid=3d64c255-1660-41db-ac56-60cbee1ac9b2","ios":"levelo://app?vid=3d64c255-1660-41db-ac56-60cbee1ac9b2"},"vehicle_type_id":"4","last_reported":1726416586,"current_range_meters":37600,"station_id":"ce4bh8p2rcd13ifvqeb0","pricing_plan_id":"cebpf4jnsgd1na2vs0mg"},{"bike_id":"1b69e28d-b657-4802-b5dd-aa17fb5a768b","system_id":"levelo_inurba_marseille","lat":43.27129,"lon":5.42811,"is_reserved":false,"is_disabled":false,"rental_uris":{"android":"levelo://app?vid=1b69e28d-b657-4802-b5dd-aa17fb5a768b","ios":"levelo://app?vid=1b69e28d-b657-4802-b5dd-aa17fb5a768b"},"vehicle_type_id":"4","last_reported":1726416586,"current_range_meters":20400,"station_id":"","pricing_plan_id":"cebpf4jnsgd1na2vs0mg"},{"bike_id":"995d3a7e-289e-4ebd-b785-9d2da426ad57","system_id":"levelo_inurba_marseille","lat":43.232,"lon":5.35545,"is_reserved":false,"is_disabled":false,"rental_uris":{"android":"levelo://app?vid=995d3a7e-289e-4ebd-b785-9d2da426ad57","ios":"levelo://app?vid=995d3a7e-289e-4ebd-b785-9d2da426ad57"},"vehicle_type_id":"4","last_reported":1726416586,"current_range_meters":12400,"station_id":"ce4bhu92rcd13ifvqi70","pricing_plan_id":"cebpf4jnsgd1na2vs0mg"},{"bike_id":"74c67d55-8a5f-40c9-8066-d68354718f8c","system_id":"levelo_inurba_marseille","lat":43.23194,"lon":5.35544,"is_reserved":false,"is_disabled":false,"rental_uris":{"android":"levelo://app?vid=74c67d55-8a5f-40c9-8066-d68354718f8c","ios":"levelo://app?vid=74c67d55-8a5f-40c9-8066-d68354718f8c"},"vehicle_type_id":"4","last_reported":1726416586,"current_range_meters":18800,"station_id":"ce4bhu92rcd13ifvqi70","pricing_plan_id":"cebpf4jnsgd1na2vs0mg"},{"bike_id":"2348432a-2e1b-4480-8221-dc0ae33b40e8","system_id":"levelo_inurba_marseille","lat":43.24389,"lon":5.37056,"is_reserved":false,"is_disabled":false,"rental_uris":{"android":"levelo://app?vid=2348432a-2e1b-4480-8221-dc0ae33b40e8","ios":"levelo://app?vid=2348432a-2e1b-4480-8221-dc0ae33b40e8"},"vehicle_type_id":"4","last_reported":1726416586,"current_range_meters":18800,"station_id":"ce4bhhh2rcd13ifvqfk0","pricing_plan_id":"cebpf4jnsgd1na2vs0mg"},{"bike_id":"d0698402-85d8-4942-960d-db4ee8bd1c46","system_id":"levelo_inurba_marseille","lat":43.32482,"lon":5.36556,"is_reserved":false,"is_disabled":false,"rental_uris":{"android":"levelo://app?vid=d0698402-85d8-4942-960d-db4ee8bd1c46","ios":"levelo://app?vid=d0698402-85d8-4942-960d-db4ee8bd1c46"},"vehicle_type_id":"4","last_reported":1726416586,"current_range_meters":4000,"station_id":"ce4bhs12rcd13ifvqhvg","pricing_plan_id":"cebpf4jnsgd1na2vs0mg"},{"bike_id":"e7cd2dd3-5044-4054-887e-8d99b4566ce5","system_id":"levelo_inurba_marseille","lat":43.32372,"lon":5.38352,"is_reserved":false,"is_disabled":false,"rental_uris":{"android":"levelo://app?vid=e7cd2dd3-5044-4054-887e-8d99b4566ce5","ios":"levelo://app?vid=e7cd2dd3-5044-4054-887e-8d99b4566ce5"},"vehicle_type_id":"4","last_reported":1726416586,"current_range_meters":3600,"station_id":"","pricing_plan_id":"cebpf4jnsgd1na2vs0mg"},{"bike_id":"212c501b-a753-4c1a-ba0c-b560582af171","system_id":"levelo_inurba_marseille","lat":43.29554,"lon":5.4229,"is_reserved":false,"is_disabled":false,"rental_uris":{"android":"levelo://app?vid=212c501b-a753-4c1a-ba0c-b560582af171","ios":"levelo://app?vid=212c501b-a753-4c1a-ba0c-b560582af171"},"vehicle_type_id":"4","last_reported":1726416586,"current_range_meters":18000,"station_id":"ce4bhph2rcd13ifvqhdg","pricing_plan_id":"cebpf4jnsgd1na2vs0mg"},{"bike_id":"dfb89513-f211-47bc-95b2-ffac780f14a8","system_id":"levelo_inurba_marseille","lat":43.23198,"lon":5.35549,"is_reserved":false,"is_disabled":false,"rental_uris":{"android":"levelo://app?vid=dfb89513-f211-47bc-95b2-ffac780f14a8","ios":"levelo://app?vid=dfb89513-f211-47bc-95b2-ffac780f14a8"},"vehicle_type_id":"4","last_reported":1726416586,"current_range_meters":8000,"station_id":"ce4bhu92rcd13ifvqi70","pricing_plan_id":"cebpf4jnsgd1na2vs0mg"},{"bike_id":"db7dff8c-347d-4fd4-b1df-efd551ff7476","system_id":"levelo_inurba_marseille","lat":43.31713,"lon":5.37749,"is_reserved":false,"is_disabled":false,"rental_uris":{"android":"levelo://app?vid=db7dff8c-347d-4fd4-b1df-efd551ff7476","ios":"levelo://app?vid=db7dff8c-347d-4fd4-b1df-efd551ff7476"},"vehicle_type_id":"4","last_reported":1726416586,"current_range_meters":28400,"station_id":"ce4bgth2rcd13ifvqch0","pricing_plan_id":"cebpf4jnsgd1na2vs0mg"},{"bike_id":"4878f442-77ef-431e-9d9c-7ac56c3e2238","system_id":"levelo_inurba_marseille","lat":43.25119,"lon":5.40316,"is_reserved":false,"is_disabled":false,"rental_uris":{"android":"levelo://app?vid=4878f442-77ef-431e-9d9c-7ac56c3e2238","ios":"levelo://app?vid=4878f442-77ef-431e-9d9c-7ac56c3e2238"},"vehicle_type_id":"4","last_reported":1726416586,"current_range_meters":28800,"station_id":"ce4bhlh2rcd13ifvqgig","pricing_plan_id":"cebpf4jnsgd1na2vs0mg"},{"bike_id":"dc716c57-1dcc-400e-abd7-9c9cc9531cd2","system_id":"levelo_inurba_marseille","lat":43.28151,"lon":5.42644,"is_reserved":false,"is_disabled":false,"rental_uris":{"android":"levelo://app?vid=dc716c57-1dcc-400e-abd7-9c9cc9531cd2","ios":"levelo://app?vid=dc716c57-1dcc-400e-abd7-9c9cc9531cd2"},"vehicle_type_id":"4","last_reported":1726416586,"current_range_meters":7200,"station_id":"ce4bhnh2rcd13ifvqgug","pricing_plan_id":"cebpf4jnsgd1na2vs0mg"},{"bike_id":"b4b56fba-addf-4cf3-8c32-3d583ef06a1e","system_id":"levelo_inurba_marseille","lat":43.25579,"lon":5.38227,"is_reserved":false,"is_disabled":false,"rental_uris":{"android":"levelo://app?vid=b4b56fba-addf-4cf3-8c32-3d583ef06a1e","ios":"levelo://app?vid=b4b56fba-addf-4cf3-8c32-3d583ef06a1e"},"vehicle_type_id":"4","last_reported":1726416586,"current_range_meters":30000,"station_id":"ce4bhih2rcd13ifvqfs0","pricing_plan_id":"cebpf4jnsgd1na2vs0mg"},{"bike_id":"1e646c8b-592f-4400-9534-eb7f1b31defe","system_id":"levelo_inurba_marseille","lat":43.28566,"lon":5.395,"is_reserved":false,"is_disabled":false,"rental_uris":{"android":"levelo://app?vid=1e646c8b-592f-4400-9534-eb7f1b31defe","ios":"levelo://app?vid=1e646c8b-592f-4400-9534-eb7f1b31defe"},"vehicle_type_id":"4","last_reported":1726416586,"current_range_meters":22800,"station_id":"ce4bh292rcd13ifvqdg0","pricing_plan_id":"cebpf4jnsgd1na2vs0mg"},{"bike_id":"33e3b5af-e6bf-4a19-9a11-ee1b8b29314e","system_id":"levelo_inurba_marseille","lat":43.319565,"lon":5.409008,"is_reserved":false,"is_disabled":false,"rental_uris":{"android":"levelo://app?vid=33e3b5af-e6bf-4a19-9a11-ee1b8b29314e","ios":"levelo://app?vid=33e3b5af-e6bf-4a19-9a11-ee1b8b29314e"},"vehicle_type_id":"4","last_reported":1726416586,"current_range_meters":7200,"station_id":"ce4bhq92rcd13ifvqhjg","pricing_plan_id":"cebpf4jnsgd1na2vs0mg"},{"bike_id":"d5f8a16d-7942-42b5-a1e7-81cda05a2e5f","system_id":"levelo_inurba_marseille","lat":43.30426,"lon":5.396613,"is_reserved":false,"is_disabled":false,"rental_uris":{"android":"levelo://app?vid=d5f8a16d-7942-42b5-a1e7-81cda05a2e5f","ios":"levelo://app?vid=d5f8a16d-7942-42b5-a1e7-81cda05a2e5f"},"vehicle_type_id":"4","last_reported":1726416586,"current_range_meters":10800,"station_id":"ce4bh092rcd13ifvqd20","pricing_plan_id":"cebpf4jnsgd1na2vs0mg"},{"bike_id":"9c52fbe3-1dba-4237-8cf5-3df4f9eaa6a9","system_id":"levelo_inurba_marseille","lat":43.28567,"lon":5.39496,"is_reserved":false,"is_disabled":false,"rental_uris":{"android":"levelo://app?vid=9c52fbe3-1dba-4237-8cf5-3df4f9eaa6a9","ios":"levelo://app?vid=9c52fbe3-1dba-4237-8cf5-3df4f9eaa6a9"},"vehicle_type_id":"4","last_reported":1726416586,"current_range_meters":36400,"station_id":"ce4bh292rcd13ifvqdg0","pricing_plan_id":"cebpf4jnsgd1na2vs0mg"},{"bike_id":"e56b8830-1193-40a5-85c5-6cfa65ba945a","system_id":"levelo_inurba_marseille","lat":43.28445,"lon":5.39194,"is_reserved":false,"is_disabled":false,"rental_uris":{"android":"levelo://app?vid=e56b8830-1193-40a5-85c5-6cfa65ba945a","ios":"levelo://app?vid=e56b8830-1193-40a5-85c5-6cfa65ba945a"},"vehicle_type_id":"4","last_reported":1726416586,"current_range_meters":4400,"station_id":"ce4bhoh2rcd13ifvqh5g","pricing_plan_id":"cebpf4jnsgd1na2vs0mg"},{"bike_id":"ec9006f1-9246-40db-9584-a79270db200a","system_id":"levelo_inurba_marseille","lat":43.31726,"lon":5.42403,"is_reserved":false,"is_disabled":false,"rental_uris":{"android":"levelo://app?vid=ec9006f1-9246-40db-9584-a79270db200a","ios":"levelo://app?vid=ec9006f1-9246-40db-9584-a79270db200a"},"vehicle_type_id":"4","last_reported":1726416586,"current_range_meters":38800,"station_id":"ce4bhp92rcd13ifvqhbg","pricing_plan_id":"cebpf4jnsgd1na2vs0mg"},{"bike_id":"1e1820d1-0b32-4319-84db-087b38b8be17","system_id":"levelo_inurba_marseille","lat":43.28416,"lon":5.34974,"is_reserved":false,"is_disabled":false,"rental_uris":{"android":"levelo://app?vid=1e1820d1-0b32-4319-84db-087b38b8be17","ios":"levelo://app?vid=1e1820d1-0b32-4319-84db-087b38b8be17"},"vehicle_type_id":"4","last_reported":1726416586,"current_range_meters":16400,"station_id":"ce4bhbh2rcd13ifvqepg","pricing_plan_id":"cebpf4jnsgd1na2vs0mg"},{"bike_id":"ce54ef60-8607-47f0-8525-9058452231f4","system_id":"levelo_inurba_marseille","lat":43.28269,"lon":5.35071,"is_reserved":false,"is_disabled":false,"rental_uris":{"android":"levelo://app?vid=ce54ef60-8607-47f0-8525-9058452231f4","ios":"levelo://app?vid=ce54ef60-8607-47f0-8525-9058452231f4"},"vehicle_type_id":"4","last_reported":1726416586,"current_range_meters":6000,"station_id":"ce4bhbp2rcd13ifvqerg","pricing_plan_id":"cebpf4jnsgd1na2vs0mg"},{"bike_id":"2252954e-1e0c-4bdc-b9a1-609d32f8f188","system_id":"levelo_inurba_marseille","lat":43.33022,"lon":5.39028,"is_reserved":false,"is_disabled":false,"rental_uris":{"android":"levelo://app?vid=2252954e-1e0c-4bdc-b9a1-609d32f8f188","ios":"levelo://app?vid=2252954e-1e0c-4bdc-b9a1-609d32f8f188"},"vehicle_type_id":"4","last_reported":1726416586,"current_range_meters":26000,"station_id":"ce4bhr92rcd13ifvqhrg","pricing_plan_id":"cebpf4jnsgd1na2vs0mg"},{"bike_id":"f79ff168-7c1f-43a6-9a48-819ae1e3b151","system_id":"levelo_inurba_marseille","lat":43.24071,"lon":5.37756,"is_reserved":false,"is_disabled":false,"rental_uris":{"android":"levelo://app?vid=f79ff168-7c1f-43a6-9a48-819ae1e3b151","ios":"levelo://app?vid=f79ff168-7c1f-43a6-9a48-819ae1e3b151"},"vehicle_type_id":"4","last_reported":1726416586,"current_range_meters":11600,"station_id":"ce4bhnp2rcd13ifvqgvg","pricing_plan_id":"cebpf4jnsgd1na2vs0mg"},{"bike_id":"6d5614e0-2e6f-4d24-9d4a-5c6cca74e3e5","system_id":"levelo_inurba_marseille","lat":43.23203,"lon":5.35548,"is_reserved":false,"is_disabled":false,"rental_uris":{"android":"levelo://app?vid=6d5614e0-2e6f-4d24-9d4a-5c6cca74e3e5","ios":"levelo://app?vid=6d5614e0-2e6f-4d24-9d4a-5c6cca74e3e5"},"vehicle_type_id":"4","last_reported":1726416586,"current_range_meters":10000,"station_id":"ce4bhu92rcd13ifvqi70","pricing_plan_id":"cebpf4jnsgd1na2vs0mg"},{"bike_id":"40ea5bd8-8230-4b41-91ac-364a86bee29d","system_id":"levelo_inurba_marseille","lat":43.28706,"lon":5.37383,"is_reserved":false,"is_disabled":false,"rental_uris":{"android":"levelo://app?vid=40ea5bd8-8230-4b41-91ac-364a86bee29d","ios":"levelo://app?vid=40ea5bd8-8230-4b41-91ac-364a86bee29d"},"vehicle_type_id":"4","last_reported":1726416586,"current_range_meters":25600,"station_id":"ce4bh3p2rcd13ifvqdq0","pricing_plan_id":"cebpf4jnsgd1na2vs0mg"},{"bike_id":"90521811-f8fd-48e1-ade7-4d07ddb065bb","system_id":"levelo_inurba_marseille","lat":43.23195,"lon":5.35553,"is_reserved":false,"is_disabled":false,"rental_uris":{"android":"levelo://app?vid=90521811-f8fd-48e1-ade7-4d07ddb065bb","ios":"levelo://app?vid=90521811-f8fd-48e1-ade7-4d07ddb065bb"},"vehicle_type_id":"4","last_reported":1726416586,"current_range_meters":11600,"station_id":"ce4bhu92rcd13ifvqi70","pricing_plan_id":"cebpf4jnsgd1na2vs0mg"},{"bike_id":"123604bd-3f26-418e-84ff-3bdfd8178f33","system_id":"levelo_inurba_marseille","lat":43.2467,"lon":5.38155,"is_reserved":false,"is_disabled":false,"rental_uris":{"android":"levelo://app?vid=123604bd-3f26-418e-84ff-3bdfd8178f33","ios":"levelo://app?vid=123604bd-3f26-418e-84ff-3bdfd8178f33"},"vehicle_type_id":"4","last_reported":1726416586,"current_range_meters":7200,"station_id":"ce4bhih2rcd13ifvqfr0","pricing_plan_id":"cebpf4jnsgd1na2vs0mg"},{"bike_id":"307f00e1-5118-4dbb-91ff-774e8c26f339","system_id":"levelo_inurba_marseille","lat":43.28263,"lon":5.35055,"is_reserved":false,"is_disabled":false,"rental_uris":{"android":"levelo://app?vid=307f00e1-5118-4dbb-91ff-774e8c26f339","ios":"levelo://app?vid=307f00e1-5118-4dbb-91ff-774e8c26f339"},"vehicle_type_id":"4","last_reported":1726416586,"current_range_meters":33600,"station_id":"ce4bhbp2rcd13ifvqerg","pricing_plan_id":"cebpf4jnsgd1na2vs0mg"},{"bike_id":"5cbd62cb-1488-4ecb-90b5-73e0b48a0e01","system_id":"levelo_inurba_marseille","lat":43.24805,"lon":5.37453,"is_reserved":false,"is_disabled":false,"rental_uris":{"android":"levelo://app?vid=5cbd62cb-1488-4ecb-90b5-73e0b48a0e01","ios":"levelo://app?vid=5cbd62cb-1488-4ecb-90b5-73e0b48a0e01"},"vehicle_type_id":"4","last_reported":1726416586,"current_range_meters":24800,"station_id":"ce4bhgh2rcd13ifvqfb0","pricing_plan_id":"cebpf4jnsgd1na2vs0mg"},{"bike_id":"ecab2b07-b455-4c0a-a787-affa632df0b6","system_id":"levelo_inurba_marseille","lat":43.29556,"lon":5.42273,"is_reserved":false,"is_disabled":false,"rental_uris":{"android":"levelo://app?vid=ecab2b07-b455-4c0a-a787-affa632df0b6","ios":"levelo://app?vid=ecab2b07-b455-4c0a-a787-affa632df0b6"},"vehicle_type_id":"4","last_reported":1726416586,"current_range_meters":21600,"station_id":"ce4bhph2rcd13ifvqhdg","pricing_plan_id":"cebpf4jnsgd1na2vs0mg"},{"bike_id":"26db0265-0a91-4c66-8aa8-67a94f7eef0d","system_id":"levelo_inurba_marseille","lat":43.26936,"lon":5.4005,"is_reserved":false,"is_disabled":false,"rental_uris":{"android":"levelo://app?vid=26db0265-0a91-4c66-8aa8-67a94f7eef0d","ios":"levelo://app?vid=26db0265-0a91-4c66-8aa8-67a94f7eef0d"},"vehicle_type_id":"4","last_reported":1726416586,"current_range_meters":9200,"station_id":"","pricing_plan_id":"cebpf4jnsgd1na2vs0mg"},{"bike_id":"332e7158-8ad6-4ff8-a711-56e21947b7b5","system_id":"levelo_inurba_marseille","lat":43.28427,"lon":5.34985,"is_reserved":false,"is_disabled":false,"rental_uris":{"android":"levelo://app?vid=332e7158-8ad6-4ff8-a711-56e21947b7b5","ios":"levelo://app?vid=332e7158-8ad6-4ff8-a711-56e21947b7b5"},"vehicle_type_id":"4","last_reported":1726416586,"current_range_meters":38400,"station_id":"ce4bhbh2rcd13ifvqepg","pricing_plan_id":"cebpf4jnsgd1na2vs0mg"},{"bike_id":"002d6499-0f0d-4285-8eb9-71875fae99ee","system_id":"levelo_inurba_marseille","lat":43.23195,"lon":5.35553,"is_reserved":false,"is_disabled":false,"rental_uris":{"android":"levelo://app?vid=002d6499-0f0d-4285-8eb9-71875fae99ee","ios":"levelo://app?vid=002d6499-0f0d-4285-8eb9-71875fae99ee"},"vehicle_type_id":"4","last_reported":1726416586,"current_range_meters":37600,"station_id":"ce4bhu92rcd13ifvqi70","pricing_plan_id":"cebpf4jnsgd1na2vs0mg"},{"bike_id":"259254be-63a9-493b-a5bb-f10a619561b2","system_id":"levelo_inurba_marseille","lat":43.30133,"lon":5.38778,"is_reserved":false,"is_disabled":false,"rental_uris":{"android":"levelo://app?vid=259254be-63a9-493b-a5bb-f10a619561b2","ios":"levelo://app?vid=259254be-63a9-493b-a5bb-f10a619561b2"},"vehicle_type_id":"4","last_reported":1726416586,"current_range_meters":22000,"station_id":"ce4bghh2rcd13ifvqb60","pricing_plan_id":"cebpf4jnsgd1na2vs0mg"},{"bike_id":"7cb86f02-015f-4218-848c-60a0be8facd1","system_id":"levelo_inurba_marseille","lat":43.25725,"lon":5.41098,"is_reserved":false,"is_disabled":false,"rental_uris":{"android":"levelo://app?vid=7cb86f02-015f-4218-848c-60a0be8facd1","ios":"levelo://app?vid=7cb86f02-015f-4218-848c-60a0be8facd1"},"vehicle_type_id":"4","last_reported":1726416586,"current_range_meters":14400,"station_id":"ce4bhkp2rcd13ifvqgd0","pricing_plan_id":"cebpf4jnsgd1na2vs0mg"},{"bike_id":"fa0bba81-ae28-438c-aaa0-a2a0c9d69ac5","system_id":"levelo_inurba_marseille","lat":43.29557,"lon":5.42283,"is_reserved":false,"is_disabled":false,"rental_uris":{"android":"levelo://app?vid=fa0bba81-ae28-438c-aaa0-a2a0c9d69ac5","ios":"levelo://app?vid=fa0bba81-ae28-438c-aaa0-a2a0c9d69ac5"},"vehicle_type_id":"4","last_reported":1726416586,"current_range_meters":32800,"station_id":"ce4bhph2rcd13ifvqhdg","pricing_plan_id":"cebpf4jnsgd1na2vs0mg"},{"bike_id":"e00d038a-00c7-4258-ab4b-259bdb081cfd","system_id":"levelo_inurba_marseille","lat":43.23197,"lon":5.35542,"is_reserved":false,"is_disabled":false,"rental_uris":{"android":"levelo://app?vid=e00d038a-00c7-4258-ab4b-259bdb081cfd","ios":"levelo://app?vid=e00d038a-00c7-4258-ab4b-259bdb081cfd"},"vehicle_type_id":"4","last_reported":1726416586,"current_range_meters":27200,"station_id":"ce4bhu92rcd13ifvqi70","pricing_plan_id":"cebpf4jnsgd1na2vs0mg"},{"bike_id":"734a1eb0-98b3-4572-a20c-18f40b30db79","system_id":"levelo_inurba_marseille","lat":43.28153,"lon":5.42636,"is_reserved":false,"is_disabled":false,"rental_uris":{"android":"levelo://app?vid=734a1eb0-98b3-4572-a20c-18f40b30db79","ios":"levelo://app?vid=734a1eb0-98b3-4572-a20c-18f40b30db79"},"vehicle_type_id":"4","last_reported":1726416586,"current_range_meters":4000,"station_id":"ce4bhnh2rcd13ifvqgug","pricing_plan_id":"cebpf4jnsgd1na2vs0mg"},{"bike_id":"459ca2fe-304d-47b2-a604-8dea281edb0c","system_id":"levelo_inurba_marseille","lat":43.31083,"lon":5.42434,"is_reserved":false,"is_disabled":false,"rental_uris":{"android":"levelo://app?vid=459ca2fe-304d-47b2-a604-8dea281edb0c","ios":"levelo://app?vid=459ca2fe-304d-47b2-a604-8dea281edb0c"},"vehicle_type_id":"4","last_reported":1726416586,"current_range_meters":31200,"station_id":"ce4bhp92rcd13ifvqhag","pricing_plan_id":"cebpf4jnsgd1na2vs0mg"},{"bike_id":"1a0fae94-2806-4c9d-aaf8-c9bcd302b24f","system_id":"levelo_inurba_marseille","lat":43.24168,"lon":5.36397,"is_reserved":false,"is_disabled":false,"rental_uris":{"android":"levelo://app?vid=1a0fae94-2806-4c9d-aaf8-c9bcd302b24f","ios":"levelo://app?vid=1a0fae94-2806-4c9d-aaf8-c9bcd302b24f"},"vehicle_type_id":"4","last_reported":1726416586,"current_range_meters":38400,"station_id":"cpo36qri1sfpv3e86is0","pricing_plan_id":"cebpf4jnsgd1na2vs0mg"},{"bike_id":"f1bea7c0-7bee-41a5-8dc1-b413bd0acfd1","system_id":"levelo_inurba_marseille","lat":43.30956,"lon":5.39026,"is_reserved":false,"is_disabled":false,"rental_uris":{"android":"levelo://app?vid=f1bea7c0-7bee-41a5-8dc1-b413bd0acfd1","ios":"levelo://app?vid=f1bea7c0-7bee-41a5-8dc1-b413bd0acfd1"},"vehicle_type_id":"4","last_reported":1726416586,"current_range_meters":33200,"station_id":"ce4bgup2rcd13ifvqco0","pricing_plan_id":"cebpf4jnsgd1na2vs0mg"},{"bike_id":"16c43f94-39db-4780-a91d-6e73e8df609c","system_id":"levelo_inurba_marseille","lat":43.31662,"lon":5.40507,"is_reserved":false,"is_disabled":false,"rental_uris":{"android":"levelo://app?vid=16c43f94-39db-4780-a91d-6e73e8df609c","ios":"levelo://app?vid=16c43f94-39db-4780-a91d-6e73e8df609c"},"vehicle_type_id":"4","last_reported":1726416586,"current_range_meters":39200,"station_id":"ce4bh012rcd13ifvqd00","pricing_plan_id":"cebpf4jnsgd1na2vs0mg"},{"bike_id":"d79cab75-1102-4fd8-bea7-6195a263f65f","system_id":"levelo_inurba_marseille","lat":43.28416,"lon":5.34978,"is_reserved":false,"is_disabled":false,"rental_uris":{"android":"levelo://app?vid=d79cab75-1102-4fd8-bea7-6195a263f65f","ios":"levelo://app?vid=d79cab75-1102-4fd8-bea7-6195a263f65f"},"vehicle_type_id":"4","last_reported":1726416586,"current_range_meters":28400,"station_id":"ce4bhbh2rcd13ifvqepg","pricing_plan_id":"cebpf4jnsgd1na2vs0mg"},{"bike_id":"b1db6496-7d7b-4acc-a88c-e5406d38e100","system_id":"levelo_inurba_marseille","lat":43.23191,"lon":5.35545,"is_reserved":false,"is_disabled":false,"rental_uris":{"android":"levelo://app?vid=b1db6496-7d7b-4acc-a88c-e5406d38e100","ios":"levelo://app?vid=b1db6496-7d7b-4acc-a88c-e5406d38e100"},"vehicle_type_id":"4","last_reported":1726416586,"current_range_meters":36400,"station_id":"ce4bhu92rcd13ifvqi70","pricing_plan_id":"cebpf4jnsgd1na2vs0mg"},{"bike_id":"ee721f16-71d0-49c8-9da4-858f78b55bcb","system_id":"levelo_inurba_marseille","lat":43.25938,"lon":5.40902,"is_reserved":false,"is_disabled":false,"rental_uris":{"android":"levelo://app?vid=ee721f16-71d0-49c8-9da4-858f78b55bcb","ios":"levelo://app?vid=ee721f16-71d0-49c8-9da4-858f78b55bcb"},"vehicle_type_id":"4","last_reported":1726416586,"current_range_meters":25200,"station_id":"ce4bhm92rcd13ifvqglg","pricing_plan_id":"cebpf4jnsgd1na2vs0mg"},{"bike_id":"826f4136-a005-4203-8c5f-7808e18dcf00","system_id":"levelo_inurba_marseille","lat":43.29557,"lon":5.42285,"is_reserved":false,"is_disabled":false,"rental_uris":{"android":"levelo://app?vid=826f4136-a005-4203-8c5f-7808e18dcf00","ios":"levelo://app?vid=826f4136-a005-4203-8c5f-7808e18dcf00"},"vehicle_type_id":"4","last_reported":1726416586,"current_range_meters":8000,"station_id":"ce4bhph2rcd13ifvqhdg","pricing_plan_id":"cebpf4jnsgd1na2vs0mg"},{"bike_id":"5cf4c2f1-f092-4550-b8cf-369099ebc3bc","system_id":"levelo_inurba_marseille","lat":43.24565,"lon":5.41539,"is_reserved":false,"is_disabled":false,"rental_uris":{"android":"levelo://app?vid=5cf4c2f1-f092-4550-b8cf-369099ebc3bc","ios":"levelo://app?vid=5cf4c2f1-f092-4550-b8cf-369099ebc3bc"},"vehicle_type_id":"4","last_reported":1726416586,"current_range_meters":14000,"station_id":"ce4bhlh2rcd13ifvqgig","pricing_plan_id":"cebpf4jnsgd1na2vs0mg"},{"bike_id":"dfc7e944-178a-43bd-85e8-0abf1cafc416","system_id":"levelo_inurba_marseille","lat":43.22929,"lon":5.35372,"is_reserved":false,"is_disabled":false,"rental_uris":{"android":"levelo://app?vid=dfc7e944-178a-43bd-85e8-0abf1cafc416","ios":"levelo://app?vid=dfc7e944-178a-43bd-85e8-0abf1cafc416"},"vehicle_type_id":"4","last_reported":1726416586,"current_range_meters":21600,"station_id":"cpo3532slgdg3j2ikp40","pricing_plan_id":"cebpf4jnsgd1na2vs0mg"},{"bike_id":"8758ae8a-9410-425a-9551-334f4ba464e1","system_id":"levelo_inurba_marseille","lat":43.28458,"lon":5.35888,"is_reserved":false,"is_disabled":false,"rental_uris":{"android":"levelo://app?vid=8758ae8a-9410-425a-9551-334f4ba464e1","ios":"levelo://app?vid=8758ae8a-9410-425a-9551-334f4ba464e1"},"vehicle_type_id":"4","last_reported":1726416586,"current_range_meters":7200,"station_id":"ce4bhah2rcd13ifvqei0","pricing_plan_id":"cebpf4jnsgd1na2vs0mg"},{"bike_id":"d6f786ad-7a42-4d08-8368-ada968e827ef","system_id":"levelo_inurba_marseille","lat":43.230573,"lon":5.354873,"is_reserved":false,"is_disabled":false,"rental_uris":{"android":"levelo://app?vid=d6f786ad-7a42-4d08-8368-ada968e827ef","ios":"levelo://app?vid=d6f786ad-7a42-4d08-8368-ada968e827ef"},"vehicle_type_id":"4","last_reported":1726416586,"current_range_meters":20000,"station_id":"ce4bhh92rcd13ifvqfj0","pricing_plan_id":"cebpf4jnsgd1na2vs0mg"},{"bike_id":"b645ac77-0d58-4fa9-8ad3-947af8bdb1d9","system_id":"levelo_inurba_marseille","lat":43.299,"lon":5.43665,"is_reserved":false,"is_disabled":false,"rental_uris":{"android":"levelo://app?vid=b645ac77-0d58-4fa9-8ad3-947af8bdb1d9","ios":"levelo://app?vid=b645ac77-0d58-4fa9-8ad3-947af8bdb1d9"},"vehicle_type_id":"4","last_reported":1726416586,"current_range_meters":33200,"station_id":"ce4bhpp2rcd13ifvqhfg","pricing_plan_id":"cebpf4jnsgd1na2vs0mg"},{"bike_id":"03515e55-0de8-4f6d-953a-abbf71a9cce4","system_id":"levelo_inurba_marseille","lat":43.24071,"lon":5.37759,"is_reserved":false,"is_disabled":false,"rental_uris":{"android":"levelo://app?vid=03515e55-0de8-4f6d-953a-abbf71a9cce4","ios":"levelo://app?vid=03515e55-0de8-4f6d-953a-abbf71a9cce4"},"vehicle_type_id":"4","last_reported":1726416586,"current_range_meters":16800,"station_id":"ce4bhnp2rcd13ifvqgvg","pricing_plan_id":"cebpf4jnsgd1na2vs0mg"},{"bike_id":"80efdd71-7050-43ee-924a-014f442a35f6","system_id":"levelo_inurba_marseille","lat":43.3095,"lon":5.39031,"is_reserved":false,"is_disabled":false,"rental_uris":{"android":"levelo://app?vid=80efdd71-7050-43ee-924a-014f442a35f6","ios":"levelo://app?vid=80efdd71-7050-43ee-924a-014f442a35f6"},"vehicle_type_id":"4","last_reported":1726416586,"current_range_meters":8800,"station_id":"ce4bgup2rcd13ifvqco0","pricing_plan_id":"cebpf4jnsgd1na2vs0mg"},{"bike_id":"91d155a1-0e95-42f4-9cf2-24e586735a13","system_id":"levelo_inurba_marseille","lat":43.33721,"lon":5.39173,"is_reserved":false,"is_disabled":false,"rental_uris":{"android":"levelo://app?vid=91d155a1-0e95-42f4-9cf2-24e586735a13","ios":"levelo://app?vid=91d155a1-0e95-42f4-9cf2-24e586735a13"},"vehicle_type_id":"4","last_reported":1726416586,"current_range_meters":38800,"station_id":"ce4bhr92rcd13ifvqhsg","pricing_plan_id":"cebpf4jnsgd1na2vs0mg"},{"bike_id":"c4442831-5b8d-47f9-a6db-f0ce6de3c34c","system_id":"levelo_inurba_marseille","lat":43.28275,"lon":5.35073,"is_reserved":false,"is_disabled":false,"rental_uris":{"android":"levelo://app?vid=c4442831-5b8d-47f9-a6db-f0ce6de3c34c","ios":"levelo://app?vid=c4442831-5b8d-47f9-a6db-f0ce6de3c34c"},"vehicle_type_id":"4","last_reported":1726416586,"current_range_meters":17600,"station_id":"ce4bhbp2rcd13ifvqerg","pricing_plan_id":"cebpf4jnsgd1na2vs0mg"},{"bike_id":"6ec13ce0-5fd1-482f-9f1f-90b5169fdaef","system_id":"levelo_inurba_marseille","lat":43.30959,"lon":5.39038,"is_reserved":false,"is_disabled":false,"rental_uris":{"android":"levelo://app?vid=6ec13ce0-5fd1-482f-9f1f-90b5169fdaef","ios":"levelo://app?vid=6ec13ce0-5fd1-482f-9f1f-90b5169fdaef"},"vehicle_type_id":"4","last_reported":1726416586,"current_range_meters":8400,"station_id":"ce4bgup2rcd13ifvqco0","pricing_plan_id":"cebpf4jnsgd1na2vs0mg"},{"bike_id":"63a95f81-3e05-49ac-a767-85991aab3e7e","system_id":"levelo_inurba_marseille","lat":43.27423,"lon":5.39407,"is_reserved":false,"is_disabled":false,"rental_uris":{"android":"levelo://app?vid=63a95f81-3e05-49ac-a767-85991aab3e7e","ios":"levelo://app?vid=63a95f81-3e05-49ac-a767-85991aab3e7e"},"vehicle_type_id":"4","last_reported":1726416586,"current_range_meters":8000,"station_id":"ce4bhdp2rcd13ifvqf20","pricing_plan_id":"cebpf4jnsgd1na2vs0mg"},{"bike_id":"7abc2a25-404a-4f70-a7c0-c89315b5c4bc","system_id":"levelo_inurba_marseille","lat":43.29423,"lon":5.40965,"is_reserved":false,"is_disabled":false,"rental_uris":{"android":"levelo://app?vid=7abc2a25-404a-4f70-a7c0-c89315b5c4bc","ios":"levelo://app?vid=7abc2a25-404a-4f70-a7c0-c89315b5c4bc"},"vehicle_type_id":"4","last_reported":1726416586,"current_range_meters":28400,"station_id":"","pricing_plan_id":"cebpf4jnsgd1na2vs0mg"},{"bike_id":"a6c42a61-2629-4fe8-9982-dd904feffe5a","system_id":"levelo_inurba_marseille","lat":43.28609,"lon":5.37059,"is_reserved":false,"is_disabled":false,"rental_uris":{"android":"levelo://app?vid=a6c42a61-2629-4fe8-9982-dd904feffe5a","ios":"levelo://app?vid=a6c42a61-2629-4fe8-9982-dd904feffe5a"},"vehicle_type_id":"4","last_reported":1726416586,"current_range_meters":8400,"station_id":"ce4bht12rcd13ifvqi60","pricing_plan_id":"cebpf4jnsgd1na2vs0mg"},{"bike_id":"05bc8212-2bd6-43f7-9d5f-abe616ae706e","system_id":"levelo_inurba_marseille","lat":43.31763,"lon":5.39024,"is_reserved":false,"is_disabled":false,"rental_uris":{"android":"levelo://app?vid=05bc8212-2bd6-43f7-9d5f-abe616ae706e","ios":"levelo://app?vid=05bc8212-2bd6-43f7-9d5f-abe616ae706e"},"vehicle_type_id":"4","last_reported":1726416586,"current_range_meters":38400,"station_id":"ce4bhqp2rcd13ifvqhng","pricing_plan_id":"cebpf4jnsgd1na2vs0mg"},{"bike_id":"677498c9-746b-4650-9a8e-2c7479635944","system_id":"levelo_inurba_marseille","lat":43.33023,"lon":5.39044,"is_reserved":false,"is_disabled":false,"rental_uris":{"android":"levelo://app?vid=677498c9-746b-4650-9a8e-2c7479635944","ios":"levelo://app?vid=677498c9-746b-4650-9a8e-2c7479635944"},"vehicle_type_id":"4","last_reported":1726416586,"current_range_meters":32000,"station_id":"ce4bhr92rcd13ifvqhrg","pricing_plan_id":"cebpf4jnsgd1na2vs0mg"},{"bike_id":"3120ea0c-df6f-4888-b62c-710902aa9fea","system_id":"levelo_inurba_marseille","lat":43.2846,"lon":5.35887,"is_reserved":false,"is_disabled":false,"rental_uris":{"android":"levelo://app?vid=3120ea0c-df6f-4888-b62c-710902aa9fea","ios":"levelo://app?vid=3120ea0c-df6f-4888-b62c-710902aa9fea"},"vehicle_type_id":"4","last_reported":1726416586,"current_range_meters":2000,"station_id":"ce4bhah2rcd13ifvqei0","pricing_plan_id":"cebpf4jnsgd1na2vs0mg"},{"bike_id":"5b3d9955-7c15-4034-bc44-4c107a7e4b83","system_id":"levelo_inurba_marseille","lat":43.29258,"lon":5.40905,"is_reserved":false,"is_disabled":false,"rental_uris":{"android":"levelo://app?vid=5b3d9955-7c15-4034-bc44-4c107a7e4b83","ios":"levelo://app?vid=5b3d9955-7c15-4034-bc44-4c107a7e4b83"},"vehicle_type_id":"4","last_reported":1726416586,"current_range_meters":10800,"station_id":"ce4bh192rcd13ifvqdc0","pricing_plan_id":"cebpf4jnsgd1na2vs0mg"},{"bike_id":"c0042362-d76e-412e-8000-c06d63ef023d","system_id":"levelo_inurba_marseille","lat":43.290547,"lon":5.359182,"is_reserved":false,"is_disabled":false,"rental_uris":{"android":"levelo://app?vid=c0042362-d76e-412e-8000-c06d63ef023d","ios":"levelo://app?vid=c0042362-d76e-412e-8000-c06d63ef023d"},"vehicle_type_id":"4","last_reported":1726416586,"current_range_meters":37600,"station_id":"ce4bha92rcd13ifvqeg0","pricing_plan_id":"cebpf4jnsgd1na2vs0mg"},{"bike_id":"552ccea4-a0ab-4fa2-9015-1ea8da64cd61","system_id":"levelo_inurba_marseille","lat":43.25574,"lon":5.38242,"is_reserved":false,"is_disabled":false,"rental_uris":{"android":"levelo://app?vid=552ccea4-a0ab-4fa2-9015-1ea8da64cd61","ios":"levelo://app?vid=552ccea4-a0ab-4fa2-9015-1ea8da64cd61"},"vehicle_type_id":"4","last_reported":1726416586,"current_range_meters":3200,"station_id":"ce4bhih2rcd13ifvqfs0","pricing_plan_id":"cebpf4jnsgd1na2vs0mg"},{"bike_id":"c979dfc3-35c3-4581-bddc-204d4a80487c","system_id":"levelo_inurba_marseille","lat":43.2827,"lon":5.35061,"is_reserved":false,"is_disabled":false,"rental_uris":{"android":"levelo://app?vid=c979dfc3-35c3-4581-bddc-204d4a80487c","ios":"levelo://app?vid=c979dfc3-35c3-4581-bddc-204d4a80487c"},"vehicle_type_id":"4","last_reported":1726416586,"current_range_meters":38800,"station_id":"ce4bhbp2rcd13ifvqerg","pricing_plan_id":"cebpf4jnsgd1na2vs0mg"},{"bike_id":"d20637c2-2d8a-41ac-982b-f1d0e2a3c36b","system_id":"levelo_inurba_marseille","lat":43.24546,"lon":5.39524,"is_reserved":false,"is_disabled":false,"rental_uris":{"android":"levelo://app?vid=d20637c2-2d8a-41ac-982b-f1d0e2a3c36b","ios":"levelo://app?vid=d20637c2-2d8a-41ac-982b-f1d0e2a3c36b"},"vehicle_type_id":"4","last_reported":1726416586,"current_range_meters":20800,"station_id":"ce4bhlp2rcd13ifvqgjg","pricing_plan_id":"cebpf4jnsgd1na2vs0mg"},{"bike_id":"17f54d56-3851-4b09-b787-dd98ac7e4c7e","system_id":"levelo_inurba_marseille","lat":43.24665,"lon":5.38163,"is_reserved":false,"is_disabled":false,"rental_uris":{"android":"levelo://app?vid=17f54d56-3851-4b09-b787-dd98ac7e4c7e","ios":"levelo://app?vid=17f54d56-3851-4b09-b787-dd98ac7e4c7e"},"vehicle_type_id":"4","last_reported":1726416586,"current_range_meters":38800,"station_id":"ce4bhih2rcd13ifvqfr0","pricing_plan_id":"cebpf4jnsgd1na2vs0mg"},{"bike_id":"7251d55d-befd-400d-90d9-ab0b68ba8caa","system_id":"levelo_inurba_marseille","lat":43.24805,"lon":5.37447,"is_reserved":false,"is_disabled":false,"rental_uris":{"android":"levelo://app?vid=7251d55d-befd-400d-90d9-ab0b68ba8caa","ios":"levelo://app?vid=7251d55d-befd-400d-90d9-ab0b68ba8caa"},"vehicle_type_id":"4","last_reported":1726416586,"current_range_meters":37600,"station_id":"ce4bhgh2rcd13ifvqfb0","pricing_plan_id":"cebpf4jnsgd1na2vs0mg"},{"bike_id":"53a2d874-293d-47cc-bdbd-a03b3468623b","system_id":"levelo_inurba_marseille","lat":43.29901,"lon":5.43675,"is_reserved":false,"is_disabled":false,"rental_uris":{"android":"levelo://app?vid=53a2d874-293d-47cc-bdbd-a03b3468623b","ios":"levelo://app?vid=53a2d874-293d-47cc-bdbd-a03b3468623b"},"vehicle_type_id":"4","last_reported":1726416586,"current_range_meters":3200,"station_id":"ce4bhpp2rcd13ifvqhfg","pricing_plan_id":"cebpf4jnsgd1na2vs0mg"},{"bike_id":"bb7acf50-b6bc-4b2d-adf4-833abc23b24c","system_id":"levelo_inurba_marseille","lat":43.23198,"lon":5.35544,"is_reserved":false,"is_disabled":false,"rental_uris":{"android":"levelo://app?vid=bb7acf50-b6bc-4b2d-adf4-833abc23b24c","ios":"levelo://app?vid=bb7acf50-b6bc-4b2d-adf4-833abc23b24c"},"vehicle_type_id":"4","last_reported":1726416586,"current_range_meters":39200,"station_id":"ce4bhu92rcd13ifvqi70","pricing_plan_id":"cebpf4jnsgd1na2vs0mg"},{"bike_id":"4c1ecf41-3292-4a63-a103-401c0bb6cad5","system_id":"levelo_inurba_marseille","lat":43.2396,"lon":5.36627,"is_reserved":false,"is_disabled":false,"rental_uris":{"android":"levelo://app?vid=4c1ecf41-3292-4a63-a103-401c0bb6cad5","ios":"levelo://app?vid=4c1ecf41-3292-4a63-a103-401c0bb6cad5"},"vehicle_type_id":"4","last_reported":1726416586,"current_range_meters":23200,"station_id":"ce4bhi12rcd13ifvqfp0","pricing_plan_id":"cebpf4jnsgd1na2vs0mg"},{"bike_id":"3ad1333f-b993-4494-afe5-6af8dd5abebb","system_id":"levelo_inurba_marseille","lat":43.27985,"lon":5.41651,"is_reserved":false,"is_disabled":false,"rental_uris":{"android":"levelo://app?vid=3ad1333f-b993-4494-afe5-6af8dd5abebb","ios":"levelo://app?vid=3ad1333f-b993-4494-afe5-6af8dd5abebb"},"vehicle_type_id":"4","last_reported":1726416586,"current_range_meters":27600,"station_id":"ce4bho12rcd13ifvqh1g","pricing_plan_id":"cebpf4jnsgd1na2vs0mg"},{"bike_id":"b2e003fc-0212-46ee-a5d0-25b6d0fc0da8","system_id":"levelo_inurba_marseille","lat":43.30784,"lon":5.37636,"is_reserved":false,"is_disabled":false,"rental_uris":{"android":"levelo://app?vid=b2e003fc-0212-46ee-a5d0-25b6d0fc0da8","ios":"levelo://app?vid=b2e003fc-0212-46ee-a5d0-25b6d0fc0da8"},"vehicle_type_id":"4","last_reported":1726416586,"current_range_meters":31200,"station_id":"ce4bgv92rcd13ifvqcq0","pricing_plan_id":"cebpf4jnsgd1na2vs0mg"},{"bike_id":"32d0c597-1844-4063-8b8b-02724571adbc","system_id":"levelo_inurba_marseille","lat":43.3172,"lon":5.42402,"is_reserved":false,"is_disabled":false,"rental_uris":{"android":"levelo://app?vid=32d0c597-1844-4063-8b8b-02724571adbc","ios":"levelo://app?vid=32d0c597-1844-4063-8b8b-02724571adbc"},"vehicle_type_id":"4","last_reported":1726416586,"current_range_meters":38800,"station_id":"ce4bhp92rcd13ifvqhbg","pricing_plan_id":"cebpf4jnsgd1na2vs0mg"},{"bike_id":"9ccb57bb-268b-4f6b-99ab-d64fe6afdd6b","system_id":"levelo_inurba_marseille","lat":43.314911,"lon":5.373121,"is_reserved":false,"is_disabled":false,"rental_uris":{"android":"levelo://app?vid=9ccb57bb-268b-4f6b-99ab-d64fe6afdd6b","ios":"levelo://app?vid=9ccb57bb-268b-4f6b-99ab-d64fe6afdd6b"},"vehicle_type_id":"4","last_reported":1726416586,"current_range_meters":26800,"station_id":"ce4bgt12rcd13ifvqcd0","pricing_plan_id":"cebpf4jnsgd1na2vs0mg"},{"bike_id":"37776167-08cf-4620-b3d3-e3f67752e124","system_id":"levelo_inurba_marseille","lat":43.2707,"lon":5.42281,"is_reserved":false,"is_disabled":false,"rental_uris":{"android":"levelo://app?vid=37776167-08cf-4620-b3d3-e3f67752e124","ios":"levelo://app?vid=37776167-08cf-4620-b3d3-e3f67752e124"},"vehicle_type_id":"4","last_reported":1726416586,"current_range_meters":10000,"station_id":"ce4bhk92rcd13ifvqgb0","pricing_plan_id":"cebpf4jnsgd1na2vs0mg"},{"bike_id":"bb046787-1b6f-4a52-9f6c-67f38be48f9e","system_id":"levelo_inurba_marseille","lat":43.24542,"lon":5.39523,"is_reserved":false,"is_disabled":false,"rental_uris":{"android":"levelo://app?vid=bb046787-1b6f-4a52-9f6c-67f38be48f9e","ios":"levelo://app?vid=bb046787-1b6f-4a52-9f6c-67f38be48f9e"},"vehicle_type_id":"4","last_reported":1726416586,"current_range_meters":30400,"station_id":"ce4bhlp2rcd13ifvqgjg","pricing_plan_id":"cebpf4jnsgd1na2vs0mg"},{"bike_id":"2f4d1c3a-ca79-4b2f-a707-345ab1c6ac77","system_id":"levelo_inurba_marseille","lat":43.23056,"lon":5.354846,"is_reserved":false,"is_disabled":false,"rental_uris":{"android":"levelo://app?vid=2f4d1c3a-ca79-4b2f-a707-345ab1c6ac77","ios":"levelo://app?vid=2f4d1c3a-ca79-4b2f-a707-345ab1c6ac77"},"vehicle_type_id":"4","last_reported":1726416586,"current_range_meters":24400,"station_id":"cpo3342slgdg3j2ifvpg","pricing_plan_id":"cebpf4jnsgd1na2vs0mg"},{"bike_id":"8e9dc4ec-8f88-457c-9d59-c939b306f495","system_id":"levelo_inurba_marseille","lat":43.30949,"lon":5.39035,"is_reserved":false,"is_disabled":false,"rental_uris":{"android":"levelo://app?vid=8e9dc4ec-8f88-457c-9d59-c939b306f495","ios":"levelo://app?vid=8e9dc4ec-8f88-457c-9d59-c939b306f495"},"vehicle_type_id":"4","last_reported":1726416586,"current_range_meters":15200,"station_id":"ce4bgup2rcd13ifvqco0","pricing_plan_id":"cebpf4jnsgd1na2vs0mg"},{"bike_id":"2286f183-3f3e-4b1c-a4d7-f03c6ec50237","system_id":"levelo_inurba_marseille","lat":43.23197,"lon":5.35553,"is_reserved":false,"is_disabled":false,"rental_uris":{"android":"levelo://app?vid=2286f183-3f3e-4b1c-a4d7-f03c6ec50237","ios":"levelo://app?vid=2286f183-3f3e-4b1c-a4d7-f03c6ec50237"},"vehicle_type_id":"4","last_reported":1726416586,"current_range_meters":38000,"station_id":"ce4bhu92rcd13ifvqi70","pricing_plan_id":"cebpf4jnsgd1na2vs0mg"},{"bike_id":"6bcc742b-48ce-4914-8d02-15bb6fc592ab","system_id":"levelo_inurba_marseille","lat":43.25577,"lon":5.38238,"is_reserved":false,"is_disabled":false,"rental_uris":{"android":"levelo://app?vid=6bcc742b-48ce-4914-8d02-15bb6fc592ab","ios":"levelo://app?vid=6bcc742b-48ce-4914-8d02-15bb6fc592ab"},"vehicle_type_id":"4","last_reported":1726416586,"current_range_meters":6000,"station_id":"ce4bhih2rcd13ifvqfs0","pricing_plan_id":"cebpf4jnsgd1na2vs0mg"},{"bike_id":"ccc81115-c769-40cb-a420-a414e3f0cc3b","system_id":"levelo_inurba_marseille","lat":43.24389,"lon":5.37061,"is_reserved":false,"is_disabled":false,"rental_uris":{"android":"levelo://app?vid=ccc81115-c769-40cb-a420-a414e3f0cc3b","ios":"levelo://app?vid=ccc81115-c769-40cb-a420-a414e3f0cc3b"},"vehicle_type_id":"4","last_reported":1726416586,"current_range_meters":36800,"station_id":"ce4bhhh2rcd13ifvqfk0","pricing_plan_id":"cebpf4jnsgd1na2vs0mg"},{"bike_id":"a993b958-2897-4319-b855-94c91683f3fd","system_id":"levelo_inurba_marseille","lat":43.24802,"lon":5.37454,"is_reserved":false,"is_disabled":false,"rental_uris":{"android":"levelo://app?vid=a993b958-2897-4319-b855-94c91683f3fd","ios":"levelo://app?vid=a993b958-2897-4319-b855-94c91683f3fd"},"vehicle_type_id":"4","last_reported":1726416586,"current_range_meters":2800,"station_id":"ce4bhgh2rcd13ifvqfb0","pricing_plan_id":"cebpf4jnsgd1na2vs0mg"},{"bike_id":"6ad2fe94-195b-4d58-9ac6-d3a9675a4c80","system_id":"levelo_inurba_marseille","lat":43.23065,"lon":5.35486,"is_reserved":false,"is_disabled":false,"rental_uris":{"android":"levelo://app?vid=6ad2fe94-195b-4d58-9ac6-d3a9675a4c80","ios":"levelo://app?vid=6ad2fe94-195b-4d58-9ac6-d3a9675a4c80"},"vehicle_type_id":"4","last_reported":1726416586,"current_range_meters":20800,"station_id":"cpo3342slgdg3j2ifvpg","pricing_plan_id":"cebpf4jnsgd1na2vs0mg"},{"bike_id":"517e81f4-65be-4958-9c5e-cc129ab43244","system_id":"levelo_inurba_marseille","lat":43.26955,"lon":5.38625,"is_reserved":false,"is_disabled":false,"rental_uris":{"android":"levelo://app?vid=517e81f4-65be-4958-9c5e-cc129ab43244","ios":"levelo://app?vid=517e81f4-65be-4958-9c5e-cc129ab43244"},"vehicle_type_id":"4","last_reported":1726416586,"current_range_meters":23200,"station_id":"ce4bhh92rcd13ifvqfh0","pricing_plan_id":"cebpf4jnsgd1na2vs0mg"},{"bike_id":"b3cea0df-511c-4923-98dd-e313862bd35a","system_id":"levelo_inurba_marseille","lat":43.286083,"lon":5.37054,"is_reserved":false,"is_disabled":false,"rental_uris":{"android":"levelo://app?vid=b3cea0df-511c-4923-98dd-e313862bd35a","ios":"levelo://app?vid=b3cea0df-511c-4923-98dd-e313862bd35a"},"vehicle_type_id":"4","last_reported":1726416586,"current_range_meters":8800,"station_id":"ce4bht12rcd13ifvqi60","pricing_plan_id":"cebpf4jnsgd1na2vs0mg"},{"bike_id":"915191d3-cf03-4d5e-94f1-48ef431f27b0","system_id":"levelo_inurba_marseille","lat":43.291691,"lon":5.371565,"is_reserved":false,"is_disabled":false,"rental_uris":{"android":"levelo://app?vid=915191d3-cf03-4d5e-94f1-48ef431f27b0","ios":"levelo://app?vid=915191d3-cf03-4d5e-94f1-48ef431f27b0"},"vehicle_type_id":"4","last_reported":1726416586,"current_range_meters":20400,"station_id":"ce4bha92rcd13ifvqeh0","pricing_plan_id":"cebpf4jnsgd1na2vs0mg"},{"bike_id":"dafba16e-55ad-44f6-a3b2-1f85b226b44e","system_id":"levelo_inurba_marseille","lat":43.278719,"lon":5.380791,"is_reserved":false,"is_disabled":false,"rental_uris":{"android":"levelo://app?vid=dafba16e-55ad-44f6-a3b2-1f85b226b44e","ios":"levelo://app?vid=dafba16e-55ad-44f6-a3b2-1f85b226b44e"},"vehicle_type_id":"4","last_reported":1726416586,"current_range_meters":8800,"station_id":"ce4bhf92rcd13ifvqf50","pricing_plan_id":"cebpf4jnsgd1na2vs0mg"},{"bike_id":"2a29b635-860d-4fcf-b9ef-7b9429843b40","system_id":"levelo_inurba_marseille","lat":43.31724,"lon":5.42394,"is_reserved":false,"is_disabled":false,"rental_uris":{"android":"levelo://app?vid=2a29b635-860d-4fcf-b9ef-7b9429843b40","ios":"levelo://app?vid=2a29b635-860d-4fcf-b9ef-7b9429843b40"},"vehicle_type_id":"4","last_reported":1726416586,"current_range_meters":36800,"station_id":"ce4bhp92rcd13ifvqhbg","pricing_plan_id":"cebpf4jnsgd1na2vs0mg"},{"bike_id":"5fb80b9c-4c90-47a0-bb0f-a0abc69b22ef","system_id":"levelo_inurba_marseille","lat":43.28924,"lon":5.36641,"is_reserved":false,"is_disabled":false,"rental_uris":{"android":"levelo://app?vid=5fb80b9c-4c90-47a0-bb0f-a0abc69b22ef","ios":"levelo://app?vid=5fb80b9c-4c90-47a0-bb0f-a0abc69b22ef"},"vehicle_type_id":"4","last_reported":1726416586,"current_range_meters":6400,"station_id":"ce4bhap2rcd13ifvqek0","pricing_plan_id":"cebpf4jnsgd1na2vs0mg"},{"bike_id":"8f0fc759-db34-435a-b1fc-2a4b3e7e475f","system_id":"levelo_inurba_marseille","lat":43.28153,"lon":5.42635,"is_reserved":false,"is_disabled":false,"rental_uris":{"android":"levelo://app?vid=8f0fc759-db34-435a-b1fc-2a4b3e7e475f","ios":"levelo://app?vid=8f0fc759-db34-435a-b1fc-2a4b3e7e475f"},"vehicle_type_id":"4","last_reported":1726416586,"current_range_meters":12000,"station_id":"ce4bhnh2rcd13ifvqgug","pricing_plan_id":"cebpf4jnsgd1na2vs0mg"},{"bike_id":"06c475f3-a8c1-438e-865e-6210d5cf8a7e","system_id":"levelo_inurba_marseille","lat":43.29569,"lon":5.39973,"is_reserved":false,"is_disabled":false,"rental_uris":{"android":"levelo://app?vid=06c475f3-a8c1-438e-865e-6210d5cf8a7e","ios":"levelo://app?vid=06c475f3-a8c1-438e-865e-6210d5cf8a7e"},"vehicle_type_id":"4","last_reported":1726416586,"current_range_meters":6400,"station_id":"ce4bh312rcd13ifvqdj0","pricing_plan_id":"cebpf4jnsgd1na2vs0mg"},{"bike_id":"789fa5b0-53ec-4dd3-9e4c-1ee8a6e55930","system_id":"levelo_inurba_marseille","lat":43.24814,"lon":5.37458,"is_reserved":false,"is_disabled":false,"rental_uris":{"android":"levelo://app?vid=789fa5b0-53ec-4dd3-9e4c-1ee8a6e55930","ios":"levelo://app?vid=789fa5b0-53ec-4dd3-9e4c-1ee8a6e55930"},"vehicle_type_id":"4","last_reported":1726416586,"current_range_meters":6800,"station_id":"ce4bhgh2rcd13ifvqfb0","pricing_plan_id":"cebpf4jnsgd1na2vs0mg"},{"bike_id":"61e00977-be43-400f-99ea-3c33330f7657","system_id":"levelo_inurba_marseille","lat":43.25007,"lon":5.38914,"is_reserved":false,"is_disabled":false,"rental_uris":{"android":"levelo://app?vid=61e00977-be43-400f-99ea-3c33330f7657","ios":"levelo://app?vid=61e00977-be43-400f-99ea-3c33330f7657"},"vehicle_type_id":"4","last_reported":1726416586,"current_range_meters":12400,"station_id":"ce4bhgp2rcd13ifvqfd0","pricing_plan_id":"cebpf4jnsgd1na2vs0mg"},{"bike_id":"d1f38fcd-be46-4877-a9ac-34b365272c30","system_id":"levelo_inurba_marseille","lat":43.27102,"lon":5.43322,"is_reserved":false,"is_disabled":false,"rental_uris":{"android":"levelo://app?vid=d1f38fcd-be46-4877-a9ac-34b365272c30","ios":"levelo://app?vid=d1f38fcd-be46-4877-a9ac-34b365272c30"},"vehicle_type_id":"4","last_reported":1726416586,"current_range_meters":14400,"station_id":"","pricing_plan_id":"cebpf4jnsgd1na2vs0mg"},{"bike_id":"5dd812c1-471e-4696-8ab0-e50e2dc97a3e","system_id":"levelo_inurba_marseille","lat":43.32335,"lon":5.40615,"is_reserved":false,"is_disabled":false,"rental_uris":{"android":"levelo://app?vid=5dd812c1-471e-4696-8ab0-e50e2dc97a3e","ios":"levelo://app?vid=5dd812c1-471e-4696-8ab0-e50e2dc97a3e"},"vehicle_type_id":"4","last_reported":1726416586,"current_range_meters":4000,"station_id":"ce4bhq92rcd13ifvqhjg","pricing_plan_id":"cebpf4jnsgd1na2vs0mg"},{"bike_id":"2c36f173-7fe7-45a3-b0b4-69fddd6ecd2c","system_id":"levelo_inurba_marseille","lat":43.27611,"lon":5.36107,"is_reserved":false,"is_disabled":false,"rental_uris":{"android":"levelo://app?vid=2c36f173-7fe7-45a3-b0b4-69fddd6ecd2c","ios":"levelo://app?vid=2c36f173-7fe7-45a3-b0b4-69fddd6ecd2c"},"vehicle_type_id":"4","last_reported":1726416586,"current_range_meters":17600,"station_id":"ce4bgj92rcd13ifvqbe0","pricing_plan_id":"cebpf4jnsgd1na2vs0mg"},{"bike_id":"f9076aec-56e7-4b2e-a7b1-575337aca9d5","system_id":"levelo_inurba_marseille","lat":43.24173,"lon":5.36395,"is_reserved":false,"is_disabled":false,"rental_uris":{"android":"levelo://app?vid=f9076aec-56e7-4b2e-a7b1-575337aca9d5","ios":"levelo://app?vid=f9076aec-56e7-4b2e-a7b1-575337aca9d5"},"vehicle_type_id":"4","last_reported":1726416586,"current_range_meters":27600,"station_id":"cpo36qri1sfpv3e86is0","pricing_plan_id":"cebpf4jnsgd1na2vs0mg"},{"bike_id":"91f7e9e5-076e-4e3a-8acf-289dc20e3d9f","system_id":"levelo_inurba_marseille","lat":43.31724,"lon":5.42399,"is_reserved":false,"is_disabled":false,"rental_uris":{"android":"levelo://app?vid=91f7e9e5-076e-4e3a-8acf-289dc20e3d9f","ios":"levelo://app?vid=91f7e9e5-076e-4e3a-8acf-289dc20e3d9f"},"vehicle_type_id":"4","last_reported":1726416586,"current_range_meters":36800,"station_id":"ce4bhp92rcd13ifvqhbg","pricing_plan_id":"cebpf4jnsgd1na2vs0mg"},{"bike_id":"d4dcec5a-b0b6-4319-8584-aaf3103d153c","system_id":"levelo_inurba_marseille","lat":43.29562,"lon":5.42276,"is_reserved":false,"is_disabled":false,"rental_uris":{"android":"levelo://app?vid=d4dcec5a-b0b6-4319-8584-aaf3103d153c","ios":"levelo://app?vid=d4dcec5a-b0b6-4319-8584-aaf3103d153c"},"vehicle_type_id":"4","last_reported":1726416586,"current_range_meters":35200,"station_id":"ce4bhph2rcd13ifvqhdg","pricing_plan_id":"cebpf4jnsgd1na2vs0mg"},{"bike_id":"98daa725-35ed-41ee-af7d-b7cd152deb01","system_id":"levelo_inurba_marseille","lat":43.24549,"lon":5.39518,"is_reserved":false,"is_disabled":false,"rental_uris":{"android":"levelo://app?vid=98daa725-35ed-41ee-af7d-b7cd152deb01","ios":"levelo://app?vid=98daa725-35ed-41ee-af7d-b7cd152deb01"},"vehicle_type_id":"4","last_reported":1726416586,"current_range_meters":22000,"station_id":"ce4bhlp2rcd13ifvqgjg","pricing_plan_id":"cebpf4jnsgd1na2vs0mg"},{"bike_id":"5263c75a-b0ca-4e1c-9976-2df708ba914c","system_id":"levelo_inurba_marseille","lat":43.29561,"lon":5.42287,"is_reserved":false,"is_disabled":false,"rental_uris":{"android":"levelo://app?vid=5263c75a-b0ca-4e1c-9976-2df708ba914c","ios":"levelo://app?vid=5263c75a-b0ca-4e1c-9976-2df708ba914c"},"vehicle_type_id":"4","last_reported":1726416586,"current_range_meters":10800,"station_id":"ce4bhph2rcd13ifvqhdg","pricing_plan_id":"cebpf4jnsgd1na2vs0mg"},{"bike_id":"fe094ee9-2d39-48ba-9cc9-4b46bfb8b28f","system_id":"levelo_inurba_marseille","lat":43.28938,"lon":5.39634,"is_reserved":false,"is_disabled":false,"rental_uris":{"android":"levelo://app?vid=fe094ee9-2d39-48ba-9cc9-4b46bfb8b28f","ios":"levelo://app?vid=fe094ee9-2d39-48ba-9cc9-4b46bfb8b28f"},"vehicle_type_id":"4","last_reported":1726416586,"current_range_meters":3600,"station_id":"ce4bh3h2rcd13ifvqdn0","pricing_plan_id":"cebpf4jnsgd1na2vs0mg"},{"bike_id":"5ba86fcb-de8d-4408-a775-0b7d808b5c6b","system_id":"levelo_inurba_marseille","lat":43.23195,"lon":5.35547,"is_reserved":false,"is_disabled":false,"rental_uris":{"android":"levelo://app?vid=5ba86fcb-de8d-4408-a775-0b7d808b5c6b","ios":"levelo://app?vid=5ba86fcb-de8d-4408-a775-0b7d808b5c6b"},"vehicle_type_id":"4","last_reported":1726416586,"current_range_meters":36800,"station_id":"ce4bhu92rcd13ifvqi70","pricing_plan_id":"cebpf4jnsgd1na2vs0mg"},{"bike_id":"01728a3f-3ded-40bb-96ff-84408c133881","system_id":"levelo_inurba_marseille","lat":43.28031,"lon":5.36936,"is_reserved":false,"is_disabled":false,"rental_uris":{"android":"levelo://app?vid=01728a3f-3ded-40bb-96ff-84408c133881","ios":"levelo://app?vid=01728a3f-3ded-40bb-96ff-84408c133881"},"vehicle_type_id":"4","last_reported":1726416586,"current_range_meters":27600,"station_id":"ce4bha12rcd13ifvqef0","pricing_plan_id":"cebpf4jnsgd1na2vs0mg"},{"bike_id":"a384aa56-2dd2-4c8f-9043-785608a6d780","system_id":"levelo_inurba_marseille","lat":43.24081,"lon":5.3775,"is_reserved":false,"is_disabled":false,"rental_uris":{"android":"levelo://app?vid=a384aa56-2dd2-4c8f-9043-785608a6d780","ios":"levelo://app?vid=a384aa56-2dd2-4c8f-9043-785608a6d780"},"vehicle_type_id":"4","last_reported":1726416586,"current_range_meters":11600,"station_id":"ce4bhnp2rcd13ifvqgvg","pricing_plan_id":"cebpf4jnsgd1na2vs0mg"},{"bike_id":"e697fa6c-66d7-4881-86f5-3551b834ed7c","system_id":"levelo_inurba_marseille","lat":43.28619,"lon":5.35103,"is_reserved":false,"is_disabled":false,"rental_uris":{"android":"levelo://app?vid=e697fa6c-66d7-4881-86f5-3551b834ed7c","ios":"levelo://app?vid=e697fa6c-66d7-4881-86f5-3551b834ed7c"},"vehicle_type_id":"4","last_reported":1726416586,"current_range_meters":26000,"station_id":"ce4bhch2rcd13ifvqeug","pricing_plan_id":"cebpf4jnsgd1na2vs0mg"},{"bike_id":"69ad5b8b-1ac5-4ba1-bc74-5a2355179ffb","system_id":"levelo_inurba_marseille","lat":43.30794,"lon":5.43066,"is_reserved":false,"is_disabled":false,"rental_uris":{"android":"levelo://app?vid=69ad5b8b-1ac5-4ba1-bc74-5a2355179ffb","ios":"levelo://app?vid=69ad5b8b-1ac5-4ba1-bc74-5a2355179ffb"},"vehicle_type_id":"4","last_reported":1726416586,"current_range_meters":9200,"station_id":"ce4bhph2rcd13ifvqheg","pricing_plan_id":"cebpf4jnsgd1na2vs0mg"},{"bike_id":"c840fd26-2b17-45a9-aac9-92d3f1ce47b3","system_id":"levelo_inurba_marseille","lat":43.2319,"lon":5.35553,"is_reserved":false,"is_disabled":false,"rental_uris":{"android":"levelo://app?vid=c840fd26-2b17-45a9-aac9-92d3f1ce47b3","ios":"levelo://app?vid=c840fd26-2b17-45a9-aac9-92d3f1ce47b3"},"vehicle_type_id":"4","last_reported":1726416586,"current_range_meters":22400,"station_id":"ce4bhu92rcd13ifvqi70","pricing_plan_id":"cebpf4jnsgd1na2vs0mg"},{"bike_id":"4db921f2-bc23-49f4-8a24-f619c1eace61","system_id":"levelo_inurba_marseille","lat":43.23196,"lon":5.35543,"is_reserved":false,"is_disabled":false,"rental_uris":{"android":"levelo://app?vid=4db921f2-bc23-49f4-8a24-f619c1eace61","ios":"levelo://app?vid=4db921f2-bc23-49f4-8a24-f619c1eace61"},"vehicle_type_id":"4","last_reported":1726416586,"current_range_meters":22400,"station_id":"ce4bhu92rcd13ifvqi70","pricing_plan_id":"cebpf4jnsgd1na2vs0mg"},{"bike_id":"8fbb784c-dc74-408c-87f3-c8284b52026e","system_id":"levelo_inurba_marseille","lat":43.232361,"lon":5.356061,"is_reserved":false,"is_disabled":false,"rental_uris":{"android":"levelo://app?vid=8fbb784c-dc74-408c-87f3-c8284b52026e","ios":"levelo://app?vid=8fbb784c-dc74-408c-87f3-c8284b52026e"},"vehicle_type_id":"4","last_reported":1726416586,"current_range_meters":31200,"station_id":"","pricing_plan_id":"cebpf4jnsgd1na2vs0mg"},{"bike_id":"328d45f9-980e-4811-97c0-47d761861509","system_id":"levelo_inurba_marseille","lat":43.29847,"lon":5.37836,"is_reserved":false,"is_disabled":false,"rental_uris":{"android":"levelo://app?vid=328d45f9-980e-4811-97c0-47d761861509","ios":"levelo://app?vid=328d45f9-980e-4811-97c0-47d761861509"},"vehicle_type_id":"4","last_reported":1726416586,"current_range_meters":27600,"station_id":"ce4bgkh2rcd13ifvqbl0","pricing_plan_id":"cebpf4jnsgd1na2vs0mg"},{"bike_id":"3b51f764-c75e-47b9-9ce2-0fdae7022f59","system_id":"levelo_inurba_marseille","lat":43.24824,"lon":5.39216,"is_reserved":false,"is_disabled":false,"rental_uris":{"android":"levelo://app?vid=3b51f764-c75e-47b9-9ce2-0fdae7022f59","ios":"levelo://app?vid=3b51f764-c75e-47b9-9ce2-0fdae7022f59"},"vehicle_type_id":"4","last_reported":1726416586,"current_range_meters":3200,"station_id":"","pricing_plan_id":"cebpf4jnsgd1na2vs0mg"},{"bike_id":"faf816e6-4e87-4e93-88d4-5861eae33b5c","system_id":"levelo_inurba_marseille","lat":43.24078,"lon":5.3775,"is_reserved":false,"is_disabled":false,"rental_uris":{"android":"levelo://app?vid=faf816e6-4e87-4e93-88d4-5861eae33b5c","ios":"levelo://app?vid=faf816e6-4e87-4e93-88d4-5861eae33b5c"},"vehicle_type_id":"4","last_reported":1726416586,"current_range_meters":25200,"station_id":"ce4bhnp2rcd13ifvqgvg","pricing_plan_id":"cebpf4jnsgd1na2vs0mg"},{"bike_id":"ece240a6-57ed-4ab0-9fc1-7ec70e1c4642","system_id":"levelo_inurba_marseille","lat":43.30958,"lon":5.39027,"is_reserved":false,"is_disabled":false,"rental_uris":{"android":"levelo://app?vid=ece240a6-57ed-4ab0-9fc1-7ec70e1c4642","ios":"levelo://app?vid=ece240a6-57ed-4ab0-9fc1-7ec70e1c4642"},"vehicle_type_id":"4","last_reported":1726416586,"current_range_meters":8400,"station_id":"ce4bgup2rcd13ifvqco0","pricing_plan_id":"cebpf4jnsgd1na2vs0mg"},{"bike_id":"8b608b96-fedf-4511-8d4b-09bad2606e1a","system_id":"levelo_inurba_marseille","lat":43.27716,"lon":5.41127,"is_reserved":false,"is_disabled":false,"rental_uris":{"android":"levelo://app?vid=8b608b96-fedf-4511-8d4b-09bad2606e1a","ios":"levelo://app?vid=8b608b96-fedf-4511-8d4b-09bad2606e1a"},"vehicle_type_id":"4","last_reported":1726416586,"current_range_meters":20400,"station_id":"","pricing_plan_id":"cebpf4jnsgd1na2vs0mg"},{"bike_id":"200e68cb-b3fe-4993-9236-591a4002fbd0","system_id":"levelo_inurba_marseille","lat":43.27207,"lon":5.391593,"is_reserved":false,"is_disabled":false,"rental_uris":{"android":"levelo://app?vid=200e68cb-b3fe-4993-9236-591a4002fbd0","ios":"levelo://app?vid=200e68cb-b3fe-4993-9236-591a4002fbd0"},"vehicle_type_id":"4","last_reported":1726416586,"current_range_meters":14400,"station_id":"ce4bhhp2rcd13ifvqfm0","pricing_plan_id":"cebpf4jnsgd1na2vs0mg"},{"bike_id":"ca7c1f41-bd6a-4c13-949f-4ef0a14fd781","system_id":"levelo_inurba_marseille","lat":43.28157,"lon":5.42638,"is_reserved":false,"is_disabled":false,"rental_uris":{"android":"levelo://app?vid=ca7c1f41-bd6a-4c13-949f-4ef0a14fd781","ios":"levelo://app?vid=ca7c1f41-bd6a-4c13-949f-4ef0a14fd781"},"vehicle_type_id":"4","last_reported":1726416586,"current_range_meters":25600,"station_id":"ce4bhnh2rcd13ifvqgug","pricing_plan_id":"cebpf4jnsgd1na2vs0mg"},{"bike_id":"d6149948-cc69-48c8-b75f-51b423ee5546","system_id":"levelo_inurba_marseille","lat":43.3116,"lon":5.39347,"is_reserved":false,"is_disabled":false,"rental_uris":{"android":"levelo://app?vid=d6149948-cc69-48c8-b75f-51b423ee5546","ios":"levelo://app?vid=d6149948-cc69-48c8-b75f-51b423ee5546"},"vehicle_type_id":"4","last_reported":1726416586,"current_range_meters":26800,"station_id":"","pricing_plan_id":"cebpf4jnsgd1na2vs0mg"},{"bike_id":"fa2b0a9f-66ad-4cd1-b7bb-93b9cffdc904","system_id":"levelo_inurba_marseille","lat":43.25931,"lon":5.40906,"is_reserved":false,"is_disabled":false,"rental_uris":{"android":"levelo://app?vid=fa2b0a9f-66ad-4cd1-b7bb-93b9cffdc904","ios":"levelo://app?vid=fa2b0a9f-66ad-4cd1-b7bb-93b9cffdc904"},"vehicle_type_id":"4","last_reported":1726416586,"current_range_meters":32000,"station_id":"ce4bhm92rcd13ifvqglg","pricing_plan_id":"cebpf4jnsgd1na2vs0mg"},{"bike_id":"761ab5b4-542a-4a7c-b28d-b1467b857064","system_id":"levelo_inurba_marseille","lat":43.29007,"lon":5.35608,"is_reserved":false,"is_disabled":false,"rental_uris":{"android":"levelo://app?vid=761ab5b4-542a-4a7c-b28d-b1467b857064","ios":"levelo://app?vid=761ab5b4-542a-4a7c-b28d-b1467b857064"},"vehicle_type_id":"4","last_reported":1726416586,"current_range_meters":11200,"station_id":"ce4bhb92rcd13ifvqen0","pricing_plan_id":"cebpf4jnsgd1na2vs0mg"},{"bike_id":"714909f1-d15f-482b-b430-c0e3c5479824","system_id":"levelo_inurba_marseille","lat":43.2594,"lon":5.409,"is_reserved":false,"is_disabled":false,"rental_uris":{"android":"levelo://app?vid=714909f1-d15f-482b-b430-c0e3c5479824","ios":"levelo://app?vid=714909f1-d15f-482b-b430-c0e3c5479824"},"vehicle_type_id":"4","last_reported":1726416586,"current_range_meters":38800,"station_id":"ce4bhm92rcd13ifvqglg","pricing_plan_id":"cebpf4jnsgd1na2vs0mg"},{"bike_id":"d2ca61ed-07b0-4f91-990e-b98a38e76d1b","system_id":"levelo_inurba_marseille","lat":43.24077,"lon":5.37752,"is_reserved":false,"is_disabled":false,"rental_uris":{"android":"levelo://app?vid=d2ca61ed-07b0-4f91-990e-b98a38e76d1b","ios":"levelo://app?vid=d2ca61ed-07b0-4f91-990e-b98a38e76d1b"},"vehicle_type_id":"4","last_reported":1726416586,"current_range_meters":11200,"station_id":"ce4bhnp2rcd13ifvqgvg","pricing_plan_id":"cebpf4jnsgd1na2vs0mg"},{"bike_id":"70218696-faef-4a30-9733-7be764a507ad","system_id":"levelo_inurba_marseille","lat":43.269684,"lon":5.401805,"is_reserved":false,"is_disabled":false,"rental_uris":{"android":"levelo://app?vid=70218696-faef-4a30-9733-7be764a507ad","ios":"levelo://app?vid=70218696-faef-4a30-9733-7be764a507ad"},"vehicle_type_id":"4","last_reported":1726416586,"current_range_meters":8800,"station_id":"cjm6bp8fraef2m0cb0m0","pricing_plan_id":"cebpf4jnsgd1na2vs0mg"},{"bike_id":"be3580cc-5597-48ff-bbfe-6a25fd4800e2","system_id":"levelo_inurba_marseille","lat":43.31728,"lon":5.4239,"is_reserved":false,"is_disabled":false,"rental_uris":{"android":"levelo://app?vid=be3580cc-5597-48ff-bbfe-6a25fd4800e2","ios":"levelo://app?vid=be3580cc-5597-48ff-bbfe-6a25fd4800e2"},"vehicle_type_id":"4","last_reported":1726416586,"current_range_meters":38800,"station_id":"ce4bhp92rcd13ifvqhbg","pricing_plan_id":"cebpf4jnsgd1na2vs0mg"},{"bike_id":"cd8dc078-5601-43c7-ae85-d1d95beb4710","system_id":"levelo_inurba_marseille","lat":43.24167,"lon":5.36401,"is_reserved":false,"is_disabled":false,"rental_uris":{"android":"levelo://app?vid=cd8dc078-5601-43c7-ae85-d1d95beb4710","ios":"levelo://app?vid=cd8dc078-5601-43c7-ae85-d1d95beb4710"},"vehicle_type_id":"4","last_reported":1726416586,"current_range_meters":38800,"station_id":"cpo36qri1sfpv3e86is0","pricing_plan_id":"cebpf4jnsgd1na2vs0mg"},{"bike_id":"94f4c488-6ee7-4728-a36f-0ad67c440a2f","system_id":"levelo_inurba_marseille","lat":43.280396,"lon":5.369494,"is_reserved":false,"is_disabled":false,"rental_uris":{"android":"levelo://app?vid=94f4c488-6ee7-4728-a36f-0ad67c440a2f","ios":"levelo://app?vid=94f4c488-6ee7-4728-a36f-0ad67c440a2f"},"vehicle_type_id":"4","last_reported":1726416586,"current_range_meters":16400,"station_id":"ce4bhh92rcd13ifvqfj0","pricing_plan_id":"cebpf4jnsgd1na2vs0mg"},{"bike_id":"dd0ef3e3-509a-463c-9acb-5f05f83c9125","system_id":"levelo_inurba_marseille","lat":43.28413,"lon":5.34982,"is_reserved":false,"is_disabled":false,"rental_uris":{"android":"levelo://app?vid=dd0ef3e3-509a-463c-9acb-5f05f83c9125","ios":"levelo://app?vid=dd0ef3e3-509a-463c-9acb-5f05f83c9125"},"vehicle_type_id":"4","last_reported":1726416586,"current_range_meters":12400,"station_id":"ce4bhbh2rcd13ifvqepg","pricing_plan_id":"cebpf4jnsgd1na2vs0mg"},{"bike_id":"ab518430-d776-4f00-9a09-8b3ebcf4b771","system_id":"levelo_inurba_marseille","lat":43.256744,"lon":5.376622,"is_reserved":false,"is_disabled":false,"rental_uris":{"android":"levelo://app?vid=ab518430-d776-4f00-9a09-8b3ebcf4b771","ios":"levelo://app?vid=ab518430-d776-4f00-9a09-8b3ebcf4b771"},"vehicle_type_id":"4","last_reported":1726416586,"current_range_meters":8800,"station_id":"ce4bhhp2rcd13ifvqfm0","pricing_plan_id":"cebpf4jnsgd1na2vs0mg"},{"bike_id":"369f4b3c-77ce-4b0c-98e9-a6ca210b2917","system_id":"levelo_inurba_marseille","lat":43.27072,"lon":5.42281,"is_reserved":false,"is_disabled":false,"rental_uris":{"android":"levelo://app?vid=369f4b3c-77ce-4b0c-98e9-a6ca210b2917","ios":"levelo://app?vid=369f4b3c-77ce-4b0c-98e9-a6ca210b2917"},"vehicle_type_id":"4","last_reported":1726416586,"current_range_meters":40000,"station_id":"ce4bhk92rcd13ifvqgb0","pricing_plan_id":"cebpf4jnsgd1na2vs0mg"},{"bike_id":"f1e8ceee-9573-4b77-ab79-482d0d3b70cc","system_id":"levelo_inurba_marseille","lat":43.2417,"lon":5.36401,"is_reserved":false,"is_disabled":false,"rental_uris":{"android":"levelo://app?vid=f1e8ceee-9573-4b77-ab79-482d0d3b70cc","ios":"levelo://app?vid=f1e8ceee-9573-4b77-ab79-482d0d3b70cc"},"vehicle_type_id":"4","last_reported":1726416586,"current_range_meters":35200,"station_id":"cpo36qri1sfpv3e86is0","pricing_plan_id":"cebpf4jnsgd1na2vs0mg"},{"bike_id":"0e7436a2-b8dc-48f6-acbd-483c4350fb53","system_id":"levelo_inurba_marseille","lat":43.26789,"lon":5.39412,"is_reserved":false,"is_disabled":false,"rental_uris":{"android":"levelo://app?vid=0e7436a2-b8dc-48f6-acbd-483c4350fb53","ios":"levelo://app?vid=0e7436a2-b8dc-48f6-acbd-483c4350fb53"},"vehicle_type_id":"4","last_reported":1726416586,"current_range_meters":22800,"station_id":"ce4bhh12rcd13ifvqfg0","pricing_plan_id":"cebpf4jnsgd1na2vs0mg"},{"bike_id":"1b011e87-1c93-4309-8a20-da548bb7f4d2","system_id":"levelo_inurba_marseille","lat":43.23068,"lon":5.35481,"is_reserved":false,"is_disabled":false,"rental_uris":{"android":"levelo://app?vid=1b011e87-1c93-4309-8a20-da548bb7f4d2","ios":"levelo://app?vid=1b011e87-1c93-4309-8a20-da548bb7f4d2"},"vehicle_type_id":"4","last_reported":1726416586,"current_range_meters":38000,"station_id":"cpo3342slgdg3j2ifvpg","pricing_plan_id":"cebpf4jnsgd1na2vs0mg"},{"bike_id":"0f647097-c17c-4062-a9e5-1deba499f0d0","system_id":"levelo_inurba_marseille","lat":43.24816,"lon":5.37457,"is_reserved":false,"is_disabled":false,"rental_uris":{"android":"levelo://app?vid=0f647097-c17c-4062-a9e5-1deba499f0d0","ios":"levelo://app?vid=0f647097-c17c-4062-a9e5-1deba499f0d0"},"vehicle_type_id":"4","last_reported":1726416586,"current_range_meters":37600,"station_id":"ce4bhgh2rcd13ifvqfb0","pricing_plan_id":"cebpf4jnsgd1na2vs0mg"},{"bike_id":"d23ff51c-0d13-4be6-ba24-7f317c7b1a3c","system_id":"levelo_inurba_marseille","lat":43.23187,"lon":5.39972,"is_reserved":false,"is_disabled":false,"rental_uris":{"android":"levelo://app?vid=d23ff51c-0d13-4be6-ba24-7f317c7b1a3c","ios":"levelo://app?vid=d23ff51c-0d13-4be6-ba24-7f317c7b1a3c"},"vehicle_type_id":"4","last_reported":1726416586,"current_range_meters":8800,"station_id":"ce4bhn12rcd13ifvqgqg","pricing_plan_id":"cebpf4jnsgd1na2vs0mg"},{"bike_id":"78121e03-bccf-483f-bcc5-d9c3e107b9ad","system_id":"levelo_inurba_marseille","lat":43.27567,"lon":5.38408,"is_reserved":false,"is_disabled":false,"rental_uris":{"android":"levelo://app?vid=78121e03-bccf-483f-bcc5-d9c3e107b9ad","ios":"levelo://app?vid=78121e03-bccf-483f-bcc5-d9c3e107b9ad"},"vehicle_type_id":"4","last_reported":1726416586,"current_range_meters":8800,"station_id":"ce4bhh92rcd13ifvqfi0","pricing_plan_id":"cebpf4jnsgd1na2vs0mg"},{"bike_id":"0e5a3bf8-e7be-4e70-aca4-d97d6e03c7dd","system_id":"levelo_inurba_marseille","lat":43.33023,"lon":5.39046,"is_reserved":false,"is_disabled":false,"rental_uris":{"android":"levelo://app?vid=0e5a3bf8-e7be-4e70-aca4-d97d6e03c7dd","ios":"levelo://app?vid=0e5a3bf8-e7be-4e70-aca4-d97d6e03c7dd"},"vehicle_type_id":"4","last_reported":1726416586,"current_range_meters":22400,"station_id":"ce4bhr92rcd13ifvqhrg","pricing_plan_id":"cebpf4jnsgd1na2vs0mg"},{"bike_id":"d9b6a4ab-cc21-4f3a-b9fb-e76e8bfef99d","system_id":"levelo_inurba_marseille","lat":43.28427,"lon":5.34984,"is_reserved":false,"is_disabled":false,"rental_uris":{"android":"levelo://app?vid=d9b6a4ab-cc21-4f3a-b9fb-e76e8bfef99d","ios":"levelo://app?vid=d9b6a4ab-cc21-4f3a-b9fb-e76e8bfef99d"},"vehicle_type_id":"4","last_reported":1726416586,"current_range_meters":18000,"station_id":"ce4bhbh2rcd13ifvqepg","pricing_plan_id":"cebpf4jnsgd1na2vs0mg"},{"bike_id":"cb507692-d5eb-4511-909d-45e70ba3cf6d","system_id":"levelo_inurba_marseille","lat":43.28851,"lon":5.39306,"is_reserved":false,"is_disabled":false,"rental_uris":{"android":"levelo://app?vid=cb507692-d5eb-4511-909d-45e70ba3cf6d","ios":"levelo://app?vid=cb507692-d5eb-4511-909d-45e70ba3cf6d"},"vehicle_type_id":"4","last_reported":1726416586,"current_range_meters":36400,"station_id":"ce4bh2p2rcd13ifvqdi0","pricing_plan_id":"cebpf4jnsgd1na2vs0mg"},{"bike_id":"29ebb04d-440e-4da8-a528-1d37b597e08a","system_id":"levelo_inurba_marseille","lat":43.24804,"lon":5.37454,"is_reserved":false,"is_disabled":false,"rental_uris":{"android":"levelo://app?vid=29ebb04d-440e-4da8-a528-1d37b597e08a","ios":"levelo://app?vid=29ebb04d-440e-4da8-a528-1d37b597e08a"},"vehicle_type_id":"4","last_reported":1726416586,"current_range_meters":37600,"station_id":"ce4bhgh2rcd13ifvqfb0","pricing_plan_id":"cebpf4jnsgd1na2vs0mg"},{"bike_id":"cf17a031-288f-4384-836a-2bebfc40fbb6","system_id":"levelo_inurba_marseille","lat":43.23966,"lon":5.36646,"is_reserved":false,"is_disabled":false,"rental_uris":{"android":"levelo://app?vid=cf17a031-288f-4384-836a-2bebfc40fbb6","ios":"levelo://app?vid=cf17a031-288f-4384-836a-2bebfc40fbb6"},"vehicle_type_id":"4","last_reported":1726416586,"current_range_meters":38800,"station_id":"ce4bhi12rcd13ifvqfp0","pricing_plan_id":"cebpf4jnsgd1na2vs0mg"},{"bike_id":"012525c8-d863-400b-a802-0ef1a483fc5c","system_id":"levelo_inurba_marseille","lat":43.29554,"lon":5.42272,"is_reserved":false,"is_disabled":false,"rental_uris":{"android":"levelo://app?vid=012525c8-d863-400b-a802-0ef1a483fc5c","ios":"levelo://app?vid=012525c8-d863-400b-a802-0ef1a483fc5c"},"vehicle_type_id":"4","last_reported":1726416586,"current_range_meters":11600,"station_id":"ce4bhph2rcd13ifvqhdg","pricing_plan_id":"cebpf4jnsgd1na2vs0mg"},{"bike_id":"6f387a41-1a28-4619-ac86-26875678b81b","system_id":"levelo_inurba_marseille","lat":43.299,"lon":5.43669,"is_reserved":false,"is_disabled":false,"rental_uris":{"android":"levelo://app?vid=6f387a41-1a28-4619-ac86-26875678b81b","ios":"levelo://app?vid=6f387a41-1a28-4619-ac86-26875678b81b"},"vehicle_type_id":"4","last_reported":1726416586,"current_range_meters":30800,"station_id":"ce4bhpp2rcd13ifvqhfg","pricing_plan_id":"cebpf4jnsgd1na2vs0mg"},{"bike_id":"18989387-4154-4d2e-8cf1-998f2bd3a8b9","system_id":"levelo_inurba_marseille","lat":43.23195,"lon":5.35551,"is_reserved":false,"is_disabled":false,"rental_uris":{"android":"levelo://app?vid=18989387-4154-4d2e-8cf1-998f2bd3a8b9","ios":"levelo://app?vid=18989387-4154-4d2e-8cf1-998f2bd3a8b9"},"vehicle_type_id":"4","last_reported":1726416586,"current_range_meters":15200,"station_id":"ce4bhu92rcd13ifvqi70","pricing_plan_id":"cebpf4jnsgd1na2vs0mg"},{"bike_id":"6fa0f0b1-b5b1-4db5-bc00-bdb91ee4cec0","system_id":"levelo_inurba_marseille","lat":43.297974,"lon":5.381091,"is_reserved":false,"is_disabled":false,"rental_uris":{"android":"levelo://app?vid=6fa0f0b1-b5b1-4db5-bc00-bdb91ee4cec0","ios":"levelo://app?vid=6fa0f0b1-b5b1-4db5-bc00-bdb91ee4cec0"},"vehicle_type_id":"4","last_reported":1726416586,"current_range_meters":18000,"station_id":"ce4bgip2rcd13ifvqbb0","pricing_plan_id":"cebpf4jnsgd1na2vs0mg"},{"bike_id":"afccbff3-de07-4e88-bd07-4e295b65b423","system_id":"levelo_inurba_marseille","lat":43.26929,"lon":5.38911,"is_reserved":false,"is_disabled":false,"rental_uris":{"android":"levelo://app?vid=afccbff3-de07-4e88-bd07-4e295b65b423","ios":"levelo://app?vid=afccbff3-de07-4e88-bd07-4e295b65b423"},"vehicle_type_id":"4","last_reported":1726416586,"current_range_meters":16400,"station_id":"ce4bhhh2rcd13ifvqfl0","pricing_plan_id":"cebpf4jnsgd1na2vs0mg"},{"bike_id":"aa95c661-1107-4bd0-b9af-c8a4ebe70138","system_id":"levelo_inurba_marseille","lat":43.32958,"lon":5.39035,"is_reserved":false,"is_disabled":false,"rental_uris":{"android":"levelo://app?vid=aa95c661-1107-4bd0-b9af-c8a4ebe70138","ios":"levelo://app?vid=aa95c661-1107-4bd0-b9af-c8a4ebe70138"},"vehicle_type_id":"4","last_reported":1726416586,"current_range_meters":36000,"station_id":"","pricing_plan_id":"cebpf4jnsgd1na2vs0mg"},{"bike_id":"c4148733-d340-4184-9add-27aa76062a46","system_id":"levelo_inurba_marseille","lat":43.25011,"lon":5.38912,"is_reserved":false,"is_disabled":false,"rental_uris":{"android":"levelo://app?vid=c4148733-d340-4184-9add-27aa76062a46","ios":"levelo://app?vid=c4148733-d340-4184-9add-27aa76062a46"},"vehicle_type_id":"4","last_reported":1726416586,"current_range_meters":34800,"station_id":"ce4bhgp2rcd13ifvqfd0","pricing_plan_id":"cebpf4jnsgd1na2vs0mg"},{"bike_id":"8a68135b-10f0-4a18-8450-e7829f00cf0e","system_id":"levelo_inurba_marseille","lat":43.28615,"lon":5.35094,"is_reserved":false,"is_disabled":false,"rental_uris":{"android":"levelo://app?vid=8a68135b-10f0-4a18-8450-e7829f00cf0e","ios":"levelo://app?vid=8a68135b-10f0-4a18-8450-e7829f00cf0e"},"vehicle_type_id":"4","last_reported":1726416586,"current_range_meters":26000,"station_id":"ce4bhch2rcd13ifvqeug","pricing_plan_id":"cebpf4jnsgd1na2vs0mg"},{"bike_id":"45e14b2b-adf4-4f9c-b0ec-3e3293eb869f","system_id":"levelo_inurba_marseille","lat":43.28854,"lon":5.39302,"is_reserved":false,"is_disabled":false,"rental_uris":{"android":"levelo://app?vid=45e14b2b-adf4-4f9c-b0ec-3e3293eb869f","ios":"levelo://app?vid=45e14b2b-adf4-4f9c-b0ec-3e3293eb869f"},"vehicle_type_id":"4","last_reported":1726416586,"current_range_meters":28400,"station_id":"ce4bh2p2rcd13ifvqdi0","pricing_plan_id":"cebpf4jnsgd1na2vs0mg"},{"bike_id":"d57fa9a2-98e1-443f-add6-52fdc2c47dbb","system_id":"levelo_inurba_marseille","lat":43.31487,"lon":5.37317,"is_reserved":false,"is_disabled":false,"rental_uris":{"android":"levelo://app?vid=d57fa9a2-98e1-443f-add6-52fdc2c47dbb","ios":"levelo://app?vid=d57fa9a2-98e1-443f-add6-52fdc2c47dbb"},"vehicle_type_id":"4","last_reported":1726416586,"current_range_meters":8400,"station_id":"ce4bgt12rcd13ifvqcd0","pricing_plan_id":"cebpf4jnsgd1na2vs0mg"},{"bike_id":"4c9b330a-b8cf-4d5f-a103-cdcc5841f13f","system_id":"levelo_inurba_marseille","lat":43.27972,"lon":5.38734,"is_reserved":false,"is_disabled":false,"rental_uris":{"android":"levelo://app?vid=4c9b330a-b8cf-4d5f-a103-cdcc5841f13f","ios":"levelo://app?vid=4c9b330a-b8cf-4d5f-a103-cdcc5841f13f"},"vehicle_type_id":"4","last_reported":1726416586,"current_range_meters":10000,"station_id":"ce4bhg12rcd13ifvqf80","pricing_plan_id":"cebpf4jnsgd1na2vs0mg"},{"bike_id":"ef8c4c92-01ce-4171-8b9e-fa4306494323","system_id":"levelo_inurba_marseille","lat":43.250854,"lon":5.395289,"is_reserved":false,"is_disabled":false,"rental_uris":{"android":"levelo://app?vid=ef8c4c92-01ce-4171-8b9e-fa4306494323","ios":"levelo://app?vid=ef8c4c92-01ce-4171-8b9e-fa4306494323"},"vehicle_type_id":"4","last_reported":1726416586,"current_range_meters":36000,"station_id":"ce4bhm12rcd13ifvqgkg","pricing_plan_id":"cebpf4jnsgd1na2vs0mg"},{"bike_id":"349d9ac4-642a-438f-a490-46173d58584f","system_id":"levelo_inurba_marseille","lat":43.23973,"lon":5.3663,"is_reserved":false,"is_disabled":false,"rental_uris":{"android":"levelo://app?vid=349d9ac4-642a-438f-a490-46173d58584f","ios":"levelo://app?vid=349d9ac4-642a-438f-a490-46173d58584f"},"vehicle_type_id":"4","last_reported":1726416586,"current_range_meters":38800,"station_id":"ce4bhi12rcd13ifvqfp0","pricing_plan_id":"cebpf4jnsgd1na2vs0mg"},{"bike_id":"d240fa4c-16b6-46ab-94ff-bdc7611a98f7","system_id":"levelo_inurba_marseille","lat":43.27322,"lon":5.39075,"is_reserved":false,"is_disabled":false,"rental_uris":{"android":"levelo://app?vid=d240fa4c-16b6-46ab-94ff-bdc7611a98f7","ios":"levelo://app?vid=d240fa4c-16b6-46ab-94ff-bdc7611a98f7"},"vehicle_type_id":"4","last_reported":1726416586,"current_range_meters":32800,"station_id":"ce4bhgp2rcd13ifvqfe0","pricing_plan_id":"cebpf4jnsgd1na2vs0mg"},{"bike_id":"82347c19-7bb8-4157-8039-5c6d8a28add1","system_id":"levelo_inurba_marseille","lat":43.29982,"lon":5.37183,"is_reserved":false,"is_disabled":false,"rental_uris":{"android":"levelo://app?vid=82347c19-7bb8-4157-8039-5c6d8a28add1","ios":"levelo://app?vid=82347c19-7bb8-4157-8039-5c6d8a28add1"},"vehicle_type_id":"4","last_reported":1726416586,"current_range_meters":35200,"station_id":"ce4bgr92rcd13ifvqc7g","pricing_plan_id":"cebpf4jnsgd1na2vs0mg"},{"bike_id":"c59178dd-d77c-42bd-ba16-4e6f4db0709c","system_id":"levelo_inurba_marseille","lat":43.24811,"lon":5.37451,"is_reserved":false,"is_disabled":false,"rental_uris":{"android":"levelo://app?vid=c59178dd-d77c-42bd-ba16-4e6f4db0709c","ios":"levelo://app?vid=c59178dd-d77c-42bd-ba16-4e6f4db0709c"},"vehicle_type_id":"4","last_reported":1726416586,"current_range_meters":28000,"station_id":"ce4bhgh2rcd13ifvqfb0","pricing_plan_id":"cebpf4jnsgd1na2vs0mg"},{"bike_id":"01664ba1-5f0f-4db6-aacb-a80dfc08a1c0","system_id":"levelo_inurba_marseille","lat":43.30428,"lon":5.39748,"is_reserved":false,"is_disabled":false,"rental_uris":{"android":"levelo://app?vid=01664ba1-5f0f-4db6-aacb-a80dfc08a1c0","ios":"levelo://app?vid=01664ba1-5f0f-4db6-aacb-a80dfc08a1c0"},"vehicle_type_id":"4","last_reported":1726416586,"current_range_meters":16400,"station_id":"ce4bh092rcd13ifvqd20","pricing_plan_id":"cebpf4jnsgd1na2vs0mg"},{"bike_id":"bf8db25e-de16-4bf7-a14a-5fe591699e19","system_id":"levelo_inurba_marseille","lat":43.28271,"lon":5.35061,"is_reserved":false,"is_disabled":false,"rental_uris":{"android":"levelo://app?vid=bf8db25e-de16-4bf7-a14a-5fe591699e19","ios":"levelo://app?vid=bf8db25e-de16-4bf7-a14a-5fe591699e19"},"vehicle_type_id":"4","last_reported":1726416586,"current_range_meters":38800,"station_id":"ce4bhbp2rcd13ifvqerg","pricing_plan_id":"cebpf4jnsgd1na2vs0mg"},{"bike_id":"b5976d29-4e9d-4138-af37-b813ab1fb183","system_id":"levelo_inurba_marseille","lat":43.24392,"lon":5.37068,"is_reserved":false,"is_disabled":false,"rental_uris":{"android":"levelo://app?vid=b5976d29-4e9d-4138-af37-b813ab1fb183","ios":"levelo://app?vid=b5976d29-4e9d-4138-af37-b813ab1fb183"},"vehicle_type_id":"4","last_reported":1726416586,"current_range_meters":25600,"station_id":"ce4bhhh2rcd13ifvqfk0","pricing_plan_id":"cebpf4jnsgd1na2vs0mg"},{"bike_id":"980605ee-6a3e-4702-a32d-29a77cec7941","system_id":"levelo_inurba_marseille","lat":43.28268,"lon":5.35072,"is_reserved":false,"is_disabled":false,"rental_uris":{"android":"levelo://app?vid=980605ee-6a3e-4702-a32d-29a77cec7941","ios":"levelo://app?vid=980605ee-6a3e-4702-a32d-29a77cec7941"},"vehicle_type_id":"4","last_reported":1726416586,"current_range_meters":38400,"station_id":"ce4bhbp2rcd13ifvqerg","pricing_plan_id":"cebpf4jnsgd1na2vs0mg"},{"bike_id":"b97a7743-2e7e-4c69-a003-9cc01c170b29","system_id":"levelo_inurba_marseille","lat":43.26519,"lon":5.40875,"is_reserved":false,"is_disabled":false,"rental_uris":{"android":"levelo://app?vid=b97a7743-2e7e-4c69-a003-9cc01c170b29","ios":"levelo://app?vid=b97a7743-2e7e-4c69-a003-9cc01c170b29"},"vehicle_type_id":"4","last_reported":1726416586,"current_range_meters":8400,"station_id":"","pricing_plan_id":"cebpf4jnsgd1na2vs0mg"},{"bike_id":"c485f55e-3b17-4b4d-990f-4588afbab94e","system_id":"levelo_inurba_marseille","lat":43.29933,"lon":5.36552,"is_reserved":false,"is_disabled":false,"rental_uris":{"android":"levelo://app?vid=c485f55e-3b17-4b4d-990f-4588afbab94e","ios":"levelo://app?vid=c485f55e-3b17-4b4d-990f-4588afbab94e"},"vehicle_type_id":"4","last_reported":1726416586,"current_range_meters":6400,"station_id":"ce4bgm92rcd13ifvqbr0","pricing_plan_id":"cebpf4jnsgd1na2vs0mg"},{"bike_id":"b743a9c7-bff2-4e35-9357-5b891b452147","system_id":"levelo_inurba_marseille","lat":43.29896,"lon":5.43654,"is_reserved":false,"is_disabled":false,"rental_uris":{"android":"levelo://app?vid=b743a9c7-bff2-4e35-9357-5b891b452147","ios":"levelo://app?vid=b743a9c7-bff2-4e35-9357-5b891b452147"},"vehicle_type_id":"4","last_reported":1726416586,"current_range_meters":19200,"station_id":"ce4bhpp2rcd13ifvqhfg","pricing_plan_id":"cebpf4jnsgd1na2vs0mg"},{"bike_id":"8b12c515-b19b-49da-850d-b5d241bef9c3","system_id":"levelo_inurba_marseille","lat":43.302338,"lon":5.404437,"is_reserved":false,"is_disabled":false,"rental_uris":{"android":"levelo://app?vid=8b12c515-b19b-49da-850d-b5d241bef9c3","ios":"levelo://app?vid=8b12c515-b19b-49da-850d-b5d241bef9c3"},"vehicle_type_id":"4","last_reported":1726416586,"current_range_meters":17600,"station_id":"ce4bh0h2rcd13ifvqd60","pricing_plan_id":"cebpf4jnsgd1na2vs0mg"},{"bike_id":"dd70925c-f5f5-4ce9-b56d-0d9a06ac64f6","system_id":"levelo_inurba_marseille","lat":43.295347,"lon":5.390686,"is_reserved":false,"is_disabled":false,"rental_uris":{"android":"levelo://app?vid=dd70925c-f5f5-4ce9-b56d-0d9a06ac64f6","ios":"levelo://app?vid=dd70925c-f5f5-4ce9-b56d-0d9a06ac64f6"},"vehicle_type_id":"4","last_reported":1726416586,"current_range_meters":27200,"station_id":"ce4bh3p2rcd13ifvqdp0","pricing_plan_id":"cebpf4jnsgd1na2vs0mg"},{"bike_id":"86141fec-5eef-44a7-af74-c77a6a78bfc6","system_id":"levelo_inurba_marseille","lat":43.23191,"lon":5.35538,"is_reserved":false,"is_disabled":false,"rental_uris":{"android":"levelo://app?vid=86141fec-5eef-44a7-af74-c77a6a78bfc6","ios":"levelo://app?vid=86141fec-5eef-44a7-af74-c77a6a78bfc6"},"vehicle_type_id":"4","last_reported":1726416586,"current_range_meters":39200,"station_id":"ce4bhu92rcd13ifvqi70","pricing_plan_id":"cebpf4jnsgd1na2vs0mg"},{"bike_id":"8d0d6ceb-d20c-4c82-86b9-f62a7ce678df","system_id":"levelo_inurba_marseille","lat":43.30457,"lon":5.36517,"is_reserved":false,"is_disabled":false,"rental_uris":{"android":"levelo://app?vid=8d0d6ceb-d20c-4c82-86b9-f62a7ce678df","ios":"levelo://app?vid=8d0d6ceb-d20c-4c82-86b9-f62a7ce678df"},"vehicle_type_id":"4","last_reported":1726416586,"current_range_meters":7200,"station_id":"","pricing_plan_id":"cebpf4jnsgd1na2vs0mg"},{"bike_id":"79565173-297f-4d7b-ac47-65a8e637c413","system_id":"levelo_inurba_marseille","lat":43.27073,"lon":5.42273,"is_reserved":false,"is_disabled":false,"rental_uris":{"android":"levelo://app?vid=79565173-297f-4d7b-ac47-65a8e637c413","ios":"levelo://app?vid=79565173-297f-4d7b-ac47-65a8e637c413"},"vehicle_type_id":"4","last_reported":1726416586,"current_range_meters":38800,"station_id":"ce4bhk92rcd13ifvqgb0","pricing_plan_id":"cebpf4jnsgd1na2vs0mg"},{"bike_id":"581788f3-75cf-4bb7-868a-64bde562274e","system_id":"levelo_inurba_marseille","lat":43.25932,"lon":5.40906,"is_reserved":false,"is_disabled":false,"rental_uris":{"android":"levelo://app?vid=581788f3-75cf-4bb7-868a-64bde562274e","ios":"levelo://app?vid=581788f3-75cf-4bb7-868a-64bde562274e"},"vehicle_type_id":"4","last_reported":1726416586,"current_range_meters":7200,"station_id":"ce4bhm92rcd13ifvqglg","pricing_plan_id":"cebpf4jnsgd1na2vs0mg"},{"bike_id":"70789068-0e4f-417e-a5f5-ae823b83d922","system_id":"levelo_inurba_marseille","lat":43.262506,"lon":5.376072,"is_reserved":false,"is_disabled":false,"rental_uris":{"android":"levelo://app?vid=70789068-0e4f-417e-a5f5-ae823b83d922","ios":"levelo://app?vid=70789068-0e4f-417e-a5f5-ae823b83d922"},"vehicle_type_id":"4","last_reported":1726416586,"current_range_meters":6800,"station_id":"ce4bhgp2rcd13ifvqfc0","pricing_plan_id":"cebpf4jnsgd1na2vs0mg"},{"bike_id":"fe4a23eb-2da5-41ee-a1cb-f076c9967976","system_id":"levelo_inurba_marseille","lat":43.23192,"lon":5.35551,"is_reserved":false,"is_disabled":false,"rental_uris":{"android":"levelo://app?vid=fe4a23eb-2da5-41ee-a1cb-f076c9967976","ios":"levelo://app?vid=fe4a23eb-2da5-41ee-a1cb-f076c9967976"},"vehicle_type_id":"4","last_reported":1726416586,"current_range_meters":36000,"station_id":"ce4bhu92rcd13ifvqi70","pricing_plan_id":"cebpf4jnsgd1na2vs0mg"},{"bike_id":"f53fa8c5-fddc-43ad-919d-291683e92e94","system_id":"levelo_inurba_marseille","lat":43.276123,"lon":5.361066,"is_reserved":false,"is_disabled":false,"rental_uris":{"android":"levelo://app?vid=f53fa8c5-fddc-43ad-919d-291683e92e94","ios":"levelo://app?vid=f53fa8c5-fddc-43ad-919d-291683e92e94"},"vehicle_type_id":"4","last_reported":1726416586,"current_range_meters":38400,"station_id":"ce4bgj92rcd13ifvqbe0","pricing_plan_id":"cebpf4jnsgd1na2vs0mg"},{"bike_id":"a84aba34-4400-4eaa-910c-cdc70af0590b","system_id":"levelo_inurba_marseille","lat":43.2956,"lon":5.4228,"is_reserved":false,"is_disabled":false,"rental_uris":{"android":"levelo://app?vid=a84aba34-4400-4eaa-910c-cdc70af0590b","ios":"levelo://app?vid=a84aba34-4400-4eaa-910c-cdc70af0590b"},"vehicle_type_id":"4","last_reported":1726416586,"current_range_meters":25200,"station_id":"ce4bhph2rcd13ifvqhdg","pricing_plan_id":"cebpf4jnsgd1na2vs0mg"},{"bike_id":"dab2f2f0-5e2e-4935-98e9-0971ad0ab4e1","system_id":"levelo_inurba_marseille","lat":43.34091,"lon":5.39106,"is_reserved":false,"is_disabled":false,"rental_uris":{"android":"levelo://app?vid=dab2f2f0-5e2e-4935-98e9-0971ad0ab4e1","ios":"levelo://app?vid=dab2f2f0-5e2e-4935-98e9-0971ad0ab4e1"},"vehicle_type_id":"4","last_reported":1726416586,"current_range_meters":26800,"station_id":"","pricing_plan_id":"cebpf4jnsgd1na2vs0mg"},{"bike_id":"d69b86f0-ab74-4fde-8fb3-c2fa1cf4bf57","system_id":"levelo_inurba_marseille","lat":43.28273,"lon":5.35076,"is_reserved":false,"is_disabled":false,"rental_uris":{"android":"levelo://app?vid=d69b86f0-ab74-4fde-8fb3-c2fa1cf4bf57","ios":"levelo://app?vid=d69b86f0-ab74-4fde-8fb3-c2fa1cf4bf57"},"vehicle_type_id":"4","last_reported":1726416586,"current_range_meters":4000,"station_id":"ce4bhbp2rcd13ifvqerg","pricing_plan_id":"cebpf4jnsgd1na2vs0mg"},{"bike_id":"1ca84973-fe4a-48a1-a4cb-63b28b2b7382","system_id":"levelo_inurba_marseille","lat":43.29269,"lon":5.38443,"is_reserved":false,"is_disabled":false,"rental_uris":{"android":"levelo://app?vid=1ca84973-fe4a-48a1-a4cb-63b28b2b7382","ios":"levelo://app?vid=1ca84973-fe4a-48a1-a4cb-63b28b2b7382"},"vehicle_type_id":"4","last_reported":1726416586,"current_range_meters":20800,"station_id":"ce4bh692rcd13ifvqea0","pricing_plan_id":"cebpf4jnsgd1na2vs0mg"},{"bike_id":"f7ef6fcd-b36a-4e39-ab29-615bf7f08d5f","system_id":"levelo_inurba_marseille","lat":43.23186,"lon":5.35557,"is_reserved":false,"is_disabled":false,"rental_uris":{"android":"levelo://app?vid=f7ef6fcd-b36a-4e39-ab29-615bf7f08d5f","ios":"levelo://app?vid=f7ef6fcd-b36a-4e39-ab29-615bf7f08d5f"},"vehicle_type_id":"4","last_reported":1726416586,"current_range_meters":24000,"station_id":"ce4bhu92rcd13ifvqi70","pricing_plan_id":"cebpf4jnsgd1na2vs0mg"},{"bike_id":"8cff73e9-2846-4f9e-aab7-fdb477f2dff8","system_id":"levelo_inurba_marseille","lat":43.24076,"lon":5.37752,"is_reserved":false,"is_disabled":false,"rental_uris":{"android":"levelo://app?vid=8cff73e9-2846-4f9e-aab7-fdb477f2dff8","ios":"levelo://app?vid=8cff73e9-2846-4f9e-aab7-fdb477f2dff8"},"vehicle_type_id":"4","last_reported":1726416586,"current_range_meters":38800,"station_id":"ce4bhnp2rcd13ifvqgvg","pricing_plan_id":"cebpf4jnsgd1na2vs0mg"},{"bike_id":"0e63203b-1dd6-4c54-994f-e2e0e6bea3e0","system_id":"levelo_inurba_marseille","lat":43.28409,"lon":5.34982,"is_reserved":false,"is_disabled":false,"rental_uris":{"android":"levelo://app?vid=0e63203b-1dd6-4c54-994f-e2e0e6bea3e0","ios":"levelo://app?vid=0e63203b-1dd6-4c54-994f-e2e0e6bea3e0"},"vehicle_type_id":"4","last_reported":1726416586,"current_range_meters":22800,"station_id":"ce4bhbh2rcd13ifvqepg","pricing_plan_id":"cebpf4jnsgd1na2vs0mg"},{"bike_id":"164494d3-f48e-4480-b157-85eed7bac1fa","system_id":"levelo_inurba_marseille","lat":43.23061,"lon":5.35485,"is_reserved":false,"is_disabled":false,"rental_uris":{"android":"levelo://app?vid=164494d3-f48e-4480-b157-85eed7bac1fa","ios":"levelo://app?vid=164494d3-f48e-4480-b157-85eed7bac1fa"},"vehicle_type_id":"4","last_reported":1726416586,"current_range_meters":17200,"station_id":"cpo3342slgdg3j2ifvpg","pricing_plan_id":"cebpf4jnsgd1na2vs0mg"},{"bike_id":"9baec385-3266-4c55-b9cf-25f8839a48a7","system_id":"levelo_inurba_marseille","lat":43.31934,"lon":5.37315,"is_reserved":false,"is_disabled":false,"rental_uris":{"android":"levelo://app?vid=9baec385-3266-4c55-b9cf-25f8839a48a7","ios":"levelo://app?vid=9baec385-3266-4c55-b9cf-25f8839a48a7"},"vehicle_type_id":"4","last_reported":1726416586,"current_range_meters":15200,"station_id":"","pricing_plan_id":"cebpf4jnsgd1na2vs0mg"},{"bike_id":"f8688d3f-0383-44c0-8687-59c0d12d3006","system_id":"levelo_inurba_marseille","lat":43.30949,"lon":5.39029,"is_reserved":false,"is_disabled":false,"rental_uris":{"android":"levelo://app?vid=f8688d3f-0383-44c0-8687-59c0d12d3006","ios":"levelo://app?vid=f8688d3f-0383-44c0-8687-59c0d12d3006"},"vehicle_type_id":"4","last_reported":1726416586,"current_range_meters":16800,"station_id":"ce4bgup2rcd13ifvqco0","pricing_plan_id":"cebpf4jnsgd1na2vs0mg"},{"bike_id":"e550a86d-81fa-4b95-8cd5-781f86c86124","system_id":"levelo_inurba_marseille","lat":43.24998,"lon":5.3892,"is_reserved":false,"is_disabled":false,"rental_uris":{"android":"levelo://app?vid=e550a86d-81fa-4b95-8cd5-781f86c86124","ios":"levelo://app?vid=e550a86d-81fa-4b95-8cd5-781f86c86124"},"vehicle_type_id":"4","last_reported":1726416586,"current_range_meters":4800,"station_id":"ce4bhgp2rcd13ifvqfd0","pricing_plan_id":"cebpf4jnsgd1na2vs0mg"},{"bike_id":"15407014-5935-4eaf-a2c0-6cc151bba910","system_id":"levelo_inurba_marseille","lat":43.26111,"lon":5.37369,"is_reserved":false,"is_disabled":false,"rental_uris":{"android":"levelo://app?vid=15407014-5935-4eaf-a2c0-6cc151bba910","ios":"levelo://app?vid=15407014-5935-4eaf-a2c0-6cc151bba910"},"vehicle_type_id":"4","last_reported":1726416586,"current_range_meters":38800,"station_id":"","pricing_plan_id":"cebpf4jnsgd1na2vs0mg"},{"bike_id":"c663d4ac-a33c-491e-92e3-9323f90e509a","system_id":"levelo_inurba_marseille","lat":43.23182,"lon":5.39981,"is_reserved":false,"is_disabled":false,"rental_uris":{"android":"levelo://app?vid=c663d4ac-a33c-491e-92e3-9323f90e509a","ios":"levelo://app?vid=c663d4ac-a33c-491e-92e3-9323f90e509a"},"vehicle_type_id":"4","last_reported":1726416586,"current_range_meters":2800,"station_id":"ce4bhn12rcd13ifvqgqg","pricing_plan_id":"cebpf4jnsgd1na2vs0mg"},{"bike_id":"3784e0f4-43bb-4f72-be78-f31ff55d13c0","system_id":"levelo_inurba_marseille","lat":43.296,"lon":5.38103,"is_reserved":false,"is_disabled":false,"rental_uris":{"android":"levelo://app?vid=3784e0f4-43bb-4f72-be78-f31ff55d13c0","ios":"levelo://app?vid=3784e0f4-43bb-4f72-be78-f31ff55d13c0"},"vehicle_type_id":"4","last_reported":1726416586,"current_range_meters":30000,"station_id":"ce4bgl12rcd13ifvqbo0","pricing_plan_id":"cebpf4jnsgd1na2vs0mg"},{"bike_id":"bb060e66-0473-46e3-9fea-a1fbabecc671","system_id":"levelo_inurba_marseille","lat":43.30079,"lon":5.3686,"is_reserved":false,"is_disabled":false,"rental_uris":{"android":"levelo://app?vid=bb060e66-0473-46e3-9fea-a1fbabecc671","ios":"levelo://app?vid=bb060e66-0473-46e3-9fea-a1fbabecc671"},"vehicle_type_id":"4","last_reported":1726416586,"current_range_meters":3200,"station_id":"","pricing_plan_id":"cebpf4jnsgd1na2vs0mg"},{"bike_id":"6778361a-3d9b-4444-8112-1c9b565b4d0e","system_id":"levelo_inurba_marseille","lat":43.29722,"lon":5.37888,"is_reserved":false,"is_disabled":false,"rental_uris":{"android":"levelo://app?vid=6778361a-3d9b-4444-8112-1c9b565b4d0e","ios":"levelo://app?vid=6778361a-3d9b-4444-8112-1c9b565b4d0e"},"vehicle_type_id":"4","last_reported":1726416586,"current_range_meters":10000,"station_id":"","pricing_plan_id":"cebpf4jnsgd1na2vs0mg"},{"bike_id":"217b7c8d-bc4b-4605-9aba-a095201d5c87","system_id":"levelo_inurba_marseille","lat":43.23192,"lon":5.35541,"is_reserved":false,"is_disabled":false,"rental_uris":{"android":"levelo://app?vid=217b7c8d-bc4b-4605-9aba-a095201d5c87","ios":"levelo://app?vid=217b7c8d-bc4b-4605-9aba-a095201d5c87"},"vehicle_type_id":"4","last_reported":1726416586,"current_range_meters":18000,"station_id":"ce4bhu92rcd13ifvqi70","pricing_plan_id":"cebpf4jnsgd1na2vs0mg"},{"bike_id":"68d10e86-a6ab-4a17-aea0-928a663b6e89","system_id":"levelo_inurba_marseille","lat":43.34034,"lon":5.34873,"is_reserved":false,"is_disabled":false,"rental_uris":{"android":"levelo://app?vid=68d10e86-a6ab-4a17-aea0-928a663b6e89","ios":"levelo://app?vid=68d10e86-a6ab-4a17-aea0-928a663b6e89"},"vehicle_type_id":"4","last_reported":1726416586,"current_range_meters":8000,"station_id":"","pricing_plan_id":"cebpf4jnsgd1na2vs0mg"},{"bike_id":"038ea4dd-8d7e-493b-8127-45ba80741a4d","system_id":"levelo_inurba_marseille","lat":43.32175,"lon":5.38855,"is_reserved":false,"is_disabled":false,"rental_uris":{"android":"levelo://app?vid=038ea4dd-8d7e-493b-8127-45ba80741a4d","ios":"levelo://app?vid=038ea4dd-8d7e-493b-8127-45ba80741a4d"},"vehicle_type_id":"4","last_reported":1726416586,"current_range_meters":6800,"station_id":"","pricing_plan_id":"cebpf4jnsgd1na2vs0mg"},{"bike_id":"1632cabc-bea8-4db5-9949-e278ae65c98f","system_id":"levelo_inurba_marseille","lat":43.2815,"lon":5.42638,"is_reserved":false,"is_disabled":false,"rental_uris":{"android":"levelo://app?vid=1632cabc-bea8-4db5-9949-e278ae65c98f","ios":"levelo://app?vid=1632cabc-bea8-4db5-9949-e278ae65c98f"},"vehicle_type_id":"4","last_reported":1726416586,"current_range_meters":38000,"station_id":"ce4bhnh2rcd13ifvqgug","pricing_plan_id":"cebpf4jnsgd1na2vs0mg"},{"bike_id":"c06c2b9b-2171-4c29-8acf-7da5a0104dc2","system_id":"levelo_inurba_marseille","lat":43.30607,"lon":5.39352,"is_reserved":false,"is_disabled":false,"rental_uris":{"android":"levelo://app?vid=c06c2b9b-2171-4c29-8acf-7da5a0104dc2","ios":"levelo://app?vid=c06c2b9b-2171-4c29-8acf-7da5a0104dc2"},"vehicle_type_id":"4","last_reported":1726416586,"current_range_meters":26800,"station_id":"ce4bh0p2rcd13ifvqd80","pricing_plan_id":"cebpf4jnsgd1na2vs0mg"},{"bike_id":"20051310-43fe-4181-8856-d5843ba17bce","system_id":"levelo_inurba_marseille","lat":43.29275,"lon":5.40114,"is_reserved":false,"is_disabled":false,"rental_uris":{"android":"levelo://app?vid=20051310-43fe-4181-8856-d5843ba17bce","ios":"levelo://app?vid=20051310-43fe-4181-8856-d5843ba17bce"},"vehicle_type_id":"4","last_reported":1726416586,"current_range_meters":8400,"station_id":"ce4bh312rcd13ifvqdk0","pricing_plan_id":"cebpf4jnsgd1na2vs0mg"},{"bike_id":"36ac99db-ecbc-4ee8-b239-ef64ac120ce1","system_id":"levelo_inurba_marseille","lat":43.29903,"lon":5.43669,"is_reserved":false,"is_disabled":false,"rental_uris":{"android":"levelo://app?vid=36ac99db-ecbc-4ee8-b239-ef64ac120ce1","ios":"levelo://app?vid=36ac99db-ecbc-4ee8-b239-ef64ac120ce1"},"vehicle_type_id":"4","last_reported":1726416586,"current_range_meters":14000,"station_id":"ce4bhpp2rcd13ifvqhfg","pricing_plan_id":"cebpf4jnsgd1na2vs0mg"},{"bike_id":"e386e31c-3e1f-4fab-a24f-35ff9575dc84","system_id":"levelo_inurba_marseille","lat":43.27905,"lon":5.38011,"is_reserved":false,"is_disabled":false,"rental_uris":{"android":"levelo://app?vid=e386e31c-3e1f-4fab-a24f-35ff9575dc84","ios":"levelo://app?vid=e386e31c-3e1f-4fab-a24f-35ff9575dc84"},"vehicle_type_id":"4","last_reported":1726416586,"current_range_meters":8800,"station_id":"ce4bhf92rcd13ifvqf50","pricing_plan_id":"cebpf4jnsgd1na2vs0mg"},{"bike_id":"8d1653a7-2960-43ae-96f7-b178e11c1bd6","system_id":"levelo_inurba_marseille","lat":43.32048,"lon":5.4155,"is_reserved":false,"is_disabled":false,"rental_uris":{"android":"levelo://app?vid=8d1653a7-2960-43ae-96f7-b178e11c1bd6","ios":"levelo://app?vid=8d1653a7-2960-43ae-96f7-b178e11c1bd6"},"vehicle_type_id":"4","last_reported":1726416586,"current_range_meters":16000,"station_id":"ce4bhq92rcd13ifvqhkg","pricing_plan_id":"cebpf4jnsgd1na2vs0mg"},{"bike_id":"f8ac89b5-7bca-4f2e-8e82-ed63ee295376","system_id":"levelo_inurba_marseille","lat":43.25575,"lon":5.38227,"is_reserved":false,"is_disabled":false,"rental_uris":{"android":"levelo://app?vid=f8ac89b5-7bca-4f2e-8e82-ed63ee295376","ios":"levelo://app?vid=f8ac89b5-7bca-4f2e-8e82-ed63ee295376"},"vehicle_type_id":"4","last_reported":1726416586,"current_range_meters":11600,"station_id":"ce4bhih2rcd13ifvqfs0","pricing_plan_id":"cebpf4jnsgd1na2vs0mg"},{"bike_id":"732fb49c-87f8-4cc3-a6f5-153771c5595d","system_id":"levelo_inurba_marseille","lat":43.23965,"lon":5.36636,"is_reserved":false,"is_disabled":false,"rental_uris":{"android":"levelo://app?vid=732fb49c-87f8-4cc3-a6f5-153771c5595d","ios":"levelo://app?vid=732fb49c-87f8-4cc3-a6f5-153771c5595d"},"vehicle_type_id":"4","last_reported":1726416586,"current_range_meters":5600,"station_id":"ce4bhi12rcd13ifvqfp0","pricing_plan_id":"cebpf4jnsgd1na2vs0mg"},{"bike_id":"51870e14-c4c6-4b21-bac8-d3aea83d96dd","system_id":"levelo_inurba_marseille","lat":43.30948,"lon":5.39034,"is_reserved":false,"is_disabled":false,"rental_uris":{"android":"levelo://app?vid=51870e14-c4c6-4b21-bac8-d3aea83d96dd","ios":"levelo://app?vid=51870e14-c4c6-4b21-bac8-d3aea83d96dd"},"vehicle_type_id":"4","last_reported":1726416586,"current_range_meters":30400,"station_id":"ce4bgup2rcd13ifvqco0","pricing_plan_id":"cebpf4jnsgd1na2vs0mg"},{"bike_id":"e4d586d0-bd5e-4345-bea8-8f9d8c9865ac","system_id":"levelo_inurba_marseille","lat":43.30949,"lon":5.39032,"is_reserved":false,"is_disabled":false,"rental_uris":{"android":"levelo://app?vid=e4d586d0-bd5e-4345-bea8-8f9d8c9865ac","ios":"levelo://app?vid=e4d586d0-bd5e-4345-bea8-8f9d8c9865ac"},"vehicle_type_id":"4","last_reported":1726416586,"current_range_meters":26000,"station_id":"ce4bgup2rcd13ifvqco0","pricing_plan_id":"cebpf4jnsgd1na2vs0mg"},{"bike_id":"2fa975ad-35e9-4cd8-88bf-bba4ffaca589","system_id":"levelo_inurba_marseille","lat":43.309564,"lon":5.390398,"is_reserved":false,"is_disabled":false,"rental_uris":{"android":"levelo://app?vid=2fa975ad-35e9-4cd8-88bf-bba4ffaca589","ios":"levelo://app?vid=2fa975ad-35e9-4cd8-88bf-bba4ffaca589"},"vehicle_type_id":"4","last_reported":1726416586,"current_range_meters":14400,"station_id":"ce4bgup2rcd13ifvqco0","pricing_plan_id":"cebpf4jnsgd1na2vs0mg"},{"bike_id":"173b81fb-b952-4985-a30a-e9eff633608d","system_id":"levelo_inurba_marseille","lat":43.30952,"lon":5.39033,"is_reserved":false,"is_disabled":false,"rental_uris":{"android":"levelo://app?vid=173b81fb-b952-4985-a30a-e9eff633608d","ios":"levelo://app?vid=173b81fb-b952-4985-a30a-e9eff633608d"},"vehicle_type_id":"4","last_reported":1726416586,"current_range_meters":7200,"station_id":"ce4bgup2rcd13ifvqco0","pricing_plan_id":"cebpf4jnsgd1na2vs0mg"},{"bike_id":"0df06088-362e-49d9-8f54-f66df627f855","system_id":"levelo_inurba_marseille","lat":43.32294,"lon":5.38548,"is_reserved":false,"is_disabled":false,"rental_uris":{"android":"levelo://app?vid=0df06088-362e-49d9-8f54-f66df627f855","ios":"levelo://app?vid=0df06088-362e-49d9-8f54-f66df627f855"},"vehicle_type_id":"4","last_reported":1726416586,"current_range_meters":36800,"station_id":"","pricing_plan_id":"cebpf4jnsgd1na2vs0mg"},{"bike_id":"affb442b-5e9a-4f8e-8c8b-ea557c0d50ea","system_id":"levelo_inurba_marseille","lat":43.23969,"lon":5.36629,"is_reserved":false,"is_disabled":false,"rental_uris":{"android":"levelo://app?vid=affb442b-5e9a-4f8e-8c8b-ea557c0d50ea","ios":"levelo://app?vid=affb442b-5e9a-4f8e-8c8b-ea557c0d50ea"},"vehicle_type_id":"4","last_reported":1726416586,"current_range_meters":27600,"station_id":"ce4bhi12rcd13ifvqfp0","pricing_plan_id":"cebpf4jnsgd1na2vs0mg"},{"bike_id":"4bd706a5-65c1-4a7a-9a3f-bc4e3e11f8fb","system_id":"levelo_inurba_marseille","lat":43.23196,"lon":5.35546,"is_reserved":false,"is_disabled":false,"rental_uris":{"android":"levelo://app?vid=4bd706a5-65c1-4a7a-9a3f-bc4e3e11f8fb","ios":"levelo://app?vid=4bd706a5-65c1-4a7a-9a3f-bc4e3e11f8fb"},"vehicle_type_id":"4","last_reported":1726416586,"current_range_meters":8800,"station_id":"ce4bhu92rcd13ifvqi70","pricing_plan_id":"cebpf4jnsgd1na2vs0mg"},{"bike_id":"103fb348-12c9-4241-a7cc-a4fad3dcfded","system_id":"levelo_inurba_marseille","lat":43.23192,"lon":5.35553,"is_reserved":false,"is_disabled":false,"rental_uris":{"android":"levelo://app?vid=103fb348-12c9-4241-a7cc-a4fad3dcfded","ios":"levelo://app?vid=103fb348-12c9-4241-a7cc-a4fad3dcfded"},"vehicle_type_id":"4","last_reported":1726416586,"current_range_meters":4800,"station_id":"ce4bhu92rcd13ifvqi70","pricing_plan_id":"cebpf4jnsgd1na2vs0mg"},{"bike_id":"8ec4022f-ef48-4696-a8e5-5a9a479e78f8","system_id":"levelo_inurba_marseille","lat":43.23067,"lon":5.35489,"is_reserved":false,"is_disabled":false,"rental_uris":{"android":"levelo://app?vid=8ec4022f-ef48-4696-a8e5-5a9a479e78f8","ios":"levelo://app?vid=8ec4022f-ef48-4696-a8e5-5a9a479e78f8"},"vehicle_type_id":"4","last_reported":1726416586,"current_range_meters":38400,"station_id":"cpo3342slgdg3j2ifvpg","pricing_plan_id":"cebpf4jnsgd1na2vs0mg"},{"bike_id":"b64a312b-37b8-46c9-98fb-27e7f5d7c469","system_id":"levelo_inurba_marseille","lat":43.30212,"lon":5.39466,"is_reserved":false,"is_disabled":false,"rental_uris":{"android":"levelo://app?vid=b64a312b-37b8-46c9-98fb-27e7f5d7c469","ios":"levelo://app?vid=b64a312b-37b8-46c9-98fb-27e7f5d7c469"},