{"last_updated":1712779669,"ttl":30,"version":"2.2","data":{"bikes":[{"bike_id":"21f0d610-0193-4c98-9e89-602e428135de","system_id":"levelo_inurba_marseille","lat":43.31226,"lon":5.36858,"is_reserved":false,"is_disabled":false,"rental_uris":{"android":"levelo://app?vid=21f0d610-0193-4c98-9e89-602e428135de","ios":"levelo://app?vid=21f0d610-0193-4c98-9e89-602e428135de"},"vehicle_type_id":"4","last_reported":1712779669,"current_range_meters":0,"station_id":"ce4bgl92rcd13ifvqbq0","pricing_plan_id":"cebpf4jnsgd1na2vs0mg"},{"bike_id":"a5f231b0-bb67-4575-a1e7-f9bdfe2d8a34","system_id":"levelo_inurba_marseille","lat":43.314811,"lon":5.373103,"is_reserved":false,"is_disabled":false,"rental_uris":{"android":"levelo://app?vid=a5f231b0-bb67-4575-a1e7-f9bdfe2d8a34","ios":"levelo://app?vid=a5f231b0-bb67-4575-a1e7-f9bdfe2d8a34"},"vehicle_type_id":"4","last_reported":1712779669,"current_range_meters":25600,"station_id":"ce4bgt12rcd13ifvqcd0","pricing_plan_id":"cebpf4jnsgd1na2vs0mg"},{"bike_id":"d53445a3-9814-4c6d-ba7c-667e7eb70f6f","system_id":"levelo_inurba_marseille","lat":43.314811,"lon":5.373103,"is_reserved":false,"is_disabled":false,"rental_uris":{"android":"levelo://app?vid=d53445a3-9814-4c6d-ba7c-667e7eb70f6f","ios":"levelo://app?vid=d53445a3-9814-4c6d-ba7c-667e7eb70f6f"},"vehicle_type_id":"4","last_reported":1712779669,"current_range_meters":20400,"station_id":"ce4bgt12rcd13ifvqcd0","pricing_plan_id":"cebpf4jnsgd1na2vs0mg"},{"bike_id":"1a12ab1c-c820-489e-9e83-d105522fcfc9","system_id":"levelo_inurba_marseille","lat":43.314811,"lon":5.373104,"is_reserved":false,"is_disabled":false,"rental_uris":{"android":"levelo://app?vid=1a12ab1c-c820-489e-9e83-d105522fcfc9","ios":"levelo://app?vid=1a12ab1c-c820-489e-9e83-d105522fcfc9"},"vehicle_type_id":"4","last_reported":1712779669,"current_range_meters":16000,"station_id":"ce4bgt12rcd13ifvqcd0","pricing_plan_id":"cebpf4jnsgd1na2vs0mg"},{"bike_id":"eaafa282-a8ac-4cce-ad91-4c4f077819ac","system_id":"levelo_inurba_marseille","lat":43.309039,"lon":5.371797,"is_reserved":false,"is_disabled":false,"rental_uris":{"android":"levelo://app?vid=eaafa282-a8ac-4cce-ad91-4c4f077819ac","ios":"levelo://app?vid=eaafa282-a8ac-4cce-ad91-4c4f077819ac"},"vehicle_type_id":"4","last_reported":1712779669,"current_range_meters":8800,"station_id":"ce4bguh2rcd13ifvqckg","pricing_plan_id":"cebpf4jnsgd1na2vs0mg"},{"bike_id":"f6fdd9d5-08b9-4292-bc3e-decd84f57dd2","system_id":"levelo_inurba_marseille","lat":43.317004,"lon":5.373838,"is_reserved":false,"is_disabled":false,"rental_uris":{"android":"levelo://app?vid=f6fdd9d5-08b9-4292-bc3e-decd84f57dd2","ios":"levelo://app?vid=f6fdd9d5-08b9-4292-bc3e-decd84f57dd2"},"vehicle_type_id":"4","last_reported":1712779669,"current_range_meters":6400,"station_id":"","pricing_plan_id":"cebpf4jnsgd1na2vs0mg"},{"bike_id":"aa02885b-a03f-488c-b758-ceea1239d016","system_id":"levelo_inurba_marseille","lat":43.30558,"lon":5.36537,"is_reserved":false,"is_disabled":false,"rental_uris":{"android":"levelo://app?vid=aa02885b-a03f-488c-b758-ceea1239d016","ios":"levelo://app?vid=aa02885b-a03f-488c-b758-ceea1239d016"},"vehicle_type_id":"4","last_reported":1712779669,"current_range_meters":0,"station_id":"ce4bgs12rcd13ifvqcag","pricing_plan_id":"cebpf4jnsgd1na2vs0mg"},{"bike_id":"a452d28d-8ce5-4cfc-bc0c-9d8c0fc3e8e2","system_id":"levelo_inurba_marseille","lat":43.305368,"lon":5.367343,"is_reserved":false,"is_disabled":false,"rental_uris":{"android":"levelo://app?vid=a452d28d-8ce5-4cfc-bc0c-9d8c0fc3e8e2","ios":"levelo://app?vid=a452d28d-8ce5-4cfc-bc0c-9d8c0fc3e8e2"},"vehicle_type_id":"4","last_reported":1712779669,"current_range_meters":0,"station_id":"ce4bgrp2rcd13ifvqc9g","pricing_plan_id":"cebpf4jnsgd1na2vs0mg"},{"bike_id":"6e57f5c6-b126-4bd8-afb5-e212176235f4","system_id":"levelo_inurba_marseille","lat":43.305714,"lon":5.365633,"is_reserved":false,"is_disabled":false,"rental_uris":{"android":"levelo://app?vid=6e57f5c6-b126-4bd8-afb5-e212176235f4","ios":"levelo://app?vid=6e57f5c6-b126-4bd8-afb5-e212176235f4"},"vehicle_type_id":"4","last_reported":1712779669,"current_range_meters":0,"station_id":"ce4bgs12rcd13ifvqcag","pricing_plan_id":"cebpf4jnsgd1na2vs0mg"},{"bike_id":"a2740c14-4eba-41cf-9013-67724260e66b","system_id":"levelo_inurba_marseille","lat":43.307945,"lon":5.376487,"is_reserved":false,"is_disabled":false,"rental_uris":{"android":"levelo://app?vid=a2740c14-4eba-41cf-9013-67724260e66b","ios":"levelo://app?vid=a2740c14-4eba-41cf-9013-67724260e66b"},"vehicle_type_id":"4","last_reported":1712779669,"current_range_meters":5600,"station_id":"ce4bgv92rcd13ifvqcq0","pricing_plan_id":"cebpf4jnsgd1na2vs0mg"},{"bike_id":"16b21149-66cb-4227-a05f-6ea7c16abd4c","system_id":"levelo_inurba_marseille","lat":43.305706,"lon":5.365654,"is_reserved":false,"is_disabled":false,"rental_uris":{"android":"levelo://app?vid=16b21149-66cb-4227-a05f-6ea7c16abd4c","ios":"levelo://app?vid=16b21149-66cb-4227-a05f-6ea7c16abd4c"},"vehicle_type_id":"4","last_reported":1712779669,"current_range_meters":11200,"station_id":"ce4bgs12rcd13ifvqcag","pricing_plan_id":"cebpf4jnsgd1na2vs0mg"},{"bike_id":"0822d30e-25b8-42a8-a11d-2eae2618cd78","system_id":"levelo_inurba_marseille","lat":43.30607,"lon":5.37239,"is_reserved":false,"is_disabled":false,"rental_uris":{"android":"levelo://app?vid=0822d30e-25b8-42a8-a11d-2eae2618cd78","ios":"levelo://app?vid=0822d30e-25b8-42a8-a11d-2eae2618cd78"},"vehicle_type_id":"4","last_reported":1712779669,"current_range_meters":24400,"station_id":"ce4bgqh2rcd13ifvqc4g","pricing_plan_id":"cebpf4jnsgd1na2vs0mg"},{"bike_id":"305f0ff5-6a0c-4154-ae7b-740d6da54e57","system_id":"levelo_inurba_marseille","lat":43.309076,"lon":5.368465,"is_reserved":false,"is_disabled":false,"rental_uris":{"android":"levelo://app?vid=305f0ff5-6a0c-4154-ae7b-740d6da54e57","ios":"levelo://app?vid=305f0ff5-6a0c-4154-ae7b-740d6da54e57"},"vehicle_type_id":"4","last_reported":1712779669,"current_range_meters":10800,"station_id":"ce4bgn92rcd13ifvqbvg","pricing_plan_id":"cebpf4jnsgd1na2vs0mg"},{"bike_id":"a45d799a-090a-40de-9aa5-ddae993f34a8","system_id":"levelo_inurba_marseille","lat":43.305989,"lon":5.37225,"is_reserved":false,"is_disabled":false,"rental_uris":{"android":"levelo://app?vid=a45d799a-090a-40de-9aa5-ddae993f34a8","ios":"levelo://app?vid=a45d799a-090a-40de-9aa5-ddae993f34a8"},"vehicle_type_id":"4","last_reported":1712779669,"current_range_meters":31600,"station_id":"ce4bgqh2rcd13ifvqc4g","pricing_plan_id":"cebpf4jnsgd1na2vs0mg"},{"bike_id":"dc8b3ee1-cf49-4686-91bd-ffbf2f98624e","system_id":"levelo_inurba_marseille","lat":43.305989,"lon":5.37225,"is_reserved":false,"is_disabled":false,"rental_uris":{"android":"levelo://app?vid=dc8b3ee1-cf49-4686-91bd-ffbf2f98624e","ios":"levelo://app?vid=dc8b3ee1-cf49-4686-91bd-ffbf2f98624e"},"vehicle_type_id":"4","last_reported":1712779669,"current_range_meters":11200,"station_id":"ce4bgqh2rcd13ifvqc4g","pricing_plan_id":"cebpf4jnsgd1na2vs0mg"},{"bike_id":"85e0c2e1-14d0-4e6f-9d72-3e04e09e9b6a","system_id":"levelo_inurba_marseille","lat":43.305989,"lon":5.37225,"is_reserved":false,"is_disabled":false,"rental_uris":{"android":"levelo://app?vid=85e0c2e1-14d0-4e6f-9d72-3e04e09e9b6a","ios":"levelo://app?vid=85e0c2e1-14d0-4e6f-9d72-3e04e09e9b6a"},"vehicle_type_id":"4","last_reported":1712779669,"current_range_meters":800,"station_id":"ce4bgqh2rcd13ifvqc4g","pricing_plan_id":"cebpf4jnsgd1na2vs0mg"},{"bike_id":"a9c5d233-7abc-43c2-9ca7-22ef285b80bb","system_id":"levelo_inurba_marseille","lat":43.311131,"lon":5.377651,"is_reserved":false,"is_disabled":false,"rental_uris":{"android":"levelo://app?vid=a9c5d233-7abc-43c2-9ca7-22ef285b80bb","ios":"levelo://app?vid=a9c5d233-7abc-43c2-9ca7-22ef285b80bb"},"vehicle_type_id":"4","last_reported":1712779669,"current_range_meters":0,"station_id":"ce4bgt92rcd13ifvqcg0","pricing_plan_id":"cebpf4jnsgd1na2vs0mg"},{"bike_id":"d59f4cf1-18fd-4d8b-ba57-faece69aba28","system_id":"levelo_inurba_marseille","lat":43.311125,"lon":5.377624,"is_reserved":false,"is_disabled":false,"rental_uris":{"android":"levelo://app?vid=d59f4cf1-18fd-4d8b-ba57-faece69aba28","ios":"levelo://app?vid=d59f4cf1-18fd-4d8b-ba57-faece69aba28"},"vehicle_type_id":"4","last_reported":1712779669,"current_range_meters":7200,"station_id":"ce4bgt92rcd13ifvqcg0","pricing_plan_id":"cebpf4jnsgd1na2vs0mg"},{"bike_id":"79406393-fd4f-4829-89a7-102a3cf59290","system_id":"levelo_inurba_marseille","lat":43.311125,"lon":5.377624,"is_reserved":false,"is_disabled":false,"rental_uris":{"android":"levelo://app?vid=79406393-fd4f-4829-89a7-102a3cf59290","ios":"levelo://app?vid=79406393-fd4f-4829-89a7-102a3cf59290"},"vehicle_type_id":"4","last_reported":1712779669,"current_range_meters":19200,"station_id":"ce4bgt92rcd13ifvqcg0","pricing_plan_id":"cebpf4jnsgd1na2vs0mg"},{"bike_id":"f7611ec2-1434-4413-bed2-1f6242d743ac","system_id":"levelo_inurba_marseille","lat":43.311125,"lon":5.377624,"is_reserved":false,"is_disabled":false,"rental_uris":{"android":"levelo://app?vid=f7611ec2-1434-4413-bed2-1f6242d743ac","ios":"levelo://app?vid=f7611ec2-1434-4413-bed2-1f6242d743ac"},"vehicle_type_id":"4","last_reported":1712779669,"current_range_meters":12400,"station_id":"ce4bgt92rcd13ifvqcg0","pricing_plan_id":"cebpf4jnsgd1na2vs0mg"},{"bike_id":"3c447942-0acd-41d7-990b-1adbb13f1bca","system_id":"levelo_inurba_marseille","lat":43.307945,"lon":5.376487,"is_reserved":false,"is_disabled":false,"rental_uris":{"android":"levelo://app?vid=3c447942-0acd-41d7-990b-1adbb13f1bca","ios":"levelo://app?vid=3c447942-0acd-41d7-990b-1adbb13f1bca"},"vehicle_type_id":"4","last_reported":1712779669,"current_range_meters":12000,"station_id":"ce4bgv92rcd13ifvqcq0","pricing_plan_id":"cebpf4jnsgd1na2vs0mg"},{"bike_id":"800fa1b2-bc9d-4ab8-b5e6-d7dfd95627fe","system_id":"levelo_inurba_marseille","lat":43.30789,"lon":5.37642,"is_reserved":false,"is_disabled":false,"rental_uris":{"android":"levelo://app?vid=800fa1b2-bc9d-4ab8-b5e6-d7dfd95627fe","ios":"levelo://app?vid=800fa1b2-bc9d-4ab8-b5e6-d7dfd95627fe"},"vehicle_type_id":"4","last_reported":1712779669,"current_range_meters":0,"station_id":"ce4bgv92rcd13ifvqcq0","pricing_plan_id":"cebpf4jnsgd1na2vs0mg"},{"bike_id":"fd5131a4-1dad-4ed3-9146-2e5987d727e8","system_id":"levelo_inurba_marseille","lat":43.307945,"lon":5.376487,"is_reserved":false,"is_disabled":false,"rental_uris":{"android":"levelo://app?vid=fd5131a4-1dad-4ed3-9146-2e5987d727e8","ios":"levelo://app?vid=fd5131a4-1dad-4ed3-9146-2e5987d727e8"},"vehicle_type_id":"4","last_reported":1712779669,"current_range_meters":26800,"station_id":"ce4bgv92rcd13ifvqcq0","pricing_plan_id":"cebpf4jnsgd1na2vs0mg"},{"bike_id":"761fa7cb-756e-42f1-8785-e79c3770ab86","system_id":"levelo_inurba_marseille","lat":43.30788,"lon":5.3765,"is_reserved":false,"is_disabled":false,"rental_uris":{"android":"levelo://app?vid=761fa7cb-756e-42f1-8785-e79c3770ab86","ios":"levelo://app?vid=761fa7cb-756e-42f1-8785-e79c3770ab86"},"vehicle_type_id":"4","last_reported":1712779669,"current_range_meters":14800,"station_id":"","pricing_plan_id":"cebpf4jnsgd1na2vs0mg"},{"bike_id":"1fae1f44-4a63-4c8d-b7f9-7a5d97440fe3","system_id":"levelo_inurba_marseille","lat":43.307945,"lon":5.376487,"is_reserved":false,"is_disabled":false,"rental_uris":{"android":"levelo://app?vid=1fae1f44-4a63-4c8d-b7f9-7a5d97440fe3","ios":"levelo://app?vid=1fae1f44-4a63-4c8d-b7f9-7a5d97440fe3"},"vehicle_type_id":"4","last_reported":1712779669,"current_range_meters":14400,"station_id":"ce4bgv92rcd13ifvqcq0","pricing_plan_id":"cebpf4jnsgd1na2vs0mg"},{"bike_id":"ef336e69-f9a0-4545-ab35-9e1982a1a508","system_id":"levelo_inurba_marseille","lat":43.307945,"lon":5.376487,"is_reserved":false,"is_disabled":false,"rental_uris":{"android":"levelo://app?vid=ef336e69-f9a0-4545-ab35-9e1982a1a508","ios":"levelo://app?vid=ef336e69-f9a0-4545-ab35-9e1982a1a508"},"vehicle_type_id":"4","last_reported":1712779669,"current_range_meters":30000,"station_id":"ce4bgv92rcd13ifvqcq0","pricing_plan_id":"cebpf4jnsgd1na2vs0mg"},{"bike_id":"5ac17b3b-d013-4c28-813c-e2e714055aa6","system_id":"levelo_inurba_marseille","lat":43.305256,"lon":5.372716,"is_reserved":false,"is_disabled":false,"rental_uris":{"android":"levelo://app?vid=5ac17b3b-d013-4c28-813c-e2e714055aa6","ios":"levelo://app?vid=5ac17b3b-d013-4c28-813c-e2e714055aa6"},"vehicle_type_id":"4","last_reported":1712779669,"current_range_meters":2000,"station_id":"","pricing_plan_id":"cebpf4jnsgd1na2vs0mg"},{"bike_id":"4a09f8f3-7333-4d37-876e-1b95c73b6283","system_id":"levelo_inurba_marseille","lat":43.317075,"lon":5.377367,"is_reserved":false,"is_disabled":false,"rental_uris":{"android":"levelo://app?vid=4a09f8f3-7333-4d37-876e-1b95c73b6283","ios":"levelo://app?vid=4a09f8f3-7333-4d37-876e-1b95c73b6283"},"vehicle_type_id":"4","last_reported":1712779669,"current_range_meters":25200,"station_id":"ce4bgth2rcd13ifvqch0","pricing_plan_id":"cebpf4jnsgd1na2vs0mg"},{"bike_id":"479686e7-e0b2-4a3b-92f5-024395d0a0d2","system_id":"levelo_inurba_marseille","lat":43.30304,"lon":5.368987,"is_reserved":false,"is_disabled":false,"rental_uris":{"android":"levelo://app?vid=479686e7-e0b2-4a3b-92f5-024395d0a0d2","ios":"levelo://app?vid=479686e7-e0b2-4a3b-92f5-024395d0a0d2"},"vehicle_type_id":"4","last_reported":1712779669,"current_range_meters":0,"station_id":"ce4bgqh2rcd13ifvqc5g","pricing_plan_id":"cebpf4jnsgd1na2vs0mg"},{"bike_id":"fdf46a05-69b0-4923-8b38-c84b2765bf12","system_id":"levelo_inurba_marseille","lat":43.30304,"lon":5.368987,"is_reserved":false,"is_disabled":false,"rental_uris":{"android":"levelo://app?vid=fdf46a05-69b0-4923-8b38-c84b2765bf12","ios":"levelo://app?vid=fdf46a05-69b0-4923-8b38-c84b2765bf12"},"vehicle_type_id":"4","last_reported":1712779669,"current_range_meters":0,"station_id":"ce4bgqh2rcd13ifvqc5g","pricing_plan_id":"cebpf4jnsgd1na2vs0mg"},{"bike_id":"15af3bb2-3b88-49a9-a53c-007c763d45a9","system_id":"levelo_inurba_marseille","lat":43.30304,"lon":5.368987,"is_reserved":false,"is_disabled":false,"rental_uris":{"android":"levelo://app?vid=15af3bb2-3b88-49a9-a53c-007c763d45a9","ios":"levelo://app?vid=15af3bb2-3b88-49a9-a53c-007c763d45a9"},"vehicle_type_id":"4","last_reported":1712779669,"current_range_meters":0,"station_id":"ce4bgqh2rcd13ifvqc5g","pricing_plan_id":"cebpf4jnsgd1na2vs0mg"},{"bike_id":"738d2e57-a4c7-4b80-91db-ae66c2993b24","system_id":"levelo_inurba_marseille","lat":43.315289,"lon":5.380349,"is_reserved":false,"is_disabled":false,"rental_uris":{"android":"levelo://app?vid=738d2e57-a4c7-4b80-91db-ae66c2993b24","ios":"levelo://app?vid=738d2e57-a4c7-4b80-91db-ae66c2993b24"},"vehicle_type_id":"4","last_reported":1712779669,"current_range_meters":28400,"station_id":"ce4bhsp2rcd13ifvqi50","pricing_plan_id":"cebpf4jnsgd1na2vs0mg"},{"bike_id":"20941a98-a88c-4d0f-8f8a-b7614341e977","system_id":"levelo_inurba_marseille","lat":43.315293,"lon":5.380349,"is_reserved":false,"is_disabled":false,"rental_uris":{"android":"levelo://app?vid=20941a98-a88c-4d0f-8f8a-b7614341e977","ios":"levelo://app?vid=20941a98-a88c-4d0f-8f8a-b7614341e977"},"vehicle_type_id":"4","last_reported":1712779669,"current_range_meters":21200,"station_id":"ce4bhsp2rcd13ifvqi50","pricing_plan_id":"cebpf4jnsgd1na2vs0mg"},{"bike_id":"c5c399e5-edf4-40f9-bc04-a073ac878553","system_id":"levelo_inurba_marseille","lat":43.315289,"lon":5.380349,"is_reserved":false,"is_disabled":false,"rental_uris":{"android":"levelo://app?vid=c5c399e5-edf4-40f9-bc04-a073ac878553","ios":"levelo://app?vid=c5c399e5-edf4-40f9-bc04-a073ac878553"},"vehicle_type_id":"4","last_reported":1712779669,"current_range_meters":5200,"station_id":"ce4bhsp2rcd13ifvqi50","pricing_plan_id":"cebpf4jnsgd1na2vs0mg"},{"bike_id":"f564dea5-e033-401f-b2e1-52ab41c1d9a0","system_id":"levelo_inurba_marseille","lat":43.308012,"lon":5.381511,"is_reserved":false,"is_disabled":false,"rental_uris":{"android":"levelo://app?vid=f564dea5-e033-401f-b2e1-52ab41c1d9a0","ios":"levelo://app?vid=f564dea5-e033-401f-b2e1-52ab41c1d9a0"},"vehicle_type_id":"4","last_reported":1712779669,"current_range_meters":0,"station_id":"ce4bgt12rcd13ifvqce0","pricing_plan_id":"cebpf4jnsgd1na2vs0mg"},{"bike_id":"a0ec95a5-43c1-41b4-a179-0a676e2850c2","system_id":"levelo_inurba_marseille","lat":43.30803,"lon":5.38153,"is_reserved":false,"is_disabled":false,"rental_uris":{"android":"levelo://app?vid=a0ec95a5-43c1-41b4-a179-0a676e2850c2","ios":"levelo://app?vid=a0ec95a5-43c1-41b4-a179-0a676e2850c2"},"vehicle_type_id":"4","last_reported":1712779669,"current_range_meters":0,"station_id":"ce4bgt12rcd13ifvqce0","pricing_plan_id":"cebpf4jnsgd1na2vs0mg"},{"bike_id":"6304b356-5718-49c0-9009-11c0cd0b6c8c","system_id":"levelo_inurba_marseille","lat":43.32475,"lon":5.36557,"is_reserved":false,"is_disabled":false,"rental_uris":{"android":"levelo://app?vid=6304b356-5718-49c0-9009-11c0cd0b6c8c","ios":"levelo://app?vid=6304b356-5718-49c0-9009-11c0cd0b6c8c"},"vehicle_type_id":"4","last_reported":1712779669,"current_range_meters":18800,"station_id":"ce4bhs12rcd13ifvqhvg","pricing_plan_id":"cebpf4jnsgd1na2vs0mg"},{"bike_id":"4d857a07-486f-4587-9836-943a854c8633","system_id":"levelo_inurba_marseille","lat":43.324754,"lon":5.365601,"is_reserved":false,"is_disabled":false,"rental_uris":{"android":"levelo://app?vid=4d857a07-486f-4587-9836-943a854c8633","ios":"levelo://app?vid=4d857a07-486f-4587-9836-943a854c8633"},"vehicle_type_id":"4","last_reported":1712779669,"current_range_meters":18800,"station_id":"ce4bhs12rcd13ifvqhvg","pricing_plan_id":"cebpf4jnsgd1na2vs0mg"},{"bike_id":"d621c504-833c-4dc0-8790-c219854bcb05","system_id":"levelo_inurba_marseille","lat":43.324771,"lon":5.36557,"is_reserved":false,"is_disabled":false,"rental_uris":{"android":"levelo://app?vid=d621c504-833c-4dc0-8790-c219854bcb05","ios":"levelo://app?vid=d621c504-833c-4dc0-8790-c219854bcb05"},"vehicle_type_id":"4","last_reported":1712779669,"current_range_meters":14000,"station_id":"ce4bhs12rcd13ifvqhvg","pricing_plan_id":"cebpf4jnsgd1na2vs0mg"},{"bike_id":"b61f5fce-3370-4eb2-9cfe-757ef3a5f155","system_id":"levelo_inurba_marseille","lat":43.324771,"lon":5.36557,"is_reserved":false,"is_disabled":false,"rental_uris":{"android":"levelo://app?vid=b61f5fce-3370-4eb2-9cfe-757ef3a5f155","ios":"levelo://app?vid=b61f5fce-3370-4eb2-9cfe-757ef3a5f155"},"vehicle_type_id":"4","last_reported":1712779669,"current_range_meters":16400,"station_id":"ce4bhs12rcd13ifvqhvg","pricing_plan_id":"cebpf4jnsgd1na2vs0mg"},{"bike_id":"472c3294-2803-4237-bcbf-54269798f6ec","system_id":"levelo_inurba_marseille","lat":43.3248,"lon":5.36565,"is_reserved":false,"is_disabled":false,"rental_uris":{"android":"levelo://app?vid=472c3294-2803-4237-bcbf-54269798f6ec","ios":"levelo://app?vid=472c3294-2803-4237-bcbf-54269798f6ec"},"vehicle_type_id":"4","last_reported":1712779669,"current_range_meters":14000,"station_id":"ce4bhs12rcd13ifvqhvg","pricing_plan_id":"cebpf4jnsgd1na2vs0mg"},{"bike_id":"840c6d84-8b46-4566-b4d7-e726a062eef1","system_id":"levelo_inurba_marseille","lat":43.324771,"lon":5.36557,"is_reserved":false,"is_disabled":false,"rental_uris":{"android":"levelo://app?vid=840c6d84-8b46-4566-b4d7-e726a062eef1","ios":"levelo://app?vid=840c6d84-8b46-4566-b4d7-e726a062eef1"},"vehicle_type_id":"4","last_reported":1712779669,"current_range_meters":25200,"station_id":"ce4bhs12rcd13ifvqhvg","pricing_plan_id":"cebpf4jnsgd1na2vs0mg"},{"bike_id":"b39f50fb-286a-4ac4-b702-fa2b634996c7","system_id":"levelo_inurba_marseille","lat":43.324771,"lon":5.36557,"is_reserved":false,"is_disabled":false,"rental_uris":{"android":"levelo://app?vid=b39f50fb-286a-4ac4-b702-fa2b634996c7","ios":"levelo://app?vid=b39f50fb-286a-4ac4-b702-fa2b634996c7"},"vehicle_type_id":"4","last_reported":1712779669,"current_range_meters":14400,"station_id":"ce4bhs12rcd13ifvqhvg","pricing_plan_id":"cebpf4jnsgd1na2vs0mg"},{"bike_id":"5cd49b38-4b4d-48c2-93a5-c1d29d9cf86c","system_id":"levelo_inurba_marseille","lat":43.324814,"lon":5.365622,"is_reserved":false,"is_disabled":false,"rental_uris":{"android":"levelo://app?vid=5cd49b38-4b4d-48c2-93a5-c1d29d9cf86c","ios":"levelo://app?vid=5cd49b38-4b4d-48c2-93a5-c1d29d9cf86c"},"vehicle_type_id":"4","last_reported":1712779669,"current_range_meters":10000,"station_id":"ce4bhs12rcd13ifvqhvg","pricing_plan_id":"cebpf4jnsgd1na2vs0mg"},{"bike_id":"d453f5f1-b263-477b-864b-bf2146099cf6","system_id":"levelo_inurba_marseille","lat":43.324771,"lon":5.36557,"is_reserved":false,"is_disabled":false,"rental_uris":{"android":"levelo://app?vid=d453f5f1-b263-477b-864b-bf2146099cf6","ios":"levelo://app?vid=d453f5f1-b263-477b-864b-bf2146099cf6"},"vehicle_type_id":"4","last_reported":1712779669,"current_range_meters":10400,"station_id":"ce4bhs12rcd13ifvqhvg","pricing_plan_id":"cebpf4jnsgd1na2vs0mg"},{"bike_id":"466fa14b-daa3-4177-b540-e71b4a8e6995","system_id":"levelo_inurba_marseille","lat":43.324771,"lon":5.36557,"is_reserved":false,"is_disabled":false,"rental_uris":{"android":"levelo://app?vid=466fa14b-daa3-4177-b540-e71b4a8e6995","ios":"levelo://app?vid=466fa14b-daa3-4177-b540-e71b4a8e6995"},"vehicle_type_id":"4","last_reported":1712779669,"current_range_meters":11200,"station_id":"ce4bhs12rcd13ifvqhvg","pricing_plan_id":"cebpf4jnsgd1na2vs0mg"},{"bike_id":"dd1eeaf3-7ce5-435e-b6c8-fd616106d621","system_id":"levelo_inurba_marseille","lat":43.324771,"lon":5.36557,"is_reserved":false,"is_disabled":false,"rental_uris":{"android":"levelo://app?vid=dd1eeaf3-7ce5-435e-b6c8-fd616106d621","ios":"levelo://app?vid=dd1eeaf3-7ce5-435e-b6c8-fd616106d621"},"vehicle_type_id":"4","last_reported":1712779669,"current_range_meters":9200,"station_id":"ce4bhs12rcd13ifvqhvg","pricing_plan_id":"cebpf4jnsgd1na2vs0mg"},{"bike_id":"f65b581c-2d48-4e06-a836-c23797b8fa05","system_id":"levelo_inurba_marseille","lat":43.324771,"lon":5.36557,"is_reserved":false,"is_disabled":false,"rental_uris":{"android":"levelo://app?vid=f65b581c-2d48-4e06-a836-c23797b8fa05","ios":"levelo://app?vid=f65b581c-2d48-4e06-a836-c23797b8fa05"},"vehicle_type_id":"4","last_reported":1712779669,"current_range_meters":23200,"station_id":"ce4bhs12rcd13ifvqhvg","pricing_plan_id":"cebpf4jnsgd1na2vs0mg"},{"bike_id":"52482f74-22f9-4f2a-90a6-8d36b1cdc8e1","system_id":"levelo_inurba_marseille","lat":43.32486,"lon":5.36576,"is_reserved":false,"is_disabled":false,"rental_uris":{"android":"levelo://app?vid=52482f74-22f9-4f2a-90a6-8d36b1cdc8e1","ios":"levelo://app?vid=52482f74-22f9-4f2a-90a6-8d36b1cdc8e1"},"vehicle_type_id":"4","last_reported":1712779669,"current_range_meters":21600,"station_id":"ce4bhs12rcd13ifvqhvg","pricing_plan_id":"cebpf4jnsgd1na2vs0mg"},{"bike_id":"76425284-9699-46e9-97de-d1550b08f531","system_id":"levelo_inurba_marseille","lat":43.310804,"lon":5.38359,"is_reserved":false,"is_disabled":false,"rental_uris":{"android":"levelo://app?vid=76425284-9699-46e9-97de-d1550b08f531","ios":"levelo://app?vid=76425284-9699-46e9-97de-d1550b08f531"},"vehicle_type_id":"4","last_reported":1712779669,"current_range_meters":1600,"station_id":"ce4bgv92rcd13ifvqcr0","pricing_plan_id":"cebpf4jnsgd1na2vs0mg"},{"bike_id":"94cdfebe-92d2-4454-9305-ab1cc2a5dc1e","system_id":"levelo_inurba_marseille","lat":43.30143,"lon":5.37425,"is_reserved":false,"is_disabled":false,"rental_uris":{"android":"levelo://app?vid=94cdfebe-92d2-4454-9305-ab1cc2a5dc1e","ios":"levelo://app?vid=94cdfebe-92d2-4454-9305-ab1cc2a5dc1e"},"vehicle_type_id":"4","last_reported":1712779669,"current_range_meters":0,"station_id":"ce4bgs92rcd13ifvqcc0","pricing_plan_id":"cebpf4jnsgd1na2vs0mg"},{"bike_id":"394cf23c-e2db-411c-b3f2-a6f63ed34451","system_id":"levelo_inurba_marseille","lat":43.303575,"lon":5.378905,"is_reserved":false,"is_disabled":false,"rental_uris":{"android":"levelo://app?vid=394cf23c-e2db-411c-b3f2-a6f63ed34451","ios":"levelo://app?vid=394cf23c-e2db-411c-b3f2-a6f63ed34451"},"vehicle_type_id":"4","last_reported":1712779669,"current_range_meters":0,"station_id":"","pricing_plan_id":"cebpf4jnsgd1na2vs0mg"},{"bike_id":"3737b6f3-2a46-4d8f-bd05-f5e23beabb54","system_id":"levelo_inurba_marseille","lat":43.319935,"lon":5.381699,"is_reserved":false,"is_disabled":false,"rental_uris":{"android":"levelo://app?vid=3737b6f3-2a46-4d8f-bd05-f5e23beabb54","ios":"levelo://app?vid=3737b6f3-2a46-4d8f-bd05-f5e23beabb54"},"vehicle_type_id":"4","last_reported":1712779669,"current_range_meters":7600,"station_id":"ce4bhr12rcd13ifvqhpg","pricing_plan_id":"cebpf4jnsgd1na2vs0mg"},{"bike_id":"39abf3e5-19a3-4d90-9a21-dddd3092fa2e","system_id":"levelo_inurba_marseille","lat":43.313571,"lon":5.384829,"is_reserved":false,"is_disabled":false,"rental_uris":{"android":"levelo://app?vid=39abf3e5-19a3-4d90-9a21-dddd3092fa2e","ios":"levelo://app?vid=39abf3e5-19a3-4d90-9a21-dddd3092fa2e"},"vehicle_type_id":"4","last_reported":1712779669,"current_range_meters":21600,"station_id":"ce4bgt92rcd13ifvqcf0","pricing_plan_id":"cebpf4jnsgd1na2vs0mg"},{"bike_id":"5aa17555-1f5f-4986-b91b-2b09b5a9caff","system_id":"levelo_inurba_marseille","lat":43.313571,"lon":5.384829,"is_reserved":false,"is_disabled":false,"rental_uris":{"android":"levelo://app?vid=5aa17555-1f5f-4986-b91b-2b09b5a9caff","ios":"levelo://app?vid=5aa17555-1f5f-4986-b91b-2b09b5a9caff"},"vehicle_type_id":"4","last_reported":1712779669,"current_range_meters":5200,"station_id":"ce4bgt92rcd13ifvqcf0","pricing_plan_id":"cebpf4jnsgd1na2vs0mg"},{"bike_id":"318ada78-6121-4f9d-a98a-98f7ed0bc104","system_id":"levelo_inurba_marseille","lat":43.313571,"lon":5.384829,"is_reserved":false,"is_disabled":false,"rental_uris":{"android":"levelo://app?vid=318ada78-6121-4f9d-a98a-98f7ed0bc104","ios":"levelo://app?vid=318ada78-6121-4f9d-a98a-98f7ed0bc104"},"vehicle_type_id":"4","last_reported":1712779669,"current_range_meters":23200,"station_id":"ce4bgt92rcd13ifvqcf0","pricing_plan_id":"cebpf4jnsgd1na2vs0mg"},{"bike_id":"efe31f4e-7e6f-4da2-9296-dcb8bfd58466","system_id":"levelo_inurba_marseille","lat":43.313571,"lon":5.384829,"is_reserved":false,"is_disabled":false,"rental_uris":{"android":"levelo://app?vid=efe31f4e-7e6f-4da2-9296-dcb8bfd58466","ios":"levelo://app?vid=efe31f4e-7e6f-4da2-9296-dcb8bfd58466"},"vehicle_type_id":"4","last_reported":1712779669,"current_range_meters":18000,"station_id":"ce4bgt92rcd13ifvqcf0","pricing_plan_id":"cebpf4jnsgd1na2vs0mg"},{"bike_id":"8aceafc6-f67e-49b4-a48b-e7e828acc91e","system_id":"levelo_inurba_marseille","lat":43.313571,"lon":5.384829,"is_reserved":false,"is_disabled":false,"rental_uris":{"android":"levelo://app?vid=8aceafc6-f67e-49b4-a48b-e7e828acc91e","ios":"levelo://app?vid=8aceafc6-f67e-49b4-a48b-e7e828acc91e"},"vehicle_type_id":"4","last_reported":1712779669,"current_range_meters":12000,"station_id":"ce4bgt92rcd13ifvqcf0","pricing_plan_id":"cebpf4jnsgd1na2vs0mg"},{"bike_id":"d6fdea22-85f1-41ed-8e5e-167fed33e286","system_id":"levelo_inurba_marseille","lat":43.313571,"lon":5.384829,"is_reserved":false,"is_disabled":false,"rental_uris":{"android":"levelo://app?vid=d6fdea22-85f1-41ed-8e5e-167fed33e286","ios":"levelo://app?vid=d6fdea22-85f1-41ed-8e5e-167fed33e286"},"vehicle_type_id":"4","last_reported":1712779669,"current_range_meters":1600,"station_id":"ce4bgt92rcd13ifvqcf0","pricing_plan_id":"cebpf4jnsgd1na2vs0mg"},{"bike_id":"768bbfa6-7cea-4363-bc5d-408c3858d699","system_id":"levelo_inurba_marseille","lat":43.313571,"lon":5.384829,"is_reserved":false,"is_disabled":false,"rental_uris":{"android":"levelo://app?vid=768bbfa6-7cea-4363-bc5d-408c3858d699","ios":"levelo://app?vid=768bbfa6-7cea-4363-bc5d-408c3858d699"},"vehicle_type_id":"4","last_reported":1712779669,"current_range_meters":4000,"station_id":"ce4bgt92rcd13ifvqcf0","pricing_plan_id":"cebpf4jnsgd1na2vs0mg"},{"bike_id":"78838408-a778-4e8b-8815-7a904ab41499","system_id":"levelo_inurba_marseille","lat":43.31356,"lon":5.38507,"is_reserved":false,"is_disabled":false,"rental_uris":{"android":"levelo://app?vid=78838408-a778-4e8b-8815-7a904ab41499","ios":"levelo://app?vid=78838408-a778-4e8b-8815-7a904ab41499"},"vehicle_type_id":"4","last_reported":1712779669,"current_range_meters":0,"station_id":"ce4bgt92rcd13ifvqcf0","pricing_plan_id":"cebpf4jnsgd1na2vs0mg"},{"bike_id":"7938fc2b-3a8a-4ffe-94ee-328ed28ba77b","system_id":"levelo_inurba_marseille","lat":43.299724,"lon":5.371829,"is_reserved":false,"is_disabled":false,"rental_uris":{"android":"levelo://app?vid=7938fc2b-3a8a-4ffe-94ee-328ed28ba77b","ios":"levelo://app?vid=7938fc2b-3a8a-4ffe-94ee-328ed28ba77b"},"vehicle_type_id":"4","last_reported":1712779669,"current_range_meters":0,"station_id":"ce4bgr92rcd13ifvqc7g","pricing_plan_id":"cebpf4jnsgd1na2vs0mg"},{"bike_id":"2a7e3635-0cf3-4801-9ac3-fc644a575eea","system_id":"levelo_inurba_marseille","lat":43.310804,"lon":5.38359,"is_reserved":false,"is_disabled":false,"rental_uris":{"android":"levelo://app?vid=2a7e3635-0cf3-4801-9ac3-fc644a575eea","ios":"levelo://app?vid=2a7e3635-0cf3-4801-9ac3-fc644a575eea"},"vehicle_type_id":"4","last_reported":1712779669,"current_range_meters":10800,"station_id":"ce4bgv92rcd13ifvqcr0","pricing_plan_id":"cebpf4jnsgd1na2vs0mg"},{"bike_id":"fb07ecc0-9d5f-43bd-8d03-a8f68971b01a","system_id":"levelo_inurba_marseille","lat":43.298433,"lon":5.362774,"is_reserved":false,"is_disabled":false,"rental_uris":{"android":"levelo://app?vid=fb07ecc0-9d5f-43bd-8d03-a8f68971b01a","ios":"levelo://app?vid=fb07ecc0-9d5f-43bd-8d03-a8f68971b01a"},"vehicle_type_id":"4","last_reported":1712779669,"current_range_meters":0,"station_id":"ce4bgpp2rcd13ifvqc3g","pricing_plan_id":"cebpf4jnsgd1na2vs0mg"},{"bike_id":"7b9378ba-a27a-4ab9-b042-44d11e06de9d","system_id":"levelo_inurba_marseille","lat":43.299243,"lon":5.37481,"is_reserved":false,"is_disabled":false,"rental_uris":{"android":"levelo://app?vid=7b9378ba-a27a-4ab9-b042-44d11e06de9d","ios":"levelo://app?vid=7b9378ba-a27a-4ab9-b042-44d11e06de9d"},"vehicle_type_id":"4","last_reported":1712779669,"current_range_meters":2000,"station_id":"ce4bgjh2rcd13ifvqbg0","pricing_plan_id":"cebpf4jnsgd1na2vs0mg"},{"bike_id":"c567bfd5-5943-4d31-95d5-91269b53284f","system_id":"levelo_inurba_marseille","lat":43.305364,"lon":5.384119,"is_reserved":false,"is_disabled":false,"rental_uris":{"android":"levelo://app?vid=c567bfd5-5943-4d31-95d5-91269b53284f","ios":"levelo://app?vid=c567bfd5-5943-4d31-95d5-91269b53284f"},"vehicle_type_id":"4","last_reported":1712779669,"current_range_meters":11200,"station_id":"ce4bgg92rcd13ifvqb30","pricing_plan_id":"cebpf4jnsgd1na2vs0mg"},{"bike_id":"86b1da5e-1e3c-42c2-bc2d-c0854178a50b","system_id":"levelo_inurba_marseille","lat":43.311722,"lon":5.387247,"is_reserved":false,"is_disabled":false,"rental_uris":{"android":"levelo://app?vid=86b1da5e-1e3c-42c2-bc2d-c0854178a50b","ios":"levelo://app?vid=86b1da5e-1e3c-42c2-bc2d-c0854178a50b"},"vehicle_type_id":"4","last_reported":1712779669,"current_range_meters":17600,"station_id":"ce4bgv12rcd13ifvqcp0","pricing_plan_id":"cebpf4jnsgd1na2vs0mg"},{"bike_id":"b0a46bd7-c63b-4bc9-a197-0a7365627099","system_id":"levelo_inurba_marseille","lat":43.299222,"lon":5.365554,"is_reserved":false,"is_disabled":false,"rental_uris":{"android":"levelo://app?vid=b0a46bd7-c63b-4bc9-a197-0a7365627099","ios":"levelo://app?vid=b0a46bd7-c63b-4bc9-a197-0a7365627099"},"vehicle_type_id":"4","last_reported":1712779669,"current_range_meters":0,"station_id":"ce4bgm92rcd13ifvqbr0","pricing_plan_id":"cebpf4jnsgd1na2vs0mg"},{"bike_id":"3916d08e-b125-4305-9723-3380622e922c","system_id":"levelo_inurba_marseille","lat":43.299243,"lon":5.37481,"is_reserved":false,"is_disabled":false,"rental_uris":{"android":"levelo://app?vid=3916d08e-b125-4305-9723-3380622e922c","ios":"levelo://app?vid=3916d08e-b125-4305-9723-3380622e922c"},"vehicle_type_id":"4","last_reported":1712779669,"current_range_meters":1600,"station_id":"ce4bgjh2rcd13ifvqbg0","pricing_plan_id":"cebpf4jnsgd1na2vs0mg"},{"bike_id":"17f54113-84e7-44b5-8e28-65c1b2db6535","system_id":"levelo_inurba_marseille","lat":43.311722,"lon":5.387247,"is_reserved":false,"is_disabled":false,"rental_uris":{"android":"levelo://app?vid=17f54113-84e7-44b5-8e28-65c1b2db6535","ios":"levelo://app?vid=17f54113-84e7-44b5-8e28-65c1b2db6535"},"vehicle_type_id":"4","last_reported":1712779669,"current_range_meters":3200,"station_id":"ce4bgv12rcd13ifvqcp0","pricing_plan_id":"cebpf4jnsgd1na2vs0mg"},{"bike_id":"88424404-8c62-4216-8a94-63ed28fe2d07","system_id":"levelo_inurba_marseille","lat":43.311722,"lon":5.387247,"is_reserved":false,"is_disabled":false,"rental_uris":{"android":"levelo://app?vid=88424404-8c62-4216-8a94-63ed28fe2d07","ios":"levelo://app?vid=88424404-8c62-4216-8a94-63ed28fe2d07"},"vehicle_type_id":"4","last_reported":1712779669,"current_range_meters":0,"station_id":"ce4bgv12rcd13ifvqcp0","pricing_plan_id":"cebpf4jnsgd1na2vs0mg"},{"bike_id":"c7634fc7-a014-47fd-b732-507a579767db","system_id":"levelo_inurba_marseille","lat":43.311722,"lon":5.387247,"is_reserved":false,"is_disabled":false,"rental_uris":{"android":"levelo://app?vid=c7634fc7-a014-47fd-b732-507a579767db","ios":"levelo://app?vid=c7634fc7-a014-47fd-b732-507a579767db"},"vehicle_type_id":"4","last_reported":1712779669,"current_range_meters":31200,"station_id":"ce4bgv12rcd13ifvqcp0","pricing_plan_id":"cebpf4jnsgd1na2vs0mg"},{"bike_id":"bc03cd72-dcd2-42ab-bfda-6b73dff21799","system_id":"levelo_inurba_marseille","lat":43.312239,"lon":5.368562,"is_reserved":false,"is_disabled":false,"rental_uris":{"android":"levelo://app?vid=bc03cd72-dcd2-42ab-bfda-6b73dff21799","ios":"levelo://app?vid=bc03cd72-dcd2-42ab-bfda-6b73dff21799"},"vehicle_type_id":"4","last_reported":1712779669,"current_range_meters":2000,"station_id":"ce4bgl92rcd13ifvqbq0","pricing_plan_id":"cebpf4jnsgd1na2vs0mg"},{"bike_id":"55292ba1-89f2-4260-8810-b52dcf2f2b67","system_id":"levelo_inurba_marseille","lat":43.311125,"lon":5.377624,"is_reserved":false,"is_disabled":false,"rental_uris":{"android":"levelo://app?vid=55292ba1-89f2-4260-8810-b52dcf2f2b67","ios":"levelo://app?vid=55292ba1-89f2-4260-8810-b52dcf2f2b67"},"vehicle_type_id":"4","last_reported":1712779669,"current_range_meters":21600,"station_id":"ce4bgt92rcd13ifvqcg0","pricing_plan_id":"cebpf4jnsgd1na2vs0mg"},{"bike_id":"da329bea-5532-45bc-9096-322079ce094b","system_id":"levelo_inurba_marseille","lat":43.31166,"lon":5.38726,"is_reserved":false,"is_disabled":false,"rental_uris":{"android":"levelo://app?vid=da329bea-5532-45bc-9096-322079ce094b","ios":"levelo://app?vid=da329bea-5532-45bc-9096-322079ce094b"},"vehicle_type_id":"4","last_reported":1712779669,"current_range_meters":3600,"station_id":"ce4bgv12rcd13ifvqcp0","pricing_plan_id":"cebpf4jnsgd1na2vs0mg"},{"bike_id":"8a39d49b-da7a-4b80-a24d-a03d7e8ded7e","system_id":"levelo_inurba_marseille","lat":43.311722,"lon":5.387247,"is_reserved":false,"is_disabled":false,"rental_uris":{"android":"levelo://app?vid=8a39d49b-da7a-4b80-a24d-a03d7e8ded7e","ios":"levelo://app?vid=8a39d49b-da7a-4b80-a24d-a03d7e8ded7e"},"vehicle_type_id":"4","last_reported":1712779669,"current_range_meters":800,"station_id":"ce4bgv12rcd13ifvqcp0","pricing_plan_id":"cebpf4jnsgd1na2vs0mg"},{"bike_id":"2db2644b-fc45-43ab-b53f-d60512bc0d43","system_id":"levelo_inurba_marseille","lat":43.322926,"lon":5.382572,"is_reserved":false,"is_disabled":false,"rental_uris":{"android":"levelo://app?vid=2db2644b-fc45-43ab-b53f-d60512bc0d43","ios":"levelo://app?vid=2db2644b-fc45-43ab-b53f-d60512bc0d43"},"vehicle_type_id":"4","last_reported":1712779669,"current_range_meters":30800,"station_id":"ce4bhr12rcd13ifvqhqg","pricing_plan_id":"cebpf4jnsgd1na2vs0mg"},{"bike_id":"e4bc79db-39f7-4a0a-a5d0-c75beb928bbf","system_id":"levelo_inurba_marseille","lat":43.32291,"lon":5.38261,"is_reserved":false,"is_disabled":false,"rental_uris":{"android":"levelo://app?vid=e4bc79db-39f7-4a0a-a5d0-c75beb928bbf","ios":"levelo://app?vid=e4bc79db-39f7-4a0a-a5d0-c75beb928bbf"},"vehicle_type_id":"4","last_reported":1712779669,"current_range_meters":30000,"station_id":"ce4bhr12rcd13ifvqhqg","pricing_plan_id":"cebpf4jnsgd1na2vs0mg"},{"bike_id":"e5998518-0e1a-4bf4-95a8-01979c34124e","system_id":"levelo_inurba_marseille","lat":43.297774,"lon":5.370875,"is_reserved":false,"is_disabled":false,"rental_uris":{"android":"levelo://app?vid=e5998518-0e1a-4bf4-95a8-01979c34124e","ios":"levelo://app?vid=e5998518-0e1a-4bf4-95a8-01979c34124e"},"vehicle_type_id":"4","last_reported":1712779669,"current_range_meters":23600,"station_id":"ce4bgop2rcd13ifvqc1g","pricing_plan_id":"cebpf4jnsgd1na2vs0mg"},{"bike_id":"9bda79d3-93f7-41c5-8537-c7b5d8bf5b31","system_id":"levelo_inurba_marseille","lat":43.3229,"lon":5.382653,"is_reserved":false,"is_disabled":false,"rental_uris":{"android":"levelo://app?vid=9bda79d3-93f7-41c5-8537-c7b5d8bf5b31","ios":"levelo://app?vid=9bda79d3-93f7-41c5-8537-c7b5d8bf5b31"},"vehicle_type_id":"4","last_reported":1712779669,"current_range_meters":21600,"station_id":"ce4bhr12rcd13ifvqhqg","pricing_plan_id":"cebpf4jnsgd1na2vs0mg"},{"bike_id":"7c52fd0a-eaff-495f-bca7-bc007d5b8cdb","system_id":"levelo_inurba_marseille","lat":43.322872,"lon":5.382756,"is_reserved":false,"is_disabled":false,"rental_uris":{"android":"levelo://app?vid=7c52fd0a-eaff-495f-bca7-bc007d5b8cdb","ios":"levelo://app?vid=7c52fd0a-eaff-495f-bca7-bc007d5b8cdb"},"vehicle_type_id":"4","last_reported":1712779669,"current_range_meters":10400,"station_id":"ce4bhr12rcd13ifvqhqg","pricing_plan_id":"cebpf4jnsgd1na2vs0mg"},{"bike_id":"faa46ed1-9466-4a55-adfd-c5ccd993806f","system_id":"levelo_inurba_marseille","lat":43.322872,"lon":5.382756,"is_reserved":false,"is_disabled":false,"rental_uris":{"android":"levelo://app?vid=faa46ed1-9466-4a55-adfd-c5ccd993806f","ios":"levelo://app?vid=faa46ed1-9466-4a55-adfd-c5ccd993806f"},"vehicle_type_id":"4","last_reported":1712779669,"current_range_meters":0,"station_id":"ce4bhr12rcd13ifvqhqg","pricing_plan_id":"cebpf4jnsgd1na2vs0mg"},{"bike_id":"df83776a-bfc5-47e7-9b22-6f070ff90bc4","system_id":"levelo_inurba_marseille","lat":43.322872,"lon":5.382756,"is_reserved":false,"is_disabled":false,"rental_uris":{"android":"levelo://app?vid=df83776a-bfc5-47e7-9b22-6f070ff90bc4","ios":"levelo://app?vid=df83776a-bfc5-47e7-9b22-6f070ff90bc4"},"vehicle_type_id":"4","last_reported":1712779669,"current_range_meters":11200,"station_id":"ce4bhr12rcd13ifvqhqg","pricing_plan_id":"cebpf4jnsgd1na2vs0mg"},{"bike_id":"5bca900c-6f29-4ba1-af19-8e9ad3b2eb20","system_id":"levelo_inurba_marseille","lat":43.322872,"lon":5.382756,"is_reserved":false,"is_disabled":false,"rental_uris":{"android":"levelo://app?vid=5bca900c-6f29-4ba1-af19-8e9ad3b2eb20","ios":"levelo://app?vid=5bca900c-6f29-4ba1-af19-8e9ad3b2eb20"},"vehicle_type_id":"4","last_reported":1712779669,"current_range_meters":12000,"station_id":"ce4bhr12rcd13ifvqhqg","pricing_plan_id":"cebpf4jnsgd1na2vs0mg"},{"bike_id":"11ab4611-ad6f-46fd-9166-4a5cadbb251e","system_id":"levelo_inurba_marseille","lat":43.322872,"lon":5.382756,"is_reserved":false,"is_disabled":false,"rental_uris":{"android":"levelo://app?vid=11ab4611-ad6f-46fd-9166-4a5cadbb251e","ios":"levelo://app?vid=11ab4611-ad6f-46fd-9166-4a5cadbb251e"},"vehicle_type_id":"4","last_reported":1712779669,"current_range_meters":24000,"station_id":"ce4bhr12rcd13ifvqhqg","pricing_plan_id":"cebpf4jnsgd1na2vs0mg"},{"bike_id":"e0b728f5-f0e7-4276-89bb-134966b7be22","system_id":"levelo_inurba_marseille","lat":43.322872,"lon":5.382756,"is_reserved":false,"is_disabled":false,"rental_uris":{"android":"levelo://app?vid=e0b728f5-f0e7-4276-89bb-134966b7be22","ios":"levelo://app?vid=e0b728f5-f0e7-4276-89bb-134966b7be22"},"vehicle_type_id":"4","last_reported":1712779669,"current_range_meters":12800,"station_id":"ce4bhr12rcd13ifvqhqg","pricing_plan_id":"cebpf4jnsgd1na2vs0mg"},{"bike_id":"d4320a0a-a21d-4874-a3ca-40a16ce960bf","system_id":"levelo_inurba_marseille","lat":43.322872,"lon":5.382756,"is_reserved":false,"is_disabled":false,"rental_uris":{"android":"levelo://app?vid=d4320a0a-a21d-4874-a3ca-40a16ce960bf","ios":"levelo://app?vid=d4320a0a-a21d-4874-a3ca-40a16ce960bf"},"vehicle_type_id":"4","last_reported":1712779669,"current_range_meters":20000,"station_id":"ce4bhr12rcd13ifvqhqg","pricing_plan_id":"cebpf4jnsgd1na2vs0mg"},{"bike_id":"1eb4be2a-ed17-4680-bbb0-ebc6c4d92247","system_id":"levelo_inurba_marseille","lat":43.322872,"lon":5.382756,"is_reserved":false,"is_disabled":false,"rental_uris":{"android":"levelo://app?vid=1eb4be2a-ed17-4680-bbb0-ebc6c4d92247","ios":"levelo://app?vid=1eb4be2a-ed17-4680-bbb0-ebc6c4d92247"},"vehicle_type_id":"4","last_reported":1712779669,"current_range_meters":13200,"station_id":"ce4bhr12rcd13ifvqhqg","pricing_plan_id":"cebpf4jnsgd1na2vs0mg"},{"bike_id":"ece23af3-2672-4718-a730-e5385e6eeec5","system_id":"levelo_inurba_marseille","lat":43.322872,"lon":5.382756,"is_reserved":false,"is_disabled":false,"rental_uris":{"android":"levelo://app?vid=ece23af3-2672-4718-a730-e5385e6eeec5","ios":"levelo://app?vid=ece23af3-2672-4718-a730-e5385e6eeec5"},"vehicle_type_id":"4","last_reported":1712779669,"current_range_meters":6400,"station_id":"ce4bhr12rcd13ifvqhqg","pricing_plan_id":"cebpf4jnsgd1na2vs0mg"},{"bike_id":"519ddce8-57f2-44b8-81e0-dca489918d42","system_id":"levelo_inurba_marseille","lat":43.32291,"lon":5.38276,"is_reserved":false,"is_disabled":false,"rental_uris":{"android":"levelo://app?vid=519ddce8-57f2-44b8-81e0-dca489918d42","ios":"levelo://app?vid=519ddce8-57f2-44b8-81e0-dca489918d42"},"vehicle_type_id":"4","last_reported":1712779669,"current_range_meters":30400,"station_id":"ce4bhr12rcd13ifvqhqg","pricing_plan_id":"cebpf4jnsgd1na2vs0mg"},{"bike_id":"e3806fef-d512-46b9-be0d-b65e99ca7ae3","system_id":"levelo_inurba_marseille","lat":43.322872,"lon":5.382756,"is_reserved":false,"is_disabled":false,"rental_uris":{"android":"levelo://app?vid=e3806fef-d512-46b9-be0d-b65e99ca7ae3","ios":"levelo://app?vid=e3806fef-d512-46b9-be0d-b65e99ca7ae3"},"vehicle_type_id":"4","last_reported":1712779669,"current_range_meters":20000,"station_id":"ce4bhr12rcd13ifvqhqg","pricing_plan_id":"cebpf4jnsgd1na2vs0mg"},{"bike_id":"94a7f555-7980-43de-8cb8-fded75b492aa","system_id":"levelo_inurba_marseille","lat":43.322872,"lon":5.382756,"is_reserved":false,"is_disabled":false,"rental_uris":{"android":"levelo://app?vid=94a7f555-7980-43de-8cb8-fded75b492aa","ios":"levelo://app?vid=94a7f555-7980-43de-8cb8-fded75b492aa"},"vehicle_type_id":"4","last_reported":1712779669,"current_range_meters":11600,"station_id":"ce4bhr12rcd13ifvqhqg","pricing_plan_id":"cebpf4jnsgd1na2vs0mg"},{"bike_id":"0dc6f90d-28c9-42e2-935b-afe408f48899","system_id":"levelo_inurba_marseille","lat":43.31508,"lon":5.38795,"is_reserved":false,"is_disabled":false,"rental_uris":{"android":"levelo://app?vid=0dc6f90d-28c9-42e2-935b-afe408f48899","ios":"levelo://app?vid=0dc6f90d-28c9-42e2-935b-afe408f48899"},"vehicle_type_id":"4","last_reported":1712779669,"current_range_meters":0,"station_id":"","pricing_plan_id":"cebpf4jnsgd1na2vs0mg"},{"bike_id":"9abba15b-25a3-43d2-b285-8b6d0302a4e5","system_id":"levelo_inurba_marseille","lat":43.297163,"lon":5.365866,"is_reserved":false,"is_disabled":false,"rental_uris":{"android":"levelo://app?vid=9abba15b-25a3-43d2-b285-8b6d0302a4e5","ios":"levelo://app?vid=9abba15b-25a3-43d2-b285-8b6d0302a4e5"},"vehicle_type_id":"4","last_reported":1712779669,"current_range_meters":28800,"station_id":"ce4bgn12rcd13ifvqbt0","pricing_plan_id":"cebpf4jnsgd1na2vs0mg"},{"bike_id":"0a1e01ff-ae0a-4ac2-8fd4-234221efd548","system_id":"levelo_inurba_marseille","lat":43.297163,"lon":5.365866,"is_reserved":false,"is_disabled":false,"rental_uris":{"android":"levelo://app?vid=0a1e01ff-ae0a-4ac2-8fd4-234221efd548","ios":"levelo://app?vid=0a1e01ff-ae0a-4ac2-8fd4-234221efd548"},"vehicle_type_id":"4","last_reported":1712779669,"current_range_meters":9200,"station_id":"ce4bgn12rcd13ifvqbt0","pricing_plan_id":"cebpf4jnsgd1na2vs0mg"},{"bike_id":"b437af1a-cf2c-422c-a838-a2b236a8a86b","system_id":"levelo_inurba_marseille","lat":43.297163,"lon":5.365866,"is_reserved":false,"is_disabled":false,"rental_uris":{"android":"levelo://app?vid=b437af1a-cf2c-422c-a838-a2b236a8a86b","ios":"levelo://app?vid=b437af1a-cf2c-422c-a838-a2b236a8a86b"},"vehicle_type_id":"4","last_reported":1712779669,"current_range_meters":21600,"station_id":"ce4bgn12rcd13ifvqbt0","pricing_plan_id":"cebpf4jnsgd1na2vs0mg"},{"bike_id":"f654bd32-e75a-4d77-9ba6-24def1557a46","system_id":"levelo_inurba_marseille","lat":43.297163,"lon":5.365866,"is_reserved":false,"is_disabled":false,"rental_uris":{"android":"levelo://app?vid=f654bd32-e75a-4d77-9ba6-24def1557a46","ios":"levelo://app?vid=f654bd32-e75a-4d77-9ba6-24def1557a46"},"vehicle_type_id":"4","last_reported":1712779669,"current_range_meters":20000,"station_id":"ce4bgn12rcd13ifvqbt0","pricing_plan_id":"cebpf4jnsgd1na2vs0mg"},{"bike_id":"c834cf07-0f9c-45eb-91ed-beb74fca2430","system_id":"levelo_inurba_marseille","lat":43.29708,"lon":5.36602,"is_reserved":false,"is_disabled":false,"rental_uris":{"android":"levelo://app?vid=c834cf07-0f9c-45eb-91ed-beb74fca2430","ios":"levelo://app?vid=c834cf07-0f9c-45eb-91ed-beb74fca2430"},"vehicle_type_id":"4","last_reported":1712779669,"current_range_meters":0,"station_id":"ce4bgn12rcd13ifvqbt0","pricing_plan_id":"cebpf4jnsgd1na2vs0mg"},{"bike_id":"c9942ad8-6389-4170-b551-2e216ea68b51","system_id":"levelo_inurba_marseille","lat":43.30083,"lon":5.38093,"is_reserved":false,"is_disabled":false,"rental_uris":{"android":"levelo://app?vid=c9942ad8-6389-4170-b551-2e216ea68b51","ios":"levelo://app?vid=c9942ad8-6389-4170-b551-2e216ea68b51"},"vehicle_type_id":"4","last_reported":1712779669,"current_range_meters":16800,"station_id":"","pricing_plan_id":"cebpf4jnsgd1na2vs0mg"},{"bike_id":"c386b7bb-e3d2-4368-91fb-dd7af29dd126","system_id":"levelo_inurba_marseille","lat":43.297163,"lon":5.365866,"is_reserved":false,"is_disabled":false,"rental_uris":{"android":"levelo://app?vid=c386b7bb-e3d2-4368-91fb-dd7af29dd126","ios":"levelo://app?vid=c386b7bb-e3d2-4368-91fb-dd7af29dd126"},"vehicle_type_id":"4","last_reported":1712779669,"current_range_meters":19600,"station_id":"ce4bgn12rcd13ifvqbt0","pricing_plan_id":"cebpf4jnsgd1na2vs0mg"},{"bike_id":"96418c00-e9a7-4ef9-a3a0-d215391b6c05","system_id":"levelo_inurba_marseille","lat":43.297163,"lon":5.365866,"is_reserved":false,"is_disabled":false,"rental_uris":{"android":"levelo://app?vid=96418c00-e9a7-4ef9-a3a0-d215391b6c05","ios":"levelo://app?vid=96418c00-e9a7-4ef9-a3a0-d215391b6c05"},"vehicle_type_id":"4","last_reported":1712779669,"current_range_meters":16800,"station_id":"ce4bgn12rcd13ifvqbt0","pricing_plan_id":"cebpf4jnsgd1na2vs0mg"},{"bike_id":"1b1a37cc-e9a9-4fc3-bc5f-054769794d76","system_id":"levelo_inurba_marseille","lat":43.296131,"lon":5.370791,"is_reserved":false,"is_disabled":false,"rental_uris":{"android":"levelo://app?vid=1b1a37cc-e9a9-4fc3-bc5f-054769794d76","ios":"levelo://app?vid=1b1a37cc-e9a9-4fc3-bc5f-054769794d76"},"vehicle_type_id":"4","last_reported":1712779669,"current_range_meters":23200,"station_id":"ce4bgnh2rcd13ifvqc0g","pricing_plan_id":"cebpf4jnsgd1na2vs0mg"},{"bike_id":"62fe8a4c-56a7-4a94-a51c-f2b1817a363e","system_id":"levelo_inurba_marseille","lat":43.28573,"lon":5.394992,"is_reserved":false,"is_disabled":false,"rental_uris":{"android":"levelo://app?vid=62fe8a4c-56a7-4a94-a51c-f2b1817a363e","ios":"levelo://app?vid=62fe8a4c-56a7-4a94-a51c-f2b1817a363e"},"vehicle_type_id":"4","last_reported":1712779669,"current_range_meters":3200,"station_id":"ce4bh292rcd13ifvqdg0","pricing_plan_id":"cebpf4jnsgd1na2vs0mg"},{"bike_id":"52c40d63-3d91-4a96-a8be-9162af2b56a8","system_id":"levelo_inurba_marseille","lat":43.29573,"lon":5.367355,"is_reserved":false,"is_disabled":false,"rental_uris":{"android":"levelo://app?vid=52c40d63-3d91-4a96-a8be-9162af2b56a8","ios":"levelo://app?vid=52c40d63-3d91-4a96-a8be-9162af2b56a8"},"vehicle_type_id":"4","last_reported":1712779669,"current_range_meters":16400,"station_id":"ce4bgph2rcd13ifvqc2g","pricing_plan_id":"cebpf4jnsgd1na2vs0mg"},{"bike_id":"85501e11-41e0-4c72-8ca6-85b0ec87d40d","system_id":"levelo_inurba_marseille","lat":43.29573,"lon":5.367355,"is_reserved":false,"is_disabled":false,"rental_uris":{"android":"levelo://app?vid=85501e11-41e0-4c72-8ca6-85b0ec87d40d","ios":"levelo://app?vid=85501e11-41e0-4c72-8ca6-85b0ec87d40d"},"vehicle_type_id":"4","last_reported":1712779669,"current_range_meters":2800,"station_id":"ce4bgph2rcd13ifvqc2g","pricing_plan_id":"cebpf4jnsgd1na2vs0mg"},{"bike_id":"72363a6a-a06a-4415-883f-d74c3cc1a37e","system_id":"levelo_inurba_marseille","lat":43.29573,"lon":5.367355,"is_reserved":false,"is_disabled":false,"rental_uris":{"android":"levelo://app?vid=72363a6a-a06a-4415-883f-d74c3cc1a37e","ios":"levelo://app?vid=72363a6a-a06a-4415-883f-d74c3cc1a37e"},"vehicle_type_id":"4","last_reported":1712779669,"current_range_meters":7600,"station_id":"ce4bgph2rcd13ifvqc2g","pricing_plan_id":"cebpf4jnsgd1na2vs0mg"},{"bike_id":"df88cdbb-8cd3-4ebe-85c6-459ca9eee2c3","system_id":"levelo_inurba_marseille","lat":43.299028,"lon":5.381509,"is_reserved":false,"is_disabled":false,"rental_uris":{"android":"levelo://app?vid=df88cdbb-8cd3-4ebe-85c6-459ca9eee2c3","ios":"levelo://app?vid=df88cdbb-8cd3-4ebe-85c6-459ca9eee2c3"},"vehicle_type_id":"4","last_reported":1712779669,"current_range_meters":2000,"station_id":"ce4bgj12rcd13ifvqbc0","pricing_plan_id":"cebpf4jnsgd1na2vs0mg"},{"bike_id":"f53fadfa-1397-41cb-a063-befe09a84164","system_id":"levelo_inurba_marseille","lat":43.302008,"lon":5.394694,"is_reserved":false,"is_disabled":false,"rental_uris":{"android":"levelo://app?vid=f53fadfa-1397-41cb-a063-befe09a84164","ios":"levelo://app?vid=f53fadfa-1397-41cb-a063-befe09a84164"},"vehicle_type_id":"4","last_reported":1712779669,"current_range_meters":12400,"station_id":"ce4bh0p2rcd13ifvqd70","pricing_plan_id":"cebpf4jnsgd1na2vs0mg"},{"bike_id":"15110712-c2e1-414b-ae4c-ce04bf0dad12","system_id":"levelo_inurba_marseille","lat":43.2991,"lon":5.3815,"is_reserved":false,"is_disabled":false,"rental_uris":{"android":"levelo://app?vid=15110712-c2e1-414b-ae4c-ce04bf0dad12","ios":"levelo://app?vid=15110712-c2e1-414b-ae4c-ce04bf0dad12"},"vehicle_type_id":"4","last_reported":1712779669,"current_range_meters":12000,"station_id":"ce4bgi12rcd13ifvqb70","pricing_plan_id":"cebpf4jnsgd1na2vs0mg"},{"bike_id":"18f65bd0-01de-479d-802e-a17fba1fa293","system_id":"levelo_inurba_marseille","lat":43.2968,"lon":5.37291,"is_reserved":false,"is_disabled":false,"rental_uris":{"android":"levelo://app?vid=18f65bd0-01de-479d-802e-a17fba1fa293","ios":"levelo://app?vid=18f65bd0-01de-479d-802e-a17fba1fa293"},"vehicle_type_id":"4","last_reported":1712779669,"current_range_meters":29600,"station_id":"ce4bgk12rcd13ifvqbj0","pricing_plan_id":"cebpf4jnsgd1na2vs0mg"},{"bike_id":"3d40a90f-de14-40f4-b43e-0606569923d0","system_id":"levelo_inurba_marseille","lat":43.31755,"lon":5.39013,"is_reserved":false,"is_disabled":false,"rental_uris":{"android":"levelo://app?vid=3d40a90f-de14-40f4-b43e-0606569923d0","ios":"levelo://app?vid=3d40a90f-de14-40f4-b43e-0606569923d0"},"vehicle_type_id":"4","last_reported":1712779669,"current_range_meters":7600,"station_id":"ce4bhqp2rcd13ifvqhng","pricing_plan_id":"cebpf4jnsgd1na2vs0mg"},{"bike_id":"fc7326d3-529b-4789-b58e-d93c050ef3a7","system_id":"levelo_inurba_marseille","lat":43.31752,"lon":5.39015,"is_reserved":false,"is_disabled":false,"rental_uris":{"android":"levelo://app?vid=fc7326d3-529b-4789-b58e-d93c050ef3a7","ios":"levelo://app?vid=fc7326d3-529b-4789-b58e-d93c050ef3a7"},"vehicle_type_id":"4","last_reported":1712779669,"current_range_meters":5600,"station_id":"ce4bhqp2rcd13ifvqhng","pricing_plan_id":"cebpf4jnsgd1na2vs0mg"},{"bike_id":"c9105a13-c2a3-41ba-a82b-a708d7649265","system_id":"levelo_inurba_marseille","lat":43.31757,"lon":5.39014,"is_reserved":false,"is_disabled":false,"rental_uris":{"android":"levelo://app?vid=c9105a13-c2a3-41ba-a82b-a708d7649265","ios":"levelo://app?vid=c9105a13-c2a3-41ba-a82b-a708d7649265"},"vehicle_type_id":"4","last_reported":1712779669,"current_range_meters":800,"station_id":"ce4bhqp2rcd13ifvqhng","pricing_plan_id":"cebpf4jnsgd1na2vs0mg"},{"bike_id":"fc38a161-7886-47f3-a901-6c388649b31e","system_id":"levelo_inurba_marseille","lat":43.317557,"lon":5.390173,"is_reserved":false,"is_disabled":false,"rental_uris":{"android":"levelo://app?vid=fc38a161-7886-47f3-a901-6c388649b31e","ios":"levelo://app?vid=fc38a161-7886-47f3-a901-6c388649b31e"},"vehicle_type_id":"4","last_reported":1712779669,"current_range_meters":31200,"station_id":"ce4bhqp2rcd13ifvqhng","pricing_plan_id":"cebpf4jnsgd1na2vs0mg"},{"bike_id":"f2cf6366-fa3d-46aa-a25c-8c6fa905dc27","system_id":"levelo_inurba_marseille","lat":43.304274,"lon":5.388873,"is_reserved":false,"is_disabled":false,"rental_uris":{"android":"levelo://app?vid=f2cf6366-fa3d-46aa-a25c-8c6fa905dc27","ios":"levelo://app?vid=f2cf6366-fa3d-46aa-a25c-8c6fa905dc27"},"vehicle_type_id":"4","last_reported":1712779669,"current_range_meters":13600,"station_id":"ce4bgk12rcd13ifvqbi0","pricing_plan_id":"cebpf4jnsgd1na2vs0mg"},{"bike_id":"f189ab7b-c8a7-4e25-9046-7d8100dee1d6","system_id":"levelo_inurba_marseille","lat":43.28856,"lon":5.358371,"is_reserved":false,"is_disabled":false,"rental_uris":{"android":"levelo://app?vid=f189ab7b-c8a7-4e25-9046-7d8100dee1d6","ios":"levelo://app?vid=f189ab7b-c8a7-4e25-9046-7d8100dee1d6"},"vehicle_type_id":"4","last_reported":1712779669,"current_range_meters":4000,"station_id":"ce4bhb12rcd13ifvqem0","pricing_plan_id":"cebpf4jnsgd1na2vs0mg"},{"bike_id":"852a254a-32b3-44c2-993d-648e8c1252fb","system_id":"levelo_inurba_marseille","lat":43.296129,"lon":5.370777,"is_reserved":false,"is_disabled":false,"rental_uris":{"android":"levelo://app?vid=852a254a-32b3-44c2-993d-648e8c1252fb","ios":"levelo://app?vid=852a254a-32b3-44c2-993d-648e8c1252fb"},"vehicle_type_id":"4","last_reported":1712779669,"current_range_meters":26400,"station_id":"ce4bgnh2rcd13ifvqc0g","pricing_plan_id":"cebpf4jnsgd1na2vs0mg"},{"bike_id":"a1f525ca-b14a-425b-bc43-890c9d24001b","system_id":"levelo_inurba_marseille","lat":43.304274,"lon":5.388873,"is_reserved":false,"is_disabled":false,"rental_uris":{"android":"levelo://app?vid=a1f525ca-b14a-425b-bc43-890c9d24001b","ios":"levelo://app?vid=a1f525ca-b14a-425b-bc43-890c9d24001b"},"vehicle_type_id":"4","last_reported":1712779669,"current_range_meters":12000,"station_id":"ce4bgk12rcd13ifvqbi0","pricing_plan_id":"cebpf4jnsgd1na2vs0mg"},{"bike_id":"0539430b-b4bd-4044-bc2a-233f7cf39085","system_id":"levelo_inurba_marseille","lat":43.304274,"lon":5.388873,"is_reserved":false,"is_disabled":false,"rental_uris":{"android":"levelo://app?vid=0539430b-b4bd-4044-bc2a-233f7cf39085","ios":"levelo://app?vid=0539430b-b4bd-4044-bc2a-233f7cf39085"},"vehicle_type_id":"4","last_reported":1712779669,"current_range_meters":25200,"station_id":"ce4bgk12rcd13ifvqbi0","pricing_plan_id":"cebpf4jnsgd1na2vs0mg"},{"bike_id":"e840262f-a69e-4d59-a54b-f67158db6753","system_id":"levelo_inurba_marseille","lat":43.298037,"lon":5.381066,"is_reserved":false,"is_disabled":false,"rental_uris":{"android":"levelo://app?vid=e840262f-a69e-4d59-a54b-f67158db6753","ios":"levelo://app?vid=e840262f-a69e-4d59-a54b-f67158db6753"},"vehicle_type_id":"4","last_reported":1712779669,"current_range_meters":25200,"station_id":"ce4bgip2rcd13ifvqbb0","pricing_plan_id":"cebpf4jnsgd1na2vs0mg"},{"bike_id":"640d76bc-7561-4ad3-a5c2-1a47ebfa340a","system_id":"levelo_inurba_marseille","lat":43.304274,"lon":5.388873,"is_reserved":false,"is_disabled":false,"rental_uris":{"android":"levelo://app?vid=640d76bc-7561-4ad3-a5c2-1a47ebfa340a","ios":"levelo://app?vid=640d76bc-7561-4ad3-a5c2-1a47ebfa340a"},"vehicle_type_id":"4","last_reported":1712779669,"current_range_meters":2000,"station_id":"ce4bgk12rcd13ifvqbi0","pricing_plan_id":"cebpf4jnsgd1na2vs0mg"},{"bike_id":"28978b07-9166-41c2-9d9c-423cec1c5ce1","system_id":"levelo_inurba_marseille","lat":43.304274,"lon":5.388873,"is_reserved":false,"is_disabled":false,"rental_uris":{"android":"levelo://app?vid=28978b07-9166-41c2-9d9c-423cec1c5ce1","ios":"levelo://app?vid=28978b07-9166-41c2-9d9c-423cec1c5ce1"},"vehicle_type_id":"4","last_reported":1712779669,"current_range_meters":10000,"station_id":"ce4bgk12rcd13ifvqbi0","pricing_plan_id":"cebpf4jnsgd1na2vs0mg"},{"bike_id":"94dc4416-f1b2-48f5-b181-7240901c30e9","system_id":"levelo_inurba_marseille","lat":43.295748,"lon":5.37522,"is_reserved":false,"is_disabled":false,"rental_uris":{"android":"levelo://app?vid=94dc4416-f1b2-48f5-b181-7240901c30e9","ios":"levelo://app?vid=94dc4416-f1b2-48f5-b181-7240901c30e9"},"vehicle_type_id":"4","last_reported":1712779669,"current_range_meters":20400,"station_id":"ce4bgh92rcd13ifvqb50","pricing_plan_id":"cebpf4jnsgd1na2vs0mg"},{"bike_id":"f7fa5170-1d36-4128-b244-0735d74b952d","system_id":"levelo_inurba_marseille","lat":43.29622,"lon":5.37715,"is_reserved":false,"is_disabled":false,"rental_uris":{"android":"levelo://app?vid=f7fa5170-1d36-4128-b244-0735d74b952d","ios":"levelo://app?vid=f7fa5170-1d36-4128-b244-0735d74b952d"},"vehicle_type_id":"4","last_reported":1712779669,"current_range_meters":0,"station_id":"ce4bgi92rcd13ifvqb90","pricing_plan_id":"cebpf4jnsgd1na2vs0mg"},{"bike_id":"a6551802-0ebc-4c80-aeae-306269919864","system_id":"levelo_inurba_marseille","lat":43.295748,"lon":5.37522,"is_reserved":false,"is_disabled":false,"rental_uris":{"android":"levelo://app?vid=a6551802-0ebc-4c80-aeae-306269919864","ios":"levelo://app?vid=a6551802-0ebc-4c80-aeae-306269919864"},"vehicle_type_id":"4","last_reported":1712779669,"current_range_meters":3200,"station_id":"ce4bgh92rcd13ifvqb50","pricing_plan_id":"cebpf4jnsgd1na2vs0mg"},{"bike_id":"90c8b232-10b1-44fe-8dad-b3bad19c4a5d","system_id":"levelo_inurba_marseille","lat":43.298037,"lon":5.381066,"is_reserved":false,"is_disabled":false,"rental_uris":{"android":"levelo://app?vid=90c8b232-10b1-44fe-8dad-b3bad19c4a5d","ios":"levelo://app?vid=90c8b232-10b1-44fe-8dad-b3bad19c4a5d"},"vehicle_type_id":"4","last_reported":1712779669,"current_range_meters":5600,"station_id":"ce4bgip2rcd13ifvqbb0","pricing_plan_id":"cebpf4jnsgd1na2vs0mg"},{"bike_id":"f110a147-dfa8-4d26-ac30-26d2a757ba76","system_id":"levelo_inurba_marseille","lat":43.29525,"lon":5.37501,"is_reserved":false,"is_disabled":false,"rental_uris":{"android":"levelo://app?vid=f110a147-dfa8-4d26-ac30-26d2a757ba76","ios":"levelo://app?vid=f110a147-dfa8-4d26-ac30-26d2a757ba76"},"vehicle_type_id":"4","last_reported":1712779669,"current_range_meters":1200,"station_id":"","pricing_plan_id":"cebpf4jnsgd1na2vs0mg"},{"bike_id":"e028d82f-539a-4204-bf67-a4e5854a2671","system_id":"levelo_inurba_marseille","lat":43.295231,"lon":5.374992,"is_reserved":false,"is_disabled":false,"rental_uris":{"android":"levelo://app?vid=e028d82f-539a-4204-bf67-a4e5854a2671","ios":"levelo://app?vid=e028d82f-539a-4204-bf67-a4e5854a2671"},"vehicle_type_id":"4","last_reported":1712779669,"current_range_meters":29600,"station_id":"","pricing_plan_id":"cebpf4jnsgd1na2vs0mg"},{"bike_id":"d613f325-e950-4330-9d5d-76b0c1e10a03","system_id":"levelo_inurba_marseille","lat":43.292644,"lon":5.384257,"is_reserved":false,"is_disabled":false,"rental_uris":{"android":"levelo://app?vid=d613f325-e950-4330-9d5d-76b0c1e10a03","ios":"levelo://app?vid=d613f325-e950-4330-9d5d-76b0c1e10a03"},"vehicle_type_id":"4","last_reported":1712779669,"current_range_meters":0,"station_id":"ce4bh692rcd13ifvqea0","pricing_plan_id":"cebpf4jnsgd1na2vs0mg"},{"bike_id":"0d89e3e9-0433-4eef-b084-c6ee9d8dadfb","system_id":"levelo_inurba_marseille","lat":43.299724,"lon":5.384848,"is_reserved":false,"is_disabled":false,"rental_uris":{"android":"levelo://app?vid=0d89e3e9-0433-4eef-b084-c6ee9d8dadfb","ios":"levelo://app?vid=0d89e3e9-0433-4eef-b084-c6ee9d8dadfb"},"vehicle_type_id":"4","last_reported":1712779669,"current_range_meters":24800,"station_id":"ce4bgj92rcd13ifvqbd0","pricing_plan_id":"cebpf4jnsgd1na2vs0mg"},{"bike_id":"49cad3ea-7647-451c-9bd6-01f60280bb11","system_id":"levelo_inurba_marseille","lat":43.299724,"lon":5.384848,"is_reserved":false,"is_disabled":false,"rental_uris":{"android":"levelo://app?vid=49cad3ea-7647-451c-9bd6-01f60280bb11","ios":"levelo://app?vid=49cad3ea-7647-451c-9bd6-01f60280bb11"},"vehicle_type_id":"4","last_reported":1712779669,"current_range_meters":17600,"station_id":"ce4bgj92rcd13ifvqbd0","pricing_plan_id":"cebpf4jnsgd1na2vs0mg"},{"bike_id":"a95d9c63-ee54-4f29-a2fa-e69c1350fc99","system_id":"levelo_inurba_marseille","lat":43.304274,"lon":5.388873,"is_reserved":false,"is_disabled":false,"rental_uris":{"android":"levelo://app?vid=a95d9c63-ee54-4f29-a2fa-e69c1350fc99","ios":"levelo://app?vid=a95d9c63-ee54-4f29-a2fa-e69c1350fc99"},"vehicle_type_id":"4","last_reported":1712779669,"current_range_meters":4800,"station_id":"ce4bgk12rcd13ifvqbi0","pricing_plan_id":"cebpf4jnsgd1na2vs0mg"},{"bike_id":"ba95910c-c11a-4da1-bd90-7693808462d6","system_id":"levelo_inurba_marseille","lat":43.314493,"lon":5.392893,"is_reserved":false,"is_disabled":false,"rental_uris":{"android":"levelo://app?vid=ba95910c-c11a-4da1-bd90-7693808462d6","ios":"levelo://app?vid=ba95910c-c11a-4da1-bd90-7693808462d6"},"vehicle_type_id":"4","last_reported":1712779669,"current_range_meters":23600,"station_id":"","pricing_plan_id":"cebpf4jnsgd1na2vs0mg"},{"bike_id":"c7eabae1-6ffd-42a4-89eb-842d821fb40f","system_id":"levelo_inurba_marseille","lat":43.29602,"lon":5.381084,"is_reserved":false,"is_disabled":false,"rental_uris":{"android":"levelo://app?vid=c7eabae1-6ffd-42a4-89eb-842d821fb40f","ios":"levelo://app?vid=c7eabae1-6ffd-42a4-89eb-842d821fb40f"},"vehicle_type_id":"4","last_reported":1712779669,"current_range_meters":12400,"station_id":"ce4bgl12rcd13ifvqbo0","pricing_plan_id":"cebpf4jnsgd1na2vs0mg"},{"bike_id":"862c5896-8368-4171-95dd-4118bf2daf83","system_id":"levelo_inurba_marseille","lat":43.29601,"lon":5.381084,"is_reserved":false,"is_disabled":false,"rental_uris":{"android":"levelo://app?vid=862c5896-8368-4171-95dd-4118bf2daf83","ios":"levelo://app?vid=862c5896-8368-4171-95dd-4118bf2daf83"},"vehicle_type_id":"4","last_reported":1712779669,"current_range_meters":17600,"station_id":"ce4bgl12rcd13ifvqbo0","pricing_plan_id":"cebpf4jnsgd1na2vs0mg"},{"bike_id":"fce2fa20-df88-4c44-9254-695d94400129","system_id":"levelo_inurba_marseille","lat":43.29602,"lon":5.381084,"is_reserved":false,"is_disabled":false,"rental_uris":{"android":"levelo://app?vid=fce2fa20-df88-4c44-9254-695d94400129","ios":"levelo://app?vid=fce2fa20-df88-4c44-9254-695d94400129"},"vehicle_type_id":"4","last_reported":1712779669,"current_range_meters":26400,"station_id":"ce4bgl12rcd13ifvqbo0","pricing_plan_id":"cebpf4jnsgd1na2vs0mg"},{"bike_id":"b2939ebe-389b-465c-8366-72e0f70f95b5","system_id":"levelo_inurba_marseille","lat":43.29602,"lon":5.381084,"is_reserved":false,"is_disabled":false,"rental_uris":{"android":"levelo://app?vid=b2939ebe-389b-465c-8366-72e0f70f95b5","ios":"levelo://app?vid=b2939ebe-389b-465c-8366-72e0f70f95b5"},"vehicle_type_id":"4","last_reported":1712779669,"current_range_meters":14000,"station_id":"ce4bgl12rcd13ifvqbo0","pricing_plan_id":"cebpf4jnsgd1na2vs0mg"},{"bike_id":"5221e4a5-87b3-4ad6-909a-4194fd23b024","system_id":"levelo_inurba_marseille","lat":43.29602,"lon":5.381084,"is_reserved":false,"is_disabled":false,"rental_uris":{"android":"levelo://app?vid=5221e4a5-87b3-4ad6-909a-4194fd23b024","ios":"levelo://app?vid=5221e4a5-87b3-4ad6-909a-4194fd23b024"},"vehicle_type_id":"4","last_reported":1712779669,"current_range_meters":9600,"station_id":"ce4bgl12rcd13ifvqbo0","pricing_plan_id":"cebpf4jnsgd1na2vs0mg"},{"bike_id":"fed3166d-85ce-4399-9c56-dc0d4cb16d7e","system_id":"levelo_inurba_marseille","lat":43.29599,"lon":5.38111,"is_reserved":false,"is_disabled":false,"rental_uris":{"android":"levelo://app?vid=fed3166d-85ce-4399-9c56-dc0d4cb16d7e","ios":"levelo://app?vid=fed3166d-85ce-4399-9c56-dc0d4cb16d7e"},"vehicle_type_id":"4","last_reported":1712779669,"current_range_meters":0,"station_id":"ce4bgl12rcd13ifvqbo0","pricing_plan_id":"cebpf4jnsgd1na2vs0mg"},{"bike_id":"04c5e448-4366-44f9-86db-22a2333ee068","system_id":"levelo_inurba_marseille","lat":43.29602,"lon":5.381084,"is_reserved":false,"is_disabled":false,"rental_uris":{"android":"levelo://app?vid=04c5e448-4366-44f9-86db-22a2333ee068","ios":"levelo://app?vid=04c5e448-4366-44f9-86db-22a2333ee068"},"vehicle_type_id":"4","last_reported":1712779669,"current_range_meters":13200,"station_id":"ce4bgl12rcd13ifvqbo0","pricing_plan_id":"cebpf4jnsgd1na2vs0mg"},{"bike_id":"1ccf285c-7de8-4cf5-8246-878d417af9bb","system_id":"levelo_inurba_marseille","lat":43.29312,"lon":5.37176,"is_reserved":false,"is_disabled":false,"rental_uris":{"android":"levelo://app?vid=1ccf285c-7de8-4cf5-8246-878d417af9bb","ios":"levelo://app?vid=1ccf285c-7de8-4cf5-8246-878d417af9bb"},"vehicle_type_id":"4","last_reported":1712779669,"current_range_meters":2400,"station_id":"ce4bgh92rcd13ifvqb40","pricing_plan_id":"cebpf4jnsgd1na2vs0mg"},{"bike_id":"02af105d-8452-44c3-81df-4dc341e8ede6","system_id":"levelo_inurba_marseille","lat":43.29312,"lon":5.37183,"is_reserved":false,"is_disabled":false,"rental_uris":{"android":"levelo://app?vid=02af105d-8452-44c3-81df-4dc341e8ede6","ios":"levelo://app?vid=02af105d-8452-44c3-81df-4dc341e8ede6"},"vehicle_type_id":"4","last_reported":1712779669,"current_range_meters":3600,"station_id":"ce4bgh92rcd13ifvqb40","pricing_plan_id":"cebpf4jnsgd1na2vs0mg"},{"bike_id":"5d0a0ce9-611d-4f71-842e-df911aae4de1","system_id":"levelo_inurba_marseille","lat":43.29312,"lon":5.37184,"is_reserved":false,"is_disabled":false,"rental_uris":{"android":"levelo://app?vid=5d0a0ce9-611d-4f71-842e-df911aae4de1","ios":"levelo://app?vid=5d0a0ce9-611d-4f71-842e-df911aae4de1"},"vehicle_type_id":"4","last_reported":1712779669,"current_range_meters":0,"station_id":"ce4bgh92rcd13ifvqb40","pricing_plan_id":"cebpf4jnsgd1na2vs0mg"},{"bike_id":"358baad7-b1d9-4d86-a453-af2b98be0c08","system_id":"levelo_inurba_marseille","lat":43.293259,"lon":5.371586,"is_reserved":false,"is_disabled":false,"rental_uris":{"android":"levelo://app?vid=358baad7-b1d9-4d86-a453-af2b98be0c08","ios":"levelo://app?vid=358baad7-b1d9-4d86-a453-af2b98be0c08"},"vehicle_type_id":"4","last_reported":1712779669,"current_range_meters":17600,"station_id":"ce4bgh92rcd13ifvqb40","pricing_plan_id":"cebpf4jnsgd1na2vs0mg"},{"bike_id":"222d17c5-6ee7-4dfb-88be-de4c610b7761","system_id":"levelo_inurba_marseille","lat":43.29306,"lon":5.37173,"is_reserved":false,"is_disabled":false,"rental_uris":{"android":"levelo://app?vid=222d17c5-6ee7-4dfb-88be-de4c610b7761","ios":"levelo://app?vid=222d17c5-6ee7-4dfb-88be-de4c610b7761"},"vehicle_type_id":"4","last_reported":1712779669,"current_range_meters":0,"station_id":"ce4bgh92rcd13ifvqb40","pricing_plan_id":"cebpf4jnsgd1na2vs0mg"},{"bike_id":"e3aefb0f-bfc6-4225-9de9-e6a158c42367","system_id":"levelo_inurba_marseille","lat":43.292749,"lon":5.368402,"is_reserved":false,"is_disabled":false,"rental_uris":{"android":"levelo://app?vid=e3aefb0f-bfc6-4225-9de9-e6a158c42367","ios":"levelo://app?vid=e3aefb0f-bfc6-4225-9de9-e6a158c42367"},"vehicle_type_id":"4","last_reported":1712779669,"current_range_meters":16400,"station_id":"ce4bhbp2rcd13ifvqesg","pricing_plan_id":"cebpf4jnsgd1na2vs0mg"},{"bike_id":"d8dbd629-d7fb-4ccf-9b05-d818419078d3","system_id":"levelo_inurba_marseille","lat":43.292749,"lon":5.368402,"is_reserved":false,"is_disabled":false,"rental_uris":{"android":"levelo://app?vid=d8dbd629-d7fb-4ccf-9b05-d818419078d3","ios":"levelo://app?vid=d8dbd629-d7fb-4ccf-9b05-d818419078d3"},"vehicle_type_id":"4","last_reported":1712779669,"current_range_meters":0,"station_id":"ce4bhbp2rcd13ifvqesg","pricing_plan_id":"cebpf4jnsgd1na2vs0mg"},{"bike_id":"0fb02792-84c7-480e-8aaf-43cff0179283","system_id":"levelo_inurba_marseille","lat":43.293061,"lon":5.371878,"is_reserved":false,"is_disabled":false,"rental_uris":{"android":"levelo://app?vid=0fb02792-84c7-480e-8aaf-43cff0179283","ios":"levelo://app?vid=0fb02792-84c7-480e-8aaf-43cff0179283"},"vehicle_type_id":"4","last_reported":1712779669,"current_range_meters":1200,"station_id":"ce4bgh92rcd13ifvqb40","pricing_plan_id":"cebpf4jnsgd1na2vs0mg"},{"bike_id":"31bae073-f2e9-4115-99ae-36c7a851306b","system_id":"levelo_inurba_marseille","lat":43.29301,"lon":5.37173,"is_reserved":false,"is_disabled":false,"rental_uris":{"android":"levelo://app?vid=31bae073-f2e9-4115-99ae-36c7a851306b","ios":"levelo://app?vid=31bae073-f2e9-4115-99ae-36c7a851306b"},"vehicle_type_id":"4","last_reported":1712779669,"current_range_meters":21200,"station_id":"ce4bgh92rcd13ifvqb40","pricing_plan_id":"cebpf4jnsgd1na2vs0mg"},{"bike_id":"5cfe6278-1034-45a5-b462-ec08fe3a241c","system_id":"levelo_inurba_marseille","lat":43.295447,"lon":5.38145,"is_reserved":false,"is_disabled":false,"rental_uris":{"android":"levelo://app?vid=5cfe6278-1034-45a5-b462-ec08fe3a241c","ios":"levelo://app?vid=5cfe6278-1034-45a5-b462-ec08fe3a241c"},"vehicle_type_id":"4","last_reported":1712779669,"current_range_meters":4000,"station_id":"","pricing_plan_id":"cebpf4jnsgd1na2vs0mg"},{"bike_id":"b1c0e98d-f6f2-4095-a1f4-fd2bd50257f5","system_id":"levelo_inurba_marseille","lat":43.30597,"lon":5.39323,"is_reserved":false,"is_disabled":false,"rental_uris":{"android":"levelo://app?vid=b1c0e98d-f6f2-4095-a1f4-fd2bd50257f5","ios":"levelo://app?vid=b1c0e98d-f6f2-4095-a1f4-fd2bd50257f5"},"vehicle_type_id":"4","last_reported":1712779669,"current_range_meters":400,"station_id":"ce4bh0p2rcd13ifvqd80","pricing_plan_id":"cebpf4jnsgd1na2vs0mg"},{"bike_id":"2e9987db-0789-46a2-a16f-046a4f39674c","system_id":"levelo_inurba_marseille","lat":43.29309,"lon":5.374613,"is_reserved":false,"is_disabled":false,"rental_uris":{"android":"levelo://app?vid=2e9987db-0789-46a2-a16f-046a4f39674c","ios":"levelo://app?vid=2e9987db-0789-46a2-a16f-046a4f39674c"},"vehicle_type_id":"4","last_reported":1712779669,"current_range_meters":31200,"station_id":"ce4bgi12rcd13ifvqb70","pricing_plan_id":"cebpf4jnsgd1na2vs0mg"},{"bike_id":"c9cf1a9a-1308-4703-8d96-1f9be10e9d5c","system_id":"levelo_inurba_marseille","lat":43.305994,"lon":5.393687,"is_reserved":false,"is_disabled":false,"rental_uris":{"android":"levelo://app?vid=c9cf1a9a-1308-4703-8d96-1f9be10e9d5c","ios":"levelo://app?vid=c9cf1a9a-1308-4703-8d96-1f9be10e9d5c"},"vehicle_type_id":"4","last_reported":1712779669,"current_range_meters":17600,"station_id":"ce4bh0p2rcd13ifvqd80","pricing_plan_id":"cebpf4jnsgd1na2vs0mg"},{"bike_id":"951699dd-683d-4d0b-9942-995cc7695cc7","system_id":"levelo_inurba_marseille","lat":43.29309,"lon":5.37468,"is_reserved":false,"is_disabled":false,"rental_uris":{"android":"levelo://app?vid=951699dd-683d-4d0b-9942-995cc7695cc7","ios":"levelo://app?vid=951699dd-683d-4d0b-9942-995cc7695cc7"},"vehicle_type_id":"4","last_reported":1712779669,"current_range_meters":11200,"station_id":"ce4bgi12rcd13ifvqb70","pricing_plan_id":"cebpf4jnsgd1na2vs0mg"},{"bike_id":"5a5bec3c-02d6-4c74-a81d-603e948c36cd","system_id":"levelo_inurba_marseille","lat":43.293009,"lon":5.374584,"is_reserved":false,"is_disabled":false,"rental_uris":{"android":"levelo://app?vid=5a5bec3c-02d6-4c74-a81d-603e948c36cd","ios":"levelo://app?vid=5a5bec3c-02d6-4c74-a81d-603e948c36cd"},"vehicle_type_id":"4","last_reported":1712779669,"current_range_meters":6000,"station_id":"ce4bgi12rcd13ifvqb70","pricing_plan_id":"cebpf4jnsgd1na2vs0mg"},{"bike_id":"f81aa9ce-6e30-407f-a175-285d535a3572","system_id":"levelo_inurba_marseille","lat":43.29297,"lon":5.37464,"is_reserved":false,"is_disabled":false,"rental_uris":{"android":"levelo://app?vid=f81aa9ce-6e30-407f-a175-285d535a3572","ios":"levelo://app?vid=f81aa9ce-6e30-407f-a175-285d535a3572"},"vehicle_type_id":"4","last_reported":1712779669,"current_range_meters":28800,"station_id":"ce4bgi12rcd13ifvqb70","pricing_plan_id":"cebpf4jnsgd1na2vs0mg"},{"bike_id":"47c8440a-683e-497c-9040-58a83d20346f","system_id":"levelo_inurba_marseille","lat":43.29295,"lon":5.37462,"is_reserved":false,"is_disabled":false,"rental_uris":{"android":"levelo://app?vid=47c8440a-683e-497c-9040-58a83d20346f","ios":"levelo://app?vid=47c8440a-683e-497c-9040-58a83d20346f"},"vehicle_type_id":"4","last_reported":1712779669,"current_range_meters":0,"station_id":"ce4bgi12rcd13ifvqb70","pricing_plan_id":"cebpf4jnsgd1na2vs0mg"},{"bike_id":"14b16f05-0503-442d-ac9c-56e746e79b8a","system_id":"levelo_inurba_marseille","lat":43.293009,"lon":5.374584,"is_reserved":false,"is_disabled":false,"rental_uris":{"android":"levelo://app?vid=14b16f05-0503-442d-ac9c-56e746e79b8a","ios":"levelo://app?vid=14b16f05-0503-442d-ac9c-56e746e79b8a"},"vehicle_type_id":"4","last_reported":1712779669,"current_range_meters":30400,"station_id":"ce4bgi12rcd13ifvqb70","pricing_plan_id":"cebpf4jnsgd1na2vs0mg"},{"bike_id":"5d01af24-9992-4272-b8d8-2e748af997ab","system_id":"levelo_inurba_marseille","lat":43.305994,"lon":5.393687,"is_reserved":false,"is_disabled":false,"rental_uris":{"android":"levelo://app?vid=5d01af24-9992-4272-b8d8-2e748af997ab","ios":"levelo://app?vid=5d01af24-9992-4272-b8d8-2e748af997ab"},"vehicle_type_id":"4","last_reported":1712779669,"current_range_meters":16000,"station_id":"ce4bh0p2rcd13ifvqd80","pricing_plan_id":"cebpf4jnsgd1na2vs0mg"},{"bike_id":"7515c175-0cef-4832-8188-2404af5701cf","system_id":"levelo_inurba_marseille","lat":43.29292,"lon":5.37465,"is_reserved":false,"is_disabled":false,"rental_uris":{"android":"levelo://app?vid=7515c175-0cef-4832-8188-2404af5701cf","ios":"levelo://app?vid=7515c175-0cef-4832-8188-2404af5701cf"},"vehicle_type_id":"4","last_reported":1712779669,"current_range_meters":0,"station_id":"ce4bgi12rcd13ifvqb70","pricing_plan_id":"cebpf4jnsgd1na2vs0mg"},{"bike_id":"624a0b17-7501-4f8a-896a-e46cbe156638","system_id":"levelo_inurba_marseille","lat":43.304278,"lon":5.388868,"is_reserved":false,"is_disabled":false,"rental_uris":{"android":"levelo://app?vid=624a0b17-7501-4f8a-896a-e46cbe156638","ios":"levelo://app?vid=624a0b17-7501-4f8a-896a-e46cbe156638"},"vehicle_type_id":"4","last_reported":1712779669,"current_range_meters":20400,"station_id":"ce4bgk12rcd13ifvqbi0","pricing_plan_id":"cebpf4jnsgd1na2vs0mg"},{"bike_id":"ef6378ff-5664-483e-97f4-d04da7ff14b2","system_id":"levelo_inurba_marseille","lat":43.2936,"lon":5.37835,"is_reserved":false,"is_disabled":false,"rental_uris":{"android":"levelo://app?vid=ef6378ff-5664-483e-97f4-d04da7ff14b2","ios":"levelo://app?vid=ef6378ff-5664-483e-97f4-d04da7ff14b2"},"vehicle_type_id":"4","last_reported":1712779669,"current_range_meters":17600,"station_id":"ce4bgjh2rcd13ifvqbf0","pricing_plan_id":"cebpf4jnsgd1na2vs0mg"},{"bike_id":"1392b44e-d490-4a1f-971f-146b4416f751","system_id":"levelo_inurba_marseille","lat":43.2936,"lon":5.37835,"is_reserved":false,"is_disabled":false,"rental_uris":{"android":"levelo://app?vid=1392b44e-d490-4a1f-971f-146b4416f751","ios":"levelo://app?vid=1392b44e-d490-4a1f-971f-146b4416f751"},"vehicle_type_id":"4","last_reported":1712779669,"current_range_meters":7200,"station_id":"ce4bgjh2rcd13ifvqbf0","pricing_plan_id":"cebpf4jnsgd1na2vs0mg"},{"bike_id":"07cb016f-6a34-407e-8d3e-6db69d921717","system_id":"levelo_inurba_marseille","lat":43.2936,"lon":5.37835,"is_reserved":false,"is_disabled":false,"rental_uris":{"android":"levelo://app?vid=07cb016f-6a34-407e-8d3e-6db69d921717","ios":"levelo://app?vid=07cb016f-6a34-407e-8d3e-6db69d921717"},"vehicle_type_id":"4","last_reported":1712779669,"current_range_meters":6800,"station_id":"ce4bgjh2rcd13ifvqbf0","pricing_plan_id":"cebpf4jnsgd1na2vs0mg"},{"bike_id":"a1542ba7-81b6-4727-b72c-68d086a24a91","system_id":"levelo_inurba_marseille","lat":43.2936,"lon":5.37835,"is_reserved":false,"is_disabled":false,"rental_uris":{"android":"levelo://app?vid=a1542ba7-81b6-4727-b72c-68d086a24a91","ios":"levelo://app?vid=a1542ba7-81b6-4727-b72c-68d086a24a91"},"vehicle_type_id":"4","last_reported":1712779669,"current_range_meters":9600,"station_id":"ce4bgjh2rcd13ifvqbf0","pricing_plan_id":"cebpf4jnsgd1na2vs0mg"},{"bike_id":"69306d48-2997-4979-8e7f-920712f3c90b","system_id":"levelo_inurba_marseille","lat":43.2936,"lon":5.37835,"is_reserved":false,"is_disabled":false,"rental_uris":{"android":"levelo://app?vid=69306d48-2997-4979-8e7f-920712f3c90b","ios":"levelo://app?vid=69306d48-2997-4979-8e7f-920712f3c90b"},"vehicle_type_id":"4","last_reported":1712779669,"current_range_meters":18000,"station_id":"ce4bgjh2rcd13ifvqbf0","pricing_plan_id":"cebpf4jnsgd1na2vs0mg"},{"bike_id":"b1a63f98-7258-4acf-8363-c2d6dd608d35","system_id":"levelo_inurba_marseille","lat":43.2936,"lon":5.37835,"is_reserved":false,"is_disabled":false,"rental_uris":{"android":"levelo://app?vid=b1a63f98-7258-4acf-8363-c2d6dd608d35","ios":"levelo://app?vid=b1a63f98-7258-4acf-8363-c2d6dd608d35"},"vehicle_type_id":"4","last_reported":1712779669,"current_range_meters":5200,"station_id":"ce4bgjh2rcd13ifvqbf0","pricing_plan_id":"cebpf4jnsgd1na2vs0mg"},{"bike_id":"98b5af2e-0e93-464c-aea8-fe31aa304bbe","system_id":"levelo_inurba_marseille","lat":43.2936,"lon":5.37835,"is_reserved":false,"is_disabled":false,"rental_uris":{"android":"levelo://app?vid=98b5af2e-0e93-464c-aea8-fe31aa304bbe","ios":"levelo://app?vid=98b5af2e-0e93-464c-aea8-fe31aa304bbe"},"vehicle_type_id":"4","last_reported":1712779669,"current_range_meters":9600,"station_id":"ce4bgjh2rcd13ifvqbf0","pricing_plan_id":"cebpf4jnsgd1na2vs0mg"},{"bike_id":"ca254ad3-a423-42ac-9b9f-054b1aabe46f","system_id":"levelo_inurba_marseille","lat":43.2936,"lon":5.37835,"is_reserved":false,"is_disabled":false,"rental_uris":{"android":"levelo://app?vid=ca254ad3-a423-42ac-9b9f-054b1aabe46f","ios":"levelo://app?vid=ca254ad3-a423-42ac-9b9f-054b1aabe46f"},"vehicle_type_id":"4","last_reported":1712779669,"current_range_meters":16400,"station_id":"ce4bgjh2rcd13ifvqbf0","pricing_plan_id":"cebpf4jnsgd1na2vs0mg"},{"bike_id":"b34ab2f2-0b34-4535-8049-f2fa6593342f","system_id":"levelo_inurba_marseille","lat":43.300852,"lon":5.390859,"is_reserved":false,"is_disabled":false,"rental_uris":{"android":"levelo://app?vid=b34ab2f2-0b34-4535-8049-f2fa6593342f","ios":"levelo://app?vid=b34ab2f2-0b34-4535-8049-f2fa6593342f"},"vehicle_type_id":"4","last_reported":1712779669,"current_range_meters":22000,"station_id":"ce4bh192rcd13ifvqdb0","pricing_plan_id":"cebpf4jnsgd1na2vs0mg"},{"bike_id":"b86ad6a0-35c4-4aa6-b023-c39f16067b29","system_id":"levelo_inurba_marseille","lat":43.300953,"lon":5.3908,"is_reserved":false,"is_disabled":false,"rental_uris":{"android":"levelo://app?vid=b86ad6a0-35c4-4aa6-b023-c39f16067b29","ios":"levelo://app?vid=b86ad6a0-35c4-4aa6-b023-c39f16067b29"},"vehicle_type_id":"4","last_reported":1712779669,"current_range_meters":22000,"station_id":"ce4bh192rcd13ifvqdb0","pricing_plan_id":"cebpf4jnsgd1na2vs0mg"},{"bike_id":"4061b47c-d5ae-4ac3-9f56-7ed9d80611e6","system_id":"levelo_inurba_marseille","lat":43.300963,"lon":5.390874,"is_reserved":false,"is_disabled":false,"rental_uris":{"android":"levelo://app?vid=4061b47c-d5ae-4ac3-9f56-7ed9d80611e6","ios":"levelo://app?vid=4061b47c-d5ae-4ac3-9f56-7ed9d80611e6"},"vehicle_type_id":"4","last_reported":1712779669,"current_range_meters":21200,"station_id":"","pricing_plan_id":"cebpf4jnsgd1na2vs0mg"},{"bike_id":"0fb9d8fe-bf24-4b2f-9724-ed5bc366a0a7","system_id":"levelo_inurba_marseille","lat":43.293009,"lon":5.374584,"is_reserved":false,"is_disabled":false,"rental_uris":{"android":"levelo://app?vid=0fb9d8fe-bf24-4b2f-9724-ed5bc366a0a7","ios":"levelo://app?vid=0fb9d8fe-bf24-4b2f-9724-ed5bc366a0a7"},"vehicle_type_id":"4","last_reported":1712779669,"current_range_meters":0,"station_id":"ce4bgi12rcd13ifvqb70","pricing_plan_id":"cebpf4jnsgd1na2vs0mg"},{"bike_id":"4997180c-d984-4161-bdd9-2b3aed2dc479","system_id":"levelo_inurba_marseille","lat":43.298764,"lon":5.388973,"is_reserved":false,"is_disabled":false,"rental_uris":{"android":"levelo://app?vid=4997180c-d984-4161-bdd9-2b3aed2dc479","ios":"levelo://app?vid=4997180c-d984-4161-bdd9-2b3aed2dc479"},"vehicle_type_id":"4","last_reported":1712779669,"current_range_meters":5600,"station_id":"ce4bh392rcd13ifvqdl0","pricing_plan_id":"cebpf4jnsgd1na2vs0mg"},{"bike_id":"3fb23611-bb3c-42b3-a781-921183633682","system_id":"levelo_inurba_marseille","lat":43.291671,"lon":5.371575,"is_reserved":false,"is_disabled":false,"rental_uris":{"android":"levelo://app?vid=3fb23611-bb3c-42b3-a781-921183633682","ios":"levelo://app?vid=3fb23611-bb3c-42b3-a781-921183633682"},"vehicle_type_id":"4","last_reported":1712779669,"current_range_meters":3200,"station_id":"ce4bha92rcd13ifvqeh0","pricing_plan_id":"cebpf4jnsgd1na2vs0mg"},{"bike_id":"8bc1e8d3-c206-43b9-b78b-9260958efc0b","system_id":"levelo_inurba_marseille","lat":43.29174,"lon":5.37145,"is_reserved":false,"is_disabled":false,"rental_uris":{"android":"levelo://app?vid=8bc1e8d3-c206-43b9-b78b-9260958efc0b","ios":"levelo://app?vid=8bc1e8d3-c206-43b9-b78b-9260958efc0b"},"vehicle_type_id":"4","last_reported":1712779669,"current_range_meters":19200,"station_id":"ce4bha92rcd13ifvqeh0","pricing_plan_id":"cebpf4jnsgd1na2vs0mg"},{"bike_id":"d6ba32f0-ed1b-4c04-b6fb-dd48af3805dc","system_id":"levelo_inurba_marseille","lat":43.298764,"lon":5.388973,"is_reserved":false,"is_disabled":false,"rental_uris":{"android":"levelo://app?vid=d6ba32f0-ed1b-4c04-b6fb-dd48af3805dc","ios":"levelo://app?vid=d6ba32f0-ed1b-4c04-b6fb-dd48af3805dc"},"vehicle_type_id":"4","last_reported":1712779669,"current_range_meters":26000,"station_id":"ce4bh392rcd13ifvqdl0","pricing_plan_id":"cebpf4jnsgd1na2vs0mg"},{"bike_id":"50c806df-142d-4076-8159-76336c6a0456","system_id":"levelo_inurba_marseille","lat":43.291671,"lon":5.371575,"is_reserved":false,"is_disabled":false,"rental_uris":{"android":"levelo://app?vid=50c806df-142d-4076-8159-76336c6a0456","ios":"levelo://app?vid=50c806df-142d-4076-8159-76336c6a0456"},"vehicle_type_id":"4","last_reported":1712779669,"current_range_meters":18400,"station_id":"ce4bha92rcd13ifvqeh0","pricing_plan_id":"cebpf4jnsgd1na2vs0mg"},{"bike_id":"f0110a8b-c6f9-45b9-a1a3-2319a8ba6c90","system_id":"levelo_inurba_marseille","lat":43.29882,"lon":5.38908,"is_reserved":false,"is_disabled":false,"rental_uris":{"android":"levelo://app?vid=f0110a8b-c6f9-45b9-a1a3-2319a8ba6c90","ios":"levelo://app?vid=f0110a8b-c6f9-45b9-a1a3-2319a8ba6c90"},"vehicle_type_id":"4","last_reported":1712779669,"current_range_meters":14400,"station_id":"ce4bh392rcd13ifvqdl0","pricing_plan_id":"cebpf4jnsgd1na2vs0mg"},{"bike_id":"9f84271a-661b-4c14-b34c-e6079c1166b8","system_id":"levelo_inurba_marseille","lat":43.291704,"lon":5.371559,"is_reserved":false,"is_disabled":false,"rental_uris":{"android":"levelo://app?vid=9f84271a-661b-4c14-b34c-e6079c1166b8","ios":"levelo://app?vid=9f84271a-661b-4c14-b34c-e6079c1166b8"},"vehicle_type_id":"4","last_reported":1712779669,"current_range_meters":4000,"station_id":"ce4bha92rcd13ifvqeh0","pricing_plan_id":"cebpf4jnsgd1na2vs0mg"},{"bike_id":"33b20880-b6b9-4909-ba29-3a9f6b6dc067","system_id":"levelo_inurba_marseille","lat":43.298764,"lon":5.388973,"is_reserved":false,"is_disabled":false,"rental_uris":{"android":"levelo://app?vid=33b20880-b6b9-4909-ba29-3a9f6b6dc067","ios":"levelo://app?vid=33b20880-b6b9-4909-ba29-3a9f6b6dc067"},"vehicle_type_id":"4","last_reported":1712779669,"current_range_meters":15600,"station_id":"ce4bh392rcd13ifvqdl0","pricing_plan_id":"cebpf4jnsgd1na2vs0mg"},{"bike_id":"fffab664-ea65-40e5-ad8e-c8e1a6ef69c8","system_id":"levelo_inurba_marseille","lat":43.291675,"lon":5.371583,"is_reserved":false,"is_disabled":false,"rental_uris":{"android":"levelo://app?vid=fffab664-ea65-40e5-ad8e-c8e1a6ef69c8","ios":"levelo://app?vid=fffab664-ea65-40e5-ad8e-c8e1a6ef69c8"},"vehicle_type_id":"4","last_reported":1712779669,"current_range_meters":4000,"station_id":"ce4bha92rcd13ifvqeh0","pricing_plan_id":"cebpf4jnsgd1na2vs0mg"},{"bike_id":"bd563087-28be-476e-8192-fa4c1c2b7e6d","system_id":"levelo_inurba_marseille","lat":43.290995,"lon":5.381361,"is_reserved":false,"is_disabled":false,"rental_uris":{"android":"levelo://app?vid=bd563087-28be-476e-8192-fa4c1c2b7e6d","ios":"levelo://app?vid=bd563087-28be-476e-8192-fa4c1c2b7e6d"},"vehicle_type_id":"4","last_reported":1712779669,"current_range_meters":13600,"station_id":"ce4bh512rcd13ifvqe2g","pricing_plan_id":"cebpf4jnsgd1na2vs0mg"},{"bike_id":"e398bb4e-e176-4499-b93f-c9ea9cde39ee","system_id":"levelo_inurba_marseille","lat":43.292005,"lon":5.357875,"is_reserved":false,"is_disabled":false,"rental_uris":{"android":"levelo://app?vid=e398bb4e-e176-4499-b93f-c9ea9cde39ee","ios":"levelo://app?vid=e398bb4e-e176-4499-b93f-c9ea9cde39ee"},"vehicle_type_id":"4","last_reported":1712779669,"current_range_meters":21200,"station_id":"ce4bhb12rcd13ifvqel0","pricing_plan_id":"cebpf4jnsgd1na2vs0mg"},{"bike_id":"3f03e714-6f62-4bb1-8a09-e976891f26e4","system_id":"levelo_inurba_marseille","lat":43.309038,"lon":5.396546,"is_reserved":false,"is_disabled":false,"rental_uris":{"android":"levelo://app?vid=3f03e714-6f62-4bb1-8a09-e976891f26e4","ios":"levelo://app?vid=3f03e714-6f62-4bb1-8a09-e976891f26e4"},"vehicle_type_id":"4","last_reported":1712779669,"current_range_meters":0,"station_id":"ce4bh012rcd13ifvqcv0","pricing_plan_id":"cebpf4jnsgd1na2vs0mg"},{"bike_id":"95840432-1411-4743-9d16-60807ca274b9","system_id":"levelo_inurba_marseille","lat":43.295662,"lon":5.385517,"is_reserved":false,"is_disabled":false,"rental_uris":{"android":"levelo://app?vid=95840432-1411-4743-9d16-60807ca274b9","ios":"levelo://app?vid=95840432-1411-4743-9d16-60807ca274b9"},"vehicle_type_id":"4","last_reported":1712779669,"current_range_meters":28400,"station_id":"ce4bhnh2rcd13ifvqgug","pricing_plan_id":"cebpf4jnsgd1na2vs0mg"},{"bike_id":"fb4868a4-1358-45bc-b6aa-10cc91e4d5ee","system_id":"levelo_inurba_marseille","lat":43.31331,"lon":5.39686,"is_reserved":false,"is_disabled":false,"rental_uris":{"android":"levelo://app?vid=fb4868a4-1358-45bc-b6aa-10cc91e4d5ee","ios":"levelo://app?vid=fb4868a4-1358-45bc-b6aa-10cc91e4d5ee"},"vehicle_type_id":"4","last_reported":1712779669,"current_range_meters":19200,"station_id":"ce4bgvp2rcd13ifvqcu0","pricing_plan_id":"cebpf4jnsgd1na2vs0mg"},{"bike_id":"912f5619-c4d6-4146-a1d2-15413f1be421","system_id":"levelo_inurba_marseille","lat":43.309038,"lon":5.396546,"is_reserved":false,"is_disabled":false,"rental_uris":{"android":"levelo://app?vid=912f5619-c4d6-4146-a1d2-15413f1be421","ios":"levelo://app?vid=912f5619-c4d6-4146-a1d2-15413f1be421"},"vehicle_type_id":"4","last_reported":1712779669,"current_range_meters":10400,"station_id":"ce4bh012rcd13ifvqcv0","pricing_plan_id":"cebpf4jnsgd1na2vs0mg"},{"bike_id":"61602e59-c378-494d-b6e7-889feefea6ef","system_id":"levelo_inurba_marseille","lat":43.309038,"lon":5.396546,"is_reserved":false,"is_disabled":false,"rental_uris":{"android":"levelo://app?vid=61602e59-c378-494d-b6e7-889feefea6ef","ios":"levelo://app?vid=61602e59-c378-494d-b6e7-889feefea6ef"},"vehicle_type_id":"4","last_reported":1712779669,"current_range_meters":27200,"station_id":"ce4bh012rcd13ifvqcv0","pricing_plan_id":"cebpf4jnsgd1na2vs0mg"},{"bike_id":"99b6595a-aa64-489c-bf57-5a6a9df60703","system_id":"levelo_inurba_marseille","lat":43.313291,"lon":5.396838,"is_reserved":false,"is_disabled":false,"rental_uris":{"android":"levelo://app?vid=99b6595a-aa64-489c-bf57-5a6a9df60703","ios":"levelo://app?vid=99b6595a-aa64-489c-bf57-5a6a9df60703"},"vehicle_type_id":"4","last_reported":1712779669,"current_range_meters":12400,"station_id":"ce4bgvp2rcd13ifvqcu0","pricing_plan_id":"cebpf4jnsgd1na2vs0mg"},{"bike_id":"e3b17a0f-3a3c-4638-b1c7-6895b6060a9a","system_id":"levelo_inurba_marseille","lat":43.309038,"lon":5.396546,"is_reserved":false,"is_disabled":false,"rental_uris":{"android":"levelo://app?vid=e3b17a0f-3a3c-4638-b1c7-6895b6060a9a","ios":"levelo://app?vid=e3b17a0f-3a3c-4638-b1c7-6895b6060a9a"},"vehicle_type_id":"4","last_reported":1712779669,"current_range_meters":12800,"station_id":"ce4bh012rcd13ifvqcv0","pricing_plan_id":"cebpf4jnsgd1na2vs0mg"},{"bike_id":"9fc8b7ad-76b2-471c-a4b1-7049925ac59a","system_id":"levelo_inurba_marseille","lat":43.309047,"lon":5.396551,"is_reserved":false,"is_disabled":false,"rental_uris":{"android":"levelo://app?vid=9fc8b7ad-76b2-471c-a4b1-7049925ac59a","ios":"levelo://app?vid=9fc8b7ad-76b2-471c-a4b1-7049925ac59a"},"vehicle_type_id":"4","last_reported":1712779669,"current_range_meters":8800,"station_id":"ce4bh012rcd13ifvqcv0","pricing_plan_id":"cebpf4jnsgd1na2vs0mg"},{"bike_id":"cf625daf-8743-433e-8a8b-cfc9634d075b","system_id":"levelo_inurba_marseille","lat":43.309038,"lon":5.396546,"is_reserved":false,"is_disabled":false,"rental_uris":{"android":"levelo://app?vid=cf625daf-8743-433e-8a8b-cfc9634d075b","ios":"levelo://app?vid=cf625daf-8743-433e-8a8b-cfc9634d075b"},"vehicle_type_id":"4","last_reported":1712779669,"current_range_meters":7200,"station_id":"ce4bh012rcd13ifvqcv0","pricing_plan_id":"cebpf4jnsgd1na2vs0mg"},{"bike_id":"3801a13c-efba-46d3-a3ca-006af32948b0","system_id":"levelo_inurba_marseille","lat":43.313291,"lon":5.396838,"is_reserved":false,"is_disabled":false,"rental_uris":{"android":"levelo://app?vid=3801a13c-efba-46d3-a3ca-006af32948b0","ios":"levelo://app?vid=3801a13c-efba-46d3-a3ca-006af32948b0"},"vehicle_type_id":"4","last_reported":1712779669,"current_range_meters":18000,"station_id":"ce4bgvp2rcd13ifvqcu0","pricing_plan_id":"cebpf4jnsgd1na2vs0mg"},{"bike_id":"360bd7f2-c34f-4813-b03b-907b8c18976c","system_id":"levelo_inurba_marseille","lat":43.313291,"lon":5.396838,"is_reserved":false,"is_disabled":false,"rental_uris":{"android":"levelo://app?vid=360bd7f2-c34f-4813-b03b-907b8c18976c","ios":"levelo://app?vid=360bd7f2-c34f-4813-b03b-907b8c18976c"},"vehicle_type_id":"4","last_reported":1712779669,"current_range_meters":23600,"station_id":"ce4bgvp2rcd13ifvqcu0","pricing_plan_id":"cebpf4jnsgd1na2vs0mg"},{"bike_id":"04d2f684-ac7e-4ea3-bef7-e614ea728b00","system_id":"levelo_inurba_marseille","lat":43.313291,"lon":5.396838,"is_reserved":false,"is_disabled":false,"rental_uris":{"android":"levelo://app?vid=04d2f684-ac7e-4ea3-bef7-e614ea728b00","ios":"levelo://app?vid=04d2f684-ac7e-4ea3-bef7-e614ea728b00"},"vehicle_type_id":"4","last_reported":1712779669,"current_range_meters":4000,"station_id":"ce4bgvp2rcd13ifvqcu0","pricing_plan_id":"cebpf4jnsgd1na2vs0mg"},{"bike_id":"12b5e2a9-9d49-4573-835b-5269e76d8505","system_id":"levelo_inurba_marseille","lat":43.309047,"lon":5.396551,"is_reserved":false,"is_disabled":false,"rental_uris":{"android":"levelo://app?vid=12b5e2a9-9d49-4573-835b-5269e76d8505","ios":"levelo://app?vid=12b5e2a9-9d49-4573-835b-5269e76d8505"},"vehicle_type_id":"4","last_reported":1712779669,"current_range_meters":0,"station_id":"ce4bh012rcd13ifvqcv0","pricing_plan_id":"cebpf4jnsgd1na2vs0mg"},{"bike_id":"4e18c65f-bb3f-42d2-834b-8fa970aa0306","system_id":"levelo_inurba_marseille","lat":43.309047,"lon":5.396551,"is_reserved":false,"is_disabled":false,"rental_uris":{"android":"levelo://app?vid=4e18c65f-bb3f-42d2-834b-8fa970aa0306","ios":"levelo://app?vid=4e18c65f-bb3f-42d2-834b-8fa970aa0306"},"vehicle_type_id":"4","last_reported":1712779669,"current_range_meters":19600,"station_id":"ce4bh012rcd13ifvqcv0","pricing_plan_id":"cebpf4jnsgd1na2vs0mg"},{"bike_id":"3aa1f022-df6b-4c9f-8290-d53ee60b49d7","system_id":"levelo_inurba_marseille","lat":43.309038,"lon":5.396546,"is_reserved":false,"is_disabled":false,"rental_uris":{"android":"levelo://app?vid=3aa1f022-df6b-4c9f-8290-d53ee60b49d7","ios":"levelo://app?vid=3aa1f022-df6b-4c9f-8290-d53ee60b49d7"},"vehicle_type_id":"4","last_reported":1712779669,"current_range_meters":8000,"station_id":"ce4bh012rcd13ifvqcv0","pricing_plan_id":"cebpf4jnsgd1na2vs0mg"},{"bike_id":"7429b7a6-be59-43dd-a35b-8536c8d7ad87","system_id":"levelo_inurba_marseille","lat":43.309047,"lon":5.396551,"is_reserved":false,"is_disabled":false,"rental_uris":{"android":"levelo://app?vid=7429b7a6-be59-43dd-a35b-8536c8d7ad87","ios":"levelo://app?vid=7429b7a6-be59-43dd-a35b-8536c8d7ad87"},"vehicle_type_id":"4","last_reported":1712779669,"current_range_meters":28000,"station_id":"ce4bh012rcd13ifvqcv0","pricing_plan_id":"cebpf4jnsgd1na2vs0mg"},{"bike_id":"60f7d154-34db-45b0-b14c-9d35d8ce05b9","system_id":"levelo_inurba_marseille","lat":43.29529,"lon":5.385581,"is_reserved":false,"is_disabled":false,"rental_uris":{"android":"levelo://app?vid=60f7d154-34db-45b0-b14c-9d35d8ce05b9","ios":"levelo://app?vid=60f7d154-34db-45b0-b14c-9d35d8ce05b9"},"vehicle_type_id":"4","last_reported":1712779669,"current_range_meters":4800,"station_id":"ce4bgih2rcd13ifvqba0","pricing_plan_id":"cebpf4jnsgd1na2vs0mg"},{"bike_id":"0c529226-5164-4ff6-a17a-a0aee19230b3","system_id":"levelo_inurba_marseille","lat":43.29529,"lon":5.385581,"is_reserved":false,"is_disabled":false,"rental_uris":{"android":"levelo://app?vid=0c529226-5164-4ff6-a17a-a0aee19230b3","ios":"levelo://app?vid=0c529226-5164-4ff6-a17a-a0aee19230b3"},"vehicle_type_id":"4","last_reported":1712779669,"current_range_meters":4400,"station_id":"ce4bgih2rcd13ifvqba0","pricing_plan_id":"cebpf4jnsgd1na2vs0mg"},{"bike_id":"91ea7fdf-77d9-488d-a87d-76ff30a0e37d","system_id":"levelo_inurba_marseille","lat":43.2479,"lon":5.374457,"is_reserved":false,"is_disabled":false,"rental_uris":{"android":"levelo://app?vid=91ea7fdf-77d9-488d-a87d-76ff30a0e37d","ios":"levelo://app?vid=91ea7fdf-77d9-488d-a87d-76ff30a0e37d"},"vehicle_type_id":"4","last_reported":1712779669,"current_range_meters":13200,"station_id":"ce4bhgh2rcd13ifvqfb0","pricing_plan_id":"cebpf4jnsgd1na2vs0mg"},{"bike_id":"e818b3d5-99bd-4302-b458-412f57316dbc","system_id":"levelo_inurba_marseille","lat":43.290779,"lon":5.371482,"is_reserved":false,"is_disabled":false,"rental_uris":{"android":"levelo://app?vid=e818b3d5-99bd-4302-b458-412f57316dbc","ios":"levelo://app?vid=e818b3d5-99bd-4302-b458-412f57316dbc"},"vehicle_type_id":"4","last_reported":1712779669,"current_range_meters":12000,"station_id":"ce4bh5p2rcd13ifvqe4g","pricing_plan_id":"cebpf4jnsgd1na2vs0mg"},{"bike_id":"f6467a0b-0d06-4653-b0ad-e2f9675e5350","system_id":"levelo_inurba_marseille","lat":43.290779,"lon":5.371482,"is_reserved":false,"is_disabled":false,"rental_uris":{"android":"levelo://app?vid=f6467a0b-0d06-4653-b0ad-e2f9675e5350","ios":"levelo://app?vid=f6467a0b-0d06-4653-b0ad-e2f9675e5350"},"vehicle_type_id":"4","last_reported":1712779669,"current_range_meters":10000,"station_id":"ce4bh5p2rcd13ifvqe4g","pricing_plan_id":"cebpf4jnsgd1na2vs0mg"},{"bike_id":"4c0bd16a-c86c-4517-8cde-e1df32b6954d","system_id":"levelo_inurba_marseille","lat":43.29078,"lon":5.37178,"is_reserved":false,"is_disabled":false,"rental_uris":{"android":"levelo://app?vid=4c0bd16a-c86c-4517-8cde-e1df32b6954d","ios":"levelo://app?vid=4c0bd16a-c86c-4517-8cde-e1df32b6954d"},"vehicle_type_id":"4","last_reported":1712779669,"current_range_meters":18000,"station_id":"","pricing_plan_id":"cebpf4jnsgd1na2vs0mg"},{"bike_id":"2cd4b5a4-d0bc-493b-a63e-56eea6eb9003","system_id":"levelo_inurba_marseille","lat":43.290779,"lon":5.371482,"is_reserved":false,"is_disabled":false,"rental_uris":{"android":"levelo://app?vid=2cd4b5a4-d0bc-493b-a63e-56eea6eb9003","ios":"levelo://app?vid=2cd4b5a4-d0bc-493b-a63e-56eea6eb9003"},"vehicle_type_id":"4","last_reported":1712779669,"current_range_meters":16000,"station_id":"ce4bh5p2rcd13ifvqe4g","pricing_plan_id":"cebpf4jnsgd1na2vs0mg"},{"bike_id":"3d4aa514-0cfb-47fd-bb5f-e77834fb8b50","system_id":"levelo_inurba_marseille","lat":43.290779,"lon":5.371482,"is_reserved":false,"is_disabled":false,"rental_uris":{"android":"levelo://app?vid=3d4aa514-0cfb-47fd-bb5f-e77834fb8b50","ios":"levelo://app?vid=3d4aa514-0cfb-47fd-bb5f-e77834fb8b50"},"vehicle_type_id":"4","last_reported":1712779669,"current_range_meters":16800,"station_id":"ce4bh5p2rcd13ifvqe4g","pricing_plan_id":"cebpf4jnsgd1na2vs0mg"},{"bike_id":"d107f03f-6ace-4a8e-af53-e0f9bffa28df","system_id":"levelo_inurba_marseille","lat":43.30217,"lon":5.39468,"is_reserved":false,"is_disabled":false,"rental_uris":{"android":"levelo://app?vid=d107f03f-6ace-4a8e-af53-e0f9bffa28df","ios":"levelo://app?vid=d107f03f-6ace-4a8e-af53-e0f9bffa28df"},"vehicle_type_id":"4","last_reported":1712779669,"current_range_meters":20400,"station_id":"ce4bh0p2rcd13ifvqd70","pricing_plan_id":"cebpf4jnsgd1na2vs0mg"},{"bike_id":"92ab61ff-d370-4c3c-b4f4-12cd9ec5a933","system_id":"levelo_inurba_marseille","lat":43.302008,"lon":5.394694,"is_reserved":false,"is_disabled":false,"rental_uris":{"android":"levelo://app?vid=92ab61ff-d370-4c3c-b4f4-12cd9ec5a933","ios":"levelo://app?vid=92ab61ff-d370-4c3c-b4f4-12cd9ec5a933"},"vehicle_type_id":"4","last_reported":1712779669,"current_range_meters":20000,"station_id":"ce4bh0p2rcd13ifvqd70","pricing_plan_id":"cebpf4jnsgd1na2vs0mg"},{"bike_id":"4987e6d2-d594-47e2-a271-4bab3e86bc97","system_id":"levelo_inurba_marseille","lat":43.290624,"lon":5.359245,"is_reserved":false,"is_disabled":false,"rental_uris":{"android":"levelo://app?vid=4987e6d2-d594-47e2-a271-4bab3e86bc97","ios":"levelo://app?vid=4987e6d2-d594-47e2-a271-4bab3e86bc97"},"vehicle_type_id":"4","last_reported":1712779669,"current_range_meters":23600,"station_id":"ce4bha92rcd13ifvqeg0","pricing_plan_id":"cebpf4jnsgd1na2vs0mg"},{"bike_id":"ea133a95-3abb-4d65-bddb-46be0b910fd8","system_id":"levelo_inurba_marseille","lat":43.294153,"lon":5.386305,"is_reserved":false,"is_disabled":false,"rental_uris":{"android":"levelo://app?vid=ea133a95-3abb-4d65-bddb-46be0b910fd8","ios":"levelo://app?vid=ea133a95-3abb-4d65-bddb-46be0b910fd8"},"vehicle_type_id":"4","last_reported":1712779669,"current_range_meters":31200,"station_id":"ce4bh2h2rcd13ifvqdh0","pricing_plan_id":"cebpf4jnsgd1na2vs0mg"},{"bike_id":"300d64d4-08f2-42ef-8260-241ef75405ff","system_id":"levelo_inurba_marseille","lat":43.290327,"lon":5.375711,"is_reserved":false,"is_disabled":false,"rental_uris":{"android":"levelo://app?vid=300d64d4-08f2-42ef-8260-241ef75405ff","ios":"levelo://app?vid=300d64d4-08f2-42ef-8260-241ef75405ff"},"vehicle_type_id":"4","last_reported":1712779669,"current_range_meters":13200,"station_id":"ce4bh692rcd13ifvqe90","pricing_plan_id":"cebpf4jnsgd1na2vs0mg"},{"bike_id":"c9a42468-b1d7-490f-bbbe-cdf04db6506c","system_id":"levelo_inurba_marseille","lat":43.294153,"lon":5.386305,"is_reserved":false,"is_disabled":false,"rental_uris":{"android":"levelo://app?vid=c9a42468-b1d7-490f-bbbe-cdf04db6506c","ios":"levelo://app?vid=c9a42468-b1d7-490f-bbbe-cdf04db6506c"},"vehicle_type_id":"4","last_reported":1712779669,"current_range_meters":0,"station_id":"ce4bh2h2rcd13ifvqdh0","pricing_plan_id":"cebpf4jnsgd1na2vs0mg"},{"bike_id":"b4e89ec5-659c-447b-ab59-0cb291c12ec8","system_id":"levelo_inurba_marseille","lat":43.294162,"lon":5.386292,"is_reserved":false,"is_disabled":false,"rental_uris":{"android":"levelo://app?vid=b4e89ec5-659c-447b-ab59-0cb291c12ec8","ios":"levelo://app?vid=b4e89ec5-659c-447b-ab59-0cb291c12ec8"},"vehicle_type_id":"4","last_reported":1712779669,"current_range_meters":28000,"station_id":"ce4bh2h2rcd13ifvqdh0","pricing_plan_id":"cebpf4jnsgd1na2vs0mg"},{"bike_id":"0662bc47-86ee-4398-984c-e2c981f7b5d1","system_id":"levelo_inurba_marseille","lat":43.294153,"lon":5.386305,"is_reserved":false,"is_disabled":false,"rental_uris":{"android":"levelo://app?vid=0662bc47-86ee-4398-984c-e2c981f7b5d1","ios":"levelo://app?vid=0662bc47-86ee-4398-984c-e2c981f7b5d1"},"vehicle_type_id":"4","last_reported":1712779669,"current_range_meters":16800,"station_id":"ce4bh2h2rcd13ifvqdh0","pricing_plan_id":"cebpf4jnsgd1na2vs0mg"},{"bike_id":"5b228c7b-546c-4c40-9bfd-9e5ac92bbc01","system_id":"levelo_inurba_marseille","lat":43.294153,"lon":5.386305,"is_reserved":false,"is_disabled":false,"rental_uris":{"android":"levelo://app?vid=5b228c7b-546c-4c40-9bfd-9e5ac92bbc01","ios":"levelo://app?vid=5b228c7b-546c-4c40-9bfd-9e5ac92bbc01"},"vehicle_type_id":"4","last_reported":1712779669,"current_range_meters":11600,"station_id":"ce4bh2h2rcd13ifvqdh0","pricing_plan_id":"cebpf4jnsgd1na2vs0mg"},{"bike_id":"26c3015d-6c5e-4b51-93ee-201f9698e5cf","system_id":"levelo_inurba_marseille","lat":43.294162,"lon":5.386292,"is_reserved":false,"is_disabled":false,"rental_uris":{"android":"levelo://app?vid=26c3015d-6c5e-4b51-93ee-201f9698e5cf","ios":"levelo://app?vid=26c3015d-6c5e-4b51-93ee-201f9698e5cf"},"vehicle_type_id":"4","last_reported":1712779669,"current_range_meters":29200,"station_id":"ce4bh2h2rcd13ifvqdh0","pricing_plan_id":"cebpf4jnsgd1na2vs0mg"},{"bike_id":"385875bb-8ddd-4fb1-a4a0-656a074c198c","system_id":"levelo_inurba_marseille","lat":43.290327,"lon":5.375711,"is_reserved":false,"is_disabled":false,"rental_uris":{"android":"levelo://app?vid=385875bb-8ddd-4fb1-a4a0-656a074c198c","ios":"levelo://app?vid=385875bb-8ddd-4fb1-a4a0-656a074c198c"},