{"last_updated":1750255911,"ttl":60,"version":"2.2","data":{"bikes":[{"bike_id":"3da29fb8-fc97-44c6-b9ac-31dd456b2fd4","system_id":"levelo_inurba_marseille","lat":43.33771,"lon":5.37424,"is_reserved":false,"is_disabled":true,"rental_uris":{"android":"levelo://app?vid=3da29fb8-fc97-44c6-b9ac-31dd456b2fd4","ios":"levelo://app?vid=3da29fb8-fc97-44c6-b9ac-31dd456b2fd4"},"vehicle_type_id":"4","last_reported":1750255911,"current_range_meters":0,"station_id":"","pricing_plan_id":"cebpf4jnsgd1na2vs0mg"},{"bike_id":"01861ad8-a8d7-4be6-816e-651927c87584","system_id":"levelo_inurba_marseille","lat":43.33751,"lon":5.37456,"is_reserved":false,"is_disabled":true,"rental_uris":{"android":"levelo://app?vid=01861ad8-a8d7-4be6-816e-651927c87584","ios":"levelo://app?vid=01861ad8-a8d7-4be6-816e-651927c87584"},"vehicle_type_id":"4","last_reported":1750255911,"current_range_meters":0,"station_id":"","pricing_plan_id":"cebpf4jnsgd1na2vs0mg"},{"bike_id":"dbfce7a3-3423-4296-b193-a177dea644ac","system_id":"levelo_inurba_marseille","lat":43.27287,"lon":5.41619,"is_reserved":false,"is_disabled":true,"rental_uris":{"android":"levelo://app?vid=dbfce7a3-3423-4296-b193-a177dea644ac","ios":"levelo://app?vid=dbfce7a3-3423-4296-b193-a177dea644ac"},"vehicle_type_id":"4","last_reported":1750255911,"current_range_meters":0,"station_id":"","pricing_plan_id":"cebpf4jnsgd1na2vs0mg"},{"bike_id":"d2bd57c8-6b64-48db-ad24-5398eb3fd9d6","system_id":"levelo_inurba_marseille","lat":43.337444,"lon":5.374475,"is_reserved":false,"is_disabled":true,"rental_uris":{"android":"levelo://app?vid=d2bd57c8-6b64-48db-ad24-5398eb3fd9d6","ios":"levelo://app?vid=d2bd57c8-6b64-48db-ad24-5398eb3fd9d6"},"vehicle_type_id":"4","last_reported":1750255911,"current_range_meters":0,"station_id":"","pricing_plan_id":"cebpf4jnsgd1na2vs0mg"},{"bike_id":"62a493c7-4534-4419-ad43-0582de34a72a","system_id":"levelo_inurba_marseille","lat":43.21366,"lon":5.355183,"is_reserved":false,"is_disabled":true,"rental_uris":{"android":"levelo://app?vid=62a493c7-4534-4419-ad43-0582de34a72a","ios":"levelo://app?vid=62a493c7-4534-4419-ad43-0582de34a72a"},"vehicle_type_id":"4","last_reported":1750255911,"current_range_meters":0,"station_id":"","pricing_plan_id":"cebpf4jnsgd1na2vs0mg"},{"bike_id":"b9e37238-9abe-4b8b-b932-edaee33a7e59","system_id":"levelo_inurba_marseille","lat":43.274956,"lon":5.390076,"is_reserved":false,"is_disabled":true,"rental_uris":{"android":"levelo://app?vid=b9e37238-9abe-4b8b-b932-edaee33a7e59","ios":"levelo://app?vid=b9e37238-9abe-4b8b-b932-edaee33a7e59"},"vehicle_type_id":"4","last_reported":1750255911,"current_range_meters":0,"station_id":"","pricing_plan_id":"cebpf4jnsgd1na2vs0mg"},{"bike_id":"cba28a02-9f06-41dd-8645-e3bd321e07ba","system_id":"levelo_inurba_marseille","lat":43.28766,"lon":5.38711,"is_reserved":false,"is_disabled":true,"rental_uris":{"android":"levelo://app?vid=cba28a02-9f06-41dd-8645-e3bd321e07ba","ios":"levelo://app?vid=cba28a02-9f06-41dd-8645-e3bd321e07ba"},"vehicle_type_id":"4","last_reported":1750255911,"current_range_meters":0,"station_id":"","pricing_plan_id":"cebpf4jnsgd1na2vs0mg"},{"bike_id":"dba623ec-664c-4621-8832-8f9cf82566ea","system_id":"levelo_inurba_marseille","lat":43.28019,"lon":5.3685,"is_reserved":false,"is_disabled":true,"rental_uris":{"android":"levelo://app?vid=dba623ec-664c-4621-8832-8f9cf82566ea","ios":"levelo://app?vid=dba623ec-664c-4621-8832-8f9cf82566ea"},"vehicle_type_id":"4","last_reported":1750255911,"current_range_meters":0,"station_id":"","pricing_plan_id":"cebpf4jnsgd1na2vs0mg"},{"bike_id":"8ad9234e-001a-4549-8bba-9baf2ef98804","system_id":"levelo_inurba_marseille","lat":43.27419,"lon":5.39785,"is_reserved":false,"is_disabled":true,"rental_uris":{"android":"levelo://app?vid=8ad9234e-001a-4549-8bba-9baf2ef98804","ios":"levelo://app?vid=8ad9234e-001a-4549-8bba-9baf2ef98804"},"vehicle_type_id":"4","last_reported":1750255911,"current_range_meters":0,"station_id":"","pricing_plan_id":"cebpf4jnsgd1na2vs0mg"},{"bike_id":"93af304b-67b5-47b8-a3fd-e0775f7cde8c","system_id":"levelo_inurba_marseille","lat":43.215301,"lon":5.347406,"is_reserved":false,"is_disabled":true,"rental_uris":{"android":"levelo://app?vid=93af304b-67b5-47b8-a3fd-e0775f7cde8c","ios":"levelo://app?vid=93af304b-67b5-47b8-a3fd-e0775f7cde8c"},"vehicle_type_id":"4","last_reported":1750255911,"current_range_meters":0,"station_id":"","pricing_plan_id":"cebpf4jnsgd1na2vs0mg"},{"bike_id":"d6609b4f-333b-43c1-9ebe-8726f5e76e88","system_id":"levelo_inurba_marseille","lat":43.337444,"lon":5.374475,"is_reserved":false,"is_disabled":true,"rental_uris":{"android":"levelo://app?vid=d6609b4f-333b-43c1-9ebe-8726f5e76e88","ios":"levelo://app?vid=d6609b4f-333b-43c1-9ebe-8726f5e76e88"},"vehicle_type_id":"4","last_reported":1750255911,"current_range_meters":0,"station_id":"","pricing_plan_id":"cebpf4jnsgd1na2vs0mg"},{"bike_id":"57c83ce1-960e-466a-b6c5-d93bc130c53a","system_id":"levelo_inurba_marseille","lat":43.249159,"lon":5.389598,"is_reserved":false,"is_disabled":true,"rental_uris":{"android":"levelo://app?vid=57c83ce1-960e-466a-b6c5-d93bc130c53a","ios":"levelo://app?vid=57c83ce1-960e-466a-b6c5-d93bc130c53a"},"vehicle_type_id":"4","last_reported":1750255911,"current_range_meters":0,"station_id":"","pricing_plan_id":"cebpf4jnsgd1na2vs0mg"},{"bike_id":"2b637b4c-bba8-46e1-88dc-2baf08cd8784","system_id":"levelo_inurba_marseille","lat":43.29601,"lon":5.38103,"is_reserved":false,"is_disabled":true,"rental_uris":{"android":"levelo://app?vid=2b637b4c-bba8-46e1-88dc-2baf08cd8784","ios":"levelo://app?vid=2b637b4c-bba8-46e1-88dc-2baf08cd8784"},"vehicle_type_id":"4","last_reported":1750255911,"current_range_meters":0,"station_id":"ce4bgl12rcd13ifvqbo0","pricing_plan_id":"cebpf4jnsgd1na2vs0mg"},{"bike_id":"7a2c3127-c4fd-4cf7-a6cc-8c81ad2a0b0c","system_id":"levelo_inurba_marseille","lat":43.29928,"lon":5.36529,"is_reserved":false,"is_disabled":true,"rental_uris":{"android":"levelo://app?vid=7a2c3127-c4fd-4cf7-a6cc-8c81ad2a0b0c","ios":"levelo://app?vid=7a2c3127-c4fd-4cf7-a6cc-8c81ad2a0b0c"},"vehicle_type_id":"4","last_reported":1750255911,"current_range_meters":0,"station_id":"ce4bgm92rcd13ifvqbr0","pricing_plan_id":"cebpf4jnsgd1na2vs0mg"},{"bike_id":"d6eda669-c698-4352-a682-7ac7648b6b22","system_id":"levelo_inurba_marseille","lat":43.31076,"lon":5.38357,"is_reserved":false,"is_disabled":true,"rental_uris":{"android":"levelo://app?vid=d6eda669-c698-4352-a682-7ac7648b6b22","ios":"levelo://app?vid=d6eda669-c698-4352-a682-7ac7648b6b22"},"vehicle_type_id":"4","last_reported":1750255911,"current_range_meters":0,"station_id":"ce4bgv92rcd13ifvqcr0","pricing_plan_id":"cebpf4jnsgd1na2vs0mg"},{"bike_id":"e729d757-19c3-49cd-aaa1-a4311ee172b8","system_id":"levelo_inurba_marseille","lat":43.30876,"lon":5.39644,"is_reserved":false,"is_disabled":true,"rental_uris":{"android":"levelo://app?vid=e729d757-19c3-49cd-aaa1-a4311ee172b8","ios":"levelo://app?vid=e729d757-19c3-49cd-aaa1-a4311ee172b8"},"vehicle_type_id":"4","last_reported":1750255911,"current_range_meters":0,"station_id":"ce4bh012rcd13ifvqcv0","pricing_plan_id":"cebpf4jnsgd1na2vs0mg"},{"bike_id":"0777f124-78b8-46a9-8ea0-68160f9465c6","system_id":"levelo_inurba_marseille","lat":43.27378,"lon":5.3626,"is_reserved":false,"is_disabled":true,"rental_uris":{"android":"levelo://app?vid=0777f124-78b8-46a9-8ea0-68160f9465c6","ios":"levelo://app?vid=0777f124-78b8-46a9-8ea0-68160f9465c6"},"vehicle_type_id":"4","last_reported":1750255911,"current_range_meters":0,"station_id":"ce4bhbh2rcd13ifvqeo0","pricing_plan_id":"cebpf4jnsgd1na2vs0mg"},{"bike_id":"d87d7637-6fa4-49aa-9e8a-305d3d394efe","system_id":"levelo_inurba_marseille","lat":43.2657,"lon":5.3902,"is_reserved":false,"is_disabled":true,"rental_uris":{"android":"levelo://app?vid=d87d7637-6fa4-49aa-9e8a-305d3d394efe","ios":"levelo://app?vid=d87d7637-6fa4-49aa-9e8a-305d3d394efe"},"vehicle_type_id":"4","last_reported":1750255911,"current_range_meters":0,"station_id":"ce4bhe12rcd13ifvqf30","pricing_plan_id":"cebpf4jnsgd1na2vs0mg"},{"bike_id":"0d2f687e-4dff-434c-8797-8c0563c89d1f","system_id":"levelo_inurba_marseille","lat":43.266781,"lon":5.382712,"is_reserved":false,"is_disabled":true,"rental_uris":{"android":"levelo://app?vid=0d2f687e-4dff-434c-8797-8c0563c89d1f","ios":"levelo://app?vid=0d2f687e-4dff-434c-8797-8c0563c89d1f"},"vehicle_type_id":"4","last_reported":1750255911,"current_range_meters":0,"station_id":"ce4bhg92rcd13ifvqf90","pricing_plan_id":"cebpf4jnsgd1na2vs0mg"},{"bike_id":"d573cacf-f8a2-47d5-b18a-7866b12a83f5","system_id":"levelo_inurba_marseille","lat":43.27058,"lon":5.40263,"is_reserved":false,"is_disabled":true,"rental_uris":{"android":"levelo://app?vid=d573cacf-f8a2-47d5-b18a-7866b12a83f5","ios":"levelo://app?vid=d573cacf-f8a2-47d5-b18a-7866b12a83f5"},"vehicle_type_id":"4","last_reported":1750255911,"current_range_meters":0,"station_id":"ce4bhk92rcd13ifvqgc0","pricing_plan_id":"cebpf4jnsgd1na2vs0mg"},{"bike_id":"9b4934a9-7ba0-4fac-b0c2-ebf9621a2143","system_id":"levelo_inurba_marseille","lat":43.23194,"lon":5.35566,"is_reserved":false,"is_disabled":true,"rental_uris":{"android":"levelo://app?vid=9b4934a9-7ba0-4fac-b0c2-ebf9621a2143","ios":"levelo://app?vid=9b4934a9-7ba0-4fac-b0c2-ebf9621a2143"},"vehicle_type_id":"4","last_reported":1750255911,"current_range_meters":0,"station_id":"ce4bhu92rcd13ifvqi70","pricing_plan_id":"cebpf4jnsgd1na2vs0mg"},{"bike_id":"1566e6d8-f722-4ced-9fa2-bdec630074d2","system_id":"levelo_inurba_marseille","lat":43.30143,"lon":5.39905,"is_reserved":false,"is_disabled":true,"rental_uris":{"android":"levelo://app?vid=1566e6d8-f722-4ced-9fa2-bdec630074d2","ios":"levelo://app?vid=1566e6d8-f722-4ced-9fa2-bdec630074d2"},"vehicle_type_id":"4","last_reported":1750255911,"current_range_meters":400,"station_id":"ce4bh0h2rcd13ifvqd40","pricing_plan_id":"cebpf4jnsgd1na2vs0mg"},{"bike_id":"5c8c988b-e837-4073-a8a6-f83c36974a23","system_id":"levelo_inurba_marseille","lat":43.30336,"lon":5.40434,"is_reserved":false,"is_disabled":true,"rental_uris":{"android":"levelo://app?vid=5c8c988b-e837-4073-a8a6-f83c36974a23","ios":"levelo://app?vid=5c8c988b-e837-4073-a8a6-f83c36974a23"},"vehicle_type_id":"4","last_reported":1750255911,"current_range_meters":800,"station_id":"ce4bh012rcd13ifvqd10","pricing_plan_id":"cebpf4jnsgd1na2vs0mg"},{"bike_id":"250f53d9-7c89-4a2f-abaf-a5ef225f4c43","system_id":"levelo_inurba_marseille","lat":43.30589,"lon":5.39363,"is_reserved":false,"is_disabled":true,"rental_uris":{"android":"levelo://app?vid=250f53d9-7c89-4a2f-abaf-a5ef225f4c43","ios":"levelo://app?vid=250f53d9-7c89-4a2f-abaf-a5ef225f4c43"},"vehicle_type_id":"4","last_reported":1750255911,"current_range_meters":800,"station_id":"ce4bh0p2rcd13ifvqd80","pricing_plan_id":"cebpf4jnsgd1na2vs0mg"},{"bike_id":"44a6308f-2cc5-47cc-8c7b-6573c2fbebab","system_id":"levelo_inurba_marseille","lat":43.29421,"lon":5.38612,"is_reserved":false,"is_disabled":true,"rental_uris":{"android":"levelo://app?vid=44a6308f-2cc5-47cc-8c7b-6573c2fbebab","ios":"levelo://app?vid=44a6308f-2cc5-47cc-8c7b-6573c2fbebab"},"vehicle_type_id":"4","last_reported":1750255911,"current_range_meters":800,"station_id":"ce4bh2h2rcd13ifvqdh0","pricing_plan_id":"cebpf4jnsgd1na2vs0mg"},{"bike_id":"c2b63942-c12a-40ed-98d6-8dc8ceaf0095","system_id":"levelo_inurba_marseille","lat":43.26196,"lon":5.37516,"is_reserved":false,"is_disabled":true,"rental_uris":{"android":"levelo://app?vid=c2b63942-c12a-40ed-98d6-8dc8ceaf0095","ios":"levelo://app?vid=c2b63942-c12a-40ed-98d6-8dc8ceaf0095"},"vehicle_type_id":"4","last_reported":1750255911,"current_range_meters":1200,"station_id":"","pricing_plan_id":"cebpf4jnsgd1na2vs0mg"},{"bike_id":"4a0f1ced-d78d-46e4-a042-7a10531b1b90","system_id":"levelo_inurba_marseille","lat":43.29529,"lon":5.38533,"is_reserved":false,"is_disabled":true,"rental_uris":{"android":"levelo://app?vid=4a0f1ced-d78d-46e4-a042-7a10531b1b90","ios":"levelo://app?vid=4a0f1ced-d78d-46e4-a042-7a10531b1b90"},"vehicle_type_id":"4","last_reported":1750255911,"current_range_meters":1200,"station_id":"ce4bgih2rcd13ifvqba0","pricing_plan_id":"cebpf4jnsgd1na2vs0mg"},{"bike_id":"f4092d85-445f-4f10-8c87-cddb3c0c9958","system_id":"levelo_inurba_marseille","lat":43.31479,"lon":5.37312,"is_reserved":false,"is_disabled":true,"rental_uris":{"android":"levelo://app?vid=f4092d85-445f-4f10-8c87-cddb3c0c9958","ios":"levelo://app?vid=f4092d85-445f-4f10-8c87-cddb3c0c9958"},"vehicle_type_id":"4","last_reported":1750255911,"current_range_meters":1200,"station_id":"ce4bgt12rcd13ifvqcd0","pricing_plan_id":"cebpf4jnsgd1na2vs0mg"},{"bike_id":"1a753e9e-dfe8-47b1-993b-e078fb974559","system_id":"levelo_inurba_marseille","lat":43.30573,"lon":5.373376,"is_reserved":false,"is_disabled":true,"rental_uris":{"android":"levelo://app?vid=1a753e9e-dfe8-47b1-993b-e078fb974559","ios":"levelo://app?vid=1a753e9e-dfe8-47b1-993b-e078fb974559"},"vehicle_type_id":"4","last_reported":1750255911,"current_range_meters":1200,"station_id":"ce4bguh2rcd13ifvqckg","pricing_plan_id":"cebpf4jnsgd1na2vs0mg"},{"bike_id":"6d11ca1f-97e1-411a-a63c-5c488bd73035","system_id":"levelo_inurba_marseille","lat":43.278349,"lon":5.392117,"is_reserved":false,"is_disabled":true,"rental_uris":{"android":"levelo://app?vid=6d11ca1f-97e1-411a-a63c-5c488bd73035","ios":"levelo://app?vid=6d11ca1f-97e1-411a-a63c-5c488bd73035"},"vehicle_type_id":"4","last_reported":1750255911,"current_range_meters":1200,"station_id":"ce4bhjp2rcd13ifvqga0","pricing_plan_id":"cebpf4jnsgd1na2vs0mg"},{"bike_id":"4cf7f109-cc04-46ba-8420-3bda7cab07ca","system_id":"levelo_inurba_marseille","lat":43.23189,"lon":5.35553,"is_reserved":false,"is_disabled":true,"rental_uris":{"android":"levelo://app?vid=4cf7f109-cc04-46ba-8420-3bda7cab07ca","ios":"levelo://app?vid=4cf7f109-cc04-46ba-8420-3bda7cab07ca"},"vehicle_type_id":"4","last_reported":1750255911,"current_range_meters":1200,"station_id":"ce4bhu92rcd13ifvqi70","pricing_plan_id":"cebpf4jnsgd1na2vs0mg"},{"bike_id":"237b4703-a3ac-4ffd-9a47-741d2c8ba76b","system_id":"levelo_inurba_marseille","lat":43.29965,"lon":5.38514,"is_reserved":false,"is_disabled":true,"rental_uris":{"android":"levelo://app?vid=237b4703-a3ac-4ffd-9a47-741d2c8ba76b","ios":"levelo://app?vid=237b4703-a3ac-4ffd-9a47-741d2c8ba76b"},"vehicle_type_id":"4","last_reported":1750255911,"current_range_meters":1600,"station_id":"ce4bgj92rcd13ifvqbd0","pricing_plan_id":"cebpf4jnsgd1na2vs0mg"},{"bike_id":"9ca958c7-938c-4406-a590-0ed12fa3e760","system_id":"levelo_inurba_marseille","lat":43.25,"lon":5.38921,"is_reserved":false,"is_disabled":true,"rental_uris":{"android":"levelo://app?vid=9ca958c7-938c-4406-a590-0ed12fa3e760","ios":"levelo://app?vid=9ca958c7-938c-4406-a590-0ed12fa3e760"},"vehicle_type_id":"4","last_reported":1750255911,"current_range_meters":1600,"station_id":"ce4bhgp2rcd13ifvqfd0","pricing_plan_id":"cebpf4jnsgd1na2vs0mg"},{"bike_id":"d33af23f-6948-4ebb-aba0-1cbef8e40086","system_id":"levelo_inurba_marseille","lat":43.2558,"lon":5.38237,"is_reserved":false,"is_disabled":true,"rental_uris":{"android":"levelo://app?vid=d33af23f-6948-4ebb-aba0-1cbef8e40086","ios":"levelo://app?vid=d33af23f-6948-4ebb-aba0-1cbef8e40086"},"vehicle_type_id":"4","last_reported":1750255911,"current_range_meters":1600,"station_id":"ce4bhih2rcd13ifvqfs0","pricing_plan_id":"cebpf4jnsgd1na2vs0mg"},{"bike_id":"2395248d-0fef-4e4f-ba8e-f8283c94ae53","system_id":"levelo_inurba_marseille","lat":43.31256,"lon":5.39511,"is_reserved":false,"is_disabled":true,"rental_uris":{"android":"levelo://app?vid=2395248d-0fef-4e4f-ba8e-f8283c94ae53","ios":"levelo://app?vid=2395248d-0fef-4e4f-ba8e-f8283c94ae53"},"vehicle_type_id":"4","last_reported":1750255911,"current_range_meters":2000,"station_id":"","pricing_plan_id":"cebpf4jnsgd1na2vs0mg"},{"bike_id":"d8467311-16f6-4658-8951-bc0c9997ea0a","system_id":"levelo_inurba_marseille","lat":43.27616,"lon":5.36101,"is_reserved":false,"is_disabled":true,"rental_uris":{"android":"levelo://app?vid=d8467311-16f6-4658-8951-bc0c9997ea0a","ios":"levelo://app?vid=d8467311-16f6-4658-8951-bc0c9997ea0a"},"vehicle_type_id":"4","last_reported":1750255911,"current_range_meters":2000,"station_id":"ce4bgj92rcd13ifvqbe0","pricing_plan_id":"cebpf4jnsgd1na2vs0mg"},{"bike_id":"eac268c4-c437-43e4-8bdf-901fb489d049","system_id":"levelo_inurba_marseille","lat":43.29263,"lon":5.38438,"is_reserved":false,"is_disabled":true,"rental_uris":{"android":"levelo://app?vid=eac268c4-c437-43e4-8bdf-901fb489d049","ios":"levelo://app?vid=eac268c4-c437-43e4-8bdf-901fb489d049"},"vehicle_type_id":"4","last_reported":1750255911,"current_range_meters":2000,"station_id":"ce4bh692rcd13ifvqea0","pricing_plan_id":"cebpf4jnsgd1na2vs0mg"},{"bike_id":"8772a721-db50-4875-b361-a1bf1ea5fb3a","system_id":"levelo_inurba_marseille","lat":43.286127,"lon":5.351083,"is_reserved":false,"is_disabled":true,"rental_uris":{"android":"levelo://app?vid=8772a721-db50-4875-b361-a1bf1ea5fb3a","ios":"levelo://app?vid=8772a721-db50-4875-b361-a1bf1ea5fb3a"},"vehicle_type_id":"4","last_reported":1750255911,"current_range_meters":2000,"station_id":"ce4bhbp2rcd13ifvqesg","pricing_plan_id":"cebpf4jnsgd1na2vs0mg"},{"bike_id":"bade04c7-4338-4650-aa77-ebc4566bdcc3","system_id":"levelo_inurba_marseille","lat":43.28708,"lon":5.3999,"is_reserved":false,"is_disabled":false,"rental_uris":{"android":"levelo://app?vid=bade04c7-4338-4650-aa77-ebc4566bdcc3","ios":"levelo://app?vid=bade04c7-4338-4650-aa77-ebc4566bdcc3"},"vehicle_type_id":"4","last_reported":1750255911,"current_range_meters":2000,"station_id":"ce4bho92rcd13ifvqh3g","pricing_plan_id":"cebpf4jnsgd1na2vs0mg"},{"bike_id":"2559e2d3-fa6e-4460-9133-975cb77d2158","system_id":"levelo_inurba_marseille","lat":43.31764,"lon":5.3901,"is_reserved":false,"is_disabled":true,"rental_uris":{"android":"levelo://app?vid=2559e2d3-fa6e-4460-9133-975cb77d2158","ios":"levelo://app?vid=2559e2d3-fa6e-4460-9133-975cb77d2158"},"vehicle_type_id":"4","last_reported":1750255911,"current_range_meters":2000,"station_id":"ce4bhqp2rcd13ifvqhng","pricing_plan_id":"cebpf4jnsgd1na2vs0mg"},{"bike_id":"47196f00-388f-4b3b-a4de-3dba126cd107","system_id":"levelo_inurba_marseille","lat":43.24361,"lon":5.41174,"is_reserved":false,"is_disabled":false,"rental_uris":{"android":"levelo://app?vid=47196f00-388f-4b3b-a4de-3dba126cd107","ios":"levelo://app?vid=47196f00-388f-4b3b-a4de-3dba126cd107"},"vehicle_type_id":"4","last_reported":1750255911,"current_range_meters":2800,"station_id":"","pricing_plan_id":"cebpf4jnsgd1na2vs0mg"},{"bike_id":"99216c03-4056-4425-8cdf-f5a649497eb0","system_id":"levelo_inurba_marseille","lat":43.305359,"lon":5.365519,"is_reserved":false,"is_disabled":false,"rental_uris":{"android":"levelo://app?vid=99216c03-4056-4425-8cdf-f5a649497eb0","ios":"levelo://app?vid=99216c03-4056-4425-8cdf-f5a649497eb0"},"vehicle_type_id":"4","last_reported":1750255911,"current_range_meters":2800,"station_id":"ce4bgs12rcd13ifvqcag","pricing_plan_id":"cebpf4jnsgd1na2vs0mg"},{"bike_id":"0eb847d7-4aae-442a-857e-27d2ae6bcede","system_id":"levelo_inurba_marseille","lat":43.30132,"lon":5.37456,"is_reserved":false,"is_disabled":false,"rental_uris":{"android":"levelo://app?vid=0eb847d7-4aae-442a-857e-27d2ae6bcede","ios":"levelo://app?vid=0eb847d7-4aae-442a-857e-27d2ae6bcede"},"vehicle_type_id":"4","last_reported":1750255911,"current_range_meters":2800,"station_id":"ce4bgs92rcd13ifvqcc0","pricing_plan_id":"cebpf4jnsgd1na2vs0mg"},{"bike_id":"be887722-7ea3-49d1-bfab-552b4380cfb8","system_id":"levelo_inurba_marseille","lat":43.31118,"lon":5.37777,"is_reserved":false,"is_disabled":false,"rental_uris":{"android":"levelo://app?vid=be887722-7ea3-49d1-bfab-552b4380cfb8","ios":"levelo://app?vid=be887722-7ea3-49d1-bfab-552b4380cfb8"},"vehicle_type_id":"4","last_reported":1750255911,"current_range_meters":2800,"station_id":"ce4bgt92rcd13ifvqcg0","pricing_plan_id":"cebpf4jnsgd1na2vs0mg"},{"bike_id":"4c5347e0-f9d3-486e-9d42-7d0f0b860617","system_id":"levelo_inurba_marseille","lat":43.282654,"lon":5.350585,"is_reserved":false,"is_disabled":false,"rental_uris":{"android":"levelo://app?vid=4c5347e0-f9d3-486e-9d42-7d0f0b860617","ios":"levelo://app?vid=4c5347e0-f9d3-486e-9d42-7d0f0b860617"},"vehicle_type_id":"4","last_reported":1750255911,"current_range_meters":2800,"station_id":"ce4bhbp2rcd13ifvqerg","pricing_plan_id":"cebpf4jnsgd1na2vs0mg"},{"bike_id":"c388ba51-fc3b-4acd-8c3f-9c34697c2e64","system_id":"levelo_inurba_marseille","lat":43.25678,"lon":5.41064,"is_reserved":false,"is_disabled":false,"rental_uris":{"android":"levelo://app?vid=c388ba51-fc3b-4acd-8c3f-9c34697c2e64","ios":"levelo://app?vid=c388ba51-fc3b-4acd-8c3f-9c34697c2e64"},"vehicle_type_id":"4","last_reported":1750255911,"current_range_meters":2800,"station_id":"ce4bhkp2rcd13ifvqgd0","pricing_plan_id":"cebpf4jnsgd1na2vs0mg"},{"bike_id":"330a39af-918d-4475-85f3-c7eaacec6a53","system_id":"levelo_inurba_marseille","lat":43.27212,"lon":5.39183,"is_reserved":false,"is_disabled":false,"rental_uris":{"android":"levelo://app?vid=330a39af-918d-4475-85f3-c7eaacec6a53","ios":"levelo://app?vid=330a39af-918d-4475-85f3-c7eaacec6a53"},"vehicle_type_id":"4","last_reported":1750255911,"current_range_meters":3200,"station_id":"ce4bhhp2rcd13ifvqfm0","pricing_plan_id":"cebpf4jnsgd1na2vs0mg"},{"bike_id":"57f9fd95-ae73-40fa-9bfd-1eb42d8aa125","system_id":"levelo_inurba_marseille","lat":43.2808,"lon":5.39661,"is_reserved":false,"is_disabled":false,"rental_uris":{"android":"levelo://app?vid=57f9fd95-ae73-40fa-9bfd-1eb42d8aa125","ios":"levelo://app?vid=57f9fd95-ae73-40fa-9bfd-1eb42d8aa125"},"vehicle_type_id":"4","last_reported":1750255911,"current_range_meters":3200,"station_id":"ce4bho12rcd13ifvqh2g","pricing_plan_id":"cebpf4jnsgd1na2vs0mg"},{"bike_id":"31c17c58-ffcd-4d39-a7df-9d32cb4e3592","system_id":"levelo_inurba_marseille","lat":43.28398,"lon":5.37518,"is_reserved":false,"is_disabled":false,"rental_uris":{"android":"levelo://app?vid=31c17c58-ffcd-4d39-a7df-9d32cb4e3592","ios":"levelo://app?vid=31c17c58-ffcd-4d39-a7df-9d32cb4e3592"},"vehicle_type_id":"4","last_reported":1750255911,"current_range_meters":3600,"station_id":"ce4bh412rcd13ifvqds0","pricing_plan_id":"cebpf4jnsgd1na2vs0mg"},{"bike_id":"119602f0-6a79-4ed9-b439-e3ce8fe3bf82","system_id":"levelo_inurba_marseille","lat":43.291913,"lon":5.357945,"is_reserved":false,"is_disabled":false,"rental_uris":{"android":"levelo://app?vid=119602f0-6a79-4ed9-b439-e3ce8fe3bf82","ios":"levelo://app?vid=119602f0-6a79-4ed9-b439-e3ce8fe3bf82"},"vehicle_type_id":"4","last_reported":1750255911,"current_range_meters":4000,"station_id":"","pricing_plan_id":"cebpf4jnsgd1na2vs0mg"},{"bike_id":"b1fbcef1-fb25-4fde-a780-c3c930759d9c","system_id":"levelo_inurba_marseille","lat":43.30557,"lon":5.36556,"is_reserved":false,"is_disabled":false,"rental_uris":{"android":"levelo://app?vid=b1fbcef1-fb25-4fde-a780-c3c930759d9c","ios":"levelo://app?vid=b1fbcef1-fb25-4fde-a780-c3c930759d9c"},"vehicle_type_id":"4","last_reported":1750255911,"current_range_meters":4000,"station_id":"ce4bgs12rcd13ifvqcag","pricing_plan_id":"cebpf4jnsgd1na2vs0mg"},{"bike_id":"bbba2cb1-5aa9-44d2-a218-2b0560879f92","system_id":"levelo_inurba_marseille","lat":43.29551,"lon":5.42279,"is_reserved":false,"is_disabled":false,"rental_uris":{"android":"levelo://app?vid=bbba2cb1-5aa9-44d2-a218-2b0560879f92","ios":"levelo://app?vid=bbba2cb1-5aa9-44d2-a218-2b0560879f92"},"vehicle_type_id":"4","last_reported":1750255911,"current_range_meters":4000,"station_id":"ce4bhph2rcd13ifvqhdg","pricing_plan_id":"cebpf4jnsgd1na2vs0mg"},{"bike_id":"fe753a6d-0961-441e-b4a4-a4fa5974f5cc","system_id":"levelo_inurba_marseille","lat":43.2121,"lon":5.3505,"is_reserved":false,"is_disabled":false,"rental_uris":{"android":"levelo://app?vid=fe753a6d-0961-441e-b4a4-a4fa5974f5cc","ios":"levelo://app?vid=fe753a6d-0961-441e-b4a4-a4fa5974f5cc"},"vehicle_type_id":"4","last_reported":1750255911,"current_range_meters":4000,"station_id":"st_cvj6sg6p6f1abm77japg","pricing_plan_id":"cebpf4jnsgd1na2vs0mg"},{"bike_id":"b263fd76-7897-4b03-aad4-65b68c12766d","system_id":"levelo_inurba_marseille","lat":43.304413,"lon":5.400572,"is_reserved":false,"is_disabled":false,"rental_uris":{"android":"levelo://app?vid=b263fd76-7897-4b03-aad4-65b68c12766d","ios":"levelo://app?vid=b263fd76-7897-4b03-aad4-65b68c12766d"},"vehicle_type_id":"4","last_reported":1750255911,"current_range_meters":4800,"station_id":"ce4bh092rcd13ifvqd20","pricing_plan_id":"cebpf4jnsgd1na2vs0mg"},{"bike_id":"ac1c17be-32dc-4449-8610-ca5bfe2cd501","system_id":"levelo_inurba_marseille","lat":43.3378,"lon":5.37472,"is_reserved":false,"is_disabled":false,"rental_uris":{"android":"levelo://app?vid=ac1c17be-32dc-4449-8610-ca5bfe2cd501","ios":"levelo://app?vid=ac1c17be-32dc-4449-8610-ca5bfe2cd501"},"vehicle_type_id":"4","last_reported":1750255911,"current_range_meters":5600,"station_id":"","pricing_plan_id":"cebpf4jnsgd1na2vs0mg"},{"bike_id":"33e9c9da-1cc0-4262-ad00-281d3e3f35fc","system_id":"levelo_inurba_marseille","lat":43.33775,"lon":5.37484,"is_reserved":false,"is_disabled":false,"rental_uris":{"android":"levelo://app?vid=33e9c9da-1cc0-4262-ad00-281d3e3f35fc","ios":"levelo://app?vid=33e9c9da-1cc0-4262-ad00-281d3e3f35fc"},"vehicle_type_id":"4","last_reported":1750255911,"current_range_meters":5600,"station_id":"","pricing_plan_id":"cebpf4jnsgd1na2vs0mg"},{"bike_id":"6ba80795-26da-43fa-ab60-6831760385ff","system_id":"levelo_inurba_marseille","lat":43.32577,"lon":5.41961,"is_reserved":false,"is_disabled":false,"rental_uris":{"android":"levelo://app?vid=6ba80795-26da-43fa-ab60-6831760385ff","ios":"levelo://app?vid=6ba80795-26da-43fa-ab60-6831760385ff"},"vehicle_type_id":"4","last_reported":1750255911,"current_range_meters":5600,"station_id":"","pricing_plan_id":"cebpf4jnsgd1na2vs0mg"},{"bike_id":"7fb8b15e-4b64-481d-bb7c-0cfd6c7982d8","system_id":"levelo_inurba_marseille","lat":43.30565,"lon":5.36546,"is_reserved":false,"is_disabled":false,"rental_uris":{"android":"levelo://app?vid=7fb8b15e-4b64-481d-bb7c-0cfd6c7982d8","ios":"levelo://app?vid=7fb8b15e-4b64-481d-bb7c-0cfd6c7982d8"},"vehicle_type_id":"4","last_reported":1750255911,"current_range_meters":5600,"station_id":"ce4bgs12rcd13ifvqcag","pricing_plan_id":"cebpf4jnsgd1na2vs0mg"},{"bike_id":"b2a412fd-12fe-473a-87df-f5d760c5451e","system_id":"levelo_inurba_marseille","lat":43.26596,"lon":5.3905,"is_reserved":false,"is_disabled":false,"rental_uris":{"android":"levelo://app?vid=b2a412fd-12fe-473a-87df-f5d760c5451e","ios":"levelo://app?vid=b2a412fd-12fe-473a-87df-f5d760c5451e"},"vehicle_type_id":"4","last_reported":1750255911,"current_range_meters":5600,"station_id":"ce4bhe12rcd13ifvqf30","pricing_plan_id":"cebpf4jnsgd1na2vs0mg"},{"bike_id":"2cc926f4-9c7a-4d5e-962d-579330579007","system_id":"levelo_inurba_marseille","lat":43.26927,"lon":5.38911,"is_reserved":false,"is_disabled":false,"rental_uris":{"android":"levelo://app?vid=2cc926f4-9c7a-4d5e-962d-579330579007","ios":"levelo://app?vid=2cc926f4-9c7a-4d5e-962d-579330579007"},"vehicle_type_id":"4","last_reported":1750255911,"current_range_meters":5600,"station_id":"ce4bhhh2rcd13ifvqfl0","pricing_plan_id":"cebpf4jnsgd1na2vs0mg"},{"bike_id":"ae4a7bb6-19ec-4528-ba2f-4c58721d2ee8","system_id":"levelo_inurba_marseille","lat":43.23332,"lon":5.43604,"is_reserved":false,"is_disabled":false,"rental_uris":{"android":"levelo://app?vid=ae4a7bb6-19ec-4528-ba2f-4c58721d2ee8","ios":"levelo://app?vid=ae4a7bb6-19ec-4528-ba2f-4c58721d2ee8"},"vehicle_type_id":"4","last_reported":1750255911,"current_range_meters":6000,"station_id":"","pricing_plan_id":"cebpf4jnsgd1na2vs0mg"},{"bike_id":"f6dbfcc9-02e9-4217-8121-024058473198","system_id":"levelo_inurba_marseille","lat":43.31076,"lon":5.38352,"is_reserved":false,"is_disabled":false,"rental_uris":{"android":"levelo://app?vid=f6dbfcc9-02e9-4217-8121-024058473198","ios":"levelo://app?vid=f6dbfcc9-02e9-4217-8121-024058473198"},"vehicle_type_id":"4","last_reported":1750255911,"current_range_meters":6000,"station_id":"ce4bgv92rcd13ifvqcr0","pricing_plan_id":"cebpf4jnsgd1na2vs0mg"},{"bike_id":"60ae03b5-d6b1-41c7-b64d-27bb68bb4255","system_id":"levelo_inurba_marseille","lat":43.30335,"lon":5.40429,"is_reserved":false,"is_disabled":false,"rental_uris":{"android":"levelo://app?vid=60ae03b5-d6b1-41c7-b64d-27bb68bb4255","ios":"levelo://app?vid=60ae03b5-d6b1-41c7-b64d-27bb68bb4255"},"vehicle_type_id":"4","last_reported":1750255911,"current_range_meters":6000,"station_id":"ce4bh012rcd13ifvqd10","pricing_plan_id":"cebpf4jnsgd1na2vs0mg"},{"bike_id":"857c245f-8ab5-4179-9a16-97db6aa6bebe","system_id":"levelo_inurba_marseille","lat":43.23154,"lon":5.4373,"is_reserved":false,"is_disabled":false,"rental_uris":{"android":"levelo://app?vid=857c245f-8ab5-4179-9a16-97db6aa6bebe","ios":"levelo://app?vid=857c245f-8ab5-4179-9a16-97db6aa6bebe"},"vehicle_type_id":"4","last_reported":1750255911,"current_range_meters":6000,"station_id":"ce4bhmp2rcd13ifvqgog","pricing_plan_id":"cebpf4jnsgd1na2vs0mg"},{"bike_id":"a1742546-dac7-483f-8d8f-ba8c55583159","system_id":"levelo_inurba_marseille","lat":43.27814,"lon":5.40716,"is_reserved":false,"is_disabled":false,"rental_uris":{"android":"levelo://app?vid=a1742546-dac7-483f-8d8f-ba8c55583159","ios":"levelo://app?vid=a1742546-dac7-483f-8d8f-ba8c55583159"},"vehicle_type_id":"4","last_reported":1750255911,"current_range_meters":6000,"station_id":"ce4bhnh2rcd13ifvqgtg","pricing_plan_id":"cebpf4jnsgd1na2vs0mg"},{"bike_id":"e03a6d42-f362-4878-ab56-4b5afba95b0c","system_id":"levelo_inurba_marseille","lat":43.31468,"lon":5.36915,"is_reserved":false,"is_disabled":false,"rental_uris":{"android":"levelo://app?vid=e03a6d42-f362-4878-ab56-4b5afba95b0c","ios":"levelo://app?vid=e03a6d42-f362-4878-ab56-4b5afba95b0c"},"vehicle_type_id":"4","last_reported":1750255911,"current_range_meters":6400,"station_id":"","pricing_plan_id":"cebpf4jnsgd1na2vs0mg"},{"bike_id":"3b136301-d892-4bf1-aa15-695ec30464ca","system_id":"levelo_inurba_marseille","lat":43.3208,"lon":5.36756,"is_reserved":false,"is_disabled":false,"rental_uris":{"android":"levelo://app?vid=3b136301-d892-4bf1-aa15-695ec30464ca","ios":"levelo://app?vid=3b136301-d892-4bf1-aa15-695ec30464ca"},"vehicle_type_id":"4","last_reported":1750255911,"current_range_meters":6400,"station_id":"ce4bhrh2rcd13ifvqhug","pricing_plan_id":"cebpf4jnsgd1na2vs0mg"},{"bike_id":"abf4ed8b-1b33-4c2d-9ef0-f124cf1fc678","system_id":"levelo_inurba_marseille","lat":43.26562,"lon":5.37282,"is_reserved":false,"is_disabled":false,"rental_uris":{"android":"levelo://app?vid=abf4ed8b-1b33-4c2d-9ef0-f124cf1fc678","ios":"levelo://app?vid=abf4ed8b-1b33-4c2d-9ef0-f124cf1fc678"},"vehicle_type_id":"4","last_reported":1750255911,"current_range_meters":6800,"station_id":"ce4bhg12rcd13ifvqf70","pricing_plan_id":"cebpf4jnsgd1na2vs0mg"},{"bike_id":"4611b6b4-e0b2-4c45-a066-3b83391bf65c","system_id":"levelo_inurba_marseille","lat":43.3211,"lon":5.36771,"is_reserved":false,"is_disabled":false,"rental_uris":{"android":"levelo://app?vid=4611b6b4-e0b2-4c45-a066-3b83391bf65c","ios":"levelo://app?vid=4611b6b4-e0b2-4c45-a066-3b83391bf65c"},"vehicle_type_id":"4","last_reported":1750255911,"current_range_meters":6800,"station_id":"ce4bhrh2rcd13ifvqhug","pricing_plan_id":"cebpf4jnsgd1na2vs0mg"},{"bike_id":"4d84218c-107f-4c10-8175-f54b711c0074","system_id":"levelo_inurba_marseille","lat":43.29398,"lon":5.39531,"is_reserved":false,"is_disabled":false,"rental_uris":{"android":"levelo://app?vid=4d84218c-107f-4c10-8175-f54b711c0074","ios":"levelo://app?vid=4d84218c-107f-4c10-8175-f54b711c0074"},"vehicle_type_id":"4","last_reported":1750255911,"current_range_meters":7200,"station_id":"","pricing_plan_id":"cebpf4jnsgd1na2vs0mg"},{"bike_id":"fb7f0fca-328c-4590-8315-5fcf92aa068d","system_id":"levelo_inurba_marseille","lat":43.3378,"lon":5.37473,"is_reserved":false,"is_disabled":false,"rental_uris":{"android":"levelo://app?vid=fb7f0fca-328c-4590-8315-5fcf92aa068d","ios":"levelo://app?vid=fb7f0fca-328c-4590-8315-5fcf92aa068d"},"vehicle_type_id":"4","last_reported":1750255911,"current_range_meters":7200,"station_id":"","pricing_plan_id":"cebpf4jnsgd1na2vs0mg"},{"bike_id":"7b54b018-21e0-48f3-9ceb-19cbfd93d3a2","system_id":"levelo_inurba_marseille","lat":43.31169,"lon":5.38715,"is_reserved":false,"is_disabled":false,"rental_uris":{"android":"levelo://app?vid=7b54b018-21e0-48f3-9ceb-19cbfd93d3a2","ios":"levelo://app?vid=7b54b018-21e0-48f3-9ceb-19cbfd93d3a2"},"vehicle_type_id":"4","last_reported":1750255911,"current_range_meters":7200,"station_id":"ce4bgv12rcd13ifvqcp0","pricing_plan_id":"cebpf4jnsgd1na2vs0mg"},{"bike_id":"eac129a6-616e-4e1d-9d09-c5ddf22e457f","system_id":"levelo_inurba_marseille","lat":43.28275,"lon":5.35073,"is_reserved":false,"is_disabled":false,"rental_uris":{"android":"levelo://app?vid=eac129a6-616e-4e1d-9d09-c5ddf22e457f","ios":"levelo://app?vid=eac129a6-616e-4e1d-9d09-c5ddf22e457f"},"vehicle_type_id":"4","last_reported":1750255911,"current_range_meters":7200,"station_id":"ce4bhbp2rcd13ifvqerg","pricing_plan_id":"cebpf4jnsgd1na2vs0mg"},{"bike_id":"13603010-4ba6-45d8-8742-faf7a41367fa","system_id":"levelo_inurba_marseille","lat":43.29213,"lon":5.38305,"is_reserved":false,"is_disabled":false,"rental_uris":{"android":"levelo://app?vid=13603010-4ba6-45d8-8742-faf7a41367fa","ios":"levelo://app?vid=13603010-4ba6-45d8-8742-faf7a41367fa"},"vehicle_type_id":"4","last_reported":1750255911,"current_range_meters":8000,"station_id":"","pricing_plan_id":"cebpf4jnsgd1na2vs0mg"},{"bike_id":"0c2732ce-a727-46b0-af5a-af7ba2098b27","system_id":"levelo_inurba_marseille","lat":43.319885,"lon":5.381659,"is_reserved":false,"is_disabled":false,"rental_uris":{"android":"levelo://app?vid=0c2732ce-a727-46b0-af5a-af7ba2098b27","ios":"levelo://app?vid=0c2732ce-a727-46b0-af5a-af7ba2098b27"},"vehicle_type_id":"4","last_reported":1750255911,"current_range_meters":8000,"station_id":"","pricing_plan_id":"cebpf4jnsgd1na2vs0mg"},{"bike_id":"94bcc58f-7023-41cb-871b-3595da7eac8b","system_id":"levelo_inurba_marseille","lat":43.33154,"lon":5.38168,"is_reserved":false,"is_disabled":false,"rental_uris":{"android":"levelo://app?vid=94bcc58f-7023-41cb-871b-3595da7eac8b","ios":"levelo://app?vid=94bcc58f-7023-41cb-871b-3595da7eac8b"},"vehicle_type_id":"4","last_reported":1750255911,"current_range_meters":8000,"station_id":"","pricing_plan_id":"cebpf4jnsgd1na2vs0mg"},{"bike_id":"820df921-69fc-426c-b325-82acf4918bb0","system_id":"levelo_inurba_marseille","lat":43.30604,"lon":5.372023,"is_reserved":false,"is_disabled":false,"rental_uris":{"android":"levelo://app?vid=820df921-69fc-426c-b325-82acf4918bb0","ios":"levelo://app?vid=820df921-69fc-426c-b325-82acf4918bb0"},"vehicle_type_id":"4","last_reported":1750255911,"current_range_meters":8000,"station_id":"ce4bgqh2rcd13ifvqc4g","pricing_plan_id":"cebpf4jnsgd1na2vs0mg"},{"bike_id":"7b969b1e-376f-43ef-b7f4-a76b716448df","system_id":"levelo_inurba_marseille","lat":43.29174,"lon":5.37165,"is_reserved":false,"is_disabled":false,"rental_uris":{"android":"levelo://app?vid=7b969b1e-376f-43ef-b7f4-a76b716448df","ios":"levelo://app?vid=7b969b1e-376f-43ef-b7f4-a76b716448df"},"vehicle_type_id":"4","last_reported":1750255911,"current_range_meters":8000,"station_id":"ce4bha92rcd13ifvqeh0","pricing_plan_id":"cebpf4jnsgd1na2vs0mg"},{"bike_id":"085fcb67-4b97-4d44-93c9-f419010638b3","system_id":"levelo_inurba_marseille","lat":43.28616,"lon":5.35103,"is_reserved":false,"is_disabled":false,"rental_uris":{"android":"levelo://app?vid=085fcb67-4b97-4d44-93c9-f419010638b3","ios":"levelo://app?vid=085fcb67-4b97-4d44-93c9-f419010638b3"},"vehicle_type_id":"4","last_reported":1750255911,"current_range_meters":8000,"station_id":"ce4bhch2rcd13ifvqeug","pricing_plan_id":"cebpf4jnsgd1na2vs0mg"},{"bike_id":"cac4e0b6-0186-443e-9055-6894ffb14af3","system_id":"levelo_inurba_marseille","lat":43.27206,"lon":5.39188,"is_reserved":false,"is_disabled":false,"rental_uris":{"android":"levelo://app?vid=cac4e0b6-0186-443e-9055-6894ffb14af3","ios":"levelo://app?vid=cac4e0b6-0186-443e-9055-6894ffb14af3"},"vehicle_type_id":"4","last_reported":1750255911,"current_range_meters":8000,"station_id":"ce4bhhp2rcd13ifvqfm0","pricing_plan_id":"cebpf4jnsgd1na2vs0mg"},{"bike_id":"d31dee22-c0d2-4965-a7a3-04f95bc8c47c","system_id":"levelo_inurba_marseille","lat":43.279002,"lon":5.412225,"is_reserved":false,"is_disabled":false,"rental_uris":{"android":"levelo://app?vid=d31dee22-c0d2-4965-a7a3-04f95bc8c47c","ios":"levelo://app?vid=d31dee22-c0d2-4965-a7a3-04f95bc8c47c"},"vehicle_type_id":"4","last_reported":1750255911,"current_range_meters":8400,"station_id":"","pricing_plan_id":"cebpf4jnsgd1na2vs0mg"},{"bike_id":"c6890f29-45c5-40d5-a6ef-c789ad248c19","system_id":"levelo_inurba_marseille","lat":43.241822,"lon":5.397259,"is_reserved":false,"is_disabled":false,"rental_uris":{"android":"levelo://app?vid=c6890f29-45c5-40d5-a6ef-c789ad248c19","ios":"levelo://app?vid=c6890f29-45c5-40d5-a6ef-c789ad248c19"},"vehicle_type_id":"4","last_reported":1750255911,"current_range_meters":8400,"station_id":"","pricing_plan_id":"cebpf4jnsgd1na2vs0mg"},{"bike_id":"6f3a0055-18ce-456d-886f-5dd53c809fc5","system_id":"levelo_inurba_marseille","lat":43.26777,"lon":5.42543,"is_reserved":false,"is_disabled":false,"rental_uris":{"android":"levelo://app?vid=6f3a0055-18ce-456d-886f-5dd53c809fc5","ios":"levelo://app?vid=6f3a0055-18ce-456d-886f-5dd53c809fc5"},"vehicle_type_id":"4","last_reported":1750255911,"current_range_meters":8400,"station_id":"","pricing_plan_id":"cebpf4jnsgd1na2vs0mg"},{"bike_id":"f6fcd330-3800-40c4-a31c-dd93eda3d82f","system_id":"levelo_inurba_marseille","lat":43.29035,"lon":5.38653,"is_reserved":false,"is_disabled":false,"rental_uris":{"android":"levelo://app?vid=f6fcd330-3800-40c4-a31c-dd93eda3d82f","ios":"levelo://app?vid=f6fcd330-3800-40c4-a31c-dd93eda3d82f"},"vehicle_type_id":"4","last_reported":1750255911,"current_range_meters":8400,"station_id":"ce4bh4p2rcd13ifvqe0g","pricing_plan_id":"cebpf4jnsgd1na2vs0mg"},{"bike_id":"59f03aad-a8c7-45bb-b404-6b3e5bffd2eb","system_id":"levelo_inurba_marseille","lat":43.28717,"lon":5.36086,"is_reserved":false,"is_disabled":false,"rental_uris":{"android":"levelo://app?vid=59f03aad-a8c7-45bb-b404-6b3e5bffd2eb","ios":"levelo://app?vid=59f03aad-a8c7-45bb-b404-6b3e5bffd2eb"},"vehicle_type_id":"4","last_reported":1750255911,"current_range_meters":8400,"station_id":"cki0cbj6b192h4jlfktg","pricing_plan_id":"cebpf4jnsgd1na2vs0mg"},{"bike_id":"b5002037-f4b0-4634-8bc4-796d0c74810e","system_id":"levelo_inurba_marseille","lat":43.24384,"lon":5.41143,"is_reserved":false,"is_disabled":false,"rental_uris":{"android":"levelo://app?vid=b5002037-f4b0-4634-8bc4-796d0c74810e","ios":"levelo://app?vid=b5002037-f4b0-4634-8bc4-796d0c74810e"},"vehicle_type_id":"4","last_reported":1750255911,"current_range_meters":8800,"station_id":"","pricing_plan_id":"cebpf4jnsgd1na2vs0mg"},{"bike_id":"3561babf-0bf4-4ae4-b838-e54edaaa378b","system_id":"levelo_inurba_marseille","lat":43.30569,"lon":5.38125,"is_reserved":false,"is_disabled":false,"rental_uris":{"android":"levelo://app?vid=3561babf-0bf4-4ae4-b838-e54edaaa378b","ios":"levelo://app?vid=3561babf-0bf4-4ae4-b838-e54edaaa378b"},"vehicle_type_id":"4","last_reported":1750255911,"current_range_meters":8800,"station_id":"","pricing_plan_id":"cebpf4jnsgd1na2vs0mg"},{"bike_id":"6deace4a-36a7-47ed-86e9-91c5d959be72","system_id":"levelo_inurba_marseille","lat":43.30888,"lon":5.39658,"is_reserved":false,"is_disabled":false,"rental_uris":{"android":"levelo://app?vid=6deace4a-36a7-47ed-86e9-91c5d959be72","ios":"levelo://app?vid=6deace4a-36a7-47ed-86e9-91c5d959be72"},"vehicle_type_id":"4","last_reported":1750255911,"current_range_meters":8800,"station_id":"ce4bh012rcd13ifvqcv0","pricing_plan_id":"cebpf4jnsgd1na2vs0mg"},{"bike_id":"8a1ff60a-66e1-4a35-a779-89cb83ce3b6c","system_id":"levelo_inurba_marseille","lat":43.29186,"lon":5.35751,"is_reserved":false,"is_disabled":false,"rental_uris":{"android":"levelo://app?vid=8a1ff60a-66e1-4a35-a779-89cb83ce3b6c","ios":"levelo://app?vid=8a1ff60a-66e1-4a35-a779-89cb83ce3b6c"},"vehicle_type_id":"4","last_reported":1750255911,"current_range_meters":8800,"station_id":"ce4bhb12rcd13ifvqel0","pricing_plan_id":"cebpf4jnsgd1na2vs0mg"},{"bike_id":"80f4a776-288a-4982-a312-b7b6560c8daa","system_id":"levelo_inurba_marseille","lat":43.282654,"lon":5.350572,"is_reserved":false,"is_disabled":false,"rental_uris":{"android":"levelo://app?vid=80f4a776-288a-4982-a312-b7b6560c8daa","ios":"levelo://app?vid=80f4a776-288a-4982-a312-b7b6560c8daa"},"vehicle_type_id":"4","last_reported":1750255911,"current_range_meters":8800,"station_id":"ce4bhbp2rcd13ifvqerg","pricing_plan_id":"cebpf4jnsgd1na2vs0mg"},{"bike_id":"96abcc7e-772c-4699-b670-e00eebb0fc7d","system_id":"levelo_inurba_marseille","lat":43.285688,"lon":5.394915,"is_reserved":false,"is_disabled":false,"rental_uris":{"android":"levelo://app?vid=96abcc7e-772c-4699-b670-e00eebb0fc7d","ios":"levelo://app?vid=96abcc7e-772c-4699-b670-e00eebb0fc7d"},"vehicle_type_id":"4","last_reported":1750255911,"current_range_meters":9200,"station_id":"ce4bh292rcd13ifvqdg0","pricing_plan_id":"cebpf4jnsgd1na2vs0mg"},{"bike_id":"a247ecc2-e840-4621-82a7-151bdb8ee072","system_id":"levelo_inurba_marseille","lat":43.28415,"lon":5.34998,"is_reserved":false,"is_disabled":false,"rental_uris":{"android":"levelo://app?vid=a247ecc2-e840-4621-82a7-151bdb8ee072","ios":"levelo://app?vid=a247ecc2-e840-4621-82a7-151bdb8ee072"},"vehicle_type_id":"4","last_reported":1750255911,"current_range_meters":9200,"station_id":"ce4bhbh2rcd13ifvqepg","pricing_plan_id":"cebpf4jnsgd1na2vs0mg"},{"bike_id":"1f5198db-286b-4410-8de9-e33aeb040672","system_id":"levelo_inurba_marseille","lat":43.28422,"lon":5.34999,"is_reserved":false,"is_disabled":false,"rental_uris":{"android":"levelo://app?vid=1f5198db-286b-4410-8de9-e33aeb040672","ios":"levelo://app?vid=1f5198db-286b-4410-8de9-e33aeb040672"},"vehicle_type_id":"4","last_reported":1750255911,"current_range_meters":9200,"station_id":"ce4bhbh2rcd13ifvqepg","pricing_plan_id":"cebpf4jnsgd1na2vs0mg"},{"bike_id":"83cfee7d-980d-496a-98c8-745c7e44c68d","system_id":"levelo_inurba_marseille","lat":43.32883,"lon":5.39093,"is_reserved":false,"is_disabled":false,"rental_uris":{"android":"levelo://app?vid=83cfee7d-980d-496a-98c8-745c7e44c68d","ios":"levelo://app?vid=83cfee7d-980d-496a-98c8-745c7e44c68d"},"vehicle_type_id":"4","last_reported":1750255911,"current_range_meters":9600,"station_id":"","pricing_plan_id":"cebpf4jnsgd1na2vs0mg"},{"bike_id":"75fd588d-acfb-46e9-8dd8-1fb428c7a2d5","system_id":"levelo_inurba_marseille","lat":43.33774,"lon":5.37484,"is_reserved":false,"is_disabled":false,"rental_uris":{"android":"levelo://app?vid=75fd588d-acfb-46e9-8dd8-1fb428c7a2d5","ios":"levelo://app?vid=75fd588d-acfb-46e9-8dd8-1fb428c7a2d5"},"vehicle_type_id":"4","last_reported":1750255911,"current_range_meters":9600,"station_id":"","pricing_plan_id":"cebpf4jnsgd1na2vs0mg"},{"bike_id":"d30f880b-8118-45d2-aac3-136366f21bb5","system_id":"levelo_inurba_marseille","lat":43.29855,"lon":5.3629,"is_reserved":false,"is_disabled":false,"rental_uris":{"android":"levelo://app?vid=d30f880b-8118-45d2-aac3-136366f21bb5","ios":"levelo://app?vid=d30f880b-8118-45d2-aac3-136366f21bb5"},"vehicle_type_id":"4","last_reported":1750255911,"current_range_meters":9600,"station_id":"ce4bgpp2rcd13ifvqc3g","pricing_plan_id":"cebpf4jnsgd1na2vs0mg"},{"bike_id":"0735ef8f-c526-4b7c-842a-40f2241dffb7","system_id":"levelo_inurba_marseille","lat":43.30151,"lon":5.37417,"is_reserved":false,"is_disabled":false,"rental_uris":{"android":"levelo://app?vid=0735ef8f-c526-4b7c-842a-40f2241dffb7","ios":"levelo://app?vid=0735ef8f-c526-4b7c-842a-40f2241dffb7"},"vehicle_type_id":"4","last_reported":1750255911,"current_range_meters":9600,"station_id":"ce4bgs92rcd13ifvqcc0","pricing_plan_id":"cebpf4jnsgd1na2vs0mg"},{"bike_id":"04a4d042-848d-4c10-aa67-8fd1bc782796","system_id":"levelo_inurba_marseille","lat":43.292856,"lon":5.37979,"is_reserved":false,"is_disabled":false,"rental_uris":{"android":"levelo://app?vid=04a4d042-848d-4c10-aa67-8fd1bc782796","ios":"levelo://app?vid=04a4d042-848d-4c10-aa67-8fd1bc782796"},"vehicle_type_id":"4","last_reported":1750255911,"current_range_meters":10000,"station_id":"","pricing_plan_id":"cebpf4jnsgd1na2vs0mg"},{"bike_id":"2c49226e-44b8-43a4-90f9-304e2e968ebb","system_id":"levelo_inurba_marseille","lat":43.24221,"lon":5.39758,"is_reserved":false,"is_disabled":false,"rental_uris":{"android":"levelo://app?vid=2c49226e-44b8-43a4-90f9-304e2e968ebb","ios":"levelo://app?vid=2c49226e-44b8-43a4-90f9-304e2e968ebb"},"vehicle_type_id":"4","last_reported":1750255911,"current_range_meters":10000,"station_id":"","pricing_plan_id":"cebpf4jnsgd1na2vs0mg"},{"bike_id":"a0b7d366-995e-4c3f-9807-ec4be2eb273b","system_id":"levelo_inurba_marseille","lat":43.30785,"lon":5.37656,"is_reserved":false,"is_disabled":false,"rental_uris":{"android":"levelo://app?vid=a0b7d366-995e-4c3f-9807-ec4be2eb273b","ios":"levelo://app?vid=a0b7d366-995e-4c3f-9807-ec4be2eb273b"},"vehicle_type_id":"4","last_reported":1750255911,"current_range_meters":10000,"station_id":"ce4bgv92rcd13ifvqcq0","pricing_plan_id":"cebpf4jnsgd1na2vs0mg"},{"bike_id":"935cc568-8344-4aa0-9439-5a77d34a191c","system_id":"levelo_inurba_marseille","lat":43.26573,"lon":5.39027,"is_reserved":false,"is_disabled":false,"rental_uris":{"android":"levelo://app?vid=935cc568-8344-4aa0-9439-5a77d34a191c","ios":"levelo://app?vid=935cc568-8344-4aa0-9439-5a77d34a191c"},"vehicle_type_id":"4","last_reported":1750255911,"current_range_meters":10000,"station_id":"ce4bhe12rcd13ifvqf30","pricing_plan_id":"cebpf4jnsgd1na2vs0mg"},{"bike_id":"aceb3982-4b61-4ee1-ac7f-d615aa201253","system_id":"levelo_inurba_marseille","lat":43.26686,"lon":5.38274,"is_reserved":false,"is_disabled":false,"rental_uris":{"android":"levelo://app?vid=aceb3982-4b61-4ee1-ac7f-d615aa201253","ios":"levelo://app?vid=aceb3982-4b61-4ee1-ac7f-d615aa201253"},"vehicle_type_id":"4","last_reported":1750255911,"current_range_meters":10000,"station_id":"ce4bhg92rcd13ifvqf90","pricing_plan_id":"cebpf4jnsgd1na2vs0mg"},{"bike_id":"998d0538-52e0-477f-8e72-1b383baadd73","system_id":"levelo_inurba_marseille","lat":43.23146,"lon":5.4372,"is_reserved":false,"is_disabled":false,"rental_uris":{"android":"levelo://app?vid=998d0538-52e0-477f-8e72-1b383baadd73","ios":"levelo://app?vid=998d0538-52e0-477f-8e72-1b383baadd73"},"vehicle_type_id":"4","last_reported":1750255911,"current_range_meters":10000,"station_id":"ce4bhmp2rcd13ifvqgog","pricing_plan_id":"cebpf4jnsgd1na2vs0mg"},{"bike_id":"992ca5a7-b166-48ca-972e-19776771193a","system_id":"levelo_inurba_marseille","lat":43.28255,"lon":5.35151,"is_reserved":false,"is_disabled":false,"rental_uris":{"android":"levelo://app?vid=992ca5a7-b166-48ca-972e-19776771193a","ios":"levelo://app?vid=992ca5a7-b166-48ca-972e-19776771193a"},"vehicle_type_id":"4","last_reported":1750255911,"current_range_meters":10800,"station_id":"","pricing_plan_id":"cebpf4jnsgd1na2vs0mg"},{"bike_id":"960c85a1-5973-4697-9a13-ccb47f1e6891","system_id":"levelo_inurba_marseille","lat":43.22945,"lon":5.35407,"is_reserved":false,"is_disabled":false,"rental_uris":{"android":"levelo://app?vid=960c85a1-5973-4697-9a13-ccb47f1e6891","ios":"levelo://app?vid=960c85a1-5973-4697-9a13-ccb47f1e6891"},"vehicle_type_id":"4","last_reported":1750255911,"current_range_meters":10800,"station_id":"cpo3532slgdg3j2ikp40","pricing_plan_id":"cebpf4jnsgd1na2vs0mg"},{"bike_id":"de0f7c2b-5974-4035-a240-8ed367c0e3f3","system_id":"levelo_inurba_marseille","lat":43.3197,"lon":5.37628,"is_reserved":false,"is_disabled":false,"rental_uris":{"android":"levelo://app?vid=de0f7c2b-5974-4035-a240-8ed367c0e3f3","ios":"levelo://app?vid=de0f7c2b-5974-4035-a240-8ed367c0e3f3"},"vehicle_type_id":"4","last_reported":1750255911,"current_range_meters":11200,"station_id":"","pricing_plan_id":"cebpf4jnsgd1na2vs0mg"},{"bike_id":"23473c5a-ff05-41d4-a194-b16ef02094df","system_id":"levelo_inurba_marseille","lat":43.30557,"lon":5.36539,"is_reserved":false,"is_disabled":false,"rental_uris":{"android":"levelo://app?vid=23473c5a-ff05-41d4-a194-b16ef02094df","ios":"levelo://app?vid=23473c5a-ff05-41d4-a194-b16ef02094df"},"vehicle_type_id":"4","last_reported":1750255911,"current_range_meters":11200,"station_id":"ce4bgs12rcd13ifvqcag","pricing_plan_id":"cebpf4jnsgd1na2vs0mg"},{"bike_id":"4798fbbf-9bc8-47fe-89dc-59f6db94f226","system_id":"levelo_inurba_marseille","lat":43.29871,"lon":5.39733,"is_reserved":false,"is_disabled":false,"rental_uris":{"android":"levelo://app?vid=4798fbbf-9bc8-47fe-89dc-59f6db94f226","ios":"levelo://app?vid=4798fbbf-9bc8-47fe-89dc-59f6db94f226"},"vehicle_type_id":"4","last_reported":1750255911,"current_range_meters":11200,"station_id":"ce4bh0h2rcd13ifvqd50","pricing_plan_id":"cebpf4jnsgd1na2vs0mg"},{"bike_id":"49d12d32-410f-44e4-a5a5-f785950cd9be","system_id":"levelo_inurba_marseille","lat":43.28271,"lon":5.35067,"is_reserved":false,"is_disabled":false,"rental_uris":{"android":"levelo://app?vid=49d12d32-410f-44e4-a5a5-f785950cd9be","ios":"levelo://app?vid=49d12d32-410f-44e4-a5a5-f785950cd9be"},"vehicle_type_id":"4","last_reported":1750255911,"current_range_meters":11200,"station_id":"ce4bhbp2rcd13ifvqerg","pricing_plan_id":"cebpf4jnsgd1na2vs0mg"},{"bike_id":"05e2e880-75f3-4a05-81f8-c1237d819b48","system_id":"levelo_inurba_marseille","lat":43.23191,"lon":5.35559,"is_reserved":false,"is_disabled":false,"rental_uris":{"android":"levelo://app?vid=05e2e880-75f3-4a05-81f8-c1237d819b48","ios":"levelo://app?vid=05e2e880-75f3-4a05-81f8-c1237d819b48"},"vehicle_type_id":"4","last_reported":1750255911,"current_range_meters":11200,"station_id":"ce4bhu92rcd13ifvqi70","pricing_plan_id":"cebpf4jnsgd1na2vs0mg"},{"bike_id":"a7333462-bad0-4d72-9455-5c675b01d237","system_id":"levelo_inurba_marseille","lat":43.30561,"lon":5.36539,"is_reserved":false,"is_disabled":false,"rental_uris":{"android":"levelo://app?vid=a7333462-bad0-4d72-9455-5c675b01d237","ios":"levelo://app?vid=a7333462-bad0-4d72-9455-5c675b01d237"},"vehicle_type_id":"4","last_reported":1750255911,"current_range_meters":11600,"station_id":"ce4bgs12rcd13ifvqcag","pricing_plan_id":"cebpf4jnsgd1na2vs0mg"},{"bike_id":"8bdb2c6a-591a-4960-b5ed-805bab55ca73","system_id":"levelo_inurba_marseille","lat":43.28272,"lon":5.35075,"is_reserved":false,"is_disabled":false,"rental_uris":{"android":"levelo://app?vid=8bdb2c6a-591a-4960-b5ed-805bab55ca73","ios":"levelo://app?vid=8bdb2c6a-591a-4960-b5ed-805bab55ca73"},"vehicle_type_id":"4","last_reported":1750255911,"current_range_meters":11600,"station_id":"ce4bhbp2rcd13ifvqerg","pricing_plan_id":"cebpf4jnsgd1na2vs0mg"},{"bike_id":"df4e2464-49cf-4137-a654-97f7634a7442","system_id":"levelo_inurba_marseille","lat":43.24385,"lon":5.37033,"is_reserved":false,"is_disabled":false,"rental_uris":{"android":"levelo://app?vid=df4e2464-49cf-4137-a654-97f7634a7442","ios":"levelo://app?vid=df4e2464-49cf-4137-a654-97f7634a7442"},"vehicle_type_id":"4","last_reported":1750255911,"current_range_meters":11600,"station_id":"ce4bhhh2rcd13ifvqfk0","pricing_plan_id":"cebpf4jnsgd1na2vs0mg"},{"bike_id":"5fca8285-46cd-4a61-afa7-083de6991d10","system_id":"levelo_inurba_marseille","lat":43.2314,"lon":5.43733,"is_reserved":false,"is_disabled":false,"rental_uris":{"android":"levelo://app?vid=5fca8285-46cd-4a61-afa7-083de6991d10","ios":"levelo://app?vid=5fca8285-46cd-4a61-afa7-083de6991d10"},"vehicle_type_id":"4","last_reported":1750255911,"current_range_meters":11600,"station_id":"ce4bhmp2rcd13ifvqgog","pricing_plan_id":"cebpf4jnsgd1na2vs0mg"},{"bike_id":"68024efa-5e74-4aa8-bd5a-112b78e7e2df","system_id":"levelo_inurba_marseille","lat":43.28611,"lon":5.37079,"is_reserved":false,"is_disabled":false,"rental_uris":{"android":"levelo://app?vid=68024efa-5e74-4aa8-bd5a-112b78e7e2df","ios":"levelo://app?vid=68024efa-5e74-4aa8-bd5a-112b78e7e2df"},"vehicle_type_id":"4","last_reported":1750255911,"current_range_meters":11600,"station_id":"ce4bht12rcd13ifvqi60","pricing_plan_id":"cebpf4jnsgd1na2vs0mg"},{"bike_id":"f7fa858e-b7ee-404f-8191-6184cc003e2b","system_id":"levelo_inurba_marseille","lat":43.23188,"lon":5.35543,"is_reserved":false,"is_disabled":false,"rental_uris":{"android":"levelo://app?vid=f7fa858e-b7ee-404f-8191-6184cc003e2b","ios":"levelo://app?vid=f7fa858e-b7ee-404f-8191-6184cc003e2b"},"vehicle_type_id":"4","last_reported":1750255911,"current_range_meters":11600,"station_id":"ce4bhu92rcd13ifvqi70","pricing_plan_id":"cebpf4jnsgd1na2vs0mg"},{"bike_id":"e0a889cf-2327-4278-9b67-453fc8c6ae2a","system_id":"levelo_inurba_marseille","lat":43.30253,"lon":5.37487,"is_reserved":false,"is_disabled":false,"rental_uris":{"android":"levelo://app?vid=e0a889cf-2327-4278-9b67-453fc8c6ae2a","ios":"levelo://app?vid=e0a889cf-2327-4278-9b67-453fc8c6ae2a"},"vehicle_type_id":"4","last_reported":1750255911,"current_range_meters":12000,"station_id":"","pricing_plan_id":"cebpf4jnsgd1na2vs0mg"},{"bike_id":"3518210a-6d90-482f-a11b-11cb7c94acd1","system_id":"levelo_inurba_marseille","lat":43.264765,"lon":5.392002,"is_reserved":false,"is_disabled":false,"rental_uris":{"android":"levelo://app?vid=3518210a-6d90-482f-a11b-11cb7c94acd1","ios":"levelo://app?vid=3518210a-6d90-482f-a11b-11cb7c94acd1"},"vehicle_type_id":"4","last_reported":1750255911,"current_range_meters":12000,"station_id":"","pricing_plan_id":"cebpf4jnsgd1na2vs0mg"},{"bike_id":"37afafed-2e8a-41c6-ba17-f0c31417691b","system_id":"levelo_inurba_marseille","lat":43.29868,"lon":5.39732,"is_reserved":false,"is_disabled":false,"rental_uris":{"android":"levelo://app?vid=37afafed-2e8a-41c6-ba17-f0c31417691b","ios":"levelo://app?vid=37afafed-2e8a-41c6-ba17-f0c31417691b"},"vehicle_type_id":"4","last_reported":1750255911,"current_range_meters":12000,"station_id":"ce4bh0h2rcd13ifvqd50","pricing_plan_id":"cebpf4jnsgd1na2vs0mg"},{"bike_id":"052040e2-4fd3-480f-8914-37bf4b2b0d0b","system_id":"levelo_inurba_marseille","lat":43.29196,"lon":5.35801,"is_reserved":false,"is_disabled":false,"rental_uris":{"android":"levelo://app?vid=052040e2-4fd3-480f-8914-37bf4b2b0d0b","ios":"levelo://app?vid=052040e2-4fd3-480f-8914-37bf4b2b0d0b"},"vehicle_type_id":"4","last_reported":1750255911,"current_range_meters":12000,"station_id":"ce4bhb12rcd13ifvqel0","pricing_plan_id":"cebpf4jnsgd1na2vs0mg"},{"bike_id":"b7444412-e818-4fd1-b41f-0ee05e1b8ae3","system_id":"levelo_inurba_marseille","lat":43.28265,"lon":5.3506,"is_reserved":false,"is_disabled":false,"rental_uris":{"android":"levelo://app?vid=b7444412-e818-4fd1-b41f-0ee05e1b8ae3","ios":"levelo://app?vid=b7444412-e818-4fd1-b41f-0ee05e1b8ae3"},"vehicle_type_id":"4","last_reported":1750255911,"current_range_meters":12000,"station_id":"ce4bhbp2rcd13ifvqerg","pricing_plan_id":"cebpf4jnsgd1na2vs0mg"},{"bike_id":"62267f5d-9a08-460d-9021-e8c02646ee21","system_id":"levelo_inurba_marseille","lat":43.24652,"lon":5.38893,"is_reserved":false,"is_disabled":false,"rental_uris":{"android":"levelo://app?vid=62267f5d-9a08-460d-9021-e8c02646ee21","ios":"levelo://app?vid=62267f5d-9a08-460d-9021-e8c02646ee21"},"vehicle_type_id":"4","last_reported":1750255911,"current_range_meters":12000,"station_id":"ce4bhg12rcd13ifvqf60","pricing_plan_id":"cebpf4jnsgd1na2vs0mg"},{"bike_id":"21c5a6e1-ee31-4c46-800b-dc6f7391485e","system_id":"levelo_inurba_marseille","lat":43.265,"lon":5.39543,"is_reserved":false,"is_disabled":false,"rental_uris":{"android":"levelo://app?vid=21c5a6e1-ee31-4c46-800b-dc6f7391485e","ios":"levelo://app?vid=21c5a6e1-ee31-4c46-800b-dc6f7391485e"},"vehicle_type_id":"4","last_reported":1750255911,"current_range_meters":12000,"station_id":"ce4bhi12rcd13ifvqfq0","pricing_plan_id":"cebpf4jnsgd1na2vs0mg"},{"bike_id":"915745c6-1f51-489e-a399-0c125f4ad8d0","system_id":"levelo_inurba_marseille","lat":43.31181,"lon":5.38716,"is_reserved":false,"is_disabled":false,"rental_uris":{"android":"levelo://app?vid=915745c6-1f51-489e-a399-0c125f4ad8d0","ios":"levelo://app?vid=915745c6-1f51-489e-a399-0c125f4ad8d0"},"vehicle_type_id":"4","last_reported":1750255911,"current_range_meters":12400,"station_id":"ce4bgv12rcd13ifvqcp0","pricing_plan_id":"cebpf4jnsgd1na2vs0mg"},{"bike_id":"b5e72889-cdaa-4049-b722-e20e0762040b","system_id":"levelo_inurba_marseille","lat":43.3127,"lon":5.4017,"is_reserved":false,"is_disabled":false,"rental_uris":{"android":"levelo://app?vid=b5e72889-cdaa-4049-b722-e20e0762040b","ios":"levelo://app?vid=b5e72889-cdaa-4049-b722-e20e0762040b"},"vehicle_type_id":"4","last_reported":1750255911,"current_range_meters":12400,"station_id":"ce4bh092rcd13ifvqd30","pricing_plan_id":"cebpf4jnsgd1na2vs0mg"},{"bike_id":"f96fac91-fcd6-4cf6-94db-3fb959156263","system_id":"levelo_inurba_marseille","lat":43.28275,"lon":5.35098,"is_reserved":false,"is_disabled":false,"rental_uris":{"android":"levelo://app?vid=f96fac91-fcd6-4cf6-94db-3fb959156263","ios":"levelo://app?vid=f96fac91-fcd6-4cf6-94db-3fb959156263"},"vehicle_type_id":"4","last_reported":1750255911,"current_range_meters":12400,"station_id":"ce4bhbp2rcd13ifvqerg","pricing_plan_id":"cebpf4jnsgd1na2vs0mg"},{"bike_id":"155ad7b8-dc29-4ca8-bdc8-582add5147a8","system_id":"levelo_inurba_marseille","lat":43.28265,"lon":5.35073,"is_reserved":false,"is_disabled":false,"rental_uris":{"android":"levelo://app?vid=155ad7b8-dc29-4ca8-bdc8-582add5147a8","ios":"levelo://app?vid=155ad7b8-dc29-4ca8-bdc8-582add5147a8"},"vehicle_type_id":"4","last_reported":1750255911,"current_range_meters":12400,"station_id":"ce4bhbp2rcd13ifvqerg","pricing_plan_id":"cebpf4jnsgd1na2vs0mg"},{"bike_id":"d0810c2b-f3f7-417e-915d-a8326fbbf6ee","system_id":"levelo_inurba_marseille","lat":43.26214,"lon":5.37917,"is_reserved":false,"is_disabled":false,"rental_uris":{"android":"levelo://app?vid=d0810c2b-f3f7-417e-915d-a8326fbbf6ee","ios":"levelo://app?vid=d0810c2b-f3f7-417e-915d-a8326fbbf6ee"},"vehicle_type_id":"4","last_reported":1750255911,"current_range_meters":12400,"station_id":"ce4bhjp2rcd13ifvqg90","pricing_plan_id":"cebpf4jnsgd1na2vs0mg"},{"bike_id":"4b8da722-ee9e-48a4-a5e5-3a8a10364708","system_id":"levelo_inurba_marseille","lat":43.31215,"lon":5.37799,"is_reserved":false,"is_disabled":false,"rental_uris":{"android":"levelo://app?vid=4b8da722-ee9e-48a4-a5e5-3a8a10364708","ios":"levelo://app?vid=4b8da722-ee9e-48a4-a5e5-3a8a10364708"},"vehicle_type_id":"4","last_reported":1750255911,"current_range_meters":12800,"station_id":"","pricing_plan_id":"cebpf4jnsgd1na2vs0mg"},{"bike_id":"13654066-a2f3-4b56-b2bb-4b273ad524ea","system_id":"levelo_inurba_marseille","lat":43.30151,"lon":5.38094,"is_reserved":false,"is_disabled":false,"rental_uris":{"android":"levelo://app?vid=13654066-a2f3-4b56-b2bb-4b273ad524ea","ios":"levelo://app?vid=13654066-a2f3-4b56-b2bb-4b273ad524ea"},"vehicle_type_id":"4","last_reported":1750255911,"current_range_meters":12800,"station_id":"ce4bgjp2rcd13ifvqbh0","pricing_plan_id":"cebpf4jnsgd1na2vs0mg"},{"bike_id":"f1fc2285-c883-4417-8b14-18dd142a5462","system_id":"levelo_inurba_marseille","lat":43.28934,"lon":5.36629,"is_reserved":false,"is_disabled":false,"rental_uris":{"android":"levelo://app?vid=f1fc2285-c883-4417-8b14-18dd142a5462","ios":"levelo://app?vid=f1fc2285-c883-4417-8b14-18dd142a5462"},"vehicle_type_id":"4","last_reported":1750255911,"current_range_meters":12800,"station_id":"ce4bhap2rcd13ifvqek0","pricing_plan_id":"cebpf4jnsgd1na2vs0mg"},{"bike_id":"8ab37ab0-94dc-435d-b77b-2a44ebf6fdb1","system_id":"levelo_inurba_marseille","lat":43.27374,"lon":5.3626,"is_reserved":false,"is_disabled":false,"rental_uris":{"android":"levelo://app?vid=8ab37ab0-94dc-435d-b77b-2a44ebf6fdb1","ios":"levelo://app?vid=8ab37ab0-94dc-435d-b77b-2a44ebf6fdb1"},"vehicle_type_id":"4","last_reported":1750255911,"current_range_meters":12800,"station_id":"ce4bhbh2rcd13ifvqeo0","pricing_plan_id":"cebpf4jnsgd1na2vs0mg"},{"bike_id":"7c702181-2991-464d-bf00-d5dd95400208","system_id":"levelo_inurba_marseille","lat":43.29217,"lon":5.36064,"is_reserved":false,"is_disabled":false,"rental_uris":{"android":"levelo://app?vid=7c702181-2991-464d-bf00-d5dd95400208","ios":"levelo://app?vid=7c702181-2991-464d-bf00-d5dd95400208"},"vehicle_type_id":"4","last_reported":1750255911,"current_range_meters":12800,"station_id":"ce4bhbh2rcd13ifvqeqg","pricing_plan_id":"cebpf4jnsgd1na2vs0mg"},{"bike_id":"d1cf4809-6529-41e3-8cbc-570ff5bdad5f","system_id":"levelo_inurba_marseille","lat":43.32104,"lon":5.36784,"is_reserved":false,"is_disabled":false,"rental_uris":{"android":"levelo://app?vid=d1cf4809-6529-41e3-8cbc-570ff5bdad5f","ios":"levelo://app?vid=d1cf4809-6529-41e3-8cbc-570ff5bdad5f"},"vehicle_type_id":"4","last_reported":1750255911,"current_range_meters":12800,"station_id":"ce4bhrh2rcd13ifvqhug","pricing_plan_id":"cebpf4jnsgd1na2vs0mg"},{"bike_id":"b9740617-416c-49ef-a593-d345aa13726b","system_id":"levelo_inurba_marseille","lat":43.26995,"lon":5.43159,"is_reserved":false,"is_disabled":false,"rental_uris":{"android":"levelo://app?vid=b9740617-416c-49ef-a593-d345aa13726b","ios":"levelo://app?vid=b9740617-416c-49ef-a593-d345aa13726b"},"vehicle_type_id":"4","last_reported":1750255911,"current_range_meters":13600,"station_id":"","pricing_plan_id":"cebpf4jnsgd1na2vs0mg"},{"bike_id":"0dedb6f6-6801-483b-bfb8-9cd4533d158f","system_id":"levelo_inurba_marseille","lat":43.31143,"lon":5.38118,"is_reserved":false,"is_disabled":false,"rental_uris":{"android":"levelo://app?vid=0dedb6f6-6801-483b-bfb8-9cd4533d158f","ios":"levelo://app?vid=0dedb6f6-6801-483b-bfb8-9cd4533d158f"},"vehicle_type_id":"4","last_reported":1750255911,"current_range_meters":13600,"station_id":"","pricing_plan_id":"cebpf4jnsgd1na2vs0mg"},{"bike_id":"1c73e398-ee7e-48c9-b1a1-4663e723cdd8","system_id":"levelo_inurba_marseille","lat":43.29603,"lon":5.38109,"is_reserved":false,"is_disabled":false,"rental_uris":{"android":"levelo://app?vid=1c73e398-ee7e-48c9-b1a1-4663e723cdd8","ios":"levelo://app?vid=1c73e398-ee7e-48c9-b1a1-4663e723cdd8"},"vehicle_type_id":"4","last_reported":1750255911,"current_range_meters":13600,"station_id":"ce4bgl12rcd13ifvqbo0","pricing_plan_id":"cebpf4jnsgd1na2vs0mg"},{"bike_id":"a4a6924c-c806-4cde-8440-26cd4df5fe79","system_id":"levelo_inurba_marseille","lat":43.297552,"lon":5.364287,"is_reserved":false,"is_disabled":false,"rental_uris":{"android":"levelo://app?vid=a4a6924c-c806-4cde-8440-26cd4df5fe79","ios":"levelo://app?vid=a4a6924c-c806-4cde-8440-26cd4df5fe79"},"vehicle_type_id":"4","last_reported":1750255911,"current_range_meters":13600,"station_id":"ce4bgpp2rcd13ifvqc3g","pricing_plan_id":"cebpf4jnsgd1na2vs0mg"},{"bike_id":"bf926316-c2d2-4b23-8f2b-109a2206ed7c","system_id":"levelo_inurba_marseille","lat":43.301381,"lon":5.37419,"is_reserved":false,"is_disabled":false,"rental_uris":{"android":"levelo://app?vid=bf926316-c2d2-4b23-8f2b-109a2206ed7c","ios":"levelo://app?vid=bf926316-c2d2-4b23-8f2b-109a2206ed7c"},"vehicle_type_id":"4","last_reported":1750255911,"current_range_meters":13600,"station_id":"ce4bgs92rcd13ifvqcc0","pricing_plan_id":"cebpf4jnsgd1na2vs0mg"},{"bike_id":"d44811ec-e9b3-4d96-9419-14e330144d4b","system_id":"levelo_inurba_marseille","lat":43.301421,"lon":5.374009,"is_reserved":false,"is_disabled":false,"rental_uris":{"android":"levelo://app?vid=d44811ec-e9b3-4d96-9419-14e330144d4b","ios":"levelo://app?vid=d44811ec-e9b3-4d96-9419-14e330144d4b"},"vehicle_type_id":"4","last_reported":1750255911,"current_range_meters":13600,"station_id":"ce4bgs92rcd13ifvqcc0","pricing_plan_id":"cebpf4jnsgd1na2vs0mg"},{"bike_id":"75fa638a-1a58-42a4-b4c8-b01bf79ff2fc","system_id":"levelo_inurba_marseille","lat":43.25576,"lon":5.38239,"is_reserved":false,"is_disabled":false,"rental_uris":{"android":"levelo://app?vid=75fa638a-1a58-42a4-b4c8-b01bf79ff2fc","ios":"levelo://app?vid=75fa638a-1a58-42a4-b4c8-b01bf79ff2fc"},"vehicle_type_id":"4","last_reported":1750255911,"current_range_meters":13600,"station_id":"ce4bhih2rcd13ifvqfs0","pricing_plan_id":"cebpf4jnsgd1na2vs0mg"},{"bike_id":"2a31244d-dbd8-464d-8b86-fe0edab2f644","system_id":"levelo_inurba_marseille","lat":43.3016,"lon":5.37426,"is_reserved":false,"is_disabled":false,"rental_uris":{"android":"levelo://app?vid=2a31244d-dbd8-464d-8b86-fe0edab2f644","ios":"levelo://app?vid=2a31244d-dbd8-464d-8b86-fe0edab2f644"},"vehicle_type_id":"4","last_reported":1750255911,"current_range_meters":14000,"station_id":"ce4bgs92rcd13ifvqcc0","pricing_plan_id":"cebpf4jnsgd1na2vs0mg"},{"bike_id":"251590bc-0526-4a3c-8ef4-f4fac39200e1","system_id":"levelo_inurba_marseille","lat":43.30147,"lon":5.374165,"is_reserved":false,"is_disabled":false,"rental_uris":{"android":"levelo://app?vid=251590bc-0526-4a3c-8ef4-f4fac39200e1","ios":"levelo://app?vid=251590bc-0526-4a3c-8ef4-f4fac39200e1"},"vehicle_type_id":"4","last_reported":1750255911,"current_range_meters":14000,"station_id":"ce4bgs92rcd13ifvqcc0","pricing_plan_id":"cebpf4jnsgd1na2vs0mg"},{"bike_id":"22630954-69c7-43a2-baca-04b161e28c31","system_id":"levelo_inurba_marseille","lat":43.262261,"lon":5.404501,"is_reserved":false,"is_disabled":false,"rental_uris":{"android":"levelo://app?vid=22630954-69c7-43a2-baca-04b161e28c31","ios":"levelo://app?vid=22630954-69c7-43a2-baca-04b161e28c31"},"vehicle_type_id":"4","last_reported":1750255911,"current_range_meters":14000,"station_id":"ce4bhmh2rcd13ifvqgmg","pricing_plan_id":"cebpf4jnsgd1na2vs0mg"},{"bike_id":"6b09cd8d-e419-4258-9c4c-1ce241affa14","system_id":"levelo_inurba_marseille","lat":43.24078,"lon":5.37789,"is_reserved":false,"is_disabled":false,"rental_uris":{"android":"levelo://app?vid=6b09cd8d-e419-4258-9c4c-1ce241affa14","ios":"levelo://app?vid=6b09cd8d-e419-4258-9c4c-1ce241affa14"},"vehicle_type_id":"4","last_reported":1750255911,"current_range_meters":14000,"station_id":"ce4bhnp2rcd13ifvqgvg","pricing_plan_id":"cebpf4jnsgd1na2vs0mg"},{"bike_id":"6fd983ed-8cca-4ed0-9d9a-0db499943df5","system_id":"levelo_inurba_marseille","lat":43.305254,"lon":5.367153,"is_reserved":false,"is_disabled":false,"rental_uris":{"android":"levelo://app?vid=6fd983ed-8cca-4ed0-9d9a-0db499943df5","ios":"levelo://app?vid=6fd983ed-8cca-4ed0-9d9a-0db499943df5"},"vehicle_type_id":"4","last_reported":1750255911,"current_range_meters":14400,"station_id":"ce4bgrp2rcd13ifvqc9g","pricing_plan_id":"cebpf4jnsgd1na2vs0mg"},{"bike_id":"d20683c0-2fb2-487e-bb8d-64769e3c5785","system_id":"levelo_inurba_marseille","lat":43.23965,"lon":5.36631,"is_reserved":false,"is_disabled":false,"rental_uris":{"android":"levelo://app?vid=d20683c0-2fb2-487e-bb8d-64769e3c5785","ios":"levelo://app?vid=d20683c0-2fb2-487e-bb8d-64769e3c5785"},"vehicle_type_id":"4","last_reported":1750255911,"current_range_meters":14400,"station_id":"ce4bhi12rcd13ifvqfp0","pricing_plan_id":"cebpf4jnsgd1na2vs0mg"},{"bike_id":"5cfcaaf8-ab59-4c8b-8ecd-2a091cde99f1","system_id":"levelo_inurba_marseille","lat":43.23179,"lon":5.39982,"is_reserved":false,"is_disabled":false,"rental_uris":{"android":"levelo://app?vid=5cfcaaf8-ab59-4c8b-8ecd-2a091cde99f1","ios":"levelo://app?vid=5cfcaaf8-ab59-4c8b-8ecd-2a091cde99f1"},"vehicle_type_id":"4","last_reported":1750255911,"current_range_meters":14400,"station_id":"ce4bhn12rcd13ifvqgqg","pricing_plan_id":"cebpf4jnsgd1na2vs0mg"},{"bike_id":"faf048f0-ef47-45f8-8544-8137d956151e","system_id":"levelo_inurba_marseille","lat":43.31244,"lon":5.37429,"is_reserved":false,"is_disabled":false,"rental_uris":{"android":"levelo://app?vid=faf048f0-ef47-45f8-8544-8137d956151e","ios":"levelo://app?vid=faf048f0-ef47-45f8-8544-8137d956151e"},"vehicle_type_id":"4","last_reported":1750255911,"current_range_meters":14800,"station_id":"","pricing_plan_id":"cebpf4jnsgd1na2vs0mg"},{"bike_id":"268aafb4-1331-426c-97bc-a7d6564caeb6","system_id":"levelo_inurba_marseille","lat":43.32933,"lon":5.37919,"is_reserved":false,"is_disabled":false,"rental_uris":{"android":"levelo://app?vid=268aafb4-1331-426c-97bc-a7d6564caeb6","ios":"levelo://app?vid=268aafb4-1331-426c-97bc-a7d6564caeb6"},"vehicle_type_id":"4","last_reported":1750255911,"current_range_meters":14800,"station_id":"","pricing_plan_id":"cebpf4jnsgd1na2vs0mg"},{"bike_id":"7eaae68b-cc21-4604-bf7e-22ae4066ed34","system_id":"levelo_inurba_marseille","lat":43.30651,"lon":5.40071,"is_reserved":false,"is_disabled":false,"rental_uris":{"android":"levelo://app?vid=7eaae68b-cc21-4604-bf7e-22ae4066ed34","ios":"levelo://app?vid=7eaae68b-cc21-4604-bf7e-22ae4066ed34"},"vehicle_type_id":"4","last_reported":1750255911,"current_range_meters":14800,"station_id":"ce4bh112rcd13ifvqda0","pricing_plan_id":"cebpf4jnsgd1na2vs0mg"},{"bike_id":"564a0e56-bb59-4261-8f03-71cd3e0a3031","system_id":"levelo_inurba_marseille","lat":43.2907,"lon":5.37178,"is_reserved":false,"is_disabled":false,"rental_uris":{"android":"levelo://app?vid=564a0e56-bb59-4261-8f03-71cd3e0a3031","ios":"levelo://app?vid=564a0e56-bb59-4261-8f03-71cd3e0a3031"},"vehicle_type_id":"4","last_reported":1750255911,"current_range_meters":14800,"station_id":"ce4bh5p2rcd13ifvqe4g","pricing_plan_id":"cebpf4jnsgd1na2vs0mg"},{"bike_id":"c2108d3d-2852-40ef-af5b-ad508d23e4d2","system_id":"levelo_inurba_marseille","lat":43.2893,"lon":5.36621,"is_reserved":false,"is_disabled":false,"rental_uris":{"android":"levelo://app?vid=c2108d3d-2852-40ef-af5b-ad508d23e4d2","ios":"levelo://app?vid=c2108d3d-2852-40ef-af5b-ad508d23e4d2"},"vehicle_type_id":"4","last_reported":1750255911,"current_range_meters":14800,"station_id":"ce4bhap2rcd13ifvqek0","pricing_plan_id":"cebpf4jnsgd1na2vs0mg"},{"bike_id":"ff899b15-fdd1-4c2d-9023-b38ebd1a6335","system_id":"levelo_inurba_marseille","lat":43.23189,"lon":5.35555,"is_reserved":false,"is_disabled":false,"rental_uris":{"android":"levelo://app?vid=ff899b15-fdd1-4c2d-9023-b38ebd1a6335","ios":"levelo://app?vid=ff899b15-fdd1-4c2d-9023-b38ebd1a6335"},"vehicle_type_id":"4","last_reported":1750255911,"current_range_meters":14800,"station_id":"ce4bhu92rcd13ifvqi70","pricing_plan_id":"cebpf4jnsgd1na2vs0mg"},{"bike_id":"519791ae-fb2f-45a3-a2ff-6019a10f140d","system_id":"levelo_inurba_marseille","lat":43.31365,"lon":5.36762,"is_reserved":false,"is_disabled":false,"rental_uris":{"android":"levelo://app?vid=519791ae-fb2f-45a3-a2ff-6019a10f140d","ios":"levelo://app?vid=519791ae-fb2f-45a3-a2ff-6019a10f140d"},"vehicle_type_id":"4","last_reported":1750255911,"current_range_meters":15200,"station_id":"","pricing_plan_id":"cebpf4jnsgd1na2vs0mg"},{"bike_id":"da20a186-c518-4f52-912e-e4f01c93dd67","system_id":"levelo_inurba_marseille","lat":43.29867,"lon":5.36308,"is_reserved":false,"is_disabled":false,"rental_uris":{"android":"levelo://app?vid=da20a186-c518-4f52-912e-e4f01c93dd67","ios":"levelo://app?vid=da20a186-c518-4f52-912e-e4f01c93dd67"},"vehicle_type_id":"4","last_reported":1750255911,"current_range_meters":15200,"station_id":"ce4bgpp2rcd13ifvqc3g","pricing_plan_id":"cebpf4jnsgd1na2vs0mg"},{"bike_id":"4deecebd-619f-4296-9193-279330ce975d","system_id":"levelo_inurba_marseille","lat":43.29863,"lon":5.39727,"is_reserved":false,"is_disabled":false,"rental_uris":{"android":"levelo://app?vid=4deecebd-619f-4296-9193-279330ce975d","ios":"levelo://app?vid=4deecebd-619f-4296-9193-279330ce975d"},"vehicle_type_id":"4","last_reported":1750255911,"current_range_meters":15200,"station_id":"ce4bh0h2rcd13ifvqd50","pricing_plan_id":"cebpf4jnsgd1na2vs0mg"},{"bike_id":"d203ca48-5e13-4581-ba88-43195b3b80ca","system_id":"levelo_inurba_marseille","lat":43.28654,"lon":5.36341,"is_reserved":false,"is_disabled":false,"rental_uris":{"android":"levelo://app?vid=d203ca48-5e13-4581-ba88-43195b3b80ca","ios":"levelo://app?vid=d203ca48-5e13-4581-ba88-43195b3b80ca"},"vehicle_type_id":"4","last_reported":1750255911,"current_range_meters":15200,"station_id":"ce4bhah2rcd13ifvqej0","pricing_plan_id":"cebpf4jnsgd1na2vs0mg"},{"bike_id":"5c9878b4-89f1-4442-84b0-44598b017874","system_id":"levelo_inurba_marseille","lat":43.25915,"lon":5.40899,"is_reserved":false,"is_disabled":false,"rental_uris":{"android":"levelo://app?vid=5c9878b4-89f1-4442-84b0-44598b017874","ios":"levelo://app?vid=5c9878b4-89f1-4442-84b0-44598b017874"},"vehicle_type_id":"4","last_reported":1750255911,"current_range_meters":15200,"station_id":"ce4bhm92rcd13ifvqglg","pricing_plan_id":"cebpf4jnsgd1na2vs0mg"},{"bike_id":"8dc3f506-d8c7-45a7-8cc8-ec897678ea5f","system_id":"levelo_inurba_marseille","lat":43.24177,"lon":5.36388,"is_reserved":false,"is_disabled":false,"rental_uris":{"android":"levelo://app?vid=8dc3f506-d8c7-45a7-8cc8-ec897678ea5f","ios":"levelo://app?vid=8dc3f506-d8c7-45a7-8cc8-ec897678ea5f"},"vehicle_type_id":"4","last_reported":1750255911,"current_range_meters":15200,"station_id":"cpo36qri1sfpv3e86is0","pricing_plan_id":"cebpf4jnsgd1na2vs0mg"},{"bike_id":"1678d1c9-10e1-4099-b7e8-56f9d3c1433c","system_id":"levelo_inurba_marseille","lat":43.30166,"lon":5.37387,"is_reserved":false,"is_disabled":false,"rental_uris":{"android":"levelo://app?vid=1678d1c9-10e1-4099-b7e8-56f9d3c1433c","ios":"levelo://app?vid=1678d1c9-10e1-4099-b7e8-56f9d3c1433c"},"vehicle_type_id":"4","last_reported":1750255911,"current_range_meters":16000,"station_id":"ce4bgs92rcd13ifvqcc0","pricing_plan_id":"cebpf4jnsgd1na2vs0mg"},{"bike_id":"4388f9b9-cdd3-4110-89c5-f100f7cb7d0b","system_id":"levelo_inurba_marseille","lat":43.30208,"lon":5.39462,"is_reserved":false,"is_disabled":false,"rental_uris":{"android":"levelo://app?vid=4388f9b9-cdd3-4110-89c5-f100f7cb7d0b","ios":"levelo://app?vid=4388f9b9-cdd3-4110-89c5-f100f7cb7d0b"},"vehicle_type_id":"4","last_reported":1750255911,"current_range_meters":16000,"station_id":"ce4bh0p2rcd13ifvqd70","pricing_plan_id":"cebpf4jnsgd1na2vs0mg"},{"bike_id":"67f3df11-0585-4eae-81e9-f632ab83c308","system_id":"levelo_inurba_marseille","lat":43.26214,"lon":5.37437,"is_reserved":false,"is_disabled":false,"rental_uris":{"android":"levelo://app?vid=67f3df11-0585-4eae-81e9-f632ab83c308","ios":"levelo://app?vid=67f3df11-0585-4eae-81e9-f632ab83c308"},"vehicle_type_id":"4","last_reported":1750255911,"current_range_meters":16000,"station_id":"ce4bhgp2rcd13ifvqfc0","pricing_plan_id":"cebpf4jnsgd1na2vs0mg"},{"bike_id":"9d2a90e7-394f-41d8-ae49-77712a22ee78","system_id":"levelo_inurba_marseille","lat":43.25491,"lon":5.37639,"is_reserved":false,"is_disabled":false,"rental_uris":{"android":"levelo://app?vid=9d2a90e7-394f-41d8-ae49-77712a22ee78","ios":"levelo://app?vid=9d2a90e7-394f-41d8-ae49-77712a22ee78"},"vehicle_type_id":"4","last_reported":1750255911,"current_range_meters":16000,"station_id":"ce4bhh12rcd13ifvqff0","pricing_plan_id":"cebpf4jnsgd1na2vs0mg"},{"bike_id":"975d7472-abaa-40d3-8524-613626275fdc","system_id":"levelo_inurba_marseille","lat":43.2319,"lon":5.35547,"is_reserved":false,"is_disabled":false,"rental_uris":{"android":"levelo://app?vid=975d7472-abaa-40d3-8524-613626275fdc","ios":"levelo://app?vid=975d7472-abaa-40d3-8524-613626275fdc"},"vehicle_type_id":"4","last_reported":1750255911,"current_range_meters":16000,"station_id":"ce4bhu92rcd13ifvqi70","pricing_plan_id":"cebpf4jnsgd1na2vs0mg"},{"bike_id":"d6b59448-6161-4e70-befd-235ecc0fb1fc","system_id":"levelo_inurba_marseille","lat":43.23187,"lon":5.3556,"is_reserved":false,"is_disabled":false,"rental_uris":{"android":"levelo://app?vid=d6b59448-6161-4e70-befd-235ecc0fb1fc","ios":"levelo://app?vid=d6b59448-6161-4e70-befd-235ecc0fb1fc"},"vehicle_type_id":"4","last_reported":1750255911,"current_range_meters":16000,"station_id":"ce4bhu92rcd13ifvqi70","pricing_plan_id":"cebpf4jnsgd1na2vs0mg"},{"bike_id":"eaaa9fcd-34d4-4d0b-8f90-fbf605a0610f","system_id":"levelo_inurba_marseille","lat":43.21174,"lon":5.35087,"is_reserved":false,"is_disabled":false,"rental_uris":{"android":"levelo://app?vid=eaaa9fcd-34d4-4d0b-8f90-fbf605a0610f","ios":"levelo://app?vid=eaaa9fcd-34d4-4d0b-8f90-fbf605a0610f"},"vehicle_type_id":"4","last_reported":1750255911,"current_range_meters":16000,"station_id":"st_cvj6sg6p6f1abm77japg","pricing_plan_id":"cebpf4jnsgd1na2vs0mg"},{"bike_id":"e921cee3-b8ce-4c00-b7eb-8ab335b5e125","system_id":"levelo_inurba_marseille","lat":43.30216,"lon":5.42267,"is_reserved":false,"is_disabled":false,"rental_uris":{"android":"levelo://app?vid=e921cee3-b8ce-4c00-b7eb-8ab335b5e125","ios":"levelo://app?vid=e921cee3-b8ce-4c00-b7eb-8ab335b5e125"},"vehicle_type_id":"4","last_reported":1750255911,"current_range_meters":16400,"station_id":"","pricing_plan_id":"cebpf4jnsgd1na2vs0mg"},{"bike_id":"f025e0b0-8595-426c-b214-cb9b74c5fcfd","system_id":"levelo_inurba_marseille","lat":43.32202,"lon":5.40569,"is_reserved":false,"is_disabled":false,"rental_uris":{"android":"levelo://app?vid=f025e0b0-8595-426c-b214-cb9b74c5fcfd","ios":"levelo://app?vid=f025e0b0-8595-426c-b214-cb9b74c5fcfd"},"vehicle_type_id":"4","last_reported":1750255911,"current_range_meters":16400,"station_id":"","pricing_plan_id":"cebpf4jnsgd1na2vs0mg"},{"bike_id":"6eb525e5-cbac-4e46-a9d5-aaa089817693","system_id":"levelo_inurba_marseille","lat":43.2632,"lon":5.37394,"is_reserved":false,"is_disabled":false,"rental_uris":{"android":"levelo://app?vid=6eb525e5-cbac-4e46-a9d5-aaa089817693","ios":"levelo://app?vid=6eb525e5-cbac-4e46-a9d5-aaa089817693"},"vehicle_type_id":"4","last_reported":1750255911,"current_range_meters":16400,"station_id":"","pricing_plan_id":"cebpf4jnsgd1na2vs0mg"},{"bike_id":"1f4aed11-e8f7-47f2-950e-b2770c94bba9","system_id":"levelo_inurba_marseille","lat":43.27626,"lon":5.36106,"is_reserved":false,"is_disabled":false,"rental_uris":{"android":"levelo://app?vid=1f4aed11-e8f7-47f2-950e-b2770c94bba9","ios":"levelo://app?vid=1f4aed11-e8f7-47f2-950e-b2770c94bba9"},"vehicle_type_id":"4","last_reported":1750255911,"current_range_meters":16400,"station_id":"ce4bgj92rcd13ifvqbe0","pricing_plan_id":"cebpf4jnsgd1na2vs0mg"},{"bike_id":"f9b66d6b-d00c-48f3-ae8e-444dc6752b49","system_id":"levelo_inurba_marseille","lat":43.30576,"lon":5.36539,"is_reserved":false,"is_disabled":false,"rental_uris":{"android":"levelo://app?vid=f9b66d6b-d00c-48f3-ae8e-444dc6752b49","ios":"levelo://app?vid=f9b66d6b-d00c-48f3-ae8e-444dc6752b49"},"vehicle_type_id":"4","last_reported":1750255911,"current_range_meters":16400,"station_id":"ce4bgs12rcd13ifvqcag","pricing_plan_id":"cebpf4jnsgd1na2vs0mg"},{"bike_id":"390b8ed5-abf6-4fcf-9370-66dd64d65ab8","system_id":"levelo_inurba_marseille","lat":43.21748,"lon":5.34601,"is_reserved":false,"is_disabled":false,"rental_uris":{"android":"levelo://app?vid=390b8ed5-abf6-4fcf-9370-66dd64d65ab8","ios":"levelo://app?vid=390b8ed5-abf6-4fcf-9370-66dd64d65ab8"},"vehicle_type_id":"4","last_reported":1750255911,"current_range_meters":16400,"station_id":"st_cvj6r9ubvosntc0bgbag","pricing_plan_id":"cebpf4jnsgd1na2vs0mg"},{"bike_id":"87b77436-40f4-4cec-b641-2b02c1ef82e6","system_id":"levelo_inurba_marseille","lat":43.30274,"lon":5.37696,"is_reserved":false,"is_disabled":false,"rental_uris":{"android":"levelo://app?vid=87b77436-40f4-4cec-b641-2b02c1ef82e6","ios":"levelo://app?vid=87b77436-40f4-4cec-b641-2b02c1ef82e6"},"vehicle_type_id":"4","last_reported":1750255911,"current_range_meters":16800,"station_id":"ce4bguh2rcd13ifvqcj0","pricing_plan_id":"cebpf4jnsgd1na2vs0mg"},{"bike_id":"bc4ea584-4b9e-47bc-9bf9-0acbc1c309ba","system_id":"levelo_inurba_marseille","lat":43.30788,"lon":5.37647,"is_reserved":false,"is_disabled":false,"rental_uris":{"android":"levelo://app?vid=bc4ea584-4b9e-47bc-9bf9-0acbc1c309ba","ios":"levelo://app?vid=bc4ea584-4b9e-47bc-9bf9-0acbc1c309ba"},"vehicle_type_id":"4","last_reported":1750255911,"current_range_meters":16800,"station_id":"ce4bgv92rcd13ifvqcq0","pricing_plan_id":"cebpf4jnsgd1na2vs0mg"},{"bike_id":"0808ca1f-a428-41a4-ab6c-5a85f5a8db61","system_id":"levelo_inurba_marseille","lat":43.29257,"lon":5.40901,"is_reserved":false,"is_disabled":false,"rental_uris":{"android":"levelo://app?vid=0808ca1f-a428-41a4-ab6c-5a85f5a8db61","ios":"levelo://app?vid=0808ca1f-a428-41a4-ab6c-5a85f5a8db61"},"vehicle_type_id":"4","last_reported":1750255911,"current_range_meters":16800,"station_id":"ce4bh192rcd13ifvqdc0","pricing_plan_id":"cebpf4jnsgd1na2vs0mg"},{"bike_id":"d65a10b5-8f70-4476-b2dd-ba37ef5bb371","system_id":"levelo_inurba_marseille","lat":43.29012,"lon":5.35611,"is_reserved":false,"is_disabled":false,"rental_uris":{"android":"levelo://app?vid=d65a10b5-8f70-4476-b2dd-ba37ef5bb371","ios":"levelo://app?vid=d65a10b5-8f70-4476-b2dd-ba37ef5bb371"},"vehicle_type_id":"4","last_reported":1750255911,"current_range_meters":16800,"station_id":"ce4bhb92rcd13ifvqen0","pricing_plan_id":"cebpf4jnsgd1na2vs0mg"},{"bike_id":"de3fd6e3-2f56-4b85-b784-11a799eec8e6","system_id":"levelo_inurba_marseille","lat":43.27381,"lon":5.36254,"is_reserved":false,"is_disabled":false,"rental_uris":{"android":"levelo://app?vid=de3fd6e3-2f56-4b85-b784-11a799eec8e6","ios":"levelo://app?vid=de3fd6e3-2f56-4b85-b784-11a799eec8e6"},"vehicle_type_id":"4","last_reported":1750255911,"current_range_meters":16800,"station_id":"ce4bhbh2rcd13ifvqeo0","pricing_plan_id":"cebpf4jnsgd1na2vs0mg"},{"bike_id":"e7dad37e-e27e-45a3-98af-53555fde6281","system_id":"levelo_inurba_marseille","lat":43.28283,"lon":5.35084,"is_reserved":false,"is_disabled":false,"rental_uris":{"android":"levelo://app?vid=e7dad37e-e27e-45a3-98af-53555fde6281","ios":"levelo://app?vid=e7dad37e-e27e-45a3-98af-53555fde6281"},"vehicle_type_id":"4","last_reported":1750255911,"current_range_meters":16800,"station_id":"ce4bhbp2rcd13ifvqerg","pricing_plan_id":"cebpf4jnsgd1na2vs0mg"},{"bike_id":"e7686c58-35e2-4b3b-9612-c98b89e3da0b","system_id":"levelo_inurba_marseille","lat":43.26559,"lon":5.39035,"is_reserved":false,"is_disabled":false,"rental_uris":{"android":"levelo://app?vid=e7686c58-35e2-4b3b-9612-c98b89e3da0b","ios":"levelo://app?vid=e7686c58-35e2-4b3b-9612-c98b89e3da0b"},"vehicle_type_id":"4","last_reported":1750255911,"current_range_meters":16800,"station_id":"ce4bhe12rcd13ifvqf30","pricing_plan_id":"cebpf4jnsgd1na2vs0mg"},{"bike_id":"caa7a473-a728-4942-9155-61ec407abffe","system_id":"levelo_inurba_marseille","lat":43.26209,"lon":5.3793,"is_reserved":false,"is_disabled":false,"rental_uris":{"android":"levelo://app?vid=caa7a473-a728-4942-9155-61ec407abffe","ios":"levelo://app?vid=caa7a473-a728-4942-9155-61ec407abffe"},"vehicle_type_id":"4","last_reported":1750255911,"current_range_meters":16800,"station_id":"ce4bhjp2rcd13ifvqg90","pricing_plan_id":"cebpf4jnsgd1na2vs0mg"},{"bike_id":"cfef7392-1433-476b-a989-3fb180315ec3","system_id":"levelo_inurba_marseille","lat":43.24172,"lon":5.39734,"is_reserved":false,"is_disabled":false,"rental_uris":{"android":"levelo://app?vid=cfef7392-1433-476b-a989-3fb180315ec3","ios":"levelo://app?vid=cfef7392-1433-476b-a989-3fb180315ec3"},"vehicle_type_id":"4","last_reported":1750255911,"current_range_meters":16800,"station_id":"ce4bhn12rcd13ifvqgpg","pricing_plan_id":"cebpf4jnsgd1na2vs0mg"},{"bike_id":"bc23166e-55f9-473c-ba93-87dd12173a65","system_id":"levelo_inurba_marseille","lat":43.24081,"lon":5.37755,"is_reserved":false,"is_disabled":false,"rental_uris":{"android":"levelo://app?vid=bc23166e-55f9-473c-ba93-87dd12173a65","ios":"levelo://app?vid=bc23166e-55f9-473c-ba93-87dd12173a65"},"vehicle_type_id":"4","last_reported":1750255911,"current_range_meters":16800,"station_id":"ce4bhnp2rcd13ifvqgvg","pricing_plan_id":"cebpf4jnsgd1na2vs0mg"},{"bike_id":"4b6b2a2b-d3c4-4663-8ea1-de4eff39b7b2","system_id":"levelo_inurba_marseille","lat":43.21181,"lon":5.35061,"is_reserved":false,"is_disabled":false,"rental_uris":{"android":"levelo://app?vid=4b6b2a2b-d3c4-4663-8ea1-de4eff39b7b2","ios":"levelo://app?vid=4b6b2a2b-d3c4-4663-8ea1-de4eff39b7b2"},"vehicle_type_id":"4","last_reported":1750255911,"current_range_meters":16800,"station_id":"st_cvj6sg6p6f1abm77japg","pricing_plan_id":"cebpf4jnsgd1na2vs0mg"},{"bike_id":"510685b6-f89b-44e4-90e5-f912322aeba1","system_id":"levelo_inurba_marseille","lat":43.30895,"lon":5.372,"is_reserved":false,"is_disabled":false,"rental_uris":{"android":"levelo://app?vid=510685b6-f89b-44e4-90e5-f912322aeba1","ios":"levelo://app?vid=510685b6-f89b-44e4-90e5-f912322aeba1"},"vehicle_type_id":"4","last_reported":1750255911,"current_range_meters":17200,"station_id":"ce4bguh2rcd13ifvqckg","pricing_plan_id":"cebpf4jnsgd1na2vs0mg"},{"bike_id":"099375f7-c419-4d6f-86c1-681997220780","system_id":"levelo_inurba_marseille","lat":43.31184,"lon":5.38715,"is_reserved":false,"is_disabled":false,"rental_uris":{"android":"levelo://app?vid=099375f7-c419-4d6f-86c1-681997220780","ios":"levelo://app?vid=099375f7-c419-4d6f-86c1-681997220780"},"vehicle_type_id":"4","last_reported":1750255911,"current_range_meters":17200,"station_id":"ce4bgv12rcd13ifvqcp0","pricing_plan_id":"cebpf4jnsgd1na2vs0mg"},{"bike_id":"01ffc394-7ab5-4775-bccf-dad3f15d546e","system_id":"levelo_inurba_marseille","lat":43.2842,"lon":5.34985,"is_reserved":false,"is_disabled":false,"rental_uris":{"android":"levelo://app?vid=01ffc394-7ab5-4775-bccf-dad3f15d546e","ios":"levelo://app?vid=01ffc394-7ab5-4775-bccf-dad3f15d546e"},"vehicle_type_id":"4","last_reported":1750255911,"current_range_meters":17200,"station_id":"ce4bhbh2rcd13ifvqepg","pricing_plan_id":"cebpf4jnsgd1na2vs0mg"},{"bike_id":"d9a1cc3b-64c2-49fc-ba12-fb7514a25935","system_id":"levelo_inurba_marseille","lat":43.26214,"lon":5.37445,"is_reserved":false,"is_disabled":false,"rental_uris":{"android":"levelo://app?vid=d9a1cc3b-64c2-49fc-ba12-fb7514a25935","ios":"levelo://app?vid=d9a1cc3b-64c2-49fc-ba12-fb7514a25935"},"vehicle_type_id":"4","last_reported":1750255911,"current_range_meters":17200,"station_id":"ce4bhgp2rcd13ifvqfc0","pricing_plan_id":"cebpf4jnsgd1na2vs0mg"},{"bike_id":"ca17c611-8a47-42a0-bb1e-ca22e1401919","system_id":"levelo_inurba_marseille","lat":43.26209,"lon":5.37445,"is_reserved":false,"is_disabled":false,"rental_uris":{"android":"levelo://app?vid=ca17c611-8a47-42a0-bb1e-ca22e1401919","ios":"levelo://app?vid=ca17c611-8a47-42a0-bb1e-ca22e1401919"},"vehicle_type_id":"4","last_reported":1750255911,"current_range_meters":17200,"station_id":"ce4bhgp2rcd13ifvqfc0","pricing_plan_id":"cebpf4jnsgd1na2vs0mg"},{"bike_id":"00ba2b2b-a9da-498f-94dc-3c038812b47c","system_id":"levelo_inurba_marseille","lat":43.29896,"lon":5.43664,"is_reserved":false,"is_disabled":false,"rental_uris":{"android":"levelo://app?vid=00ba2b2b-a9da-498f-94dc-3c038812b47c","ios":"levelo://app?vid=00ba2b2b-a9da-498f-94dc-3c038812b47c"},"vehicle_type_id":"4","last_reported":1750255911,"current_range_meters":17200,"station_id":"ce4bhpp2rcd13ifvqhfg","pricing_plan_id":"cebpf4jnsgd1na2vs0mg"},{"bike_id":"a004d7f2-75e1-49e9-b073-ad13bcf23d1e","system_id":"levelo_inurba_marseille","lat":43.23182,"lon":5.35561,"is_reserved":false,"is_disabled":false,"rental_uris":{"android":"levelo://app?vid=a004d7f2-75e1-49e9-b073-ad13bcf23d1e","ios":"levelo://app?vid=a004d7f2-75e1-49e9-b073-ad13bcf23d1e"},"vehicle_type_id":"4","last_reported":1750255911,"current_range_meters":17200,"station_id":"ce4bhu92rcd13ifvqi70","pricing_plan_id":"cebpf4jnsgd1na2vs0mg"},{"bike_id":"744f0163-1137-46db-835e-c2dc58d25488","system_id":"levelo_inurba_marseille","lat":43.22929,"lon":5.35384,"is_reserved":false,"is_disabled":false,"rental_uris":{"android":"levelo://app?vid=744f0163-1137-46db-835e-c2dc58d25488","ios":"levelo://app?vid=744f0163-1137-46db-835e-c2dc58d25488"},"vehicle_type_id":"4","last_reported":1750255911,"current_range_meters":17200,"station_id":"cpo3532slgdg3j2ikp40","pricing_plan_id":"cebpf4jnsgd1na2vs0mg"},{"bike_id":"744b1c90-170f-4e99-8fd9-ae1376712de0","system_id":"levelo_inurba_marseille","lat":43.21758,"lon":5.34628,"is_reserved":false,"is_disabled":false,"rental_uris":{"android":"levelo://app?vid=744b1c90-170f-4e99-8fd9-ae1376712de0","ios":"levelo://app?vid=744b1c90-170f-4e99-8fd9-ae1376712de0"},"vehicle_type_id":"4","last_reported":1750255911,"current_range_meters":17200,"station_id":"st_cvj6r9ubvosntc0bgbag","pricing_plan_id":"cebpf4jnsgd1na2vs0mg"},{"bike_id":"77ac8037-3c3c-493a-82c2-904a9ad6c7d0","system_id":"levelo_inurba_marseille","lat":43.26789,"lon":5.39045,"is_reserved":false,"is_disabled":false,"rental_uris":{"android":"levelo://app?vid=77ac8037-3c3c-493a-82c2-904a9ad6c7d0","ios":"levelo://app?vid=77ac8037-3c3c-493a-82c2-904a9ad6c7d0"},"vehicle_type_id":"4","last_reported":1750255911,"current_range_meters":17600,"station_id":"","pricing_plan_id":"cebpf4jnsgd1na2vs0mg"},{"bike_id":"09a32d93-e1d2-44aa-b94f-a57258dadbe2","system_id":"levelo_inurba_marseille","lat":43.30146,"lon":5.38087,"is_reserved":false,"is_disabled":false,"rental_uris":{"android":"levelo://app?vid=09a32d93-e1d2-44aa-b94f-a57258dadbe2","ios":"levelo://app?vid=09a32d93-e1d2-44aa-b94f-a57258dadbe2"},"vehicle_type_id":"4","last_reported":1750255911,"current_range_meters":17600,"station_id":"ce4bgjp2rcd13ifvqbh0","pricing_plan_id":"cebpf4jnsgd1na2vs0mg"},{"bike_id":"c432f84b-cecc-4733-8a4d-ad61d0d520f8","system_id":"levelo_inurba_marseille","lat":43.28104,"lon":5.37871,"is_reserved":false,"is_disabled":false,"rental_uris":{"android":"levelo://app?vid=c432f84b-cecc-4733-8a4d-ad61d0d520f8","ios":"levelo://app?vid=c432f84b-cecc-4733-8a4d-ad61d0d520f8"},"vehicle_type_id":"4","last_reported":1750255911,"current_range_meters":17600,"station_id":"ce4bha12rcd13ifvqee0","pricing_plan_id":"cebpf4jnsgd1na2vs0mg"},{"bike_id":"a4a1f81d-f1d3-4a18-91ac-e86adf4b0027","system_id":"levelo_inurba_marseille","lat":43.28265,"lon":5.35108,"is_reserved":false,"is_disabled":false,"rental_uris":{"android":"levelo://app?vid=a4a1f81d-f1d3-4a18-91ac-e86adf4b0027","ios":"levelo://app?vid=a4a1f81d-f1d3-4a18-91ac-e86adf4b0027"},"vehicle_type_id":"4","last_reported":1750255911,"current_range_meters":17600,"station_id":"ce4bhbp2rcd13ifvqerg","pricing_plan_id":"cebpf4jnsgd1na2vs0mg"},{"bike_id":"f57c3844-b35c-4829-beb0-bce318ebc4f4","system_id":"levelo_inurba_marseille","lat":43.28617,"lon":5.35103,"is_reserved":false,"is_disabled":false,"rental_uris":{"android":"levelo://app?vid=f57c3844-b35c-4829-beb0-bce318ebc4f4","ios":"levelo://app?vid=f57c3844-b35c-4829-beb0-bce318ebc4f4"},"vehicle_type_id":"4","last_reported":1750255911,"current_range_meters":17600,"station_id":"ce4bhch2rcd13ifvqeug","pricing_plan_id":"cebpf4jnsgd1na2vs0mg"},{"bike_id":"73e60e02-e6a7-4b89-9541-57b7de048bfb","system_id":"levelo_inurba_marseille","lat":43.25582,"lon":5.3825,"is_reserved":false,"is_disabled":false,"rental_uris":{"android":"levelo://app?vid=73e60e02-e6a7-4b89-9541-57b7de048bfb","ios":"levelo://app?vid=73e60e02-e6a7-4b89-9541-57b7de048bfb"},"vehicle_type_id":"4","last_reported":1750255911,"current_range_meters":17600,"station_id":"ce4bhih2rcd13ifvqfs0","pricing_plan_id":"cebpf4jnsgd1na2vs0mg"},{"bike_id":"3d5c9d39-9d4a-420a-af2b-b7d80c7d8848","system_id":"levelo_inurba_marseille","lat":43.25476,"lon":5.37581,"is_reserved":false,"is_disabled":false,"rental_uris":{"android":"levelo://app?vid=3d5c9d39-9d4a-420a-af2b-b7d80c7d8848","ios":"levelo://app?vid=3d5c9d39-9d4a-420a-af2b-b7d80c7d8848"},"vehicle_type_id":"4","last_reported":1750255911,"current_range_meters":18000,"station_id":"","pricing_plan_id":"cebpf4jnsgd1na2vs0mg"},{"bike_id":"e5863b13-0bb4-41ee-a7a1-72091c1036b5","system_id":"levelo_inurba_marseille","lat":43.31607,"lon":5.38382,"is_reserved":false,"is_disabled":false,"rental_uris":{"android":"levelo://app?vid=e5863b13-0bb4-41ee-a7a1-72091c1036b5","ios":"levelo://app?vid=e5863b13-0bb4-41ee-a7a1-72091c1036b5"},"vehicle_type_id":"4","last_reported":1750255911,"current_range_meters":18000,"station_id":"","pricing_plan_id":"cebpf4jnsgd1na2vs0mg"},{"bike_id":"833b16e1-97ec-4192-81e4-91877b340a52","system_id":"levelo_inurba_marseille","lat":43.32475,"lon":5.36621,"is_reserved":false,"is_disabled":false,"rental_uris":{"android":"levelo://app?vid=833b16e1-97ec-4192-81e4-91877b340a52","ios":"levelo://app?vid=833b16e1-97ec-4192-81e4-91877b340a52"},"vehicle_type_id":"4","last_reported":1750255911,"current_range_meters":18000,"station_id":"","pricing_plan_id":"cebpf4jnsgd1na2vs0mg"},{"bike_id":"300ca1f9-c608-4982-82af-3f268e1aada5","system_id":"levelo_inurba_marseille","lat":43.30528,"lon":5.36576,"is_reserved":false,"is_disabled":false,"rental_uris":{"android":"levelo://app?vid=300ca1f9-c608-4982-82af-3f268e1aada5","ios":"levelo://app?vid=300ca1f9-c608-4982-82af-3f268e1aada5"},"vehicle_type_id":"4","last_reported":1750255911,"current_range_meters":18000,"station_id":"ce4bgs12rcd13ifvqcag","pricing_plan_id":"cebpf4jnsgd1na2vs0mg"},{"bike_id":"9f6c0955-66c9-4045-8605-11174f82c9a4","system_id":"levelo_inurba_marseille","lat":43.29256,"lon":5.40913,"is_reserved":false,"is_disabled":false,"rental_uris":{"android":"levelo://app?vid=9f6c0955-66c9-4045-8605-11174f82c9a4","ios":"levelo://app?vid=9f6c0955-66c9-4045-8605-11174f82c9a4"},"vehicle_type_id":"4","last_reported":1750255911,"current_range_meters":18000,"station_id":"ce4bh192rcd13ifvqdc0","pricing_plan_id":"cebpf4jnsgd1na2vs0mg"},{"bike_id":"a1c3599a-e54a-42d7-b0ec-68b726909ec8","system_id":"levelo_inurba_marseille","lat":43.28423,"lon":5.34992,"is_reserved":false,"is_disabled":false,"rental_uris":{"android":"levelo://app?vid=a1c3599a-e54a-42d7-b0ec-68b726909ec8","ios":"levelo://app?vid=a1c3599a-e54a-42d7-b0ec-68b726909ec8"},"vehicle_type_id":"4","last_reported":1750255911,"current_range_meters":18000,"station_id":"ce4bhbh2rcd13ifvqepg","pricing_plan_id":"cebpf4jnsgd1na2vs0mg"},{"bike_id":"3faa3961-acba-40c7-9213-4c174004efab","system_id":"levelo_inurba_marseille","lat":43.28412,"lon":5.34999,"is_reserved":false,"is_disabled":false,"rental_uris":{"android":"levelo://app?vid=3faa3961-acba-40c7-9213-4c174004efab","ios":"levelo://app?vid=3faa3961-acba-40c7-9213-4c174004efab"},"vehicle_type_id":"4","last_reported":1750255911,"current_range_meters":18000,"station_id":"ce4bhbh2rcd13ifvqepg","pricing_plan_id":"cebpf4jnsgd1na2vs0mg"},{"bike_id":"441f3f80-0ce3-4aa1-8be0-48dd79960396","system_id":"levelo_inurba_marseille","lat":43.28265,"lon":5.35063,"is_reserved":false,"is_disabled":false,"rental_uris":{"android":"levelo://app?vid=441f3f80-0ce3-4aa1-8be0-48dd79960396","ios":"levelo://app?vid=441f3f80-0ce3-4aa1-8be0-48dd79960396"},"vehicle_type_id":"4","last_reported":1750255911,"current_range_meters":18000,"station_id":"ce4bhbp2rcd13ifvqerg","pricing_plan_id":"cebpf4jnsgd1na2vs0mg"},{"bike_id":"8c5cd972-5b0f-4432-a392-d321c9174cb4","system_id":"levelo_inurba_marseille","lat":43.23146,"lon":5.43723,"is_reserved":false,"is_disabled":false,"rental_uris":{"android":"levelo://app?vid=8c5cd972-5b0f-4432-a392-d321c9174cb4","ios":"levelo://app?vid=8c5cd972-5b0f-4432-a392-d321c9174cb4"},"vehicle_type_id":"4","last_reported":1750255911,"current_range_meters":18000,"station_id":"ce4bhmp2rcd13ifvqgog","pricing_plan_id":"cebpf4jnsgd1na2vs0mg"},{"bike_id":"6bd925c1-923d-41fd-a6f9-0e6d9b622936","system_id":"levelo_inurba_marseille","lat":43.23153,"lon":5.4371,"is_reserved":false,"is_disabled":false,"rental_uris":{"android":"levelo://app?vid=6bd925c1-923d-41fd-a6f9-0e6d9b622936","ios":"levelo://app?vid=6bd925c1-923d-41fd-a6f9-0e6d9b622936"},"vehicle_type_id":"4","last_reported":1750255911,"current_range_meters":18000,"station_id":"ce4bhmp2rcd13ifvqgog","pricing_plan_id":"cebpf4jnsgd1na2vs0mg"},{"bike_id":"bcc573f7-4885-4e01-a82f-f27d067ecde3","system_id":"levelo_inurba_marseille","lat":43.2418,"lon":5.39732,"is_reserved":false,"is_disabled":false,"rental_uris":{"android":"levelo://app?vid=bcc573f7-4885-4e01-a82f-f27d067ecde3","ios":"levelo://app?vid=bcc573f7-4885-4e01-a82f-f27d067ecde3"},"vehicle_type_id":"4","last_reported":1750255911,"current_range_meters":18000,"station_id":"ce4bhn12rcd13ifvqgpg","pricing_plan_id":"cebpf4jnsgd1na2vs0mg"},{"bike_id":"9330ddf8-19a2-4f7e-a642-64601f2da5de","system_id":"levelo_inurba_marseille","lat":43.24071,"lon":5.37764,"is_reserved":false,"is_disabled":false,"rental_uris":{"android":"levelo://app?vid=9330ddf8-19a2-4f7e-a642-64601f2da5de","ios":"levelo://app?vid=9330ddf8-19a2-4f7e-a642-64601f2da5de"},"vehicle_type_id":"4","last_reported":1750255911,"current_range_meters":18000,"station_id":"ce4bhnp2rcd13ifvqgvg","pricing_plan_id":"cebpf4jnsgd1na2vs0mg"},{"bike_id":"2d328219-5d0a-4cfc-829b-c48c09d27f58","system_id":"levelo_inurba_marseille","lat":43.21746,"lon":5.34593,"is_reserved":false,"is_disabled":false,"rental_uris":{"android":"levelo://app?vid=2d328219-5d0a-4cfc-829b-c48c09d27f58","ios":"levelo://app?vid=2d328219-5d0a-4cfc-829b-c48c09d27f58"},"vehicle_type_id":"4","last_reported":1750255911,"current_range_meters":18800,"station_id":"","pricing_plan_id":"cebpf4jnsgd1na2vs0mg"},{"bike_id":"4bd00a97-73ec-44cc-9d9d-52afb92a921a","system_id":"levelo_inurba_marseille","lat":43.26427,"lon":5.37339,"is_reserved":false,"is_disabled":false,"rental_uris":{"android":"levelo://app?vid=4bd00a97-73ec-44cc-9d9d-52afb92a921a","ios":"levelo://app?vid=4bd00a97-73ec-44cc-9d9d-52afb92a921a"},"vehicle_type_id":"4","last_reported":1750255911,"current_range_meters":18800,"station_id":"","pricing_plan_id":"cebpf4jnsgd1na2vs0mg"},{"bike_id":"03b64852-b343-4a41-a95d-964568f415a0","system_id":"levelo_inurba_marseille","lat":43.313637,"lon":5.367457,"is_reserved":false,"is_disabled":false,"rental_uris":{"android":"levelo://app?vid=03b64852-b343-4a41-a95d-964568f415a0","ios":"levelo://app?vid=03b64852-b343-4a41-a95d-964568f415a0"},"vehicle_type_id":"4","last_reported":1750255911,"current_range_meters":18800,"station_id":"ce4bgr92rcd13ifvqc6g","pricing_plan_id":"cebpf4jnsgd1na2vs0mg"},{"bike_id":"b29ea61c-2f5f-40e0-9f28-e9706ab60282","system_id":"levelo_inurba_marseille","lat":43.251178,"lon":5.403159,"is_reserved":false,"is_disabled":false,"rental_uris":{"android":"levelo://app?vid=b29ea61c-2f5f-40e0-9f28-e9706ab60282","ios":"levelo://app?vid=b29ea61c-2f5f-40e0-9f28-e9706ab60282"},"vehicle_type_id":"4","last_reported":1750255911,"current_range_meters":18800,"station_id":"ce4bhlh2rcd13ifvqgig","pricing_plan_id":"cebpf4jnsgd1na2vs0mg"},{"bike_id":"a52c398e-80c6-403b-8a57-70006c3a9fac","system_id":"levelo_inurba_marseille","lat":43.22928,"lon":5.35401,"is_reserved":false,"is_disabled":false,"rental_uris":{"android":"levelo://app?vid=a52c398e-80c6-403b-8a57-70006c3a9fac","ios":"levelo://app?vid=a52c398e-80c6-403b-8a57-70006c3a9fac"},"vehicle_type_id":"4","last_reported":1750255911,"current_range_meters":18800,"station_id":"cpo3532slgdg3j2ikp40","pricing_plan_id":"cebpf4jnsgd1na2vs0mg"},{"bike_id":"27cd7138-8b58-4d27-b6bb-d957b614e63b","system_id":"levelo_inurba_marseille","lat":43.30158,"lon":5.3699,"is_reserved":false,"is_disabled":false,"rental_uris":{"android":"levelo://app?vid=27cd7138-8b58-4d27-b6bb-d957b614e63b","ios":"levelo://app?vid=27cd7138-8b58-4d27-b6bb-d957b614e63b"},"vehicle_type_id":"4","last_reported":1750255911,"current_range_meters":19200,"station_id":"","pricing_plan_id":"cebpf4jnsgd1na2vs0mg"},{"bike_id":"17914998-7019-4e0e-a555-d334b87a3db2","system_id":"levelo_inurba_marseille","lat":43.30555,"lon":5.36531,"is_reserved":false,"is_disabled":false,"rental_uris":{"android":"levelo://app?vid=17914998-7019-4e0e-a555-d334b87a3db2","ios":"levelo://app?vid=17914998-7019-4e0e-a555-d334b87a3db2"},"vehicle_type_id":"4","last_reported":1750255911,"current_range_meters":19200,"station_id":"ce4bgs12rcd13ifvqcag","pricing_plan_id":"cebpf4jnsgd1na2vs0mg"},{"bike_id":"aac7d95a-0ae1-4412-8eff-1efc27b27421","system_id":"levelo_inurba_marseille","lat":43.27384,"lon":5.36269,"is_reserved":false,"is_disabled":false,"rental_uris":{"android":"levelo://app?vid=aac7d95a-0ae1-4412-8eff-1efc27b27421","ios":"levelo://app?vid=aac7d95a-0ae1-4412-8eff-1efc27b27421"},"vehicle_type_id":"4","last_reported":1750255911,"current_range_meters":19200,"station_id":"ce4bhbh2rcd13ifvqeo0","pricing_plan_id":"cebpf4jnsgd1na2vs0mg"},{"bike_id":"0cc1082d-0c94-4ee0-ab5e-0dcdf33cc858","system_id":"levelo_inurba_marseille","lat":43.28421,"lon":5.34997,"is_reserved":false,"is_disabled":false,"rental_uris":{"android":"levelo://app?vid=0cc1082d-0c94-4ee0-ab5e-0dcdf33cc858","ios":"levelo://app?vid=0cc1082d-0c94-4ee0-ab5e-0dcdf33cc858"},"vehicle_type_id":"4","last_reported":1750255911,"current_range_meters":19200,"station_id":"ce4bhbh2rcd13ifvqepg","pricing_plan_id":"cebpf4jnsgd1na2vs0mg"},{"bike_id":"5bee911e-2806-4dcb-81ca-7018139bd604","system_id":"levelo_inurba_marseille","lat":43.28421,"lon":5.35003,"is_reserved":false,"is_disabled":false,"rental_uris":{"android":"levelo://app?vid=5bee911e-2806-4dcb-81ca-7018139bd604","ios":"levelo://app?vid=5bee911e-2806-4dcb-81ca-7018139bd604"},"vehicle_type_id":"4","last_reported":1750255911,"current_range_meters":19200,"station_id":"ce4bhbh2rcd13ifvqepg","pricing_plan_id":"cebpf4jnsgd1na2vs0mg"},