{"last_updated":1718557574,"ttl":30,"version":"2.2","data":{"bikes":[{"bike_id":"b403e57e-6abd-484d-9523-0869a4405ece","system_id":"levelo_inurba_marseille","lat":43.312239,"lon":5.368562,"is_reserved":false,"is_disabled":false,"rental_uris":{"android":"levelo://app?vid=b403e57e-6abd-484d-9523-0869a4405ece","ios":"levelo://app?vid=b403e57e-6abd-484d-9523-0869a4405ece"},"vehicle_type_id":"4","last_reported":1718557574,"current_range_meters":21600,"station_id":"ce4bgl92rcd13ifvqbq0","pricing_plan_id":"cebpf4jnsgd1na2vs0mg"},{"bike_id":"1f8f6438-0217-49d9-8d10-5678d324ad23","system_id":"levelo_inurba_marseille","lat":43.312239,"lon":5.368562,"is_reserved":false,"is_disabled":false,"rental_uris":{"android":"levelo://app?vid=1f8f6438-0217-49d9-8d10-5678d324ad23","ios":"levelo://app?vid=1f8f6438-0217-49d9-8d10-5678d324ad23"},"vehicle_type_id":"4","last_reported":1718557574,"current_range_meters":3600,"station_id":"ce4bgl92rcd13ifvqbq0","pricing_plan_id":"cebpf4jnsgd1na2vs0mg"},{"bike_id":"e35c7d47-ea0b-40db-b50f-fca102d014b2","system_id":"levelo_inurba_marseille","lat":43.309076,"lon":5.368465,"is_reserved":false,"is_disabled":false,"rental_uris":{"android":"levelo://app?vid=e35c7d47-ea0b-40db-b50f-fca102d014b2","ios":"levelo://app?vid=e35c7d47-ea0b-40db-b50f-fca102d014b2"},"vehicle_type_id":"4","last_reported":1718557574,"current_range_meters":7200,"station_id":"ce4bgn92rcd13ifvqbvg","pricing_plan_id":"cebpf4jnsgd1na2vs0mg"},{"bike_id":"c67c2131-3e63-480d-a187-5f075c220427","system_id":"levelo_inurba_marseille","lat":43.315187,"lon":5.371283,"is_reserved":false,"is_disabled":false,"rental_uris":{"android":"levelo://app?vid=c67c2131-3e63-480d-a187-5f075c220427","ios":"levelo://app?vid=c67c2131-3e63-480d-a187-5f075c220427"},"vehicle_type_id":"4","last_reported":1718557574,"current_range_meters":27600,"station_id":"","pricing_plan_id":"cebpf4jnsgd1na2vs0mg"},{"bike_id":"09d59677-a246-4aa0-a971-987165462d0d","system_id":"levelo_inurba_marseille","lat":43.314811,"lon":5.373103,"is_reserved":false,"is_disabled":false,"rental_uris":{"android":"levelo://app?vid=09d59677-a246-4aa0-a971-987165462d0d","ios":"levelo://app?vid=09d59677-a246-4aa0-a971-987165462d0d"},"vehicle_type_id":"4","last_reported":1718557574,"current_range_meters":21600,"station_id":"ce4bgt12rcd13ifvqcd0","pricing_plan_id":"cebpf4jnsgd1na2vs0mg"},{"bike_id":"249920b9-0ae8-43ea-af63-a6ec6f7131f0","system_id":"levelo_inurba_marseille","lat":43.309039,"lon":5.371797,"is_reserved":false,"is_disabled":false,"rental_uris":{"android":"levelo://app?vid=249920b9-0ae8-43ea-af63-a6ec6f7131f0","ios":"levelo://app?vid=249920b9-0ae8-43ea-af63-a6ec6f7131f0"},"vehicle_type_id":"4","last_reported":1718557574,"current_range_meters":14000,"station_id":"ce4bguh2rcd13ifvqckg","pricing_plan_id":"cebpf4jnsgd1na2vs0mg"},{"bike_id":"91e65379-4f29-418a-9716-66ddce7b432c","system_id":"levelo_inurba_marseille","lat":43.31443,"lon":5.37361,"is_reserved":false,"is_disabled":false,"rental_uris":{"android":"levelo://app?vid=91e65379-4f29-418a-9716-66ddce7b432c","ios":"levelo://app?vid=91e65379-4f29-418a-9716-66ddce7b432c"},"vehicle_type_id":"4","last_reported":1718557574,"current_range_meters":0,"station_id":"","pricing_plan_id":"cebpf4jnsgd1na2vs0mg"},{"bike_id":"19fbc8e3-e4c5-46ce-8ac7-41d0314da69e","system_id":"levelo_inurba_marseille","lat":43.314445,"lon":5.373693,"is_reserved":false,"is_disabled":false,"rental_uris":{"android":"levelo://app?vid=19fbc8e3-e4c5-46ce-8ac7-41d0314da69e","ios":"levelo://app?vid=19fbc8e3-e4c5-46ce-8ac7-41d0314da69e"},"vehicle_type_id":"4","last_reported":1718557574,"current_range_meters":30000,"station_id":"","pricing_plan_id":"cebpf4jnsgd1na2vs0mg"},{"bike_id":"270143d2-5b46-4379-861d-fec58bb798db","system_id":"levelo_inurba_marseille","lat":43.314559,"lon":5.373759,"is_reserved":false,"is_disabled":false,"rental_uris":{"android":"levelo://app?vid=270143d2-5b46-4379-861d-fec58bb798db","ios":"levelo://app?vid=270143d2-5b46-4379-861d-fec58bb798db"},"vehicle_type_id":"4","last_reported":1718557574,"current_range_meters":26800,"station_id":"","pricing_plan_id":"cebpf4jnsgd1na2vs0mg"},{"bike_id":"520d52fe-4406-4f7a-b40f-5ba025e63f4a","system_id":"levelo_inurba_marseille","lat":43.3154,"lon":5.37453,"is_reserved":false,"is_disabled":false,"rental_uris":{"android":"levelo://app?vid=520d52fe-4406-4f7a-b40f-5ba025e63f4a","ios":"levelo://app?vid=520d52fe-4406-4f7a-b40f-5ba025e63f4a"},"vehicle_type_id":"4","last_reported":1718557574,"current_range_meters":4400,"station_id":"","pricing_plan_id":"cebpf4jnsgd1na2vs0mg"},{"bike_id":"cbaf9dae-1656-4fec-944e-d54bf491b6cf","system_id":"levelo_inurba_marseille","lat":43.31841,"lon":5.37402,"is_reserved":false,"is_disabled":false,"rental_uris":{"android":"levelo://app?vid=cbaf9dae-1656-4fec-944e-d54bf491b6cf","ios":"levelo://app?vid=cbaf9dae-1656-4fec-944e-d54bf491b6cf"},"vehicle_type_id":"4","last_reported":1718557574,"current_range_meters":30000,"station_id":"","pricing_plan_id":"cebpf4jnsgd1na2vs0mg"},{"bike_id":"5078a83d-e745-4ed3-84f2-70831b04a80d","system_id":"levelo_inurba_marseille","lat":43.31959,"lon":5.37197,"is_reserved":false,"is_disabled":false,"rental_uris":{"android":"levelo://app?vid=5078a83d-e745-4ed3-84f2-70831b04a80d","ios":"levelo://app?vid=5078a83d-e745-4ed3-84f2-70831b04a80d"},"vehicle_type_id":"4","last_reported":1718557574,"current_range_meters":23600,"station_id":"","pricing_plan_id":"cebpf4jnsgd1na2vs0mg"},{"bike_id":"7864c9aa-ffd9-427b-8719-d3323b163b8b","system_id":"levelo_inurba_marseille","lat":43.311147,"lon":5.377616,"is_reserved":false,"is_disabled":false,"rental_uris":{"android":"levelo://app?vid=7864c9aa-ffd9-427b-8719-d3323b163b8b","ios":"levelo://app?vid=7864c9aa-ffd9-427b-8719-d3323b163b8b"},"vehicle_type_id":"4","last_reported":1718557574,"current_range_meters":7200,"station_id":"","pricing_plan_id":"cebpf4jnsgd1na2vs0mg"},{"bike_id":"2f2506b3-254e-4209-b3eb-17345cc76181","system_id":"levelo_inurba_marseille","lat":43.307945,"lon":5.376487,"is_reserved":false,"is_disabled":false,"rental_uris":{"android":"levelo://app?vid=2f2506b3-254e-4209-b3eb-17345cc76181","ios":"levelo://app?vid=2f2506b3-254e-4209-b3eb-17345cc76181"},"vehicle_type_id":"4","last_reported":1718557574,"current_range_meters":16000,"station_id":"ce4bgv92rcd13ifvqcq0","pricing_plan_id":"cebpf4jnsgd1na2vs0mg"},{"bike_id":"23b27610-d495-4f2d-8fc4-e6e2b60c286b","system_id":"levelo_inurba_marseille","lat":43.317075,"lon":5.377367,"is_reserved":false,"is_disabled":false,"rental_uris":{"android":"levelo://app?vid=23b27610-d495-4f2d-8fc4-e6e2b60c286b","ios":"levelo://app?vid=23b27610-d495-4f2d-8fc4-e6e2b60c286b"},"vehicle_type_id":"4","last_reported":1718557574,"current_range_meters":20000,"station_id":"ce4bgth2rcd13ifvqch0","pricing_plan_id":"cebpf4jnsgd1na2vs0mg"},{"bike_id":"7e391f6d-054b-4dd4-b71e-da8f130a0581","system_id":"levelo_inurba_marseille","lat":43.305081,"lon":5.375778,"is_reserved":false,"is_disabled":false,"rental_uris":{"android":"levelo://app?vid=7e391f6d-054b-4dd4-b71e-da8f130a0581","ios":"levelo://app?vid=7e391f6d-054b-4dd4-b71e-da8f130a0581"},"vehicle_type_id":"4","last_reported":1718557574,"current_range_meters":2400,"station_id":"","pricing_plan_id":"cebpf4jnsgd1na2vs0mg"},{"bike_id":"ce27cfca-795c-4135-8f1c-48e33d6f16e7","system_id":"levelo_inurba_marseille","lat":43.31532,"lon":5.38034,"is_reserved":false,"is_disabled":false,"rental_uris":{"android":"levelo://app?vid=ce27cfca-795c-4135-8f1c-48e33d6f16e7","ios":"levelo://app?vid=ce27cfca-795c-4135-8f1c-48e33d6f16e7"},"vehicle_type_id":"4","last_reported":1718557574,"current_range_meters":0,"station_id":"ce4bhsp2rcd13ifvqi50","pricing_plan_id":"cebpf4jnsgd1na2vs0mg"},{"bike_id":"f8f26029-9d8d-44cb-8ef0-d3856f5cbd5b","system_id":"levelo_inurba_marseille","lat":43.304606,"lon":5.379026,"is_reserved":false,"is_disabled":false,"rental_uris":{"android":"levelo://app?vid=f8f26029-9d8d-44cb-8ef0-d3856f5cbd5b","ios":"levelo://app?vid=f8f26029-9d8d-44cb-8ef0-d3856f5cbd5b"},"vehicle_type_id":"4","last_reported":1718557574,"current_range_meters":30400,"station_id":"ce4bgup2rcd13ifvqcn0","pricing_plan_id":"cebpf4jnsgd1na2vs0mg"},{"bike_id":"81c7fed2-bca6-4348-a06c-738aae58653d","system_id":"levelo_inurba_marseille","lat":43.304606,"lon":5.379026,"is_reserved":false,"is_disabled":false,"rental_uris":{"android":"levelo://app?vid=81c7fed2-bca6-4348-a06c-738aae58653d","ios":"levelo://app?vid=81c7fed2-bca6-4348-a06c-738aae58653d"},"vehicle_type_id":"4","last_reported":1718557574,"current_range_meters":7600,"station_id":"ce4bgup2rcd13ifvqcn0","pricing_plan_id":"cebpf4jnsgd1na2vs0mg"},{"bike_id":"be620971-f7f5-4f54-a8cb-329f28ee6e7d","system_id":"levelo_inurba_marseille","lat":43.32477,"lon":5.36568,"is_reserved":false,"is_disabled":false,"rental_uris":{"android":"levelo://app?vid=be620971-f7f5-4f54-a8cb-329f28ee6e7d","ios":"levelo://app?vid=be620971-f7f5-4f54-a8cb-329f28ee6e7d"},"vehicle_type_id":"4","last_reported":1718557574,"current_range_meters":11600,"station_id":"ce4bhs12rcd13ifvqhvg","pricing_plan_id":"cebpf4jnsgd1na2vs0mg"},{"bike_id":"0ca1af92-a836-4852-86e1-108b91a3cd26","system_id":"levelo_inurba_marseille","lat":43.32479,"lon":5.3656,"is_reserved":false,"is_disabled":false,"rental_uris":{"android":"levelo://app?vid=0ca1af92-a836-4852-86e1-108b91a3cd26","ios":"levelo://app?vid=0ca1af92-a836-4852-86e1-108b91a3cd26"},"vehicle_type_id":"4","last_reported":1718557574,"current_range_meters":17200,"station_id":"ce4bhs12rcd13ifvqhvg","pricing_plan_id":"cebpf4jnsgd1na2vs0mg"},{"bike_id":"0e777464-83de-4149-89ea-41165805faf2","system_id":"levelo_inurba_marseille","lat":43.324771,"lon":5.36557,"is_reserved":false,"is_disabled":false,"rental_uris":{"android":"levelo://app?vid=0e777464-83de-4149-89ea-41165805faf2","ios":"levelo://app?vid=0e777464-83de-4149-89ea-41165805faf2"},"vehicle_type_id":"4","last_reported":1718557574,"current_range_meters":0,"station_id":"ce4bhs12rcd13ifvqhvg","pricing_plan_id":"cebpf4jnsgd1na2vs0mg"},{"bike_id":"68882944-ca60-488e-ae84-c55cde9449b7","system_id":"levelo_inurba_marseille","lat":43.324869,"lon":5.36568,"is_reserved":false,"is_disabled":false,"rental_uris":{"android":"levelo://app?vid=68882944-ca60-488e-ae84-c55cde9449b7","ios":"levelo://app?vid=68882944-ca60-488e-ae84-c55cde9449b7"},"vehicle_type_id":"4","last_reported":1718557574,"current_range_meters":5600,"station_id":"ce4bhs12rcd13ifvqhvg","pricing_plan_id":"cebpf4jnsgd1na2vs0mg"},{"bike_id":"e508590f-f04c-449d-af0d-15938f4c45ae","system_id":"levelo_inurba_marseille","lat":43.32487,"lon":5.36557,"is_reserved":false,"is_disabled":false,"rental_uris":{"android":"levelo://app?vid=e508590f-f04c-449d-af0d-15938f4c45ae","ios":"levelo://app?vid=e508590f-f04c-449d-af0d-15938f4c45ae"},"vehicle_type_id":"4","last_reported":1718557574,"current_range_meters":800,"station_id":"ce4bhs12rcd13ifvqhvg","pricing_plan_id":"cebpf4jnsgd1na2vs0mg"},{"bike_id":"56e211c4-13a9-4a5f-b445-484f35053533","system_id":"levelo_inurba_marseille","lat":43.302784,"lon":5.377158,"is_reserved":false,"is_disabled":false,"rental_uris":{"android":"levelo://app?vid=56e211c4-13a9-4a5f-b445-484f35053533","ios":"levelo://app?vid=56e211c4-13a9-4a5f-b445-484f35053533"},"vehicle_type_id":"4","last_reported":1718557574,"current_range_meters":23600,"station_id":"ce4bguh2rcd13ifvqcj0","pricing_plan_id":"cebpf4jnsgd1na2vs0mg"},{"bike_id":"25d0aeaf-819f-40ea-a86a-4404252768df","system_id":"levelo_inurba_marseille","lat":43.319935,"lon":5.381699,"is_reserved":false,"is_disabled":false,"rental_uris":{"android":"levelo://app?vid=25d0aeaf-819f-40ea-a86a-4404252768df","ios":"levelo://app?vid=25d0aeaf-819f-40ea-a86a-4404252768df"},"vehicle_type_id":"4","last_reported":1718557574,"current_range_meters":0,"station_id":"ce4bhr12rcd13ifvqhpg","pricing_plan_id":"cebpf4jnsgd1na2vs0mg"},{"bike_id":"e80992cf-78f4-42b3-8d54-614a3bc2d31a","system_id":"levelo_inurba_marseille","lat":43.313571,"lon":5.384829,"is_reserved":false,"is_disabled":false,"rental_uris":{"android":"levelo://app?vid=e80992cf-78f4-42b3-8d54-614a3bc2d31a","ios":"levelo://app?vid=e80992cf-78f4-42b3-8d54-614a3bc2d31a"},"vehicle_type_id":"4","last_reported":1718557574,"current_range_meters":17600,"station_id":"ce4bgt92rcd13ifvqcf0","pricing_plan_id":"cebpf4jnsgd1na2vs0mg"},{"bike_id":"a889af22-d5bc-40f4-ae28-345a28029f98","system_id":"levelo_inurba_marseille","lat":43.313571,"lon":5.384829,"is_reserved":false,"is_disabled":false,"rental_uris":{"android":"levelo://app?vid=a889af22-d5bc-40f4-ae28-345a28029f98","ios":"levelo://app?vid=a889af22-d5bc-40f4-ae28-345a28029f98"},"vehicle_type_id":"4","last_reported":1718557574,"current_range_meters":8000,"station_id":"ce4bgt92rcd13ifvqcf0","pricing_plan_id":"cebpf4jnsgd1na2vs0mg"},{"bike_id":"4edca1f9-b7d5-46bb-89c9-a7483b13ddc8","system_id":"levelo_inurba_marseille","lat":43.313571,"lon":5.384829,"is_reserved":false,"is_disabled":false,"rental_uris":{"android":"levelo://app?vid=4edca1f9-b7d5-46bb-89c9-a7483b13ddc8","ios":"levelo://app?vid=4edca1f9-b7d5-46bb-89c9-a7483b13ddc8"},"vehicle_type_id":"4","last_reported":1718557574,"current_range_meters":26000,"station_id":"ce4bgt92rcd13ifvqcf0","pricing_plan_id":"cebpf4jnsgd1na2vs0mg"},{"bike_id":"107c4f82-e75c-48ec-818f-5f2cbaa3b838","system_id":"levelo_inurba_marseille","lat":43.313571,"lon":5.384829,"is_reserved":false,"is_disabled":false,"rental_uris":{"android":"levelo://app?vid=107c4f82-e75c-48ec-818f-5f2cbaa3b838","ios":"levelo://app?vid=107c4f82-e75c-48ec-818f-5f2cbaa3b838"},"vehicle_type_id":"4","last_reported":1718557574,"current_range_meters":13200,"station_id":"ce4bgt92rcd13ifvqcf0","pricing_plan_id":"cebpf4jnsgd1na2vs0mg"},{"bike_id":"669de452-3277-44b3-aaed-52e7c8b31a4a","system_id":"levelo_inurba_marseille","lat":43.29977,"lon":5.3718,"is_reserved":false,"is_disabled":false,"rental_uris":{"android":"levelo://app?vid=669de452-3277-44b3-aaed-52e7c8b31a4a","ios":"levelo://app?vid=669de452-3277-44b3-aaed-52e7c8b31a4a"},"vehicle_type_id":"4","last_reported":1718557574,"current_range_meters":29200,"station_id":"ce4bgr92rcd13ifvqc7g","pricing_plan_id":"cebpf4jnsgd1na2vs0mg"},{"bike_id":"3330e4ff-2121-4fef-9775-8fff661f6ac6","system_id":"levelo_inurba_marseille","lat":43.29872,"lon":5.36314,"is_reserved":false,"is_disabled":false,"rental_uris":{"android":"levelo://app?vid=3330e4ff-2121-4fef-9775-8fff661f6ac6","ios":"levelo://app?vid=3330e4ff-2121-4fef-9775-8fff661f6ac6"},"vehicle_type_id":"4","last_reported":1718557574,"current_range_meters":13200,"station_id":"ce4bgpp2rcd13ifvqc3g","pricing_plan_id":"cebpf4jnsgd1na2vs0mg"},{"bike_id":"49e32c55-54fc-4d65-afbc-3083103f4cbf","system_id":"levelo_inurba_marseille","lat":43.29983,"lon":5.37611,"is_reserved":false,"is_disabled":false,"rental_uris":{"android":"levelo://app?vid=49e32c55-54fc-4d65-afbc-3083103f4cbf","ios":"levelo://app?vid=49e32c55-54fc-4d65-afbc-3083103f4cbf"},"vehicle_type_id":"4","last_reported":1718557574,"current_range_meters":800,"station_id":"","pricing_plan_id":"cebpf4jnsgd1na2vs0mg"},{"bike_id":"c08aa786-5631-4d4d-a52a-1c82166c06b3","system_id":"levelo_inurba_marseille","lat":43.305364,"lon":5.384119,"is_reserved":false,"is_disabled":false,"rental_uris":{"android":"levelo://app?vid=c08aa786-5631-4d4d-a52a-1c82166c06b3","ios":"levelo://app?vid=c08aa786-5631-4d4d-a52a-1c82166c06b3"},"vehicle_type_id":"4","last_reported":1718557574,"current_range_meters":2000,"station_id":"ce4bgg92rcd13ifvqb30","pricing_plan_id":"cebpf4jnsgd1na2vs0mg"},{"bike_id":"bd305ab0-6f04-4f38-9071-8af9b0e27515","system_id":"levelo_inurba_marseille","lat":43.29921,"lon":5.374736,"is_reserved":false,"is_disabled":false,"rental_uris":{"android":"levelo://app?vid=bd305ab0-6f04-4f38-9071-8af9b0e27515","ios":"levelo://app?vid=bd305ab0-6f04-4f38-9071-8af9b0e27515"},"vehicle_type_id":"4","last_reported":1718557574,"current_range_meters":17600,"station_id":"ce4bgjh2rcd13ifvqbg0","pricing_plan_id":"cebpf4jnsgd1na2vs0mg"},{"bike_id":"0c93ea09-296a-4639-aeee-8aa96d46441f","system_id":"levelo_inurba_marseille","lat":43.31182,"lon":5.387214,"is_reserved":false,"is_disabled":false,"rental_uris":{"android":"levelo://app?vid=0c93ea09-296a-4639-aeee-8aa96d46441f","ios":"levelo://app?vid=0c93ea09-296a-4639-aeee-8aa96d46441f"},"vehicle_type_id":"4","last_reported":1718557574,"current_range_meters":0,"station_id":"ce4bgv12rcd13ifvqcp0","pricing_plan_id":"cebpf4jnsgd1na2vs0mg"},{"bike_id":"677b0c87-de8e-4976-84b3-f3d3123f54a6","system_id":"levelo_inurba_marseille","lat":43.311722,"lon":5.387247,"is_reserved":false,"is_disabled":false,"rental_uris":{"android":"levelo://app?vid=677b0c87-de8e-4976-84b3-f3d3123f54a6","ios":"levelo://app?vid=677b0c87-de8e-4976-84b3-f3d3123f54a6"},"vehicle_type_id":"4","last_reported":1718557574,"current_range_meters":4400,"station_id":"ce4bgv12rcd13ifvqcp0","pricing_plan_id":"cebpf4jnsgd1na2vs0mg"},{"bike_id":"9de933ba-bdbf-45ad-aa1f-c10c80e119ee","system_id":"levelo_inurba_marseille","lat":43.297794,"lon":5.370888,"is_reserved":false,"is_disabled":false,"rental_uris":{"android":"levelo://app?vid=9de933ba-bdbf-45ad-aa1f-c10c80e119ee","ios":"levelo://app?vid=9de933ba-bdbf-45ad-aa1f-c10c80e119ee"},"vehicle_type_id":"4","last_reported":1718557574,"current_range_meters":29600,"station_id":"ce4bgop2rcd13ifvqc1g","pricing_plan_id":"cebpf4jnsgd1na2vs0mg"},{"bike_id":"7e412d37-a0e4-4ddb-9040-0bcbc17187f3","system_id":"levelo_inurba_marseille","lat":43.322872,"lon":5.382756,"is_reserved":false,"is_disabled":false,"rental_uris":{"android":"levelo://app?vid=7e412d37-a0e4-4ddb-9040-0bcbc17187f3","ios":"levelo://app?vid=7e412d37-a0e4-4ddb-9040-0bcbc17187f3"},"vehicle_type_id":"4","last_reported":1718557574,"current_range_meters":30000,"station_id":"ce4bhr12rcd13ifvqhqg","pricing_plan_id":"cebpf4jnsgd1na2vs0mg"},{"bike_id":"a624729d-dcfa-4421-9ec2-43298cdff5d8","system_id":"levelo_inurba_marseille","lat":43.322872,"lon":5.382756,"is_reserved":false,"is_disabled":false,"rental_uris":{"android":"levelo://app?vid=a624729d-dcfa-4421-9ec2-43298cdff5d8","ios":"levelo://app?vid=a624729d-dcfa-4421-9ec2-43298cdff5d8"},"vehicle_type_id":"4","last_reported":1718557574,"current_range_meters":30400,"station_id":"ce4bhr12rcd13ifvqhqg","pricing_plan_id":"cebpf4jnsgd1na2vs0mg"},{"bike_id":"61a11919-e7f1-4ffe-91ef-e711974f00e3","system_id":"levelo_inurba_marseille","lat":43.2968,"lon":5.37291,"is_reserved":false,"is_disabled":false,"rental_uris":{"android":"levelo://app?vid=61a11919-e7f1-4ffe-91ef-e711974f00e3","ios":"levelo://app?vid=61a11919-e7f1-4ffe-91ef-e711974f00e3"},"vehicle_type_id":"4","last_reported":1718557574,"current_range_meters":19600,"station_id":"ce4bgk12rcd13ifvqbj0","pricing_plan_id":"cebpf4jnsgd1na2vs0mg"},{"bike_id":"475c5571-9a02-4102-aed8-0aeba4ccfd40","system_id":"levelo_inurba_marseille","lat":43.316226,"lon":5.389126,"is_reserved":false,"is_disabled":false,"rental_uris":{"android":"levelo://app?vid=475c5571-9a02-4102-aed8-0aeba4ccfd40","ios":"levelo://app?vid=475c5571-9a02-4102-aed8-0aeba4ccfd40"},"vehicle_type_id":"4","last_reported":1718557574,"current_range_meters":19200,"station_id":"","pricing_plan_id":"cebpf4jnsgd1na2vs0mg"},{"bike_id":"130903c4-f662-48b4-9fb9-e2e6d7bde4d9","system_id":"levelo_inurba_marseille","lat":43.2968,"lon":5.37291,"is_reserved":false,"is_disabled":false,"rental_uris":{"android":"levelo://app?vid=130903c4-f662-48b4-9fb9-e2e6d7bde4d9","ios":"levelo://app?vid=130903c4-f662-48b4-9fb9-e2e6d7bde4d9"},"vehicle_type_id":"4","last_reported":1718557574,"current_range_meters":21200,"station_id":"ce4bgk12rcd13ifvqbj0","pricing_plan_id":"cebpf4jnsgd1na2vs0mg"},{"bike_id":"6c8c19fa-e0f9-4a52-8b2c-0af6e6826cf5","system_id":"levelo_inurba_marseille","lat":43.296131,"lon":5.370791,"is_reserved":false,"is_disabled":false,"rental_uris":{"android":"levelo://app?vid=6c8c19fa-e0f9-4a52-8b2c-0af6e6826cf5","ios":"levelo://app?vid=6c8c19fa-e0f9-4a52-8b2c-0af6e6826cf5"},"vehicle_type_id":"4","last_reported":1718557574,"current_range_meters":22400,"station_id":"ce4bgnh2rcd13ifvqc0g","pricing_plan_id":"cebpf4jnsgd1na2vs0mg"},{"bike_id":"69208aaa-cfdb-4d3c-ab12-abb0c7aa7be1","system_id":"levelo_inurba_marseille","lat":43.296131,"lon":5.370773,"is_reserved":false,"is_disabled":false,"rental_uris":{"android":"levelo://app?vid=69208aaa-cfdb-4d3c-ab12-abb0c7aa7be1","ios":"levelo://app?vid=69208aaa-cfdb-4d3c-ab12-abb0c7aa7be1"},"vehicle_type_id":"4","last_reported":1718557574,"current_range_meters":22000,"station_id":"ce4bgnh2rcd13ifvqc0g","pricing_plan_id":"cebpf4jnsgd1na2vs0mg"},{"bike_id":"ae97ceb6-e57e-4aa2-a902-8bf5bfdf584c","system_id":"levelo_inurba_marseille","lat":43.296921,"lon":5.376579,"is_reserved":false,"is_disabled":false,"rental_uris":{"android":"levelo://app?vid=ae97ceb6-e57e-4aa2-a902-8bf5bfdf584c","ios":"levelo://app?vid=ae97ceb6-e57e-4aa2-a902-8bf5bfdf584c"},"vehicle_type_id":"4","last_reported":1718557574,"current_range_meters":6800,"station_id":"ce4bgkh2rcd13ifvqbl0","pricing_plan_id":"cebpf4jnsgd1na2vs0mg"},{"bike_id":"8cd47d91-703c-4aab-82d1-744db2f717b8","system_id":"levelo_inurba_marseille","lat":43.299028,"lon":5.381509,"is_reserved":false,"is_disabled":false,"rental_uris":{"android":"levelo://app?vid=8cd47d91-703c-4aab-82d1-744db2f717b8","ios":"levelo://app?vid=8cd47d91-703c-4aab-82d1-744db2f717b8"},"vehicle_type_id":"4","last_reported":1718557574,"current_range_meters":11200,"station_id":"ce4bgj12rcd13ifvqbc0","pricing_plan_id":"cebpf4jnsgd1na2vs0mg"},{"bike_id":"304fa702-5a06-4160-929e-5a539f69ccaf","system_id":"levelo_inurba_marseille","lat":43.317557,"lon":5.390173,"is_reserved":false,"is_disabled":false,"rental_uris":{"android":"levelo://app?vid=304fa702-5a06-4160-929e-5a539f69ccaf","ios":"levelo://app?vid=304fa702-5a06-4160-929e-5a539f69ccaf"},"vehicle_type_id":"4","last_reported":1718557574,"current_range_meters":11600,"station_id":"ce4bhqp2rcd13ifvqhng","pricing_plan_id":"cebpf4jnsgd1na2vs0mg"},{"bike_id":"aae7ad10-05c1-4821-a180-e1f90ac965c4","system_id":"levelo_inurba_marseille","lat":43.317517,"lon":5.390166,"is_reserved":false,"is_disabled":false,"rental_uris":{"android":"levelo://app?vid=aae7ad10-05c1-4821-a180-e1f90ac965c4","ios":"levelo://app?vid=aae7ad10-05c1-4821-a180-e1f90ac965c4"},"vehicle_type_id":"4","last_reported":1718557574,"current_range_meters":0,"station_id":"ce4bhqp2rcd13ifvqhng","pricing_plan_id":"cebpf4jnsgd1na2vs0mg"},{"bike_id":"3965cc2e-d1e3-4705-9e60-c98127d6428a","system_id":"levelo_inurba_marseille","lat":43.317557,"lon":5.390173,"is_reserved":false,"is_disabled":false,"rental_uris":{"android":"levelo://app?vid=3965cc2e-d1e3-4705-9e60-c98127d6428a","ios":"levelo://app?vid=3965cc2e-d1e3-4705-9e60-c98127d6428a"},"vehicle_type_id":"4","last_reported":1718557574,"current_range_meters":0,"station_id":"ce4bhqp2rcd13ifvqhng","pricing_plan_id":"cebpf4jnsgd1na2vs0mg"},{"bike_id":"6569771f-1ce1-47cc-8176-b6fee1994e2c","system_id":"levelo_inurba_marseille","lat":43.30424,"lon":5.38891,"is_reserved":false,"is_disabled":false,"rental_uris":{"android":"levelo://app?vid=6569771f-1ce1-47cc-8176-b6fee1994e2c","ios":"levelo://app?vid=6569771f-1ce1-47cc-8176-b6fee1994e2c"},"vehicle_type_id":"4","last_reported":1718557574,"current_range_meters":0,"station_id":"ce4bgk12rcd13ifvqbi0","pricing_plan_id":"cebpf4jnsgd1na2vs0mg"},{"bike_id":"82096003-311f-48fa-8140-46763835eb27","system_id":"levelo_inurba_marseille","lat":43.29995,"lon":5.3853,"is_reserved":false,"is_disabled":false,"rental_uris":{"android":"levelo://app?vid=82096003-311f-48fa-8140-46763835eb27","ios":"levelo://app?vid=82096003-311f-48fa-8140-46763835eb27"},"vehicle_type_id":"4","last_reported":1718557574,"current_range_meters":26400,"station_id":"ce4bgj92rcd13ifvqbd0","pricing_plan_id":"cebpf4jnsgd1na2vs0mg"},{"bike_id":"a8b1c94a-b9bf-4b42-92d1-27ad4749a9bc","system_id":"levelo_inurba_marseille","lat":43.299717,"lon":5.384845,"is_reserved":false,"is_disabled":false,"rental_uris":{"android":"levelo://app?vid=a8b1c94a-b9bf-4b42-92d1-27ad4749a9bc","ios":"levelo://app?vid=a8b1c94a-b9bf-4b42-92d1-27ad4749a9bc"},"vehicle_type_id":"4","last_reported":1718557574,"current_range_meters":0,"station_id":"ce4bgj92rcd13ifvqbd0","pricing_plan_id":"cebpf4jnsgd1na2vs0mg"},{"bike_id":"b2477b39-61bd-48cb-a0c3-0af783b0e163","system_id":"levelo_inurba_marseille","lat":43.295279,"lon":5.375048,"is_reserved":false,"is_disabled":false,"rental_uris":{"android":"levelo://app?vid=b2477b39-61bd-48cb-a0c3-0af783b0e163","ios":"levelo://app?vid=b2477b39-61bd-48cb-a0c3-0af783b0e163"},"vehicle_type_id":"4","last_reported":1718557574,"current_range_meters":14000,"station_id":"ce4bgkp2rcd13ifvqbmg","pricing_plan_id":"cebpf4jnsgd1na2vs0mg"},{"bike_id":"2b81ec29-39c2-47f4-aeb6-075021201c7e","system_id":"levelo_inurba_marseille","lat":43.299724,"lon":5.384848,"is_reserved":false,"is_disabled":false,"rental_uris":{"android":"levelo://app?vid=2b81ec29-39c2-47f4-aeb6-075021201c7e","ios":"levelo://app?vid=2b81ec29-39c2-47f4-aeb6-075021201c7e"},"vehicle_type_id":"4","last_reported":1718557574,"current_range_meters":22000,"station_id":"ce4bgj92rcd13ifvqbd0","pricing_plan_id":"cebpf4jnsgd1na2vs0mg"},{"bike_id":"834ceb8a-edd2-443d-b721-7de5ce2135bf","system_id":"levelo_inurba_marseille","lat":43.299717,"lon":5.384845,"is_reserved":false,"is_disabled":false,"rental_uris":{"android":"levelo://app?vid=834ceb8a-edd2-443d-b721-7de5ce2135bf","ios":"levelo://app?vid=834ceb8a-edd2-443d-b721-7de5ce2135bf"},"vehicle_type_id":"4","last_reported":1718557574,"current_range_meters":0,"station_id":"ce4bgj92rcd13ifvqbd0","pricing_plan_id":"cebpf4jnsgd1na2vs0mg"},{"bike_id":"cf5f2d61-8163-4bad-8686-817cd0234572","system_id":"levelo_inurba_marseille","lat":43.295279,"lon":5.375048,"is_reserved":false,"is_disabled":false,"rental_uris":{"android":"levelo://app?vid=cf5f2d61-8163-4bad-8686-817cd0234572","ios":"levelo://app?vid=cf5f2d61-8163-4bad-8686-817cd0234572"},"vehicle_type_id":"4","last_reported":1718557574,"current_range_meters":7600,"station_id":"ce4bgkp2rcd13ifvqbmg","pricing_plan_id":"cebpf4jnsgd1na2vs0mg"},{"bike_id":"e2338d2f-477e-442c-86c1-813731e02424","system_id":"levelo_inurba_marseille","lat":43.299222,"lon":5.365554,"is_reserved":false,"is_disabled":false,"rental_uris":{"android":"levelo://app?vid=e2338d2f-477e-442c-86c1-813731e02424","ios":"levelo://app?vid=e2338d2f-477e-442c-86c1-813731e02424"},"vehicle_type_id":"4","last_reported":1718557574,"current_range_meters":9200,"station_id":"ce4bgm92rcd13ifvqbr0","pricing_plan_id":"cebpf4jnsgd1na2vs0mg"},{"bike_id":"2ec993dd-7675-4416-b6b7-604cae225031","system_id":"levelo_inurba_marseille","lat":43.32364,"lon":5.38876,"is_reserved":false,"is_disabled":false,"rental_uris":{"android":"levelo://app?vid=2ec993dd-7675-4416-b6b7-604cae225031","ios":"levelo://app?vid=2ec993dd-7675-4416-b6b7-604cae225031"},"vehicle_type_id":"4","last_reported":1718557574,"current_range_meters":0,"station_id":"ce4bhqp2rcd13ifvqhog","pricing_plan_id":"cebpf4jnsgd1na2vs0mg"},{"bike_id":"0dbc9c2e-b9bc-4bf4-ab02-295b6e6ed394","system_id":"levelo_inurba_marseille","lat":43.32367,"lon":5.388836,"is_reserved":false,"is_disabled":false,"rental_uris":{"android":"levelo://app?vid=0dbc9c2e-b9bc-4bf4-ab02-295b6e6ed394","ios":"levelo://app?vid=0dbc9c2e-b9bc-4bf4-ab02-295b6e6ed394"},"vehicle_type_id":"4","last_reported":1718557574,"current_range_meters":18000,"station_id":"ce4bhqp2rcd13ifvqhog","pricing_plan_id":"cebpf4jnsgd1na2vs0mg"},{"bike_id":"0cd90f8c-24ce-4f92-a461-e3f56f63cbfa","system_id":"levelo_inurba_marseille","lat":43.32367,"lon":5.388836,"is_reserved":false,"is_disabled":false,"rental_uris":{"android":"levelo://app?vid=0cd90f8c-24ce-4f92-a461-e3f56f63cbfa","ios":"levelo://app?vid=0cd90f8c-24ce-4f92-a461-e3f56f63cbfa"},"vehicle_type_id":"4","last_reported":1718557574,"current_range_meters":8800,"station_id":"ce4bhqp2rcd13ifvqhog","pricing_plan_id":"cebpf4jnsgd1na2vs0mg"},{"bike_id":"4d34223f-7cf6-4bf7-bf65-0c6320f37f08","system_id":"levelo_inurba_marseille","lat":43.29602,"lon":5.381084,"is_reserved":false,"is_disabled":false,"rental_uris":{"android":"levelo://app?vid=4d34223f-7cf6-4bf7-bf65-0c6320f37f08","ios":"levelo://app?vid=4d34223f-7cf6-4bf7-bf65-0c6320f37f08"},"vehicle_type_id":"4","last_reported":1718557574,"current_range_meters":400,"station_id":"ce4bgl12rcd13ifvqbo0","pricing_plan_id":"cebpf4jnsgd1na2vs0mg"},{"bike_id":"b994e2ae-f802-41f8-963f-0c98fbe634db","system_id":"levelo_inurba_marseille","lat":43.293081,"lon":5.371729,"is_reserved":false,"is_disabled":false,"rental_uris":{"android":"levelo://app?vid=b994e2ae-f802-41f8-963f-0c98fbe634db","ios":"levelo://app?vid=b994e2ae-f802-41f8-963f-0c98fbe634db"},"vehicle_type_id":"4","last_reported":1718557574,"current_range_meters":21200,"station_id":"ce4bgh92rcd13ifvqb40","pricing_plan_id":"cebpf4jnsgd1na2vs0mg"},{"bike_id":"decdf761-1a9a-4ab8-9d2a-32fa397bed97","system_id":"levelo_inurba_marseille","lat":43.292749,"lon":5.368402,"is_reserved":false,"is_disabled":false,"rental_uris":{"android":"levelo://app?vid=decdf761-1a9a-4ab8-9d2a-32fa397bed97","ios":"levelo://app?vid=decdf761-1a9a-4ab8-9d2a-32fa397bed97"},"vehicle_type_id":"4","last_reported":1718557574,"current_range_meters":1600,"station_id":"ce4bhbp2rcd13ifvqesg","pricing_plan_id":"cebpf4jnsgd1na2vs0mg"},{"bike_id":"a7803437-2926-4673-92e3-911178f56bbc","system_id":"levelo_inurba_marseille","lat":43.292749,"lon":5.368402,"is_reserved":false,"is_disabled":false,"rental_uris":{"android":"levelo://app?vid=a7803437-2926-4673-92e3-911178f56bbc","ios":"levelo://app?vid=a7803437-2926-4673-92e3-911178f56bbc"},"vehicle_type_id":"4","last_reported":1718557574,"current_range_meters":12400,"station_id":"ce4bhbp2rcd13ifvqesg","pricing_plan_id":"cebpf4jnsgd1na2vs0mg"},{"bike_id":"56f02436-26e3-4d20-b120-01a26f738d28","system_id":"levelo_inurba_marseille","lat":43.293259,"lon":5.371586,"is_reserved":false,"is_disabled":false,"rental_uris":{"android":"levelo://app?vid=56f02436-26e3-4d20-b120-01a26f738d28","ios":"levelo://app?vid=56f02436-26e3-4d20-b120-01a26f738d28"},"vehicle_type_id":"4","last_reported":1718557574,"current_range_meters":17600,"station_id":"ce4bgh92rcd13ifvqb40","pricing_plan_id":"cebpf4jnsgd1na2vs0mg"},{"bike_id":"f6ed4b55-4386-44b4-be91-65446abb732c","system_id":"levelo_inurba_marseille","lat":43.293009,"lon":5.374584,"is_reserved":false,"is_disabled":false,"rental_uris":{"android":"levelo://app?vid=f6ed4b55-4386-44b4-be91-65446abb732c","ios":"levelo://app?vid=f6ed4b55-4386-44b4-be91-65446abb732c"},"vehicle_type_id":"4","last_reported":1718557574,"current_range_meters":3200,"station_id":"ce4bgi12rcd13ifvqb70","pricing_plan_id":"cebpf4jnsgd1na2vs0mg"},{"bike_id":"8892f6c0-b123-452c-b433-7279a00fe1cf","system_id":"levelo_inurba_marseille","lat":43.293009,"lon":5.374584,"is_reserved":false,"is_disabled":false,"rental_uris":{"android":"levelo://app?vid=8892f6c0-b123-452c-b433-7279a00fe1cf","ios":"levelo://app?vid=8892f6c0-b123-452c-b433-7279a00fe1cf"},"vehicle_type_id":"4","last_reported":1718557574,"current_range_meters":6400,"station_id":"ce4bgi12rcd13ifvqb70","pricing_plan_id":"cebpf4jnsgd1na2vs0mg"},{"bike_id":"269a8200-0d60-4959-87f1-d3cc3e8f2691","system_id":"levelo_inurba_marseille","lat":43.305994,"lon":5.393687,"is_reserved":false,"is_disabled":false,"rental_uris":{"android":"levelo://app?vid=269a8200-0d60-4959-87f1-d3cc3e8f2691","ios":"levelo://app?vid=269a8200-0d60-4959-87f1-d3cc3e8f2691"},"vehicle_type_id":"4","last_reported":1718557574,"current_range_meters":5200,"station_id":"ce4bh0p2rcd13ifvqd80","pricing_plan_id":"cebpf4jnsgd1na2vs0mg"},{"bike_id":"398df688-54cf-4438-a076-319beb81a331","system_id":"levelo_inurba_marseille","lat":43.303002,"lon":5.392142,"is_reserved":false,"is_disabled":false,"rental_uris":{"android":"levelo://app?vid=398df688-54cf-4438-a076-319beb81a331","ios":"levelo://app?vid=398df688-54cf-4438-a076-319beb81a331"},"vehicle_type_id":"4","last_reported":1718557574,"current_range_meters":6400,"station_id":"ce4bgkh2rcd13ifvqbk0","pricing_plan_id":"cebpf4jnsgd1na2vs0mg"},{"bike_id":"4fee6153-8da7-4119-8b5b-72963a1e72eb","system_id":"levelo_inurba_marseille","lat":43.2936,"lon":5.37835,"is_reserved":false,"is_disabled":false,"rental_uris":{"android":"levelo://app?vid=4fee6153-8da7-4119-8b5b-72963a1e72eb","ios":"levelo://app?vid=4fee6153-8da7-4119-8b5b-72963a1e72eb"},"vehicle_type_id":"4","last_reported":1718557574,"current_range_meters":29600,"station_id":"ce4bgjh2rcd13ifvqbf0","pricing_plan_id":"cebpf4jnsgd1na2vs0mg"},{"bike_id":"ac37eb12-9436-447d-ac05-4993b4f784c2","system_id":"levelo_inurba_marseille","lat":43.2936,"lon":5.37835,"is_reserved":false,"is_disabled":false,"rental_uris":{"android":"levelo://app?vid=ac37eb12-9436-447d-ac05-4993b4f784c2","ios":"levelo://app?vid=ac37eb12-9436-447d-ac05-4993b4f784c2"},"vehicle_type_id":"4","last_reported":1718557574,"current_range_meters":11200,"station_id":"ce4bgjh2rcd13ifvqbf0","pricing_plan_id":"cebpf4jnsgd1na2vs0mg"},{"bike_id":"9a66da5d-d669-4d75-8f0f-9370aaf625b2","system_id":"levelo_inurba_marseille","lat":43.292311,"lon":5.360731,"is_reserved":false,"is_disabled":false,"rental_uris":{"android":"levelo://app?vid=9a66da5d-d669-4d75-8f0f-9370aaf625b2","ios":"levelo://app?vid=9a66da5d-d669-4d75-8f0f-9370aaf625b2"},"vehicle_type_id":"4","last_reported":1718557574,"current_range_meters":22000,"station_id":"ce4bhbh2rcd13ifvqeqg","pricing_plan_id":"cebpf4jnsgd1na2vs0mg"},{"bike_id":"6ae593f4-ec69-459a-bb02-6a9a748f6026","system_id":"levelo_inurba_marseille","lat":43.33343,"lon":5.36168,"is_reserved":false,"is_disabled":false,"rental_uris":{"android":"levelo://app?vid=6ae593f4-ec69-459a-bb02-6a9a748f6026","ios":"levelo://app?vid=6ae593f4-ec69-459a-bb02-6a9a748f6026"},"vehicle_type_id":"4","last_reported":1718557574,"current_range_meters":11600,"station_id":"","pricing_plan_id":"cebpf4jnsgd1na2vs0mg"},{"bike_id":"25cd8aa2-07c1-46c4-acf6-5d8201be0b40","system_id":"levelo_inurba_marseille","lat":43.298764,"lon":5.388973,"is_reserved":false,"is_disabled":false,"rental_uris":{"android":"levelo://app?vid=25cd8aa2-07c1-46c4-acf6-5d8201be0b40","ios":"levelo://app?vid=25cd8aa2-07c1-46c4-acf6-5d8201be0b40"},"vehicle_type_id":"4","last_reported":1718557574,"current_range_meters":800,"station_id":"ce4bh392rcd13ifvqdl0","pricing_plan_id":"cebpf4jnsgd1na2vs0mg"},{"bike_id":"ecec6a52-5eab-4ed7-95fd-9af829ced4f9","system_id":"levelo_inurba_marseille","lat":43.313291,"lon":5.396838,"is_reserved":false,"is_disabled":false,"rental_uris":{"android":"levelo://app?vid=ecec6a52-5eab-4ed7-95fd-9af829ced4f9","ios":"levelo://app?vid=ecec6a52-5eab-4ed7-95fd-9af829ced4f9"},"vehicle_type_id":"4","last_reported":1718557574,"current_range_meters":14400,"station_id":"ce4bgvp2rcd13ifvqcu0","pricing_plan_id":"cebpf4jnsgd1na2vs0mg"},{"bike_id":"a1a79b38-3a28-4c4b-965a-67c53100f2c6","system_id":"levelo_inurba_marseille","lat":43.29529,"lon":5.385581,"is_reserved":false,"is_disabled":false,"rental_uris":{"android":"levelo://app?vid=a1a79b38-3a28-4c4b-965a-67c53100f2c6","ios":"levelo://app?vid=a1a79b38-3a28-4c4b-965a-67c53100f2c6"},"vehicle_type_id":"4","last_reported":1718557574,"current_range_meters":3200,"station_id":"ce4bgih2rcd13ifvqba0","pricing_plan_id":"cebpf4jnsgd1na2vs0mg"},{"bike_id":"09bafa55-118c-4166-b17b-f95974ef86e4","system_id":"levelo_inurba_marseille","lat":43.290779,"lon":5.371482,"is_reserved":false,"is_disabled":false,"rental_uris":{"android":"levelo://app?vid=09bafa55-118c-4166-b17b-f95974ef86e4","ios":"levelo://app?vid=09bafa55-118c-4166-b17b-f95974ef86e4"},"vehicle_type_id":"4","last_reported":1718557574,"current_range_meters":26000,"station_id":"ce4bh5p2rcd13ifvqe4g","pricing_plan_id":"cebpf4jnsgd1na2vs0mg"},{"bike_id":"58ebca58-cf35-4498-b449-970794786669","system_id":"levelo_inurba_marseille","lat":43.30207,"lon":5.39456,"is_reserved":false,"is_disabled":false,"rental_uris":{"android":"levelo://app?vid=58ebca58-cf35-4498-b449-970794786669","ios":"levelo://app?vid=58ebca58-cf35-4498-b449-970794786669"},"vehicle_type_id":"4","last_reported":1718557574,"current_range_meters":1200,"station_id":"ce4bh0p2rcd13ifvqd70","pricing_plan_id":"cebpf4jnsgd1na2vs0mg"},{"bike_id":"c185956e-c967-4aef-ac4e-f383bcda9e94","system_id":"levelo_inurba_marseille","lat":43.290327,"lon":5.375711,"is_reserved":false,"is_disabled":false,"rental_uris":{"android":"levelo://app?vid=c185956e-c967-4aef-ac4e-f383bcda9e94","ios":"levelo://app?vid=c185956e-c967-4aef-ac4e-f383bcda9e94"},"vehicle_type_id":"4","last_reported":1718557574,"current_range_meters":800,"station_id":"ce4bh692rcd13ifvqe90","pricing_plan_id":"cebpf4jnsgd1na2vs0mg"},{"bike_id":"de3fa29a-19e8-475e-8bde-535d64f1edc3","system_id":"levelo_inurba_marseille","lat":43.289385,"lon":5.364005,"is_reserved":false,"is_disabled":false,"rental_uris":{"android":"levelo://app?vid=de3fa29a-19e8-475e-8bde-535d64f1edc3","ios":"levelo://app?vid=de3fa29a-19e8-475e-8bde-535d64f1edc3"},"vehicle_type_id":"4","last_reported":1718557574,"current_range_meters":1600,"station_id":"ce4bhc92rcd13ifvqetg","pricing_plan_id":"cebpf4jnsgd1na2vs0mg"},{"bike_id":"aeb22d9a-e2a0-4d2d-811f-e8ff665ed276","system_id":"levelo_inurba_marseille","lat":43.289345,"lon":5.36402,"is_reserved":false,"is_disabled":false,"rental_uris":{"android":"levelo://app?vid=aeb22d9a-e2a0-4d2d-811f-e8ff665ed276","ios":"levelo://app?vid=aeb22d9a-e2a0-4d2d-811f-e8ff665ed276"},"vehicle_type_id":"4","last_reported":1718557574,"current_range_meters":18000,"station_id":"ce4bhc92rcd13ifvqetg","pricing_plan_id":"cebpf4jnsgd1na2vs0mg"},{"bike_id":"32772c3f-e96d-40ea-a90d-f25ed08cc556","system_id":"levelo_inurba_marseille","lat":43.292644,"lon":5.384257,"is_reserved":false,"is_disabled":false,"rental_uris":{"android":"levelo://app?vid=32772c3f-e96d-40ea-a90d-f25ed08cc556","ios":"levelo://app?vid=32772c3f-e96d-40ea-a90d-f25ed08cc556"},"vehicle_type_id":"4","last_reported":1718557574,"current_range_meters":7600,"station_id":"ce4bh692rcd13ifvqea0","pricing_plan_id":"cebpf4jnsgd1na2vs0mg"},{"bike_id":"1cbcb1e8-425a-41aa-b310-7388b31d9f38","system_id":"levelo_inurba_marseille","lat":43.292644,"lon":5.384257,"is_reserved":false,"is_disabled":false,"rental_uris":{"android":"levelo://app?vid=1cbcb1e8-425a-41aa-b310-7388b31d9f38","ios":"levelo://app?vid=1cbcb1e8-425a-41aa-b310-7388b31d9f38"},"vehicle_type_id":"4","last_reported":1718557574,"current_range_meters":15600,"station_id":"ce4bh692rcd13ifvqea0","pricing_plan_id":"cebpf4jnsgd1na2vs0mg"},{"bike_id":"abccb38b-1dcb-4b40-92eb-898dca4dd0c1","system_id":"levelo_inurba_marseille","lat":43.289247,"lon":5.361746,"is_reserved":false,"is_disabled":false,"rental_uris":{"android":"levelo://app?vid=abccb38b-1dcb-4b40-92eb-898dca4dd0c1","ios":"levelo://app?vid=abccb38b-1dcb-4b40-92eb-898dca4dd0c1"},"vehicle_type_id":"4","last_reported":1718557574,"current_range_meters":17600,"station_id":"","pricing_plan_id":"cebpf4jnsgd1na2vs0mg"},{"bike_id":"8fed40f2-0d7d-4f6b-a5e8-84b621625f66","system_id":"levelo_inurba_marseille","lat":43.292644,"lon":5.384257,"is_reserved":false,"is_disabled":false,"rental_uris":{"android":"levelo://app?vid=8fed40f2-0d7d-4f6b-a5e8-84b621625f66","ios":"levelo://app?vid=8fed40f2-0d7d-4f6b-a5e8-84b621625f66"},"vehicle_type_id":"4","last_reported":1718557574,"current_range_meters":8800,"station_id":"ce4bh692rcd13ifvqea0","pricing_plan_id":"cebpf4jnsgd1na2vs0mg"},{"bike_id":"3d9a67f4-ef7f-4339-b2a3-0ccf4d1ebdb9","system_id":"levelo_inurba_marseille","lat":43.292642,"lon":5.384254,"is_reserved":false,"is_disabled":false,"rental_uris":{"android":"levelo://app?vid=3d9a67f4-ef7f-4339-b2a3-0ccf4d1ebdb9","ios":"levelo://app?vid=3d9a67f4-ef7f-4339-b2a3-0ccf4d1ebdb9"},"vehicle_type_id":"4","last_reported":1718557574,"current_range_meters":5200,"station_id":"ce4bh692rcd13ifvqea0","pricing_plan_id":"cebpf4jnsgd1na2vs0mg"},{"bike_id":"504d0046-a0d5-4421-8787-6b53f87c2e10","system_id":"levelo_inurba_marseille","lat":43.29251,"lon":5.38436,"is_reserved":false,"is_disabled":false,"rental_uris":{"android":"levelo://app?vid=504d0046-a0d5-4421-8787-6b53f87c2e10","ios":"levelo://app?vid=504d0046-a0d5-4421-8787-6b53f87c2e10"},"vehicle_type_id":"4","last_reported":1718557574,"current_range_meters":16000,"station_id":"ce4bh692rcd13ifvqea0","pricing_plan_id":"cebpf4jnsgd1na2vs0mg"},{"bike_id":"7f88f032-b4dc-4c49-a3d2-6557f7f5e8f2","system_id":"levelo_inurba_marseille","lat":43.290104,"lon":5.356111,"is_reserved":false,"is_disabled":false,"rental_uris":{"android":"levelo://app?vid=7f88f032-b4dc-4c49-a3d2-6557f7f5e8f2","ios":"levelo://app?vid=7f88f032-b4dc-4c49-a3d2-6557f7f5e8f2"},"vehicle_type_id":"4","last_reported":1718557574,"current_range_meters":20800,"station_id":"ce4bhb92rcd13ifvqen0","pricing_plan_id":"cebpf4jnsgd1na2vs0mg"},{"bike_id":"a9b38055-7b1a-490d-bc89-2e08ccbf471a","system_id":"levelo_inurba_marseille","lat":43.290171,"lon":5.355465,"is_reserved":false,"is_disabled":false,"rental_uris":{"android":"levelo://app?vid=a9b38055-7b1a-490d-bc89-2e08ccbf471a","ios":"levelo://app?vid=a9b38055-7b1a-490d-bc89-2e08ccbf471a"},"vehicle_type_id":"4","last_reported":1718557574,"current_range_meters":5200,"station_id":"","pricing_plan_id":"cebpf4jnsgd1na2vs0mg"},{"bike_id":"1945d21f-2b44-426f-b2a7-1b371c007ddf","system_id":"levelo_inurba_marseille","lat":43.29102,"lon":5.38126,"is_reserved":false,"is_disabled":false,"rental_uris":{"android":"levelo://app?vid=1945d21f-2b44-426f-b2a7-1b371c007ddf","ios":"levelo://app?vid=1945d21f-2b44-426f-b2a7-1b371c007ddf"},"vehicle_type_id":"4","last_reported":1718557574,"current_range_meters":0,"station_id":"ce4bh512rcd13ifvqe2g","pricing_plan_id":"cebpf4jnsgd1na2vs0mg"},{"bike_id":"e4575500-afee-4ba5-b92a-b36ddda105f5","system_id":"levelo_inurba_marseille","lat":43.290868,"lon":5.38097,"is_reserved":false,"is_disabled":false,"rental_uris":{"android":"levelo://app?vid=e4575500-afee-4ba5-b92a-b36ddda105f5","ios":"levelo://app?vid=e4575500-afee-4ba5-b92a-b36ddda105f5"},"vehicle_type_id":"4","last_reported":1718557574,"current_range_meters":0,"station_id":"ce4bh512rcd13ifvqe2g","pricing_plan_id":"cebpf4jnsgd1na2vs0mg"},{"bike_id":"bd1fed19-ec4c-4625-8d75-7354081bb83b","system_id":"levelo_inurba_marseille","lat":43.295169,"lon":5.390426,"is_reserved":false,"is_disabled":false,"rental_uris":{"android":"levelo://app?vid=bd1fed19-ec4c-4625-8d75-7354081bb83b","ios":"levelo://app?vid=bd1fed19-ec4c-4625-8d75-7354081bb83b"},"vehicle_type_id":"4","last_reported":1718557574,"current_range_meters":0,"station_id":"ce4bh3p2rcd13ifvqdp0","pricing_plan_id":"cebpf4jnsgd1na2vs0mg"},{"bike_id":"af758b88-2e68-4164-8275-12ec70353b44","system_id":"levelo_inurba_marseille","lat":43.28856,"lon":5.358371,"is_reserved":false,"is_disabled":false,"rental_uris":{"android":"levelo://app?vid=af758b88-2e68-4164-8275-12ec70353b44","ios":"levelo://app?vid=af758b88-2e68-4164-8275-12ec70353b44"},"vehicle_type_id":"4","last_reported":1718557574,"current_range_meters":10000,"station_id":"ce4bhb12rcd13ifvqem0","pricing_plan_id":"cebpf4jnsgd1na2vs0mg"},{"bike_id":"ae123357-7e3d-4379-8c5f-680a79852e78","system_id":"levelo_inurba_marseille","lat":43.28856,"lon":5.358371,"is_reserved":false,"is_disabled":false,"rental_uris":{"android":"levelo://app?vid=ae123357-7e3d-4379-8c5f-680a79852e78","ios":"levelo://app?vid=ae123357-7e3d-4379-8c5f-680a79852e78"},"vehicle_type_id":"4","last_reported":1718557574,"current_range_meters":8000,"station_id":"ce4bhb12rcd13ifvqem0","pricing_plan_id":"cebpf4jnsgd1na2vs0mg"},{"bike_id":"ea1c9d92-8e80-455d-888c-0cc59f1dac3b","system_id":"levelo_inurba_marseille","lat":43.30822,"lon":5.40096,"is_reserved":false,"is_disabled":false,"rental_uris":{"android":"levelo://app?vid=ea1c9d92-8e80-455d-888c-0cc59f1dac3b","ios":"levelo://app?vid=ea1c9d92-8e80-455d-888c-0cc59f1dac3b"},"vehicle_type_id":"4","last_reported":1718557574,"current_range_meters":23600,"station_id":"","pricing_plan_id":"cebpf4jnsgd1na2vs0mg"},{"bike_id":"51528659-4aeb-42cd-9c47-2e1550a1d8c0","system_id":"levelo_inurba_marseille","lat":43.312609,"lon":5.401662,"is_reserved":false,"is_disabled":false,"rental_uris":{"android":"levelo://app?vid=51528659-4aeb-42cd-9c47-2e1550a1d8c0","ios":"levelo://app?vid=51528659-4aeb-42cd-9c47-2e1550a1d8c0"},"vehicle_type_id":"4","last_reported":1718557574,"current_range_meters":1200,"station_id":"ce4bh092rcd13ifvqd30","pricing_plan_id":"cebpf4jnsgd1na2vs0mg"},{"bike_id":"e1512863-0927-4702-b249-40d36e19f2c0","system_id":"levelo_inurba_marseille","lat":43.337615,"lon":5.374856,"is_reserved":false,"is_disabled":false,"rental_uris":{"android":"levelo://app?vid=e1512863-0927-4702-b249-40d36e19f2c0","ios":"levelo://app?vid=e1512863-0927-4702-b249-40d36e19f2c0"},"vehicle_type_id":"4","last_reported":1718557574,"current_range_meters":20800,"station_id":"","pricing_plan_id":"cebpf4jnsgd1na2vs0mg"},{"bike_id":"673d455e-29c5-4341-b51b-b132be525315","system_id":"levelo_inurba_marseille","lat":43.306412,"lon":5.401035,"is_reserved":false,"is_disabled":false,"rental_uris":{"android":"levelo://app?vid=673d455e-29c5-4341-b51b-b132be525315","ios":"levelo://app?vid=673d455e-29c5-4341-b51b-b132be525315"},"vehicle_type_id":"4","last_reported":1718557574,"current_range_meters":10400,"station_id":"ce4bh112rcd13ifvqda0","pricing_plan_id":"cebpf4jnsgd1na2vs0mg"},{"bike_id":"68da2213-1501-4498-bbff-3bdf2e24030a","system_id":"levelo_inurba_marseille","lat":43.301117,"lon":5.398795,"is_reserved":false,"is_disabled":false,"rental_uris":{"android":"levelo://app?vid=68da2213-1501-4498-bbff-3bdf2e24030a","ios":"levelo://app?vid=68da2213-1501-4498-bbff-3bdf2e24030a"},"vehicle_type_id":"4","last_reported":1718557574,"current_range_meters":0,"station_id":"ce4bh0h2rcd13ifvqd40","pricing_plan_id":"cebpf4jnsgd1na2vs0mg"},{"bike_id":"27e6264d-1578-411a-9eb2-f9df65063032","system_id":"levelo_inurba_marseille","lat":43.3014,"lon":5.39869,"is_reserved":false,"is_disabled":false,"rental_uris":{"android":"levelo://app?vid=27e6264d-1578-411a-9eb2-f9df65063032","ios":"levelo://app?vid=27e6264d-1578-411a-9eb2-f9df65063032"},"vehicle_type_id":"4","last_reported":1718557574,"current_range_meters":0,"station_id":"ce4bh0h2rcd13ifvqd40","pricing_plan_id":"cebpf4jnsgd1na2vs0mg"},{"bike_id":"cef981c2-a46e-4d35-a53d-751521190199","system_id":"levelo_inurba_marseille","lat":43.301117,"lon":5.398795,"is_reserved":false,"is_disabled":false,"rental_uris":{"android":"levelo://app?vid=cef981c2-a46e-4d35-a53d-751521190199","ios":"levelo://app?vid=cef981c2-a46e-4d35-a53d-751521190199"},"vehicle_type_id":"4","last_reported":1718557574,"current_range_meters":4800,"station_id":"ce4bh0h2rcd13ifvqd40","pricing_plan_id":"cebpf4jnsgd1na2vs0mg"},{"bike_id":"ee76ddfd-3afd-46d8-842e-be505f772700","system_id":"levelo_inurba_marseille","lat":43.28727,"lon":5.36078,"is_reserved":false,"is_disabled":false,"rental_uris":{"android":"levelo://app?vid=ee76ddfd-3afd-46d8-842e-be505f772700","ios":"levelo://app?vid=ee76ddfd-3afd-46d8-842e-be505f772700"},"vehicle_type_id":"4","last_reported":1718557574,"current_range_meters":18000,"station_id":"cki0cbj6b192h4jlfktg","pricing_plan_id":"cebpf4jnsgd1na2vs0mg"},{"bike_id":"7868da10-8518-4d63-ad88-e957c2c78a3a","system_id":"levelo_inurba_marseille","lat":43.286961,"lon":5.373785,"is_reserved":false,"is_disabled":false,"rental_uris":{"android":"levelo://app?vid=7868da10-8518-4d63-ad88-e957c2c78a3a","ios":"levelo://app?vid=7868da10-8518-4d63-ad88-e957c2c78a3a"},"vehicle_type_id":"4","last_reported":1718557574,"current_range_meters":1600,"station_id":"ce4bh3p2rcd13ifvqdq0","pricing_plan_id":"cebpf4jnsgd1na2vs0mg"},{"bike_id":"53ba2b40-8954-49a5-9bf4-e2b9df708e9b","system_id":"levelo_inurba_marseille","lat":43.326605,"lon":5.409903,"is_reserved":false,"is_disabled":false,"rental_uris":{"android":"levelo://app?vid=53ba2b40-8954-49a5-9bf4-e2b9df708e9b","ios":"levelo://app?vid=53ba2b40-8954-49a5-9bf4-e2b9df708e9b"},"vehicle_type_id":"4","last_reported":1718557574,"current_range_meters":8400,"station_id":"ce4bhpp2rcd13ifvqhgg","pricing_plan_id":"cebpf4jnsgd1na2vs0mg"},{"bike_id":"bfd21786-c5ba-440e-a886-48799b2fe183","system_id":"levelo_inurba_marseille","lat":43.290336,"lon":5.386425,"is_reserved":false,"is_disabled":false,"rental_uris":{"android":"levelo://app?vid=bfd21786-c5ba-440e-a886-48799b2fe183","ios":"levelo://app?vid=bfd21786-c5ba-440e-a886-48799b2fe183"},"vehicle_type_id":"4","last_reported":1718557574,"current_range_meters":0,"station_id":"ce4bh4p2rcd13ifvqe0g","pricing_plan_id":"cebpf4jnsgd1na2vs0mg"},{"bike_id":"1c3123cb-7f4e-498f-9976-f631591d692f","system_id":"levelo_inurba_marseille","lat":43.290345,"lon":5.38646,"is_reserved":false,"is_disabled":false,"rental_uris":{"android":"levelo://app?vid=1c3123cb-7f4e-498f-9976-f631591d692f","ios":"levelo://app?vid=1c3123cb-7f4e-498f-9976-f631591d692f"},"vehicle_type_id":"4","last_reported":1718557574,"current_range_meters":0,"station_id":"ce4bh4p2rcd13ifvqe0g","pricing_plan_id":"cebpf4jnsgd1na2vs0mg"},{"bike_id":"07a28984-086c-48a1-b189-e7d1d72a3601","system_id":"levelo_inurba_marseille","lat":43.286039,"lon":5.370679,"is_reserved":false,"is_disabled":false,"rental_uris":{"android":"levelo://app?vid=07a28984-086c-48a1-b189-e7d1d72a3601","ios":"levelo://app?vid=07a28984-086c-48a1-b189-e7d1d72a3601"},"vehicle_type_id":"4","last_reported":1718557574,"current_range_meters":4800,"station_id":"ce4bht12rcd13ifvqi60","pricing_plan_id":"cebpf4jnsgd1na2vs0mg"},{"bike_id":"02a65151-48b8-4dc4-acf1-13055894a990","system_id":"levelo_inurba_marseille","lat":43.284538,"lon":5.358657,"is_reserved":false,"is_disabled":false,"rental_uris":{"android":"levelo://app?vid=02a65151-48b8-4dc4-acf1-13055894a990","ios":"levelo://app?vid=02a65151-48b8-4dc4-acf1-13055894a990"},"vehicle_type_id":"4","last_reported":1718557574,"current_range_meters":10000,"station_id":"ce4bhah2rcd13ifvqei0","pricing_plan_id":"cebpf4jnsgd1na2vs0mg"},{"bike_id":"8fb4271c-dfee-4e6c-8b2c-247a91ed3d21","system_id":"levelo_inurba_marseille","lat":43.316828,"lon":5.404723,"is_reserved":false,"is_disabled":false,"rental_uris":{"android":"levelo://app?vid=8fb4271c-dfee-4e6c-8b2c-247a91ed3d21","ios":"levelo://app?vid=8fb4271c-dfee-4e6c-8b2c-247a91ed3d21"},"vehicle_type_id":"4","last_reported":1718557574,"current_range_meters":0,"station_id":"ce4bh012rcd13ifvqd00","pricing_plan_id":"cebpf4jnsgd1na2vs0mg"},{"bike_id":"c8220e2f-6b9c-41ca-b4d0-71a525c21bea","system_id":"levelo_inurba_marseille","lat":43.284534,"lon":5.358662,"is_reserved":false,"is_disabled":false,"rental_uris":{"android":"levelo://app?vid=c8220e2f-6b9c-41ca-b4d0-71a525c21bea","ios":"levelo://app?vid=c8220e2f-6b9c-41ca-b4d0-71a525c21bea"},"vehicle_type_id":"4","last_reported":1718557574,"current_range_meters":7200,"station_id":"ce4bhah2rcd13ifvqei0","pricing_plan_id":"cebpf4jnsgd1na2vs0mg"},{"bike_id":"ac35e451-6fcc-44dd-9ded-cc190a085443","system_id":"levelo_inurba_marseille","lat":43.283998,"lon":5.375062,"is_reserved":false,"is_disabled":false,"rental_uris":{"android":"levelo://app?vid=ac35e451-6fcc-44dd-9ded-cc190a085443","ios":"levelo://app?vid=ac35e451-6fcc-44dd-9ded-cc190a085443"},"vehicle_type_id":"4","last_reported":1718557574,"current_range_meters":400,"station_id":"ce4bh412rcd13ifvqds0","pricing_plan_id":"cebpf4jnsgd1na2vs0mg"},{"bike_id":"0b1d3466-7500-4655-8fc1-c30774e8386c","system_id":"levelo_inurba_marseille","lat":43.294314,"lon":5.397498,"is_reserved":false,"is_disabled":false,"rental_uris":{"android":"levelo://app?vid=0b1d3466-7500-4655-8fc1-c30774e8386c","ios":"levelo://app?vid=0b1d3466-7500-4655-8fc1-c30774e8386c"},"vehicle_type_id":"4","last_reported":1718557574,"current_range_meters":6400,"station_id":"ce4bh3h2rcd13ifvqdo0","pricing_plan_id":"cebpf4jnsgd1na2vs0mg"},{"bike_id":"324d6a65-ebad-4991-b2fc-6b032a05ec3c","system_id":"levelo_inurba_marseille","lat":43.28613,"lon":5.35103,"is_reserved":false,"is_disabled":false,"rental_uris":{"android":"levelo://app?vid=324d6a65-ebad-4991-b2fc-6b032a05ec3c","ios":"levelo://app?vid=324d6a65-ebad-4991-b2fc-6b032a05ec3c"},"vehicle_type_id":"4","last_reported":1718557574,"current_range_meters":0,"station_id":"ce4bhch2rcd13ifvqeug","pricing_plan_id":"cebpf4jnsgd1na2vs0mg"},{"bike_id":"f7e3bdf1-3775-45d2-959d-740f33bf1f08","system_id":"levelo_inurba_marseille","lat":43.28615,"lon":5.35095,"is_reserved":false,"is_disabled":false,"rental_uris":{"android":"levelo://app?vid=f7e3bdf1-3775-45d2-959d-740f33bf1f08","ios":"levelo://app?vid=f7e3bdf1-3775-45d2-959d-740f33bf1f08"},"vehicle_type_id":"4","last_reported":1718557574,"current_range_meters":0,"station_id":"ce4bhch2rcd13ifvqeug","pricing_plan_id":"cebpf4jnsgd1na2vs0mg"},{"bike_id":"8041a9b0-6bd1-487f-bdbf-f7db9e5dd9a8","system_id":"levelo_inurba_marseille","lat":43.28611,"lon":5.35103,"is_reserved":false,"is_disabled":false,"rental_uris":{"android":"levelo://app?vid=8041a9b0-6bd1-487f-bdbf-f7db9e5dd9a8","ios":"levelo://app?vid=8041a9b0-6bd1-487f-bdbf-f7db9e5dd9a8"},"vehicle_type_id":"4","last_reported":1718557574,"current_range_meters":0,"station_id":"ce4bhch2rcd13ifvqeug","pricing_plan_id":"cebpf4jnsgd1na2vs0mg"},{"bike_id":"3781050e-f3eb-43cf-aad8-8cb0bdbfbdd2","system_id":"levelo_inurba_marseille","lat":43.283998,"lon":5.375062,"is_reserved":false,"is_disabled":false,"rental_uris":{"android":"levelo://app?vid=3781050e-f3eb-43cf-aad8-8cb0bdbfbdd2","ios":"levelo://app?vid=3781050e-f3eb-43cf-aad8-8cb0bdbfbdd2"},"vehicle_type_id":"4","last_reported":1718557574,"current_range_meters":13200,"station_id":"ce4bh412rcd13ifvqds0","pricing_plan_id":"cebpf4jnsgd1na2vs0mg"},{"bike_id":"6331abfd-1b74-414d-8202-c6650824ce56","system_id":"levelo_inurba_marseille","lat":43.283998,"lon":5.375062,"is_reserved":false,"is_disabled":false,"rental_uris":{"android":"levelo://app?vid=6331abfd-1b74-414d-8202-c6650824ce56","ios":"levelo://app?vid=6331abfd-1b74-414d-8202-c6650824ce56"},"vehicle_type_id":"4","last_reported":1718557574,"current_range_meters":2800,"station_id":"ce4bh412rcd13ifvqds0","pricing_plan_id":"cebpf4jnsgd1na2vs0mg"},{"bike_id":"1dba437d-5a00-46a8-98e1-0e11c3fabd1c","system_id":"levelo_inurba_marseille","lat":43.2957,"lon":5.3998,"is_reserved":false,"is_disabled":false,"rental_uris":{"android":"levelo://app?vid=1dba437d-5a00-46a8-98e1-0e11c3fabd1c","ios":"levelo://app?vid=1dba437d-5a00-46a8-98e1-0e11c3fabd1c"},"vehicle_type_id":"4","last_reported":1718557574,"current_range_meters":0,"station_id":"ce4bh312rcd13ifvqdj0","pricing_plan_id":"cebpf4jnsgd1na2vs0mg"},{"bike_id":"c775ec04-f5e3-4fd9-b68d-2f2c70e382dd","system_id":"levelo_inurba_marseille","lat":43.295713,"lon":5.399639,"is_reserved":false,"is_disabled":false,"rental_uris":{"android":"levelo://app?vid=c775ec04-f5e3-4fd9-b68d-2f2c70e382dd","ios":"levelo://app?vid=c775ec04-f5e3-4fd9-b68d-2f2c70e382dd"},"vehicle_type_id":"4","last_reported":1718557574,"current_range_meters":0,"station_id":"ce4bh312rcd13ifvqdj0","pricing_plan_id":"cebpf4jnsgd1na2vs0mg"},{"bike_id":"cadc8af3-0d5a-49ba-b3c6-b16bc5845697","system_id":"levelo_inurba_marseille","lat":43.286595,"lon":5.386795,"is_reserved":false,"is_disabled":false,"rental_uris":{"android":"levelo://app?vid=cadc8af3-0d5a-49ba-b3c6-b16bc5845697","ios":"levelo://app?vid=cadc8af3-0d5a-49ba-b3c6-b16bc5845697"},"vehicle_type_id":"4","last_reported":1718557574,"current_range_meters":2800,"station_id":"ce4bh492rcd13ifvqdug","pricing_plan_id":"cebpf4jnsgd1na2vs0mg"},{"bike_id":"1f75e041-c913-4a28-a8c9-220e0d338c26","system_id":"levelo_inurba_marseille","lat":43.28663,"lon":5.38667,"is_reserved":false,"is_disabled":false,"rental_uris":{"android":"levelo://app?vid=1f75e041-c913-4a28-a8c9-220e0d338c26","ios":"levelo://app?vid=1f75e041-c913-4a28-a8c9-220e0d338c26"},"vehicle_type_id":"4","last_reported":1718557574,"current_range_meters":0,"station_id":"ce4bh492rcd13ifvqdug","pricing_plan_id":"cebpf4jnsgd1na2vs0mg"},{"bike_id":"0673e82c-032e-481f-861e-a7f2657aeadf","system_id":"levelo_inurba_marseille","lat":43.295713,"lon":5.399639,"is_reserved":false,"is_disabled":false,"rental_uris":{"android":"levelo://app?vid=0673e82c-032e-481f-861e-a7f2657aeadf","ios":"levelo://app?vid=0673e82c-032e-481f-861e-a7f2657aeadf"},"vehicle_type_id":"4","last_reported":1718557574,"current_range_meters":0,"station_id":"ce4bh312rcd13ifvqdj0","pricing_plan_id":"cebpf4jnsgd1na2vs0mg"},{"bike_id":"3ea24295-082f-479a-adbf-0fecd1b7fe9c","system_id":"levelo_inurba_marseille","lat":43.297946,"lon":5.404063,"is_reserved":false,"is_disabled":false,"rental_uris":{"android":"levelo://app?vid=3ea24295-082f-479a-adbf-0fecd1b7fe9c","ios":"levelo://app?vid=3ea24295-082f-479a-adbf-0fecd1b7fe9c"},"vehicle_type_id":"4","last_reported":1718557574,"current_range_meters":800,"station_id":"ce4bh112rcd13ifvqd90","pricing_plan_id":"cebpf4jnsgd1na2vs0mg"},{"bike_id":"1383d5a7-9eff-4b94-ba60-0d877e3eeffb","system_id":"levelo_inurba_marseille","lat":43.284793,"lon":5.384119,"is_reserved":false,"is_disabled":false,"rental_uris":{"android":"levelo://app?vid=1383d5a7-9eff-4b94-ba60-0d877e3eeffb","ios":"levelo://app?vid=1383d5a7-9eff-4b94-ba60-0d877e3eeffb"},"vehicle_type_id":"4","last_reported":1718557574,"current_range_meters":22800,"station_id":"ce4bh512rcd13ifvqe3g","pricing_plan_id":"cebpf4jnsgd1na2vs0mg"},{"bike_id":"3ed7986e-b316-4b10-ba83-e0dab274f845","system_id":"levelo_inurba_marseille","lat":43.284776,"lon":5.385603,"is_reserved":false,"is_disabled":false,"rental_uris":{"android":"levelo://app?vid=3ed7986e-b316-4b10-ba83-e0dab274f845","ios":"levelo://app?vid=3ed7986e-b316-4b10-ba83-e0dab274f845"},"vehicle_type_id":"4","last_reported":1718557574,"current_range_meters":26800,"station_id":"ce4bh8p2rcd13ifvqeb0","pricing_plan_id":"cebpf4jnsgd1na2vs0mg"},{"bike_id":"e778f296-ab5e-427d-a2b2-c2aec2960067","system_id":"levelo_inurba_marseille","lat":43.284776,"lon":5.385603,"is_reserved":false,"is_disabled":false,"rental_uris":{"android":"levelo://app?vid=e778f296-ab5e-427d-a2b2-c2aec2960067","ios":"levelo://app?vid=e778f296-ab5e-427d-a2b2-c2aec2960067"},"vehicle_type_id":"4","last_reported":1718557574,"current_range_meters":24400,"station_id":"ce4bh8p2rcd13ifvqeb0","pricing_plan_id":"cebpf4jnsgd1na2vs0mg"},{"bike_id":"2add211e-9c60-4b0a-ba08-9c069f0d125b","system_id":"levelo_inurba_marseille","lat":43.28421,"lon":5.34992,"is_reserved":false,"is_disabled":false,"rental_uris":{"android":"levelo://app?vid=2add211e-9c60-4b0a-ba08-9c069f0d125b","ios":"levelo://app?vid=2add211e-9c60-4b0a-ba08-9c069f0d125b"},"vehicle_type_id":"4","last_reported":1718557574,"current_range_meters":6800,"station_id":"ce4bhbh2rcd13ifvqepg","pricing_plan_id":"cebpf4jnsgd1na2vs0mg"},{"bike_id":"67b7581b-6f29-43c9-ae11-9095eb157a86","system_id":"levelo_inurba_marseille","lat":43.289363,"lon":5.396322,"is_reserved":false,"is_disabled":false,"rental_uris":{"android":"levelo://app?vid=67b7581b-6f29-43c9-ae11-9095eb157a86","ios":"levelo://app?vid=67b7581b-6f29-43c9-ae11-9095eb157a86"},"vehicle_type_id":"4","last_reported":1718557574,"current_range_meters":8000,"station_id":"ce4bh3h2rcd13ifvqdn0","pricing_plan_id":"cebpf4jnsgd1na2vs0mg"},{"bike_id":"2ae6b42e-86f9-487a-8f3f-ffa11e55c17e","system_id":"levelo_inurba_marseille","lat":43.292724,"lon":5.401131,"is_reserved":false,"is_disabled":false,"rental_uris":{"android":"levelo://app?vid=2ae6b42e-86f9-487a-8f3f-ffa11e55c17e","ios":"levelo://app?vid=2ae6b42e-86f9-487a-8f3f-ffa11e55c17e"},"vehicle_type_id":"4","last_reported":1718557574,"current_range_meters":6000,"station_id":"ce4bh312rcd13ifvqdk0","pricing_plan_id":"cebpf4jnsgd1na2vs0mg"},{"bike_id":"132df311-ce3c-443d-bcc4-f28cc1015ceb","system_id":"levelo_inurba_marseille","lat":43.28274,"lon":5.35064,"is_reserved":false,"is_disabled":false,"rental_uris":{"android":"levelo://app?vid=132df311-ce3c-443d-bcc4-f28cc1015ceb","ios":"levelo://app?vid=132df311-ce3c-443d-bcc4-f28cc1015ceb"},"vehicle_type_id":"4","last_reported":1718557574,"current_range_meters":0,"station_id":"ce4bhbp2rcd13ifvqerg","pricing_plan_id":"cebpf4jnsgd1na2vs0mg"},{"bike_id":"73d09ec4-f52a-4dd4-ba19-0781382e0866","system_id":"levelo_inurba_marseille","lat":43.28268,"lon":5.35078,"is_reserved":false,"is_disabled":false,"rental_uris":{"android":"levelo://app?vid=73d09ec4-f52a-4dd4-ba19-0781382e0866","ios":"levelo://app?vid=73d09ec4-f52a-4dd4-ba19-0781382e0866"},"vehicle_type_id":"4","last_reported":1718557574,"current_range_meters":0,"station_id":"ce4bhbp2rcd13ifvqerg","pricing_plan_id":"cebpf4jnsgd1na2vs0mg"},{"bike_id":"f59aba5a-a7dd-4687-ad50-fdc0b548511e","system_id":"levelo_inurba_marseille","lat":43.282754,"lon":5.350519,"is_reserved":false,"is_disabled":false,"rental_uris":{"android":"levelo://app?vid=f59aba5a-a7dd-4687-ad50-fdc0b548511e","ios":"levelo://app?vid=f59aba5a-a7dd-4687-ad50-fdc0b548511e"},"vehicle_type_id":"4","last_reported":1718557574,"current_range_meters":0,"station_id":"ce4bhbp2rcd13ifvqerg","pricing_plan_id":"cebpf4jnsgd1na2vs0mg"},{"bike_id":"7d415885-8f79-4200-83da-b51e045ac013","system_id":"levelo_inurba_marseille","lat":43.28271,"lon":5.3506,"is_reserved":false,"is_disabled":false,"rental_uris":{"android":"levelo://app?vid=7d415885-8f79-4200-83da-b51e045ac013","ios":"levelo://app?vid=7d415885-8f79-4200-83da-b51e045ac013"},"vehicle_type_id":"4","last_reported":1718557574,"current_range_meters":0,"station_id":"ce4bhbp2rcd13ifvqerg","pricing_plan_id":"cebpf4jnsgd1na2vs0mg"},{"bike_id":"6066b4ea-c68f-4ed7-afa9-cedf0ecce7f1","system_id":"levelo_inurba_marseille","lat":43.282643,"lon":5.35071,"is_reserved":false,"is_disabled":false,"rental_uris":{"android":"levelo://app?vid=6066b4ea-c68f-4ed7-afa9-cedf0ecce7f1","ios":"levelo://app?vid=6066b4ea-c68f-4ed7-afa9-cedf0ecce7f1"},"vehicle_type_id":"4","last_reported":1718557574,"current_range_meters":0,"station_id":"ce4bhbp2rcd13ifvqerg","pricing_plan_id":"cebpf4jnsgd1na2vs0mg"},{"bike_id":"85fcb951-8bb1-4b3b-b05b-f3f8dd867921","system_id":"levelo_inurba_marseille","lat":43.283502,"lon":5.386471,"is_reserved":false,"is_disabled":false,"rental_uris":{"android":"levelo://app?vid=85fcb951-8bb1-4b3b-b05b-f3f8dd867921","ios":"levelo://app?vid=85fcb951-8bb1-4b3b-b05b-f3f8dd867921"},"vehicle_type_id":"4","last_reported":1718557574,"current_range_meters":2800,"station_id":"ce4bh492rcd13ifvqdvg","pricing_plan_id":"cebpf4jnsgd1na2vs0mg"},{"bike_id":"b07e0804-bc86-4312-9b6c-255058fbd226","system_id":"levelo_inurba_marseille","lat":43.28039,"lon":5.369297,"is_reserved":false,"is_disabled":false,"rental_uris":{"android":"levelo://app?vid=b07e0804-bc86-4312-9b6c-255058fbd226","ios":"levelo://app?vid=b07e0804-bc86-4312-9b6c-255058fbd226"},"vehicle_type_id":"4","last_reported":1718557574,"current_range_meters":0,"station_id":"ce4bha12rcd13ifvqef0","pricing_plan_id":"cebpf4jnsgd1na2vs0mg"},{"bike_id":"fea51386-591e-4053-9fb7-167811bc3c6a","system_id":"levelo_inurba_marseille","lat":43.29041,"lon":5.399634,"is_reserved":false,"is_disabled":false,"rental_uris":{"android":"levelo://app?vid=fea51386-591e-4053-9fb7-167811bc3c6a","ios":"levelo://app?vid=fea51386-591e-4053-9fb7-167811bc3c6a"},"vehicle_type_id":"4","last_reported":1718557574,"current_range_meters":4800,"station_id":"ce4bh392rcd13ifvqdm0","pricing_plan_id":"cebpf4jnsgd1na2vs0mg"},{"bike_id":"3f445b85-d9de-4e28-81b3-41abb8d5f851","system_id":"levelo_inurba_marseille","lat":43.296263,"lon":5.40601,"is_reserved":false,"is_disabled":false,"rental_uris":{"android":"levelo://app?vid=3f445b85-d9de-4e28-81b3-41abb8d5f851","ios":"levelo://app?vid=3f445b85-d9de-4e28-81b3-41abb8d5f851"},"vehicle_type_id":"4","last_reported":1718557574,"current_range_meters":12800,"station_id":"ce4bh0h2rcd13ifvqd60","pricing_plan_id":"cebpf4jnsgd1na2vs0mg"},{"bike_id":"7cff686f-ce02-460d-800a-a8e0715935e0","system_id":"levelo_inurba_marseille","lat":43.2963,"lon":5.406,"is_reserved":false,"is_disabled":false,"rental_uris":{"android":"levelo://app?vid=7cff686f-ce02-460d-800a-a8e0715935e0","ios":"levelo://app?vid=7cff686f-ce02-460d-800a-a8e0715935e0"},"vehicle_type_id":"4","last_reported":1718557574,"current_range_meters":0,"station_id":"ce4bh0h2rcd13ifvqd60","pricing_plan_id":"cebpf4jnsgd1na2vs0mg"},{"bike_id":"2a94296a-48a1-40f9-b4bb-846954b749e6","system_id":"levelo_inurba_marseille","lat":43.28573,"lon":5.394992,"is_reserved":false,"is_disabled":false,"rental_uris":{"android":"levelo://app?vid=2a94296a-48a1-40f9-b4bb-846954b749e6","ios":"levelo://app?vid=2a94296a-48a1-40f9-b4bb-846954b749e6"},"vehicle_type_id":"4","last_reported":1718557574,"current_range_meters":2800,"station_id":"ce4bh292rcd13ifvqdg0","pricing_plan_id":"cebpf4jnsgd1na2vs0mg"},{"bike_id":"79960999-5642-4340-b612-ae48b2433295","system_id":"levelo_inurba_marseille","lat":43.32659,"lon":5.40989,"is_reserved":false,"is_disabled":false,"rental_uris":{"android":"levelo://app?vid=79960999-5642-4340-b612-ae48b2433295","ios":"levelo://app?vid=79960999-5642-4340-b612-ae48b2433295"},"vehicle_type_id":"4","last_reported":1718557574,"current_range_meters":9200,"station_id":"ce4bhpp2rcd13ifvqhgg","pricing_plan_id":"cebpf4jnsgd1na2vs0mg"},{"bike_id":"3256bcd8-8dd8-41bd-863e-f082eea436bb","system_id":"levelo_inurba_marseille","lat":43.32661,"lon":5.40994,"is_reserved":false,"is_disabled":false,"rental_uris":{"android":"levelo://app?vid=3256bcd8-8dd8-41bd-863e-f082eea436bb","ios":"levelo://app?vid=3256bcd8-8dd8-41bd-863e-f082eea436bb"},"vehicle_type_id":"4","last_reported":1718557574,"current_range_meters":9200,"station_id":"ce4bhpp2rcd13ifvqhgg","pricing_plan_id":"cebpf4jnsgd1na2vs0mg"},{"bike_id":"1335bc31-6847-4f52-9757-d28d021659c1","system_id":"levelo_inurba_marseille","lat":43.3266,"lon":5.40995,"is_reserved":false,"is_disabled":false,"rental_uris":{"android":"levelo://app?vid=1335bc31-6847-4f52-9757-d28d021659c1","ios":"levelo://app?vid=1335bc31-6847-4f52-9757-d28d021659c1"},"vehicle_type_id":"4","last_reported":1718557574,"current_range_meters":4800,"station_id":"ce4bhpp2rcd13ifvqhgg","pricing_plan_id":"cebpf4jnsgd1na2vs0mg"},{"bike_id":"1daa4f45-11f1-4db4-add4-ca986651e3c0","system_id":"levelo_inurba_marseille","lat":43.304188,"lon":5.412904,"is_reserved":false,"is_disabled":false,"rental_uris":{"android":"levelo://app?vid=1daa4f45-11f1-4db4-add4-ca986651e3c0","ios":"levelo://app?vid=1daa4f45-11f1-4db4-add4-ca986651e3c0"},"vehicle_type_id":"4","last_reported":1718557574,"current_range_meters":22400,"station_id":"ce4bhop2rcd13ifvqh8g","pricing_plan_id":"cebpf4jnsgd1na2vs0mg"},{"bike_id":"164c4606-a8b3-4ab8-8c73-75f8ef669ee9","system_id":"levelo_inurba_marseille","lat":43.287154,"lon":5.399979,"is_reserved":false,"is_disabled":false,"rental_uris":{"android":"levelo://app?vid=164c4606-a8b3-4ab8-8c73-75f8ef669ee9","ios":"levelo://app?vid=164c4606-a8b3-4ab8-8c73-75f8ef669ee9"},"vehicle_type_id":"4","last_reported":1718557574,"current_range_meters":400,"station_id":"ce4bho92rcd13ifvqh3g","pricing_plan_id":"cebpf4jnsgd1na2vs0mg"},{"bike_id":"28cd3dea-cfc8-45e3-baf6-aff321b754c0","system_id":"levelo_inurba_marseille","lat":43.287154,"lon":5.399979,"is_reserved":false,"is_disabled":false,"rental_uris":{"android":"levelo://app?vid=28cd3dea-cfc8-45e3-baf6-aff321b754c0","ios":"levelo://app?vid=28cd3dea-cfc8-45e3-baf6-aff321b754c0"},"vehicle_type_id":"4","last_reported":1718557574,"current_range_meters":0,"station_id":"ce4bho92rcd13ifvqh3g","pricing_plan_id":"cebpf4jnsgd1na2vs0mg"},{"bike_id":"0eaa50cb-fc5a-499e-99ce-200a4d002aa7","system_id":"levelo_inurba_marseille","lat":43.320045,"lon":5.415046,"is_reserved":false,"is_disabled":false,"rental_uris":{"android":"levelo://app?vid=0eaa50cb-fc5a-499e-99ce-200a4d002aa7","ios":"levelo://app?vid=0eaa50cb-fc5a-499e-99ce-200a4d002aa7"},"vehicle_type_id":"4","last_reported":1718557574,"current_range_meters":8800,"station_id":"ce4bhq92rcd13ifvqhkg","pricing_plan_id":"cebpf4jnsgd1na2vs0mg"},{"bike_id":"e982777d-eb6a-4fba-b5b9-0c22b1f09576","system_id":"levelo_inurba_marseille","lat":43.320045,"lon":5.415048,"is_reserved":false,"is_disabled":false,"rental_uris":{"android":"levelo://app?vid=e982777d-eb6a-4fba-b5b9-0c22b1f09576","ios":"levelo://app?vid=e982777d-eb6a-4fba-b5b9-0c22b1f09576"},"vehicle_type_id":"4","last_reported":1718557574,"current_range_meters":10800,"station_id":"ce4bhq92rcd13ifvqhkg","pricing_plan_id":"cebpf4jnsgd1na2vs0mg"},{"bike_id":"c21d440e-e704-4fce-9ee9-b1008f5e3319","system_id":"levelo_inurba_marseille","lat":43.29265,"lon":5.40904,"is_reserved":false,"is_disabled":false,"rental_uris":{"android":"levelo://app?vid=c21d440e-e704-4fce-9ee9-b1008f5e3319","ios":"levelo://app?vid=c21d440e-e704-4fce-9ee9-b1008f5e3319"},"vehicle_type_id":"4","last_reported":1718557574,"current_range_meters":0,"station_id":"ce4bh192rcd13ifvqdc0","pricing_plan_id":"cebpf4jnsgd1na2vs0mg"},{"bike_id":"43c15d55-a60e-405e-a46d-2ec8bc3a534c","system_id":"levelo_inurba_marseille","lat":43.325233,"lon":5.414318,"is_reserved":false,"is_disabled":false,"rental_uris":{"android":"levelo://app?vid=43c15d55-a60e-405e-a46d-2ec8bc3a534c","ios":"levelo://app?vid=43c15d55-a60e-405e-a46d-2ec8bc3a534c"},"vehicle_type_id":"4","last_reported":1718557574,"current_range_meters":26400,"station_id":"ce4bhq12rcd13ifvqhhg","pricing_plan_id":"cebpf4jnsgd1na2vs0mg"},{"bike_id":"ca82b76c-26ce-49f9-9c9f-57d70d2e6b9c","system_id":"levelo_inurba_marseille","lat":43.305364,"lon":5.384119,"is_reserved":false,"is_disabled":false,"rental_uris":{"android":"levelo://app?vid=ca82b76c-26ce-49f9-9c9f-57d70d2e6b9c","ios":"levelo://app?vid=ca82b76c-26ce-49f9-9c9f-57d70d2e6b9c"},"vehicle_type_id":"4","last_reported":1718557574,"current_range_meters":0,"station_id":"ce4bgg92rcd13ifvqb30","pricing_plan_id":"cebpf4jnsgd1na2vs0mg"},{"bike_id":"09e2cd2c-a9a2-44f1-9bcb-1d1fed11526b","system_id":"levelo_inurba_marseille","lat":43.28601,"lon":5.405555,"is_reserved":false,"is_disabled":false,"rental_uris":{"android":"levelo://app?vid=09e2cd2c-a9a2-44f1-9bcb-1d1fed11526b","ios":"levelo://app?vid=09e2cd2c-a9a2-44f1-9bcb-1d1fed11526b"},"vehicle_type_id":"4","last_reported":1718557574,"current_range_meters":0,"station_id":"","pricing_plan_id":"cebpf4jnsgd1na2vs0mg"},{"bike_id":"890ee9c7-7633-4cb7-b15f-b3ee7d55ac80","system_id":"levelo_inurba_marseille","lat":43.336134,"lon":5.410341,"is_reserved":false,"is_disabled":false,"rental_uris":{"android":"levelo://app?vid=890ee9c7-7633-4cb7-b15f-b3ee7d55ac80","ios":"levelo://app?vid=890ee9c7-7633-4cb7-b15f-b3ee7d55ac80"},"vehicle_type_id":"4","last_reported":1718557574,"current_range_meters":20800,"station_id":"ce4bhqh2rcd13ifvqhmg","pricing_plan_id":"cebpf4jnsgd1na2vs0mg"},{"bike_id":"3cb23b44-0035-4b0e-9c0a-16f616563277","system_id":"levelo_inurba_marseille","lat":43.27381,"lon":5.3626,"is_reserved":false,"is_disabled":false,"rental_uris":{"android":"levelo://app?vid=3cb23b44-0035-4b0e-9c0a-16f616563277","ios":"levelo://app?vid=3cb23b44-0035-4b0e-9c0a-16f616563277"},"vehicle_type_id":"4","last_reported":1718557574,"current_range_meters":0,"station_id":"ce4bhbh2rcd13ifvqeo0","pricing_plan_id":"cebpf4jnsgd1na2vs0mg"},{"bike_id":"8bb28703-ac1e-420f-95d9-a1a9b8950e3b","system_id":"levelo_inurba_marseille","lat":43.278153,"lon":5.39198,"is_reserved":false,"is_disabled":false,"rental_uris":{"android":"levelo://app?vid=8bb28703-ac1e-420f-95d9-a1a9b8950e3b","ios":"levelo://app?vid=8bb28703-ac1e-420f-95d9-a1a9b8950e3b"},"vehicle_type_id":"4","last_reported":1718557574,"current_range_meters":22000,"station_id":"ce4bhjp2rcd13ifvqga0","pricing_plan_id":"cebpf4jnsgd1na2vs0mg"},{"bike_id":"9bc710ad-bceb-498c-a060-034a0772a332","system_id":"levelo_inurba_marseille","lat":43.27376,"lon":5.36259,"is_reserved":false,"is_disabled":false,"rental_uris":{"android":"levelo://app?vid=9bc710ad-bceb-498c-a060-034a0772a332","ios":"levelo://app?vid=9bc710ad-bceb-498c-a060-034a0772a332"},"vehicle_type_id":"4","last_reported":1718557574,"current_range_meters":31200,"station_id":"ce4bhbh2rcd13ifvqeo0","pricing_plan_id":"cebpf4jnsgd1na2vs0mg"},{"bike_id":"67fc81b6-98f4-4fad-a186-783ec0d57821","system_id":"levelo_inurba_marseille","lat":43.273613,"lon":5.362705,"is_reserved":false,"is_disabled":false,"rental_uris":{"android":"levelo://app?vid=67fc81b6-98f4-4fad-a186-783ec0d57821","ios":"levelo://app?vid=67fc81b6-98f4-4fad-a186-783ec0d57821"},"vehicle_type_id":"4","last_reported":1718557574,"current_range_meters":0,"station_id":"ce4bhbh2rcd13ifvqeo0","pricing_plan_id":"cebpf4jnsgd1na2vs0mg"},{"bike_id":"b8986383-df8c-438f-b5c9-8c16890f9f99","system_id":"levelo_inurba_marseille","lat":43.27375,"lon":5.36257,"is_reserved":false,"is_disabled":false,"rental_uris":{"android":"levelo://app?vid=b8986383-df8c-438f-b5c9-8c16890f9f99","ios":"levelo://app?vid=b8986383-df8c-438f-b5c9-8c16890f9f99"},"vehicle_type_id":"4","last_reported":1718557574,"current_range_meters":0,"station_id":"ce4bhbh2rcd13ifvqeo0","pricing_plan_id":"cebpf4jnsgd1na2vs0mg"},{"bike_id":"66b88f16-1bc2-410c-9126-b0bf11666cb9","system_id":"levelo_inurba_marseille","lat":43.27375,"lon":5.36254,"is_reserved":false,"is_disabled":false,"rental_uris":{"android":"levelo://app?vid=66b88f16-1bc2-410c-9126-b0bf11666cb9","ios":"levelo://app?vid=66b88f16-1bc2-410c-9126-b0bf11666cb9"},"vehicle_type_id":"4","last_reported":1718557574,"current_range_meters":0,"station_id":"ce4bhbh2rcd13ifvqeo0","pricing_plan_id":"cebpf4jnsgd1na2vs0mg"},{"bike_id":"effd1edb-c4fb-4829-9813-3e7844605be5","system_id":"levelo_inurba_marseille","lat":43.27372,"lon":5.36252,"is_reserved":false,"is_disabled":false,"rental_uris":{"android":"levelo://app?vid=effd1edb-c4fb-4829-9813-3e7844605be5","ios":"levelo://app?vid=effd1edb-c4fb-4829-9813-3e7844605be5"},"vehicle_type_id":"4","last_reported":1718557574,"current_range_meters":0,"station_id":"ce4bhbh2rcd13ifvqeo0","pricing_plan_id":"cebpf4jnsgd1na2vs0mg"},{"bike_id":"3a5398b3-d497-4bef-b4d5-dc7779087d3c","system_id":"levelo_inurba_marseille","lat":43.2737,"lon":5.36256,"is_reserved":false,"is_disabled":false,"rental_uris":{"android":"levelo://app?vid=3a5398b3-d497-4bef-b4d5-dc7779087d3c","ios":"levelo://app?vid=3a5398b3-d497-4bef-b4d5-dc7779087d3c"},"vehicle_type_id":"4","last_reported":1718557574,"current_range_meters":18800,"station_id":"ce4bhbh2rcd13ifvqeo0","pricing_plan_id":"cebpf4jnsgd1na2vs0mg"},{"bike_id":"e13e9b5b-4b81-47d8-9820-5738c810a218","system_id":"levelo_inurba_marseille","lat":43.336148,"lon":5.410349,"is_reserved":false,"is_disabled":false,"rental_uris":{"android":"levelo://app?vid=e13e9b5b-4b81-47d8-9820-5738c810a218","ios":"levelo://app?vid=e13e9b5b-4b81-47d8-9820-5738c810a218"},"vehicle_type_id":"4","last_reported":1718557574,"current_range_meters":13600,"station_id":"ce4bhqh2rcd13ifvqhmg","pricing_plan_id":"cebpf4jnsgd1na2vs0mg"},{"bike_id":"f135a9e5-98dc-4348-beca-d2c7d9732dec","system_id":"levelo_inurba_marseille","lat":43.33612,"lon":5.410321,"is_reserved":false,"is_disabled":false,"rental_uris":{"android":"levelo://app?vid=f135a9e5-98dc-4348-beca-d2c7d9732dec","ios":"levelo://app?vid=f135a9e5-98dc-4348-beca-d2c7d9732dec"},"vehicle_type_id":"4","last_reported":1718557574,"current_range_meters":11600,"station_id":"ce4bhqh2rcd13ifvqhmg","pricing_plan_id":"cebpf4jnsgd1na2vs0mg"},{"bike_id":"a13df5fe-87fc-48e9-9b44-9372a4183750","system_id":"levelo_inurba_marseille","lat":43.33603,"lon":5.4103,"is_reserved":false,"is_disabled":false,"rental_uris":{"android":"levelo://app?vid=a13df5fe-87fc-48e9-9b44-9372a4183750","ios":"levelo://app?vid=a13df5fe-87fc-48e9-9b44-9372a4183750"},"vehicle_type_id":"4","last_reported":1718557574,"current_range_meters":10400,"station_id":"","pricing_plan_id":"cebpf4jnsgd1na2vs0mg"},{"bike_id":"28ffcc89-b614-4722-bfc9-f80ba8f68628","system_id":"levelo_inurba_marseille","lat":43.336148,"lon":5.410349,"is_reserved":false,"is_disabled":false,"rental_uris":{"android":"levelo://app?vid=28ffcc89-b614-4722-bfc9-f80ba8f68628","ios":"levelo://app?vid=28ffcc89-b614-4722-bfc9-f80ba8f68628"},"vehicle_type_id":"4","last_reported":1718557574,"current_range_meters":25600,"station_id":"ce4bhqh2rcd13ifvqhmg","pricing_plan_id":"cebpf4jnsgd1na2vs0mg"},{"bike_id":"7d7953b6-faae-4220-8c24-fa873f875192","system_id":"levelo_inurba_marseille","lat":43.279975,"lon":5.40009,"is_reserved":false,"is_disabled":false,"rental_uris":{"android":"levelo://app?vid=7d7953b6-faae-4220-8c24-fa873f875192","ios":"levelo://app?vid=7d7953b6-faae-4220-8c24-fa873f875192"},"vehicle_type_id":"4","last_reported":1718557574,"current_range_meters":24000,"station_id":"ce4bho92rcd13ifvqh4g","pricing_plan_id":"cebpf4jnsgd1na2vs0mg"},{"bike_id":"58189d9b-9801-47af-9a29-86c0dba07054","system_id":"levelo_inurba_marseille","lat":43.317121,"lon":5.423936,"is_reserved":false,"is_disabled":false,"rental_uris":{"android":"levelo://app?vid=58189d9b-9801-47af-9a29-86c0dba07054","ios":"levelo://app?vid=58189d9b-9801-47af-9a29-86c0dba07054"},"vehicle_type_id":"4","last_reported":1718557574,"current_range_meters":24400,"station_id":"ce4bhp92rcd13ifvqhbg","pricing_plan_id":"cebpf4jnsgd1na2vs0mg"},{"bike_id":"b475c9a6-19d7-408e-9737-d12f24c9a94c","system_id":"levelo_inurba_marseille","lat":43.310785,"lon":5.424305,"is_reserved":false,"is_disabled":false,"rental_uris":{"android":"levelo://app?vid=b475c9a6-19d7-408e-9737-d12f24c9a94c","ios":"levelo://app?vid=b475c9a6-19d7-408e-9737-d12f24c9a94c"},"vehicle_type_id":"4","last_reported":1718557574,"current_range_meters":18000,"station_id":"ce4bhp92rcd13ifvqhag","pricing_plan_id":"cebpf4jnsgd1na2vs0mg"},{"bike_id":"909f9574-b6b9-43c1-b6f7-025fe149b65b","system_id":"levelo_inurba_marseille","lat":43.27471,"lon":5.39487,"is_reserved":false,"is_disabled":false,"rental_uris":{"android":"levelo://app?vid=909f9574-b6b9-43c1-b6f7-025fe149b65b","ios":"levelo://app?vid=909f9574-b6b9-43c1-b6f7-025fe149b65b"},"vehicle_type_id":"4","last_reported":1718557574,"current_range_meters":25600,"station_id":"","pricing_plan_id":"cebpf4jnsgd1na2vs0mg"},{"bike_id":"f4792298-ee07-4dd4-9ae6-6cbc21d237a3","system_id":"levelo_inurba_marseille","lat":43.274103,"lon":5.394016,"is_reserved":false,"is_disabled":false,"rental_uris":{"android":"levelo://app?vid=f4792298-ee07-4dd4-9ae6-6cbc21d237a3","ios":"levelo://app?vid=f4792298-ee07-4dd4-9ae6-6cbc21d237a3"},"vehicle_type_id":"4","last_reported":1718557574,"current_range_meters":6000,"station_id":"ce4bhdp2rcd13ifvqf20","pricing_plan_id":"cebpf4jnsgd1na2vs0mg"},{"bike_id":"691bca5d-9810-4f4a-befc-e15bdc77bb2d","system_id":"levelo_inurba_marseille","lat":43.2742,"lon":5.39418,"is_reserved":false,"is_disabled":false,"rental_uris":{"android":"levelo://app?vid=691bca5d-9810-4f4a-befc-e15bdc77bb2d","ios":"levelo://app?vid=691bca5d-9810-4f4a-befc-e15bdc77bb2d"},"vehicle_type_id":"4","last_reported":1718557574,"current_range_meters":0,"station_id":"ce4bhdp2rcd13ifvqf20","pricing_plan_id":"cebpf4jnsgd1na2vs0mg"},{"bike_id":"7095393f-e30b-407b-a3ef-72e3451c9023","system_id":"levelo_inurba_marseille","lat":43.272124,"lon":5.391768,"is_reserved":false,"is_disabled":false,"rental_uris":{"android":"levelo://app?vid=7095393f-e30b-407b-a3ef-72e3451c9023","ios":"levelo://app?vid=7095393f-e30b-407b-a3ef-72e3451c9023"},"vehicle_type_id":"4","last_reported":1718557574,"current_range_meters":10400,"station_id":"ce4bhhp2rcd13ifvqfm0","pricing_plan_id":"cebpf4jnsgd1na2vs0mg"},{"bike_id":"d64bcfc9-02f9-4f84-9a81-198e32d1865b","system_id":"levelo_inurba_marseille","lat":43.2742,"lon":5.39761,"is_reserved":false,"is_disabled":false,"rental_uris":{"android":"levelo://app?vid=d64bcfc9-02f9-4f84-9a81-198e32d1865b","ios":"levelo://app?vid=d64bcfc9-02f9-4f84-9a81-198e32d1865b"},"vehicle_type_id":"4","last_reported":1718557574,"current_range_meters":16800,"station_id":"","pricing_plan_id":"cebpf4jnsgd1na2vs0mg"},{"bike_id":"2b29a1bc-cc81-4b08-8ad8-8b8959229c80","system_id":"levelo_inurba_marseille","lat":43.269467,"lon":5.386439,"is_reserved":false,"is_disabled":false,"rental_uris":{"android":"levelo://app?vid=2b29a1bc-cc81-4b08-8ad8-8b8959229c80","ios":"levelo://app?vid=2b29a1bc-cc81-4b08-8ad8-8b8959229c80"},"vehicle_type_id":"4","last_reported":1718557574,"current_range_meters":0,"station_id":"ce4bhh92rcd13ifvqfh0","pricing_plan_id":"cebpf4jnsgd1na2vs0mg"},{"bike_id":"6fe8ed48-8657-4ff8-a6fc-78974804189c","system_id":"levelo_inurba_marseille","lat":43.26949,"lon":5.3863,"is_reserved":false,"is_disabled":false,"rental_uris":{"android":"levelo://app?vid=6fe8ed48-8657-4ff8-a6fc-78974804189c","ios":"levelo://app?vid=6fe8ed48-8657-4ff8-a6fc-78974804189c"},"vehicle_type_id":"4","last_reported":1718557574,"current_range_meters":0,"station_id":"ce4bhh92rcd13ifvqfh0","pricing_plan_id":"cebpf4jnsgd1na2vs0mg"},{"bike_id":"e27fb37c-040d-47bc-8628-b9bdc54ccc89","system_id":"levelo_inurba_marseille","lat":43.26945,"lon":5.38638,"is_reserved":false,"is_disabled":false,"rental_uris":{"android":"levelo://app?vid=e27fb37c-040d-47bc-8628-b9bdc54ccc89","ios":"levelo://app?vid=e27fb37c-040d-47bc-8628-b9bdc54ccc89"},"vehicle_type_id":"4","last_reported":1718557574,"current_range_meters":0,"station_id":"ce4bhh92rcd13ifvqfh0","pricing_plan_id":"cebpf4jnsgd1na2vs0mg"},{"bike_id":"7adea0ef-6168-49cd-a952-5f368ff0a3cf","system_id":"levelo_inurba_marseille","lat":43.27941,"lon":5.41045,"is_reserved":false,"is_disabled":false,"rental_uris":{"android":"levelo://app?vid=7adea0ef-6168-49cd-a952-5f368ff0a3cf","ios":"levelo://app?vid=7adea0ef-6168-49cd-a952-5f368ff0a3cf"},"vehicle_type_id":"4","last_reported":1718557574,"current_range_meters":0,"station_id":"ce4bhnp2rcd13ifvqh0g","pricing_plan_id":"cebpf4jnsgd1na2vs0mg"},{"bike_id":"e4ef35ac-d97f-4261-a880-22b679cfee75","system_id":"levelo_inurba_marseille","lat":43.279465,"lon":5.410561,"is_reserved":false,"is_disabled":false,"rental_uris":{"android":"levelo://app?vid=e4ef35ac-d97f-4261-a880-22b679cfee75","ios":"levelo://app?vid=e4ef35ac-d97f-4261-a880-22b679cfee75"},"vehicle_type_id":"4","last_reported":1718557574,"current_range_meters":0,"station_id":"ce4bhnp2rcd13ifvqh0g","pricing_plan_id":"cebpf4jnsgd1na2vs0mg"},{"bike_id":"a52208fa-234b-4e2c-aa8c-fcc0ad4222c6","system_id":"levelo_inurba_marseille","lat":43.279465,"lon":5.410561,"is_reserved":false,"is_disabled":false,"rental_uris":{"android":"levelo://app?vid=a52208fa-234b-4e2c-aa8c-fcc0ad4222c6","ios":"levelo://app?vid=a52208fa-234b-4e2c-aa8c-fcc0ad4222c6"},"vehicle_type_id":"4","last_reported":1718557574,"current_range_meters":0,"station_id":"ce4bhnp2rcd13ifvqh0g","pricing_plan_id":"cebpf4jnsgd1na2vs0mg"},{"bike_id":"1b842b2d-fa1e-4947-8600-6d7c03110fce","system_id":"levelo_inurba_marseille","lat":43.269319,"lon":5.389397,"is_reserved":false,"is_disabled":false,"rental_uris":{"android":"levelo://app?vid=1b842b2d-fa1e-4947-8600-6d7c03110fce","ios":"levelo://app?vid=1b842b2d-fa1e-4947-8600-6d7c03110fce"},"vehicle_type_id":"4","last_reported":1718557574,"current_range_meters":9600,"station_id":"ce4bhhh2rcd13ifvqfl0","pricing_plan_id":"cebpf4jnsgd1na2vs0mg"},{"bike_id":"d935987a-b104-4178-ac6e-dfc67d475ab7","system_id":"levelo_inurba_marseille","lat":43.26681,"lon":5.382694,"is_reserved":false,"is_disabled":false,"rental_uris":{"android":"levelo://app?vid=d935987a-b104-4178-ac6e-dfc67d475ab7","ios":"levelo://app?vid=d935987a-b104-4178-ac6e-dfc67d475ab7"},"vehicle_type_id":"4","last_reported":1718557574,"current_range_meters":0,"station_id":"ce4bhg92rcd13ifvqf90","pricing_plan_id":"cebpf4jnsgd1na2vs0mg"},{"bike_id":"7da4a85f-6185-4734-aef8-473ea4ff4e79","system_id":"levelo_inurba_marseille","lat":43.26681,"lon":5.382694,"is_reserved":false,"is_disabled":false,"rental_uris":{"android":"levelo://app?vid=7da4a85f-6185-4734-aef8-473ea4ff4e79","ios":"levelo://app?vid=7da4a85f-6185-4734-aef8-473ea4ff4e79"},"vehicle_type_id":"4","last_reported":1718557574,"current_range_meters":28800,"station_id":"ce4bhg92rcd13ifvqf90","pricing_plan_id":"cebpf4jnsgd1na2vs0mg"},{"bike_id":"6f5c7182-fa21-4cb8-b8ad-8f5ab7cdcbe8","system_id":"levelo_inurba_marseille","lat":43.26681,"lon":5.382694,"is_reserved":false,"is_disabled":false,"rental_uris":{"android":"levelo://app?vid=6f5c7182-fa21-4cb8-b8ad-8f5ab7cdcbe8","ios":"levelo://app?vid=6f5c7182-fa21-4cb8-b8ad-8f5ab7cdcbe8"},"vehicle_type_id":"4","last_reported":1718557574,"current_range_meters":9200,"station_id":"ce4bhg92rcd13ifvqf90","pricing_plan_id":"cebpf4jnsgd1na2vs0mg"},{"bike_id":"7d7211a7-7724-4458-b7d3-cbb6cd0be6e2","system_id":"levelo_inurba_marseille","lat":43.26681,"lon":5.382694,"is_reserved":false,"is_disabled":false,"rental_uris":{"android":"levelo://app?vid=7d7211a7-7724-4458-b7d3-cbb6cd0be6e2","ios":"levelo://app?vid=7d7211a7-7724-4458-b7d3-cbb6cd0be6e2"},"vehicle_type_id":"4","last_reported":1718557574,"current_range_meters":6000,"station_id":"ce4bhg92rcd13ifvqf90","pricing_plan_id":"cebpf4jnsgd1na2vs0mg"},{"bike_id":"56831148-b0a6-4842-aa0e-0d1568fbf6ee","system_id":"levelo_inurba_marseille","lat":43.26678,"lon":5.38267,"is_reserved":false,"is_disabled":false,"rental_uris":{"android":"levelo://app?vid=56831148-b0a6-4842-aa0e-0d1568fbf6ee","ios":"levelo://app?vid=56831148-b0a6-4842-aa0e-0d1568fbf6ee"},"vehicle_type_id":"4","last_reported":1718557574,"current_range_meters":0,"station_id":"ce4bhg92rcd13ifvqf90","pricing_plan_id":"cebpf4jnsgd1na2vs0mg"},{"bike_id":"6ed903d9-ae28-4379-8656-8eedc0d94797","system_id":"levelo_inurba_marseille","lat":43.26677,"lon":5.38269,"is_reserved":false,"is_disabled":false,"rental_uris":{"android":"levelo://app?vid=6ed903d9-ae28-4379-8656-8eedc0d94797","ios":"levelo://app?vid=6ed903d9-ae28-4379-8656-8eedc0d94797"},"vehicle_type_id":"4","last_reported":1718557574,"current_range_meters":800,"station_id":"ce4bhg92rcd13ifvqf90","pricing_plan_id":"cebpf4jnsgd1na2vs0mg"},{"bike_id":"c7a0ac6a-3eeb-436c-b3f8-f55bb1b84102","system_id":"levelo_inurba_marseille","lat":43.26677,"lon":5.38271,"is_reserved":false,"is_disabled":false,"rental_uris":{"android":"levelo://app?vid=c7a0ac6a-3eeb-436c-b3f8-f55bb1b84102","ios":"levelo://app?vid=c7a0ac6a-3eeb-436c-b3f8-f55bb1b84102"},"vehicle_type_id":"4","last_reported":1718557574,"current_range_meters":10000,"station_id":"ce4bhg92rcd13ifvqf90","pricing_plan_id":"cebpf4jnsgd1na2vs0mg"},{"bike_id":"d72026a1-f475-4697-9c05-764f330f156d","system_id":"levelo_inurba_marseille","lat":43.26681,"lon":5.382694,"is_reserved":false,"is_disabled":false,"rental_uris":{"android":"levelo://app?vid=d72026a1-f475-4697-9c05-764f330f156d","ios":"levelo://app?vid=d72026a1-f475-4697-9c05-764f330f156d"},"vehicle_type_id":"4","last_reported":1718557574,"current_range_meters":18800,"station_id":"ce4bhg92rcd13ifvqf90","pricing_plan_id":"cebpf4jnsgd1na2vs0mg"},{"bike_id":"1686b386-36c3-4d38-bda4-341f1cf89041","system_id":"levelo_inurba_marseille","lat":43.27768,"lon":5.41165,"is_reserved":false,"is_disabled":false,"rental_uris":{"android":"levelo://app?vid=1686b386-36c3-4d38-bda4-341f1cf89041","ios":"levelo://app?vid=1686b386-36c3-4d38-bda4-341f1cf89041"},"vehicle_type_id":"4","last_reported":1718557574,"current_range_meters":6800,"station_id":"","pricing_plan_id":"cebpf4jnsgd1na2vs0mg"},{"bike_id":"c57723e5-bfe4-4476-8e5c-6872a03d9e7a","system_id":"levelo_inurba_marseille","lat":43.293467,"lon":5.428425,"is_reserved":false,"is_disabled":false,"rental_uris":{"android":"levelo://app?vid=c57723e5-bfe4-4476-8e5c-6872a03d9e7a","ios":"levelo://app?vid=c57723e5-bfe4-4476-8e5c-6872a03d9e7a"},"vehicle_type_id":"4","last_reported":1718557574,"current_range_meters":12000,"station_id":"","pricing_plan_id":"cebpf4jnsgd1na2vs0mg"},{"bike_id":"5d8583e6-7796-4343-8d42-458ed787538c","system_id":"levelo_inurba_marseille","lat":43.27992,"lon":5.41655,"is_reserved":false,"is_disabled":false,"rental_uris":{"android":"levelo://app?vid=5d8583e6-7796-4343-8d42-458ed787538c","ios":"levelo://app?vid=5d8583e6-7796-4343-8d42-458ed787538c"},"vehicle_type_id":"4","last_reported":1718557574,"current_range_meters":17200,"station_id":"ce4bho12rcd13ifvqh1g","pricing_plan_id":"cebpf4jnsgd1na2vs0mg"},{"bike_id":"34d59256-1263-400c-8f9d-d12476ca0381","system_id":"levelo_inurba_marseille","lat":43.279933,"lon":5.41659,"is_reserved":false,"is_disabled":false,"rental_uris":{"android":"levelo://app?vid=34d59256-1263-400c-8f9d-d12476ca0381","ios":"levelo://app?vid=34d59256-1263-400c-8f9d-d12476ca0381"},"vehicle_type_id":"4","last_reported":1718557574,"current_range_meters":0,"station_id":"ce4bho12rcd13ifvqh1g","pricing_plan_id":"cebpf4jnsgd1na2vs0mg"},{"bike_id":"d1f50a08-ee12-4088-9ade-60aa4c0e89d9","system_id":"levelo_inurba_marseille","lat":43.27996,"lon":5.416624,"is_reserved":false,"is_disabled":false,"rental_uris":{"android":"levelo://app?vid=d1f50a08-ee12-4088-9ade-60aa4c0e89d9","ios":"levelo://app?vid=d1f50a08-ee12-4088-9ade-60aa4c0e89d9"},"vehicle_type_id":"4","last_reported":1718557574,"current_range_meters":31200,"station_id":"ce4bho12rcd13ifvqh1g","pricing_plan_id":"cebpf4jnsgd1na2vs0mg"},{"bike_id":"64c31d1d-fbc4-4601-9817-7d0d44225b15","system_id":"levelo_inurba_marseille","lat":43.27986,"lon":5.41665,"is_reserved":false,"is_disabled":false,"rental_uris":{"android":"levelo://app?vid=64c31d1d-fbc4-4601-9817-7d0d44225b15","ios":"levelo://app?vid=64c31d1d-fbc4-4601-9817-7d0d44225b15"},"vehicle_type_id":"4","last_reported":1718557574,"current_range_meters":0,"station_id":"ce4bho12rcd13ifvqh1g","pricing_plan_id":"cebpf4jnsgd1na2vs0mg"},{"bike_id":"a61bf592-3edb-4514-a598-4dbed320a22d","system_id":"levelo_inurba_marseille","lat":43.26365,"lon":5.37801,"is_reserved":false,"is_disabled":false,"rental_uris":{"android":"levelo://app?vid=a61bf592-3edb-4514-a598-4dbed320a22d","ios":"levelo://app?vid=a61bf592-3edb-4514-a598-4dbed320a22d"},"vehicle_type_id":"4","last_reported":1718557574,"current_range_meters":9200,"station_id":"cplgtobi1sfpv39f0c9g","pricing_plan_id":"cebpf4jnsgd1na2vs0mg"},{"bike_id":"cb34033c-846e-40f0-81de-0409d1fcd70f","system_id":"levelo_inurba_marseille","lat":43.26365,"lon":5.37801,"is_reserved":false,"is_disabled":false,"rental_uris":{"android":"levelo://app?vid=cb34033c-846e-40f0-81de-0409d1fcd70f","ios":"levelo://app?vid=cb34033c-846e-40f0-81de-0409d1fcd70f"},"vehicle_type_id":"4","last_reported":1718557574,"current_range_meters":20000,"station_id":"cplgtobi1sfpv39f0c9g","pricing_plan_id":"cebpf4jnsgd1na2vs0mg"},{"bike_id":"69d5e583-bb8e-4e38-a5e7-2ebf9ec62120","system_id":"levelo_inurba_marseille","lat":43.26365,"lon":5.37801,"is_reserved":false,"is_disabled":false,"rental_uris":{"android":"levelo://app?vid=69d5e583-bb8e-4e38-a5e7-2ebf9ec62120","ios":"levelo://app?vid=69d5e583-bb8e-4e38-a5e7-2ebf9ec62120"},"vehicle_type_id":"4","last_reported":1718557574,"current_range_meters":23200,"station_id":"cplgtobi1sfpv39f0c9g","pricing_plan_id":"cebpf4jnsgd1na2vs0mg"},{"bike_id":"483fdb6d-5dff-4563-8aff-7ce2925c01d7","system_id":"levelo_inurba_marseille","lat":43.26365,"lon":5.37801,"is_reserved":false,"is_disabled":false,"rental_uris":{"android":"levelo://app?vid=483fdb6d-5dff-4563-8aff-7ce2925c01d7","ios":"levelo://app?vid=483fdb6d-5dff-4563-8aff-7ce2925c01d7"},"vehicle_type_id":"4","last_reported":1718557574,"current_range_meters":31200,"station_id":"cplgtobi1sfpv39f0c9g","pricing_plan_id":"cebpf4jnsgd1na2vs0mg"},{"bike_id":"441c31f9-6296-4ba4-b197-030d16ea0b82","system_id":"levelo_inurba_marseille","lat":43.26365,"lon":5.37801,"is_reserved":false,"is_disabled":false,"rental_uris":{"android":"levelo://app?vid=441c31f9-6296-4ba4-b197-030d16ea0b82","ios":"levelo://app?vid=441c31f9-6296-4ba4-b197-030d16ea0b82"},"vehicle_type_id":"4","last_reported":1718557574,"current_range_meters":16000,"station_id":"cplgtobi1sfpv39f0c9g","pricing_plan_id":"cebpf4jnsgd1na2vs0mg"},{"bike_id":"68d62cf8-c370-4d21-8430-b82be14c0dda","system_id":"levelo_inurba_marseille","lat":43.26365,"lon":5.37801,"is_reserved":false,"is_disabled":false,"rental_uris":{"android":"levelo://app?vid=68d62cf8-c370-4d21-8430-b82be14c0dda","ios":"levelo://app?vid=68d62cf8-c370-4d21-8430-b82be14c0dda"},"vehicle_type_id":"4","last_reported":1718557574,"current_range_meters":25600,"station_id":"cplgtobi1sfpv39f0c9g","pricing_plan_id":"cebpf4jnsgd1na2vs0mg"},{"bike_id":"e61983d7-b4a3-4969-8d39-4404b09c6460","system_id":"levelo_inurba_marseille","lat":43.26365,"lon":5.37801,"is_reserved":false,"is_disabled":false,"rental_uris":{"android":"levelo://app?vid=e61983d7-b4a3-4969-8d39-4404b09c6460","ios":"levelo://app?vid=e61983d7-b4a3-4969-8d39-4404b09c6460"},"vehicle_type_id":"4","last_reported":1718557574,"current_range_meters":31200,"station_id":"cplgtobi1sfpv39f0c9g","pricing_plan_id":"cebpf4jnsgd1na2vs0mg"},{"bike_id":"bc18331a-7265-47eb-9d72-af0bba63fc84","system_id":"levelo_inurba_marseille","lat":43.26365,"lon":5.37801,"is_reserved":false,"is_disabled":false,"rental_uris":{"android":"levelo://app?vid=bc18331a-7265-47eb-9d72-af0bba63fc84","ios":"levelo://app?vid=bc18331a-7265-47eb-9d72-af0bba63fc84"},"vehicle_type_id":"4","last_reported":1718557574,"current_range_meters":31200,"station_id":"cplgtobi1sfpv39f0c9g","pricing_plan_id":"cebpf4jnsgd1na2vs0mg"},{"bike_id":"69654814-baaf-4241-ac24-a59d27dc087f","system_id":"levelo_inurba_marseille","lat":43.26365,"lon":5.37801,"is_reserved":false,"is_disabled":false,"rental_uris":{"android":"levelo://app?vid=69654814-baaf-4241-ac24-a59d27dc087f","ios":"levelo://app?vid=69654814-baaf-4241-ac24-a59d27dc087f"},"vehicle_type_id":"4","last_reported":1718557574,"current_range_meters":30000,"station_id":"cplgtobi1sfpv39f0c9g","pricing_plan_id":"cebpf4jnsgd1na2vs0mg"},{"bike_id":"7e19d607-fda5-4d7d-867e-1e652b1b301a","system_id":"levelo_inurba_marseille","lat":43.26355,"lon":5.37825,"is_reserved":false,"is_disabled":false,"rental_uris":{"android":"levelo://app?vid=7e19d607-fda5-4d7d-867e-1e652b1b301a","ios":"levelo://app?vid=7e19d607-fda5-4d7d-867e-1e652b1b301a"},"vehicle_type_id":"4","last_reported":1718557574,"current_range_meters":2400,"station_id":"","pricing_plan_id":"cebpf4jnsgd1na2vs0mg"},{"bike_id":"4a41b591-ae6b-4528-83a5-ce751ec7cde6","system_id":"levelo_inurba_marseille","lat":43.26365,"lon":5.37801,"is_reserved":false,"is_disabled":false,"rental_uris":{"android":"levelo://app?vid=4a41b591-ae6b-4528-83a5-ce751ec7cde6","ios":"levelo://app?vid=4a41b591-ae6b-4528-83a5-ce751ec7cde6"},"vehicle_type_id":"4","last_reported":1718557574,"current_range_meters":7600,"station_id":"cplgtobi1sfpv39f0c9g","pricing_plan_id":"cebpf4jnsgd1na2vs0mg"},{"bike_id":"a5483a9a-2f70-4e83-9476-347de5c271e4","system_id":"levelo_inurba_marseille","lat":43.26365,"lon":5.37801,"is_reserved":false,"is_disabled":false,"rental_uris":{"android":"levelo://app?vid=a5483a9a-2f70-4e83-9476-347de5c271e4","ios":"levelo://app?vid=a5483a9a-2f70-4e83-9476-347de5c271e4"},"vehicle_type_id":"4","last_reported":1718557574,"current_range_meters":3200,"station_id":"cplgtobi1sfpv39f0c9g","pricing_plan_id":"cebpf4jnsgd1na2vs0mg"},{"bike_id":"cd8c8d2e-95df-4242-a705-8f094293bf38","system_id":"levelo_inurba_marseille","lat":43.26365,"lon":5.37801,"is_reserved":false,"is_disabled":false,"rental_uris":{"android":"levelo://app?vid=cd8c8d2e-95df-4242-a705-8f094293bf38","ios":"levelo://app?vid=cd8c8d2e-95df-4242-a705-8f094293bf38"},"vehicle_type_id":"4","last_reported":1718557574,"current_range_meters":13200,"station_id":"cplgtobi1sfpv39f0c9g","pricing_plan_id":"cebpf4jnsgd1na2vs0mg"},{"bike_id":"460ae10d-ecae-4a7c-aa2a-ce37ffc9a7b7","system_id":"levelo_inurba_marseille","lat":43.26365,"lon":5.37801,"is_reserved":false,"is_disabled":false,"rental_uris":{"android":"levelo://app?vid=460ae10d-ecae-4a7c-aa2a-ce37ffc9a7b7","ios":"levelo://app?vid=460ae10d-ecae-4a7c-aa2a-ce37ffc9a7b7"},"vehicle_type_id":"4","last_reported":1718557574,"current_range_meters":4400,"station_id":"cplgtobi1sfpv39f0c9g","pricing_plan_id":"cebpf4jnsgd1na2vs0mg"},{"bike_id":"d3f4379a-eddc-4b6f-bd83-36a531b00ec0","system_id":"levelo_inurba_marseille","lat":43.26365,"lon":5.37801,"is_reserved":false,"is_disabled":false,"rental_uris":{"android":"levelo://app?vid=d3f4379a-eddc-4b6f-bd83-36a531b00ec0","ios":"levelo://app?vid=d3f4379a-eddc-4b6f-bd83-36a531b00ec0"},"vehicle_type_id":"4","last_reported":1718557574,"current_range_meters":31200,"station_id":"cplgtobi1sfpv39f0c9g","pricing_plan_id":"cebpf4jnsgd1na2vs0mg"},{"bike_id":"4a464189-becf-40a4-8a1e-fed03d36cb35","system_id":"levelo_inurba_marseille","lat":43.26365,"lon":5.37801,"is_reserved":false,"is_disabled":false,"rental_uris":{"android":"levelo://app?vid=4a464189-becf-40a4-8a1e-fed03d36cb35","ios":"levelo://app?vid=4a464189-becf-40a4-8a1e-fed03d36cb35"},"vehicle_type_id":"4","last_reported":1718557574,"current_range_meters":30400,"station_id":"cplgtobi1sfpv39f0c9g","pricing_plan_id":"cebpf4jnsgd1na2vs0mg"},{"bike_id":"fa6de84b-b730-40d0-a97e-18a11c2c328d","system_id":"levelo_inurba_marseille","lat":43.26365,"lon":5.37801,"is_reserved":false,"is_disabled":false,"rental_uris":{"android":"levelo://app?vid=fa6de84b-b730-40d0-a97e-18a11c2c328d","ios":"levelo://app?vid=fa6de84b-b730-40d0-a97e-18a11c2c328d"},"vehicle_type_id":"4","last_reported":1718557574,"current_range_meters":12400,"station_id":"cplgtobi1sfpv39f0c9g","pricing_plan_id":"cebpf4jnsgd1na2vs0mg"},{"bike_id":"d2a0bb4d-147e-4aaa-bdb4-9230371f66b2","system_id":"levelo_inurba_marseille","lat":43.26365,"lon":5.37801,"is_reserved":false,"is_disabled":false,"rental_uris":{"android":"levelo://app?vid=d2a0bb4d-147e-4aaa-bdb4-9230371f66b2","ios":"levelo://app?vid=d2a0bb4d-147e-4aaa-bdb4-9230371f66b2"},"vehicle_type_id":"4","last_reported":1718557574,"current_range_meters":30800,"station_id":"cplgtobi1sfpv39f0c9g","pricing_plan_id":"cebpf4jnsgd1na2vs0mg"},{"bike_id":"0cb89345-3fd8-48c0-9f0d-e3709ab49118","system_id":"levelo_inurba_marseille","lat":43.26365,"lon":5.37801,"is_reserved":false,"is_disabled":false,"rental_uris":{"android":"levelo://app?vid=0cb89345-3fd8-48c0-9f0d-e3709ab49118","ios":"levelo://app?vid=0cb89345-3fd8-48c0-9f0d-e3709ab49118"},"vehicle_type_id":"4","last_reported":1718557574,"current_range_meters":21600,"station_id":"cplgtobi1sfpv39f0c9g","pricing_plan_id":"cebpf4jnsgd1na2vs0mg"},{"bike_id":"a9fde442-9b7a-44f5-a950-013eed3054ca","system_id":"levelo_inurba_marseille","lat":43.26365,"lon":5.37801,"is_reserved":false,"is_disabled":false,"rental_uris":{"android":"levelo://app?vid=a9fde442-9b7a-44f5-a950-013eed3054ca","ios":"levelo://app?vid=a9fde442-9b7a-44f5-a950-013eed3054ca"},"vehicle_type_id":"4","last_reported":1718557574,"current_range_meters":6000,"station_id":"cplgtobi1sfpv39f0c9g","pricing_plan_id":"cebpf4jnsgd1na2vs0mg"},{"bike_id":"e40ce408-7f21-471b-b1bb-697a243749e6","system_id":"levelo_inurba_marseille","lat":43.26365,"lon":5.37801,"is_reserved":false,"is_disabled":false,"rental_uris":{"android":"levelo://app?vid=e40ce408-7f21-471b-b1bb-697a243749e6","ios":"levelo://app?vid=e40ce408-7f21-471b-b1bb-697a243749e6"},"vehicle_type_id":"4","last_reported":1718557574,"current_range_meters":29600,"station_id":"cplgtobi1sfpv39f0c9g","pricing_plan_id":"cebpf4jnsgd1na2vs0mg"},{"bike_id":"e4c458cc-6082-4e71-87fb-e904d6464055","system_id":"levelo_inurba_marseille","lat":43.26365,"lon":5.37801,"is_reserved":false,"is_disabled":false,"rental_uris":{"android":"levelo://app?vid=e4c458cc-6082-4e71-87fb-e904d6464055","ios":"levelo://app?vid=e4c458cc-6082-4e71-87fb-e904d6464055"},"vehicle_type_id":"4","last_reported":1718557574,"current_range_meters":6800,"station_id":"cplgtobi1sfpv39f0c9g","pricing_plan_id":"cebpf4jnsgd1na2vs0mg"},{"bike_id":"bd33b75e-6b58-405b-9706-faea40201593","system_id":"levelo_inurba_marseille","lat":43.26365,"lon":5.37801,"is_reserved":false,"is_disabled":false,"rental_uris":{"android":"levelo://app?vid=bd33b75e-6b58-405b-9706-faea40201593","ios":"levelo://app?vid=bd33b75e-6b58-405b-9706-faea40201593"},"vehicle_type_id":"4","last_reported":1718557574,"current_range_meters":8400,"station_id":"cplgtobi1sfpv39f0c9g","pricing_plan_id":"cebpf4jnsgd1na2vs0mg"},{"bike_id":"a181fbeb-15ed-4639-b165-1839540c2b2d","system_id":"levelo_inurba_marseille","lat":43.26365,"lon":5.37801,"is_reserved":false,"is_disabled":false,"rental_uris":{"android":"levelo://app?vid=a181fbeb-15ed-4639-b165-1839540c2b2d","ios":"levelo://app?vid=a181fbeb-15ed-4639-b165-1839540c2b2d"},"vehicle_type_id":"4","last_reported":1718557574,"current_range_meters":31600,"station_id":"cplgtobi1sfpv39f0c9g","pricing_plan_id":"cebpf4jnsgd1na2vs0mg"},{"bike_id":"d1c65e50-7575-441d-9797-254e5daea907","system_id":"levelo_inurba_marseille","lat":43.26365,"lon":5.37801,"is_reserved":false,"is_disabled":false,"rental_uris":{"android":"levelo://app?vid=d1c65e50-7575-441d-9797-254e5daea907","ios":"levelo://app?vid=d1c65e50-7575-441d-9797-254e5daea907"},