{"last_updated":1739635765,"ttl":60,"version":"2.2","data":{"bikes":[{"bike_id":"b1589c62-efb6-4964-ade1-e2ad8e9b6ead","system_id":"levelo_inurba_marseille","lat":43.23149,"lon":5.43701,"is_reserved":false,"is_disabled":true,"rental_uris":{"android":"levelo://app?vid=b1589c62-efb6-4964-ade1-e2ad8e9b6ead","ios":"levelo://app?vid=b1589c62-efb6-4964-ade1-e2ad8e9b6ead"},"vehicle_type_id":"4","last_reported":1739635765,"current_range_meters":1600,"station_id":"ce4bhmp2rcd13ifvqgog","pricing_plan_id":"cebpf4jnsgd1na2vs0mg"},{"bike_id":"36afe8ad-90c7-46c3-931b-44b8cd5ad9d4","system_id":"levelo_inurba_marseille","lat":43.29271,"lon":5.38448,"is_reserved":false,"is_disabled":true,"rental_uris":{"android":"levelo://app?vid=36afe8ad-90c7-46c3-931b-44b8cd5ad9d4","ios":"levelo://app?vid=36afe8ad-90c7-46c3-931b-44b8cd5ad9d4"},"vehicle_type_id":"4","last_reported":1739635765,"current_range_meters":38800,"station_id":"ce4bh692rcd13ifvqea0","pricing_plan_id":"cebpf4jnsgd1na2vs0mg"},{"bike_id":"314ecb77-8b90-4fdb-aaf3-bbba8b437b8a","system_id":"levelo_inurba_marseille","lat":43.29065,"lon":5.38031,"is_reserved":false,"is_disabled":false,"rental_uris":{"android":"levelo://app?vid=314ecb77-8b90-4fdb-aaf3-bbba8b437b8a","ios":"levelo://app?vid=314ecb77-8b90-4fdb-aaf3-bbba8b437b8a"},"vehicle_type_id":"4","last_reported":1739635765,"current_range_meters":8400,"station_id":"","pricing_plan_id":"cebpf4jnsgd1na2vs0mg"},{"bike_id":"8b6abb34-00fa-4d4c-96d9-ab8d9072a112","system_id":"levelo_inurba_marseille","lat":43.28621,"lon":5.35115,"is_reserved":false,"is_disabled":false,"rental_uris":{"android":"levelo://app?vid=8b6abb34-00fa-4d4c-96d9-ab8d9072a112","ios":"levelo://app?vid=8b6abb34-00fa-4d4c-96d9-ab8d9072a112"},"vehicle_type_id":"4","last_reported":1739635765,"current_range_meters":36800,"station_id":"ce4bhch2rcd13ifvqeug","pricing_plan_id":"cebpf4jnsgd1na2vs0mg"},{"bike_id":"ebf8377f-c311-4825-9b97-c6280c2187cb","system_id":"levelo_inurba_marseille","lat":43.25872,"lon":5.39905,"is_reserved":false,"is_disabled":false,"rental_uris":{"android":"levelo://app?vid=ebf8377f-c311-4825-9b97-c6280c2187cb","ios":"levelo://app?vid=ebf8377f-c311-4825-9b97-c6280c2187cb"},"vehicle_type_id":"4","last_reported":1739635765,"current_range_meters":38800,"station_id":"ce4bhl92rcd13ifvqghg","pricing_plan_id":"cebpf4jnsgd1na2vs0mg"},{"bike_id":"aeeb603c-9e21-471f-a3b4-471a46d5c228","system_id":"levelo_inurba_marseille","lat":43.24161,"lon":5.36358,"is_reserved":false,"is_disabled":false,"rental_uris":{"android":"levelo://app?vid=aeeb603c-9e21-471f-a3b4-471a46d5c228","ios":"levelo://app?vid=aeeb603c-9e21-471f-a3b4-471a46d5c228"},"vehicle_type_id":"4","last_reported":1739635765,"current_range_meters":16400,"station_id":"cpo36qri1sfpv3e86is0","pricing_plan_id":"cebpf4jnsgd1na2vs0mg"},{"bike_id":"1d4165b9-e8af-42e7-8e88-54a0f84b4f26","system_id":"levelo_inurba_marseille","lat":43.231824,"lon":5.399856,"is_reserved":false,"is_disabled":false,"rental_uris":{"android":"levelo://app?vid=1d4165b9-e8af-42e7-8e88-54a0f84b4f26","ios":"levelo://app?vid=1d4165b9-e8af-42e7-8e88-54a0f84b4f26"},"vehicle_type_id":"4","last_reported":1739635765,"current_range_meters":24800,"station_id":"ce4bhn12rcd13ifvqgqg","pricing_plan_id":"cebpf4jnsgd1na2vs0mg"},{"bike_id":"c1e76274-801b-4893-b793-e635178d8b86","system_id":"levelo_inurba_marseille","lat":43.23962,"lon":5.36641,"is_reserved":false,"is_disabled":false,"rental_uris":{"android":"levelo://app?vid=c1e76274-801b-4893-b793-e635178d8b86","ios":"levelo://app?vid=c1e76274-801b-4893-b793-e635178d8b86"},"vehicle_type_id":"4","last_reported":1739635765,"current_range_meters":37600,"station_id":"ce4bhi12rcd13ifvqfp0","pricing_plan_id":"cebpf4jnsgd1na2vs0mg"},{"bike_id":"203e4037-83b0-4dc3-9222-51f726175749","system_id":"levelo_inurba_marseille","lat":43.27219,"lon":5.39199,"is_reserved":false,"is_disabled":false,"rental_uris":{"android":"levelo://app?vid=203e4037-83b0-4dc3-9222-51f726175749","ios":"levelo://app?vid=203e4037-83b0-4dc3-9222-51f726175749"},"vehicle_type_id":"4","last_reported":1739635765,"current_range_meters":23200,"station_id":"ce4bhhp2rcd13ifvqfm0","pricing_plan_id":"cebpf4jnsgd1na2vs0mg"},{"bike_id":"484527d8-0820-40f5-8186-1686fa6584d4","system_id":"levelo_inurba_marseille","lat":43.28291,"lon":5.35075,"is_reserved":false,"is_disabled":false,"rental_uris":{"android":"levelo://app?vid=484527d8-0820-40f5-8186-1686fa6584d4","ios":"levelo://app?vid=484527d8-0820-40f5-8186-1686fa6584d4"},"vehicle_type_id":"4","last_reported":1739635765,"current_range_meters":38800,"station_id":"ce4bhbp2rcd13ifvqerg","pricing_plan_id":"cebpf4jnsgd1na2vs0mg"},{"bike_id":"c74f8124-73dc-4bd8-a98e-9fa42c510bc4","system_id":"levelo_inurba_marseille","lat":43.23192,"lon":5.39981,"is_reserved":false,"is_disabled":false,"rental_uris":{"android":"levelo://app?vid=c74f8124-73dc-4bd8-a98e-9fa42c510bc4","ios":"levelo://app?vid=c74f8124-73dc-4bd8-a98e-9fa42c510bc4"},"vehicle_type_id":"4","last_reported":1739635765,"current_range_meters":24800,"station_id":"ce4bhn12rcd13ifvqgqg","pricing_plan_id":"cebpf4jnsgd1na2vs0mg"},{"bike_id":"7962b0b9-55c9-4b32-9fba-789e672fb423","system_id":"levelo_inurba_marseille","lat":43.24549,"lon":5.39526,"is_reserved":false,"is_disabled":false,"rental_uris":{"android":"levelo://app?vid=7962b0b9-55c9-4b32-9fba-789e672fb423","ios":"levelo://app?vid=7962b0b9-55c9-4b32-9fba-789e672fb423"},"vehicle_type_id":"4","last_reported":1739635765,"current_range_meters":36000,"station_id":"ce4bhlp2rcd13ifvqgjg","pricing_plan_id":"cebpf4jnsgd1na2vs0mg"},{"bike_id":"c7322498-81a4-46c8-b4c9-ec796bfac1e6","system_id":"levelo_inurba_marseille","lat":43.24184,"lon":5.36396,"is_reserved":false,"is_disabled":false,"rental_uris":{"android":"levelo://app?vid=c7322498-81a4-46c8-b4c9-ec796bfac1e6","ios":"levelo://app?vid=c7322498-81a4-46c8-b4c9-ec796bfac1e6"},"vehicle_type_id":"4","last_reported":1739635765,"current_range_meters":38800,"station_id":"cpo36qri1sfpv3e86is0","pricing_plan_id":"cebpf4jnsgd1na2vs0mg"},{"bike_id":"5d2484e8-d08f-4bba-ae77-36cb31e97e9b","system_id":"levelo_inurba_marseille","lat":43.29561,"lon":5.42282,"is_reserved":false,"is_disabled":false,"rental_uris":{"android":"levelo://app?vid=5d2484e8-d08f-4bba-ae77-36cb31e97e9b","ios":"levelo://app?vid=5d2484e8-d08f-4bba-ae77-36cb31e97e9b"},"vehicle_type_id":"4","last_reported":1739635765,"current_range_meters":38800,"station_id":"ce4bhph2rcd13ifvqhdg","pricing_plan_id":"cebpf4jnsgd1na2vs0mg"},{"bike_id":"6b42f4f1-2360-420a-81a5-fa8f868ac30d","system_id":"levelo_inurba_marseille","lat":43.27231,"lon":5.39007,"is_reserved":false,"is_disabled":false,"rental_uris":{"android":"levelo://app?vid=6b42f4f1-2360-420a-81a5-fa8f868ac30d","ios":"levelo://app?vid=6b42f4f1-2360-420a-81a5-fa8f868ac30d"},"vehicle_type_id":"4","last_reported":1739635765,"current_range_meters":32400,"station_id":"","pricing_plan_id":"cebpf4jnsgd1na2vs0mg"},{"bike_id":"7d466ec5-8f36-4cc5-b050-0c720b664a1d","system_id":"levelo_inurba_marseille","lat":43.28937,"lon":5.36392,"is_reserved":false,"is_disabled":false,"rental_uris":{"android":"levelo://app?vid=7d466ec5-8f36-4cc5-b050-0c720b664a1d","ios":"levelo://app?vid=7d466ec5-8f36-4cc5-b050-0c720b664a1d"},"vehicle_type_id":"4","last_reported":1739635765,"current_range_meters":33600,"station_id":"ce4bhc92rcd13ifvqetg","pricing_plan_id":"cebpf4jnsgd1na2vs0mg"},{"bike_id":"f233c3ca-aebb-4c26-b1af-7045b859bb0b","system_id":"levelo_inurba_marseille","lat":43.27064,"lon":5.4026,"is_reserved":false,"is_disabled":false,"rental_uris":{"android":"levelo://app?vid=f233c3ca-aebb-4c26-b1af-7045b859bb0b","ios":"levelo://app?vid=f233c3ca-aebb-4c26-b1af-7045b859bb0b"},"vehicle_type_id":"4","last_reported":1739635765,"current_range_meters":38800,"station_id":"ce4bhk92rcd13ifvqgc0","pricing_plan_id":"cebpf4jnsgd1na2vs0mg"},{"bike_id":"38ee850b-528a-47f1-b810-550ca5ad75d1","system_id":"levelo_inurba_marseille","lat":43.28038,"lon":5.36933,"is_reserved":false,"is_disabled":false,"rental_uris":{"android":"levelo://app?vid=38ee850b-528a-47f1-b810-550ca5ad75d1","ios":"levelo://app?vid=38ee850b-528a-47f1-b810-550ca5ad75d1"},"vehicle_type_id":"4","last_reported":1739635765,"current_range_meters":20800,"station_id":"ce4bha12rcd13ifvqef0","pricing_plan_id":"cebpf4jnsgd1na2vs0mg"},{"bike_id":"4aa8b13c-22ec-4828-9ffb-74c9b37dc584","system_id":"levelo_inurba_marseille","lat":43.28279,"lon":5.35097,"is_reserved":false,"is_disabled":false,"rental_uris":{"android":"levelo://app?vid=4aa8b13c-22ec-4828-9ffb-74c9b37dc584","ios":"levelo://app?vid=4aa8b13c-22ec-4828-9ffb-74c9b37dc584"},"vehicle_type_id":"4","last_reported":1739635765,"current_range_meters":38800,"station_id":"ce4bhbp2rcd13ifvqerg","pricing_plan_id":"cebpf4jnsgd1na2vs0mg"},{"bike_id":"b34c6303-752a-46a1-93ad-ddbc991e20b6","system_id":"levelo_inurba_marseille","lat":43.23064,"lon":5.35504,"is_reserved":false,"is_disabled":false,"rental_uris":{"android":"levelo://app?vid=b34c6303-752a-46a1-93ad-ddbc991e20b6","ios":"levelo://app?vid=b34c6303-752a-46a1-93ad-ddbc991e20b6"},"vehicle_type_id":"4","last_reported":1739635765,"current_range_meters":37600,"station_id":"cpo3342slgdg3j2ifvpg","pricing_plan_id":"cebpf4jnsgd1na2vs0mg"},{"bike_id":"0bba0432-238e-4a11-b66e-d4a8b1fcda0d","system_id":"levelo_inurba_marseille","lat":43.27053,"lon":5.40268,"is_reserved":false,"is_disabled":true,"rental_uris":{"android":"levelo://app?vid=0bba0432-238e-4a11-b66e-d4a8b1fcda0d","ios":"levelo://app?vid=0bba0432-238e-4a11-b66e-d4a8b1fcda0d"},"vehicle_type_id":"4","last_reported":1739635765,"current_range_meters":1200,"station_id":"ce4bhk92rcd13ifvqgc0","pricing_plan_id":"cebpf4jnsgd1na2vs0mg"},{"bike_id":"58f90898-7499-443b-a458-e2c59058430b","system_id":"levelo_inurba_marseille","lat":43.24085,"lon":5.37758,"is_reserved":false,"is_disabled":false,"rental_uris":{"android":"levelo://app?vid=58f90898-7499-443b-a458-e2c59058430b","ios":"levelo://app?vid=58f90898-7499-443b-a458-e2c59058430b"},"vehicle_type_id":"4","last_reported":1739635765,"current_range_meters":6800,"station_id":"ce4bhnp2rcd13ifvqgvg","pricing_plan_id":"cebpf4jnsgd1na2vs0mg"},{"bike_id":"2821d2ff-3fc8-480e-81a3-1928b04e4a1d","system_id":"levelo_inurba_marseille","lat":43.30795,"lon":5.37308,"is_reserved":false,"is_disabled":false,"rental_uris":{"android":"levelo://app?vid=2821d2ff-3fc8-480e-81a3-1928b04e4a1d","ios":"levelo://app?vid=2821d2ff-3fc8-480e-81a3-1928b04e4a1d"},"vehicle_type_id":"4","last_reported":1739635765,"current_range_meters":8400,"station_id":"","pricing_plan_id":"cebpf4jnsgd1na2vs0mg"},{"bike_id":"ff4191a0-fcf7-4041-b293-7c89b55eb58b","system_id":"levelo_inurba_marseille","lat":43.27049,"lon":5.40265,"is_reserved":false,"is_disabled":false,"rental_uris":{"android":"levelo://app?vid=ff4191a0-fcf7-4041-b293-7c89b55eb58b","ios":"levelo://app?vid=ff4191a0-fcf7-4041-b293-7c89b55eb58b"},"vehicle_type_id":"4","last_reported":1739635765,"current_range_meters":28400,"station_id":"ce4bhk92rcd13ifvqgc0","pricing_plan_id":"cebpf4jnsgd1na2vs0mg"},{"bike_id":"c976ea39-e87a-4a66-9b6b-2b3f26a04951","system_id":"levelo_inurba_marseille","lat":43.32106,"lon":5.36775,"is_reserved":false,"is_disabled":false,"rental_uris":{"android":"levelo://app?vid=c976ea39-e87a-4a66-9b6b-2b3f26a04951","ios":"levelo://app?vid=c976ea39-e87a-4a66-9b6b-2b3f26a04951"},"vehicle_type_id":"4","last_reported":1739635765,"current_range_meters":38800,"station_id":"ce4bhrh2rcd13ifvqhug","pricing_plan_id":"cebpf4jnsgd1na2vs0mg"},{"bike_id":"450b6d82-35b4-4664-ac9e-5a5828531040","system_id":"levelo_inurba_marseille","lat":43.26791,"lon":5.39414,"is_reserved":false,"is_disabled":false,"rental_uris":{"android":"levelo://app?vid=450b6d82-35b4-4664-ac9e-5a5828531040","ios":"levelo://app?vid=450b6d82-35b4-4664-ac9e-5a5828531040"},"vehicle_type_id":"4","last_reported":1739635765,"current_range_meters":30400,"station_id":"ce4bhh12rcd13ifvqfg0","pricing_plan_id":"cebpf4jnsgd1na2vs0mg"},{"bike_id":"82779f5e-0858-4903-acb2-d21a61b54d6c","system_id":"levelo_inurba_marseille","lat":43.30148,"lon":5.39893,"is_reserved":false,"is_disabled":false,"rental_uris":{"android":"levelo://app?vid=82779f5e-0858-4903-acb2-d21a61b54d6c","ios":"levelo://app?vid=82779f5e-0858-4903-acb2-d21a61b54d6c"},"vehicle_type_id":"4","last_reported":1739635765,"current_range_meters":38400,"station_id":"ce4bh0h2rcd13ifvqd40","pricing_plan_id":"cebpf4jnsgd1na2vs0mg"},{"bike_id":"1af08773-7633-4be3-a46b-a84ee7e75004","system_id":"levelo_inurba_marseille","lat":43.28612,"lon":5.35106,"is_reserved":false,"is_disabled":true,"rental_uris":{"android":"levelo://app?vid=1af08773-7633-4be3-a46b-a84ee7e75004","ios":"levelo://app?vid=1af08773-7633-4be3-a46b-a84ee7e75004"},"vehicle_type_id":"4","last_reported":1739635765,"current_range_meters":0,"station_id":"ce4bhch2rcd13ifvqeug","pricing_plan_id":"cebpf4jnsgd1na2vs0mg"},{"bike_id":"5ac1b3e9-6624-4bab-a598-45ab544a1b2f","system_id":"levelo_inurba_marseille","lat":43.2667,"lon":5.38251,"is_reserved":false,"is_disabled":false,"rental_uris":{"android":"levelo://app?vid=5ac1b3e9-6624-4bab-a598-45ab544a1b2f","ios":"levelo://app?vid=5ac1b3e9-6624-4bab-a598-45ab544a1b2f"},"vehicle_type_id":"4","last_reported":1739635765,"current_range_meters":8000,"station_id":"ce4bhg92rcd13ifvqf90","pricing_plan_id":"cebpf4jnsgd1na2vs0mg"},{"bike_id":"3c8f430a-69dc-42ac-9c2f-f9b11b63d216","system_id":"levelo_inurba_marseille","lat":43.28936,"lon":5.36636,"is_reserved":false,"is_disabled":false,"rental_uris":{"android":"levelo://app?vid=3c8f430a-69dc-42ac-9c2f-f9b11b63d216","ios":"levelo://app?vid=3c8f430a-69dc-42ac-9c2f-f9b11b63d216"},"vehicle_type_id":"4","last_reported":1739635765,"current_range_meters":39200,"station_id":"ce4bhap2rcd13ifvqek0","pricing_plan_id":"cebpf4jnsgd1na2vs0mg"},{"bike_id":"cf8e22c6-c720-44a1-b1b4-4501b70dd49d","system_id":"levelo_inurba_marseille","lat":43.29544,"lon":5.37443,"is_reserved":false,"is_disabled":false,"rental_uris":{"android":"levelo://app?vid=cf8e22c6-c720-44a1-b1b4-4501b70dd49d","ios":"levelo://app?vid=cf8e22c6-c720-44a1-b1b4-4501b70dd49d"},"vehicle_type_id":"4","last_reported":1739635765,"current_range_meters":30400,"station_id":"","pricing_plan_id":"cebpf4jnsgd1na2vs0mg"},{"bike_id":"1f0657bb-7196-41de-84fc-c834bbf90b28","system_id":"levelo_inurba_marseille","lat":43.280727,"lon":5.396568,"is_reserved":false,"is_disabled":true,"rental_uris":{"android":"levelo://app?vid=1f0657bb-7196-41de-84fc-c834bbf90b28","ios":"levelo://app?vid=1f0657bb-7196-41de-84fc-c834bbf90b28"},"vehicle_type_id":"4","last_reported":1739635765,"current_range_meters":36000,"station_id":"ce4bho12rcd13ifvqh2g","pricing_plan_id":"cebpf4jnsgd1na2vs0mg"},{"bike_id":"4085957e-a34f-48ec-8023-d0e7a9e56b71","system_id":"levelo_inurba_marseille","lat":43.2306,"lon":5.35505,"is_reserved":false,"is_disabled":false,"rental_uris":{"android":"levelo://app?vid=4085957e-a34f-48ec-8023-d0e7a9e56b71","ios":"levelo://app?vid=4085957e-a34f-48ec-8023-d0e7a9e56b71"},"vehicle_type_id":"4","last_reported":1739635765,"current_range_meters":38800,"station_id":"cpo3342slgdg3j2ifvpg","pricing_plan_id":"cebpf4jnsgd1na2vs0mg"},{"bike_id":"8a020b7d-1357-439c-8f45-b515d989ed88","system_id":"levelo_inurba_marseille","lat":43.301773,"lon":5.393535,"is_reserved":false,"is_disabled":false,"rental_uris":{"android":"levelo://app?vid=8a020b7d-1357-439c-8f45-b515d989ed88","ios":"levelo://app?vid=8a020b7d-1357-439c-8f45-b515d989ed88"},"vehicle_type_id":"4","last_reported":1739635765,"current_range_meters":30800,"station_id":"ce4bgkh2rcd13ifvqbk0","pricing_plan_id":"cebpf4jnsgd1na2vs0mg"},{"bike_id":"eb76b568-2c76-47ff-9c1c-4d8d8150add3","system_id":"levelo_inurba_marseille","lat":43.26941,"lon":5.40249,"is_reserved":false,"is_disabled":false,"rental_uris":{"android":"levelo://app?vid=eb76b568-2c76-47ff-9c1c-4d8d8150add3","ios":"levelo://app?vid=eb76b568-2c76-47ff-9c1c-4d8d8150add3"},"vehicle_type_id":"4","last_reported":1739635765,"current_range_meters":32400,"station_id":"cjm6bp8fraef2m0cb0m0","pricing_plan_id":"cebpf4jnsgd1na2vs0mg"},{"bike_id":"a422c461-92a6-4632-9acb-761556b4e936","system_id":"levelo_inurba_marseille","lat":43.27054,"lon":5.40273,"is_reserved":false,"is_disabled":false,"rental_uris":{"android":"levelo://app?vid=a422c461-92a6-4632-9acb-761556b4e936","ios":"levelo://app?vid=a422c461-92a6-4632-9acb-761556b4e936"},"vehicle_type_id":"4","last_reported":1739635765,"current_range_meters":10000,"station_id":"ce4bhk92rcd13ifvqgc0","pricing_plan_id":"cebpf4jnsgd1na2vs0mg"},{"bike_id":"66c29fd4-3841-4c9c-8562-b24915bedad8","system_id":"levelo_inurba_marseille","lat":43.28629,"lon":5.35086,"is_reserved":false,"is_disabled":false,"rental_uris":{"android":"levelo://app?vid=66c29fd4-3841-4c9c-8562-b24915bedad8","ios":"levelo://app?vid=66c29fd4-3841-4c9c-8562-b24915bedad8"},"vehicle_type_id":"4","last_reported":1739635765,"current_range_meters":38800,"station_id":"ce4bhch2rcd13ifvqeug","pricing_plan_id":"cebpf4jnsgd1na2vs0mg"},{"bike_id":"b4501870-b8ed-41e7-9c02-cfe959070884","system_id":"levelo_inurba_marseille","lat":43.24072,"lon":5.37764,"is_reserved":false,"is_disabled":false,"rental_uris":{"android":"levelo://app?vid=b4501870-b8ed-41e7-9c02-cfe959070884","ios":"levelo://app?vid=b4501870-b8ed-41e7-9c02-cfe959070884"},"vehicle_type_id":"4","last_reported":1739635765,"current_range_meters":32000,"station_id":"ce4bhnp2rcd13ifvqgvg","pricing_plan_id":"cebpf4jnsgd1na2vs0mg"},{"bike_id":"f92e748a-9f9b-4e54-8084-07e33515f3d5","system_id":"levelo_inurba_marseille","lat":43.27071,"lon":5.39347,"is_reserved":false,"is_disabled":true,"rental_uris":{"android":"levelo://app?vid=f92e748a-9f9b-4e54-8084-07e33515f3d5","ios":"levelo://app?vid=f92e748a-9f9b-4e54-8084-07e33515f3d5"},"vehicle_type_id":"4","last_reported":1739635765,"current_range_meters":0,"station_id":"","pricing_plan_id":"cebpf4jnsgd1na2vs0mg"},{"bike_id":"c3afe5e3-8eaa-481b-8bff-ab46155c8565","system_id":"levelo_inurba_marseille","lat":43.29022,"lon":5.35602,"is_reserved":false,"is_disabled":false,"rental_uris":{"android":"levelo://app?vid=c3afe5e3-8eaa-481b-8bff-ab46155c8565","ios":"levelo://app?vid=c3afe5e3-8eaa-481b-8bff-ab46155c8565"},"vehicle_type_id":"4","last_reported":1739635765,"current_range_meters":32000,"station_id":"ce4bhb92rcd13ifvqen0","pricing_plan_id":"cebpf4jnsgd1na2vs0mg"},{"bike_id":"1eb4737b-0442-46ee-87b6-1d60eed62cef","system_id":"levelo_inurba_marseille","lat":43.2668,"lon":5.38285,"is_reserved":false,"is_disabled":false,"rental_uris":{"android":"levelo://app?vid=1eb4737b-0442-46ee-87b6-1d60eed62cef","ios":"levelo://app?vid=1eb4737b-0442-46ee-87b6-1d60eed62cef"},"vehicle_type_id":"4","last_reported":1739635765,"current_range_meters":28800,"station_id":"ce4bhg92rcd13ifvqf90","pricing_plan_id":"cebpf4jnsgd1na2vs0mg"},{"bike_id":"6b291aa8-b83c-4cef-9883-156906af533b","system_id":"levelo_inurba_marseille","lat":43.27062,"lon":5.40304,"is_reserved":false,"is_disabled":false,"rental_uris":{"android":"levelo://app?vid=6b291aa8-b83c-4cef-9883-156906af533b","ios":"levelo://app?vid=6b291aa8-b83c-4cef-9883-156906af533b"},"vehicle_type_id":"4","last_reported":1739635765,"current_range_meters":8800,"station_id":"ce4bhk92rcd13ifvqgc0","pricing_plan_id":"cebpf4jnsgd1na2vs0mg"},{"bike_id":"cd1b225c-970a-4888-be4e-5cb0af2ecc20","system_id":"levelo_inurba_marseille","lat":43.26573,"lon":5.38995,"is_reserved":false,"is_disabled":false,"rental_uris":{"android":"levelo://app?vid=cd1b225c-970a-4888-be4e-5cb0af2ecc20","ios":"levelo://app?vid=cd1b225c-970a-4888-be4e-5cb0af2ecc20"},"vehicle_type_id":"4","last_reported":1739635765,"current_range_meters":6800,"station_id":"ce4bhe12rcd13ifvqf30","pricing_plan_id":"cebpf4jnsgd1na2vs0mg"},{"bike_id":"7952817a-f953-4777-b984-7a113c67295e","system_id":"levelo_inurba_marseille","lat":43.2693,"lon":5.40225,"is_reserved":false,"is_disabled":false,"rental_uris":{"android":"levelo://app?vid=7952817a-f953-4777-b984-7a113c67295e","ios":"levelo://app?vid=7952817a-f953-4777-b984-7a113c67295e"},"vehicle_type_id":"4","last_reported":1739635765,"current_range_meters":34800,"station_id":"cjm6bp8fraef2m0cb0m0","pricing_plan_id":"cebpf4jnsgd1na2vs0mg"},{"bike_id":"0335deb9-99a8-492c-b2e5-a3768e852596","system_id":"levelo_inurba_marseille","lat":43.27304,"lon":5.3911,"is_reserved":false,"is_disabled":false,"rental_uris":{"android":"levelo://app?vid=0335deb9-99a8-492c-b2e5-a3768e852596","ios":"levelo://app?vid=0335deb9-99a8-492c-b2e5-a3768e852596"},"vehicle_type_id":"4","last_reported":1739635765,"current_range_meters":16400,"station_id":"ce4bhgp2rcd13ifvqfe0","pricing_plan_id":"cebpf4jnsgd1na2vs0mg"},{"bike_id":"cd73739e-6850-4923-81be-52053efe4bcd","system_id":"levelo_inurba_marseille","lat":43.28626,"lon":5.35103,"is_reserved":false,"is_disabled":false,"rental_uris":{"android":"levelo://app?vid=cd73739e-6850-4923-81be-52053efe4bcd","ios":"levelo://app?vid=cd73739e-6850-4923-81be-52053efe4bcd"},"vehicle_type_id":"4","last_reported":1739635765,"current_range_meters":25600,"station_id":"ce4bhch2rcd13ifvqeug","pricing_plan_id":"cebpf4jnsgd1na2vs0mg"},{"bike_id":"9cf8e6d9-67b8-441b-8ab4-08ef8560d2b0","system_id":"levelo_inurba_marseille","lat":43.33514,"lon":5.35585,"is_reserved":false,"is_disabled":true,"rental_uris":{"android":"levelo://app?vid=9cf8e6d9-67b8-441b-8ab4-08ef8560d2b0","ios":"levelo://app?vid=9cf8e6d9-67b8-441b-8ab4-08ef8560d2b0"},"vehicle_type_id":"4","last_reported":1739635765,"current_range_meters":0,"station_id":"","pricing_plan_id":"cebpf4jnsgd1na2vs0mg"},{"bike_id":"f8a57208-e111-4f62-86ba-befa383606e5","system_id":"levelo_inurba_marseille","lat":43.30534,"lon":5.3843,"is_reserved":false,"is_disabled":true,"rental_uris":{"android":"levelo://app?vid=f8a57208-e111-4f62-86ba-befa383606e5","ios":"levelo://app?vid=f8a57208-e111-4f62-86ba-befa383606e5"},"vehicle_type_id":"4","last_reported":1739635765,"current_range_meters":1600,"station_id":"ce4bgg92rcd13ifvqb30","pricing_plan_id":"cebpf4jnsgd1na2vs0mg"},{"bike_id":"631d458b-9703-474f-b007-9871900d8038","system_id":"levelo_inurba_marseille","lat":43.2508,"lon":5.375517,"is_reserved":false,"is_disabled":false,"rental_uris":{"android":"levelo://app?vid=631d458b-9703-474f-b007-9871900d8038","ios":"levelo://app?vid=631d458b-9703-474f-b007-9871900d8038"},"vehicle_type_id":"4","last_reported":1739635765,"current_range_meters":7200,"station_id":"ce4bhnp2rcd13ifvqgvg","pricing_plan_id":"cebpf4jnsgd1na2vs0mg"},{"bike_id":"e83052d3-f834-4153-8159-6b1789775035","system_id":"levelo_inurba_marseille","lat":43.27379,"lon":5.36267,"is_reserved":false,"is_disabled":false,"rental_uris":{"android":"levelo://app?vid=e83052d3-f834-4153-8159-6b1789775035","ios":"levelo://app?vid=e83052d3-f834-4153-8159-6b1789775035"},"vehicle_type_id":"4","last_reported":1739635765,"current_range_meters":23200,"station_id":"ce4bhbh2rcd13ifvqeo0","pricing_plan_id":"cebpf4jnsgd1na2vs0mg"},{"bike_id":"843c1cdc-a175-42b5-be19-e1b9d6757ae2","system_id":"levelo_inurba_marseille","lat":43.24641,"lon":5.38892,"is_reserved":false,"is_disabled":false,"rental_uris":{"android":"levelo://app?vid=843c1cdc-a175-42b5-be19-e1b9d6757ae2","ios":"levelo://app?vid=843c1cdc-a175-42b5-be19-e1b9d6757ae2"},"vehicle_type_id":"4","last_reported":1739635765,"current_range_meters":19600,"station_id":"ce4bhg12rcd13ifvqf60","pricing_plan_id":"cebpf4jnsgd1na2vs0mg"},{"bike_id":"7343d203-0024-49d4-a7ac-761c631c6d5b","system_id":"levelo_inurba_marseille","lat":43.266785,"lon":5.382684,"is_reserved":false,"is_disabled":false,"rental_uris":{"android":"levelo://app?vid=7343d203-0024-49d4-a7ac-761c631c6d5b","ios":"levelo://app?vid=7343d203-0024-49d4-a7ac-761c631c6d5b"},"vehicle_type_id":"4","last_reported":1739635765,"current_range_meters":2800,"station_id":"ce4bhg92rcd13ifvqf90","pricing_plan_id":"cebpf4jnsgd1na2vs0mg"},{"bike_id":"46252e49-398c-407a-8202-f65c1512c035","system_id":"levelo_inurba_marseille","lat":43.28421,"lon":5.37509,"is_reserved":false,"is_disabled":true,"rental_uris":{"android":"levelo://app?vid=46252e49-398c-407a-8202-f65c1512c035","ios":"levelo://app?vid=46252e49-398c-407a-8202-f65c1512c035"},"vehicle_type_id":"4","last_reported":1739635765,"current_range_meters":0,"station_id":"ce4bh412rcd13ifvqds0","pricing_plan_id":"cebpf4jnsgd1na2vs0mg"},{"bike_id":"71588c79-c98d-4e6e-82da-57a486d1e55b","system_id":"levelo_inurba_marseille","lat":43.27317,"lon":5.39091,"is_reserved":false,"is_disabled":false,"rental_uris":{"android":"levelo://app?vid=71588c79-c98d-4e6e-82da-57a486d1e55b","ios":"levelo://app?vid=71588c79-c98d-4e6e-82da-57a486d1e55b"},"vehicle_type_id":"4","last_reported":1739635765,"current_range_meters":6800,"station_id":"ce4bhgp2rcd13ifvqfe0","pricing_plan_id":"cebpf4jnsgd1na2vs0mg"},{"bike_id":"51ab7186-5043-4bed-baca-73708608a302","system_id":"levelo_inurba_marseille","lat":43.29584,"lon":5.37026,"is_reserved":false,"is_disabled":true,"rental_uris":{"android":"levelo://app?vid=51ab7186-5043-4bed-baca-73708608a302","ios":"levelo://app?vid=51ab7186-5043-4bed-baca-73708608a302"},"vehicle_type_id":"4","last_reported":1739635765,"current_range_meters":0,"station_id":"","pricing_plan_id":"cebpf4jnsgd1na2vs0mg"},{"bike_id":"9fdb08b8-1ceb-474a-abf2-04c699884b4a","system_id":"levelo_inurba_marseille","lat":43.2319,"lon":5.35574,"is_reserved":false,"is_disabled":false,"rental_uris":{"android":"levelo://app?vid=9fdb08b8-1ceb-474a-abf2-04c699884b4a","ios":"levelo://app?vid=9fdb08b8-1ceb-474a-abf2-04c699884b4a"},"vehicle_type_id":"4","last_reported":1739635765,"current_range_meters":38800,"station_id":"ce4bhu92rcd13ifvqi70","pricing_plan_id":"cebpf4jnsgd1na2vs0mg"},{"bike_id":"1c320471-4448-4783-8e10-921312f08c93","system_id":"levelo_inurba_marseille","lat":43.28414,"lon":5.34986,"is_reserved":false,"is_disabled":false,"rental_uris":{"android":"levelo://app?vid=1c320471-4448-4783-8e10-921312f08c93","ios":"levelo://app?vid=1c320471-4448-4783-8e10-921312f08c93"},"vehicle_type_id":"4","last_reported":1739635765,"current_range_meters":29600,"station_id":"ce4bhbh2rcd13ifvqepg","pricing_plan_id":"cebpf4jnsgd1na2vs0mg"},{"bike_id":"24c6c6ee-33ac-40d7-8825-435e4f55ea1c","system_id":"levelo_inurba_marseille","lat":43.2757,"lon":5.3842,"is_reserved":false,"is_disabled":false,"rental_uris":{"android":"levelo://app?vid=24c6c6ee-33ac-40d7-8825-435e4f55ea1c","ios":"levelo://app?vid=24c6c6ee-33ac-40d7-8825-435e4f55ea1c"},"vehicle_type_id":"4","last_reported":1739635765,"current_range_meters":5600,"station_id":"ce4bhh92rcd13ifvqfi0","pricing_plan_id":"cebpf4jnsgd1na2vs0mg"},{"bike_id":"8691c17d-836c-47cd-9e2a-09cf1406b8ec","system_id":"levelo_inurba_marseille","lat":43.24062,"lon":5.37751,"is_reserved":false,"is_disabled":false,"rental_uris":{"android":"levelo://app?vid=8691c17d-836c-47cd-9e2a-09cf1406b8ec","ios":"levelo://app?vid=8691c17d-836c-47cd-9e2a-09cf1406b8ec"},"vehicle_type_id":"4","last_reported":1739635765,"current_range_meters":18800,"station_id":"ce4bhnp2rcd13ifvqgvg","pricing_plan_id":"cebpf4jnsgd1na2vs0mg"},{"bike_id":"9dca8569-65cd-4c24-a1ae-2178d8f29fb7","system_id":"levelo_inurba_marseille","lat":43.2954,"lon":5.39246,"is_reserved":false,"is_disabled":false,"rental_uris":{"android":"levelo://app?vid=9dca8569-65cd-4c24-a1ae-2178d8f29fb7","ios":"levelo://app?vid=9dca8569-65cd-4c24-a1ae-2178d8f29fb7"},"vehicle_type_id":"4","last_reported":1739635765,"current_range_meters":23200,"station_id":"ce4bh292rcd13ifvqdf0","pricing_plan_id":"cebpf4jnsgd1na2vs0mg"},{"bike_id":"5fbe50a8-885b-4657-b77c-df4181249707","system_id":"levelo_inurba_marseille","lat":43.30082,"lon":5.40505,"is_reserved":false,"is_disabled":false,"rental_uris":{"android":"levelo://app?vid=5fbe50a8-885b-4657-b77c-df4181249707","ios":"levelo://app?vid=5fbe50a8-885b-4657-b77c-df4181249707"},"vehicle_type_id":"4","last_reported":1739635765,"current_range_meters":33200,"station_id":"","pricing_plan_id":"cebpf4jnsgd1na2vs0mg"},{"bike_id":"c40e2cb9-b89c-4dbd-956b-535ef79f1d37","system_id":"levelo_inurba_marseille","lat":43.248118,"lon":5.374598,"is_reserved":false,"is_disabled":false,"rental_uris":{"android":"levelo://app?vid=c40e2cb9-b89c-4dbd-956b-535ef79f1d37","ios":"levelo://app?vid=c40e2cb9-b89c-4dbd-956b-535ef79f1d37"},"vehicle_type_id":"4","last_reported":1739635765,"current_range_meters":24000,"station_id":"ce4bhgh2rcd13ifvqfb0","pricing_plan_id":"cebpf4jnsgd1na2vs0mg"},{"bike_id":"8c855da0-3a8a-4448-9671-8a1bea2a2d32","system_id":"levelo_inurba_marseille","lat":43.29043,"lon":5.35929,"is_reserved":false,"is_disabled":false,"rental_uris":{"android":"levelo://app?vid=8c855da0-3a8a-4448-9671-8a1bea2a2d32","ios":"levelo://app?vid=8c855da0-3a8a-4448-9671-8a1bea2a2d32"},"vehicle_type_id":"4","last_reported":1739635765,"current_range_meters":36000,"station_id":"ce4bha92rcd13ifvqeg0","pricing_plan_id":"cebpf4jnsgd1na2vs0mg"},{"bike_id":"e6feca4f-d732-4037-a47e-a8299f1fba58","system_id":"levelo_inurba_marseille","lat":43.24167,"lon":5.36394,"is_reserved":false,"is_disabled":false,"rental_uris":{"android":"levelo://app?vid=e6feca4f-d732-4037-a47e-a8299f1fba58","ios":"levelo://app?vid=e6feca4f-d732-4037-a47e-a8299f1fba58"},"vehicle_type_id":"4","last_reported":1739635765,"current_range_meters":19200,"station_id":"cpo36qri1sfpv3e86is0","pricing_plan_id":"cebpf4jnsgd1na2vs0mg"},{"bike_id":"781d38a0-d841-4db7-9a0b-15dde44e1360","system_id":"levelo_inurba_marseille","lat":43.32657,"lon":5.40998,"is_reserved":false,"is_disabled":false,"rental_uris":{"android":"levelo://app?vid=781d38a0-d841-4db7-9a0b-15dde44e1360","ios":"levelo://app?vid=781d38a0-d841-4db7-9a0b-15dde44e1360"},"vehicle_type_id":"4","last_reported":1739635765,"current_range_meters":21600,"station_id":"ce4bhpp2rcd13ifvqhgg","pricing_plan_id":"cebpf4jnsgd1na2vs0mg"},{"bike_id":"acb44724-4345-4854-85c0-ea9f022059bb","system_id":"levelo_inurba_marseille","lat":43.2482,"lon":5.37466,"is_reserved":false,"is_disabled":false,"rental_uris":{"android":"levelo://app?vid=acb44724-4345-4854-85c0-ea9f022059bb","ios":"levelo://app?vid=acb44724-4345-4854-85c0-ea9f022059bb"},"vehicle_type_id":"4","last_reported":1739635765,"current_range_meters":38800,"station_id":"ce4bhgh2rcd13ifvqfb0","pricing_plan_id":"cebpf4jnsgd1na2vs0mg"},{"bike_id":"4afd05b5-41e1-4012-b907-304d88773920","system_id":"levelo_inurba_marseille","lat":43.23972,"lon":5.3663,"is_reserved":false,"is_disabled":false,"rental_uris":{"android":"levelo://app?vid=4afd05b5-41e1-4012-b907-304d88773920","ios":"levelo://app?vid=4afd05b5-41e1-4012-b907-304d88773920"},"vehicle_type_id":"4","last_reported":1739635765,"current_range_meters":38800,"station_id":"ce4bhi12rcd13ifvqfp0","pricing_plan_id":"cebpf4jnsgd1na2vs0mg"},{"bike_id":"67095dd8-663e-4d8c-8fb2-f5bd2e567ff7","system_id":"levelo_inurba_marseille","lat":43.28617,"lon":5.35106,"is_reserved":false,"is_disabled":false,"rental_uris":{"android":"levelo://app?vid=67095dd8-663e-4d8c-8fb2-f5bd2e567ff7","ios":"levelo://app?vid=67095dd8-663e-4d8c-8fb2-f5bd2e567ff7"},"vehicle_type_id":"4","last_reported":1739635765,"current_range_meters":17600,"station_id":"ce4bhch2rcd13ifvqeug","pricing_plan_id":"cebpf4jnsgd1na2vs0mg"},{"bike_id":"899e44e7-60b0-44a7-9ff3-d0219b681de2","system_id":"levelo_inurba_marseille","lat":43.28167,"lon":5.42643,"is_reserved":false,"is_disabled":false,"rental_uris":{"android":"levelo://app?vid=899e44e7-60b0-44a7-9ff3-d0219b681de2","ios":"levelo://app?vid=899e44e7-60b0-44a7-9ff3-d0219b681de2"},"vehicle_type_id":"4","last_reported":1739635765,"current_range_meters":34000,"station_id":"ce4bhnh2rcd13ifvqgug","pricing_plan_id":"cebpf4jnsgd1na2vs0mg"},{"bike_id":"771ee4b7-9895-4a86-a383-3c0a352dd5a3","system_id":"levelo_inurba_marseille","lat":43.27054,"lon":5.40263,"is_reserved":false,"is_disabled":false,"rental_uris":{"android":"levelo://app?vid=771ee4b7-9895-4a86-a383-3c0a352dd5a3","ios":"levelo://app?vid=771ee4b7-9895-4a86-a383-3c0a352dd5a3"},"vehicle_type_id":"4","last_reported":1739635765,"current_range_meters":32000,"station_id":"ce4bhk92rcd13ifvqgc0","pricing_plan_id":"cebpf4jnsgd1na2vs0mg"},{"bike_id":"a1dddb5a-1a08-4e09-8c16-cf07f294ccb6","system_id":"levelo_inurba_marseille","lat":43.291,"lon":5.38131,"is_reserved":false,"is_disabled":false,"rental_uris":{"android":"levelo://app?vid=a1dddb5a-1a08-4e09-8c16-cf07f294ccb6","ios":"levelo://app?vid=a1dddb5a-1a08-4e09-8c16-cf07f294ccb6"},"vehicle_type_id":"4","last_reported":1739635765,"current_range_meters":12400,"station_id":"ce4bh512rcd13ifvqe2g","pricing_plan_id":"cebpf4jnsgd1na2vs0mg"},{"bike_id":"03b02bf5-5e6d-4b1c-abfe-96890ec6cf4f","system_id":"levelo_inurba_marseille","lat":43.2842,"lon":5.34989,"is_reserved":false,"is_disabled":false,"rental_uris":{"android":"levelo://app?vid=03b02bf5-5e6d-4b1c-abfe-96890ec6cf4f","ios":"levelo://app?vid=03b02bf5-5e6d-4b1c-abfe-96890ec6cf4f"},"vehicle_type_id":"4","last_reported":1739635765,"current_range_meters":7200,"station_id":"ce4bhbh2rcd13ifvqepg","pricing_plan_id":"cebpf4jnsgd1na2vs0mg"},{"bike_id":"3bf78b66-ea80-4dd6-a953-ce06f040ab6f","system_id":"levelo_inurba_marseille","lat":43.28636,"lon":5.35062,"is_reserved":false,"is_disabled":false,"rental_uris":{"android":"levelo://app?vid=3bf78b66-ea80-4dd6-a953-ce06f040ab6f","ios":"levelo://app?vid=3bf78b66-ea80-4dd6-a953-ce06f040ab6f"},"vehicle_type_id":"4","last_reported":1739635765,"current_range_meters":12400,"station_id":"ce4bhch2rcd13ifvqeug","pricing_plan_id":"cebpf4jnsgd1na2vs0mg"},{"bike_id":"3ce3dae2-ed5f-43cb-bad9-b317ce2471d9","system_id":"levelo_inurba_marseille","lat":43.24811,"lon":5.3746,"is_reserved":false,"is_disabled":true,"rental_uris":{"android":"levelo://app?vid=3ce3dae2-ed5f-43cb-bad9-b317ce2471d9","ios":"levelo://app?vid=3ce3dae2-ed5f-43cb-bad9-b317ce2471d9"},"vehicle_type_id":"4","last_reported":1739635765,"current_range_meters":1200,"station_id":"ce4bhgh2rcd13ifvqfb0","pricing_plan_id":"cebpf4jnsgd1na2vs0mg"},{"bike_id":"b70a7950-9796-4ad2-9583-21c22b24fbb4","system_id":"levelo_inurba_marseille","lat":43.29438,"lon":5.35782,"is_reserved":false,"is_disabled":false,"rental_uris":{"android":"levelo://app?vid=b70a7950-9796-4ad2-9583-21c22b24fbb4","ios":"levelo://app?vid=b70a7950-9796-4ad2-9583-21c22b24fbb4"},"vehicle_type_id":"4","last_reported":1739635765,"current_range_meters":24000,"station_id":"","pricing_plan_id":"cebpf4jnsgd1na2vs0mg"},{"bike_id":"397f7144-3e20-4f61-9149-2720265fc375","system_id":"levelo_inurba_marseille","lat":43.24075,"lon":5.37769,"is_reserved":false,"is_disabled":false,"rental_uris":{"android":"levelo://app?vid=397f7144-3e20-4f61-9149-2720265fc375","ios":"levelo://app?vid=397f7144-3e20-4f61-9149-2720265fc375"},"vehicle_type_id":"4","last_reported":1739635765,"current_range_meters":38000,"station_id":"ce4bhnp2rcd13ifvqgvg","pricing_plan_id":"cebpf4jnsgd1na2vs0mg"},{"bike_id":"cb976fd1-127f-4e36-a203-b810fc1aa3da","system_id":"levelo_inurba_marseille","lat":43.27212,"lon":5.39195,"is_reserved":false,"is_disabled":false,"rental_uris":{"android":"levelo://app?vid=cb976fd1-127f-4e36-a203-b810fc1aa3da","ios":"levelo://app?vid=cb976fd1-127f-4e36-a203-b810fc1aa3da"},"vehicle_type_id":"4","last_reported":1739635765,"current_range_meters":31200,"station_id":"ce4bhhp2rcd13ifvqfm0","pricing_plan_id":"cebpf4jnsgd1na2vs0mg"},{"bike_id":"907da6ac-e466-4f41-bfeb-cfec118a1581","system_id":"levelo_inurba_marseille","lat":43.24811,"lon":5.37453,"is_reserved":false,"is_disabled":false,"rental_uris":{"android":"levelo://app?vid=907da6ac-e466-4f41-bfeb-cfec118a1581","ios":"levelo://app?vid=907da6ac-e466-4f41-bfeb-cfec118a1581"},"vehicle_type_id":"4","last_reported":1739635765,"current_range_meters":20000,"station_id":"ce4bhgh2rcd13ifvqfb0","pricing_plan_id":"cebpf4jnsgd1na2vs0mg"},{"bike_id":"9d7c84b1-5e85-40b5-9214-0ea5f354ecac","system_id":"levelo_inurba_marseille","lat":43.2863,"lon":5.38478,"is_reserved":false,"is_disabled":false,"rental_uris":{"android":"levelo://app?vid=9d7c84b1-5e85-40b5-9214-0ea5f354ecac","ios":"levelo://app?vid=9d7c84b1-5e85-40b5-9214-0ea5f354ecac"},"vehicle_type_id":"4","last_reported":1739635765,"current_range_meters":14800,"station_id":"","pricing_plan_id":"cebpf4jnsgd1na2vs0mg"},{"bike_id":"f502759e-b105-4a56-a150-71280fec41ba","system_id":"levelo_inurba_marseille","lat":43.24397,"lon":5.37065,"is_reserved":false,"is_disabled":false,"rental_uris":{"android":"levelo://app?vid=f502759e-b105-4a56-a150-71280fec41ba","ios":"levelo://app?vid=f502759e-b105-4a56-a150-71280fec41ba"},"vehicle_type_id":"4","last_reported":1739635765,"current_range_meters":38800,"station_id":"ce4bhhh2rcd13ifvqfk0","pricing_plan_id":"cebpf4jnsgd1na2vs0mg"},{"bike_id":"b96fc5f6-d330-45f9-9e32-37e77305f9a0","system_id":"levelo_inurba_marseille","lat":43.27315,"lon":5.39065,"is_reserved":false,"is_disabled":false,"rental_uris":{"android":"levelo://app?vid=b96fc5f6-d330-45f9-9e32-37e77305f9a0","ios":"levelo://app?vid=b96fc5f6-d330-45f9-9e32-37e77305f9a0"},"vehicle_type_id":"4","last_reported":1739635765,"current_range_meters":25600,"station_id":"ce4bhgp2rcd13ifvqfe0","pricing_plan_id":"cebpf4jnsgd1na2vs0mg"},{"bike_id":"b8b29d3e-10d0-41ca-977b-09397489df63","system_id":"levelo_inurba_marseille","lat":43.26773,"lon":5.39478,"is_reserved":false,"is_disabled":false,"rental_uris":{"android":"levelo://app?vid=b8b29d3e-10d0-41ca-977b-09397489df63","ios":"levelo://app?vid=b8b29d3e-10d0-41ca-977b-09397489df63"},"vehicle_type_id":"4","last_reported":1739635765,"current_range_meters":38800,"station_id":"ce4bhh12rcd13ifvqfg0","pricing_plan_id":"cebpf4jnsgd1na2vs0mg"},{"bike_id":"65749c4a-a3c4-47ab-9c15-c6a81b8e2ba9","system_id":"levelo_inurba_marseille","lat":43.2721,"lon":5.39212,"is_reserved":false,"is_disabled":false,"rental_uris":{"android":"levelo://app?vid=65749c4a-a3c4-47ab-9c15-c6a81b8e2ba9","ios":"levelo://app?vid=65749c4a-a3c4-47ab-9c15-c6a81b8e2ba9"},"vehicle_type_id":"4","last_reported":1739635765,"current_range_meters":28400,"station_id":"ce4bhhp2rcd13ifvqfm0","pricing_plan_id":"cebpf4jnsgd1na2vs0mg"},{"bike_id":"7a513f1c-e0b8-4e12-a7e4-4795f492f601","system_id":"levelo_inurba_marseille","lat":43.26772,"lon":5.39441,"is_reserved":false,"is_disabled":false,"rental_uris":{"android":"levelo://app?vid=7a513f1c-e0b8-4e12-a7e4-4795f492f601","ios":"levelo://app?vid=7a513f1c-e0b8-4e12-a7e4-4795f492f601"},"vehicle_type_id":"4","last_reported":1739635765,"current_range_meters":17600,"station_id":"ce4bhh12rcd13ifvqfg0","pricing_plan_id":"cebpf4jnsgd1na2vs0mg"},{"bike_id":"1846001b-c806-4d67-961a-ac787367ac3c","system_id":"levelo_inurba_marseille","lat":43.26939,"lon":5.40252,"is_reserved":false,"is_disabled":false,"rental_uris":{"android":"levelo://app?vid=1846001b-c806-4d67-961a-ac787367ac3c","ios":"levelo://app?vid=1846001b-c806-4d67-961a-ac787367ac3c"},"vehicle_type_id":"4","last_reported":1739635765,"current_range_meters":6000,"station_id":"cjm6bp8fraef2m0cb0m0","pricing_plan_id":"cebpf4jnsgd1na2vs0mg"},{"bike_id":"c5a086ad-0293-476a-8027-4da15d799c47","system_id":"levelo_inurba_marseille","lat":43.24056,"lon":5.37765,"is_reserved":false,"is_disabled":false,"rental_uris":{"android":"levelo://app?vid=c5a086ad-0293-476a-8027-4da15d799c47","ios":"levelo://app?vid=c5a086ad-0293-476a-8027-4da15d799c47"},"vehicle_type_id":"4","last_reported":1739635765,"current_range_meters":10800,"station_id":"ce4bhnp2rcd13ifvqgvg","pricing_plan_id":"cebpf4jnsgd1na2vs0mg"},{"bike_id":"afb4d76e-c8d9-4919-9d21-cffc4c268fdf","system_id":"levelo_inurba_marseille","lat":43.27375,"lon":5.36271,"is_reserved":false,"is_disabled":false,"rental_uris":{"android":"levelo://app?vid=afb4d76e-c8d9-4919-9d21-cffc4c268fdf","ios":"levelo://app?vid=afb4d76e-c8d9-4919-9d21-cffc4c268fdf"},"vehicle_type_id":"4","last_reported":1739635765,"current_range_meters":21600,"station_id":"ce4bhbh2rcd13ifvqeo0","pricing_plan_id":"cebpf4jnsgd1na2vs0mg"},{"bike_id":"10410a5f-c872-4cbc-84fb-fe2ad13b1e20","system_id":"levelo_inurba_marseille","lat":43.28417,"lon":5.34983,"is_reserved":false,"is_disabled":false,"rental_uris":{"android":"levelo://app?vid=10410a5f-c872-4cbc-84fb-fe2ad13b1e20","ios":"levelo://app?vid=10410a5f-c872-4cbc-84fb-fe2ad13b1e20"},"vehicle_type_id":"4","last_reported":1739635765,"current_range_meters":28400,"station_id":"ce4bhbh2rcd13ifvqepg","pricing_plan_id":"cebpf4jnsgd1na2vs0mg"},{"bike_id":"0d9161e0-b4e6-4d5b-bd30-b3e7569f8cf3","system_id":"levelo_inurba_marseille","lat":43.28414,"lon":5.34987,"is_reserved":false,"is_disabled":false,"rental_uris":{"android":"levelo://app?vid=0d9161e0-b4e6-4d5b-bd30-b3e7569f8cf3","ios":"levelo://app?vid=0d9161e0-b4e6-4d5b-bd30-b3e7569f8cf3"},"vehicle_type_id":"4","last_reported":1739635765,"current_range_meters":15200,"station_id":"ce4bhbh2rcd13ifvqepg","pricing_plan_id":"cebpf4jnsgd1na2vs0mg"},{"bike_id":"d2c98906-95e6-41f0-887e-addf55786d50","system_id":"levelo_inurba_marseille","lat":43.27942,"lon":5.41058,"is_reserved":false,"is_disabled":false,"rental_uris":{"android":"levelo://app?vid=d2c98906-95e6-41f0-887e-addf55786d50","ios":"levelo://app?vid=d2c98906-95e6-41f0-887e-addf55786d50"},"vehicle_type_id":"4","last_reported":1739635765,"current_range_meters":24800,"station_id":"ce4bhnp2rcd13ifvqh0g","pricing_plan_id":"cebpf4jnsgd1na2vs0mg"},{"bike_id":"72526c7a-bad2-48be-9eb5-30027376ec95","system_id":"levelo_inurba_marseille","lat":43.23196,"lon":5.35553,"is_reserved":false,"is_disabled":false,"rental_uris":{"android":"levelo://app?vid=72526c7a-bad2-48be-9eb5-30027376ec95","ios":"levelo://app?vid=72526c7a-bad2-48be-9eb5-30027376ec95"},"vehicle_type_id":"4","last_reported":1739635765,"current_range_meters":8400,"station_id":"ce4bhu92rcd13ifvqi70","pricing_plan_id":"cebpf4jnsgd1na2vs0mg"},{"bike_id":"c41aef02-ee00-4719-ba20-e911423cf410","system_id":"levelo_inurba_marseille","lat":43.29045,"lon":5.35917,"is_reserved":false,"is_disabled":false,"rental_uris":{"android":"levelo://app?vid=c41aef02-ee00-4719-ba20-e911423cf410","ios":"levelo://app?vid=c41aef02-ee00-4719-ba20-e911423cf410"},"vehicle_type_id":"4","last_reported":1739635765,"current_range_meters":39200,"station_id":"ce4bha92rcd13ifvqeg0","pricing_plan_id":"cebpf4jnsgd1na2vs0mg"},{"bike_id":"7df8b960-5d81-4dea-a9f2-24d3b2b826ea","system_id":"levelo_inurba_marseille","lat":43.27422,"lon":5.39419,"is_reserved":false,"is_disabled":false,"rental_uris":{"android":"levelo://app?vid=7df8b960-5d81-4dea-a9f2-24d3b2b826ea","ios":"levelo://app?vid=7df8b960-5d81-4dea-a9f2-24d3b2b826ea"},"vehicle_type_id":"4","last_reported":1739635765,"current_range_meters":25200,"station_id":"ce4bhdp2rcd13ifvqf20","pricing_plan_id":"cebpf4jnsgd1na2vs0mg"},{"bike_id":"b5697dda-de1d-4651-90dc-eda82800d3ee","system_id":"levelo_inurba_marseille","lat":43.27196,"lon":5.39161,"is_reserved":false,"is_disabled":false,"rental_uris":{"android":"levelo://app?vid=b5697dda-de1d-4651-90dc-eda82800d3ee","ios":"levelo://app?vid=b5697dda-de1d-4651-90dc-eda82800d3ee"},"vehicle_type_id":"4","last_reported":1739635765,"current_range_meters":39200,"station_id":"ce4bhhp2rcd13ifvqfm0","pricing_plan_id":"cebpf4jnsgd1na2vs0mg"},{"bike_id":"f43f2842-5baf-40af-8e57-8cbd642aa804","system_id":"levelo_inurba_marseille","lat":43.28469,"lon":5.35899,"is_reserved":false,"is_disabled":false,"rental_uris":{"android":"levelo://app?vid=f43f2842-5baf-40af-8e57-8cbd642aa804","ios":"levelo://app?vid=f43f2842-5baf-40af-8e57-8cbd642aa804"},"vehicle_type_id":"4","last_reported":1739635765,"current_range_meters":26800,"station_id":"ce4bhah2rcd13ifvqei0","pricing_plan_id":"cebpf4jnsgd1na2vs0mg"},{"bike_id":"03eba1d0-92c1-4e6e-a4d0-7c546f2439c0","system_id":"levelo_inurba_marseille","lat":43.337444,"lon":5.374475,"is_reserved":false,"is_disabled":true,"rental_uris":{"android":"levelo://app?vid=03eba1d0-92c1-4e6e-a4d0-7c546f2439c0","ios":"levelo://app?vid=03eba1d0-92c1-4e6e-a4d0-7c546f2439c0"},"vehicle_type_id":"4","last_reported":1739635765,"current_range_meters":0,"station_id":"","pricing_plan_id":"cebpf4jnsgd1na2vs0mg"},{"bike_id":"2b51a041-a600-4f69-92f9-b5941fc7c79e","system_id":"levelo_inurba_marseille","lat":43.28438,"lon":5.39205,"is_reserved":false,"is_disabled":true,"rental_uris":{"android":"levelo://app?vid=2b51a041-a600-4f69-92f9-b5941fc7c79e","ios":"levelo://app?vid=2b51a041-a600-4f69-92f9-b5941fc7c79e"},"vehicle_type_id":"4","last_reported":1739635765,"current_range_meters":32000,"station_id":"ce4bhoh2rcd13ifvqh5g","pricing_plan_id":"cebpf4jnsgd1na2vs0mg"},{"bike_id":"653b3681-8d49-4063-97bd-177fe11162f9","system_id":"levelo_inurba_marseille","lat":43.25487,"lon":5.3766,"is_reserved":false,"is_disabled":true,"rental_uris":{"android":"levelo://app?vid=653b3681-8d49-4063-97bd-177fe11162f9","ios":"levelo://app?vid=653b3681-8d49-4063-97bd-177fe11162f9"},"vehicle_type_id":"4","last_reported":1739635765,"current_range_meters":36800,"station_id":"ce4bhh12rcd13ifvqff0","pricing_plan_id":"cebpf4jnsgd1na2vs0mg"},{"bike_id":"832e35ce-4f6a-469e-9bf4-77cb98631969","system_id":"levelo_inurba_marseille","lat":43.29922,"lon":5.37486,"is_reserved":false,"is_disabled":false,"rental_uris":{"android":"levelo://app?vid=832e35ce-4f6a-469e-9bf4-77cb98631969","ios":"levelo://app?vid=832e35ce-4f6a-469e-9bf4-77cb98631969"},"vehicle_type_id":"4","last_reported":1739635765,"current_range_meters":27600,"station_id":"ce4bgjh2rcd13ifvqbg0","pricing_plan_id":"cebpf4jnsgd1na2vs0mg"},{"bike_id":"3341758d-d181-4d02-b02c-6161e8816e88","system_id":"levelo_inurba_marseille","lat":43.31898,"lon":5.40744,"is_reserved":false,"is_disabled":false,"rental_uris":{"android":"levelo://app?vid=3341758d-d181-4d02-b02c-6161e8816e88","ios":"levelo://app?vid=3341758d-d181-4d02-b02c-6161e8816e88"},"vehicle_type_id":"4","last_reported":1739635765,"current_range_meters":22400,"station_id":"ce4bhq12rcd13ifvqhig","pricing_plan_id":"cebpf4jnsgd1na2vs0mg"},{"bike_id":"683dd2bd-1e81-48dd-a1eb-4b7a7378e30c","system_id":"levelo_inurba_marseille","lat":43.2439,"lon":5.37055,"is_reserved":false,"is_disabled":false,"rental_uris":{"android":"levelo://app?vid=683dd2bd-1e81-48dd-a1eb-4b7a7378e30c","ios":"levelo://app?vid=683dd2bd-1e81-48dd-a1eb-4b7a7378e30c"},"vehicle_type_id":"4","last_reported":1739635765,"current_range_meters":38800,"station_id":"ce4bhhh2rcd13ifvqfk0","pricing_plan_id":"cebpf4jnsgd1na2vs0mg"},{"bike_id":"e8218258-1529-48ba-b9df-e2b6b25d8b52","system_id":"levelo_inurba_marseille","lat":43.2732,"lon":5.39093,"is_reserved":false,"is_disabled":false,"rental_uris":{"android":"levelo://app?vid=e8218258-1529-48ba-b9df-e2b6b25d8b52","ios":"levelo://app?vid=e8218258-1529-48ba-b9df-e2b6b25d8b52"},"vehicle_type_id":"4","last_reported":1739635765,"current_range_meters":37600,"station_id":"ce4bhgp2rcd13ifvqfe0","pricing_plan_id":"cebpf4jnsgd1na2vs0mg"},{"bike_id":"4c220228-7c73-4914-b0bc-9d1bbf19be4e","system_id":"levelo_inurba_marseille","lat":43.28718,"lon":5.37927,"is_reserved":false,"is_disabled":false,"rental_uris":{"android":"levelo://app?vid=4c220228-7c73-4914-b0bc-9d1bbf19be4e","ios":"levelo://app?vid=4c220228-7c73-4914-b0bc-9d1bbf19be4e"},"vehicle_type_id":"4","last_reported":1739635765,"current_range_meters":30400,"station_id":"ce4bh9p2rcd13ifvqec0","pricing_plan_id":"cebpf4jnsgd1na2vs0mg"},{"bike_id":"982f259d-d0a4-441b-9edd-679fa6bc44a7","system_id":"levelo_inurba_marseille","lat":43.26941,"lon":5.40257,"is_reserved":false,"is_disabled":false,"rental_uris":{"android":"levelo://app?vid=982f259d-d0a4-441b-9edd-679fa6bc44a7","ios":"levelo://app?vid=982f259d-d0a4-441b-9edd-679fa6bc44a7"},"vehicle_type_id":"4","last_reported":1739635765,"current_range_meters":22800,"station_id":"cjm6bp8fraef2m0cb0m0","pricing_plan_id":"cebpf4jnsgd1na2vs0mg"},{"bike_id":"769f7cc2-a797-4032-b02d-a19c0356f29e","system_id":"levelo_inurba_marseille","lat":43.28485,"lon":5.38412,"is_reserved":false,"is_disabled":false,"rental_uris":{"android":"levelo://app?vid=769f7cc2-a797-4032-b02d-a19c0356f29e","ios":"levelo://app?vid=769f7cc2-a797-4032-b02d-a19c0356f29e"},"vehicle_type_id":"4","last_reported":1739635765,"current_range_meters":25600,"station_id":"ce4bh512rcd13ifvqe3g","pricing_plan_id":"cebpf4jnsgd1na2vs0mg"},{"bike_id":"96fc873c-94ed-42b0-9d4c-cc8a057ed253","system_id":"levelo_inurba_marseille","lat":43.22936,"lon":5.35386,"is_reserved":false,"is_disabled":false,"rental_uris":{"android":"levelo://app?vid=96fc873c-94ed-42b0-9d4c-cc8a057ed253","ios":"levelo://app?vid=96fc873c-94ed-42b0-9d4c-cc8a057ed253"},"vehicle_type_id":"4","last_reported":1739635765,"current_range_meters":19200,"station_id":"cpo3532slgdg3j2ikp40","pricing_plan_id":"cebpf4jnsgd1na2vs0mg"},{"bike_id":"bd1fbd17-5ecd-4c2a-9290-d1ffd1a70214","system_id":"levelo_inurba_marseille","lat":43.29552,"lon":5.42288,"is_reserved":false,"is_disabled":false,"rental_uris":{"android":"levelo://app?vid=bd1fbd17-5ecd-4c2a-9290-d1ffd1a70214","ios":"levelo://app?vid=bd1fbd17-5ecd-4c2a-9290-d1ffd1a70214"},"vehicle_type_id":"4","last_reported":1739635765,"current_range_meters":32000,"station_id":"ce4bhph2rcd13ifvqhdg","pricing_plan_id":"cebpf4jnsgd1na2vs0mg"},{"bike_id":"e492bf36-b9da-4024-88d1-1b3161c4bdab","system_id":"levelo_inurba_marseille","lat":43.26944,"lon":5.4025,"is_reserved":false,"is_disabled":false,"rental_uris":{"android":"levelo://app?vid=e492bf36-b9da-4024-88d1-1b3161c4bdab","ios":"levelo://app?vid=e492bf36-b9da-4024-88d1-1b3161c4bdab"},"vehicle_type_id":"4","last_reported":1739635765,"current_range_meters":38800,"station_id":"cjm6bp8fraef2m0cb0m0","pricing_plan_id":"cebpf4jnsgd1na2vs0mg"},{"bike_id":"5c40fceb-d4b5-450c-90f4-ff23eb3c61ad","system_id":"levelo_inurba_marseille","lat":43.2694,"lon":5.40273,"is_reserved":false,"is_disabled":false,"rental_uris":{"android":"levelo://app?vid=5c40fceb-d4b5-450c-90f4-ff23eb3c61ad","ios":"levelo://app?vid=5c40fceb-d4b5-450c-90f4-ff23eb3c61ad"},"vehicle_type_id":"4","last_reported":1739635765,"current_range_meters":20800,"station_id":"cjm6bp8fraef2m0cb0m0","pricing_plan_id":"cebpf4jnsgd1na2vs0mg"},{"bike_id":"4f34ac20-13f8-4bff-8fa6-5425328bb98e","system_id":"levelo_inurba_marseille","lat":43.30245,"lon":5.40049,"is_reserved":false,"is_disabled":true,"rental_uris":{"android":"levelo://app?vid=4f34ac20-13f8-4bff-8fa6-5425328bb98e","ios":"levelo://app?vid=4f34ac20-13f8-4bff-8fa6-5425328bb98e"},"vehicle_type_id":"4","last_reported":1739635765,"current_range_meters":28000,"station_id":"ce4bgvh2rcd13ifvqcs0","pricing_plan_id":"cebpf4jnsgd1na2vs0mg"},{"bike_id":"68d61fa2-7f4b-4eeb-b74c-5e204efc1a9b","system_id":"levelo_inurba_marseille","lat":43.30794,"lon":5.38159,"is_reserved":false,"is_disabled":false,"rental_uris":{"android":"levelo://app?vid=68d61fa2-7f4b-4eeb-b74c-5e204efc1a9b","ios":"levelo://app?vid=68d61fa2-7f4b-4eeb-b74c-5e204efc1a9b"},"vehicle_type_id":"4","last_reported":1739635765,"current_range_meters":38000,"station_id":"ce4bgt12rcd13ifvqce0","pricing_plan_id":"cebpf4jnsgd1na2vs0mg"},{"bike_id":"06f6502b-29c0-4900-9035-074320cd546b","system_id":"levelo_inurba_marseille","lat":43.2996,"lon":5.37172,"is_reserved":false,"is_disabled":false,"rental_uris":{"android":"levelo://app?vid=06f6502b-29c0-4900-9035-074320cd546b","ios":"levelo://app?vid=06f6502b-29c0-4900-9035-074320cd546b"},"vehicle_type_id":"4","last_reported":1739635765,"current_range_meters":6400,"station_id":"ce4bgr92rcd13ifvqc7g","pricing_plan_id":"cebpf4jnsgd1na2vs0mg"},{"bike_id":"d63b7867-53a4-4bca-be72-b856d1cbea50","system_id":"levelo_inurba_marseille","lat":43.2397,"lon":5.36617,"is_reserved":false,"is_disabled":false,"rental_uris":{"android":"levelo://app?vid=d63b7867-53a4-4bca-be72-b856d1cbea50","ios":"levelo://app?vid=d63b7867-53a4-4bca-be72-b856d1cbea50"},"vehicle_type_id":"4","last_reported":1739635765,"current_range_meters":24000,"station_id":"ce4bhi12rcd13ifvqfp0","pricing_plan_id":"cebpf4jnsgd1na2vs0mg"},{"bike_id":"7ce19e4f-c127-4895-9ad8-43c92fc3fc8b","system_id":"levelo_inurba_marseille","lat":43.23062,"lon":5.35497,"is_reserved":false,"is_disabled":false,"rental_uris":{"android":"levelo://app?vid=7ce19e4f-c127-4895-9ad8-43c92fc3fc8b","ios":"levelo://app?vid=7ce19e4f-c127-4895-9ad8-43c92fc3fc8b"},"vehicle_type_id":"4","last_reported":1739635765,"current_range_meters":15200,"station_id":"cpo3342slgdg3j2ifvpg","pricing_plan_id":"cebpf4jnsgd1na2vs0mg"},{"bike_id":"6bb6fa1f-1c83-47f4-8157-14e0205b7647","system_id":"levelo_inurba_marseille","lat":43.31078,"lon":5.40106,"is_reserved":false,"is_disabled":false,"rental_uris":{"android":"levelo://app?vid=6bb6fa1f-1c83-47f4-8157-14e0205b7647","ios":"levelo://app?vid=6bb6fa1f-1c83-47f4-8157-14e0205b7647"},"vehicle_type_id":"4","last_reported":1739635765,"current_range_meters":26800,"station_id":"","pricing_plan_id":"cebpf4jnsgd1na2vs0mg"},{"bike_id":"e96535e2-2645-4898-97ce-5a7cd0a67fa2","system_id":"levelo_inurba_marseille","lat":43.25492,"lon":5.3765,"is_reserved":false,"is_disabled":true,"rental_uris":{"android":"levelo://app?vid=e96535e2-2645-4898-97ce-5a7cd0a67fa2","ios":"levelo://app?vid=e96535e2-2645-4898-97ce-5a7cd0a67fa2"},"vehicle_type_id":"4","last_reported":1739635765,"current_range_meters":0,"station_id":"ce4bhh12rcd13ifvqff0","pricing_plan_id":"cebpf4jnsgd1na2vs0mg"},{"bike_id":"3b2bde9a-e21b-4f53-b40f-a6b97bfabe92","system_id":"levelo_inurba_marseille","lat":43.290283,"lon":5.386689,"is_reserved":false,"is_disabled":false,"rental_uris":{"android":"levelo://app?vid=3b2bde9a-e21b-4f53-b40f-a6b97bfabe92","ios":"levelo://app?vid=3b2bde9a-e21b-4f53-b40f-a6b97bfabe92"},"vehicle_type_id":"4","last_reported":1739635765,"current_range_meters":16000,"station_id":"ce4bh4p2rcd13ifvqe0g","pricing_plan_id":"cebpf4jnsgd1na2vs0mg"},{"bike_id":"d4ccd934-9aa2-454a-99b4-3f200842e229","system_id":"levelo_inurba_marseille","lat":43.28422,"lon":5.34987,"is_reserved":false,"is_disabled":false,"rental_uris":{"android":"levelo://app?vid=d4ccd934-9aa2-454a-99b4-3f200842e229","ios":"levelo://app?vid=d4ccd934-9aa2-454a-99b4-3f200842e229"},"vehicle_type_id":"4","last_reported":1739635765,"current_range_meters":32000,"station_id":"ce4bhbh2rcd13ifvqepg","pricing_plan_id":"cebpf4jnsgd1na2vs0mg"},{"bike_id":"07044927-cf08-4e1e-a3d7-6ab730a0194d","system_id":"levelo_inurba_marseille","lat":43.26067,"lon":5.39392,"is_reserved":false,"is_disabled":false,"rental_uris":{"android":"levelo://app?vid=07044927-cf08-4e1e-a3d7-6ab730a0194d","ios":"levelo://app?vid=07044927-cf08-4e1e-a3d7-6ab730a0194d"},"vehicle_type_id":"4","last_reported":1739635765,"current_range_meters":38800,"station_id":"ce4bhh92rcd13ifvqfj0","pricing_plan_id":"cebpf4jnsgd1na2vs0mg"},{"bike_id":"24dc0f6a-ecd3-492b-a272-f678785c5dd7","system_id":"levelo_inurba_marseille","lat":43.29259,"lon":5.37619,"is_reserved":false,"is_disabled":false,"rental_uris":{"android":"levelo://app?vid=24dc0f6a-ecd3-492b-a272-f678785c5dd7","ios":"levelo://app?vid=24dc0f6a-ecd3-492b-a272-f678785c5dd7"},"vehicle_type_id":"4","last_reported":1739635765,"current_range_meters":22800,"station_id":"ce4bgi12rcd13ifvqb80","pricing_plan_id":"cebpf4jnsgd1na2vs0mg"},{"bike_id":"d2c39e71-c715-43da-ad16-e0841e41e63e","system_id":"levelo_inurba_marseille","lat":43.27204,"lon":5.39202,"is_reserved":false,"is_disabled":false,"rental_uris":{"android":"levelo://app?vid=d2c39e71-c715-43da-ad16-e0841e41e63e","ios":"levelo://app?vid=d2c39e71-c715-43da-ad16-e0841e41e63e"},"vehicle_type_id":"4","last_reported":1739635765,"current_range_meters":14800,"station_id":"ce4bhhp2rcd13ifvqfm0","pricing_plan_id":"cebpf4jnsgd1na2vs0mg"},{"bike_id":"fe0f12a8-8d62-4d79-b629-bda6901e6297","system_id":"levelo_inurba_marseille","lat":43.26919,"lon":5.40297,"is_reserved":false,"is_disabled":true,"rental_uris":{"android":"levelo://app?vid=fe0f12a8-8d62-4d79-b629-bda6901e6297","ios":"levelo://app?vid=fe0f12a8-8d62-4d79-b629-bda6901e6297"},"vehicle_type_id":"4","last_reported":1739635765,"current_range_meters":30800,"station_id":"cjm6bp8fraef2m0cb0m0","pricing_plan_id":"cebpf4jnsgd1na2vs0mg"},{"bike_id":"32dc0a9b-13a7-466e-a5f6-a57bb4d27511","system_id":"levelo_inurba_marseille","lat":43.28423,"lon":5.34995,"is_reserved":false,"is_disabled":false,"rental_uris":{"android":"levelo://app?vid=32dc0a9b-13a7-466e-a5f6-a57bb4d27511","ios":"levelo://app?vid=32dc0a9b-13a7-466e-a5f6-a57bb4d27511"},"vehicle_type_id":"4","last_reported":1739635765,"current_range_meters":25600,"station_id":"ce4bhbh2rcd13ifvqepg","pricing_plan_id":"cebpf4jnsgd1na2vs0mg"},{"bike_id":"6a4766da-f47f-44a3-add2-5caa7feb0290","system_id":"levelo_inurba_marseille","lat":43.26931,"lon":5.40248,"is_reserved":false,"is_disabled":false,"rental_uris":{"android":"levelo://app?vid=6a4766da-f47f-44a3-add2-5caa7feb0290","ios":"levelo://app?vid=6a4766da-f47f-44a3-add2-5caa7feb0290"},"vehicle_type_id":"4","last_reported":1739635765,"current_range_meters":24400,"station_id":"cjm6bp8fraef2m0cb0m0","pricing_plan_id":"cebpf4jnsgd1na2vs0mg"},{"bike_id":"6409fcd1-a608-4631-83f6-7474568f5ca2","system_id":"levelo_inurba_marseille","lat":43.26781,"lon":5.3943,"is_reserved":false,"is_disabled":false,"rental_uris":{"android":"levelo://app?vid=6409fcd1-a608-4631-83f6-7474568f5ca2","ios":"levelo://app?vid=6409fcd1-a608-4631-83f6-7474568f5ca2"},"vehicle_type_id":"4","last_reported":1739635765,"current_range_meters":38800,"station_id":"ce4bhh12rcd13ifvqfg0","pricing_plan_id":"cebpf4jnsgd1na2vs0mg"},{"bike_id":"e9819fb9-0251-46fb-b3ef-c34f65eb7543","system_id":"levelo_inurba_marseille","lat":43.27973,"lon":5.38746,"is_reserved":false,"is_disabled":false,"rental_uris":{"android":"levelo://app?vid=e9819fb9-0251-46fb-b3ef-c34f65eb7543","ios":"levelo://app?vid=e9819fb9-0251-46fb-b3ef-c34f65eb7543"},"vehicle_type_id":"4","last_reported":1739635765,"current_range_meters":8400,"station_id":"ce4bhg12rcd13ifvqf80","pricing_plan_id":"cebpf4jnsgd1na2vs0mg"},{"bike_id":"3923db36-24c6-4f50-b618-ff03994b2658","system_id":"levelo_inurba_marseille","lat":43.29707,"lon":5.36603,"is_reserved":false,"is_disabled":false,"rental_uris":{"android":"levelo://app?vid=3923db36-24c6-4f50-b618-ff03994b2658","ios":"levelo://app?vid=3923db36-24c6-4f50-b618-ff03994b2658"},"vehicle_type_id":"4","last_reported":1739635765,"current_range_meters":25200,"station_id":"ce4bgn12rcd13ifvqbt0","pricing_plan_id":"cebpf4jnsgd1na2vs0mg"},{"bike_id":"62f70b6a-f38b-44cb-8e22-68ff1783b807","system_id":"levelo_inurba_marseille","lat":43.28423,"lon":5.34991,"is_reserved":false,"is_disabled":false,"rental_uris":{"android":"levelo://app?vid=62f70b6a-f38b-44cb-8e22-68ff1783b807","ios":"levelo://app?vid=62f70b6a-f38b-44cb-8e22-68ff1783b807"},"vehicle_type_id":"4","last_reported":1739635765,"current_range_meters":24400,"station_id":"ce4bhbh2rcd13ifvqepg","pricing_plan_id":"cebpf4jnsgd1na2vs0mg"},{"bike_id":"65551c02-da59-4771-9239-11231c445f31","system_id":"levelo_inurba_marseille","lat":43.24389,"lon":5.37065,"is_reserved":false,"is_disabled":false,"rental_uris":{"android":"levelo://app?vid=65551c02-da59-4771-9239-11231c445f31","ios":"levelo://app?vid=65551c02-da59-4771-9239-11231c445f31"},"vehicle_type_id":"4","last_reported":1739635765,"current_range_meters":30000,"station_id":"ce4bhhh2rcd13ifvqfk0","pricing_plan_id":"cebpf4jnsgd1na2vs0mg"},{"bike_id":"c3a455b9-ccef-43ed-93bb-cff55d0d9add","system_id":"levelo_inurba_marseille","lat":43.29841,"lon":5.36279,"is_reserved":false,"is_disabled":false,"rental_uris":{"android":"levelo://app?vid=c3a455b9-ccef-43ed-93bb-cff55d0d9add","ios":"levelo://app?vid=c3a455b9-ccef-43ed-93bb-cff55d0d9add"},"vehicle_type_id":"4","last_reported":1739635765,"current_range_meters":36400,"station_id":"ce4bgpp2rcd13ifvqc3g","pricing_plan_id":"cebpf4jnsgd1na2vs0mg"},{"bike_id":"9f912eed-51aa-49cb-84a4-977637263173","system_id":"levelo_inurba_marseille","lat":43.29912,"lon":5.38051,"is_reserved":false,"is_disabled":false,"rental_uris":{"android":"levelo://app?vid=9f912eed-51aa-49cb-84a4-977637263173","ios":"levelo://app?vid=9f912eed-51aa-49cb-84a4-977637263173"},"vehicle_type_id":"4","last_reported":1739635765,"current_range_meters":22000,"station_id":"","pricing_plan_id":"cebpf4jnsgd1na2vs0mg"},{"bike_id":"09f59a1f-3e7f-4aef-850a-82f9a10ee90d","system_id":"levelo_inurba_marseille","lat":43.30932,"lon":5.40157,"is_reserved":false,"is_disabled":false,"rental_uris":{"android":"levelo://app?vid=09f59a1f-3e7f-4aef-850a-82f9a10ee90d","ios":"levelo://app?vid=09f59a1f-3e7f-4aef-850a-82f9a10ee90d"},"vehicle_type_id":"4","last_reported":1739635765,"current_range_meters":8800,"station_id":"ce4bgvp2rcd13ifvqct0","pricing_plan_id":"cebpf4jnsgd1na2vs0mg"},{"bike_id":"bf0b3e15-232d-4329-8d76-62ec2d61fd50","system_id":"levelo_inurba_marseille","lat":43.262377,"lon":5.375983,"is_reserved":false,"is_disabled":false,"rental_uris":{"android":"levelo://app?vid=bf0b3e15-232d-4329-8d76-62ec2d61fd50","ios":"levelo://app?vid=bf0b3e15-232d-4329-8d76-62ec2d61fd50"},"vehicle_type_id":"4","last_reported":1739635765,"current_range_meters":17600,"station_id":"","pricing_plan_id":"cebpf4jnsgd1na2vs0mg"},{"bike_id":"0cec2f35-d5d0-4b16-ae21-b8732725e8e7","system_id":"levelo_inurba_marseille","lat":43.32341,"lon":5.40625,"is_reserved":false,"is_disabled":false,"rental_uris":{"android":"levelo://app?vid=0cec2f35-d5d0-4b16-ae21-b8732725e8e7","ios":"levelo://app?vid=0cec2f35-d5d0-4b16-ae21-b8732725e8e7"},"vehicle_type_id":"4","last_reported":1739635765,"current_range_meters":36800,"station_id":"ce4bhq92rcd13ifvqhjg","pricing_plan_id":"cebpf4jnsgd1na2vs0mg"},{"bike_id":"30f02ae1-4839-4f72-b1fe-5145b3cd17b5","system_id":"levelo_inurba_marseille","lat":43.29082,"lon":5.3718,"is_reserved":false,"is_disabled":false,"rental_uris":{"android":"levelo://app?vid=30f02ae1-4839-4f72-b1fe-5145b3cd17b5","ios":"levelo://app?vid=30f02ae1-4839-4f72-b1fe-5145b3cd17b5"},"vehicle_type_id":"4","last_reported":1739635765,"current_range_meters":38000,"station_id":"ce4bh5p2rcd13ifvqe4g","pricing_plan_id":"cebpf4jnsgd1na2vs0mg"},{"bike_id":"afbdeb5e-6000-4bdb-b0ec-874d7a3416c1","system_id":"levelo_inurba_marseille","lat":43.26816,"lon":5.40193,"is_reserved":false,"is_disabled":false,"rental_uris":{"android":"levelo://app?vid=afbdeb5e-6000-4bdb-b0ec-874d7a3416c1","ios":"levelo://app?vid=afbdeb5e-6000-4bdb-b0ec-874d7a3416c1"},"vehicle_type_id":"4","last_reported":1739635765,"current_range_meters":21600,"station_id":"","pricing_plan_id":"cebpf4jnsgd1na2vs0mg"},{"bike_id":"5132a5d9-05b7-4f67-9744-c98d573e772a","system_id":"levelo_inurba_marseille","lat":43.28437,"lon":5.3918,"is_reserved":false,"is_disabled":false,"rental_uris":{"android":"levelo://app?vid=5132a5d9-05b7-4f67-9744-c98d573e772a","ios":"levelo://app?vid=5132a5d9-05b7-4f67-9744-c98d573e772a"},"vehicle_type_id":"4","last_reported":1739635765,"current_range_meters":38000,"station_id":"ce4bhoh2rcd13ifvqh5g","pricing_plan_id":"cebpf4jnsgd1na2vs0mg"},{"bike_id":"e22c6d4b-2fee-4634-8c56-a441013bd5a5","system_id":"levelo_inurba_marseille","lat":43.27375,"lon":5.36261,"is_reserved":false,"is_disabled":false,"rental_uris":{"android":"levelo://app?vid=e22c6d4b-2fee-4634-8c56-a441013bd5a5","ios":"levelo://app?vid=e22c6d4b-2fee-4634-8c56-a441013bd5a5"},"vehicle_type_id":"4","last_reported":1739635765,"current_range_meters":30000,"station_id":"ce4bhbh2rcd13ifvqeo0","pricing_plan_id":"cebpf4jnsgd1na2vs0mg"},{"bike_id":"53b5f8d9-591b-4722-8b93-d03568f78034","system_id":"levelo_inurba_marseille","lat":43.28468,"lon":5.35898,"is_reserved":false,"is_disabled":false,"rental_uris":{"android":"levelo://app?vid=53b5f8d9-591b-4722-8b93-d03568f78034","ios":"levelo://app?vid=53b5f8d9-591b-4722-8b93-d03568f78034"},"vehicle_type_id":"4","last_reported":1739635765,"current_range_meters":24800,"station_id":"ce4bhah2rcd13ifvqei0","pricing_plan_id":"cebpf4jnsgd1na2vs0mg"},{"bike_id":"2815f598-448e-447e-8778-1184b7cc22f4","system_id":"levelo_inurba_marseille","lat":43.29883,"lon":5.39746,"is_reserved":false,"is_disabled":false,"rental_uris":{"android":"levelo://app?vid=2815f598-448e-447e-8778-1184b7cc22f4","ios":"levelo://app?vid=2815f598-448e-447e-8778-1184b7cc22f4"},"vehicle_type_id":"4","last_reported":1739635765,"current_range_meters":38000,"station_id":"ce4bh0h2rcd13ifvqd50","pricing_plan_id":"cebpf4jnsgd1na2vs0mg"},{"bike_id":"62575c20-6242-4b5a-98a4-2d55eb262489","system_id":"levelo_inurba_marseille","lat":43.30528,"lon":5.38426,"is_reserved":false,"is_disabled":false,"rental_uris":{"android":"levelo://app?vid=62575c20-6242-4b5a-98a4-2d55eb262489","ios":"levelo://app?vid=62575c20-6242-4b5a-98a4-2d55eb262489"},"vehicle_type_id":"4","last_reported":1739635765,"current_range_meters":10000,"station_id":"ce4bgg92rcd13ifvqb30","pricing_plan_id":"cebpf4jnsgd1na2vs0mg"},{"bike_id":"f00620ae-2110-4dbd-a2e7-cd7bf13fe429","system_id":"levelo_inurba_marseille","lat":43.23191,"lon":5.40007,"is_reserved":false,"is_disabled":true,"rental_uris":{"android":"levelo://app?vid=f00620ae-2110-4dbd-a2e7-cd7bf13fe429","ios":"levelo://app?vid=f00620ae-2110-4dbd-a2e7-cd7bf13fe429"},"vehicle_type_id":"4","last_reported":1739635765,"current_range_meters":8800,"station_id":"ce4bhn12rcd13ifvqgqg","pricing_plan_id":"cebpf4jnsgd1na2vs0mg"},{"bike_id":"c0b322e1-6c7c-4f23-82b7-1aa4057d1a73","system_id":"levelo_inurba_marseille","lat":43.28625,"lon":5.35103,"is_reserved":false,"is_disabled":false,"rental_uris":{"android":"levelo://app?vid=c0b322e1-6c7c-4f23-82b7-1aa4057d1a73","ios":"levelo://app?vid=c0b322e1-6c7c-4f23-82b7-1aa4057d1a73"},"vehicle_type_id":"4","last_reported":1739635765,"current_range_meters":24400,"station_id":"ce4bhch2rcd13ifvqeug","pricing_plan_id":"cebpf4jnsgd1na2vs0mg"},{"bike_id":"a4a179d5-7de7-4bc4-bfda-76a695ce0d47","system_id":"levelo_inurba_marseille","lat":43.30251,"lon":5.40065,"is_reserved":false,"is_disabled":false,"rental_uris":{"android":"levelo://app?vid=a4a179d5-7de7-4bc4-bfda-76a695ce0d47","ios":"levelo://app?vid=a4a179d5-7de7-4bc4-bfda-76a695ce0d47"},"vehicle_type_id":"4","last_reported":1739635765,"current_range_meters":32800,"station_id":"ce4bgvh2rcd13ifvqcs0","pricing_plan_id":"cebpf4jnsgd1na2vs0mg"},{"bike_id":"ddf1d674-41d6-443f-b0f1-1da7df267862","system_id":"levelo_inurba_marseille","lat":43.230516,"lon":5.354954,"is_reserved":false,"is_disabled":false,"rental_uris":{"android":"levelo://app?vid=ddf1d674-41d6-443f-b0f1-1da7df267862","ios":"levelo://app?vid=ddf1d674-41d6-443f-b0f1-1da7df267862"},"vehicle_type_id":"4","last_reported":1739635765,"current_range_meters":20000,"station_id":"cpo3342slgdg3j2ifvpg","pricing_plan_id":"cebpf4jnsgd1na2vs0mg"},{"bike_id":"300b6025-6639-4c09-87f3-4528f603040e","system_id":"levelo_inurba_marseille","lat":43.26493,"lon":5.3955,"is_reserved":false,"is_disabled":false,"rental_uris":{"android":"levelo://app?vid=300b6025-6639-4c09-87f3-4528f603040e","ios":"levelo://app?vid=300b6025-6639-4c09-87f3-4528f603040e"},"vehicle_type_id":"4","last_reported":1739635765,"current_range_meters":39200,"station_id":"ce4bhi12rcd13ifvqfq0","pricing_plan_id":"cebpf4jnsgd1na2vs0mg"},{"bike_id":"46f7dd7f-3698-4a4b-84b6-cdfa84e75594","system_id":"levelo_inurba_marseille","lat":43.23962,"lon":5.3664,"is_reserved":false,"is_disabled":false,"rental_uris":{"android":"levelo://app?vid=46f7dd7f-3698-4a4b-84b6-cdfa84e75594","ios":"levelo://app?vid=46f7dd7f-3698-4a4b-84b6-cdfa84e75594"},"vehicle_type_id":"4","last_reported":1739635765,"current_range_meters":26800,"station_id":"ce4bhi12rcd13ifvqfp0","pricing_plan_id":"cebpf4jnsgd1na2vs0mg"},{"bike_id":"3657cb3a-8308-44c8-971b-092680d319de","system_id":"levelo_inurba_marseille","lat":43.23199,"lon":5.35547,"is_reserved":false,"is_disabled":false,"rental_uris":{"android":"levelo://app?vid=3657cb3a-8308-44c8-971b-092680d319de","ios":"levelo://app?vid=3657cb3a-8308-44c8-971b-092680d319de"},"vehicle_type_id":"4","last_reported":1739635765,"current_range_meters":13600,"station_id":"ce4bhu92rcd13ifvqi70","pricing_plan_id":"cebpf4jnsgd1na2vs0mg"},{"bike_id":"a8c8fd67-6899-4ec2-bdbc-39aaa4f5c440","system_id":"levelo_inurba_marseille","lat":43.29198,"lon":5.35804,"is_reserved":false,"is_disabled":false,"rental_uris":{"android":"levelo://app?vid=a8c8fd67-6899-4ec2-bdbc-39aaa4f5c440","ios":"levelo://app?vid=a8c8fd67-6899-4ec2-bdbc-39aaa4f5c440"},"vehicle_type_id":"4","last_reported":1739635765,"current_range_meters":34000,"station_id":"ce4bhb12rcd13ifvqel0","pricing_plan_id":"cebpf4jnsgd1na2vs0mg"},{"bike_id":"051299f7-a8d9-41a5-b2ea-d656fa7d31ae","system_id":"levelo_inurba_marseille","lat":43.27378,"lon":5.36266,"is_reserved":false,"is_disabled":false,"rental_uris":{"android":"levelo://app?vid=051299f7-a8d9-41a5-b2ea-d656fa7d31ae","ios":"levelo://app?vid=051299f7-a8d9-41a5-b2ea-d656fa7d31ae"},"vehicle_type_id":"4","last_reported":1739635765,"current_range_meters":39200,"station_id":"ce4bhbh2rcd13ifvqeo0","pricing_plan_id":"cebpf4jnsgd1na2vs0mg"},{"bike_id":"43781eb1-2889-4ba8-a4f2-208a747d81be","system_id":"levelo_inurba_marseille","lat":43.269396,"lon":5.402536,"is_reserved":false,"is_disabled":false,"rental_uris":{"android":"levelo://app?vid=43781eb1-2889-4ba8-a4f2-208a747d81be","ios":"levelo://app?vid=43781eb1-2889-4ba8-a4f2-208a747d81be"},"vehicle_type_id":"4","last_reported":1739635765,"current_range_meters":38000,"station_id":"cjm6bp8fraef2m0cb0m0","pricing_plan_id":"cebpf4jnsgd1na2vs0mg"},{"bike_id":"4bc50c17-9aeb-4487-a054-afb81c6c63dc","system_id":"levelo_inurba_marseille","lat":43.27614,"lon":5.36112,"is_reserved":false,"is_disabled":true,"rental_uris":{"android":"levelo://app?vid=4bc50c17-9aeb-4487-a054-afb81c6c63dc","ios":"levelo://app?vid=4bc50c17-9aeb-4487-a054-afb81c6c63dc"},"vehicle_type_id":"4","last_reported":1739635765,"current_range_meters":32000,"station_id":"ce4bgj92rcd13ifvqbe0","pricing_plan_id":"cebpf4jnsgd1na2vs0mg"},{"bike_id":"8b276f95-c7ed-4814-85dc-3fa4c6d25c91","system_id":"levelo_inurba_marseille","lat":43.29885,"lon":5.38109,"is_reserved":false,"is_disabled":false,"rental_uris":{"android":"levelo://app?vid=8b276f95-c7ed-4814-85dc-3fa4c6d25c91","ios":"levelo://app?vid=8b276f95-c7ed-4814-85dc-3fa4c6d25c91"},"vehicle_type_id":"4","last_reported":1739635765,"current_range_meters":34800,"station_id":"ce4bgj12rcd13ifvqbc0","pricing_plan_id":"cebpf4jnsgd1na2vs0mg"},{"bike_id":"8895c6b9-2ff5-4b09-bd25-6cbaf6cec350","system_id":"levelo_inurba_marseille","lat":43.28375,"lon":5.38637,"is_reserved":false,"is_disabled":false,"rental_uris":{"android":"levelo://app?vid=8895c6b9-2ff5-4b09-bd25-6cbaf6cec350","ios":"levelo://app?vid=8895c6b9-2ff5-4b09-bd25-6cbaf6cec350"},"vehicle_type_id":"4","last_reported":1739635765,"current_range_meters":12400,"station_id":"ce4bh492rcd13ifvqdvg","pricing_plan_id":"cebpf4jnsgd1na2vs0mg"},{"bike_id":"7c1ef472-42b4-419f-ab5c-b94d789aed3c","system_id":"levelo_inurba_marseille","lat":43.23057,"lon":5.3548,"is_reserved":false,"is_disabled":false,"rental_uris":{"android":"levelo://app?vid=7c1ef472-42b4-419f-ab5c-b94d789aed3c","ios":"levelo://app?vid=7c1ef472-42b4-419f-ab5c-b94d789aed3c"},"vehicle_type_id":"4","last_reported":1739635765,"current_range_meters":26800,"station_id":"cpo3342slgdg3j2ifvpg","pricing_plan_id":"cebpf4jnsgd1na2vs0mg"},{"bike_id":"ff89a807-7a3a-4a1c-8bb0-9ddcee53ef85","system_id":"levelo_inurba_marseille","lat":43.22929,"lon":5.35387,"is_reserved":false,"is_disabled":true,"rental_uris":{"android":"levelo://app?vid=ff89a807-7a3a-4a1c-8bb0-9ddcee53ef85","ios":"levelo://app?vid=ff89a807-7a3a-4a1c-8bb0-9ddcee53ef85"},"vehicle_type_id":"4","last_reported":1739635765,"current_range_meters":1200,"station_id":"cpo3532slgdg3j2ikp40","pricing_plan_id":"cebpf4jnsgd1na2vs0mg"},{"bike_id":"43dc5574-eed0-4b1d-9289-f32002400d84","system_id":"levelo_inurba_marseille","lat":43.24165,"lon":5.36444,"is_reserved":false,"is_disabled":false,"rental_uris":{"android":"levelo://app?vid=43dc5574-eed0-4b1d-9289-f32002400d84","ios":"levelo://app?vid=43dc5574-eed0-4b1d-9289-f32002400d84"},"vehicle_type_id":"4","last_reported":1739635765,"current_range_meters":10800,"station_id":"cpo36qri1sfpv3e86is0","pricing_plan_id":"cebpf4jnsgd1na2vs0mg"},{"bike_id":"b7675672-ea91-4212-a3c2-1e75ea117425","system_id":"levelo_inurba_marseille","lat":43.28157,"lon":5.42641,"is_reserved":false,"is_disabled":true,"rental_uris":{"android":"levelo://app?vid=b7675672-ea91-4212-a3c2-1e75ea117425","ios":"levelo://app?vid=b7675672-ea91-4212-a3c2-1e75ea117425"},"vehicle_type_id":"4","last_reported":1739635765,"current_range_meters":0,"station_id":"ce4bhnh2rcd13ifvqgug","pricing_plan_id":"cebpf4jnsgd1na2vs0mg"},{"bike_id":"90ee741f-dc36-43ba-a93f-115ce104ab5f","system_id":"levelo_inurba_marseille","lat":43.241629,"lon":5.364013,"is_reserved":false,"is_disabled":false,"rental_uris":{"android":"levelo://app?vid=90ee741f-dc36-43ba-a93f-115ce104ab5f","ios":"levelo://app?vid=90ee741f-dc36-43ba-a93f-115ce104ab5f"},"vehicle_type_id":"4","last_reported":1739635765,"current_range_meters":38800,"station_id":"cpo36qri1sfpv3e86is0","pricing_plan_id":"cebpf4jnsgd1na2vs0mg"},{"bike_id":"91e27922-e676-45ea-94da-baf83d9c520d","system_id":"levelo_inurba_marseille","lat":43.28039,"lon":5.36952,"is_reserved":false,"is_disabled":true,"rental_uris":{"android":"levelo://app?vid=91e27922-e676-45ea-94da-baf83d9c520d","ios":"levelo://app?vid=91e27922-e676-45ea-94da-baf83d9c520d"},"vehicle_type_id":"4","last_reported":1739635765,"current_range_meters":37600,"station_id":"ce4bha12rcd13ifvqef0","pricing_plan_id":"cebpf4jnsgd1na2vs0mg"},{"bike_id":"3267b8a7-1e4e-443c-a66a-46725243df34","system_id":"levelo_inurba_marseille","lat":43.337444,"lon":5.374475,"is_reserved":false,"is_disabled":false,"rental_uris":{"android":"levelo://app?vid=3267b8a7-1e4e-443c-a66a-46725243df34","ios":"levelo://app?vid=3267b8a7-1e4e-443c-a66a-46725243df34"},"vehicle_type_id":"4","last_reported":1739635765,"current_range_meters":38400,"station_id":"","pricing_plan_id":"cebpf4jnsgd1na2vs0mg"},{"bike_id":"9bcc3779-160f-4f11-a908-15bc41b1ac43","system_id":"levelo_inurba_marseille","lat":43.27987,"lon":5.40006,"is_reserved":false,"is_disabled":true,"rental_uris":{"android":"levelo://app?vid=9bcc3779-160f-4f11-a908-15bc41b1ac43","ios":"levelo://app?vid=9bcc3779-160f-4f11-a908-15bc41b1ac43"},"vehicle_type_id":"4","last_reported":1739635765,"current_range_meters":6400,"station_id":"ce4bho92rcd13ifvqh4g","pricing_plan_id":"cebpf4jnsgd1na2vs0mg"},{"bike_id":"3c64c24f-16f7-46ec-b068-15fe4ebda356","system_id":"levelo_inurba_marseille","lat":43.29493,"lon":5.36395,"is_reserved":false,"is_disabled":true,"rental_uris":{"android":"levelo://app?vid=3c64c24f-16f7-46ec-b068-15fe4ebda356","ios":"levelo://app?vid=3c64c24f-16f7-46ec-b068-15fe4ebda356"},"vehicle_type_id":"4","last_reported":1739635765,"current_range_meters":21600,"station_id":"","pricing_plan_id":"cebpf4jnsgd1na2vs0mg"},{"bike_id":"07103950-cfc8-4b51-a67a-cac3df3ef5e7","system_id":"levelo_inurba_marseille","lat":43.24073,"lon":5.37759,"is_reserved":false,"is_disabled":false,"rental_uris":{"android":"levelo://app?vid=07103950-cfc8-4b51-a67a-cac3df3ef5e7","ios":"levelo://app?vid=07103950-cfc8-4b51-a67a-cac3df3ef5e7"},"vehicle_type_id":"4","last_reported":1739635765,"current_range_meters":39200,"station_id":"ce4bhnp2rcd13ifvqgvg","pricing_plan_id":"cebpf4jnsgd1na2vs0mg"},{"bike_id":"5cb40838-294b-438d-a3a9-b244f8aff87a","system_id":"levelo_inurba_marseille","lat":43.27908,"lon":5.38015,"is_reserved":false,"is_disabled":false,"rental_uris":{"android":"levelo://app?vid=5cb40838-294b-438d-a3a9-b244f8aff87a","ios":"levelo://app?vid=5cb40838-294b-438d-a3a9-b244f8aff87a"},"vehicle_type_id":"4","last_reported":1739635765,"current_range_meters":12000,"station_id":"ce4bhf92rcd13ifvqf50","pricing_plan_id":"cebpf4jnsgd1na2vs0mg"},{"bike_id":"740497ae-9a36-4feb-b2d0-4951e2a0421c","system_id":"levelo_inurba_marseille","lat":43.28719,"lon":5.37939,"is_reserved":false,"is_disabled":false,"rental_uris":{"android":"levelo://app?vid=740497ae-9a36-4feb-b2d0-4951e2a0421c","ios":"levelo://app?vid=740497ae-9a36-4feb-b2d0-4951e2a0421c"},"vehicle_type_id":"4","last_reported":1739635765,"current_range_meters":25200,"station_id":"ce4bh9p2rcd13ifvqec0","pricing_plan_id":"cebpf4jnsgd1na2vs0mg"},{"bike_id":"f66f74df-96d8-4ce3-87c1-7f9b86778635","system_id":"levelo_inurba_marseille","lat":43.22934,"lon":5.3538,"is_reserved":false,"is_disabled":false,"rental_uris":{"android":"levelo://app?vid=f66f74df-96d8-4ce3-87c1-7f9b86778635","ios":"levelo://app?vid=f66f74df-96d8-4ce3-87c1-7f9b86778635"},"vehicle_type_id":"4","last_reported":1739635765,"current_range_meters":22400,"station_id":"cpo3532slgdg3j2ikp40","pricing_plan_id":"cebpf4jnsgd1na2vs0mg"},{"bike_id":"e031351b-efdb-4640-8255-b69e1640bbff","system_id":"levelo_inurba_marseille","lat":43.24176,"lon":5.3639,"is_reserved":false,"is_disabled":false,"rental_uris":{"android":"levelo://app?vid=e031351b-efdb-4640-8255-b69e1640bbff","ios":"levelo://app?vid=e031351b-efdb-4640-8255-b69e1640bbff"},"vehicle_type_id":"4","last_reported":1739635765,"current_range_meters":29600,"station_id":"cpo36qri1sfpv3e86is0","pricing_plan_id":"cebpf4jnsgd1na2vs0mg"},{"bike_id":"9ebb5a9d-4361-463e-bf9a-89d36f38d7f0","system_id":"levelo_inurba_marseille","lat":43.27436,"lon":5.39424,"is_reserved":false,"is_disabled":false,"rental_uris":{"android":"levelo://app?vid=9ebb5a9d-4361-463e-bf9a-89d36f38d7f0","ios":"levelo://app?vid=9ebb5a9d-4361-463e-bf9a-89d36f38d7f0"},"vehicle_type_id":"4","last_reported":1739635765,"current_range_meters":14000,"station_id":"ce4bhdp2rcd13ifvqf20","pricing_plan_id":"cebpf4jnsgd1na2vs0mg"},{"bike_id":"daeb8967-a811-4ff3-9379-3aaa5f9778aa","system_id":"levelo_inurba_marseille","lat":43.31225,"lon":5.36843,"is_reserved":false,"is_disabled":false,"rental_uris":{"android":"levelo://app?vid=daeb8967-a811-4ff3-9379-3aaa5f9778aa","ios":"levelo://app?vid=daeb8967-a811-4ff3-9379-3aaa5f9778aa"},"vehicle_type_id":"4","last_reported":1739635765,"current_range_meters":36800,"station_id":"ce4bgl92rcd13ifvqbq0","pricing_plan_id":"cebpf4jnsgd1na2vs0mg"},{"bike_id":"dbbed36c-07aa-4c39-8a16-19b27c5ae577","system_id":"levelo_inurba_marseille","lat":43.29045,"lon":5.39962,"is_reserved":false,"is_disabled":false,"rental_uris":{"android":"levelo://app?vid=dbbed36c-07aa-4c39-8a16-19b27c5ae577","ios":"levelo://app?vid=dbbed36c-07aa-4c39-8a16-19b27c5ae577"},"vehicle_type_id":"4","last_reported":1739635765,"current_range_meters":21600,"station_id":"ce4bh392rcd13ifvqdm0","pricing_plan_id":"cebpf4jnsgd1na2vs0mg"},{"bike_id":"59102c6c-1681-46a2-9d38-9c0ebbd20b58","system_id":"levelo_inurba_marseille","lat":43.27216,"lon":5.39185,"is_reserved":false,"is_disabled":false,"rental_uris":{"android":"levelo://app?vid=59102c6c-1681-46a2-9d38-9c0ebbd20b58","ios":"levelo://app?vid=59102c6c-1681-46a2-9d38-9c0ebbd20b58"},"vehicle_type_id":"4","last_reported":1739635765,"current_range_meters":39200,"station_id":"ce4bhhp2rcd13ifvqfm0","pricing_plan_id":"cebpf4jnsgd1na2vs0mg"},{"bike_id":"89e645a1-b1ed-49f5-be27-7fc5d9eb3c6a","system_id":"levelo_inurba_marseille","lat":43.26782,"lon":5.39431,"is_reserved":false,"is_disabled":false,"rental_uris":{"android":"levelo://app?vid=89e645a1-b1ed-49f5-be27-7fc5d9eb3c6a","ios":"levelo://app?vid=89e645a1-b1ed-49f5-be27-7fc5d9eb3c6a"},"vehicle_type_id":"4","last_reported":1739635765,"current_range_meters":34000,"station_id":"ce4bhh12rcd13ifvqfg0","pricing_plan_id":"cebpf4jnsgd1na2vs0mg"},{"bike_id":"d7200c34-f87b-4a12-90a0-0bb68402bf6f","system_id":"levelo_inurba_marseille","lat":43.26941,"lon":5.40256,"is_reserved":false,"is_disabled":false,"rental_uris":{"android":"levelo://app?vid=d7200c34-f87b-4a12-90a0-0bb68402bf6f","ios":"levelo://app?vid=d7200c34-f87b-4a12-90a0-0bb68402bf6f"},"vehicle_type_id":"4","last_reported":1739635765,"current_range_meters":17200,"station_id":"cjm6bp8fraef2m0cb0m0","pricing_plan_id":"cebpf4jnsgd1na2vs0mg"},{"bike_id":"11f8aac1-42a7-49d0-a3a7-77279dc100fe","system_id":"levelo_inurba_marseille","lat":43.24388,"lon":5.37058,"is_reserved":false,"is_disabled":false,"rental_uris":{"android":"levelo://app?vid=11f8aac1-42a7-49d0-a3a7-77279dc100fe","ios":"levelo://app?vid=11f8aac1-42a7-49d0-a3a7-77279dc100fe"},"vehicle_type_id":"4","last_reported":1739635765,"current_range_meters":8400,"station_id":"ce4bhhh2rcd13ifvqfk0","pricing_plan_id":"cebpf4jnsgd1na2vs0mg"},{"bike_id":"ad4af932-f51b-41b8-983b-7e431dcc24a9","system_id":"levelo_inurba_marseille","lat":43.337444,"lon":5.374475,"is_reserved":false,"is_disabled":true,"rental_uris":{"android":"levelo://app?vid=ad4af932-f51b-41b8-983b-7e431dcc24a9","ios":"levelo://app?vid=ad4af932-f51b-41b8-983b-7e431dcc24a9"},"vehicle_type_id":"4","last_reported":1739635765,"current_range_meters":0,"station_id":"","pricing_plan_id":"cebpf4jnsgd1na2vs0mg"},{"bike_id":"95d42703-1a37-4cb4-8b06-69616f6b8e6d","system_id":"levelo_inurba_marseille","lat":43.27691,"lon":5.38853,"is_reserved":false,"is_disabled":true,"rental_uris":{"android":"levelo://app?vid=95d42703-1a37-4cb4-8b06-69616f6b8e6d","ios":"levelo://app?vid=95d42703-1a37-4cb4-8b06-69616f6b8e6d"},"vehicle_type_id":"4","last_reported":1739635765,"current_range_meters":36800,"station_id":"ce4bhi12rcd13ifvqfo0","pricing_plan_id":"cebpf4jnsgd1na2vs0mg"},{"bike_id":"81bec61a-1f2c-43a9-b162-eec1d41ccf13","system_id":"levelo_inurba_marseille","lat":43.28343,"lon":5.43004,"is_reserved":false,"is_disabled":false,"rental_uris":{"android":"levelo://app?vid=81bec61a-1f2c-43a9-b162-eec1d41ccf13","ios":"levelo://app?vid=81bec61a-1f2c-43a9-b162-eec1d41ccf13"},"vehicle_type_id":"4","last_reported":1739635765,"current_range_meters":23200,"station_id":"","pricing_plan_id":"cebpf4jnsgd1na2vs0mg"},{"bike_id":"dfb8b4bf-66b7-4f69-91ef-2703e7099d0d","system_id":"levelo_inurba_marseille","lat":43.26781,"lon":5.39434,"is_reserved":false,"is_disabled":true,"rental_uris":{"android":"levelo://app?vid=dfb8b4bf-66b7-4f69-91ef-2703e7099d0d","ios":"levelo://app?vid=dfb8b4bf-66b7-4f69-91ef-2703e7099d0d"},"vehicle_type_id":"4","last_reported":1739635765,"current_range_meters":3600,"station_id":"ce4bhh12rcd13ifvqfg0","pricing_plan_id":"cebpf4jnsgd1na2vs0mg"},{"bike_id":"82c643de-385d-41af-9878-8f4d095929a9","system_id":"levelo_inurba_marseille","lat":43.28855,"lon":5.35874,"is_reserved":false,"is_disabled":false,"rental_uris":{"android":"levelo://app?vid=82c643de-385d-41af-9878-8f4d095929a9","ios":"levelo://app?vid=82c643de-385d-41af-9878-8f4d095929a9"},"vehicle_type_id":"4","last_reported":1739635765,"current_range_meters":29600,"station_id":"ce4bhb12rcd13ifvqem0","pricing_plan_id":"cebpf4jnsgd1na2vs0mg"},{"bike_id":"6ec19ad9-fd6f-4738-9b82-fc91b0b9f777","system_id":"levelo_inurba_marseille","lat":43.28956,"lon":5.36427,"is_reserved":false,"is_disabled":false,"rental_uris":{"android":"levelo://app?vid=6ec19ad9-fd6f-4738-9b82-fc91b0b9f777","ios":"levelo://app?vid=6ec19ad9-fd6f-4738-9b82-fc91b0b9f777"},"vehicle_type_id":"4","last_reported":1739635765,"current_range_meters":14400,"station_id":"ce4bhap2rcd13ifvqek0","pricing_plan_id":"cebpf4jnsgd1na2vs0mg"},{"bike_id":"aeb403d4-9cef-44b2-b32c-cb912f49efa3","system_id":"levelo_inurba_marseille","lat":43.23202,"lon":5.35548,"is_reserved":false,"is_disabled":false,"rental_uris":{"android":"levelo://app?vid=aeb403d4-9cef-44b2-b32c-cb912f49efa3","ios":"levelo://app?vid=aeb403d4-9cef-44b2-b32c-cb912f49efa3"},"vehicle_type_id":"4","last_reported":1739635765,"current_range_meters":33200,"station_id":"ce4bhu92rcd13ifvqi70","pricing_plan_id":"cebpf4jnsgd1na2vs0mg"},{"bike_id":"8dd0a8d5-4f68-4b07-8ada-ba8a3b3e47ff","system_id":"levelo_inurba_marseille","lat":43.30278,"lon":5.37708,"is_reserved":false,"is_disabled":false,"rental_uris":{"android":"levelo://app?vid=8dd0a8d5-4f68-4b07-8ada-ba8a3b3e47ff","ios":"levelo://app?vid=8dd0a8d5-4f68-4b07-8ada-ba8a3b3e47ff"},"vehicle_type_id":"4","last_reported":1739635765,"current_range_meters":25600,"station_id":"ce4bguh2rcd13ifvqcj0","pricing_plan_id":"cebpf4jnsgd1na2vs0mg"},{"bike_id":"f00a432d-6e5e-4ca0-a2b9-2ac1fcc4c4f4","system_id":"levelo_inurba_marseille","lat":43.27992,"lon":5.40036,"is_reserved":false,"is_disabled":false,"rental_uris":{"android":"levelo://app?vid=f00a432d-6e5e-4ca0-a2b9-2ac1fcc4c4f4","ios":"levelo://app?vid=f00a432d-6e5e-4ca0-a2b9-2ac1fcc4c4f4"},"vehicle_type_id":"4","last_reported":1739635765,"current_range_meters":38800,"station_id":"ce4bho92rcd13ifvqh4g","pricing_plan_id":"cebpf4jnsgd1na2vs0mg"},{"bike_id":"94100bb7-48d5-467e-8066-5ddbd9e34c32","system_id":"levelo_inurba_marseille","lat":43.28922,"lon":5.36644,"is_reserved":false,"is_disabled":false,"rental_uris":{"android":"levelo://app?vid=94100bb7-48d5-467e-8066-5ddbd9e34c32","ios":"levelo://app?vid=94100bb7-48d5-467e-8066-5ddbd9e34c32"},"vehicle_type_id":"4","last_reported":1739635765,"current_range_meters":32400,"station_id":"ce4bhap2rcd13ifvqek0","pricing_plan_id":"cebpf4jnsgd1na2vs0mg"},{"bike_id":"201b0315-f60e-45b0-a64d-ce13682f54e1","system_id":"levelo_inurba_marseille","lat":43.29048,"lon":5.35918,"is_reserved":false,"is_disabled":false,"rental_uris":{"android":"levelo://app?vid=201b0315-f60e-45b0-a64d-ce13682f54e1","ios":"levelo://app?vid=201b0315-f60e-45b0-a64d-ce13682f54e1"},"vehicle_type_id":"4","last_reported":1739635765,"current_range_meters":39200,"station_id":"ce4bha92rcd13ifvqeg0","pricing_plan_id":"cebpf4jnsgd1na2vs0mg"},{"bike_id":"63ea1146-6635-4ab9-8ded-196ccb45282d","system_id":"levelo_inurba_marseille","lat":43.23064,"lon":5.35488,"is_reserved":false,"is_disabled":false,"rental_uris":{"android":"levelo://app?vid=63ea1146-6635-4ab9-8ded-196ccb45282d","ios":"levelo://app?vid=63ea1146-6635-4ab9-8ded-196ccb45282d"},"vehicle_type_id":"4","last_reported":1739635765,"current_range_meters":16800,"station_id":"cpo3342slgdg3j2ifvpg","pricing_plan_id":"cebpf4jnsgd1na2vs0mg"},{"bike_id":"076459a0-f045-4288-b5e6-f76a8dd2fa74","system_id":"levelo_inurba_marseille","lat":43.269361,"lon":5.402547,"is_reserved":false,"is_disabled":false,"rental_uris":{"android":"levelo://app?vid=076459a0-f045-4288-b5e6-f76a8dd2fa74","ios":"levelo://app?vid=076459a0-f045-4288-b5e6-f76a8dd2fa74"},"vehicle_type_id":"4","last_reported":1739635765,"current_range_meters":18000,"station_id":"cjm6bp8fraef2m0cb0m0","pricing_plan_id":"cebpf4jnsgd1na2vs0mg"},{"bike_id":"07094cf1-ed47-4e2b-9570-44cb6d930563","system_id":"levelo_inurba_marseille","lat":43.28946,"lon":5.36419,"is_reserved":false,"is_disabled":false,"rental_uris":{"android":"levelo://app?vid=07094cf1-ed47-4e2b-9570-44cb6d930563","ios":"levelo://app?vid=07094cf1-ed47-4e2b-9570-44cb6d930563"},"vehicle_type_id":"4","last_reported":1739635765,"current_range_meters":38000,"station_id":"ce4bhc92rcd13ifvqetg","pricing_plan_id":"cebpf4jnsgd1na2vs0mg"},{"bike_id":"c7591e1c-17db-4238-8a17-f3eab2e0c098","system_id":"levelo_inurba_marseille","lat":43.31172,"lon":5.38721,"is_reserved":false,"is_disabled":false,"rental_uris":{"android":"levelo://app?vid=c7591e1c-17db-4238-8a17-f3eab2e0c098","ios":"levelo://app?vid=c7591e1c-17db-4238-8a17-f3eab2e0c098"},"vehicle_type_id":"4","last_reported":1739635765,"current_range_meters":32400,"station_id":"ce4bgv12rcd13ifvqcp0","pricing_plan_id":"cebpf4jnsgd1na2vs0mg"},{"bike_id":"21de1ad2-3a6f-44a5-8383-be3051264a64","system_id":"levelo_inurba_marseille","lat":43.28688,"lon":5.38668,"is_reserved":false,"is_disabled":false,"rental_uris":{"android":"levelo://app?vid=21de1ad2-3a6f-44a5-8383-be3051264a64","ios":"levelo://app?vid=21de1ad2-3a6f-44a5-8383-be3051264a64"},"vehicle_type_id":"4","last_reported":1739635765,"current_range_meters":30400,"station_id":"ce4bh492rcd13ifvqdug","pricing_plan_id":"cebpf4jnsgd1na2vs0mg"},{"bike_id":"caec9f61-b6a4-40a8-847e-7b907ae08f34","system_id":"levelo_inurba_marseille","lat":43.24817,"lon":5.37452,"is_reserved":false,"is_disabled":false,"rental_uris":{"android":"levelo://app?vid=caec9f61-b6a4-40a8-847e-7b907ae08f34","ios":"levelo://app?vid=caec9f61-b6a4-40a8-847e-7b907ae08f34"},"vehicle_type_id":"4","last_reported":1739635765,"current_range_meters":38800,"station_id":"ce4bhgh2rcd13ifvqfb0","pricing_plan_id":"cebpf4jnsgd1na2vs0mg"},{"bike_id":"c1665b9a-8804-49fb-a2e7-87ab5bdd8b6d","system_id":"levelo_inurba_marseille","lat":43.33731,"lon":5.39184,"is_reserved":false,"is_disabled":false,"rental_uris":{"android":"levelo://app?vid=c1665b9a-8804-49fb-a2e7-87ab5bdd8b6d","ios":"levelo://app?vid=c1665b9a-8804-49fb-a2e7-87ab5bdd8b6d"},"vehicle_type_id":"4","last_reported":1739635765,"current_range_meters":38800,"station_id":"ce4bhr92rcd13ifvqhsg","pricing_plan_id":"cebpf4jnsgd1na2vs0mg"},{"bike_id":"5c381eca-4257-4fd5-9296-339ca91bf680","system_id":"levelo_inurba_marseille","lat":43.32009,"lon":5.38175,"is_reserved":false,"is_disabled":true,"rental_uris":{"android":"levelo://app?vid=5c381eca-4257-4fd5-9296-339ca91bf680","ios":"levelo://app?vid=5c381eca-4257-4fd5-9296-339ca91bf680"},"vehicle_type_id":"4","last_reported":1739635765,"current_range_meters":400,"station_id":"ce4bhr12rcd13ifvqhpg","pricing_plan_id":"cebpf4jnsgd1na2vs0mg"},{"bike_id":"108f506c-c946-45c2-9c2d-389dba806525","system_id":"levelo_inurba_marseille","lat":43.27054,"lon":5.40267,"is_reserved":false,"is_disabled":false,"rental_uris":{"android":"levelo://app?vid=108f506c-c946-45c2-9c2d-389dba806525","ios":"levelo://app?vid=108f506c-c946-45c2-9c2d-389dba806525"},"vehicle_type_id":"4","last_reported":1739635765,"current_range_meters":12800,"station_id":"ce4bhk92rcd13ifvqgc0","pricing_plan_id":"cebpf4jnsgd1na2vs0mg"},{"bike_id":"bf9e1576-133d-4d55-afbd-83aa552bbea1","system_id":"levelo_inurba_marseille","lat":43.29621,"lon":5.37738,"is_reserved":false,"is_disabled":false,"rental_uris":{"android":"levelo://app?vid=bf9e1576-133d-4d55-afbd-83aa552bbea1","ios":"levelo://app?vid=bf9e1576-133d-4d55-afbd-83aa552bbea1"},"vehicle_type_id":"4","last_reported":1739635765,"current_range_meters":8000,"station_id":"ce4bgi92rcd13ifvqb90","pricing_plan_id":"cebpf4jnsgd1na2vs0mg"},{"bike_id":"b5ec800d-992f-42c3-9a2e-c57ad9a27c58","system_id":"levelo_inurba_marseille","lat":43.25388,"lon":5.39437,"is_reserved":false,"is_disabled":false,"rental_uris":{"android":"levelo://app?vid=b5ec800d-992f-42c3-9a2e-c57ad9a27c58","ios":"levelo://app?vid=b5ec800d-992f-42c3-9a2e-c57ad9a27c58"},"vehicle_type_id":"4","last_reported":1739635765,"current_range_meters":14400,"station_id":"ce4bhlh2rcd13ifvqgig","pricing_plan_id":"cebpf4jnsgd1na2vs0mg"},{"bike_id":"d157203c-3a5b-4bbc-9638-6eefce740d5e","system_id":"levelo_inurba_marseille","lat":43.23195,"lon":5.35557,"is_reserved":false,"is_disabled":false,"rental_uris":{"android":"levelo://app?vid=d157203c-3a5b-4bbc-9638-6eefce740d5e","ios":"levelo://app?vid=d157203c-3a5b-4bbc-9638-6eefce740d5e"},"vehicle_type_id":"4","last_reported":1739635765,"current_range_meters":24400,"station_id":"ce4bhu92rcd13ifvqi70","pricing_plan_id":"cebpf4jnsgd1na2vs0mg"},{"bike_id":"ab761f08-1e0a-4231-9bcc-bde3a6c90930","system_id":"levelo_inurba_marseille","lat":43.29961,"lon":5.41345,"is_reserved":false,"is_disabled":false,"rental_uris":{"android":"levelo://app?vid=ab761f08-1e0a-4231-9bcc-bde3a6c90930","ios":"levelo://app?vid=ab761f08-1e0a-4231-9bcc-bde3a6c90930"},"vehicle_type_id":"4","last_reported":1739635765,"current_range_meters":38800,"station_id":"ce4bhp12rcd13ifvqh9g","pricing_plan_id":"cebpf4jnsgd1na2vs0mg"},{"bike_id":"bc703baf-72de-47d6-bd3b-f784be8d5818","system_id":"levelo_inurba_marseille","lat":43.32172,"lon":5.37485,"is_reserved":false,"is_disabled":false,"rental_uris":{"android":"levelo://app?vid=bc703baf-72de-47d6-bd3b-f784be8d5818","ios":"levelo://app?vid=bc703baf-72de-47d6-bd3b-f784be8d5818"},"vehicle_type_id":"4","last_reported":1739635765,"current_range_meters":17200,"station_id":"","pricing_plan_id":"cebpf4jnsgd1na2vs0mg"},{"bike_id":"3067cc11-ea3d-4497-a8fa-3717c9b08d94","system_id":"levelo_inurba_marseille","lat":43.27326,"lon":5.39089,"is_reserved":false,"is_disabled":true,"rental_uris":{"android":"levelo://app?vid=3067cc11-ea3d-4497-a8fa-3717c9b08d94","ios":"levelo://app?vid=3067cc11-ea3d-4497-a8fa-3717c9b08d94"},"vehicle_type_id":"4","last_reported":1739635765,"current_range_meters":37600,"station_id":"ce4bhgp2rcd13ifvqfe0","pricing_plan_id":"cebpf4jnsgd1na2vs0mg"},{"bike_id":"248ccf3a-b455-4a1f-8c12-3a5bdf3be6e8","system_id":"levelo_inurba_marseille","lat":43.26934,"lon":5.40259,"is_reserved":false,"is_disabled":false,"rental_uris":{"android":"levelo://app?vid=248ccf3a-b455-4a1f-8c12-3a5bdf3be6e8","ios":"levelo://app?vid=248ccf3a-b455-4a1f-8c12-3a5bdf3be6e8"},"vehicle_type_id":"4","last_reported":1739635765,"current_range_meters":24400,"station_id":"cjm6bp8fraef2m0cb0m0","pricing_plan_id":"cebpf4jnsgd1na2vs0mg"},{"bike_id":"6a2bb3c9-0567-4da7-8fd1-380f62448aab","system_id":"levelo_inurba_marseille","lat":43.22935,"lon":5.35383,"is_reserved":false,"is_disabled":false,"rental_uris":{"android":"levelo://app?vid=6a2bb3c9-0567-4da7-8fd1-380f62448aab","ios":"levelo://app?vid=6a2bb3c9-0567-4da7-8fd1-380f62448aab"},"vehicle_type_id":"4","last_reported":1739635765,"current_range_meters":20000,"station_id":"cpo3532slgdg3j2ikp40","pricing_plan_id":"cebpf4jnsgd1na2vs0mg"},{"bike_id":"3296016b-d78b-450b-8128-2d0dd1e5d41b","system_id":"levelo_inurba_marseille","lat":43.24652,"lon":5.38902,"is_reserved":false,"is_disabled":false,"rental_uris":{"android":"levelo://app?vid=3296016b-d78b-450b-8128-2d0dd1e5d41b","ios":"levelo://app?vid=3296016b-d78b-450b-8128-2d0dd1e5d41b"},"vehicle_type_id":"4","last_reported":1739635765,"current_range_meters":38800,"station_id":"ce4bhg12rcd13ifvqf60","pricing_plan_id":"cebpf4jnsgd1na2vs0mg"},{"bike_id":"c966c1ce-0fbe-48df-83a8-da2401316a21","system_id":"levelo_inurba_marseille","lat":43.2894,"lon":5.36411,"is_reserved":false,"is_disabled":false,"rental_uris":{"android":"levelo://app?vid=c966c1ce-0fbe-48df-83a8-da2401316a21","ios":"levelo://app?vid=c966c1ce-0fbe-48df-83a8-da2401316a21"},"vehicle_type_id":"4","last_reported":1739635765,"current_range_meters":10800,"station_id":"ce4bhc92rcd13ifvqetg","pricing_plan_id":"cebpf4jnsgd1na2vs0mg"},{"bike_id":"d80860fa-7cf7-4ae7-befb-26e8065381a1","system_id":"levelo_inurba_marseille","lat":43.23193,"lon":5.35549,"is_reserved":false,"is_disabled":false,"rental_uris":{"android":"levelo://app?vid=d80860fa-7cf7-4ae7-befb-26e8065381a1","ios":"levelo://app?vid=d80860fa-7cf7-4ae7-befb-26e8065381a1"},"vehicle_type_id":"4","last_reported":1739635765,"current_range_meters":21600,"station_id":"ce4bhu92rcd13ifvqi70","pricing_plan_id":"cebpf4jnsgd1na2vs0mg"},{"bike_id":"105d9f63-3158-4a58-8927-d8e5c0881db6","system_id":"levelo_inurba_marseille","lat":43.31712,"lon":5.43709,"is_reserved":false,"is_disabled":false,"rental_uris":{"android":"levelo://app?vid=105d9f63-3158-4a58-8927-d8e5c0881db6","ios":"levelo://app?vid=105d9f63-3158-4a58-8927-d8e5c0881db6"},"vehicle_type_id":"4","last_reported":1739635765,"current_range_meters":39200,"station_id":"ce4bhp92rcd13ifvqhcg","pricing_plan_id":"cebpf4jnsgd1na2vs0mg"},{"bike_id":"efdcf86b-27f1-4859-afbd-0ed196907f69","system_id":"levelo_inurba_marseille","lat":43.2603,"lon":5.37555,"is_reserved":false,"is_disabled":false,"rental_uris":{"android":"levelo://app?vid=efdcf86b-27f1-4859-afbd-0ed196907f69","ios":"levelo://app?vid=efdcf86b-27f1-4859-afbd-0ed196907f69"},"vehicle_type_id":"4","last_reported":1739635765,"current_range_meters":23200,"station_id":"ce4bhgh2rcd13ifvqfa0","pricing_plan_id":"cebpf4jnsgd1na2vs0mg"},{"bike_id":"47ef3a27-cf04-4369-bc44-2fee4bbfaa10","system_id":"levelo_inurba_marseille","lat":43.24712,"lon":5.38175,"is_reserved":false,"is_disabled":true,"rental_uris":{"android":"levelo://app?vid=47ef3a27-cf04-4369-bc44-2fee4bbfaa10","ios":"levelo://app?vid=47ef3a27-cf04-4369-bc44-2fee4bbfaa10"},"vehicle_type_id":"4","last_reported":1739635765,"current_range_meters":13600,"station_id":"ce4bhih2rcd13ifvqfr0","pricing_plan_id":"cebpf4jnsgd1na2vs0mg"},{"bike_id":"102faded-26f9-4ebc-b701-33d277912a5a","system_id":"levelo_inurba_marseille","lat":43.2439,"lon":5.37055,"is_reserved":false,"is_disabled":false,"rental_uris":{"android":"levelo://app?vid=102faded-26f9-4ebc-b701-33d277912a5a","ios":"levelo://app?vid=102faded-26f9-4ebc-b701-33d277912a5a"},"vehicle_type_id":"4","last_reported":1739635765,"current_range_meters":38800,"station_id":"ce4bhhh2rcd13ifvqfk0","pricing_plan_id":"cebpf4jnsgd1na2vs0mg"},{"bike_id":"ce4f4277-5b34-4550-a49e-20c07d7f8834","system_id":"levelo_inurba_marseille","lat":43.22937,"lon":5.35383,"is_reserved":false,"is_disabled":false,"rental_uris":{"android":"levelo://app?vid=ce4f4277-5b34-4550-a49e-20c07d7f8834","ios":"levelo://app?vid=ce4f4277-5b34-4550-a49e-20c07d7f8834"},"vehicle_type_id":"4","last_reported":1739635765,"current_range_meters":17600,"station_id":"cpo3532slgdg3j2ikp40","pricing_plan_id":"cebpf4jnsgd1na2vs0mg"},{"bike_id":"4972cd35-940a-440b-b824-461ef889e80c","system_id":"levelo_inurba_marseille","lat":43.28136,"lon":5.42671,"is_reserved":false,"is_disabled":false,"rental_uris":{"android":"levelo://app?vid=4972cd35-940a-440b-b824-461ef889e80c","ios":"levelo://app?vid=4972cd35-940a-440b-b824-461ef889e80c"},"vehicle_type_id":"4","last_reported":1739635765,"current_range_meters":30000,"station_id":"ce4bhnh2rcd13ifvqgug","pricing_plan_id":"cebpf4jnsgd1na2vs0mg"},{"bike_id":"70b7ec9d-1a71-4376-885d-6d0d24ac96c9","system_id":"levelo_inurba_marseille","lat":43.27421,"lon":5.39424,"is_reserved":false,"is_disabled":false,"rental_uris":{"android":"levelo://app?vid=70b7ec9d-1a71-4376-885d-6d0d24ac96c9","ios":"levelo://app?vid=70b7ec9d-1a71-4376-885d-6d0d24ac96c9"},"vehicle_type_id":"4","last_reported":1739635765,"current_range_meters":31200,"station_id":"ce4bhdp2rcd13ifvqf20","pricing_plan_id":"cebpf4jnsgd1na2vs0mg"},{"bike_id":"33df571b-22d0-4619-bb6a-f80f6467d45b","system_id":"levelo_inurba_marseille","lat":43.25834,"lon":5.39437,"is_reserved":false,"is_disabled":false,"rental_uris":{"android":"levelo://app?vid=33df571b-22d0-4619-bb6a-f80f6467d45b","ios":"levelo://app?vid=33df571b-22d0-4619-bb6a-f80f6467d45b"},"vehicle_type_id":"4","last_reported":1739635765,"current_range_meters":33600,"station_id":"ce4bhip2rcd13ifvqft0","pricing_plan_id":"cebpf4jnsgd1na2vs0mg"},{"bike_id":"7324a39c-46eb-4274-9bc8-c87c280daa98","system_id":"levelo_inurba_marseille","lat":43.2558,"lon":5.38242,"is_reserved":false,"is_disabled":false,"rental_uris":{"android":"levelo://app?vid=7324a39c-46eb-4274-9bc8-c87c280daa98","ios":"levelo://app?vid=7324a39c-46eb-4274-9bc8-c87c280daa98"},"vehicle_type_id":"4","last_reported":1739635765,"current_range_meters":38400,"station_id":"ce4bhih2rcd13ifvqfs0","pricing_plan_id":"cebpf4jnsgd1na2vs0mg"},{"bike_id":"e6fd358c-b438-4d60-9a9e-462a59ce875d","system_id":"levelo_inurba_marseille","lat":43.23187,"lon":5.35564,"is_reserved":false,"is_disabled":false,"rental_uris":{"android":"levelo://app?vid=e6fd358c-b438-4d60-9a9e-462a59ce875d","ios":"levelo://app?vid=e6fd358c-b438-4d60-9a9e-462a59ce875d"},"vehicle_type_id":"4","last_reported":1739635765,"current_range_meters":30400,"station_id":"ce4bhu92rcd13ifvqi70","pricing_plan_id":"cebpf4jnsgd1na2vs0mg"},{"bike_id":"42f3453e-0b53-4be0-888a-97336c2a8d54","system_id":"levelo_inurba_marseille","lat":43.28623,"lon":5.3508,"is_reserved":false,"is_disabled":false,"rental_uris":{"android":"levelo://app?vid=42f3453e-0b53-4be0-888a-97336c2a8d54","ios":"levelo://app?vid=42f3453e-0b53-4be0-888a-97336c2a8d54"},"vehicle_type_id":"4","last_reported":1739635765,"current_range_meters":38800,"station_id":"ce4bhch2rcd13ifvqeug","pricing_plan_id":"cebpf4jnsgd1na2vs0mg"},{"bike_id":"599a865e-6a16-4495-8bb3-92687292955a","system_id":"levelo_inurba_marseille","lat":43.27426,"lon":5.39406,"is_reserved":false,"is_disabled":false,"rental_uris":{"android":"levelo://app?vid=599a865e-6a16-4495-8bb3-92687292955a","ios":"levelo://app?vid=599a865e-6a16-4495-8bb3-92687292955a"},"vehicle_type_id":"4","last_reported":1739635765,"current_range_meters":24800,"station_id":"ce4bhdp2rcd13ifvqf20","pricing_plan_id":"cebpf4jnsgd1na2vs0mg"},{"bike_id":"f8be4ae6-adc2-4520-8321-d6b41cf92103","system_id":"levelo_inurba_marseille","lat":43.23199,"lon":5.35549,"is_reserved":false,"is_disabled":false,"rental_uris":{"android":"levelo://app?vid=f8be4ae6-adc2-4520-8321-d6b41cf92103","ios":"levelo://app?vid=f8be4ae6-adc2-4520-8321-d6b41cf92103"},"vehicle_type_id":"4","last_reported":1739635765,"current_range_meters":7200,"station_id":"ce4bhu92rcd13ifvqi70","pricing_plan_id":"cebpf4jnsgd1na2vs0mg"},{"bike_id":"1969f9c6-201a-43a5-b438-886ced3496c7","system_id":"levelo_inurba_marseille","lat":43.23948,"lon":5.36661,"is_reserved":false,"is_disabled":false,"rental_uris":{"android":"levelo://app?vid=1969f9c6-201a-43a5-b438-886ced3496c7","ios":"levelo://app?vid=1969f9c6-201a-43a5-b438-886ced3496c7"},