{"last_updated":1746695495,"ttl":60,"version":"2.2","data":{"bikes":[{"bike_id":"66b646b3-6352-44bb-9bfb-21570512e3e5","system_id":"levelo_inurba_marseille","lat":43.281209,"lon":5.403997,"is_reserved":false,"is_disabled":true,"rental_uris":{"android":"levelo://app?vid=66b646b3-6352-44bb-9bfb-21570512e3e5","ios":"levelo://app?vid=66b646b3-6352-44bb-9bfb-21570512e3e5"},"vehicle_type_id":"4","last_reported":1746695495,"current_range_meters":0,"station_id":"","pricing_plan_id":"cebpf4jnsgd1na2vs0mg"},{"bike_id":"b56eeeb9-9ded-4dd2-9efa-c8d4f8a5e387","system_id":"levelo_inurba_marseille","lat":43.273863,"lon":5.422426,"is_reserved":false,"is_disabled":true,"rental_uris":{"android":"levelo://app?vid=b56eeeb9-9ded-4dd2-9efa-c8d4f8a5e387","ios":"levelo://app?vid=b56eeeb9-9ded-4dd2-9efa-c8d4f8a5e387"},"vehicle_type_id":"4","last_reported":1746695495,"current_range_meters":0,"station_id":"","pricing_plan_id":"cebpf4jnsgd1na2vs0mg"},{"bike_id":"88c3c6c1-a33a-48ed-b2a4-48c16332184c","system_id":"levelo_inurba_marseille","lat":43.27945,"lon":5.37391,"is_reserved":false,"is_disabled":true,"rental_uris":{"android":"levelo://app?vid=88c3c6c1-a33a-48ed-b2a4-48c16332184c","ios":"levelo://app?vid=88c3c6c1-a33a-48ed-b2a4-48c16332184c"},"vehicle_type_id":"4","last_reported":1746695495,"current_range_meters":0,"station_id":"","pricing_plan_id":"cebpf4jnsgd1na2vs0mg"},{"bike_id":"2d251c8d-e9d0-476f-8622-cb88831f30c3","system_id":"levelo_inurba_marseille","lat":43.27045,"lon":5.3876,"is_reserved":false,"is_disabled":true,"rental_uris":{"android":"levelo://app?vid=2d251c8d-e9d0-476f-8622-cb88831f30c3","ios":"levelo://app?vid=2d251c8d-e9d0-476f-8622-cb88831f30c3"},"vehicle_type_id":"4","last_reported":1746695495,"current_range_meters":0,"station_id":"","pricing_plan_id":"cebpf4jnsgd1na2vs0mg"},{"bike_id":"718447f3-b6d2-4455-9edd-b1cf56662f96","system_id":"levelo_inurba_marseille","lat":43.32538,"lon":5.43146,"is_reserved":false,"is_disabled":true,"rental_uris":{"android":"levelo://app?vid=718447f3-b6d2-4455-9edd-b1cf56662f96","ios":"levelo://app?vid=718447f3-b6d2-4455-9edd-b1cf56662f96"},"vehicle_type_id":"4","last_reported":1746695495,"current_range_meters":0,"station_id":"","pricing_plan_id":"cebpf4jnsgd1na2vs0mg"},{"bike_id":"a2b156e0-886d-4ae9-97d5-55b6ac16cfd2","system_id":"levelo_inurba_marseille","lat":43.29309,"lon":5.37171,"is_reserved":false,"is_disabled":true,"rental_uris":{"android":"levelo://app?vid=a2b156e0-886d-4ae9-97d5-55b6ac16cfd2","ios":"levelo://app?vid=a2b156e0-886d-4ae9-97d5-55b6ac16cfd2"},"vehicle_type_id":"4","last_reported":1746695495,"current_range_meters":0,"station_id":"ce4bgh92rcd13ifvqb40","pricing_plan_id":"cebpf4jnsgd1na2vs0mg"},{"bike_id":"568f7ab5-7959-4fe1-a3a6-3d865932450e","system_id":"levelo_inurba_marseille","lat":43.23148,"lon":5.43719,"is_reserved":false,"is_disabled":true,"rental_uris":{"android":"levelo://app?vid=568f7ab5-7959-4fe1-a3a6-3d865932450e","ios":"levelo://app?vid=568f7ab5-7959-4fe1-a3a6-3d865932450e"},"vehicle_type_id":"4","last_reported":1746695495,"current_range_meters":0,"station_id":"ce4bhmp2rcd13ifvqgog","pricing_plan_id":"cebpf4jnsgd1na2vs0mg"},{"bike_id":"25bed09f-7463-45ff-8aea-95ddf682d68d","system_id":"levelo_inurba_marseille","lat":43.232,"lon":5.3556,"is_reserved":false,"is_disabled":true,"rental_uris":{"android":"levelo://app?vid=25bed09f-7463-45ff-8aea-95ddf682d68d","ios":"levelo://app?vid=25bed09f-7463-45ff-8aea-95ddf682d68d"},"vehicle_type_id":"4","last_reported":1746695495,"current_range_meters":0,"station_id":"ce4bhu92rcd13ifvqi70","pricing_plan_id":"cebpf4jnsgd1na2vs0mg"},{"bike_id":"f18847fe-86b6-45bd-964a-05ea407efc17","system_id":"levelo_inurba_marseille","lat":43.23062,"lon":5.35487,"is_reserved":false,"is_disabled":true,"rental_uris":{"android":"levelo://app?vid=f18847fe-86b6-45bd-964a-05ea407efc17","ios":"levelo://app?vid=f18847fe-86b6-45bd-964a-05ea407efc17"},"vehicle_type_id":"4","last_reported":1746695495,"current_range_meters":0,"station_id":"cpo3342slgdg3j2ifvpg","pricing_plan_id":"cebpf4jnsgd1na2vs0mg"},{"bike_id":"3e1068a4-5912-47ea-bbe1-d423b300e1d6","system_id":"levelo_inurba_marseille","lat":43.29843,"lon":5.3627,"is_reserved":false,"is_disabled":true,"rental_uris":{"android":"levelo://app?vid=3e1068a4-5912-47ea-bbe1-d423b300e1d6","ios":"levelo://app?vid=3e1068a4-5912-47ea-bbe1-d423b300e1d6"},"vehicle_type_id":"4","last_reported":1746695495,"current_range_meters":400,"station_id":"ce4bgpp2rcd13ifvqc3g","pricing_plan_id":"cebpf4jnsgd1na2vs0mg"},{"bike_id":"f568d135-d634-4f59-a979-77bd7eb41535","system_id":"levelo_inurba_marseille","lat":43.27557,"lon":5.38424,"is_reserved":false,"is_disabled":true,"rental_uris":{"android":"levelo://app?vid=f568d135-d634-4f59-a979-77bd7eb41535","ios":"levelo://app?vid=f568d135-d634-4f59-a979-77bd7eb41535"},"vehicle_type_id":"4","last_reported":1746695495,"current_range_meters":800,"station_id":"ce4bhh92rcd13ifvqfi0","pricing_plan_id":"cebpf4jnsgd1na2vs0mg"},{"bike_id":"573280dc-18a3-4374-87b5-5c2ff82aac5a","system_id":"levelo_inurba_marseille","lat":43.24378,"lon":5.37055,"is_reserved":false,"is_disabled":true,"rental_uris":{"android":"levelo://app?vid=573280dc-18a3-4374-87b5-5c2ff82aac5a","ios":"levelo://app?vid=573280dc-18a3-4374-87b5-5c2ff82aac5a"},"vehicle_type_id":"4","last_reported":1746695495,"current_range_meters":800,"station_id":"ce4bhhh2rcd13ifvqfk0","pricing_plan_id":"cebpf4jnsgd1na2vs0mg"},{"bike_id":"63cb73aa-86fe-4599-9b76-3790ec130780","system_id":"levelo_inurba_marseille","lat":43.29576,"lon":5.37841,"is_reserved":false,"is_disabled":true,"rental_uris":{"android":"levelo://app?vid=63cb73aa-86fe-4599-9b76-3790ec130780","ios":"levelo://app?vid=63cb73aa-86fe-4599-9b76-3790ec130780"},"vehicle_type_id":"4","last_reported":1746695495,"current_range_meters":1200,"station_id":"","pricing_plan_id":"cebpf4jnsgd1na2vs0mg"},{"bike_id":"c9592205-9409-4f74-aed1-7c4141a58caa","system_id":"levelo_inurba_marseille","lat":43.27134,"lon":5.36364,"is_reserved":false,"is_disabled":true,"rental_uris":{"android":"levelo://app?vid=c9592205-9409-4f74-aed1-7c4141a58caa","ios":"levelo://app?vid=c9592205-9409-4f74-aed1-7c4141a58caa"},"vehicle_type_id":"4","last_reported":1746695495,"current_range_meters":2000,"station_id":"","pricing_plan_id":"cebpf4jnsgd1na2vs0mg"},{"bike_id":"5f89e5d8-8e5e-4a6d-901c-70aafb0a905d","system_id":"levelo_inurba_marseille","lat":43.2926,"lon":5.3744,"is_reserved":false,"is_disabled":false,"rental_uris":{"android":"levelo://app?vid=5f89e5d8-8e5e-4a6d-901c-70aafb0a905d","ios":"levelo://app?vid=5f89e5d8-8e5e-4a6d-901c-70aafb0a905d"},"vehicle_type_id":"4","last_reported":1746695495,"current_range_meters":2800,"station_id":"ce4bgi12rcd13ifvqb70","pricing_plan_id":"cebpf4jnsgd1na2vs0mg"},{"bike_id":"705f1f6f-d92c-4df1-a512-943b0bf79900","system_id":"levelo_inurba_marseille","lat":43.22504,"lon":5.34771,"is_reserved":false,"is_disabled":false,"rental_uris":{"android":"levelo://app?vid=705f1f6f-d92c-4df1-a512-943b0bf79900","ios":"levelo://app?vid=705f1f6f-d92c-4df1-a512-943b0bf79900"},"vehicle_type_id":"4","last_reported":1746695495,"current_range_meters":2800,"station_id":"st_cvj5dfep6f1abm77gieg","pricing_plan_id":"cebpf4jnsgd1na2vs0mg"},{"bike_id":"0cac5554-8f97-4bef-bb9a-5add89022b98","system_id":"levelo_inurba_marseille","lat":43.28617,"lon":5.35103,"is_reserved":false,"is_disabled":false,"rental_uris":{"android":"levelo://app?vid=0cac5554-8f97-4bef-bb9a-5add89022b98","ios":"levelo://app?vid=0cac5554-8f97-4bef-bb9a-5add89022b98"},"vehicle_type_id":"4","last_reported":1746695495,"current_range_meters":4000,"station_id":"ce4bhch2rcd13ifvqeug","pricing_plan_id":"cebpf4jnsgd1na2vs0mg"},{"bike_id":"6c02bcd4-f88a-47e5-91c8-48adb7cf29c1","system_id":"levelo_inurba_marseille","lat":43.30214,"lon":5.39468,"is_reserved":false,"is_disabled":false,"rental_uris":{"android":"levelo://app?vid=6c02bcd4-f88a-47e5-91c8-48adb7cf29c1","ios":"levelo://app?vid=6c02bcd4-f88a-47e5-91c8-48adb7cf29c1"},"vehicle_type_id":"4","last_reported":1746695495,"current_range_meters":4400,"station_id":"ce4bh0p2rcd13ifvqd70","pricing_plan_id":"cebpf4jnsgd1na2vs0mg"},{"bike_id":"0ca8922b-1829-43e5-80a8-ed69eb24b5dd","system_id":"levelo_inurba_marseille","lat":43.292325,"lon":5.360464,"is_reserved":false,"is_disabled":false,"rental_uris":{"android":"levelo://app?vid=0ca8922b-1829-43e5-80a8-ed69eb24b5dd","ios":"levelo://app?vid=0ca8922b-1829-43e5-80a8-ed69eb24b5dd"},"vehicle_type_id":"4","last_reported":1746695495,"current_range_meters":4400,"station_id":"ce4bhbh2rcd13ifvqeqg","pricing_plan_id":"cebpf4jnsgd1na2vs0mg"},{"bike_id":"88f90c5c-6128-4b9d-bb34-6e1b40933e50","system_id":"levelo_inurba_marseille","lat":43.28158,"lon":5.42642,"is_reserved":false,"is_disabled":false,"rental_uris":{"android":"levelo://app?vid=88f90c5c-6128-4b9d-bb34-6e1b40933e50","ios":"levelo://app?vid=88f90c5c-6128-4b9d-bb34-6e1b40933e50"},"vehicle_type_id":"4","last_reported":1746695495,"current_range_meters":4400,"station_id":"ce4bhnh2rcd13ifvqgug","pricing_plan_id":"cebpf4jnsgd1na2vs0mg"},{"bike_id":"b56d5ade-0de2-44f1-90b1-fb52a39fc442","system_id":"levelo_inurba_marseille","lat":43.29265,"lon":5.37617,"is_reserved":false,"is_disabled":false,"rental_uris":{"android":"levelo://app?vid=b56d5ade-0de2-44f1-90b1-fb52a39fc442","ios":"levelo://app?vid=b56d5ade-0de2-44f1-90b1-fb52a39fc442"},"vehicle_type_id":"4","last_reported":1746695495,"current_range_meters":4800,"station_id":"ce4bgi12rcd13ifvqb80","pricing_plan_id":"cebpf4jnsgd1na2vs0mg"},{"bike_id":"98223405-31ae-4d33-b274-c85738da5191","system_id":"levelo_inurba_marseille","lat":43.28616,"lon":5.35107,"is_reserved":false,"is_disabled":false,"rental_uris":{"android":"levelo://app?vid=98223405-31ae-4d33-b274-c85738da5191","ios":"levelo://app?vid=98223405-31ae-4d33-b274-c85738da5191"},"vehicle_type_id":"4","last_reported":1746695495,"current_range_meters":4800,"station_id":"ce4bhch2rcd13ifvqeug","pricing_plan_id":"cebpf4jnsgd1na2vs0mg"},{"bike_id":"07da6f96-fb88-4a40-9077-290e24dde904","system_id":"levelo_inurba_marseille","lat":43.21194,"lon":5.35076,"is_reserved":false,"is_disabled":false,"rental_uris":{"android":"levelo://app?vid=07da6f96-fb88-4a40-9077-290e24dde904","ios":"levelo://app?vid=07da6f96-fb88-4a40-9077-290e24dde904"},"vehicle_type_id":"4","last_reported":1746695495,"current_range_meters":5600,"station_id":"st_cvj6sg6p6f1abm77japg","pricing_plan_id":"cebpf4jnsgd1na2vs0mg"},{"bike_id":"082b5772-10bb-4282-bdbf-aa00094bbf28","system_id":"levelo_inurba_marseille","lat":43.27061,"lon":5.4027,"is_reserved":false,"is_disabled":false,"rental_uris":{"android":"levelo://app?vid=082b5772-10bb-4282-bdbf-aa00094bbf28","ios":"levelo://app?vid=082b5772-10bb-4282-bdbf-aa00094bbf28"},"vehicle_type_id":"4","last_reported":1746695495,"current_range_meters":6000,"station_id":"ce4bhk92rcd13ifvqgc0","pricing_plan_id":"cebpf4jnsgd1na2vs0mg"},{"bike_id":"e0553937-f215-4976-8af2-171073a472f8","system_id":"levelo_inurba_marseille","lat":43.25111,"lon":5.40315,"is_reserved":false,"is_disabled":false,"rental_uris":{"android":"levelo://app?vid=e0553937-f215-4976-8af2-171073a472f8","ios":"levelo://app?vid=e0553937-f215-4976-8af2-171073a472f8"},"vehicle_type_id":"4","last_reported":1746695495,"current_range_meters":6000,"station_id":"ce4bhlh2rcd13ifvqgig","pricing_plan_id":"cebpf4jnsgd1na2vs0mg"},{"bike_id":"af8b656e-7d15-4192-ba5c-db6c794228d0","system_id":"levelo_inurba_marseille","lat":43.286182,"lon":5.351044,"is_reserved":false,"is_disabled":false,"rental_uris":{"android":"levelo://app?vid=af8b656e-7d15-4192-ba5c-db6c794228d0","ios":"levelo://app?vid=af8b656e-7d15-4192-ba5c-db6c794228d0"},"vehicle_type_id":"4","last_reported":1746695495,"current_range_meters":6400,"station_id":"ce4bhch2rcd13ifvqeug","pricing_plan_id":"cebpf4jnsgd1na2vs0mg"},{"bike_id":"0810f77a-92de-4a36-b576-04f985a5f8fd","system_id":"levelo_inurba_marseille","lat":43.28611,"lon":5.35107,"is_reserved":false,"is_disabled":false,"rental_uris":{"android":"levelo://app?vid=0810f77a-92de-4a36-b576-04f985a5f8fd","ios":"levelo://app?vid=0810f77a-92de-4a36-b576-04f985a5f8fd"},"vehicle_type_id":"4","last_reported":1746695495,"current_range_meters":6400,"station_id":"ce4bhch2rcd13ifvqeug","pricing_plan_id":"cebpf4jnsgd1na2vs0mg"},{"bike_id":"9d03e3b9-cc02-47cb-8220-42e752a6ad34","system_id":"levelo_inurba_marseille","lat":43.28164,"lon":5.42629,"is_reserved":false,"is_disabled":false,"rental_uris":{"android":"levelo://app?vid=9d03e3b9-cc02-47cb-8220-42e752a6ad34","ios":"levelo://app?vid=9d03e3b9-cc02-47cb-8220-42e752a6ad34"},"vehicle_type_id":"4","last_reported":1746695495,"current_range_meters":6400,"station_id":"ce4bhnh2rcd13ifvqgug","pricing_plan_id":"cebpf4jnsgd1na2vs0mg"},{"bike_id":"dfd27e22-9b34-42f8-9fdf-f3a07c5bdce7","system_id":"levelo_inurba_marseille","lat":43.24164,"lon":5.3639,"is_reserved":false,"is_disabled":false,"rental_uris":{"android":"levelo://app?vid=dfd27e22-9b34-42f8-9fdf-f3a07c5bdce7","ios":"levelo://app?vid=dfd27e22-9b34-42f8-9fdf-f3a07c5bdce7"},"vehicle_type_id":"4","last_reported":1746695495,"current_range_meters":6400,"station_id":"cpo36qri1sfpv3e86is0","pricing_plan_id":"cebpf4jnsgd1na2vs0mg"},{"bike_id":"e643ab0a-d97d-4d9f-bf0d-21fd7dcb7558","system_id":"levelo_inurba_marseille","lat":43.32452,"lon":5.41145,"is_reserved":false,"is_disabled":false,"rental_uris":{"android":"levelo://app?vid=e643ab0a-d97d-4d9f-bf0d-21fd7dcb7558","ios":"levelo://app?vid=e643ab0a-d97d-4d9f-bf0d-21fd7dcb7558"},"vehicle_type_id":"4","last_reported":1746695495,"current_range_meters":6800,"station_id":"","pricing_plan_id":"cebpf4jnsgd1na2vs0mg"},{"bike_id":"5298c060-7cd9-45eb-be4d-92d8bccdcb2f","system_id":"levelo_inurba_marseille","lat":43.29004,"lon":5.35608,"is_reserved":false,"is_disabled":false,"rental_uris":{"android":"levelo://app?vid=5298c060-7cd9-45eb-be4d-92d8bccdcb2f","ios":"levelo://app?vid=5298c060-7cd9-45eb-be4d-92d8bccdcb2f"},"vehicle_type_id":"4","last_reported":1746695495,"current_range_meters":6800,"station_id":"ce4bhb92rcd13ifvqen0","pricing_plan_id":"cebpf4jnsgd1na2vs0mg"},{"bike_id":"0e10e92a-439e-4081-803c-5f351bcf88ef","system_id":"levelo_inurba_marseille","lat":43.27938,"lon":5.41037,"is_reserved":false,"is_disabled":false,"rental_uris":{"android":"levelo://app?vid=0e10e92a-439e-4081-803c-5f351bcf88ef","ios":"levelo://app?vid=0e10e92a-439e-4081-803c-5f351bcf88ef"},"vehicle_type_id":"4","last_reported":1746695495,"current_range_meters":6800,"station_id":"ce4bhnp2rcd13ifvqh0g","pricing_plan_id":"cebpf4jnsgd1na2vs0mg"},{"bike_id":"7026b5ed-cfab-4e5b-aaa9-2423fd8a0517","system_id":"levelo_inurba_marseille","lat":43.31758,"lon":5.39014,"is_reserved":false,"is_disabled":false,"rental_uris":{"android":"levelo://app?vid=7026b5ed-cfab-4e5b-aaa9-2423fd8a0517","ios":"levelo://app?vid=7026b5ed-cfab-4e5b-aaa9-2423fd8a0517"},"vehicle_type_id":"4","last_reported":1746695495,"current_range_meters":6800,"station_id":"ce4bhqp2rcd13ifvqhng","pricing_plan_id":"cebpf4jnsgd1na2vs0mg"},{"bike_id":"b7bdbe3a-b7ec-4256-908f-dfa71835a5d1","system_id":"levelo_inurba_marseille","lat":43.28868,"lon":5.37148,"is_reserved":false,"is_disabled":false,"rental_uris":{"android":"levelo://app?vid=b7bdbe3a-b7ec-4256-908f-dfa71835a5d1","ios":"levelo://app?vid=b7bdbe3a-b7ec-4256-908f-dfa71835a5d1"},"vehicle_type_id":"4","last_reported":1746695495,"current_range_meters":7200,"station_id":"","pricing_plan_id":"cebpf4jnsgd1na2vs0mg"},{"bike_id":"461c807e-f98b-477c-9ec0-c169b42a7561","system_id":"levelo_inurba_marseille","lat":43.27211,"lon":5.39181,"is_reserved":false,"is_disabled":false,"rental_uris":{"android":"levelo://app?vid=461c807e-f98b-477c-9ec0-c169b42a7561","ios":"levelo://app?vid=461c807e-f98b-477c-9ec0-c169b42a7561"},"vehicle_type_id":"4","last_reported":1746695495,"current_range_meters":7200,"station_id":"ce4bhhp2rcd13ifvqfm0","pricing_plan_id":"cebpf4jnsgd1na2vs0mg"},{"bike_id":"a96833c3-7aad-4769-953e-d8192a324355","system_id":"levelo_inurba_marseille","lat":43.22503,"lon":5.34787,"is_reserved":false,"is_disabled":false,"rental_uris":{"android":"levelo://app?vid=a96833c3-7aad-4769-953e-d8192a324355","ios":"levelo://app?vid=a96833c3-7aad-4769-953e-d8192a324355"},"vehicle_type_id":"4","last_reported":1746695495,"current_range_meters":7200,"station_id":"st_cvj5dfep6f1abm77gieg","pricing_plan_id":"cebpf4jnsgd1na2vs0mg"},{"bike_id":"be3a2ed9-e107-46dc-8066-89cfcff50847","system_id":"levelo_inurba_marseille","lat":43.29265,"lon":5.37117,"is_reserved":false,"is_disabled":false,"rental_uris":{"android":"levelo://app?vid=be3a2ed9-e107-46dc-8066-89cfcff50847","ios":"levelo://app?vid=be3a2ed9-e107-46dc-8066-89cfcff50847"},"vehicle_type_id":"4","last_reported":1746695495,"current_range_meters":8000,"station_id":"","pricing_plan_id":"cebpf4jnsgd1na2vs0mg"},{"bike_id":"871d92dc-153b-42ec-8d90-34c9e0fb29bf","system_id":"levelo_inurba_marseille","lat":43.30648,"lon":5.39874,"is_reserved":false,"is_disabled":false,"rental_uris":{"android":"levelo://app?vid=871d92dc-153b-42ec-8d90-34c9e0fb29bf","ios":"levelo://app?vid=871d92dc-153b-42ec-8d90-34c9e0fb29bf"},"vehicle_type_id":"4","last_reported":1746695495,"current_range_meters":8000,"station_id":"","pricing_plan_id":"cebpf4jnsgd1na2vs0mg"},{"bike_id":"994190d5-fa5d-4c58-9623-3e17e4c3d9dc","system_id":"levelo_inurba_marseille","lat":43.29165,"lon":5.37167,"is_reserved":false,"is_disabled":false,"rental_uris":{"android":"levelo://app?vid=994190d5-fa5d-4c58-9623-3e17e4c3d9dc","ios":"levelo://app?vid=994190d5-fa5d-4c58-9623-3e17e4c3d9dc"},"vehicle_type_id":"4","last_reported":1746695495,"current_range_meters":8000,"station_id":"ce4bha92rcd13ifvqeh0","pricing_plan_id":"cebpf4jnsgd1na2vs0mg"},{"bike_id":"dd8988c4-d390-4630-b2b3-0038268da51a","system_id":"levelo_inurba_marseille","lat":43.27054,"lon":5.40274,"is_reserved":false,"is_disabled":false,"rental_uris":{"android":"levelo://app?vid=dd8988c4-d390-4630-b2b3-0038268da51a","ios":"levelo://app?vid=dd8988c4-d390-4630-b2b3-0038268da51a"},"vehicle_type_id":"4","last_reported":1746695495,"current_range_meters":8000,"station_id":"ce4bhk92rcd13ifvqgc0","pricing_plan_id":"cebpf4jnsgd1na2vs0mg"},{"bike_id":"ddda1e7e-2780-4187-b2fe-c09599a440f7","system_id":"levelo_inurba_marseille","lat":43.23159,"lon":5.43724,"is_reserved":false,"is_disabled":false,"rental_uris":{"android":"levelo://app?vid=ddda1e7e-2780-4187-b2fe-c09599a440f7","ios":"levelo://app?vid=ddda1e7e-2780-4187-b2fe-c09599a440f7"},"vehicle_type_id":"4","last_reported":1746695495,"current_range_meters":8000,"station_id":"ce4bhmp2rcd13ifvqgog","pricing_plan_id":"cebpf4jnsgd1na2vs0mg"},{"bike_id":"f5e42f80-b199-45df-9a63-bb19eb815788","system_id":"levelo_inurba_marseille","lat":43.29923,"lon":5.37465,"is_reserved":false,"is_disabled":false,"rental_uris":{"android":"levelo://app?vid=f5e42f80-b199-45df-9a63-bb19eb815788","ios":"levelo://app?vid=f5e42f80-b199-45df-9a63-bb19eb815788"},"vehicle_type_id":"4","last_reported":1746695495,"current_range_meters":8400,"station_id":"ce4bgjh2rcd13ifvqbg0","pricing_plan_id":"cebpf4jnsgd1na2vs0mg"},{"bike_id":"ce40ea43-bacf-49f3-b5af-ffaf2a1f03b1","system_id":"levelo_inurba_marseille","lat":43.30502,"lon":5.36762,"is_reserved":false,"is_disabled":false,"rental_uris":{"android":"levelo://app?vid=ce40ea43-bacf-49f3-b5af-ffaf2a1f03b1","ios":"levelo://app?vid=ce40ea43-bacf-49f3-b5af-ffaf2a1f03b1"},"vehicle_type_id":"4","last_reported":1746695495,"current_range_meters":8800,"station_id":"ce4bgrp2rcd13ifvqc9g","pricing_plan_id":"cebpf4jnsgd1na2vs0mg"},{"bike_id":"58dc0389-4a8f-4308-a8e8-7adc957fee8a","system_id":"levelo_inurba_marseille","lat":43.30533,"lon":5.36559,"is_reserved":false,"is_disabled":false,"rental_uris":{"android":"levelo://app?vid=58dc0389-4a8f-4308-a8e8-7adc957fee8a","ios":"levelo://app?vid=58dc0389-4a8f-4308-a8e8-7adc957fee8a"},"vehicle_type_id":"4","last_reported":1746695495,"current_range_meters":8800,"station_id":"ce4bgs12rcd13ifvqcag","pricing_plan_id":"cebpf4jnsgd1na2vs0mg"},{"bike_id":"29398e5c-7110-45b7-ad15-0d829d581de9","system_id":"levelo_inurba_marseille","lat":43.28272,"lon":5.35063,"is_reserved":false,"is_disabled":false,"rental_uris":{"android":"levelo://app?vid=29398e5c-7110-45b7-ad15-0d829d581de9","ios":"levelo://app?vid=29398e5c-7110-45b7-ad15-0d829d581de9"},"vehicle_type_id":"4","last_reported":1746695495,"current_range_meters":8800,"station_id":"ce4bhbp2rcd13ifvqerg","pricing_plan_id":"cebpf4jnsgd1na2vs0mg"},{"bike_id":"5f000564-cde2-4a11-b47c-86316f07519a","system_id":"levelo_inurba_marseille","lat":43.26061,"lon":5.39394,"is_reserved":false,"is_disabled":false,"rental_uris":{"android":"levelo://app?vid=5f000564-cde2-4a11-b47c-86316f07519a","ios":"levelo://app?vid=5f000564-cde2-4a11-b47c-86316f07519a"},"vehicle_type_id":"4","last_reported":1746695495,"current_range_meters":8800,"station_id":"ce4bhh92rcd13ifvqfj0","pricing_plan_id":"cebpf4jnsgd1na2vs0mg"},{"bike_id":"bd1983ca-78f8-49f5-aaf8-39b52d4037d0","system_id":"levelo_inurba_marseille","lat":43.2315,"lon":5.43706,"is_reserved":false,"is_disabled":false,"rental_uris":{"android":"levelo://app?vid=bd1983ca-78f8-49f5-aaf8-39b52d4037d0","ios":"levelo://app?vid=bd1983ca-78f8-49f5-aaf8-39b52d4037d0"},"vehicle_type_id":"4","last_reported":1746695495,"current_range_meters":8800,"station_id":"ce4bhmp2rcd13ifvqgog","pricing_plan_id":"cebpf4jnsgd1na2vs0mg"},{"bike_id":"b15fe93b-1059-4d75-abd3-040e349ce402","system_id":"levelo_inurba_marseille","lat":43.30108,"lon":5.36993,"is_reserved":false,"is_disabled":false,"rental_uris":{"android":"levelo://app?vid=b15fe93b-1059-4d75-abd3-040e349ce402","ios":"levelo://app?vid=b15fe93b-1059-4d75-abd3-040e349ce402"},"vehicle_type_id":"4","last_reported":1746695495,"current_range_meters":9200,"station_id":"","pricing_plan_id":"cebpf4jnsgd1na2vs0mg"},{"bike_id":"1ff7130f-c794-4600-b84b-3edc560294f5","system_id":"levelo_inurba_marseille","lat":43.26194,"lon":5.37442,"is_reserved":false,"is_disabled":false,"rental_uris":{"android":"levelo://app?vid=1ff7130f-c794-4600-b84b-3edc560294f5","ios":"levelo://app?vid=1ff7130f-c794-4600-b84b-3edc560294f5"},"vehicle_type_id":"4","last_reported":1746695495,"current_range_meters":9200,"station_id":"ce4bhgp2rcd13ifvqfc0","pricing_plan_id":"cebpf4jnsgd1na2vs0mg"},{"bike_id":"f90504b1-69d0-454d-a9d6-21119d763b82","system_id":"levelo_inurba_marseille","lat":43.25107,"lon":5.40311,"is_reserved":false,"is_disabled":false,"rental_uris":{"android":"levelo://app?vid=f90504b1-69d0-454d-a9d6-21119d763b82","ios":"levelo://app?vid=f90504b1-69d0-454d-a9d6-21119d763b82"},"vehicle_type_id":"4","last_reported":1746695495,"current_range_meters":9200,"station_id":"ce4bhlh2rcd13ifvqgig","pricing_plan_id":"cebpf4jnsgd1na2vs0mg"},{"bike_id":"da1da5b7-01c4-402d-9f7a-8ee4a44e531b","system_id":"levelo_inurba_marseille","lat":43.23158,"lon":5.43718,"is_reserved":false,"is_disabled":false,"rental_uris":{"android":"levelo://app?vid=da1da5b7-01c4-402d-9f7a-8ee4a44e531b","ios":"levelo://app?vid=da1da5b7-01c4-402d-9f7a-8ee4a44e531b"},"vehicle_type_id":"4","last_reported":1746695495,"current_range_meters":9200,"station_id":"ce4bhmp2rcd13ifvqgog","pricing_plan_id":"cebpf4jnsgd1na2vs0mg"},{"bike_id":"edc14644-b89f-4204-b3b6-7edbbb1f0191","system_id":"levelo_inurba_marseille","lat":43.33106,"lon":5.38658,"is_reserved":false,"is_disabled":false,"rental_uris":{"android":"levelo://app?vid=edc14644-b89f-4204-b3b6-7edbbb1f0191","ios":"levelo://app?vid=edc14644-b89f-4204-b3b6-7edbbb1f0191"},"vehicle_type_id":"4","last_reported":1746695495,"current_range_meters":9600,"station_id":"","pricing_plan_id":"cebpf4jnsgd1na2vs0mg"},{"bike_id":"8bbd2297-75b9-4288-bc6d-1be3b3ff638a","system_id":"levelo_inurba_marseille","lat":43.27064,"lon":5.40256,"is_reserved":false,"is_disabled":false,"rental_uris":{"android":"levelo://app?vid=8bbd2297-75b9-4288-bc6d-1be3b3ff638a","ios":"levelo://app?vid=8bbd2297-75b9-4288-bc6d-1be3b3ff638a"},"vehicle_type_id":"4","last_reported":1746695495,"current_range_meters":9600,"station_id":"ce4bhk92rcd13ifvqgc0","pricing_plan_id":"cebpf4jnsgd1na2vs0mg"},{"bike_id":"d1d21c83-9033-4720-aeec-d3880dfbf0dd","system_id":"levelo_inurba_marseille","lat":43.31761,"lon":5.39006,"is_reserved":false,"is_disabled":false,"rental_uris":{"android":"levelo://app?vid=d1d21c83-9033-4720-aeec-d3880dfbf0dd","ios":"levelo://app?vid=d1d21c83-9033-4720-aeec-d3880dfbf0dd"},"vehicle_type_id":"4","last_reported":1746695495,"current_range_meters":9600,"station_id":"ce4bhqp2rcd13ifvqhng","pricing_plan_id":"cebpf4jnsgd1na2vs0mg"},{"bike_id":"20da30d8-616a-42d7-b387-2934b1539b36","system_id":"levelo_inurba_marseille","lat":43.2593,"lon":5.40887,"is_reserved":false,"is_disabled":false,"rental_uris":{"android":"levelo://app?vid=20da30d8-616a-42d7-b387-2934b1539b36","ios":"levelo://app?vid=20da30d8-616a-42d7-b387-2934b1539b36"},"vehicle_type_id":"4","last_reported":1746695495,"current_range_meters":10000,"station_id":"ce4bhm92rcd13ifvqglg","pricing_plan_id":"cebpf4jnsgd1na2vs0mg"},{"bike_id":"0d623527-04a3-47de-8f22-4bd4c4557faa","system_id":"levelo_inurba_marseille","lat":43.27905,"lon":5.38008,"is_reserved":false,"is_disabled":false,"rental_uris":{"android":"levelo://app?vid=0d623527-04a3-47de-8f22-4bd4c4557faa","ios":"levelo://app?vid=0d623527-04a3-47de-8f22-4bd4c4557faa"},"vehicle_type_id":"4","last_reported":1746695495,"current_range_meters":10800,"station_id":"ce4bhf92rcd13ifvqf50","pricing_plan_id":"cebpf4jnsgd1na2vs0mg"},{"bike_id":"95c63118-6aa3-4fe6-aa62-560057271344","system_id":"levelo_inurba_marseille","lat":43.23965,"lon":5.36631,"is_reserved":false,"is_disabled":false,"rental_uris":{"android":"levelo://app?vid=95c63118-6aa3-4fe6-aa62-560057271344","ios":"levelo://app?vid=95c63118-6aa3-4fe6-aa62-560057271344"},"vehicle_type_id":"4","last_reported":1746695495,"current_range_meters":10800,"station_id":"ce4bhi12rcd13ifvqfp0","pricing_plan_id":"cebpf4jnsgd1na2vs0mg"},{"bike_id":"cb5561fb-3ed2-49bf-bd58-7c8862116c78","system_id":"levelo_inurba_marseille","lat":43.21205,"lon":5.35059,"is_reserved":false,"is_disabled":false,"rental_uris":{"android":"levelo://app?vid=cb5561fb-3ed2-49bf-bd58-7c8862116c78","ios":"levelo://app?vid=cb5561fb-3ed2-49bf-bd58-7c8862116c78"},"vehicle_type_id":"4","last_reported":1746695495,"current_range_meters":10800,"station_id":"st_cvj6sg6p6f1abm77japg","pricing_plan_id":"cebpf4jnsgd1na2vs0mg"},{"bike_id":"77a6890d-98f0-42ed-b388-8384c99eb03f","system_id":"levelo_inurba_marseille","lat":43.247986,"lon":5.374587,"is_reserved":false,"is_disabled":false,"rental_uris":{"android":"levelo://app?vid=77a6890d-98f0-42ed-b388-8384c99eb03f","ios":"levelo://app?vid=77a6890d-98f0-42ed-b388-8384c99eb03f"},"vehicle_type_id":"4","last_reported":1746695495,"current_range_meters":11200,"station_id":"ce4bhgh2rcd13ifvqfb0","pricing_plan_id":"cebpf4jnsgd1na2vs0mg"},{"bike_id":"9209774a-06b7-47c7-a6eb-adc0c3f47cff","system_id":"levelo_inurba_marseille","lat":43.25564,"lon":5.38253,"is_reserved":false,"is_disabled":false,"rental_uris":{"android":"levelo://app?vid=9209774a-06b7-47c7-a6eb-adc0c3f47cff","ios":"levelo://app?vid=9209774a-06b7-47c7-a6eb-adc0c3f47cff"},"vehicle_type_id":"4","last_reported":1746695495,"current_range_meters":11200,"station_id":"ce4bhih2rcd13ifvqfs0","pricing_plan_id":"cebpf4jnsgd1na2vs0mg"},{"bike_id":"5453c7c8-d7df-431d-98db-167d3c16d978","system_id":"levelo_inurba_marseille","lat":43.31375,"lon":5.38499,"is_reserved":false,"is_disabled":false,"rental_uris":{"android":"levelo://app?vid=5453c7c8-d7df-431d-98db-167d3c16d978","ios":"levelo://app?vid=5453c7c8-d7df-431d-98db-167d3c16d978"},"vehicle_type_id":"4","last_reported":1746695495,"current_range_meters":11600,"station_id":"ce4bgt92rcd13ifvqcf0","pricing_plan_id":"cebpf4jnsgd1na2vs0mg"},{"bike_id":"4a825855-5dbf-4b2f-b12d-22701c7e0e81","system_id":"levelo_inurba_marseille","lat":43.28279,"lon":5.35092,"is_reserved":false,"is_disabled":false,"rental_uris":{"android":"levelo://app?vid=4a825855-5dbf-4b2f-b12d-22701c7e0e81","ios":"levelo://app?vid=4a825855-5dbf-4b2f-b12d-22701c7e0e81"},"vehicle_type_id":"4","last_reported":1746695495,"current_range_meters":11600,"station_id":"ce4bhbp2rcd13ifvqerg","pricing_plan_id":"cebpf4jnsgd1na2vs0mg"},{"bike_id":"492a7a57-4c14-4260-ba62-da55dda4a419","system_id":"levelo_inurba_marseille","lat":43.323368,"lon":5.406227,"is_reserved":false,"is_disabled":false,"rental_uris":{"android":"levelo://app?vid=492a7a57-4c14-4260-ba62-da55dda4a419","ios":"levelo://app?vid=492a7a57-4c14-4260-ba62-da55dda4a419"},"vehicle_type_id":"4","last_reported":1746695495,"current_range_meters":12000,"station_id":"ce4bhq92rcd13ifvqhjg","pricing_plan_id":"cebpf4jnsgd1na2vs0mg"},{"bike_id":"e945a495-d359-4bb7-bb94-1340aff95955","system_id":"levelo_inurba_marseille","lat":43.28148,"lon":5.40612,"is_reserved":false,"is_disabled":false,"rental_uris":{"android":"levelo://app?vid=e945a495-d359-4bb7-bb94-1340aff95955","ios":"levelo://app?vid=e945a495-d359-4bb7-bb94-1340aff95955"},"vehicle_type_id":"4","last_reported":1746695495,"current_range_meters":12400,"station_id":"","pricing_plan_id":"cebpf4jnsgd1na2vs0mg"},{"bike_id":"809c8673-c032-46b9-aa07-62c38e26d44e","system_id":"levelo_inurba_marseille","lat":43.25076,"lon":5.38773,"is_reserved":false,"is_disabled":false,"rental_uris":{"android":"levelo://app?vid=809c8673-c032-46b9-aa07-62c38e26d44e","ios":"levelo://app?vid=809c8673-c032-46b9-aa07-62c38e26d44e"},"vehicle_type_id":"4","last_reported":1746695495,"current_range_meters":12800,"station_id":"","pricing_plan_id":"cebpf4jnsgd1na2vs0mg"},{"bike_id":"fc33e796-0d5e-43c4-b4ed-71220775ba5d","system_id":"levelo_inurba_marseille","lat":43.25727,"lon":5.41094,"is_reserved":false,"is_disabled":false,"rental_uris":{"android":"levelo://app?vid=fc33e796-0d5e-43c4-b4ed-71220775ba5d","ios":"levelo://app?vid=fc33e796-0d5e-43c4-b4ed-71220775ba5d"},"vehicle_type_id":"4","last_reported":1746695495,"current_range_meters":12800,"station_id":"ce4bhkp2rcd13ifvqgd0","pricing_plan_id":"cebpf4jnsgd1na2vs0mg"},{"bike_id":"2aace568-ac2f-49c7-9458-5246d5166cd0","system_id":"levelo_inurba_marseille","lat":43.28162,"lon":5.42633,"is_reserved":false,"is_disabled":false,"rental_uris":{"android":"levelo://app?vid=2aace568-ac2f-49c7-9458-5246d5166cd0","ios":"levelo://app?vid=2aace568-ac2f-49c7-9458-5246d5166cd0"},"vehicle_type_id":"4","last_reported":1746695495,"current_range_meters":12800,"station_id":"ce4bhnh2rcd13ifvqgug","pricing_plan_id":"cebpf4jnsgd1na2vs0mg"},{"bike_id":"d1b2bde1-6a18-4f64-b9c9-6d69b81e0af1","system_id":"levelo_inurba_marseille","lat":43.31081,"lon":5.42427,"is_reserved":false,"is_disabled":false,"rental_uris":{"android":"levelo://app?vid=d1b2bde1-6a18-4f64-b9c9-6d69b81e0af1","ios":"levelo://app?vid=d1b2bde1-6a18-4f64-b9c9-6d69b81e0af1"},"vehicle_type_id":"4","last_reported":1746695495,"current_range_meters":12800,"station_id":"ce4bhp92rcd13ifvqhag","pricing_plan_id":"cebpf4jnsgd1na2vs0mg"},{"bike_id":"d0bc4c7e-df09-4294-890c-78a3962b1cfe","system_id":"levelo_inurba_marseille","lat":43.30547,"lon":5.3652,"is_reserved":false,"is_disabled":false,"rental_uris":{"android":"levelo://app?vid=d0bc4c7e-df09-4294-890c-78a3962b1cfe","ios":"levelo://app?vid=d0bc4c7e-df09-4294-890c-78a3962b1cfe"},"vehicle_type_id":"4","last_reported":1746695495,"current_range_meters":13600,"station_id":"ce4bgs12rcd13ifvqcag","pricing_plan_id":"cebpf4jnsgd1na2vs0mg"},{"bike_id":"47cd9dba-9c5a-4de3-a27d-45ec0de547bc","system_id":"levelo_inurba_marseille","lat":43.2815,"lon":5.42644,"is_reserved":false,"is_disabled":false,"rental_uris":{"android":"levelo://app?vid=47cd9dba-9c5a-4de3-a27d-45ec0de547bc","ios":"levelo://app?vid=47cd9dba-9c5a-4de3-a27d-45ec0de547bc"},"vehicle_type_id":"4","last_reported":1746695495,"current_range_meters":13600,"station_id":"ce4bhnh2rcd13ifvqgug","pricing_plan_id":"cebpf4jnsgd1na2vs0mg"},{"bike_id":"d7c49f09-f4f5-4778-a298-5da0a13c36da","system_id":"levelo_inurba_marseille","lat":43.330283,"lon":5.390333,"is_reserved":false,"is_disabled":false,"rental_uris":{"android":"levelo://app?vid=d7c49f09-f4f5-4778-a298-5da0a13c36da","ios":"levelo://app?vid=d7c49f09-f4f5-4778-a298-5da0a13c36da"},"vehicle_type_id":"4","last_reported":1746695495,"current_range_meters":13600,"station_id":"ce4bhr92rcd13ifvqhrg","pricing_plan_id":"cebpf4jnsgd1na2vs0mg"},{"bike_id":"172db164-2db6-4b04-a672-7d83fcc95c9a","system_id":"levelo_inurba_marseille","lat":43.25109,"lon":5.4032,"is_reserved":false,"is_disabled":false,"rental_uris":{"android":"levelo://app?vid=172db164-2db6-4b04-a672-7d83fcc95c9a","ios":"levelo://app?vid=172db164-2db6-4b04-a672-7d83fcc95c9a"},"vehicle_type_id":"4","last_reported":1746695495,"current_range_meters":14000,"station_id":"ce4bhlh2rcd13ifvqgig","pricing_plan_id":"cebpf4jnsgd1na2vs0mg"},{"bike_id":"caccb556-2ad0-45b8-84b8-819024dd44e6","system_id":"levelo_inurba_marseille","lat":43.29788,"lon":5.36783,"is_reserved":false,"is_disabled":false,"rental_uris":{"android":"levelo://app?vid=caccb556-2ad0-45b8-84b8-819024dd44e6","ios":"levelo://app?vid=caccb556-2ad0-45b8-84b8-819024dd44e6"},"vehicle_type_id":"4","last_reported":1746695495,"current_range_meters":14400,"station_id":"","pricing_plan_id":"cebpf4jnsgd1na2vs0mg"},{"bike_id":"6971f759-8594-489e-a8f6-9153c9a9c438","system_id":"levelo_inurba_marseille","lat":43.27683,"lon":5.41963,"is_reserved":false,"is_disabled":false,"rental_uris":{"android":"levelo://app?vid=6971f759-8594-489e-a8f6-9153c9a9c438","ios":"levelo://app?vid=6971f759-8594-489e-a8f6-9153c9a9c438"},"vehicle_type_id":"4","last_reported":1746695495,"current_range_meters":14400,"station_id":"","pricing_plan_id":"cebpf4jnsgd1na2vs0mg"},{"bike_id":"9654aeaf-baff-4b3c-b31e-74fcef08d484","system_id":"levelo_inurba_marseille","lat":43.28856,"lon":5.35858,"is_reserved":false,"is_disabled":false,"rental_uris":{"android":"levelo://app?vid=9654aeaf-baff-4b3c-b31e-74fcef08d484","ios":"levelo://app?vid=9654aeaf-baff-4b3c-b31e-74fcef08d484"},"vehicle_type_id":"4","last_reported":1746695495,"current_range_meters":14800,"station_id":"ce4bhb12rcd13ifvqem0","pricing_plan_id":"cebpf4jnsgd1na2vs0mg"},{"bike_id":"e6282093-23fb-41a9-859d-c0d9ad966535","system_id":"levelo_inurba_marseille","lat":43.31734,"lon":5.37712,"is_reserved":false,"is_disabled":false,"rental_uris":{"android":"levelo://app?vid=e6282093-23fb-41a9-859d-c0d9ad966535","ios":"levelo://app?vid=e6282093-23fb-41a9-859d-c0d9ad966535"},"vehicle_type_id":"4","last_reported":1746695495,"current_range_meters":15200,"station_id":"ce4bgth2rcd13ifvqch0","pricing_plan_id":"cebpf4jnsgd1na2vs0mg"},{"bike_id":"68f705e3-fda2-4e6f-ac8a-486b3652e85b","system_id":"levelo_inurba_marseille","lat":43.29518,"lon":5.37503,"is_reserved":false,"is_disabled":false,"rental_uris":{"android":"levelo://app?vid=68f705e3-fda2-4e6f-ac8a-486b3652e85b","ios":"levelo://app?vid=68f705e3-fda2-4e6f-ac8a-486b3652e85b"},"vehicle_type_id":"4","last_reported":1746695495,"current_range_meters":16000,"station_id":"ce4bgkp2rcd13ifvqbmg","pricing_plan_id":"cebpf4jnsgd1na2vs0mg"},{"bike_id":"71210b32-23c7-435f-a1c1-4eeb824855f8","system_id":"levelo_inurba_marseille","lat":43.27611,"lon":5.36121,"is_reserved":false,"is_disabled":false,"rental_uris":{"android":"levelo://app?vid=71210b32-23c7-435f-a1c1-4eeb824855f8","ios":"levelo://app?vid=71210b32-23c7-435f-a1c1-4eeb824855f8"},"vehicle_type_id":"4","last_reported":1746695495,"current_range_meters":16800,"station_id":"ce4bgj92rcd13ifvqbe0","pricing_plan_id":"cebpf4jnsgd1na2vs0mg"},{"bike_id":"b63f299d-cbcf-4d39-abc3-66e12d7e81d9","system_id":"levelo_inurba_marseille","lat":43.28272,"lon":5.35087,"is_reserved":false,"is_disabled":false,"rental_uris":{"android":"levelo://app?vid=b63f299d-cbcf-4d39-abc3-66e12d7e81d9","ios":"levelo://app?vid=b63f299d-cbcf-4d39-abc3-66e12d7e81d9"},"vehicle_type_id":"4","last_reported":1746695495,"current_range_meters":16800,"station_id":"ce4bhbp2rcd13ifvqerg","pricing_plan_id":"cebpf4jnsgd1na2vs0mg"},{"bike_id":"8b67f769-40ae-4ee5-bb96-3acc7471f2ec","system_id":"levelo_inurba_marseille","lat":43.26553,"lon":5.37283,"is_reserved":false,"is_disabled":false,"rental_uris":{"android":"levelo://app?vid=8b67f769-40ae-4ee5-bb96-3acc7471f2ec","ios":"levelo://app?vid=8b67f769-40ae-4ee5-bb96-3acc7471f2ec"},"vehicle_type_id":"4","last_reported":1746695495,"current_range_meters":16800,"station_id":"ce4bhg12rcd13ifvqf70","pricing_plan_id":"cebpf4jnsgd1na2vs0mg"},{"bike_id":"ad3912e1-02bc-450f-9f15-6e4766049115","system_id":"levelo_inurba_marseille","lat":43.29559,"lon":5.42302,"is_reserved":false,"is_disabled":false,"rental_uris":{"android":"levelo://app?vid=ad3912e1-02bc-450f-9f15-6e4766049115","ios":"levelo://app?vid=ad3912e1-02bc-450f-9f15-6e4766049115"},"vehicle_type_id":"4","last_reported":1746695495,"current_range_meters":16800,"station_id":"ce4bhph2rcd13ifvqhdg","pricing_plan_id":"cebpf4jnsgd1na2vs0mg"},{"bike_id":"70a29a45-574c-4ff1-aca3-740aa0e705be","system_id":"levelo_inurba_marseille","lat":43.24172,"lon":5.36391,"is_reserved":false,"is_disabled":false,"rental_uris":{"android":"levelo://app?vid=70a29a45-574c-4ff1-aca3-740aa0e705be","ios":"levelo://app?vid=70a29a45-574c-4ff1-aca3-740aa0e705be"},"vehicle_type_id":"4","last_reported":1746695495,"current_range_meters":16800,"station_id":"cpo36qri1sfpv3e86is0","pricing_plan_id":"cebpf4jnsgd1na2vs0mg"},{"bike_id":"86faaeb0-89f8-42b9-be93-a34d16b7bcf7","system_id":"levelo_inurba_marseille","lat":43.30099,"lon":5.37012,"is_reserved":false,"is_disabled":false,"rental_uris":{"android":"levelo://app?vid=86faaeb0-89f8-42b9-be93-a34d16b7bcf7","ios":"levelo://app?vid=86faaeb0-89f8-42b9-be93-a34d16b7bcf7"},"vehicle_type_id":"4","last_reported":1746695495,"current_range_meters":17200,"station_id":"","pricing_plan_id":"cebpf4jnsgd1na2vs0mg"},{"bike_id":"f3f99361-26d3-4d84-947d-2a097cf342b4","system_id":"levelo_inurba_marseille","lat":43.30954,"lon":5.39048,"is_reserved":false,"is_disabled":false,"rental_uris":{"android":"levelo://app?vid=f3f99361-26d3-4d84-947d-2a097cf342b4","ios":"levelo://app?vid=f3f99361-26d3-4d84-947d-2a097cf342b4"},"vehicle_type_id":"4","last_reported":1746695495,"current_range_meters":17200,"station_id":"ce4bgup2rcd13ifvqco0","pricing_plan_id":"cebpf4jnsgd1na2vs0mg"},{"bike_id":"902959c7-0da4-451f-999a-5d71ce0f61f5","system_id":"levelo_inurba_marseille","lat":43.29872,"lon":5.39738,"is_reserved":false,"is_disabled":false,"rental_uris":{"android":"levelo://app?vid=902959c7-0da4-451f-999a-5d71ce0f61f5","ios":"levelo://app?vid=902959c7-0da4-451f-999a-5d71ce0f61f5"},"vehicle_type_id":"4","last_reported":1746695495,"current_range_meters":17200,"station_id":"ce4bh0h2rcd13ifvqd50","pricing_plan_id":"cebpf4jnsgd1na2vs0mg"},{"bike_id":"538a00ec-406a-45cb-9087-dcff9b7fa022","system_id":"levelo_inurba_marseille","lat":43.25107,"lon":5.40321,"is_reserved":false,"is_disabled":false,"rental_uris":{"android":"levelo://app?vid=538a00ec-406a-45cb-9087-dcff9b7fa022","ios":"levelo://app?vid=538a00ec-406a-45cb-9087-dcff9b7fa022"},"vehicle_type_id":"4","last_reported":1746695495,"current_range_meters":17200,"station_id":"ce4bhlh2rcd13ifvqgig","pricing_plan_id":"cebpf4jnsgd1na2vs0mg"},{"bike_id":"9c914963-ce3f-46f0-b9a6-9ef1f2016d4a","system_id":"levelo_inurba_marseille","lat":43.27986,"lon":5.41673,"is_reserved":false,"is_disabled":false,"rental_uris":{"android":"levelo://app?vid=9c914963-ce3f-46f0-b9a6-9ef1f2016d4a","ios":"levelo://app?vid=9c914963-ce3f-46f0-b9a6-9ef1f2016d4a"},"vehicle_type_id":"4","last_reported":1746695495,"current_range_meters":17200,"station_id":"ce4bho12rcd13ifvqh1g","pricing_plan_id":"cebpf4jnsgd1na2vs0mg"},{"bike_id":"e85fb6e7-29b9-4a2c-aa10-343a3bf1aacc","system_id":"levelo_inurba_marseille","lat":43.29901,"lon":5.43655,"is_reserved":false,"is_disabled":false,"rental_uris":{"android":"levelo://app?vid=e85fb6e7-29b9-4a2c-aa10-343a3bf1aacc","ios":"levelo://app?vid=e85fb6e7-29b9-4a2c-aa10-343a3bf1aacc"},"vehicle_type_id":"4","last_reported":1746695495,"current_range_meters":17200,"station_id":"ce4bhpp2rcd13ifvqhfg","pricing_plan_id":"cebpf4jnsgd1na2vs0mg"},{"bike_id":"16d82653-e2e5-4531-a384-7902e244f0cf","system_id":"levelo_inurba_marseille","lat":43.22512,"lon":5.34768,"is_reserved":false,"is_disabled":false,"rental_uris":{"android":"levelo://app?vid=16d82653-e2e5-4531-a384-7902e244f0cf","ios":"levelo://app?vid=16d82653-e2e5-4531-a384-7902e244f0cf"},"vehicle_type_id":"4","last_reported":1746695495,"current_range_meters":17200,"station_id":"st_cvj5dfep6f1abm77gieg","pricing_plan_id":"cebpf4jnsgd1na2vs0mg"},{"bike_id":"e9135506-ad92-4336-9c8f-389560d4b052","system_id":"levelo_inurba_marseille","lat":43.313638,"lon":5.384975,"is_reserved":false,"is_disabled":false,"rental_uris":{"android":"levelo://app?vid=e9135506-ad92-4336-9c8f-389560d4b052","ios":"levelo://app?vid=e9135506-ad92-4336-9c8f-389560d4b052"},"vehicle_type_id":"4","last_reported":1746695495,"current_range_meters":17600,"station_id":"ce4bgt92rcd13ifvqcf0","pricing_plan_id":"cebpf4jnsgd1na2vs0mg"},{"bike_id":"e5b91a66-e7e5-481e-a827-b5fd49ff86d7","system_id":"levelo_inurba_marseille","lat":43.28274,"lon":5.3506,"is_reserved":false,"is_disabled":false,"rental_uris":{"android":"levelo://app?vid=e5b91a66-e7e5-481e-a827-b5fd49ff86d7","ios":"levelo://app?vid=e5b91a66-e7e5-481e-a827-b5fd49ff86d7"},"vehicle_type_id":"4","last_reported":1746695495,"current_range_meters":17600,"station_id":"ce4bhbp2rcd13ifvqerg","pricing_plan_id":"cebpf4jnsgd1na2vs0mg"},{"bike_id":"3cac0407-9710-44bd-a04a-af262a1048b3","system_id":"levelo_inurba_marseille","lat":43.28149,"lon":5.42649,"is_reserved":false,"is_disabled":false,"rental_uris":{"android":"levelo://app?vid=3cac0407-9710-44bd-a04a-af262a1048b3","ios":"levelo://app?vid=3cac0407-9710-44bd-a04a-af262a1048b3"},"vehicle_type_id":"4","last_reported":1746695495,"current_range_meters":17600,"station_id":"ce4bhnh2rcd13ifvqgug","pricing_plan_id":"cebpf4jnsgd1na2vs0mg"},{"bike_id":"a71a0dfc-7de8-44ee-9bb2-1e81dadd19e0","system_id":"levelo_inurba_marseille","lat":43.317064,"lon":5.43704,"is_reserved":false,"is_disabled":false,"rental_uris":{"android":"levelo://app?vid=a71a0dfc-7de8-44ee-9bb2-1e81dadd19e0","ios":"levelo://app?vid=a71a0dfc-7de8-44ee-9bb2-1e81dadd19e0"},"vehicle_type_id":"4","last_reported":1746695495,"current_range_meters":17600,"station_id":"ce4bhp92rcd13ifvqhcg","pricing_plan_id":"cebpf4jnsgd1na2vs0mg"},{"bike_id":"c2cc53d5-b81f-497c-a708-9e047a6cd2d0","system_id":"levelo_inurba_marseille","lat":43.30304,"lon":5.36868,"is_reserved":false,"is_disabled":false,"rental_uris":{"android":"levelo://app?vid=c2cc53d5-b81f-497c-a708-9e047a6cd2d0","ios":"levelo://app?vid=c2cc53d5-b81f-497c-a708-9e047a6cd2d0"},"vehicle_type_id":"4","last_reported":1746695495,"current_range_meters":18000,"station_id":"ce4bgqh2rcd13ifvqc5g","pricing_plan_id":"cebpf4jnsgd1na2vs0mg"},{"bike_id":"f38ba6a8-c71e-456c-8513-d1ed10f12837","system_id":"levelo_inurba_marseille","lat":43.3042,"lon":5.41289,"is_reserved":false,"is_disabled":false,"rental_uris":{"android":"levelo://app?vid=f38ba6a8-c71e-456c-8513-d1ed10f12837","ios":"levelo://app?vid=f38ba6a8-c71e-456c-8513-d1ed10f12837"},"vehicle_type_id":"4","last_reported":1746695495,"current_range_meters":18000,"station_id":"ce4bhop2rcd13ifvqh8g","pricing_plan_id":"cebpf4jnsgd1na2vs0mg"},{"bike_id":"ff807334-3ad3-4e40-bbde-648eb2b1c45b","system_id":"levelo_inurba_marseille","lat":43.21216,"lon":5.35056,"is_reserved":false,"is_disabled":false,"rental_uris":{"android":"levelo://app?vid=ff807334-3ad3-4e40-bbde-648eb2b1c45b","ios":"levelo://app?vid=ff807334-3ad3-4e40-bbde-648eb2b1c45b"},"vehicle_type_id":"4","last_reported":1746695495,"current_range_meters":18000,"station_id":"st_cvj6sg6p6f1abm77japg","pricing_plan_id":"cebpf4jnsgd1na2vs0mg"},{"bike_id":"3ad9f384-5f18-4dc4-b285-5cbb0e982e0a","system_id":"levelo_inurba_marseille","lat":43.23154,"lon":5.43708,"is_reserved":false,"is_disabled":false,"rental_uris":{"android":"levelo://app?vid=3ad9f384-5f18-4dc4-b285-5cbb0e982e0a","ios":"levelo://app?vid=3ad9f384-5f18-4dc4-b285-5cbb0e982e0a"},"vehicle_type_id":"4","last_reported":1746695495,"current_range_meters":18800,"station_id":"ce4bhmp2rcd13ifvqgog","pricing_plan_id":"cebpf4jnsgd1na2vs0mg"},{"bike_id":"13dcf47e-4a64-4b90-9425-15abaa7b6175","system_id":"levelo_inurba_marseille","lat":43.2119,"lon":5.35078,"is_reserved":false,"is_disabled":false,"rental_uris":{"android":"levelo://app?vid=13dcf47e-4a64-4b90-9425-15abaa7b6175","ios":"levelo://app?vid=13dcf47e-4a64-4b90-9425-15abaa7b6175"},"vehicle_type_id":"4","last_reported":1746695495,"current_range_meters":18800,"station_id":"st_cvj6sg6p6f1abm77japg","pricing_plan_id":"cebpf4jnsgd1na2vs0mg"},{"bike_id":"c821e32e-d925-441c-80d2-d5a984744aba","system_id":"levelo_inurba_marseille","lat":43.21198,"lon":5.35074,"is_reserved":false,"is_disabled":false,"rental_uris":{"android":"levelo://app?vid=c821e32e-d925-441c-80d2-d5a984744aba","ios":"levelo://app?vid=c821e32e-d925-441c-80d2-d5a984744aba"},"vehicle_type_id":"4","last_reported":1746695495,"current_range_meters":18800,"station_id":"st_cvj6sg6p6f1abm77japg","pricing_plan_id":"cebpf4jnsgd1na2vs0mg"},{"bike_id":"95407fdd-6b53-4c42-85f7-ee3e66f21b13","system_id":"levelo_inurba_marseille","lat":43.24331,"lon":5.38005,"is_reserved":false,"is_disabled":false,"rental_uris":{"android":"levelo://app?vid=95407fdd-6b53-4c42-85f7-ee3e66f21b13","ios":"levelo://app?vid=95407fdd-6b53-4c42-85f7-ee3e66f21b13"},"vehicle_type_id":"4","last_reported":1746695495,"current_range_meters":19200,"station_id":"","pricing_plan_id":"cebpf4jnsgd1na2vs0mg"},{"bike_id":"c00b4dc3-faff-4d5a-88c8-7b701ca8bbe6","system_id":"levelo_inurba_marseille","lat":43.31737,"lon":5.40375,"is_reserved":false,"is_disabled":false,"rental_uris":{"android":"levelo://app?vid=c00b4dc3-faff-4d5a-88c8-7b701ca8bbe6","ios":"levelo://app?vid=c00b4dc3-faff-4d5a-88c8-7b701ca8bbe6"},"vehicle_type_id":"4","last_reported":1746695495,"current_range_meters":19200,"station_id":"","pricing_plan_id":"cebpf4jnsgd1na2vs0mg"},{"bike_id":"fc808cbe-f873-49fa-b923-2a0dd686c6a3","system_id":"levelo_inurba_marseille","lat":43.301594,"lon":5.381152,"is_reserved":false,"is_disabled":false,"rental_uris":{"android":"levelo://app?vid=fc808cbe-f873-49fa-b923-2a0dd686c6a3","ios":"levelo://app?vid=fc808cbe-f873-49fa-b923-2a0dd686c6a3"},"vehicle_type_id":"4","last_reported":1746695495,"current_range_meters":19200,"station_id":"ce4bgjp2rcd13ifvqbh0","pricing_plan_id":"cebpf4jnsgd1na2vs0mg"},{"bike_id":"90dd7ece-e0e3-4e3f-8585-4f4f345a0f96","system_id":"levelo_inurba_marseille","lat":43.31705,"lon":5.40457,"is_reserved":false,"is_disabled":false,"rental_uris":{"android":"levelo://app?vid=90dd7ece-e0e3-4e3f-8585-4f4f345a0f96","ios":"levelo://app?vid=90dd7ece-e0e3-4e3f-8585-4f4f345a0f96"},"vehicle_type_id":"4","last_reported":1746695495,"current_range_meters":19200,"station_id":"ce4bh012rcd13ifvqd00","pricing_plan_id":"cebpf4jnsgd1na2vs0mg"},{"bike_id":"3b507c8d-e77b-401f-bbdd-7591160ab39c","system_id":"levelo_inurba_marseille","lat":43.24181,"lon":5.39725,"is_reserved":false,"is_disabled":false,"rental_uris":{"android":"levelo://app?vid=3b507c8d-e77b-401f-bbdd-7591160ab39c","ios":"levelo://app?vid=3b507c8d-e77b-401f-bbdd-7591160ab39c"},"vehicle_type_id":"4","last_reported":1746695495,"current_range_meters":19200,"station_id":"ce4bhn12rcd13ifvqgpg","pricing_plan_id":"cebpf4jnsgd1na2vs0mg"},{"bike_id":"f3e9ab38-3242-4aa5-83f9-529a16ccf936","system_id":"levelo_inurba_marseille","lat":43.22503,"lon":5.34785,"is_reserved":false,"is_disabled":false,"rental_uris":{"android":"levelo://app?vid=f3e9ab38-3242-4aa5-83f9-529a16ccf936","ios":"levelo://app?vid=f3e9ab38-3242-4aa5-83f9-529a16ccf936"},"vehicle_type_id":"4","last_reported":1746695495,"current_range_meters":19200,"station_id":"st_cvj5dfep6f1abm77gieg","pricing_plan_id":"cebpf4jnsgd1na2vs0mg"},{"bike_id":"34b0bc6a-7140-4b5a-838e-d329135fd8f8","system_id":"levelo_inurba_marseille","lat":43.309473,"lon":5.390307,"is_reserved":false,"is_disabled":false,"rental_uris":{"android":"levelo://app?vid=34b0bc6a-7140-4b5a-838e-d329135fd8f8","ios":"levelo://app?vid=34b0bc6a-7140-4b5a-838e-d329135fd8f8"},"vehicle_type_id":"4","last_reported":1746695495,"current_range_meters":19600,"station_id":"ce4bgup2rcd13ifvqco0","pricing_plan_id":"cebpf4jnsgd1na2vs0mg"},{"bike_id":"0abbab51-139a-4311-9127-a7590c41c6f1","system_id":"levelo_inurba_marseille","lat":43.23197,"lon":5.35556,"is_reserved":false,"is_disabled":false,"rental_uris":{"android":"levelo://app?vid=0abbab51-139a-4311-9127-a7590c41c6f1","ios":"levelo://app?vid=0abbab51-139a-4311-9127-a7590c41c6f1"},"vehicle_type_id":"4","last_reported":1746695495,"current_range_meters":19600,"station_id":"ce4bhu92rcd13ifvqi70","pricing_plan_id":"cebpf4jnsgd1na2vs0mg"},{"bike_id":"72c714fe-a0de-42e3-a30e-f198dc7536fd","system_id":"levelo_inurba_marseille","lat":43.21749,"lon":5.34601,"is_reserved":false,"is_disabled":false,"rental_uris":{"android":"levelo://app?vid=72c714fe-a0de-42e3-a30e-f198dc7536fd","ios":"levelo://app?vid=72c714fe-a0de-42e3-a30e-f198dc7536fd"},"vehicle_type_id":"4","last_reported":1746695495,"current_range_meters":19600,"station_id":"st_cvj6r9ubvosntc0bgbag","pricing_plan_id":"cebpf4jnsgd1na2vs0mg"},{"bike_id":"5a66b016-8425-4ea9-ad57-b6177cc96802","system_id":"levelo_inurba_marseille","lat":43.315709,"lon":5.388994,"is_reserved":false,"is_disabled":false,"rental_uris":{"android":"levelo://app?vid=5a66b016-8425-4ea9-ad57-b6177cc96802","ios":"levelo://app?vid=5a66b016-8425-4ea9-ad57-b6177cc96802"},"vehicle_type_id":"4","last_reported":1746695495,"current_range_meters":20000,"station_id":"","pricing_plan_id":"cebpf4jnsgd1na2vs0mg"},{"bike_id":"08f13c7a-2eb9-4abf-8400-826a57aabaef","system_id":"levelo_inurba_marseille","lat":43.31694,"lon":5.37249,"is_reserved":false,"is_disabled":false,"rental_uris":{"android":"levelo://app?vid=08f13c7a-2eb9-4abf-8400-826a57aabaef","ios":"levelo://app?vid=08f13c7a-2eb9-4abf-8400-826a57aabaef"},"vehicle_type_id":"4","last_reported":1746695495,"current_range_meters":20000,"station_id":"","pricing_plan_id":"cebpf4jnsgd1na2vs0mg"},{"bike_id":"fbdc470a-f9f3-40c7-9bda-da42f0f6d12e","system_id":"levelo_inurba_marseille","lat":43.31356,"lon":5.385,"is_reserved":false,"is_disabled":false,"rental_uris":{"android":"levelo://app?vid=fbdc470a-f9f3-40c7-9bda-da42f0f6d12e","ios":"levelo://app?vid=fbdc470a-f9f3-40c7-9bda-da42f0f6d12e"},"vehicle_type_id":"4","last_reported":1746695495,"current_range_meters":20000,"station_id":"ce4bgt92rcd13ifvqcf0","pricing_plan_id":"cebpf4jnsgd1na2vs0mg"},{"bike_id":"f4cf1403-02f5-43ae-8b35-5dd466b5f5ec","system_id":"levelo_inurba_marseille","lat":43.32657,"lon":5.40993,"is_reserved":false,"is_disabled":false,"rental_uris":{"android":"levelo://app?vid=f4cf1403-02f5-43ae-8b35-5dd466b5f5ec","ios":"levelo://app?vid=f4cf1403-02f5-43ae-8b35-5dd466b5f5ec"},"vehicle_type_id":"4","last_reported":1746695495,"current_range_meters":20400,"station_id":"ce4bhpp2rcd13ifvqhgg","pricing_plan_id":"cebpf4jnsgd1na2vs0mg"},{"bike_id":"dde334b9-ee0c-4c2f-a70e-833ba6621979","system_id":"levelo_inurba_marseille","lat":43.32109,"lon":5.36769,"is_reserved":false,"is_disabled":false,"rental_uris":{"android":"levelo://app?vid=dde334b9-ee0c-4c2f-a70e-833ba6621979","ios":"levelo://app?vid=dde334b9-ee0c-4c2f-a70e-833ba6621979"},"vehicle_type_id":"4","last_reported":1746695495,"current_range_meters":20400,"station_id":"ce4bhrh2rcd13ifvqhug","pricing_plan_id":"cebpf4jnsgd1na2vs0mg"},{"bike_id":"3105ff53-fec6-464c-9711-272dcb888ad6","system_id":"levelo_inurba_marseille","lat":43.293242,"lon":5.370821,"is_reserved":false,"is_disabled":false,"rental_uris":{"android":"levelo://app?vid=3105ff53-fec6-464c-9711-272dcb888ad6","ios":"levelo://app?vid=3105ff53-fec6-464c-9711-272dcb888ad6"},"vehicle_type_id":"4","last_reported":1746695495,"current_range_meters":20800,"station_id":"ce4bgkp2rcd13ifvqbmg","pricing_plan_id":"cebpf4jnsgd1na2vs0mg"},{"bike_id":"c16e2921-b1ea-4f2b-a2cc-79d450fa56ff","system_id":"levelo_inurba_marseille","lat":43.25938,"lon":5.40902,"is_reserved":false,"is_disabled":false,"rental_uris":{"android":"levelo://app?vid=c16e2921-b1ea-4f2b-a2cc-79d450fa56ff","ios":"levelo://app?vid=c16e2921-b1ea-4f2b-a2cc-79d450fa56ff"},"vehicle_type_id":"4","last_reported":1746695495,"current_range_meters":20800,"station_id":"ce4bhm92rcd13ifvqglg","pricing_plan_id":"cebpf4jnsgd1na2vs0mg"},{"bike_id":"c7e2658e-7962-43e3-91ff-62956616fa4e","system_id":"levelo_inurba_marseille","lat":43.28943,"lon":5.36404,"is_reserved":false,"is_disabled":false,"rental_uris":{"android":"levelo://app?vid=c7e2658e-7962-43e3-91ff-62956616fa4e","ios":"levelo://app?vid=c7e2658e-7962-43e3-91ff-62956616fa4e"},"vehicle_type_id":"4","last_reported":1746695495,"current_range_meters":21600,"station_id":"ce4bhc92rcd13ifvqetg","pricing_plan_id":"cebpf4jnsgd1na2vs0mg"},{"bike_id":"81d4cec4-4182-4035-b937-2cdef08d4fe1","system_id":"levelo_inurba_marseille","lat":43.30747,"lon":5.42426,"is_reserved":false,"is_disabled":false,"rental_uris":{"android":"levelo://app?vid=81d4cec4-4182-4035-b937-2cdef08d4fe1","ios":"levelo://app?vid=81d4cec4-4182-4035-b937-2cdef08d4fe1"},"vehicle_type_id":"4","last_reported":1746695495,"current_range_meters":21600,"station_id":"st_cvj6ca6bvosntc0bfgr0","pricing_plan_id":"cebpf4jnsgd1na2vs0mg"},{"bike_id":"22ef81df-0049-4cae-ae24-7a9c2acc331d","system_id":"levelo_inurba_marseille","lat":43.29373,"lon":5.37864,"is_reserved":false,"is_disabled":false,"rental_uris":{"android":"levelo://app?vid=22ef81df-0049-4cae-ae24-7a9c2acc331d","ios":"levelo://app?vid=22ef81df-0049-4cae-ae24-7a9c2acc331d"},"vehicle_type_id":"4","last_reported":1746695495,"current_range_meters":22000,"station_id":"ce4bgjh2rcd13ifvqbf0","pricing_plan_id":"cebpf4jnsgd1na2vs0mg"},{"bike_id":"22466279-92a1-4a5e-8b22-a64d5d807afd","system_id":"levelo_inurba_marseille","lat":43.309558,"lon":5.390366,"is_reserved":false,"is_disabled":false,"rental_uris":{"android":"levelo://app?vid=22466279-92a1-4a5e-8b22-a64d5d807afd","ios":"levelo://app?vid=22466279-92a1-4a5e-8b22-a64d5d807afd"},"vehicle_type_id":"4","last_reported":1746695495,"current_range_meters":22000,"station_id":"ce4bgup2rcd13ifvqco0","pricing_plan_id":"cebpf4jnsgd1na2vs0mg"},{"bike_id":"ec58e7bc-6980-4e17-babc-5897453e2551","system_id":"levelo_inurba_marseille","lat":43.30954,"lon":5.39016,"is_reserved":false,"is_disabled":false,"rental_uris":{"android":"levelo://app?vid=ec58e7bc-6980-4e17-babc-5897453e2551","ios":"levelo://app?vid=ec58e7bc-6980-4e17-babc-5897453e2551"},"vehicle_type_id":"4","last_reported":1746695495,"current_range_meters":22000,"station_id":"ce4bgup2rcd13ifvqco0","pricing_plan_id":"cebpf4jnsgd1na2vs0mg"},{"bike_id":"b49f0945-e598-42bf-84ee-323cdcc2096f","system_id":"levelo_inurba_marseille","lat":43.3042,"lon":5.41281,"is_reserved":false,"is_disabled":false,"rental_uris":{"android":"levelo://app?vid=b49f0945-e598-42bf-84ee-323cdcc2096f","ios":"levelo://app?vid=b49f0945-e598-42bf-84ee-323cdcc2096f"},"vehicle_type_id":"4","last_reported":1746695495,"current_range_meters":22000,"station_id":"ce4bhop2rcd13ifvqh8g","pricing_plan_id":"cebpf4jnsgd1na2vs0mg"},{"bike_id":"5f3e0c3c-ba07-4c9a-97a4-b68afab76ca1","system_id":"levelo_inurba_marseille","lat":43.30539,"lon":5.38429,"is_reserved":false,"is_disabled":false,"rental_uris":{"android":"levelo://app?vid=5f3e0c3c-ba07-4c9a-97a4-b68afab76ca1","ios":"levelo://app?vid=5f3e0c3c-ba07-4c9a-97a4-b68afab76ca1"},"vehicle_type_id":"4","last_reported":1746695495,"current_range_meters":22400,"station_id":"ce4bgg92rcd13ifvqb30","pricing_plan_id":"cebpf4jnsgd1na2vs0mg"},{"bike_id":"f597e4b6-c723-45d1-a62d-164b4d4c53ce","system_id":"levelo_inurba_marseille","lat":43.31374,"lon":5.38497,"is_reserved":false,"is_disabled":false,"rental_uris":{"android":"levelo://app?vid=f597e4b6-c723-45d1-a62d-164b4d4c53ce","ios":"levelo://app?vid=f597e4b6-c723-45d1-a62d-164b4d4c53ce"},"vehicle_type_id":"4","last_reported":1746695495,"current_range_meters":22400,"station_id":"ce4bgt92rcd13ifvqcf0","pricing_plan_id":"cebpf4jnsgd1na2vs0mg"},{"bike_id":"e8fd8012-c1db-4686-9fec-3c64cff8e07a","system_id":"levelo_inurba_marseille","lat":43.29447,"lon":5.39729,"is_reserved":false,"is_disabled":false,"rental_uris":{"android":"levelo://app?vid=e8fd8012-c1db-4686-9fec-3c64cff8e07a","ios":"levelo://app?vid=e8fd8012-c1db-4686-9fec-3c64cff8e07a"},"vehicle_type_id":"4","last_reported":1746695495,"current_range_meters":22400,"station_id":"ce4bh3h2rcd13ifvqdo0","pricing_plan_id":"cebpf4jnsgd1na2vs0mg"},{"bike_id":"8556e935-e456-46d1-bbee-67d8c63efb21","system_id":"levelo_inurba_marseille","lat":43.26565,"lon":5.37284,"is_reserved":false,"is_disabled":false,"rental_uris":{"android":"levelo://app?vid=8556e935-e456-46d1-bbee-67d8c63efb21","ios":"levelo://app?vid=8556e935-e456-46d1-bbee-67d8c63efb21"},"vehicle_type_id":"4","last_reported":1746695495,"current_range_meters":22400,"station_id":"ce4bhg12rcd13ifvqf70","pricing_plan_id":"cebpf4jnsgd1na2vs0mg"},{"bike_id":"6536cb6e-d928-4440-9089-a7deb10c7d96","system_id":"levelo_inurba_marseille","lat":43.24163,"lon":5.363984,"is_reserved":false,"is_disabled":false,"rental_uris":{"android":"levelo://app?vid=6536cb6e-d928-4440-9089-a7deb10c7d96","ios":"levelo://app?vid=6536cb6e-d928-4440-9089-a7deb10c7d96"},"vehicle_type_id":"4","last_reported":1746695495,"current_range_meters":22400,"station_id":"cpo36qri1sfpv3e86is0","pricing_plan_id":"cebpf4jnsgd1na2vs0mg"},{"bike_id":"c1041c9f-2085-470a-b13c-f88fd8323115","system_id":"levelo_inurba_marseille","lat":43.27743,"lon":5.38683,"is_reserved":false,"is_disabled":false,"rental_uris":{"android":"levelo://app?vid=c1041c9f-2085-470a-b13c-f88fd8323115","ios":"levelo://app?vid=c1041c9f-2085-470a-b13c-f88fd8323115"},"vehicle_type_id":"4","last_reported":1746695495,"current_range_meters":22800,"station_id":"","pricing_plan_id":"cebpf4jnsgd1na2vs0mg"},{"bike_id":"d1107ecd-be4f-458d-a1cd-17553b1323a8","system_id":"levelo_inurba_marseille","lat":43.21488,"lon":5.34822,"is_reserved":false,"is_disabled":false,"rental_uris":{"android":"levelo://app?vid=d1107ecd-be4f-458d-a1cd-17553b1323a8","ios":"levelo://app?vid=d1107ecd-be4f-458d-a1cd-17553b1323a8"},"vehicle_type_id":"4","last_reported":1746695495,"current_range_meters":22800,"station_id":"","pricing_plan_id":"cebpf4jnsgd1na2vs0mg"},{"bike_id":"c57c65ad-ada6-486b-9eaa-4e13b594575e","system_id":"levelo_inurba_marseille","lat":43.29534,"lon":5.38539,"is_reserved":false,"is_disabled":false,"rental_uris":{"android":"levelo://app?vid=c57c65ad-ada6-486b-9eaa-4e13b594575e","ios":"levelo://app?vid=c57c65ad-ada6-486b-9eaa-4e13b594575e"},"vehicle_type_id":"4","last_reported":1746695495,"current_range_meters":22800,"station_id":"ce4bgih2rcd13ifvqba0","pricing_plan_id":"cebpf4jnsgd1na2vs0mg"},{"bike_id":"6b32e5a9-83ae-4079-ad9d-1fdd84c4fe17","system_id":"levelo_inurba_marseille","lat":43.29229,"lon":5.36073,"is_reserved":false,"is_disabled":false,"rental_uris":{"android":"levelo://app?vid=6b32e5a9-83ae-4079-ad9d-1fdd84c4fe17","ios":"levelo://app?vid=6b32e5a9-83ae-4079-ad9d-1fdd84c4fe17"},"vehicle_type_id":"4","last_reported":1746695495,"current_range_meters":22800,"station_id":"ce4bhbh2rcd13ifvqeqg","pricing_plan_id":"cebpf4jnsgd1na2vs0mg"},{"bike_id":"d102547c-2fc8-457b-9026-fb2fce934c54","system_id":"levelo_inurba_marseille","lat":43.25104,"lon":5.40332,"is_reserved":false,"is_disabled":false,"rental_uris":{"android":"levelo://app?vid=d102547c-2fc8-457b-9026-fb2fce934c54","ios":"levelo://app?vid=d102547c-2fc8-457b-9026-fb2fce934c54"},"vehicle_type_id":"4","last_reported":1746695495,"current_range_meters":22800,"station_id":"ce4bhlh2rcd13ifvqgig","pricing_plan_id":"cebpf4jnsgd1na2vs0mg"},{"bike_id":"83a50b95-d68b-4f37-b42f-f4b6d18160f2","system_id":"levelo_inurba_marseille","lat":43.25944,"lon":5.40881,"is_reserved":false,"is_disabled":false,"rental_uris":{"android":"levelo://app?vid=83a50b95-d68b-4f37-b42f-f4b6d18160f2","ios":"levelo://app?vid=83a50b95-d68b-4f37-b42f-f4b6d18160f2"},"vehicle_type_id":"4","last_reported":1746695495,"current_range_meters":22800,"station_id":"ce4bhm92rcd13ifvqglg","pricing_plan_id":"cebpf4jnsgd1na2vs0mg"},{"bike_id":"a6f4ad41-e482-4042-9e7c-580c1bdb55ea","system_id":"levelo_inurba_marseille","lat":43.30946,"lon":5.39034,"is_reserved":false,"is_disabled":false,"rental_uris":{"android":"levelo://app?vid=a6f4ad41-e482-4042-9e7c-580c1bdb55ea","ios":"levelo://app?vid=a6f4ad41-e482-4042-9e7c-580c1bdb55ea"},"vehicle_type_id":"4","last_reported":1746695495,"current_range_meters":23200,"station_id":"ce4bgup2rcd13ifvqco0","pricing_plan_id":"cebpf4jnsgd1na2vs0mg"},{"bike_id":"794db8f4-73cc-4adf-837b-2ddb1ae0cc22","system_id":"levelo_inurba_marseille","lat":43.29863,"lon":5.39738,"is_reserved":false,"is_disabled":false,"rental_uris":{"android":"levelo://app?vid=794db8f4-73cc-4adf-837b-2ddb1ae0cc22","ios":"levelo://app?vid=794db8f4-73cc-4adf-837b-2ddb1ae0cc22"},"vehicle_type_id":"4","last_reported":1746695495,"current_range_meters":23200,"station_id":"ce4bh0h2rcd13ifvqd50","pricing_plan_id":"cebpf4jnsgd1na2vs0mg"},{"bike_id":"8f94d34f-90d2-4c09-9466-679d51326146","system_id":"levelo_inurba_marseille","lat":43.29255,"lon":5.40913,"is_reserved":false,"is_disabled":false,"rental_uris":{"android":"levelo://app?vid=8f94d34f-90d2-4c09-9466-679d51326146","ios":"levelo://app?vid=8f94d34f-90d2-4c09-9466-679d51326146"},"vehicle_type_id":"4","last_reported":1746695495,"current_range_meters":23200,"station_id":"ce4bh192rcd13ifvqdc0","pricing_plan_id":"cebpf4jnsgd1na2vs0mg"},{"bike_id":"f79784db-4905-4fa3-8ce2-3a0b79871a37","system_id":"levelo_inurba_marseille","lat":43.29277,"lon":5.40116,"is_reserved":false,"is_disabled":false,"rental_uris":{"android":"levelo://app?vid=f79784db-4905-4fa3-8ce2-3a0b79871a37","ios":"levelo://app?vid=f79784db-4905-4fa3-8ce2-3a0b79871a37"},"vehicle_type_id":"4","last_reported":1746695495,"current_range_meters":23200,"station_id":"ce4bh312rcd13ifvqdk0","pricing_plan_id":"cebpf4jnsgd1na2vs0mg"},{"bike_id":"081e31e4-a568-4d25-a88e-83085c5e0d76","system_id":"levelo_inurba_marseille","lat":43.26558,"lon":5.37286,"is_reserved":false,"is_disabled":false,"rental_uris":{"android":"levelo://app?vid=081e31e4-a568-4d25-a88e-83085c5e0d76","ios":"levelo://app?vid=081e31e4-a568-4d25-a88e-83085c5e0d76"},"vehicle_type_id":"4","last_reported":1746695495,"current_range_meters":23200,"station_id":"ce4bhg12rcd13ifvqf70","pricing_plan_id":"cebpf4jnsgd1na2vs0mg"},{"bike_id":"f7055928-4485-49d6-b032-7605cc45320f","system_id":"levelo_inurba_marseille","lat":43.2621,"lon":5.37444,"is_reserved":false,"is_disabled":false,"rental_uris":{"android":"levelo://app?vid=f7055928-4485-49d6-b032-7605cc45320f","ios":"levelo://app?vid=f7055928-4485-49d6-b032-7605cc45320f"},"vehicle_type_id":"4","last_reported":1746695495,"current_range_meters":23200,"station_id":"ce4bhgp2rcd13ifvqfc0","pricing_plan_id":"cebpf4jnsgd1na2vs0mg"},{"bike_id":"8ab99e0b-0be6-4a7a-bf68-eeaf09a53f40","system_id":"levelo_inurba_marseille","lat":43.33052,"lon":5.3904,"is_reserved":false,"is_disabled":false,"rental_uris":{"android":"levelo://app?vid=8ab99e0b-0be6-4a7a-bf68-eeaf09a53f40","ios":"levelo://app?vid=8ab99e0b-0be6-4a7a-bf68-eeaf09a53f40"},"vehicle_type_id":"4","last_reported":1746695495,"current_range_meters":23200,"station_id":"ce4bhr92rcd13ifvqhrg","pricing_plan_id":"cebpf4jnsgd1na2vs0mg"},{"bike_id":"e1eefe4b-c8d9-4584-bc99-1ff52d9d59bc","system_id":"levelo_inurba_marseille","lat":43.31537,"lon":5.38023,"is_reserved":false,"is_disabled":false,"rental_uris":{"android":"levelo://app?vid=e1eefe4b-c8d9-4584-bc99-1ff52d9d59bc","ios":"levelo://app?vid=e1eefe4b-c8d9-4584-bc99-1ff52d9d59bc"},"vehicle_type_id":"4","last_reported":1746695495,"current_range_meters":23200,"station_id":"ce4bhsp2rcd13ifvqi50","pricing_plan_id":"cebpf4jnsgd1na2vs0mg"},{"bike_id":"e89e85c1-a412-4b2b-967f-b51483c42de4","system_id":"levelo_inurba_marseille","lat":43.31221,"lon":5.36879,"is_reserved":false,"is_disabled":false,"rental_uris":{"android":"levelo://app?vid=e89e85c1-a412-4b2b-967f-b51483c42de4","ios":"levelo://app?vid=e89e85c1-a412-4b2b-967f-b51483c42de4"},"vehicle_type_id":"4","last_reported":1746695495,"current_range_meters":24000,"station_id":"ce4bgl92rcd13ifvqbq0","pricing_plan_id":"cebpf4jnsgd1na2vs0mg"},{"bike_id":"7b63e515-92d7-448a-8a44-ce4075cb2694","system_id":"levelo_inurba_marseille","lat":43.31367,"lon":5.38493,"is_reserved":false,"is_disabled":false,"rental_uris":{"android":"levelo://app?vid=7b63e515-92d7-448a-8a44-ce4075cb2694","ios":"levelo://app?vid=7b63e515-92d7-448a-8a44-ce4075cb2694"},"vehicle_type_id":"4","last_reported":1746695495,"current_range_meters":24000,"station_id":"ce4bgt92rcd13ifvqcf0","pricing_plan_id":"cebpf4jnsgd1na2vs0mg"},{"bike_id":"3e6600e5-02b9-4290-a755-0079056fa390","system_id":"levelo_inurba_marseille","lat":43.30955,"lon":5.39004,"is_reserved":false,"is_disabled":false,"rental_uris":{"android":"levelo://app?vid=3e6600e5-02b9-4290-a755-0079056fa390","ios":"levelo://app?vid=3e6600e5-02b9-4290-a755-0079056fa390"},"vehicle_type_id":"4","last_reported":1746695495,"current_range_meters":24000,"station_id":"ce4bgup2rcd13ifvqco0","pricing_plan_id":"cebpf4jnsgd1na2vs0mg"},{"bike_id":"6adcaf7e-e4ff-4172-95a2-5174f9926e93","system_id":"levelo_inurba_marseille","lat":43.30228,"lon":5.39505,"is_reserved":false,"is_disabled":false,"rental_uris":{"android":"levelo://app?vid=6adcaf7e-e4ff-4172-95a2-5174f9926e93","ios":"levelo://app?vid=6adcaf7e-e4ff-4172-95a2-5174f9926e93"},"vehicle_type_id":"4","last_reported":1746695495,"current_range_meters":24000,"station_id":"ce4bgup2rcd13ifvqco0","pricing_plan_id":"cebpf4jnsgd1na2vs0mg"},{"bike_id":"832db053-d170-40a5-bb95-87fd05d85bd1","system_id":"levelo_inurba_marseille","lat":43.25503,"lon":5.37648,"is_reserved":false,"is_disabled":false,"rental_uris":{"android":"levelo://app?vid=832db053-d170-40a5-bb95-87fd05d85bd1","ios":"levelo://app?vid=832db053-d170-40a5-bb95-87fd05d85bd1"},"vehicle_type_id":"4","last_reported":1746695495,"current_range_meters":24000,"station_id":"ce4bhh12rcd13ifvqff0","pricing_plan_id":"cebpf4jnsgd1na2vs0mg"},{"bike_id":"06fc0d3f-944a-4985-9f24-fec4d02636e6","system_id":"levelo_inurba_marseille","lat":43.26064,"lon":5.39396,"is_reserved":false,"is_disabled":false,"rental_uris":{"android":"levelo://app?vid=06fc0d3f-944a-4985-9f24-fec4d02636e6","ios":"levelo://app?vid=06fc0d3f-944a-4985-9f24-fec4d02636e6"},"vehicle_type_id":"4","last_reported":1746695495,"current_range_meters":24000,"station_id":"ce4bhh92rcd13ifvqfj0","pricing_plan_id":"cebpf4jnsgd1na2vs0mg"},{"bike_id":"b6ef3f00-dd79-48ff-9fc3-86c640ce7218","system_id":"levelo_inurba_marseille","lat":43.25711,"lon":5.41129,"is_reserved":false,"is_disabled":false,"rental_uris":{"android":"levelo://app?vid=b6ef3f00-dd79-48ff-9fc3-86c640ce7218","ios":"levelo://app?vid=b6ef3f00-dd79-48ff-9fc3-86c640ce7218"},"vehicle_type_id":"4","last_reported":1746695495,"current_range_meters":24000,"station_id":"ce4bhkp2rcd13ifvqgd0","pricing_plan_id":"cebpf4jnsgd1na2vs0mg"},{"bike_id":"2eb8dc8a-5422-4a49-9e5b-7b1ea59dd4ea","system_id":"levelo_inurba_marseille","lat":43.21749,"lon":5.34601,"is_reserved":false,"is_disabled":false,"rental_uris":{"android":"levelo://app?vid=2eb8dc8a-5422-4a49-9e5b-7b1ea59dd4ea","ios":"levelo://app?vid=2eb8dc8a-5422-4a49-9e5b-7b1ea59dd4ea"},"vehicle_type_id":"4","last_reported":1746695495,"current_range_meters":24000,"station_id":"st_cvj6r9ubvosntc0bgbag","pricing_plan_id":"cebpf4jnsgd1na2vs0mg"},{"bike_id":"545e5687-b7df-4883-81be-75a8925d5f91","system_id":"levelo_inurba_marseille","lat":43.337444,"lon":5.374475,"is_reserved":false,"is_disabled":false,"rental_uris":{"android":"levelo://app?vid=545e5687-b7df-4883-81be-75a8925d5f91","ios":"levelo://app?vid=545e5687-b7df-4883-81be-75a8925d5f91"},"vehicle_type_id":"4","last_reported":1746695495,"current_range_meters":24400,"station_id":"","pricing_plan_id":"cebpf4jnsgd1na2vs0mg"},{"bike_id":"8abd7513-3ac3-4417-9b74-13ced9f29be3","system_id":"levelo_inurba_marseille","lat":43.29623,"lon":5.37163,"is_reserved":false,"is_disabled":false,"rental_uris":{"android":"levelo://app?vid=8abd7513-3ac3-4417-9b74-13ced9f29be3","ios":"levelo://app?vid=8abd7513-3ac3-4417-9b74-13ced9f29be3"},"vehicle_type_id":"4","last_reported":1746695495,"current_range_meters":24400,"station_id":"ce4bgnh2rcd13ifvqc0g","pricing_plan_id":"cebpf4jnsgd1na2vs0mg"},{"bike_id":"a67d09fc-903f-49fe-bca7-128af546a768","system_id":"levelo_inurba_marseille","lat":43.28462,"lon":5.35885,"is_reserved":false,"is_disabled":false,"rental_uris":{"android":"levelo://app?vid=a67d09fc-903f-49fe-bca7-128af546a768","ios":"levelo://app?vid=a67d09fc-903f-49fe-bca7-128af546a768"},"vehicle_type_id":"4","last_reported":1746695495,"current_range_meters":24400,"station_id":"ce4bhah2rcd13ifvqei0","pricing_plan_id":"cebpf4jnsgd1na2vs0mg"},{"bike_id":"e6c78a5f-38c0-461c-be9c-4ec508342459","system_id":"levelo_inurba_marseille","lat":43.28422,"lon":5.3499,"is_reserved":false,"is_disabled":false,"rental_uris":{"android":"levelo://app?vid=e6c78a5f-38c0-461c-be9c-4ec508342459","ios":"levelo://app?vid=e6c78a5f-38c0-461c-be9c-4ec508342459"},"vehicle_type_id":"4","last_reported":1746695495,"current_range_meters":24400,"station_id":"ce4bhbh2rcd13ifvqepg","pricing_plan_id":"cebpf4jnsgd1na2vs0mg"},{"bike_id":"9118f16e-2a29-4b74-8215-112edfce0f20","system_id":"levelo_inurba_marseille","lat":43.26557,"lon":5.37336,"is_reserved":false,"is_disabled":false,"rental_uris":{"android":"levelo://app?vid=9118f16e-2a29-4b74-8215-112edfce0f20","ios":"levelo://app?vid=9118f16e-2a29-4b74-8215-112edfce0f20"},"vehicle_type_id":"4","last_reported":1746695495,"current_range_meters":24400,"station_id":"ce4bhg12rcd13ifvqf70","pricing_plan_id":"cebpf4jnsgd1na2vs0mg"},{"bike_id":"7e2fc55e-a82e-4a0e-965f-2fda9c3168b9","system_id":"levelo_inurba_marseille","lat":43.25004,"lon":5.38971,"is_reserved":false,"is_disabled":false,"rental_uris":{"android":"levelo://app?vid=7e2fc55e-a82e-4a0e-965f-2fda9c3168b9","ios":"levelo://app?vid=7e2fc55e-a82e-4a0e-965f-2fda9c3168b9"},"vehicle_type_id":"4","last_reported":1746695495,"current_range_meters":24400,"station_id":"ce4bhgp2rcd13ifvqfd0","pricing_plan_id":"cebpf4jnsgd1na2vs0mg"},{"bike_id":"cfcf0a27-3831-4e84-9bea-34b38798a087","system_id":"levelo_inurba_marseille","lat":43.2121,"lon":5.35066,"is_reserved":false,"is_disabled":false,"rental_uris":{"android":"levelo://app?vid=cfcf0a27-3831-4e84-9bea-34b38798a087","ios":"levelo://app?vid=cfcf0a27-3831-4e84-9bea-34b38798a087"},"vehicle_type_id":"4","last_reported":1746695495,"current_range_meters":24400,"station_id":"st_cvj6sg6p6f1abm77japg","pricing_plan_id":"cebpf4jnsgd1na2vs0mg"},{"bike_id":"cd1dd69c-1b2c-404e-b0bf-114f06f0b210","system_id":"levelo_inurba_marseille","lat":43.23288,"lon":5.3609,"is_reserved":false,"is_disabled":false,"rental_uris":{"android":"levelo://app?vid=cd1dd69c-1b2c-404e-b0bf-114f06f0b210","ios":"levelo://app?vid=cd1dd69c-1b2c-404e-b0bf-114f06f0b210"},"vehicle_type_id":"4","last_reported":1746695495,"current_range_meters":24800,"station_id":"","pricing_plan_id":"cebpf4jnsgd1na2vs0mg"},{"bike_id":"66d39f5f-1aac-423b-9ea7-bf9c1b0e5079","system_id":"levelo_inurba_marseille","lat":43.275076,"lon":5.411295,"is_reserved":false,"is_disabled":false,"rental_uris":{"android":"levelo://app?vid=66d39f5f-1aac-423b-9ea7-bf9c1b0e5079","ios":"levelo://app?vid=66d39f5f-1aac-423b-9ea7-bf9c1b0e5079"},"vehicle_type_id":"4","last_reported":1746695495,"current_range_meters":24800,"station_id":"","pricing_plan_id":"cebpf4jnsgd1na2vs0mg"},{"bike_id":"4b12119b-886f-455b-b2ae-8814b17b579d","system_id":"levelo_inurba_marseille","lat":43.24181,"lon":5.39741,"is_reserved":false,"is_disabled":false,"rental_uris":{"android":"levelo://app?vid=4b12119b-886f-455b-b2ae-8814b17b579d","ios":"levelo://app?vid=4b12119b-886f-455b-b2ae-8814b17b579d"},"vehicle_type_id":"4","last_reported":1746695495,"current_range_meters":24800,"station_id":"ce4bhn12rcd13ifvqgpg","pricing_plan_id":"cebpf4jnsgd1na2vs0mg"},{"bike_id":"8ccc51dc-32b5-4748-9dfb-c7fc6cf616da","system_id":"levelo_inurba_marseille","lat":43.27993,"lon":5.40022,"is_reserved":false,"is_disabled":false,"rental_uris":{"android":"levelo://app?vid=8ccc51dc-32b5-4748-9dfb-c7fc6cf616da","ios":"levelo://app?vid=8ccc51dc-32b5-4748-9dfb-c7fc6cf616da"},"vehicle_type_id":"4","last_reported":1746695495,"current_range_meters":24800,"station_id":"ce4bho92rcd13ifvqh4g","pricing_plan_id":"cebpf4jnsgd1na2vs0mg"},{"bike_id":"5876e02f-9cbb-4fa0-a09d-9ece3ec39c85","system_id":"levelo_inurba_marseille","lat":43.28626,"lon":5.37059,"is_reserved":false,"is_disabled":false,"rental_uris":{"android":"levelo://app?vid=5876e02f-9cbb-4fa0-a09d-9ece3ec39c85","ios":"levelo://app?vid=5876e02f-9cbb-4fa0-a09d-9ece3ec39c85"},"vehicle_type_id":"4","last_reported":1746695495,"current_range_meters":24800,"station_id":"ce4bht12rcd13ifvqi60","pricing_plan_id":"cebpf4jnsgd1na2vs0mg"},{"bike_id":"a62cb3d4-a33f-48f2-a4bf-539b6f7898a2","system_id":"levelo_inurba_marseille","lat":43.229333,"lon":5.353768,"is_reserved":false,"is_disabled":false,"rental_uris":{"android":"levelo://app?vid=a62cb3d4-a33f-48f2-a4bf-539b6f7898a2","ios":"levelo://app?vid=a62cb3d4-a33f-48f2-a4bf-539b6f7898a2"},"vehicle_type_id":"4","last_reported":1746695495,"current_range_meters":24800,"station_id":"cpo3532slgdg3j2ikp40","pricing_plan_id":"cebpf4jnsgd1na2vs0mg"},{"bike_id":"6d9a865a-8d94-436e-9ad6-791a76a700a2","system_id":"levelo_inurba_marseille","lat":43.300345,"lon":5.380788,"is_reserved":false,"is_disabled":false,"rental_uris":{"android":"levelo://app?vid=6d9a865a-8d94-436e-9ad6-791a76a700a2","ios":"levelo://app?vid=6d9a865a-8d94-436e-9ad6-791a76a700a2"},"vehicle_type_id":"4","last_reported":1746695495,"current_range_meters":25200,"station_id":"ce4bgjp2rcd13ifvqbh0","pricing_plan_id":"cebpf4jnsgd1na2vs0mg"},{"bike_id":"943c17e1-2f10-4f8b-b508-00da99e73e39","system_id":"levelo_inurba_marseille","lat":43.2319,"lon":5.39975,"is_reserved":false,"is_disabled":false,"rental_uris":{"android":"levelo://app?vid=943c17e1-2f10-4f8b-b508-00da99e73e39","ios":"levelo://app?vid=943c17e1-2f10-4f8b-b508-00da99e73e39"},"vehicle_type_id":"4","last_reported":1746695495,"current_range_meters":25200,"station_id":"ce4bhn12rcd13ifvqgqg","pricing_plan_id":"cebpf4jnsgd1na2vs0mg"},{"bike_id":"b8028275-38d4-43d3-8766-3f46166cf91f","system_id":"levelo_inurba_marseille","lat":43.281527,"lon":5.42639,"is_reserved":false,"is_disabled":false,"rental_uris":{"android":"levelo://app?vid=b8028275-38d4-43d3-8766-3f46166cf91f","ios":"levelo://app?vid=b8028275-38d4-43d3-8766-3f46166cf91f"},"vehicle_type_id":"4","last_reported":1746695495,"current_range_meters":25200,"station_id":"ce4bhnh2rcd13ifvqgug","pricing_plan_id":"cebpf4jnsgd1na2vs0mg"},{"bike_id":"320445d7-aaf7-43ec-baaf-4e67030e8b62","system_id":"levelo_inurba_marseille","lat":43.27139,"lon":5.40416,"is_reserved":false,"is_disabled":false,"rental_uris":{"android":"levelo://app?vid=320445d7-aaf7-43ec-baaf-4e67030e8b62","ios":"levelo://app?vid=320445d7-aaf7-43ec-baaf-4e67030e8b62"},"vehicle_type_id":"4","last_reported":1746695495,"current_range_meters":25600,"station_id":"","pricing_plan_id":"cebpf4jnsgd1na2vs0mg"},{"bike_id":"7dd541b9-e858-4734-8b38-bf5cec4a45d8","system_id":"levelo_inurba_marseille","lat":43.30117,"lon":5.37152,"is_reserved":false,"is_disabled":false,"rental_uris":{"android":"levelo://app?vid=7dd541b9-e858-4734-8b38-bf5cec4a45d8","ios":"levelo://app?vid=7dd541b9-e858-4734-8b38-bf5cec4a45d8"},"vehicle_type_id":"4","last_reported":1746695495,"current_range_meters":25600,"station_id":"","pricing_plan_id":"cebpf4jnsgd1na2vs0mg"},{"bike_id":"58c1b0c6-2963-4e5a-9626-a6ed62216dc2","system_id":"levelo_inurba_marseille","lat":43.29852,"lon":5.36282,"is_reserved":false,"is_disabled":false,"rental_uris":{"android":"levelo://app?vid=58c1b0c6-2963-4e5a-9626-a6ed62216dc2","ios":"levelo://app?vid=58c1b0c6-2963-4e5a-9626-a6ed62216dc2"},"vehicle_type_id":"4","last_reported":1746695495,"current_range_meters":25600,"station_id":"ce4bgpp2rcd13ifvqc3g","pricing_plan_id":"cebpf4jnsgd1na2vs0mg"},{"bike_id":"9fc8e058-a5cd-4804-9a41-019a1b8fe822","system_id":"levelo_inurba_marseille","lat":43.309615,"lon":5.390408,"is_reserved":false,"is_disabled":false,"rental_uris":{"android":"levelo://app?vid=9fc8e058-a5cd-4804-9a41-019a1b8fe822","ios":"levelo://app?vid=9fc8e058-a5cd-4804-9a41-019a1b8fe822"},"vehicle_type_id":"4","last_reported":1746695495,"current_range_meters":25600,"station_id":"ce4bgup2rcd13ifvqco0","pricing_plan_id":"cebpf4jnsgd1na2vs0mg"},{"bike_id":"0072ea4c-c3a5-41a9-b952-24713c182975","system_id":"levelo_inurba_marseille","lat":43.25098,"lon":5.40324,"is_reserved":false,"is_disabled":false,"rental_uris":{"android":"levelo://app?vid=0072ea4c-c3a5-41a9-b952-24713c182975","ios":"levelo://app?vid=0072ea4c-c3a5-41a9-b952-24713c182975"},"vehicle_type_id":"4","last_reported":1746695495,"current_range_meters":25600,"station_id":"ce4bhlh2rcd13ifvqgig","pricing_plan_id":"cebpf4jnsgd1na2vs0mg"},{"bike_id":"44a1c48d-97fe-430e-a154-683c0bbb430a","system_id":"levelo_inurba_marseille","lat":43.24656,"lon":5.38163,"is_reserved":false,"is_disabled":false,"rental_uris":{"android":"levelo://app?vid=44a1c48d-97fe-430e-a154-683c0bbb430a","ios":"levelo://app?vid=44a1c48d-97fe-430e-a154-683c0bbb430a"},"vehicle_type_id":"4","last_reported":1746695495,"current_range_meters":26000,"station_id":"ce4bhih2rcd13ifvqfr0","pricing_plan_id":"cebpf4jnsgd1na2vs0mg"},{"bike_id":"5140ab34-3dae-4bac-aad4-0367ecaf1dc5","system_id":"levelo_inurba_marseille","lat":43.25584,"lon":5.38221,"is_reserved":false,"is_disabled":false,"rental_uris":{"android":"levelo://app?vid=5140ab34-3dae-4bac-aad4-0367ecaf1dc5","ios":"levelo://app?vid=5140ab34-3dae-4bac-aad4-0367ecaf1dc5"},"vehicle_type_id":"4","last_reported":1746695495,"current_range_meters":26000,"station_id":"ce4bhih2rcd13ifvqfs0","pricing_plan_id":"cebpf4jnsgd1na2vs0mg"},{"bike_id":"16d8c3a2-53e2-4023-8d36-3bf27074a653","system_id":"levelo_inurba_marseille","lat":43.33024,"lon":5.3904,"is_reserved":false,"is_disabled":false,"rental_uris":{"android":"levelo://app?vid=16d8c3a2-53e2-4023-8d36-3bf27074a653","ios":"levelo://app?vid=16d8c3a2-53e2-4023-8d36-3bf27074a653"},"vehicle_type_id":"4","last_reported":1746695495,"current_range_meters":26000,"station_id":"ce4bhr92rcd13ifvqhrg","pricing_plan_id":"cebpf4jnsgd1na2vs0mg"},{"bike_id":"ba375705-bf0c-41f8-92a5-b898fc114c9f","system_id":"levelo_inurba_marseille","lat":43.26555,"lon":5.37297,"is_reserved":false,"is_disabled":false,"rental_uris":{"android":"levelo://app?vid=ba375705-bf0c-41f8-92a5-b898fc114c9f","ios":"levelo://app?vid=ba375705-bf0c-41f8-92a5-b898fc114c9f"},"vehicle_type_id":"4","last_reported":1746695495,"current_range_meters":26800,"station_id":"ce4bhg12rcd13ifvqf70","pricing_plan_id":"cebpf4jnsgd1na2vs0mg"},{"bike_id":"14185999-c6fc-4ec7-97d0-783f3d711b51","system_id":"levelo_inurba_marseille","lat":43.26555,"lon":5.3732,"is_reserved":false,"is_disabled":false,"rental_uris":{"android":"levelo://app?vid=14185999-c6fc-4ec7-97d0-783f3d711b51","ios":"levelo://app?vid=14185999-c6fc-4ec7-97d0-783f3d711b51"},"vehicle_type_id":"4","last_reported":1746695495,"current_range_meters":26800,"station_id":"ce4bhg12rcd13ifvqf70","pricing_plan_id":"cebpf4jnsgd1na2vs0mg"},{"bike_id":"2274da3f-04f1-403c-a779-4461c24cea6f","system_id":"levelo_inurba_marseille","lat":43.26233,"lon":5.4045,"is_reserved":false,"is_disabled":false,"rental_uris":{"android":"levelo://app?vid=2274da3f-04f1-403c-a779-4461c24cea6f","ios":"levelo://app?vid=2274da3f-04f1-403c-a779-4461c24cea6f"},"vehicle_type_id":"4","last_reported":1746695495,"current_range_meters":26800,"station_id":"ce4bhmh2rcd13ifvqgmg","pricing_plan_id":"cebpf4jnsgd1na2vs0mg"},{"bike_id":"0ba8250e-7150-4c3c-b4a9-796c5cf1ca93","system_id":"levelo_inurba_marseille","lat":43.324853,"lon":5.365731,"is_reserved":false,"is_disabled":false,"rental_uris":{"android":"levelo://app?vid=0ba8250e-7150-4c3c-b4a9-796c5cf1ca93","ios":"levelo://app?vid=0ba8250e-7150-4c3c-b4a9-796c5cf1ca93"},"vehicle_type_id":"4","last_reported":1746695495,"current_range_meters":26800,"station_id":"ce4bhs12rcd13ifvqhvg","pricing_plan_id":"cebpf4jnsgd1na2vs0mg"},{"bike_id":"095049bb-d45b-4b45-b4b2-aa31473a9711","system_id":"levelo_inurba_marseille","lat":43.231918,"lon":5.355546,"is_reserved":false,"is_disabled":false,"rental_uris":{"android":"levelo://app?vid=095049bb-d45b-4b45-b4b2-aa31473a9711","ios":"levelo://app?vid=095049bb-d45b-4b45-b4b2-aa31473a9711"},"vehicle_type_id":"4","last_reported":1746695495,"current_range_meters":26800,"station_id":"ce4bhu92rcd13ifvqi70","pricing_plan_id":"cebpf4jnsgd1na2vs0mg"},{"bike_id":"818ab763-3284-47a4-b130-745cd1ff68bb","system_id":"levelo_inurba_marseille","lat":43.29187,"lon":5.40033,"is_reserved":false,"is_disabled":false,"rental_uris":{"android":"levelo://app?vid=818ab763-3284-47a4-b130-745cd1ff68bb","ios":"levelo://app?vid=818ab763-3284-47a4-b130-745cd1ff68bb"},"vehicle_type_id":"4","last_reported":1746695495,"current_range_meters":27200,"station_id":"","pricing_plan_id":"cebpf4jnsgd1na2vs0mg"},{"bike_id":"d8f9ae80-eea4-45b8-8f3c-0555374e9df5","system_id":"levelo_inurba_marseille","lat":43.29644,"lon":5.37134,"is_reserved":false,"is_disabled":false,"rental_uris":{"android":"levelo://app?vid=d8f9ae80-eea4-45b8-8f3c-0555374e9df5","ios":"levelo://app?vid=d8f9ae80-eea4-45b8-8f3c-0555374e9df5"},"vehicle_type_id":"4","last_reported":1746695495,"current_range_meters":27200,"station_id":"ce4bgnh2rcd13ifvqc0g","pricing_plan_id":"cebpf4jnsgd1na2vs0mg"},{"bike_id":"56a46321-736c-4e81-a5e3-131b6a718bdd","system_id":"levelo_inurba_marseille","lat":43.25583,"lon":5.3822,"is_reserved":false,"is_disabled":false,"rental_uris":{"android":"levelo://app?vid=56a46321-736c-4e81-a5e3-131b6a718bdd","ios":"levelo://app?vid=56a46321-736c-4e81-a5e3-131b6a718bdd"},"vehicle_type_id":"4","last_reported":1746695495,"current_range_meters":27200,"station_id":"ce4bhih2rcd13ifvqfs0","pricing_plan_id":"cebpf4jnsgd1na2vs0mg"},{"bike_id":"3c89cc1d-1749-4495-9184-686611282d9c","system_id":"levelo_inurba_marseille","lat":43.27063,"lon":5.40252,"is_reserved":false,"is_disabled":false,"rental_uris":{"android":"levelo://app?vid=3c89cc1d-1749-4495-9184-686611282d9c","ios":"levelo://app?vid=3c89cc1d-1749-4495-9184-686611282d9c"},"vehicle_type_id":"4","last_reported":1746695495,"current_range_meters":27200,"station_id":"ce4bhk92rcd13ifvqgc0","pricing_plan_id":"cebpf4jnsgd1na2vs0mg"},{"bike_id":"62faed0a-6d8e-4dae-817e-3662e5a5bd9b","system_id":"levelo_inurba_marseille","lat":43.25103,"lon":5.40324,"is_reserved":false,"is_disabled":false,"rental_uris":{"android":"levelo://app?vid=62faed0a-6d8e-4dae-817e-3662e5a5bd9b","ios":"levelo://app?vid=62faed0a-6d8e-4dae-817e-3662e5a5bd9b"},"vehicle_type_id":"4","last_reported":1746695495,"current_range_meters":27200,"station_id":"ce4bhlh2rcd13ifvqgig","pricing_plan_id":"cebpf4jnsgd1na2vs0mg"},{"bike_id":"f0deccb7-a270-4fd4-a51e-39844e0ae45a","system_id":"levelo_inurba_marseille","lat":43.34779,"lon":5.3495,"is_reserved":false,"is_disabled":false,"rental_uris":{"android":"levelo://app?vid=f0deccb7-a270-4fd4-a51e-39844e0ae45a","ios":"levelo://app?vid=f0deccb7-a270-4fd4-a51e-39844e0ae45a"},"vehicle_type_id":"4","last_reported":1746695495,"current_range_meters":27600,"station_id":"","pricing_plan_id":"cebpf4jnsgd1na2vs0mg"},{"bike_id":"00bd1d0c-dc80-49a2-a167-8724f5cc3f5b","system_id":"levelo_inurba_marseille","lat":43.30212,"lon":5.39465,"is_reserved":false,"is_disabled":false,"rental_uris":{"android":"levelo://app?vid=00bd1d0c-dc80-49a2-a167-8724f5cc3f5b","ios":"levelo://app?vid=00bd1d0c-dc80-49a2-a167-8724f5cc3f5b"},"vehicle_type_id":"4","last_reported":1746695495,"current_range_meters":27600,"station_id":"ce4bh0p2rcd13ifvqd70","pricing_plan_id":"cebpf4jnsgd1na2vs0mg"},{"bike_id":"f8b6fb11-ba3b-4bb7-8e0d-5033387acc98","system_id":"levelo_inurba_marseille","lat":43.2737,"lon":5.36261,"is_reserved":false,"is_disabled":false,"rental_uris":{"android":"levelo://app?vid=f8b6fb11-ba3b-4bb7-8e0d-5033387acc98","ios":"levelo://app?vid=f8b6fb11-ba3b-4bb7-8e0d-5033387acc98"},"vehicle_type_id":"4","last_reported":1746695495,"current_range_meters":27600,"station_id":"ce4bhbh2rcd13ifvqeo0","pricing_plan_id":"cebpf4jnsgd1na2vs0mg"},{"bike_id":"f51b3e9b-b529-4746-b31d-ded684da9b01","system_id":"levelo_inurba_marseille","lat":43.28454,"lon":5.34995,"is_reserved":false,"is_disabled":false,"rental_uris":{"android":"levelo://app?vid=f51b3e9b-b529-4746-b31d-ded684da9b01","ios":"levelo://app?vid=f51b3e9b-b529-4746-b31d-ded684da9b01"},"vehicle_type_id":"4","last_reported":1746695495,"current_range_meters":27600,"station_id":"ce4bhbh2rcd13ifvqepg","pricing_plan_id":"cebpf4jnsgd1na2vs0mg"},{"bike_id":"3af1ddd4-3a0b-4183-a36b-fb7bc922be5c","system_id":"levelo_inurba_marseille","lat":43.26558,"lon":5.37283,"is_reserved":false,"is_disabled":false,"rental_uris":{"android":"levelo://app?vid=3af1ddd4-3a0b-4183-a36b-fb7bc922be5c","ios":"levelo://app?vid=3af1ddd4-3a0b-4183-a36b-fb7bc922be5c"},"vehicle_type_id":"4","last_reported":1746695495,"current_range_meters":27600,"station_id":"ce4bhg12rcd13ifvqf70","pricing_plan_id":"cebpf4jnsgd1na2vs0mg"},{"bike_id":"2f7204e4-aba0-4ac4-806d-39a4adcd808b","system_id":"levelo_inurba_marseille","lat":43.281571,"lon":5.426715,"is_reserved":false,"is_disabled":false,"rental_uris":{"android":"levelo://app?vid=2f7204e4-aba0-4ac4-806d-39a4adcd808b","ios":"levelo://app?vid=2f7204e4-aba0-4ac4-806d-39a4adcd808b"},"vehicle_type_id":"4","last_reported":1746695495,"current_range_meters":27600,"station_id":"ce4bhnh2rcd13ifvqgug","pricing_plan_id":"cebpf4jnsgd1na2vs0mg"},{"bike_id":"ae6d94ce-7249-407b-8487-92ba1cd5b303","system_id":"levelo_inurba_marseille","lat":43.30148,"lon":5.37419,"is_reserved":false,"is_disabled":false,"rental_uris":{"android":"levelo://app?vid=ae6d94ce-7249-407b-8487-92ba1cd5b303","ios":"levelo://app?vid=ae6d94ce-7249-407b-8487-92ba1cd5b303"},"vehicle_type_id":"4","last_reported":1746695495,"current_range_meters":28000,"station_id":"ce4bgs92rcd13ifvqcc0","pricing_plan_id":"cebpf4jnsgd1na2vs0mg"},{"bike_id":"b9f91d85-fd30-49a2-bf3f-ba35a128ce7f","system_id":"levelo_inurba_marseille","lat":43.30955,"lon":5.39037,"is_reserved":false,"is_disabled":false,"rental_uris":{"android":"levelo://app?vid=b9f91d85-fd30-49a2-bf3f-ba35a128ce7f","ios":"levelo://app?vid=b9f91d85-fd30-49a2-bf3f-ba35a128ce7f"},"vehicle_type_id":"4","last_reported":1746695495,"current_range_meters":28000,"station_id":"ce4bgup2rcd13ifvqco0","pricing_plan_id":"cebpf4jnsgd1na2vs0mg"},{"bike_id":"374bba7f-6c2d-44cd-8779-e6d74e067b72","system_id":"levelo_inurba_marseille","lat":43.286087,"lon":5.350979,"is_reserved":false,"is_disabled":false,"rental_uris":{"android":"levelo://app?vid=374bba7f-6c2d-44cd-8779-e6d74e067b72","ios":"levelo://app?vid=374bba7f-6c2d-44cd-8779-e6d74e067b72"},"vehicle_type_id":"4","last_reported":1746695495,"current_range_meters":28000,"station_id":"ce4bhch2rcd13ifvqeug","pricing_plan_id":"cebpf4jnsgd1na2vs0mg"},{"bike_id":"4a87bbab-631b-4246-9bc1-c84be5b4fd4b","system_id":"levelo_inurba_marseille","lat":43.26559,"lon":5.37284,"is_reserved":false,"is_disabled":false,"rental_uris":{"android":"levelo://app?vid=4a87bbab-631b-4246-9bc1-c84be5b4fd4b","ios":"levelo://app?vid=4a87bbab-631b-4246-9bc1-c84be5b4fd4b"},"vehicle_type_id":"4","last_reported":1746695495,"current_range_meters":28000,"station_id":"ce4bhg12rcd13ifvqf70","pricing_plan_id":"cebpf4jnsgd1na2vs0mg"},{"bike_id":"f1be0eeb-570a-41ec-ba38-e001b9c7d591","system_id":"levelo_inurba_marseille","lat":43.25134,"lon":5.4034,"is_reserved":false,"is_disabled":false,"rental_uris":{"android":"levelo://app?vid=f1be0eeb-570a-41ec-ba38-e001b9c7d591","ios":"levelo://app?vid=f1be0eeb-570a-41ec-ba38-e001b9c7d591"},"vehicle_type_id":"4","last_reported":1746695495,"current_range_meters":28000,"station_id":"ce4bhlh2rcd13ifvqgig","pricing_plan_id":"cebpf4jnsgd1na2vs0mg"},{"bike_id":"7b643cdc-69a5-45df-8baf-de88d3683dce","system_id":"levelo_inurba_marseille","lat":43.290159,"lon":5.381299,"is_reserved":false,"is_disabled":false,"rental_uris":{"android":"levelo://app?vid=7b643cdc-69a5-45df-8baf-de88d3683dce","ios":"levelo://app?vid=7b643cdc-69a5-45df-8baf-de88d3683dce"},"vehicle_type_id":"4","last_reported":1746695495,"current_range_meters":28400,"station_id":"","pricing_plan_id":"cebpf4jnsgd1na2vs0mg"},{"bike_id":"cf2272c3-9112-43bb-9e57-24a35ad56deb","system_id":"levelo_inurba_marseille","lat":43.26021,"lon":5.41743,"is_reserved":false,"is_disabled":false,"rental_uris":{"android":"levelo://app?vid=cf2272c3-9112-43bb-9e57-24a35ad56deb","ios":"levelo://app?vid=cf2272c3-9112-43bb-9e57-24a35ad56deb"},"vehicle_type_id":"4","last_reported":1746695495,"current_range_meters":28400,"station_id":"","pricing_plan_id":"cebpf4jnsgd1na2vs0mg"},{"bike_id":"2fc1de3f-42d4-45fc-80c5-db8d8cb51701","system_id":"levelo_inurba_marseille","lat":43.299235,"lon":5.374753,"is_reserved":false,"is_disabled":false,"rental_uris":{"android":"levelo://app?vid=2fc1de3f-42d4-45fc-80c5-db8d8cb51701","ios":"levelo://app?vid=2fc1de3f-42d4-45fc-80c5-db8d8cb51701"},"vehicle_type_id":"4","last_reported":1746695495,"current_range_meters":28400,"station_id":"ce4bgjh2rcd13ifvqbg0","pricing_plan_id":"cebpf4jnsgd1na2vs0mg"},{"bike_id":"3b14e2e9-7f28-4936-98dc-a5361a810e23","system_id":"levelo_inurba_marseille","lat":43.313677,"lon":5.384937,"is_reserved":false,"is_disabled":false,"rental_uris":{"android":"levelo://app?vid=3b14e2e9-7f28-4936-98dc-a5361a810e23","ios":"levelo://app?vid=3b14e2e9-7f28-4936-98dc-a5361a810e23"},"vehicle_type_id":"4","last_reported":1746695495,"current_range_meters":28400,"station_id":"ce4bgt92rcd13ifvqcf0","pricing_plan_id":"cebpf4jnsgd1na2vs0mg"},{"bike_id":"0783cd79-0113-4ede-8e6e-79772e2ffcc8","system_id":"levelo_inurba_marseille","lat":43.30463,"lon":5.37902,"is_reserved":false,"is_disabled":false,"rental_uris":{"android":"levelo://app?vid=0783cd79-0113-4ede-8e6e-79772e2ffcc8","ios":"levelo://app?vid=0783cd79-0113-4ede-8e6e-79772e2ffcc8"},"vehicle_type_id":"4","last_reported":1746695495,"current_range_meters":28400,"station_id":"ce4bgup2rcd13ifvqcn0","pricing_plan_id":"cebpf4jnsgd1na2vs0mg"},{"bike_id":"f3f68057-1ed8-41e3-bdcf-1dafb8cd6088","system_id":"levelo_inurba_marseille","lat":43.25135,"lon":5.40291,"is_reserved":false,"is_disabled":false,"rental_uris":{"android":"levelo://app?vid=f3f68057-1ed8-41e3-bdcf-1dafb8cd6088","ios":"levelo://app?vid=f3f68057-1ed8-41e3-bdcf-1dafb8cd6088"},"vehicle_type_id":"4","last_reported":1746695495,"current_range_meters":28400,"station_id":"ce4bhlh2rcd13ifvqgig","pricing_plan_id":"cebpf4jnsgd1na2vs0mg"},{"bike_id":"7c2a7be3-7064-4bb3-8826-40e1c8c440d8","system_id":"levelo_inurba_marseille","lat":43.21749,"lon":5.346,"is_reserved":false,"is_disabled":false,"rental_uris":{"android":"levelo://app?vid=7c2a7be3-7064-4bb3-8826-40e1c8c440d8","ios":"levelo://app?vid=7c2a7be3-7064-4bb3-8826-40e1c8c440d8"},"vehicle_type_id":"4","last_reported":1746695495,"current_range_meters":28400,"station_id":"st_cvj6r9ubvosntc0bgbag","pricing_plan_id":"cebpf4jnsgd1na2vs0mg"},{"bike_id":"f52c819d-ca4b-4640-b458-b877db1bf990","system_id":"levelo_inurba_marseille","lat":43.29892,"lon":5.41025,"is_reserved":false,"is_disabled":false,"rental_uris":{"android":"levelo://app?vid=f52c819d-ca4b-4640-b458-b877db1bf990","ios":"levelo://app?vid=f52c819d-ca4b-4640-b458-b877db1bf990"},"vehicle_type_id":"4","last_reported":1746695495,"current_range_meters":28800,"station_id":"","pricing_plan_id":"cebpf4jnsgd1na2vs0mg"},{"bike_id":"37b31d90-5830-4d75-ac12-1b1c249f9e1c","system_id":"levelo_inurba_marseille","lat":43.31724,"lon":5.40398,"is_reserved":false,"is_disabled":false,"rental_uris":{"android":"levelo://app?vid=37b31d90-5830-4d75-ac12-1b1c249f9e1c","ios":"levelo://app?vid=37b31d90-5830-4d75-ac12-1b1c249f9e1c"},"vehicle_type_id":"4","last_reported":1746695495,"current_range_meters":28800,"station_id":"","pricing_plan_id":"cebpf4jnsgd1na2vs0mg"},{"bike_id":"1be73341-24cb-45a4-b648-631770e81a65","system_id":"levelo_inurba_marseille","lat":43.30278,"lon":5.37711,"is_reserved":false,"is_disabled":false,"rental_uris":{"android":"levelo://app?vid=1be73341-24cb-45a4-b648-631770e81a65","ios":"levelo://app?vid=1be73341-24cb-45a4-b648-631770e81a65"},"vehicle_type_id":"4","last_reported":1746695495,"current_range_meters":28800,"station_id":"ce4bguh2rcd13ifvqcj0","pricing_plan_id":"cebpf4jnsgd1na2vs0mg"},{"bike_id":"5340192e-db5d-41ad-90cd-eef9be4e7f94","system_id":"levelo_inurba_marseille","lat":43.31085,"lon":5.38357,"is_reserved":false,"is_disabled":false,"rental_uris":{"android":"levelo://app?vid=5340192e-db5d-41ad-90cd-eef9be4e7f94","ios":"levelo://app?vid=5340192e-db5d-41ad-90cd-eef9be4e7f94"},"vehicle_type_id":"4","last_reported":1746695495,"current_range_meters":28800,"station_id":"ce4bgv92rcd13ifvqcr0","pricing_plan_id":"cebpf4jnsgd1na2vs0mg"},{"bike_id":"c0c5c72b-75a5-4e35-9694-5b4146320266","system_id":"levelo_inurba_marseille","lat":43.27917,"lon":5.39577,"is_reserved":false,"is_disabled":false,"rental_uris":{"android":"levelo://app?vid=c0c5c72b-75a5-4e35-9694-5b4146320266","ios":"levelo://app?vid=c0c5c72b-75a5-4e35-9694-5b4146320266"},"vehicle_type_id":"4","last_reported":1746695495,"current_range_meters":28800,"station_id":"ce4bhf92rcd13ifvqf40","pricing_plan_id":"cebpf4jnsgd1na2vs0mg"},{"bike_id":"d44f86df-0709-41fc-97ce-c0074177213e","system_id":"levelo_inurba_marseille","lat":43.25719,"lon":5.41108,"is_reserved":false,"is_disabled":false,"rental_uris":{"android":"levelo://app?vid=d44f86df-0709-41fc-97ce-c0074177213e","ios":"levelo://app?vid=d44f86df-0709-41fc-97ce-c0074177213e"},"vehicle_type_id":"4","last_reported":1746695495,"current_range_meters":28800,"station_id":"ce4bhkp2rcd13ifvqgd0","pricing_plan_id":"cebpf4jnsgd1na2vs0mg"},{"bike_id":"96b69674-69f3-4f82-82b0-bb0a425f63f6","system_id":"levelo_inurba_marseille","lat":43.268008,"lon":5.402782,"is_reserved":false,"is_disabled":false,"rental_uris":{"android":"levelo://app?vid=96b69674-69f3-4f82-82b0-bb0a425f63f6","ios":"levelo://app?vid=96b69674-69f3-4f82-82b0-bb0a425f63f6"},"vehicle_type_id":"4","last_reported":1746695495,"current_range_meters":28800,"station_id":"ce501612rcd8frsf0b60","pricing_plan_id":"cebpf4jnsgd1na2vs0mg"},{"bike_id":"32ff1ae0-e056-4ee4-86c4-8eefa2758052","system_id":"levelo_inurba_marseille","lat":43.21751,"lon":5.34601,"is_reserved":false,"is_disabled":false,"rental_uris":{"android":"levelo://app?vid=32ff1ae0-e056-4ee4-86c4-8eefa2758052","ios":"levelo://app?vid=32ff1ae0-e056-4ee4-86c4-8eefa2758052"},"vehicle_type_id":"4","last_reported":1746695495,"current_range_meters":28800,"station_id":"st_cvj6r9ubvosntc0bgbag","pricing_plan_id":"cebpf4jnsgd1na2vs0mg"},{"bike_id":"96a71fca-5b6e-47fb-a481-c874b310c77b","system_id":"levelo_inurba_marseille","lat":43.29052,"lon":5.40573,"is_reserved":false,"is_disabled":false,"rental_uris":{"android":"levelo://app?vid=96a71fca-5b6e-47fb-a481-c874b310c77b","ios":"levelo://app?vid=96a71fca-5b6e-47fb-a481-c874b310c77b"},"vehicle_type_id":"4","last_reported":1746695495,"current_range_meters":29600,"station_id":"","pricing_plan_id":"cebpf4jnsgd1na2vs0mg"},{"bike_id":"ed9b81e9-54f6-4555-8a7f-7c876d840d08","system_id":"levelo_inurba_marseille","lat":43.29367,"lon":5.38553,"is_reserved":false,"is_disabled":false,"rental_uris":{"android":"levelo://app?vid=ed9b81e9-54f6-4555-8a7f-7c876d840d08","ios":"levelo://app?vid=ed9b81e9-54f6-4555-8a7f-7c876d840d08"},"vehicle_type_id":"4","last_reported":1746695495,"current_range_meters":29600,"station_id":"","pricing_plan_id":"cebpf4jnsgd1na2vs0mg"},{"bike_id":"4c43c2fd-6d10-4b78-a596-aec5d2cf0b8d","system_id":"levelo_inurba_marseille","lat":43.29574,"lon":5.37521,"is_reserved":false,"is_disabled":false,"rental_uris":{"android":"levelo://app?vid=4c43c2fd-6d10-4b78-a596-aec5d2cf0b8d","ios":"levelo://app?vid=4c43c2fd-6d10-4b78-a596-aec5d2cf0b8d"},"vehicle_type_id":"4","last_reported":1746695495,"current_range_meters":29600,"station_id":"ce4bgh92rcd13ifvqb50","pricing_plan_id":"cebpf4jnsgd1na2vs0mg"},{"bike_id":"d9532cf0-e74b-4abb-a581-12204e09acd5","system_id":"levelo_inurba_marseille","lat":43.30157,"lon":5.38107,"is_reserved":false,"is_disabled":false,"rental_uris":{"android":"levelo://app?vid=d9532cf0-e74b-4abb-a581-12204e09acd5","ios":"levelo://app?vid=d9532cf0-e74b-4abb-a581-12204e09acd5"},"vehicle_type_id":"4","last_reported":1746695495,"current_range_meters":29600,"station_id":"ce4bgjp2rcd13ifvqbh0","pricing_plan_id":"cebpf4jnsgd1na2vs0mg"},{"bike_id":"e5aba077-7c47-4793-b878-8c40fb964d82","system_id":"levelo_inurba_marseille","lat":43.28461,"lon":5.35892,"is_reserved":false,"is_disabled":false,"rental_uris":{"android":"levelo://app?vid=e5aba077-7c47-4793-b878-8c40fb964d82","ios":"levelo://app?vid=e5aba077-7c47-4793-b878-8c40fb964d82"},"vehicle_type_id":"4","last_reported":1746695495,"current_range_meters":29600,"station_id":"ce4bhah2rcd13ifvqei0","pricing_plan_id":"cebpf4jnsgd1na2vs0mg"},{"bike_id":"f74a2245-a50e-4441-a5e8-107a1488dd4f","system_id":"levelo_inurba_marseille","lat":43.28426,"lon":5.34998,"is_reserved":false,"is_disabled":false,"rental_uris":{"android":"levelo://app?vid=f74a2245-a50e-4441-a5e8-107a1488dd4f","ios":"levelo://app?vid=f74a2245-a50e-4441-a5e8-107a1488dd4f"},"vehicle_type_id":"4","last_reported":1746695495,"current_range_meters":29600,"station_id":"ce4bhbh2rcd13ifvqepg","pricing_plan_id":"cebpf4jnsgd1na2vs0mg"},{"bike_id":"f2f1f988-15b9-4a12-924e-2c7060db708a","system_id":"levelo_inurba_marseille","lat":43.27061,"lon":5.40262,"is_reserved":false,"is_disabled":false,"rental_uris":{"android":"levelo://app?vid=f2f1f988-15b9-4a12-924e-2c7060db708a","ios":"levelo://app?vid=f2f1f988-15b9-4a12-924e-2c7060db708a"},"vehicle_type_id":"4","last_reported":1746695495,"current_range_meters":29600,"station_id":"ce4bhk92rcd13ifvqgc0","pricing_plan_id":"cebpf4jnsgd1na2vs0mg"},{"bike_id":"043f189b-5174-42ca-aaa3-5ced8870638c","system_id":"levelo_inurba_marseille","lat":43.30151,"lon":5.38102,"is_reserved":false,"is_disabled":false,"rental_uris":{"android":"levelo://app?vid=043f189b-5174-42ca-aaa3-5ced8870638c","ios":"levelo://app?vid=043f189b-5174-42ca-aaa3-5ced8870638c"},"vehicle_type_id":"4","last_reported":1746695495,"current_range_meters":30000,"station_id":"ce4bgjp2rcd13ifvqbh0","pricing_plan_id":"cebpf4jnsgd1na2vs0mg"},{"bike_id":"beec48e8-df91-4e9c-9757-95ef4aba3700","system_id":"levelo_inurba_marseille","lat":43.298492,"lon":5.362849,"is_reserved":false,"is_disabled":false,"rental_uris":{"android":"levelo://app?vid=beec48e8-df91-4e9c-9757-95ef4aba3700","ios":"levelo://app?vid=beec48e8-df91-4e9c-9757-95ef4aba3700"},"vehicle_type_id":"4","last_reported":1746695495,"current_range_meters":30000,"station_id":"ce4bgpp2rcd13ifvqc3g","pricing_plan_id":"cebpf4jnsgd1na2vs0mg"},{"bike_id":"89f6091d-02a3-4e6c-a2d2-a4504de4c630","system_id":"levelo_inurba_marseille","lat":43.308197,"lon":5.381288,"is_reserved":false,"is_disabled":false,"rental_uris":{"android":"levelo://app?vid=89f6091d-02a3-4e6c-a2d2-a4504de4c630","ios":"levelo://app?vid=89f6091d-02a3-4e6c-a2d2-a4504de4c630"},"vehicle_type_id":"4","last_reported":1746695495,"current_range_meters":30000,"station_id":"ce4bgt12rcd13ifvqce0","pricing_plan_id":"cebpf4jnsgd1na2vs0mg"},{"bike_id":"95d0201c-bc61-4e3b-84f1-550112ab9d91","system_id":"levelo_inurba_marseille","lat":43.30951,"lon":5.39065,"is_reserved":false,"is_disabled":false,"rental_uris":{"android":"levelo://app?vid=95d0201c-bc61-4e3b-84f1-550112ab9d91","ios":"levelo://app?vid=95d0201c-bc61-4e3b-84f1-550112ab9d91"},"vehicle_type_id":"4","last_reported":1746695495,"current_range_meters":30000,"station_id":"ce4bgup2rcd13ifvqco0","pricing_plan_id":"cebpf4jnsgd1na2vs0mg"},{"bike_id":"d2b39728-d717-4db9-9e6f-0c055f24b341","system_id":"levelo_inurba_marseille","lat":43.27554,"lon":5.38435,"is_reserved":false,"is_disabled":false,"rental_uris":{"android":"levelo://app?vid=d2b39728-d717-4db9-9e6f-0c055f24b341","ios":"levelo://app?vid=d2b39728-d717-4db9-9e6f-0c055f24b341"},"vehicle_type_id":"4","last_reported":1746695495,"current_range_meters":30000,"station_id":"ce4bhh92rcd13ifvqfi0","pricing_plan_id":"cebpf4jnsgd1na2vs0mg"},