{"last_updated":1730193040,"ttl":60,"version":"2.2","data":{"bikes":[{"bike_id":"1a5400bf-5362-468a-b5b2-117e0131c47b","system_id":"levelo_inurba_marseille","lat":43.26682,"lon":5.38268,"is_reserved":false,"is_disabled":false,"rental_uris":{"android":"levelo://app?vid=1a5400bf-5362-468a-b5b2-117e0131c47b","ios":"levelo://app?vid=1a5400bf-5362-468a-b5b2-117e0131c47b"},"vehicle_type_id":"4","last_reported":1730193041,"current_range_meters":18800,"station_id":"ce4bhg92rcd13ifvqf90","pricing_plan_id":"cebpf4jnsgd1na2vs0mg"},{"bike_id":"2d45e113-cc9b-4df9-af3b-c913d19124d5","system_id":"levelo_inurba_marseille","lat":43.31224,"lon":5.36866,"is_reserved":false,"is_disabled":false,"rental_uris":{"android":"levelo://app?vid=2d45e113-cc9b-4df9-af3b-c913d19124d5","ios":"levelo://app?vid=2d45e113-cc9b-4df9-af3b-c913d19124d5"},"vehicle_type_id":"4","last_reported":1730193041,"current_range_meters":34800,"station_id":"ce4bgl92rcd13ifvqbq0","pricing_plan_id":"cebpf4jnsgd1na2vs0mg"},{"bike_id":"5b6da0fb-5d65-41eb-8aa7-edd3cba55e1e","system_id":"levelo_inurba_marseille","lat":43.30359,"lon":5.41885,"is_reserved":false,"is_disabled":false,"rental_uris":{"android":"levelo://app?vid=5b6da0fb-5d65-41eb-8aa7-edd3cba55e1e","ios":"levelo://app?vid=5b6da0fb-5d65-41eb-8aa7-edd3cba55e1e"},"vehicle_type_id":"4","last_reported":1730193041,"current_range_meters":38000,"station_id":"ce4bhop2rcd13ifvqh7g","pricing_plan_id":"cebpf4jnsgd1na2vs0mg"},{"bike_id":"5aef8b8d-a1c0-4d83-a273-c6b671bedd61","system_id":"levelo_inurba_marseille","lat":43.27188,"lon":5.40998,"is_reserved":false,"is_disabled":false,"rental_uris":{"android":"levelo://app?vid=5aef8b8d-a1c0-4d83-a273-c6b671bedd61","ios":"levelo://app?vid=5aef8b8d-a1c0-4d83-a273-c6b671bedd61"},"vehicle_type_id":"4","last_reported":1730193041,"current_range_meters":8000,"station_id":"ce4bhl12rcd13ifvqgf0","pricing_plan_id":"cebpf4jnsgd1na2vs0mg"},{"bike_id":"68fb4f18-f8e3-4888-ad74-cdb4024540a7","system_id":"levelo_inurba_marseille","lat":43.29899,"lon":5.4366,"is_reserved":false,"is_disabled":false,"rental_uris":{"android":"levelo://app?vid=68fb4f18-f8e3-4888-ad74-cdb4024540a7","ios":"levelo://app?vid=68fb4f18-f8e3-4888-ad74-cdb4024540a7"},"vehicle_type_id":"4","last_reported":1730193041,"current_range_meters":39200,"station_id":"ce4bhpp2rcd13ifvqhfg","pricing_plan_id":"cebpf4jnsgd1na2vs0mg"},{"bike_id":"83f7db1f-5175-4f37-854b-cde355acc9c6","system_id":"levelo_inurba_marseille","lat":43.322916,"lon":5.38281,"is_reserved":false,"is_disabled":false,"rental_uris":{"android":"levelo://app?vid=83f7db1f-5175-4f37-854b-cde355acc9c6","ios":"levelo://app?vid=83f7db1f-5175-4f37-854b-cde355acc9c6"},"vehicle_type_id":"4","last_reported":1730193041,"current_range_meters":38800,"station_id":"ce4bhr12rcd13ifvqhqg","pricing_plan_id":"cebpf4jnsgd1na2vs0mg"},{"bike_id":"c468bca0-1a60-4851-8919-d208dcbbcda3","system_id":"levelo_inurba_marseille","lat":43.24176,"lon":5.39729,"is_reserved":false,"is_disabled":false,"rental_uris":{"android":"levelo://app?vid=c468bca0-1a60-4851-8919-d208dcbbcda3","ios":"levelo://app?vid=c468bca0-1a60-4851-8919-d208dcbbcda3"},"vehicle_type_id":"4","last_reported":1730193041,"current_range_meters":30000,"station_id":"ce4bhn12rcd13ifvqgpg","pricing_plan_id":"cebpf4jnsgd1na2vs0mg"},{"bike_id":"d6745d68-cf74-4bc3-a103-15ddae085173","system_id":"levelo_inurba_marseille","lat":43.25102,"lon":5.40324,"is_reserved":false,"is_disabled":false,"rental_uris":{"android":"levelo://app?vid=d6745d68-cf74-4bc3-a103-15ddae085173","ios":"levelo://app?vid=d6745d68-cf74-4bc3-a103-15ddae085173"},"vehicle_type_id":"4","last_reported":1730193041,"current_range_meters":38800,"station_id":"ce4bhlh2rcd13ifvqgig","pricing_plan_id":"cebpf4jnsgd1na2vs0mg"},{"bike_id":"ac7494c9-3beb-4035-857a-7936ac827ac9","system_id":"levelo_inurba_marseille","lat":43.30531,"lon":5.36721,"is_reserved":false,"is_disabled":false,"rental_uris":{"android":"levelo://app?vid=ac7494c9-3beb-4035-857a-7936ac827ac9","ios":"levelo://app?vid=ac7494c9-3beb-4035-857a-7936ac827ac9"},"vehicle_type_id":"4","last_reported":1730193041,"current_range_meters":22800,"station_id":"ce4bgrp2rcd13ifvqc9g","pricing_plan_id":"cebpf4jnsgd1na2vs0mg"},{"bike_id":"3e52980f-94d7-4d97-b274-15dc53ff4c5d","system_id":"levelo_inurba_marseille","lat":43.26683,"lon":5.38272,"is_reserved":false,"is_disabled":false,"rental_uris":{"android":"levelo://app?vid=3e52980f-94d7-4d97-b274-15dc53ff4c5d","ios":"levelo://app?vid=3e52980f-94d7-4d97-b274-15dc53ff4c5d"},"vehicle_type_id":"4","last_reported":1730193041,"current_range_meters":26800,"station_id":"ce4bhg92rcd13ifvqf90","pricing_plan_id":"cebpf4jnsgd1na2vs0mg"},{"bike_id":"f000abbe-69b3-4b2c-9394-80b05b2fdac4","system_id":"levelo_inurba_marseille","lat":43.31232,"lon":5.36869,"is_reserved":false,"is_disabled":false,"rental_uris":{"android":"levelo://app?vid=f000abbe-69b3-4b2c-9394-80b05b2fdac4","ios":"levelo://app?vid=f000abbe-69b3-4b2c-9394-80b05b2fdac4"},"vehicle_type_id":"4","last_reported":1730193041,"current_range_meters":24400,"station_id":"ce4bgl92rcd13ifvqbq0","pricing_plan_id":"cebpf4jnsgd1na2vs0mg"},{"bike_id":"979f0f1a-b96f-4580-b40d-344e5bd215ad","system_id":"levelo_inurba_marseille","lat":43.27367,"lon":5.36264,"is_reserved":false,"is_disabled":false,"rental_uris":{"android":"levelo://app?vid=979f0f1a-b96f-4580-b40d-344e5bd215ad","ios":"levelo://app?vid=979f0f1a-b96f-4580-b40d-344e5bd215ad"},"vehicle_type_id":"4","last_reported":1730193041,"current_range_meters":21600,"station_id":"ce4bhbh2rcd13ifvqeo0","pricing_plan_id":"cebpf4jnsgd1na2vs0mg"},{"bike_id":"0dd0ccc2-f1bf-42cd-a425-db2be977a4df","system_id":"levelo_inurba_marseille","lat":43.25584,"lon":5.38231,"is_reserved":false,"is_disabled":false,"rental_uris":{"android":"levelo://app?vid=0dd0ccc2-f1bf-42cd-a425-db2be977a4df","ios":"levelo://app?vid=0dd0ccc2-f1bf-42cd-a425-db2be977a4df"},"vehicle_type_id":"4","last_reported":1730193041,"current_range_meters":39200,"station_id":"ce4bhih2rcd13ifvqfs0","pricing_plan_id":"cebpf4jnsgd1na2vs0mg"},{"bike_id":"62b5614c-5f33-4953-a27e-e0c821552090","system_id":"levelo_inurba_marseille","lat":43.23196,"lon":5.35544,"is_reserved":false,"is_disabled":false,"rental_uris":{"android":"levelo://app?vid=62b5614c-5f33-4953-a27e-e0c821552090","ios":"levelo://app?vid=62b5614c-5f33-4953-a27e-e0c821552090"},"vehicle_type_id":"4","last_reported":1730193041,"current_range_meters":37600,"station_id":"ce4bhu92rcd13ifvqi70","pricing_plan_id":"cebpf4jnsgd1na2vs0mg"},{"bike_id":"67909534-5d2b-4e3d-b735-978adeea462c","system_id":"levelo_inurba_marseille","lat":43.32481,"lon":5.36564,"is_reserved":false,"is_disabled":false,"rental_uris":{"android":"levelo://app?vid=67909534-5d2b-4e3d-b735-978adeea462c","ios":"levelo://app?vid=67909534-5d2b-4e3d-b735-978adeea462c"},"vehicle_type_id":"4","last_reported":1730193041,"current_range_meters":30000,"station_id":"ce4bhs12rcd13ifvqhvg","pricing_plan_id":"cebpf4jnsgd1na2vs0mg"},{"bike_id":"adf6af35-cd01-4122-b565-1024fda48841","system_id":"levelo_inurba_marseille","lat":43.30536,"lon":5.367,"is_reserved":false,"is_disabled":false,"rental_uris":{"android":"levelo://app?vid=adf6af35-cd01-4122-b565-1024fda48841","ios":"levelo://app?vid=adf6af35-cd01-4122-b565-1024fda48841"},"vehicle_type_id":"4","last_reported":1730193041,"current_range_meters":37600,"station_id":"ce4bgrp2rcd13ifvqc9g","pricing_plan_id":"cebpf4jnsgd1na2vs0mg"},{"bike_id":"4e595be2-210f-4a59-9306-c86fbb19f9f7","system_id":"levelo_inurba_marseille","lat":43.24388,"lon":5.37066,"is_reserved":false,"is_disabled":false,"rental_uris":{"android":"levelo://app?vid=4e595be2-210f-4a59-9306-c86fbb19f9f7","ios":"levelo://app?vid=4e595be2-210f-4a59-9306-c86fbb19f9f7"},"vehicle_type_id":"4","last_reported":1730193041,"current_range_meters":3200,"station_id":"ce4bhhh2rcd13ifvqfk0","pricing_plan_id":"cebpf4jnsgd1na2vs0mg"},{"bike_id":"53483838-c1ec-419f-92e3-0e203828f65e","system_id":"levelo_inurba_marseille","lat":43.30564,"lon":5.36547,"is_reserved":false,"is_disabled":false,"rental_uris":{"android":"levelo://app?vid=53483838-c1ec-419f-92e3-0e203828f65e","ios":"levelo://app?vid=53483838-c1ec-419f-92e3-0e203828f65e"},"vehicle_type_id":"4","last_reported":1730193041,"current_range_meters":38800,"station_id":"ce4bgs12rcd13ifvqcag","pricing_plan_id":"cebpf4jnsgd1na2vs0mg"},{"bike_id":"ae961148-4607-4a0a-a87d-de4f55ef5eb6","system_id":"levelo_inurba_marseille","lat":43.27315,"lon":5.39088,"is_reserved":false,"is_disabled":false,"rental_uris":{"android":"levelo://app?vid=ae961148-4607-4a0a-a87d-de4f55ef5eb6","ios":"levelo://app?vid=ae961148-4607-4a0a-a87d-de4f55ef5eb6"},"vehicle_type_id":"4","last_reported":1730193041,"current_range_meters":33200,"station_id":"ce4bhgp2rcd13ifvqfe0","pricing_plan_id":"cebpf4jnsgd1na2vs0mg"},{"bike_id":"f32bfe85-3cbe-4209-90e4-01583d48ed5a","system_id":"levelo_inurba_marseille","lat":43.26959,"lon":5.38636,"is_reserved":false,"is_disabled":false,"rental_uris":{"android":"levelo://app?vid=f32bfe85-3cbe-4209-90e4-01583d48ed5a","ios":"levelo://app?vid=f32bfe85-3cbe-4209-90e4-01583d48ed5a"},"vehicle_type_id":"4","last_reported":1730193041,"current_range_meters":35600,"station_id":"ce4bhh92rcd13ifvqfh0","pricing_plan_id":"cebpf4jnsgd1na2vs0mg"},{"bike_id":"83a287b9-40aa-4882-8b81-76be606ae1d5","system_id":"levelo_inurba_marseille","lat":43.27979,"lon":5.38742,"is_reserved":false,"is_disabled":false,"rental_uris":{"android":"levelo://app?vid=83a287b9-40aa-4882-8b81-76be606ae1d5","ios":"levelo://app?vid=83a287b9-40aa-4882-8b81-76be606ae1d5"},"vehicle_type_id":"4","last_reported":1730193041,"current_range_meters":33200,"station_id":"ce4bhg12rcd13ifvqf80","pricing_plan_id":"cebpf4jnsgd1na2vs0mg"},{"bike_id":"ef8169c0-a946-43dd-b017-4ee8afa4cea5","system_id":"levelo_inurba_marseille","lat":43.29372,"lon":5.37869,"is_reserved":false,"is_disabled":false,"rental_uris":{"android":"levelo://app?vid=ef8169c0-a946-43dd-b017-4ee8afa4cea5","ios":"levelo://app?vid=ef8169c0-a946-43dd-b017-4ee8afa4cea5"},"vehicle_type_id":"4","last_reported":1730193041,"current_range_meters":24400,"station_id":"ce4bgjh2rcd13ifvqbf0","pricing_plan_id":"cebpf4jnsgd1na2vs0mg"},{"bike_id":"18d073cb-83b6-4a56-b36c-f24538a0e583","system_id":"levelo_inurba_marseille","lat":43.23174,"lon":5.39985,"is_reserved":false,"is_disabled":false,"rental_uris":{"android":"levelo://app?vid=18d073cb-83b6-4a56-b36c-f24538a0e583","ios":"levelo://app?vid=18d073cb-83b6-4a56-b36c-f24538a0e583"},"vehicle_type_id":"4","last_reported":1730193041,"current_range_meters":38800,"station_id":"ce4bhn12rcd13ifvqgqg","pricing_plan_id":"cebpf4jnsgd1na2vs0mg"},{"bike_id":"17b8805d-39a1-4337-aeef-2a0d1dd770fe","system_id":"levelo_inurba_marseille","lat":43.25088,"lon":5.39526,"is_reserved":false,"is_disabled":false,"rental_uris":{"android":"levelo://app?vid=17b8805d-39a1-4337-aeef-2a0d1dd770fe","ios":"levelo://app?vid=17b8805d-39a1-4337-aeef-2a0d1dd770fe"},"vehicle_type_id":"4","last_reported":1730193041,"current_range_meters":26000,"station_id":"ce4bhm12rcd13ifvqgkg","pricing_plan_id":"cebpf4jnsgd1na2vs0mg"},{"bike_id":"677cf563-d0a7-495a-88ac-60bbc39ff34f","system_id":"levelo_inurba_marseille","lat":43.29555,"lon":5.4226,"is_reserved":false,"is_disabled":false,"rental_uris":{"android":"levelo://app?vid=677cf563-d0a7-495a-88ac-60bbc39ff34f","ios":"levelo://app?vid=677cf563-d0a7-495a-88ac-60bbc39ff34f"},"vehicle_type_id":"4","last_reported":1730193041,"current_range_meters":32400,"station_id":"ce4bhph2rcd13ifvqhdg","pricing_plan_id":"cebpf4jnsgd1na2vs0mg"},{"bike_id":"5ad31ad7-174f-412e-87d5-b57faa5d4787","system_id":"levelo_inurba_marseille","lat":43.28149,"lon":5.42636,"is_reserved":false,"is_disabled":false,"rental_uris":{"android":"levelo://app?vid=5ad31ad7-174f-412e-87d5-b57faa5d4787","ios":"levelo://app?vid=5ad31ad7-174f-412e-87d5-b57faa5d4787"},"vehicle_type_id":"4","last_reported":1730193041,"current_range_meters":3200,"station_id":"ce4bhnh2rcd13ifvqgug","pricing_plan_id":"cebpf4jnsgd1na2vs0mg"},{"bike_id":"ce399f4d-fdde-4bf7-91c4-1dceaefc5aed","system_id":"levelo_inurba_marseille","lat":43.30532,"lon":5.367,"is_reserved":false,"is_disabled":false,"rental_uris":{"android":"levelo://app?vid=ce399f4d-fdde-4bf7-91c4-1dceaefc5aed","ios":"levelo://app?vid=ce399f4d-fdde-4bf7-91c4-1dceaefc5aed"},"vehicle_type_id":"4","last_reported":1730193041,"current_range_meters":38800,"station_id":"ce4bgrp2rcd13ifvqc9g","pricing_plan_id":"cebpf4jnsgd1na2vs0mg"},{"bike_id":"a0dca16e-a6b5-4a5d-a935-b27aa12a2faa","system_id":"levelo_inurba_marseille","lat":43.2998,"lon":5.38466,"is_reserved":false,"is_disabled":false,"rental_uris":{"android":"levelo://app?vid=a0dca16e-a6b5-4a5d-a935-b27aa12a2faa","ios":"levelo://app?vid=a0dca16e-a6b5-4a5d-a935-b27aa12a2faa"},"vehicle_type_id":"4","last_reported":1730193041,"current_range_meters":24000,"station_id":"","pricing_plan_id":"cebpf4jnsgd1na2vs0mg"},{"bike_id":"8d3f9bb0-c04b-48a8-b580-0d2f77aa1bb9","system_id":"levelo_inurba_marseille","lat":43.27673,"lon":5.38896,"is_reserved":false,"is_disabled":false,"rental_uris":{"android":"levelo://app?vid=8d3f9bb0-c04b-48a8-b580-0d2f77aa1bb9","ios":"levelo://app?vid=8d3f9bb0-c04b-48a8-b580-0d2f77aa1bb9"},"vehicle_type_id":"4","last_reported":1730193041,"current_range_meters":35200,"station_id":"ce4bhi12rcd13ifvqfo0","pricing_plan_id":"cebpf4jnsgd1na2vs0mg"},{"bike_id":"559e0993-d3ec-4994-8a4d-edbc5593d328","system_id":"levelo_inurba_marseille","lat":43.22934,"lon":5.35375,"is_reserved":false,"is_disabled":false,"rental_uris":{"android":"levelo://app?vid=559e0993-d3ec-4994-8a4d-edbc5593d328","ios":"levelo://app?vid=559e0993-d3ec-4994-8a4d-edbc5593d328"},"vehicle_type_id":"4","last_reported":1730193041,"current_range_meters":38000,"station_id":"cpo3532slgdg3j2ikp40","pricing_plan_id":"cebpf4jnsgd1na2vs0mg"},{"bike_id":"212f3c5b-47a7-45fd-aead-88037a0348b7","system_id":"levelo_inurba_marseille","lat":43.30547,"lon":5.36701,"is_reserved":false,"is_disabled":false,"rental_uris":{"android":"levelo://app?vid=212f3c5b-47a7-45fd-aead-88037a0348b7","ios":"levelo://app?vid=212f3c5b-47a7-45fd-aead-88037a0348b7"},"vehicle_type_id":"4","last_reported":1730193041,"current_range_meters":38800,"station_id":"ce4bgrp2rcd13ifvqc9g","pricing_plan_id":"cebpf4jnsgd1na2vs0mg"},{"bike_id":"b4babc66-0248-40c3-a506-51df315349f7","system_id":"levelo_inurba_marseille","lat":43.24076,"lon":5.37757,"is_reserved":false,"is_disabled":false,"rental_uris":{"android":"levelo://app?vid=b4babc66-0248-40c3-a506-51df315349f7","ios":"levelo://app?vid=b4babc66-0248-40c3-a506-51df315349f7"},"vehicle_type_id":"4","last_reported":1730193041,"current_range_meters":28400,"station_id":"ce4bhnp2rcd13ifvqgvg","pricing_plan_id":"cebpf4jnsgd1na2vs0mg"},{"bike_id":"c25c6934-e626-496d-8891-6f5db0cd46e2","system_id":"levelo_inurba_marseille","lat":43.25939,"lon":5.40908,"is_reserved":false,"is_disabled":false,"rental_uris":{"android":"levelo://app?vid=c25c6934-e626-496d-8891-6f5db0cd46e2","ios":"levelo://app?vid=c25c6934-e626-496d-8891-6f5db0cd46e2"},"vehicle_type_id":"4","last_reported":1730193041,"current_range_meters":35200,"station_id":"ce4bhm92rcd13ifvqglg","pricing_plan_id":"cebpf4jnsgd1na2vs0mg"},{"bike_id":"d1dacee6-8f47-4ca5-823b-a2ea6c3413e8","system_id":"levelo_inurba_marseille","lat":43.23195,"lon":5.35558,"is_reserved":false,"is_disabled":false,"rental_uris":{"android":"levelo://app?vid=d1dacee6-8f47-4ca5-823b-a2ea6c3413e8","ios":"levelo://app?vid=d1dacee6-8f47-4ca5-823b-a2ea6c3413e8"},"vehicle_type_id":"4","last_reported":1730193041,"current_range_meters":39200,"station_id":"ce4bhu92rcd13ifvqi70","pricing_plan_id":"cebpf4jnsgd1na2vs0mg"},{"bike_id":"57d70c04-ba9c-4c5d-b4f3-5a3f4d55d87f","system_id":"levelo_inurba_marseille","lat":43.29794,"lon":5.40415,"is_reserved":false,"is_disabled":false,"rental_uris":{"android":"levelo://app?vid=57d70c04-ba9c-4c5d-b4f3-5a3f4d55d87f","ios":"levelo://app?vid=57d70c04-ba9c-4c5d-b4f3-5a3f4d55d87f"},"vehicle_type_id":"4","last_reported":1730193041,"current_range_meters":9200,"station_id":"ce4bh112rcd13ifvqd90","pricing_plan_id":"cebpf4jnsgd1na2vs0mg"},{"bike_id":"f09371cc-1c70-462f-907e-11f44ba1feec","system_id":"levelo_inurba_marseille","lat":43.25939,"lon":5.40914,"is_reserved":false,"is_disabled":false,"rental_uris":{"android":"levelo://app?vid=f09371cc-1c70-462f-907e-11f44ba1feec","ios":"levelo://app?vid=f09371cc-1c70-462f-907e-11f44ba1feec"},"vehicle_type_id":"4","last_reported":1730193041,"current_range_meters":33600,"station_id":"ce4bhm92rcd13ifvqglg","pricing_plan_id":"cebpf4jnsgd1na2vs0mg"},{"bike_id":"39ff96a4-7bc1-4a89-81c9-c6c9b24b33f1","system_id":"levelo_inurba_marseille","lat":43.29165,"lon":5.37169,"is_reserved":false,"is_disabled":false,"rental_uris":{"android":"levelo://app?vid=39ff96a4-7bc1-4a89-81c9-c6c9b24b33f1","ios":"levelo://app?vid=39ff96a4-7bc1-4a89-81c9-c6c9b24b33f1"},"vehicle_type_id":"4","last_reported":1730193041,"current_range_meters":10800,"station_id":"ce4bha92rcd13ifvqeh0","pricing_plan_id":"cebpf4jnsgd1na2vs0mg"},{"bike_id":"54399a13-f8cb-435f-8b52-6878bec0e3bf","system_id":"levelo_inurba_marseille","lat":43.28153,"lon":5.42648,"is_reserved":false,"is_disabled":false,"rental_uris":{"android":"levelo://app?vid=54399a13-f8cb-435f-8b52-6878bec0e3bf","ios":"levelo://app?vid=54399a13-f8cb-435f-8b52-6878bec0e3bf"},"vehicle_type_id":"4","last_reported":1730193041,"current_range_meters":36000,"station_id":"ce4bhnh2rcd13ifvqgug","pricing_plan_id":"cebpf4jnsgd1na2vs0mg"},{"bike_id":"47b98d2f-07e1-4c21-b0d2-a7fef571c542","system_id":"levelo_inurba_marseille","lat":43.3089,"lon":5.37198,"is_reserved":false,"is_disabled":false,"rental_uris":{"android":"levelo://app?vid=47b98d2f-07e1-4c21-b0d2-a7fef571c542","ios":"levelo://app?vid=47b98d2f-07e1-4c21-b0d2-a7fef571c542"},"vehicle_type_id":"4","last_reported":1730193041,"current_range_meters":21600,"station_id":"ce4bguh2rcd13ifvqckg","pricing_plan_id":"cebpf4jnsgd1na2vs0mg"},{"bike_id":"1b267d64-871f-4f53-b983-48a2463b9ac6","system_id":"levelo_inurba_marseille","lat":43.30918,"lon":5.37199,"is_reserved":false,"is_disabled":false,"rental_uris":{"android":"levelo://app?vid=1b267d64-871f-4f53-b983-48a2463b9ac6","ios":"levelo://app?vid=1b267d64-871f-4f53-b983-48a2463b9ac6"},"vehicle_type_id":"4","last_reported":1730193041,"current_range_meters":38800,"station_id":"ce4bguh2rcd13ifvqckg","pricing_plan_id":"cebpf4jnsgd1na2vs0mg"},{"bike_id":"77bda5e6-f055-4c3a-9927-55ea8f7365ab","system_id":"levelo_inurba_marseille","lat":43.25931,"lon":5.40907,"is_reserved":false,"is_disabled":false,"rental_uris":{"android":"levelo://app?vid=77bda5e6-f055-4c3a-9927-55ea8f7365ab","ios":"levelo://app?vid=77bda5e6-f055-4c3a-9927-55ea8f7365ab"},"vehicle_type_id":"4","last_reported":1730193041,"current_range_meters":21600,"station_id":"ce4bhm92rcd13ifvqglg","pricing_plan_id":"cebpf4jnsgd1na2vs0mg"},{"bike_id":"4b1f45ca-5ba1-42a7-87e4-e9967261b64c","system_id":"levelo_inurba_marseille","lat":43.31085,"lon":5.42431,"is_reserved":false,"is_disabled":false,"rental_uris":{"android":"levelo://app?vid=4b1f45ca-5ba1-42a7-87e4-e9967261b64c","ios":"levelo://app?vid=4b1f45ca-5ba1-42a7-87e4-e9967261b64c"},"vehicle_type_id":"4","last_reported":1730193041,"current_range_meters":38400,"station_id":"ce4bhp92rcd13ifvqhag","pricing_plan_id":"cebpf4jnsgd1na2vs0mg"},{"bike_id":"19b82e21-3d35-41bf-aafb-3cde2bd09028","system_id":"levelo_inurba_marseille","lat":43.29042,"lon":5.39953,"is_reserved":false,"is_disabled":false,"rental_uris":{"android":"levelo://app?vid=19b82e21-3d35-41bf-aafb-3cde2bd09028","ios":"levelo://app?vid=19b82e21-3d35-41bf-aafb-3cde2bd09028"},"vehicle_type_id":"4","last_reported":1730193041,"current_range_meters":26800,"station_id":"ce4bh392rcd13ifvqdm0","pricing_plan_id":"cebpf4jnsgd1na2vs0mg"},{"bike_id":"060d5bff-63f2-48b5-8503-2c67d2254e41","system_id":"levelo_inurba_marseille","lat":43.3211,"lon":5.36765,"is_reserved":false,"is_disabled":false,"rental_uris":{"android":"levelo://app?vid=060d5bff-63f2-48b5-8503-2c67d2254e41","ios":"levelo://app?vid=060d5bff-63f2-48b5-8503-2c67d2254e41"},"vehicle_type_id":"4","last_reported":1730193041,"current_range_meters":37600,"station_id":"ce4bhrh2rcd13ifvqhug","pricing_plan_id":"cebpf4jnsgd1na2vs0mg"},{"bike_id":"14fa7ab4-3d26-47e0-af42-b940b3c853b8","system_id":"levelo_inurba_marseille","lat":43.27183,"lon":5.40978,"is_reserved":false,"is_disabled":false,"rental_uris":{"android":"levelo://app?vid=14fa7ab4-3d26-47e0-af42-b940b3c853b8","ios":"levelo://app?vid=14fa7ab4-3d26-47e0-af42-b940b3c853b8"},"vehicle_type_id":"4","last_reported":1730193041,"current_range_meters":16400,"station_id":"ce4bhl12rcd13ifvqgf0","pricing_plan_id":"cebpf4jnsgd1na2vs0mg"},{"bike_id":"9f422c91-7c0f-4548-8513-8523cc1662dd","system_id":"levelo_inurba_marseille","lat":43.23064,"lon":5.35489,"is_reserved":false,"is_disabled":false,"rental_uris":{"android":"levelo://app?vid=9f422c91-7c0f-4548-8513-8523cc1662dd","ios":"levelo://app?vid=9f422c91-7c0f-4548-8513-8523cc1662dd"},"vehicle_type_id":"4","last_reported":1730193041,"current_range_meters":21600,"station_id":"cpo3342slgdg3j2ifvpg","pricing_plan_id":"cebpf4jnsgd1na2vs0mg"},{"bike_id":"76150a2f-ac36-41cc-bbdb-58b23b088cca","system_id":"levelo_inurba_marseille","lat":43.315382,"lon":5.380245,"is_reserved":false,"is_disabled":false,"rental_uris":{"android":"levelo://app?vid=76150a2f-ac36-41cc-bbdb-58b23b088cca","ios":"levelo://app?vid=76150a2f-ac36-41cc-bbdb-58b23b088cca"},"vehicle_type_id":"4","last_reported":1730193041,"current_range_meters":19200,"station_id":"ce4bhsp2rcd13ifvqi50","pricing_plan_id":"cebpf4jnsgd1na2vs0mg"},{"bike_id":"49838399-0752-45b1-a8d5-501914aaf4e3","system_id":"levelo_inurba_marseille","lat":43.31336,"lon":5.36734,"is_reserved":false,"is_disabled":false,"rental_uris":{"android":"levelo://app?vid=49838399-0752-45b1-a8d5-501914aaf4e3","ios":"levelo://app?vid=49838399-0752-45b1-a8d5-501914aaf4e3"},"vehicle_type_id":"4","last_reported":1730193041,"current_range_meters":29600,"station_id":"ce4bgr92rcd13ifvqc6g","pricing_plan_id":"cebpf4jnsgd1na2vs0mg"},{"bike_id":"49a6fea7-8afb-4ef4-a4bd-3607b2a8b759","system_id":"levelo_inurba_marseille","lat":43.30178,"lon":5.36616,"is_reserved":false,"is_disabled":false,"rental_uris":{"android":"levelo://app?vid=49a6fea7-8afb-4ef4-a4bd-3607b2a8b759","ios":"levelo://app?vid=49a6fea7-8afb-4ef4-a4bd-3607b2a8b759"},"vehicle_type_id":"4","last_reported":1730193041,"current_range_meters":38800,"station_id":"ce4bgrh2rcd13ifvqc8g","pricing_plan_id":"cebpf4jnsgd1na2vs0mg"},{"bike_id":"edee228c-76f1-4f9d-b4f7-5773b8a0b850","system_id":"levelo_inurba_marseille","lat":43.23196,"lon":5.35557,"is_reserved":false,"is_disabled":false,"rental_uris":{"android":"levelo://app?vid=edee228c-76f1-4f9d-b4f7-5773b8a0b850","ios":"levelo://app?vid=edee228c-76f1-4f9d-b4f7-5773b8a0b850"},"vehicle_type_id":"4","last_reported":1730193041,"current_range_meters":20000,"station_id":"ce4bhu92rcd13ifvqi70","pricing_plan_id":"cebpf4jnsgd1na2vs0mg"},{"bike_id":"de64aefc-2736-480f-8f17-3a77ec3af0e8","system_id":"levelo_inurba_marseille","lat":43.25586,"lon":5.3823,"is_reserved":false,"is_disabled":false,"rental_uris":{"android":"levelo://app?vid=de64aefc-2736-480f-8f17-3a77ec3af0e8","ios":"levelo://app?vid=de64aefc-2736-480f-8f17-3a77ec3af0e8"},"vehicle_type_id":"4","last_reported":1730193041,"current_range_meters":38400,"station_id":"ce4bhih2rcd13ifvqfs0","pricing_plan_id":"cebpf4jnsgd1na2vs0mg"},{"bike_id":"572ae421-b079-482b-81c8-fa9955650109","system_id":"levelo_inurba_marseille","lat":43.30525,"lon":5.36558,"is_reserved":false,"is_disabled":false,"rental_uris":{"android":"levelo://app?vid=572ae421-b079-482b-81c8-fa9955650109","ios":"levelo://app?vid=572ae421-b079-482b-81c8-fa9955650109"},"vehicle_type_id":"4","last_reported":1730193041,"current_range_meters":10000,"station_id":"","pricing_plan_id":"cebpf4jnsgd1na2vs0mg"},{"bike_id":"9b9b6a33-f33e-42da-9fed-c30e857b5b87","system_id":"levelo_inurba_marseille","lat":43.3091,"lon":5.36861,"is_reserved":false,"is_disabled":false,"rental_uris":{"android":"levelo://app?vid=9b9b6a33-f33e-42da-9fed-c30e857b5b87","ios":"levelo://app?vid=9b9b6a33-f33e-42da-9fed-c30e857b5b87"},"vehicle_type_id":"4","last_reported":1730193041,"current_range_meters":19600,"station_id":"ce4bgn92rcd13ifvqbvg","pricing_plan_id":"cebpf4jnsgd1na2vs0mg"},{"bike_id":"aa2c8745-5dc4-40c1-aab0-613db792e9e6","system_id":"levelo_inurba_marseille","lat":43.337444,"lon":5.374475,"is_reserved":false,"is_disabled":false,"rental_uris":{"android":"levelo://app?vid=aa2c8745-5dc4-40c1-aab0-613db792e9e6","ios":"levelo://app?vid=aa2c8745-5dc4-40c1-aab0-613db792e9e6"},"vehicle_type_id":"4","last_reported":1730193041,"current_range_meters":38800,"station_id":"","pricing_plan_id":"cebpf4jnsgd1na2vs0mg"},{"bike_id":"475a03f6-3b10-456d-91ad-91b43de9799b","system_id":"levelo_inurba_marseille","lat":43.33756,"lon":5.37461,"is_reserved":false,"is_disabled":false,"rental_uris":{"android":"levelo://app?vid=475a03f6-3b10-456d-91ad-91b43de9799b","ios":"levelo://app?vid=475a03f6-3b10-456d-91ad-91b43de9799b"},"vehicle_type_id":"4","last_reported":1730193041,"current_range_meters":38800,"station_id":"","pricing_plan_id":"cebpf4jnsgd1na2vs0mg"},{"bike_id":"ee95b97d-ec6a-4612-99b6-3c3aa0c5e049","system_id":"levelo_inurba_marseille","lat":43.2903,"lon":5.38132,"is_reserved":false,"is_disabled":false,"rental_uris":{"android":"levelo://app?vid=ee95b97d-ec6a-4612-99b6-3c3aa0c5e049","ios":"levelo://app?vid=ee95b97d-ec6a-4612-99b6-3c3aa0c5e049"},"vehicle_type_id":"4","last_reported":1730193041,"current_range_meters":36800,"station_id":"ce4bh4p2rcd13ifvqe1g","pricing_plan_id":"cebpf4jnsgd1na2vs0mg"},{"bike_id":"9115e988-ee96-4439-a207-fe0a3909ee9b","system_id":"levelo_inurba_marseille","lat":43.23149,"lon":5.43723,"is_reserved":false,"is_disabled":false,"rental_uris":{"android":"levelo://app?vid=9115e988-ee96-4439-a207-fe0a3909ee9b","ios":"levelo://app?vid=9115e988-ee96-4439-a207-fe0a3909ee9b"},"vehicle_type_id":"4","last_reported":1730193041,"current_range_meters":8000,"station_id":"ce4bhmp2rcd13ifvqgog","pricing_plan_id":"cebpf4jnsgd1na2vs0mg"},{"bike_id":"3a47f4a6-6d10-4877-8639-ff07d4f62a3c","system_id":"levelo_inurba_marseille","lat":43.24388,"lon":5.37066,"is_reserved":false,"is_disabled":false,"rental_uris":{"android":"levelo://app?vid=3a47f4a6-6d10-4877-8639-ff07d4f62a3c","ios":"levelo://app?vid=3a47f4a6-6d10-4877-8639-ff07d4f62a3c"},"vehicle_type_id":"4","last_reported":1730193041,"current_range_meters":16800,"station_id":"ce4bhhh2rcd13ifvqfk0","pricing_plan_id":"cebpf4jnsgd1na2vs0mg"},{"bike_id":"e3d27640-a7eb-4407-a3ae-d168fb29106a","system_id":"levelo_inurba_marseille","lat":43.31758,"lon":5.39018,"is_reserved":false,"is_disabled":false,"rental_uris":{"android":"levelo://app?vid=e3d27640-a7eb-4407-a3ae-d168fb29106a","ios":"levelo://app?vid=e3d27640-a7eb-4407-a3ae-d168fb29106a"},"vehicle_type_id":"4","last_reported":1730193041,"current_range_meters":38800,"station_id":"ce4bhqp2rcd13ifvqhng","pricing_plan_id":"cebpf4jnsgd1na2vs0mg"},{"bike_id":"e53d585e-49b9-4d1e-8b0f-fa4be3a26bdc","system_id":"levelo_inurba_marseille","lat":43.2957,"lon":5.37512,"is_reserved":false,"is_disabled":false,"rental_uris":{"android":"levelo://app?vid=e53d585e-49b9-4d1e-8b0f-fa4be3a26bdc","ios":"levelo://app?vid=e53d585e-49b9-4d1e-8b0f-fa4be3a26bdc"},"vehicle_type_id":"4","last_reported":1730193041,"current_range_meters":25200,"station_id":"ce4bgh92rcd13ifvqb50","pricing_plan_id":"cebpf4jnsgd1na2vs0mg"},{"bike_id":"14c64a56-9590-45e0-9514-2e55c497b42a","system_id":"levelo_inurba_marseille","lat":43.30547,"lon":5.36709,"is_reserved":false,"is_disabled":false,"rental_uris":{"android":"levelo://app?vid=14c64a56-9590-45e0-9514-2e55c497b42a","ios":"levelo://app?vid=14c64a56-9590-45e0-9514-2e55c497b42a"},"vehicle_type_id":"4","last_reported":1730193041,"current_range_meters":24800,"station_id":"ce4bgrp2rcd13ifvqc9g","pricing_plan_id":"cebpf4jnsgd1na2vs0mg"},{"bike_id":"2f921f60-1890-404a-898c-6dae28d2ff64","system_id":"levelo_inurba_marseille","lat":43.32114,"lon":5.36768,"is_reserved":false,"is_disabled":false,"rental_uris":{"android":"levelo://app?vid=2f921f60-1890-404a-898c-6dae28d2ff64","ios":"levelo://app?vid=2f921f60-1890-404a-898c-6dae28d2ff64"},"vehicle_type_id":"4","last_reported":1730193041,"current_range_meters":36800,"station_id":"ce4bhrh2rcd13ifvqhug","pricing_plan_id":"cebpf4jnsgd1na2vs0mg"},{"bike_id":"1ce8273e-c4a1-4c41-b380-ee57463836f9","system_id":"levelo_inurba_marseille","lat":43.25933,"lon":5.40903,"is_reserved":false,"is_disabled":false,"rental_uris":{"android":"levelo://app?vid=1ce8273e-c4a1-4c41-b380-ee57463836f9","ios":"levelo://app?vid=1ce8273e-c4a1-4c41-b380-ee57463836f9"},"vehicle_type_id":"4","last_reported":1730193041,"current_range_meters":33200,"station_id":"ce4bhm92rcd13ifvqglg","pricing_plan_id":"cebpf4jnsgd1na2vs0mg"},{"bike_id":"d14b9561-d83f-4ebc-91c5-f6e354dc5fa0","system_id":"levelo_inurba_marseille","lat":43.29035,"lon":5.3997,"is_reserved":false,"is_disabled":false,"rental_uris":{"android":"levelo://app?vid=d14b9561-d83f-4ebc-91c5-f6e354dc5fa0","ios":"levelo://app?vid=d14b9561-d83f-4ebc-91c5-f6e354dc5fa0"},"vehicle_type_id":"4","last_reported":1730193041,"current_range_meters":28000,"station_id":"ce4bh392rcd13ifvqdm0","pricing_plan_id":"cebpf4jnsgd1na2vs0mg"},{"bike_id":"e424b48b-4a73-447e-9cd7-6eab4a91ad29","system_id":"levelo_inurba_marseille","lat":43.30207,"lon":5.39469,"is_reserved":false,"is_disabled":false,"rental_uris":{"android":"levelo://app?vid=e424b48b-4a73-447e-9cd7-6eab4a91ad29","ios":"levelo://app?vid=e424b48b-4a73-447e-9cd7-6eab4a91ad29"},"vehicle_type_id":"4","last_reported":1730193041,"current_range_meters":32800,"station_id":"ce4bh0p2rcd13ifvqd70","pricing_plan_id":"cebpf4jnsgd1na2vs0mg"},{"bike_id":"068effe5-790b-4949-b29c-ab12e5f96d2b","system_id":"levelo_inurba_marseille","lat":43.30897,"lon":5.37196,"is_reserved":false,"is_disabled":false,"rental_uris":{"android":"levelo://app?vid=068effe5-790b-4949-b29c-ab12e5f96d2b","ios":"levelo://app?vid=068effe5-790b-4949-b29c-ab12e5f96d2b"},"vehicle_type_id":"4","last_reported":1730193041,"current_range_meters":30000,"station_id":"ce4bguh2rcd13ifvqckg","pricing_plan_id":"cebpf4jnsgd1na2vs0mg"},{"bike_id":"c716f90c-84c2-4ba2-95c5-b3c18e343ad1","system_id":"levelo_inurba_marseille","lat":43.28854,"lon":5.35853,"is_reserved":false,"is_disabled":false,"rental_uris":{"android":"levelo://app?vid=c716f90c-84c2-4ba2-95c5-b3c18e343ad1","ios":"levelo://app?vid=c716f90c-84c2-4ba2-95c5-b3c18e343ad1"},"vehicle_type_id":"4","last_reported":1730193041,"current_range_meters":36000,"station_id":"ce4bhb12rcd13ifvqem0","pricing_plan_id":"cebpf4jnsgd1na2vs0mg"},{"bike_id":"a42f206f-603f-4ecf-8af4-90133d39c6a5","system_id":"levelo_inurba_marseille","lat":43.27318,"lon":5.39086,"is_reserved":false,"is_disabled":false,"rental_uris":{"android":"levelo://app?vid=a42f206f-603f-4ecf-8af4-90133d39c6a5","ios":"levelo://app?vid=a42f206f-603f-4ecf-8af4-90133d39c6a5"},"vehicle_type_id":"4","last_reported":1730193041,"current_range_meters":27600,"station_id":"ce4bhgp2rcd13ifvqfe0","pricing_plan_id":"cebpf4jnsgd1na2vs0mg"},{"bike_id":"efe954bf-36b9-4332-b8c7-66dfd4e53eb2","system_id":"levelo_inurba_marseille","lat":43.33611,"lon":5.4103,"is_reserved":false,"is_disabled":false,"rental_uris":{"android":"levelo://app?vid=efe954bf-36b9-4332-b8c7-66dfd4e53eb2","ios":"levelo://app?vid=efe954bf-36b9-4332-b8c7-66dfd4e53eb2"},"vehicle_type_id":"4","last_reported":1730193041,"current_range_meters":25600,"station_id":"ce4bhqh2rcd13ifvqhmg","pricing_plan_id":"cebpf4jnsgd1na2vs0mg"},{"bike_id":"3c083404-e2d9-48d5-a2d9-71da6b37319f","system_id":"levelo_inurba_marseille","lat":43.28151,"lon":5.42644,"is_reserved":false,"is_disabled":false,"rental_uris":{"android":"levelo://app?vid=3c083404-e2d9-48d5-a2d9-71da6b37319f","ios":"levelo://app?vid=3c083404-e2d9-48d5-a2d9-71da6b37319f"},"vehicle_type_id":"4","last_reported":1730193041,"current_range_meters":38800,"station_id":"ce4bhnh2rcd13ifvqgug","pricing_plan_id":"cebpf4jnsgd1na2vs0mg"},{"bike_id":"1a069240-612c-4428-9d20-e1023cc0e0aa","system_id":"levelo_inurba_marseille","lat":43.25944,"lon":5.40902,"is_reserved":false,"is_disabled":false,"rental_uris":{"android":"levelo://app?vid=1a069240-612c-4428-9d20-e1023cc0e0aa","ios":"levelo://app?vid=1a069240-612c-4428-9d20-e1023cc0e0aa"},"vehicle_type_id":"4","last_reported":1730193041,"current_range_meters":32000,"station_id":"ce4bhm92rcd13ifvqglg","pricing_plan_id":"cebpf4jnsgd1na2vs0mg"},{"bike_id":"17070017-6b4b-4608-bb5f-02f00021915a","system_id":"levelo_inurba_marseille","lat":43.2894,"lon":5.39622,"is_reserved":false,"is_disabled":false,"rental_uris":{"android":"levelo://app?vid=17070017-6b4b-4608-bb5f-02f00021915a","ios":"levelo://app?vid=17070017-6b4b-4608-bb5f-02f00021915a"},"vehicle_type_id":"4","last_reported":1730193041,"current_range_meters":37600,"station_id":"ce4bh3h2rcd13ifvqdn0","pricing_plan_id":"cebpf4jnsgd1na2vs0mg"},{"bike_id":"39078943-7118-462f-958f-a40bed4af7fb","system_id":"levelo_inurba_marseille","lat":43.30915,"lon":5.3685,"is_reserved":false,"is_disabled":false,"rental_uris":{"android":"levelo://app?vid=39078943-7118-462f-958f-a40bed4af7fb","ios":"levelo://app?vid=39078943-7118-462f-958f-a40bed4af7fb"},"vehicle_type_id":"4","last_reported":1730193041,"current_range_meters":38000,"station_id":"ce4bgn92rcd13ifvqbvg","pricing_plan_id":"cebpf4jnsgd1na2vs0mg"},{"bike_id":"4f4bf255-9d1a-4a0e-9a11-a04474ca4160","system_id":"levelo_inurba_marseille","lat":43.27183,"lon":5.40991,"is_reserved":false,"is_disabled":false,"rental_uris":{"android":"levelo://app?vid=4f4bf255-9d1a-4a0e-9a11-a04474ca4160","ios":"levelo://app?vid=4f4bf255-9d1a-4a0e-9a11-a04474ca4160"},"vehicle_type_id":"4","last_reported":1730193041,"current_range_meters":38400,"station_id":"ce4bhl12rcd13ifvqgf0","pricing_plan_id":"cebpf4jnsgd1na2vs0mg"},{"bike_id":"d9d4a298-8acd-4d1c-8825-3408f5f02c5a","system_id":"levelo_inurba_marseille","lat":43.308,"lon":5.43526,"is_reserved":false,"is_disabled":false,"rental_uris":{"android":"levelo://app?vid=d9d4a298-8acd-4d1c-8825-3408f5f02c5a","ios":"levelo://app?vid=d9d4a298-8acd-4d1c-8825-3408f5f02c5a"},"vehicle_type_id":"4","last_reported":1730193041,"current_range_meters":37600,"station_id":"ce4bhph2rcd13ifvqheg","pricing_plan_id":"cebpf4jnsgd1na2vs0mg"},{"bike_id":"3596a464-c770-4ebd-b1e2-e40084414ba9","system_id":"levelo_inurba_marseille","lat":43.23183,"lon":5.39984,"is_reserved":false,"is_disabled":false,"rental_uris":{"android":"levelo://app?vid=3596a464-c770-4ebd-b1e2-e40084414ba9","ios":"levelo://app?vid=3596a464-c770-4ebd-b1e2-e40084414ba9"},"vehicle_type_id":"4","last_reported":1730193041,"current_range_meters":38400,"station_id":"ce4bhn12rcd13ifvqgqg","pricing_plan_id":"cebpf4jnsgd1na2vs0mg"},{"bike_id":"8478f686-e026-43b3-99f3-eb86891fc6fa","system_id":"levelo_inurba_marseille","lat":43.25932,"lon":5.40913,"is_reserved":false,"is_disabled":false,"rental_uris":{"android":"levelo://app?vid=8478f686-e026-43b3-99f3-eb86891fc6fa","ios":"levelo://app?vid=8478f686-e026-43b3-99f3-eb86891fc6fa"},"vehicle_type_id":"4","last_reported":1730193041,"current_range_meters":27200,"station_id":"ce4bhm92rcd13ifvqglg","pricing_plan_id":"cebpf4jnsgd1na2vs0mg"},{"bike_id":"4188d229-68c4-47d1-9772-4359c6749efe","system_id":"levelo_inurba_marseille","lat":43.29316,"lon":5.37173,"is_reserved":false,"is_disabled":false,"rental_uris":{"android":"levelo://app?vid=4188d229-68c4-47d1-9772-4359c6749efe","ios":"levelo://app?vid=4188d229-68c4-47d1-9772-4359c6749efe"},"vehicle_type_id":"4","last_reported":1730193041,"current_range_meters":37600,"station_id":"ce4bgh92rcd13ifvqb40","pricing_plan_id":"cebpf4jnsgd1na2vs0mg"},{"bike_id":"b890057b-5455-4fed-a346-a30140dbf239","system_id":"levelo_inurba_marseille","lat":43.30539,"lon":5.36542,"is_reserved":false,"is_disabled":false,"rental_uris":{"android":"levelo://app?vid=b890057b-5455-4fed-a346-a30140dbf239","ios":"levelo://app?vid=b890057b-5455-4fed-a346-a30140dbf239"},"vehicle_type_id":"4","last_reported":1730193041,"current_range_meters":38000,"station_id":"ce4bgs12rcd13ifvqcag","pricing_plan_id":"cebpf4jnsgd1na2vs0mg"},{"bike_id":"8107a8d0-709d-4632-b364-a62acb854625","system_id":"levelo_inurba_marseille","lat":43.309067,"lon":5.368557,"is_reserved":false,"is_disabled":false,"rental_uris":{"android":"levelo://app?vid=8107a8d0-709d-4632-b364-a62acb854625","ios":"levelo://app?vid=8107a8d0-709d-4632-b364-a62acb854625"},"vehicle_type_id":"4","last_reported":1730193041,"current_range_meters":31200,"station_id":"ce4bgn92rcd13ifvqbvg","pricing_plan_id":"cebpf4jnsgd1na2vs0mg"},{"bike_id":"9a061509-ab8e-4f69-bbb3-d3345ac56b82","system_id":"levelo_inurba_marseille","lat":43.3014,"lon":5.37422,"is_reserved":false,"is_disabled":false,"rental_uris":{"android":"levelo://app?vid=9a061509-ab8e-4f69-bbb3-d3345ac56b82","ios":"levelo://app?vid=9a061509-ab8e-4f69-bbb3-d3345ac56b82"},"vehicle_type_id":"4","last_reported":1730193041,"current_range_meters":38800,"station_id":"ce4bgs92rcd13ifvqcc0","pricing_plan_id":"cebpf4jnsgd1na2vs0mg"},{"bike_id":"4021a60c-56da-4f6f-a33c-87d294128677","system_id":"levelo_inurba_marseille","lat":43.31343,"lon":5.36725,"is_reserved":false,"is_disabled":false,"rental_uris":{"android":"levelo://app?vid=4021a60c-56da-4f6f-a33c-87d294128677","ios":"levelo://app?vid=4021a60c-56da-4f6f-a33c-87d294128677"},"vehicle_type_id":"4","last_reported":1730193041,"current_range_meters":25600,"station_id":"ce4bgr92rcd13ifvqc6g","pricing_plan_id":"cebpf4jnsgd1na2vs0mg"},{"bike_id":"fe0f4ad9-8221-48ed-be5d-c64547a2f47a","system_id":"levelo_inurba_marseille","lat":43.28634,"lon":5.38354,"is_reserved":false,"is_disabled":false,"rental_uris":{"android":"levelo://app?vid=fe0f4ad9-8221-48ed-be5d-c64547a2f47a","ios":"levelo://app?vid=fe0f4ad9-8221-48ed-be5d-c64547a2f47a"},"vehicle_type_id":"4","last_reported":1730193041,"current_range_meters":17200,"station_id":"ce4bh4p2rcd13ifvqe1g","pricing_plan_id":"cebpf4jnsgd1na2vs0mg"},{"bike_id":"ace72f9e-7d3c-4255-8bf9-d680adf20397","system_id":"levelo_inurba_marseille","lat":43.2769,"lon":5.38883,"is_reserved":false,"is_disabled":false,"rental_uris":{"android":"levelo://app?vid=ace72f9e-7d3c-4255-8bf9-d680adf20397","ios":"levelo://app?vid=ace72f9e-7d3c-4255-8bf9-d680adf20397"},"vehicle_type_id":"4","last_reported":1730193041,"current_range_meters":35200,"station_id":"ce4bhi12rcd13ifvqfo0","pricing_plan_id":"cebpf4jnsgd1na2vs0mg"},{"bike_id":"95a0b55b-c5e7-457d-a4e9-41be027a3aeb","system_id":"levelo_inurba_marseille","lat":43.27181,"lon":5.40996,"is_reserved":false,"is_disabled":false,"rental_uris":{"android":"levelo://app?vid=95a0b55b-c5e7-457d-a4e9-41be027a3aeb","ios":"levelo://app?vid=95a0b55b-c5e7-457d-a4e9-41be027a3aeb"},"vehicle_type_id":"4","last_reported":1730193041,"current_range_meters":37600,"station_id":"ce4bhl12rcd13ifvqgf0","pricing_plan_id":"cebpf4jnsgd1na2vs0mg"},{"bike_id":"6161ee4d-3bd9-4b36-a4d7-867c052bdc22","system_id":"levelo_inurba_marseille","lat":43.32042,"lon":5.41572,"is_reserved":false,"is_disabled":false,"rental_uris":{"android":"levelo://app?vid=6161ee4d-3bd9-4b36-a4d7-867c052bdc22","ios":"levelo://app?vid=6161ee4d-3bd9-4b36-a4d7-867c052bdc22"},"vehicle_type_id":"4","last_reported":1730193041,"current_range_meters":38000,"station_id":"ce4bhq92rcd13ifvqhkg","pricing_plan_id":"cebpf4jnsgd1na2vs0mg"},{"bike_id":"8657a7a0-912a-44f2-879d-8b41f669f001","system_id":"levelo_inurba_marseille","lat":43.32481,"lon":5.36571,"is_reserved":false,"is_disabled":false,"rental_uris":{"android":"levelo://app?vid=8657a7a0-912a-44f2-879d-8b41f669f001","ios":"levelo://app?vid=8657a7a0-912a-44f2-879d-8b41f669f001"},"vehicle_type_id":"4","last_reported":1730193041,"current_range_meters":12000,"station_id":"ce4bhs12rcd13ifvqhvg","pricing_plan_id":"cebpf4jnsgd1na2vs0mg"},{"bike_id":"9afc7485-1167-4ea1-967d-87102a9c5e52","system_id":"levelo_inurba_marseille","lat":43.298126,"lon":5.380921,"is_reserved":false,"is_disabled":false,"rental_uris":{"android":"levelo://app?vid=9afc7485-1167-4ea1-967d-87102a9c5e52","ios":"levelo://app?vid=9afc7485-1167-4ea1-967d-87102a9c5e52"},"vehicle_type_id":"4","last_reported":1730193041,"current_range_meters":20400,"station_id":"ce4bgup2rcd13ifvqco0","pricing_plan_id":"cebpf4jnsgd1na2vs0mg"},{"bike_id":"21b0d405-022c-4046-9483-b0c711fb60b5","system_id":"levelo_inurba_marseille","lat":43.29552,"lon":5.42285,"is_reserved":false,"is_disabled":false,"rental_uris":{"android":"levelo://app?vid=21b0d405-022c-4046-9483-b0c711fb60b5","ios":"levelo://app?vid=21b0d405-022c-4046-9483-b0c711fb60b5"},"vehicle_type_id":"4","last_reported":1730193041,"current_range_meters":38800,"station_id":"ce4bhph2rcd13ifvqhdg","pricing_plan_id":"cebpf4jnsgd1na2vs0mg"},{"bike_id":"48654472-0672-4598-907c-00ae4bc0929f","system_id":"levelo_inurba_marseille","lat":43.24169,"lon":5.39729,"is_reserved":false,"is_disabled":false,"rental_uris":{"android":"levelo://app?vid=48654472-0672-4598-907c-00ae4bc0929f","ios":"levelo://app?vid=48654472-0672-4598-907c-00ae4bc0929f"},"vehicle_type_id":"4","last_reported":1730193041,"current_range_meters":38800,"station_id":"ce4bhn12rcd13ifvqgpg","pricing_plan_id":"cebpf4jnsgd1na2vs0mg"},{"bike_id":"e2b94c3a-fbe0-4c33-9d6c-fee94086ffcb","system_id":"levelo_inurba_marseille","lat":43.27615,"lon":5.36109,"is_reserved":false,"is_disabled":false,"rental_uris":{"android":"levelo://app?vid=e2b94c3a-fbe0-4c33-9d6c-fee94086ffcb","ios":"levelo://app?vid=e2b94c3a-fbe0-4c33-9d6c-fee94086ffcb"},"vehicle_type_id":"4","last_reported":1730193041,"current_range_meters":22000,"station_id":"ce4bgj92rcd13ifvqbe0","pricing_plan_id":"cebpf4jnsgd1na2vs0mg"},{"bike_id":"3e3f21b3-773a-483f-ae4f-7b21453de224","system_id":"levelo_inurba_marseille","lat":43.29038,"lon":5.37563,"is_reserved":false,"is_disabled":false,"rental_uris":{"android":"levelo://app?vid=3e3f21b3-773a-483f-ae4f-7b21453de224","ios":"levelo://app?vid=3e3f21b3-773a-483f-ae4f-7b21453de224"},"vehicle_type_id":"4","last_reported":1730193041,"current_range_meters":17600,"station_id":"ce4bh692rcd13ifvqe90","pricing_plan_id":"cebpf4jnsgd1na2vs0mg"},{"bike_id":"3f218860-2066-43e2-aa51-ec73febafd27","system_id":"levelo_inurba_marseille","lat":43.32054,"lon":5.4154,"is_reserved":false,"is_disabled":false,"rental_uris":{"android":"levelo://app?vid=3f218860-2066-43e2-aa51-ec73febafd27","ios":"levelo://app?vid=3f218860-2066-43e2-aa51-ec73febafd27"},"vehicle_type_id":"4","last_reported":1730193041,"current_range_meters":38800,"station_id":"ce4bhq92rcd13ifvqhkg","pricing_plan_id":"cebpf4jnsgd1na2vs0mg"},{"bike_id":"9ac0a032-e620-405e-8d52-e9b1167ed949","system_id":"levelo_inurba_marseille","lat":43.31339,"lon":5.36719,"is_reserved":false,"is_disabled":false,"rental_uris":{"android":"levelo://app?vid=9ac0a032-e620-405e-8d52-e9b1167ed949","ios":"levelo://app?vid=9ac0a032-e620-405e-8d52-e9b1167ed949"},"vehicle_type_id":"4","last_reported":1730193041,"current_range_meters":28400,"station_id":"ce4bgr92rcd13ifvqc6g","pricing_plan_id":"cebpf4jnsgd1na2vs0mg"},{"bike_id":"76f2154f-aca9-4400-9712-31e97cca02c3","system_id":"levelo_inurba_marseille","lat":43.28152,"lon":5.42641,"is_reserved":false,"is_disabled":false,"rental_uris":{"android":"levelo://app?vid=76f2154f-aca9-4400-9712-31e97cca02c3","ios":"levelo://app?vid=76f2154f-aca9-4400-9712-31e97cca02c3"},"vehicle_type_id":"4","last_reported":1730193041,"current_range_meters":38800,"station_id":"ce4bhnh2rcd13ifvqgug","pricing_plan_id":"cebpf4jnsgd1na2vs0mg"},{"bike_id":"49c8448f-2e2d-4bf4-ad0c-ddc7dfaccf55","system_id":"levelo_inurba_marseille","lat":43.2418,"lon":5.39729,"is_reserved":false,"is_disabled":false,"rental_uris":{"android":"levelo://app?vid=49c8448f-2e2d-4bf4-ad0c-ddc7dfaccf55","ios":"levelo://app?vid=49c8448f-2e2d-4bf4-ad0c-ddc7dfaccf55"},"vehicle_type_id":"4","last_reported":1730193041,"current_range_meters":32800,"station_id":"ce4bhn12rcd13ifvqgpg","pricing_plan_id":"cebpf4jnsgd1na2vs0mg"},{"bike_id":"a53c049f-6f82-47cf-8dbf-2be4ba325c3b","system_id":"levelo_inurba_marseille","lat":43.281501,"lon":5.42645,"is_reserved":false,"is_disabled":false,"rental_uris":{"android":"levelo://app?vid=a53c049f-6f82-47cf-8dbf-2be4ba325c3b","ios":"levelo://app?vid=a53c049f-6f82-47cf-8dbf-2be4ba325c3b"},"vehicle_type_id":"4","last_reported":1730193041,"current_range_meters":38000,"station_id":"ce4bhnh2rcd13ifvqgug","pricing_plan_id":"cebpf4jnsgd1na2vs0mg"},{"bike_id":"e5eeca8e-eae6-4ded-8e97-461d735497ca","system_id":"levelo_inurba_marseille","lat":43.29935,"lon":5.36532,"is_reserved":false,"is_disabled":false,"rental_uris":{"android":"levelo://app?vid=e5eeca8e-eae6-4ded-8e97-461d735497ca","ios":"levelo://app?vid=e5eeca8e-eae6-4ded-8e97-461d735497ca"},"vehicle_type_id":"4","last_reported":1730193041,"current_range_meters":30400,"station_id":"ce4bgm92rcd13ifvqbr0","pricing_plan_id":"cebpf4jnsgd1na2vs0mg"},{"bike_id":"c83bf92a-895e-4031-90cc-0a4806604b3f","system_id":"levelo_inurba_marseille","lat":43.23054,"lon":5.35494,"is_reserved":false,"is_disabled":false,"rental_uris":{"android":"levelo://app?vid=c83bf92a-895e-4031-90cc-0a4806604b3f","ios":"levelo://app?vid=c83bf92a-895e-4031-90cc-0a4806604b3f"},"vehicle_type_id":"4","last_reported":1730193041,"current_range_meters":32800,"station_id":"cpo3342slgdg3j2ifvpg","pricing_plan_id":"cebpf4jnsgd1na2vs0mg"},{"bike_id":"428b1ad4-0543-45b1-966b-50120bd1e0f0","system_id":"levelo_inurba_marseille","lat":43.29274,"lon":5.36839,"is_reserved":false,"is_disabled":false,"rental_uris":{"android":"levelo://app?vid=428b1ad4-0543-45b1-966b-50120bd1e0f0","ios":"levelo://app?vid=428b1ad4-0543-45b1-966b-50120bd1e0f0"},"vehicle_type_id":"4","last_reported":1730193041,"current_range_meters":36800,"station_id":"ce4bhbp2rcd13ifvqesg","pricing_plan_id":"cebpf4jnsgd1na2vs0mg"},{"bike_id":"3f4e9f7d-d364-447b-b7a3-5938ab5df8c4","system_id":"levelo_inurba_marseille","lat":43.32477,"lon":5.36572,"is_reserved":false,"is_disabled":false,"rental_uris":{"android":"levelo://app?vid=3f4e9f7d-d364-447b-b7a3-5938ab5df8c4","ios":"levelo://app?vid=3f4e9f7d-d364-447b-b7a3-5938ab5df8c4"},"vehicle_type_id":"4","last_reported":1730193041,"current_range_meters":38800,"station_id":"ce4bhs12rcd13ifvqhvg","pricing_plan_id":"cebpf4jnsgd1na2vs0mg"},{"bike_id":"9fd56fad-5f3d-42b4-b491-7b57b76bc0cf","system_id":"levelo_inurba_marseille","lat":43.27808,"lon":5.40715,"is_reserved":false,"is_disabled":false,"rental_uris":{"android":"levelo://app?vid=9fd56fad-5f3d-42b4-b491-7b57b76bc0cf","ios":"levelo://app?vid=9fd56fad-5f3d-42b4-b491-7b57b76bc0cf"},"vehicle_type_id":"4","last_reported":1730193041,"current_range_meters":11600,"station_id":"ce4bhnh2rcd13ifvqgtg","pricing_plan_id":"cebpf4jnsgd1na2vs0mg"},{"bike_id":"50ec38cb-6158-42ad-8634-ba8de4c0fcc5","system_id":"levelo_inurba_marseille","lat":43.30549,"lon":5.36534,"is_reserved":false,"is_disabled":false,"rental_uris":{"android":"levelo://app?vid=50ec38cb-6158-42ad-8634-ba8de4c0fcc5","ios":"levelo://app?vid=50ec38cb-6158-42ad-8634-ba8de4c0fcc5"},"vehicle_type_id":"4","last_reported":1730193041,"current_range_meters":22000,"station_id":"ce4bgs12rcd13ifvqcag","pricing_plan_id":"cebpf4jnsgd1na2vs0mg"},{"bike_id":"dabdafcf-63d2-4cc4-890f-eabbcd91b9b3","system_id":"levelo_inurba_marseille","lat":43.30623,"lon":5.37215,"is_reserved":false,"is_disabled":false,"rental_uris":{"android":"levelo://app?vid=dabdafcf-63d2-4cc4-890f-eabbcd91b9b3","ios":"levelo://app?vid=dabdafcf-63d2-4cc4-890f-eabbcd91b9b3"},"vehicle_type_id":"4","last_reported":1730193041,"current_range_meters":23200,"station_id":"ce4bgqh2rcd13ifvqc4g","pricing_plan_id":"cebpf4jnsgd1na2vs0mg"},{"bike_id":"29e730b5-77d0-469f-aebb-f8f3daf3000c","system_id":"levelo_inurba_marseille","lat":43.2467,"lon":5.38158,"is_reserved":false,"is_disabled":false,"rental_uris":{"android":"levelo://app?vid=29e730b5-77d0-469f-aebb-f8f3daf3000c","ios":"levelo://app?vid=29e730b5-77d0-469f-aebb-f8f3daf3000c"},"vehicle_type_id":"4","last_reported":1730193041,"current_range_meters":22800,"station_id":"ce4bhih2rcd13ifvqfr0","pricing_plan_id":"cebpf4jnsgd1na2vs0mg"},{"bike_id":"7ee50b70-bca8-49aa-b900-a39392477c4f","system_id":"levelo_inurba_marseille","lat":43.3248,"lon":5.36573,"is_reserved":false,"is_disabled":false,"rental_uris":{"android":"levelo://app?vid=7ee50b70-bca8-49aa-b900-a39392477c4f","ios":"levelo://app?vid=7ee50b70-bca8-49aa-b900-a39392477c4f"},"vehicle_type_id":"4","last_reported":1730193041,"current_range_meters":32000,"station_id":"ce4bhs12rcd13ifvqhvg","pricing_plan_id":"cebpf4jnsgd1na2vs0mg"},{"bike_id":"4d934123-5ca6-4ffb-ad0b-cdce384ae06d","system_id":"levelo_inurba_marseille","lat":43.25938,"lon":5.40903,"is_reserved":false,"is_disabled":false,"rental_uris":{"android":"levelo://app?vid=4d934123-5ca6-4ffb-ad0b-cdce384ae06d","ios":"levelo://app?vid=4d934123-5ca6-4ffb-ad0b-cdce384ae06d"},"vehicle_type_id":"4","last_reported":1730193041,"current_range_meters":34000,"station_id":"ce4bhm92rcd13ifvqglg","pricing_plan_id":"cebpf4jnsgd1na2vs0mg"},{"bike_id":"8366d555-804b-4c1b-a558-8cce48e0a368","system_id":"levelo_inurba_marseille","lat":43.30608,"lon":5.37227,"is_reserved":false,"is_disabled":false,"rental_uris":{"android":"levelo://app?vid=8366d555-804b-4c1b-a558-8cce48e0a368","ios":"levelo://app?vid=8366d555-804b-4c1b-a558-8cce48e0a368"},"vehicle_type_id":"4","last_reported":1730193041,"current_range_meters":38800,"station_id":"ce4bgqh2rcd13ifvqc4g","pricing_plan_id":"cebpf4jnsgd1na2vs0mg"},{"bike_id":"61099eb1-4b94-4282-b554-5570ba161bf2","system_id":"levelo_inurba_marseille","lat":43.32477,"lon":5.36563,"is_reserved":false,"is_disabled":false,"rental_uris":{"android":"levelo://app?vid=61099eb1-4b94-4282-b554-5570ba161bf2","ios":"levelo://app?vid=61099eb1-4b94-4282-b554-5570ba161bf2"},"vehicle_type_id":"4","last_reported":1730193041,"current_range_meters":29600,"station_id":"ce4bhs12rcd13ifvqhvg","pricing_plan_id":"cebpf4jnsgd1na2vs0mg"},{"bike_id":"a300ae24-3972-4abd-9327-644172f72f0c","system_id":"levelo_inurba_marseille","lat":43.26689,"lon":5.38273,"is_reserved":false,"is_disabled":false,"rental_uris":{"android":"levelo://app?vid=a300ae24-3972-4abd-9327-644172f72f0c","ios":"levelo://app?vid=a300ae24-3972-4abd-9327-644172f72f0c"},"vehicle_type_id":"4","last_reported":1730193041,"current_range_meters":24800,"station_id":"ce4bhg92rcd13ifvqf90","pricing_plan_id":"cebpf4jnsgd1na2vs0mg"},{"bike_id":"6436c5d1-81cf-4c1b-a21f-7d9ab648193c","system_id":"levelo_inurba_marseille","lat":43.29915,"lon":5.37466,"is_reserved":false,"is_disabled":false,"rental_uris":{"android":"levelo://app?vid=6436c5d1-81cf-4c1b-a21f-7d9ab648193c","ios":"levelo://app?vid=6436c5d1-81cf-4c1b-a21f-7d9ab648193c"},"vehicle_type_id":"4","last_reported":1730193041,"current_range_meters":38800,"station_id":"ce4bgjh2rcd13ifvqbg0","pricing_plan_id":"cebpf4jnsgd1na2vs0mg"},{"bike_id":"f6196ab1-a056-4a85-86d7-4ec3fb8d375f","system_id":"levelo_inurba_marseille","lat":43.33604,"lon":5.41006,"is_reserved":false,"is_disabled":false,"rental_uris":{"android":"levelo://app?vid=f6196ab1-a056-4a85-86d7-4ec3fb8d375f","ios":"levelo://app?vid=f6196ab1-a056-4a85-86d7-4ec3fb8d375f"},"vehicle_type_id":"4","last_reported":1730193041,"current_range_meters":23200,"station_id":"ce4bhqh2rcd13ifvqhmg","pricing_plan_id":"cebpf4jnsgd1na2vs0mg"},{"bike_id":"02884819-7867-42e9-bf47-929870e5ac1f","system_id":"levelo_inurba_marseille","lat":43.33723,"lon":5.39182,"is_reserved":false,"is_disabled":false,"rental_uris":{"android":"levelo://app?vid=02884819-7867-42e9-bf47-929870e5ac1f","ios":"levelo://app?vid=02884819-7867-42e9-bf47-929870e5ac1f"},"vehicle_type_id":"4","last_reported":1730193041,"current_range_meters":14000,"station_id":"ce4bhr92rcd13ifvqhsg","pricing_plan_id":"cebpf4jnsgd1na2vs0mg"},{"bike_id":"268203e1-e2b4-449c-a042-ce21845fed8d","system_id":"levelo_inurba_marseille","lat":43.30458,"lon":5.37901,"is_reserved":false,"is_disabled":false,"rental_uris":{"android":"levelo://app?vid=268203e1-e2b4-449c-a042-ce21845fed8d","ios":"levelo://app?vid=268203e1-e2b4-449c-a042-ce21845fed8d"},"vehicle_type_id":"4","last_reported":1730193041,"current_range_meters":33600,"station_id":"ce4bgup2rcd13ifvqcn0","pricing_plan_id":"cebpf4jnsgd1na2vs0mg"},{"bike_id":"8f92ce12-8027-4e9e-9e1b-190f45ad6fa5","system_id":"levelo_inurba_marseille","lat":43.27673,"lon":5.38896,"is_reserved":false,"is_disabled":false,"rental_uris":{"android":"levelo://app?vid=8f92ce12-8027-4e9e-9e1b-190f45ad6fa5","ios":"levelo://app?vid=8f92ce12-8027-4e9e-9e1b-190f45ad6fa5"},"vehicle_type_id":"4","last_reported":1730193041,"current_range_meters":9200,"station_id":"ce4bhi12rcd13ifvqfo0","pricing_plan_id":"cebpf4jnsgd1na2vs0mg"},{"bike_id":"9392ce40-a24d-4085-b8e5-c2a14c6a57c0","system_id":"levelo_inurba_marseille","lat":43.2512,"lon":5.40314,"is_reserved":false,"is_disabled":false,"rental_uris":{"android":"levelo://app?vid=9392ce40-a24d-4085-b8e5-c2a14c6a57c0","ios":"levelo://app?vid=9392ce40-a24d-4085-b8e5-c2a14c6a57c0"},"vehicle_type_id":"4","last_reported":1730193041,"current_range_meters":35600,"station_id":"ce4bhlh2rcd13ifvqgig","pricing_plan_id":"cebpf4jnsgd1na2vs0mg"},{"bike_id":"23672e5b-050f-4837-a454-e50245d17695","system_id":"levelo_inurba_marseille","lat":43.31715,"lon":5.37754,"is_reserved":false,"is_disabled":false,"rental_uris":{"android":"levelo://app?vid=23672e5b-050f-4837-a454-e50245d17695","ios":"levelo://app?vid=23672e5b-050f-4837-a454-e50245d17695"},"vehicle_type_id":"4","last_reported":1730193041,"current_range_meters":38400,"station_id":"ce4bgth2rcd13ifvqch0","pricing_plan_id":"cebpf4jnsgd1na2vs0mg"},{"bike_id":"9a2fc85a-a17a-458e-b939-1d53446c5048","system_id":"levelo_inurba_marseille","lat":43.24548,"lon":5.39517,"is_reserved":false,"is_disabled":false,"rental_uris":{"android":"levelo://app?vid=9a2fc85a-a17a-458e-b939-1d53446c5048","ios":"levelo://app?vid=9a2fc85a-a17a-458e-b939-1d53446c5048"},"vehicle_type_id":"4","last_reported":1730193041,"current_range_meters":23200,"station_id":"ce4bhlp2rcd13ifvqgjg","pricing_plan_id":"cebpf4jnsgd1na2vs0mg"},{"bike_id":"7d448865-89d6-47db-9acc-4a303dfc59b2","system_id":"levelo_inurba_marseille","lat":43.3028,"lon":5.37699,"is_reserved":false,"is_disabled":false,"rental_uris":{"android":"levelo://app?vid=7d448865-89d6-47db-9acc-4a303dfc59b2","ios":"levelo://app?vid=7d448865-89d6-47db-9acc-4a303dfc59b2"},"vehicle_type_id":"4","last_reported":1730193041,"current_range_meters":33600,"station_id":"ce4bguh2rcd13ifvqcj0","pricing_plan_id":"cebpf4jnsgd1na2vs0mg"},{"bike_id":"e09d0544-7571-405a-9ba5-909482db8629","system_id":"levelo_inurba_marseille","lat":43.29843,"lon":5.36264,"is_reserved":false,"is_disabled":false,"rental_uris":{"android":"levelo://app?vid=e09d0544-7571-405a-9ba5-909482db8629","ios":"levelo://app?vid=e09d0544-7571-405a-9ba5-909482db8629"},"vehicle_type_id":"4","last_reported":1730193041,"current_range_meters":36800,"station_id":"ce4bgpp2rcd13ifvqc3g","pricing_plan_id":"cebpf4jnsgd1na2vs0mg"},{"bike_id":"6625bd6a-f210-424a-849f-4051965146cb","system_id":"levelo_inurba_marseille","lat":43.29715,"lon":5.3769,"is_reserved":false,"is_disabled":false,"rental_uris":{"android":"levelo://app?vid=6625bd6a-f210-424a-849f-4051965146cb","ios":"levelo://app?vid=6625bd6a-f210-424a-849f-4051965146cb"},"vehicle_type_id":"4","last_reported":1730193041,"current_range_meters":22800,"station_id":"ce4bgkh2rcd13ifvqbl0","pricing_plan_id":"cebpf4jnsgd1na2vs0mg"},{"bike_id":"2a219e50-458b-40ea-a314-a231c77b3f6d","system_id":"levelo_inurba_marseille","lat":43.31354,"lon":5.36727,"is_reserved":false,"is_disabled":false,"rental_uris":{"android":"levelo://app?vid=2a219e50-458b-40ea-a314-a231c77b3f6d","ios":"levelo://app?vid=2a219e50-458b-40ea-a314-a231c77b3f6d"},"vehicle_type_id":"4","last_reported":1730193041,"current_range_meters":10000,"station_id":"ce4bgr92rcd13ifvqc6g","pricing_plan_id":"cebpf4jnsgd1na2vs0mg"},{"bike_id":"df951adf-e6c9-46a7-a012-af0d884c05f9","system_id":"levelo_inurba_marseille","lat":43.26683,"lon":5.38272,"is_reserved":false,"is_disabled":false,"rental_uris":{"android":"levelo://app?vid=df951adf-e6c9-46a7-a012-af0d884c05f9","ios":"levelo://app?vid=df951adf-e6c9-46a7-a012-af0d884c05f9"},"vehicle_type_id":"4","last_reported":1730193041,"current_range_meters":32800,"station_id":"ce4bhg92rcd13ifvqf90","pricing_plan_id":"cebpf4jnsgd1na2vs0mg"},{"bike_id":"7c943908-5c01-400e-81ae-dc885c3babf3","system_id":"levelo_inurba_marseille","lat":43.337444,"lon":5.374475,"is_reserved":false,"is_disabled":false,"rental_uris":{"android":"levelo://app?vid=7c943908-5c01-400e-81ae-dc885c3babf3","ios":"levelo://app?vid=7c943908-5c01-400e-81ae-dc885c3babf3"},"vehicle_type_id":"4","last_reported":1730193041,"current_range_meters":27600,"station_id":"","pricing_plan_id":"cebpf4jnsgd1na2vs0mg"},{"bike_id":"c10b7c2c-215b-42b7-bf6f-5707822b2d61","system_id":"levelo_inurba_marseille","lat":43.25933,"lon":5.40916,"is_reserved":false,"is_disabled":false,"rental_uris":{"android":"levelo://app?vid=c10b7c2c-215b-42b7-bf6f-5707822b2d61","ios":"levelo://app?vid=c10b7c2c-215b-42b7-bf6f-5707822b2d61"},"vehicle_type_id":"4","last_reported":1730193041,"current_range_meters":29600,"station_id":"ce4bhm92rcd13ifvqglg","pricing_plan_id":"cebpf4jnsgd1na2vs0mg"},{"bike_id":"b1f81418-f03e-460d-ba36-6db2cbc70627","system_id":"levelo_inurba_marseille","lat":43.2958,"lon":5.36736,"is_reserved":false,"is_disabled":false,"rental_uris":{"android":"levelo://app?vid=b1f81418-f03e-460d-ba36-6db2cbc70627","ios":"levelo://app?vid=b1f81418-f03e-460d-ba36-6db2cbc70627"},"vehicle_type_id":"4","last_reported":1730193041,"current_range_meters":38000,"station_id":"ce4bgph2rcd13ifvqc2g","pricing_plan_id":"cebpf4jnsgd1na2vs0mg"},{"bike_id":"b8f9102b-01ea-45e7-b421-bc0a010b02fb","system_id":"levelo_inurba_marseille","lat":43.24547,"lon":5.39522,"is_reserved":false,"is_disabled":false,"rental_uris":{"android":"levelo://app?vid=b8f9102b-01ea-45e7-b421-bc0a010b02fb","ios":"levelo://app?vid=b8f9102b-01ea-45e7-b421-bc0a010b02fb"},"vehicle_type_id":"4","last_reported":1730193041,"current_range_meters":36000,"station_id":"ce4bhlp2rcd13ifvqgjg","pricing_plan_id":"cebpf4jnsgd1na2vs0mg"},{"bike_id":"3cc4a7fa-a503-4dec-95b5-fbfea5c84329","system_id":"levelo_inurba_marseille","lat":43.30952,"lon":5.39024,"is_reserved":false,"is_disabled":false,"rental_uris":{"android":"levelo://app?vid=3cc4a7fa-a503-4dec-95b5-fbfea5c84329","ios":"levelo://app?vid=3cc4a7fa-a503-4dec-95b5-fbfea5c84329"},"vehicle_type_id":"4","last_reported":1730193041,"current_range_meters":11200,"station_id":"ce4bgup2rcd13ifvqco0","pricing_plan_id":"cebpf4jnsgd1na2vs0mg"},{"bike_id":"e2e0cb9b-e038-4f3c-9f15-a889a0d6743f","system_id":"levelo_inurba_marseille","lat":43.32481,"lon":5.36566,"is_reserved":false,"is_disabled":false,"rental_uris":{"android":"levelo://app?vid=e2e0cb9b-e038-4f3c-9f15-a889a0d6743f","ios":"levelo://app?vid=e2e0cb9b-e038-4f3c-9f15-a889a0d6743f"},"vehicle_type_id":"4","last_reported":1730193041,"current_range_meters":32000,"station_id":"ce4bhs12rcd13ifvqhvg","pricing_plan_id":"cebpf4jnsgd1na2vs0mg"},{"bike_id":"3ae749c1-46ed-4d6f-8a2b-05668312da6a","system_id":"levelo_inurba_marseille","lat":43.25105,"lon":5.40327,"is_reserved":false,"is_disabled":false,"rental_uris":{"android":"levelo://app?vid=3ae749c1-46ed-4d6f-8a2b-05668312da6a","ios":"levelo://app?vid=3ae749c1-46ed-4d6f-8a2b-05668312da6a"},"vehicle_type_id":"4","last_reported":1730193041,"current_range_meters":16000,"station_id":"ce4bhlh2rcd13ifvqgig","pricing_plan_id":"cebpf4jnsgd1na2vs0mg"},{"bike_id":"95048e77-936d-4acd-84b5-3f8fd209ed9a","system_id":"levelo_inurba_marseille","lat":43.303122,"lon":5.368978,"is_reserved":false,"is_disabled":false,"rental_uris":{"android":"levelo://app?vid=95048e77-936d-4acd-84b5-3f8fd209ed9a","ios":"levelo://app?vid=95048e77-936d-4acd-84b5-3f8fd209ed9a"},"vehicle_type_id":"4","last_reported":1730193041,"current_range_meters":38800,"station_id":"ce4bgqh2rcd13ifvqc5g","pricing_plan_id":"cebpf4jnsgd1na2vs0mg"},{"bike_id":"4a7d2e78-51b9-46d2-bf89-98a48709d13a","system_id":"levelo_inurba_marseille","lat":43.31719,"lon":5.42404,"is_reserved":false,"is_disabled":false,"rental_uris":{"android":"levelo://app?vid=4a7d2e78-51b9-46d2-bf89-98a48709d13a","ios":"levelo://app?vid=4a7d2e78-51b9-46d2-bf89-98a48709d13a"},"vehicle_type_id":"4","last_reported":1730193041,"current_range_meters":38800,"station_id":"ce4bhp92rcd13ifvqhbg","pricing_plan_id":"cebpf4jnsgd1na2vs0mg"},{"bike_id":"f99bccd3-d3a6-4026-8c96-f3f15e63c7d1","system_id":"levelo_inurba_marseille","lat":43.31235,"lon":5.36864,"is_reserved":false,"is_disabled":false,"rental_uris":{"android":"levelo://app?vid=f99bccd3-d3a6-4026-8c96-f3f15e63c7d1","ios":"levelo://app?vid=f99bccd3-d3a6-4026-8c96-f3f15e63c7d1"},"vehicle_type_id":"4","last_reported":1730193041,"current_range_meters":38800,"station_id":"ce4bgl92rcd13ifvqbq0","pricing_plan_id":"cebpf4jnsgd1na2vs0mg"},{"bike_id":"0c53382f-83fb-45ec-871d-d4e880c7383e","system_id":"levelo_inurba_marseille","lat":43.27996,"lon":5.40018,"is_reserved":false,"is_disabled":false,"rental_uris":{"android":"levelo://app?vid=0c53382f-83fb-45ec-871d-d4e880c7383e","ios":"levelo://app?vid=0c53382f-83fb-45ec-871d-d4e880c7383e"},"vehicle_type_id":"4","last_reported":1730193041,"current_range_meters":22400,"station_id":"ce4bho92rcd13ifvqh4g","pricing_plan_id":"cebpf4jnsgd1na2vs0mg"},{"bike_id":"334d6e77-7c70-4c02-9e64-84e1853034b0","system_id":"levelo_inurba_marseille","lat":43.29967,"lon":5.41317,"is_reserved":false,"is_disabled":false,"rental_uris":{"android":"levelo://app?vid=334d6e77-7c70-4c02-9e64-84e1853034b0","ios":"levelo://app?vid=334d6e77-7c70-4c02-9e64-84e1853034b0"},"vehicle_type_id":"4","last_reported":1730193041,"current_range_meters":32000,"station_id":"ce4bhp12rcd13ifvqh9g","pricing_plan_id":"cebpf4jnsgd1na2vs0mg"},{"bike_id":"fbc27b08-f101-4599-8f6b-beb812780993","system_id":"levelo_inurba_marseille","lat":43.29896,"lon":5.43666,"is_reserved":false,"is_disabled":false,"rental_uris":{"android":"levelo://app?vid=fbc27b08-f101-4599-8f6b-beb812780993","ios":"levelo://app?vid=fbc27b08-f101-4599-8f6b-beb812780993"},"vehicle_type_id":"4","last_reported":1730193041,"current_range_meters":39200,"station_id":"ce4bhpp2rcd13ifvqhfg","pricing_plan_id":"cebpf4jnsgd1na2vs0mg"},{"bike_id":"a4c48a3c-1b82-4956-80be-6be3342d47bb","system_id":"levelo_inurba_marseille","lat":43.26942,"lon":5.4026,"is_reserved":false,"is_disabled":false,"rental_uris":{"android":"levelo://app?vid=a4c48a3c-1b82-4956-80be-6be3342d47bb","ios":"levelo://app?vid=a4c48a3c-1b82-4956-80be-6be3342d47bb"},"vehicle_type_id":"4","last_reported":1730193041,"current_range_meters":38800,"station_id":"cjm6bp8fraef2m0cb0m0","pricing_plan_id":"cebpf4jnsgd1na2vs0mg"},{"bike_id":"706e5c65-db7b-4329-94ae-65a3d1e35f39","system_id":"levelo_inurba_marseille","lat":43.30549,"lon":5.36706,"is_reserved":false,"is_disabled":false,"rental_uris":{"android":"levelo://app?vid=706e5c65-db7b-4329-94ae-65a3d1e35f39","ios":"levelo://app?vid=706e5c65-db7b-4329-94ae-65a3d1e35f39"},"vehicle_type_id":"4","last_reported":1730193041,"current_range_meters":32000,"station_id":"ce4bgrp2rcd13ifvqc9g","pricing_plan_id":"cebpf4jnsgd1na2vs0mg"},{"bike_id":"9befed88-9f8c-464c-b07b-093bd97066bb","system_id":"levelo_inurba_marseille","lat":43.29805,"lon":5.37136,"is_reserved":false,"is_disabled":false,"rental_uris":{"android":"levelo://app?vid=9befed88-9f8c-464c-b07b-093bd97066bb","ios":"levelo://app?vid=9befed88-9f8c-464c-b07b-093bd97066bb"},"vehicle_type_id":"4","last_reported":1730193041,"current_range_meters":11600,"station_id":"","pricing_plan_id":"cebpf4jnsgd1na2vs0mg"},{"bike_id":"c8a92740-2b09-4ca5-9043-1ba83935e34d","system_id":"levelo_inurba_marseille","lat":43.24391,"lon":5.37065,"is_reserved":false,"is_disabled":false,"rental_uris":{"android":"levelo://app?vid=c8a92740-2b09-4ca5-9043-1ba83935e34d","ios":"levelo://app?vid=c8a92740-2b09-4ca5-9043-1ba83935e34d"},"vehicle_type_id":"4","last_reported":1730193041,"current_range_meters":38000,"station_id":"ce4bhhh2rcd13ifvqfk0","pricing_plan_id":"cebpf4jnsgd1na2vs0mg"},{"bike_id":"8977e69d-4919-4270-b997-d88042e38360","system_id":"levelo_inurba_marseille","lat":43.28469,"lon":5.38421,"is_reserved":false,"is_disabled":false,"rental_uris":{"android":"levelo://app?vid=8977e69d-4919-4270-b997-d88042e38360","ios":"levelo://app?vid=8977e69d-4919-4270-b997-d88042e38360"},"vehicle_type_id":"4","last_reported":1730193041,"current_range_meters":38800,"station_id":"ce4bh512rcd13ifvqe3g","pricing_plan_id":"cebpf4jnsgd1na2vs0mg"},{"bike_id":"2939a545-bf49-4ac9-84eb-69dd8138616a","system_id":"levelo_inurba_marseille","lat":43.2718,"lon":5.40994,"is_reserved":false,"is_disabled":false,"rental_uris":{"android":"levelo://app?vid=2939a545-bf49-4ac9-84eb-69dd8138616a","ios":"levelo://app?vid=2939a545-bf49-4ac9-84eb-69dd8138616a"},"vehicle_type_id":"4","last_reported":1730193041,"current_range_meters":38400,"station_id":"ce4bhl12rcd13ifvqgf0","pricing_plan_id":"cebpf4jnsgd1na2vs0mg"},{"bike_id":"f9a2aa18-615d-43f8-9a19-eb948e242e45","system_id":"levelo_inurba_marseille","lat":43.25007,"lon":5.38912,"is_reserved":false,"is_disabled":false,"rental_uris":{"android":"levelo://app?vid=f9a2aa18-615d-43f8-9a19-eb948e242e45","ios":"levelo://app?vid=f9a2aa18-615d-43f8-9a19-eb948e242e45"},"vehicle_type_id":"4","last_reported":1730193041,"current_range_meters":38000,"station_id":"ce4bhgp2rcd13ifvqfd0","pricing_plan_id":"cebpf4jnsgd1na2vs0mg"},{"bike_id":"1641e2d9-e39a-4f2a-a551-3a59775f9162","system_id":"levelo_inurba_marseille","lat":43.32481,"lon":5.3657,"is_reserved":false,"is_disabled":false,"rental_uris":{"android":"levelo://app?vid=1641e2d9-e39a-4f2a-a551-3a59775f9162","ios":"levelo://app?vid=1641e2d9-e39a-4f2a-a551-3a59775f9162"},"vehicle_type_id":"4","last_reported":1730193041,"current_range_meters":8000,"station_id":"ce4bhs12rcd13ifvqhvg","pricing_plan_id":"cebpf4jnsgd1na2vs0mg"},{"bike_id":"4038f53d-ccf9-43d8-8b95-46e9aceeb1e0","system_id":"levelo_inurba_marseille","lat":43.32043,"lon":5.41546,"is_reserved":false,"is_disabled":false,"rental_uris":{"android":"levelo://app?vid=4038f53d-ccf9-43d8-8b95-46e9aceeb1e0","ios":"levelo://app?vid=4038f53d-ccf9-43d8-8b95-46e9aceeb1e0"},"vehicle_type_id":"4","last_reported":1730193041,"current_range_meters":28800,"station_id":"ce4bhq92rcd13ifvqhkg","pricing_plan_id":"cebpf4jnsgd1na2vs0mg"},{"bike_id":"99be546e-23a0-4a8f-897d-f4ebd4b3bc15","system_id":"levelo_inurba_marseille","lat":43.27377,"lon":5.36258,"is_reserved":false,"is_disabled":false,"rental_uris":{"android":"levelo://app?vid=99be546e-23a0-4a8f-897d-f4ebd4b3bc15","ios":"levelo://app?vid=99be546e-23a0-4a8f-897d-f4ebd4b3bc15"},"vehicle_type_id":"4","last_reported":1730193041,"current_range_meters":38000,"station_id":"ce4bhbh2rcd13ifvqeo0","pricing_plan_id":"cebpf4jnsgd1na2vs0mg"},{"bike_id":"73597882-d38d-4f2f-a5b2-2f4b8d949a4a","system_id":"levelo_inurba_marseille","lat":43.3053,"lon":5.36714,"is_reserved":false,"is_disabled":false,"rental_uris":{"android":"levelo://app?vid=73597882-d38d-4f2f-a5b2-2f4b8d949a4a","ios":"levelo://app?vid=73597882-d38d-4f2f-a5b2-2f4b8d949a4a"},"vehicle_type_id":"4","last_reported":1730193041,"current_range_meters":32000,"station_id":"ce4bgrp2rcd13ifvqc9g","pricing_plan_id":"cebpf4jnsgd1na2vs0mg"},{"bike_id":"c519b9f9-c235-4c21-b6e9-f2487cf57cff","system_id":"levelo_inurba_marseille","lat":43.30216,"lon":5.39468,"is_reserved":false,"is_disabled":false,"rental_uris":{"android":"levelo://app?vid=c519b9f9-c235-4c21-b6e9-f2487cf57cff","ios":"levelo://app?vid=c519b9f9-c235-4c21-b6e9-f2487cf57cff"},"vehicle_type_id":"4","last_reported":1730193041,"current_range_meters":20800,"station_id":"ce4bh0p2rcd13ifvqd70","pricing_plan_id":"cebpf4jnsgd1na2vs0mg"},{"bike_id":"844023ff-6d0b-454c-9110-ed149a7ecdf3","system_id":"levelo_inurba_marseille","lat":43.33613,"lon":5.41028,"is_reserved":false,"is_disabled":false,"rental_uris":{"android":"levelo://app?vid=844023ff-6d0b-454c-9110-ed149a7ecdf3","ios":"levelo://app?vid=844023ff-6d0b-454c-9110-ed149a7ecdf3"},"vehicle_type_id":"4","last_reported":1730193041,"current_range_meters":17200,"station_id":"ce4bhqh2rcd13ifvqhmg","pricing_plan_id":"cebpf4jnsgd1na2vs0mg"},{"bike_id":"86cc0f01-10a0-4cdb-b1e7-4d6e7cd80c0e","system_id":"levelo_inurba_marseille","lat":43.32478,"lon":5.36566,"is_reserved":false,"is_disabled":false,"rental_uris":{"android":"levelo://app?vid=86cc0f01-10a0-4cdb-b1e7-4d6e7cd80c0e","ios":"levelo://app?vid=86cc0f01-10a0-4cdb-b1e7-4d6e7cd80c0e"},"vehicle_type_id":"4","last_reported":1730193041,"current_range_meters":28400,"station_id":"ce4bhs12rcd13ifvqhvg","pricing_plan_id":"cebpf4jnsgd1na2vs0mg"},{"bike_id":"0f830cc3-9dea-4ac5-9775-7d0a2c239f5a","system_id":"levelo_inurba_marseille","lat":43.24997,"lon":5.38934,"is_reserved":false,"is_disabled":false,"rental_uris":{"android":"levelo://app?vid=0f830cc3-9dea-4ac5-9775-7d0a2c239f5a","ios":"levelo://app?vid=0f830cc3-9dea-4ac5-9775-7d0a2c239f5a"},"vehicle_type_id":"4","last_reported":1730193041,"current_range_meters":9600,"station_id":"ce4bhgp2rcd13ifvqfd0","pricing_plan_id":"cebpf4jnsgd1na2vs0mg"},{"bike_id":"5dc1d898-0a14-423f-bebd-b4e6ce485f18","system_id":"levelo_inurba_marseille","lat":43.27206,"lon":5.39193,"is_reserved":false,"is_disabled":false,"rental_uris":{"android":"levelo://app?vid=5dc1d898-0a14-423f-bebd-b4e6ce485f18","ios":"levelo://app?vid=5dc1d898-0a14-423f-bebd-b4e6ce485f18"},"vehicle_type_id":"4","last_reported":1730193041,"current_range_meters":30000,"station_id":"ce4bhhp2rcd13ifvqfm0","pricing_plan_id":"cebpf4jnsgd1na2vs0mg"},{"bike_id":"0653fcdd-e92d-452f-8f98-0dbb80bc8e0d","system_id":"levelo_inurba_marseille","lat":43.32483,"lon":5.36564,"is_reserved":false,"is_disabled":false,"rental_uris":{"android":"levelo://app?vid=0653fcdd-e92d-452f-8f98-0dbb80bc8e0d","ios":"levelo://app?vid=0653fcdd-e92d-452f-8f98-0dbb80bc8e0d"},"vehicle_type_id":"4","last_reported":1730193041,"current_range_meters":36000,"station_id":"ce4bhs12rcd13ifvqhvg","pricing_plan_id":"cebpf4jnsgd1na2vs0mg"},{"bike_id":"03078b0d-7eef-4212-b91b-9339bda80681","system_id":"levelo_inurba_marseille","lat":43.33752,"lon":5.37444,"is_reserved":false,"is_disabled":false,"rental_uris":{"android":"levelo://app?vid=03078b0d-7eef-4212-b91b-9339bda80681","ios":"levelo://app?vid=03078b0d-7eef-4212-b91b-9339bda80681"},"vehicle_type_id":"4","last_reported":1730193041,"current_range_meters":37600,"station_id":"","pricing_plan_id":"cebpf4jnsgd1na2vs0mg"},{"bike_id":"2d12c957-3c21-49fc-84ec-80691e697d95","system_id":"levelo_inurba_marseille","lat":43.29704,"lon":5.37698,"is_reserved":false,"is_disabled":false,"rental_uris":{"android":"levelo://app?vid=2d12c957-3c21-49fc-84ec-80691e697d95","ios":"levelo://app?vid=2d12c957-3c21-49fc-84ec-80691e697d95"},"vehicle_type_id":"4","last_reported":1730193041,"current_range_meters":38800,"station_id":"ce4bgkh2rcd13ifvqbl0","pricing_plan_id":"cebpf4jnsgd1na2vs0mg"},{"bike_id":"97cc833a-c2c1-4a97-8364-d4a0c1111b09","system_id":"levelo_inurba_marseille","lat":43.33759,"lon":5.37465,"is_reserved":false,"is_disabled":false,"rental_uris":{"android":"levelo://app?vid=97cc833a-c2c1-4a97-8364-d4a0c1111b09","ios":"levelo://app?vid=97cc833a-c2c1-4a97-8364-d4a0c1111b09"},"vehicle_type_id":"4","last_reported":1730193041,"current_range_meters":38000,"station_id":"","pricing_plan_id":"cebpf4jnsgd1na2vs0mg"},{"bike_id":"4f18b26c-ebf2-48cd-93a7-f4f2ec23735b","system_id":"levelo_inurba_marseille","lat":43.2904,"lon":5.3998,"is_reserved":false,"is_disabled":false,"rental_uris":{"android":"levelo://app?vid=4f18b26c-ebf2-48cd-93a7-f4f2ec23735b","ios":"levelo://app?vid=4f18b26c-ebf2-48cd-93a7-f4f2ec23735b"},"vehicle_type_id":"4","last_reported":1730193041,"current_range_meters":34800,"station_id":"ce4bh392rcd13ifvqdm0","pricing_plan_id":"cebpf4jnsgd1na2vs0mg"},{"bike_id":"24869aeb-ea85-4be7-b25e-d59b66b45fd7","system_id":"levelo_inurba_marseille","lat":43.32036,"lon":5.41558,"is_reserved":false,"is_disabled":false,"rental_uris":{"android":"levelo://app?vid=24869aeb-ea85-4be7-b25e-d59b66b45fd7","ios":"levelo://app?vid=24869aeb-ea85-4be7-b25e-d59b66b45fd7"},"vehicle_type_id":"4","last_reported":1730193041,"current_range_meters":23200,"station_id":"ce4bhq92rcd13ifvqhkg","pricing_plan_id":"cebpf4jnsgd1na2vs0mg"},{"bike_id":"9f03b1df-8133-40fb-a13a-a54023231a9e","system_id":"levelo_inurba_marseille","lat":43.3205,"lon":5.41571,"is_reserved":false,"is_disabled":false,"rental_uris":{"android":"levelo://app?vid=9f03b1df-8133-40fb-a13a-a54023231a9e","ios":"levelo://app?vid=9f03b1df-8133-40fb-a13a-a54023231a9e"},"vehicle_type_id":"4","last_reported":1730193041,"current_range_meters":38800,"station_id":"ce4bhq92rcd13ifvqhkg","pricing_plan_id":"cebpf4jnsgd1na2vs0mg"},{"bike_id":"85b586a7-11ad-40a8-9bd6-4a2e9d99f9df","system_id":"levelo_inurba_marseille","lat":43.30544,"lon":5.36538,"is_reserved":false,"is_disabled":false,"rental_uris":{"android":"levelo://app?vid=85b586a7-11ad-40a8-9bd6-4a2e9d99f9df","ios":"levelo://app?vid=85b586a7-11ad-40a8-9bd6-4a2e9d99f9df"},"vehicle_type_id":"4","last_reported":1730193041,"current_range_meters":33600,"station_id":"ce4bgs12rcd13ifvqcag","pricing_plan_id":"cebpf4jnsgd1na2vs0mg"},{"bike_id":"bb2e6c31-bada-4ebc-afad-ca813230e716","system_id":"levelo_inurba_marseille","lat":43.2594,"lon":5.40905,"is_reserved":false,"is_disabled":false,"rental_uris":{"android":"levelo://app?vid=bb2e6c31-bada-4ebc-afad-ca813230e716","ios":"levelo://app?vid=bb2e6c31-bada-4ebc-afad-ca813230e716"},"vehicle_type_id":"4","last_reported":1730193041,"current_range_meters":24800,"station_id":"ce4bhm92rcd13ifvqglg","pricing_plan_id":"cebpf4jnsgd1na2vs0mg"},{"bike_id":"5bf69e26-7f99-40d3-8c2f-27b2c43c1336","system_id":"levelo_inurba_marseille","lat":43.23146,"lon":5.4373,"is_reserved":false,"is_disabled":false,"rental_uris":{"android":"levelo://app?vid=5bf69e26-7f99-40d3-8c2f-27b2c43c1336","ios":"levelo://app?vid=5bf69e26-7f99-40d3-8c2f-27b2c43c1336"},"vehicle_type_id":"4","last_reported":1730193041,"current_range_meters":30400,"station_id":"ce4bhmp2rcd13ifvqgog","pricing_plan_id":"cebpf4jnsgd1na2vs0mg"},{"bike_id":"1b5ce385-5047-4575-ba97-fdcd178451d1","system_id":"levelo_inurba_marseille","lat":43.29678,"lon":5.37298,"is_reserved":false,"is_disabled":false,"rental_uris":{"android":"levelo://app?vid=1b5ce385-5047-4575-ba97-fdcd178451d1","ios":"levelo://app?vid=1b5ce385-5047-4575-ba97-fdcd178451d1"},"vehicle_type_id":"4","last_reported":1730193041,"current_range_meters":38800,"station_id":"ce4bgk12rcd13ifvqbj0","pricing_plan_id":"cebpf4jnsgd1na2vs0mg"},{"bike_id":"4923e22a-a257-4604-94c0-5402ee5059ce","system_id":"levelo_inurba_marseille","lat":43.30904,"lon":5.36845,"is_reserved":false,"is_disabled":false,"rental_uris":{"android":"levelo://app?vid=4923e22a-a257-4604-94c0-5402ee5059ce","ios":"levelo://app?vid=4923e22a-a257-4604-94c0-5402ee5059ce"},"vehicle_type_id":"4","last_reported":1730193041,"current_range_meters":8000,"station_id":"ce4bgn92rcd13ifvqbvg","pricing_plan_id":"cebpf4jnsgd1na2vs0mg"},{"bike_id":"a115272b-d982-443a-87c0-8ebb7cafe252","system_id":"levelo_inurba_marseille","lat":43.24075,"lon":5.37756,"is_reserved":false,"is_disabled":false,"rental_uris":{"android":"levelo://app?vid=a115272b-d982-443a-87c0-8ebb7cafe252","ios":"levelo://app?vid=a115272b-d982-443a-87c0-8ebb7cafe252"},"vehicle_type_id":"4","last_reported":1730193041,"current_range_meters":10800,"station_id":"ce4bhnp2rcd13ifvqgvg","pricing_plan_id":"cebpf4jnsgd1na2vs0mg"},{"bike_id":"aed893fd-e5e4-4905-8d17-3ab822a798f2","system_id":"levelo_inurba_marseille","lat":43.30964,"lon":5.39045,"is_reserved":false,"is_disabled":false,"rental_uris":{"android":"levelo://app?vid=aed893fd-e5e4-4905-8d17-3ab822a798f2","ios":"levelo://app?vid=aed893fd-e5e4-4905-8d17-3ab822a798f2"},"vehicle_type_id":"4","last_reported":1730193041,"current_range_meters":32400,"station_id":"ce4bgup2rcd13ifvqco0","pricing_plan_id":"cebpf4jnsgd1na2vs0mg"},{"bike_id":"6366bfd5-497c-42d7-86b0-e2684864ed2d","system_id":"levelo_inurba_marseille","lat":43.28271,"lon":5.3507,"is_reserved":false,"is_disabled":false,"rental_uris":{"android":"levelo://app?vid=6366bfd5-497c-42d7-86b0-e2684864ed2d","ios":"levelo://app?vid=6366bfd5-497c-42d7-86b0-e2684864ed2d"},"vehicle_type_id":"4","last_reported":1730193041,"current_range_meters":18000,"station_id":"ce4bhbp2rcd13ifvqerg","pricing_plan_id":"cebpf4jnsgd1na2vs0mg"},{"bike_id":"7e30e268-ecec-4fd2-be52-8b3863ce97d7","system_id":"levelo_inurba_marseille","lat":43.304682,"lon":5.371025,"is_reserved":false,"is_disabled":false,"rental_uris":{"android":"levelo://app?vid=7e30e268-ecec-4fd2-be52-8b3863ce97d7","ios":"levelo://app?vid=7e30e268-ecec-4fd2-be52-8b3863ce97d7"},"vehicle_type_id":"4","last_reported":1730193041,"current_range_meters":14000,"station_id":"","pricing_plan_id":"cebpf4jnsgd1na2vs0mg"},{"bike_id":"042d86ea-7ee7-46e1-ad4f-9f31badbad8c","system_id":"levelo_inurba_marseille","lat":43.30559,"lon":5.36525,"is_reserved":false,"is_disabled":false,"rental_uris":{"android":"levelo://app?vid=042d86ea-7ee7-46e1-ad4f-9f31badbad8c","ios":"levelo://app?vid=042d86ea-7ee7-46e1-ad4f-9f31badbad8c"},"vehicle_type_id":"4","last_reported":1730193041,"current_range_meters":38800,"station_id":"ce4bgs12rcd13ifvqcag","pricing_plan_id":"cebpf4jnsgd1na2vs0mg"},{"bike_id":"d93cf948-31a0-48af-ad3a-1830c6498f1d","system_id":"levelo_inurba_marseille","lat":43.30151,"lon":5.37418,"is_reserved":false,"is_disabled":false,"rental_uris":{"android":"levelo://app?vid=d93cf948-31a0-48af-ad3a-1830c6498f1d","ios":"levelo://app?vid=d93cf948-31a0-48af-ad3a-1830c6498f1d"},"vehicle_type_id":"4","last_reported":1730193041,"current_range_meters":37600,"station_id":"ce4bgs92rcd13ifvqcc0","pricing_plan_id":"cebpf4jnsgd1na2vs0mg"},{"bike_id":"2e15a315-6686-4ca1-ad3d-3d92a2178bb6","system_id":"levelo_inurba_marseille","lat":43.24166,"lon":5.36391,"is_reserved":false,"is_disabled":false,"rental_uris":{"android":"levelo://app?vid=2e15a315-6686-4ca1-ad3d-3d92a2178bb6","ios":"levelo://app?vid=2e15a315-6686-4ca1-ad3d-3d92a2178bb6"},"vehicle_type_id":"4","last_reported":1730193041,"current_range_meters":28400,"station_id":"cpo36qri1sfpv3e86is0","pricing_plan_id":"cebpf4jnsgd1na2vs0mg"},{"bike_id":"63cc10ca-7979-4387-8ee1-b7c12fe6348b","system_id":"levelo_inurba_marseille","lat":43.2315,"lon":5.4372,"is_reserved":false,"is_disabled":false,"rental_uris":{"android":"levelo://app?vid=63cc10ca-7979-4387-8ee1-b7c12fe6348b","ios":"levelo://app?vid=63cc10ca-7979-4387-8ee1-b7c12fe6348b"},"vehicle_type_id":"4","last_reported":1730193041,"current_range_meters":22000,"station_id":"ce4bhmp2rcd13ifvqgog","pricing_plan_id":"cebpf4jnsgd1na2vs0mg"},{"bike_id":"768e8b57-dfe2-4706-aed3-7696914e6381","system_id":"levelo_inurba_marseille","lat":43.25123,"lon":5.40313,"is_reserved":false,"is_disabled":false,"rental_uris":{"android":"levelo://app?vid=768e8b57-dfe2-4706-aed3-7696914e6381","ios":"levelo://app?vid=768e8b57-dfe2-4706-aed3-7696914e6381"},"vehicle_type_id":"4","last_reported":1730193041,"current_range_meters":25200,"station_id":"ce4bhlh2rcd13ifvqgig","pricing_plan_id":"cebpf4jnsgd1na2vs0mg"},{"bike_id":"d065c724-0875-4041-9f9b-8487a87add77","system_id":"levelo_inurba_marseille","lat":43.29042,"lon":5.39972,"is_reserved":false,"is_disabled":false,"rental_uris":{"android":"levelo://app?vid=d065c724-0875-4041-9f9b-8487a87add77","ios":"levelo://app?vid=d065c724-0875-4041-9f9b-8487a87add77"},"vehicle_type_id":"4","last_reported":1730193041,"current_range_meters":38800,"station_id":"ce4bh392rcd13ifvqdm0","pricing_plan_id":"cebpf4jnsgd1na2vs0mg"},{"bike_id":"8c49d97c-9125-4468-bafd-26c7e86003c4","system_id":"levelo_inurba_marseille","lat":43.31223,"lon":5.36873,"is_reserved":false,"is_disabled":false,"rental_uris":{"android":"levelo://app?vid=8c49d97c-9125-4468-bafd-26c7e86003c4","ios":"levelo://app?vid=8c49d97c-9125-4468-bafd-26c7e86003c4"},"vehicle_type_id":"4","last_reported":1730193041,"current_range_meters":28800,"station_id":"ce4bgl92rcd13ifvqbq0","pricing_plan_id":"cebpf4jnsgd1na2vs0mg"},{"bike_id":"d0c10910-8109-44db-a4e8-1979548e3dce","system_id":"levelo_inurba_marseille","lat":43.27207,"lon":5.39191,"is_reserved":false,"is_disabled":false,"rental_uris":{"android":"levelo://app?vid=d0c10910-8109-44db-a4e8-1979548e3dce","ios":"levelo://app?vid=d0c10910-8109-44db-a4e8-1979548e3dce"},"vehicle_type_id":"4","last_reported":1730193041,"current_range_meters":33600,"station_id":"ce4bhhp2rcd13ifvqfm0","pricing_plan_id":"cebpf4jnsgd1na2vs0mg"},{"bike_id":"68982321-cac4-489f-b625-18812c1ad224","system_id":"levelo_inurba_marseille","lat":43.28937,"lon":5.36631,"is_reserved":false,"is_disabled":false,"rental_uris":{"android":"levelo://app?vid=68982321-cac4-489f-b625-18812c1ad224","ios":"levelo://app?vid=68982321-cac4-489f-b625-18812c1ad224"},"vehicle_type_id":"4","last_reported":1730193041,"current_range_meters":7200,"station_id":"ce4bhap2rcd13ifvqek0","pricing_plan_id":"cebpf4jnsgd1na2vs0mg"},{"bike_id":"b16ea274-24cd-4295-9bf5-10bc67878eff","system_id":"levelo_inurba_marseille","lat":43.33114,"lon":5.38245,"is_reserved":false,"is_disabled":false,"rental_uris":{"android":"levelo://app?vid=b16ea274-24cd-4295-9bf5-10bc67878eff","ios":"levelo://app?vid=b16ea274-24cd-4295-9bf5-10bc67878eff"},"vehicle_type_id":"4","last_reported":1730193041,"current_range_meters":5600,"station_id":"","pricing_plan_id":"cebpf4jnsgd1na2vs0mg"},{"bike_id":"43966cb7-6f2e-496d-bfcf-055444b3f859","system_id":"levelo_inurba_marseille","lat":43.27995,"lon":5.41661,"is_reserved":false,"is_disabled":false,"rental_uris":{"android":"levelo://app?vid=43966cb7-6f2e-496d-bfcf-055444b3f859","ios":"levelo://app?vid=43966cb7-6f2e-496d-bfcf-055444b3f859"},"vehicle_type_id":"4","last_reported":1730193041,"current_range_meters":32400,"station_id":"ce4bho12rcd13ifvqh1g","pricing_plan_id":"cebpf4jnsgd1na2vs0mg"},{"bike_id":"59a50482-cb1e-4ca9-8514-d5b201b306ed","system_id":"levelo_inurba_marseille","lat":43.29932,"lon":5.36547,"is_reserved":false,"is_disabled":false,"rental_uris":{"android":"levelo://app?vid=59a50482-cb1e-4ca9-8514-d5b201b306ed","ios":"levelo://app?vid=59a50482-cb1e-4ca9-8514-d5b201b306ed"},"vehicle_type_id":"4","last_reported":1730193041,"current_range_meters":28800,"station_id":"ce4bgm92rcd13ifvqbr0","pricing_plan_id":"cebpf4jnsgd1na2vs0mg"},{"bike_id":"c16725da-ec0e-4b24-bd47-eab767362945","system_id":"levelo_inurba_marseille","lat":43.25117,"lon":5.40318,"is_reserved":false,"is_disabled":false,"rental_uris":{"android":"levelo://app?vid=c16725da-ec0e-4b24-bd47-eab767362945","ios":"levelo://app?vid=c16725da-ec0e-4b24-bd47-eab767362945"},"vehicle_type_id":"4","last_reported":1730193041,"current_range_meters":38800,"station_id":"ce4bhlh2rcd13ifvqgig","pricing_plan_id":"cebpf4jnsgd1na2vs0mg"},{"bike_id":"a0f43164-83c5-42a1-8e8a-feadc8022d2b","system_id":"levelo_inurba_marseille","lat":43.31318,"lon":5.36746,"is_reserved":false,"is_disabled":false,"rental_uris":{"android":"levelo://app?vid=a0f43164-83c5-42a1-8e8a-feadc8022d2b","ios":"levelo://app?vid=a0f43164-83c5-42a1-8e8a-feadc8022d2b"},"vehicle_type_id":"4","last_reported":1730193041,"current_range_meters":39200,"station_id":"ce4bgr92rcd13ifvqc6g","pricing_plan_id":"cebpf4jnsgd1na2vs0mg"},{"bike_id":"bd801bbe-605a-44d5-aa84-a87dae5a750a","system_id":"levelo_inurba_marseille","lat":43.24072,"lon":5.37762,"is_reserved":false,"is_disabled":false,"rental_uris":{"android":"levelo://app?vid=bd801bbe-605a-44d5-aa84-a87dae5a750a","ios":"levelo://app?vid=bd801bbe-605a-44d5-aa84-a87dae5a750a"},"vehicle_type_id":"4","last_reported":1730193041,"current_range_meters":31200,"station_id":"ce4bhnp2rcd13ifvqgvg","pricing_plan_id":"cebpf4jnsgd1na2vs0mg"},{"bike_id":"49645c5a-1ea3-40d3-916a-81ee133604ef","system_id":"levelo_inurba_marseille","lat":43.32289,"lon":5.38279,"is_reserved":false,"is_disabled":false,"rental_uris":{"android":"levelo://app?vid=49645c5a-1ea3-40d3-916a-81ee133604ef","ios":"levelo://app?vid=49645c5a-1ea3-40d3-916a-81ee133604ef"},"vehicle_type_id":"4","last_reported":1730193041,"current_range_meters":33600,"station_id":"ce4bhr12rcd13ifvqhqg","pricing_plan_id":"cebpf4jnsgd1na2vs0mg"},{"bike_id":"7b9f3971-8d19-4588-bc24-e70912bdd727","system_id":"levelo_inurba_marseille","lat":43.28617,"lon":5.35101,"is_reserved":false,"is_disabled":false,"rental_uris":{"android":"levelo://app?vid=7b9f3971-8d19-4588-bc24-e70912bdd727","ios":"levelo://app?vid=7b9f3971-8d19-4588-bc24-e70912bdd727"},"vehicle_type_id":"4","last_reported":1730193041,"current_range_meters":24400,"station_id":"ce4bhch2rcd13ifvqeug","pricing_plan_id":"cebpf4jnsgd1na2vs0mg"},{"bike_id":"e79de953-afab-425a-84d5-0be4c9734950","system_id":"levelo_inurba_marseille","lat":43.28151,"lon":5.42638,"is_reserved":false,"is_disabled":false,"rental_uris":{"android":"levelo://app?vid=e79de953-afab-425a-84d5-0be4c9734950","ios":"levelo://app?vid=e79de953-afab-425a-84d5-0be4c9734950"},"vehicle_type_id":"4","last_reported":1730193041,"current_range_meters":38800,"station_id":"ce4bhnh2rcd13ifvqgug","pricing_plan_id":"cebpf4jnsgd1na2vs0mg"},{"bike_id":"eed2fec5-5bbd-40f4-9916-b138410be71d","system_id":"levelo_inurba_marseille","lat":43.30187,"lon":5.36608,"is_reserved":false,"is_disabled":false,"rental_uris":{"android":"levelo://app?vid=eed2fec5-5bbd-40f4-9916-b138410be71d","ios":"levelo://app?vid=eed2fec5-5bbd-40f4-9916-b138410be71d"},"vehicle_type_id":"4","last_reported":1730193041,"current_range_meters":31200,"station_id":"ce4bgrh2rcd13ifvqc8g","pricing_plan_id":"cebpf4jnsgd1na2vs0mg"},{"bike_id":"21bbed62-6541-48ad-9f1f-e4da26fc4934","system_id":"levelo_inurba_marseille","lat":43.3149,"lon":5.37301,"is_reserved":false,"is_disabled":false,"rental_uris":{"android":"levelo://app?vid=21bbed62-6541-48ad-9f1f-e4da26fc4934","ios":"levelo://app?vid=21bbed62-6541-48ad-9f1f-e4da26fc4934"},"vehicle_type_id":"4","last_reported":1730193041,"current_range_meters":38800,"station_id":"ce4bgt12rcd13ifvqcd0","pricing_plan_id":"cebpf4jnsgd1na2vs0mg"},{"bike_id":"65770b90-35e8-46a7-bcfa-b54197a105c1","system_id":"levelo_inurba_marseille","lat":43.29036,"lon":5.39987,"is_reserved":false,"is_disabled":false,"rental_uris":{"android":"levelo://app?vid=65770b90-35e8-46a7-bcfa-b54197a105c1","ios":"levelo://app?vid=65770b90-35e8-46a7-bcfa-b54197a105c1"},"vehicle_type_id":"4","last_reported":1730193041,"current_range_meters":4800,"station_id":"ce4bh392rcd13ifvqdm0","pricing_plan_id":"cebpf4jnsgd1na2vs0mg"},{"bike_id":"b667c6f7-11bb-4bf8-aee3-b7fb81485b42","system_id":"levelo_inurba_marseille","lat":43.30222,"lon":5.39474,"is_reserved":false,"is_disabled":false,"rental_uris":{"android":"levelo://app?vid=b667c6f7-11bb-4bf8-aee3-b7fb81485b42","ios":"levelo://app?vid=b667c6f7-11bb-4bf8-aee3-b7fb81485b42"},"vehicle_type_id":"4","last_reported":1730193041,"current_range_meters":22000,"station_id":"ce4bh0h2rcd13ifvqd50","pricing_plan_id":"cebpf4jnsgd1na2vs0mg"},{"bike_id":"c4aa130f-77ea-443e-b5af-a096bdac6028","system_id":"levelo_inurba_marseille","lat":43.23155,"lon":5.43708,"is_reserved":false,"is_disabled":false,"rental_uris":{"android":"levelo://app?vid=c4aa130f-77ea-443e-b5af-a096bdac6028","ios":"levelo://app?vid=c4aa130f-77ea-443e-b5af-a096bdac6028"},"vehicle_type_id":"4","last_reported":1730193041,"current_range_meters":38800,"station_id":"ce4bhmp2rcd13ifvqgog","pricing_plan_id":"cebpf4jnsgd1na2vs0mg"},{"bike_id":"c4e07be5-fe77-4aff-9330-f00dc4d4f1c6","system_id":"levelo_inurba_marseille","lat":43.30188,"lon":5.36619,"is_reserved":false,"is_disabled":false,"rental_uris":{"android":"levelo://app?vid=c4e07be5-fe77-4aff-9330-f00dc4d4f1c6","ios":"levelo://app?vid=c4e07be5-fe77-4aff-9330-f00dc4d4f1c6"},"vehicle_type_id":"4","last_reported":1730193041,"current_range_meters":38800,"station_id":"ce4bgrh2rcd13ifvqc8g","pricing_plan_id":"cebpf4jnsgd1na2vs0mg"},{"bike_id":"e94be738-1f81-4ef2-8919-b6162fbe12c8","system_id":"levelo_inurba_marseille","lat":43.3237,"lon":5.38888,"is_reserved":false,"is_disabled":false,"rental_uris":{"android":"levelo://app?vid=e94be738-1f81-4ef2-8919-b6162fbe12c8","ios":"levelo://app?vid=e94be738-1f81-4ef2-8919-b6162fbe12c8"},"vehicle_type_id":"4","last_reported":1730193041,"current_range_meters":28800,"station_id":"ce4bhqp2rcd13ifvqhog","pricing_plan_id":"cebpf4jnsgd1na2vs0mg"},{"bike_id":"3633adcb-a777-45f7-b22e-4cec2cdd8e0d","system_id":"levelo_inurba_marseille","lat":43.290222,"lon":5.381186,"is_reserved":false,"is_disabled":false,"rental_uris":{"android":"levelo://app?vid=3633adcb-a777-45f7-b22e-4cec2cdd8e0d","ios":"levelo://app?vid=3633adcb-a777-45f7-b22e-4cec2cdd8e0d"},"vehicle_type_id":"4","last_reported":1730193041,"current_range_meters":18800,"station_id":"ce4bh4p2rcd13ifvqe1g","pricing_plan_id":"cebpf4jnsgd1na2vs0mg"},{"bike_id":"84e309b4-a277-4229-a1e9-7ef4c645df39","system_id":"levelo_inurba_marseille","lat":43.31348,"lon":5.36737,"is_reserved":false,"is_disabled":false,"rental_uris":{"android":"levelo://app?vid=84e309b4-a277-4229-a1e9-7ef4c645df39","ios":"levelo://app?vid=84e309b4-a277-4229-a1e9-7ef4c645df39"},"vehicle_type_id":"4","last_reported":1730193041,"current_range_meters":19600,"station_id":"ce4bgr92rcd13ifvqc6g","pricing_plan_id":"cebpf4jnsgd1na2vs0mg"},{"bike_id":"7fda42aa-28d7-4fc7-858b-960ce986865c","system_id":"levelo_inurba_marseille","lat":43.23202,"lon":5.35546,"is_reserved":false,"is_disabled":false,"rental_uris":{"android":"levelo://app?vid=7fda42aa-28d7-4fc7-858b-960ce986865c","ios":"levelo://app?vid=7fda42aa-28d7-4fc7-858b-960ce986865c"},"vehicle_type_id":"4","last_reported":1730193041,"current_range_meters":17200,"station_id":"ce4bhu92rcd13ifvqi70","pricing_plan_id":"cebpf4jnsgd1na2vs0mg"},{"bike_id":"ce2b35c8-b45c-4c36-92f3-4c73eb4d1d47","system_id":"levelo_inurba_marseille","lat":43.2721,"lon":5.39175,"is_reserved":false,"is_disabled":false,"rental_uris":{"android":"levelo://app?vid=ce2b35c8-b45c-4c36-92f3-4c73eb4d1d47","ios":"levelo://app?vid=ce2b35c8-b45c-4c36-92f3-4c73eb4d1d47"},"vehicle_type_id":"4","last_reported":1730193041,"current_range_meters":26000,"station_id":"ce4bhhp2rcd13ifvqfm0","pricing_plan_id":"cebpf4jnsgd1na2vs0mg"},{"bike_id":"650bf3f4-7f56-4f32-8a48-b5a2b2978358","system_id":"levelo_inurba_marseille","lat":43.30419,"lon":5.41287,"is_reserved":false,"is_disabled":false,"rental_uris":{"android":"levelo://app?vid=650bf3f4-7f56-4f32-8a48-b5a2b2978358","ios":"levelo://app?vid=650bf3f4-7f56-4f32-8a48-b5a2b2978358"},"vehicle_type_id":"4","last_reported":1730193041,"current_range_meters":17600,"station_id":"ce4bhop2rcd13ifvqh8g","pricing_plan_id":"cebpf4jnsgd1na2vs0mg"},{"bike_id":"1cc8df4a-9325-45a9-bd08-cbebc424d730","system_id":"levelo_inurba_marseille","lat":43.25939,"lon":5.40905,"is_reserved":false,"is_disabled":false,"rental_uris":{"android":"levelo://app?vid=1cc8df4a-9325-45a9-bd08-cbebc424d730","ios":"levelo://app?vid=1cc8df4a-9325-45a9-bd08-cbebc424d730"},"vehicle_type_id":"4","last_reported":1730193041,"current_range_meters":30000,"station_id":"ce4bhm92rcd13ifvqglg","pricing_plan_id":"cebpf4jnsgd1na2vs0mg"},{"bike_id":"8c30d4bd-e385-42f3-a7d5-88401259aa4c","system_id":"levelo_inurba_marseille","lat":43.24176,"lon":5.39723,"is_reserved":false,"is_disabled":false,"rental_uris":{"android":"levelo://app?vid=8c30d4bd-e385-42f3-a7d5-88401259aa4c","ios":"levelo://app?vid=8c30d4bd-e385-42f3-a7d5-88401259aa4c"},"vehicle_type_id":"4","last_reported":1730193041,"current_range_meters":27200,"station_id":"ce4bhn12rcd13ifvqgpg","pricing_plan_id":"cebpf4jnsgd1na2vs0mg"},{"bike_id":"4ff9c218-f22c-419d-8965-ef26fe4a1233","system_id":"levelo_inurba_marseille","lat":43.30147,"lon":5.37421,"is_reserved":false,"is_disabled":false,"rental_uris":{"android":"levelo://app?vid=4ff9c218-f22c-419d-8965-ef26fe4a1233","ios":"levelo://app?vid=4ff9c218-f22c-419d-8965-ef26fe4a1233"},"vehicle_type_id":"4","last_reported":1730193041,"current_range_meters":38000,"station_id":"ce4bgs92rcd13ifvqcc0","pricing_plan_id":"cebpf4jnsgd1na2vs0mg"},{"bike_id":"49f32741-11bd-4708-beba-7f7f852ef140","system_id":"levelo_inurba_marseille","lat":43.31371,"lon":5.38492,"is_reserved":false,"is_disabled":false,"rental_uris":{"android":"levelo://app?vid=49f32741-11bd-4708-beba-7f7f852ef140","ios":"levelo://app?vid=49f32741-11bd-4708-beba-7f7f852ef140"},"vehicle_type_id":"4","last_reported":1730193041,"current_range_meters":38800,"station_id":"ce4bgt92rcd13ifvqcf0","pricing_plan_id":"cebpf4jnsgd1na2vs0mg"},{"bike_id":"b807bfad-6bb6-429f-9b97-3405c513e267","system_id":"levelo_inurba_marseille","lat":43.25003,"lon":5.38938,"is_reserved":false,"is_disabled":false,"rental_uris":{"android":"levelo://app?vid=b807bfad-6bb6-429f-9b97-3405c513e267","ios":"levelo://app?vid=b807bfad-6bb6-429f-9b97-3405c513e267"},"vehicle_type_id":"4","last_reported":1730193041,"current_range_meters":19200,"station_id":"ce4bhgp2rcd13ifvqfd0","pricing_plan_id":"cebpf4jnsgd1na2vs0mg"},{"bike_id":"0af527c6-3088-4971-8c8a-715dc1284096","system_id":"levelo_inurba_marseille","lat":43.29845,"lon":5.36277,"is_reserved":false,"is_disabled":false,"rental_uris":{"android":"levelo://app?vid=0af527c6-3088-4971-8c8a-715dc1284096","ios":"levelo://app?vid=0af527c6-3088-4971-8c8a-715dc1284096"},"vehicle_type_id":"4","last_reported":1730193041,"current_range_meters":29600,"station_id":"ce4bgpp2rcd13ifvqc3g","pricing_plan_id":"cebpf4jnsgd1na2vs0mg"},{"bike_id":"ddce2efe-5baf-433a-8887-21016321f6c2","system_id":"levelo_inurba_marseille","lat":43.27816,"lon":5.40711,"is_reserved":false,"is_disabled":false,"rental_uris":{"android":"levelo://app?vid=ddce2efe-5baf-433a-8887-21016321f6c2","ios":"levelo://app?vid=ddce2efe-5baf-433a-8887-21016321f6c2"},"vehicle_type_id":"4","last_reported":1730193041,"current_range_meters":36400,"station_id":"ce4bhnh2rcd13ifvqgtg","pricing_plan_id":"cebpf4jnsgd1na2vs0mg"},{"bike_id":"99d113a8-501c-4654-94a5-072767f0d4d1","system_id":"levelo_inurba_marseille","lat":43.29594,"lon":5.38108,"is_reserved":false,"is_disabled":false,"rental_uris":{"android":"levelo://app?vid=99d113a8-501c-4654-94a5-072767f0d4d1","ios":"levelo://app?vid=99d113a8-501c-4654-94a5-072767f0d4d1"},"vehicle_type_id":"4","last_reported":1730193041,"current_range_meters":27600,"station_id":"ce4bgl12rcd13ifvqbo0","pricing_plan_id":"cebpf4jnsgd1na2vs0mg"},{"bike_id":"dcd98ba9-c8cc-4340-a071-62f2c6f4e9dc","system_id":"levelo_inurba_marseille","lat":43.30895,"lon":5.37193,"is_reserved":false,"is_disabled":false,"rental_uris":{"android":"levelo://app?vid=dcd98ba9-c8cc-4340-a071-62f2c6f4e9dc","ios":"levelo://app?vid=dcd98ba9-c8cc-4340-a071-62f2c6f4e9dc"},"vehicle_type_id":"4","last_reported":1730193041,"current_range_meters":38000,"station_id":"ce4bguh2rcd13ifvqckg","pricing_plan_id":"cebpf4jnsgd1na2vs0mg"},{"bike_id":"9721773f-a441-4be0-a8bc-643e9e37a042","system_id":"levelo_inurba_marseille","lat":43.28404,"lon":5.37506,"is_reserved":false,"is_disabled":false,"rental_uris":{"android":"levelo://app?vid=9721773f-a441-4be0-a8bc-643e9e37a042","ios":"levelo://app?vid=9721773f-a441-4be0-a8bc-643e9e37a042"},"vehicle_type_id":"4","last_reported":1730193041,"current_range_meters":29600,"station_id":"ce4bh412rcd13ifvqds0","pricing_plan_id":"cebpf4jnsgd1na2vs0mg"},{"bike_id":"87f2345b-77fb-4930-91b3-910e5db2973d","system_id":"levelo_inurba_marseille","lat":43.24072,"lon":5.37761,"is_reserved":false,"is_disabled":false,"rental_uris":{"android":"levelo://app?vid=87f2345b-77fb-4930-91b3-910e5db2973d","ios":"levelo://app?vid=87f2345b-77fb-4930-91b3-910e5db2973d"},"vehicle_type_id":"4","last_reported":1730193041,"current_range_meters":14800,"station_id":"ce4bhnp2rcd13ifvqgvg","pricing_plan_id":"cebpf4jnsgd1na2vs0mg"},{"bike_id":"a8fc4604-f5df-4859-812a-fa20d78e3c53","system_id":"levelo_inurba_marseille","lat":43.30948,"lon":5.39038,"is_reserved":false,"is_disabled":false,"rental_uris":{"android":"levelo://app?vid=a8fc4604-f5df-4859-812a-fa20d78e3c53","ios":"levelo://app?vid=a8fc4604-f5df-4859-812a-fa20d78e3c53"},"vehicle_type_id":"4","last_reported":1730193041,"current_range_meters":35600,"station_id":"ce4bgup2rcd13ifvqco0","pricing_plan_id":"cebpf4jnsgd1na2vs0mg"},{"bike_id":"bf50e22e-4ead-4bb4-a449-d3f66bc7d5b0","system_id":"levelo_inurba_marseille","lat":43.29276,"lon":5.368446,"is_reserved":false,"is_disabled":false,"rental_uris":{"android":"levelo://app?vid=bf50e22e-4ead-4bb4-a449-d3f66bc7d5b0","ios":"levelo://app?vid=bf50e22e-4ead-4bb4-a449-d3f66bc7d5b0"},"vehicle_type_id":"4","last_reported":1730193041,"current_range_meters":36400,"station_id":"ce4bgrp2rcd13ifvqc9g","pricing_plan_id":"cebpf4jnsgd1na2vs0mg"},{"bike_id":"56d090fe-fad3-4e0a-b3d0-0faa7c18323b","system_id":"levelo_inurba_marseille","lat":43.25865,"lon":5.39901,"is_reserved":false,"is_disabled":false,"rental_uris":{"android":"levelo://app?vid=56d090fe-fad3-4e0a-b3d0-0faa7c18323b","ios":"levelo://app?vid=56d090fe-fad3-4e0a-b3d0-0faa7c18323b"},"vehicle_type_id":"4","last_reported":1730193041,"current_range_meters":28800,"station_id":"ce4bhl92rcd13ifvqghg","pricing_plan_id":"cebpf4jnsgd1na2vs0mg"},{"bike_id":"02b72eb8-0543-4472-a965-8e5e8373d9ba","system_id":"levelo_inurba_marseille","lat":43.26199,"lon":5.3793,"is_reserved":false,"is_disabled":false,"rental_uris":{"android":"levelo://app?vid=02b72eb8-0543-4472-a965-8e5e8373d9ba","ios":"levelo://app?vid=02b72eb8-0543-4472-a965-8e5e8373d9ba"},"vehicle_type_id":"4","last_reported":1730193041,"current_range_meters":10800,"station_id":"ce4bhjp2rcd13ifvqg90","pricing_plan_id":"cebpf4jnsgd1na2vs0mg"},{"bike_id":"328d061a-042d-4966-8f2e-95eb65d8045d","system_id":"levelo_inurba_marseille","lat":43.31342,"lon":5.36728,"is_reserved":false,"is_disabled":false,"rental_uris":{"android":"levelo://app?vid=328d061a-042d-4966-8f2e-95eb65d8045d","ios":"levelo://app?vid=328d061a-042d-4966-8f2e-95eb65d8045d"},"vehicle_type_id":"4","last_reported":1730193041,"current_range_meters":32800,"station_id":"ce4bgr92rcd13ifvqc6g","pricing_plan_id":"cebpf4jnsgd1na2vs0mg"},{"bike_id":"ba9b578c-b3f6-4175-aceb-010d9e18f6b9","system_id":"levelo_inurba_marseille","lat":43.259521,"lon":5.398571,"is_reserved":false,"is_disabled":false,"rental_uris":{"android":"levelo://app?vid=ba9b578c-b3f6-4175-aceb-010d9e18f6b9","ios":"levelo://app?vid=ba9b578c-b3f6-4175-aceb-010d9e18f6b9"},"vehicle_type_id":"4","last_reported":1730193041,"current_range_meters":38800,"station_id":"","pricing_plan_id":"cebpf4jnsgd1na2vs0mg"},{"bike_id":"324f5409-cfad-443f-9e9c-8204b4bdd32c","system_id":"levelo_inurba_marseille","lat":43.24677,"lon":5.38149,"is_reserved":false,"is_disabled":false,"rental_uris":{"android":"levelo://app?vid=324f5409-cfad-443f-9e9c-8204b4bdd32c","ios":"levelo://app?vid=324f5409-cfad-443f-9e9c-8204b4bdd32c"},"vehicle_type_id":"4","last_reported":1730193041,"current_range_meters":16800,"station_id":"ce4bhih2rcd13ifvqfr0","pricing_plan_id":"cebpf4jnsgd1na2vs0mg"},{"bike_id":"b47a4e8d-fa16-4ad9-87b9-b8d124b042e1","system_id":"levelo_inurba_marseille","lat":43.29569,"lon":5.37523,"is_reserved":false,"is_disabled":false,"rental_uris":{"android":"levelo://app?vid=b47a4e8d-fa16-4ad9-87b9-b8d124b042e1","ios":"levelo://app?vid=b47a4e8d-fa16-4ad9-87b9-b8d124b042e1"},"vehicle_type_id":"4","last_reported":1730193041,"current_range_meters":36800,"station_id":"ce4bgh92rcd13ifvqb50","pricing_plan_id":"cebpf4jnsgd1na2vs0mg"},{"bike_id":"6e6926d1-8a6a-4fb7-b57d-c91407aa0f8c","system_id":"levelo_inurba_marseille","lat":43.31347,"lon":5.36733,"is_reserved":false,"is_disabled":false,"rental_uris":{"android":"levelo://app?vid=6e6926d1-8a6a-4fb7-b57d-c91407aa0f8c","ios":"levelo://app?vid=6e6926d1-8a6a-4fb7-b57d-c91407aa0f8c"},"vehicle_type_id":"4","last_reported":1730193041,"current_range_meters":26800,"station_id":"ce4bgr92rcd13ifvqc6g","pricing_plan_id":"cebpf4jnsgd1na2vs0mg"},{"bike_id":"9c19a3fe-deef-4025-9c4d-aa7ba28d4ee7","system_id":"levelo_inurba_marseille","lat":43.2418,"lon":5.39721,"is_reserved":false,"is_disabled":false,"rental_uris":{"android":"levelo://app?vid=9c19a3fe-deef-4025-9c4d-aa7ba28d4ee7","ios":"levelo://app?vid=9c19a3fe-deef-4025-9c4d-aa7ba28d4ee7"},"vehicle_type_id":"4","last_reported":1730193041,"current_range_meters":30800,"station_id":"ce4bhn12rcd13ifvqgpg","pricing_plan_id":"cebpf4jnsgd1na2vs0mg"},