{"last_updated":1714547285,"ttl":30,"version":"2.2","data":{"bikes":[{"bike_id":"cc6c0179-428f-4e23-82d1-0422925a7e63","system_id":"levelo_inurba_marseille","lat":43.31341,"lon":5.367098,"is_reserved":false,"is_disabled":false,"rental_uris":{"android":"levelo://app?vid=cc6c0179-428f-4e23-82d1-0422925a7e63","ios":"levelo://app?vid=cc6c0179-428f-4e23-82d1-0422925a7e63"},"vehicle_type_id":"4","last_reported":1714547285,"current_range_meters":25600,"station_id":"ce4bgr92rcd13ifvqc6g","pricing_plan_id":"cebpf4jnsgd1na2vs0mg"},{"bike_id":"fc9d75e7-d2c7-4e30-b9ba-1f655ebe2d91","system_id":"levelo_inurba_marseille","lat":43.312239,"lon":5.368562,"is_reserved":false,"is_disabled":false,"rental_uris":{"android":"levelo://app?vid=fc9d75e7-d2c7-4e30-b9ba-1f655ebe2d91","ios":"levelo://app?vid=fc9d75e7-d2c7-4e30-b9ba-1f655ebe2d91"},"vehicle_type_id":"4","last_reported":1714547285,"current_range_meters":22400,"station_id":"ce4bgl92rcd13ifvqbq0","pricing_plan_id":"cebpf4jnsgd1na2vs0mg"},{"bike_id":"57977018-243e-4396-bf80-08b022d56528","system_id":"levelo_inurba_marseille","lat":43.312236,"lon":5.36855,"is_reserved":false,"is_disabled":false,"rental_uris":{"android":"levelo://app?vid=57977018-243e-4396-bf80-08b022d56528","ios":"levelo://app?vid=57977018-243e-4396-bf80-08b022d56528"},"vehicle_type_id":"4","last_reported":1714547285,"current_range_meters":0,"station_id":"ce4bgl92rcd13ifvqbq0","pricing_plan_id":"cebpf4jnsgd1na2vs0mg"},{"bike_id":"4a106b80-a768-42fe-8ce3-39914e6e85b4","system_id":"levelo_inurba_marseille","lat":43.312239,"lon":5.368562,"is_reserved":false,"is_disabled":false,"rental_uris":{"android":"levelo://app?vid=4a106b80-a768-42fe-8ce3-39914e6e85b4","ios":"levelo://app?vid=4a106b80-a768-42fe-8ce3-39914e6e85b4"},"vehicle_type_id":"4","last_reported":1714547285,"current_range_meters":28000,"station_id":"ce4bgl92rcd13ifvqbq0","pricing_plan_id":"cebpf4jnsgd1na2vs0mg"},{"bike_id":"db36555f-b9fa-4c8e-8a3a-86c958147825","system_id":"levelo_inurba_marseille","lat":43.309076,"lon":5.368465,"is_reserved":false,"is_disabled":false,"rental_uris":{"android":"levelo://app?vid=db36555f-b9fa-4c8e-8a3a-86c958147825","ios":"levelo://app?vid=db36555f-b9fa-4c8e-8a3a-86c958147825"},"vehicle_type_id":"4","last_reported":1714547285,"current_range_meters":26400,"station_id":"ce4bgn92rcd13ifvqbvg","pricing_plan_id":"cebpf4jnsgd1na2vs0mg"},{"bike_id":"c07b3360-b34e-4474-aa8b-b97a8f57a876","system_id":"levelo_inurba_marseille","lat":43.309076,"lon":5.368465,"is_reserved":false,"is_disabled":false,"rental_uris":{"android":"levelo://app?vid=c07b3360-b34e-4474-aa8b-b97a8f57a876","ios":"levelo://app?vid=c07b3360-b34e-4474-aa8b-b97a8f57a876"},"vehicle_type_id":"4","last_reported":1714547285,"current_range_meters":26000,"station_id":"ce4bgn92rcd13ifvqbvg","pricing_plan_id":"cebpf4jnsgd1na2vs0mg"},{"bike_id":"c31083b2-2ff0-4c4b-861b-e799e723e640","system_id":"levelo_inurba_marseille","lat":43.309076,"lon":5.368465,"is_reserved":false,"is_disabled":false,"rental_uris":{"android":"levelo://app?vid=c31083b2-2ff0-4c4b-861b-e799e723e640","ios":"levelo://app?vid=c31083b2-2ff0-4c4b-861b-e799e723e640"},"vehicle_type_id":"4","last_reported":1714547285,"current_range_meters":28800,"station_id":"ce4bgn92rcd13ifvqbvg","pricing_plan_id":"cebpf4jnsgd1na2vs0mg"},{"bike_id":"191c2809-53c5-4fd7-99ea-4f052d061aa5","system_id":"levelo_inurba_marseille","lat":43.314811,"lon":5.373103,"is_reserved":false,"is_disabled":false,"rental_uris":{"android":"levelo://app?vid=191c2809-53c5-4fd7-99ea-4f052d061aa5","ios":"levelo://app?vid=191c2809-53c5-4fd7-99ea-4f052d061aa5"},"vehicle_type_id":"4","last_reported":1714547285,"current_range_meters":31600,"station_id":"ce4bgt12rcd13ifvqcd0","pricing_plan_id":"cebpf4jnsgd1na2vs0mg"},{"bike_id":"eddde26c-93d1-484a-8140-ba91b1ad5db2","system_id":"levelo_inurba_marseille","lat":43.314811,"lon":5.373103,"is_reserved":false,"is_disabled":false,"rental_uris":{"android":"levelo://app?vid=eddde26c-93d1-484a-8140-ba91b1ad5db2","ios":"levelo://app?vid=eddde26c-93d1-484a-8140-ba91b1ad5db2"},"vehicle_type_id":"4","last_reported":1714547285,"current_range_meters":13200,"station_id":"ce4bgt12rcd13ifvqcd0","pricing_plan_id":"cebpf4jnsgd1na2vs0mg"},{"bike_id":"61c2fdda-ac72-43da-ab0b-f5731b789878","system_id":"levelo_inurba_marseille","lat":43.314811,"lon":5.373103,"is_reserved":false,"is_disabled":false,"rental_uris":{"android":"levelo://app?vid=61c2fdda-ac72-43da-ab0b-f5731b789878","ios":"levelo://app?vid=61c2fdda-ac72-43da-ab0b-f5731b789878"},"vehicle_type_id":"4","last_reported":1714547285,"current_range_meters":10000,"station_id":"ce4bgt12rcd13ifvqcd0","pricing_plan_id":"cebpf4jnsgd1na2vs0mg"},{"bike_id":"b3331664-dcb4-433b-83ea-295a34c9ad25","system_id":"levelo_inurba_marseille","lat":43.314811,"lon":5.373103,"is_reserved":false,"is_disabled":false,"rental_uris":{"android":"levelo://app?vid=b3331664-dcb4-433b-83ea-295a34c9ad25","ios":"levelo://app?vid=b3331664-dcb4-433b-83ea-295a34c9ad25"},"vehicle_type_id":"4","last_reported":1714547285,"current_range_meters":31600,"station_id":"ce4bgt12rcd13ifvqcd0","pricing_plan_id":"cebpf4jnsgd1na2vs0mg"},{"bike_id":"d08eaabb-6ec2-45d2-91da-2208438fb670","system_id":"levelo_inurba_marseille","lat":43.314811,"lon":5.373103,"is_reserved":false,"is_disabled":false,"rental_uris":{"android":"levelo://app?vid=d08eaabb-6ec2-45d2-91da-2208438fb670","ios":"levelo://app?vid=d08eaabb-6ec2-45d2-91da-2208438fb670"},"vehicle_type_id":"4","last_reported":1714547285,"current_range_meters":25600,"station_id":"ce4bgt12rcd13ifvqcd0","pricing_plan_id":"cebpf4jnsgd1na2vs0mg"},{"bike_id":"05108800-b4e7-4c49-a6f8-701ea0dfe60f","system_id":"levelo_inurba_marseille","lat":43.314811,"lon":5.373103,"is_reserved":false,"is_disabled":false,"rental_uris":{"android":"levelo://app?vid=05108800-b4e7-4c49-a6f8-701ea0dfe60f","ios":"levelo://app?vid=05108800-b4e7-4c49-a6f8-701ea0dfe60f"},"vehicle_type_id":"4","last_reported":1714547285,"current_range_meters":22400,"station_id":"ce4bgt12rcd13ifvqcd0","pricing_plan_id":"cebpf4jnsgd1na2vs0mg"},{"bike_id":"f7b2c8db-c3c0-4cbc-8bb7-fd13e46c111d","system_id":"levelo_inurba_marseille","lat":43.314811,"lon":5.373104,"is_reserved":false,"is_disabled":false,"rental_uris":{"android":"levelo://app?vid=f7b2c8db-c3c0-4cbc-8bb7-fd13e46c111d","ios":"levelo://app?vid=f7b2c8db-c3c0-4cbc-8bb7-fd13e46c111d"},"vehicle_type_id":"4","last_reported":1714547285,"current_range_meters":24800,"station_id":"ce4bgt12rcd13ifvqcd0","pricing_plan_id":"cebpf4jnsgd1na2vs0mg"},{"bike_id":"6d439d19-0187-4c7f-bca1-ef74f5bc3402","system_id":"levelo_inurba_marseille","lat":43.314811,"lon":5.373103,"is_reserved":false,"is_disabled":false,"rental_uris":{"android":"levelo://app?vid=6d439d19-0187-4c7f-bca1-ef74f5bc3402","ios":"levelo://app?vid=6d439d19-0187-4c7f-bca1-ef74f5bc3402"},"vehicle_type_id":"4","last_reported":1714547285,"current_range_meters":18800,"station_id":"ce4bgt12rcd13ifvqcd0","pricing_plan_id":"cebpf4jnsgd1na2vs0mg"},{"bike_id":"a78fbeb7-8d95-44a5-9cbc-99d3c0deb870","system_id":"levelo_inurba_marseille","lat":43.314811,"lon":5.373103,"is_reserved":false,"is_disabled":false,"rental_uris":{"android":"levelo://app?vid=a78fbeb7-8d95-44a5-9cbc-99d3c0deb870","ios":"levelo://app?vid=a78fbeb7-8d95-44a5-9cbc-99d3c0deb870"},"vehicle_type_id":"4","last_reported":1714547285,"current_range_meters":22800,"station_id":"ce4bgt12rcd13ifvqcd0","pricing_plan_id":"cebpf4jnsgd1na2vs0mg"},{"bike_id":"924e95ac-0548-4195-9669-8b681e719477","system_id":"levelo_inurba_marseille","lat":43.309039,"lon":5.371797,"is_reserved":false,"is_disabled":false,"rental_uris":{"android":"levelo://app?vid=924e95ac-0548-4195-9669-8b681e719477","ios":"levelo://app?vid=924e95ac-0548-4195-9669-8b681e719477"},"vehicle_type_id":"4","last_reported":1714547285,"current_range_meters":29600,"station_id":"ce4bguh2rcd13ifvqckg","pricing_plan_id":"cebpf4jnsgd1na2vs0mg"},{"bike_id":"9f812ea8-5bc9-4912-a103-05da4b0afe6d","system_id":"levelo_inurba_marseille","lat":43.309039,"lon":5.371797,"is_reserved":false,"is_disabled":false,"rental_uris":{"android":"levelo://app?vid=9f812ea8-5bc9-4912-a103-05da4b0afe6d","ios":"levelo://app?vid=9f812ea8-5bc9-4912-a103-05da4b0afe6d"},"vehicle_type_id":"4","last_reported":1714547285,"current_range_meters":32000,"station_id":"ce4bguh2rcd13ifvqckg","pricing_plan_id":"cebpf4jnsgd1na2vs0mg"},{"bike_id":"3c79abca-2408-4a5c-a331-89f2e1c22b7a","system_id":"levelo_inurba_marseille","lat":43.309034,"lon":5.371783,"is_reserved":false,"is_disabled":false,"rental_uris":{"android":"levelo://app?vid=3c79abca-2408-4a5c-a331-89f2e1c22b7a","ios":"levelo://app?vid=3c79abca-2408-4a5c-a331-89f2e1c22b7a"},"vehicle_type_id":"4","last_reported":1714547285,"current_range_meters":20400,"station_id":"ce4bguh2rcd13ifvqckg","pricing_plan_id":"cebpf4jnsgd1na2vs0mg"},{"bike_id":"ca50b1b4-773f-4e54-985c-039f1be4b1d2","system_id":"levelo_inurba_marseille","lat":43.309034,"lon":5.371783,"is_reserved":false,"is_disabled":false,"rental_uris":{"android":"levelo://app?vid=ca50b1b4-773f-4e54-985c-039f1be4b1d2","ios":"levelo://app?vid=ca50b1b4-773f-4e54-985c-039f1be4b1d2"},"vehicle_type_id":"4","last_reported":1714547285,"current_range_meters":31200,"station_id":"ce4bguh2rcd13ifvqckg","pricing_plan_id":"cebpf4jnsgd1na2vs0mg"},{"bike_id":"99273ba7-53df-4252-a22f-13be117c44fd","system_id":"levelo_inurba_marseille","lat":43.309034,"lon":5.371783,"is_reserved":false,"is_disabled":false,"rental_uris":{"android":"levelo://app?vid=99273ba7-53df-4252-a22f-13be117c44fd","ios":"levelo://app?vid=99273ba7-53df-4252-a22f-13be117c44fd"},"vehicle_type_id":"4","last_reported":1714547285,"current_range_meters":25600,"station_id":"ce4bguh2rcd13ifvqckg","pricing_plan_id":"cebpf4jnsgd1na2vs0mg"},{"bike_id":"7730da46-281f-4355-bd09-589bac200105","system_id":"levelo_inurba_marseille","lat":43.309034,"lon":5.371783,"is_reserved":false,"is_disabled":false,"rental_uris":{"android":"levelo://app?vid=7730da46-281f-4355-bd09-589bac200105","ios":"levelo://app?vid=7730da46-281f-4355-bd09-589bac200105"},"vehicle_type_id":"4","last_reported":1714547285,"current_range_meters":24400,"station_id":"ce4bguh2rcd13ifvqckg","pricing_plan_id":"cebpf4jnsgd1na2vs0mg"},{"bike_id":"0dab1c0b-5bf4-40b1-bbd9-9d9ca12c4fcf","system_id":"levelo_inurba_marseille","lat":43.309039,"lon":5.371797,"is_reserved":false,"is_disabled":false,"rental_uris":{"android":"levelo://app?vid=0dab1c0b-5bf4-40b1-bbd9-9d9ca12c4fcf","ios":"levelo://app?vid=0dab1c0b-5bf4-40b1-bbd9-9d9ca12c4fcf"},"vehicle_type_id":"4","last_reported":1714547285,"current_range_meters":16400,"station_id":"ce4bguh2rcd13ifvqckg","pricing_plan_id":"cebpf4jnsgd1na2vs0mg"},{"bike_id":"a2e0128d-38d2-412e-a020-f168c697781c","system_id":"levelo_inurba_marseille","lat":43.309034,"lon":5.371783,"is_reserved":false,"is_disabled":false,"rental_uris":{"android":"levelo://app?vid=a2e0128d-38d2-412e-a020-f168c697781c","ios":"levelo://app?vid=a2e0128d-38d2-412e-a020-f168c697781c"},"vehicle_type_id":"4","last_reported":1714547285,"current_range_meters":15200,"station_id":"ce4bguh2rcd13ifvqckg","pricing_plan_id":"cebpf4jnsgd1na2vs0mg"},{"bike_id":"883deae7-f08b-4c62-b62b-92c4d9a2d247","system_id":"levelo_inurba_marseille","lat":43.30555,"lon":5.36709,"is_reserved":false,"is_disabled":false,"rental_uris":{"android":"levelo://app?vid=883deae7-f08b-4c62-b62b-92c4d9a2d247","ios":"levelo://app?vid=883deae7-f08b-4c62-b62b-92c4d9a2d247"},"vehicle_type_id":"4","last_reported":1714547285,"current_range_meters":26800,"station_id":"ce4bgrp2rcd13ifvqc9g","pricing_plan_id":"cebpf4jnsgd1na2vs0mg"},{"bike_id":"62a654bf-2e50-407f-af95-3687bb849d04","system_id":"levelo_inurba_marseille","lat":43.30547,"lon":5.36708,"is_reserved":false,"is_disabled":false,"rental_uris":{"android":"levelo://app?vid=62a654bf-2e50-407f-af95-3687bb849d04","ios":"levelo://app?vid=62a654bf-2e50-407f-af95-3687bb849d04"},"vehicle_type_id":"4","last_reported":1714547285,"current_range_meters":22800,"station_id":"ce4bgrp2rcd13ifvqc9g","pricing_plan_id":"cebpf4jnsgd1na2vs0mg"},{"bike_id":"8b86666f-78f2-48f4-81b0-d0b6acc70e18","system_id":"levelo_inurba_marseille","lat":43.30537,"lon":5.367345,"is_reserved":false,"is_disabled":false,"rental_uris":{"android":"levelo://app?vid=8b86666f-78f2-48f4-81b0-d0b6acc70e18","ios":"levelo://app?vid=8b86666f-78f2-48f4-81b0-d0b6acc70e18"},"vehicle_type_id":"4","last_reported":1714547285,"current_range_meters":20800,"station_id":"ce4bgrp2rcd13ifvqc9g","pricing_plan_id":"cebpf4jnsgd1na2vs0mg"},{"bike_id":"d79be8bc-2b0f-411c-80e7-c02ab6e375a4","system_id":"levelo_inurba_marseille","lat":43.305368,"lon":5.367343,"is_reserved":false,"is_disabled":false,"rental_uris":{"android":"levelo://app?vid=d79be8bc-2b0f-411c-80e7-c02ab6e375a4","ios":"levelo://app?vid=d79be8bc-2b0f-411c-80e7-c02ab6e375a4"},"vehicle_type_id":"4","last_reported":1714547285,"current_range_meters":13200,"station_id":"ce4bgrp2rcd13ifvqc9g","pricing_plan_id":"cebpf4jnsgd1na2vs0mg"},{"bike_id":"090d12cb-e4e3-43af-a375-32c3343f53ac","system_id":"levelo_inurba_marseille","lat":43.305714,"lon":5.365633,"is_reserved":false,"is_disabled":false,"rental_uris":{"android":"levelo://app?vid=090d12cb-e4e3-43af-a375-32c3343f53ac","ios":"levelo://app?vid=090d12cb-e4e3-43af-a375-32c3343f53ac"},"vehicle_type_id":"4","last_reported":1714547285,"current_range_meters":31200,"station_id":"ce4bgs12rcd13ifvqcag","pricing_plan_id":"cebpf4jnsgd1na2vs0mg"},{"bike_id":"d2b14ea6-0f05-4c7b-a70a-b39015c1d72a","system_id":"levelo_inurba_marseille","lat":43.305714,"lon":5.365633,"is_reserved":false,"is_disabled":false,"rental_uris":{"android":"levelo://app?vid=d2b14ea6-0f05-4c7b-a70a-b39015c1d72a","ios":"levelo://app?vid=d2b14ea6-0f05-4c7b-a70a-b39015c1d72a"},"vehicle_type_id":"4","last_reported":1714547285,"current_range_meters":29600,"station_id":"ce4bgs12rcd13ifvqcag","pricing_plan_id":"cebpf4jnsgd1na2vs0mg"},{"bike_id":"5a44cc33-3e15-4eec-9613-5b27cd8c27b1","system_id":"levelo_inurba_marseille","lat":43.305989,"lon":5.37225,"is_reserved":false,"is_disabled":false,"rental_uris":{"android":"levelo://app?vid=5a44cc33-3e15-4eec-9613-5b27cd8c27b1","ios":"levelo://app?vid=5a44cc33-3e15-4eec-9613-5b27cd8c27b1"},"vehicle_type_id":"4","last_reported":1714547285,"current_range_meters":28000,"station_id":"ce4bgqh2rcd13ifvqc4g","pricing_plan_id":"cebpf4jnsgd1na2vs0mg"},{"bike_id":"81819fff-5e5a-4f6e-8662-0489bcf48a62","system_id":"levelo_inurba_marseille","lat":43.305989,"lon":5.37225,"is_reserved":false,"is_disabled":false,"rental_uris":{"android":"levelo://app?vid=81819fff-5e5a-4f6e-8662-0489bcf48a62","ios":"levelo://app?vid=81819fff-5e5a-4f6e-8662-0489bcf48a62"},"vehicle_type_id":"4","last_reported":1714547285,"current_range_meters":3200,"station_id":"ce4bgqh2rcd13ifvqc4g","pricing_plan_id":"cebpf4jnsgd1na2vs0mg"},{"bike_id":"158cd447-da33-4188-aa8f-bb07435fad64","system_id":"levelo_inurba_marseille","lat":43.305989,"lon":5.37225,"is_reserved":false,"is_disabled":false,"rental_uris":{"android":"levelo://app?vid=158cd447-da33-4188-aa8f-bb07435fad64","ios":"levelo://app?vid=158cd447-da33-4188-aa8f-bb07435fad64"},"vehicle_type_id":"4","last_reported":1714547285,"current_range_meters":31600,"station_id":"ce4bgqh2rcd13ifvqc4g","pricing_plan_id":"cebpf4jnsgd1na2vs0mg"},{"bike_id":"1c1e6837-fde1-48ca-b060-eb0e1dc990e4","system_id":"levelo_inurba_marseille","lat":43.305989,"lon":5.37225,"is_reserved":false,"is_disabled":false,"rental_uris":{"android":"levelo://app?vid=1c1e6837-fde1-48ca-b060-eb0e1dc990e4","ios":"levelo://app?vid=1c1e6837-fde1-48ca-b060-eb0e1dc990e4"},"vehicle_type_id":"4","last_reported":1714547285,"current_range_meters":27600,"station_id":"ce4bgqh2rcd13ifvqc4g","pricing_plan_id":"cebpf4jnsgd1na2vs0mg"},{"bike_id":"3888a72f-b282-4c10-93cb-25f5f04c5839","system_id":"levelo_inurba_marseille","lat":43.305989,"lon":5.37225,"is_reserved":false,"is_disabled":false,"rental_uris":{"android":"levelo://app?vid=3888a72f-b282-4c10-93cb-25f5f04c5839","ios":"levelo://app?vid=3888a72f-b282-4c10-93cb-25f5f04c5839"},"vehicle_type_id":"4","last_reported":1714547285,"current_range_meters":2800,"station_id":"ce4bgqh2rcd13ifvqc4g","pricing_plan_id":"cebpf4jnsgd1na2vs0mg"},{"bike_id":"068e90aa-4779-4015-ab83-42238790f383","system_id":"levelo_inurba_marseille","lat":43.305989,"lon":5.37225,"is_reserved":false,"is_disabled":false,"rental_uris":{"android":"levelo://app?vid=068e90aa-4779-4015-ab83-42238790f383","ios":"levelo://app?vid=068e90aa-4779-4015-ab83-42238790f383"},"vehicle_type_id":"4","last_reported":1714547285,"current_range_meters":24000,"station_id":"ce4bgqh2rcd13ifvqc4g","pricing_plan_id":"cebpf4jnsgd1na2vs0mg"},{"bike_id":"d0f019b8-36dd-4416-8676-4590e1e16079","system_id":"levelo_inurba_marseille","lat":43.305989,"lon":5.37225,"is_reserved":false,"is_disabled":false,"rental_uris":{"android":"levelo://app?vid=d0f019b8-36dd-4416-8676-4590e1e16079","ios":"levelo://app?vid=d0f019b8-36dd-4416-8676-4590e1e16079"},"vehicle_type_id":"4","last_reported":1714547285,"current_range_meters":26800,"station_id":"ce4bgqh2rcd13ifvqc4g","pricing_plan_id":"cebpf4jnsgd1na2vs0mg"},{"bike_id":"3ce479ed-f5da-45a9-9755-d235d38e689f","system_id":"levelo_inurba_marseille","lat":43.305989,"lon":5.37225,"is_reserved":false,"is_disabled":false,"rental_uris":{"android":"levelo://app?vid=3ce479ed-f5da-45a9-9755-d235d38e689f","ios":"levelo://app?vid=3ce479ed-f5da-45a9-9755-d235d38e689f"},"vehicle_type_id":"4","last_reported":1714547285,"current_range_meters":28800,"station_id":"ce4bgqh2rcd13ifvqc4g","pricing_plan_id":"cebpf4jnsgd1na2vs0mg"},{"bike_id":"75558e31-50d0-483d-bb05-c81464035582","system_id":"levelo_inurba_marseille","lat":43.305989,"lon":5.37225,"is_reserved":false,"is_disabled":false,"rental_uris":{"android":"levelo://app?vid=75558e31-50d0-483d-bb05-c81464035582","ios":"levelo://app?vid=75558e31-50d0-483d-bb05-c81464035582"},"vehicle_type_id":"4","last_reported":1714547285,"current_range_meters":30800,"station_id":"ce4bgqh2rcd13ifvqc4g","pricing_plan_id":"cebpf4jnsgd1na2vs0mg"},{"bike_id":"0ecb4d4d-42e3-4316-b8e0-da767c7a1bcd","system_id":"levelo_inurba_marseille","lat":43.305989,"lon":5.37225,"is_reserved":false,"is_disabled":false,"rental_uris":{"android":"levelo://app?vid=0ecb4d4d-42e3-4316-b8e0-da767c7a1bcd","ios":"levelo://app?vid=0ecb4d4d-42e3-4316-b8e0-da767c7a1bcd"},"vehicle_type_id":"4","last_reported":1714547285,"current_range_meters":31200,"station_id":"ce4bgqh2rcd13ifvqc4g","pricing_plan_id":"cebpf4jnsgd1na2vs0mg"},{"bike_id":"4ac261f5-9ce2-4e4e-bc7a-6bc3baf29bdd","system_id":"levelo_inurba_marseille","lat":43.311125,"lon":5.377624,"is_reserved":false,"is_disabled":false,"rental_uris":{"android":"levelo://app?vid=4ac261f5-9ce2-4e4e-bc7a-6bc3baf29bdd","ios":"levelo://app?vid=4ac261f5-9ce2-4e4e-bc7a-6bc3baf29bdd"},"vehicle_type_id":"4","last_reported":1714547285,"current_range_meters":9200,"station_id":"ce4bgt92rcd13ifvqcg0","pricing_plan_id":"cebpf4jnsgd1na2vs0mg"},{"bike_id":"3d3f19de-22ec-4d1d-9b32-f6e3ea25e8f1","system_id":"levelo_inurba_marseille","lat":43.311125,"lon":5.377624,"is_reserved":false,"is_disabled":false,"rental_uris":{"android":"levelo://app?vid=3d3f19de-22ec-4d1d-9b32-f6e3ea25e8f1","ios":"levelo://app?vid=3d3f19de-22ec-4d1d-9b32-f6e3ea25e8f1"},"vehicle_type_id":"4","last_reported":1714547285,"current_range_meters":6800,"station_id":"ce4bgt92rcd13ifvqcg0","pricing_plan_id":"cebpf4jnsgd1na2vs0mg"},{"bike_id":"aaa24e8a-d497-47a8-a231-5d2d5c6875a3","system_id":"levelo_inurba_marseille","lat":43.311186,"lon":5.377715,"is_reserved":false,"is_disabled":false,"rental_uris":{"android":"levelo://app?vid=aaa24e8a-d497-47a8-a231-5d2d5c6875a3","ios":"levelo://app?vid=aaa24e8a-d497-47a8-a231-5d2d5c6875a3"},"vehicle_type_id":"4","last_reported":1714547285,"current_range_meters":2800,"station_id":"ce4bgt92rcd13ifvqcg0","pricing_plan_id":"cebpf4jnsgd1na2vs0mg"},{"bike_id":"f0679ef5-1eea-4047-a4b2-620eca229e37","system_id":"levelo_inurba_marseille","lat":43.311125,"lon":5.377624,"is_reserved":false,"is_disabled":false,"rental_uris":{"android":"levelo://app?vid=f0679ef5-1eea-4047-a4b2-620eca229e37","ios":"levelo://app?vid=f0679ef5-1eea-4047-a4b2-620eca229e37"},"vehicle_type_id":"4","last_reported":1714547285,"current_range_meters":26800,"station_id":"ce4bgt92rcd13ifvqcg0","pricing_plan_id":"cebpf4jnsgd1na2vs0mg"},{"bike_id":"fed87b99-ed9a-43ea-9f77-931b65f0e82d","system_id":"levelo_inurba_marseille","lat":43.307945,"lon":5.376487,"is_reserved":false,"is_disabled":false,"rental_uris":{"android":"levelo://app?vid=fed87b99-ed9a-43ea-9f77-931b65f0e82d","ios":"levelo://app?vid=fed87b99-ed9a-43ea-9f77-931b65f0e82d"},"vehicle_type_id":"4","last_reported":1714547285,"current_range_meters":29600,"station_id":"ce4bgv92rcd13ifvqcq0","pricing_plan_id":"cebpf4jnsgd1na2vs0mg"},{"bike_id":"cc9f0d20-4a38-4ba5-9f53-85e4d85a089e","system_id":"levelo_inurba_marseille","lat":43.307945,"lon":5.376487,"is_reserved":false,"is_disabled":false,"rental_uris":{"android":"levelo://app?vid=cc9f0d20-4a38-4ba5-9f53-85e4d85a089e","ios":"levelo://app?vid=cc9f0d20-4a38-4ba5-9f53-85e4d85a089e"},"vehicle_type_id":"4","last_reported":1714547285,"current_range_meters":28000,"station_id":"ce4bgv92rcd13ifvqcq0","pricing_plan_id":"cebpf4jnsgd1na2vs0mg"},{"bike_id":"ba5da46e-2b3d-4937-a2e5-5e3b12ad74f2","system_id":"levelo_inurba_marseille","lat":43.307945,"lon":5.376487,"is_reserved":false,"is_disabled":false,"rental_uris":{"android":"levelo://app?vid=ba5da46e-2b3d-4937-a2e5-5e3b12ad74f2","ios":"levelo://app?vid=ba5da46e-2b3d-4937-a2e5-5e3b12ad74f2"},"vehicle_type_id":"4","last_reported":1714547285,"current_range_meters":16800,"station_id":"ce4bgv92rcd13ifvqcq0","pricing_plan_id":"cebpf4jnsgd1na2vs0mg"},{"bike_id":"ae47a3d7-85ea-4acb-8216-484774801f84","system_id":"levelo_inurba_marseille","lat":43.307945,"lon":5.376487,"is_reserved":false,"is_disabled":false,"rental_uris":{"android":"levelo://app?vid=ae47a3d7-85ea-4acb-8216-484774801f84","ios":"levelo://app?vid=ae47a3d7-85ea-4acb-8216-484774801f84"},"vehicle_type_id":"4","last_reported":1714547285,"current_range_meters":29600,"station_id":"ce4bgv92rcd13ifvqcq0","pricing_plan_id":"cebpf4jnsgd1na2vs0mg"},{"bike_id":"ac387ff0-da89-44a5-8074-a59cd135f76d","system_id":"levelo_inurba_marseille","lat":43.307945,"lon":5.376487,"is_reserved":false,"is_disabled":false,"rental_uris":{"android":"levelo://app?vid=ac387ff0-da89-44a5-8074-a59cd135f76d","ios":"levelo://app?vid=ac387ff0-da89-44a5-8074-a59cd135f76d"},"vehicle_type_id":"4","last_reported":1714547285,"current_range_meters":25200,"station_id":"ce4bgv92rcd13ifvqcq0","pricing_plan_id":"cebpf4jnsgd1na2vs0mg"},{"bike_id":"913db40a-463c-4d30-ac87-c951565e26e3","system_id":"levelo_inurba_marseille","lat":43.307945,"lon":5.376487,"is_reserved":false,"is_disabled":false,"rental_uris":{"android":"levelo://app?vid=913db40a-463c-4d30-ac87-c951565e26e3","ios":"levelo://app?vid=913db40a-463c-4d30-ac87-c951565e26e3"},"vehicle_type_id":"4","last_reported":1714547285,"current_range_meters":25200,"station_id":"ce4bgv92rcd13ifvqcq0","pricing_plan_id":"cebpf4jnsgd1na2vs0mg"},{"bike_id":"ba19dc61-da86-4179-8a5f-2a333aa301c0","system_id":"levelo_inurba_marseille","lat":43.317075,"lon":5.377367,"is_reserved":false,"is_disabled":false,"rental_uris":{"android":"levelo://app?vid=ba19dc61-da86-4179-8a5f-2a333aa301c0","ios":"levelo://app?vid=ba19dc61-da86-4179-8a5f-2a333aa301c0"},"vehicle_type_id":"4","last_reported":1714547285,"current_range_meters":21600,"station_id":"ce4bgth2rcd13ifvqch0","pricing_plan_id":"cebpf4jnsgd1na2vs0mg"},{"bike_id":"7ac2a2a2-b565-4241-978d-2eb6a1db99a9","system_id":"levelo_inurba_marseille","lat":43.31708,"lon":5.37749,"is_reserved":false,"is_disabled":false,"rental_uris":{"android":"levelo://app?vid=7ac2a2a2-b565-4241-978d-2eb6a1db99a9","ios":"levelo://app?vid=7ac2a2a2-b565-4241-978d-2eb6a1db99a9"},"vehicle_type_id":"4","last_reported":1714547285,"current_range_meters":13200,"station_id":"ce4bgth2rcd13ifvqch0","pricing_plan_id":"cebpf4jnsgd1na2vs0mg"},{"bike_id":"bb5a4ed8-58a4-492d-a37f-fee3e50533b9","system_id":"levelo_inurba_marseille","lat":43.317075,"lon":5.377367,"is_reserved":false,"is_disabled":false,"rental_uris":{"android":"levelo://app?vid=bb5a4ed8-58a4-492d-a37f-fee3e50533b9","ios":"levelo://app?vid=bb5a4ed8-58a4-492d-a37f-fee3e50533b9"},"vehicle_type_id":"4","last_reported":1714547285,"current_range_meters":28000,"station_id":"ce4bgth2rcd13ifvqch0","pricing_plan_id":"cebpf4jnsgd1na2vs0mg"},{"bike_id":"4ee60a04-ed89-48bd-b443-561f10b2a85f","system_id":"levelo_inurba_marseille","lat":43.317075,"lon":5.377367,"is_reserved":false,"is_disabled":false,"rental_uris":{"android":"levelo://app?vid=4ee60a04-ed89-48bd-b443-561f10b2a85f","ios":"levelo://app?vid=4ee60a04-ed89-48bd-b443-561f10b2a85f"},"vehicle_type_id":"4","last_reported":1714547285,"current_range_meters":2800,"station_id":"ce4bgth2rcd13ifvqch0","pricing_plan_id":"cebpf4jnsgd1na2vs0mg"},{"bike_id":"0e0ded96-05b6-4fe1-bc64-7b443f2566f2","system_id":"levelo_inurba_marseille","lat":43.303085,"lon":5.368924,"is_reserved":false,"is_disabled":false,"rental_uris":{"android":"levelo://app?vid=0e0ded96-05b6-4fe1-bc64-7b443f2566f2","ios":"levelo://app?vid=0e0ded96-05b6-4fe1-bc64-7b443f2566f2"},"vehicle_type_id":"4","last_reported":1714547285,"current_range_meters":30000,"station_id":"ce4bhnp2rcd13ifvqgvg","pricing_plan_id":"cebpf4jnsgd1na2vs0mg"},{"bike_id":"b32e4c00-a2f6-4015-bc61-cf942b8dae5e","system_id":"levelo_inurba_marseille","lat":43.30304,"lon":5.368987,"is_reserved":false,"is_disabled":false,"rental_uris":{"android":"levelo://app?vid=b32e4c00-a2f6-4015-bc61-cf942b8dae5e","ios":"levelo://app?vid=b32e4c00-a2f6-4015-bc61-cf942b8dae5e"},"vehicle_type_id":"4","last_reported":1714547285,"current_range_meters":31200,"station_id":"ce4bgqh2rcd13ifvqc5g","pricing_plan_id":"cebpf4jnsgd1na2vs0mg"},{"bike_id":"3d8114a3-420e-46e3-9cce-b45185081535","system_id":"levelo_inurba_marseille","lat":43.303046,"lon":5.368981,"is_reserved":false,"is_disabled":false,"rental_uris":{"android":"levelo://app?vid=3d8114a3-420e-46e3-9cce-b45185081535","ios":"levelo://app?vid=3d8114a3-420e-46e3-9cce-b45185081535"},"vehicle_type_id":"4","last_reported":1714547285,"current_range_meters":22400,"station_id":"ce4bgqh2rcd13ifvqc5g","pricing_plan_id":"cebpf4jnsgd1na2vs0mg"},{"bike_id":"ccb7cc67-7a49-4cd6-ae4a-7868dcb068e0","system_id":"levelo_inurba_marseille","lat":43.303046,"lon":5.368981,"is_reserved":false,"is_disabled":false,"rental_uris":{"android":"levelo://app?vid=ccb7cc67-7a49-4cd6-ae4a-7868dcb068e0","ios":"levelo://app?vid=ccb7cc67-7a49-4cd6-ae4a-7868dcb068e0"},"vehicle_type_id":"4","last_reported":1714547285,"current_range_meters":4800,"station_id":"ce4bgqh2rcd13ifvqc5g","pricing_plan_id":"cebpf4jnsgd1na2vs0mg"},{"bike_id":"4593f9d5-9301-4bdc-bd27-9e38399209b8","system_id":"levelo_inurba_marseille","lat":43.315289,"lon":5.380349,"is_reserved":false,"is_disabled":false,"rental_uris":{"android":"levelo://app?vid=4593f9d5-9301-4bdc-bd27-9e38399209b8","ios":"levelo://app?vid=4593f9d5-9301-4bdc-bd27-9e38399209b8"},"vehicle_type_id":"4","last_reported":1714547285,"current_range_meters":6800,"station_id":"ce4bhsp2rcd13ifvqi50","pricing_plan_id":"cebpf4jnsgd1na2vs0mg"},{"bike_id":"f54a6613-6733-4b94-a238-9cc58e2396ec","system_id":"levelo_inurba_marseille","lat":43.315289,"lon":5.380349,"is_reserved":false,"is_disabled":false,"rental_uris":{"android":"levelo://app?vid=f54a6613-6733-4b94-a238-9cc58e2396ec","ios":"levelo://app?vid=f54a6613-6733-4b94-a238-9cc58e2396ec"},"vehicle_type_id":"4","last_reported":1714547285,"current_range_meters":31600,"station_id":"ce4bhsp2rcd13ifvqi50","pricing_plan_id":"cebpf4jnsgd1na2vs0mg"},{"bike_id":"9ead4b83-15a7-421a-a9fe-83221f3f0b5f","system_id":"levelo_inurba_marseille","lat":43.315293,"lon":5.380349,"is_reserved":false,"is_disabled":false,"rental_uris":{"android":"levelo://app?vid=9ead4b83-15a7-421a-a9fe-83221f3f0b5f","ios":"levelo://app?vid=9ead4b83-15a7-421a-a9fe-83221f3f0b5f"},"vehicle_type_id":"4","last_reported":1714547285,"current_range_meters":28400,"station_id":"ce4bhsp2rcd13ifvqi50","pricing_plan_id":"cebpf4jnsgd1na2vs0mg"},{"bike_id":"183af1fe-a5cd-4558-a770-d0985a6f786f","system_id":"levelo_inurba_marseille","lat":43.315293,"lon":5.380349,"is_reserved":false,"is_disabled":false,"rental_uris":{"android":"levelo://app?vid=183af1fe-a5cd-4558-a770-d0985a6f786f","ios":"levelo://app?vid=183af1fe-a5cd-4558-a770-d0985a6f786f"},"vehicle_type_id":"4","last_reported":1714547285,"current_range_meters":30400,"station_id":"ce4bhsp2rcd13ifvqi50","pricing_plan_id":"cebpf4jnsgd1na2vs0mg"},{"bike_id":"b450f621-4fd4-465b-98b8-556ee60d1190","system_id":"levelo_inurba_marseille","lat":43.301939,"lon":5.366286,"is_reserved":false,"is_disabled":false,"rental_uris":{"android":"levelo://app?vid=b450f621-4fd4-465b-98b8-556ee60d1190","ios":"levelo://app?vid=b450f621-4fd4-465b-98b8-556ee60d1190"},"vehicle_type_id":"4","last_reported":1714547285,"current_range_meters":19600,"station_id":"ce4bgrh2rcd13ifvqc8g","pricing_plan_id":"cebpf4jnsgd1na2vs0mg"},{"bike_id":"24c5e688-c380-4072-b712-0d50a8266f1e","system_id":"levelo_inurba_marseille","lat":43.301939,"lon":5.366286,"is_reserved":false,"is_disabled":false,"rental_uris":{"android":"levelo://app?vid=24c5e688-c380-4072-b712-0d50a8266f1e","ios":"levelo://app?vid=24c5e688-c380-4072-b712-0d50a8266f1e"},"vehicle_type_id":"4","last_reported":1714547285,"current_range_meters":31200,"station_id":"ce4bgrh2rcd13ifvqc8g","pricing_plan_id":"cebpf4jnsgd1na2vs0mg"},{"bike_id":"66f48671-1a80-4bf0-b7d2-5f86372a6c3d","system_id":"levelo_inurba_marseille","lat":43.301939,"lon":5.366286,"is_reserved":false,"is_disabled":false,"rental_uris":{"android":"levelo://app?vid=66f48671-1a80-4bf0-b7d2-5f86372a6c3d","ios":"levelo://app?vid=66f48671-1a80-4bf0-b7d2-5f86372a6c3d"},"vehicle_type_id":"4","last_reported":1714547285,"current_range_meters":28400,"station_id":"ce4bgrh2rcd13ifvqc8g","pricing_plan_id":"cebpf4jnsgd1na2vs0mg"},{"bike_id":"ebc5f2e4-2d70-420a-ae29-0a32a2f301f3","system_id":"levelo_inurba_marseille","lat":43.301939,"lon":5.366286,"is_reserved":false,"is_disabled":false,"rental_uris":{"android":"levelo://app?vid=ebc5f2e4-2d70-420a-ae29-0a32a2f301f3","ios":"levelo://app?vid=ebc5f2e4-2d70-420a-ae29-0a32a2f301f3"},"vehicle_type_id":"4","last_reported":1714547285,"current_range_meters":28400,"station_id":"ce4bgrh2rcd13ifvqc8g","pricing_plan_id":"cebpf4jnsgd1na2vs0mg"},{"bike_id":"dc0e342e-362c-417e-b509-5d6fca308124","system_id":"levelo_inurba_marseille","lat":43.308012,"lon":5.381511,"is_reserved":false,"is_disabled":false,"rental_uris":{"android":"levelo://app?vid=dc0e342e-362c-417e-b509-5d6fca308124","ios":"levelo://app?vid=dc0e342e-362c-417e-b509-5d6fca308124"},"vehicle_type_id":"4","last_reported":1714547285,"current_range_meters":31200,"station_id":"ce4bgt12rcd13ifvqce0","pricing_plan_id":"cebpf4jnsgd1na2vs0mg"},{"bike_id":"30123344-1aeb-40c2-82fc-4ba08c960bf3","system_id":"levelo_inurba_marseille","lat":43.308012,"lon":5.381511,"is_reserved":false,"is_disabled":false,"rental_uris":{"android":"levelo://app?vid=30123344-1aeb-40c2-82fc-4ba08c960bf3","ios":"levelo://app?vid=30123344-1aeb-40c2-82fc-4ba08c960bf3"},"vehicle_type_id":"4","last_reported":1714547285,"current_range_meters":29200,"station_id":"ce4bgt12rcd13ifvqce0","pricing_plan_id":"cebpf4jnsgd1na2vs0mg"},{"bike_id":"094a0ba9-704e-455c-98f1-5cb0be91cba2","system_id":"levelo_inurba_marseille","lat":43.308012,"lon":5.381511,"is_reserved":false,"is_disabled":false,"rental_uris":{"android":"levelo://app?vid=094a0ba9-704e-455c-98f1-5cb0be91cba2","ios":"levelo://app?vid=094a0ba9-704e-455c-98f1-5cb0be91cba2"},"vehicle_type_id":"4","last_reported":1714547285,"current_range_meters":22000,"station_id":"ce4bgt12rcd13ifvqce0","pricing_plan_id":"cebpf4jnsgd1na2vs0mg"},{"bike_id":"c55a336a-345b-4ec4-bd64-636dd6768ff2","system_id":"levelo_inurba_marseille","lat":43.308012,"lon":5.381511,"is_reserved":false,"is_disabled":false,"rental_uris":{"android":"levelo://app?vid=c55a336a-345b-4ec4-bd64-636dd6768ff2","ios":"levelo://app?vid=c55a336a-345b-4ec4-bd64-636dd6768ff2"},"vehicle_type_id":"4","last_reported":1714547285,"current_range_meters":19200,"station_id":"ce4bgt12rcd13ifvqce0","pricing_plan_id":"cebpf4jnsgd1na2vs0mg"},{"bike_id":"38e8f393-831d-4d88-81e3-f1394622b61e","system_id":"levelo_inurba_marseille","lat":43.308012,"lon":5.381511,"is_reserved":false,"is_disabled":false,"rental_uris":{"android":"levelo://app?vid=38e8f393-831d-4d88-81e3-f1394622b61e","ios":"levelo://app?vid=38e8f393-831d-4d88-81e3-f1394622b61e"},"vehicle_type_id":"4","last_reported":1714547285,"current_range_meters":22800,"station_id":"ce4bgt12rcd13ifvqce0","pricing_plan_id":"cebpf4jnsgd1na2vs0mg"},{"bike_id":"6be39645-1f86-4356-9ccc-8df11f80e6c9","system_id":"levelo_inurba_marseille","lat":43.308012,"lon":5.381511,"is_reserved":false,"is_disabled":false,"rental_uris":{"android":"levelo://app?vid=6be39645-1f86-4356-9ccc-8df11f80e6c9","ios":"levelo://app?vid=6be39645-1f86-4356-9ccc-8df11f80e6c9"},"vehicle_type_id":"4","last_reported":1714547285,"current_range_meters":29200,"station_id":"ce4bgt12rcd13ifvqce0","pricing_plan_id":"cebpf4jnsgd1na2vs0mg"},{"bike_id":"c43df270-69e6-4499-bdd4-214ad35bccf0","system_id":"levelo_inurba_marseille","lat":43.308012,"lon":5.381511,"is_reserved":false,"is_disabled":false,"rental_uris":{"android":"levelo://app?vid=c43df270-69e6-4499-bdd4-214ad35bccf0","ios":"levelo://app?vid=c43df270-69e6-4499-bdd4-214ad35bccf0"},"vehicle_type_id":"4","last_reported":1714547285,"current_range_meters":11600,"station_id":"ce4bgt12rcd13ifvqce0","pricing_plan_id":"cebpf4jnsgd1na2vs0mg"},{"bike_id":"353e12b0-4342-40df-b34e-f2b7c00876fb","system_id":"levelo_inurba_marseille","lat":43.308012,"lon":5.381511,"is_reserved":false,"is_disabled":false,"rental_uris":{"android":"levelo://app?vid=353e12b0-4342-40df-b34e-f2b7c00876fb","ios":"levelo://app?vid=353e12b0-4342-40df-b34e-f2b7c00876fb"},"vehicle_type_id":"4","last_reported":1714547285,"current_range_meters":30000,"station_id":"ce4bgt12rcd13ifvqce0","pricing_plan_id":"cebpf4jnsgd1na2vs0mg"},{"bike_id":"f71c330f-72fb-4ec2-9b08-bcc75a18186f","system_id":"levelo_inurba_marseille","lat":43.308012,"lon":5.381511,"is_reserved":false,"is_disabled":false,"rental_uris":{"android":"levelo://app?vid=f71c330f-72fb-4ec2-9b08-bcc75a18186f","ios":"levelo://app?vid=f71c330f-72fb-4ec2-9b08-bcc75a18186f"},"vehicle_type_id":"4","last_reported":1714547285,"current_range_meters":11600,"station_id":"ce4bgt12rcd13ifvqce0","pricing_plan_id":"cebpf4jnsgd1na2vs0mg"},{"bike_id":"28bdb82f-2f03-4a3c-80ac-9f1ebc0c4ae2","system_id":"levelo_inurba_marseille","lat":43.308012,"lon":5.381511,"is_reserved":false,"is_disabled":false,"rental_uris":{"android":"levelo://app?vid=28bdb82f-2f03-4a3c-80ac-9f1ebc0c4ae2","ios":"levelo://app?vid=28bdb82f-2f03-4a3c-80ac-9f1ebc0c4ae2"},"vehicle_type_id":"4","last_reported":1714547285,"current_range_meters":28400,"station_id":"ce4bgt12rcd13ifvqce0","pricing_plan_id":"cebpf4jnsgd1na2vs0mg"},{"bike_id":"f594aba6-5956-420b-960b-6db9b12d1b36","system_id":"levelo_inurba_marseille","lat":43.308012,"lon":5.381511,"is_reserved":false,"is_disabled":false,"rental_uris":{"android":"levelo://app?vid=f594aba6-5956-420b-960b-6db9b12d1b36","ios":"levelo://app?vid=f594aba6-5956-420b-960b-6db9b12d1b36"},"vehicle_type_id":"4","last_reported":1714547285,"current_range_meters":22400,"station_id":"ce4bgt12rcd13ifvqce0","pricing_plan_id":"cebpf4jnsgd1na2vs0mg"},{"bike_id":"e04c034f-1b17-4a76-a455-64a6f80bff84","system_id":"levelo_inurba_marseille","lat":43.304606,"lon":5.379026,"is_reserved":false,"is_disabled":false,"rental_uris":{"android":"levelo://app?vid=e04c034f-1b17-4a76-a455-64a6f80bff84","ios":"levelo://app?vid=e04c034f-1b17-4a76-a455-64a6f80bff84"},"vehicle_type_id":"4","last_reported":1714547285,"current_range_meters":9200,"station_id":"ce4bgup2rcd13ifvqcn0","pricing_plan_id":"cebpf4jnsgd1na2vs0mg"},{"bike_id":"48b929d2-e3df-404d-820d-793f9abd15f1","system_id":"levelo_inurba_marseille","lat":43.304606,"lon":5.379026,"is_reserved":false,"is_disabled":false,"rental_uris":{"android":"levelo://app?vid=48b929d2-e3df-404d-820d-793f9abd15f1","ios":"levelo://app?vid=48b929d2-e3df-404d-820d-793f9abd15f1"},"vehicle_type_id":"4","last_reported":1714547285,"current_range_meters":30000,"station_id":"ce4bgup2rcd13ifvqcn0","pricing_plan_id":"cebpf4jnsgd1na2vs0mg"},{"bike_id":"6a6f71cb-1a69-4c76-92f4-7c1e3ae9897c","system_id":"levelo_inurba_marseille","lat":43.304606,"lon":5.379026,"is_reserved":false,"is_disabled":false,"rental_uris":{"android":"levelo://app?vid=6a6f71cb-1a69-4c76-92f4-7c1e3ae9897c","ios":"levelo://app?vid=6a6f71cb-1a69-4c76-92f4-7c1e3ae9897c"},"vehicle_type_id":"4","last_reported":1714547285,"current_range_meters":22000,"station_id":"ce4bgup2rcd13ifvqcn0","pricing_plan_id":"cebpf4jnsgd1na2vs0mg"},{"bike_id":"a2c062aa-e037-49d5-bfe9-71d9ba3a2ae5","system_id":"levelo_inurba_marseille","lat":43.304606,"lon":5.379026,"is_reserved":false,"is_disabled":false,"rental_uris":{"android":"levelo://app?vid=a2c062aa-e037-49d5-bfe9-71d9ba3a2ae5","ios":"levelo://app?vid=a2c062aa-e037-49d5-bfe9-71d9ba3a2ae5"},"vehicle_type_id":"4","last_reported":1714547285,"current_range_meters":26000,"station_id":"ce4bgup2rcd13ifvqcn0","pricing_plan_id":"cebpf4jnsgd1na2vs0mg"},{"bike_id":"672309a1-679a-42d4-8c5f-40865aa4059b","system_id":"levelo_inurba_marseille","lat":43.304606,"lon":5.379026,"is_reserved":false,"is_disabled":false,"rental_uris":{"android":"levelo://app?vid=672309a1-679a-42d4-8c5f-40865aa4059b","ios":"levelo://app?vid=672309a1-679a-42d4-8c5f-40865aa4059b"},"vehicle_type_id":"4","last_reported":1714547285,"current_range_meters":23200,"station_id":"ce4bgup2rcd13ifvqcn0","pricing_plan_id":"cebpf4jnsgd1na2vs0mg"},{"bike_id":"8a62af9a-2a8d-4f3c-b563-ddb2df53a4b2","system_id":"levelo_inurba_marseille","lat":43.304606,"lon":5.379026,"is_reserved":false,"is_disabled":false,"rental_uris":{"android":"levelo://app?vid=8a62af9a-2a8d-4f3c-b563-ddb2df53a4b2","ios":"levelo://app?vid=8a62af9a-2a8d-4f3c-b563-ddb2df53a4b2"},"vehicle_type_id":"4","last_reported":1714547285,"current_range_meters":25200,"station_id":"ce4bgup2rcd13ifvqcn0","pricing_plan_id":"cebpf4jnsgd1na2vs0mg"},{"bike_id":"e5c5d40d-ddb9-45af-a363-1283403827e8","system_id":"levelo_inurba_marseille","lat":43.304606,"lon":5.379026,"is_reserved":false,"is_disabled":false,"rental_uris":{"android":"levelo://app?vid=e5c5d40d-ddb9-45af-a363-1283403827e8","ios":"levelo://app?vid=e5c5d40d-ddb9-45af-a363-1283403827e8"},"vehicle_type_id":"4","last_reported":1714547285,"current_range_meters":18800,"station_id":"ce4bgup2rcd13ifvqcn0","pricing_plan_id":"cebpf4jnsgd1na2vs0mg"},{"bike_id":"fae3462d-abd6-43dc-a658-b3919568d708","system_id":"levelo_inurba_marseille","lat":43.304606,"lon":5.379026,"is_reserved":false,"is_disabled":false,"rental_uris":{"android":"levelo://app?vid=fae3462d-abd6-43dc-a658-b3919568d708","ios":"levelo://app?vid=fae3462d-abd6-43dc-a658-b3919568d708"},"vehicle_type_id":"4","last_reported":1714547285,"current_range_meters":20400,"station_id":"ce4bgup2rcd13ifvqcn0","pricing_plan_id":"cebpf4jnsgd1na2vs0mg"},{"bike_id":"3fafe9df-2f59-4db7-b205-2990c7720223","system_id":"levelo_inurba_marseille","lat":43.304606,"lon":5.379026,"is_reserved":false,"is_disabled":false,"rental_uris":{"android":"levelo://app?vid=3fafe9df-2f59-4db7-b205-2990c7720223","ios":"levelo://app?vid=3fafe9df-2f59-4db7-b205-2990c7720223"},"vehicle_type_id":"4","last_reported":1714547285,"current_range_meters":26000,"station_id":"ce4bgup2rcd13ifvqcn0","pricing_plan_id":"cebpf4jnsgd1na2vs0mg"},{"bike_id":"2d745f19-9e6f-407d-8030-70a535b6c69a","system_id":"levelo_inurba_marseille","lat":43.304606,"lon":5.379026,"is_reserved":false,"is_disabled":false,"rental_uris":{"android":"levelo://app?vid=2d745f19-9e6f-407d-8030-70a535b6c69a","ios":"levelo://app?vid=2d745f19-9e6f-407d-8030-70a535b6c69a"},"vehicle_type_id":"4","last_reported":1714547285,"current_range_meters":14800,"station_id":"ce4bgup2rcd13ifvqcn0","pricing_plan_id":"cebpf4jnsgd1na2vs0mg"},{"bike_id":"e388f8a0-44d0-4852-a05b-72f14bf30e14","system_id":"levelo_inurba_marseille","lat":43.304606,"lon":5.379026,"is_reserved":false,"is_disabled":false,"rental_uris":{"android":"levelo://app?vid=e388f8a0-44d0-4852-a05b-72f14bf30e14","ios":"levelo://app?vid=e388f8a0-44d0-4852-a05b-72f14bf30e14"},"vehicle_type_id":"4","last_reported":1714547285,"current_range_meters":9200,"station_id":"ce4bgup2rcd13ifvqcn0","pricing_plan_id":"cebpf4jnsgd1na2vs0mg"},{"bike_id":"aff14827-7060-4c86-96fa-b4c198503bed","system_id":"levelo_inurba_marseille","lat":43.304606,"lon":5.379026,"is_reserved":false,"is_disabled":false,"rental_uris":{"android":"levelo://app?vid=aff14827-7060-4c86-96fa-b4c198503bed","ios":"levelo://app?vid=aff14827-7060-4c86-96fa-b4c198503bed"},"vehicle_type_id":"4","last_reported":1714547285,"current_range_meters":21600,"station_id":"ce4bgup2rcd13ifvqcn0","pricing_plan_id":"cebpf4jnsgd1na2vs0mg"},{"bike_id":"937a6bbc-5fb5-47f2-8fb4-743a833a38c3","system_id":"levelo_inurba_marseille","lat":43.304606,"lon":5.379026,"is_reserved":false,"is_disabled":false,"rental_uris":{"android":"levelo://app?vid=937a6bbc-5fb5-47f2-8fb4-743a833a38c3","ios":"levelo://app?vid=937a6bbc-5fb5-47f2-8fb4-743a833a38c3"},"vehicle_type_id":"4","last_reported":1714547285,"current_range_meters":19600,"station_id":"ce4bgup2rcd13ifvqcn0","pricing_plan_id":"cebpf4jnsgd1na2vs0mg"},{"bike_id":"eecea67d-ad2a-4bcf-8cf6-35f7776ac9c9","system_id":"levelo_inurba_marseille","lat":43.304606,"lon":5.379026,"is_reserved":false,"is_disabled":false,"rental_uris":{"android":"levelo://app?vid=eecea67d-ad2a-4bcf-8cf6-35f7776ac9c9","ios":"levelo://app?vid=eecea67d-ad2a-4bcf-8cf6-35f7776ac9c9"},"vehicle_type_id":"4","last_reported":1714547285,"current_range_meters":23200,"station_id":"ce4bgup2rcd13ifvqcn0","pricing_plan_id":"cebpf4jnsgd1na2vs0mg"},{"bike_id":"505c9fc0-49c3-4c39-ab88-1ba2555dbf58","system_id":"levelo_inurba_marseille","lat":43.32471,"lon":5.36561,"is_reserved":false,"is_disabled":false,"rental_uris":{"android":"levelo://app?vid=505c9fc0-49c3-4c39-ab88-1ba2555dbf58","ios":"levelo://app?vid=505c9fc0-49c3-4c39-ab88-1ba2555dbf58"},"vehicle_type_id":"4","last_reported":1714547285,"current_range_meters":8400,"station_id":"ce4bhs12rcd13ifvqhvg","pricing_plan_id":"cebpf4jnsgd1na2vs0mg"},{"bike_id":"51beea3e-599d-44cf-a7a6-779160b7eec5","system_id":"levelo_inurba_marseille","lat":43.3247,"lon":5.36544,"is_reserved":false,"is_disabled":false,"rental_uris":{"android":"levelo://app?vid=51beea3e-599d-44cf-a7a6-779160b7eec5","ios":"levelo://app?vid=51beea3e-599d-44cf-a7a6-779160b7eec5"},"vehicle_type_id":"4","last_reported":1714547285,"current_range_meters":15600,"station_id":"ce4bhs12rcd13ifvqhvg","pricing_plan_id":"cebpf4jnsgd1na2vs0mg"},{"bike_id":"6986dc06-43a5-42db-b0d6-8b40c69beb15","system_id":"levelo_inurba_marseille","lat":43.304606,"lon":5.379026,"is_reserved":false,"is_disabled":false,"rental_uris":{"android":"levelo://app?vid=6986dc06-43a5-42db-b0d6-8b40c69beb15","ios":"levelo://app?vid=6986dc06-43a5-42db-b0d6-8b40c69beb15"},"vehicle_type_id":"4","last_reported":1714547285,"current_range_meters":14800,"station_id":"ce4bgup2rcd13ifvqcn0","pricing_plan_id":"cebpf4jnsgd1na2vs0mg"},{"bike_id":"8c92d843-6754-4ba3-96e0-b8996e5542b0","system_id":"levelo_inurba_marseille","lat":43.304606,"lon":5.379026,"is_reserved":false,"is_disabled":false,"rental_uris":{"android":"levelo://app?vid=8c92d843-6754-4ba3-96e0-b8996e5542b0","ios":"levelo://app?vid=8c92d843-6754-4ba3-96e0-b8996e5542b0"},"vehicle_type_id":"4","last_reported":1714547285,"current_range_meters":28000,"station_id":"ce4bgup2rcd13ifvqcn0","pricing_plan_id":"cebpf4jnsgd1na2vs0mg"},{"bike_id":"00012da4-ad03-4020-bdd6-54b780983417","system_id":"levelo_inurba_marseille","lat":43.304606,"lon":5.379026,"is_reserved":false,"is_disabled":false,"rental_uris":{"android":"levelo://app?vid=00012da4-ad03-4020-bdd6-54b780983417","ios":"levelo://app?vid=00012da4-ad03-4020-bdd6-54b780983417"},"vehicle_type_id":"4","last_reported":1714547285,"current_range_meters":24400,"station_id":"ce4bgup2rcd13ifvqcn0","pricing_plan_id":"cebpf4jnsgd1na2vs0mg"},{"bike_id":"54ff3747-2e88-412b-8960-f92786ea26ff","system_id":"levelo_inurba_marseille","lat":43.304606,"lon":5.379026,"is_reserved":false,"is_disabled":false,"rental_uris":{"android":"levelo://app?vid=54ff3747-2e88-412b-8960-f92786ea26ff","ios":"levelo://app?vid=54ff3747-2e88-412b-8960-f92786ea26ff"},"vehicle_type_id":"4","last_reported":1714547285,"current_range_meters":19600,"station_id":"ce4bgup2rcd13ifvqcn0","pricing_plan_id":"cebpf4jnsgd1na2vs0mg"},{"bike_id":"61f148c8-a6cf-400a-a852-48aa57397481","system_id":"levelo_inurba_marseille","lat":43.304606,"lon":5.379026,"is_reserved":false,"is_disabled":false,"rental_uris":{"android":"levelo://app?vid=61f148c8-a6cf-400a-a852-48aa57397481","ios":"levelo://app?vid=61f148c8-a6cf-400a-a852-48aa57397481"},"vehicle_type_id":"4","last_reported":1714547285,"current_range_meters":12000,"station_id":"ce4bgup2rcd13ifvqcn0","pricing_plan_id":"cebpf4jnsgd1na2vs0mg"},{"bike_id":"b7e1812b-71b7-413a-9761-bc07c6cc1d8b","system_id":"levelo_inurba_marseille","lat":43.304606,"lon":5.379026,"is_reserved":false,"is_disabled":false,"rental_uris":{"android":"levelo://app?vid=b7e1812b-71b7-413a-9761-bc07c6cc1d8b","ios":"levelo://app?vid=b7e1812b-71b7-413a-9761-bc07c6cc1d8b"},"vehicle_type_id":"4","last_reported":1714547285,"current_range_meters":24000,"station_id":"ce4bgup2rcd13ifvqcn0","pricing_plan_id":"cebpf4jnsgd1na2vs0mg"},{"bike_id":"fcab24df-3f6f-4d4b-bd8a-d05f3044a43e","system_id":"levelo_inurba_marseille","lat":43.304606,"lon":5.379026,"is_reserved":false,"is_disabled":false,"rental_uris":{"android":"levelo://app?vid=fcab24df-3f6f-4d4b-bd8a-d05f3044a43e","ios":"levelo://app?vid=fcab24df-3f6f-4d4b-bd8a-d05f3044a43e"},"vehicle_type_id":"4","last_reported":1714547285,"current_range_meters":21600,"station_id":"ce4bgup2rcd13ifvqcn0","pricing_plan_id":"cebpf4jnsgd1na2vs0mg"},{"bike_id":"8353cd72-197c-4022-9834-68b875253910","system_id":"levelo_inurba_marseille","lat":43.304606,"lon":5.379026,"is_reserved":false,"is_disabled":false,"rental_uris":{"android":"levelo://app?vid=8353cd72-197c-4022-9834-68b875253910","ios":"levelo://app?vid=8353cd72-197c-4022-9834-68b875253910"},"vehicle_type_id":"4","last_reported":1714547285,"current_range_meters":6800,"station_id":"ce4bgup2rcd13ifvqcn0","pricing_plan_id":"cebpf4jnsgd1na2vs0mg"},{"bike_id":"0ed9891a-a5e6-4cd3-8617-f2559f9ec675","system_id":"levelo_inurba_marseille","lat":43.304606,"lon":5.379026,"is_reserved":false,"is_disabled":false,"rental_uris":{"android":"levelo://app?vid=0ed9891a-a5e6-4cd3-8617-f2559f9ec675","ios":"levelo://app?vid=0ed9891a-a5e6-4cd3-8617-f2559f9ec675"},"vehicle_type_id":"4","last_reported":1714547285,"current_range_meters":9600,"station_id":"ce4bgup2rcd13ifvqcn0","pricing_plan_id":"cebpf4jnsgd1na2vs0mg"},{"bike_id":"19ae5a57-6375-4c97-a582-22f32a84cff6","system_id":"levelo_inurba_marseille","lat":43.304606,"lon":5.379026,"is_reserved":false,"is_disabled":false,"rental_uris":{"android":"levelo://app?vid=19ae5a57-6375-4c97-a582-22f32a84cff6","ios":"levelo://app?vid=19ae5a57-6375-4c97-a582-22f32a84cff6"},"vehicle_type_id":"4","last_reported":1714547285,"current_range_meters":26000,"station_id":"ce4bgup2rcd13ifvqcn0","pricing_plan_id":"cebpf4jnsgd1na2vs0mg"},{"bike_id":"d68c6a04-97b9-446b-af52-1bf9a27f07c4","system_id":"levelo_inurba_marseille","lat":43.304606,"lon":5.379026,"is_reserved":false,"is_disabled":false,"rental_uris":{"android":"levelo://app?vid=d68c6a04-97b9-446b-af52-1bf9a27f07c4","ios":"levelo://app?vid=d68c6a04-97b9-446b-af52-1bf9a27f07c4"},"vehicle_type_id":"4","last_reported":1714547285,"current_range_meters":24800,"station_id":"ce4bgup2rcd13ifvqcn0","pricing_plan_id":"cebpf4jnsgd1na2vs0mg"},{"bike_id":"fca0512a-e514-43b3-a37e-665741369b77","system_id":"levelo_inurba_marseille","lat":43.324771,"lon":5.36557,"is_reserved":false,"is_disabled":false,"rental_uris":{"android":"levelo://app?vid=fca0512a-e514-43b3-a37e-665741369b77","ios":"levelo://app?vid=fca0512a-e514-43b3-a37e-665741369b77"},"vehicle_type_id":"4","last_reported":1714547285,"current_range_meters":15600,"station_id":"ce4bhs12rcd13ifvqhvg","pricing_plan_id":"cebpf4jnsgd1na2vs0mg"},{"bike_id":"4e680965-942b-4ddb-b8d8-b7d421ae5290","system_id":"levelo_inurba_marseille","lat":43.304606,"lon":5.379026,"is_reserved":false,"is_disabled":false,"rental_uris":{"android":"levelo://app?vid=4e680965-942b-4ddb-b8d8-b7d421ae5290","ios":"levelo://app?vid=4e680965-942b-4ddb-b8d8-b7d421ae5290"},"vehicle_type_id":"4","last_reported":1714547285,"current_range_meters":24000,"station_id":"ce4bgup2rcd13ifvqcn0","pricing_plan_id":"cebpf4jnsgd1na2vs0mg"},{"bike_id":"dca0d2d9-9a9e-44e2-aee1-97d83fc307e1","system_id":"levelo_inurba_marseille","lat":43.304606,"lon":5.379026,"is_reserved":false,"is_disabled":false,"rental_uris":{"android":"levelo://app?vid=dca0d2d9-9a9e-44e2-aee1-97d83fc307e1","ios":"levelo://app?vid=dca0d2d9-9a9e-44e2-aee1-97d83fc307e1"},"vehicle_type_id":"4","last_reported":1714547285,"current_range_meters":10000,"station_id":"ce4bgup2rcd13ifvqcn0","pricing_plan_id":"cebpf4jnsgd1na2vs0mg"},{"bike_id":"9ff0830f-e0f2-4f56-8687-5dd0c71549f1","system_id":"levelo_inurba_marseille","lat":43.324757,"lon":5.365593,"is_reserved":false,"is_disabled":false,"rental_uris":{"android":"levelo://app?vid=9ff0830f-e0f2-4f56-8687-5dd0c71549f1","ios":"levelo://app?vid=9ff0830f-e0f2-4f56-8687-5dd0c71549f1"},"vehicle_type_id":"4","last_reported":1714547285,"current_range_meters":27600,"station_id":"ce4bhs12rcd13ifvqhvg","pricing_plan_id":"cebpf4jnsgd1na2vs0mg"},{"bike_id":"53a42792-564b-4387-ae2b-32c476faacb4","system_id":"levelo_inurba_marseille","lat":43.304606,"lon":5.379026,"is_reserved":false,"is_disabled":false,"rental_uris":{"android":"levelo://app?vid=53a42792-564b-4387-ae2b-32c476faacb4","ios":"levelo://app?vid=53a42792-564b-4387-ae2b-32c476faacb4"},"vehicle_type_id":"4","last_reported":1714547285,"current_range_meters":20400,"station_id":"ce4bgup2rcd13ifvqcn0","pricing_plan_id":"cebpf4jnsgd1na2vs0mg"},{"bike_id":"d590a500-ea74-49d7-9ef4-2e59ad632601","system_id":"levelo_inurba_marseille","lat":43.304606,"lon":5.379026,"is_reserved":false,"is_disabled":false,"rental_uris":{"android":"levelo://app?vid=d590a500-ea74-49d7-9ef4-2e59ad632601","ios":"levelo://app?vid=d590a500-ea74-49d7-9ef4-2e59ad632601"},"vehicle_type_id":"4","last_reported":1714547285,"current_range_meters":30800,"station_id":"ce4bgup2rcd13ifvqcn0","pricing_plan_id":"cebpf4jnsgd1na2vs0mg"},{"bike_id":"d689d75b-2503-4c26-a0fd-e4e182d9b314","system_id":"levelo_inurba_marseille","lat":43.32477,"lon":5.365672,"is_reserved":false,"is_disabled":false,"rental_uris":{"android":"levelo://app?vid=d689d75b-2503-4c26-a0fd-e4e182d9b314","ios":"levelo://app?vid=d689d75b-2503-4c26-a0fd-e4e182d9b314"},"vehicle_type_id":"4","last_reported":1714547285,"current_range_meters":10400,"station_id":"ce4bhs12rcd13ifvqhvg","pricing_plan_id":"cebpf4jnsgd1na2vs0mg"},{"bike_id":"0a4a6ca4-0474-4f68-b089-af26c0c8b25a","system_id":"levelo_inurba_marseille","lat":43.324771,"lon":5.36557,"is_reserved":false,"is_disabled":false,"rental_uris":{"android":"levelo://app?vid=0a4a6ca4-0474-4f68-b089-af26c0c8b25a","ios":"levelo://app?vid=0a4a6ca4-0474-4f68-b089-af26c0c8b25a"},"vehicle_type_id":"4","last_reported":1714547285,"current_range_meters":17200,"station_id":"ce4bhs12rcd13ifvqhvg","pricing_plan_id":"cebpf4jnsgd1na2vs0mg"},{"bike_id":"775b5193-55cb-42f1-b0fa-acd6f40ef433","system_id":"levelo_inurba_marseille","lat":43.324771,"lon":5.36557,"is_reserved":false,"is_disabled":false,"rental_uris":{"android":"levelo://app?vid=775b5193-55cb-42f1-b0fa-acd6f40ef433","ios":"levelo://app?vid=775b5193-55cb-42f1-b0fa-acd6f40ef433"},"vehicle_type_id":"4","last_reported":1714547285,"current_range_meters":26800,"station_id":"ce4bhs12rcd13ifvqhvg","pricing_plan_id":"cebpf4jnsgd1na2vs0mg"},{"bike_id":"4a8ec3cb-d1f2-496e-bf5b-edd6fc6922c4","system_id":"levelo_inurba_marseille","lat":43.32478,"lon":5.36561,"is_reserved":false,"is_disabled":false,"rental_uris":{"android":"levelo://app?vid=4a8ec3cb-d1f2-496e-bf5b-edd6fc6922c4","ios":"levelo://app?vid=4a8ec3cb-d1f2-496e-bf5b-edd6fc6922c4"},"vehicle_type_id":"4","last_reported":1714547285,"current_range_meters":18000,"station_id":"ce4bhs12rcd13ifvqhvg","pricing_plan_id":"cebpf4jnsgd1na2vs0mg"},{"bike_id":"99e68b43-a3a0-451a-a7e1-fd786ef49874","system_id":"levelo_inurba_marseille","lat":43.304606,"lon":5.379026,"is_reserved":false,"is_disabled":false,"rental_uris":{"android":"levelo://app?vid=99e68b43-a3a0-451a-a7e1-fd786ef49874","ios":"levelo://app?vid=99e68b43-a3a0-451a-a7e1-fd786ef49874"},"vehicle_type_id":"4","last_reported":1714547285,"current_range_meters":24000,"station_id":"ce4bgup2rcd13ifvqcn0","pricing_plan_id":"cebpf4jnsgd1na2vs0mg"},{"bike_id":"1c6723bb-7861-4c75-a149-5251883718a7","system_id":"levelo_inurba_marseille","lat":43.324783,"lon":5.365633,"is_reserved":false,"is_disabled":false,"rental_uris":{"android":"levelo://app?vid=1c6723bb-7861-4c75-a149-5251883718a7","ios":"levelo://app?vid=1c6723bb-7861-4c75-a149-5251883718a7"},"vehicle_type_id":"4","last_reported":1714547285,"current_range_meters":29600,"station_id":"ce4bhs12rcd13ifvqhvg","pricing_plan_id":"cebpf4jnsgd1na2vs0mg"},{"bike_id":"1c9411c0-d42f-4c9c-954b-623621242b42","system_id":"levelo_inurba_marseille","lat":43.324771,"lon":5.36557,"is_reserved":false,"is_disabled":false,"rental_uris":{"android":"levelo://app?vid=1c9411c0-d42f-4c9c-954b-623621242b42","ios":"levelo://app?vid=1c9411c0-d42f-4c9c-954b-623621242b42"},"vehicle_type_id":"4","last_reported":1714547285,"current_range_meters":11200,"station_id":"ce4bhs12rcd13ifvqhvg","pricing_plan_id":"cebpf4jnsgd1na2vs0mg"},{"bike_id":"b542f8ad-0de0-40a1-9ef7-53b385381a12","system_id":"levelo_inurba_marseille","lat":43.324771,"lon":5.36557,"is_reserved":false,"is_disabled":false,"rental_uris":{"android":"levelo://app?vid=b542f8ad-0de0-40a1-9ef7-53b385381a12","ios":"levelo://app?vid=b542f8ad-0de0-40a1-9ef7-53b385381a12"},"vehicle_type_id":"4","last_reported":1714547285,"current_range_meters":5600,"station_id":"ce4bhs12rcd13ifvqhvg","pricing_plan_id":"cebpf4jnsgd1na2vs0mg"},{"bike_id":"ec9ad42d-7bf5-43ef-a2cf-ce73f78031d9","system_id":"levelo_inurba_marseille","lat":43.324771,"lon":5.36557,"is_reserved":false,"is_disabled":false,"rental_uris":{"android":"levelo://app?vid=ec9ad42d-7bf5-43ef-a2cf-ce73f78031d9","ios":"levelo://app?vid=ec9ad42d-7bf5-43ef-a2cf-ce73f78031d9"},"vehicle_type_id":"4","last_reported":1714547285,"current_range_meters":5600,"station_id":"ce4bhs12rcd13ifvqhvg","pricing_plan_id":"cebpf4jnsgd1na2vs0mg"},{"bike_id":"263ddf92-f97b-4bde-af65-350aba08e4ca","system_id":"levelo_inurba_marseille","lat":43.324771,"lon":5.36557,"is_reserved":false,"is_disabled":false,"rental_uris":{"android":"levelo://app?vid=263ddf92-f97b-4bde-af65-350aba08e4ca","ios":"levelo://app?vid=263ddf92-f97b-4bde-af65-350aba08e4ca"},"vehicle_type_id":"4","last_reported":1714547285,"current_range_meters":8800,"station_id":"ce4bhs12rcd13ifvqhvg","pricing_plan_id":"cebpf4jnsgd1na2vs0mg"},{"bike_id":"b22ab42e-8a3a-4ec7-97c5-d3fb72660fea","system_id":"levelo_inurba_marseille","lat":43.32479,"lon":5.36562,"is_reserved":false,"is_disabled":false,"rental_uris":{"android":"levelo://app?vid=b22ab42e-8a3a-4ec7-97c5-d3fb72660fea","ios":"levelo://app?vid=b22ab42e-8a3a-4ec7-97c5-d3fb72660fea"},"vehicle_type_id":"4","last_reported":1714547285,"current_range_meters":3600,"station_id":"ce4bhs12rcd13ifvqhvg","pricing_plan_id":"cebpf4jnsgd1na2vs0mg"},{"bike_id":"7a10f6e8-8083-4b57-a90f-541d4663b3eb","system_id":"levelo_inurba_marseille","lat":43.324771,"lon":5.36557,"is_reserved":false,"is_disabled":false,"rental_uris":{"android":"levelo://app?vid=7a10f6e8-8083-4b57-a90f-541d4663b3eb","ios":"levelo://app?vid=7a10f6e8-8083-4b57-a90f-541d4663b3eb"},"vehicle_type_id":"4","last_reported":1714547285,"current_range_meters":13200,"station_id":"ce4bhs12rcd13ifvqhvg","pricing_plan_id":"cebpf4jnsgd1na2vs0mg"},{"bike_id":"e560c9f7-9a68-4c7c-a574-1ae51de44590","system_id":"levelo_inurba_marseille","lat":43.324771,"lon":5.36557,"is_reserved":false,"is_disabled":false,"rental_uris":{"android":"levelo://app?vid=e560c9f7-9a68-4c7c-a574-1ae51de44590","ios":"levelo://app?vid=e560c9f7-9a68-4c7c-a574-1ae51de44590"},"vehicle_type_id":"4","last_reported":1714547285,"current_range_meters":6400,"station_id":"ce4bhs12rcd13ifvqhvg","pricing_plan_id":"cebpf4jnsgd1na2vs0mg"},{"bike_id":"b21ae7ee-dd87-4fb7-a859-109931d2977d","system_id":"levelo_inurba_marseille","lat":43.3248,"lon":5.3656,"is_reserved":false,"is_disabled":false,"rental_uris":{"android":"levelo://app?vid=b21ae7ee-dd87-4fb7-a859-109931d2977d","ios":"levelo://app?vid=b21ae7ee-dd87-4fb7-a859-109931d2977d"},"vehicle_type_id":"4","last_reported":1714547285,"current_range_meters":12400,"station_id":"ce4bhs12rcd13ifvqhvg","pricing_plan_id":"cebpf4jnsgd1na2vs0mg"},{"bike_id":"20ee36ab-83ec-4fcb-9465-adbceb8bedfc","system_id":"levelo_inurba_marseille","lat":43.324771,"lon":5.36557,"is_reserved":false,"is_disabled":false,"rental_uris":{"android":"levelo://app?vid=20ee36ab-83ec-4fcb-9465-adbceb8bedfc","ios":"levelo://app?vid=20ee36ab-83ec-4fcb-9465-adbceb8bedfc"},"vehicle_type_id":"4","last_reported":1714547285,"current_range_meters":28000,"station_id":"ce4bhs12rcd13ifvqhvg","pricing_plan_id":"cebpf4jnsgd1na2vs0mg"},{"bike_id":"c0642eef-4c64-4ce5-97d7-9a8f95d1dc58","system_id":"levelo_inurba_marseille","lat":43.304606,"lon":5.379026,"is_reserved":false,"is_disabled":false,"rental_uris":{"android":"levelo://app?vid=c0642eef-4c64-4ce5-97d7-9a8f95d1dc58","ios":"levelo://app?vid=c0642eef-4c64-4ce5-97d7-9a8f95d1dc58"},"vehicle_type_id":"4","last_reported":1714547285,"current_range_meters":26400,"station_id":"ce4bgup2rcd13ifvqcn0","pricing_plan_id":"cebpf4jnsgd1na2vs0mg"},{"bike_id":"38034195-f3ea-4a5f-9ad9-18410ccfb664","system_id":"levelo_inurba_marseille","lat":43.32481,"lon":5.36574,"is_reserved":false,"is_disabled":false,"rental_uris":{"android":"levelo://app?vid=38034195-f3ea-4a5f-9ad9-18410ccfb664","ios":"levelo://app?vid=38034195-f3ea-4a5f-9ad9-18410ccfb664"},"vehicle_type_id":"4","last_reported":1714547285,"current_range_meters":12800,"station_id":"ce4bhs12rcd13ifvqhvg","pricing_plan_id":"cebpf4jnsgd1na2vs0mg"},{"bike_id":"06ac2027-09f1-4680-aa1f-6ab726213cb9","system_id":"levelo_inurba_marseille","lat":43.324771,"lon":5.36557,"is_reserved":false,"is_disabled":false,"rental_uris":{"android":"levelo://app?vid=06ac2027-09f1-4680-aa1f-6ab726213cb9","ios":"levelo://app?vid=06ac2027-09f1-4680-aa1f-6ab726213cb9"},"vehicle_type_id":"4","last_reported":1714547285,"current_range_meters":6800,"station_id":"ce4bhs12rcd13ifvqhvg","pricing_plan_id":"cebpf4jnsgd1na2vs0mg"},{"bike_id":"caadc003-ff39-41d7-a207-143cea53cb36","system_id":"levelo_inurba_marseille","lat":43.324816,"lon":5.365771,"is_reserved":false,"is_disabled":false,"rental_uris":{"android":"levelo://app?vid=caadc003-ff39-41d7-a207-143cea53cb36","ios":"levelo://app?vid=caadc003-ff39-41d7-a207-143cea53cb36"},"vehicle_type_id":"4","last_reported":1714547285,"current_range_meters":28000,"station_id":"ce4bhs12rcd13ifvqhvg","pricing_plan_id":"cebpf4jnsgd1na2vs0mg"},{"bike_id":"18fb7a60-66d6-4c12-ad66-c83a47a61459","system_id":"levelo_inurba_marseille","lat":43.324771,"lon":5.36557,"is_reserved":false,"is_disabled":false,"rental_uris":{"android":"levelo://app?vid=18fb7a60-66d6-4c12-ad66-c83a47a61459","ios":"levelo://app?vid=18fb7a60-66d6-4c12-ad66-c83a47a61459"},"vehicle_type_id":"4","last_reported":1714547285,"current_range_meters":20800,"station_id":"ce4bhs12rcd13ifvqhvg","pricing_plan_id":"cebpf4jnsgd1na2vs0mg"},{"bike_id":"ef181368-e2d9-4b77-8e0c-b15cff5cd3c9","system_id":"levelo_inurba_marseille","lat":43.304606,"lon":5.379026,"is_reserved":false,"is_disabled":false,"rental_uris":{"android":"levelo://app?vid=ef181368-e2d9-4b77-8e0c-b15cff5cd3c9","ios":"levelo://app?vid=ef181368-e2d9-4b77-8e0c-b15cff5cd3c9"},"vehicle_type_id":"4","last_reported":1714547285,"current_range_meters":27600,"station_id":"ce4bgup2rcd13ifvqcn0","pricing_plan_id":"cebpf4jnsgd1na2vs0mg"},{"bike_id":"c309f7ba-6ad6-4d3f-a1a7-a3843971cf8b","system_id":"levelo_inurba_marseille","lat":43.324771,"lon":5.36557,"is_reserved":false,"is_disabled":false,"rental_uris":{"android":"levelo://app?vid=c309f7ba-6ad6-4d3f-a1a7-a3843971cf8b","ios":"levelo://app?vid=c309f7ba-6ad6-4d3f-a1a7-a3843971cf8b"},"vehicle_type_id":"4","last_reported":1714547285,"current_range_meters":21600,"station_id":"ce4bhs12rcd13ifvqhvg","pricing_plan_id":"cebpf4jnsgd1na2vs0mg"},{"bike_id":"2cb8d4af-041d-4bec-a228-7f59da5d6549","system_id":"levelo_inurba_marseille","lat":43.32482,"lon":5.36573,"is_reserved":false,"is_disabled":false,"rental_uris":{"android":"levelo://app?vid=2cb8d4af-041d-4bec-a228-7f59da5d6549","ios":"levelo://app?vid=2cb8d4af-041d-4bec-a228-7f59da5d6549"},"vehicle_type_id":"4","last_reported":1714547285,"current_range_meters":0,"station_id":"ce4bhs12rcd13ifvqhvg","pricing_plan_id":"cebpf4jnsgd1na2vs0mg"},{"bike_id":"cb5035c4-9e66-46e5-baea-a68bc4206adf","system_id":"levelo_inurba_marseille","lat":43.32483,"lon":5.3658,"is_reserved":false,"is_disabled":false,"rental_uris":{"android":"levelo://app?vid=cb5035c4-9e66-46e5-baea-a68bc4206adf","ios":"levelo://app?vid=cb5035c4-9e66-46e5-baea-a68bc4206adf"},"vehicle_type_id":"4","last_reported":1714547285,"current_range_meters":11600,"station_id":"ce4bhs12rcd13ifvqhvg","pricing_plan_id":"cebpf4jnsgd1na2vs0mg"},{"bike_id":"ff14dfe6-78af-413d-a3ea-3b224d7ea33d","system_id":"levelo_inurba_marseille","lat":43.324771,"lon":5.36557,"is_reserved":false,"is_disabled":false,"rental_uris":{"android":"levelo://app?vid=ff14dfe6-78af-413d-a3ea-3b224d7ea33d","ios":"levelo://app?vid=ff14dfe6-78af-413d-a3ea-3b224d7ea33d"},"vehicle_type_id":"4","last_reported":1714547285,"current_range_meters":21200,"station_id":"ce4bhs12rcd13ifvqhvg","pricing_plan_id":"cebpf4jnsgd1na2vs0mg"},{"bike_id":"a220ad8e-30f9-4404-aa2e-6db3aa6afb45","system_id":"levelo_inurba_marseille","lat":43.324771,"lon":5.36557,"is_reserved":false,"is_disabled":false,"rental_uris":{"android":"levelo://app?vid=a220ad8e-30f9-4404-aa2e-6db3aa6afb45","ios":"levelo://app?vid=a220ad8e-30f9-4404-aa2e-6db3aa6afb45"},"vehicle_type_id":"4","last_reported":1714547285,"current_range_meters":7200,"station_id":"ce4bhs12rcd13ifvqhvg","pricing_plan_id":"cebpf4jnsgd1na2vs0mg"},{"bike_id":"2aba91b8-3d08-477f-9411-e58591257de4","system_id":"levelo_inurba_marseille","lat":43.304606,"lon":5.379026,"is_reserved":false,"is_disabled":false,"rental_uris":{"android":"levelo://app?vid=2aba91b8-3d08-477f-9411-e58591257de4","ios":"levelo://app?vid=2aba91b8-3d08-477f-9411-e58591257de4"},"vehicle_type_id":"4","last_reported":1714547285,"current_range_meters":25200,"station_id":"ce4bgup2rcd13ifvqcn0","pricing_plan_id":"cebpf4jnsgd1na2vs0mg"},{"bike_id":"3233b655-0e42-4745-9352-e7ab6daacfd8","system_id":"levelo_inurba_marseille","lat":43.324771,"lon":5.36557,"is_reserved":false,"is_disabled":false,"rental_uris":{"android":"levelo://app?vid=3233b655-0e42-4745-9352-e7ab6daacfd8","ios":"levelo://app?vid=3233b655-0e42-4745-9352-e7ab6daacfd8"},"vehicle_type_id":"4","last_reported":1714547285,"current_range_meters":28400,"station_id":"ce4bhs12rcd13ifvqhvg","pricing_plan_id":"cebpf4jnsgd1na2vs0mg"},{"bike_id":"a7381051-a83b-4d72-856c-f7d64ddadc43","system_id":"levelo_inurba_marseille","lat":43.324771,"lon":5.36557,"is_reserved":false,"is_disabled":false,"rental_uris":{"android":"levelo://app?vid=a7381051-a83b-4d72-856c-f7d64ddadc43","ios":"levelo://app?vid=a7381051-a83b-4d72-856c-f7d64ddadc43"},"vehicle_type_id":"4","last_reported":1714547285,"current_range_meters":0,"station_id":"ce4bhs12rcd13ifvqhvg","pricing_plan_id":"cebpf4jnsgd1na2vs0mg"},{"bike_id":"f008f77f-4fa9-4fb9-b447-a83c703f3529","system_id":"levelo_inurba_marseille","lat":43.31068,"lon":5.38342,"is_reserved":false,"is_disabled":false,"rental_uris":{"android":"levelo://app?vid=f008f77f-4fa9-4fb9-b447-a83c703f3529","ios":"levelo://app?vid=f008f77f-4fa9-4fb9-b447-a83c703f3529"},"vehicle_type_id":"4","last_reported":1714547285,"current_range_meters":30800,"station_id":"ce4bgv92rcd13ifvqcr0","pricing_plan_id":"cebpf4jnsgd1na2vs0mg"},{"bike_id":"e3bb15a4-ddc0-46aa-a283-1aba4953c1ec","system_id":"levelo_inurba_marseille","lat":43.310804,"lon":5.38359,"is_reserved":false,"is_disabled":false,"rental_uris":{"android":"levelo://app?vid=e3bb15a4-ddc0-46aa-a283-1aba4953c1ec","ios":"levelo://app?vid=e3bb15a4-ddc0-46aa-a283-1aba4953c1ec"},"vehicle_type_id":"4","last_reported":1714547285,"current_range_meters":22000,"station_id":"ce4bgv92rcd13ifvqcr0","pricing_plan_id":"cebpf4jnsgd1na2vs0mg"},{"bike_id":"314ff1cc-f494-4905-bb66-fca0d47b8dab","system_id":"levelo_inurba_marseille","lat":43.302784,"lon":5.377158,"is_reserved":false,"is_disabled":false,"rental_uris":{"android":"levelo://app?vid=314ff1cc-f494-4905-bb66-fca0d47b8dab","ios":"levelo://app?vid=314ff1cc-f494-4905-bb66-fca0d47b8dab"},"vehicle_type_id":"4","last_reported":1714547285,"current_range_meters":17600,"station_id":"ce4bguh2rcd13ifvqcj0","pricing_plan_id":"cebpf4jnsgd1na2vs0mg"},{"bike_id":"0febf80b-d62f-4784-a823-b2d579292f3e","system_id":"levelo_inurba_marseille","lat":43.302784,"lon":5.377158,"is_reserved":false,"is_disabled":false,"rental_uris":{"android":"levelo://app?vid=0febf80b-d62f-4784-a823-b2d579292f3e","ios":"levelo://app?vid=0febf80b-d62f-4784-a823-b2d579292f3e"},"vehicle_type_id":"4","last_reported":1714547285,"current_range_meters":26400,"station_id":"ce4bguh2rcd13ifvqcj0","pricing_plan_id":"cebpf4jnsgd1na2vs0mg"},{"bike_id":"9947e0c8-127e-46fa-ac77-3bc098ba2dfd","system_id":"levelo_inurba_marseille","lat":43.310804,"lon":5.38359,"is_reserved":false,"is_disabled":false,"rental_uris":{"android":"levelo://app?vid=9947e0c8-127e-46fa-ac77-3bc098ba2dfd","ios":"levelo://app?vid=9947e0c8-127e-46fa-ac77-3bc098ba2dfd"},"vehicle_type_id":"4","last_reported":1714547285,"current_range_meters":19200,"station_id":"ce4bgv92rcd13ifvqcr0","pricing_plan_id":"cebpf4jnsgd1na2vs0mg"},{"bike_id":"87f26f40-8d6b-4134-b783-5bdc7e77e177","system_id":"levelo_inurba_marseille","lat":43.310804,"lon":5.38359,"is_reserved":false,"is_disabled":false,"rental_uris":{"android":"levelo://app?vid=87f26f40-8d6b-4134-b783-5bdc7e77e177","ios":"levelo://app?vid=87f26f40-8d6b-4134-b783-5bdc7e77e177"},"vehicle_type_id":"4","last_reported":1714547285,"current_range_meters":23200,"station_id":"ce4bgv92rcd13ifvqcr0","pricing_plan_id":"cebpf4jnsgd1na2vs0mg"},{"bike_id":"321f9d28-ee7f-4afa-a28c-be53e03f8d73","system_id":"levelo_inurba_marseille","lat":43.310804,"lon":5.38359,"is_reserved":false,"is_disabled":false,"rental_uris":{"android":"levelo://app?vid=321f9d28-ee7f-4afa-a28c-be53e03f8d73","ios":"levelo://app?vid=321f9d28-ee7f-4afa-a28c-be53e03f8d73"},"vehicle_type_id":"4","last_reported":1714547285,"current_range_meters":0,"station_id":"ce4bgv92rcd13ifvqcr0","pricing_plan_id":"cebpf4jnsgd1na2vs0mg"},{"bike_id":"307b2ff8-9ad6-4128-8a2f-ba86690d45f8","system_id":"levelo_inurba_marseille","lat":43.310804,"lon":5.38359,"is_reserved":false,"is_disabled":false,"rental_uris":{"android":"levelo://app?vid=307b2ff8-9ad6-4128-8a2f-ba86690d45f8","ios":"levelo://app?vid=307b2ff8-9ad6-4128-8a2f-ba86690d45f8"},"vehicle_type_id":"4","last_reported":1714547285,"current_range_meters":6400,"station_id":"ce4bgv92rcd13ifvqcr0","pricing_plan_id":"cebpf4jnsgd1na2vs0mg"},{"bike_id":"ec689b88-b81d-4df6-bdea-7281fbffbe25","system_id":"levelo_inurba_marseille","lat":43.302784,"lon":5.377158,"is_reserved":false,"is_disabled":false,"rental_uris":{"android":"levelo://app?vid=ec689b88-b81d-4df6-bdea-7281fbffbe25","ios":"levelo://app?vid=ec689b88-b81d-4df6-bdea-7281fbffbe25"},"vehicle_type_id":"4","last_reported":1714547285,"current_range_meters":17600,"station_id":"ce4bguh2rcd13ifvqcj0","pricing_plan_id":"cebpf4jnsgd1na2vs0mg"},{"bike_id":"a0149c24-5a8e-4415-bbc9-afb27cf21141","system_id":"levelo_inurba_marseille","lat":43.310804,"lon":5.38359,"is_reserved":false,"is_disabled":false,"rental_uris":{"android":"levelo://app?vid=a0149c24-5a8e-4415-bbc9-afb27cf21141","ios":"levelo://app?vid=a0149c24-5a8e-4415-bbc9-afb27cf21141"},"vehicle_type_id":"4","last_reported":1714547285,"current_range_meters":20400,"station_id":"ce4bgv92rcd13ifvqcr0","pricing_plan_id":"cebpf4jnsgd1na2vs0mg"},{"bike_id":"8ff6b054-1eab-4a97-b3eb-516d4a59b7eb","system_id":"levelo_inurba_marseille","lat":43.310804,"lon":5.38359,"is_reserved":false,"is_disabled":false,"rental_uris":{"android":"levelo://app?vid=8ff6b054-1eab-4a97-b3eb-516d4a59b7eb","ios":"levelo://app?vid=8ff6b054-1eab-4a97-b3eb-516d4a59b7eb"},"vehicle_type_id":"4","last_reported":1714547285,"current_range_meters":18000,"station_id":"ce4bgv92rcd13ifvqcr0","pricing_plan_id":"cebpf4jnsgd1na2vs0mg"},{"bike_id":"099ed432-a2b0-4f99-8fcd-71be1628384e","system_id":"levelo_inurba_marseille","lat":43.310804,"lon":5.38359,"is_reserved":false,"is_disabled":false,"rental_uris":{"android":"levelo://app?vid=099ed432-a2b0-4f99-8fcd-71be1628384e","ios":"levelo://app?vid=099ed432-a2b0-4f99-8fcd-71be1628384e"},"vehicle_type_id":"4","last_reported":1714547285,"current_range_meters":24400,"station_id":"ce4bgv92rcd13ifvqcr0","pricing_plan_id":"cebpf4jnsgd1na2vs0mg"},{"bike_id":"2750f35a-5ecf-4180-8a3a-bc1a5574ffd9","system_id":"levelo_inurba_marseille","lat":43.310804,"lon":5.38359,"is_reserved":false,"is_disabled":false,"rental_uris":{"android":"levelo://app?vid=2750f35a-5ecf-4180-8a3a-bc1a5574ffd9","ios":"levelo://app?vid=2750f35a-5ecf-4180-8a3a-bc1a5574ffd9"},"vehicle_type_id":"4","last_reported":1714547285,"current_range_meters":22800,"station_id":"ce4bgv92rcd13ifvqcr0","pricing_plan_id":"cebpf4jnsgd1na2vs0mg"},{"bike_id":"db0e3283-2d40-44e3-922d-dbf109de58d4","system_id":"levelo_inurba_marseille","lat":43.302784,"lon":5.377158,"is_reserved":false,"is_disabled":false,"rental_uris":{"android":"levelo://app?vid=db0e3283-2d40-44e3-922d-dbf109de58d4","ios":"levelo://app?vid=db0e3283-2d40-44e3-922d-dbf109de58d4"},"vehicle_type_id":"4","last_reported":1714547285,"current_range_meters":29200,"station_id":"ce4bguh2rcd13ifvqcj0","pricing_plan_id":"cebpf4jnsgd1na2vs0mg"},{"bike_id":"5830afc9-62db-42a8-bcc7-25f3b36af8e5","system_id":"levelo_inurba_marseille","lat":43.30277,"lon":5.37698,"is_reserved":false,"is_disabled":false,"rental_uris":{"android":"levelo://app?vid=5830afc9-62db-42a8-bcc7-25f3b36af8e5","ios":"levelo://app?vid=5830afc9-62db-42a8-bcc7-25f3b36af8e5"},"vehicle_type_id":"4","last_reported":1714547285,"current_range_meters":28000,"station_id":"ce4bguh2rcd13ifvqcj0","pricing_plan_id":"cebpf4jnsgd1na2vs0mg"},{"bike_id":"d110246c-cc5d-40ad-b9f6-c02c209775b5","system_id":"levelo_inurba_marseille","lat":43.302784,"lon":5.377158,"is_reserved":false,"is_disabled":false,"rental_uris":{"android":"levelo://app?vid=d110246c-cc5d-40ad-b9f6-c02c209775b5","ios":"levelo://app?vid=d110246c-cc5d-40ad-b9f6-c02c209775b5"},"vehicle_type_id":"4","last_reported":1714547285,"current_range_meters":22400,"station_id":"ce4bguh2rcd13ifvqcj0","pricing_plan_id":"cebpf4jnsgd1na2vs0mg"},{"bike_id":"9f2ef3ae-73a9-4607-96d9-01c69b64af4e","system_id":"levelo_inurba_marseille","lat":43.302784,"lon":5.377158,"is_reserved":false,"is_disabled":false,"rental_uris":{"android":"levelo://app?vid=9f2ef3ae-73a9-4607-96d9-01c69b64af4e","ios":"levelo://app?vid=9f2ef3ae-73a9-4607-96d9-01c69b64af4e"},"vehicle_type_id":"4","last_reported":1714547285,"current_range_meters":30800,"station_id":"ce4bguh2rcd13ifvqcj0","pricing_plan_id":"cebpf4jnsgd1na2vs0mg"},{"bike_id":"ef11b0f3-d54b-4c01-8da3-94146d9da72b","system_id":"levelo_inurba_marseille","lat":43.30274,"lon":5.37705,"is_reserved":false,"is_disabled":false,"rental_uris":{"android":"levelo://app?vid=ef11b0f3-d54b-4c01-8da3-94146d9da72b","ios":"levelo://app?vid=ef11b0f3-d54b-4c01-8da3-94146d9da72b"},"vehicle_type_id":"4","last_reported":1714547285,"current_range_meters":23600,"station_id":"ce4bguh2rcd13ifvqcj0","pricing_plan_id":"cebpf4jnsgd1na2vs0mg"},{"bike_id":"a5f42cdb-9ce0-4dd2-8978-a3979737e5b0","system_id":"levelo_inurba_marseille","lat":43.302784,"lon":5.377158,"is_reserved":false,"is_disabled":false,"rental_uris":{"android":"levelo://app?vid=a5f42cdb-9ce0-4dd2-8978-a3979737e5b0","ios":"levelo://app?vid=a5f42cdb-9ce0-4dd2-8978-a3979737e5b0"},"vehicle_type_id":"4","last_reported":1714547285,"current_range_meters":4400,"station_id":"ce4bguh2rcd13ifvqcj0","pricing_plan_id":"cebpf4jnsgd1na2vs0mg"},{"bike_id":"52a4dae9-1901-486b-86e7-5eef3a312763","system_id":"levelo_inurba_marseille","lat":43.301429,"lon":5.37413,"is_reserved":false,"is_disabled":false,"rental_uris":{"android":"levelo://app?vid=52a4dae9-1901-486b-86e7-5eef3a312763","ios":"levelo://app?vid=52a4dae9-1901-486b-86e7-5eef3a312763"},"vehicle_type_id":"4","last_reported":1714547285,"current_range_meters":28000,"station_id":"ce4bgs92rcd13ifvqcc0","pricing_plan_id":"cebpf4jnsgd1na2vs0mg"},{"bike_id":"5c14b3bb-2dd0-4efc-bc82-917399bfd525","system_id":"levelo_inurba_marseille","lat":43.302784,"lon":5.377158,"is_reserved":false,"is_disabled":false,"rental_uris":{"android":"levelo://app?vid=5c14b3bb-2dd0-4efc-bc82-917399bfd525","ios":"levelo://app?vid=5c14b3bb-2dd0-4efc-bc82-917399bfd525"},"vehicle_type_id":"4","last_reported":1714547285,"current_range_meters":29200,"station_id":"ce4bguh2rcd13ifvqcj0","pricing_plan_id":"cebpf4jnsgd1na2vs0mg"},{"bike_id":"e44b51ce-c7c9-447e-ad00-457cba741a4d","system_id":"levelo_inurba_marseille","lat":43.30144,"lon":5.3742,"is_reserved":false,"is_disabled":false,"rental_uris":{"android":"levelo://app?vid=e44b51ce-c7c9-447e-ad00-457cba741a4d","ios":"levelo://app?vid=e44b51ce-c7c9-447e-ad00-457cba741a4d"},"vehicle_type_id":"4","last_reported":1714547285,"current_range_meters":25600,"station_id":"ce4bgs92rcd13ifvqcc0","pricing_plan_id":"cebpf4jnsgd1na2vs0mg"},{"bike_id":"e1e0ef1f-9c57-42d1-b59a-6e63c21837ae","system_id":"levelo_inurba_marseille","lat":43.30139,"lon":5.3741,"is_reserved":false,"is_disabled":false,"rental_uris":{"android":"levelo://app?vid=e1e0ef1f-9c57-42d1-b59a-6e63c21837ae","ios":"levelo://app?vid=e1e0ef1f-9c57-42d1-b59a-6e63c21837ae"},"vehicle_type_id":"4","last_reported":1714547285,"current_range_meters":26000,"station_id":"ce4bgs92rcd13ifvqcc0","pricing_plan_id":"cebpf4jnsgd1na2vs0mg"},{"bike_id":"2d1a465c-f206-4c81-8e93-457e26ea1e83","system_id":"levelo_inurba_marseille","lat":43.30141,"lon":5.37425,"is_reserved":false,"is_disabled":false,"rental_uris":{"android":"levelo://app?vid=2d1a465c-f206-4c81-8e93-457e26ea1e83","ios":"levelo://app?vid=2d1a465c-f206-4c81-8e93-457e26ea1e83"},"vehicle_type_id":"4","last_reported":1714547285,"current_range_meters":8400,"station_id":"ce4bgs92rcd13ifvqcc0","pricing_plan_id":"cebpf4jnsgd1na2vs0mg"},{"bike_id":"df387169-1455-4534-88c5-c2ccd575b8c4","system_id":"levelo_inurba_marseille","lat":43.30137,"lon":5.37417,"is_reserved":false,"is_disabled":false,"rental_uris":{"android":"levelo://app?vid=df387169-1455-4534-88c5-c2ccd575b8c4","ios":"levelo://app?vid=df387169-1455-4534-88c5-c2ccd575b8c4"},"vehicle_type_id":"4","last_reported":1714547285,"current_range_meters":28400,"station_id":"ce4bgs92rcd13ifvqcc0","pricing_plan_id":"cebpf4jnsgd1na2vs0mg"},{"bike_id":"849e9f69-8186-4eb2-b7d5-f12c86c1b3a0","system_id":"levelo_inurba_marseille","lat":43.301429,"lon":5.37413,"is_reserved":false,"is_disabled":false,"rental_uris":{"android":"levelo://app?vid=849e9f69-8186-4eb2-b7d5-f12c86c1b3a0","ios":"levelo://app?vid=849e9f69-8186-4eb2-b7d5-f12c86c1b3a0"},"vehicle_type_id":"4","last_reported":1714547285,"current_range_meters":30000,"station_id":"ce4bgs92rcd13ifvqcc0","pricing_plan_id":"cebpf4jnsgd1na2vs0mg"},{"bike_id":"d6a93399-18bd-4f8d-8949-9d5061db16ec","system_id":"levelo_inurba_marseille","lat":43.30136,"lon":5.37422,"is_reserved":false,"is_disabled":false,"rental_uris":{"android":"levelo://app?vid=d6a93399-18bd-4f8d-8949-9d5061db16ec","ios":"levelo://app?vid=d6a93399-18bd-4f8d-8949-9d5061db16ec"},"vehicle_type_id":"4","last_reported":1714547285,"current_range_meters":27200,"station_id":"ce4bgs92rcd13ifvqcc0","pricing_plan_id":"cebpf4jnsgd1na2vs0mg"},{"bike_id":"cfc0f6b7-5818-466e-b21c-ff0227fc3710","system_id":"levelo_inurba_marseille","lat":43.302784,"lon":5.377158,"is_reserved":false,"is_disabled":false,"rental_uris":{"android":"levelo://app?vid=cfc0f6b7-5818-466e-b21c-ff0227fc3710","ios":"levelo://app?vid=cfc0f6b7-5818-466e-b21c-ff0227fc3710"},"vehicle_type_id":"4","last_reported":1714547285,"current_range_meters":26000,"station_id":"ce4bguh2rcd13ifvqcj0","pricing_plan_id":"cebpf4jnsgd1na2vs0mg"},{"bike_id":"a4b24a55-8a5b-4162-98ce-65c88b853c96","system_id":"levelo_inurba_marseille","lat":43.302784,"lon":5.377158,"is_reserved":false,"is_disabled":false,"rental_uris":{"android":"levelo://app?vid=a4b24a55-8a5b-4162-98ce-65c88b853c96","ios":"levelo://app?vid=a4b24a55-8a5b-4162-98ce-65c88b853c96"},"vehicle_type_id":"4","last_reported":1714547285,"current_range_meters":26000,"station_id":"ce4bguh2rcd13ifvqcj0","pricing_plan_id":"cebpf4jnsgd1na2vs0mg"},{"bike_id":"bf7237d8-45ec-4e41-a5f9-2e40df36b0a3","system_id":"levelo_inurba_marseille","lat":43.319987,"lon":5.381452,"is_reserved":false,"is_disabled":false,"rental_uris":{"android":"levelo://app?vid=bf7237d8-45ec-4e41-a5f9-2e40df36b0a3","ios":"levelo://app?vid=bf7237d8-45ec-4e41-a5f9-2e40df36b0a3"},"vehicle_type_id":"4","last_reported":1714547285,"current_range_meters":6400,"station_id":"ce4bhr12rcd13ifvqhpg","pricing_plan_id":"cebpf4jnsgd1na2vs0mg"},{"bike_id":"4eabf273-d6ab-4f69-aa17-5ce3078e9cfa","system_id":"levelo_inurba_marseille","lat":43.31996,"lon":5.38149,"is_reserved":false,"is_disabled":false,"rental_uris":{"android":"levelo://app?vid=4eabf273-d6ab-4f69-aa17-5ce3078e9cfa","ios":"levelo://app?vid=4eabf273-d6ab-4f69-aa17-5ce3078e9cfa"},"vehicle_type_id":"4","last_reported":1714547285,"current_range_meters":10400,"station_id":"ce4bhr12rcd13ifvqhpg","pricing_plan_id":"cebpf4jnsgd1na2vs0mg"},{"bike_id":"952baf88-6145-4f3f-b32f-66ddd2b06b56","system_id":"levelo_inurba_marseille","lat":43.319957,"lon":5.381508,"is_reserved":false,"is_disabled":false,"rental_uris":{"android":"levelo://app?vid=952baf88-6145-4f3f-b32f-66ddd2b06b56","ios":"levelo://app?vid=952baf88-6145-4f3f-b32f-66ddd2b06b56"},"vehicle_type_id":"4","last_reported":1714547285,"current_range_meters":4400,"station_id":"ce4bhr12rcd13ifvqhpg","pricing_plan_id":"cebpf4jnsgd1na2vs0mg"},{"bike_id":"4b678404-bcb7-469e-8217-1687e76be9e0","system_id":"levelo_inurba_marseille","lat":43.31996,"lon":5.38156,"is_reserved":false,"is_disabled":false,"rental_uris":{"android":"levelo://app?vid=4b678404-bcb7-469e-8217-1687e76be9e0","ios":"levelo://app?vid=4b678404-bcb7-469e-8217-1687e76be9e0"},"vehicle_type_id":"4","last_reported":1714547285,"current_range_meters":21200,"station_id":"ce4bhr12rcd13ifvqhpg","pricing_plan_id":"cebpf4jnsgd1na2vs0mg"},{"bike_id":"72159ef7-60a0-4265-8e23-c1c78a9f4a53","system_id":"levelo_inurba_marseille","lat":43.319982,"lon":5.381546,"is_reserved":false,"is_disabled":false,"rental_uris":{"android":"levelo://app?vid=72159ef7-60a0-4265-8e23-c1c78a9f4a53","ios":"levelo://app?vid=72159ef7-60a0-4265-8e23-c1c78a9f4a53"},"vehicle_type_id":"4","last_reported":1714547285,"current_range_meters":6400,"station_id":"ce4bhr12rcd13ifvqhpg","pricing_plan_id":"cebpf4jnsgd1na2vs0mg"},{"bike_id":"defb3f3a-14e1-442d-84dc-861147ca9abd","system_id":"levelo_inurba_marseille","lat":43.313571,"lon":5.384829,"is_reserved":false,"is_disabled":false,"rental_uris":{"android":"levelo://app?vid=defb3f3a-14e1-442d-84dc-861147ca9abd","ios":"levelo://app?vid=defb3f3a-14e1-442d-84dc-861147ca9abd"},"vehicle_type_id":"4","last_reported":1714547285,"current_range_meters":26000,"station_id":"ce4bgt92rcd13ifvqcf0","pricing_plan_id":"cebpf4jnsgd1na2vs0mg"},{"bike_id":"438ebfd9-ebb7-4d65-b791-394811f97446","system_id":"levelo_inurba_marseille","lat":43.313571,"lon":5.384829,"is_reserved":false,"is_disabled":false,"rental_uris":{"android":"levelo://app?vid=438ebfd9-ebb7-4d65-b791-394811f97446","ios":"levelo://app?vid=438ebfd9-ebb7-4d65-b791-394811f97446"},"vehicle_type_id":"4","last_reported":1714547285,"current_range_meters":5600,"station_id":"ce4bgt92rcd13ifvqcf0","pricing_plan_id":"cebpf4jnsgd1na2vs0mg"},{"bike_id":"b46d08a9-42fd-4443-9bfc-183e429395bb","system_id":"levelo_inurba_marseille","lat":43.313571,"lon":5.384829,"is_reserved":false,"is_disabled":false,"rental_uris":{"android":"levelo://app?vid=b46d08a9-42fd-4443-9bfc-183e429395bb","ios":"levelo://app?vid=b46d08a9-42fd-4443-9bfc-183e429395bb"},"vehicle_type_id":"4","last_reported":1714547285,"current_range_meters":29600,"station_id":"ce4bgt92rcd13ifvqcf0","pricing_plan_id":"cebpf4jnsgd1na2vs0mg"},{"bike_id":"d412557e-de4c-4f36-889e-180bfa6c50e3","system_id":"levelo_inurba_marseille","lat":43.31363,"lon":5.38495,"is_reserved":false,"is_disabled":false,"rental_uris":{"android":"levelo://app?vid=d412557e-de4c-4f36-889e-180bfa6c50e3","ios":"levelo://app?vid=d412557e-de4c-4f36-889e-180bfa6c50e3"},"vehicle_type_id":"4","last_reported":1714547285,"current_range_meters":27200,"station_id":"ce4bgt92rcd13ifvqcf0","pricing_plan_id":"cebpf4jnsgd1na2vs0mg"},{"bike_id":"788a2b1b-0b93-41ab-a8a0-1ab2b573c21f","system_id":"levelo_inurba_marseille","lat":43.313571,"lon":5.384829,"is_reserved":false,"is_disabled":false,"rental_uris":{"android":"levelo://app?vid=788a2b1b-0b93-41ab-a8a0-1ab2b573c21f","ios":"levelo://app?vid=788a2b1b-0b93-41ab-a8a0-1ab2b573c21f"},"vehicle_type_id":"4","last_reported":1714547285,"current_range_meters":31600,"station_id":"ce4bgt92rcd13ifvqcf0","pricing_plan_id":"cebpf4jnsgd1na2vs0mg"},{"bike_id":"7f5ab442-1c36-4fbe-91db-325b427228f8","system_id":"levelo_inurba_marseille","lat":43.313571,"lon":5.384829,"is_reserved":false,"is_disabled":false,"rental_uris":{"android":"levelo://app?vid=7f5ab442-1c36-4fbe-91db-325b427228f8","ios":"levelo://app?vid=7f5ab442-1c36-4fbe-91db-325b427228f8"},"vehicle_type_id":"4","last_reported":1714547285,"current_range_meters":28800,"station_id":"ce4bgt92rcd13ifvqcf0","pricing_plan_id":"cebpf4jnsgd1na2vs0mg"},{"bike_id":"a08514c5-fa7e-47fa-a608-af4e0239ed24","system_id":"levelo_inurba_marseille","lat":43.29983,"lon":5.37173,"is_reserved":false,"is_disabled":false,"rental_uris":{"android":"levelo://app?vid=a08514c5-fa7e-47fa-a608-af4e0239ed24","ios":"levelo://app?vid=a08514c5-fa7e-47fa-a608-af4e0239ed24"},"vehicle_type_id":"4","last_reported":1714547285,"current_range_meters":30000,"station_id":"ce4bgr92rcd13ifvqc7g","pricing_plan_id":"cebpf4jnsgd1na2vs0mg"},{"bike_id":"ad4e83bd-614d-4fae-bc45-2353752384ba","system_id":"levelo_inurba_marseille","lat":43.299222,"lon":5.365554,"is_reserved":false,"is_disabled":false,"rental_uris":{"android":"levelo://app?vid=ad4e83bd-614d-4fae-bc45-2353752384ba","ios":"levelo://app?vid=ad4e83bd-614d-4fae-bc45-2353752384ba"},"vehicle_type_id":"4","last_reported":1714547285,"current_range_meters":28000,"station_id":"ce4bgm92rcd13ifvqbr0","pricing_plan_id":"cebpf4jnsgd1na2vs0mg"},{"bike_id":"eb33a0cd-46c5-49d4-bf2a-52328d9be6a9","system_id":"levelo_inurba_marseille","lat":43.299222,"lon":5.365554,"is_reserved":false,"is_disabled":false,"rental_uris":{"android":"levelo://app?vid=eb33a0cd-46c5-49d4-bf2a-52328d9be6a9","ios":"levelo://app?vid=eb33a0cd-46c5-49d4-bf2a-52328d9be6a9"},"vehicle_type_id":"4","last_reported":1714547285,"current_range_meters":20000,"station_id":"ce4bgm92rcd13ifvqbr0","pricing_plan_id":"cebpf4jnsgd1na2vs0mg"},{"bike_id":"f96390ca-fa27-492a-a489-3161bcd8c4bb","system_id":"levelo_inurba_marseille","lat":43.299222,"lon":5.365554,"is_reserved":false,"is_disabled":false,"rental_uris":{"android":"levelo://app?vid=f96390ca-fa27-492a-a489-3161bcd8c4bb","ios":"levelo://app?vid=f96390ca-fa27-492a-a489-3161bcd8c4bb"},"vehicle_type_id":"4","last_reported":1714547285,"current_range_meters":18400,"station_id":"ce4bgm92rcd13ifvqbr0","pricing_plan_id":"cebpf4jnsgd1na2vs0mg"},{"bike_id":"6d05efa4-5b85-47e6-b77c-0a809b40dfd4","system_id":"levelo_inurba_marseille","lat":43.305475,"lon":5.384215,"is_reserved":false,"is_disabled":false,"rental_uris":{"android":"levelo://app?vid=6d05efa4-5b85-47e6-b77c-0a809b40dfd4","ios":"levelo://app?vid=6d05efa4-5b85-47e6-b77c-0a809b40dfd4"},"vehicle_type_id":"4","last_reported":1714547285,"current_range_meters":28400,"station_id":"ce4bgg92rcd13ifvqb30","pricing_plan_id":"cebpf4jnsgd1na2vs0mg"},{"bike_id":"6edb7bb5-6df4-4ee4-95b3-5ba1918086f9","system_id":"levelo_inurba_marseille","lat":43.298433,"lon":5.362774,"is_reserved":false,"is_disabled":false,"rental_uris":{"android":"levelo://app?vid=6edb7bb5-6df4-4ee4-95b3-5ba1918086f9","ios":"levelo://app?vid=6edb7bb5-6df4-4ee4-95b3-5ba1918086f9"},"vehicle_type_id":"4","last_reported":1714547285,"current_range_meters":28400,"station_id":"ce4bgpp2rcd13ifvqc3g","pricing_plan_id":"cebpf4jnsgd1na2vs0mg"},{"bike_id":"08ca568d-a82c-4079-baa4-82153591fac8","system_id":"levelo_inurba_marseille","lat":43.298433,"lon":5.362774,"is_reserved":false,"is_disabled":false,"rental_uris":{"android":"levelo://app?vid=08ca568d-a82c-4079-baa4-82153591fac8","ios":"levelo://app?vid=08ca568d-a82c-4079-baa4-82153591fac8"},"vehicle_type_id":"4","last_reported":1714547285,"current_range_meters":26800,"station_id":"ce4bgpp2rcd13ifvqc3g","pricing_plan_id":"cebpf4jnsgd1na2vs0mg"},{"bike_id":"bfa42ac1-a1c6-42bf-89d0-2c6853a84894","system_id":"levelo_inurba_marseille","lat":43.305364,"lon":5.384119,"is_reserved":false,"is_disabled":false,"rental_uris":{"android":"levelo://app?vid=bfa42ac1-a1c6-42bf-89d0-2c6853a84894","ios":"levelo://app?vid=bfa42ac1-a1c6-42bf-89d0-2c6853a84894"},"vehicle_type_id":"4","last_reported":1714547285,"current_range_meters":26800,"station_id":"ce4bgg92rcd13ifvqb30","pricing_plan_id":"cebpf4jnsgd1na2vs0mg"},{"bike_id":"58d1ec05-fcc0-4843-91d1-dbf1b7f0f0be","system_id":"levelo_inurba_marseille","lat":43.305408,"lon":5.384284,"is_reserved":false,"is_disabled":false,"rental_uris":{"android":"levelo://app?vid=58d1ec05-fcc0-4843-91d1-dbf1b7f0f0be","ios":"levelo://app?vid=58d1ec05-fcc0-4843-91d1-dbf1b7f0f0be"},"vehicle_type_id":"4","last_reported":1714547285,"current_range_meters":21200,"station_id":"ce4bgg92rcd13ifvqb30","pricing_plan_id":"cebpf4jnsgd1na2vs0mg"},{"bike_id":"a7f64e09-9f11-488b-bfaf-738c97dd5098","system_id":"levelo_inurba_marseille","lat":43.298433,"lon":5.362774,"is_reserved":false,"is_disabled":false,"rental_uris":{"android":"levelo://app?vid=a7f64e09-9f11-488b-bfaf-738c97dd5098","ios":"levelo://app?vid=a7f64e09-9f11-488b-bfaf-738c97dd5098"},"vehicle_type_id":"4","last_reported":1714547285,"current_range_meters":31200,"station_id":"ce4bgpp2rcd13ifvqc3g","pricing_plan_id":"cebpf4jnsgd1na2vs0mg"},{"bike_id":"dd9c3d92-de6c-470b-a5c9-03ab4c5cea42","system_id":"levelo_inurba_marseille","lat":43.305364,"lon":5.384119,"is_reserved":false,"is_disabled":false,"rental_uris":{"android":"levelo://app?vid=dd9c3d92-de6c-470b-a5c9-03ab4c5cea42","ios":"levelo://app?vid=dd9c3d92-de6c-470b-a5c9-03ab4c5cea42"},"vehicle_type_id":"4","last_reported":1714547285,"current_range_meters":29200,"station_id":"ce4bgg92rcd13ifvqb30","pricing_plan_id":"cebpf4jnsgd1na2vs0mg"},{"bike_id":"b65ead4b-b6af-4c75-931b-4ff5418e8148","system_id":"levelo_inurba_marseille","lat":43.298433,"lon":5.362774,"is_reserved":false,"is_disabled":false,"rental_uris":{"android":"levelo://app?vid=b65ead4b-b6af-4c75-931b-4ff5418e8148","ios":"levelo://app?vid=b65ead4b-b6af-4c75-931b-4ff5418e8148"},"vehicle_type_id":"4","last_reported":1714547285,"current_range_meters":31200,"station_id":"ce4bgpp2rcd13ifvqc3g","pricing_plan_id":"cebpf4jnsgd1na2vs0mg"},{"bike_id":"2c1b4e8f-fe9f-4fa9-b596-da3b7a2dda8d","system_id":"levelo_inurba_marseille","lat":43.298433,"lon":5.362774,"is_reserved":false,"is_disabled":false,"rental_uris":{"android":"levelo://app?vid=2c1b4e8f-fe9f-4fa9-b596-da3b7a2dda8d","ios":"levelo://app?vid=2c1b4e8f-fe9f-4fa9-b596-da3b7a2dda8d"},"vehicle_type_id":"4","last_reported":1714547285,"current_range_meters":26800,"station_id":"ce4bgpp2rcd13ifvqc3g","pricing_plan_id":"cebpf4jnsgd1na2vs0mg"},{"bike_id":"ab3234e2-c9e9-4f6c-b33f-be79c27f96ba","system_id":"levelo_inurba_marseille","lat":43.298433,"lon":5.362774,"is_reserved":false,"is_disabled":false,"rental_uris":{"android":"levelo://app?vid=ab3234e2-c9e9-4f6c-b33f-be79c27f96ba","ios":"levelo://app?vid=ab3234e2-c9e9-4f6c-b33f-be79c27f96ba"},"vehicle_type_id":"4","last_reported":1714547285,"current_range_meters":26400,"station_id":"ce4bgpp2rcd13ifvqc3g","pricing_plan_id":"cebpf4jnsgd1na2vs0mg"},{"bike_id":"679a35f3-c3a1-450c-85ce-a9e24d563cce","system_id":"levelo_inurba_marseille","lat":43.305364,"lon":5.384119,"is_reserved":false,"is_disabled":false,"rental_uris":{"android":"levelo://app?vid=679a35f3-c3a1-450c-85ce-a9e24d563cce","ios":"levelo://app?vid=679a35f3-c3a1-450c-85ce-a9e24d563cce"},"vehicle_type_id":"4","last_reported":1714547285,"current_range_meters":26800,"station_id":"ce4bgg92rcd13ifvqb30","pricing_plan_id":"cebpf4jnsgd1na2vs0mg"},{"bike_id":"1e4ba49a-e7cd-4c9e-9904-a5994b970c61","system_id":"levelo_inurba_marseille","lat":43.305364,"lon":5.384119,"is_reserved":false,"is_disabled":false,"rental_uris":{"android":"levelo://app?vid=1e4ba49a-e7cd-4c9e-9904-a5994b970c61","ios":"levelo://app?vid=1e4ba49a-e7cd-4c9e-9904-a5994b970c61"},"vehicle_type_id":"4","last_reported":1714547285,"current_range_meters":31200,"station_id":"ce4bgg92rcd13ifvqb30","pricing_plan_id":"cebpf4jnsgd1na2vs0mg"},{"bike_id":"f0fcc9b4-7827-4a54-874a-546abc319221","system_id":"levelo_inurba_marseille","lat":43.298433,"lon":5.362774,"is_reserved":false,"is_disabled":false,"rental_uris":{"android":"levelo://app?vid=f0fcc9b4-7827-4a54-874a-546abc319221","ios":"levelo://app?vid=f0fcc9b4-7827-4a54-874a-546abc319221"},"vehicle_type_id":"4","last_reported":1714547285,"current_range_meters":26800,"station_id":"ce4bgpp2rcd13ifvqc3g","pricing_plan_id":"cebpf4jnsgd1na2vs0mg"},{"bike_id":"72f4ea23-22a9-4715-9109-ee3d7635ab98","system_id":"levelo_inurba_marseille","lat":43.31176,"lon":5.38708,"is_reserved":false,"is_disabled":false,"rental_uris":{"android":"levelo://app?vid=72f4ea23-22a9-4715-9109-ee3d7635ab98","ios":"levelo://app?vid=72f4ea23-22a9-4715-9109-ee3d7635ab98"},"vehicle_type_id":"4","last_reported":1714547285,"current_range_meters":21200,"station_id":"ce4bgv12rcd13ifvqcp0","pricing_plan_id":"cebpf4jnsgd1na2vs0mg"},{"bike_id":"25534175-7f3d-463f-8236-7980d1623b1c","system_id":"levelo_inurba_marseille","lat":43.311722,"lon":5.387247,"is_reserved":false,"is_disabled":false,"rental_uris":{"android":"levelo://app?vid=25534175-7f3d-463f-8236-7980d1623b1c","ios":"levelo://app?vid=25534175-7f3d-463f-8236-7980d1623b1c"},"vehicle_type_id":"4","last_reported":1714547285,"current_range_meters":15600,"station_id":"ce4bgv12rcd13ifvqcp0","pricing_plan_id":"cebpf4jnsgd1na2vs0mg"},{"bike_id":"bac62ab5-edb6-471c-b130-24d4723f6083","system_id":"levelo_inurba_marseille","lat":43.311722,"lon":5.387247,"is_reserved":false,"is_disabled":false,"rental_uris":{"android":"levelo://app?vid=bac62ab5-edb6-471c-b130-24d4723f6083","ios":"levelo://app?vid=bac62ab5-edb6-471c-b130-24d4723f6083"},"vehicle_type_id":"4","last_reported":1714547285,"current_range_meters":3600,"station_id":"ce4bgv12rcd13ifvqcp0","pricing_plan_id":"cebpf4jnsgd1na2vs0mg"},{"bike_id":"c61a209a-21b1-40bd-b21a-bae86d3a9463","system_id":"levelo_inurba_marseille","lat":43.311722,"lon":5.387247,"is_reserved":false,"is_disabled":false,"rental_uris":{"android":"levelo://app?vid=c61a209a-21b1-40bd-b21a-bae86d3a9463","ios":"levelo://app?vid=c61a209a-21b1-40bd-b21a-bae86d3a9463"},"vehicle_type_id":"4","last_reported":1714547285,"current_range_meters":10400,"station_id":"ce4bgv12rcd13ifvqcp0","pricing_plan_id":"cebpf4jnsgd1na2vs0mg"},{"bike_id":"bc0d8ca7-5a92-4ed5-a752-9880f2cbff41","system_id":"levelo_inurba_marseille","lat":43.311722,"lon":5.387247,"is_reserved":false,"is_disabled":false,"rental_uris":{"android":"levelo://app?vid=bc0d8ca7-5a92-4ed5-a752-9880f2cbff41","ios":"levelo://app?vid=bc0d8ca7-5a92-4ed5-a752-9880f2cbff41"},"vehicle_type_id":"4","last_reported":1714547285,"current_range_meters":3200,"station_id":"ce4bgv12rcd13ifvqcp0","pricing_plan_id":"cebpf4jnsgd1na2vs0mg"},{"bike_id":"321a8ed7-c4b7-4629-b8ec-3cb573c250c2","system_id":"levelo_inurba_marseille","lat":43.311722,"lon":5.387247,"is_reserved":false,"is_disabled":false,"rental_uris":{"android":"levelo://app?vid=321a8ed7-c4b7-4629-b8ec-3cb573c250c2","ios":"levelo://app?vid=321a8ed7-c4b7-4629-b8ec-3cb573c250c2"},"vehicle_type_id":"4","last_reported":1714547285,"current_range_meters":31600,"station_id":"ce4bgv12rcd13ifvqcp0","pricing_plan_id":"cebpf4jnsgd1na2vs0mg"},{"bike_id":"c9fedb2d-c8e9-457e-8f5a-467eda7f5b4c","system_id":"levelo_inurba_marseille","lat":43.311722,"lon":5.387247,"is_reserved":false,"is_disabled":false,"rental_uris":{"android":"levelo://app?vid=c9fedb2d-c8e9-457e-8f5a-467eda7f5b4c","ios":"levelo://app?vid=c9fedb2d-c8e9-457e-8f5a-467eda7f5b4c"},"vehicle_type_id":"4","last_reported":1714547285,"current_range_meters":14800,"station_id":"ce4bgv12rcd13ifvqcp0","pricing_plan_id":"cebpf4jnsgd1na2vs0mg"},{"bike_id":"28ace04e-9076-4dee-88c2-508f6c477920","system_id":"levelo_inurba_marseille","lat":43.311722,"lon":5.387247,"is_reserved":false,"is_disabled":false,"rental_uris":{"android":"levelo://app?vid=28ace04e-9076-4dee-88c2-508f6c477920","ios":"levelo://app?vid=28ace04e-9076-4dee-88c2-508f6c477920"},"vehicle_type_id":"4","last_reported":1714547285,"current_range_meters":31600,"station_id":"ce4bgv12rcd13ifvqcp0","pricing_plan_id":"cebpf4jnsgd1na2vs0mg"},{"bike_id":"e29e9537-d919-4edd-ad7a-6f9e69c17eae","system_id":"levelo_inurba_marseille","lat":43.311722,"lon":5.387247,"is_reserved":false,"is_disabled":false,"rental_uris":{"android":"levelo://app?vid=e29e9537-d919-4edd-ad7a-6f9e69c17eae","ios":"levelo://app?vid=e29e9537-d919-4edd-ad7a-6f9e69c17eae"},"vehicle_type_id":"4","last_reported":1714547285,"current_range_meters":11600,"station_id":"ce4bgv12rcd13ifvqcp0","pricing_plan_id":"cebpf4jnsgd1na2vs0mg"},{"bike_id":"746b8697-8d55-494b-89c5-a601195868db","system_id":"levelo_inurba_marseille","lat":43.311722,"lon":5.387247,"is_reserved":false,"is_disabled":false,"rental_uris":{"android":"levelo://app?vid=746b8697-8d55-494b-89c5-a601195868db","ios":"levelo://app?vid=746b8697-8d55-494b-89c5-a601195868db"},"vehicle_type_id":"4","last_reported":1714547285,"current_range_meters":15200,"station_id":"ce4bgv12rcd13ifvqcp0","pricing_plan_id":"cebpf4jnsgd1na2vs0mg"},{"bike_id":"c3cb4609-abb8-4306-bee6-7aae1dcda89b","system_id":"levelo_inurba_marseille","lat":43.311722,"lon":5.387247,"is_reserved":false,"is_disabled":false,"rental_uris":{"android":"levelo://app?vid=c3cb4609-abb8-4306-bee6-7aae1dcda89b","ios":"levelo://app?vid=c3cb4609-abb8-4306-bee6-7aae1dcda89b"},"vehicle_type_id":"4","last_reported":1714547285,"current_range_meters":16800,"station_id":"ce4bgv12rcd13ifvqcp0","pricing_plan_id":"cebpf4jnsgd1na2vs0mg"},{"bike_id":"0a2dd885-c95e-4381-8c98-b74779aa3340","system_id":"levelo_inurba_marseille","lat":43.311813,"lon":5.387166,"is_reserved":false,"is_disabled":false,"rental_uris":{"android":"levelo://app?vid=0a2dd885-c95e-4381-8c98-b74779aa3340","ios":"levelo://app?vid=0a2dd885-c95e-4381-8c98-b74779aa3340"},"vehicle_type_id":"4","last_reported":1714547285,"current_range_meters":4800,"station_id":"ce4bgv12rcd13ifvqcp0","pricing_plan_id":"cebpf4jnsgd1na2vs0mg"},{"bike_id":"a2695fa3-c1f9-4210-a642-6620c811688b","system_id":"levelo_inurba_marseille","lat":43.311722,"lon":5.387247,"is_reserved":false,"is_disabled":false,"rental_uris":{"android":"levelo://app?vid=a2695fa3-c1f9-4210-a642-6620c811688b","ios":"levelo://app?vid=a2695fa3-c1f9-4210-a642-6620c811688b"},"vehicle_type_id":"4","last_reported":1714547285,"current_range_meters":31600,"station_id":"ce4bgv12rcd13ifvqcp0","pricing_plan_id":"cebpf4jnsgd1na2vs0mg"},{"bike_id":"9131c5d5-49bb-4d34-ba3b-aa87568ef18c","system_id":"levelo_inurba_marseille","lat":43.311722,"lon":5.387247,"is_reserved":false,"is_disabled":false,"rental_uris":{"android":"levelo://app?vid=9131c5d5-49bb-4d34-ba3b-aa87568ef18c","ios":"levelo://app?vid=9131c5d5-49bb-4d34-ba3b-aa87568ef18c"},"vehicle_type_id":"4","last_reported":1714547285,"current_range_meters":16000,"station_id":"ce4bgv12rcd13ifvqcp0","pricing_plan_id":"cebpf4jnsgd1na2vs0mg"},{"bike_id":"24c1e5db-fe04-4805-a89b-83e2b0db08c9","system_id":"levelo_inurba_marseille","lat":43.2977,"lon":5.36795,"is_reserved":false,"is_disabled":false,"rental_uris":{"android":"levelo://app?vid=24c1e5db-fe04-4805-a89b-83e2b0db08c9","ios":"levelo://app?vid=24c1e5db-fe04-4805-a89b-83e2b0db08c9"},"vehicle_type_id":"4","last_reported":1714547285,"current_range_meters":9200,"station_id":"","pricing_plan_id":"cebpf4jnsgd1na2vs0mg"},{"bike_id":"87afb410-72d5-4fbd-b38b-b15c82153b5f","system_id":"levelo_inurba_marseille","lat":43.322872,"lon":5.382756,"is_reserved":false,"is_disabled":false,"rental_uris":{"android":"levelo://app?vid=87afb410-72d5-4fbd-b38b-b15c82153b5f","ios":"levelo://app?vid=87afb410-72d5-4fbd-b38b-b15c82153b5f"},"vehicle_type_id":"4","last_reported":1714547285,"current_range_meters":0,"station_id":"ce4bhr12rcd13ifvqhqg","pricing_plan_id":"cebpf4jnsgd1na2vs0mg"},{"bike_id":"726e1e87-cba6-41f7-ad2e-489ae4aa3f9f","system_id":"levelo_inurba_marseille","lat":43.322872,"lon":5.382756,"is_reserved":false,"is_disabled":false,"rental_uris":{"android":"levelo://app?vid=726e1e87-cba6-41f7-ad2e-489ae4aa3f9f","ios":"levelo://app?vid=726e1e87-cba6-41f7-ad2e-489ae4aa3f9f"},"vehicle_type_id":"4","last_reported":1714547285,"current_range_meters":31600,"station_id":"ce4bhr12rcd13ifvqhqg","pricing_plan_id":"cebpf4jnsgd1na2vs0mg"},{"bike_id":"fabf9c54-8877-4973-b5dc-c4d49ecf3fe9","system_id":"levelo_inurba_marseille","lat":43.297774,"lon":5.370875,"is_reserved":false,"is_disabled":false,"rental_uris":{"android":"levelo://app?vid=fabf9c54-8877-4973-b5dc-c4d49ecf3fe9","ios":"levelo://app?vid=fabf9c54-8877-4973-b5dc-c4d49ecf3fe9"},"vehicle_type_id":"4","last_reported":1714547285,"current_range_meters":23600,"station_id":"ce4bgop2rcd13ifvqc1g","pricing_plan_id":"cebpf4jnsgd1na2vs0mg"},{"bike_id":"86267a81-5f39-419e-a9b8-6ca8af6f26ae","system_id":"levelo_inurba_marseille","lat":43.322872,"lon":5.382756,"is_reserved":false,"is_disabled":false,"rental_uris":{"android":"levelo://app?vid=86267a81-5f39-419e-a9b8-6ca8af6f26ae","ios":"levelo://app?vid=86267a81-5f39-419e-a9b8-6ca8af6f26ae"},"vehicle_type_id":"4","last_reported":1714547285,"current_range_meters":29200,"station_id":"ce4bhr12rcd13ifvqhqg","pricing_plan_id":"cebpf4jnsgd1na2vs0mg"},{"bike_id":"0ab478f2-a032-4fbe-957a-5834b534ffb4","system_id":"levelo_inurba_marseille","lat":43.297774,"lon":5.370875,"is_reserved":false,"is_disabled":false,"rental_uris":{"android":"levelo://app?vid=0ab478f2-a032-4fbe-957a-5834b534ffb4","ios":"levelo://app?vid=0ab478f2-a032-4fbe-957a-5834b534ffb4"},"vehicle_type_id":"4","last_reported":1714547285,"current_range_meters":27600,"station_id":"ce4bgop2rcd13ifvqc1g","pricing_plan_id":"cebpf4jnsgd1na2vs0mg"},{"bike_id":"6506c128-ea5f-4a9e-8e94-9b1f3fce7950","system_id":"levelo_inurba_marseille","lat":43.322872,"lon":5.382756,"is_reserved":false,"is_disabled":false,"rental_uris":{"android":"levelo://app?vid=6506c128-ea5f-4a9e-8e94-9b1f3fce7950","ios":"levelo://app?vid=6506c128-ea5f-4a9e-8e94-9b1f3fce7950"},"vehicle_type_id":"4","last_reported":1714547285,"current_range_meters":30400,"station_id":"ce4bhr12rcd13ifvqhqg","pricing_plan_id":"cebpf4jnsgd1na2vs0mg"},{"bike_id":"6aa1f222-04ee-42b8-b40a-0845ad6c5181","system_id":"levelo_inurba_marseille","lat":43.297163,"lon":5.365866,"is_reserved":false,"is_disabled":false,"rental_uris":{"android":"levelo://app?vid=6aa1f222-04ee-42b8-b40a-0845ad6c5181","ios":"levelo://app?vid=6aa1f222-04ee-42b8-b40a-0845ad6c5181"},"vehicle_type_id":"4","last_reported":1714547285,"current_range_meters":30800,"station_id":"ce4bgn12rcd13ifvqbt0","pricing_plan_id":"cebpf4jnsgd1na2vs0mg"},