{"last_updated":1778449065,"ttl":60,"version":"2.2","data":{"bikes":[{"bike_id":"dd074699-5920-40dc-ada2-4887ae6906b1","system_id":"levelo_inurba_marseille","lat":43.25858,"lon":5.39503,"is_reserved":false,"is_disabled":false,"rental_uris":{"android":"levelo://app?vid=dd074699-5920-40dc-ada2-4887ae6906b1","ios":"levelo://app?vid=dd074699-5920-40dc-ada2-4887ae6906b1"},"vehicle_type_id":"4","last_reported":1778449066,"current_range_meters":2800,"station_id":"","pricing_plan_id":"cebpf4jnsgd1na2vs0mg"},{"bike_id":"d408108d-df76-4537-a414-b1848a2f8b61","system_id":"levelo_inurba_marseille","lat":43.225387,"lon":5.348394,"is_reserved":false,"is_disabled":false,"rental_uris":{"android":"levelo://app?vid=d408108d-df76-4537-a414-b1848a2f8b61","ios":"levelo://app?vid=d408108d-df76-4537-a414-b1848a2f8b61"},"vehicle_type_id":"4","last_reported":1778449066,"current_range_meters":2800,"station_id":"st_cvj5dfep6f1abm77gieg","pricing_plan_id":"cebpf4jnsgd1na2vs0mg"},{"bike_id":"2a1755c6-621b-4ee0-b02e-fcd7e30106ff","system_id":"levelo_inurba_marseille","lat":43.29784,"lon":5.39354,"is_reserved":false,"is_disabled":true,"rental_uris":{"android":"levelo://app?vid=2a1755c6-621b-4ee0-b02e-fcd7e30106ff","ios":"levelo://app?vid=2a1755c6-621b-4ee0-b02e-fcd7e30106ff"},"vehicle_type_id":"4","last_reported":1778449066,"current_range_meters":2800,"station_id":"chh1huq6cuj3fo74tm60","pricing_plan_id":"cebpf4jnsgd1na2vs0mg"},{"bike_id":"56782922-f68e-469a-88e0-e54568de9fa4","system_id":"levelo_inurba_marseille","lat":43.30302,"lon":5.39187,"is_reserved":false,"is_disabled":true,"rental_uris":{"android":"levelo://app?vid=56782922-f68e-469a-88e0-e54568de9fa4","ios":"levelo://app?vid=56782922-f68e-469a-88e0-e54568de9fa4"},"vehicle_type_id":"4","last_reported":1778449066,"current_range_meters":3200,"station_id":"ce4bgkh2rcd13ifvqbk0","pricing_plan_id":"cebpf4jnsgd1na2vs0mg"},{"bike_id":"007e887e-ead9-43f1-944f-60d65c43ec5d","system_id":"levelo_inurba_marseille","lat":43.32648,"lon":5.40994,"is_reserved":false,"is_disabled":true,"rental_uris":{"android":"levelo://app?vid=007e887e-ead9-43f1-944f-60d65c43ec5d","ios":"levelo://app?vid=007e887e-ead9-43f1-944f-60d65c43ec5d"},"vehicle_type_id":"4","last_reported":1778449066,"current_range_meters":3200,"station_id":"ce4bhpp2rcd13ifvqhgg","pricing_plan_id":"cebpf4jnsgd1na2vs0mg"},{"bike_id":"689458f1-7c3d-457e-9967-103ee29a8833","system_id":"levelo_inurba_marseille","lat":43.29991,"lon":5.37168,"is_reserved":false,"is_disabled":true,"rental_uris":{"android":"levelo://app?vid=689458f1-7c3d-457e-9967-103ee29a8833","ios":"levelo://app?vid=689458f1-7c3d-457e-9967-103ee29a8833"},"vehicle_type_id":"4","last_reported":1778449066,"current_range_meters":3200,"station_id":"ce4bgr92rcd13ifvqc7g","pricing_plan_id":"cebpf4jnsgd1na2vs0mg"},{"bike_id":"14777d02-dcab-4a77-84b6-d2e189d53152","system_id":"levelo_inurba_marseille","lat":43.2815,"lon":5.38318,"is_reserved":false,"is_disabled":false,"rental_uris":{"android":"levelo://app?vid=14777d02-dcab-4a77-84b6-d2e189d53152","ios":"levelo://app?vid=14777d02-dcab-4a77-84b6-d2e189d53152"},"vehicle_type_id":"4","last_reported":1778449066,"current_range_meters":3200,"station_id":"","pricing_plan_id":"cebpf4jnsgd1na2vs0mg"},{"bike_id":"5e506c32-8063-47a0-a03b-0e18aefd7f60","system_id":"levelo_inurba_marseille","lat":43.24085,"lon":5.3768,"is_reserved":false,"is_disabled":true,"rental_uris":{"android":"levelo://app?vid=5e506c32-8063-47a0-a03b-0e18aefd7f60","ios":"levelo://app?vid=5e506c32-8063-47a0-a03b-0e18aefd7f60"},"vehicle_type_id":"4","last_reported":1778449066,"current_range_meters":3600,"station_id":"","pricing_plan_id":"cebpf4jnsgd1na2vs0mg"},{"bike_id":"4f2b66b9-d2be-480c-a44a-c9a32982cb61","system_id":"levelo_inurba_marseille","lat":43.286647,"lon":5.383252,"is_reserved":false,"is_disabled":true,"rental_uris":{"android":"levelo://app?vid=4f2b66b9-d2be-480c-a44a-c9a32982cb61","ios":"levelo://app?vid=4f2b66b9-d2be-480c-a44a-c9a32982cb61"},"vehicle_type_id":"4","last_reported":1778449066,"current_range_meters":3600,"station_id":"ce4bh192rcd13ifvqdd0","pricing_plan_id":"cebpf4jnsgd1na2vs0mg"},{"bike_id":"ee1a5dd9-04af-4787-9e08-5c55e5d06b4d","system_id":"levelo_inurba_marseille","lat":43.29812,"lon":5.38208,"is_reserved":false,"is_disabled":false,"rental_uris":{"android":"levelo://app?vid=ee1a5dd9-04af-4787-9e08-5c55e5d06b4d","ios":"levelo://app?vid=ee1a5dd9-04af-4787-9e08-5c55e5d06b4d"},"vehicle_type_id":"4","last_reported":1778449066,"current_range_meters":3600,"station_id":"","pricing_plan_id":"cebpf4jnsgd1na2vs0mg"},{"bike_id":"0bff19b0-759c-4974-b971-6d7bfa56b685","system_id":"levelo_inurba_marseille","lat":43.2981,"lon":5.44055,"is_reserved":false,"is_disabled":false,"rental_uris":{"android":"levelo://app?vid=0bff19b0-759c-4974-b971-6d7bfa56b685","ios":"levelo://app?vid=0bff19b0-759c-4974-b971-6d7bfa56b685"},"vehicle_type_id":"4","last_reported":1778449066,"current_range_meters":3600,"station_id":"st_d3jp68qikq2c7381ktn0","pricing_plan_id":"cebpf4jnsgd1na2vs0mg"},{"bike_id":"768183db-c0d7-4cca-abdf-974e2f48f0f1","system_id":"levelo_inurba_marseille","lat":43.25123,"lon":5.4033,"is_reserved":false,"is_disabled":false,"rental_uris":{"android":"levelo://app?vid=768183db-c0d7-4cca-abdf-974e2f48f0f1","ios":"levelo://app?vid=768183db-c0d7-4cca-abdf-974e2f48f0f1"},"vehicle_type_id":"4","last_reported":1778449066,"current_range_meters":3600,"station_id":"ce4bhlh2rcd13ifvqgig","pricing_plan_id":"cebpf4jnsgd1na2vs0mg"},{"bike_id":"808c4ecd-9bba-4ef5-91dc-62b4109dcc93","system_id":"levelo_inurba_marseille","lat":43.2954,"lon":5.38532,"is_reserved":false,"is_disabled":true,"rental_uris":{"android":"levelo://app?vid=808c4ecd-9bba-4ef5-91dc-62b4109dcc93","ios":"levelo://app?vid=808c4ecd-9bba-4ef5-91dc-62b4109dcc93"},"vehicle_type_id":"4","last_reported":1778449066,"current_range_meters":3600,"station_id":"ce4bgih2rcd13ifvqba0","pricing_plan_id":"cebpf4jnsgd1na2vs0mg"},{"bike_id":"ff41f028-e74e-477a-8abb-51c0d2444223","system_id":"levelo_inurba_marseille","lat":43.25117,"lon":5.40328,"is_reserved":false,"is_disabled":false,"rental_uris":{"android":"levelo://app?vid=ff41f028-e74e-477a-8abb-51c0d2444223","ios":"levelo://app?vid=ff41f028-e74e-477a-8abb-51c0d2444223"},"vehicle_type_id":"4","last_reported":1778449066,"current_range_meters":3600,"station_id":"ce4bhlh2rcd13ifvqgig","pricing_plan_id":"cebpf4jnsgd1na2vs0mg"},{"bike_id":"a6a60149-ea74-4dce-b409-ebc1a0b75a1f","system_id":"levelo_inurba_marseille","lat":43.30541,"lon":5.38399,"is_reserved":false,"is_disabled":true,"rental_uris":{"android":"levelo://app?vid=a6a60149-ea74-4dce-b409-ebc1a0b75a1f","ios":"levelo://app?vid=a6a60149-ea74-4dce-b409-ebc1a0b75a1f"},"vehicle_type_id":"4","last_reported":1778449066,"current_range_meters":3600,"station_id":"ce4bgg92rcd13ifvqb30","pricing_plan_id":"cebpf4jnsgd1na2vs0mg"},{"bike_id":"3a7a6490-34c7-4e66-a967-52dc19722c9c","system_id":"levelo_inurba_marseille","lat":43.25378,"lon":5.39425,"is_reserved":false,"is_disabled":false,"rental_uris":{"android":"levelo://app?vid=3a7a6490-34c7-4e66-a967-52dc19722c9c","ios":"levelo://app?vid=3a7a6490-34c7-4e66-a967-52dc19722c9c"},"vehicle_type_id":"4","last_reported":1778449066,"current_range_meters":3600,"station_id":"","pricing_plan_id":"cebpf4jnsgd1na2vs0mg"},{"bike_id":"30b66022-1366-4606-862b-d547da8c8a3a","system_id":"levelo_inurba_marseille","lat":43.29034,"lon":5.40042,"is_reserved":false,"is_disabled":true,"rental_uris":{"android":"levelo://app?vid=30b66022-1366-4606-862b-d547da8c8a3a","ios":"levelo://app?vid=30b66022-1366-4606-862b-d547da8c8a3a"},"vehicle_type_id":"4","last_reported":1778449066,"current_range_meters":3600,"station_id":"","pricing_plan_id":"cebpf4jnsgd1na2vs0mg"},{"bike_id":"01acd996-48ff-408b-8cd5-eb13c17ed35b","system_id":"levelo_inurba_marseille","lat":43.29966,"lon":5.38483,"is_reserved":false,"is_disabled":false,"rental_uris":{"android":"levelo://app?vid=01acd996-48ff-408b-8cd5-eb13c17ed35b","ios":"levelo://app?vid=01acd996-48ff-408b-8cd5-eb13c17ed35b"},"vehicle_type_id":"4","last_reported":1778449066,"current_range_meters":4000,"station_id":"ce4bgj92rcd13ifvqbd0","pricing_plan_id":"cebpf4jnsgd1na2vs0mg"},{"bike_id":"99a0e576-ed5f-4181-82e6-5ea914287817","system_id":"levelo_inurba_marseille","lat":43.29566,"lon":5.399815,"is_reserved":false,"is_disabled":false,"rental_uris":{"android":"levelo://app?vid=99a0e576-ed5f-4181-82e6-5ea914287817","ios":"levelo://app?vid=99a0e576-ed5f-4181-82e6-5ea914287817"},"vehicle_type_id":"4","last_reported":1778449066,"current_range_meters":4000,"station_id":"ce4bh312rcd13ifvqdj0","pricing_plan_id":"cebpf4jnsgd1na2vs0mg"},{"bike_id":"323e4707-b629-4d35-ab4e-66a5c4e389f5","system_id":"levelo_inurba_marseille","lat":43.29194,"lon":5.35775,"is_reserved":false,"is_disabled":true,"rental_uris":{"android":"levelo://app?vid=323e4707-b629-4d35-ab4e-66a5c4e389f5","ios":"levelo://app?vid=323e4707-b629-4d35-ab4e-66a5c4e389f5"},"vehicle_type_id":"4","last_reported":1778449066,"current_range_meters":4000,"station_id":"ce4bhb12rcd13ifvqel0","pricing_plan_id":"cebpf4jnsgd1na2vs0mg"},{"bike_id":"0c95ab3d-ec3c-4377-b542-a4da3509f779","system_id":"levelo_inurba_marseille","lat":43.282202,"lon":5.390799,"is_reserved":false,"is_disabled":false,"rental_uris":{"android":"levelo://app?vid=0c95ab3d-ec3c-4377-b542-a4da3509f779","ios":"levelo://app?vid=0c95ab3d-ec3c-4377-b542-a4da3509f779"},"vehicle_type_id":"4","last_reported":1778449066,"current_range_meters":4000,"station_id":"ce4bhn92rcd13ifvqgsg","pricing_plan_id":"cebpf4jnsgd1na2vs0mg"},{"bike_id":"1c6f778a-b852-40d6-a88d-2ed485e079f6","system_id":"levelo_inurba_marseille","lat":43.23758,"lon":5.36649,"is_reserved":false,"is_disabled":false,"rental_uris":{"android":"levelo://app?vid=1c6f778a-b852-40d6-a88d-2ed485e079f6","ios":"levelo://app?vid=1c6f778a-b852-40d6-a88d-2ed485e079f6"},"vehicle_type_id":"4","last_reported":1778449066,"current_range_meters":4000,"station_id":"st_d3nk18o9ro0c73en2l3g","pricing_plan_id":"cebpf4jnsgd1na2vs0mg"},{"bike_id":"f289a609-c36a-4e99-bba2-cdf1bda26ac9","system_id":"levelo_inurba_marseille","lat":43.26231,"lon":5.38756,"is_reserved":false,"is_disabled":false,"rental_uris":{"android":"levelo://app?vid=f289a609-c36a-4e99-bba2-cdf1bda26ac9","ios":"levelo://app?vid=f289a609-c36a-4e99-bba2-cdf1bda26ac9"},"vehicle_type_id":"4","last_reported":1778449066,"current_range_meters":4000,"station_id":"","pricing_plan_id":"cebpf4jnsgd1na2vs0mg"},{"bike_id":"e498ab79-3363-494b-8086-6ae0573da35f","system_id":"levelo_inurba_marseille","lat":43.30359,"lon":5.41871,"is_reserved":false,"is_disabled":false,"rental_uris":{"android":"levelo://app?vid=e498ab79-3363-494b-8086-6ae0573da35f","ios":"levelo://app?vid=e498ab79-3363-494b-8086-6ae0573da35f"},"vehicle_type_id":"4","last_reported":1778449066,"current_range_meters":4400,"station_id":"ce4bhop2rcd13ifvqh7g","pricing_plan_id":"cebpf4jnsgd1na2vs0mg"},{"bike_id":"6dec282d-38ec-4336-8ede-9a1772e1298f","system_id":"levelo_inurba_marseille","lat":43.29552,"lon":5.38173,"is_reserved":false,"is_disabled":false,"rental_uris":{"android":"levelo://app?vid=6dec282d-38ec-4336-8ede-9a1772e1298f","ios":"levelo://app?vid=6dec282d-38ec-4336-8ede-9a1772e1298f"},"vehicle_type_id":"4","last_reported":1778449066,"current_range_meters":4400,"station_id":"","pricing_plan_id":"cebpf4jnsgd1na2vs0mg"},{"bike_id":"b1da61d1-b5c7-43ea-a140-9b8f00db4d69","system_id":"levelo_inurba_marseille","lat":43.29329,"lon":5.37998,"is_reserved":false,"is_disabled":false,"rental_uris":{"android":"levelo://app?vid=b1da61d1-b5c7-43ea-a140-9b8f00db4d69","ios":"levelo://app?vid=b1da61d1-b5c7-43ea-a140-9b8f00db4d69"},"vehicle_type_id":"4","last_reported":1778449066,"current_range_meters":4400,"station_id":"","pricing_plan_id":"cebpf4jnsgd1na2vs0mg"},{"bike_id":"b9a1cfd1-7a50-4730-a10e-84cb3d798401","system_id":"levelo_inurba_marseille","lat":43.28711,"lon":5.3793,"is_reserved":false,"is_disabled":false,"rental_uris":{"android":"levelo://app?vid=b9a1cfd1-7a50-4730-a10e-84cb3d798401","ios":"levelo://app?vid=b9a1cfd1-7a50-4730-a10e-84cb3d798401"},"vehicle_type_id":"4","last_reported":1778449066,"current_range_meters":4400,"station_id":"ce4bh9p2rcd13ifvqec0","pricing_plan_id":"cebpf4jnsgd1na2vs0mg"},{"bike_id":"79ff25c7-2ae1-4a8b-b9c9-0d906c7c3fd1","system_id":"levelo_inurba_marseille","lat":43.27897,"lon":5.38012,"is_reserved":false,"is_disabled":false,"rental_uris":{"android":"levelo://app?vid=79ff25c7-2ae1-4a8b-b9c9-0d906c7c3fd1","ios":"levelo://app?vid=79ff25c7-2ae1-4a8b-b9c9-0d906c7c3fd1"},"vehicle_type_id":"4","last_reported":1778449066,"current_range_meters":4400,"station_id":"ce4bhf92rcd13ifvqf50","pricing_plan_id":"cebpf4jnsgd1na2vs0mg"},{"bike_id":"77f90968-1b86-4e2c-8b76-8ed10644b0cc","system_id":"levelo_inurba_marseille","lat":43.295699,"lon":5.399819,"is_reserved":false,"is_disabled":false,"rental_uris":{"android":"levelo://app?vid=77f90968-1b86-4e2c-8b76-8ed10644b0cc","ios":"levelo://app?vid=77f90968-1b86-4e2c-8b76-8ed10644b0cc"},"vehicle_type_id":"4","last_reported":1778449066,"current_range_meters":4400,"station_id":"ce4bh312rcd13ifvqdj0","pricing_plan_id":"cebpf4jnsgd1na2vs0mg"},{"bike_id":"7038e266-7dfa-42fa-8e91-50f179aa7f0e","system_id":"levelo_inurba_marseille","lat":43.33548,"lon":5.37488,"is_reserved":false,"is_disabled":false,"rental_uris":{"android":"levelo://app?vid=7038e266-7dfa-42fa-8e91-50f179aa7f0e","ios":"levelo://app?vid=7038e266-7dfa-42fa-8e91-50f179aa7f0e"},"vehicle_type_id":"4","last_reported":1778449066,"current_range_meters":4400,"station_id":"st_d46tts09ee8s73dlu43g","pricing_plan_id":"cebpf4jnsgd1na2vs0mg"},{"bike_id":"ad824b62-ba8d-40e6-a073-14a810f8f6bf","system_id":"levelo_inurba_marseille","lat":43.26078,"lon":5.39378,"is_reserved":false,"is_disabled":false,"rental_uris":{"android":"levelo://app?vid=ad824b62-ba8d-40e6-a073-14a810f8f6bf","ios":"levelo://app?vid=ad824b62-ba8d-40e6-a073-14a810f8f6bf"},"vehicle_type_id":"4","last_reported":1778449066,"current_range_meters":4400,"station_id":"ce4bhh92rcd13ifvqfj0","pricing_plan_id":"cebpf4jnsgd1na2vs0mg"},{"bike_id":"f5cf03bb-ddde-47ec-a428-9eebf367df27","system_id":"levelo_inurba_marseille","lat":43.25502,"lon":5.37648,"is_reserved":false,"is_disabled":false,"rental_uris":{"android":"levelo://app?vid=f5cf03bb-ddde-47ec-a428-9eebf367df27","ios":"levelo://app?vid=f5cf03bb-ddde-47ec-a428-9eebf367df27"},"vehicle_type_id":"4","last_reported":1778449066,"current_range_meters":4400,"station_id":"ce4bhh12rcd13ifvqff0","pricing_plan_id":"cebpf4jnsgd1na2vs0mg"},{"bike_id":"cae0fd07-40e3-48af-b980-40f2d169441a","system_id":"levelo_inurba_marseille","lat":43.33168,"lon":5.37682,"is_reserved":false,"is_disabled":false,"rental_uris":{"android":"levelo://app?vid=cae0fd07-40e3-48af-b980-40f2d169441a","ios":"levelo://app?vid=cae0fd07-40e3-48af-b980-40f2d169441a"},"vehicle_type_id":"4","last_reported":1778449066,"current_range_meters":4400,"station_id":"st_d46cu089ee8s73dldbu0","pricing_plan_id":"cebpf4jnsgd1na2vs0mg"},{"bike_id":"7017c387-278c-4b8c-9782-aa80dc34ecbe","system_id":"levelo_inurba_marseille","lat":43.23899,"lon":5.37464,"is_reserved":false,"is_disabled":true,"rental_uris":{"android":"levelo://app?vid=7017c387-278c-4b8c-9782-aa80dc34ecbe","ios":"levelo://app?vid=7017c387-278c-4b8c-9782-aa80dc34ecbe"},"vehicle_type_id":"4","last_reported":1778449066,"current_range_meters":4400,"station_id":"st_d6sm7csbq4hs73f8fpjg","pricing_plan_id":"cebpf4jnsgd1na2vs0mg"},{"bike_id":"dd3ff510-dbc7-48f6-bed5-cd76ef48502e","system_id":"levelo_inurba_marseille","lat":43.29808,"lon":5.404,"is_reserved":false,"is_disabled":false,"rental_uris":{"android":"levelo://app?vid=dd3ff510-dbc7-48f6-bed5-cd76ef48502e","ios":"levelo://app?vid=dd3ff510-dbc7-48f6-bed5-cd76ef48502e"},"vehicle_type_id":"4","last_reported":1778449066,"current_range_meters":4400,"station_id":"ce4bh112rcd13ifvqd90","pricing_plan_id":"cebpf4jnsgd1na2vs0mg"},{"bike_id":"b19bf9b4-ef97-4d8a-920a-d163a47ef53f","system_id":"levelo_inurba_marseille","lat":43.28936,"lon":5.36593,"is_reserved":false,"is_disabled":false,"rental_uris":{"android":"levelo://app?vid=b19bf9b4-ef97-4d8a-920a-d163a47ef53f","ios":"levelo://app?vid=b19bf9b4-ef97-4d8a-920a-d163a47ef53f"},"vehicle_type_id":"4","last_reported":1778449066,"current_range_meters":4800,"station_id":"ce4bhap2rcd13ifvqek0","pricing_plan_id":"cebpf4jnsgd1na2vs0mg"},{"bike_id":"8ef16af9-67c0-466d-aa89-61b55eb65a8a","system_id":"levelo_inurba_marseille","lat":43.27451,"lon":5.39402,"is_reserved":false,"is_disabled":true,"rental_uris":{"android":"levelo://app?vid=8ef16af9-67c0-466d-aa89-61b55eb65a8a","ios":"levelo://app?vid=8ef16af9-67c0-466d-aa89-61b55eb65a8a"},"vehicle_type_id":"4","last_reported":1778449066,"current_range_meters":4800,"station_id":"ce4bhdp2rcd13ifvqf20","pricing_plan_id":"cebpf4jnsgd1na2vs0mg"},{"bike_id":"8de89280-2a61-4268-b817-bf90021f9ced","system_id":"levelo_inurba_marseille","lat":43.32112,"lon":5.36731,"is_reserved":false,"is_disabled":false,"rental_uris":{"android":"levelo://app?vid=8de89280-2a61-4268-b817-bf90021f9ced","ios":"levelo://app?vid=8de89280-2a61-4268-b817-bf90021f9ced"},"vehicle_type_id":"4","last_reported":1778449066,"current_range_meters":4800,"station_id":"ce4bhrh2rcd13ifvqhug","pricing_plan_id":"cebpf4jnsgd1na2vs0mg"},{"bike_id":"930d7fff-c7b1-45b5-b3a7-d73e37a42a4a","system_id":"levelo_inurba_marseille","lat":43.30392,"lon":5.42497,"is_reserved":false,"is_disabled":false,"rental_uris":{"android":"levelo://app?vid=930d7fff-c7b1-45b5-b3a7-d73e37a42a4a","ios":"levelo://app?vid=930d7fff-c7b1-45b5-b3a7-d73e37a42a4a"},"vehicle_type_id":"4","last_reported":1778449066,"current_range_meters":4800,"station_id":"ce4bhoh2rcd13ifvqh6g","pricing_plan_id":"cebpf4jnsgd1na2vs0mg"},{"bike_id":"17cc4c0a-4b5f-4e18-aeb2-472d34557615","system_id":"levelo_inurba_marseille","lat":43.28701,"lon":5.46651,"is_reserved":false,"is_disabled":false,"rental_uris":{"android":"levelo://app?vid=17cc4c0a-4b5f-4e18-aeb2-472d34557615","ios":"levelo://app?vid=17cc4c0a-4b5f-4e18-aeb2-472d34557615"},"vehicle_type_id":"4","last_reported":1778449066,"current_range_meters":4800,"station_id":"st_d6tc3vkotcvc738tfjhg","pricing_plan_id":"cebpf4jnsgd1na2vs0mg"},{"bike_id":"c265601b-8c08-4c21-a6e7-62cd9f15459b","system_id":"levelo_inurba_marseille","lat":43.25519,"lon":5.37674,"is_reserved":false,"is_disabled":false,"rental_uris":{"android":"levelo://app?vid=c265601b-8c08-4c21-a6e7-62cd9f15459b","ios":"levelo://app?vid=c265601b-8c08-4c21-a6e7-62cd9f15459b"},"vehicle_type_id":"4","last_reported":1778449066,"current_range_meters":4800,"station_id":"ce4bhh12rcd13ifvqff0","pricing_plan_id":"cebpf4jnsgd1na2vs0mg"},{"bike_id":"0152740e-06db-4ade-88eb-e3632fbb8a1f","system_id":"levelo_inurba_marseille","lat":43.28314,"lon":5.35093,"is_reserved":false,"is_disabled":true,"rental_uris":{"android":"levelo://app?vid=0152740e-06db-4ade-88eb-e3632fbb8a1f","ios":"levelo://app?vid=0152740e-06db-4ade-88eb-e3632fbb8a1f"},"vehicle_type_id":"4","last_reported":1778449066,"current_range_meters":4800,"station_id":"","pricing_plan_id":"cebpf4jnsgd1na2vs0mg"},{"bike_id":"4334a4d4-7ea5-43dd-906d-39e9f3ff5d2d","system_id":"levelo_inurba_marseille","lat":43.28412,"lon":5.37494,"is_reserved":false,"is_disabled":false,"rental_uris":{"android":"levelo://app?vid=4334a4d4-7ea5-43dd-906d-39e9f3ff5d2d","ios":"levelo://app?vid=4334a4d4-7ea5-43dd-906d-39e9f3ff5d2d"},"vehicle_type_id":"4","last_reported":1778449066,"current_range_meters":4800,"station_id":"ce4bh412rcd13ifvqds0","pricing_plan_id":"cebpf4jnsgd1na2vs0mg"},{"bike_id":"3723f55c-2de6-48f5-a983-7b95ff3fa91f","system_id":"levelo_inurba_marseille","lat":43.25339,"lon":5.42172,"is_reserved":false,"is_disabled":false,"rental_uris":{"android":"levelo://app?vid=3723f55c-2de6-48f5-a983-7b95ff3fa91f","ios":"levelo://app?vid=3723f55c-2de6-48f5-a983-7b95ff3fa91f"},"vehicle_type_id":"4","last_reported":1778449066,"current_range_meters":4800,"station_id":"st_d2m65c5bi1j21697t3ng","pricing_plan_id":"cebpf4jnsgd1na2vs0mg"},{"bike_id":"03caa80e-93c7-48f8-a242-d268eeae0a9d","system_id":"levelo_inurba_marseille","lat":43.28629,"lon":5.4014,"is_reserved":false,"is_disabled":false,"rental_uris":{"android":"levelo://app?vid=03caa80e-93c7-48f8-a242-d268eeae0a9d","ios":"levelo://app?vid=03caa80e-93c7-48f8-a242-d268eeae0a9d"},"vehicle_type_id":"4","last_reported":1778449066,"current_range_meters":4800,"station_id":"","pricing_plan_id":"cebpf4jnsgd1na2vs0mg"},{"bike_id":"45f8fdb7-2cb1-45b9-8a88-adeab1f325d7","system_id":"levelo_inurba_marseille","lat":43.29244,"lon":5.38332,"is_reserved":false,"is_disabled":false,"rental_uris":{"android":"levelo://app?vid=45f8fdb7-2cb1-45b9-8a88-adeab1f325d7","ios":"levelo://app?vid=45f8fdb7-2cb1-45b9-8a88-adeab1f325d7"},"vehicle_type_id":"4","last_reported":1778449066,"current_range_meters":4800,"station_id":"","pricing_plan_id":"cebpf4jnsgd1na2vs0mg"},{"bike_id":"9dc61640-987a-437c-ada7-637d7471e1db","system_id":"levelo_inurba_marseille","lat":43.32851,"lon":5.37486,"is_reserved":false,"is_disabled":false,"rental_uris":{"android":"levelo://app?vid=9dc61640-987a-437c-ada7-637d7471e1db","ios":"levelo://app?vid=9dc61640-987a-437c-ada7-637d7471e1db"},"vehicle_type_id":"4","last_reported":1778449066,"current_range_meters":5600,"station_id":"","pricing_plan_id":"cebpf4jnsgd1na2vs0mg"},{"bike_id":"2506be62-85f3-41a6-b103-e5faab53b5ba","system_id":"levelo_inurba_marseille","lat":43.27546,"lon":5.38387,"is_reserved":false,"is_disabled":true,"rental_uris":{"android":"levelo://app?vid=2506be62-85f3-41a6-b103-e5faab53b5ba","ios":"levelo://app?vid=2506be62-85f3-41a6-b103-e5faab53b5ba"},"vehicle_type_id":"4","last_reported":1778449066,"current_range_meters":5600,"station_id":"ce4bhh92rcd13ifvqfi0","pricing_plan_id":"cebpf4jnsgd1na2vs0mg"},{"bike_id":"91990055-9ce4-459a-87ae-7fbe40947a26","system_id":"levelo_inurba_marseille","lat":43.30863,"lon":5.37193,"is_reserved":false,"is_disabled":false,"rental_uris":{"android":"levelo://app?vid=91990055-9ce4-459a-87ae-7fbe40947a26","ios":"levelo://app?vid=91990055-9ce4-459a-87ae-7fbe40947a26"},"vehicle_type_id":"4","last_reported":1778449066,"current_range_meters":5600,"station_id":"ce4bguh2rcd13ifvqckg","pricing_plan_id":"cebpf4jnsgd1na2vs0mg"},{"bike_id":"2a10f88f-9d4c-47c3-8c89-9fe21d53aeab","system_id":"levelo_inurba_marseille","lat":43.28417,"lon":5.37485,"is_reserved":false,"is_disabled":true,"rental_uris":{"android":"levelo://app?vid=2a10f88f-9d4c-47c3-8c89-9fe21d53aeab","ios":"levelo://app?vid=2a10f88f-9d4c-47c3-8c89-9fe21d53aeab"},"vehicle_type_id":"4","last_reported":1778449066,"current_range_meters":5600,"station_id":"ce4bh412rcd13ifvqds0","pricing_plan_id":"cebpf4jnsgd1na2vs0mg"},{"bike_id":"43ec9c65-e87a-4e85-86f3-9260a882dc04","system_id":"levelo_inurba_marseille","lat":43.30137,"lon":5.43093,"is_reserved":false,"is_disabled":true,"rental_uris":{"android":"levelo://app?vid=43ec9c65-e87a-4e85-86f3-9260a882dc04","ios":"levelo://app?vid=43ec9c65-e87a-4e85-86f3-9260a882dc04"},"vehicle_type_id":"4","last_reported":1778449066,"current_range_meters":5600,"station_id":"st_d3js3co5814s73ftftug","pricing_plan_id":"cebpf4jnsgd1na2vs0mg"},{"bike_id":"d5f0dc25-4592-44f7-8db4-ee52a35f69ad","system_id":"levelo_inurba_marseille","lat":43.28478,"lon":5.484,"is_reserved":false,"is_disabled":false,"rental_uris":{"android":"levelo://app?vid=d5f0dc25-4592-44f7-8db4-ee52a35f69ad","ios":"levelo://app?vid=d5f0dc25-4592-44f7-8db4-ee52a35f69ad"},"vehicle_type_id":"4","last_reported":1778449066,"current_range_meters":5600,"station_id":"","pricing_plan_id":"cebpf4jnsgd1na2vs0mg"},{"bike_id":"0918215f-be43-49cf-98f8-2090e0500933","system_id":"levelo_inurba_marseille","lat":43.25076,"lon":5.40322,"is_reserved":false,"is_disabled":false,"rental_uris":{"android":"levelo://app?vid=0918215f-be43-49cf-98f8-2090e0500933","ios":"levelo://app?vid=0918215f-be43-49cf-98f8-2090e0500933"},"vehicle_type_id":"4","last_reported":1778449066,"current_range_meters":5600,"station_id":"ce4bhlh2rcd13ifvqgig","pricing_plan_id":"cebpf4jnsgd1na2vs0mg"},{"bike_id":"1acd2af1-a4f4-4c63-b2ff-618a93af9a1b","system_id":"levelo_inurba_marseille","lat":43.255038,"lon":5.376507,"is_reserved":false,"is_disabled":false,"rental_uris":{"android":"levelo://app?vid=1acd2af1-a4f4-4c63-b2ff-618a93af9a1b","ios":"levelo://app?vid=1acd2af1-a4f4-4c63-b2ff-618a93af9a1b"},"vehicle_type_id":"4","last_reported":1778449066,"current_range_meters":5600,"station_id":"ce4bhh12rcd13ifvqff0","pricing_plan_id":"cebpf4jnsgd1na2vs0mg"},{"bike_id":"3d4a4d1f-f306-4653-8b6c-31910893fd40","system_id":"levelo_inurba_marseille","lat":43.2894,"lon":5.3664,"is_reserved":false,"is_disabled":false,"rental_uris":{"android":"levelo://app?vid=3d4a4d1f-f306-4653-8b6c-31910893fd40","ios":"levelo://app?vid=3d4a4d1f-f306-4653-8b6c-31910893fd40"},"vehicle_type_id":"4","last_reported":1778449066,"current_range_meters":5600,"station_id":"ce4bhap2rcd13ifvqek0","pricing_plan_id":"cebpf4jnsgd1na2vs0mg"},{"bike_id":"9dc8b407-896c-4433-85cd-b397c0ed26f9","system_id":"levelo_inurba_marseille","lat":43.28505,"lon":5.38555,"is_reserved":false,"is_disabled":false,"rental_uris":{"android":"levelo://app?vid=9dc8b407-896c-4433-85cd-b397c0ed26f9","ios":"levelo://app?vid=9dc8b407-896c-4433-85cd-b397c0ed26f9"},"vehicle_type_id":"4","last_reported":1778449066,"current_range_meters":5600,"station_id":"ce4bh8p2rcd13ifvqeb0","pricing_plan_id":"cebpf4jnsgd1na2vs0mg"},{"bike_id":"83ecb1f7-3a93-470e-862c-9021084d64be","system_id":"levelo_inurba_marseille","lat":43.28978,"lon":5.37834,"is_reserved":false,"is_disabled":false,"rental_uris":{"android":"levelo://app?vid=83ecb1f7-3a93-470e-862c-9021084d64be","ios":"levelo://app?vid=83ecb1f7-3a93-470e-862c-9021084d64be"},"vehicle_type_id":"4","last_reported":1778449066,"current_range_meters":5600,"station_id":"ce4bh9p2rcd13ifvqed0","pricing_plan_id":"cebpf4jnsgd1na2vs0mg"},{"bike_id":"76645867-9226-4148-a6ac-b7d91fe256ae","system_id":"levelo_inurba_marseille","lat":43.29913,"lon":5.37462,"is_reserved":false,"is_disabled":true,"rental_uris":{"android":"levelo://app?vid=76645867-9226-4148-a6ac-b7d91fe256ae","ios":"levelo://app?vid=76645867-9226-4148-a6ac-b7d91fe256ae"},"vehicle_type_id":"4","last_reported":1778449066,"current_range_meters":5600,"station_id":"","pricing_plan_id":"cebpf4jnsgd1na2vs0mg"},{"bike_id":"f1c24aa7-e0ea-48cf-976a-1ab897ce524d","system_id":"levelo_inurba_marseille","lat":43.29993,"lon":5.37133,"is_reserved":false,"is_disabled":true,"rental_uris":{"android":"levelo://app?vid=f1c24aa7-e0ea-48cf-976a-1ab897ce524d","ios":"levelo://app?vid=f1c24aa7-e0ea-48cf-976a-1ab897ce524d"},"vehicle_type_id":"4","last_reported":1778449066,"current_range_meters":6000,"station_id":"ce4bgr92rcd13ifvqc7g","pricing_plan_id":"cebpf4jnsgd1na2vs0mg"},{"bike_id":"59827150-34e3-4aef-a8c3-9fd1f0af10d9","system_id":"levelo_inurba_marseille","lat":43.23402,"lon":5.41239,"is_reserved":false,"is_disabled":false,"rental_uris":{"android":"levelo://app?vid=59827150-34e3-4aef-a8c3-9fd1f0af10d9","ios":"levelo://app?vid=59827150-34e3-4aef-a8c3-9fd1f0af10d9"},"vehicle_type_id":"4","last_reported":1778449066,"current_range_meters":6000,"station_id":"st_d75pvndhf9lc73cqq3eg","pricing_plan_id":"cebpf4jnsgd1na2vs0mg"},{"bike_id":"e2e90448-6a05-4f1c-a578-da4cf3d2800b","system_id":"levelo_inurba_marseille","lat":43.30637,"lon":5.40087,"is_reserved":false,"is_disabled":false,"rental_uris":{"android":"levelo://app?vid=e2e90448-6a05-4f1c-a578-da4cf3d2800b","ios":"levelo://app?vid=e2e90448-6a05-4f1c-a578-da4cf3d2800b"},"vehicle_type_id":"4","last_reported":1778449066,"current_range_meters":6000,"station_id":"ce4bh112rcd13ifvqda0","pricing_plan_id":"cebpf4jnsgd1na2vs0mg"},{"bike_id":"f3663f60-dbbf-48c6-8470-0b2e2be6f100","system_id":"levelo_inurba_marseille","lat":43.26386,"lon":5.41076,"is_reserved":false,"is_disabled":false,"rental_uris":{"android":"levelo://app?vid=f3663f60-dbbf-48c6-8470-0b2e2be6f100","ios":"levelo://app?vid=f3663f60-dbbf-48c6-8470-0b2e2be6f100"},"vehicle_type_id":"4","last_reported":1778449066,"current_range_meters":6000,"station_id":"st_d4e5ca6na9uc73bfl5fg","pricing_plan_id":"cebpf4jnsgd1na2vs0mg"},{"bike_id":"8395579b-8f38-41a7-86cb-d8270590e280","system_id":"levelo_inurba_marseille","lat":43.25733,"lon":5.41028,"is_reserved":false,"is_disabled":false,"rental_uris":{"android":"levelo://app?vid=8395579b-8f38-41a7-86cb-d8270590e280","ios":"levelo://app?vid=8395579b-8f38-41a7-86cb-d8270590e280"},"vehicle_type_id":"4","last_reported":1778449066,"current_range_meters":6000,"station_id":"","pricing_plan_id":"cebpf4jnsgd1na2vs0mg"},{"bike_id":"10032cbe-ae38-4812-b75e-e14f8fae2b66","system_id":"levelo_inurba_marseille","lat":43.28653,"lon":5.36353,"is_reserved":false,"is_disabled":false,"rental_uris":{"android":"levelo://app?vid=10032cbe-ae38-4812-b75e-e14f8fae2b66","ios":"levelo://app?vid=10032cbe-ae38-4812-b75e-e14f8fae2b66"},"vehicle_type_id":"4","last_reported":1778449066,"current_range_meters":6000,"station_id":"ce4bhah2rcd13ifvqej0","pricing_plan_id":"cebpf4jnsgd1na2vs0mg"},{"bike_id":"bae7c307-7f80-4856-9ef4-717babe7acdd","system_id":"levelo_inurba_marseille","lat":43.30305,"lon":5.36891,"is_reserved":false,"is_disabled":false,"rental_uris":{"android":"levelo://app?vid=bae7c307-7f80-4856-9ef4-717babe7acdd","ios":"levelo://app?vid=bae7c307-7f80-4856-9ef4-717babe7acdd"},"vehicle_type_id":"4","last_reported":1778449066,"current_range_meters":6000,"station_id":"ce4bgqh2rcd13ifvqc5g","pricing_plan_id":"cebpf4jnsgd1na2vs0mg"},{"bike_id":"58b03d65-90ab-44e8-b6df-07ca14c8907f","system_id":"levelo_inurba_marseille","lat":43.29925,"lon":5.37459,"is_reserved":false,"is_disabled":false,"rental_uris":{"android":"levelo://app?vid=58b03d65-90ab-44e8-b6df-07ca14c8907f","ios":"levelo://app?vid=58b03d65-90ab-44e8-b6df-07ca14c8907f"},"vehicle_type_id":"4","last_reported":1778449066,"current_range_meters":6000,"station_id":"ce4bgjh2rcd13ifvqbg0","pricing_plan_id":"cebpf4jnsgd1na2vs0mg"},{"bike_id":"a1d66207-ff5d-4a71-b148-d595e314ee4a","system_id":"levelo_inurba_marseille","lat":43.28795,"lon":5.42408,"is_reserved":false,"is_disabled":false,"rental_uris":{"android":"levelo://app?vid=a1d66207-ff5d-4a71-b148-d595e314ee4a","ios":"levelo://app?vid=a1d66207-ff5d-4a71-b148-d595e314ee4a"},"vehicle_type_id":"4","last_reported":1778449066,"current_range_meters":6000,"station_id":"","pricing_plan_id":"cebpf4jnsgd1na2vs0mg"},{"bike_id":"87638c8e-0cfa-47bd-b539-b055d56380a5","system_id":"levelo_inurba_marseille","lat":43.27676,"lon":5.38871,"is_reserved":false,"is_disabled":false,"rental_uris":{"android":"levelo://app?vid=87638c8e-0cfa-47bd-b539-b055d56380a5","ios":"levelo://app?vid=87638c8e-0cfa-47bd-b539-b055d56380a5"},"vehicle_type_id":"4","last_reported":1778449066,"current_range_meters":6000,"station_id":"ce4bhi12rcd13ifvqfo0","pricing_plan_id":"cebpf4jnsgd1na2vs0mg"},{"bike_id":"6ac6448b-2d5d-45a8-a448-84969d2be233","system_id":"levelo_inurba_marseille","lat":43.27238,"lon":5.39163,"is_reserved":false,"is_disabled":false,"rental_uris":{"android":"levelo://app?vid=6ac6448b-2d5d-45a8-a448-84969d2be233","ios":"levelo://app?vid=6ac6448b-2d5d-45a8-a448-84969d2be233"},"vehicle_type_id":"4","last_reported":1778449066,"current_range_meters":6400,"station_id":"ce4bhhp2rcd13ifvqfm0","pricing_plan_id":"cebpf4jnsgd1na2vs0mg"},{"bike_id":"e7516044-4e84-4d65-b866-9f63aecad1de","system_id":"levelo_inurba_marseille","lat":43.23951,"lon":5.36617,"is_reserved":false,"is_disabled":false,"rental_uris":{"android":"levelo://app?vid=e7516044-4e84-4d65-b866-9f63aecad1de","ios":"levelo://app?vid=e7516044-4e84-4d65-b866-9f63aecad1de"},"vehicle_type_id":"4","last_reported":1778449066,"current_range_meters":6400,"station_id":"ce4bhi12rcd13ifvqfp0","pricing_plan_id":"cebpf4jnsgd1na2vs0mg"},{"bike_id":"f3d39812-fb9d-4849-9e6f-d206a87ccc8b","system_id":"levelo_inurba_marseille","lat":43.23194,"lon":5.39982,"is_reserved":false,"is_disabled":false,"rental_uris":{"android":"levelo://app?vid=f3d39812-fb9d-4849-9e6f-d206a87ccc8b","ios":"levelo://app?vid=f3d39812-fb9d-4849-9e6f-d206a87ccc8b"},"vehicle_type_id":"4","last_reported":1778449066,"current_range_meters":6400,"station_id":"ce4bhn12rcd13ifvqgqg","pricing_plan_id":"cebpf4jnsgd1na2vs0mg"},{"bike_id":"66969438-299e-490d-ab31-e463b9efa104","system_id":"levelo_inurba_marseille","lat":43.28479,"lon":5.48363,"is_reserved":false,"is_disabled":false,"rental_uris":{"android":"levelo://app?vid=66969438-299e-490d-ab31-e463b9efa104","ios":"levelo://app?vid=66969438-299e-490d-ab31-e463b9efa104"},"vehicle_type_id":"4","last_reported":1778449066,"current_range_meters":6400,"station_id":"","pricing_plan_id":"cebpf4jnsgd1na2vs0mg"},{"bike_id":"8c36f14f-0ea0-4eaf-8ef4-0bf3049421ef","system_id":"levelo_inurba_marseille","lat":43.3019,"lon":5.39928,"is_reserved":false,"is_disabled":false,"rental_uris":{"android":"levelo://app?vid=8c36f14f-0ea0-4eaf-8ef4-0bf3049421ef","ios":"levelo://app?vid=8c36f14f-0ea0-4eaf-8ef4-0bf3049421ef"},"vehicle_type_id":"4","last_reported":1778449066,"current_range_meters":6400,"station_id":"","pricing_plan_id":"cebpf4jnsgd1na2vs0mg"},{"bike_id":"19fcb531-afbf-4fbb-8cfa-4fdace7952bb","system_id":"levelo_inurba_marseille","lat":43.297066,"lon":5.376863,"is_reserved":false,"is_disabled":false,"rental_uris":{"android":"levelo://app?vid=19fcb531-afbf-4fbb-8cfa-4fdace7952bb","ios":"levelo://app?vid=19fcb531-afbf-4fbb-8cfa-4fdace7952bb"},"vehicle_type_id":"4","last_reported":1778449066,"current_range_meters":6400,"station_id":"ce4bgkh2rcd13ifvqbl0","pricing_plan_id":"cebpf4jnsgd1na2vs0mg"},{"bike_id":"4e591847-617f-4c37-9de5-4d4b2cce767b","system_id":"levelo_inurba_marseille","lat":43.30875,"lon":5.39645,"is_reserved":false,"is_disabled":false,"rental_uris":{"android":"levelo://app?vid=4e591847-617f-4c37-9de5-4d4b2cce767b","ios":"levelo://app?vid=4e591847-617f-4c37-9de5-4d4b2cce767b"},"vehicle_type_id":"4","last_reported":1778449066,"current_range_meters":6400,"station_id":"ce4bh012rcd13ifvqcv0","pricing_plan_id":"cebpf4jnsgd1na2vs0mg"},{"bike_id":"7e138dd5-b2dd-4461-b0c7-fe9340d08cc6","system_id":"levelo_inurba_marseille","lat":43.28947,"lon":5.36639,"is_reserved":false,"is_disabled":true,"rental_uris":{"android":"levelo://app?vid=7e138dd5-b2dd-4461-b0c7-fe9340d08cc6","ios":"levelo://app?vid=7e138dd5-b2dd-4461-b0c7-fe9340d08cc6"},"vehicle_type_id":"4","last_reported":1778449066,"current_range_meters":6400,"station_id":"ce4bhap2rcd13ifvqek0","pricing_plan_id":"cebpf4jnsgd1na2vs0mg"},{"bike_id":"6a449344-3ab1-46ff-b239-5fb716934614","system_id":"levelo_inurba_marseille","lat":43.24631,"lon":5.43151,"is_reserved":false,"is_disabled":false,"rental_uris":{"android":"levelo://app?vid=6a449344-3ab1-46ff-b239-5fb716934614","ios":"levelo://app?vid=6a449344-3ab1-46ff-b239-5fb716934614"},"vehicle_type_id":"4","last_reported":1778449066,"current_range_meters":6400,"station_id":"st_d2m6c4gdas8pm72e190g","pricing_plan_id":"cebpf4jnsgd1na2vs0mg"},{"bike_id":"291028f7-956b-4f01-9660-75967269f4ff","system_id":"levelo_inurba_marseille","lat":43.30043,"lon":5.39113,"is_reserved":false,"is_disabled":true,"rental_uris":{"android":"levelo://app?vid=291028f7-956b-4f01-9660-75967269f4ff","ios":"levelo://app?vid=291028f7-956b-4f01-9660-75967269f4ff"},"vehicle_type_id":"4","last_reported":1778449066,"current_range_meters":6400,"station_id":"ce4bh192rcd13ifvqdb0","pricing_plan_id":"cebpf4jnsgd1na2vs0mg"},{"bike_id":"8389131d-8b9d-4b8b-9cf7-96fcd875d4b3","system_id":"levelo_inurba_marseille","lat":43.29871,"lon":5.38893,"is_reserved":false,"is_disabled":false,"rental_uris":{"android":"levelo://app?vid=8389131d-8b9d-4b8b-9cf7-96fcd875d4b3","ios":"levelo://app?vid=8389131d-8b9d-4b8b-9cf7-96fcd875d4b3"},"vehicle_type_id":"4","last_reported":1778449066,"current_range_meters":6400,"station_id":"ce4bh392rcd13ifvqdl0","pricing_plan_id":"cebpf4jnsgd1na2vs0mg"},{"bike_id":"6be1be21-8155-4845-b665-1dad8a6c6bf4","system_id":"levelo_inurba_marseille","lat":43.28563,"lon":5.35179,"is_reserved":false,"is_disabled":true,"rental_uris":{"android":"levelo://app?vid=6be1be21-8155-4845-b665-1dad8a6c6bf4","ios":"levelo://app?vid=6be1be21-8155-4845-b665-1dad8a6c6bf4"},"vehicle_type_id":"4","last_reported":1778449066,"current_range_meters":6400,"station_id":"","pricing_plan_id":"cebpf4jnsgd1na2vs0mg"},{"bike_id":"d4540253-c9ac-4127-82c4-03cac9441e10","system_id":"levelo_inurba_marseille","lat":43.243872,"lon":5.370605,"is_reserved":false,"is_disabled":false,"rental_uris":{"android":"levelo://app?vid=d4540253-c9ac-4127-82c4-03cac9441e10","ios":"levelo://app?vid=d4540253-c9ac-4127-82c4-03cac9441e10"},"vehicle_type_id":"4","last_reported":1778449066,"current_range_meters":6400,"station_id":"ce4bhhh2rcd13ifvqfk0","pricing_plan_id":"cebpf4jnsgd1na2vs0mg"},{"bike_id":"019248d2-541c-4fa1-abbd-e47be97aa96b","system_id":"levelo_inurba_marseille","lat":43.25358,"lon":5.42226,"is_reserved":false,"is_disabled":true,"rental_uris":{"android":"levelo://app?vid=019248d2-541c-4fa1-abbd-e47be97aa96b","ios":"levelo://app?vid=019248d2-541c-4fa1-abbd-e47be97aa96b"},"vehicle_type_id":"4","last_reported":1778449066,"current_range_meters":6400,"station_id":"st_d2m65c5bi1j21697t3ng","pricing_plan_id":"cebpf4jnsgd1na2vs0mg"},{"bike_id":"0430b939-0a1a-4600-93cd-ce6a1e4067ff","system_id":"levelo_inurba_marseille","lat":43.25494,"lon":5.3759,"is_reserved":false,"is_disabled":false,"rental_uris":{"android":"levelo://app?vid=0430b939-0a1a-4600-93cd-ce6a1e4067ff","ios":"levelo://app?vid=0430b939-0a1a-4600-93cd-ce6a1e4067ff"},"vehicle_type_id":"4","last_reported":1778449066,"current_range_meters":6400,"station_id":"ce4bhh12rcd13ifvqff0","pricing_plan_id":"cebpf4jnsgd1na2vs0mg"},{"bike_id":"36e91cab-ca90-49ac-beff-eed3c5efe689","system_id":"levelo_inurba_marseille","lat":43.30554,"lon":5.3671,"is_reserved":false,"is_disabled":false,"rental_uris":{"android":"levelo://app?vid=36e91cab-ca90-49ac-beff-eed3c5efe689","ios":"levelo://app?vid=36e91cab-ca90-49ac-beff-eed3c5efe689"},"vehicle_type_id":"4","last_reported":1778449066,"current_range_meters":6400,"station_id":"ce4bgrp2rcd13ifvqc9g","pricing_plan_id":"cebpf4jnsgd1na2vs0mg"},{"bike_id":"eb81b286-29a9-46e4-9d8b-710f3c6518f1","system_id":"levelo_inurba_marseille","lat":43.26935,"lon":5.38646,"is_reserved":false,"is_disabled":false,"rental_uris":{"android":"levelo://app?vid=eb81b286-29a9-46e4-9d8b-710f3c6518f1","ios":"levelo://app?vid=eb81b286-29a9-46e4-9d8b-710f3c6518f1"},"vehicle_type_id":"4","last_reported":1778449066,"current_range_meters":6400,"station_id":"ce4bhh92rcd13ifvqfh0","pricing_plan_id":"cebpf4jnsgd1na2vs0mg"},{"bike_id":"31398a4d-4b5e-484e-bd5a-d9f31bc295bd","system_id":"levelo_inurba_marseille","lat":43.25082,"lon":5.39496,"is_reserved":false,"is_disabled":false,"rental_uris":{"android":"levelo://app?vid=31398a4d-4b5e-484e-bd5a-d9f31bc295bd","ios":"levelo://app?vid=31398a4d-4b5e-484e-bd5a-d9f31bc295bd"},"vehicle_type_id":"4","last_reported":1778449066,"current_range_meters":6800,"station_id":"ce4bhm12rcd13ifvqgkg","pricing_plan_id":"cebpf4jnsgd1na2vs0mg"},{"bike_id":"763a1316-8e67-47bc-ac42-4846d64796b6","system_id":"levelo_inurba_marseille","lat":43.24639,"lon":5.43155,"is_reserved":false,"is_disabled":false,"rental_uris":{"android":"levelo://app?vid=763a1316-8e67-47bc-ac42-4846d64796b6","ios":"levelo://app?vid=763a1316-8e67-47bc-ac42-4846d64796b6"},"vehicle_type_id":"4","last_reported":1778449066,"current_range_meters":6800,"station_id":"st_d2m6c4gdas8pm72e190g","pricing_plan_id":"cebpf4jnsgd1na2vs0mg"},{"bike_id":"3be48547-9755-4740-8c69-194d026c42aa","system_id":"levelo_inurba_marseille","lat":43.28409,"lon":5.37529,"is_reserved":false,"is_disabled":true,"rental_uris":{"android":"levelo://app?vid=3be48547-9755-4740-8c69-194d026c42aa","ios":"levelo://app?vid=3be48547-9755-4740-8c69-194d026c42aa"},"vehicle_type_id":"4","last_reported":1778449066,"current_range_meters":6800,"station_id":"ce4bh412rcd13ifvqds0","pricing_plan_id":"cebpf4jnsgd1na2vs0mg"},{"bike_id":"05873d3e-2f07-45ee-9c3a-8f47e65ca722","system_id":"levelo_inurba_marseille","lat":43.29889,"lon":5.39722,"is_reserved":false,"is_disabled":true,"rental_uris":{"android":"levelo://app?vid=05873d3e-2f07-45ee-9c3a-8f47e65ca722","ios":"levelo://app?vid=05873d3e-2f07-45ee-9c3a-8f47e65ca722"},"vehicle_type_id":"4","last_reported":1778449066,"current_range_meters":6800,"station_id":"ce4bh0h2rcd13ifvqd50","pricing_plan_id":"cebpf4jnsgd1na2vs0mg"},{"bike_id":"a2e1a33b-29dc-4128-b406-9196beec280f","system_id":"levelo_inurba_marseille","lat":43.29024,"lon":5.38113,"is_reserved":false,"is_disabled":false,"rental_uris":{"android":"levelo://app?vid=a2e1a33b-29dc-4128-b406-9196beec280f","ios":"levelo://app?vid=a2e1a33b-29dc-4128-b406-9196beec280f"},"vehicle_type_id":"4","last_reported":1778449066,"current_range_meters":6800,"station_id":"ce4bh4p2rcd13ifvqe1g","pricing_plan_id":"cebpf4jnsgd1na2vs0mg"},{"bike_id":"9568a426-abcb-41ba-a31f-d79eb69978b0","system_id":"levelo_inurba_marseille","lat":43.31503,"lon":5.37277,"is_reserved":false,"is_disabled":false,"rental_uris":{"android":"levelo://app?vid=9568a426-abcb-41ba-a31f-d79eb69978b0","ios":"levelo://app?vid=9568a426-abcb-41ba-a31f-d79eb69978b0"},"vehicle_type_id":"4","last_reported":1778449066,"current_range_meters":6800,"station_id":"ce4bgt12rcd13ifvqcd0","pricing_plan_id":"cebpf4jnsgd1na2vs0mg"},{"bike_id":"64ee1d1b-107a-4763-9db4-d26752131c23","system_id":"levelo_inurba_marseille","lat":43.25088,"lon":5.39518,"is_reserved":false,"is_disabled":false,"rental_uris":{"android":"levelo://app?vid=64ee1d1b-107a-4763-9db4-d26752131c23","ios":"levelo://app?vid=64ee1d1b-107a-4763-9db4-d26752131c23"},"vehicle_type_id":"4","last_reported":1778449066,"current_range_meters":6800,"station_id":"ce4bhm12rcd13ifvqgkg","pricing_plan_id":"cebpf4jnsgd1na2vs0mg"},{"bike_id":"4516e97d-1ec7-4f67-bd2c-30129b674d6c","system_id":"levelo_inurba_marseille","lat":43.28615,"lon":5.35099,"is_reserved":false,"is_disabled":true,"rental_uris":{"android":"levelo://app?vid=4516e97d-1ec7-4f67-bd2c-30129b674d6c","ios":"levelo://app?vid=4516e97d-1ec7-4f67-bd2c-30129b674d6c"},"vehicle_type_id":"4","last_reported":1778449066,"current_range_meters":6800,"station_id":"ce4bhch2rcd13ifvqeug","pricing_plan_id":"cebpf4jnsgd1na2vs0mg"},{"bike_id":"829aeb58-c649-476d-904d-bd92827ec395","system_id":"levelo_inurba_marseille","lat":43.3089,"lon":5.41209,"is_reserved":false,"is_disabled":false,"rental_uris":{"android":"levelo://app?vid=829aeb58-c649-476d-904d-bd92827ec395","ios":"levelo://app?vid=829aeb58-c649-476d-904d-bd92827ec395"},"vehicle_type_id":"4","last_reported":1778449066,"current_range_meters":6800,"station_id":"","pricing_plan_id":"cebpf4jnsgd1na2vs0mg"},{"bike_id":"e7851071-634f-4696-b1e3-b9aa83f58389","system_id":"levelo_inurba_marseille","lat":43.2551,"lon":5.37652,"is_reserved":false,"is_disabled":false,"rental_uris":{"android":"levelo://app?vid=e7851071-634f-4696-b1e3-b9aa83f58389","ios":"levelo://app?vid=e7851071-634f-4696-b1e3-b9aa83f58389"},"vehicle_type_id":"4","last_reported":1778449066,"current_range_meters":6800,"station_id":"ce4bhh12rcd13ifvqff0","pricing_plan_id":"cebpf4jnsgd1na2vs0mg"},{"bike_id":"a2bc18bc-742d-49ea-bbf9-2554b9cd98da","system_id":"levelo_inurba_marseille","lat":43.26049,"lon":5.38648,"is_reserved":false,"is_disabled":false,"rental_uris":{"android":"levelo://app?vid=a2bc18bc-742d-49ea-bbf9-2554b9cd98da","ios":"levelo://app?vid=a2bc18bc-742d-49ea-bbf9-2554b9cd98da"},"vehicle_type_id":"4","last_reported":1778449066,"current_range_meters":6800,"station_id":"","pricing_plan_id":"cebpf4jnsgd1na2vs0mg"},{"bike_id":"a428d1fe-1781-4e88-88cc-9e6a2683e640","system_id":"levelo_inurba_marseille","lat":43.25575,"lon":5.38218,"is_reserved":false,"is_disabled":false,"rental_uris":{"android":"levelo://app?vid=a428d1fe-1781-4e88-88cc-9e6a2683e640","ios":"levelo://app?vid=a428d1fe-1781-4e88-88cc-9e6a2683e640"},"vehicle_type_id":"4","last_reported":1778449066,"current_range_meters":6800,"station_id":"ce4bhih2rcd13ifvqfs0","pricing_plan_id":"cebpf4jnsgd1na2vs0mg"},{"bike_id":"92e841df-d5b0-41a8-bfb6-e15ecb414a5f","system_id":"levelo_inurba_marseille","lat":43.29275,"lon":5.368444,"is_reserved":false,"is_disabled":false,"rental_uris":{"android":"levelo://app?vid=92e841df-d5b0-41a8-bfb6-e15ecb414a5f","ios":"levelo://app?vid=92e841df-d5b0-41a8-bfb6-e15ecb414a5f"},"vehicle_type_id":"4","last_reported":1778449066,"current_range_meters":6800,"station_id":"ce4bhbp2rcd13ifvqesg","pricing_plan_id":"cebpf4jnsgd1na2vs0mg"},{"bike_id":"e88067db-06e7-43fb-8b26-0f29cfb1ca74","system_id":"levelo_inurba_marseille","lat":43.28706,"lon":5.46664,"is_reserved":false,"is_disabled":false,"rental_uris":{"android":"levelo://app?vid=e88067db-06e7-43fb-8b26-0f29cfb1ca74","ios":"levelo://app?vid=e88067db-06e7-43fb-8b26-0f29cfb1ca74"},"vehicle_type_id":"4","last_reported":1778449066,"current_range_meters":6800,"station_id":"st_d6tc3vkotcvc738tfjhg","pricing_plan_id":"cebpf4jnsgd1na2vs0mg"},{"bike_id":"daf21bfc-b3b9-4762-b2ab-c49f351c7dfe","system_id":"levelo_inurba_marseille","lat":43.29032,"lon":5.38658,"is_reserved":false,"is_disabled":false,"rental_uris":{"android":"levelo://app?vid=daf21bfc-b3b9-4762-b2ab-c49f351c7dfe","ios":"levelo://app?vid=daf21bfc-b3b9-4762-b2ab-c49f351c7dfe"},"vehicle_type_id":"4","last_reported":1778449066,"current_range_meters":7200,"station_id":"ce4bh4p2rcd13ifvqe0g","pricing_plan_id":"cebpf4jnsgd1na2vs0mg"},{"bike_id":"d59b1513-c5e0-4a44-a647-2d42866bfbdf","system_id":"levelo_inurba_marseille","lat":43.23222,"lon":5.35543,"is_reserved":false,"is_disabled":false,"rental_uris":{"android":"levelo://app?vid=d59b1513-c5e0-4a44-a647-2d42866bfbdf","ios":"levelo://app?vid=d59b1513-c5e0-4a44-a647-2d42866bfbdf"},"vehicle_type_id":"4","last_reported":1778449066,"current_range_meters":7200,"station_id":"ce4bhu92rcd13ifvqi70","pricing_plan_id":"cebpf4jnsgd1na2vs0mg"},{"bike_id":"d55796ed-4e9c-4094-8c61-04073e5fd354","system_id":"levelo_inurba_marseille","lat":43.28168,"lon":5.42638,"is_reserved":false,"is_disabled":false,"rental_uris":{"android":"levelo://app?vid=d55796ed-4e9c-4094-8c61-04073e5fd354","ios":"levelo://app?vid=d55796ed-4e9c-4094-8c61-04073e5fd354"},"vehicle_type_id":"4","last_reported":1778449066,"current_range_meters":7200,"station_id":"ce4bhnh2rcd13ifvqgug","pricing_plan_id":"cebpf4jnsgd1na2vs0mg"},{"bike_id":"8ae20070-8a6a-4206-96f0-4a5901728859","system_id":"levelo_inurba_marseille","lat":43.31174,"lon":5.38706,"is_reserved":false,"is_disabled":false,"rental_uris":{"android":"levelo://app?vid=8ae20070-8a6a-4206-96f0-4a5901728859","ios":"levelo://app?vid=8ae20070-8a6a-4206-96f0-4a5901728859"},"vehicle_type_id":"4","last_reported":1778449066,"current_range_meters":7200,"station_id":"ce4bgv12rcd13ifvqcp0","pricing_plan_id":"cebpf4jnsgd1na2vs0mg"},{"bike_id":"80386a2b-e970-41f0-870f-0b66294b34a1","system_id":"levelo_inurba_marseille","lat":43.26371,"lon":5.41082,"is_reserved":false,"is_disabled":false,"rental_uris":{"android":"levelo://app?vid=80386a2b-e970-41f0-870f-0b66294b34a1","ios":"levelo://app?vid=80386a2b-e970-41f0-870f-0b66294b34a1"},"vehicle_type_id":"4","last_reported":1778449066,"current_range_meters":7200,"station_id":"st_d4e5ca6na9uc73bfl5fg","pricing_plan_id":"cebpf4jnsgd1na2vs0mg"},{"bike_id":"33b0d095-e46d-4eb3-bad0-940eb73a3f51","system_id":"levelo_inurba_marseille","lat":43.28752,"lon":5.377225,"is_reserved":false,"is_disabled":false,"rental_uris":{"android":"levelo://app?vid=33b0d095-e46d-4eb3-bad0-940eb73a3f51","ios":"levelo://app?vid=33b0d095-e46d-4eb3-bad0-940eb73a3f51"},"vehicle_type_id":"4","last_reported":1778449066,"current_range_meters":7200,"station_id":"","pricing_plan_id":"cebpf4jnsgd1na2vs0mg"},{"bike_id":"e16f3497-994b-4a5e-a623-feda354f6eb9","system_id":"levelo_inurba_marseille","lat":43.29484,"lon":5.43299,"is_reserved":false,"is_disabled":false,"rental_uris":{"android":"levelo://app?vid=e16f3497-994b-4a5e-a623-feda354f6eb9","ios":"levelo://app?vid=e16f3497-994b-4a5e-a623-feda354f6eb9"},"vehicle_type_id":"4","last_reported":1778449066,"current_range_meters":7200,"station_id":"st_d3j5ugp08ojc73fj9d10","pricing_plan_id":"cebpf4jnsgd1na2vs0mg"},{"bike_id":"c2654815-5136-468d-9bc4-fbe9dc1ec491","system_id":"levelo_inurba_marseille","lat":43.32488,"lon":5.3847,"is_reserved":false,"is_disabled":false,"rental_uris":{"android":"levelo://app?vid=c2654815-5136-468d-9bc4-fbe9dc1ec491","ios":"levelo://app?vid=c2654815-5136-468d-9bc4-fbe9dc1ec491"},"vehicle_type_id":"4","last_reported":1778449066,"current_range_meters":7200,"station_id":"","pricing_plan_id":"cebpf4jnsgd1na2vs0mg"},{"bike_id":"26c46353-55bc-47c3-9260-64f044b246fd","system_id":"levelo_inurba_marseille","lat":43.26229,"lon":5.40441,"is_reserved":false,"is_disabled":false,"rental_uris":{"android":"levelo://app?vid=26c46353-55bc-47c3-9260-64f044b246fd","ios":"levelo://app?vid=26c46353-55bc-47c3-9260-64f044b246fd"},"vehicle_type_id":"4","last_reported":1778449066,"current_range_meters":7200,"station_id":"ce4bhmh2rcd13ifvqgmg","pricing_plan_id":"cebpf4jnsgd1na2vs0mg"},{"bike_id":"655ec224-3a12-4051-b935-4567b80ae3b8","system_id":"levelo_inurba_marseille","lat":43.22588,"lon":5.41617,"is_reserved":false,"is_disabled":false,"rental_uris":{"android":"levelo://app?vid=655ec224-3a12-4051-b935-4567b80ae3b8","ios":"levelo://app?vid=655ec224-3a12-4051-b935-4567b80ae3b8"},"vehicle_type_id":"4","last_reported":1778449066,"current_range_meters":7200,"station_id":"st_d2o4gvlbi1j2169b742g","pricing_plan_id":"cebpf4jnsgd1na2vs0mg"},{"bike_id":"a02de3dd-7794-4bd8-ae4b-dcdee1359cd5","system_id":"levelo_inurba_marseille","lat":43.249474,"lon":5.404926,"is_reserved":false,"is_disabled":false,"rental_uris":{"android":"levelo://app?vid=a02de3dd-7794-4bd8-ae4b-dcdee1359cd5","ios":"levelo://app?vid=a02de3dd-7794-4bd8-ae4b-dcdee1359cd5"},"vehicle_type_id":"4","last_reported":1778449066,"current_range_meters":7200,"station_id":"st_d2ngiaodas8pm72gd1h0","pricing_plan_id":"cebpf4jnsgd1na2vs0mg"},{"bike_id":"145b249c-caf5-4151-a9db-1c3827caf83d","system_id":"levelo_inurba_marseille","lat":43.28255,"lon":5.38877,"is_reserved":false,"is_disabled":false,"rental_uris":{"android":"levelo://app?vid=145b249c-caf5-4151-a9db-1c3827caf83d","ios":"levelo://app?vid=145b249c-caf5-4151-a9db-1c3827caf83d"},"vehicle_type_id":"4","last_reported":1778449066,"current_range_meters":7200,"station_id":"","pricing_plan_id":"cebpf4jnsgd1na2vs0mg"},{"bike_id":"9419e6b1-d07e-4865-bc84-49f308e929ec","system_id":"levelo_inurba_marseille","lat":43.23305,"lon":5.35774,"is_reserved":false,"is_disabled":false,"rental_uris":{"android":"levelo://app?vid=9419e6b1-d07e-4865-bc84-49f308e929ec","ios":"levelo://app?vid=9419e6b1-d07e-4865-bc84-49f308e929ec"},"vehicle_type_id":"4","last_reported":1778449066,"current_range_meters":7200,"station_id":"","pricing_plan_id":"cebpf4jnsgd1na2vs0mg"},{"bike_id":"1bf83d01-c2aa-49e9-b761-777f56954ab5","system_id":"levelo_inurba_marseille","lat":43.24967,"lon":5.40486,"is_reserved":false,"is_disabled":false,"rental_uris":{"android":"levelo://app?vid=1bf83d01-c2aa-49e9-b761-777f56954ab5","ios":"levelo://app?vid=1bf83d01-c2aa-49e9-b761-777f56954ab5"},"vehicle_type_id":"4","last_reported":1778449066,"current_range_meters":7200,"station_id":"st_d2ngiaodas8pm72gd1h0","pricing_plan_id":"cebpf4jnsgd1na2vs0mg"},{"bike_id":"8006b664-7850-4287-8837-b270541b3470","system_id":"levelo_inurba_marseille","lat":43.3118,"lon":5.38696,"is_reserved":false,"is_disabled":false,"rental_uris":{"android":"levelo://app?vid=8006b664-7850-4287-8837-b270541b3470","ios":"levelo://app?vid=8006b664-7850-4287-8837-b270541b3470"},"vehicle_type_id":"4","last_reported":1778449066,"current_range_meters":7200,"station_id":"ce4bgv12rcd13ifvqcp0","pricing_plan_id":"cebpf4jnsgd1na2vs0mg"},{"bike_id":"dda2e6ee-4a77-4aeb-a4e9-000b8fd0779c","system_id":"levelo_inurba_marseille","lat":43.28412,"lon":5.37514,"is_reserved":false,"is_disabled":false,"rental_uris":{"android":"levelo://app?vid=dda2e6ee-4a77-4aeb-a4e9-000b8fd0779c","ios":"levelo://app?vid=dda2e6ee-4a77-4aeb-a4e9-000b8fd0779c"},"vehicle_type_id":"4","last_reported":1778449066,"current_range_meters":7200,"station_id":"ce4bh412rcd13ifvqds0","pricing_plan_id":"cebpf4jnsgd1na2vs0mg"},{"bike_id":"a1d714a8-76f0-445c-9621-e283d8434563","system_id":"levelo_inurba_marseille","lat":43.30308,"lon":5.39217,"is_reserved":false,"is_disabled":false,"rental_uris":{"android":"levelo://app?vid=a1d714a8-76f0-445c-9621-e283d8434563","ios":"levelo://app?vid=a1d714a8-76f0-445c-9621-e283d8434563"},"vehicle_type_id":"4","last_reported":1778449066,"current_range_meters":7200,"station_id":"ce4bgkh2rcd13ifvqbk0","pricing_plan_id":"cebpf4jnsgd1na2vs0mg"},{"bike_id":"cccda472-7561-4978-9b74-a8c6197a578e","system_id":"levelo_inurba_marseille","lat":43.33164,"lon":5.37681,"is_reserved":false,"is_disabled":false,"rental_uris":{"android":"levelo://app?vid=cccda472-7561-4978-9b74-a8c6197a578e","ios":"levelo://app?vid=cccda472-7561-4978-9b74-a8c6197a578e"},"vehicle_type_id":"4","last_reported":1778449066,"current_range_meters":7200,"station_id":"st_d46cu089ee8s73dldbu0","pricing_plan_id":"cebpf4jnsgd1na2vs0mg"},{"bike_id":"bd013f89-14e0-4bf4-b551-5f21536228af","system_id":"levelo_inurba_marseille","lat":43.26076,"lon":5.39385,"is_reserved":false,"is_disabled":false,"rental_uris":{"android":"levelo://app?vid=bd013f89-14e0-4bf4-b551-5f21536228af","ios":"levelo://app?vid=bd013f89-14e0-4bf4-b551-5f21536228af"},"vehicle_type_id":"4","last_reported":1778449066,"current_range_meters":8000,"station_id":"ce4bhh92rcd13ifvqfj0","pricing_plan_id":"cebpf4jnsgd1na2vs0mg"},{"bike_id":"7f14ac2a-95a1-4ff9-8272-a58b1f33bddd","system_id":"levelo_inurba_marseille","lat":43.32368,"lon":5.38871,"is_reserved":false,"is_disabled":false,"rental_uris":{"android":"levelo://app?vid=7f14ac2a-95a1-4ff9-8272-a58b1f33bddd","ios":"levelo://app?vid=7f14ac2a-95a1-4ff9-8272-a58b1f33bddd"},"vehicle_type_id":"4","last_reported":1778449066,"current_range_meters":8000,"station_id":"ce4bhqp2rcd13ifvqhog","pricing_plan_id":"cebpf4jnsgd1na2vs0mg"},{"bike_id":"0fdd2634-3a09-446a-be37-6d2e2fa070de","system_id":"levelo_inurba_marseille","lat":43.28861,"lon":5.42521,"is_reserved":false,"is_disabled":false,"rental_uris":{"android":"levelo://app?vid=0fdd2634-3a09-446a-be37-6d2e2fa070de","ios":"levelo://app?vid=0fdd2634-3a09-446a-be37-6d2e2fa070de"},"vehicle_type_id":"4","last_reported":1778449066,"current_range_meters":8000,"station_id":"st_d3b462108ojc7389ooeg","pricing_plan_id":"cebpf4jnsgd1na2vs0mg"},{"bike_id":"513d7679-67b2-4533-a1e1-1cd3129d7c10","system_id":"levelo_inurba_marseille","lat":43.24402,"lon":5.3704,"is_reserved":false,"is_disabled":false,"rental_uris":{"android":"levelo://app?vid=513d7679-67b2-4533-a1e1-1cd3129d7c10","ios":"levelo://app?vid=513d7679-67b2-4533-a1e1-1cd3129d7c10"},"vehicle_type_id":"4","last_reported":1778449066,"current_range_meters":8000,"station_id":"ce4bhhh2rcd13ifvqfk0","pricing_plan_id":"cebpf4jnsgd1na2vs0mg"},{"bike_id":"faa150b8-366e-4180-834c-a68ef9fd5382","system_id":"levelo_inurba_marseille","lat":43.29276,"lon":5.36848,"is_reserved":false,"is_disabled":false,"rental_uris":{"android":"levelo://app?vid=faa150b8-366e-4180-834c-a68ef9fd5382","ios":"levelo://app?vid=faa150b8-366e-4180-834c-a68ef9fd5382"},"vehicle_type_id":"4","last_reported":1778449066,"current_range_meters":8000,"station_id":"ce4bhbp2rcd13ifvqesg","pricing_plan_id":"cebpf4jnsgd1na2vs0mg"},{"bike_id":"439c580c-91fb-4f07-899b-17e34535b7cf","system_id":"levelo_inurba_marseille","lat":43.28706,"lon":5.37941,"is_reserved":false,"is_disabled":true,"rental_uris":{"android":"levelo://app?vid=439c580c-91fb-4f07-899b-17e34535b7cf","ios":"levelo://app?vid=439c580c-91fb-4f07-899b-17e34535b7cf"},"vehicle_type_id":"4","last_reported":1778449066,"current_range_meters":8000,"station_id":"ce4bh9p2rcd13ifvqec0","pricing_plan_id":"cebpf4jnsgd1na2vs0mg"},{"bike_id":"b01979f2-617b-40ad-8331-8e4b5080246b","system_id":"levelo_inurba_marseille","lat":43.28404,"lon":5.37512,"is_reserved":false,"is_disabled":false,"rental_uris":{"android":"levelo://app?vid=b01979f2-617b-40ad-8331-8e4b5080246b","ios":"levelo://app?vid=b01979f2-617b-40ad-8331-8e4b5080246b"},"vehicle_type_id":"4","last_reported":1778449066,"current_range_meters":8000,"station_id":"ce4bh412rcd13ifvqds0","pricing_plan_id":"cebpf4jnsgd1na2vs0mg"},{"bike_id":"50f95ec0-d6e8-47f0-9ecd-f9a5ea75569b","system_id":"levelo_inurba_marseille","lat":43.2989,"lon":5.38092,"is_reserved":false,"is_disabled":false,"rental_uris":{"android":"levelo://app?vid=50f95ec0-d6e8-47f0-9ecd-f9a5ea75569b","ios":"levelo://app?vid=50f95ec0-d6e8-47f0-9ecd-f9a5ea75569b"},"vehicle_type_id":"4","last_reported":1778449066,"current_range_meters":8000,"station_id":"ce4bgj12rcd13ifvqbc0","pricing_plan_id":"cebpf4jnsgd1na2vs0mg"},{"bike_id":"7fb2ffe8-f58b-4318-8e2b-b339a6fd3777","system_id":"levelo_inurba_marseille","lat":43.26229,"lon":5.40447,"is_reserved":false,"is_disabled":false,"rental_uris":{"android":"levelo://app?vid=7fb2ffe8-f58b-4318-8e2b-b339a6fd3777","ios":"levelo://app?vid=7fb2ffe8-f58b-4318-8e2b-b339a6fd3777"},"vehicle_type_id":"4","last_reported":1778449066,"current_range_meters":8000,"station_id":"ce4bhmh2rcd13ifvqgmg","pricing_plan_id":"cebpf4jnsgd1na2vs0mg"},{"bike_id":"3dfae26f-f308-4faf-a069-46d4602d1683","system_id":"levelo_inurba_marseille","lat":43.31166,"lon":5.387,"is_reserved":false,"is_disabled":false,"rental_uris":{"android":"levelo://app?vid=3dfae26f-f308-4faf-a069-46d4602d1683","ios":"levelo://app?vid=3dfae26f-f308-4faf-a069-46d4602d1683"},"vehicle_type_id":"4","last_reported":1778449066,"current_range_meters":8000,"station_id":"ce4bgv12rcd13ifvqcp0","pricing_plan_id":"cebpf4jnsgd1na2vs0mg"},{"bike_id":"cc2588bb-1dea-47f0-8370-a6156619b293","system_id":"levelo_inurba_marseille","lat":43.24643,"lon":5.43133,"is_reserved":false,"is_disabled":false,"rental_uris":{"android":"levelo://app?vid=cc2588bb-1dea-47f0-8370-a6156619b293","ios":"levelo://app?vid=cc2588bb-1dea-47f0-8370-a6156619b293"},"vehicle_type_id":"4","last_reported":1778449066,"current_range_meters":8000,"station_id":"st_d2m6c4gdas8pm72e190g","pricing_plan_id":"cebpf4jnsgd1na2vs0mg"},{"bike_id":"ad206cfa-883b-417b-b1ab-804ae7af3a6b","system_id":"levelo_inurba_marseille","lat":43.31372,"lon":5.38476,"is_reserved":false,"is_disabled":false,"rental_uris":{"android":"levelo://app?vid=ad206cfa-883b-417b-b1ab-804ae7af3a6b","ios":"levelo://app?vid=ad206cfa-883b-417b-b1ab-804ae7af3a6b"},"vehicle_type_id":"4","last_reported":1778449066,"current_range_meters":8000,"station_id":"ce4bgt92rcd13ifvqcf0","pricing_plan_id":"cebpf4jnsgd1na2vs0mg"},{"bike_id":"82aa9652-f6a8-471c-814b-06ad98d22336","system_id":"levelo_inurba_marseille","lat":43.24628,"lon":5.43127,"is_reserved":false,"is_disabled":false,"rental_uris":{"android":"levelo://app?vid=82aa9652-f6a8-471c-814b-06ad98d22336","ios":"levelo://app?vid=82aa9652-f6a8-471c-814b-06ad98d22336"},"vehicle_type_id":"4","last_reported":1778449066,"current_range_meters":8000,"station_id":"st_d2m6c4gdas8pm72e190g","pricing_plan_id":"cebpf4jnsgd1na2vs0mg"},{"bike_id":"66f9f5fa-1564-480b-8ceb-90edfa1b4d32","system_id":"levelo_inurba_marseille","lat":43.2129,"lon":5.35024,"is_reserved":false,"is_disabled":false,"rental_uris":{"android":"levelo://app?vid=66f9f5fa-1564-480b-8ceb-90edfa1b4d32","ios":"levelo://app?vid=66f9f5fa-1564-480b-8ceb-90edfa1b4d32"},"vehicle_type_id":"4","last_reported":1778449066,"current_range_meters":8000,"station_id":"","pricing_plan_id":"cebpf4jnsgd1na2vs0mg"},{"bike_id":"811eb6b8-b6c6-4aff-abbf-2a9f9a87d8b1","system_id":"levelo_inurba_marseille","lat":43.2869,"lon":5.37389,"is_reserved":false,"is_disabled":false,"rental_uris":{"android":"levelo://app?vid=811eb6b8-b6c6-4aff-abbf-2a9f9a87d8b1","ios":"levelo://app?vid=811eb6b8-b6c6-4aff-abbf-2a9f9a87d8b1"},"vehicle_type_id":"4","last_reported":1778449066,"current_range_meters":8000,"station_id":"ce4bh3p2rcd13ifvqdq0","pricing_plan_id":"cebpf4jnsgd1na2vs0mg"},{"bike_id":"9e374215-452f-4f61-9e58-73bf521a3075","system_id":"levelo_inurba_marseille","lat":43.24636,"lon":5.43129,"is_reserved":false,"is_disabled":false,"rental_uris":{"android":"levelo://app?vid=9e374215-452f-4f61-9e58-73bf521a3075","ios":"levelo://app?vid=9e374215-452f-4f61-9e58-73bf521a3075"},"vehicle_type_id":"4","last_reported":1778449066,"current_range_meters":8400,"station_id":"st_d2m6c4gdas8pm72e190g","pricing_plan_id":"cebpf4jnsgd1na2vs0mg"},{"bike_id":"9978bf29-8be4-416d-9e1c-7cc044f2b9f1","system_id":"levelo_inurba_marseille","lat":43.31447,"lon":5.3738,"is_reserved":false,"is_disabled":true,"rental_uris":{"android":"levelo://app?vid=9978bf29-8be4-416d-9e1c-7cc044f2b9f1","ios":"levelo://app?vid=9978bf29-8be4-416d-9e1c-7cc044f2b9f1"},"vehicle_type_id":"4","last_reported":1778449066,"current_range_meters":8400,"station_id":"","pricing_plan_id":"cebpf4jnsgd1na2vs0mg"},{"bike_id":"47c02a04-2152-4969-a4c6-51e87d7e8693","system_id":"levelo_inurba_marseille","lat":43.24647,"lon":5.38888,"is_reserved":false,"is_disabled":false,"rental_uris":{"android":"levelo://app?vid=47c02a04-2152-4969-a4c6-51e87d7e8693","ios":"levelo://app?vid=47c02a04-2152-4969-a4c6-51e87d7e8693"},"vehicle_type_id":"4","last_reported":1778449066,"current_range_meters":8400,"station_id":"ce4bhg12rcd13ifvqf60","pricing_plan_id":"cebpf4jnsgd1na2vs0mg"},{"bike_id":"c9a78c30-eec5-455d-80b0-775fd7adcfa9","system_id":"levelo_inurba_marseille","lat":43.24067,"lon":5.37695,"is_reserved":false,"is_disabled":false,"rental_uris":{"android":"levelo://app?vid=c9a78c30-eec5-455d-80b0-775fd7adcfa9","ios":"levelo://app?vid=c9a78c30-eec5-455d-80b0-775fd7adcfa9"},"vehicle_type_id":"4","last_reported":1778449066,"current_range_meters":8400,"station_id":"ce4bhnp2rcd13ifvqgvg","pricing_plan_id":"cebpf4jnsgd1na2vs0mg"},{"bike_id":"f3e5f4c8-4e21-43e7-b783-e32e46d7b1d8","system_id":"levelo_inurba_marseille","lat":43.31444,"lon":5.37365,"is_reserved":false,"is_disabled":true,"rental_uris":{"android":"levelo://app?vid=f3e5f4c8-4e21-43e7-b783-e32e46d7b1d8","ios":"levelo://app?vid=f3e5f4c8-4e21-43e7-b783-e32e46d7b1d8"},"vehicle_type_id":"4","last_reported":1778449066,"current_range_meters":8400,"station_id":"","pricing_plan_id":"cebpf4jnsgd1na2vs0mg"},{"bike_id":"f8742086-8b86-4c8d-864c-d7895dd2bd44","system_id":"levelo_inurba_marseille","lat":43.29612,"lon":5.36712,"is_reserved":false,"is_disabled":false,"rental_uris":{"android":"levelo://app?vid=f8742086-8b86-4c8d-864c-d7895dd2bd44","ios":"levelo://app?vid=f8742086-8b86-4c8d-864c-d7895dd2bd44"},"vehicle_type_id":"4","last_reported":1778449066,"current_range_meters":8400,"station_id":"ce4bgph2rcd13ifvqc2g","pricing_plan_id":"cebpf4jnsgd1na2vs0mg"},{"bike_id":"9bb74d20-8aee-4a2e-996c-43ecf8d7375f","system_id":"levelo_inurba_marseille","lat":43.24659,"lon":5.38134,"is_reserved":false,"is_disabled":true,"rental_uris":{"android":"levelo://app?vid=9bb74d20-8aee-4a2e-996c-43ecf8d7375f","ios":"levelo://app?vid=9bb74d20-8aee-4a2e-996c-43ecf8d7375f"},"vehicle_type_id":"4","last_reported":1778449066,"current_range_meters":8400,"station_id":"ce4bhih2rcd13ifvqfr0","pricing_plan_id":"cebpf4jnsgd1na2vs0mg"},{"bike_id":"5c5f1b2c-364a-42ea-b18e-b314ba5bf6e3","system_id":"levelo_inurba_marseille","lat":43.28422,"lon":5.34981,"is_reserved":false,"is_disabled":true,"rental_uris":{"android":"levelo://app?vid=5c5f1b2c-364a-42ea-b18e-b314ba5bf6e3","ios":"levelo://app?vid=5c5f1b2c-364a-42ea-b18e-b314ba5bf6e3"},"vehicle_type_id":"4","last_reported":1778449066,"current_range_meters":8400,"station_id":"ce4bhbh2rcd13ifvqepg","pricing_plan_id":"cebpf4jnsgd1na2vs0mg"},{"bike_id":"9fb94e69-3038-4e70-b37c-9e41dddc049b","system_id":"levelo_inurba_marseille","lat":43.28337,"lon":5.38102,"is_reserved":false,"is_disabled":true,"rental_uris":{"android":"levelo://app?vid=9fb94e69-3038-4e70-b37c-9e41dddc049b","ios":"levelo://app?vid=9fb94e69-3038-4e70-b37c-9e41dddc049b"},"vehicle_type_id":"4","last_reported":1778449066,"current_range_meters":8400,"station_id":"ce4bh412rcd13ifvqdr0","pricing_plan_id":"cebpf4jnsgd1na2vs0mg"},{"bike_id":"3ef852c9-cf4d-455a-a70b-98efa8e8d77a","system_id":"levelo_inurba_marseille","lat":43.30562,"lon":5.36701,"is_reserved":false,"is_disabled":false,"rental_uris":{"android":"levelo://app?vid=3ef852c9-cf4d-455a-a70b-98efa8e8d77a","ios":"levelo://app?vid=3ef852c9-cf4d-455a-a70b-98efa8e8d77a"},"vehicle_type_id":"4","last_reported":1778449066,"current_range_meters":8400,"station_id":"ce4bgrp2rcd13ifvqc9g","pricing_plan_id":"cebpf4jnsgd1na2vs0mg"},{"bike_id":"ff1d7d0b-fcb1-461d-984d-121143678f89","system_id":"levelo_inurba_marseille","lat":43.28511,"lon":5.38409,"is_reserved":false,"is_disabled":false,"rental_uris":{"android":"levelo://app?vid=ff1d7d0b-fcb1-461d-984d-121143678f89","ios":"levelo://app?vid=ff1d7d0b-fcb1-461d-984d-121143678f89"},"vehicle_type_id":"4","last_reported":1778449066,"current_range_meters":8400,"station_id":"ce4bh512rcd13ifvqe3g","pricing_plan_id":"cebpf4jnsgd1na2vs0mg"},{"bike_id":"6c221b35-333b-451f-b80c-c18ff57def2c","system_id":"levelo_inurba_marseille","lat":43.32111,"lon":5.36769,"is_reserved":false,"is_disabled":false,"rental_uris":{"android":"levelo://app?vid=6c221b35-333b-451f-b80c-c18ff57def2c","ios":"levelo://app?vid=6c221b35-333b-451f-b80c-c18ff57def2c"},"vehicle_type_id":"4","last_reported":1778449066,"current_range_meters":8400,"station_id":"ce4bhrh2rcd13ifvqhug","pricing_plan_id":"cebpf4jnsgd1na2vs0mg"},{"bike_id":"ff1bb3df-f954-4ebc-b1a1-df93321e9bdd","system_id":"levelo_inurba_marseille","lat":43.29908,"lon":5.37458,"is_reserved":false,"is_disabled":false,"rental_uris":{"android":"levelo://app?vid=ff1bb3df-f954-4ebc-b1a1-df93321e9bdd","ios":"levelo://app?vid=ff1bb3df-f954-4ebc-b1a1-df93321e9bdd"},"vehicle_type_id":"4","last_reported":1778449066,"current_range_meters":8400,"station_id":"ce4bgjh2rcd13ifvqbg0","pricing_plan_id":"cebpf4jnsgd1na2vs0mg"},{"bike_id":"fe8a0070-1cbf-497a-8a20-40fc8649258f","system_id":"levelo_inurba_marseille","lat":43.28469,"lon":5.38451,"is_reserved":false,"is_disabled":false,"rental_uris":{"android":"levelo://app?vid=fe8a0070-1cbf-497a-8a20-40fc8649258f","ios":"levelo://app?vid=fe8a0070-1cbf-497a-8a20-40fc8649258f"},"vehicle_type_id":"4","last_reported":1778449066,"current_range_meters":8400,"station_id":"ce4bh512rcd13ifvqe3g","pricing_plan_id":"cebpf4jnsgd1na2vs0mg"},{"bike_id":"4be48e83-9343-4c3a-b884-b414c3010644","system_id":"levelo_inurba_marseille","lat":43.25856,"lon":5.39895,"is_reserved":false,"is_disabled":true,"rental_uris":{"android":"levelo://app?vid=4be48e83-9343-4c3a-b884-b414c3010644","ios":"levelo://app?vid=4be48e83-9343-4c3a-b884-b414c3010644"},"vehicle_type_id":"4","last_reported":1778449066,"current_range_meters":8400,"station_id":"ce4bhl92rcd13ifvqghg","pricing_plan_id":"cebpf4jnsgd1na2vs0mg"},{"bike_id":"1f120ac7-7ee8-43e5-8a49-7d8f26aa9f00","system_id":"levelo_inurba_marseille","lat":43.30204,"lon":5.3946,"is_reserved":false,"is_disabled":false,"rental_uris":{"android":"levelo://app?vid=1f120ac7-7ee8-43e5-8a49-7d8f26aa9f00","ios":"levelo://app?vid=1f120ac7-7ee8-43e5-8a49-7d8f26aa9f00"},"vehicle_type_id":"4","last_reported":1778449066,"current_range_meters":8400,"station_id":"ce4bh0p2rcd13ifvqd70","pricing_plan_id":"cebpf4jnsgd1na2vs0mg"},{"bike_id":"3ab249c6-122f-4895-96d8-7381a023f116","system_id":"levelo_inurba_marseille","lat":43.30818,"lon":5.38174,"is_reserved":false,"is_disabled":false,"rental_uris":{"android":"levelo://app?vid=3ab249c6-122f-4895-96d8-7381a023f116","ios":"levelo://app?vid=3ab249c6-122f-4895-96d8-7381a023f116"},"vehicle_type_id":"4","last_reported":1778449066,"current_range_meters":8400,"station_id":"ce4bgt12rcd13ifvqce0","pricing_plan_id":"cebpf4jnsgd1na2vs0mg"},{"bike_id":"2f451d67-dd75-4a26-aa43-0a0aec9326fd","system_id":"levelo_inurba_marseille","lat":43.33168,"lon":5.37641,"is_reserved":false,"is_disabled":false,"rental_uris":{"android":"levelo://app?vid=2f451d67-dd75-4a26-aa43-0a0aec9326fd","ios":"levelo://app?vid=2f451d67-dd75-4a26-aa43-0a0aec9326fd"},"vehicle_type_id":"4","last_reported":1778449066,"current_range_meters":8400,"station_id":"st_d46cu089ee8s73dldbu0","pricing_plan_id":"cebpf4jnsgd1na2vs0mg"},{"bike_id":"d18ad487-cf97-4fdf-b362-855bfbb95ee6","system_id":"levelo_inurba_marseille","lat":43.29632,"lon":5.40582,"is_reserved":false,"is_disabled":false,"rental_uris":{"android":"levelo://app?vid=d18ad487-cf97-4fdf-b362-855bfbb95ee6","ios":"levelo://app?vid=d18ad487-cf97-4fdf-b362-855bfbb95ee6"},"vehicle_type_id":"4","last_reported":1778449066,"current_range_meters":8800,"station_id":"ce4bh0h2rcd13ifvqd60","pricing_plan_id":"cebpf4jnsgd1na2vs0mg"},{"bike_id":"db8a576c-9375-4aa7-a828-1b46e8e3d489","system_id":"levelo_inurba_marseille","lat":43.26082,"lon":5.3938,"is_reserved":false,"is_disabled":false,"rental_uris":{"android":"levelo://app?vid=db8a576c-9375-4aa7-a828-1b46e8e3d489","ios":"levelo://app?vid=db8a576c-9375-4aa7-a828-1b46e8e3d489"},"vehicle_type_id":"4","last_reported":1778449066,"current_range_meters":8800,"station_id":"ce4bhh92rcd13ifvqfj0","pricing_plan_id":"cebpf4jnsgd1na2vs0mg"},{"bike_id":"35f35c16-6156-42e2-a421-61b93b5f12e7","system_id":"levelo_inurba_marseille","lat":43.26065,"lon":5.39398,"is_reserved":false,"is_disabled":false,"rental_uris":{"android":"levelo://app?vid=35f35c16-6156-42e2-a421-61b93b5f12e7","ios":"levelo://app?vid=35f35c16-6156-42e2-a421-61b93b5f12e7"},"vehicle_type_id":"4","last_reported":1778449066,"current_range_meters":8800,"station_id":"ce4bhh92rcd13ifvqfj0","pricing_plan_id":"cebpf4jnsgd1na2vs0mg"},{"bike_id":"2c27810b-701d-4c1c-9fbe-1b4bb62f5b21","system_id":"levelo_inurba_marseille","lat":43.28931,"lon":5.3659,"is_reserved":false,"is_disabled":false,"rental_uris":{"android":"levelo://app?vid=2c27810b-701d-4c1c-9fbe-1b4bb62f5b21","ios":"levelo://app?vid=2c27810b-701d-4c1c-9fbe-1b4bb62f5b21"},"vehicle_type_id":"4","last_reported":1778449066,"current_range_meters":8800,"station_id":"","pricing_plan_id":"cebpf4jnsgd1na2vs0mg"},{"bike_id":"05fb288f-2d6d-4c9a-902a-cda9807cda0a","system_id":"levelo_inurba_marseille","lat":43.28444,"lon":5.35848,"is_reserved":false,"is_disabled":false,"rental_uris":{"android":"levelo://app?vid=05fb288f-2d6d-4c9a-902a-cda9807cda0a","ios":"levelo://app?vid=05fb288f-2d6d-4c9a-902a-cda9807cda0a"},"vehicle_type_id":"4","last_reported":1778449066,"current_range_meters":8800,"station_id":"ce4bhah2rcd13ifvqei0","pricing_plan_id":"cebpf4jnsgd1na2vs0mg"},{"bike_id":"09fa49d6-2f72-44fb-aecc-f42e40eb9080","system_id":"levelo_inurba_marseille","lat":43.25727,"lon":5.41087,"is_reserved":false,"is_disabled":false,"rental_uris":{"android":"levelo://app?vid=09fa49d6-2f72-44fb-aecc-f42e40eb9080","ios":"levelo://app?vid=09fa49d6-2f72-44fb-aecc-f42e40eb9080"},"vehicle_type_id":"4","last_reported":1778449066,"current_range_meters":8800,"station_id":"ce4bhkp2rcd13ifvqgd0","pricing_plan_id":"cebpf4jnsgd1na2vs0mg"},{"bike_id":"5e5e967c-282c-40bf-9541-514de8678e24","system_id":"levelo_inurba_marseille","lat":43.30188,"lon":5.36633,"is_reserved":false,"is_disabled":false,"rental_uris":{"android":"levelo://app?vid=5e5e967c-282c-40bf-9541-514de8678e24","ios":"levelo://app?vid=5e5e967c-282c-40bf-9541-514de8678e24"},"vehicle_type_id":"4","last_reported":1778449066,"current_range_meters":8800,"station_id":"ce4bgrh2rcd13ifvqc8g","pricing_plan_id":"cebpf4jnsgd1na2vs0mg"},{"bike_id":"57394a6b-0e54-4a7c-b04a-d450a2ab5e79","system_id":"levelo_inurba_marseille","lat":43.25511,"lon":5.37651,"is_reserved":false,"is_disabled":true,"rental_uris":{"android":"levelo://app?vid=57394a6b-0e54-4a7c-b04a-d450a2ab5e79","ios":"levelo://app?vid=57394a6b-0e54-4a7c-b04a-d450a2ab5e79"},"vehicle_type_id":"4","last_reported":1778449066,"current_range_meters":8800,"station_id":"ce4bhh12rcd13ifvqff0","pricing_plan_id":"cebpf4jnsgd1na2vs0mg"},{"bike_id":"606f9e64-3b28-42c8-ba64-c12f40574dec","system_id":"levelo_inurba_marseille","lat":43.30103,"lon":5.39075,"is_reserved":false,"is_disabled":true,"rental_uris":{"android":"levelo://app?vid=606f9e64-3b28-42c8-ba64-c12f40574dec","ios":"levelo://app?vid=606f9e64-3b28-42c8-ba64-c12f40574dec"},"vehicle_type_id":"4","last_reported":1778449066,"current_range_meters":8800,"station_id":"ce4bh192rcd13ifvqdb0","pricing_plan_id":"cebpf4jnsgd1na2vs0mg"},{"bike_id":"206c17e5-570c-4f0d-ac77-5097cef7259c","system_id":"levelo_inurba_marseille","lat":43.28706,"lon":5.37352,"is_reserved":false,"is_disabled":false,"rental_uris":{"android":"levelo://app?vid=206c17e5-570c-4f0d-ac77-5097cef7259c","ios":"levelo://app?vid=206c17e5-570c-4f0d-ac77-5097cef7259c"},"vehicle_type_id":"4","last_reported":1778449066,"current_range_meters":8800,"station_id":"ce4bh3p2rcd13ifvqdq0","pricing_plan_id":"cebpf4jnsgd1na2vs0mg"},{"bike_id":"1f82399f-59de-4793-b45b-e2f3de43b6a2","system_id":"levelo_inurba_marseille","lat":43.33154,"lon":5.377,"is_reserved":false,"is_disabled":false,"rental_uris":{"android":"levelo://app?vid=1f82399f-59de-4793-b45b-e2f3de43b6a2","ios":"levelo://app?vid=1f82399f-59de-4793-b45b-e2f3de43b6a2"},"vehicle_type_id":"4","last_reported":1778449066,"current_range_meters":8800,"station_id":"st_d46cu089ee8s73dldbu0","pricing_plan_id":"cebpf4jnsgd1na2vs0mg"},{"bike_id":"ed1f658d-f045-43c2-ac07-b8fef8c90998","system_id":"levelo_inurba_marseille","lat":43.31195,"lon":5.38719,"is_reserved":false,"is_disabled":false,"rental_uris":{"android":"levelo://app?vid=ed1f658d-f045-43c2-ac07-b8fef8c90998","ios":"levelo://app?vid=ed1f658d-f045-43c2-ac07-b8fef8c90998"},"vehicle_type_id":"4","last_reported":1778449066,"current_range_meters":8800,"station_id":"ce4bgv12rcd13ifvqcp0","pricing_plan_id":"cebpf4jnsgd1na2vs0mg"},{"bike_id":"a016672a-1061-4ac3-bb8b-c01d8b90b1d4","system_id":"levelo_inurba_marseille","lat":43.23186,"lon":5.39974,"is_reserved":false,"is_disabled":false,"rental_uris":{"android":"levelo://app?vid=a016672a-1061-4ac3-bb8b-c01d8b90b1d4","ios":"levelo://app?vid=a016672a-1061-4ac3-bb8b-c01d8b90b1d4"},"vehicle_type_id":"4","last_reported":1778449066,"current_range_meters":8800,"station_id":"ce4bhn12rcd13ifvqgqg","pricing_plan_id":"cebpf4jnsgd1na2vs0mg"},{"bike_id":"409b3968-8b12-4250-b719-a248e17ba793","system_id":"levelo_inurba_marseille","lat":43.306039,"lon":5.372289,"is_reserved":false,"is_disabled":false,"rental_uris":{"android":"levelo://app?vid=409b3968-8b12-4250-b719-a248e17ba793","ios":"levelo://app?vid=409b3968-8b12-4250-b719-a248e17ba793"},"vehicle_type_id":"4","last_reported":1778449066,"current_range_meters":8800,"station_id":"ce4bgqh2rcd13ifvqc4g","pricing_plan_id":"cebpf4jnsgd1na2vs0mg"},{"bike_id":"21a7f896-b278-4e64-96ff-f2d3e49aae77","system_id":"levelo_inurba_marseille","lat":43.24598,"lon":5.4311,"is_reserved":false,"is_disabled":true,"rental_uris":{"android":"levelo://app?vid=21a7f896-b278-4e64-96ff-f2d3e49aae77","ios":"levelo://app?vid=21a7f896-b278-4e64-96ff-f2d3e49aae77"},"vehicle_type_id":"4","last_reported":1778449066,"current_range_meters":8800,"station_id":"st_d2m6c4gdas8pm72e190g","pricing_plan_id":"cebpf4jnsgd1na2vs0mg"},{"bike_id":"1985cac5-8bab-4884-b5f5-6e83cc1fca9b","system_id":"levelo_inurba_marseille","lat":43.24183,"lon":5.39728,"is_reserved":false,"is_disabled":false,"rental_uris":{"android":"levelo://app?vid=1985cac5-8bab-4884-b5f5-6e83cc1fca9b","ios":"levelo://app?vid=1985cac5-8bab-4884-b5f5-6e83cc1fca9b"},"vehicle_type_id":"4","last_reported":1778449066,"current_range_meters":8800,"station_id":"ce4bhn12rcd13ifvqgpg","pricing_plan_id":"cebpf4jnsgd1na2vs0mg"},{"bike_id":"96ee491c-65e4-41f3-8887-5bf9130825e2","system_id":"levelo_inurba_marseille","lat":43.28457,"lon":5.35874,"is_reserved":false,"is_disabled":false,"rental_uris":{"android":"levelo://app?vid=96ee491c-65e4-41f3-8887-5bf9130825e2","ios":"levelo://app?vid=96ee491c-65e4-41f3-8887-5bf9130825e2"},"vehicle_type_id":"4","last_reported":1778449066,"current_range_meters":8800,"station_id":"ce4bhah2rcd13ifvqei0","pricing_plan_id":"cebpf4jnsgd1na2vs0mg"},{"bike_id":"68d2e4b5-1059-4982-9127-c31f3ece8666","system_id":"levelo_inurba_marseille","lat":43.25734,"lon":5.41083,"is_reserved":false,"is_disabled":false,"rental_uris":{"android":"levelo://app?vid=68d2e4b5-1059-4982-9127-c31f3ece8666","ios":"levelo://app?vid=68d2e4b5-1059-4982-9127-c31f3ece8666"},"vehicle_type_id":"4","last_reported":1778449066,"current_range_meters":8800,"station_id":"ce4bhkp2rcd13ifvqgd0","pricing_plan_id":"cebpf4jnsgd1na2vs0mg"},{"bike_id":"7a691dfd-c72c-446b-899e-4c8b22ebb699","system_id":"levelo_inurba_marseille","lat":43.2501,"lon":5.38913,"is_reserved":false,"is_disabled":false,"rental_uris":{"android":"levelo://app?vid=7a691dfd-c72c-446b-899e-4c8b22ebb699","ios":"levelo://app?vid=7a691dfd-c72c-446b-899e-4c8b22ebb699"},"vehicle_type_id":"4","last_reported":1778449066,"current_range_meters":8800,"station_id":"ce4bhgp2rcd13ifvqfd0","pricing_plan_id":"cebpf4jnsgd1na2vs0mg"},{"bike_id":"64794a0f-6bf7-4bfd-8c8e-dbb3a34684fa","system_id":"levelo_inurba_marseille","lat":43.27954,"lon":5.38749,"is_reserved":false,"is_disabled":false,"rental_uris":{"android":"levelo://app?vid=64794a0f-6bf7-4bfd-8c8e-dbb3a34684fa","ios":"levelo://app?vid=64794a0f-6bf7-4bfd-8c8e-dbb3a34684fa"},"vehicle_type_id":"4","last_reported":1778449066,"current_range_meters":9200,"station_id":"ce4bhg12rcd13ifvqf80","pricing_plan_id":"cebpf4jnsgd1na2vs0mg"},{"bike_id":"84af626e-8cc2-4704-a6dd-ae7645c7f206","system_id":"levelo_inurba_marseille","lat":43.30444,"lon":5.36583,"is_reserved":false,"is_disabled":false,"rental_uris":{"android":"levelo://app?vid=84af626e-8cc2-4704-a6dd-ae7645c7f206","ios":"levelo://app?vid=84af626e-8cc2-4704-a6dd-ae7645c7f206"},"vehicle_type_id":"4","last_reported":1778449066,"current_range_meters":9200,"station_id":"","pricing_plan_id":"cebpf4jnsgd1na2vs0mg"},{"bike_id":"9b62c6f7-7051-42a4-84b0-1f9e60c35a33","system_id":"levelo_inurba_marseille","lat":43.28483,"lon":5.35858,"is_reserved":false,"is_disabled":false,"rental_uris":{"android":"levelo://app?vid=9b62c6f7-7051-42a4-84b0-1f9e60c35a33","ios":"levelo://app?vid=9b62c6f7-7051-42a4-84b0-1f9e60c35a33"},"vehicle_type_id":"4","last_reported":1778449066,"current_range_meters":9200,"station_id":"ce4bhah2rcd13ifvqei0","pricing_plan_id":"cebpf4jnsgd1na2vs0mg"},{"bike_id":"fa97b013-cf20-4697-baec-25d48d14dd9d","system_id":"levelo_inurba_marseille","lat":43.29256,"lon":5.38417,"is_reserved":false,"is_disabled":true,"rental_uris":{"android":"levelo://app?vid=fa97b013-cf20-4697-baec-25d48d14dd9d","ios":"levelo://app?vid=fa97b013-cf20-4697-baec-25d48d14dd9d"},"vehicle_type_id":"4","last_reported":1778449066,"current_range_meters":9200,"station_id":"ce4bh692rcd13ifvqea0","pricing_plan_id":"cebpf4jnsgd1na2vs0mg"},{"bike_id":"7884910f-8322-48f4-b6be-b90036e4d9ea","system_id":"levelo_inurba_marseille","lat":43.2482,"lon":5.37442,"is_reserved":false,"is_disabled":false,"rental_uris":{"android":"levelo://app?vid=7884910f-8322-48f4-b6be-b90036e4d9ea","ios":"levelo://app?vid=7884910f-8322-48f4-b6be-b90036e4d9ea"},"vehicle_type_id":"4","last_reported":1778449066,"current_range_meters":9200,"station_id":"ce4bhgh2rcd13ifvqfb0","pricing_plan_id":"cebpf4jnsgd1na2vs0mg"},{"bike_id":"aa77ea44-d77e-48bc-af16-69d497b15ff0","system_id":"levelo_inurba_marseille","lat":43.27078,"lon":5.38297,"is_reserved":false,"is_disabled":false,"rental_uris":{"android":"levelo://app?vid=aa77ea44-d77e-48bc-af16-69d497b15ff0","ios":"levelo://app?vid=aa77ea44-d77e-48bc-af16-69d497b15ff0"},"vehicle_type_id":"4","last_reported":1778449066,"current_range_meters":9200,"station_id":"st_d3n2fo6cfp8s73cte1j0","pricing_plan_id":"cebpf4jnsgd1na2vs0mg"},{"bike_id":"7c0caa52-21c5-41d5-bddb-76a38bb998b8","system_id":"levelo_inurba_marseille","lat":43.29807,"lon":5.44072,"is_reserved":false,"is_disabled":false,"rental_uris":{"android":"levelo://app?vid=7c0caa52-21c5-41d5-bddb-76a38bb998b8","ios":"levelo://app?vid=7c0caa52-21c5-41d5-bddb-76a38bb998b8"},"vehicle_type_id":"4","last_reported":1778449066,"current_range_meters":9200,"station_id":"st_d3jp68qikq2c7381ktn0","pricing_plan_id":"cebpf4jnsgd1na2vs0mg"},{"bike_id":"eac20a46-94c6-4d03-b1d6-161057e56e22","system_id":"levelo_inurba_marseille","lat":43.29303,"lon":5.37445,"is_reserved":false,"is_disabled":true,"rental_uris":{"android":"levelo://app?vid=eac20a46-94c6-4d03-b1d6-161057e56e22","ios":"levelo://app?vid=eac20a46-94c6-4d03-b1d6-161057e56e22"},"vehicle_type_id":"4","last_reported":1778449066,"current_range_meters":9200,"station_id":"ce4bgi12rcd13ifvqb70","pricing_plan_id":"cebpf4jnsgd1na2vs0mg"},{"bike_id":"b5b0524a-16d5-40b7-8ca1-117d09866cbf","system_id":"levelo_inurba_marseille","lat":43.33956,"lon":5.41656,"is_reserved":false,"is_disabled":false,"rental_uris":{"android":"levelo://app?vid=b5b0524a-16d5-40b7-8ca1-117d09866cbf","ios":"levelo://app?vid=b5b0524a-16d5-40b7-8ca1-117d09866cbf"},"vehicle_type_id":"4","last_reported":1778449066,"current_range_meters":9200,"station_id":"","pricing_plan_id":"cebpf4jnsgd1na2vs0mg"},{"bike_id":"663a05de-3e10-47af-b10b-a6ce1e8fc53b","system_id":"levelo_inurba_marseille","lat":43.3093,"lon":5.40162,"is_reserved":false,"is_disabled":false,"rental_uris":{"android":"levelo://app?vid=663a05de-3e10-47af-b10b-a6ce1e8fc53b","ios":"levelo://app?vid=663a05de-3e10-47af-b10b-a6ce1e8fc53b"},"vehicle_type_id":"4","last_reported":1778449066,"current_range_meters":9200,"station_id":"ce4bgvp2rcd13ifvqct0","pricing_plan_id":"cebpf4jnsgd1na2vs0mg"},{"bike_id":"b8253c6e-2e65-422a-b604-6720af1ef768","system_id":"levelo_inurba_marseille","lat":43.33158,"lon":5.37695,"is_reserved":false,"is_disabled":false,"rental_uris":{"android":"levelo://app?vid=b8253c6e-2e65-422a-b604-6720af1ef768","ios":"levelo://app?vid=b8253c6e-2e65-422a-b604-6720af1ef768"},"vehicle_type_id":"4","last_reported":1778449066,"current_range_meters":9200,"station_id":"st_d46cu089ee8s73dldbu0","pricing_plan_id":"cebpf4jnsgd1na2vs0mg"},{"bike_id":"8125f414-8ed3-4a61-a166-5bf2bd768e50","system_id":"levelo_inurba_marseille","lat":43.28414,"lon":5.3748,"is_reserved":false,"is_disabled":false,"rental_uris":{"android":"levelo://app?vid=8125f414-8ed3-4a61-a166-5bf2bd768e50","ios":"levelo://app?vid=8125f414-8ed3-4a61-a166-5bf2bd768e50"},"vehicle_type_id":"4","last_reported":1778449066,"current_range_meters":9200,"station_id":"ce4bh412rcd13ifvqds0","pricing_plan_id":"cebpf4jnsgd1na2vs0mg"},{"bike_id":"4b855d88-5858-4576-a323-e416eb3c528a","system_id":"levelo_inurba_marseille","lat":43.29532,"lon":5.39384,"is_reserved":false,"is_disabled":false,"rental_uris":{"android":"levelo://app?vid=4b855d88-5858-4576-a323-e416eb3c528a","ios":"levelo://app?vid=4b855d88-5858-4576-a323-e416eb3c528a"},"vehicle_type_id":"4","last_reported":1778449066,"current_range_meters":9200,"station_id":"ce4bh292rcd13ifvqdf0","pricing_plan_id":"cebpf4jnsgd1na2vs0mg"},{"bike_id":"75d44f43-cf7b-4662-8428-a2cc94a2980d","system_id":"levelo_inurba_marseille","lat":43.28863,"lon":5.42513,"is_reserved":false,"is_disabled":false,"rental_uris":{"android":"levelo://app?vid=75d44f43-cf7b-4662-8428-a2cc94a2980d","ios":"levelo://app?vid=75d44f43-cf7b-4662-8428-a2cc94a2980d"},"vehicle_type_id":"4","last_reported":1778449066,"current_range_meters":9200,"station_id":"st_d3b462108ojc7389ooeg","pricing_plan_id":"cebpf4jnsgd1na2vs0mg"},{"bike_id":"f0f401d4-150c-4cfa-919d-efdf4f923085","system_id":"levelo_inurba_marseille","lat":43.23889,"lon":5.37437,"is_reserved":false,"is_disabled":true,"rental_uris":{"android":"levelo://app?vid=f0f401d4-150c-4cfa-919d-efdf4f923085","ios":"levelo://app?vid=f0f401d4-150c-4cfa-919d-efdf4f923085"},"vehicle_type_id":"4","last_reported":1778449066,"current_range_meters":9200,"station_id":"st_d6sm7csbq4hs73f8fpjg","pricing_plan_id":"cebpf4jnsgd1na2vs0mg"},{"bike_id":"d2654d3d-15d5-4633-b838-ab8529bcbbd7","system_id":"levelo_inurba_marseille","lat":43.27933,"lon":5.38727,"is_reserved":false,"is_disabled":false,"rental_uris":{"android":"levelo://app?vid=d2654d3d-15d5-4633-b838-ab8529bcbbd7","ios":"levelo://app?vid=d2654d3d-15d5-4633-b838-ab8529bcbbd7"},"vehicle_type_id":"4","last_reported":1778449066,"current_range_meters":9200,"station_id":"ce4bhg12rcd13ifvqf80","pricing_plan_id":"cebpf4jnsgd1na2vs0mg"},{"bike_id":"81658907-aa16-482e-874c-522fe76b75b0","system_id":"levelo_inurba_marseille","lat":43.2917,"lon":5.37159,"is_reserved":false,"is_disabled":false,"rental_uris":{"android":"levelo://app?vid=81658907-aa16-482e-874c-522fe76b75b0","ios":"levelo://app?vid=81658907-aa16-482e-874c-522fe76b75b0"},"vehicle_type_id":"4","last_reported":1778449066,"current_range_meters":9200,"station_id":"ce4bha92rcd13ifvqeh0","pricing_plan_id":"cebpf4jnsgd1na2vs0mg"},{"bike_id":"96178097-25e8-4e8a-b55e-03e212451214","system_id":"levelo_inurba_marseille","lat":43.32492,"lon":5.41476,"is_reserved":false,"is_disabled":false,"rental_uris":{"android":"levelo://app?vid=96178097-25e8-4e8a-b55e-03e212451214","ios":"levelo://app?vid=96178097-25e8-4e8a-b55e-03e212451214"},"vehicle_type_id":"4","last_reported":1778449066,"current_range_meters":9200,"station_id":"","pricing_plan_id":"cebpf4jnsgd1na2vs0mg"},{"bike_id":"1dd218e7-8808-4988-81d5-6f6ffc0dee7d","system_id":"levelo_inurba_marseille","lat":43.24629,"lon":5.38897,"is_reserved":false,"is_disabled":false,"rental_uris":{"android":"levelo://app?vid=1dd218e7-8808-4988-81d5-6f6ffc0dee7d","ios":"levelo://app?vid=1dd218e7-8808-4988-81d5-6f6ffc0dee7d"},"vehicle_type_id":"4","last_reported":1778449066,"current_range_meters":9200,"station_id":"ce4bhg12rcd13ifvqf60","pricing_plan_id":"cebpf4jnsgd1na2vs0mg"},{"bike_id":"07d09d5f-80a0-433a-9480-876a03c4fd65","system_id":"levelo_inurba_marseille","lat":43.28691,"lon":5.38667,"is_reserved":false,"is_disabled":false,"rental_uris":{"android":"levelo://app?vid=07d09d5f-80a0-433a-9480-876a03c4fd65","ios":"levelo://app?vid=07d09d5f-80a0-433a-9480-876a03c4fd65"},"vehicle_type_id":"4","last_reported":1778449066,"current_range_meters":9200,"station_id":"ce4bh492rcd13ifvqdug","pricing_plan_id":"cebpf4jnsgd1na2vs0mg"},{"bike_id":"fb1216e0-1863-4e59-a1fb-05cb4867201a","system_id":"levelo_inurba_marseille","lat":43.3032,"lon":5.36883,"is_reserved":false,"is_disabled":false,"rental_uris":{"android":"levelo://app?vid=fb1216e0-1863-4e59-a1fb-05cb4867201a","ios":"levelo://app?vid=fb1216e0-1863-4e59-a1fb-05cb4867201a"},"vehicle_type_id":"4","last_reported":1778449066,"current_range_meters":9200,"station_id":"ce4bgqh2rcd13ifvqc5g","pricing_plan_id":"cebpf4jnsgd1na2vs0mg"},{"bike_id":"092ef964-44c6-4685-80ee-795c5947a307","system_id":"levelo_inurba_marseille","lat":43.24282,"lon":5.3986,"is_reserved":false,"is_disabled":false,"rental_uris":{"android":"levelo://app?vid=092ef964-44c6-4685-80ee-795c5947a307","ios":"levelo://app?vid=092ef964-44c6-4685-80ee-795c5947a307"},"vehicle_type_id":"4","last_reported":1778449066,"current_range_meters":9200,"station_id":"","pricing_plan_id":"cebpf4jnsgd1na2vs0mg"},{"bike_id":"3513c7c9-429c-4027-9626-3747f3ee85c7","system_id":"levelo_inurba_marseille","lat":43.33553,"lon":5.37454,"is_reserved":false,"is_disabled":false,"rental_uris":{"android":"levelo://app?vid=3513c7c9-429c-4027-9626-3747f3ee85c7","ios":"levelo://app?vid=3513c7c9-429c-4027-9626-3747f3ee85c7"},"vehicle_type_id":"4","last_reported":1778449066,"current_range_meters":9600,"station_id":"st_d46tts09ee8s73dlu43g","pricing_plan_id":"cebpf4jnsgd1na2vs0mg"},{"bike_id":"88f6387c-8894-40ad-99ab-678b2c9c3fd8","system_id":"levelo_inurba_marseille","lat":43.26945,"lon":5.40267,"is_reserved":false,"is_disabled":true,"rental_uris":{"android":"levelo://app?vid=88f6387c-8894-40ad-99ab-678b2c9c3fd8","ios":"levelo://app?vid=88f6387c-8894-40ad-99ab-678b2c9c3fd8"},"vehicle_type_id":"4","last_reported":1778449066,"current_range_meters":9600,"station_id":"cjm6bp8fraef2m0cb0m0","pricing_plan_id":"cebpf4jnsgd1na2vs0mg"},{"bike_id":"3385a979-07e0-4b81-80b6-b21483b004d7","system_id":"levelo_inurba_marseille","lat":43.29582,"lon":5.37486,"is_reserved":false,"is_disabled":false,"rental_uris":{"android":"levelo://app?vid=3385a979-07e0-4b81-80b6-b21483b004d7","ios":"levelo://app?vid=3385a979-07e0-4b81-80b6-b21483b004d7"},"vehicle_type_id":"4","last_reported":1778449066,"current_range_meters":9600,"station_id":"ce4bgh92rcd13ifvqb50","pricing_plan_id":"cebpf4jnsgd1na2vs0mg"},{"bike_id":"ba7729df-8734-48f5-a3f4-2e991d746a2f","system_id":"levelo_inurba_marseille","lat":43.29006,"lon":5.38129,"is_reserved":false,"is_disabled":false,"rental_uris":{"android":"levelo://app?vid=ba7729df-8734-48f5-a3f4-2e991d746a2f","ios":"levelo://app?vid=ba7729df-8734-48f5-a3f4-2e991d746a2f"},"vehicle_type_id":"4","last_reported":1778449066,"current_range_meters":9600,"station_id":"ce4bh4p2rcd13ifvqe1g","pricing_plan_id":"cebpf4jnsgd1na2vs0mg"},{"bike_id":"da2f364a-6c5b-40ee-80fd-2a2683400266","system_id":"levelo_inurba_marseille","lat":43.32667,"lon":5.36052,"is_reserved":false,"is_disabled":false,"rental_uris":{"android":"levelo://app?vid=da2f364a-6c5b-40ee-80fd-2a2683400266","ios":"levelo://app?vid=da2f364a-6c5b-40ee-80fd-2a2683400266"},"vehicle_type_id":"4","last_reported":1778449066,"current_range_meters":9600,"station_id":"","pricing_plan_id":"cebpf4jnsgd1na2vs0mg"},{"bike_id":"1acb59de-f9c0-4f44-8499-4cddce70eb26","system_id":"levelo_inurba_marseille","lat":43.24673,"lon":5.38143,"is_reserved":false,"is_disabled":true,"rental_uris":{"android":"levelo://app?vid=1acb59de-f9c0-4f44-8499-4cddce70eb26","ios":"levelo://app?vid=1acb59de-f9c0-4f44-8499-4cddce70eb26"},"vehicle_type_id":"4","last_reported":1778449066,"current_range_meters":9600,"station_id":"ce4bhih2rcd13ifvqfr0","pricing_plan_id":"cebpf4jnsgd1na2vs0mg"},{"bike_id":"1ff08073-d96d-46fe-859e-1283af556251","system_id":"levelo_inurba_marseille","lat":43.30848,"lon":5.36638,"is_reserved":false,"is_disabled":false,"rental_uris":{"android":"levelo://app?vid=1ff08073-d96d-46fe-859e-1283af556251","ios":"levelo://app?vid=1ff08073-d96d-46fe-859e-1283af556251"},"vehicle_type_id":"4","last_reported":1778449066,"current_range_meters":9600,"station_id":"","pricing_plan_id":"cebpf4jnsgd1na2vs0mg"},{"bike_id":"d3ed0906-9379-4354-90fd-002e622d42f3","system_id":"levelo_inurba_marseille","lat":43.24817,"lon":5.37457,"is_reserved":false,"is_disabled":false,"rental_uris":{"android":"levelo://app?vid=d3ed0906-9379-4354-90fd-002e622d42f3","ios":"levelo://app?vid=d3ed0906-9379-4354-90fd-002e622d42f3"},"vehicle_type_id":"4","last_reported":1778449066,"current_range_meters":9600,"station_id":"ce4bhgh2rcd13ifvqfb0","pricing_plan_id":"cebpf4jnsgd1na2vs0mg"},{"bike_id":"782b02f9-c57b-456b-a4bf-832d640b8f92","system_id":"levelo_inurba_marseille","lat":43.2573,"lon":5.41102,"is_reserved":false,"is_disabled":false,"rental_uris":{"android":"levelo://app?vid=782b02f9-c57b-456b-a4bf-832d640b8f92","ios":"levelo://app?vid=782b02f9-c57b-456b-a4bf-832d640b8f92"},"vehicle_type_id":"4","last_reported":1778449066,"current_range_meters":9600,"station_id":"ce4bhkp2rcd13ifvqgd0","pricing_plan_id":"cebpf4jnsgd1na2vs0mg"},{"bike_id":"b99060e5-b428-4a68-b09e-993dae2f869c","system_id":"levelo_inurba_marseille","lat":43.31502,"lon":5.37275,"is_reserved":false,"is_disabled":false,"rental_uris":{"android":"levelo://app?vid=b99060e5-b428-4a68-b09e-993dae2f869c","ios":"levelo://app?vid=b99060e5-b428-4a68-b09e-993dae2f869c"},"vehicle_type_id":"4","last_reported":1778449066,"current_range_meters":9600,"station_id":"ce4bgt12rcd13ifvqcd0","pricing_plan_id":"cebpf4jnsgd1na2vs0mg"},{"bike_id":"188be41f-923a-4386-836c-4bf99c1725bd","system_id":"levelo_inurba_marseille","lat":43.299271,"lon":5.374873,"is_reserved":false,"is_disabled":false,"rental_uris":{"android":"levelo://app?vid=188be41f-923a-4386-836c-4bf99c1725bd","ios":"levelo://app?vid=188be41f-923a-4386-836c-4bf99c1725bd"},"vehicle_type_id":"4","last_reported":1778449066,"current_range_meters":9600,"station_id":"ce4bgjh2rcd13ifvqbg0","pricing_plan_id":"cebpf4jnsgd1na2vs0mg"},{"bike_id":"635e37d3-7b93-4e97-82bd-bbf4c4561837","system_id":"levelo_inurba_marseille","lat":43.32238,"lon":5.36884,"is_reserved":false,"is_disabled":false,"rental_uris":{"android":"levelo://app?vid=635e37d3-7b93-4e97-82bd-bbf4c4561837","ios":"levelo://app?vid=635e37d3-7b93-4e97-82bd-bbf4c4561837"},"vehicle_type_id":"4","last_reported":1778449066,"current_range_meters":9600,"station_id":"","pricing_plan_id":"cebpf4jnsgd1na2vs0mg"},{"bike_id":"de5e63f3-90b9-4eb1-8a88-6b8b6b27e91d","system_id":"levelo_inurba_marseille","lat":43.23187,"lon":5.35527,"is_reserved":false,"is_disabled":true,"rental_uris":{"android":"levelo://app?vid=de5e63f3-90b9-4eb1-8a88-6b8b6b27e91d","ios":"levelo://app?vid=de5e63f3-90b9-4eb1-8a88-6b8b6b27e91d"},"vehicle_type_id":"4","last_reported":1778449066,"current_range_meters":9600,"station_id":"ce4bhu92rcd13ifvqi70","pricing_plan_id":"cebpf4jnsgd1na2vs0mg"},{"bike_id":"ded3ddf8-605b-4d28-b69f-a3d3077311b9","system_id":"levelo_inurba_marseille","lat":43.29882,"lon":5.39747,"is_reserved":false,"is_disabled":true,"rental_uris":{"android":"levelo://app?vid=ded3ddf8-605b-4d28-b69f-a3d3077311b9","ios":"levelo://app?vid=ded3ddf8-605b-4d28-b69f-a3d3077311b9"},"vehicle_type_id":"4","last_reported":1778449066,"current_range_meters":9600,"station_id":"ce4bh0h2rcd13ifvqd50","pricing_plan_id":"cebpf4jnsgd1na2vs0mg"},{"bike_id":"6fd6e65c-bdeb-4480-81a3-c740d0df04a3","system_id":"levelo_inurba_marseille","lat":43.23169,"lon":5.43696,"is_reserved":false,"is_disabled":false,"rental_uris":{"android":"levelo://app?vid=6fd6e65c-bdeb-4480-81a3-c740d0df04a3","ios":"levelo://app?vid=6fd6e65c-bdeb-4480-81a3-c740d0df04a3"},"vehicle_type_id":"4","last_reported":1778449066,"current_range_meters":9600,"station_id":"ce4bhmp2rcd13ifvqgog","pricing_plan_id":"cebpf4jnsgd1na2vs0mg"},{"bike_id":"14d13d5b-27e9-42d0-9ffa-b5dd8fd7de4d","system_id":"levelo_inurba_marseille","lat":43.25495,"lon":5.3764,"is_reserved":false,"is_disabled":false,"rental_uris":{"android":"levelo://app?vid=14d13d5b-27e9-42d0-9ffa-b5dd8fd7de4d","ios":"levelo://app?vid=14d13d5b-27e9-42d0-9ffa-b5dd8fd7de4d"},"vehicle_type_id":"4","last_reported":1778449066,"current_range_meters":9600,"station_id":"ce4bhh12rcd13ifvqff0","pricing_plan_id":"cebpf4jnsgd1na2vs0mg"},{"bike_id":"8908f308-5021-4c82-bb7c-99a190d36091","system_id":"levelo_inurba_marseille","lat":43.31766,"lon":5.39003,"is_reserved":false,"is_disabled":true,"rental_uris":{"android":"levelo://app?vid=8908f308-5021-4c82-bb7c-99a190d36091","ios":"levelo://app?vid=8908f308-5021-4c82-bb7c-99a190d36091"},"vehicle_type_id":"4","last_reported":1778449066,"current_range_meters":9600,"station_id":"ce4bhqp2rcd13ifvqhng","pricing_plan_id":"cebpf4jnsgd1na2vs0mg"},{"bike_id":"6a9551d4-7d2a-4fa0-84aa-4a73adfa1d30","system_id":"levelo_inurba_marseille","lat":43.28392,"lon":5.3754,"is_reserved":false,"is_disabled":false,"rental_uris":{"android":"levelo://app?vid=6a9551d4-7d2a-4fa0-84aa-4a73adfa1d30","ios":"levelo://app?vid=6a9551d4-7d2a-4fa0-84aa-4a73adfa1d30"},"vehicle_type_id":"4","last_reported":1778449066,"current_range_meters":9600,"station_id":"ce4bh412rcd13ifvqds0","pricing_plan_id":"cebpf4jnsgd1na2vs0mg"},{"bike_id":"1959050f-96f1-4b75-a1eb-6b9c5a6cf64f","system_id":"levelo_inurba_marseille","lat":43.28277,"lon":5.3506,"is_reserved":false,"is_disabled":true,"rental_uris":{"android":"levelo://app?vid=1959050f-96f1-4b75-a1eb-6b9c5a6cf64f","ios":"levelo://app?vid=1959050f-96f1-4b75-a1eb-6b9c5a6cf64f"},"vehicle_type_id":"4","last_reported":1778449066,"current_range_meters":10000,"station_id":"ce4bhbp2rcd13ifvqerg","pricing_plan_id":"cebpf4jnsgd1na2vs0mg"},{"bike_id":"7a714113-6780-4b6c-bb50-d939a74ee8de","system_id":"levelo_inurba_marseille","lat":43.3135,"lon":5.36728,"is_reserved":false,"is_disabled":false,"rental_uris":{"android":"levelo://app?vid=7a714113-6780-4b6c-bb50-d939a74ee8de","ios":"levelo://app?vid=7a714113-6780-4b6c-bb50-d939a74ee8de"},"vehicle_type_id":"4","last_reported":1778449066,"current_range_meters":10000,"station_id":"ce4bgr92rcd13ifvqc6g","pricing_plan_id":"cebpf4jnsgd1na2vs0mg"},{"bike_id":"2ac9e2c5-2804-4950-b4a2-c7bd94410fbf","system_id":"levelo_inurba_marseille","lat":43.24646,"lon":5.38892,"is_reserved":false,"is_disabled":false,"rental_uris":{"android":"levelo://app?vid=2ac9e2c5-2804-4950-b4a2-c7bd94410fbf","ios":"levelo://app?vid=2ac9e2c5-2804-4950-b4a2-c7bd94410fbf"},"vehicle_type_id":"4","last_reported":1778449066,"current_range_meters":10000,"station_id":"ce4bhg12rcd13ifvqf60","pricing_plan_id":"cebpf4jnsgd1na2vs0mg"},{"bike_id":"7a44c589-a6c7-45e0-9afc-1a6fd0e9a4bd","system_id":"levelo_inurba_marseille","lat":43.297028,"lon":5.376905,"is_reserved":false,"is_disabled":true,"rental_uris":{"android":"levelo://app?vid=7a44c589-a6c7-45e0-9afc-1a6fd0e9a4bd","ios":"levelo://app?vid=7a44c589-a6c7-45e0-9afc-1a6fd0e9a4bd"},"vehicle_type_id":"4","last_reported":1778449066,"current_range_meters":10000,"station_id":"ce4bgkh2rcd13ifvqbl0","pricing_plan_id":"cebpf4jnsgd1na2vs0mg"},{"bike_id":"fbab85bb-7523-45e2-bfee-c119f0beb79c","system_id":"levelo_inurba_marseille","lat":43.2623,"lon":5.40442,"is_reserved":false,"is_disabled":false,"rental_uris":{"android":"levelo://app?vid=fbab85bb-7523-45e2-bfee-c119f0beb79c","ios":"levelo://app?vid=fbab85bb-7523-45e2-bfee-c119f0beb79c"},"vehicle_type_id":"4","last_reported":1778449066,"current_range_meters":10000,"station_id":"ce4bhmh2rcd13ifvqgmg","pricing_plan_id":"cebpf4jnsgd1na2vs0mg"},{"bike_id":"d5292d58-8f4b-486e-aab5-1506eb52500a","system_id":"levelo_inurba_marseille","lat":43.24075,"lon":5.37723,"is_reserved":false,"is_disabled":false,"rental_uris":{"android":"levelo://app?vid=d5292d58-8f4b-486e-aab5-1506eb52500a","ios":"levelo://app?vid=d5292d58-8f4b-486e-aab5-1506eb52500a"},"vehicle_type_id":"4","last_reported":1778449066,"current_range_meters":10000,"station_id":"ce4bhnp2rcd13ifvqgvg","pricing_plan_id":"cebpf4jnsgd1na2vs0mg"},{"bike_id":"5cc052ef-9476-4e91-be53-0e2dade8c3f2","system_id":"levelo_inurba_marseille","lat":43.28483,"lon":5.38574,"is_reserved":false,"is_disabled":false,"rental_uris":{"android":"levelo://app?vid=5cc052ef-9476-4e91-be53-0e2dade8c3f2","ios":"levelo://app?vid=5cc052ef-9476-4e91-be53-0e2dade8c3f2"},"vehicle_type_id":"4","last_reported":1778449066,"current_range_meters":10000,"station_id":"ce4bh8p2rcd13ifvqeb0","pricing_plan_id":"cebpf4jnsgd1na2vs0mg"},{"bike_id":"23a3b7b3-dda7-4a8d-8cc2-7374a26394c2","system_id":"levelo_inurba_marseille","lat":43.23206,"lon":5.35542,"is_reserved":false,"is_disabled":false,"rental_uris":{"android":"levelo://app?vid=23a3b7b3-dda7-4a8d-8cc2-7374a26394c2","ios":"levelo://app?vid=23a3b7b3-dda7-4a8d-8cc2-7374a26394c2"},"vehicle_type_id":"4","last_reported":1778449066,"current_range_meters":10000,"station_id":"ce4bhu92rcd13ifvqi70","pricing_plan_id":"cebpf4jnsgd1na2vs0mg"},{"bike_id":"9236747c-f8e6-480a-81b0-7f16971589cd","system_id":"levelo_inurba_marseille","lat":43.29589,"lon":5.39967,"is_reserved":false,"is_disabled":false,"rental_uris":{"android":"levelo://app?vid=9236747c-f8e6-480a-81b0-7f16971589cd","ios":"levelo://app?vid=9236747c-f8e6-480a-81b0-7f16971589cd"},"vehicle_type_id":"4","last_reported":1778449066,"current_range_meters":10000,"station_id":"ce4bh312rcd13ifvqdj0","pricing_plan_id":"cebpf4jnsgd1na2vs0mg"},{"bike_id":"986ca31a-3462-410e-9801-3e37082a1e7a","system_id":"levelo_inurba_marseille","lat":43.30519,"lon":5.45982,"is_reserved":false,"is_disabled":false,"rental_uris":{"android":"levelo://app?vid=986ca31a-3462-410e-9801-3e37082a1e7a","ios":"levelo://app?vid=986ca31a-3462-410e-9801-3e37082a1e7a"},"vehicle_type_id":"4","last_reported":1778449066,"current_range_meters":10000,"station_id":"","pricing_plan_id":"cebpf4jnsgd1na2vs0mg"},{"bike_id":"73cbb9a5-b252-42aa-8192-5783eedf76ff","system_id":"levelo_inurba_marseille","lat":43.33575,"lon":5.37443,"is_reserved":false,"is_disabled":false,"rental_uris":{"android":"levelo://app?vid=73cbb9a5-b252-42aa-8192-5783eedf76ff","ios":"levelo://app?vid=73cbb9a5-b252-42aa-8192-5783eedf76ff"},"vehicle_type_id":"4","last_reported":1778449066,"current_range_meters":10000,"station_id":"st_d46tts09ee8s73dlu43g","pricing_plan_id":"cebpf4jnsgd1na2vs0mg"},{"bike_id":"5db07b0e-832d-45e8-a12a-54d2cb7f45cf","system_id":"levelo_inurba_marseille","lat":43.31521,"lon":5.38017,"is_reserved":false,"is_disabled":false,"rental_uris":{"android":"levelo://app?vid=5db07b0e-832d-45e8-a12a-54d2cb7f45cf","ios":"levelo://app?vid=5db07b0e-832d-45e8-a12a-54d2cb7f45cf"},