{"last_updated":1773177639,"ttl":60,"version":"2.2","data":{"bikes":[{"bike_id":"bd334b99-1100-447f-a433-39bd3e02f36e","system_id":"levelo_inurba_marseille","lat":43.24167,"lon":5.36391,"is_reserved":false,"is_disabled":false,"rental_uris":{"android":"levelo://app?vid=bd334b99-1100-447f-a433-39bd3e02f36e","ios":"levelo://app?vid=bd334b99-1100-447f-a433-39bd3e02f36e"},"vehicle_type_id":"4","last_reported":1773177640,"current_range_meters":9200,"station_id":"cpo36qri1sfpv3e86is0","pricing_plan_id":"cebpf4jnsgd1na2vs0mg"},{"bike_id":"c58e631c-2aa0-4562-9b1d-9233b8f93e38","system_id":"levelo_inurba_marseille","lat":43.25865,"lon":5.39904,"is_reserved":false,"is_disabled":false,"rental_uris":{"android":"levelo://app?vid=c58e631c-2aa0-4562-9b1d-9233b8f93e38","ios":"levelo://app?vid=c58e631c-2aa0-4562-9b1d-9233b8f93e38"},"vehicle_type_id":"4","last_reported":1773177640,"current_range_meters":39200,"station_id":"ce4bhl92rcd13ifvqghg","pricing_plan_id":"cebpf4jnsgd1na2vs0mg"},{"bike_id":"5bfd5e8b-0863-471b-997b-ec125c70364c","system_id":"levelo_inurba_marseille","lat":43.29448,"lon":5.39759,"is_reserved":false,"is_disabled":false,"rental_uris":{"android":"levelo://app?vid=5bfd5e8b-0863-471b-997b-ec125c70364c","ios":"levelo://app?vid=5bfd5e8b-0863-471b-997b-ec125c70364c"},"vehicle_type_id":"4","last_reported":1773177640,"current_range_meters":24400,"station_id":"ce4bh3h2rcd13ifvqdo0","pricing_plan_id":"cebpf4jnsgd1na2vs0mg"},{"bike_id":"52f6420f-0eb9-4b9f-9fde-0d25053348cb","system_id":"levelo_inurba_marseille","lat":43.30902,"lon":5.39657,"is_reserved":false,"is_disabled":false,"rental_uris":{"android":"levelo://app?vid=52f6420f-0eb9-4b9f-9fde-0d25053348cb","ios":"levelo://app?vid=52f6420f-0eb9-4b9f-9fde-0d25053348cb"},"vehicle_type_id":"4","last_reported":1773177640,"current_range_meters":39200,"station_id":"ce4bh012rcd13ifvqcv0","pricing_plan_id":"cebpf4jnsgd1na2vs0mg"},{"bike_id":"95fed9f7-1c81-44c3-af5f-e716c9cfb425","system_id":"levelo_inurba_marseille","lat":43.29604,"lon":5.37713,"is_reserved":false,"is_disabled":false,"rental_uris":{"android":"levelo://app?vid=95fed9f7-1c81-44c3-af5f-e716c9cfb425","ios":"levelo://app?vid=95fed9f7-1c81-44c3-af5f-e716c9cfb425"},"vehicle_type_id":"4","last_reported":1773177640,"current_range_meters":37600,"station_id":"ce4bgi92rcd13ifvqb90","pricing_plan_id":"cebpf4jnsgd1na2vs0mg"},{"bike_id":"b5250489-cc8e-41f8-96db-114ed4263407","system_id":"levelo_inurba_marseille","lat":43.29971,"lon":5.38493,"is_reserved":false,"is_disabled":false,"rental_uris":{"android":"levelo://app?vid=b5250489-cc8e-41f8-96db-114ed4263407","ios":"levelo://app?vid=b5250489-cc8e-41f8-96db-114ed4263407"},"vehicle_type_id":"4","last_reported":1773177640,"current_range_meters":22800,"station_id":"ce4bgj92rcd13ifvqbd0","pricing_plan_id":"cebpf4jnsgd1na2vs0mg"},{"bike_id":"beb344ca-4534-4ba9-9c05-5bf124c258c5","system_id":"levelo_inurba_marseille","lat":43.2928,"lon":5.4012,"is_reserved":false,"is_disabled":false,"rental_uris":{"android":"levelo://app?vid=beb344ca-4534-4ba9-9c05-5bf124c258c5","ios":"levelo://app?vid=beb344ca-4534-4ba9-9c05-5bf124c258c5"},"vehicle_type_id":"4","last_reported":1773177640,"current_range_meters":15200,"station_id":"ce4bh312rcd13ifvqdk0","pricing_plan_id":"cebpf4jnsgd1na2vs0mg"},{"bike_id":"6c9e3b7e-da10-48c1-a765-9c8a71cb5c70","system_id":"levelo_inurba_marseille","lat":43.29569,"lon":5.37703,"is_reserved":false,"is_disabled":false,"rental_uris":{"android":"levelo://app?vid=6c9e3b7e-da10-48c1-a765-9c8a71cb5c70","ios":"levelo://app?vid=6c9e3b7e-da10-48c1-a765-9c8a71cb5c70"},"vehicle_type_id":"4","last_reported":1773177640,"current_range_meters":39200,"station_id":"","pricing_plan_id":"cebpf4jnsgd1na2vs0mg"},{"bike_id":"5061e64b-7a6f-416d-95f6-434ea56b6a99","system_id":"levelo_inurba_marseille","lat":43.3464,"lon":5.36722,"is_reserved":false,"is_disabled":false,"rental_uris":{"android":"levelo://app?vid=5061e64b-7a6f-416d-95f6-434ea56b6a99","ios":"levelo://app?vid=5061e64b-7a6f-416d-95f6-434ea56b6a99"},"vehicle_type_id":"4","last_reported":1773177640,"current_range_meters":32400,"station_id":"","pricing_plan_id":"cebpf4jnsgd1na2vs0mg"},{"bike_id":"5fa59ccf-77d0-45df-afe7-54550a0fd2d4","system_id":"levelo_inurba_marseille","lat":43.27444,"lon":5.39397,"is_reserved":false,"is_disabled":false,"rental_uris":{"android":"levelo://app?vid=5fa59ccf-77d0-45df-afe7-54550a0fd2d4","ios":"levelo://app?vid=5fa59ccf-77d0-45df-afe7-54550a0fd2d4"},"vehicle_type_id":"4","last_reported":1773177640,"current_range_meters":33200,"station_id":"ce4bhdp2rcd13ifvqf20","pricing_plan_id":"cebpf4jnsgd1na2vs0mg"},{"bike_id":"9faea34b-1c48-4a1b-8f51-2bafe5184a50","system_id":"levelo_inurba_marseille","lat":43.28477,"lon":5.48391,"is_reserved":false,"is_disabled":false,"rental_uris":{"android":"levelo://app?vid=9faea34b-1c48-4a1b-8f51-2bafe5184a50","ios":"levelo://app?vid=9faea34b-1c48-4a1b-8f51-2bafe5184a50"},"vehicle_type_id":"4","last_reported":1773177640,"current_range_meters":37600,"station_id":"st_d3svhcjqgbts73a3dn0g","pricing_plan_id":"cebpf4jnsgd1na2vs0mg"},{"bike_id":"3ed7cc46-dfe0-48b3-b403-50ad5ae704c8","system_id":"levelo_inurba_marseille","lat":43.29934,"lon":5.36553,"is_reserved":false,"is_disabled":false,"rental_uris":{"android":"levelo://app?vid=3ed7cc46-dfe0-48b3-b403-50ad5ae704c8","ios":"levelo://app?vid=3ed7cc46-dfe0-48b3-b403-50ad5ae704c8"},"vehicle_type_id":"4","last_reported":1773177640,"current_range_meters":38400,"station_id":"ce4bgm92rcd13ifvqbr0","pricing_plan_id":"cebpf4jnsgd1na2vs0mg"},{"bike_id":"d427d34d-e739-4c0f-a843-74b85111544b","system_id":"levelo_inurba_marseille","lat":43.3315,"lon":5.37707,"is_reserved":false,"is_disabled":false,"rental_uris":{"android":"levelo://app?vid=d427d34d-e739-4c0f-a843-74b85111544b","ios":"levelo://app?vid=d427d34d-e739-4c0f-a843-74b85111544b"},"vehicle_type_id":"4","last_reported":1773177640,"current_range_meters":32000,"station_id":"st_d46cu089ee8s73dldbu0","pricing_plan_id":"cebpf4jnsgd1na2vs0mg"},{"bike_id":"573d947c-41cc-4f73-b77c-370cb9447a2f","system_id":"levelo_inurba_marseille","lat":43.30514,"lon":5.36698,"is_reserved":false,"is_disabled":false,"rental_uris":{"android":"levelo://app?vid=573d947c-41cc-4f73-b77c-370cb9447a2f","ios":"levelo://app?vid=573d947c-41cc-4f73-b77c-370cb9447a2f"},"vehicle_type_id":"4","last_reported":1773177640,"current_range_meters":36400,"station_id":"ce4bgrp2rcd13ifvqc9g","pricing_plan_id":"cebpf4jnsgd1na2vs0mg"},{"bike_id":"76f2eca3-ac84-438d-878d-901d76cba811","system_id":"levelo_inurba_marseille","lat":43.279905,"lon":5.4001,"is_reserved":false,"is_disabled":false,"rental_uris":{"android":"levelo://app?vid=76f2eca3-ac84-438d-878d-901d76cba811","ios":"levelo://app?vid=76f2eca3-ac84-438d-878d-901d76cba811"},"vehicle_type_id":"4","last_reported":1773177640,"current_range_meters":20000,"station_id":"ce4bho92rcd13ifvqh4g","pricing_plan_id":"cebpf4jnsgd1na2vs0mg"},{"bike_id":"a391f9af-25b2-422b-939a-9b4ad4ddb0e4","system_id":"levelo_inurba_marseille","lat":43.28066,"lon":5.39664,"is_reserved":false,"is_disabled":false,"rental_uris":{"android":"levelo://app?vid=a391f9af-25b2-422b-939a-9b4ad4ddb0e4","ios":"levelo://app?vid=a391f9af-25b2-422b-939a-9b4ad4ddb0e4"},"vehicle_type_id":"4","last_reported":1773177640,"current_range_meters":38800,"station_id":"ce4bho12rcd13ifvqh2g","pricing_plan_id":"cebpf4jnsgd1na2vs0mg"},{"bike_id":"c943c8f2-fd97-497f-b02c-47e60712859d","system_id":"levelo_inurba_marseille","lat":43.25844,"lon":5.39401,"is_reserved":false,"is_disabled":false,"rental_uris":{"android":"levelo://app?vid=c943c8f2-fd97-497f-b02c-47e60712859d","ios":"levelo://app?vid=c943c8f2-fd97-497f-b02c-47e60712859d"},"vehicle_type_id":"4","last_reported":1773177640,"current_range_meters":29600,"station_id":"ce4bhip2rcd13ifvqft0","pricing_plan_id":"cebpf4jnsgd1na2vs0mg"},{"bike_id":"913fb0ac-86ae-420a-9f83-517ee9c2fc7a","system_id":"levelo_inurba_marseille","lat":43.24807,"lon":5.37451,"is_reserved":false,"is_disabled":false,"rental_uris":{"android":"levelo://app?vid=913fb0ac-86ae-420a-9f83-517ee9c2fc7a","ios":"levelo://app?vid=913fb0ac-86ae-420a-9f83-517ee9c2fc7a"},"vehicle_type_id":"4","last_reported":1773177640,"current_range_meters":30000,"station_id":"ce4bhgh2rcd13ifvqfb0","pricing_plan_id":"cebpf4jnsgd1na2vs0mg"},{"bike_id":"5cfc603b-29fb-4936-93b0-d2cfd02c0ab1","system_id":"levelo_inurba_marseille","lat":43.24814,"lon":5.3746,"is_reserved":false,"is_disabled":false,"rental_uris":{"android":"levelo://app?vid=5cfc603b-29fb-4936-93b0-d2cfd02c0ab1","ios":"levelo://app?vid=5cfc603b-29fb-4936-93b0-d2cfd02c0ab1"},"vehicle_type_id":"4","last_reported":1773177640,"current_range_meters":34800,"station_id":"ce4bhgh2rcd13ifvqfb0","pricing_plan_id":"cebpf4jnsgd1na2vs0mg"},{"bike_id":"74e2ef54-135b-4d55-afcc-646517288532","system_id":"levelo_inurba_marseille","lat":43.30553,"lon":5.36728,"is_reserved":false,"is_disabled":false,"rental_uris":{"android":"levelo://app?vid=74e2ef54-135b-4d55-afcc-646517288532","ios":"levelo://app?vid=74e2ef54-135b-4d55-afcc-646517288532"},"vehicle_type_id":"4","last_reported":1773177640,"current_range_meters":20800,"station_id":"ce4bgrp2rcd13ifvqc9g","pricing_plan_id":"cebpf4jnsgd1na2vs0mg"},{"bike_id":"69937d6b-0ad4-476f-a55d-d6a587fba769","system_id":"levelo_inurba_marseille","lat":43.2847,"lon":5.35866,"is_reserved":false,"is_disabled":false,"rental_uris":{"android":"levelo://app?vid=69937d6b-0ad4-476f-a55d-d6a587fba769","ios":"levelo://app?vid=69937d6b-0ad4-476f-a55d-d6a587fba769"},"vehicle_type_id":"4","last_reported":1773177640,"current_range_meters":25200,"station_id":"ce4bhah2rcd13ifvqei0","pricing_plan_id":"cebpf4jnsgd1na2vs0mg"},{"bike_id":"9f750502-900e-4298-a083-f138285ae7a6","system_id":"levelo_inurba_marseille","lat":43.30648,"lon":5.40071,"is_reserved":false,"is_disabled":false,"rental_uris":{"android":"levelo://app?vid=9f750502-900e-4298-a083-f138285ae7a6","ios":"levelo://app?vid=9f750502-900e-4298-a083-f138285ae7a6"},"vehicle_type_id":"4","last_reported":1773177640,"current_range_meters":26800,"station_id":"ce4bh112rcd13ifvqda0","pricing_plan_id":"cebpf4jnsgd1na2vs0mg"},{"bike_id":"80d9c585-717b-48ff-bcbe-ef475313aca3","system_id":"levelo_inurba_marseille","lat":43.28081,"lon":5.39653,"is_reserved":false,"is_disabled":false,"rental_uris":{"android":"levelo://app?vid=80d9c585-717b-48ff-bcbe-ef475313aca3","ios":"levelo://app?vid=80d9c585-717b-48ff-bcbe-ef475313aca3"},"vehicle_type_id":"4","last_reported":1773177640,"current_range_meters":37600,"station_id":"ce4bho12rcd13ifvqh2g","pricing_plan_id":"cebpf4jnsgd1na2vs0mg"},{"bike_id":"5a595904-25a5-4fb8-b8dd-531cb59359d8","system_id":"levelo_inurba_marseille","lat":43.31989,"lon":5.3814,"is_reserved":false,"is_disabled":false,"rental_uris":{"android":"levelo://app?vid=5a595904-25a5-4fb8-b8dd-531cb59359d8","ios":"levelo://app?vid=5a595904-25a5-4fb8-b8dd-531cb59359d8"},"vehicle_type_id":"4","last_reported":1773177640,"current_range_meters":38000,"station_id":"ce4bhr12rcd13ifvqhpg","pricing_plan_id":"cebpf4jnsgd1na2vs0mg"},{"bike_id":"719ecba6-c5fd-4311-ba94-b7f00bd3ea56","system_id":"levelo_inurba_marseille","lat":43.28946,"lon":5.38381,"is_reserved":false,"is_disabled":false,"rental_uris":{"android":"levelo://app?vid=719ecba6-c5fd-4311-ba94-b7f00bd3ea56","ios":"levelo://app?vid=719ecba6-c5fd-4311-ba94-b7f00bd3ea56"},"vehicle_type_id":"4","last_reported":1773177640,"current_range_meters":32000,"station_id":"ce4bh612rcd13ifvqe6g","pricing_plan_id":"cebpf4jnsgd1na2vs0mg"},{"bike_id":"f41cfb42-0ff7-49c2-9aeb-0d17a0584783","system_id":"levelo_inurba_marseille","lat":43.32283,"lon":5.38262,"is_reserved":false,"is_disabled":false,"rental_uris":{"android":"levelo://app?vid=f41cfb42-0ff7-49c2-9aeb-0d17a0584783","ios":"levelo://app?vid=f41cfb42-0ff7-49c2-9aeb-0d17a0584783"},"vehicle_type_id":"4","last_reported":1773177640,"current_range_meters":39200,"station_id":"ce4bhr12rcd13ifvqhqg","pricing_plan_id":"cebpf4jnsgd1na2vs0mg"},{"bike_id":"d758fa9c-0dda-48b5-aa13-54ef9f268249","system_id":"levelo_inurba_marseille","lat":43.28734,"lon":5.36084,"is_reserved":false,"is_disabled":false,"rental_uris":{"android":"levelo://app?vid=d758fa9c-0dda-48b5-aa13-54ef9f268249","ios":"levelo://app?vid=d758fa9c-0dda-48b5-aa13-54ef9f268249"},"vehicle_type_id":"4","last_reported":1773177640,"current_range_meters":39200,"station_id":"cki0cbj6b192h4jlfktg","pricing_plan_id":"cebpf4jnsgd1na2vs0mg"},{"bike_id":"66796482-b4de-4f94-b605-12681c60b721","system_id":"levelo_inurba_marseille","lat":43.32511,"lon":5.41432,"is_reserved":false,"is_disabled":false,"rental_uris":{"android":"levelo://app?vid=66796482-b4de-4f94-b605-12681c60b721","ios":"levelo://app?vid=66796482-b4de-4f94-b605-12681c60b721"},"vehicle_type_id":"4","last_reported":1773177640,"current_range_meters":4400,"station_id":"ce4bhq12rcd13ifvqhhg","pricing_plan_id":"cebpf4jnsgd1na2vs0mg"},{"bike_id":"d935a044-f1a3-44cd-b547-06262fe35eb2","system_id":"levelo_inurba_marseille","lat":43.28927,"lon":5.3843,"is_reserved":false,"is_disabled":false,"rental_uris":{"android":"levelo://app?vid=d935a044-f1a3-44cd-b547-06262fe35eb2","ios":"levelo://app?vid=d935a044-f1a3-44cd-b547-06262fe35eb2"},"vehicle_type_id":"4","last_reported":1773177640,"current_range_meters":39200,"station_id":"ce4bh612rcd13ifvqe6g","pricing_plan_id":"cebpf4jnsgd1na2vs0mg"},{"bike_id":"d460b25f-6966-4f7a-9001-1f7215b67b27","system_id":"levelo_inurba_marseille","lat":43.22568,"lon":5.41625,"is_reserved":false,"is_disabled":false,"rental_uris":{"android":"levelo://app?vid=d460b25f-6966-4f7a-9001-1f7215b67b27","ios":"levelo://app?vid=d460b25f-6966-4f7a-9001-1f7215b67b27"},"vehicle_type_id":"4","last_reported":1773177640,"current_range_meters":38400,"station_id":"st_d2o4gvlbi1j2169b742g","pricing_plan_id":"cebpf4jnsgd1na2vs0mg"},{"bike_id":"d0e204b5-6dd1-4f52-88bc-3b2bdf1cb73b","system_id":"levelo_inurba_marseille","lat":43.28419,"lon":5.35008,"is_reserved":false,"is_disabled":false,"rental_uris":{"android":"levelo://app?vid=d0e204b5-6dd1-4f52-88bc-3b2bdf1cb73b","ios":"levelo://app?vid=d0e204b5-6dd1-4f52-88bc-3b2bdf1cb73b"},"vehicle_type_id":"4","last_reported":1773177640,"current_range_meters":37600,"station_id":"ce4bhbh2rcd13ifvqepg","pricing_plan_id":"cebpf4jnsgd1na2vs0mg"},{"bike_id":"4035076b-e1f7-4550-ba18-40b5d2e4f17a","system_id":"levelo_inurba_marseille","lat":43.25836,"lon":5.3945,"is_reserved":false,"is_disabled":false,"rental_uris":{"android":"levelo://app?vid=4035076b-e1f7-4550-ba18-40b5d2e4f17a","ios":"levelo://app?vid=4035076b-e1f7-4550-ba18-40b5d2e4f17a"},"vehicle_type_id":"4","last_reported":1773177640,"current_range_meters":10800,"station_id":"ce4bhip2rcd13ifvqft0","pricing_plan_id":"cebpf4jnsgd1na2vs0mg"},{"bike_id":"182a33c2-192b-4c16-af77-c32682d4109b","system_id":"levelo_inurba_marseille","lat":43.24173,"lon":5.39698,"is_reserved":false,"is_disabled":true,"rental_uris":{"android":"levelo://app?vid=182a33c2-192b-4c16-af77-c32682d4109b","ios":"levelo://app?vid=182a33c2-192b-4c16-af77-c32682d4109b"},"vehicle_type_id":"4","last_reported":1773177640,"current_range_meters":37600,"station_id":"ce4bhn12rcd13ifvqgpg","pricing_plan_id":"cebpf4jnsgd1na2vs0mg"},{"bike_id":"1a3a5560-3e07-4e54-8aa7-c954adec59b1","system_id":"levelo_inurba_marseille","lat":43.2883,"lon":5.35838,"is_reserved":false,"is_disabled":false,"rental_uris":{"android":"levelo://app?vid=1a3a5560-3e07-4e54-8aa7-c954adec59b1","ios":"levelo://app?vid=1a3a5560-3e07-4e54-8aa7-c954adec59b1"},"vehicle_type_id":"4","last_reported":1773177640,"current_range_meters":36800,"station_id":"ce4bhb12rcd13ifvqem0","pricing_plan_id":"cebpf4jnsgd1na2vs0mg"},{"bike_id":"94ecc346-3888-4801-96b7-afa97a11f6a0","system_id":"levelo_inurba_marseille","lat":43.245444,"lon":5.39521,"is_reserved":false,"is_disabled":true,"rental_uris":{"android":"levelo://app?vid=94ecc346-3888-4801-96b7-afa97a11f6a0","ios":"levelo://app?vid=94ecc346-3888-4801-96b7-afa97a11f6a0"},"vehicle_type_id":"4","last_reported":1773177640,"current_range_meters":0,"station_id":"ce4bhlp2rcd13ifvqgjg","pricing_plan_id":"cebpf4jnsgd1na2vs0mg"},{"bike_id":"fb73e492-0f02-46ee-892f-91bb433bfacd","system_id":"levelo_inurba_marseille","lat":43.2558,"lon":5.38239,"is_reserved":false,"is_disabled":false,"rental_uris":{"android":"levelo://app?vid=fb73e492-0f02-46ee-892f-91bb433bfacd","ios":"levelo://app?vid=fb73e492-0f02-46ee-892f-91bb433bfacd"},"vehicle_type_id":"4","last_reported":1773177640,"current_range_meters":35600,"station_id":"ce4bhih2rcd13ifvqfs0","pricing_plan_id":"cebpf4jnsgd1na2vs0mg"},{"bike_id":"15f82549-d5d3-415f-ac44-5045d3991f4f","system_id":"levelo_inurba_marseille","lat":43.29513,"lon":5.39412,"is_reserved":false,"is_disabled":false,"rental_uris":{"android":"levelo://app?vid=15f82549-d5d3-415f-ac44-5045d3991f4f","ios":"levelo://app?vid=15f82549-d5d3-415f-ac44-5045d3991f4f"},"vehicle_type_id":"4","last_reported":1773177640,"current_range_meters":24800,"station_id":"ce4bh292rcd13ifvqdf0","pricing_plan_id":"cebpf4jnsgd1na2vs0mg"},{"bike_id":"66480ce6-369e-4a26-a85b-ddbe56b57036","system_id":"levelo_inurba_marseille","lat":43.29607,"lon":5.37724,"is_reserved":false,"is_disabled":false,"rental_uris":{"android":"levelo://app?vid=66480ce6-369e-4a26-a85b-ddbe56b57036","ios":"levelo://app?vid=66480ce6-369e-4a26-a85b-ddbe56b57036"},"vehicle_type_id":"4","last_reported":1773177640,"current_range_meters":38800,"station_id":"ce4bgi92rcd13ifvqb90","pricing_plan_id":"cebpf4jnsgd1na2vs0mg"},{"bike_id":"faa6004d-cd41-4008-8bcc-b182163123b5","system_id":"levelo_inurba_marseille","lat":43.2417,"lon":5.36398,"is_reserved":false,"is_disabled":false,"rental_uris":{"android":"levelo://app?vid=faa6004d-cd41-4008-8bcc-b182163123b5","ios":"levelo://app?vid=faa6004d-cd41-4008-8bcc-b182163123b5"},"vehicle_type_id":"4","last_reported":1773177640,"current_range_meters":14400,"station_id":"cpo36qri1sfpv3e86is0","pricing_plan_id":"cebpf4jnsgd1na2vs0mg"},{"bike_id":"643a041d-3faf-4dc4-a3ad-d2cb17d6236c","system_id":"levelo_inurba_marseille","lat":43.29934,"lon":5.37468,"is_reserved":false,"is_disabled":false,"rental_uris":{"android":"levelo://app?vid=643a041d-3faf-4dc4-a3ad-d2cb17d6236c","ios":"levelo://app?vid=643a041d-3faf-4dc4-a3ad-d2cb17d6236c"},"vehicle_type_id":"4","last_reported":1773177640,"current_range_meters":38400,"station_id":"ce4bgjh2rcd13ifvqbg0","pricing_plan_id":"cebpf4jnsgd1na2vs0mg"},{"bike_id":"3627734d-260f-483b-afec-f57ed66f28c4","system_id":"levelo_inurba_marseille","lat":43.30542,"lon":5.38444,"is_reserved":false,"is_disabled":false,"rental_uris":{"android":"levelo://app?vid=3627734d-260f-483b-afec-f57ed66f28c4","ios":"levelo://app?vid=3627734d-260f-483b-afec-f57ed66f28c4"},"vehicle_type_id":"4","last_reported":1773177640,"current_range_meters":22000,"station_id":"ce4bgg92rcd13ifvqb30","pricing_plan_id":"cebpf4jnsgd1na2vs0mg"},{"bike_id":"a98a2ffa-f3fb-4c8b-86b7-609f1d5345a7","system_id":"levelo_inurba_marseille","lat":43.30283,"lon":5.36884,"is_reserved":false,"is_disabled":false,"rental_uris":{"android":"levelo://app?vid=a98a2ffa-f3fb-4c8b-86b7-609f1d5345a7","ios":"levelo://app?vid=a98a2ffa-f3fb-4c8b-86b7-609f1d5345a7"},"vehicle_type_id":"4","last_reported":1773177640,"current_range_meters":30800,"station_id":"ce4bgqh2rcd13ifvqc5g","pricing_plan_id":"cebpf4jnsgd1na2vs0mg"},{"bike_id":"90c21d76-cccc-4252-975d-3a89242c8302","system_id":"levelo_inurba_marseille","lat":43.30617,"lon":5.37203,"is_reserved":false,"is_disabled":false,"rental_uris":{"android":"levelo://app?vid=90c21d76-cccc-4252-975d-3a89242c8302","ios":"levelo://app?vid=90c21d76-cccc-4252-975d-3a89242c8302"},"vehicle_type_id":"4","last_reported":1773177640,"current_range_meters":36400,"station_id":"ce4bgqh2rcd13ifvqc4g","pricing_plan_id":"cebpf4jnsgd1na2vs0mg"},{"bike_id":"17ce7070-d813-4eaf-a544-6259968aa271","system_id":"levelo_inurba_marseille","lat":43.31076,"lon":5.3691,"is_reserved":false,"is_disabled":false,"rental_uris":{"android":"levelo://app?vid=17ce7070-d813-4eaf-a544-6259968aa271","ios":"levelo://app?vid=17ce7070-d813-4eaf-a544-6259968aa271"},"vehicle_type_id":"4","last_reported":1773177640,"current_range_meters":10000,"station_id":"","pricing_plan_id":"cebpf4jnsgd1na2vs0mg"},{"bike_id":"32bf2ee9-7c9d-43b6-9b19-98bb3c938947","system_id":"levelo_inurba_marseille","lat":43.25877,"lon":5.39889,"is_reserved":false,"is_disabled":false,"rental_uris":{"android":"levelo://app?vid=32bf2ee9-7c9d-43b6-9b19-98bb3c938947","ios":"levelo://app?vid=32bf2ee9-7c9d-43b6-9b19-98bb3c938947"},"vehicle_type_id":"4","last_reported":1773177640,"current_range_meters":26800,"station_id":"ce4bhl92rcd13ifvqghg","pricing_plan_id":"cebpf4jnsgd1na2vs0mg"},{"bike_id":"e088ba4c-ef29-40cc-a89d-2a98910924db","system_id":"levelo_inurba_marseille","lat":43.30778,"lon":5.37653,"is_reserved":false,"is_disabled":false,"rental_uris":{"android":"levelo://app?vid=e088ba4c-ef29-40cc-a89d-2a98910924db","ios":"levelo://app?vid=e088ba4c-ef29-40cc-a89d-2a98910924db"},"vehicle_type_id":"4","last_reported":1773177640,"current_range_meters":27200,"station_id":"ce4bgv92rcd13ifvqcq0","pricing_plan_id":"cebpf4jnsgd1na2vs0mg"},{"bike_id":"16ced00d-b75b-480f-bfe3-587817c52078","system_id":"levelo_inurba_marseille","lat":43.2466,"lon":5.38889,"is_reserved":false,"is_disabled":false,"rental_uris":{"android":"levelo://app?vid=16ced00d-b75b-480f-bfe3-587817c52078","ios":"levelo://app?vid=16ced00d-b75b-480f-bfe3-587817c52078"},"vehicle_type_id":"4","last_reported":1773177640,"current_range_meters":39200,"station_id":"ce4bhg12rcd13ifvqf60","pricing_plan_id":"cebpf4jnsgd1na2vs0mg"},{"bike_id":"095740f3-4e12-4adb-8a1a-03aa33c9cd08","system_id":"levelo_inurba_marseille","lat":43.26584,"lon":5.3725,"is_reserved":false,"is_disabled":false,"rental_uris":{"android":"levelo://app?vid=095740f3-4e12-4adb-8a1a-03aa33c9cd08","ios":"levelo://app?vid=095740f3-4e12-4adb-8a1a-03aa33c9cd08"},"vehicle_type_id":"4","last_reported":1773177640,"current_range_meters":15200,"station_id":"ce4bhg12rcd13ifvqf70","pricing_plan_id":"cebpf4jnsgd1na2vs0mg"},{"bike_id":"07d667a1-20cd-44c6-a08f-d51c851309d8","system_id":"levelo_inurba_marseille","lat":43.29801,"lon":5.3711,"is_reserved":false,"is_disabled":false,"rental_uris":{"android":"levelo://app?vid=07d667a1-20cd-44c6-a08f-d51c851309d8","ios":"levelo://app?vid=07d667a1-20cd-44c6-a08f-d51c851309d8"},"vehicle_type_id":"4","last_reported":1773177640,"current_range_meters":27600,"station_id":"ce4bgop2rcd13ifvqc1g","pricing_plan_id":"cebpf4jnsgd1na2vs0mg"},{"bike_id":"566d1d1a-0852-4e0d-907b-e1334e0d6bf9","system_id":"levelo_inurba_marseille","lat":43.23787,"lon":5.36629,"is_reserved":false,"is_disabled":false,"rental_uris":{"android":"levelo://app?vid=566d1d1a-0852-4e0d-907b-e1334e0d6bf9","ios":"levelo://app?vid=566d1d1a-0852-4e0d-907b-e1334e0d6bf9"},"vehicle_type_id":"4","last_reported":1773177640,"current_range_meters":16800,"station_id":"st_d3nk18o9ro0c73en2l3g","pricing_plan_id":"cebpf4jnsgd1na2vs0mg"},{"bike_id":"3cf11ba7-9b31-4e74-8681-d388cd19aab7","system_id":"levelo_inurba_marseille","lat":43.29493,"lon":5.38597,"is_reserved":false,"is_disabled":false,"rental_uris":{"android":"levelo://app?vid=3cf11ba7-9b31-4e74-8681-d388cd19aab7","ios":"levelo://app?vid=3cf11ba7-9b31-4e74-8681-d388cd19aab7"},"vehicle_type_id":"4","last_reported":1773177640,"current_range_meters":24400,"station_id":"","pricing_plan_id":"cebpf4jnsgd1na2vs0mg"},{"bike_id":"5ba87c7c-7875-4108-a51e-f29941986eb6","system_id":"levelo_inurba_marseille","lat":43.2928,"lon":5.40126,"is_reserved":false,"is_disabled":false,"rental_uris":{"android":"levelo://app?vid=5ba87c7c-7875-4108-a51e-f29941986eb6","ios":"levelo://app?vid=5ba87c7c-7875-4108-a51e-f29941986eb6"},"vehicle_type_id":"4","last_reported":1773177640,"current_range_meters":24800,"station_id":"ce4bh312rcd13ifvqdk0","pricing_plan_id":"cebpf4jnsgd1na2vs0mg"},{"bike_id":"1f22164f-3f62-4aa1-b979-623a5f5ae5b4","system_id":"levelo_inurba_marseille","lat":43.28279,"lon":5.35071,"is_reserved":false,"is_disabled":false,"rental_uris":{"android":"levelo://app?vid=1f22164f-3f62-4aa1-b979-623a5f5ae5b4","ios":"levelo://app?vid=1f22164f-3f62-4aa1-b979-623a5f5ae5b4"},"vehicle_type_id":"4","last_reported":1773177640,"current_range_meters":40000,"station_id":"ce4bhbp2rcd13ifvqerg","pricing_plan_id":"cebpf4jnsgd1na2vs0mg"},{"bike_id":"13f5d6ee-b5b6-4f72-86db-f808654551b8","system_id":"levelo_inurba_marseille","lat":43.29911,"lon":5.43635,"is_reserved":false,"is_disabled":false,"rental_uris":{"android":"levelo://app?vid=13f5d6ee-b5b6-4f72-86db-f808654551b8","ios":"levelo://app?vid=13f5d6ee-b5b6-4f72-86db-f808654551b8"},"vehicle_type_id":"4","last_reported":1773177640,"current_range_meters":30800,"station_id":"ce4bhpp2rcd13ifvqhfg","pricing_plan_id":"cebpf4jnsgd1na2vs0mg"},{"bike_id":"055eedec-dcb8-4fdb-a78d-48d6a606ccae","system_id":"levelo_inurba_marseille","lat":43.29525,"lon":5.38555,"is_reserved":false,"is_disabled":false,"rental_uris":{"android":"levelo://app?vid=055eedec-dcb8-4fdb-a78d-48d6a606ccae","ios":"levelo://app?vid=055eedec-dcb8-4fdb-a78d-48d6a606ccae"},"vehicle_type_id":"4","last_reported":1773177640,"current_range_meters":16000,"station_id":"ce4bgih2rcd13ifvqba0","pricing_plan_id":"cebpf4jnsgd1na2vs0mg"},{"bike_id":"4237657a-7cdc-4967-86ba-cfba955c0ea9","system_id":"levelo_inurba_marseille","lat":43.27185,"lon":5.40979,"is_reserved":false,"is_disabled":false,"rental_uris":{"android":"levelo://app?vid=4237657a-7cdc-4967-86ba-cfba955c0ea9","ios":"levelo://app?vid=4237657a-7cdc-4967-86ba-cfba955c0ea9"},"vehicle_type_id":"4","last_reported":1773177640,"current_range_meters":40000,"station_id":"ce4bhl12rcd13ifvqgf0","pricing_plan_id":"cebpf4jnsgd1na2vs0mg"},{"bike_id":"d9ae451b-394d-4600-bc8e-250781c8b682","system_id":"levelo_inurba_marseille","lat":43.2654,"lon":5.37317,"is_reserved":false,"is_disabled":false,"rental_uris":{"android":"levelo://app?vid=d9ae451b-394d-4600-bc8e-250781c8b682","ios":"levelo://app?vid=d9ae451b-394d-4600-bc8e-250781c8b682"},"vehicle_type_id":"4","last_reported":1773177640,"current_range_meters":17200,"station_id":"ce4bhg12rcd13ifvqf70","pricing_plan_id":"cebpf4jnsgd1na2vs0mg"},{"bike_id":"c33732c3-34b3-43cf-9550-258c10091c04","system_id":"levelo_inurba_marseille","lat":43.29915,"lon":5.42091,"is_reserved":false,"is_disabled":false,"rental_uris":{"android":"levelo://app?vid=c33732c3-34b3-43cf-9550-258c10091c04","ios":"levelo://app?vid=c33732c3-34b3-43cf-9550-258c10091c04"},"vehicle_type_id":"4","last_reported":1773177640,"current_range_meters":37600,"station_id":"","pricing_plan_id":"cebpf4jnsgd1na2vs0mg"},{"bike_id":"5e71fadf-3d46-4d3f-8258-74b7144134d8","system_id":"levelo_inurba_marseille","lat":43.27479,"lon":5.41581,"is_reserved":false,"is_disabled":false,"rental_uris":{"android":"levelo://app?vid=5e71fadf-3d46-4d3f-8258-74b7144134d8","ios":"levelo://app?vid=5e71fadf-3d46-4d3f-8258-74b7144134d8"},"vehicle_type_id":"4","last_reported":1773177640,"current_range_meters":22800,"station_id":"st_d6im8g6chgec73a5pndg","pricing_plan_id":"cebpf4jnsgd1na2vs0mg"},{"bike_id":"741e3ec7-cec0-4e99-bcaf-44517a159255","system_id":"levelo_inurba_marseille","lat":43.29544,"lon":5.37364,"is_reserved":false,"is_disabled":false,"rental_uris":{"android":"levelo://app?vid=741e3ec7-cec0-4e99-bcaf-44517a159255","ios":"levelo://app?vid=741e3ec7-cec0-4e99-bcaf-44517a159255"},"vehicle_type_id":"4","last_reported":1773177640,"current_range_meters":28400,"station_id":"","pricing_plan_id":"cebpf4jnsgd1na2vs0mg"},{"bike_id":"c0f5bd4a-cbc2-427a-92f0-0be45de4abfd","system_id":"levelo_inurba_marseille","lat":43.28532,"lon":5.44111,"is_reserved":false,"is_disabled":false,"rental_uris":{"android":"levelo://app?vid=c0f5bd4a-cbc2-427a-92f0-0be45de4abfd","ios":"levelo://app?vid=c0f5bd4a-cbc2-427a-92f0-0be45de4abfd"},"vehicle_type_id":"4","last_reported":1773177640,"current_range_meters":8400,"station_id":"st_d3j3df2ikq2c7380ej80","pricing_plan_id":"cebpf4jnsgd1na2vs0mg"},{"bike_id":"4c4cd193-b46e-456e-934d-026fbd8d688d","system_id":"levelo_inurba_marseille","lat":43.29256,"lon":5.38432,"is_reserved":false,"is_disabled":false,"rental_uris":{"android":"levelo://app?vid=4c4cd193-b46e-456e-934d-026fbd8d688d","ios":"levelo://app?vid=4c4cd193-b46e-456e-934d-026fbd8d688d"},"vehicle_type_id":"4","last_reported":1773177640,"current_range_meters":36000,"station_id":"ce4bh692rcd13ifvqea0","pricing_plan_id":"cebpf4jnsgd1na2vs0mg"},{"bike_id":"251e2fa3-9cee-4a07-883b-96d86c803c28","system_id":"levelo_inurba_marseille","lat":43.2318,"lon":5.39983,"is_reserved":false,"is_disabled":false,"rental_uris":{"android":"levelo://app?vid=251e2fa3-9cee-4a07-883b-96d86c803c28","ios":"levelo://app?vid=251e2fa3-9cee-4a07-883b-96d86c803c28"},"vehicle_type_id":"4","last_reported":1773177640,"current_range_meters":39200,"station_id":"ce4bhn12rcd13ifvqgqg","pricing_plan_id":"cebpf4jnsgd1na2vs0mg"},{"bike_id":"6eaf328c-de35-4b3f-8c0e-4c90d9499b4b","system_id":"levelo_inurba_marseille","lat":43.32105,"lon":5.36765,"is_reserved":false,"is_disabled":false,"rental_uris":{"android":"levelo://app?vid=6eaf328c-de35-4b3f-8c0e-4c90d9499b4b","ios":"levelo://app?vid=6eaf328c-de35-4b3f-8c0e-4c90d9499b4b"},"vehicle_type_id":"4","last_reported":1773177640,"current_range_meters":38400,"station_id":"ce4bhrh2rcd13ifvqhug","pricing_plan_id":"cebpf4jnsgd1na2vs0mg"},{"bike_id":"a5eb7e2e-f45f-42c7-8ba3-bf76c2472338","system_id":"levelo_inurba_marseille","lat":43.30207,"lon":5.39438,"is_reserved":false,"is_disabled":false,"rental_uris":{"android":"levelo://app?vid=a5eb7e2e-f45f-42c7-8ba3-bf76c2472338","ios":"levelo://app?vid=a5eb7e2e-f45f-42c7-8ba3-bf76c2472338"},"vehicle_type_id":"4","last_reported":1773177640,"current_range_meters":27200,"station_id":"ce4bh0p2rcd13ifvqd70","pricing_plan_id":"cebpf4jnsgd1na2vs0mg"},{"bike_id":"bb4d2406-b5bc-49be-9f7c-f47fcdbe593b","system_id":"levelo_inurba_marseille","lat":43.30568,"lon":5.36686,"is_reserved":false,"is_disabled":false,"rental_uris":{"android":"levelo://app?vid=bb4d2406-b5bc-49be-9f7c-f47fcdbe593b","ios":"levelo://app?vid=bb4d2406-b5bc-49be-9f7c-f47fcdbe593b"},"vehicle_type_id":"4","last_reported":1773177640,"current_range_meters":39200,"station_id":"","pricing_plan_id":"cebpf4jnsgd1na2vs0mg"},{"bike_id":"1496cf75-2e0e-4aa6-9429-43775397205c","system_id":"levelo_inurba_marseille","lat":43.29271,"lon":5.36833,"is_reserved":false,"is_disabled":false,"rental_uris":{"android":"levelo://app?vid=1496cf75-2e0e-4aa6-9429-43775397205c","ios":"levelo://app?vid=1496cf75-2e0e-4aa6-9429-43775397205c"},"vehicle_type_id":"4","last_reported":1773177640,"current_range_meters":38000,"station_id":"ce4bhbp2rcd13ifvqesg","pricing_plan_id":"cebpf4jnsgd1na2vs0mg"},{"bike_id":"5f72350b-2c43-4ae3-97f1-1beffc338161","system_id":"levelo_inurba_marseille","lat":43.23951,"lon":5.3664,"is_reserved":false,"is_disabled":false,"rental_uris":{"android":"levelo://app?vid=5f72350b-2c43-4ae3-97f1-1beffc338161","ios":"levelo://app?vid=5f72350b-2c43-4ae3-97f1-1beffc338161"},"vehicle_type_id":"4","last_reported":1773177640,"current_range_meters":11200,"station_id":"ce4bhi12rcd13ifvqfp0","pricing_plan_id":"cebpf4jnsgd1na2vs0mg"},{"bike_id":"00adc013-06bc-44f0-92b9-114da8a17fc8","system_id":"levelo_inurba_marseille","lat":43.29672,"lon":5.39374,"is_reserved":false,"is_disabled":false,"rental_uris":{"android":"levelo://app?vid=00adc013-06bc-44f0-92b9-114da8a17fc8","ios":"levelo://app?vid=00adc013-06bc-44f0-92b9-114da8a17fc8"},"vehicle_type_id":"4","last_reported":1773177640,"current_range_meters":10800,"station_id":"","pricing_plan_id":"cebpf4jnsgd1na2vs0mg"},{"bike_id":"a3cfe904-18fb-4467-b355-b56cd107d238","system_id":"levelo_inurba_marseille","lat":43.28603,"lon":5.37049,"is_reserved":false,"is_disabled":false,"rental_uris":{"android":"levelo://app?vid=a3cfe904-18fb-4467-b355-b56cd107d238","ios":"levelo://app?vid=a3cfe904-18fb-4467-b355-b56cd107d238"},"vehicle_type_id":"4","last_reported":1773177640,"current_range_meters":27600,"station_id":"ce4bht12rcd13ifvqi60","pricing_plan_id":"cebpf4jnsgd1na2vs0mg"},{"bike_id":"070cd0a6-749d-436a-bec4-797f07440630","system_id":"levelo_inurba_marseille","lat":43.28805,"lon":5.35878,"is_reserved":false,"is_disabled":false,"rental_uris":{"android":"levelo://app?vid=070cd0a6-749d-436a-bec4-797f07440630","ios":"levelo://app?vid=070cd0a6-749d-436a-bec4-797f07440630"},"vehicle_type_id":"4","last_reported":1773177640,"current_range_meters":30400,"station_id":"","pricing_plan_id":"cebpf4jnsgd1na2vs0mg"},{"bike_id":"f27be3cb-d5fc-4498-8e52-861d9b4aac8e","system_id":"levelo_inurba_marseille","lat":43.24807,"lon":5.37458,"is_reserved":false,"is_disabled":false,"rental_uris":{"android":"levelo://app?vid=f27be3cb-d5fc-4498-8e52-861d9b4aac8e","ios":"levelo://app?vid=f27be3cb-d5fc-4498-8e52-861d9b4aac8e"},"vehicle_type_id":"4","last_reported":1773177640,"current_range_meters":38400,"station_id":"ce4bhgh2rcd13ifvqfb0","pricing_plan_id":"cebpf4jnsgd1na2vs0mg"},{"bike_id":"3d7b1bec-2a06-47da-a7d0-796cda99d14f","system_id":"levelo_inurba_marseille","lat":43.27081,"lon":5.38314,"is_reserved":false,"is_disabled":false,"rental_uris":{"android":"levelo://app?vid=3d7b1bec-2a06-47da-a7d0-796cda99d14f","ios":"levelo://app?vid=3d7b1bec-2a06-47da-a7d0-796cda99d14f"},"vehicle_type_id":"4","last_reported":1773177640,"current_range_meters":22000,"station_id":"st_d3n2fo6cfp8s73cte1j0","pricing_plan_id":"cebpf4jnsgd1na2vs0mg"},{"bike_id":"cd68cf1b-5d45-4efe-ae46-93cc692f1578","system_id":"levelo_inurba_marseille","lat":43.28664,"lon":5.36363,"is_reserved":false,"is_disabled":false,"rental_uris":{"android":"levelo://app?vid=cd68cf1b-5d45-4efe-ae46-93cc692f1578","ios":"levelo://app?vid=cd68cf1b-5d45-4efe-ae46-93cc692f1578"},"vehicle_type_id":"4","last_reported":1773177640,"current_range_meters":40000,"station_id":"ce4bhah2rcd13ifvqej0","pricing_plan_id":"cebpf4jnsgd1na2vs0mg"},{"bike_id":"b7ff98bd-9d8c-43f7-a95e-37511af3a427","system_id":"levelo_inurba_marseille","lat":43.29237,"lon":5.38436,"is_reserved":false,"is_disabled":true,"rental_uris":{"android":"levelo://app?vid=b7ff98bd-9d8c-43f7-a95e-37511af3a427","ios":"levelo://app?vid=b7ff98bd-9d8c-43f7-a95e-37511af3a427"},"vehicle_type_id":"4","last_reported":1773177640,"current_range_meters":26000,"station_id":"ce4bh692rcd13ifvqea0","pricing_plan_id":"cebpf4jnsgd1na2vs0mg"},{"bike_id":"2386054f-29f0-4bbb-b4c5-1b35b953f1c0","system_id":"levelo_inurba_marseille","lat":43.24997,"lon":5.38934,"is_reserved":false,"is_disabled":false,"rental_uris":{"android":"levelo://app?vid=2386054f-29f0-4bbb-b4c5-1b35b953f1c0","ios":"levelo://app?vid=2386054f-29f0-4bbb-b4c5-1b35b953f1c0"},"vehicle_type_id":"4","last_reported":1773177640,"current_range_meters":8800,"station_id":"ce4bhgp2rcd13ifvqfd0","pricing_plan_id":"cebpf4jnsgd1na2vs0mg"},{"bike_id":"def9d016-b4f1-4551-9bca-72f9a3613739","system_id":"levelo_inurba_marseille","lat":43.27508,"lon":5.41591,"is_reserved":false,"is_disabled":false,"rental_uris":{"android":"levelo://app?vid=def9d016-b4f1-4551-9bca-72f9a3613739","ios":"levelo://app?vid=def9d016-b4f1-4551-9bca-72f9a3613739"},"vehicle_type_id":"4","last_reported":1773177640,"current_range_meters":18000,"station_id":"st_d6im8g6chgec73a5pndg","pricing_plan_id":"cebpf4jnsgd1na2vs0mg"},{"bike_id":"dd854777-f378-4132-94e6-63027cc18b82","system_id":"levelo_inurba_marseille","lat":43.29727,"lon":5.41059,"is_reserved":false,"is_disabled":false,"rental_uris":{"android":"levelo://app?vid=dd854777-f378-4132-94e6-63027cc18b82","ios":"levelo://app?vid=dd854777-f378-4132-94e6-63027cc18b82"},"vehicle_type_id":"4","last_reported":1773177640,"current_range_meters":32000,"station_id":"","pricing_plan_id":"cebpf4jnsgd1na2vs0mg"},{"bike_id":"663bc6b3-9e31-40d5-b555-0e2f122be0df","system_id":"levelo_inurba_marseille","lat":43.2925,"lon":5.38435,"is_reserved":false,"is_disabled":false,"rental_uris":{"android":"levelo://app?vid=663bc6b3-9e31-40d5-b555-0e2f122be0df","ios":"levelo://app?vid=663bc6b3-9e31-40d5-b555-0e2f122be0df"},"vehicle_type_id":"4","last_reported":1773177640,"current_range_meters":39200,"station_id":"ce4bh692rcd13ifvqea0","pricing_plan_id":"cebpf4jnsgd1na2vs0mg"},{"bike_id":"fcb859d6-9e1f-4fbc-8354-9fa49e5379dc","system_id":"levelo_inurba_marseille","lat":43.27811,"lon":5.4071,"is_reserved":false,"is_disabled":false,"rental_uris":{"android":"levelo://app?vid=fcb859d6-9e1f-4fbc-8354-9fa49e5379dc","ios":"levelo://app?vid=fcb859d6-9e1f-4fbc-8354-9fa49e5379dc"},"vehicle_type_id":"4","last_reported":1773177640,"current_range_meters":35600,"station_id":"ce4bhnh2rcd13ifvqgtg","pricing_plan_id":"cebpf4jnsgd1na2vs0mg"},{"bike_id":"003d1d08-fcf1-4e48-b79d-cd47497b0244","system_id":"levelo_inurba_marseille","lat":43.29592,"lon":5.37477,"is_reserved":false,"is_disabled":true,"rental_uris":{"android":"levelo://app?vid=003d1d08-fcf1-4e48-b79d-cd47497b0244","ios":"levelo://app?vid=003d1d08-fcf1-4e48-b79d-cd47497b0244"},"vehicle_type_id":"4","last_reported":1773177640,"current_range_meters":38000,"station_id":"ce4bgh92rcd13ifvqb50","pricing_plan_id":"cebpf4jnsgd1na2vs0mg"},{"bike_id":"532f1fe9-6384-4056-88f3-ddfdd084688a","system_id":"levelo_inurba_marseille","lat":43.29811,"lon":5.4188,"is_reserved":false,"is_disabled":false,"rental_uris":{"android":"levelo://app?vid=532f1fe9-6384-4056-88f3-ddfdd084688a","ios":"levelo://app?vid=532f1fe9-6384-4056-88f3-ddfdd084688a"},"vehicle_type_id":"4","last_reported":1773177640,"current_range_meters":32400,"station_id":"","pricing_plan_id":"cebpf4jnsgd1na2vs0mg"},{"bike_id":"955c54e3-e7ad-4355-8ec0-7be239d34285","system_id":"levelo_inurba_marseille","lat":43.28106,"lon":5.37849,"is_reserved":false,"is_disabled":false,"rental_uris":{"android":"levelo://app?vid=955c54e3-e7ad-4355-8ec0-7be239d34285","ios":"levelo://app?vid=955c54e3-e7ad-4355-8ec0-7be239d34285"},"vehicle_type_id":"4","last_reported":1773177640,"current_range_meters":35200,"station_id":"ce4bha12rcd13ifvqee0","pricing_plan_id":"cebpf4jnsgd1na2vs0mg"},{"bike_id":"3c8d6bce-d9c4-4269-82c6-7e6f35ffe4b3","system_id":"levelo_inurba_marseille","lat":43.296,"lon":5.37493,"is_reserved":false,"is_disabled":false,"rental_uris":{"android":"levelo://app?vid=3c8d6bce-d9c4-4269-82c6-7e6f35ffe4b3","ios":"levelo://app?vid=3c8d6bce-d9c4-4269-82c6-7e6f35ffe4b3"},"vehicle_type_id":"4","last_reported":1773177640,"current_range_meters":12000,"station_id":"ce4bgh92rcd13ifvqb50","pricing_plan_id":"cebpf4jnsgd1na2vs0mg"},{"bike_id":"e0c6d53f-d556-4f3c-9be6-809ce4aebd6e","system_id":"levelo_inurba_marseille","lat":43.28685,"lon":5.38645,"is_reserved":false,"is_disabled":false,"rental_uris":{"android":"levelo://app?vid=e0c6d53f-d556-4f3c-9be6-809ce4aebd6e","ios":"levelo://app?vid=e0c6d53f-d556-4f3c-9be6-809ce4aebd6e"},"vehicle_type_id":"4","last_reported":1773177640,"current_range_meters":36400,"station_id":"ce4bh492rcd13ifvqdug","pricing_plan_id":"cebpf4jnsgd1na2vs0mg"},{"bike_id":"e5980185-ec26-4b37-ab2d-3a97dcedfd87","system_id":"levelo_inurba_marseille","lat":43.26044,"lon":5.39411,"is_reserved":false,"is_disabled":false,"rental_uris":{"android":"levelo://app?vid=e5980185-ec26-4b37-ab2d-3a97dcedfd87","ios":"levelo://app?vid=e5980185-ec26-4b37-ab2d-3a97dcedfd87"},"vehicle_type_id":"4","last_reported":1773177640,"current_range_meters":20000,"station_id":"ce4bhh92rcd13ifvqfj0","pricing_plan_id":"cebpf4jnsgd1na2vs0mg"},{"bike_id":"c127c5d1-f3ab-44a6-b0be-0d7b280137c1","system_id":"levelo_inurba_marseille","lat":43.28468,"lon":5.3587,"is_reserved":false,"is_disabled":false,"rental_uris":{"android":"levelo://app?vid=c127c5d1-f3ab-44a6-b0be-0d7b280137c1","ios":"levelo://app?vid=c127c5d1-f3ab-44a6-b0be-0d7b280137c1"},"vehicle_type_id":"4","last_reported":1773177640,"current_range_meters":8000,"station_id":"ce4bhah2rcd13ifvqei0","pricing_plan_id":"cebpf4jnsgd1na2vs0mg"},{"bike_id":"5ff4eed9-cc94-417e-b8b0-f370f495b41d","system_id":"levelo_inurba_marseille","lat":43.2815,"lon":5.42654,"is_reserved":false,"is_disabled":false,"rental_uris":{"android":"levelo://app?vid=5ff4eed9-cc94-417e-b8b0-f370f495b41d","ios":"levelo://app?vid=5ff4eed9-cc94-417e-b8b0-f370f495b41d"},"vehicle_type_id":"4","last_reported":1773177640,"current_range_meters":25200,"station_id":"ce4bhnh2rcd13ifvqgug","pricing_plan_id":"cebpf4jnsgd1na2vs0mg"},{"bike_id":"d64551ee-697a-4ebb-9b15-61b4f07f9484","system_id":"levelo_inurba_marseille","lat":43.30888,"lon":5.39662,"is_reserved":false,"is_disabled":false,"rental_uris":{"android":"levelo://app?vid=d64551ee-697a-4ebb-9b15-61b4f07f9484","ios":"levelo://app?vid=d64551ee-697a-4ebb-9b15-61b4f07f9484"},"vehicle_type_id":"4","last_reported":1773177640,"current_range_meters":30000,"station_id":"ce4bh012rcd13ifvqcv0","pricing_plan_id":"cebpf4jnsgd1na2vs0mg"},{"bike_id":"b94c3b6d-7912-4bb7-bd16-b874ff101a3d","system_id":"levelo_inurba_marseille","lat":43.24792,"lon":5.37457,"is_reserved":false,"is_disabled":false,"rental_uris":{"android":"levelo://app?vid=b94c3b6d-7912-4bb7-bd16-b874ff101a3d","ios":"levelo://app?vid=b94c3b6d-7912-4bb7-bd16-b874ff101a3d"},"vehicle_type_id":"4","last_reported":1773177640,"current_range_meters":30800,"station_id":"ce4bhgh2rcd13ifvqfb0","pricing_plan_id":"cebpf4jnsgd1na2vs0mg"},{"bike_id":"4c16535f-45b7-4219-854d-c74170118360","system_id":"levelo_inurba_marseille","lat":43.24947,"lon":5.40498,"is_reserved":false,"is_disabled":false,"rental_uris":{"android":"levelo://app?vid=4c16535f-45b7-4219-854d-c74170118360","ios":"levelo://app?vid=4c16535f-45b7-4219-854d-c74170118360"},"vehicle_type_id":"4","last_reported":1773177640,"current_range_meters":8800,"station_id":"st_d2ngiaodas8pm72gd1h0","pricing_plan_id":"cebpf4jnsgd1na2vs0mg"},{"bike_id":"75093d5d-7c75-43f4-b526-91360dcb1bc6","system_id":"levelo_inurba_marseille","lat":43.28421,"lon":5.35,"is_reserved":false,"is_disabled":false,"rental_uris":{"android":"levelo://app?vid=75093d5d-7c75-43f4-b526-91360dcb1bc6","ios":"levelo://app?vid=75093d5d-7c75-43f4-b526-91360dcb1bc6"},"vehicle_type_id":"4","last_reported":1773177640,"current_range_meters":38400,"station_id":"ce4bhbh2rcd13ifvqepg","pricing_plan_id":"cebpf4jnsgd1na2vs0mg"},{"bike_id":"7de6ca69-27cb-4f01-b0b4-5059a464752e","system_id":"levelo_inurba_marseille","lat":43.26693,"lon":5.38256,"is_reserved":false,"is_disabled":false,"rental_uris":{"android":"levelo://app?vid=7de6ca69-27cb-4f01-b0b4-5059a464752e","ios":"levelo://app?vid=7de6ca69-27cb-4f01-b0b4-5059a464752e"},"vehicle_type_id":"4","last_reported":1773177640,"current_range_meters":39200,"station_id":"ce4bhg92rcd13ifvqf90","pricing_plan_id":"cebpf4jnsgd1na2vs0mg"},{"bike_id":"a653cb16-eb56-4d3d-9547-661074c0647c","system_id":"levelo_inurba_marseille","lat":43.33776,"lon":5.37474,"is_reserved":false,"is_disabled":true,"rental_uris":{"android":"levelo://app?vid=a653cb16-eb56-4d3d-9547-661074c0647c","ios":"levelo://app?vid=a653cb16-eb56-4d3d-9547-661074c0647c"},"vehicle_type_id":"4","last_reported":1773177640,"current_range_meters":38000,"station_id":"","pricing_plan_id":"cebpf4jnsgd1na2vs0mg"},{"bike_id":"02c50f3f-0ebe-4c78-a0f1-5485749df61c","system_id":"levelo_inurba_marseille","lat":43.248,"lon":5.37464,"is_reserved":false,"is_disabled":false,"rental_uris":{"android":"levelo://app?vid=02c50f3f-0ebe-4c78-a0f1-5485749df61c","ios":"levelo://app?vid=02c50f3f-0ebe-4c78-a0f1-5485749df61c"},"vehicle_type_id":"4","last_reported":1773177640,"current_range_meters":23200,"station_id":"ce4bhgh2rcd13ifvqfb0","pricing_plan_id":"cebpf4jnsgd1na2vs0mg"},{"bike_id":"e9ee824d-a011-4766-b135-044c258fa453","system_id":"levelo_inurba_marseille","lat":43.29043,"lon":5.38153,"is_reserved":false,"is_disabled":false,"rental_uris":{"android":"levelo://app?vid=e9ee824d-a011-4766-b135-044c258fa453","ios":"levelo://app?vid=e9ee824d-a011-4766-b135-044c258fa453"},"vehicle_type_id":"4","last_reported":1773177640,"current_range_meters":39200,"station_id":"ce4bh4p2rcd13ifvqe1g","pricing_plan_id":"cebpf4jnsgd1na2vs0mg"},{"bike_id":"0b430c3c-226a-49e6-b8c0-4160bcefbf31","system_id":"levelo_inurba_marseille","lat":43.29568,"lon":5.37527,"is_reserved":false,"is_disabled":false,"rental_uris":{"android":"levelo://app?vid=0b430c3c-226a-49e6-b8c0-4160bcefbf31","ios":"levelo://app?vid=0b430c3c-226a-49e6-b8c0-4160bcefbf31"},"vehicle_type_id":"4","last_reported":1773177640,"current_range_meters":39200,"station_id":"ce4bgh92rcd13ifvqb50","pricing_plan_id":"cebpf4jnsgd1na2vs0mg"},{"bike_id":"2cc84e15-68c0-4e5a-99ac-8f7ccf840430","system_id":"levelo_inurba_marseille","lat":43.22565,"lon":5.41623,"is_reserved":false,"is_disabled":false,"rental_uris":{"android":"levelo://app?vid=2cc84e15-68c0-4e5a-99ac-8f7ccf840430","ios":"levelo://app?vid=2cc84e15-68c0-4e5a-99ac-8f7ccf840430"},"vehicle_type_id":"4","last_reported":1773177640,"current_range_meters":38400,"station_id":"st_d2o4gvlbi1j2169b742g","pricing_plan_id":"cebpf4jnsgd1na2vs0mg"},{"bike_id":"712d2224-9001-4f6f-bfdc-af9c778b9081","system_id":"levelo_inurba_marseille","lat":43.22541,"lon":5.41663,"is_reserved":false,"is_disabled":false,"rental_uris":{"android":"levelo://app?vid=712d2224-9001-4f6f-bfdc-af9c778b9081","ios":"levelo://app?vid=712d2224-9001-4f6f-bfdc-af9c778b9081"},"vehicle_type_id":"4","last_reported":1773177640,"current_range_meters":4400,"station_id":"st_d2o4gvlbi1j2169b742g","pricing_plan_id":"cebpf4jnsgd1na2vs0mg"},{"bike_id":"2301d092-fcd2-45f3-804a-bf87c6aa69a3","system_id":"levelo_inurba_marseille","lat":43.29565,"lon":5.37597,"is_reserved":false,"is_disabled":false,"rental_uris":{"android":"levelo://app?vid=2301d092-fcd2-45f3-804a-bf87c6aa69a3","ios":"levelo://app?vid=2301d092-fcd2-45f3-804a-bf87c6aa69a3"},"vehicle_type_id":"4","last_reported":1773177640,"current_range_meters":22800,"station_id":"","pricing_plan_id":"cebpf4jnsgd1na2vs0mg"},{"bike_id":"e1fcee2b-0a2f-425b-90e6-63c8f4b304c7","system_id":"levelo_inurba_marseille","lat":43.25332,"lon":5.42166,"is_reserved":false,"is_disabled":false,"rental_uris":{"android":"levelo://app?vid=e1fcee2b-0a2f-425b-90e6-63c8f4b304c7","ios":"levelo://app?vid=e1fcee2b-0a2f-425b-90e6-63c8f4b304c7"},"vehicle_type_id":"4","last_reported":1773177640,"current_range_meters":33200,"station_id":"st_d2m65c5bi1j21697t3ng","pricing_plan_id":"cebpf4jnsgd1na2vs0mg"},{"bike_id":"3cb4118e-249f-4f7f-8bd1-0ddb85d3d47f","system_id":"levelo_inurba_marseille","lat":43.29804,"lon":5.41424,"is_reserved":false,"is_disabled":false,"rental_uris":{"android":"levelo://app?vid=3cb4118e-249f-4f7f-8bd1-0ddb85d3d47f","ios":"levelo://app?vid=3cb4118e-249f-4f7f-8bd1-0ddb85d3d47f"},"vehicle_type_id":"4","last_reported":1773177640,"current_range_meters":38000,"station_id":"","pricing_plan_id":"cebpf4jnsgd1na2vs0mg"},{"bike_id":"251e7265-6da3-486f-9540-4813a6799da8","system_id":"levelo_inurba_marseille","lat":43.29128,"lon":5.35579,"is_reserved":false,"is_disabled":false,"rental_uris":{"android":"levelo://app?vid=251e7265-6da3-486f-9540-4813a6799da8","ios":"levelo://app?vid=251e7265-6da3-486f-9540-4813a6799da8"},"vehicle_type_id":"4","last_reported":1773177640,"current_range_meters":11600,"station_id":"ce4bhb92rcd13ifvqen0","pricing_plan_id":"cebpf4jnsgd1na2vs0mg"},{"bike_id":"d2f8800f-30c1-4c21-b8e2-ba5c5b2f20f8","system_id":"levelo_inurba_marseille","lat":43.27205,"lon":5.40973,"is_reserved":false,"is_disabled":false,"rental_uris":{"android":"levelo://app?vid=d2f8800f-30c1-4c21-b8e2-ba5c5b2f20f8","ios":"levelo://app?vid=d2f8800f-30c1-4c21-b8e2-ba5c5b2f20f8"},"vehicle_type_id":"4","last_reported":1773177640,"current_range_meters":36400,"station_id":"ce4bhl12rcd13ifvqgf0","pricing_plan_id":"cebpf4jnsgd1na2vs0mg"},{"bike_id":"896440e6-cef8-4268-bb86-ac2c6e2de747","system_id":"levelo_inurba_marseille","lat":43.28468,"lon":5.48419,"is_reserved":false,"is_disabled":false,"rental_uris":{"android":"levelo://app?vid=896440e6-cef8-4268-bb86-ac2c6e2de747","ios":"levelo://app?vid=896440e6-cef8-4268-bb86-ac2c6e2de747"},"vehicle_type_id":"4","last_reported":1773177640,"current_range_meters":32400,"station_id":"","pricing_plan_id":"cebpf4jnsgd1na2vs0mg"},{"bike_id":"c12ca336-7e33-4700-b55a-bea9313ec609","system_id":"levelo_inurba_marseille","lat":43.25331,"lon":5.42167,"is_reserved":false,"is_disabled":false,"rental_uris":{"android":"levelo://app?vid=c12ca336-7e33-4700-b55a-bea9313ec609","ios":"levelo://app?vid=c12ca336-7e33-4700-b55a-bea9313ec609"},"vehicle_type_id":"4","last_reported":1773177640,"current_range_meters":13600,"station_id":"st_d2m65c5bi1j21697t3ng","pricing_plan_id":"cebpf4jnsgd1na2vs0mg"},{"bike_id":"bdff13f0-0040-42f8-a042-90efed8054cb","system_id":"levelo_inurba_marseille","lat":43.27836,"lon":5.3921,"is_reserved":false,"is_disabled":false,"rental_uris":{"android":"levelo://app?vid=bdff13f0-0040-42f8-a042-90efed8054cb","ios":"levelo://app?vid=bdff13f0-0040-42f8-a042-90efed8054cb"},"vehicle_type_id":"4","last_reported":1773177640,"current_range_meters":32800,"station_id":"ce4bhjp2rcd13ifvqga0","pricing_plan_id":"cebpf4jnsgd1na2vs0mg"},{"bike_id":"2c1215f2-9624-4e50-bbbb-a53264cdd31e","system_id":"levelo_inurba_marseille","lat":43.28482,"lon":5.48387,"is_reserved":false,"is_disabled":false,"rental_uris":{"android":"levelo://app?vid=2c1215f2-9624-4e50-bbbb-a53264cdd31e","ios":"levelo://app?vid=2c1215f2-9624-4e50-bbbb-a53264cdd31e"},"vehicle_type_id":"4","last_reported":1773177640,"current_range_meters":32800,"station_id":"","pricing_plan_id":"cebpf4jnsgd1na2vs0mg"},{"bike_id":"1a207468-e47b-4f76-96da-6b3403b02150","system_id":"levelo_inurba_marseille","lat":43.2848,"lon":5.35867,"is_reserved":false,"is_disabled":false,"rental_uris":{"android":"levelo://app?vid=1a207468-e47b-4f76-96da-6b3403b02150","ios":"levelo://app?vid=1a207468-e47b-4f76-96da-6b3403b02150"},"vehicle_type_id":"4","last_reported":1773177640,"current_range_meters":39200,"station_id":"ce4bhah2rcd13ifvqei0","pricing_plan_id":"cebpf4jnsgd1na2vs0mg"},{"bike_id":"b20e784e-83e8-4171-8c29-5aa2de2d6861","system_id":"levelo_inurba_marseille","lat":43.32122,"lon":5.36769,"is_reserved":false,"is_disabled":false,"rental_uris":{"android":"levelo://app?vid=b20e784e-83e8-4171-8c29-5aa2de2d6861","ios":"levelo://app?vid=b20e784e-83e8-4171-8c29-5aa2de2d6861"},"vehicle_type_id":"4","last_reported":1773177640,"current_range_meters":24400,"station_id":"ce4bhrh2rcd13ifvqhug","pricing_plan_id":"cebpf4jnsgd1na2vs0mg"},{"bike_id":"a0ab89fd-d4e3-4039-8377-577b0acf001d","system_id":"levelo_inurba_marseille","lat":43.24394,"lon":5.44108,"is_reserved":false,"is_disabled":false,"rental_uris":{"android":"levelo://app?vid=a0ab89fd-d4e3-4039-8377-577b0acf001d","ios":"levelo://app?vid=a0ab89fd-d4e3-4039-8377-577b0acf001d"},"vehicle_type_id":"4","last_reported":1773177640,"current_range_meters":11200,"station_id":"","pricing_plan_id":"cebpf4jnsgd1na2vs0mg"},{"bike_id":"b9a3a995-b001-4d18-9713-749fdc308856","system_id":"levelo_inurba_marseille","lat":43.24994,"lon":5.38954,"is_reserved":false,"is_disabled":false,"rental_uris":{"android":"levelo://app?vid=b9a3a995-b001-4d18-9713-749fdc308856","ios":"levelo://app?vid=b9a3a995-b001-4d18-9713-749fdc308856"},"vehicle_type_id":"4","last_reported":1773177640,"current_range_meters":14400,"station_id":"ce4bhgp2rcd13ifvqfd0","pricing_plan_id":"cebpf4jnsgd1na2vs0mg"},{"bike_id":"688dce1c-cf53-43aa-b22e-8f6ee99a6467","system_id":"levelo_inurba_marseille","lat":43.22933,"lon":5.35383,"is_reserved":false,"is_disabled":false,"rental_uris":{"android":"levelo://app?vid=688dce1c-cf53-43aa-b22e-8f6ee99a6467","ios":"levelo://app?vid=688dce1c-cf53-43aa-b22e-8f6ee99a6467"},"vehicle_type_id":"4","last_reported":1773177640,"current_range_meters":18000,"station_id":"cpo3532slgdg3j2ikp40","pricing_plan_id":"cebpf4jnsgd1na2vs0mg"},{"bike_id":"c9fdec63-7232-4c40-8487-75579466936b","system_id":"levelo_inurba_marseille","lat":43.26684,"lon":5.38277,"is_reserved":false,"is_disabled":false,"rental_uris":{"android":"levelo://app?vid=c9fdec63-7232-4c40-8487-75579466936b","ios":"levelo://app?vid=c9fdec63-7232-4c40-8487-75579466936b"},"vehicle_type_id":"4","last_reported":1773177640,"current_range_meters":29600,"station_id":"ce4bhg92rcd13ifvqf90","pricing_plan_id":"cebpf4jnsgd1na2vs0mg"},{"bike_id":"5c377f38-fc97-4b2e-93a0-0d6e429565ea","system_id":"levelo_inurba_marseille","lat":43.26917,"lon":5.40228,"is_reserved":false,"is_disabled":false,"rental_uris":{"android":"levelo://app?vid=5c377f38-fc97-4b2e-93a0-0d6e429565ea","ios":"levelo://app?vid=5c377f38-fc97-4b2e-93a0-0d6e429565ea"},"vehicle_type_id":"4","last_reported":1773177640,"current_range_meters":39200,"station_id":"cjm6bp8fraef2m0cb0m0","pricing_plan_id":"cebpf4jnsgd1na2vs0mg"},{"bike_id":"e8b7d766-9ece-4870-a1b8-5b316a1b8e67","system_id":"levelo_inurba_marseille","lat":43.22568,"lon":5.41623,"is_reserved":false,"is_disabled":false,"rental_uris":{"android":"levelo://app?vid=e8b7d766-9ece-4870-a1b8-5b316a1b8e67","ios":"levelo://app?vid=e8b7d766-9ece-4870-a1b8-5b316a1b8e67"},"vehicle_type_id":"4","last_reported":1773177640,"current_range_meters":21600,"station_id":"st_d2o4gvlbi1j2169b742g","pricing_plan_id":"cebpf4jnsgd1na2vs0mg"},{"bike_id":"73445b64-da31-4c00-a6bd-a3b91e6f5eb4","system_id":"levelo_inurba_marseille","lat":43.27845,"lon":5.39213,"is_reserved":false,"is_disabled":false,"rental_uris":{"android":"levelo://app?vid=73445b64-da31-4c00-a6bd-a3b91e6f5eb4","ios":"levelo://app?vid=73445b64-da31-4c00-a6bd-a3b91e6f5eb4"},"vehicle_type_id":"4","last_reported":1773177640,"current_range_meters":38400,"station_id":"ce4bhjp2rcd13ifvqga0","pricing_plan_id":"cebpf4jnsgd1na2vs0mg"},{"bike_id":"7fec08d5-ee68-460a-ac18-925555054430","system_id":"levelo_inurba_marseille","lat":43.24166,"lon":5.36414,"is_reserved":false,"is_disabled":false,"rental_uris":{"android":"levelo://app?vid=7fec08d5-ee68-460a-ac18-925555054430","ios":"levelo://app?vid=7fec08d5-ee68-460a-ac18-925555054430"},"vehicle_type_id":"4","last_reported":1773177640,"current_range_meters":18800,"station_id":"cpo36qri1sfpv3e86is0","pricing_plan_id":"cebpf4jnsgd1na2vs0mg"},{"bike_id":"5710dcd1-e745-41ec-96c6-e4d758bdbfca","system_id":"levelo_inurba_marseille","lat":43.29516,"lon":5.3904,"is_reserved":false,"is_disabled":false,"rental_uris":{"android":"levelo://app?vid=5710dcd1-e745-41ec-96c6-e4d758bdbfca","ios":"levelo://app?vid=5710dcd1-e745-41ec-96c6-e4d758bdbfca"},"vehicle_type_id":"4","last_reported":1773177640,"current_range_meters":36000,"station_id":"ce4bh3p2rcd13ifvqdp0","pricing_plan_id":"cebpf4jnsgd1na2vs0mg"},{"bike_id":"3479940f-0567-47ce-9910-7c01560a0ef1","system_id":"levelo_inurba_marseille","lat":43.30892,"lon":5.39656,"is_reserved":false,"is_disabled":false,"rental_uris":{"android":"levelo://app?vid=3479940f-0567-47ce-9910-7c01560a0ef1","ios":"levelo://app?vid=3479940f-0567-47ce-9910-7c01560a0ef1"},"vehicle_type_id":"4","last_reported":1773177640,"current_range_meters":24400,"station_id":"ce4bh012rcd13ifvqcv0","pricing_plan_id":"cebpf4jnsgd1na2vs0mg"},{"bike_id":"fbacc4e2-20d2-440b-8334-f840b8c13084","system_id":"levelo_inurba_marseille","lat":43.2316,"lon":5.4369,"is_reserved":false,"is_disabled":false,"rental_uris":{"android":"levelo://app?vid=fbacc4e2-20d2-440b-8334-f840b8c13084","ios":"levelo://app?vid=fbacc4e2-20d2-440b-8334-f840b8c13084"},"vehicle_type_id":"4","last_reported":1773177640,"current_range_meters":25200,"station_id":"ce4bhmp2rcd13ifvqgog","pricing_plan_id":"cebpf4jnsgd1na2vs0mg"},{"bike_id":"3e5376d1-74e0-493d-8800-a1ee648fb8c9","system_id":"levelo_inurba_marseille","lat":43.30378,"lon":5.42484,"is_reserved":false,"is_disabled":false,"rental_uris":{"android":"levelo://app?vid=3e5376d1-74e0-493d-8800-a1ee648fb8c9","ios":"levelo://app?vid=3e5376d1-74e0-493d-8800-a1ee648fb8c9"},"vehicle_type_id":"4","last_reported":1773177640,"current_range_meters":35600,"station_id":"ce4bhoh2rcd13ifvqh6g","pricing_plan_id":"cebpf4jnsgd1na2vs0mg"},{"bike_id":"c95c98b4-d4f4-48f2-b9c6-eaacb07d9cdb","system_id":"levelo_inurba_marseille","lat":43.30256,"lon":5.40085,"is_reserved":false,"is_disabled":false,"rental_uris":{"android":"levelo://app?vid=c95c98b4-d4f4-48f2-b9c6-eaacb07d9cdb","ios":"levelo://app?vid=c95c98b4-d4f4-48f2-b9c6-eaacb07d9cdb"},"vehicle_type_id":"4","last_reported":1773177640,"current_range_meters":37600,"station_id":"ce4bgvh2rcd13ifvqcs0","pricing_plan_id":"cebpf4jnsgd1na2vs0mg"},{"bike_id":"19c585cb-b516-45ee-aa09-cf34d5e1db9f","system_id":"levelo_inurba_marseille","lat":43.31195,"lon":5.37678,"is_reserved":false,"is_disabled":false,"rental_uris":{"android":"levelo://app?vid=19c585cb-b516-45ee-aa09-cf34d5e1db9f","ios":"levelo://app?vid=19c585cb-b516-45ee-aa09-cf34d5e1db9f"},"vehicle_type_id":"4","last_reported":1773177640,"current_range_meters":34800,"station_id":"","pricing_plan_id":"cebpf4jnsgd1na2vs0mg"},{"bike_id":"64db144a-07de-49ea-9432-4bcd2298dea1","system_id":"levelo_inurba_marseille","lat":43.26685,"lon":5.38274,"is_reserved":false,"is_disabled":false,"rental_uris":{"android":"levelo://app?vid=64db144a-07de-49ea-9432-4bcd2298dea1","ios":"levelo://app?vid=64db144a-07de-49ea-9432-4bcd2298dea1"},"vehicle_type_id":"4","last_reported":1773177640,"current_range_meters":20400,"station_id":"ce4bhg92rcd13ifvqf90","pricing_plan_id":"cebpf4jnsgd1na2vs0mg"},{"bike_id":"6c4cf459-9d91-4f06-98a0-e2caa263890b","system_id":"levelo_inurba_marseille","lat":43.29385,"lon":5.37849,"is_reserved":false,"is_disabled":true,"rental_uris":{"android":"levelo://app?vid=6c4cf459-9d91-4f06-98a0-e2caa263890b","ios":"levelo://app?vid=6c4cf459-9d91-4f06-98a0-e2caa263890b"},"vehicle_type_id":"4","last_reported":1773177640,"current_range_meters":27200,"station_id":"ce4bgjh2rcd13ifvqbf0","pricing_plan_id":"cebpf4jnsgd1na2vs0mg"},{"bike_id":"5f535282-3087-43da-aac9-b72a2da83281","system_id":"levelo_inurba_marseille","lat":43.25493,"lon":5.37656,"is_reserved":false,"is_disabled":false,"rental_uris":{"android":"levelo://app?vid=5f535282-3087-43da-aac9-b72a2da83281","ios":"levelo://app?vid=5f535282-3087-43da-aac9-b72a2da83281"},"vehicle_type_id":"4","last_reported":1773177640,"current_range_meters":39200,"station_id":"ce4bhh12rcd13ifvqff0","pricing_plan_id":"cebpf4jnsgd1na2vs0mg"},{"bike_id":"ac9c6184-0173-4088-80bd-ad4bbe1b6da2","system_id":"levelo_inurba_marseille","lat":43.29553,"lon":5.39018,"is_reserved":false,"is_disabled":false,"rental_uris":{"android":"levelo://app?vid=ac9c6184-0173-4088-80bd-ad4bbe1b6da2","ios":"levelo://app?vid=ac9c6184-0173-4088-80bd-ad4bbe1b6da2"},"vehicle_type_id":"4","last_reported":1773177640,"current_range_meters":17200,"station_id":"ce4bh3p2rcd13ifvqdp0","pricing_plan_id":"cebpf4jnsgd1na2vs0mg"},{"bike_id":"e8c4e347-ab07-4c9c-ae8d-bc529eaae694","system_id":"levelo_inurba_marseille","lat":43.28452,"lon":5.35883,"is_reserved":false,"is_disabled":false,"rental_uris":{"android":"levelo://app?vid=e8c4e347-ab07-4c9c-ae8d-bc529eaae694","ios":"levelo://app?vid=e8c4e347-ab07-4c9c-ae8d-bc529eaae694"},"vehicle_type_id":"4","last_reported":1773177640,"current_range_meters":24800,"station_id":"ce4bhah2rcd13ifvqei0","pricing_plan_id":"cebpf4jnsgd1na2vs0mg"},{"bike_id":"0f2c85aa-5e6e-4d7d-9d50-584fced52287","system_id":"levelo_inurba_marseille","lat":43.24653,"lon":5.38893,"is_reserved":false,"is_disabled":false,"rental_uris":{"android":"levelo://app?vid=0f2c85aa-5e6e-4d7d-9d50-584fced52287","ios":"levelo://app?vid=0f2c85aa-5e6e-4d7d-9d50-584fced52287"},"vehicle_type_id":"4","last_reported":1773177640,"current_range_meters":35600,"station_id":"ce4bhg12rcd13ifvqf60","pricing_plan_id":"cebpf4jnsgd1na2vs0mg"},{"bike_id":"176c6830-1c3d-49b1-bfc6-95cd2289370a","system_id":"levelo_inurba_marseille","lat":43.31146,"lon":5.37752,"is_reserved":false,"is_disabled":false,"rental_uris":{"android":"levelo://app?vid=176c6830-1c3d-49b1-bfc6-95cd2289370a","ios":"levelo://app?vid=176c6830-1c3d-49b1-bfc6-95cd2289370a"},"vehicle_type_id":"4","last_reported":1773177640,"current_range_meters":15200,"station_id":"ce4bgt92rcd13ifvqcg0","pricing_plan_id":"cebpf4jnsgd1na2vs0mg"},{"bike_id":"f62cbee2-12e5-4cdd-bfbc-04088f9f32fa","system_id":"levelo_inurba_marseille","lat":43.2847,"lon":5.48393,"is_reserved":false,"is_disabled":false,"rental_uris":{"android":"levelo://app?vid=f62cbee2-12e5-4cdd-bfbc-04088f9f32fa","ios":"levelo://app?vid=f62cbee2-12e5-4cdd-bfbc-04088f9f32fa"},"vehicle_type_id":"4","last_reported":1773177640,"current_range_meters":24800,"station_id":"","pricing_plan_id":"cebpf4jnsgd1na2vs0mg"},{"bike_id":"c85195ac-1ccf-49e2-93a4-ac161248e975","system_id":"levelo_inurba_marseille","lat":43.29737,"lon":5.37671,"is_reserved":false,"is_disabled":false,"rental_uris":{"android":"levelo://app?vid=c85195ac-1ccf-49e2-93a4-ac161248e975","ios":"levelo://app?vid=c85195ac-1ccf-49e2-93a4-ac161248e975"},"vehicle_type_id":"4","last_reported":1773177640,"current_range_meters":36400,"station_id":"ce4bgkh2rcd13ifvqbl0","pricing_plan_id":"cebpf4jnsgd1na2vs0mg"},{"bike_id":"721ea8ff-84b6-4ff4-a19d-161d9eb55804","system_id":"levelo_inurba_marseille","lat":43.29626,"lon":5.37709,"is_reserved":false,"is_disabled":false,"rental_uris":{"android":"levelo://app?vid=721ea8ff-84b6-4ff4-a19d-161d9eb55804","ios":"levelo://app?vid=721ea8ff-84b6-4ff4-a19d-161d9eb55804"},"vehicle_type_id":"4","last_reported":1773177640,"current_range_meters":10000,"station_id":"ce4bgi92rcd13ifvqb90","pricing_plan_id":"cebpf4jnsgd1na2vs0mg"},{"bike_id":"5b070995-8e0f-42bd-af61-5eb8056a24da","system_id":"levelo_inurba_marseille","lat":43.30812,"lon":5.38186,"is_reserved":false,"is_disabled":false,"rental_uris":{"android":"levelo://app?vid=5b070995-8e0f-42bd-af61-5eb8056a24da","ios":"levelo://app?vid=5b070995-8e0f-42bd-af61-5eb8056a24da"},"vehicle_type_id":"4","last_reported":1773177640,"current_range_meters":36000,"station_id":"ce4bgt12rcd13ifvqce0","pricing_plan_id":"cebpf4jnsgd1na2vs0mg"},{"bike_id":"4ddf6107-bd9d-4d60-bbe1-44b17ca01c09","system_id":"levelo_inurba_marseille","lat":43.30141,"lon":5.37397,"is_reserved":false,"is_disabled":true,"rental_uris":{"android":"levelo://app?vid=4ddf6107-bd9d-4d60-bbe1-44b17ca01c09","ios":"levelo://app?vid=4ddf6107-bd9d-4d60-bbe1-44b17ca01c09"},"vehicle_type_id":"4","last_reported":1773177640,"current_range_meters":28400,"station_id":"ce4bgs92rcd13ifvqcc0","pricing_plan_id":"cebpf4jnsgd1na2vs0mg"},{"bike_id":"ba3a231f-10a0-4302-b0e7-08f11861cd04","system_id":"levelo_inurba_marseille","lat":43.28473,"lon":5.48391,"is_reserved":false,"is_disabled":false,"rental_uris":{"android":"levelo://app?vid=ba3a231f-10a0-4302-b0e7-08f11861cd04","ios":"levelo://app?vid=ba3a231f-10a0-4302-b0e7-08f11861cd04"},"vehicle_type_id":"4","last_reported":1773177640,"current_range_meters":4000,"station_id":"","pricing_plan_id":"cebpf4jnsgd1na2vs0mg"},{"bike_id":"0b3a6178-c659-4afa-a1c1-935435363474","system_id":"levelo_inurba_marseille","lat":43.23969,"lon":5.3664,"is_reserved":false,"is_disabled":false,"rental_uris":{"android":"levelo://app?vid=0b3a6178-c659-4afa-a1c1-935435363474","ios":"levelo://app?vid=0b3a6178-c659-4afa-a1c1-935435363474"},"vehicle_type_id":"4","last_reported":1773177640,"current_range_meters":36400,"station_id":"ce4bhi12rcd13ifvqfp0","pricing_plan_id":"cebpf4jnsgd1na2vs0mg"},{"bike_id":"c4127bf1-754a-4c52-a275-55f16ba90528","system_id":"levelo_inurba_marseille","lat":43.27955,"lon":5.41051,"is_reserved":false,"is_disabled":false,"rental_uris":{"android":"levelo://app?vid=c4127bf1-754a-4c52-a275-55f16ba90528","ios":"levelo://app?vid=c4127bf1-754a-4c52-a275-55f16ba90528"},"vehicle_type_id":"4","last_reported":1773177640,"current_range_meters":32400,"station_id":"ce4bhnp2rcd13ifvqh0g","pricing_plan_id":"cebpf4jnsgd1na2vs0mg"},{"bike_id":"352c9f7d-89b4-42e5-9e2e-76d972a274bd","system_id":"levelo_inurba_marseille","lat":43.29709,"lon":5.42541,"is_reserved":false,"is_disabled":false,"rental_uris":{"android":"levelo://app?vid=352c9f7d-89b4-42e5-9e2e-76d972a274bd","ios":"levelo://app?vid=352c9f7d-89b4-42e5-9e2e-76d972a274bd"},"vehicle_type_id":"4","last_reported":1773177640,"current_range_meters":13600,"station_id":"","pricing_plan_id":"cebpf4jnsgd1na2vs0mg"},{"bike_id":"50482903-ad7d-4198-b1b9-f159ad73f702","system_id":"levelo_inurba_marseille","lat":43.29108,"lon":5.38113,"is_reserved":false,"is_disabled":false,"rental_uris":{"android":"levelo://app?vid=50482903-ad7d-4198-b1b9-f159ad73f702","ios":"levelo://app?vid=50482903-ad7d-4198-b1b9-f159ad73f702"},"vehicle_type_id":"4","last_reported":1773177640,"current_range_meters":39200,"station_id":"ce4bh512rcd13ifvqe2g","pricing_plan_id":"cebpf4jnsgd1na2vs0mg"},{"bike_id":"bfee60c3-8b74-4c9f-aef3-67f690ec877a","system_id":"levelo_inurba_marseille","lat":43.30305,"lon":5.36896,"is_reserved":false,"is_disabled":false,"rental_uris":{"android":"levelo://app?vid=bfee60c3-8b74-4c9f-aef3-67f690ec877a","ios":"levelo://app?vid=bfee60c3-8b74-4c9f-aef3-67f690ec877a"},"vehicle_type_id":"4","last_reported":1773177640,"current_range_meters":16800,"station_id":"ce4bgqh2rcd13ifvqc5g","pricing_plan_id":"cebpf4jnsgd1na2vs0mg"},{"bike_id":"c59a5209-1b70-42df-8250-859beecf23e1","system_id":"levelo_inurba_marseille","lat":43.23172,"lon":5.3558,"is_reserved":false,"is_disabled":false,"rental_uris":{"android":"levelo://app?vid=c59a5209-1b70-42df-8250-859beecf23e1","ios":"levelo://app?vid=c59a5209-1b70-42df-8250-859beecf23e1"},"vehicle_type_id":"4","last_reported":1773177640,"current_range_meters":38400,"station_id":"ce4bhu92rcd13ifvqi70","pricing_plan_id":"cebpf4jnsgd1na2vs0mg"},{"bike_id":"e309c0de-c44d-4d33-8dac-96754e8fa3cc","system_id":"levelo_inurba_marseille","lat":43.31336,"lon":5.39701,"is_reserved":false,"is_disabled":false,"rental_uris":{"android":"levelo://app?vid=e309c0de-c44d-4d33-8dac-96754e8fa3cc","ios":"levelo://app?vid=e309c0de-c44d-4d33-8dac-96754e8fa3cc"},"vehicle_type_id":"4","last_reported":1773177640,"current_range_meters":40000,"station_id":"ce4bgvp2rcd13ifvqcu0","pricing_plan_id":"cebpf4jnsgd1na2vs0mg"},{"bike_id":"fed428a6-a508-4132-94d7-783075e10fe3","system_id":"levelo_inurba_marseille","lat":43.32368,"lon":5.36728,"is_reserved":false,"is_disabled":false,"rental_uris":{"android":"levelo://app?vid=fed428a6-a508-4132-94d7-783075e10fe3","ios":"levelo://app?vid=fed428a6-a508-4132-94d7-783075e10fe3"},"vehicle_type_id":"4","last_reported":1773177640,"current_range_meters":38000,"station_id":"ce4bhsh2rcd13ifvqi2g","pricing_plan_id":"cebpf4jnsgd1na2vs0mg"},{"bike_id":"906d13d2-107e-403c-827b-672c816f5f28","system_id":"levelo_inurba_marseille","lat":43.31285,"lon":5.40158,"is_reserved":false,"is_disabled":false,"rental_uris":{"android":"levelo://app?vid=906d13d2-107e-403c-827b-672c816f5f28","ios":"levelo://app?vid=906d13d2-107e-403c-827b-672c816f5f28"},"vehicle_type_id":"4","last_reported":1773177640,"current_range_meters":20800,"station_id":"ce4bh092rcd13ifvqd30","pricing_plan_id":"cebpf4jnsgd1na2vs0mg"},{"bike_id":"b77fb604-0801-47d9-99a2-3844aa44df9a","system_id":"levelo_inurba_marseille","lat":43.25327,"lon":5.42175,"is_reserved":false,"is_disabled":false,"rental_uris":{"android":"levelo://app?vid=b77fb604-0801-47d9-99a2-3844aa44df9a","ios":"levelo://app?vid=b77fb604-0801-47d9-99a2-3844aa44df9a"},"vehicle_type_id":"4","last_reported":1773177640,"current_range_meters":30400,"station_id":"st_d2m65c5bi1j21697t3ng","pricing_plan_id":"cebpf4jnsgd1na2vs0mg"},{"bike_id":"dcad9259-a4d3-4cc7-94fc-0c8a7321317d","system_id":"levelo_inurba_marseille","lat":43.27085,"lon":5.3831,"is_reserved":false,"is_disabled":false,"rental_uris":{"android":"levelo://app?vid=dcad9259-a4d3-4cc7-94fc-0c8a7321317d","ios":"levelo://app?vid=dcad9259-a4d3-4cc7-94fc-0c8a7321317d"},"vehicle_type_id":"4","last_reported":1773177640,"current_range_meters":32400,"station_id":"st_d3n2fo6cfp8s73cte1j0","pricing_plan_id":"cebpf4jnsgd1na2vs0mg"},{"bike_id":"54dedf02-9946-4658-9e75-e2e8b7cf4198","system_id":"levelo_inurba_marseille","lat":43.24161,"lon":5.36394,"is_reserved":false,"is_disabled":false,"rental_uris":{"android":"levelo://app?vid=54dedf02-9946-4658-9e75-e2e8b7cf4198","ios":"levelo://app?vid=54dedf02-9946-4658-9e75-e2e8b7cf4198"},"vehicle_type_id":"4","last_reported":1773177640,"current_range_meters":20000,"station_id":"cpo36qri1sfpv3e86is0","pricing_plan_id":"cebpf4jnsgd1na2vs0mg"},{"bike_id":"853d54ba-396f-4604-bb19-6d260a4870cf","system_id":"levelo_inurba_marseille","lat":43.24403,"lon":5.37029,"is_reserved":false,"is_disabled":false,"rental_uris":{"android":"levelo://app?vid=853d54ba-396f-4604-bb19-6d260a4870cf","ios":"levelo://app?vid=853d54ba-396f-4604-bb19-6d260a4870cf"},"vehicle_type_id":"4","last_reported":1773177640,"current_range_meters":11200,"station_id":"ce4bhhh2rcd13ifvqfk0","pricing_plan_id":"cebpf4jnsgd1na2vs0mg"},{"bike_id":"0bd65bd6-432d-4f03-9bc1-a502b4962690","system_id":"levelo_inurba_marseille","lat":43.29288,"lon":5.37427,"is_reserved":false,"is_disabled":false,"rental_uris":{"android":"levelo://app?vid=0bd65bd6-432d-4f03-9bc1-a502b4962690","ios":"levelo://app?vid=0bd65bd6-432d-4f03-9bc1-a502b4962690"},"vehicle_type_id":"4","last_reported":1773177640,"current_range_meters":28000,"station_id":"ce4bgi12rcd13ifvqb70","pricing_plan_id":"cebpf4jnsgd1na2vs0mg"},{"bike_id":"b6942993-6967-4f6c-b7e8-d4ca854e4d0e","system_id":"levelo_inurba_marseille","lat":43.25003,"lon":5.38955,"is_reserved":false,"is_disabled":false,"rental_uris":{"android":"levelo://app?vid=b6942993-6967-4f6c-b7e8-d4ca854e4d0e","ios":"levelo://app?vid=b6942993-6967-4f6c-b7e8-d4ca854e4d0e"},"vehicle_type_id":"4","last_reported":1773177640,"current_range_meters":39200,"station_id":"ce4bhgp2rcd13ifvqfd0","pricing_plan_id":"cebpf4jnsgd1na2vs0mg"},{"bike_id":"a3f661a0-e0b9-4cb0-b14e-dcaf0d7cced4","system_id":"levelo_inurba_marseille","lat":43.30545,"lon":5.36706,"is_reserved":false,"is_disabled":false,"rental_uris":{"android":"levelo://app?vid=a3f661a0-e0b9-4cb0-b14e-dcaf0d7cced4","ios":"levelo://app?vid=a3f661a0-e0b9-4cb0-b14e-dcaf0d7cced4"},"vehicle_type_id":"4","last_reported":1773177640,"current_range_meters":11600,"station_id":"ce4bgrp2rcd13ifvqc9g","pricing_plan_id":"cebpf4jnsgd1na2vs0mg"},{"bike_id":"a540b441-3928-4042-84dc-78cbd8de6fd0","system_id":"levelo_inurba_marseille","lat":43.24396,"lon":5.37067,"is_reserved":false,"is_disabled":false,"rental_uris":{"android":"levelo://app?vid=a540b441-3928-4042-84dc-78cbd8de6fd0","ios":"levelo://app?vid=a540b441-3928-4042-84dc-78cbd8de6fd0"},"vehicle_type_id":"4","last_reported":1773177640,"current_range_meters":36800,"station_id":"ce4bhhh2rcd13ifvqfk0","pricing_plan_id":"cebpf4jnsgd1na2vs0mg"},{"bike_id":"6cfdbc08-aee4-4c12-a1c3-a07efd50da2b","system_id":"levelo_inurba_marseille","lat":43.27962,"lon":5.41037,"is_reserved":false,"is_disabled":false,"rental_uris":{"android":"levelo://app?vid=6cfdbc08-aee4-4c12-a1c3-a07efd50da2b","ios":"levelo://app?vid=6cfdbc08-aee4-4c12-a1c3-a07efd50da2b"},"vehicle_type_id":"4","last_reported":1773177640,"current_range_meters":4400,"station_id":"ce4bhnp2rcd13ifvqh0g","pricing_plan_id":"cebpf4jnsgd1na2vs0mg"},{"bike_id":"d2a1bddb-abc2-4ccc-9c5f-dc2c9be0a497","system_id":"levelo_inurba_marseille","lat":43.29767,"lon":5.42724,"is_reserved":false,"is_disabled":false,"rental_uris":{"android":"levelo://app?vid=d2a1bddb-abc2-4ccc-9c5f-dc2c9be0a497","ios":"levelo://app?vid=d2a1bddb-abc2-4ccc-9c5f-dc2c9be0a497"},"vehicle_type_id":"4","last_reported":1773177640,"current_range_meters":3600,"station_id":"st_d3md5207bmas73dh9klg","pricing_plan_id":"cebpf4jnsgd1na2vs0mg"},{"bike_id":"dab334e7-a2a6-4a95-aea0-00ba8c9b639d","system_id":"levelo_inurba_marseille","lat":43.28421,"lon":5.35016,"is_reserved":false,"is_disabled":true,"rental_uris":{"android":"levelo://app?vid=dab334e7-a2a6-4a95-aea0-00ba8c9b639d","ios":"levelo://app?vid=dab334e7-a2a6-4a95-aea0-00ba8c9b639d"},"vehicle_type_id":"4","last_reported":1773177640,"current_range_meters":8800,"station_id":"ce4bhbh2rcd13ifvqepg","pricing_plan_id":"cebpf4jnsgd1na2vs0mg"},{"bike_id":"d8c6e0f3-6a1d-4b44-ab46-83b2eab81619","system_id":"levelo_inurba_marseille","lat":43.32351,"lon":5.36731,"is_reserved":false,"is_disabled":false,"rental_uris":{"android":"levelo://app?vid=d8c6e0f3-6a1d-4b44-ab46-83b2eab81619","ios":"levelo://app?vid=d8c6e0f3-6a1d-4b44-ab46-83b2eab81619"},"vehicle_type_id":"4","last_reported":1773177640,"current_range_meters":3600,"station_id":"ce4bhsh2rcd13ifvqi2g","pricing_plan_id":"cebpf4jnsgd1na2vs0mg"},{"bike_id":"e0553987-86c9-48db-9bc0-f9ec0cbe7005","system_id":"levelo_inurba_marseille","lat":43.28891,"lon":5.35849,"is_reserved":false,"is_disabled":false,"rental_uris":{"android":"levelo://app?vid=e0553987-86c9-48db-9bc0-f9ec0cbe7005","ios":"levelo://app?vid=e0553987-86c9-48db-9bc0-f9ec0cbe7005"},"vehicle_type_id":"4","last_reported":1773177640,"current_range_meters":36000,"station_id":"ce4bhb12rcd13ifvqem0","pricing_plan_id":"cebpf4jnsgd1na2vs0mg"},{"bike_id":"2ac129ef-0500-4e15-8179-6818cd0eb7ac","system_id":"levelo_inurba_marseille","lat":43.27067,"lon":5.42276,"is_reserved":false,"is_disabled":false,"rental_uris":{"android":"levelo://app?vid=2ac129ef-0500-4e15-8179-6818cd0eb7ac","ios":"levelo://app?vid=2ac129ef-0500-4e15-8179-6818cd0eb7ac"},"vehicle_type_id":"4","last_reported":1773177640,"current_range_meters":10000,"station_id":"ce4bhk92rcd13ifvqgb0","pricing_plan_id":"cebpf4jnsgd1na2vs0mg"},{"bike_id":"09b51f1e-4608-4273-bc57-8753e2939ff2","system_id":"levelo_inurba_marseille","lat":43.29926,"lon":5.36509,"is_reserved":false,"is_disabled":false,"rental_uris":{"android":"levelo://app?vid=09b51f1e-4608-4273-bc57-8753e2939ff2","ios":"levelo://app?vid=09b51f1e-4608-4273-bc57-8753e2939ff2"},"vehicle_type_id":"4","last_reported":1773177640,"current_range_meters":35600,"station_id":"ce4bgm92rcd13ifvqbr0","pricing_plan_id":"cebpf4jnsgd1na2vs0mg"},{"bike_id":"d798d12f-1e6e-4b08-81f3-29a3ae0dfee0","system_id":"levelo_inurba_marseille","lat":43.29695,"lon":5.37281,"is_reserved":false,"is_disabled":false,"rental_uris":{"android":"levelo://app?vid=d798d12f-1e6e-4b08-81f3-29a3ae0dfee0","ios":"levelo://app?vid=d798d12f-1e6e-4b08-81f3-29a3ae0dfee0"},"vehicle_type_id":"4","last_reported":1773177640,"current_range_meters":32000,"station_id":"ce4bgk12rcd13ifvqbj0","pricing_plan_id":"cebpf4jnsgd1na2vs0mg"},{"bike_id":"1f6883ca-9d76-41cb-9db5-68f8e91a5c05","system_id":"levelo_inurba_marseille","lat":43.279694,"lon":5.387333,"is_reserved":false,"is_disabled":false,"rental_uris":{"android":"levelo://app?vid=1f6883ca-9d76-41cb-9db5-68f8e91a5c05","ios":"levelo://app?vid=1f6883ca-9d76-41cb-9db5-68f8e91a5c05"},"vehicle_type_id":"4","last_reported":1773177640,"current_range_meters":16800,"station_id":"ce4bhg12rcd13ifvqf80","pricing_plan_id":"cebpf4jnsgd1na2vs0mg"},{"bike_id":"3ce17650-5b3e-4584-9602-c494ebe16e37","system_id":"levelo_inurba_marseille","lat":43.30243,"lon":5.40048,"is_reserved":false,"is_disabled":false,"rental_uris":{"android":"levelo://app?vid=3ce17650-5b3e-4584-9602-c494ebe16e37","ios":"levelo://app?vid=3ce17650-5b3e-4584-9602-c494ebe16e37"},"vehicle_type_id":"4","last_reported":1773177640,"current_range_meters":8000,"station_id":"ce4bgvh2rcd13ifvqcs0","pricing_plan_id":"cebpf4jnsgd1na2vs0mg"},{"bike_id":"ea2b5425-627c-410f-8b17-3b8ea575ed82","system_id":"levelo_inurba_marseille","lat":43.23177,"lon":5.39981,"is_reserved":false,"is_disabled":false,"rental_uris":{"android":"levelo://app?vid=ea2b5425-627c-410f-8b17-3b8ea575ed82","ios":"levelo://app?vid=ea2b5425-627c-410f-8b17-3b8ea575ed82"},"vehicle_type_id":"4","last_reported":1773177640,"current_range_meters":34800,"station_id":"ce4bhn12rcd13ifvqgqg","pricing_plan_id":"cebpf4jnsgd1na2vs0mg"},{"bike_id":"a8ea74be-ed16-4688-baa8-29a77a5d63a7","system_id":"levelo_inurba_marseille","lat":43.24656,"lon":5.38158,"is_reserved":false,"is_disabled":false,"rental_uris":{"android":"levelo://app?vid=a8ea74be-ed16-4688-baa8-29a77a5d63a7","ios":"levelo://app?vid=a8ea74be-ed16-4688-baa8-29a77a5d63a7"},"vehicle_type_id":"4","last_reported":1773177640,"current_range_meters":6800,"station_id":"ce4bhih2rcd13ifvqfr0","pricing_plan_id":"cebpf4jnsgd1na2vs0mg"},{"bike_id":"7c7cbe01-a04e-4be3-b5b6-edf6e0475fad","system_id":"levelo_inurba_marseille","lat":43.29879,"lon":5.39728,"is_reserved":false,"is_disabled":false,"rental_uris":{"android":"levelo://app?vid=7c7cbe01-a04e-4be3-b5b6-edf6e0475fad","ios":"levelo://app?vid=7c7cbe01-a04e-4be3-b5b6-edf6e0475fad"},"vehicle_type_id":"4","last_reported":1773177640,"current_range_meters":20800,"station_id":"ce4bh0h2rcd13ifvqd50","pricing_plan_id":"cebpf4jnsgd1na2vs0mg"},{"bike_id":"0a2f9b28-6219-4106-b011-3026133a767c","system_id":"levelo_inurba_marseille","lat":43.29602,"lon":5.38103,"is_reserved":false,"is_disabled":true,"rental_uris":{"android":"levelo://app?vid=0a2f9b28-6219-4106-b011-3026133a767c","ios":"levelo://app?vid=0a2f9b28-6219-4106-b011-3026133a767c"},"vehicle_type_id":"4","last_reported":1773177640,"current_range_meters":24400,"station_id":"ce4bgl12rcd13ifvqbo0","pricing_plan_id":"cebpf4jnsgd1na2vs0mg"},{"bike_id":"a3d84ca1-bdd2-40b3-81e8-c9df3d12f6c1","system_id":"levelo_inurba_marseille","lat":43.29528,"lon":5.39024,"is_reserved":false,"is_disabled":false,"rental_uris":{"android":"levelo://app?vid=a3d84ca1-bdd2-40b3-81e8-c9df3d12f6c1","ios":"levelo://app?vid=a3d84ca1-bdd2-40b3-81e8-c9df3d12f6c1"},"vehicle_type_id":"4","last_reported":1773177640,"current_range_meters":25600,"station_id":"ce4bh3p2rcd13ifvqdp0","pricing_plan_id":"cebpf4jnsgd1na2vs0mg"},{"bike_id":"333c1115-21ab-4cac-9273-ad709bdfe532","system_id":"levelo_inurba_marseille","lat":43.2749,"lon":5.42462,"is_reserved":false,"is_disabled":false,"rental_uris":{"android":"levelo://app?vid=333c1115-21ab-4cac-9273-ad709bdfe532","ios":"levelo://app?vid=333c1115-21ab-4cac-9273-ad709bdfe532"},"vehicle_type_id":"4","last_reported":1773177640,"current_range_meters":35600,"station_id":"ce4bhn92rcd13ifvqgrg","pricing_plan_id":"cebpf4jnsgd1na2vs0mg"},{"bike_id":"5db3c18b-50a7-4754-a03e-ef4eb3949dd5","system_id":"levelo_inurba_marseille","lat":43.29266,"lon":5.36871,"is_reserved":false,"is_disabled":false,"rental_uris":{"android":"levelo://app?vid=5db3c18b-50a7-4754-a03e-ef4eb3949dd5","ios":"levelo://app?vid=5db3c18b-50a7-4754-a03e-ef4eb3949dd5"},"vehicle_type_id":"4","last_reported":1773177640,"current_range_meters":9600,"station_id":"ce4bhbp2rcd13ifvqesg","pricing_plan_id":"cebpf4jnsgd1na2vs0mg"},{"bike_id":"474db209-38e8-4330-b23e-0b51d90d5f0a","system_id":"levelo_inurba_marseille","lat":43.29544,"lon":5.42297,"is_reserved":false,"is_disabled":false,"rental_uris":{"android":"levelo://app?vid=474db209-38e8-4330-b23e-0b51d90d5f0a","ios":"levelo://app?vid=474db209-38e8-4330-b23e-0b51d90d5f0a"},"vehicle_type_id":"4","last_reported":1773177640,"current_range_meters":39200,"station_id":"ce4bhph2rcd13ifvqhdg","pricing_plan_id":"cebpf4jnsgd1na2vs0mg"},{"bike_id":"53ac44cb-67bd-4fe8-b47b-110b609c7a81","system_id":"levelo_inurba_marseille","lat":43.25088,"lon":5.39507,"is_reserved":false,"is_disabled":false,"rental_uris":{"android":"levelo://app?vid=53ac44cb-67bd-4fe8-b47b-110b609c7a81","ios":"levelo://app?vid=53ac44cb-67bd-4fe8-b47b-110b609c7a81"},"vehicle_type_id":"4","last_reported":1773177640,"current_range_meters":39200,"station_id":"ce4bhm12rcd13ifvqgkg","pricing_plan_id":"cebpf4jnsgd1na2vs0mg"},{"bike_id":"de41fd44-36e4-4949-a72f-8ebd158d5853","system_id":"levelo_inurba_marseille","lat":43.28453,"lon":5.3588,"is_reserved":false,"is_disabled":false,"rental_uris":{"android":"levelo://app?vid=de41fd44-36e4-4949-a72f-8ebd158d5853","ios":"levelo://app?vid=de41fd44-36e4-4949-a72f-8ebd158d5853"},"vehicle_type_id":"4","last_reported":1773177640,"current_range_meters":16400,"station_id":"ce4bhah2rcd13ifvqei0","pricing_plan_id":"cebpf4jnsgd1na2vs0mg"},{"bike_id":"7c18f0e4-d362-4e80-b231-56179e94cd0a","system_id":"levelo_inurba_marseille","lat":43.27807,"lon":5.40712,"is_reserved":false,"is_disabled":false,"rental_uris":{"android":"levelo://app?vid=7c18f0e4-d362-4e80-b231-56179e94cd0a","ios":"levelo://app?vid=7c18f0e4-d362-4e80-b231-56179e94cd0a"},"vehicle_type_id":"4","last_reported":1773177640,"current_range_meters":11200,"station_id":"ce4bhnh2rcd13ifvqgtg","pricing_plan_id":"cebpf4jnsgd1na2vs0mg"},{"bike_id":"db6c5e44-badd-4aab-bfd1-70d9c79ea856","system_id":"levelo_inurba_marseille","lat":43.23781,"lon":5.36637,"is_reserved":false,"is_disabled":false,"rental_uris":{"android":"levelo://app?vid=db6c5e44-badd-4aab-bfd1-70d9c79ea856","ios":"levelo://app?vid=db6c5e44-badd-4aab-bfd1-70d9c79ea856"},"vehicle_type_id":"4","last_reported":1773177640,"current_range_meters":34000,"station_id":"st_d3nk18o9ro0c73en2l3g","pricing_plan_id":"cebpf4jnsgd1na2vs0mg"},{"bike_id":"89ad5c83-3352-47af-ba65-1bb35606d7c2","system_id":"levelo_inurba_marseille","lat":43.28981,"lon":5.37844,"is_reserved":false,"is_disabled":false,"rental_uris":{"android":"levelo://app?vid=89ad5c83-3352-47af-ba65-1bb35606d7c2","ios":"levelo://app?vid=89ad5c83-3352-47af-ba65-1bb35606d7c2"},"vehicle_type_id":"4","last_reported":1773177640,"current_range_meters":34800,"station_id":"ce4bh9p2rcd13ifvqed0","pricing_plan_id":"cebpf4jnsgd1na2vs0mg"},{"bike_id":"818705b7-2e92-4008-8c9b-fd47324c18ba","system_id":"levelo_inurba_marseille","lat":43.24999,"lon":5.38932,"is_reserved":false,"is_disabled":false,"rental_uris":{"android":"levelo://app?vid=818705b7-2e92-4008-8c9b-fd47324c18ba","ios":"levelo://app?vid=818705b7-2e92-4008-8c9b-fd47324c18ba"},"vehicle_type_id":"4","last_reported":1773177640,"current_range_meters":28400,"station_id":"ce4bhgp2rcd13ifvqfd0","pricing_plan_id":"cebpf4jnsgd1na2vs0mg"},{"bike_id":"ebd6088d-ab52-4b6d-b6be-62de3fd47906","system_id":"levelo_inurba_marseille","lat":43.30138,"lon":5.39871,"is_reserved":false,"is_disabled":true,"rental_uris":{"android":"levelo://app?vid=ebd6088d-ab52-4b6d-b6be-62de3fd47906","ios":"levelo://app?vid=ebd6088d-ab52-4b6d-b6be-62de3fd47906"},"vehicle_type_id":"4","last_reported":1773177640,"current_range_meters":23200,"station_id":"ce4bh0h2rcd13ifvqd40","pricing_plan_id":"cebpf4jnsgd1na2vs0mg"},{"bike_id":"4e5dd624-fbeb-430d-8cd8-417cc780dacb","system_id":"levelo_inurba_marseille","lat":43.29626,"lon":5.40599,"is_reserved":false,"is_disabled":false,"rental_uris":{"android":"levelo://app?vid=4e5dd624-fbeb-430d-8cd8-417cc780dacb","ios":"levelo://app?vid=4e5dd624-fbeb-430d-8cd8-417cc780dacb"},"vehicle_type_id":"4","last_reported":1773177640,"current_range_meters":18000,"station_id":"ce4bh0h2rcd13ifvqd60","pricing_plan_id":"cebpf4jnsgd1na2vs0mg"},{"bike_id":"76fe0ede-51ac-4485-88ad-82138e6f8a98","system_id":"levelo_inurba_marseille","lat":43.29535,"lon":5.38545,"is_reserved":false,"is_disabled":false,"rental_uris":{"android":"levelo://app?vid=76fe0ede-51ac-4485-88ad-82138e6f8a98","ios":"levelo://app?vid=76fe0ede-51ac-4485-88ad-82138e6f8a98"},"vehicle_type_id":"4","last_reported":1773177640,"current_range_meters":37600,"station_id":"ce4bgih2rcd13ifvqba0","pricing_plan_id":"cebpf4jnsgd1na2vs0mg"},{"bike_id":"552527b2-3992-442f-8023-61651bb7b9e6","system_id":"levelo_inurba_marseille","lat":43.24528,"lon":5.39528,"is_reserved":false,"is_disabled":true,"rental_uris":{"android":"levelo://app?vid=552527b2-3992-442f-8023-61651bb7b9e6","ios":"levelo://app?vid=552527b2-3992-442f-8023-61651bb7b9e6"},"vehicle_type_id":"4","last_reported":1773177640,"current_range_meters":30000,"station_id":"ce4bhlp2rcd13ifvqgjg","pricing_plan_id":"cebpf4jnsgd1na2vs0mg"},{"bike_id":"138d701b-4f88-4348-91ce-225d2f57e3bc","system_id":"levelo_inurba_marseille","lat":43.24073,"lon":5.37746,"is_reserved":false,"is_disabled":false,"rental_uris":{"android":"levelo://app?vid=138d701b-4f88-4348-91ce-225d2f57e3bc","ios":"levelo://app?vid=138d701b-4f88-4348-91ce-225d2f57e3bc"},"vehicle_type_id":"4","last_reported":1773177640,"current_range_meters":4400,"station_id":"ce4bhnp2rcd13ifvqgvg","pricing_plan_id":"cebpf4jnsgd1na2vs0mg"},{"bike_id":"3bb30847-837b-4c44-9e3e-b9ace5e9b620","system_id":"levelo_inurba_marseille","lat":43.29579,"lon":5.37518,"is_reserved":false,"is_disabled":true,"rental_uris":{"android":"levelo://app?vid=3bb30847-837b-4c44-9e3e-b9ace5e9b620","ios":"levelo://app?vid=3bb30847-837b-4c44-9e3e-b9ace5e9b620"},"vehicle_type_id":"4","last_reported":1773177640,"current_range_meters":3200,"station_id":"ce4bgh92rcd13ifvqb50","pricing_plan_id":"cebpf4jnsgd1na2vs0mg"},{"bike_id":"4198a94b-b036-48d2-a0ce-1c96a42b9197","system_id":"levelo_inurba_marseille","lat":43.28424,"lon":5.35015,"is_reserved":false,"is_disabled":false,"rental_uris":{"android":"levelo://app?vid=4198a94b-b036-48d2-a0ce-1c96a42b9197","ios":"levelo://app?vid=4198a94b-b036-48d2-a0ce-1c96a42b9197"},"vehicle_type_id":"4","last_reported":1773177640,"current_range_meters":32800,"station_id":"ce4bhbh2rcd13ifvqepg","pricing_plan_id":"cebpf4jnsgd1na2vs0mg"},{"bike_id":"116884d9-4a07-439b-9337-8d3d77ac1c8e","system_id":"levelo_inurba_marseille","lat":43.26051,"lon":5.39397,"is_reserved":false,"is_disabled":false,"rental_uris":{"android":"levelo://app?vid=116884d9-4a07-439b-9337-8d3d77ac1c8e","ios":"levelo://app?vid=116884d9-4a07-439b-9337-8d3d77ac1c8e"},"vehicle_type_id":"4","last_reported":1773177640,"current_range_meters":39200,"station_id":"ce4bhh92rcd13ifvqfj0","pricing_plan_id":"cebpf4jnsgd1na2vs0mg"},{"bike_id":"e50d48ed-53b5-42aa-8d06-2635f15d8cc9","system_id":"levelo_inurba_marseille","lat":43.28461,"lon":5.35888,"is_reserved":false,"is_disabled":true,"rental_uris":{"android":"levelo://app?vid=e50d48ed-53b5-42aa-8d06-2635f15d8cc9","ios":"levelo://app?vid=e50d48ed-53b5-42aa-8d06-2635f15d8cc9"},"vehicle_type_id":"4","last_reported":1773177640,"current_range_meters":3600,"station_id":"ce4bhah2rcd13ifvqei0","pricing_plan_id":"cebpf4jnsgd1na2vs0mg"},{"bike_id":"8617eb9a-d411-493c-b1fc-2b5d158e9757","system_id":"levelo_inurba_marseille","lat":43.26263,"lon":5.40429,"is_reserved":false,"is_disabled":false,"rental_uris":{"android":"levelo://app?vid=8617eb9a-d411-493c-b1fc-2b5d158e9757","ios":"levelo://app?vid=8617eb9a-d411-493c-b1fc-2b5d158e9757"},"vehicle_type_id":"4","last_reported":1773177640,"current_range_meters":10000,"station_id":"","pricing_plan_id":"cebpf4jnsgd1na2vs0mg"},{"bike_id":"23abd777-1ea1-4551-9cdb-9e7c7fae5c18","system_id":"levelo_inurba_marseille","lat":43.30784,"lon":5.38167,"is_reserved":false,"is_disabled":false,"rental_uris":{"android":"levelo://app?vid=23abd777-1ea1-4551-9cdb-9e7c7fae5c18","ios":"levelo://app?vid=23abd777-1ea1-4551-9cdb-9e7c7fae5c18"},"vehicle_type_id":"4","last_reported":1773177640,"current_range_meters":36800,"station_id":"ce4bgt12rcd13ifvqce0","pricing_plan_id":"cebpf4jnsgd1na2vs0mg"},{"bike_id":"a63d22a1-9803-47da-97c5-9eb5069b8019","system_id":"levelo_inurba_marseille","lat":43.25825,"lon":5.39431,"is_reserved":false,"is_disabled":false,"rental_uris":{"android":"levelo://app?vid=a63d22a1-9803-47da-97c5-9eb5069b8019","ios":"levelo://app?vid=a63d22a1-9803-47da-97c5-9eb5069b8019"},"vehicle_type_id":"4","last_reported":1773177640,"current_range_meters":39200,"station_id":"ce4bhip2rcd13ifvqft0","pricing_plan_id":"cebpf4jnsgd1na2vs0mg"},{"bike_id":"2a742de9-c952-4962-9f6a-5c6c22c800ed","system_id":"levelo_inurba_marseille","lat":43.31536,"lon":5.37301,"is_reserved":false,"is_disabled":false,"rental_uris":{"android":"levelo://app?vid=2a742de9-c952-4962-9f6a-5c6c22c800ed","ios":"levelo://app?vid=2a742de9-c952-4962-9f6a-5c6c22c800ed"},"vehicle_type_id":"4","last_reported":1773177640,"current_range_meters":30400,"station_id":"","pricing_plan_id":"cebpf4jnsgd1na2vs0mg"},{"bike_id":"66bcaef7-970d-40e2-9705-c85f3aeb11c5","system_id":"levelo_inurba_marseille","lat":43.30701,"lon":5.39366,"is_reserved":false,"is_disabled":false,"rental_uris":{"android":"levelo://app?vid=66bcaef7-970d-40e2-9705-c85f3aeb11c5","ios":"levelo://app?vid=66bcaef7-970d-40e2-9705-c85f3aeb11c5"},"vehicle_type_id":"4","last_reported":1773177640,"current_range_meters":8000,"station_id":"ce4bh0p2rcd13ifvqd80","pricing_plan_id":"cebpf4jnsgd1na2vs0mg"},{"bike_id":"eeb25118-f8a5-4d14-a24a-4292e25dba9a","system_id":"levelo_inurba_marseille","lat":43.29526,"lon":5.38541,"is_reserved":false,"is_disabled":false,"rental_uris":{"android":"levelo://app?vid=eeb25118-f8a5-4d14-a24a-4292e25dba9a","ios":"levelo://app?vid=eeb25118-f8a5-4d14-a24a-4292e25dba9a"},"vehicle_type_id":"4","last_reported":1773177640,"current_range_meters":22800,"station_id":"ce4bgih2rcd13ifvqba0","pricing_plan_id":"cebpf4jnsgd1na2vs0mg"},{"bike_id":"3346350d-c579-4be3-824a-1adc8dc2759b","system_id":"levelo_inurba_marseille","lat":43.29947,"lon":5.36529,"is_reserved":false,"is_disabled":false,"rental_uris":{"android":"levelo://app?vid=3346350d-c579-4be3-824a-1adc8dc2759b","ios":"levelo://app?vid=3346350d-c579-4be3-824a-1adc8dc2759b"},"vehicle_type_id":"4","last_reported":1773177640,"current_range_meters":39200,"station_id":"ce4bgm92rcd13ifvqbr0","pricing_plan_id":"cebpf4jnsgd1na2vs0mg"},{"bike_id":"8b2e521b-1101-44fe-9d4a-0344f080c81c","system_id":"levelo_inurba_marseille","lat":43.2847,"lon":5.48398,"is_reserved":false,"is_disabled":false,"rental_uris":{"android":"levelo://app?vid=8b2e521b-1101-44fe-9d4a-0344f080c81c","ios":"levelo://app?vid=8b2e521b-1101-44fe-9d4a-0344f080c81c"},"vehicle_type_id":"4","last_reported":1773177640,"current_range_meters":38400,"station_id":"","pricing_plan_id":"cebpf4jnsgd1na2vs0mg"},{"bike_id":"f83b01a4-2d1c-4875-acf0-cf79725805a2","system_id":"levelo_inurba_marseille","lat":43.2869,"lon":5.37402,"is_reserved":false,"is_disabled":false,"rental_uris":{"android":"levelo://app?vid=f83b01a4-2d1c-4875-acf0-cf79725805a2","ios":"levelo://app?vid=f83b01a4-2d1c-4875-acf0-cf79725805a2"},"vehicle_type_id":"4","last_reported":1773177640,"current_range_meters":39200,"station_id":"ce4bh3p2rcd13ifvqdq0","pricing_plan_id":"cebpf4jnsgd1na2vs0mg"},{"bike_id":"1697678c-c8a4-4c47-ade7-901915c540a8","system_id":"levelo_inurba_marseille","lat":43.2962,"lon":5.38066,"is_reserved":false,"is_disabled":true,"rental_uris":{"android":"levelo://app?vid=1697678c-c8a4-4c47-ade7-901915c540a8","ios":"levelo://app?vid=1697678c-c8a4-4c47-ade7-901915c540a8"},"vehicle_type_id":"4","last_reported":1773177640,"current_range_meters":8400,"station_id":"ce4bgl12rcd13ifvqbo0","pricing_plan_id":"cebpf4jnsgd1na2vs0mg"},{"bike_id":"3d8fac76-12aa-46a9-b037-5c9c7d6403da","system_id":"levelo_inurba_marseille","lat":43.29724,"lon":5.37677,"is_reserved":false,"is_disabled":false,"rental_uris":{"android":"levelo://app?vid=3d8fac76-12aa-46a9-b037-5c9c7d6403da","ios":"levelo://app?vid=3d8fac76-12aa-46a9-b037-5c9c7d6403da"},"vehicle_type_id":"4","last_reported":1773177640,"current_range_meters":38800,"station_id":"ce4bgkh2rcd13ifvqbl0","pricing_plan_id":"cebpf4jnsgd1na2vs0mg"},{"bike_id":"85ab2e78-a011-4a45-ade0-e44f5dd92df4","system_id":"levelo_inurba_marseille","lat":43.28682,"lon":5.38676,"is_reserved":false,"is_disabled":false,"rental_uris":{"android":"levelo://app?vid=85ab2e78-a011-4a45-ade0-e44f5dd92df4","ios":"levelo://app?vid=85ab2e78-a011-4a45-ade0-e44f5dd92df4"},"vehicle_type_id":"4","last_reported":1773177640,"current_range_meters":30400,"station_id":"ce4bh492rcd13ifvqdug","pricing_plan_id":"cebpf4jnsgd1na2vs0mg"},{"bike_id":"ffbacc37-ba5c-44cc-b5a6-4ebb97c9859b","system_id":"levelo_inurba_marseille","lat":43.29789,"lon":5.39359,"is_reserved":false,"is_disabled":false,"rental_uris":{"android":"levelo://app?vid=ffbacc37-ba5c-44cc-b5a6-4ebb97c9859b","ios":"levelo://app?vid=ffbacc37-ba5c-44cc-b5a6-4ebb97c9859b"},"vehicle_type_id":"4","last_reported":1773177640,"current_range_meters":30400,"station_id":"chh1huq6cuj3fo74tm60","pricing_plan_id":"cebpf4jnsgd1na2vs0mg"},{"bike_id":"db8d078e-42eb-4ad3-93fc-b2a69084043d","system_id":"levelo_inurba_marseille","lat":43.27823,"lon":5.40707,"is_reserved":false,"is_disabled":false,"rental_uris":{"android":"levelo://app?vid=db8d078e-42eb-4ad3-93fc-b2a69084043d","ios":"levelo://app?vid=db8d078e-42eb-4ad3-93fc-b2a69084043d"},"vehicle_type_id":"4","last_reported":1773177640,"current_range_meters":39200,"station_id":"ce4bhnh2rcd13ifvqgtg","pricing_plan_id":"cebpf4jnsgd1na2vs0mg"},{"bike_id":"c0156d5c-e369-4e87-b55f-43098af8fa12","system_id":"levelo_inurba_marseille","lat":43.29684,"lon":5.38816,"is_reserved":false,"is_disabled":false,"rental_uris":{"android":"levelo://app?vid=c0156d5c-e369-4e87-b55f-43098af8fa12","ios":"levelo://app?vid=c0156d5c-e369-4e87-b55f-43098af8fa12"},"vehicle_type_id":"4","last_reported":1773177640,"current_range_meters":8400,"station_id":"","pricing_plan_id":"cebpf4jnsgd1na2vs0mg"},{"bike_id":"b5d9d350-fef4-4aa5-a3ec-0bcf4fca99ef","system_id":"levelo_inurba_marseille","lat":43.24815,"lon":5.3746,"is_reserved":false,"is_disabled":false,"rental_uris":{"android":"levelo://app?vid=b5d9d350-fef4-4aa5-a3ec-0bcf4fca99ef","ios":"levelo://app?vid=b5d9d350-fef4-4aa5-a3ec-0bcf4fca99ef"},"vehicle_type_id":"4","last_reported":1773177640,"current_range_meters":15200,"station_id":"ce4bhgh2rcd13ifvqfb0","pricing_plan_id":"cebpf4jnsgd1na2vs0mg"},{"bike_id":"2436638b-fa42-4103-b807-af930e438fa3","system_id":"levelo_inurba_marseille","lat":43.2465,"lon":5.3889,"is_reserved":false,"is_disabled":false,"rental_uris":{"android":"levelo://app?vid=2436638b-fa42-4103-b807-af930e438fa3","ios":"levelo://app?vid=2436638b-fa42-4103-b807-af930e438fa3"},"vehicle_type_id":"4","last_reported":1773177640,"current_range_meters":16800,"station_id":"ce4bhg12rcd13ifvqf60","pricing_plan_id":"cebpf4jnsgd1na2vs0mg"},{"bike_id":"03fc81a5-57db-4a0a-a8fd-fadaaaeeedfb","system_id":"levelo_inurba_marseille","lat":43.27505,"lon":5.4243,"is_reserved":false,"is_disabled":false,"rental_uris":{"android":"levelo://app?vid=03fc81a5-57db-4a0a-a8fd-fadaaaeeedfb","ios":"levelo://app?vid=03fc81a5-57db-4a0a-a8fd-fadaaaeeedfb"},"vehicle_type_id":"4","last_reported":1773177640,"current_range_meters":36000,"station_id":"ce4bhn92rcd13ifvqgrg","pricing_plan_id":"cebpf4jnsgd1na2vs0mg"},{"bike_id":"0023be4a-f8d7-4119-9902-9d840f983567","system_id":"levelo_inurba_marseille","lat":43.30951,"lon":5.39047,"is_reserved":false,"is_disabled":false,"rental_uris":{"android":"levelo://app?vid=0023be4a-f8d7-4119-9902-9d840f983567","ios":"levelo://app?vid=0023be4a-f8d7-4119-9902-9d840f983567"},"vehicle_type_id":"4","last_reported":1773177640,"current_range_meters":20000,"station_id":"ce4bgup2rcd13ifvqco0","pricing_plan_id":"cebpf4jnsgd1na2vs0mg"},{"bike_id":"629a5b04-9225-42cf-b2f9-d31afe3f11aa","system_id":"levelo_inurba_marseille","lat":43.26548,"lon":5.37294,"is_reserved":false,"is_disabled":false,"rental_uris":{"android":"levelo://app?vid=629a5b04-9225-42cf-b2f9-d31afe3f11aa","ios":"levelo://app?vid=629a5b04-9225-42cf-b2f9-d31afe3f11aa"},"vehicle_type_id":"4","last_reported":1773177640,"current_range_meters":38000,"station_id":"ce4bhg12rcd13ifvqf70","pricing_plan_id":"cebpf4jnsgd1na2vs0mg"},{"bike_id":"d4e2833b-d854-419b-bf1d-f4634f66a2cc","system_id":"levelo_inurba_marseille","lat":43.298968,"lon":5.386645,"is_reserved":false,"is_disabled":false,"rental_uris":{"android":"levelo://app?vid=d4e2833b-d854-419b-bf1d-f4634f66a2cc","ios":"levelo://app?vid=d4e2833b-d854-419b-bf1d-f4634f66a2cc"},"vehicle_type_id":"4","last_reported":1773177640,"current_range_meters":32400,"station_id":"","pricing_plan_id":"cebpf4jnsgd1na2vs0mg"},{"bike_id":"c0f412de-40e6-4a94-a5dd-7c358ceb2433","system_id":"levelo_inurba_marseille","lat":43.23193,"lon":5.39955,"is_reserved":false,"is_disabled":false,"rental_uris":{"android":"levelo://app?vid=c0f412de-40e6-4a94-a5dd-7c358ceb2433","ios":"levelo://app?vid=c0f412de-40e6-4a94-a5dd-7c358ceb2433"},"vehicle_type_id":"4","last_reported":1773177640,"current_range_meters":39200,"station_id":"ce4bhn12rcd13ifvqgqg","pricing_plan_id":"cebpf4jnsgd1na2vs0mg"},{"bike_id":"59078b86-d101-4d08-9dab-b6f2a351f16a","system_id":"levelo_inurba_marseille","lat":43.27804,"lon":5.40715,"is_reserved":false,"is_disabled":false,"rental_uris":{"android":"levelo://app?vid=59078b86-d101-4d08-9dab-b6f2a351f16a","ios":"levelo://app?vid=59078b86-d101-4d08-9dab-b6f2a351f16a"},"vehicle_type_id":"4","last_reported":1773177640,"current_range_meters":16800,"station_id":"ce4bhnh2rcd13ifvqgtg","pricing_plan_id":"cebpf4jnsgd1na2vs0mg"},{"bike_id":"b794eabf-85f8-4e9c-b080-d478935fa77f","system_id":"levelo_inurba_marseille","lat":43.29022,"lon":5.38638,"is_reserved":false,"is_disabled":false,"rental_uris":{"android":"levelo://app?vid=b794eabf-85f8-4e9c-b080-d478935fa77f","ios":"levelo://app?vid=b794eabf-85f8-4e9c-b080-d478935fa77f"},"vehicle_type_id":"4","last_reported":1773177640,"current_range_meters":34800,"station_id":"ce4bh4p2rcd13ifvqe0g","pricing_plan_id":"cebpf4jnsgd1na2vs0mg"},{"bike_id":"231581b3-46e8-4052-85e7-dfb6a3c34fca","system_id":"levelo_inurba_marseille","lat":43.31896,"lon":5.40753,"is_reserved":false,"is_disabled":true,"rental_uris":{"android":"levelo://app?vid=231581b3-46e8-4052-85e7-dfb6a3c34fca","ios":"levelo://app?vid=231581b3-46e8-4052-85e7-dfb6a3c34fca"},"vehicle_type_id":"4","last_reported":1773177640,"current_range_meters":38000,"station_id":"ce4bhq12rcd13ifvqhig","pricing_plan_id":"cebpf4jnsgd1na2vs0mg"},{"bike_id":"c4a3cf2c-af84-4b14-b248-1c5803a5c133","system_id":"levelo_inurba_marseille","lat":43.25109,"lon":5.4033,"is_reserved":false,"is_disabled":false,"rental_uris":{"android":"levelo://app?vid=c4a3cf2c-af84-4b14-b248-1c5803a5c133","ios":"levelo://app?vid=c4a3cf2c-af84-4b14-b248-1c5803a5c133"},"vehicle_type_id":"4","last_reported":1773177640,"current_range_meters":13600,"station_id":"ce4bhlh2rcd13ifvqgig","pricing_plan_id":"cebpf4jnsgd1na2vs0mg"},{"bike_id":"2c5f6e5a-2024-45c2-90c7-7449b094d709","system_id":"levelo_inurba_marseille","lat":43.3089,"lon":5.3955,"is_reserved":false,"is_disabled":false,"rental_uris":{"android":"levelo://app?vid=2c5f6e5a-2024-45c2-90c7-7449b094d709","ios":"levelo://app?vid=2c5f6e5a-2024-45c2-90c7-7449b094d709"},"vehicle_type_id":"4","last_reported":1773177640,"current_range_meters":7200,"station_id":"","pricing_plan_id":"cebpf4jnsgd1na2vs0mg"},{"bike_id":"208e77d7-12ce-4d68-ad29-6d45eaf722f6","system_id":"levelo_inurba_marseille","lat":43.28514,"lon":5.48378,"is_reserved":false,"is_disabled":false,"rental_uris":{"android":"levelo://app?vid=208e77d7-12ce-4d68-ad29-6d45eaf722f6","ios":"levelo://app?vid=208e77d7-12ce-4d68-ad29-6d45eaf722f6"},"vehicle_type_id":"4","last_reported":1773177640,"current_range_meters":10000,"station_id":"st_d3svhcjqgbts73a3dn0g","pricing_plan_id":"cebpf4jnsgd1na2vs0mg"},{"bike_id":"a1b269cd-6814-4b75-adbd-82c649db5c6d","system_id":"levelo_inurba_marseille","lat":43.31264,"lon":5.36945,"is_reserved":false,"is_disabled":false,"rental_uris":{"android":"levelo://app?vid=a1b269cd-6814-4b75-adbd-82c649db5c6d","ios":"levelo://app?vid=a1b269cd-6814-4b75-adbd-82c649db5c6d"},"vehicle_type_id":"4","last_reported":1773177640,"current_range_meters":39200,"station_id":"","pricing_plan_id":"cebpf4jnsgd1na2vs0mg"},{"bike_id":"31eab7aa-d2ff-4d19-8af0-c2c63f0c6b5f","system_id":"levelo_inurba_marseille","lat":43.23197,"lon":5.35572,"is_reserved":false,"is_disabled":false,"rental_uris":{"android":"levelo://app?vid=31eab7aa-d2ff-4d19-8af0-c2c63f0c6b5f","ios":"levelo://app?vid=31eab7aa-d2ff-4d19-8af0-c2c63f0c6b5f"},"vehicle_type_id":"4","last_reported":1773177640,"current_range_meters":27200,"station_id":"ce4bhu92rcd13ifvqi70","pricing_plan_id":"cebpf4jnsgd1na2vs0mg"},{"bike_id":"79ecbdb9-5889-49c2-82c8-d38b79c305e0","system_id":"levelo_inurba_marseille","lat":43.32109,"lon":5.36771,"is_reserved":false,"is_disabled":false,"rental_uris":{"android":"levelo://app?vid=79ecbdb9-5889-49c2-82c8-d38b79c305e0","ios":"levelo://app?vid=79ecbdb9-5889-49c2-82c8-d38b79c305e0"},"vehicle_type_id":"4","last_reported":1773177640,"current_range_meters":4800,"station_id":"ce4bhrh2rcd13ifvqhug","pricing_plan_id":"cebpf4jnsgd1na2vs0mg"},{"bike_id":"39213f40-76b1-4795-8bb1-d4971a70523a","system_id":"levelo_inurba_marseille","lat":43.27992,"lon":5.40015,"is_reserved":false,"is_disabled":false,"rental_uris":{"android":"levelo://app?vid=39213f40-76b1-4795-8bb1-d4971a70523a","ios":"levelo://app?vid=39213f40-76b1-4795-8bb1-d4971a70523a"},"vehicle_type_id":"4","last_reported":1773177640,"current_range_meters":34000,"station_id":"ce4bho92rcd13ifvqh4g","pricing_plan_id":"cebpf4jnsgd1na2vs0mg"},{"bike_id":"b20caa4a-d345-4fdc-b025-b28c8dd1d4de","system_id":"levelo_inurba_marseille","lat":43.26678,"lon":5.38266,"is_reserved":false,"is_disabled":false,"rental_uris":{"android":"levelo://app?vid=b20caa4a-d345-4fdc-b025-b28c8dd1d4de","ios":"levelo://app?vid=b20caa4a-d345-4fdc-b025-b28c8dd1d4de"},