{"last_updated":1729760976,"ttl":60,"version":"2.2","data":{"bikes":[{"bike_id":"6bb28513-7ba6-4d73-94c5-cbf1dfef8b42","system_id":"levelo_inurba_marseille","lat":43.32487,"lon":5.36559,"is_reserved":false,"is_disabled":false,"rental_uris":{"android":"levelo://app?vid=6bb28513-7ba6-4d73-94c5-cbf1dfef8b42","ios":"levelo://app?vid=6bb28513-7ba6-4d73-94c5-cbf1dfef8b42"},"vehicle_type_id":"4","last_reported":1729760976,"current_range_meters":25200,"station_id":"ce4bhs12rcd13ifvqhvg","pricing_plan_id":"cebpf4jnsgd1na2vs0mg"},{"bike_id":"6e7189c8-6d34-4945-8fbf-b2a1a37960a8","system_id":"levelo_inurba_marseille","lat":43.3171,"lon":5.37757,"is_reserved":false,"is_disabled":false,"rental_uris":{"android":"levelo://app?vid=6e7189c8-6d34-4945-8fbf-b2a1a37960a8","ios":"levelo://app?vid=6e7189c8-6d34-4945-8fbf-b2a1a37960a8"},"vehicle_type_id":"4","last_reported":1729760976,"current_range_meters":24000,"station_id":"ce4bgth2rcd13ifvqch0","pricing_plan_id":"cebpf4jnsgd1na2vs0mg"},{"bike_id":"1b3b229b-dfff-428f-a70e-345d2f904bc3","system_id":"levelo_inurba_marseille","lat":43.25821,"lon":5.39431,"is_reserved":false,"is_disabled":false,"rental_uris":{"android":"levelo://app?vid=1b3b229b-dfff-428f-a70e-345d2f904bc3","ios":"levelo://app?vid=1b3b229b-dfff-428f-a70e-345d2f904bc3"},"vehicle_type_id":"4","last_reported":1729760976,"current_range_meters":31200,"station_id":"ce4bhip2rcd13ifvqft0","pricing_plan_id":"cebpf4jnsgd1na2vs0mg"},{"bike_id":"4e718520-217c-4986-8e4a-4dbcae9b7210","system_id":"levelo_inurba_marseille","lat":43.27987,"lon":5.41655,"is_reserved":false,"is_disabled":false,"rental_uris":{"android":"levelo://app?vid=4e718520-217c-4986-8e4a-4dbcae9b7210","ios":"levelo://app?vid=4e718520-217c-4986-8e4a-4dbcae9b7210"},"vehicle_type_id":"4","last_reported":1729760976,"current_range_meters":9200,"station_id":"ce4bho12rcd13ifvqh1g","pricing_plan_id":"cebpf4jnsgd1na2vs0mg"},{"bike_id":"35295ab7-6908-4c64-ba9e-e0a0a887d032","system_id":"levelo_inurba_marseille","lat":43.29632,"lon":5.40594,"is_reserved":false,"is_disabled":false,"rental_uris":{"android":"levelo://app?vid=35295ab7-6908-4c64-ba9e-e0a0a887d032","ios":"levelo://app?vid=35295ab7-6908-4c64-ba9e-e0a0a887d032"},"vehicle_type_id":"4","last_reported":1729760976,"current_range_meters":16400,"station_id":"ce4bh0h2rcd13ifvqd60","pricing_plan_id":"cebpf4jnsgd1na2vs0mg"},{"bike_id":"d645e0cf-57e5-4f52-9080-98904e940886","system_id":"levelo_inurba_marseille","lat":43.27942,"lon":5.41051,"is_reserved":false,"is_disabled":false,"rental_uris":{"android":"levelo://app?vid=d645e0cf-57e5-4f52-9080-98904e940886","ios":"levelo://app?vid=d645e0cf-57e5-4f52-9080-98904e940886"},"vehicle_type_id":"4","last_reported":1729760976,"current_range_meters":16800,"station_id":"ce4bhnp2rcd13ifvqh0g","pricing_plan_id":"cebpf4jnsgd1na2vs0mg"},{"bike_id":"449bf265-b5c6-4133-bfcc-04eb47e57c72","system_id":"levelo_inurba_marseille","lat":43.26686,"lon":5.38279,"is_reserved":false,"is_disabled":false,"rental_uris":{"android":"levelo://app?vid=449bf265-b5c6-4133-bfcc-04eb47e57c72","ios":"levelo://app?vid=449bf265-b5c6-4133-bfcc-04eb47e57c72"},"vehicle_type_id":"4","last_reported":1729760976,"current_range_meters":36000,"station_id":"ce4bhg92rcd13ifvqf90","pricing_plan_id":"cebpf4jnsgd1na2vs0mg"},{"bike_id":"cf00bfcd-9f87-4011-81c6-4541ee31d8cd","system_id":"levelo_inurba_marseille","lat":43.3135,"lon":5.36706,"is_reserved":false,"is_disabled":false,"rental_uris":{"android":"levelo://app?vid=cf00bfcd-9f87-4011-81c6-4541ee31d8cd","ios":"levelo://app?vid=cf00bfcd-9f87-4011-81c6-4541ee31d8cd"},"vehicle_type_id":"4","last_reported":1729760976,"current_range_meters":39200,"station_id":"ce4bgr92rcd13ifvqc6g","pricing_plan_id":"cebpf4jnsgd1na2vs0mg"},{"bike_id":"bd6793f3-3830-4fde-92b1-0fe6e083ec37","system_id":"levelo_inurba_marseille","lat":43.2937,"lon":5.37861,"is_reserved":false,"is_disabled":false,"rental_uris":{"android":"levelo://app?vid=bd6793f3-3830-4fde-92b1-0fe6e083ec37","ios":"levelo://app?vid=bd6793f3-3830-4fde-92b1-0fe6e083ec37"},"vehicle_type_id":"4","last_reported":1729760976,"current_range_meters":17600,"station_id":"ce4bgjh2rcd13ifvqbf0","pricing_plan_id":"cebpf4jnsgd1na2vs0mg"},{"bike_id":"21c7101c-ca4b-4c55-b4b1-4130a4e6a9f4","system_id":"levelo_inurba_marseille","lat":43.30548,"lon":5.36706,"is_reserved":false,"is_disabled":false,"rental_uris":{"android":"levelo://app?vid=21c7101c-ca4b-4c55-b4b1-4130a4e6a9f4","ios":"levelo://app?vid=21c7101c-ca4b-4c55-b4b1-4130a4e6a9f4"},"vehicle_type_id":"4","last_reported":1729760976,"current_range_meters":38800,"station_id":"ce4bgrp2rcd13ifvqc9g","pricing_plan_id":"cebpf4jnsgd1na2vs0mg"},{"bike_id":"e309b298-e094-467e-aed7-013e823b4798","system_id":"levelo_inurba_marseille","lat":43.27369,"lon":5.36258,"is_reserved":false,"is_disabled":false,"rental_uris":{"android":"levelo://app?vid=e309b298-e094-467e-aed7-013e823b4798","ios":"levelo://app?vid=e309b298-e094-467e-aed7-013e823b4798"},"vehicle_type_id":"4","last_reported":1729760976,"current_range_meters":28000,"station_id":"ce4bhbh2rcd13ifvqeo0","pricing_plan_id":"cebpf4jnsgd1na2vs0mg"},{"bike_id":"9f074ccd-7b5d-4615-a0de-1df1963b28b4","system_id":"levelo_inurba_marseille","lat":43.31503,"lon":5.373,"is_reserved":false,"is_disabled":false,"rental_uris":{"android":"levelo://app?vid=9f074ccd-7b5d-4615-a0de-1df1963b28b4","ios":"levelo://app?vid=9f074ccd-7b5d-4615-a0de-1df1963b28b4"},"vehicle_type_id":"4","last_reported":1729760976,"current_range_meters":5600,"station_id":"ce4bgt12rcd13ifvqcd0","pricing_plan_id":"cebpf4jnsgd1na2vs0mg"},{"bike_id":"fb6b3c04-07a4-42c5-aeaa-3671d29a6c0d","system_id":"levelo_inurba_marseille","lat":43.29577,"lon":5.3999,"is_reserved":false,"is_disabled":false,"rental_uris":{"android":"levelo://app?vid=fb6b3c04-07a4-42c5-aeaa-3671d29a6c0d","ios":"levelo://app?vid=fb6b3c04-07a4-42c5-aeaa-3671d29a6c0d"},"vehicle_type_id":"4","last_reported":1729760976,"current_range_meters":35600,"station_id":"ce4bh312rcd13ifvqdj0","pricing_plan_id":"cebpf4jnsgd1na2vs0mg"},{"bike_id":"689d3339-c95f-4309-b9b2-1e1691bfc196","system_id":"levelo_inurba_marseille","lat":43.26216,"lon":5.37439,"is_reserved":false,"is_disabled":false,"rental_uris":{"android":"levelo://app?vid=689d3339-c95f-4309-b9b2-1e1691bfc196","ios":"levelo://app?vid=689d3339-c95f-4309-b9b2-1e1691bfc196"},"vehicle_type_id":"4","last_reported":1729760976,"current_range_meters":30800,"station_id":"ce4bhgp2rcd13ifvqfc0","pricing_plan_id":"cebpf4jnsgd1na2vs0mg"},{"bike_id":"2f0838b1-1d12-41db-b771-0d96c14d00b5","system_id":"levelo_inurba_marseille","lat":43.30561,"lon":5.3654,"is_reserved":false,"is_disabled":false,"rental_uris":{"android":"levelo://app?vid=2f0838b1-1d12-41db-b771-0d96c14d00b5","ios":"levelo://app?vid=2f0838b1-1d12-41db-b771-0d96c14d00b5"},"vehicle_type_id":"4","last_reported":1729760976,"current_range_meters":38800,"station_id":"ce4bgs12rcd13ifvqcag","pricing_plan_id":"cebpf4jnsgd1na2vs0mg"},{"bike_id":"0a1b479d-52cc-43be-b555-b0ec65cfda36","system_id":"levelo_inurba_marseille","lat":43.24075,"lon":5.37769,"is_reserved":false,"is_disabled":false,"rental_uris":{"android":"levelo://app?vid=0a1b479d-52cc-43be-b555-b0ec65cfda36","ios":"levelo://app?vid=0a1b479d-52cc-43be-b555-b0ec65cfda36"},"vehicle_type_id":"4","last_reported":1729760976,"current_range_meters":38000,"station_id":"ce4bhnp2rcd13ifvqgvg","pricing_plan_id":"cebpf4jnsgd1na2vs0mg"},{"bike_id":"04cacd45-3145-4dfe-94dd-4f708911ef95","system_id":"levelo_inurba_marseille","lat":43.31272,"lon":5.40168,"is_reserved":false,"is_disabled":false,"rental_uris":{"android":"levelo://app?vid=04cacd45-3145-4dfe-94dd-4f708911ef95","ios":"levelo://app?vid=04cacd45-3145-4dfe-94dd-4f708911ef95"},"vehicle_type_id":"4","last_reported":1729760976,"current_range_meters":38800,"station_id":"ce4bh092rcd13ifvqd30","pricing_plan_id":"cebpf4jnsgd1na2vs0mg"},{"bike_id":"93b004d5-e088-4995-a4b0-f34bd0d548c5","system_id":"levelo_inurba_marseille","lat":43.33733,"lon":5.39183,"is_reserved":false,"is_disabled":false,"rental_uris":{"android":"levelo://app?vid=93b004d5-e088-4995-a4b0-f34bd0d548c5","ios":"levelo://app?vid=93b004d5-e088-4995-a4b0-f34bd0d548c5"},"vehicle_type_id":"4","last_reported":1729760976,"current_range_meters":27600,"station_id":"ce4bhr92rcd13ifvqhsg","pricing_plan_id":"cebpf4jnsgd1na2vs0mg"},{"bike_id":"29022cab-0aa3-4fff-9ddc-958bddb55705","system_id":"levelo_inurba_marseille","lat":43.30792,"lon":5.38246,"is_reserved":false,"is_disabled":false,"rental_uris":{"android":"levelo://app?vid=29022cab-0aa3-4fff-9ddc-958bddb55705","ios":"levelo://app?vid=29022cab-0aa3-4fff-9ddc-958bddb55705"},"vehicle_type_id":"4","last_reported":1729760976,"current_range_meters":24400,"station_id":"ce4bgqh2rcd13ifvqc4g","pricing_plan_id":"cebpf4jnsgd1na2vs0mg"},{"bike_id":"4bc556d1-8c4a-4826-980e-3c727a5fa64e","system_id":"levelo_inurba_marseille","lat":43.28451,"lon":5.39203,"is_reserved":false,"is_disabled":false,"rental_uris":{"android":"levelo://app?vid=4bc556d1-8c4a-4826-980e-3c727a5fa64e","ios":"levelo://app?vid=4bc556d1-8c4a-4826-980e-3c727a5fa64e"},"vehicle_type_id":"4","last_reported":1729760976,"current_range_meters":28000,"station_id":"ce4bhoh2rcd13ifvqh5g","pricing_plan_id":"cebpf4jnsgd1na2vs0mg"},{"bike_id":"588b1877-325e-459a-8e45-72da13d0e118","system_id":"levelo_inurba_marseille","lat":43.28442,"lon":5.39185,"is_reserved":false,"is_disabled":false,"rental_uris":{"android":"levelo://app?vid=588b1877-325e-459a-8e45-72da13d0e118","ios":"levelo://app?vid=588b1877-325e-459a-8e45-72da13d0e118"},"vehicle_type_id":"4","last_reported":1729760976,"current_range_meters":7200,"station_id":"ce4bhoh2rcd13ifvqh5g","pricing_plan_id":"cebpf4jnsgd1na2vs0mg"},{"bike_id":"7a632fec-0e5c-4d95-9f73-b6a9f3a4cd45","system_id":"levelo_inurba_marseille","lat":43.31998,"lon":5.38165,"is_reserved":false,"is_disabled":false,"rental_uris":{"android":"levelo://app?vid=7a632fec-0e5c-4d95-9f73-b6a9f3a4cd45","ios":"levelo://app?vid=7a632fec-0e5c-4d95-9f73-b6a9f3a4cd45"},"vehicle_type_id":"4","last_reported":1729760976,"current_range_meters":24800,"station_id":"ce4bhr12rcd13ifvqhpg","pricing_plan_id":"cebpf4jnsgd1na2vs0mg"},{"bike_id":"c921cf07-fcd7-4226-b27e-5b71c96be01a","system_id":"levelo_inurba_marseille","lat":43.26489,"lon":5.39545,"is_reserved":false,"is_disabled":false,"rental_uris":{"android":"levelo://app?vid=c921cf07-fcd7-4226-b27e-5b71c96be01a","ios":"levelo://app?vid=c921cf07-fcd7-4226-b27e-5b71c96be01a"},"vehicle_type_id":"4","last_reported":1729760976,"current_range_meters":37600,"station_id":"ce4bhi12rcd13ifvqfq0","pricing_plan_id":"cebpf4jnsgd1na2vs0mg"},{"bike_id":"cc9315d9-2520-4cc1-8b0e-7c92bd8403db","system_id":"levelo_inurba_marseille","lat":43.25863,"lon":5.39898,"is_reserved":false,"is_disabled":false,"rental_uris":{"android":"levelo://app?vid=cc9315d9-2520-4cc1-8b0e-7c92bd8403db","ios":"levelo://app?vid=cc9315d9-2520-4cc1-8b0e-7c92bd8403db"},"vehicle_type_id":"4","last_reported":1729760976,"current_range_meters":8400,"station_id":"ce4bhl92rcd13ifvqghg","pricing_plan_id":"cebpf4jnsgd1na2vs0mg"},{"bike_id":"fa2da3a9-4ef7-4585-99f4-25c1791b5036","system_id":"levelo_inurba_marseille","lat":43.29582,"lon":5.36746,"is_reserved":false,"is_disabled":false,"rental_uris":{"android":"levelo://app?vid=fa2da3a9-4ef7-4585-99f4-25c1791b5036","ios":"levelo://app?vid=fa2da3a9-4ef7-4585-99f4-25c1791b5036"},"vehicle_type_id":"4","last_reported":1729760976,"current_range_meters":25200,"station_id":"ce4bgph2rcd13ifvqc2g","pricing_plan_id":"cebpf4jnsgd1na2vs0mg"},{"bike_id":"a6acf5f1-7ac4-47d4-bd89-34e5b02347dc","system_id":"levelo_inurba_marseille","lat":43.293365,"lon":5.371681,"is_reserved":false,"is_disabled":false,"rental_uris":{"android":"levelo://app?vid=a6acf5f1-7ac4-47d4-bd89-34e5b02347dc","ios":"levelo://app?vid=a6acf5f1-7ac4-47d4-bd89-34e5b02347dc"},"vehicle_type_id":"4","last_reported":1729760976,"current_range_meters":14000,"station_id":"ce4bgh92rcd13ifvqb40","pricing_plan_id":"cebpf4jnsgd1na2vs0mg"},{"bike_id":"b88e4dc5-5503-4994-89af-e505032e0648","system_id":"levelo_inurba_marseille","lat":43.30546,"lon":5.36529,"is_reserved":false,"is_disabled":false,"rental_uris":{"android":"levelo://app?vid=b88e4dc5-5503-4994-89af-e505032e0648","ios":"levelo://app?vid=b88e4dc5-5503-4994-89af-e505032e0648"},"vehicle_type_id":"4","last_reported":1729760976,"current_range_meters":39200,"station_id":"ce4bgs12rcd13ifvqcag","pricing_plan_id":"cebpf4jnsgd1na2vs0mg"},{"bike_id":"3e6dacef-7721-4fd6-908f-05fbf9bc0354","system_id":"levelo_inurba_marseille","lat":43.23194,"lon":5.35548,"is_reserved":false,"is_disabled":false,"rental_uris":{"android":"levelo://app?vid=3e6dacef-7721-4fd6-908f-05fbf9bc0354","ios":"levelo://app?vid=3e6dacef-7721-4fd6-908f-05fbf9bc0354"},"vehicle_type_id":"4","last_reported":1729760976,"current_range_meters":37600,"station_id":"ce4bhu92rcd13ifvqi70","pricing_plan_id":"cebpf4jnsgd1na2vs0mg"},{"bike_id":"0238450d-25c9-4421-8c04-eedecf1641c7","system_id":"levelo_inurba_marseille","lat":43.29727,"lon":5.37701,"is_reserved":false,"is_disabled":false,"rental_uris":{"android":"levelo://app?vid=0238450d-25c9-4421-8c04-eedecf1641c7","ios":"levelo://app?vid=0238450d-25c9-4421-8c04-eedecf1641c7"},"vehicle_type_id":"4","last_reported":1729760976,"current_range_meters":30400,"station_id":"ce4bgkh2rcd13ifvqbl0","pricing_plan_id":"cebpf4jnsgd1na2vs0mg"},{"bike_id":"58e86890-2928-4e3e-98e3-56e00009da16","system_id":"levelo_inurba_marseille","lat":43.27205,"lon":5.39185,"is_reserved":false,"is_disabled":false,"rental_uris":{"android":"levelo://app?vid=58e86890-2928-4e3e-98e3-56e00009da16","ios":"levelo://app?vid=58e86890-2928-4e3e-98e3-56e00009da16"},"vehicle_type_id":"4","last_reported":1729760976,"current_range_meters":36400,"station_id":"ce4bhhp2rcd13ifvqfm0","pricing_plan_id":"cebpf4jnsgd1na2vs0mg"},{"bike_id":"43625689-ac1a-41b4-ab73-66d27a8da837","system_id":"levelo_inurba_marseille","lat":43.24178,"lon":5.39717,"is_reserved":false,"is_disabled":false,"rental_uris":{"android":"levelo://app?vid=43625689-ac1a-41b4-ab73-66d27a8da837","ios":"levelo://app?vid=43625689-ac1a-41b4-ab73-66d27a8da837"},"vehicle_type_id":"4","last_reported":1729760976,"current_range_meters":31200,"station_id":"ce4bhn12rcd13ifvqgpg","pricing_plan_id":"cebpf4jnsgd1na2vs0mg"},{"bike_id":"97ce6431-cdfe-4c86-8575-534875aed7f5","system_id":"levelo_inurba_marseille","lat":43.3053,"lon":5.36659,"is_reserved":false,"is_disabled":false,"rental_uris":{"android":"levelo://app?vid=97ce6431-cdfe-4c86-8575-534875aed7f5","ios":"levelo://app?vid=97ce6431-cdfe-4c86-8575-534875aed7f5"},"vehicle_type_id":"4","last_reported":1729760976,"current_range_meters":8000,"station_id":"","pricing_plan_id":"cebpf4jnsgd1na2vs0mg"},{"bike_id":"bc4efb73-4734-4293-a1eb-82c722d0ec12","system_id":"levelo_inurba_marseille","lat":43.25503,"lon":5.37649,"is_reserved":false,"is_disabled":false,"rental_uris":{"android":"levelo://app?vid=bc4efb73-4734-4293-a1eb-82c722d0ec12","ios":"levelo://app?vid=bc4efb73-4734-4293-a1eb-82c722d0ec12"},"vehicle_type_id":"4","last_reported":1729760976,"current_range_meters":37600,"station_id":"ce4bhh12rcd13ifvqff0","pricing_plan_id":"cebpf4jnsgd1na2vs0mg"},{"bike_id":"b69d0c64-0724-4563-ab4e-cdb5166b1cd5","system_id":"levelo_inurba_marseille","lat":43.3311,"lon":5.382089,"is_reserved":false,"is_disabled":false,"rental_uris":{"android":"levelo://app?vid=b69d0c64-0724-4563-ab4e-cdb5166b1cd5","ios":"levelo://app?vid=b69d0c64-0724-4563-ab4e-cdb5166b1cd5"},"vehicle_type_id":"4","last_reported":1729760976,"current_range_meters":21600,"station_id":"","pricing_plan_id":"cebpf4jnsgd1na2vs0mg"},{"bike_id":"e05535c8-56a4-4714-aaa2-9ead5e6ba38b","system_id":"levelo_inurba_marseille","lat":43.25931,"lon":5.40912,"is_reserved":false,"is_disabled":false,"rental_uris":{"android":"levelo://app?vid=e05535c8-56a4-4714-aaa2-9ead5e6ba38b","ios":"levelo://app?vid=e05535c8-56a4-4714-aaa2-9ead5e6ba38b"},"vehicle_type_id":"4","last_reported":1729760976,"current_range_meters":27200,"station_id":"ce4bhm92rcd13ifvqglg","pricing_plan_id":"cebpf4jnsgd1na2vs0mg"},{"bike_id":"76a79ecc-f819-43ef-ab20-dd2cfb29f6c0","system_id":"levelo_inurba_marseille","lat":43.32106,"lon":5.36772,"is_reserved":false,"is_disabled":false,"rental_uris":{"android":"levelo://app?vid=76a79ecc-f819-43ef-ab20-dd2cfb29f6c0","ios":"levelo://app?vid=76a79ecc-f819-43ef-ab20-dd2cfb29f6c0"},"vehicle_type_id":"4","last_reported":1729760976,"current_range_meters":9600,"station_id":"ce4bhrh2rcd13ifvqhug","pricing_plan_id":"cebpf4jnsgd1na2vs0mg"},{"bike_id":"3f19cc59-921c-4b5c-a6d7-157944f52c88","system_id":"levelo_inurba_marseille","lat":43.3054,"lon":5.38435,"is_reserved":false,"is_disabled":false,"rental_uris":{"android":"levelo://app?vid=3f19cc59-921c-4b5c-a6d7-157944f52c88","ios":"levelo://app?vid=3f19cc59-921c-4b5c-a6d7-157944f52c88"},"vehicle_type_id":"4","last_reported":1729760976,"current_range_meters":26000,"station_id":"ce4bgg92rcd13ifvqb30","pricing_plan_id":"cebpf4jnsgd1na2vs0mg"},{"bike_id":"67fc909c-3820-48d9-a4af-ea6bbe1c49b9","system_id":"levelo_inurba_marseille","lat":43.28426,"lon":5.34985,"is_reserved":false,"is_disabled":false,"rental_uris":{"android":"levelo://app?vid=67fc909c-3820-48d9-a4af-ea6bbe1c49b9","ios":"levelo://app?vid=67fc909c-3820-48d9-a4af-ea6bbe1c49b9"},"vehicle_type_id":"4","last_reported":1729760976,"current_range_meters":32000,"station_id":"ce4bhbh2rcd13ifvqepg","pricing_plan_id":"cebpf4jnsgd1na2vs0mg"},{"bike_id":"ad620477-6535-4563-b912-7017fc201600","system_id":"levelo_inurba_marseille","lat":43.24546,"lon":5.39524,"is_reserved":false,"is_disabled":false,"rental_uris":{"android":"levelo://app?vid=ad620477-6535-4563-b912-7017fc201600","ios":"levelo://app?vid=ad620477-6535-4563-b912-7017fc201600"},"vehicle_type_id":"4","last_reported":1729760976,"current_range_meters":30000,"station_id":"ce4bhlp2rcd13ifvqgjg","pricing_plan_id":"cebpf4jnsgd1na2vs0mg"},{"bike_id":"47f1d154-e358-4f71-b60f-46ac7b019b25","system_id":"levelo_inurba_marseille","lat":43.2909,"lon":5.38154,"is_reserved":false,"is_disabled":false,"rental_uris":{"android":"levelo://app?vid=47f1d154-e358-4f71-b60f-46ac7b019b25","ios":"levelo://app?vid=47f1d154-e358-4f71-b60f-46ac7b019b25"},"vehicle_type_id":"4","last_reported":1729760976,"current_range_meters":32000,"station_id":"ce4bh512rcd13ifvqe2g","pricing_plan_id":"cebpf4jnsgd1na2vs0mg"},{"bike_id":"819a3f8f-6125-4610-bff4-124ace204ca6","system_id":"levelo_inurba_marseille","lat":43.29308,"lon":5.37459,"is_reserved":false,"is_disabled":false,"rental_uris":{"android":"levelo://app?vid=819a3f8f-6125-4610-bff4-124ace204ca6","ios":"levelo://app?vid=819a3f8f-6125-4610-bff4-124ace204ca6"},"vehicle_type_id":"4","last_reported":1729760976,"current_range_meters":11200,"station_id":"ce4bgi12rcd13ifvqb70","pricing_plan_id":"cebpf4jnsgd1na2vs0mg"},{"bike_id":"07ae06f7-0adb-4e4d-beb2-862066df0ee5","system_id":"levelo_inurba_marseille","lat":43.300873,"lon":5.370931,"is_reserved":false,"is_disabled":false,"rental_uris":{"android":"levelo://app?vid=07ae06f7-0adb-4e4d-beb2-862066df0ee5","ios":"levelo://app?vid=07ae06f7-0adb-4e4d-beb2-862066df0ee5"},"vehicle_type_id":"4","last_reported":1729760976,"current_range_meters":22400,"station_id":"ce4bgr92rcd13ifvqc7g","pricing_plan_id":"cebpf4jnsgd1na2vs0mg"},{"bike_id":"8e40de37-296d-47ae-a26b-2fc39d683675","system_id":"levelo_inurba_marseille","lat":43.2594,"lon":5.40919,"is_reserved":false,"is_disabled":false,"rental_uris":{"android":"levelo://app?vid=8e40de37-296d-47ae-a26b-2fc39d683675","ios":"levelo://app?vid=8e40de37-296d-47ae-a26b-2fc39d683675"},"vehicle_type_id":"4","last_reported":1729760976,"current_range_meters":27200,"station_id":"ce4bhm92rcd13ifvqglg","pricing_plan_id":"cebpf4jnsgd1na2vs0mg"},{"bike_id":"d559dc1b-ba63-4390-a50c-92e4adeb1a9d","system_id":"levelo_inurba_marseille","lat":43.25944,"lon":5.40893,"is_reserved":false,"is_disabled":false,"rental_uris":{"android":"levelo://app?vid=d559dc1b-ba63-4390-a50c-92e4adeb1a9d","ios":"levelo://app?vid=d559dc1b-ba63-4390-a50c-92e4adeb1a9d"},"vehicle_type_id":"4","last_reported":1729760976,"current_range_meters":8400,"station_id":"ce4bhm92rcd13ifvqglg","pricing_plan_id":"cebpf4jnsgd1na2vs0mg"},{"bike_id":"5180379b-fbfd-429b-bac6-14031fe35466","system_id":"levelo_inurba_marseille","lat":43.3361,"lon":5.41031,"is_reserved":false,"is_disabled":false,"rental_uris":{"android":"levelo://app?vid=5180379b-fbfd-429b-bac6-14031fe35466","ios":"levelo://app?vid=5180379b-fbfd-429b-bac6-14031fe35466"},"vehicle_type_id":"4","last_reported":1729760976,"current_range_meters":38800,"station_id":"ce4bhqh2rcd13ifvqhmg","pricing_plan_id":"cebpf4jnsgd1na2vs0mg"},{"bike_id":"d4840c28-109b-4edb-8adb-dc46747a64dc","system_id":"levelo_inurba_marseille","lat":43.3043,"lon":5.3889,"is_reserved":false,"is_disabled":false,"rental_uris":{"android":"levelo://app?vid=d4840c28-109b-4edb-8adb-dc46747a64dc","ios":"levelo://app?vid=d4840c28-109b-4edb-8adb-dc46747a64dc"},"vehicle_type_id":"4","last_reported":1729760976,"current_range_meters":14400,"station_id":"ce4bgk12rcd13ifvqbi0","pricing_plan_id":"cebpf4jnsgd1na2vs0mg"},{"bike_id":"1d975029-ce30-415c-8e20-ed5f14a199f2","system_id":"levelo_inurba_marseille","lat":43.28944,"lon":5.39633,"is_reserved":false,"is_disabled":false,"rental_uris":{"android":"levelo://app?vid=1d975029-ce30-415c-8e20-ed5f14a199f2","ios":"levelo://app?vid=1d975029-ce30-415c-8e20-ed5f14a199f2"},"vehicle_type_id":"4","last_reported":1729760976,"current_range_meters":38800,"station_id":"ce4bh3h2rcd13ifvqdn0","pricing_plan_id":"cebpf4jnsgd1na2vs0mg"},{"bike_id":"cfa443ee-a1d4-48cc-97b0-2b7fa06601a5","system_id":"levelo_inurba_marseille","lat":43.2998,"lon":5.37178,"is_reserved":false,"is_disabled":false,"rental_uris":{"android":"levelo://app?vid=cfa443ee-a1d4-48cc-97b0-2b7fa06601a5","ios":"levelo://app?vid=cfa443ee-a1d4-48cc-97b0-2b7fa06601a5"},"vehicle_type_id":"4","last_reported":1729760976,"current_range_meters":18000,"station_id":"ce4bgr92rcd13ifvqc7g","pricing_plan_id":"cebpf4jnsgd1na2vs0mg"},{"bike_id":"e38d6abe-d29c-478e-8db0-3b610855bfb5","system_id":"levelo_inurba_marseille","lat":43.33602,"lon":5.41032,"is_reserved":false,"is_disabled":false,"rental_uris":{"android":"levelo://app?vid=e38d6abe-d29c-478e-8db0-3b610855bfb5","ios":"levelo://app?vid=e38d6abe-d29c-478e-8db0-3b610855bfb5"},"vehicle_type_id":"4","last_reported":1729760976,"current_range_meters":38800,"station_id":"ce4bhqh2rcd13ifvqhmg","pricing_plan_id":"cebpf4jnsgd1na2vs0mg"},{"bike_id":"f8e50538-d227-405f-9328-aa078046bf69","system_id":"levelo_inurba_marseille","lat":43.30005,"lon":5.37183,"is_reserved":false,"is_disabled":false,"rental_uris":{"android":"levelo://app?vid=f8e50538-d227-405f-9328-aa078046bf69","ios":"levelo://app?vid=f8e50538-d227-405f-9328-aa078046bf69"},"vehicle_type_id":"4","last_reported":1729760976,"current_range_meters":22000,"station_id":"ce4bgr92rcd13ifvqc7g","pricing_plan_id":"cebpf4jnsgd1na2vs0mg"},{"bike_id":"b3b6e0a5-7e00-455d-ac5a-07b7fd90617d","system_id":"levelo_inurba_marseille","lat":43.29565,"lon":5.39974,"is_reserved":false,"is_disabled":false,"rental_uris":{"android":"levelo://app?vid=b3b6e0a5-7e00-455d-ac5a-07b7fd90617d","ios":"levelo://app?vid=b3b6e0a5-7e00-455d-ac5a-07b7fd90617d"},"vehicle_type_id":"4","last_reported":1729760976,"current_range_meters":38800,"station_id":"ce4bh312rcd13ifvqdj0","pricing_plan_id":"cebpf4jnsgd1na2vs0mg"},{"bike_id":"b31a412d-ae55-44fd-9589-9f65a280c505","system_id":"levelo_inurba_marseille","lat":43.30146,"lon":5.3741,"is_reserved":false,"is_disabled":false,"rental_uris":{"android":"levelo://app?vid=b31a412d-ae55-44fd-9589-9f65a280c505","ios":"levelo://app?vid=b31a412d-ae55-44fd-9589-9f65a280c505"},"vehicle_type_id":"4","last_reported":1729760976,"current_range_meters":34000,"station_id":"ce4bgs92rcd13ifvqcc0","pricing_plan_id":"cebpf4jnsgd1na2vs0mg"},{"bike_id":"8f40f5a1-dff7-42c7-90d7-c956ea526b89","system_id":"levelo_inurba_marseille","lat":43.30143,"lon":5.37415,"is_reserved":false,"is_disabled":false,"rental_uris":{"android":"levelo://app?vid=8f40f5a1-dff7-42c7-90d7-c956ea526b89","ios":"levelo://app?vid=8f40f5a1-dff7-42c7-90d7-c956ea526b89"},"vehicle_type_id":"4","last_reported":1729760976,"current_range_meters":35200,"station_id":"ce4bgs92rcd13ifvqcc0","pricing_plan_id":"cebpf4jnsgd1na2vs0mg"},{"bike_id":"bb138c79-23b4-4313-b408-9d1f5e4e2358","system_id":"levelo_inurba_marseille","lat":43.309565,"lon":5.390271,"is_reserved":false,"is_disabled":false,"rental_uris":{"android":"levelo://app?vid=bb138c79-23b4-4313-b408-9d1f5e4e2358","ios":"levelo://app?vid=bb138c79-23b4-4313-b408-9d1f5e4e2358"},"vehicle_type_id":"4","last_reported":1729760976,"current_range_meters":9600,"station_id":"ce4bgup2rcd13ifvqco0","pricing_plan_id":"cebpf4jnsgd1na2vs0mg"},{"bike_id":"c0623b34-907a-44a0-bb69-1a2e9375db77","system_id":"levelo_inurba_marseille","lat":43.31119,"lon":5.37778,"is_reserved":false,"is_disabled":false,"rental_uris":{"android":"levelo://app?vid=c0623b34-907a-44a0-bb69-1a2e9375db77","ios":"levelo://app?vid=c0623b34-907a-44a0-bb69-1a2e9375db77"},"vehicle_type_id":"4","last_reported":1729760976,"current_range_meters":10800,"station_id":"ce4bgt92rcd13ifvqcg0","pricing_plan_id":"cebpf4jnsgd1na2vs0mg"},{"bike_id":"c94c8399-380c-4b21-9fa7-af5fca9dbd26","system_id":"levelo_inurba_marseille","lat":43.24068,"lon":5.37753,"is_reserved":false,"is_disabled":false,"rental_uris":{"android":"levelo://app?vid=c94c8399-380c-4b21-9fa7-af5fca9dbd26","ios":"levelo://app?vid=c94c8399-380c-4b21-9fa7-af5fca9dbd26"},"vehicle_type_id":"4","last_reported":1729760976,"current_range_meters":36800,"station_id":"ce4bhnp2rcd13ifvqgvg","pricing_plan_id":"cebpf4jnsgd1na2vs0mg"},{"bike_id":"677a26f0-a8b9-43c0-a2aa-8b4d07896f2e","system_id":"levelo_inurba_marseille","lat":43.25089,"lon":5.39521,"is_reserved":false,"is_disabled":false,"rental_uris":{"android":"levelo://app?vid=677a26f0-a8b9-43c0-a2aa-8b4d07896f2e","ios":"levelo://app?vid=677a26f0-a8b9-43c0-a2aa-8b4d07896f2e"},"vehicle_type_id":"4","last_reported":1729760976,"current_range_meters":22800,"station_id":"ce4bhm12rcd13ifvqgkg","pricing_plan_id":"cebpf4jnsgd1na2vs0mg"},{"bike_id":"950774c7-43a0-4704-a440-38aacc8e0126","system_id":"levelo_inurba_marseille","lat":43.25497,"lon":5.37649,"is_reserved":false,"is_disabled":false,"rental_uris":{"android":"levelo://app?vid=950774c7-43a0-4704-a440-38aacc8e0126","ios":"levelo://app?vid=950774c7-43a0-4704-a440-38aacc8e0126"},"vehicle_type_id":"4","last_reported":1729760976,"current_range_meters":25200,"station_id":"ce4bhh12rcd13ifvqff0","pricing_plan_id":"cebpf4jnsgd1na2vs0mg"},{"bike_id":"b094d4a5-f8e8-4ea5-91a8-7ddf088acd32","system_id":"levelo_inurba_marseille","lat":43.3054,"lon":5.36545,"is_reserved":false,"is_disabled":false,"rental_uris":{"android":"levelo://app?vid=b094d4a5-f8e8-4ea5-91a8-7ddf088acd32","ios":"levelo://app?vid=b094d4a5-f8e8-4ea5-91a8-7ddf088acd32"},"vehicle_type_id":"4","last_reported":1729760976,"current_range_meters":37600,"station_id":"ce4bgs12rcd13ifvqcag","pricing_plan_id":"cebpf4jnsgd1na2vs0mg"},{"bike_id":"efa42ff0-fcbb-4391-98d4-4b32fd7b9000","system_id":"levelo_inurba_marseille","lat":43.30482,"lon":5.37907,"is_reserved":false,"is_disabled":false,"rental_uris":{"android":"levelo://app?vid=efa42ff0-fcbb-4391-98d4-4b32fd7b9000","ios":"levelo://app?vid=efa42ff0-fcbb-4391-98d4-4b32fd7b9000"},"vehicle_type_id":"4","last_reported":1729760976,"current_range_meters":34800,"station_id":"ce4bgup2rcd13ifvqcn0","pricing_plan_id":"cebpf4jnsgd1na2vs0mg"},{"bike_id":"78568ba3-e558-46e4-aa36-5671f868e825","system_id":"levelo_inurba_marseille","lat":43.3203,"lon":5.41576,"is_reserved":false,"is_disabled":false,"rental_uris":{"android":"levelo://app?vid=78568ba3-e558-46e4-aa36-5671f868e825","ios":"levelo://app?vid=78568ba3-e558-46e4-aa36-5671f868e825"},"vehicle_type_id":"4","last_reported":1729760976,"current_range_meters":18800,"station_id":"ce4bhq92rcd13ifvqhkg","pricing_plan_id":"cebpf4jnsgd1na2vs0mg"},{"bike_id":"87b6995d-9c77-4c54-bef7-5ea2d7376b5f","system_id":"levelo_inurba_marseille","lat":43.30282,"lon":5.37709,"is_reserved":false,"is_disabled":false,"rental_uris":{"android":"levelo://app?vid=87b6995d-9c77-4c54-bef7-5ea2d7376b5f","ios":"levelo://app?vid=87b6995d-9c77-4c54-bef7-5ea2d7376b5f"},"vehicle_type_id":"4","last_reported":1729760976,"current_range_meters":12800,"station_id":"ce4bguh2rcd13ifvqcj0","pricing_plan_id":"cebpf4jnsgd1na2vs0mg"},{"bike_id":"825b0c26-32f9-4648-81bd-2702b467ac44","system_id":"levelo_inurba_marseille","lat":43.24546,"lon":5.39522,"is_reserved":false,"is_disabled":false,"rental_uris":{"android":"levelo://app?vid=825b0c26-32f9-4648-81bd-2702b467ac44","ios":"levelo://app?vid=825b0c26-32f9-4648-81bd-2702b467ac44"},"vehicle_type_id":"4","last_reported":1729760976,"current_range_meters":33600,"station_id":"ce4bhlp2rcd13ifvqgjg","pricing_plan_id":"cebpf4jnsgd1na2vs0mg"},{"bike_id":"db69ea4c-1c7d-43a0-b7f1-e0da5b76f2ea","system_id":"levelo_inurba_marseille","lat":43.28436,"lon":5.46,"is_reserved":false,"is_disabled":false,"rental_uris":{"android":"levelo://app?vid=db69ea4c-1c7d-43a0-b7f1-e0da5b76f2ea","ios":"levelo://app?vid=db69ea4c-1c7d-43a0-b7f1-e0da5b76f2ea"},"vehicle_type_id":"4","last_reported":1729760976,"current_range_meters":9600,"station_id":"","pricing_plan_id":"cebpf4jnsgd1na2vs0mg"},{"bike_id":"59e653c3-fce4-4d8c-8f5f-86a86cc24477","system_id":"levelo_inurba_marseille","lat":43.29006,"lon":5.3561,"is_reserved":false,"is_disabled":false,"rental_uris":{"android":"levelo://app?vid=59e653c3-fce4-4d8c-8f5f-86a86cc24477","ios":"levelo://app?vid=59e653c3-fce4-4d8c-8f5f-86a86cc24477"},"vehicle_type_id":"4","last_reported":1729760976,"current_range_meters":37600,"station_id":"ce4bhb92rcd13ifvqen0","pricing_plan_id":"cebpf4jnsgd1na2vs0mg"},{"bike_id":"f2fd08f8-5cf4-42a8-ba74-e98be5093c4c","system_id":"levelo_inurba_marseille","lat":43.30278,"lon":5.377,"is_reserved":false,"is_disabled":false,"rental_uris":{"android":"levelo://app?vid=f2fd08f8-5cf4-42a8-ba74-e98be5093c4c","ios":"levelo://app?vid=f2fd08f8-5cf4-42a8-ba74-e98be5093c4c"},"vehicle_type_id":"4","last_reported":1729760976,"current_range_meters":13600,"station_id":"ce4bguh2rcd13ifvqcj0","pricing_plan_id":"cebpf4jnsgd1na2vs0mg"},{"bike_id":"73cb959c-cc3d-4979-9467-41c7b23f1710","system_id":"levelo_inurba_marseille","lat":43.295337,"lon":5.372854,"is_reserved":false,"is_disabled":false,"rental_uris":{"android":"levelo://app?vid=73cb959c-cc3d-4979-9467-41c7b23f1710","ios":"levelo://app?vid=73cb959c-cc3d-4979-9467-41c7b23f1710"},"vehicle_type_id":"4","last_reported":1729760976,"current_range_meters":19200,"station_id":"ce4bha92rcd13ifvqeh0","pricing_plan_id":"cebpf4jnsgd1na2vs0mg"},{"bike_id":"0b3ba634-e8f3-4bb5-a5a0-e907959a7f44","system_id":"levelo_inurba_marseille","lat":43.29999,"lon":5.37191,"is_reserved":false,"is_disabled":false,"rental_uris":{"android":"levelo://app?vid=0b3ba634-e8f3-4bb5-a5a0-e907959a7f44","ios":"levelo://app?vid=0b3ba634-e8f3-4bb5-a5a0-e907959a7f44"},"vehicle_type_id":"4","last_reported":1729760976,"current_range_meters":26000,"station_id":"ce4bgr92rcd13ifvqc7g","pricing_plan_id":"cebpf4jnsgd1na2vs0mg"},{"bike_id":"92185935-b88f-4675-afe5-fb821187b8e8","system_id":"levelo_inurba_marseille","lat":43.2794,"lon":5.4105,"is_reserved":false,"is_disabled":false,"rental_uris":{"android":"levelo://app?vid=92185935-b88f-4675-afe5-fb821187b8e8","ios":"levelo://app?vid=92185935-b88f-4675-afe5-fb821187b8e8"},"vehicle_type_id":"4","last_reported":1729760976,"current_range_meters":38800,"station_id":"ce4bhnp2rcd13ifvqh0g","pricing_plan_id":"cebpf4jnsgd1na2vs0mg"},{"bike_id":"491e6dc9-a9e0-47c6-b7ee-cbbf6227fc3b","system_id":"levelo_inurba_marseille","lat":43.31998,"lon":5.38153,"is_reserved":false,"is_disabled":false,"rental_uris":{"android":"levelo://app?vid=491e6dc9-a9e0-47c6-b7ee-cbbf6227fc3b","ios":"levelo://app?vid=491e6dc9-a9e0-47c6-b7ee-cbbf6227fc3b"},"vehicle_type_id":"4","last_reported":1729760976,"current_range_meters":6800,"station_id":"ce4bhr12rcd13ifvqhpg","pricing_plan_id":"cebpf4jnsgd1na2vs0mg"},{"bike_id":"5e506d15-df2d-4cf2-a9b2-860ae69be514","system_id":"levelo_inurba_marseille","lat":43.30552,"lon":5.3654,"is_reserved":false,"is_disabled":false,"rental_uris":{"android":"levelo://app?vid=5e506d15-df2d-4cf2-a9b2-860ae69be514","ios":"levelo://app?vid=5e506d15-df2d-4cf2-a9b2-860ae69be514"},"vehicle_type_id":"4","last_reported":1729760976,"current_range_meters":28400,"station_id":"ce4bgs12rcd13ifvqcag","pricing_plan_id":"cebpf4jnsgd1na2vs0mg"},{"bike_id":"1ca1363f-0f7a-4a37-9635-21f2151641f6","system_id":"levelo_inurba_marseille","lat":43.28423,"lon":5.34993,"is_reserved":false,"is_disabled":false,"rental_uris":{"android":"levelo://app?vid=1ca1363f-0f7a-4a37-9635-21f2151641f6","ios":"levelo://app?vid=1ca1363f-0f7a-4a37-9635-21f2151641f6"},"vehicle_type_id":"4","last_reported":1729760976,"current_range_meters":36400,"station_id":"ce4bhbh2rcd13ifvqepg","pricing_plan_id":"cebpf4jnsgd1na2vs0mg"},{"bike_id":"825884dd-1853-45a9-b03b-6e8955f52d0a","system_id":"levelo_inurba_marseille","lat":43.27057,"lon":5.40261,"is_reserved":false,"is_disabled":false,"rental_uris":{"android":"levelo://app?vid=825884dd-1853-45a9-b03b-6e8955f52d0a","ios":"levelo://app?vid=825884dd-1853-45a9-b03b-6e8955f52d0a"},"vehicle_type_id":"4","last_reported":1729760976,"current_range_meters":38800,"station_id":"ce4bhk92rcd13ifvqgc0","pricing_plan_id":"cebpf4jnsgd1na2vs0mg"},{"bike_id":"ee56864d-0289-4ab0-b1d9-4e118a6c50f5","system_id":"levelo_inurba_marseille","lat":43.34151,"lon":5.409,"is_reserved":false,"is_disabled":false,"rental_uris":{"android":"levelo://app?vid=ee56864d-0289-4ab0-b1d9-4e118a6c50f5","ios":"levelo://app?vid=ee56864d-0289-4ab0-b1d9-4e118a6c50f5"},"vehicle_type_id":"4","last_reported":1729760976,"current_range_meters":40000,"station_id":"ce4bhqh2rcd13ifvqhlg","pricing_plan_id":"cebpf4jnsgd1na2vs0mg"},{"bike_id":"1957bb6b-5dd2-41b6-a4ff-1efe87830d8c","system_id":"levelo_inurba_marseille","lat":43.29918,"lon":5.37479,"is_reserved":false,"is_disabled":false,"rental_uris":{"android":"levelo://app?vid=1957bb6b-5dd2-41b6-a4ff-1efe87830d8c","ios":"levelo://app?vid=1957bb6b-5dd2-41b6-a4ff-1efe87830d8c"},"vehicle_type_id":"4","last_reported":1729760976,"current_range_meters":38000,"station_id":"ce4bgjh2rcd13ifvqbg0","pricing_plan_id":"cebpf4jnsgd1na2vs0mg"},{"bike_id":"1e0bfa34-cda6-4930-a78a-aab2c731dbff","system_id":"levelo_inurba_marseille","lat":43.30549,"lon":5.3653,"is_reserved":false,"is_disabled":false,"rental_uris":{"android":"levelo://app?vid=1e0bfa34-cda6-4930-a78a-aab2c731dbff","ios":"levelo://app?vid=1e0bfa34-cda6-4930-a78a-aab2c731dbff"},"vehicle_type_id":"4","last_reported":1729760976,"current_range_meters":38400,"station_id":"ce4bgs12rcd13ifvqcag","pricing_plan_id":"cebpf4jnsgd1na2vs0mg"},{"bike_id":"634af3c3-3c36-40dc-97a1-f994130b3291","system_id":"levelo_inurba_marseille","lat":43.30685,"lon":5.37747,"is_reserved":false,"is_disabled":false,"rental_uris":{"android":"levelo://app?vid=634af3c3-3c36-40dc-97a1-f994130b3291","ios":"levelo://app?vid=634af3c3-3c36-40dc-97a1-f994130b3291"},"vehicle_type_id":"4","last_reported":1729760976,"current_range_meters":28400,"station_id":"","pricing_plan_id":"cebpf4jnsgd1na2vs0mg"},{"bike_id":"a9448aee-dbd3-4e40-88df-4d141e9d9847","system_id":"levelo_inurba_marseille","lat":43.23179,"lon":5.39986,"is_reserved":false,"is_disabled":false,"rental_uris":{"android":"levelo://app?vid=a9448aee-dbd3-4e40-88df-4d141e9d9847","ios":"levelo://app?vid=a9448aee-dbd3-4e40-88df-4d141e9d9847"},"vehicle_type_id":"4","last_reported":1729760976,"current_range_meters":30400,"station_id":"ce4bhn12rcd13ifvqgqg","pricing_plan_id":"cebpf4jnsgd1na2vs0mg"},{"bike_id":"8cd53438-ceb6-41ce-8584-e78f2d5d3fdd","system_id":"levelo_inurba_marseille","lat":43.23176,"lon":5.4,"is_reserved":false,"is_disabled":false,"rental_uris":{"android":"levelo://app?vid=8cd53438-ceb6-41ce-8584-e78f2d5d3fdd","ios":"levelo://app?vid=8cd53438-ceb6-41ce-8584-e78f2d5d3fdd"},"vehicle_type_id":"4","last_reported":1729760976,"current_range_meters":27600,"station_id":"ce4bhn12rcd13ifvqgqg","pricing_plan_id":"cebpf4jnsgd1na2vs0mg"},{"bike_id":"71d7f328-a427-4358-bc2f-cc1d51a56f06","system_id":"levelo_inurba_marseille","lat":43.3096,"lon":5.39039,"is_reserved":false,"is_disabled":false,"rental_uris":{"android":"levelo://app?vid=71d7f328-a427-4358-bc2f-cc1d51a56f06","ios":"levelo://app?vid=71d7f328-a427-4358-bc2f-cc1d51a56f06"},"vehicle_type_id":"4","last_reported":1729760976,"current_range_meters":14800,"station_id":"ce4bgup2rcd13ifvqco0","pricing_plan_id":"cebpf4jnsgd1na2vs0mg"},{"bike_id":"3a904881-c49f-42f3-ab29-bca1bed304a9","system_id":"levelo_inurba_marseille","lat":43.25938,"lon":5.40899,"is_reserved":false,"is_disabled":false,"rental_uris":{"android":"levelo://app?vid=3a904881-c49f-42f3-ab29-bca1bed304a9","ios":"levelo://app?vid=3a904881-c49f-42f3-ab29-bca1bed304a9"},"vehicle_type_id":"4","last_reported":1729760976,"current_range_meters":27600,"station_id":"ce4bhm92rcd13ifvqglg","pricing_plan_id":"cebpf4jnsgd1na2vs0mg"},{"bike_id":"293a0eda-a37d-4172-bb6f-d028643c9783","system_id":"levelo_inurba_marseille","lat":43.23145,"lon":5.43718,"is_reserved":false,"is_disabled":false,"rental_uris":{"android":"levelo://app?vid=293a0eda-a37d-4172-bb6f-d028643c9783","ios":"levelo://app?vid=293a0eda-a37d-4172-bb6f-d028643c9783"},"vehicle_type_id":"4","last_reported":1729760976,"current_range_meters":16000,"station_id":"ce4bhmp2rcd13ifvqgog","pricing_plan_id":"cebpf4jnsgd1na2vs0mg"},{"bike_id":"29c617a6-00f3-460d-abea-5d05c6478338","system_id":"levelo_inurba_marseille","lat":43.25934,"lon":5.40911,"is_reserved":false,"is_disabled":false,"rental_uris":{"android":"levelo://app?vid=29c617a6-00f3-460d-abea-5d05c6478338","ios":"levelo://app?vid=29c617a6-00f3-460d-abea-5d05c6478338"},"vehicle_type_id":"4","last_reported":1729760976,"current_range_meters":28000,"station_id":"ce4bhm92rcd13ifvqglg","pricing_plan_id":"cebpf4jnsgd1na2vs0mg"},{"bike_id":"1cea3210-b151-49d6-a692-cd33fb6c1b59","system_id":"levelo_inurba_marseille","lat":43.30917,"lon":5.36845,"is_reserved":false,"is_disabled":false,"rental_uris":{"android":"levelo://app?vid=1cea3210-b151-49d6-a692-cd33fb6c1b59","ios":"levelo://app?vid=1cea3210-b151-49d6-a692-cd33fb6c1b59"},"vehicle_type_id":"4","last_reported":1729760976,"current_range_meters":27600,"station_id":"ce4bgn92rcd13ifvqbvg","pricing_plan_id":"cebpf4jnsgd1na2vs0mg"},{"bike_id":"91bfa645-9cfa-4568-8072-595cbd3b9c72","system_id":"levelo_inurba_marseille","lat":43.28904,"lon":5.36108,"is_reserved":false,"is_disabled":false,"rental_uris":{"android":"levelo://app?vid=91bfa645-9cfa-4568-8072-595cbd3b9c72","ios":"levelo://app?vid=91bfa645-9cfa-4568-8072-595cbd3b9c72"},"vehicle_type_id":"4","last_reported":1729760976,"current_range_meters":24400,"station_id":"","pricing_plan_id":"cebpf4jnsgd1na2vs0mg"},{"bike_id":"7ac878d5-7464-47b0-8096-73b091a39903","system_id":"levelo_inurba_marseille","lat":43.30531,"lon":5.36529,"is_reserved":false,"is_disabled":false,"rental_uris":{"android":"levelo://app?vid=7ac878d5-7464-47b0-8096-73b091a39903","ios":"levelo://app?vid=7ac878d5-7464-47b0-8096-73b091a39903"},"vehicle_type_id":"4","last_reported":1729760976,"current_range_meters":24000,"station_id":"ce4bgs12rcd13ifvqcag","pricing_plan_id":"cebpf4jnsgd1na2vs0mg"},{"bike_id":"4a969d9a-a2f7-4482-9d72-f6a3a46a8b8b","system_id":"levelo_inurba_marseille","lat":43.30143,"lon":5.37416,"is_reserved":false,"is_disabled":false,"rental_uris":{"android":"levelo://app?vid=4a969d9a-a2f7-4482-9d72-f6a3a46a8b8b","ios":"levelo://app?vid=4a969d9a-a2f7-4482-9d72-f6a3a46a8b8b"},"vehicle_type_id":"4","last_reported":1729760976,"current_range_meters":29600,"station_id":"ce4bgs92rcd13ifvqcc0","pricing_plan_id":"cebpf4jnsgd1na2vs0mg"},{"bike_id":"12965f57-3a1d-4768-83c5-e018ff17ce98","system_id":"levelo_inurba_marseille","lat":43.24168,"lon":5.39739,"is_reserved":false,"is_disabled":false,"rental_uris":{"android":"levelo://app?vid=12965f57-3a1d-4768-83c5-e018ff17ce98","ios":"levelo://app?vid=12965f57-3a1d-4768-83c5-e018ff17ce98"},"vehicle_type_id":"4","last_reported":1729760976,"current_range_meters":40000,"station_id":"ce4bhn12rcd13ifvqgpg","pricing_plan_id":"cebpf4jnsgd1na2vs0mg"},{"bike_id":"2e59512f-4133-4e8a-b571-6a6d823b0555","system_id":"levelo_inurba_marseille","lat":43.30537,"lon":5.36542,"is_reserved":false,"is_disabled":false,"rental_uris":{"android":"levelo://app?vid=2e59512f-4133-4e8a-b571-6a6d823b0555","ios":"levelo://app?vid=2e59512f-4133-4e8a-b571-6a6d823b0555"},"vehicle_type_id":"4","last_reported":1729760976,"current_range_meters":38800,"station_id":"ce4bgs12rcd13ifvqcag","pricing_plan_id":"cebpf4jnsgd1na2vs0mg"},{"bike_id":"a6417bf8-880f-4a10-a525-c43160847438","system_id":"levelo_inurba_marseille","lat":43.25939,"lon":5.40902,"is_reserved":false,"is_disabled":false,"rental_uris":{"android":"levelo://app?vid=a6417bf8-880f-4a10-a525-c43160847438","ios":"levelo://app?vid=a6417bf8-880f-4a10-a525-c43160847438"},"vehicle_type_id":"4","last_reported":1729760976,"current_range_meters":26000,"station_id":"ce4bhm92rcd13ifvqglg","pricing_plan_id":"cebpf4jnsgd1na2vs0mg"},{"bike_id":"0300ae8c-d89e-4fc9-94c4-e4571dd93d5f","system_id":"levelo_inurba_marseille","lat":43.24643,"lon":5.4247,"is_reserved":false,"is_disabled":false,"rental_uris":{"android":"levelo://app?vid=0300ae8c-d89e-4fc9-94c4-e4571dd93d5f","ios":"levelo://app?vid=0300ae8c-d89e-4fc9-94c4-e4571dd93d5f"},"vehicle_type_id":"4","last_reported":1729760976,"current_range_meters":32000,"station_id":"","pricing_plan_id":"cebpf4jnsgd1na2vs0mg"},{"bike_id":"0a44162f-f058-4046-81a5-0ad78a3e7aae","system_id":"levelo_inurba_marseille","lat":43.27564,"lon":5.38429,"is_reserved":false,"is_disabled":false,"rental_uris":{"android":"levelo://app?vid=0a44162f-f058-4046-81a5-0ad78a3e7aae","ios":"levelo://app?vid=0a44162f-f058-4046-81a5-0ad78a3e7aae"},"vehicle_type_id":"4","last_reported":1729760976,"current_range_meters":39200,"station_id":"ce4bhh92rcd13ifvqfi0","pricing_plan_id":"cebpf4jnsgd1na2vs0mg"},{"bike_id":"8b368eb4-d88f-4e27-9a59-f48c296d2a4c","system_id":"levelo_inurba_marseille","lat":43.27988,"lon":5.41661,"is_reserved":false,"is_disabled":false,"rental_uris":{"android":"levelo://app?vid=8b368eb4-d88f-4e27-9a59-f48c296d2a4c","ios":"levelo://app?vid=8b368eb4-d88f-4e27-9a59-f48c296d2a4c"},"vehicle_type_id":"4","last_reported":1729760976,"current_range_meters":23200,"station_id":"ce4bho12rcd13ifvqh1g","pricing_plan_id":"cebpf4jnsgd1na2vs0mg"},{"bike_id":"5c405a47-5da1-4eb2-a048-e6e0e39d0db1","system_id":"levelo_inurba_marseille","lat":43.29852,"lon":5.36277,"is_reserved":false,"is_disabled":false,"rental_uris":{"android":"levelo://app?vid=5c405a47-5da1-4eb2-a048-e6e0e39d0db1","ios":"levelo://app?vid=5c405a47-5da1-4eb2-a048-e6e0e39d0db1"},"vehicle_type_id":"4","last_reported":1729760976,"current_range_meters":20000,"station_id":"ce4bgpp2rcd13ifvqc3g","pricing_plan_id":"cebpf4jnsgd1na2vs0mg"},{"bike_id":"fd9701c6-ca47-4ddc-b523-a4a888532baa","system_id":"levelo_inurba_marseille","lat":43.30469,"lon":5.37898,"is_reserved":false,"is_disabled":false,"rental_uris":{"android":"levelo://app?vid=fd9701c6-ca47-4ddc-b523-a4a888532baa","ios":"levelo://app?vid=fd9701c6-ca47-4ddc-b523-a4a888532baa"},"vehicle_type_id":"4","last_reported":1729760976,"current_range_meters":17200,"station_id":"ce4bgup2rcd13ifvqcn0","pricing_plan_id":"cebpf4jnsgd1na2vs0mg"},{"bike_id":"f959b4c9-a91f-4775-a11c-17f05420b840","system_id":"levelo_inurba_marseille","lat":43.2957,"lon":5.37539,"is_reserved":false,"is_disabled":false,"rental_uris":{"android":"levelo://app?vid=f959b4c9-a91f-4775-a11c-17f05420b840","ios":"levelo://app?vid=f959b4c9-a91f-4775-a11c-17f05420b840"},"vehicle_type_id":"4","last_reported":1729760976,"current_range_meters":33600,"station_id":"ce4bgh92rcd13ifvqb50","pricing_plan_id":"cebpf4jnsgd1na2vs0mg"},{"bike_id":"9c980766-3696-42be-8e1a-d22fb6edb5c5","system_id":"levelo_inurba_marseille","lat":43.30658,"lon":5.38226,"is_reserved":false,"is_disabled":false,"rental_uris":{"android":"levelo://app?vid=9c980766-3696-42be-8e1a-d22fb6edb5c5","ios":"levelo://app?vid=9c980766-3696-42be-8e1a-d22fb6edb5c5"},"vehicle_type_id":"4","last_reported":1729760976,"current_range_meters":28400,"station_id":"","pricing_plan_id":"cebpf4jnsgd1na2vs0mg"},{"bike_id":"a277a657-994a-4685-a23d-2aacd0b366a7","system_id":"levelo_inurba_marseille","lat":43.2862,"lon":5.35099,"is_reserved":false,"is_disabled":false,"rental_uris":{"android":"levelo://app?vid=a277a657-994a-4685-a23d-2aacd0b366a7","ios":"levelo://app?vid=a277a657-994a-4685-a23d-2aacd0b366a7"},"vehicle_type_id":"4","last_reported":1729760976,"current_range_meters":32400,"station_id":"ce4bhch2rcd13ifvqeug","pricing_plan_id":"cebpf4jnsgd1na2vs0mg"},{"bike_id":"fbf97ef8-bd1b-4c04-9a9d-32289ab679c9","system_id":"levelo_inurba_marseille","lat":43.31702,"lon":5.37746,"is_reserved":false,"is_disabled":false,"rental_uris":{"android":"levelo://app?vid=fbf97ef8-bd1b-4c04-9a9d-32289ab679c9","ios":"levelo://app?vid=fbf97ef8-bd1b-4c04-9a9d-32289ab679c9"},"vehicle_type_id":"4","last_reported":1729760976,"current_range_meters":38800,"station_id":"ce4bgth2rcd13ifvqch0","pricing_plan_id":"cebpf4jnsgd1na2vs0mg"},{"bike_id":"50aa3928-82e1-48ed-a454-f0cbc82c7657","system_id":"levelo_inurba_marseille","lat":43.27208,"lon":5.39175,"is_reserved":false,"is_disabled":false,"rental_uris":{"android":"levelo://app?vid=50aa3928-82e1-48ed-a454-f0cbc82c7657","ios":"levelo://app?vid=50aa3928-82e1-48ed-a454-f0cbc82c7657"},"vehicle_type_id":"4","last_reported":1729760976,"current_range_meters":30800,"station_id":"ce4bhhp2rcd13ifvqfm0","pricing_plan_id":"cebpf4jnsgd1na2vs0mg"},{"bike_id":"624fe77a-eea3-45c5-8705-7034c073ec0f","system_id":"levelo_inurba_marseille","lat":43.30531,"lon":5.36539,"is_reserved":false,"is_disabled":false,"rental_uris":{"android":"levelo://app?vid=624fe77a-eea3-45c5-8705-7034c073ec0f","ios":"levelo://app?vid=624fe77a-eea3-45c5-8705-7034c073ec0f"},"vehicle_type_id":"4","last_reported":1729760976,"current_range_meters":16800,"station_id":"ce4bgs12rcd13ifvqcag","pricing_plan_id":"cebpf4jnsgd1na2vs0mg"},{"bike_id":"e6b8647c-b857-45e6-bcf5-1fa2bab9b3e1","system_id":"levelo_inurba_marseille","lat":43.29713,"lon":5.37699,"is_reserved":false,"is_disabled":false,"rental_uris":{"android":"levelo://app?vid=e6b8647c-b857-45e6-bcf5-1fa2bab9b3e1","ios":"levelo://app?vid=e6b8647c-b857-45e6-bcf5-1fa2bab9b3e1"},"vehicle_type_id":"4","last_reported":1729760976,"current_range_meters":22000,"station_id":"ce4bgkh2rcd13ifvqbl0","pricing_plan_id":"cebpf4jnsgd1na2vs0mg"},{"bike_id":"cb4c74e9-5ba3-43e3-9662-d4b81b2595f4","system_id":"levelo_inurba_marseille","lat":43.297331,"lon":5.366957,"is_reserved":false,"is_disabled":false,"rental_uris":{"android":"levelo://app?vid=cb4c74e9-5ba3-43e3-9662-d4b81b2595f4","ios":"levelo://app?vid=cb4c74e9-5ba3-43e3-9662-d4b81b2595f4"},"vehicle_type_id":"4","last_reported":1729760976,"current_range_meters":11200,"station_id":"ce4bgn12rcd13ifvqbt0","pricing_plan_id":"cebpf4jnsgd1na2vs0mg"},{"bike_id":"8d3a665e-b607-4c6b-bfa9-0539dee50c40","system_id":"levelo_inurba_marseille","lat":43.3106,"lon":5.38126,"is_reserved":false,"is_disabled":false,"rental_uris":{"android":"levelo://app?vid=8d3a665e-b607-4c6b-bfa9-0539dee50c40","ios":"levelo://app?vid=8d3a665e-b607-4c6b-bfa9-0539dee50c40"},"vehicle_type_id":"4","last_reported":1729760976,"current_range_meters":28000,"station_id":"ce4bgup2rcd13ifvqcn0","pricing_plan_id":"cebpf4jnsgd1na2vs0mg"},{"bike_id":"8f1caad2-6668-48d2-87b2-cf3ca965c060","system_id":"levelo_inurba_marseille","lat":43.26683,"lon":5.38274,"is_reserved":false,"is_disabled":false,"rental_uris":{"android":"levelo://app?vid=8f1caad2-6668-48d2-87b2-cf3ca965c060","ios":"levelo://app?vid=8f1caad2-6668-48d2-87b2-cf3ca965c060"},"vehicle_type_id":"4","last_reported":1729760976,"current_range_meters":16400,"station_id":"ce4bhg92rcd13ifvqf90","pricing_plan_id":"cebpf4jnsgd1na2vs0mg"},{"bike_id":"05e18c03-277f-4186-b4dd-e2c2177c9a41","system_id":"levelo_inurba_marseille","lat":43.23178,"lon":5.39994,"is_reserved":false,"is_disabled":false,"rental_uris":{"android":"levelo://app?vid=05e18c03-277f-4186-b4dd-e2c2177c9a41","ios":"levelo://app?vid=05e18c03-277f-4186-b4dd-e2c2177c9a41"},"vehicle_type_id":"4","last_reported":1729760976,"current_range_meters":6000,"station_id":"ce4bhn12rcd13ifvqgqg","pricing_plan_id":"cebpf4jnsgd1na2vs0mg"},{"bike_id":"0887c6b2-87f7-45b8-9ba9-710cc54bbbe1","system_id":"levelo_inurba_marseille","lat":43.28997,"lon":5.35609,"is_reserved":false,"is_disabled":false,"rental_uris":{"android":"levelo://app?vid=0887c6b2-87f7-45b8-9ba9-710cc54bbbe1","ios":"levelo://app?vid=0887c6b2-87f7-45b8-9ba9-710cc54bbbe1"},"vehicle_type_id":"4","last_reported":1729760976,"current_range_meters":36400,"station_id":"","pricing_plan_id":"cebpf4jnsgd1na2vs0mg"},{"bike_id":"90c3a3ae-e1f9-49f9-8230-c82dc265a457","system_id":"levelo_inurba_marseille","lat":43.32003,"lon":5.38153,"is_reserved":false,"is_disabled":false,"rental_uris":{"android":"levelo://app?vid=90c3a3ae-e1f9-49f9-8230-c82dc265a457","ios":"levelo://app?vid=90c3a3ae-e1f9-49f9-8230-c82dc265a457"},"vehicle_type_id":"4","last_reported":1729760976,"current_range_meters":7200,"station_id":"ce4bhr12rcd13ifvqhpg","pricing_plan_id":"cebpf4jnsgd1na2vs0mg"},{"bike_id":"1227eb8d-9f23-41a3-aa69-a2da26e5ecf4","system_id":"levelo_inurba_marseille","lat":43.27205,"lon":5.39185,"is_reserved":false,"is_disabled":false,"rental_uris":{"android":"levelo://app?vid=1227eb8d-9f23-41a3-aa69-a2da26e5ecf4","ios":"levelo://app?vid=1227eb8d-9f23-41a3-aa69-a2da26e5ecf4"},"vehicle_type_id":"4","last_reported":1729760976,"current_range_meters":38800,"station_id":"ce4bhhp2rcd13ifvqfm0","pricing_plan_id":"cebpf4jnsgd1na2vs0mg"},{"bike_id":"e6b310af-d763-4708-a97e-f6f2e27c7b8b","system_id":"levelo_inurba_marseille","lat":43.27177,"lon":5.4099,"is_reserved":false,"is_disabled":false,"rental_uris":{"android":"levelo://app?vid=e6b310af-d763-4708-a97e-f6f2e27c7b8b","ios":"levelo://app?vid=e6b310af-d763-4708-a97e-f6f2e27c7b8b"},"vehicle_type_id":"4","last_reported":1729760976,"current_range_meters":9600,"station_id":"ce4bhl12rcd13ifvqgf0","pricing_plan_id":"cebpf4jnsgd1na2vs0mg"},{"bike_id":"be0d00ce-27d2-40e7-8a7a-2ec3e754ac3a","system_id":"levelo_inurba_marseille","lat":43.32657,"lon":5.40992,"is_reserved":false,"is_disabled":false,"rental_uris":{"android":"levelo://app?vid=be0d00ce-27d2-40e7-8a7a-2ec3e754ac3a","ios":"levelo://app?vid=be0d00ce-27d2-40e7-8a7a-2ec3e754ac3a"},"vehicle_type_id":"4","last_reported":1729760976,"current_range_meters":36400,"station_id":"ce4bhpp2rcd13ifvqhgg","pricing_plan_id":"cebpf4jnsgd1na2vs0mg"},{"bike_id":"f935cf35-b036-4f96-9938-0dfc56bccf48","system_id":"levelo_inurba_marseille","lat":43.270561,"lon":5.402594,"is_reserved":false,"is_disabled":false,"rental_uris":{"android":"levelo://app?vid=f935cf35-b036-4f96-9938-0dfc56bccf48","ios":"levelo://app?vid=f935cf35-b036-4f96-9938-0dfc56bccf48"},"vehicle_type_id":"4","last_reported":1729760976,"current_range_meters":29600,"station_id":"ce4bhk92rcd13ifvqgc0","pricing_plan_id":"cebpf4jnsgd1na2vs0mg"},{"bike_id":"095f7379-262f-4463-9f6b-bda6e095d034","system_id":"levelo_inurba_marseille","lat":43.28992,"lon":5.355845,"is_reserved":false,"is_disabled":false,"rental_uris":{"android":"levelo://app?vid=095f7379-262f-4463-9f6b-bda6e095d034","ios":"levelo://app?vid=095f7379-262f-4463-9f6b-bda6e095d034"},"vehicle_type_id":"4","last_reported":1729760976,"current_range_meters":36800,"station_id":"ce4bhb92rcd13ifvqen0","pricing_plan_id":"cebpf4jnsgd1na2vs0mg"},{"bike_id":"580e5096-fa37-4f44-a46b-8466554005b3","system_id":"levelo_inurba_marseille","lat":43.32044,"lon":5.41567,"is_reserved":false,"is_disabled":false,"rental_uris":{"android":"levelo://app?vid=580e5096-fa37-4f44-a46b-8466554005b3","ios":"levelo://app?vid=580e5096-fa37-4f44-a46b-8466554005b3"},"vehicle_type_id":"4","last_reported":1729760976,"current_range_meters":26800,"station_id":"ce4bhq92rcd13ifvqhkg","pricing_plan_id":"cebpf4jnsgd1na2vs0mg"},{"bike_id":"8ff48afa-f143-412d-a502-cb19f4762614","system_id":"levelo_inurba_marseille","lat":43.3054,"lon":5.38434,"is_reserved":false,"is_disabled":false,"rental_uris":{"android":"levelo://app?vid=8ff48afa-f143-412d-a502-cb19f4762614","ios":"levelo://app?vid=8ff48afa-f143-412d-a502-cb19f4762614"},"vehicle_type_id":"4","last_reported":1729760976,"current_range_meters":40000,"station_id":"ce4bgg92rcd13ifvqb30","pricing_plan_id":"cebpf4jnsgd1na2vs0mg"},{"bike_id":"88986b18-d9fb-40dc-a7ca-b68880a51e54","system_id":"levelo_inurba_marseille","lat":43.30545,"lon":5.38431,"is_reserved":false,"is_disabled":false,"rental_uris":{"android":"levelo://app?vid=88986b18-d9fb-40dc-a7ca-b68880a51e54","ios":"levelo://app?vid=88986b18-d9fb-40dc-a7ca-b68880a51e54"},"vehicle_type_id":"4","last_reported":1729760976,"current_range_meters":40000,"station_id":"ce4bgg92rcd13ifvqb30","pricing_plan_id":"cebpf4jnsgd1na2vs0mg"},{"bike_id":"0d3c81fa-6a31-4452-b5b1-b7fbe245fca5","system_id":"levelo_inurba_marseille","lat":43.29064,"lon":5.37171,"is_reserved":false,"is_disabled":false,"rental_uris":{"android":"levelo://app?vid=0d3c81fa-6a31-4452-b5b1-b7fbe245fca5","ios":"levelo://app?vid=0d3c81fa-6a31-4452-b5b1-b7fbe245fca5"},"vehicle_type_id":"4","last_reported":1729760976,"current_range_meters":24000,"station_id":"ce4bh5p2rcd13ifvqe4g","pricing_plan_id":"cebpf4jnsgd1na2vs0mg"},{"bike_id":"61ce41c0-c830-4f5f-b326-d71c02bdc8f9","system_id":"levelo_inurba_marseille","lat":43.33721,"lon":5.39183,"is_reserved":false,"is_disabled":false,"rental_uris":{"android":"levelo://app?vid=61ce41c0-c830-4f5f-b326-d71c02bdc8f9","ios":"levelo://app?vid=61ce41c0-c830-4f5f-b326-d71c02bdc8f9"},"vehicle_type_id":"4","last_reported":1729760976,"current_range_meters":37600,"station_id":"ce4bhr92rcd13ifvqhsg","pricing_plan_id":"cebpf4jnsgd1na2vs0mg"},{"bike_id":"53643c73-ebff-4438-9bbc-d1455671aa2b","system_id":"levelo_inurba_marseille","lat":43.32002,"lon":5.38148,"is_reserved":false,"is_disabled":false,"rental_uris":{"android":"levelo://app?vid=53643c73-ebff-4438-9bbc-d1455671aa2b","ios":"levelo://app?vid=53643c73-ebff-4438-9bbc-d1455671aa2b"},"vehicle_type_id":"4","last_reported":1729760976,"current_range_meters":30000,"station_id":"ce4bhr12rcd13ifvqhpg","pricing_plan_id":"cebpf4jnsgd1na2vs0mg"},{"bike_id":"ccdc46be-3359-4fc8-85a3-4029df8711ec","system_id":"levelo_inurba_marseille","lat":43.26685,"lon":5.38274,"is_reserved":false,"is_disabled":false,"rental_uris":{"android":"levelo://app?vid=ccdc46be-3359-4fc8-85a3-4029df8711ec","ios":"levelo://app?vid=ccdc46be-3359-4fc8-85a3-4029df8711ec"},"vehicle_type_id":"4","last_reported":1729760976,"current_range_meters":35200,"station_id":"ce4bhg92rcd13ifvqf90","pricing_plan_id":"cebpf4jnsgd1na2vs0mg"},{"bike_id":"def7af2c-608e-4ee7-bf3d-69f5dfc7577b","system_id":"levelo_inurba_marseille","lat":43.25123,"lon":5.40314,"is_reserved":false,"is_disabled":false,"rental_uris":{"android":"levelo://app?vid=def7af2c-608e-4ee7-bf3d-69f5dfc7577b","ios":"levelo://app?vid=def7af2c-608e-4ee7-bf3d-69f5dfc7577b"},"vehicle_type_id":"4","last_reported":1729760976,"current_range_meters":26000,"station_id":"ce4bhlh2rcd13ifvqgig","pricing_plan_id":"cebpf4jnsgd1na2vs0mg"},{"bike_id":"4bd46efd-8558-4606-a06c-6219a3c10b7e","system_id":"levelo_inurba_marseille","lat":43.31068,"lon":5.38367,"is_reserved":false,"is_disabled":false,"rental_uris":{"android":"levelo://app?vid=4bd46efd-8558-4606-a06c-6219a3c10b7e","ios":"levelo://app?vid=4bd46efd-8558-4606-a06c-6219a3c10b7e"},"vehicle_type_id":"4","last_reported":1729760976,"current_range_meters":19200,"station_id":"ce4bgv92rcd13ifvqcr0","pricing_plan_id":"cebpf4jnsgd1na2vs0mg"},{"bike_id":"00a8bd9d-eef3-42e3-9e17-61a6e620d1f8","system_id":"levelo_inurba_marseille","lat":43.33021,"lon":5.39041,"is_reserved":false,"is_disabled":false,"rental_uris":{"android":"levelo://app?vid=00a8bd9d-eef3-42e3-9e17-61a6e620d1f8","ios":"levelo://app?vid=00a8bd9d-eef3-42e3-9e17-61a6e620d1f8"},"vehicle_type_id":"4","last_reported":1729760976,"current_range_meters":38800,"station_id":"ce4bhr92rcd13ifvqhrg","pricing_plan_id":"cebpf4jnsgd1na2vs0mg"},{"bike_id":"cfa22508-ceb7-4555-aa40-dbd6e0ae53c7","system_id":"levelo_inurba_marseille","lat":43.25089,"lon":5.39521,"is_reserved":false,"is_disabled":false,"rental_uris":{"android":"levelo://app?vid=cfa22508-ceb7-4555-aa40-dbd6e0ae53c7","ios":"levelo://app?vid=cfa22508-ceb7-4555-aa40-dbd6e0ae53c7"},"vehicle_type_id":"4","last_reported":1729760976,"current_range_meters":6800,"station_id":"ce4bhm12rcd13ifvqgkg","pricing_plan_id":"cebpf4jnsgd1na2vs0mg"},{"bike_id":"610c18fb-7e2a-407e-a510-3ee88b3b2dd0","system_id":"levelo_inurba_marseille","lat":43.30143,"lon":5.37421,"is_reserved":false,"is_disabled":false,"rental_uris":{"android":"levelo://app?vid=610c18fb-7e2a-407e-a510-3ee88b3b2dd0","ios":"levelo://app?vid=610c18fb-7e2a-407e-a510-3ee88b3b2dd0"},"vehicle_type_id":"4","last_reported":1729760976,"current_range_meters":12800,"station_id":"ce4bgs92rcd13ifvqcc0","pricing_plan_id":"cebpf4jnsgd1na2vs0mg"},{"bike_id":"40d7d049-8518-4ec4-b0e7-a82d69869ad0","system_id":"levelo_inurba_marseille","lat":43.302775,"lon":5.377072,"is_reserved":false,"is_disabled":false,"rental_uris":{"android":"levelo://app?vid=40d7d049-8518-4ec4-b0e7-a82d69869ad0","ios":"levelo://app?vid=40d7d049-8518-4ec4-b0e7-a82d69869ad0"},"vehicle_type_id":"4","last_reported":1729760976,"current_range_meters":40000,"station_id":"ce4bguh2rcd13ifvqcj0","pricing_plan_id":"cebpf4jnsgd1na2vs0mg"},{"bike_id":"3bd1e45c-77e7-484c-a4cd-42c393daeced","system_id":"levelo_inurba_marseille","lat":43.25932,"lon":5.40913,"is_reserved":false,"is_disabled":false,"rental_uris":{"android":"levelo://app?vid=3bd1e45c-77e7-484c-a4cd-42c393daeced","ios":"levelo://app?vid=3bd1e45c-77e7-484c-a4cd-42c393daeced"},"vehicle_type_id":"4","last_reported":1729760976,"current_range_meters":33200,"station_id":"ce4bhm92rcd13ifvqglg","pricing_plan_id":"cebpf4jnsgd1na2vs0mg"},{"bike_id":"6012cf3c-ad8f-4687-985a-2439ef71f89d","system_id":"levelo_inurba_marseille","lat":43.26683,"lon":5.38274,"is_reserved":false,"is_disabled":false,"rental_uris":{"android":"levelo://app?vid=6012cf3c-ad8f-4687-985a-2439ef71f89d","ios":"levelo://app?vid=6012cf3c-ad8f-4687-985a-2439ef71f89d"},"vehicle_type_id":"4","last_reported":1729760976,"current_range_meters":12000,"station_id":"ce4bhg92rcd13ifvqf90","pricing_plan_id":"cebpf4jnsgd1na2vs0mg"},{"bike_id":"fe92c0ef-c58a-40c0-853a-64f17e6671c0","system_id":"levelo_inurba_marseille","lat":43.31707,"lon":5.37748,"is_reserved":false,"is_disabled":false,"rental_uris":{"android":"levelo://app?vid=fe92c0ef-c58a-40c0-853a-64f17e6671c0","ios":"levelo://app?vid=fe92c0ef-c58a-40c0-853a-64f17e6671c0"},"vehicle_type_id":"4","last_reported":1729760976,"current_range_meters":18800,"station_id":"ce4bgth2rcd13ifvqch0","pricing_plan_id":"cebpf4jnsgd1na2vs0mg"},{"bike_id":"7fa314c8-fcc7-43f1-a8b1-8cb324276442","system_id":"levelo_inurba_marseille","lat":43.31221,"lon":5.3686,"is_reserved":false,"is_disabled":false,"rental_uris":{"android":"levelo://app?vid=7fa314c8-fcc7-43f1-a8b1-8cb324276442","ios":"levelo://app?vid=7fa314c8-fcc7-43f1-a8b1-8cb324276442"},"vehicle_type_id":"4","last_reported":1729760976,"current_range_meters":38400,"station_id":"ce4bgl92rcd13ifvqbq0","pricing_plan_id":"cebpf4jnsgd1na2vs0mg"},{"bike_id":"39b8e30f-8bb4-4cd4-afe4-974ada9b3ba8","system_id":"levelo_inurba_marseille","lat":43.30149,"lon":5.37414,"is_reserved":false,"is_disabled":false,"rental_uris":{"android":"levelo://app?vid=39b8e30f-8bb4-4cd4-afe4-974ada9b3ba8","ios":"levelo://app?vid=39b8e30f-8bb4-4cd4-afe4-974ada9b3ba8"},"vehicle_type_id":"4","last_reported":1729760976,"current_range_meters":8800,"station_id":"ce4bgs92rcd13ifvqcc0","pricing_plan_id":"cebpf4jnsgd1na2vs0mg"},{"bike_id":"b2b9f3d6-a061-4ef3-bcc4-d6af18337c10","system_id":"levelo_inurba_marseille","lat":43.30141,"lon":5.3742,"is_reserved":false,"is_disabled":false,"rental_uris":{"android":"levelo://app?vid=b2b9f3d6-a061-4ef3-bcc4-d6af18337c10","ios":"levelo://app?vid=b2b9f3d6-a061-4ef3-bcc4-d6af18337c10"},"vehicle_type_id":"4","last_reported":1729760976,"current_range_meters":24800,"station_id":"ce4bgs92rcd13ifvqcc0","pricing_plan_id":"cebpf4jnsgd1na2vs0mg"},{"bike_id":"35c4ccfe-570c-4c7c-b9cc-a3c1ab167257","system_id":"levelo_inurba_marseille","lat":43.29848,"lon":5.36282,"is_reserved":false,"is_disabled":false,"rental_uris":{"android":"levelo://app?vid=35c4ccfe-570c-4c7c-b9cc-a3c1ab167257","ios":"levelo://app?vid=35c4ccfe-570c-4c7c-b9cc-a3c1ab167257"},"vehicle_type_id":"4","last_reported":1729760976,"current_range_meters":38800,"station_id":"ce4bgpp2rcd13ifvqc3g","pricing_plan_id":"cebpf4jnsgd1na2vs0mg"},{"bike_id":"c3e70af7-3f2f-4929-ac75-99c2d70a3d79","system_id":"levelo_inurba_marseille","lat":43.30136,"lon":5.37421,"is_reserved":false,"is_disabled":false,"rental_uris":{"android":"levelo://app?vid=c3e70af7-3f2f-4929-ac75-99c2d70a3d79","ios":"levelo://app?vid=c3e70af7-3f2f-4929-ac75-99c2d70a3d79"},"vehicle_type_id":"4","last_reported":1729760976,"current_range_meters":17200,"station_id":"ce4bgs92rcd13ifvqcc0","pricing_plan_id":"cebpf4jnsgd1na2vs0mg"},{"bike_id":"4b6769f0-9d52-4427-92eb-85214df0463d","system_id":"levelo_inurba_marseille","lat":43.23192,"lon":5.35552,"is_reserved":false,"is_disabled":false,"rental_uris":{"android":"levelo://app?vid=4b6769f0-9d52-4427-92eb-85214df0463d","ios":"levelo://app?vid=4b6769f0-9d52-4427-92eb-85214df0463d"},"vehicle_type_id":"4","last_reported":1729760976,"current_range_meters":16000,"station_id":"ce4bhu92rcd13ifvqi70","pricing_plan_id":"cebpf4jnsgd1na2vs0mg"},{"bike_id":"4ec25af9-2c50-4187-b3b7-1dc66bf6c68a","system_id":"levelo_inurba_marseille","lat":43.28292,"lon":5.40863,"is_reserved":false,"is_disabled":false,"rental_uris":{"android":"levelo://app?vid=4ec25af9-2c50-4187-b3b7-1dc66bf6c68a","ios":"levelo://app?vid=4ec25af9-2c50-4187-b3b7-1dc66bf6c68a"},"vehicle_type_id":"4","last_reported":1729760976,"current_range_meters":8400,"station_id":"","pricing_plan_id":"cebpf4jnsgd1na2vs0mg"},{"bike_id":"e360ce09-236a-4b01-8d2b-2451a5894b4b","system_id":"levelo_inurba_marseille","lat":43.33022,"lon":5.39047,"is_reserved":false,"is_disabled":false,"rental_uris":{"android":"levelo://app?vid=e360ce09-236a-4b01-8d2b-2451a5894b4b","ios":"levelo://app?vid=e360ce09-236a-4b01-8d2b-2451a5894b4b"},"vehicle_type_id":"4","last_reported":1729760976,"current_range_meters":38400,"station_id":"ce4bhr92rcd13ifvqhrg","pricing_plan_id":"cebpf4jnsgd1na2vs0mg"},{"bike_id":"210011e6-5b73-4a73-8954-d6c4e1e46ab2","system_id":"levelo_inurba_marseille","lat":43.312302,"lon":5.402305,"is_reserved":false,"is_disabled":false,"rental_uris":{"android":"levelo://app?vid=210011e6-5b73-4a73-8954-d6c4e1e46ab2","ios":"levelo://app?vid=210011e6-5b73-4a73-8954-d6c4e1e46ab2"},"vehicle_type_id":"4","last_reported":1729760976,"current_range_meters":26800,"station_id":"ce4bh092rcd13ifvqd30","pricing_plan_id":"cebpf4jnsgd1na2vs0mg"},{"bike_id":"416f51b5-5181-4810-a43d-07bd60e46478","system_id":"levelo_inurba_marseille","lat":43.29304,"lon":5.37176,"is_reserved":false,"is_disabled":false,"rental_uris":{"android":"levelo://app?vid=416f51b5-5181-4810-a43d-07bd60e46478","ios":"levelo://app?vid=416f51b5-5181-4810-a43d-07bd60e46478"},"vehicle_type_id":"4","last_reported":1729760976,"current_range_meters":18000,"station_id":"ce4bgh92rcd13ifvqb40","pricing_plan_id":"cebpf4jnsgd1na2vs0mg"},{"bike_id":"eb098abf-7816-4ec9-ba59-3967db2af13f","system_id":"levelo_inurba_marseille","lat":43.27175,"lon":5.40999,"is_reserved":false,"is_disabled":false,"rental_uris":{"android":"levelo://app?vid=eb098abf-7816-4ec9-ba59-3967db2af13f","ios":"levelo://app?vid=eb098abf-7816-4ec9-ba59-3967db2af13f"},"vehicle_type_id":"4","last_reported":1729760976,"current_range_meters":38400,"station_id":"ce4bhl12rcd13ifvqgf0","pricing_plan_id":"cebpf4jnsgd1na2vs0mg"},{"bike_id":"11f4da9f-54d4-4fc3-bb64-30048373bf8c","system_id":"levelo_inurba_marseille","lat":43.2315,"lon":5.43717,"is_reserved":false,"is_disabled":false,"rental_uris":{"android":"levelo://app?vid=11f4da9f-54d4-4fc3-bb64-30048373bf8c","ios":"levelo://app?vid=11f4da9f-54d4-4fc3-bb64-30048373bf8c"},"vehicle_type_id":"4","last_reported":1729760976,"current_range_meters":17600,"station_id":"ce4bhmp2rcd13ifvqgog","pricing_plan_id":"cebpf4jnsgd1na2vs0mg"},{"bike_id":"103ed008-6f4b-4142-8ae0-e6b210d9a427","system_id":"levelo_inurba_marseille","lat":43.22928,"lon":5.35374,"is_reserved":false,"is_disabled":false,"rental_uris":{"android":"levelo://app?vid=103ed008-6f4b-4142-8ae0-e6b210d9a427","ios":"levelo://app?vid=103ed008-6f4b-4142-8ae0-e6b210d9a427"},"vehicle_type_id":"4","last_reported":1729760976,"current_range_meters":11600,"station_id":"cpo3532slgdg3j2ikp40","pricing_plan_id":"cebpf4jnsgd1na2vs0mg"},{"bike_id":"ca5536a6-d4cf-4970-b396-d6337f5fcca0","system_id":"levelo_inurba_marseille","lat":43.33604,"lon":5.41039,"is_reserved":false,"is_disabled":false,"rental_uris":{"android":"levelo://app?vid=ca5536a6-d4cf-4970-b396-d6337f5fcca0","ios":"levelo://app?vid=ca5536a6-d4cf-4970-b396-d6337f5fcca0"},"vehicle_type_id":"4","last_reported":1729760976,"current_range_meters":10800,"station_id":"ce4bhqh2rcd13ifvqhmg","pricing_plan_id":"cebpf4jnsgd1na2vs0mg"},{"bike_id":"f9a8e319-30de-4bf2-b2fc-28dce701184b","system_id":"levelo_inurba_marseille","lat":43.29601,"lon":5.37404,"is_reserved":false,"is_disabled":false,"rental_uris":{"android":"levelo://app?vid=f9a8e319-30de-4bf2-b2fc-28dce701184b","ios":"levelo://app?vid=f9a8e319-30de-4bf2-b2fc-28dce701184b"},"vehicle_type_id":"4","last_reported":1729760976,"current_range_meters":19200,"station_id":"ce4bh9p2rcd13ifvqec0","pricing_plan_id":"cebpf4jnsgd1na2vs0mg"},{"bike_id":"dded596a-f90c-4c39-88ca-17060e5fd4d0","system_id":"levelo_inurba_marseille","lat":43.25932,"lon":5.40913,"is_reserved":false,"is_disabled":false,"rental_uris":{"android":"levelo://app?vid=dded596a-f90c-4c39-88ca-17060e5fd4d0","ios":"levelo://app?vid=dded596a-f90c-4c39-88ca-17060e5fd4d0"},"vehicle_type_id":"4","last_reported":1729760976,"current_range_meters":8000,"station_id":"ce4bhm92rcd13ifvqglg","pricing_plan_id":"cebpf4jnsgd1na2vs0mg"},{"bike_id":"78cd2e9b-6801-4bef-96b5-e7a5c8c2e050","system_id":"levelo_inurba_marseille","lat":43.2439,"lon":5.37058,"is_reserved":false,"is_disabled":false,"rental_uris":{"android":"levelo://app?vid=78cd2e9b-6801-4bef-96b5-e7a5c8c2e050","ios":"levelo://app?vid=78cd2e9b-6801-4bef-96b5-e7a5c8c2e050"},"vehicle_type_id":"4","last_reported":1729760976,"current_range_meters":38400,"station_id":"ce4bhhh2rcd13ifvqfk0","pricing_plan_id":"cebpf4jnsgd1na2vs0mg"},{"bike_id":"e93d0849-6889-4c3b-b756-5d2c77aee686","system_id":"levelo_inurba_marseille","lat":43.27988,"lon":5.4166,"is_reserved":false,"is_disabled":false,"rental_uris":{"android":"levelo://app?vid=e93d0849-6889-4c3b-b756-5d2c77aee686","ios":"levelo://app?vid=e93d0849-6889-4c3b-b756-5d2c77aee686"},"vehicle_type_id":"4","last_reported":1729760976,"current_range_meters":38400,"station_id":"ce4bho12rcd13ifvqh1g","pricing_plan_id":"cebpf4jnsgd1na2vs0mg"},{"bike_id":"676ada43-536f-44a4-a43f-8e61c8f9bf81","system_id":"levelo_inurba_marseille","lat":43.30549,"lon":5.36541,"is_reserved":false,"is_disabled":false,"rental_uris":{"android":"levelo://app?vid=676ada43-536f-44a4-a43f-8e61c8f9bf81","ios":"levelo://app?vid=676ada43-536f-44a4-a43f-8e61c8f9bf81"},"vehicle_type_id":"4","last_reported":1729760976,"current_range_meters":28400,"station_id":"ce4bgs12rcd13ifvqcag","pricing_plan_id":"cebpf4jnsgd1na2vs0mg"},{"bike_id":"40aef2b4-8e15-4951-ac8c-4ec26d41b1e7","system_id":"levelo_inurba_marseille","lat":43.26947,"lon":5.3863,"is_reserved":false,"is_disabled":false,"rental_uris":{"android":"levelo://app?vid=40aef2b4-8e15-4951-ac8c-4ec26d41b1e7","ios":"levelo://app?vid=40aef2b4-8e15-4951-ac8c-4ec26d41b1e7"},"vehicle_type_id":"4","last_reported":1729760976,"current_range_meters":36800,"station_id":"ce4bhh92rcd13ifvqfh0","pricing_plan_id":"cebpf4jnsgd1na2vs0mg"},{"bike_id":"ad297b4a-0149-46a8-9574-4f0bf0a867b7","system_id":"levelo_inurba_marseille","lat":43.26954,"lon":5.38632,"is_reserved":false,"is_disabled":false,"rental_uris":{"android":"levelo://app?vid=ad297b4a-0149-46a8-9574-4f0bf0a867b7","ios":"levelo://app?vid=ad297b4a-0149-46a8-9574-4f0bf0a867b7"},"vehicle_type_id":"4","last_reported":1729760976,"current_range_meters":21600,"station_id":"ce4bhh92rcd13ifvqfh0","pricing_plan_id":"cebpf4jnsgd1na2vs0mg"},{"bike_id":"54b88a6a-89cd-4068-ae20-aab1b2e58c86","system_id":"levelo_inurba_marseille","lat":43.26679,"lon":5.38271,"is_reserved":false,"is_disabled":false,"rental_uris":{"android":"levelo://app?vid=54b88a6a-89cd-4068-ae20-aab1b2e58c86","ios":"levelo://app?vid=54b88a6a-89cd-4068-ae20-aab1b2e58c86"},"vehicle_type_id":"4","last_reported":1729760976,"current_range_meters":10000,"station_id":"ce4bhg92rcd13ifvqf90","pricing_plan_id":"cebpf4jnsgd1na2vs0mg"},{"bike_id":"53c31639-0c10-4eec-929c-a4ad5bb37ce6","system_id":"levelo_inurba_marseille","lat":43.30537,"lon":5.36701,"is_reserved":false,"is_disabled":false,"rental_uris":{"android":"levelo://app?vid=53c31639-0c10-4eec-929c-a4ad5bb37ce6","ios":"levelo://app?vid=53c31639-0c10-4eec-929c-a4ad5bb37ce6"},"vehicle_type_id":"4","last_reported":1729760976,"current_range_meters":38800,"station_id":"ce4bgrp2rcd13ifvqc9g","pricing_plan_id":"cebpf4jnsgd1na2vs0mg"},{"bike_id":"0bc90dc2-cf8c-457e-a6aa-9b91de95f992","system_id":"levelo_inurba_marseille","lat":43.22783,"lon":5.41575,"is_reserved":false,"is_disabled":false,"rental_uris":{"android":"levelo://app?vid=0bc90dc2-cf8c-457e-a6aa-9b91de95f992","ios":"levelo://app?vid=0bc90dc2-cf8c-457e-a6aa-9b91de95f992"},"vehicle_type_id":"4","last_reported":1729760976,"current_range_meters":33600,"station_id":"","pricing_plan_id":"cebpf4jnsgd1na2vs0mg"},{"bike_id":"6c36be43-1f2d-4d5d-ae74-83ec55860d18","system_id":"levelo_inurba_marseille","lat":43.29971,"lon":5.38494,"is_reserved":false,"is_disabled":false,"rental_uris":{"android":"levelo://app?vid=6c36be43-1f2d-4d5d-ae74-83ec55860d18","ios":"levelo://app?vid=6c36be43-1f2d-4d5d-ae74-83ec55860d18"},"vehicle_type_id":"4","last_reported":1729760976,"current_range_meters":6000,"station_id":"ce4bgj92rcd13ifvqbd0","pricing_plan_id":"cebpf4jnsgd1na2vs0mg"},{"bike_id":"65d0e1cb-03f2-4647-a94d-794b8001f709","system_id":"levelo_inurba_marseille","lat":43.309505,"lon":5.39039,"is_reserved":false,"is_disabled":false,"rental_uris":{"android":"levelo://app?vid=65d0e1cb-03f2-4647-a94d-794b8001f709","ios":"levelo://app?vid=65d0e1cb-03f2-4647-a94d-794b8001f709"},"vehicle_type_id":"4","last_reported":1729760976,"current_range_meters":30400,"station_id":"ce4bgup2rcd13ifvqco0","pricing_plan_id":"cebpf4jnsgd1na2vs0mg"},{"bike_id":"adb692e3-757f-448e-88e2-08bb58fbf765","system_id":"levelo_inurba_marseille","lat":43.30466,"lon":5.37906,"is_reserved":false,"is_disabled":false,"rental_uris":{"android":"levelo://app?vid=adb692e3-757f-448e-88e2-08bb58fbf765","ios":"levelo://app?vid=adb692e3-757f-448e-88e2-08bb58fbf765"},"vehicle_type_id":"4","last_reported":1729760976,"current_range_meters":16000,"station_id":"ce4bgup2rcd13ifvqcn0","pricing_plan_id":"cebpf4jnsgd1na2vs0mg"},{"bike_id":"af38d5e4-0e39-4374-845f-f1a25b139460","system_id":"levelo_inurba_marseille","lat":43.30178,"lon":5.36623,"is_reserved":false,"is_disabled":false,"rental_uris":{"android":"levelo://app?vid=af38d5e4-0e39-4374-845f-f1a25b139460","ios":"levelo://app?vid=af38d5e4-0e39-4374-845f-f1a25b139460"},"vehicle_type_id":"4","last_reported":1729760976,"current_range_meters":31200,"station_id":"ce4bgrh2rcd13ifvqc8g","pricing_plan_id":"cebpf4jnsgd1na2vs0mg"},{"bike_id":"bb2a666e-d4fd-434c-9930-bd52d9e92c1d","system_id":"levelo_inurba_marseille","lat":43.2594,"lon":5.40904,"is_reserved":false,"is_disabled":false,"rental_uris":{"android":"levelo://app?vid=bb2a666e-d4fd-434c-9930-bd52d9e92c1d","ios":"levelo://app?vid=bb2a666e-d4fd-434c-9930-bd52d9e92c1d"},"vehicle_type_id":"4","last_reported":1729760976,"current_range_meters":37600,"station_id":"ce4bhm92rcd13ifvqglg","pricing_plan_id":"cebpf4jnsgd1na2vs0mg"},{"bike_id":"9050aa27-210e-4a00-99a6-53ce385deffc","system_id":"levelo_inurba_marseille","lat":43.29624,"lon":5.37151,"is_reserved":false,"is_disabled":false,"rental_uris":{"android":"levelo://app?vid=9050aa27-210e-4a00-99a6-53ce385deffc","ios":"levelo://app?vid=9050aa27-210e-4a00-99a6-53ce385deffc"},"vehicle_type_id":"4","last_reported":1729760976,"current_range_meters":34000,"station_id":"ce4bgnh2rcd13ifvqc0g","pricing_plan_id":"cebpf4jnsgd1na2vs0mg"},{"bike_id":"a0bfcec4-1019-4422-bc30-2e46cb48cb4e","system_id":"levelo_inurba_marseille","lat":43.33753,"lon":5.37433,"is_reserved":false,"is_disabled":false,"rental_uris":{"android":"levelo://app?vid=a0bfcec4-1019-4422-bc30-2e46cb48cb4e","ios":"levelo://app?vid=a0bfcec4-1019-4422-bc30-2e46cb48cb4e"},"vehicle_type_id":"4","last_reported":1729760976,"current_range_meters":23200,"station_id":"","pricing_plan_id":"cebpf4jnsgd1na2vs0mg"},{"bike_id":"1073f825-e44c-4e4a-b9cc-76b207edc148","system_id":"levelo_inurba_marseille","lat":43.25934,"lon":5.40909,"is_reserved":false,"is_disabled":false,"rental_uris":{"android":"levelo://app?vid=1073f825-e44c-4e4a-b9cc-76b207edc148","ios":"levelo://app?vid=1073f825-e44c-4e4a-b9cc-76b207edc148"},"vehicle_type_id":"4","last_reported":1729760976,"current_range_meters":30400,"station_id":"ce4bhm92rcd13ifvqglg","pricing_plan_id":"cebpf4jnsgd1na2vs0mg"},{"bike_id":"2b8730be-ef37-4431-9d19-d02d441014a3","system_id":"levelo_inurba_marseille","lat":43.25933,"lon":5.40911,"is_reserved":false,"is_disabled":false,"rental_uris":{"android":"levelo://app?vid=2b8730be-ef37-4431-9d19-d02d441014a3","ios":"levelo://app?vid=2b8730be-ef37-4431-9d19-d02d441014a3"},"vehicle_type_id":"4","last_reported":1729760976,"current_range_meters":29600,"station_id":"ce4bhm92rcd13ifvqglg","pricing_plan_id":"cebpf4jnsgd1na2vs0mg"},{"bike_id":"96899c8c-0ef9-4a29-be88-9667e7a7b523","system_id":"levelo_inurba_marseille","lat":43.24395,"lon":5.37059,"is_reserved":false,"is_disabled":false,"rental_uris":{"android":"levelo://app?vid=96899c8c-0ef9-4a29-be88-9667e7a7b523","ios":"levelo://app?vid=96899c8c-0ef9-4a29-be88-9667e7a7b523"},"vehicle_type_id":"4","last_reported":1729760976,"current_range_meters":38800,"station_id":"ce4bhhh2rcd13ifvqfk0","pricing_plan_id":"cebpf4jnsgd1na2vs0mg"},{"bike_id":"9cc86360-5eab-45ae-a458-952e8a91e43e","system_id":"levelo_inurba_marseille","lat":43.22933,"lon":5.35379,"is_reserved":false,"is_disabled":false,"rental_uris":{"android":"levelo://app?vid=9cc86360-5eab-45ae-a458-952e8a91e43e","ios":"levelo://app?vid=9cc86360-5eab-45ae-a458-952e8a91e43e"},"vehicle_type_id":"4","last_reported":1729760976,"current_range_meters":17200,"station_id":"cpo3532slgdg3j2ikp40","pricing_plan_id":"cebpf4jnsgd1na2vs0mg"},{"bike_id":"e58254e7-ba4e-4d9d-8fff-364ee51af42e","system_id":"levelo_inurba_marseille","lat":43.23154,"lon":5.43706,"is_reserved":false,"is_disabled":false,"rental_uris":{"android":"levelo://app?vid=e58254e7-ba4e-4d9d-8fff-364ee51af42e","ios":"levelo://app?vid=e58254e7-ba4e-4d9d-8fff-364ee51af42e"},"vehicle_type_id":"4","last_reported":1729760976,"current_range_meters":4800,"station_id":"ce4bhmp2rcd13ifvqgog","pricing_plan_id":"cebpf4jnsgd1na2vs0mg"},{"bike_id":"c3f15728-1002-4a81-9a7d-d6650f8bf91c","system_id":"levelo_inurba_marseille","lat":43.28353,"lon":5.38099,"is_reserved":false,"is_disabled":false,"rental_uris":{"android":"levelo://app?vid=c3f15728-1002-4a81-9a7d-d6650f8bf91c","ios":"levelo://app?vid=c3f15728-1002-4a81-9a7d-d6650f8bf91c"},"vehicle_type_id":"4","last_reported":1729760976,"current_range_meters":26800,"station_id":"ce4bh412rcd13ifvqdr0","pricing_plan_id":"cebpf4jnsgd1na2vs0mg"},{"bike_id":"8b900a92-59b7-489f-8bcb-cd0143bc2a5d","system_id":"levelo_inurba_marseille","lat":43.29305,"lon":5.37163,"is_reserved":false,"is_disabled":false,"rental_uris":{"android":"levelo://app?vid=8b900a92-59b7-489f-8bcb-cd0143bc2a5d","ios":"levelo://app?vid=8b900a92-59b7-489f-8bcb-cd0143bc2a5d"},"vehicle_type_id":"4","last_reported":1729760976,"current_range_meters":27200,"station_id":"ce4bgh92rcd13ifvqb40","pricing_plan_id":"cebpf4jnsgd1na2vs0mg"},{"bike_id":"91574e4d-3e0d-40e3-bff2-5ef84f5be2ac","system_id":"levelo_inurba_marseille","lat":43.26501,"lon":5.3954,"is_reserved":false,"is_disabled":false,"rental_uris":{"android":"levelo://app?vid=91574e4d-3e0d-40e3-bff2-5ef84f5be2ac","ios":"levelo://app?vid=91574e4d-3e0d-40e3-bff2-5ef84f5be2ac"},"vehicle_type_id":"4","last_reported":1729760976,"current_range_meters":25600,"station_id":"ce4bhi12rcd13ifvqfq0","pricing_plan_id":"cebpf4jnsgd1na2vs0mg"},{"bike_id":"d8112a4a-95f5-43ca-a1c8-c1d3cce952c4","system_id":"levelo_inurba_marseille","lat":43.31269,"lon":5.40169,"is_reserved":false,"is_disabled":false,"rental_uris":{"android":"levelo://app?vid=d8112a4a-95f5-43ca-a1c8-c1d3cce952c4","ios":"levelo://app?vid=d8112a4a-95f5-43ca-a1c8-c1d3cce952c4"},"vehicle_type_id":"4","last_reported":1729760976,"current_range_meters":26000,"station_id":"ce4bh092rcd13ifvqd30","pricing_plan_id":"cebpf4jnsgd1na2vs0mg"},{"bike_id":"2ec9e0b4-e0e2-4964-addd-52427af08b8d","system_id":"levelo_inurba_marseille","lat":43.31345,"lon":5.36718,"is_reserved":false,"is_disabled":false,"rental_uris":{"android":"levelo://app?vid=2ec9e0b4-e0e2-4964-addd-52427af08b8d","ios":"levelo://app?vid=2ec9e0b4-e0e2-4964-addd-52427af08b8d"},"vehicle_type_id":"4","last_reported":1729760976,"current_range_meters":35600,"station_id":"ce4bgr92rcd13ifvqc6g","pricing_plan_id":"cebpf4jnsgd1na2vs0mg"},{"bike_id":"484f6353-c630-4b55-8b88-6f80ade67c05","system_id":"levelo_inurba_marseille","lat":43.32655,"lon":5.40992,"is_reserved":false,"is_disabled":false,"rental_uris":{"android":"levelo://app?vid=484f6353-c630-4b55-8b88-6f80ade67c05","ios":"levelo://app?vid=484f6353-c630-4b55-8b88-6f80ade67c05"},"vehicle_type_id":"4","last_reported":1729760976,"current_range_meters":39200,"station_id":"ce4bhpp2rcd13ifvqhgg","pricing_plan_id":"cebpf4jnsgd1na2vs0mg"},{"bike_id":"e8d0ac63-9341-4151-adb7-1e0c24619ff3","system_id":"levelo_inurba_marseille","lat":43.33616,"lon":5.41035,"is_reserved":false,"is_disabled":false,"rental_uris":{"android":"levelo://app?vid=e8d0ac63-9341-4151-adb7-1e0c24619ff3","ios":"levelo://app?vid=e8d0ac63-9341-4151-adb7-1e0c24619ff3"},"vehicle_type_id":"4","last_reported":1729760976,"current_range_meters":38800,"station_id":"ce4bhqh2rcd13ifvqhmg","pricing_plan_id":"cebpf4jnsgd1na2vs0mg"},{"bike_id":"cfcebfa7-3f59-4d32-a8f1-45e59f6e2f26","system_id":"levelo_inurba_marseille","lat":43.22932,"lon":5.35378,"is_reserved":false,"is_disabled":false,"rental_uris":{"android":"levelo://app?vid=cfcebfa7-3f59-4d32-a8f1-45e59f6e2f26","ios":"levelo://app?vid=cfcebfa7-3f59-4d32-a8f1-45e59f6e2f26"},"vehicle_type_id":"4","last_reported":1729760976,"current_range_meters":32000,"station_id":"cpo3532slgdg3j2ikp40","pricing_plan_id":"cebpf4jnsgd1na2vs0mg"},{"bike_id":"6d26f9f1-b429-4a1e-bf7a-571041540158","system_id":"levelo_inurba_marseille","lat":43.28936,"lon":5.36644,"is_reserved":false,"is_disabled":false,"rental_uris":{"android":"levelo://app?vid=6d26f9f1-b429-4a1e-bf7a-571041540158","ios":"levelo://app?vid=6d26f9f1-b429-4a1e-bf7a-571041540158"},"vehicle_type_id":"4","last_reported":1729760976,"current_range_meters":36400,"station_id":"ce4bhap2rcd13ifvqek0","pricing_plan_id":"cebpf4jnsgd1na2vs0mg"},{"bike_id":"3e381e9b-65a4-436a-a571-b4ba1ee13663","system_id":"levelo_inurba_marseille","lat":43.3248,"lon":5.36563,"is_reserved":false,"is_disabled":false,"rental_uris":{"android":"levelo://app?vid=3e381e9b-65a4-436a-a571-b4ba1ee13663","ios":"levelo://app?vid=3e381e9b-65a4-436a-a571-b4ba1ee13663"},"vehicle_type_id":"4","last_reported":1729760976,"current_range_meters":16800,"station_id":"ce4bhs12rcd13ifvqhvg","pricing_plan_id":"cebpf4jnsgd1na2vs0mg"},{"bike_id":"a3dcf7ee-59f1-4f53-936b-77f32b59962d","system_id":"levelo_inurba_marseille","lat":43.27497,"lon":5.42451,"is_reserved":false,"is_disabled":false,"rental_uris":{"android":"levelo://app?vid=a3dcf7ee-59f1-4f53-936b-77f32b59962d","ios":"levelo://app?vid=a3dcf7ee-59f1-4f53-936b-77f32b59962d"},"vehicle_type_id":"4","last_reported":1729760976,"current_range_meters":40000,"station_id":"ce4bhn92rcd13ifvqgrg","pricing_plan_id":"cebpf4jnsgd1na2vs0mg"},{"bike_id":"3a526fc6-5f14-429c-8829-287dc38ef285","system_id":"levelo_inurba_marseille","lat":43.22931,"lon":5.35374,"is_reserved":false,"is_disabled":false,"rental_uris":{"android":"levelo://app?vid=3a526fc6-5f14-429c-8829-287dc38ef285","ios":"levelo://app?vid=3a526fc6-5f14-429c-8829-287dc38ef285"},"vehicle_type_id":"4","last_reported":1729760976,"current_range_meters":32400,"station_id":"cpo3532slgdg3j2ikp40","pricing_plan_id":"cebpf4jnsgd1na2vs0mg"},{"bike_id":"50d120a1-10db-46f7-af46-f5262df90342","system_id":"levelo_inurba_marseille","lat":43.2418,"lon":5.39731,"is_reserved":false,"is_disabled":false,"rental_uris":{"android":"levelo://app?vid=50d120a1-10db-46f7-af46-f5262df90342","ios":"levelo://app?vid=50d120a1-10db-46f7-af46-f5262df90342"},"vehicle_type_id":"4","last_reported":1729760976,"current_range_meters":30400,"station_id":"ce4bhn12rcd13ifvqgpg","pricing_plan_id":"cebpf4jnsgd1na2vs0mg"},{"bike_id":"a07dffb7-f4f8-47f4-8f1c-a7a5beafe8fa","system_id":"levelo_inurba_marseille","lat":43.24385,"lon":5.37052,"is_reserved":false,"is_disabled":false,"rental_uris":{"android":"levelo://app?vid=a07dffb7-f4f8-47f4-8f1c-a7a5beafe8fa","ios":"levelo://app?vid=a07dffb7-f4f8-47f4-8f1c-a7a5beafe8fa"},"vehicle_type_id":"4","last_reported":1729760976,"current_range_meters":22400,"station_id":"ce4bhhh2rcd13ifvqfk0","pricing_plan_id":"cebpf4jnsgd1na2vs0mg"},{"bike_id":"997a4cde-dbf6-4168-b909-b1aff6d46313","system_id":"levelo_inurba_marseille","lat":43.27213,"lon":5.39173,"is_reserved":false,"is_disabled":false,"rental_uris":{"android":"levelo://app?vid=997a4cde-dbf6-4168-b909-b1aff6d46313","ios":"levelo://app?vid=997a4cde-dbf6-4168-b909-b1aff6d46313"},"vehicle_type_id":"4","last_reported":1729760976,"current_range_meters":7200,"station_id":"ce4bhhp2rcd13ifvqfm0","pricing_plan_id":"cebpf4jnsgd1na2vs0mg"},{"bike_id":"365a5e76-e012-4983-b8a9-1a07480bde83","system_id":"levelo_inurba_marseille","lat":43.23192,"lon":5.35547,"is_reserved":false,"is_disabled":false,"rental_uris":{"android":"levelo://app?vid=365a5e76-e012-4983-b8a9-1a07480bde83","ios":"levelo://app?vid=365a5e76-e012-4983-b8a9-1a07480bde83"},"vehicle_type_id":"4","last_reported":1729760976,"current_range_meters":40000,"station_id":"ce4bhu92rcd13ifvqi70","pricing_plan_id":"cebpf4jnsgd1na2vs0mg"},{"bike_id":"6238641e-c4b1-47db-8e1c-3446ea1a80b0","system_id":"levelo_inurba_marseille","lat":43.30558,"lon":5.36541,"is_reserved":false,"is_disabled":false,"rental_uris":{"android":"levelo://app?vid=6238641e-c4b1-47db-8e1c-3446ea1a80b0","ios":"levelo://app?vid=6238641e-c4b1-47db-8e1c-3446ea1a80b0"},"vehicle_type_id":"4","last_reported":1729760976,"current_range_meters":33200,"station_id":"ce4bgs12rcd13ifvqcag","pricing_plan_id":"cebpf4jnsgd1na2vs0mg"},{"bike_id":"c0a2c481-fabb-4e11-a000-2c2c1e1749fa","system_id":"levelo_inurba_marseille","lat":43.22929,"lon":5.35375,"is_reserved":false,"is_disabled":false,"rental_uris":{"android":"levelo://app?vid=c0a2c481-fabb-4e11-a000-2c2c1e1749fa","ios":"levelo://app?vid=c0a2c481-fabb-4e11-a000-2c2c1e1749fa"},"vehicle_type_id":"4","last_reported":1729760976,"current_range_meters":19200,"station_id":"cpo3532slgdg3j2ikp40","pricing_plan_id":"cebpf4jnsgd1na2vs0mg"},{"bike_id":"dc411e3e-cc9a-4ce4-8132-7a80b983de2d","system_id":"levelo_inurba_marseille","lat":43.26493,"lon":5.39547,"is_reserved":false,"is_disabled":false,"rental_uris":{"android":"levelo://app?vid=dc411e3e-cc9a-4ce4-8132-7a80b983de2d","ios":"levelo://app?vid=dc411e3e-cc9a-4ce4-8132-7a80b983de2d"},"vehicle_type_id":"4","last_reported":1729760976,"current_range_meters":38800,"station_id":"ce4bhi12rcd13ifvqfq0","pricing_plan_id":"cebpf4jnsgd1na2vs0mg"},{"bike_id":"0b9e4057-ab6b-4f8d-b677-caa270a65354","system_id":"levelo_inurba_marseille","lat":43.34148,"lon":5.409,"is_reserved":false,"is_disabled":false,"rental_uris":{"android":"levelo://app?vid=0b9e4057-ab6b-4f8d-b677-caa270a65354","ios":"levelo://app?vid=0b9e4057-ab6b-4f8d-b677-caa270a65354"},"vehicle_type_id":"4","last_reported":1729760976,"current_range_meters":38800,"station_id":"ce4bhqh2rcd13ifvqhlg","pricing_plan_id":"cebpf4jnsgd1na2vs0mg"},{"bike_id":"202255a6-3057-4067-a7c7-9e233aaae88f","system_id":"levelo_inurba_marseille","lat":43.29006,"lon":5.35621,"is_reserved":false,"is_disabled":false,"rental_uris":{"android":"levelo://app?vid=202255a6-3057-4067-a7c7-9e233aaae88f","ios":"levelo://app?vid=202255a6-3057-4067-a7c7-9e233aaae88f"},"vehicle_type_id":"4","last_reported":1729760976,"current_range_meters":38000,"station_id":"ce4bhb92rcd13ifvqen0","pricing_plan_id":"cebpf4jnsgd1na2vs0mg"},{"bike_id":"3dc2eb7e-15a4-47fb-81be-d850bbd51ccf","system_id":"levelo_inurba_marseille","lat":43.337444,"lon":5.374475,"is_reserved":false,"is_disabled":false,"rental_uris":{"android":"levelo://app?vid=3dc2eb7e-15a4-47fb-81be-d850bbd51ccf","ios":"levelo://app?vid=3dc2eb7e-15a4-47fb-81be-d850bbd51ccf"},"vehicle_type_id":"4","last_reported":1729760976,"current_range_meters":38800,"station_id":"","pricing_plan_id":"cebpf4jnsgd1na2vs0mg"},{"bike_id":"48a71a10-4989-4826-a330-ad6a8c8edf29","system_id":"levelo_inurba_marseille","lat":43.30461,"lon":5.37897,"is_reserved":false,"is_disabled":false,"rental_uris":{"android":"levelo://app?vid=48a71a10-4989-4826-a330-ad6a8c8edf29","ios":"levelo://app?vid=48a71a10-4989-4826-a330-ad6a8c8edf29"},"vehicle_type_id":"4","last_reported":1729760976,"current_range_meters":38800,"station_id":"ce4bgup2rcd13ifvqcn0","pricing_plan_id":"cebpf4jnsgd1na2vs0mg"},{"bike_id":"3d79d8c7-210c-438d-beb7-1aefc7439ccc","system_id":"levelo_inurba_marseille","lat":43.29732,"lon":5.37695,"is_reserved":false,"is_disabled":false,"rental_uris":{"android":"levelo://app?vid=3d79d8c7-210c-438d-beb7-1aefc7439ccc","ios":"levelo://app?vid=3d79d8c7-210c-438d-beb7-1aefc7439ccc"},"vehicle_type_id":"4","last_reported":1729760976,"current_range_meters":32800,"station_id":"ce4bgkh2rcd13ifvqbl0","pricing_plan_id":"cebpf4jnsgd1na2vs0mg"},{"bike_id":"4cb21981-bd65-4138-815f-70ed67f688bc","system_id":"levelo_inurba_marseille","lat":43.26929,"lon":5.3892,"is_reserved":false,"is_disabled":false,"rental_uris":{"android":"levelo://app?vid=4cb21981-bd65-4138-815f-70ed67f688bc","ios":"levelo://app?vid=4cb21981-bd65-4138-815f-70ed67f688bc"},"vehicle_type_id":"4","last_reported":1729760976,"current_range_meters":38000,"station_id":"ce4bhhh2rcd13ifvqfl0","pricing_plan_id":"cebpf4jnsgd1na2vs0mg"},{"bike_id":"bd0dc981-55ab-4a5f-9621-dcd1f19a3506","system_id":"levelo_inurba_marseille","lat":43.26797,"lon":5.39413,"is_reserved":false,"is_disabled":false,"rental_uris":{"android":"levelo://app?vid=bd0dc981-55ab-4a5f-9621-dcd1f19a3506","ios":"levelo://app?vid=bd0dc981-55ab-4a5f-9621-dcd1f19a3506"},"vehicle_type_id":"4","last_reported":1729760976,"current_range_meters":24400,"station_id":"ce4bhh12rcd13ifvqfg0","pricing_plan_id":"cebpf4jnsgd1na2vs0mg"},{"bike_id":"6ae03549-5478-4731-b9e3-9ceeba8b2934","system_id":"levelo_inurba_marseille","lat":43.32366,"lon":5.38882,"is_reserved":false,"is_disabled":false,"rental_uris":{"android":"levelo://app?vid=6ae03549-5478-4731-b9e3-9ceeba8b2934","ios":"levelo://app?vid=6ae03549-5478-4731-b9e3-9ceeba8b2934"},"vehicle_type_id":"4","last_reported":1729760976,"current_range_meters":18800,"station_id":"ce4bhqp2rcd13ifvqhog","pricing_plan_id":"cebpf4jnsgd1na2vs0mg"},{"bike_id":"0b09b582-0ee7-4ddb-9854-87e85e7391b2","system_id":"levelo_inurba_marseille","lat":43.29585,"lon":5.36743,"is_reserved":false,"is_disabled":false,"rental_uris":{"android":"levelo://app?vid=0b09b582-0ee7-4ddb-9854-87e85e7391b2","ios":"levelo://app?vid=0b09b582-0ee7-4ddb-9854-87e85e7391b2"},"vehicle_type_id":"4","last_reported":1729760976,"current_range_meters":38800,"station_id":"ce4bgph2rcd13ifvqc2g","pricing_plan_id":"cebpf4jnsgd1na2vs0mg"},{"bike_id":"9bb2be0f-78e5-4e25-a5ae-9623fa90c53b","system_id":"levelo_inurba_marseille","lat":43.251156,"lon":5.40313,"is_reserved":false,"is_disabled":false,"rental_uris":{"android":"levelo://app?vid=9bb2be0f-78e5-4e25-a5ae-9623fa90c53b","ios":"levelo://app?vid=9bb2be0f-78e5-4e25-a5ae-9623fa90c53b"},"vehicle_type_id":"4","last_reported":1729760976,"current_range_meters":16000,"station_id":"ce4bhhp2rcd13ifvqfm0","pricing_plan_id":"cebpf4jnsgd1na2vs0mg"},{"bike_id":"10ed8c7b-0b46-4899-be3c-72844b8799cd","system_id":"levelo_inurba_marseille","lat":43.3061,"lon":5.37218,"is_reserved":false,"is_disabled":false,"rental_uris":{"android":"levelo://app?vid=10ed8c7b-0b46-4899-be3c-72844b8799cd","ios":"levelo://app?vid=10ed8c7b-0b46-4899-be3c-72844b8799cd"},"vehicle_type_id":"4","last_reported":1729760976,"current_range_meters":25600,"station_id":"ce4bgqh2rcd13ifvqc4g","pricing_plan_id":"cebpf4jnsgd1na2vs0mg"},{"bike_id":"104089ec-0f6c-4380-a3a3-9d46f231b584","system_id":"levelo_inurba_marseille","lat":43.29877,"lon":5.38936,"is_reserved":false,"is_disabled":false,"rental_uris":{"android":"levelo://app?vid=104089ec-0f6c-4380-a3a3-9d46f231b584","ios":"levelo://app?vid=104089ec-0f6c-4380-a3a3-9d46f231b584"},"vehicle_type_id":"4","last_reported":1729760976,"current_range_meters":33200,"station_id":"ce4bgr92rcd13ifvqc7g","pricing_plan_id":"cebpf4jnsgd1na2vs0mg"},{"bike_id":"1d180020-2774-494a-9712-55fe63b19d77","system_id":"levelo_inurba_marseille","lat":43.25937,"lon":5.40897,"is_reserved":false,"is_disabled":false,"rental_uris":{"android":"levelo://app?vid=1d180020-2774-494a-9712-55fe63b19d77","ios":"levelo://app?vid=1d180020-2774-494a-9712-55fe63b19d77"},"vehicle_type_id":"4","last_reported":1729760976,"current_range_meters":14000,"station_id":"ce4bhm92rcd13ifvqglg","pricing_plan_id":"cebpf4jnsgd1na2vs0mg"},{"bike_id":"2b8263e0-7230-429e-ad59-46fe84792315","system_id":"levelo_inurba_marseille","lat":43.30469,"lon":5.37911,"is_reserved":false,"is_disabled":false,"rental_uris":{"android":"levelo://app?vid=2b8263e0-7230-429e-ad59-46fe84792315","ios":"levelo://app?vid=2b8263e0-7230-429e-ad59-46fe84792315"},"vehicle_type_id":"4","last_reported":1729760976,"current_range_meters":37600,"station_id":"ce4bgup2rcd13ifvqcn0","pricing_plan_id":"cebpf4jnsgd1na2vs0mg"},{"bike_id":"f7049507-45c2-41d7-9262-0fb171be7c82","system_id":"levelo_inurba_marseille","lat":43.3249,"lon":5.36564,"is_reserved":false,"is_disabled":false,"rental_uris":{"android":"levelo://app?vid=f7049507-45c2-41d7-9262-0fb171be7c82","ios":"levelo://app?vid=f7049507-45c2-41d7-9262-0fb171be7c82"},"vehicle_type_id":"4","last_reported":1729760976,"current_range_meters":7200,"station_id":"ce4bhs12rcd13ifvqhvg","pricing_plan_id":"cebpf4jnsgd1na2vs0mg"},{"bike_id":"abfd30f5-95b6-4cac-a3a1-1eaa2ce2d044","system_id":"levelo_inurba_marseille","lat":43.33613,"lon":5.41034,"is_reserved":false,"is_disabled":false,"rental_uris":{"android":"levelo://app?vid=abfd30f5-95b6-4cac-a3a1-1eaa2ce2d044","ios":"levelo://app?vid=abfd30f5-95b6-4cac-a3a1-1eaa2ce2d044"},"vehicle_type_id":"4","last_reported":1729760976,"current_range_meters":30800,"station_id":"ce4bhqh2rcd13ifvqhmg","pricing_plan_id":"cebpf4jnsgd1na2vs0mg"},{"bike_id":"bef1f06b-12df-46cc-ab59-a6fed6408ed9","system_id":"levelo_inurba_marseille","lat":43.32539,"lon":5.4145,"is_reserved":false,"is_disabled":false,"rental_uris":{"android":"levelo://app?vid=bef1f06b-12df-46cc-ab59-a6fed6408ed9","ios":"levelo://app?vid=bef1f06b-12df-46cc-ab59-a6fed6408ed9"},"vehicle_type_id":"4","last_reported":1729760976,"current_range_meters":26000,"station_id":"ce4bhq12rcd13ifvqhhg","pricing_plan_id":"cebpf4jnsgd1na2vs0mg"},{"bike_id":"f380d3a4-3abc-4845-b60c-c424cba3f1ba","system_id":"levelo_inurba_marseille","lat":43.29981,"lon":5.37188,"is_reserved":false,"is_disabled":false,"rental_uris":{"android":"levelo://app?vid=f380d3a4-3abc-4845-b60c-c424cba3f1ba","ios":"levelo://app?vid=f380d3a4-3abc-4845-b60c-c424cba3f1ba"},"vehicle_type_id":"4","last_reported":1729760976,"current_range_meters":16800,"station_id":"ce4bgr92rcd13ifvqc7g","pricing_plan_id":"cebpf4jnsgd1na2vs0mg"},{"bike_id":"41605f85-731a-4250-9af2-c7b238256270","system_id":"levelo_inurba_marseille","lat":43.29299,"lon":5.37457,"is_reserved":false,"is_disabled":false,"rental_uris":{"android":"levelo://app?vid=41605f85-731a-4250-9af2-c7b238256270","ios":"levelo://app?vid=41605f85-731a-4250-9af2-c7b238256270"},"vehicle_type_id":"4","last_reported":1729760976,"current_range_meters":35200,"station_id":"ce4bgi12rcd13ifvqb70","pricing_plan_id":"cebpf4jnsgd1na2vs0mg"},{"bike_id":"e45eab98-32ce-4b22-86cc-8f84373556ec","system_id":"levelo_inurba_marseille","lat":43.30904,"lon":5.36866,"is_reserved":false,"is_disabled":false,"rental_uris":{"android":"levelo://app?vid=e45eab98-32ce-4b22-86cc-8f84373556ec","ios":"levelo://app?vid=e45eab98-32ce-4b22-86cc-8f84373556ec"},"vehicle_type_id":"4","last_reported":1729760976,"current_range_meters":36800,"station_id":"ce4bgn92rcd13ifvqbvg","pricing_plan_id":"cebpf4jnsgd1na2vs0mg"},{"bike_id":"2c4a684a-b69b-4a59-9f8f-3e61716fa58f","system_id":"levelo_inurba_marseille","lat":43.30544,"lon":5.36543,"is_reserved":false,"is_disabled":false,"rental_uris":{"android":"levelo://app?vid=2c4a684a-b69b-4a59-9f8f-3e61716fa58f","ios":"levelo://app?vid=2c4a684a-b69b-4a59-9f8f-3e61716fa58f"},"vehicle_type_id":"4","last_reported":1729760976,"current_range_meters":36400,"station_id":"ce4bgs12rcd13ifvqcag","pricing_plan_id":"cebpf4jnsgd1na2vs0mg"},{"bike_id":"d0e4e5f9-47e8-4ffb-b654-f0fcaffbd29e","system_id":"levelo_inurba_marseille","lat":43.26506,"lon":5.39546,"is_reserved":false,"is_disabled":false,"rental_uris":{"android":"levelo://app?vid=d0e4e5f9-47e8-4ffb-b654-f0fcaffbd29e","ios":"levelo://app?vid=d0e4e5f9-47e8-4ffb-b654-f0fcaffbd29e"},"vehicle_type_id":"4","last_reported":1729760976,"current_range_meters":26800,"station_id":"ce4bhi12rcd13ifvqfq0","pricing_plan_id":"cebpf4jnsgd1na2vs0mg"},{"bike_id":"049e6b8b-6b24-416d-ada9-4a21fd898aad","system_id":"levelo_inurba_marseille","lat":43.25934,"lon":5.40913,"is_reserved":false,"is_disabled":false,"rental_uris":{"android":"levelo://app?vid=049e6b8b-6b24-416d-ada9-4a21fd898aad","ios":"levelo://app?vid=049e6b8b-6b24-416d-ada9-4a21fd898aad"},"vehicle_type_id":"4","last_reported":1729760976,"current_range_meters":27200,"station_id":"ce4bhm92rcd13ifvqglg","pricing_plan_id":"cebpf4jnsgd1na2vs0mg"},{"bike_id":"3a65809e-0726-4de3-a84e-1732083512dc","system_id":"levelo_inurba_marseille","lat":43.29622,"lon":5.37151,"is_reserved":false,"is_disabled":false,"rental_uris":{"android":"levelo://app?vid=3a65809e-0726-4de3-a84e-1732083512dc","ios":"levelo://app?vid=3a65809e-0726-4de3-a84e-1732083512dc"},"vehicle_type_id":"4","last_reported":1729760976,"current_range_meters":15200,"station_id":"ce4bgnh2rcd13ifvqc0g","pricing_plan_id":"cebpf4jnsgd1na2vs0mg"},{"bike_id":"316ea24d-f593-4042-9cf4-2e2584db247e","system_id":"levelo_inurba_marseille","lat":43.3056,"lon":5.36538,"is_reserved":false,"is_disabled":false,"rental_uris":{"android":"levelo://app?vid=316ea24d-f593-4042-9cf4-2e2584db247e","ios":"levelo://app?vid=316ea24d-f593-4042-9cf4-2e2584db247e"},"vehicle_type_id":"4","last_reported":1729760976,"current_range_meters":30400,"station_id":"ce4bgs12rcd13ifvqcag","pricing_plan_id":"cebpf4jnsgd1na2vs0mg"},{"bike_id":"4f409860-e0f7-4877-99ee-a24fed7f0e97","system_id":"levelo_inurba_marseille","lat":43.27817,"lon":5.40723,"is_reserved":false,"is_disabled":false,"rental_uris":{"android":"levelo://app?vid=4f409860-e0f7-4877-99ee-a24fed7f0e97","ios":"levelo://app?vid=4f409860-e0f7-4877-99ee-a24fed7f0e97"},"vehicle_type_id":"4","last_reported":1729760976,"current_range_meters":37600,"station_id":"ce4bhnh2rcd13ifvqgtg","pricing_plan_id":"cebpf4jnsgd1na2vs0mg"},{"bike_id":"1ca1daa7-0e75-4cfe-a3b6-fdac1a0604e2","system_id":"levelo_inurba_marseille","lat":43.3015,"lon":5.38105,"is_reserved":false,"is_disabled":false,"rental_uris":{"android":"levelo://app?vid=1ca1daa7-0e75-4cfe-a3b6-fdac1a0604e2","ios":"levelo://app?vid=1ca1daa7-0e75-4cfe-a3b6-fdac1a0604e2"},"vehicle_type_id":"4","last_reported":1729760976,"current_range_meters":38800,"station_id":"ce4bgjp2rcd13ifvqbh0","pricing_plan_id":"cebpf4jnsgd1na2vs0mg"},{"bike_id":"ad4ea531-167c-4431-8d16-8500a9645a80","system_id":"levelo_inurba_marseille","lat":43.25122,"lon":5.40317,"is_reserved":false,"is_disabled":false,"rental_uris":{"android":"levelo://app?vid=ad4ea531-167c-4431-8d16-8500a9645a80","ios":"levelo://app?vid=ad4ea531-167c-4431-8d16-8500a9645a80"},"vehicle_type_id":"4","last_reported":1729760976,"current_range_meters":39200,"station_id":"ce4bhlh2rcd13ifvqgig","pricing_plan_id":"cebpf4jnsgd1na2vs0mg"},{"bike_id":"6fba9260-8408-444f-ad0b-bcf10fcbc831","system_id":"levelo_inurba_marseille","lat":43.30945,"lon":5.39038,"is_reserved":false,"is_disabled":false,"rental_uris":{"android":"levelo://app?vid=6fba9260-8408-444f-ad0b-bcf10fcbc831","ios":"levelo://app?vid=6fba9260-8408-444f-ad0b-bcf10fcbc831"},"vehicle_type_id":"4","last_reported":1729760976,"current_range_meters":33600,"station_id":"ce4bgup2rcd13ifvqco0","pricing_plan_id":"cebpf4jnsgd1na2vs0mg"},{"bike_id":"4ee66522-5dba-4c81-9699-1f294623910e","system_id":"levelo_inurba_marseille","lat":43.33023,"lon":5.39036,"is_reserved":false,"is_disabled":false,"rental_uris":{"android":"levelo://app?vid=4ee66522-5dba-4c81-9699-1f294623910e","ios":"levelo://app?vid=4ee66522-5dba-4c81-9699-1f294623910e"},"vehicle_type_id":"4","last_reported":1729760976,"current_range_meters":22800,"station_id":"ce4bhr92rcd13ifvqhrg","pricing_plan_id":"cebpf4jnsgd1na2vs0mg"},{"bike_id":"ddf73392-fb1a-43c8-be97-d5c98da4ba2d","system_id":"levelo_inurba_marseille","lat":43.29573,"lon":5.36744,"is_reserved":false,"is_disabled":false,"rental_uris":{"android":"levelo://app?vid=ddf73392-fb1a-43c8-be97-d5c98da4ba2d","ios":"levelo://app?vid=ddf73392-fb1a-43c8-be97-d5c98da4ba2d"},"vehicle_type_id":"4","last_reported":1729760976,"current_range_meters":24000,"station_id":"ce4bgph2rcd13ifvqc2g","pricing_plan_id":"cebpf4jnsgd1na2vs0mg"},{"bike_id":"6cf0b20e-49e4-4402-a899-cf65db431409","system_id":"levelo_inurba_marseille","lat":43.30457,"lon":5.3792,"is_reserved":false,"is_disabled":false,"rental_uris":{"android":"levelo://app?vid=6cf0b20e-49e4-4402-a899-cf65db431409","ios":"levelo://app?vid=6cf0b20e-49e4-4402-a899-cf65db431409"},"vehicle_type_id":"4","last_reported":1729760976,"current_range_meters":8400,"station_id":"ce4bgup2rcd13ifvqcn0","pricing_plan_id":"cebpf4jnsgd1na2vs0mg"},{"bike_id":"62ffa3f4-9d42-434c-a2ce-0d53c352b7c8","system_id":"levelo_inurba_marseille","lat":43.27378,"lon":5.36269,"is_reserved":false,"is_disabled":false,"rental_uris":{"android":"levelo://app?vid=62ffa3f4-9d42-434c-a2ce-0d53c352b7c8","ios":"levelo://app?vid=62ffa3f4-9d42-434c-a2ce-0d53c352b7c8"},"vehicle_type_id":"4","last_reported":1729760976,"current_range_meters":40000,"station_id":"ce4bhbh2rcd13ifvqeo0","pricing_plan_id":"cebpf4jnsgd1na2vs0mg"},{"bike_id":"59f3a389-d7a8-47cf-9d92-040e11689600","system_id":"levelo_inurba_marseille","lat":43.30717,"lon":5.37764,"is_reserved":false,"is_disabled":false,"rental_uris":{"android":"levelo://app?vid=59f3a389-d7a8-47cf-9d92-040e11689600","ios":"levelo://app?vid=59f3a389-d7a8-47cf-9d92-040e11689600"},"vehicle_type_id":"4","last_reported":1729760976,"current_range_meters":38800,"station_id":"","pricing_plan_id":"cebpf4jnsgd1na2vs0mg"},{"bike_id":"e2366167-088f-4160-af23-712c2655b22c","system_id":"levelo_inurba_marseille","lat":43.29299,"lon":5.37451,"is_reserved":false,"is_disabled":false,"rental_uris":{"android":"levelo://app?vid=e2366167-088f-4160-af23-712c2655b22c","ios":"levelo://app?vid=e2366167-088f-4160-af23-712c2655b22c"},"vehicle_type_id":"4","last_reported":1729760976,"current_range_meters":30400,"station_id":"ce4bgi12rcd13ifvqb70","pricing_plan_id":"cebpf4jnsgd1na2vs0mg"},