{"last_updated":1777373608,"ttl":60,"version":"2.2","data":{"bikes":[{"bike_id":"3e432152-571b-458e-972b-311f30f7e7d5","system_id":"levelo_inurba_marseille","lat":43.28405,"lon":5.34983,"is_reserved":false,"is_disabled":false,"rental_uris":{"android":"levelo://app?vid=3e432152-571b-458e-972b-311f30f7e7d5","ios":"levelo://app?vid=3e432152-571b-458e-972b-311f30f7e7d5"},"vehicle_type_id":"4","last_reported":1777373608,"current_range_meters":2800,"station_id":"ce4bhbh2rcd13ifvqepg","pricing_plan_id":"cebpf4jnsgd1na2vs0mg"},{"bike_id":"a12bff03-7417-452f-8acb-a1d3c1fe28e2","system_id":"levelo_inurba_marseille","lat":43.33752,"lon":5.37473,"is_reserved":false,"is_disabled":true,"rental_uris":{"android":"levelo://app?vid=a12bff03-7417-452f-8acb-a1d3c1fe28e2","ios":"levelo://app?vid=a12bff03-7417-452f-8acb-a1d3c1fe28e2"},"vehicle_type_id":"4","last_reported":1777373608,"current_range_meters":2800,"station_id":"","pricing_plan_id":"cebpf4jnsgd1na2vs0mg"},{"bike_id":"7e17da21-de27-4e4b-9912-876e46bc8a36","system_id":"levelo_inurba_marseille","lat":43.32122,"lon":5.36783,"is_reserved":false,"is_disabled":false,"rental_uris":{"android":"levelo://app?vid=7e17da21-de27-4e4b-9912-876e46bc8a36","ios":"levelo://app?vid=7e17da21-de27-4e4b-9912-876e46bc8a36"},"vehicle_type_id":"4","last_reported":1777373608,"current_range_meters":2800,"station_id":"ce4bhrh2rcd13ifvqhug","pricing_plan_id":"cebpf4jnsgd1na2vs0mg"},{"bike_id":"b21748b2-fb24-4ee6-8e6a-c7c61264faec","system_id":"levelo_inurba_marseille","lat":43.27397,"lon":5.42221,"is_reserved":false,"is_disabled":false,"rental_uris":{"android":"levelo://app?vid=b21748b2-fb24-4ee6-8e6a-c7c61264faec","ios":"levelo://app?vid=b21748b2-fb24-4ee6-8e6a-c7c61264faec"},"vehicle_type_id":"4","last_reported":1777373608,"current_range_meters":2800,"station_id":"","pricing_plan_id":"cebpf4jnsgd1na2vs0mg"},{"bike_id":"435297f7-e5fc-4160-b337-aaa007c8b5cf","system_id":"levelo_inurba_marseille","lat":43.28485,"lon":5.48391,"is_reserved":false,"is_disabled":false,"rental_uris":{"android":"levelo://app?vid=435297f7-e5fc-4160-b337-aaa007c8b5cf","ios":"levelo://app?vid=435297f7-e5fc-4160-b337-aaa007c8b5cf"},"vehicle_type_id":"4","last_reported":1777373608,"current_range_meters":2800,"station_id":"","pricing_plan_id":"cebpf4jnsgd1na2vs0mg"},{"bike_id":"781d8d3d-fabf-4ca2-9f47-16929586692d","system_id":"levelo_inurba_marseille","lat":43.27508,"lon":5.43405,"is_reserved":false,"is_disabled":false,"rental_uris":{"android":"levelo://app?vid=781d8d3d-fabf-4ca2-9f47-16929586692d","ios":"levelo://app?vid=781d8d3d-fabf-4ca2-9f47-16929586692d"},"vehicle_type_id":"4","last_reported":1777373608,"current_range_meters":2800,"station_id":"","pricing_plan_id":"cebpf4jnsgd1na2vs0mg"},{"bike_id":"708cc4cd-01c8-498f-94e7-58fcdd3a6081","system_id":"levelo_inurba_marseille","lat":43.30311,"lon":5.36904,"is_reserved":false,"is_disabled":false,"rental_uris":{"android":"levelo://app?vid=708cc4cd-01c8-498f-94e7-58fcdd3a6081","ios":"levelo://app?vid=708cc4cd-01c8-498f-94e7-58fcdd3a6081"},"vehicle_type_id":"4","last_reported":1777373608,"current_range_meters":2800,"station_id":"ce4bgqh2rcd13ifvqc5g","pricing_plan_id":"cebpf4jnsgd1na2vs0mg"},{"bike_id":"80b161cc-6e40-44e8-9454-73c670e460e2","system_id":"levelo_inurba_marseille","lat":43.28487,"lon":5.48384,"is_reserved":false,"is_disabled":false,"rental_uris":{"android":"levelo://app?vid=80b161cc-6e40-44e8-9454-73c670e460e2","ios":"levelo://app?vid=80b161cc-6e40-44e8-9454-73c670e460e2"},"vehicle_type_id":"4","last_reported":1777373608,"current_range_meters":2800,"station_id":"","pricing_plan_id":"cebpf4jnsgd1na2vs0mg"},{"bike_id":"436fcedc-3935-40d9-accc-c9b7e8898c95","system_id":"levelo_inurba_marseille","lat":43.29011,"lon":5.38621,"is_reserved":false,"is_disabled":false,"rental_uris":{"android":"levelo://app?vid=436fcedc-3935-40d9-accc-c9b7e8898c95","ios":"levelo://app?vid=436fcedc-3935-40d9-accc-c9b7e8898c95"},"vehicle_type_id":"4","last_reported":1777373608,"current_range_meters":2800,"station_id":"ce4bh4p2rcd13ifvqe0g","pricing_plan_id":"cebpf4jnsgd1na2vs0mg"},{"bike_id":"95fcacf0-7086-4a79-916d-eb3549d744d3","system_id":"levelo_inurba_marseille","lat":43.337444,"lon":5.374475,"is_reserved":false,"is_disabled":false,"rental_uris":{"android":"levelo://app?vid=95fcacf0-7086-4a79-916d-eb3549d744d3","ios":"levelo://app?vid=95fcacf0-7086-4a79-916d-eb3549d744d3"},"vehicle_type_id":"4","last_reported":1777373608,"current_range_meters":3200,"station_id":"","pricing_plan_id":"cebpf4jnsgd1na2vs0mg"},{"bike_id":"f06ae8ee-2b19-4e8d-9be9-10c4d5308c2e","system_id":"levelo_inurba_marseille","lat":43.25005,"lon":5.38921,"is_reserved":false,"is_disabled":true,"rental_uris":{"android":"levelo://app?vid=f06ae8ee-2b19-4e8d-9be9-10c4d5308c2e","ios":"levelo://app?vid=f06ae8ee-2b19-4e8d-9be9-10c4d5308c2e"},"vehicle_type_id":"4","last_reported":1777373608,"current_range_meters":3200,"station_id":"ce4bhgp2rcd13ifvqfd0","pricing_plan_id":"cebpf4jnsgd1na2vs0mg"},{"bike_id":"c6d58779-4063-4c4b-bccd-844ac815c0a2","system_id":"levelo_inurba_marseille","lat":43.29966,"lon":5.38482,"is_reserved":false,"is_disabled":false,"rental_uris":{"android":"levelo://app?vid=c6d58779-4063-4c4b-bccd-844ac815c0a2","ios":"levelo://app?vid=c6d58779-4063-4c4b-bccd-844ac815c0a2"},"vehicle_type_id":"4","last_reported":1777373608,"current_range_meters":3200,"station_id":"ce4bgj92rcd13ifvqbd0","pricing_plan_id":"cebpf4jnsgd1na2vs0mg"},{"bike_id":"bf755b54-9bfc-4f5a-b759-04d952b762e5","system_id":"levelo_inurba_marseille","lat":43.24396,"lon":5.37065,"is_reserved":false,"is_disabled":false,"rental_uris":{"android":"levelo://app?vid=bf755b54-9bfc-4f5a-b759-04d952b762e5","ios":"levelo://app?vid=bf755b54-9bfc-4f5a-b759-04d952b762e5"},"vehicle_type_id":"4","last_reported":1777373608,"current_range_meters":3200,"station_id":"ce4bhhh2rcd13ifvqfk0","pricing_plan_id":"cebpf4jnsgd1na2vs0mg"},{"bike_id":"87048b71-a564-4cde-b485-a2f98217d8ac","system_id":"levelo_inurba_marseille","lat":43.30499,"lon":5.36511,"is_reserved":false,"is_disabled":false,"rental_uris":{"android":"levelo://app?vid=87048b71-a564-4cde-b485-a2f98217d8ac","ios":"levelo://app?vid=87048b71-a564-4cde-b485-a2f98217d8ac"},"vehicle_type_id":"4","last_reported":1777373608,"current_range_meters":3200,"station_id":"","pricing_plan_id":"cebpf4jnsgd1na2vs0mg"},{"bike_id":"127186fe-87fe-4347-8c14-2b72a4effa84","system_id":"levelo_inurba_marseille","lat":43.321,"lon":5.36757,"is_reserved":false,"is_disabled":false,"rental_uris":{"android":"levelo://app?vid=127186fe-87fe-4347-8c14-2b72a4effa84","ios":"levelo://app?vid=127186fe-87fe-4347-8c14-2b72a4effa84"},"vehicle_type_id":"4","last_reported":1777373608,"current_range_meters":3200,"station_id":"ce4bhrh2rcd13ifvqhug","pricing_plan_id":"cebpf4jnsgd1na2vs0mg"},{"bike_id":"8f13b61e-8a25-4927-8213-0f8d3090195b","system_id":"levelo_inurba_marseille","lat":43.28475,"lon":5.48398,"is_reserved":false,"is_disabled":false,"rental_uris":{"android":"levelo://app?vid=8f13b61e-8a25-4927-8213-0f8d3090195b","ios":"levelo://app?vid=8f13b61e-8a25-4927-8213-0f8d3090195b"},"vehicle_type_id":"4","last_reported":1777373608,"current_range_meters":3600,"station_id":"","pricing_plan_id":"cebpf4jnsgd1na2vs0mg"},{"bike_id":"a02a899b-5b27-4d3f-99ba-4caf1e4bedb5","system_id":"levelo_inurba_marseille","lat":43.32493,"lon":5.36571,"is_reserved":false,"is_disabled":false,"rental_uris":{"android":"levelo://app?vid=a02a899b-5b27-4d3f-99ba-4caf1e4bedb5","ios":"levelo://app?vid=a02a899b-5b27-4d3f-99ba-4caf1e4bedb5"},"vehicle_type_id":"4","last_reported":1777373608,"current_range_meters":3600,"station_id":"ce4bhs12rcd13ifvqhvg","pricing_plan_id":"cebpf4jnsgd1na2vs0mg"},{"bike_id":"6b9ceb44-f98b-4474-bf14-5e53602be7a5","system_id":"levelo_inurba_marseille","lat":43.33537,"lon":5.37442,"is_reserved":false,"is_disabled":false,"rental_uris":{"android":"levelo://app?vid=6b9ceb44-f98b-4474-bf14-5e53602be7a5","ios":"levelo://app?vid=6b9ceb44-f98b-4474-bf14-5e53602be7a5"},"vehicle_type_id":"4","last_reported":1777373608,"current_range_meters":3600,"station_id":"st_d46tts09ee8s73dlu43g","pricing_plan_id":"cebpf4jnsgd1na2vs0mg"},{"bike_id":"6f7b0d2e-75c5-4f2e-b7b2-571eeee29d8b","system_id":"levelo_inurba_marseille","lat":43.26564,"lon":5.39014,"is_reserved":false,"is_disabled":false,"rental_uris":{"android":"levelo://app?vid=6f7b0d2e-75c5-4f2e-b7b2-571eeee29d8b","ios":"levelo://app?vid=6f7b0d2e-75c5-4f2e-b7b2-571eeee29d8b"},"vehicle_type_id":"4","last_reported":1777373608,"current_range_meters":3600,"station_id":"ce4bhe12rcd13ifvqf30","pricing_plan_id":"cebpf4jnsgd1na2vs0mg"},{"bike_id":"6c0e44b5-b4c6-4989-a0ec-b3c6d257ac1d","system_id":"levelo_inurba_marseille","lat":43.33186,"lon":5.37828,"is_reserved":false,"is_disabled":false,"rental_uris":{"android":"levelo://app?vid=6c0e44b5-b4c6-4989-a0ec-b3c6d257ac1d","ios":"levelo://app?vid=6c0e44b5-b4c6-4989-a0ec-b3c6d257ac1d"},"vehicle_type_id":"4","last_reported":1777373608,"current_range_meters":4000,"station_id":"","pricing_plan_id":"cebpf4jnsgd1na2vs0mg"},{"bike_id":"9f77f16b-502d-4ac5-8568-c59f78ec076e","system_id":"levelo_inurba_marseille","lat":43.29041,"lon":5.3775,"is_reserved":false,"is_disabled":false,"rental_uris":{"android":"levelo://app?vid=9f77f16b-502d-4ac5-8568-c59f78ec076e","ios":"levelo://app?vid=9f77f16b-502d-4ac5-8568-c59f78ec076e"},"vehicle_type_id":"4","last_reported":1777373608,"current_range_meters":4000,"station_id":"","pricing_plan_id":"cebpf4jnsgd1na2vs0mg"},{"bike_id":"d174b9e4-a7e6-4a0b-b019-455a0851ad9d","system_id":"levelo_inurba_marseille","lat":43.28267,"lon":5.35074,"is_reserved":false,"is_disabled":false,"rental_uris":{"android":"levelo://app?vid=d174b9e4-a7e6-4a0b-b019-455a0851ad9d","ios":"levelo://app?vid=d174b9e4-a7e6-4a0b-b019-455a0851ad9d"},"vehicle_type_id":"4","last_reported":1777373608,"current_range_meters":4000,"station_id":"ce4bhbp2rcd13ifvqerg","pricing_plan_id":"cebpf4jnsgd1na2vs0mg"},{"bike_id":"af788e55-1463-4e3c-99e8-1a206ac852db","system_id":"levelo_inurba_marseille","lat":43.29195,"lon":5.35796,"is_reserved":false,"is_disabled":false,"rental_uris":{"android":"levelo://app?vid=af788e55-1463-4e3c-99e8-1a206ac852db","ios":"levelo://app?vid=af788e55-1463-4e3c-99e8-1a206ac852db"},"vehicle_type_id":"4","last_reported":1777373608,"current_range_meters":4000,"station_id":"ce4bhb12rcd13ifvqel0","pricing_plan_id":"cebpf4jnsgd1na2vs0mg"},{"bike_id":"488cf47d-f998-46cb-b0ff-a359fd06e218","system_id":"levelo_inurba_marseille","lat":43.3013,"lon":5.39889,"is_reserved":false,"is_disabled":false,"rental_uris":{"android":"levelo://app?vid=488cf47d-f998-46cb-b0ff-a359fd06e218","ios":"levelo://app?vid=488cf47d-f998-46cb-b0ff-a359fd06e218"},"vehicle_type_id":"4","last_reported":1777373608,"current_range_meters":4000,"station_id":"ce4bh0h2rcd13ifvqd40","pricing_plan_id":"cebpf4jnsgd1na2vs0mg"},{"bike_id":"53ef676e-62fb-49b2-8d15-cbf18291b276","system_id":"levelo_inurba_marseille","lat":43.2848,"lon":5.38422,"is_reserved":false,"is_disabled":false,"rental_uris":{"android":"levelo://app?vid=53ef676e-62fb-49b2-8d15-cbf18291b276","ios":"levelo://app?vid=53ef676e-62fb-49b2-8d15-cbf18291b276"},"vehicle_type_id":"4","last_reported":1777373608,"current_range_meters":4000,"station_id":"ce4bh512rcd13ifvqe3g","pricing_plan_id":"cebpf4jnsgd1na2vs0mg"},{"bike_id":"2e013045-b635-4629-a87d-995ec1628a85","system_id":"levelo_inurba_marseille","lat":43.32109,"lon":5.3677,"is_reserved":false,"is_disabled":false,"rental_uris":{"android":"levelo://app?vid=2e013045-b635-4629-a87d-995ec1628a85","ios":"levelo://app?vid=2e013045-b635-4629-a87d-995ec1628a85"},"vehicle_type_id":"4","last_reported":1777373608,"current_range_meters":4000,"station_id":"ce4bhrh2rcd13ifvqhug","pricing_plan_id":"cebpf4jnsgd1na2vs0mg"},{"bike_id":"93a03888-12b3-4ccc-b435-7f12038be2f7","system_id":"levelo_inurba_marseille","lat":43.21192,"lon":5.35073,"is_reserved":false,"is_disabled":false,"rental_uris":{"android":"levelo://app?vid=93a03888-12b3-4ccc-b435-7f12038be2f7","ios":"levelo://app?vid=93a03888-12b3-4ccc-b435-7f12038be2f7"},"vehicle_type_id":"4","last_reported":1777373608,"current_range_meters":4000,"station_id":"st_cvj6sg6p6f1abm77japg","pricing_plan_id":"cebpf4jnsgd1na2vs0mg"},{"bike_id":"a337c2ce-5f57-4e29-865b-f2ac81d3a246","system_id":"levelo_inurba_marseille","lat":43.30539,"lon":5.38417,"is_reserved":false,"is_disabled":false,"rental_uris":{"android":"levelo://app?vid=a337c2ce-5f57-4e29-865b-f2ac81d3a246","ios":"levelo://app?vid=a337c2ce-5f57-4e29-865b-f2ac81d3a246"},"vehicle_type_id":"4","last_reported":1777373608,"current_range_meters":4400,"station_id":"ce4bgg92rcd13ifvqb30","pricing_plan_id":"cebpf4jnsgd1na2vs0mg"},{"bike_id":"d7dd2364-4933-4a27-9ed4-e82174eaa2c0","system_id":"levelo_inurba_marseille","lat":43.29959,"lon":5.38528,"is_reserved":false,"is_disabled":false,"rental_uris":{"android":"levelo://app?vid=d7dd2364-4933-4a27-9ed4-e82174eaa2c0","ios":"levelo://app?vid=d7dd2364-4933-4a27-9ed4-e82174eaa2c0"},"vehicle_type_id":"4","last_reported":1777373608,"current_range_meters":4400,"station_id":"ce4bgj92rcd13ifvqbd0","pricing_plan_id":"cebpf4jnsgd1na2vs0mg"},{"bike_id":"d91a79ea-757d-4fb0-822d-efffb3df9a9a","system_id":"levelo_inurba_marseille","lat":43.24647,"lon":5.38886,"is_reserved":false,"is_disabled":false,"rental_uris":{"android":"levelo://app?vid=d91a79ea-757d-4fb0-822d-efffb3df9a9a","ios":"levelo://app?vid=d91a79ea-757d-4fb0-822d-efffb3df9a9a"},"vehicle_type_id":"4","last_reported":1777373608,"current_range_meters":4400,"station_id":"ce4bhg12rcd13ifvqf60","pricing_plan_id":"cebpf4jnsgd1na2vs0mg"},{"bike_id":"5cbef2a7-8e83-4097-9949-5967c82353a9","system_id":"levelo_inurba_marseille","lat":43.32489,"lon":5.38292,"is_reserved":false,"is_disabled":false,"rental_uris":{"android":"levelo://app?vid=5cbef2a7-8e83-4097-9949-5967c82353a9","ios":"levelo://app?vid=5cbef2a7-8e83-4097-9949-5967c82353a9"},"vehicle_type_id":"4","last_reported":1777373608,"current_range_meters":4400,"station_id":"st_d4asgbiv49dc73anf9m0","pricing_plan_id":"cebpf4jnsgd1na2vs0mg"},{"bike_id":"b1cea831-5991-44e8-a8f3-6dd3d79c393d","system_id":"levelo_inurba_marseille","lat":43.30126,"lon":5.37409,"is_reserved":false,"is_disabled":false,"rental_uris":{"android":"levelo://app?vid=b1cea831-5991-44e8-a8f3-6dd3d79c393d","ios":"levelo://app?vid=b1cea831-5991-44e8-a8f3-6dd3d79c393d"},"vehicle_type_id":"4","last_reported":1777373608,"current_range_meters":4400,"station_id":"ce4bgs92rcd13ifvqcc0","pricing_plan_id":"cebpf4jnsgd1na2vs0mg"},{"bike_id":"f9b0bbfb-5a69-42c6-9680-d6c5c920cebb","system_id":"levelo_inurba_marseille","lat":43.29037,"lon":5.37573,"is_reserved":false,"is_disabled":false,"rental_uris":{"android":"levelo://app?vid=f9b0bbfb-5a69-42c6-9680-d6c5c920cebb","ios":"levelo://app?vid=f9b0bbfb-5a69-42c6-9680-d6c5c920cebb"},"vehicle_type_id":"4","last_reported":1777373608,"current_range_meters":4400,"station_id":"ce4bh692rcd13ifvqe90","pricing_plan_id":"cebpf4jnsgd1na2vs0mg"},{"bike_id":"77f1be50-d55c-4753-b02a-0b5e7117e7c7","system_id":"levelo_inurba_marseille","lat":43.31305,"lon":5.38194,"is_reserved":false,"is_disabled":false,"rental_uris":{"android":"levelo://app?vid=77f1be50-d55c-4753-b02a-0b5e7117e7c7","ios":"levelo://app?vid=77f1be50-d55c-4753-b02a-0b5e7117e7c7"},"vehicle_type_id":"4","last_reported":1777373608,"current_range_meters":4400,"station_id":"","pricing_plan_id":"cebpf4jnsgd1na2vs0mg"},{"bike_id":"ed595bd6-1ec0-4887-bbcc-3b0bb97c0359","system_id":"levelo_inurba_marseille","lat":43.28615,"lon":5.3511,"is_reserved":false,"is_disabled":false,"rental_uris":{"android":"levelo://app?vid=ed595bd6-1ec0-4887-bbcc-3b0bb97c0359","ios":"levelo://app?vid=ed595bd6-1ec0-4887-bbcc-3b0bb97c0359"},"vehicle_type_id":"4","last_reported":1777373608,"current_range_meters":4400,"station_id":"ce4bhch2rcd13ifvqeug","pricing_plan_id":"cebpf4jnsgd1na2vs0mg"},{"bike_id":"a1a8075c-c77e-4006-9e1e-0ae31d391c9d","system_id":"levelo_inurba_marseille","lat":43.27006,"lon":5.4024,"is_reserved":false,"is_disabled":false,"rental_uris":{"android":"levelo://app?vid=a1a8075c-c77e-4006-9e1e-0ae31d391c9d","ios":"levelo://app?vid=a1a8075c-c77e-4006-9e1e-0ae31d391c9d"},"vehicle_type_id":"4","last_reported":1777373608,"current_range_meters":4400,"station_id":"","pricing_plan_id":"cebpf4jnsgd1na2vs0mg"},{"bike_id":"87cc790b-60cd-436a-82f4-3796eb0e0cc9","system_id":"levelo_inurba_marseille","lat":43.2916,"lon":5.43554,"is_reserved":false,"is_disabled":false,"rental_uris":{"android":"levelo://app?vid=87cc790b-60cd-436a-82f4-3796eb0e0cc9","ios":"levelo://app?vid=87cc790b-60cd-436a-82f4-3796eb0e0cc9"},"vehicle_type_id":"4","last_reported":1777373608,"current_range_meters":4400,"station_id":"","pricing_plan_id":"cebpf4jnsgd1na2vs0mg"},{"bike_id":"4762e09b-59b8-41ab-9c32-7fa1853bb9b6","system_id":"levelo_inurba_marseille","lat":43.25459,"lon":5.41619,"is_reserved":false,"is_disabled":false,"rental_uris":{"android":"levelo://app?vid=4762e09b-59b8-41ab-9c32-7fa1853bb9b6","ios":"levelo://app?vid=4762e09b-59b8-41ab-9c32-7fa1853bb9b6"},"vehicle_type_id":"4","last_reported":1777373608,"current_range_meters":4400,"station_id":"","pricing_plan_id":"cebpf4jnsgd1na2vs0mg"},{"bike_id":"28d079a5-cf7c-4140-9847-eb9e7773f4a9","system_id":"levelo_inurba_marseille","lat":43.29796,"lon":5.38085,"is_reserved":false,"is_disabled":false,"rental_uris":{"android":"levelo://app?vid=28d079a5-cf7c-4140-9847-eb9e7773f4a9","ios":"levelo://app?vid=28d079a5-cf7c-4140-9847-eb9e7773f4a9"},"vehicle_type_id":"4","last_reported":1777373608,"current_range_meters":4400,"station_id":"ce4bgip2rcd13ifvqbb0","pricing_plan_id":"cebpf4jnsgd1na2vs0mg"},{"bike_id":"d20ccda7-29ef-4aa5-bbf2-63f1e6c3dcf5","system_id":"levelo_inurba_marseille","lat":43.32137,"lon":5.36718,"is_reserved":false,"is_disabled":false,"rental_uris":{"android":"levelo://app?vid=d20ccda7-29ef-4aa5-bbf2-63f1e6c3dcf5","ios":"levelo://app?vid=d20ccda7-29ef-4aa5-bbf2-63f1e6c3dcf5"},"vehicle_type_id":"4","last_reported":1777373608,"current_range_meters":4400,"station_id":"ce4bhrh2rcd13ifvqhug","pricing_plan_id":"cebpf4jnsgd1na2vs0mg"},{"bike_id":"ef8152fa-69a8-4897-80ba-16fd9081cac1","system_id":"levelo_inurba_marseille","lat":43.26213,"lon":5.37445,"is_reserved":false,"is_disabled":true,"rental_uris":{"android":"levelo://app?vid=ef8152fa-69a8-4897-80ba-16fd9081cac1","ios":"levelo://app?vid=ef8152fa-69a8-4897-80ba-16fd9081cac1"},"vehicle_type_id":"4","last_reported":1777373608,"current_range_meters":4800,"station_id":"ce4bhgp2rcd13ifvqfc0","pricing_plan_id":"cebpf4jnsgd1na2vs0mg"},{"bike_id":"a6cf81c6-4bd9-4cc5-ac31-3a0f2dc2078c","system_id":"levelo_inurba_marseille","lat":43.2997,"lon":5.38496,"is_reserved":false,"is_disabled":false,"rental_uris":{"android":"levelo://app?vid=a6cf81c6-4bd9-4cc5-ac31-3a0f2dc2078c","ios":"levelo://app?vid=a6cf81c6-4bd9-4cc5-ac31-3a0f2dc2078c"},"vehicle_type_id":"4","last_reported":1777373608,"current_range_meters":4800,"station_id":"ce4bgj92rcd13ifvqbd0","pricing_plan_id":"cebpf4jnsgd1na2vs0mg"},{"bike_id":"8b1f5d0b-fff3-453f-8e5c-32008a7ce404","system_id":"levelo_inurba_marseille","lat":43.26932,"lon":5.40307,"is_reserved":false,"is_disabled":false,"rental_uris":{"android":"levelo://app?vid=8b1f5d0b-fff3-453f-8e5c-32008a7ce404","ios":"levelo://app?vid=8b1f5d0b-fff3-453f-8e5c-32008a7ce404"},"vehicle_type_id":"4","last_reported":1777373608,"current_range_meters":4800,"station_id":"cjm6bp8fraef2m0cb0m0","pricing_plan_id":"cebpf4jnsgd1na2vs0mg"},{"bike_id":"c57cd684-555b-441e-893b-2c046cfccd08","system_id":"levelo_inurba_marseille","lat":43.30577,"lon":5.36522,"is_reserved":false,"is_disabled":false,"rental_uris":{"android":"levelo://app?vid=c57cd684-555b-441e-893b-2c046cfccd08","ios":"levelo://app?vid=c57cd684-555b-441e-893b-2c046cfccd08"},"vehicle_type_id":"4","last_reported":1777373608,"current_range_meters":4800,"station_id":"ce4bgs12rcd13ifvqcag","pricing_plan_id":"cebpf4jnsgd1na2vs0mg"},{"bike_id":"fef5d2ee-9ab7-4ccd-9a5c-9dc4861f35f9","system_id":"levelo_inurba_marseille","lat":43.296,"lon":5.37721,"is_reserved":false,"is_disabled":false,"rental_uris":{"android":"levelo://app?vid=fef5d2ee-9ab7-4ccd-9a5c-9dc4861f35f9","ios":"levelo://app?vid=fef5d2ee-9ab7-4ccd-9a5c-9dc4861f35f9"},"vehicle_type_id":"4","last_reported":1777373608,"current_range_meters":4800,"station_id":"ce4bgi92rcd13ifvqb90","pricing_plan_id":"cebpf4jnsgd1na2vs0mg"},{"bike_id":"2f500264-e9ee-435c-8918-0ef7aac13709","system_id":"levelo_inurba_marseille","lat":43.29915,"lon":5.37475,"is_reserved":false,"is_disabled":false,"rental_uris":{"android":"levelo://app?vid=2f500264-e9ee-435c-8918-0ef7aac13709","ios":"levelo://app?vid=2f500264-e9ee-435c-8918-0ef7aac13709"},"vehicle_type_id":"4","last_reported":1777373608,"current_range_meters":4800,"station_id":"ce4bgjh2rcd13ifvqbg0","pricing_plan_id":"cebpf4jnsgd1na2vs0mg"},{"bike_id":"248241ed-a435-44bc-81d7-733d752b62c6","system_id":"levelo_inurba_marseille","lat":43.31331,"lon":5.3672,"is_reserved":false,"is_disabled":false,"rental_uris":{"android":"levelo://app?vid=248241ed-a435-44bc-81d7-733d752b62c6","ios":"levelo://app?vid=248241ed-a435-44bc-81d7-733d752b62c6"},"vehicle_type_id":"4","last_reported":1777373608,"current_range_meters":4800,"station_id":"ce4bgr92rcd13ifvqc6g","pricing_plan_id":"cebpf4jnsgd1na2vs0mg"},{"bike_id":"2735ea2d-c96f-4ceb-aefb-b92c23c11e43","system_id":"levelo_inurba_marseille","lat":43.31114,"lon":5.3777,"is_reserved":false,"is_disabled":false,"rental_uris":{"android":"levelo://app?vid=2735ea2d-c96f-4ceb-aefb-b92c23c11e43","ios":"levelo://app?vid=2735ea2d-c96f-4ceb-aefb-b92c23c11e43"},"vehicle_type_id":"4","last_reported":1777373608,"current_range_meters":4800,"station_id":"ce4bgt92rcd13ifvqcg0","pricing_plan_id":"cebpf4jnsgd1na2vs0mg"},{"bike_id":"4d06cad1-2e4a-4159-99f3-38d6bcb9cc90","system_id":"levelo_inurba_marseille","lat":43.23147,"lon":5.35512,"is_reserved":false,"is_disabled":false,"rental_uris":{"android":"levelo://app?vid=4d06cad1-2e4a-4159-99f3-38d6bcb9cc90","ios":"levelo://app?vid=4d06cad1-2e4a-4159-99f3-38d6bcb9cc90"},"vehicle_type_id":"4","last_reported":1777373608,"current_range_meters":4800,"station_id":"","pricing_plan_id":"cebpf4jnsgd1na2vs0mg"},{"bike_id":"2e1487b5-ffbe-4174-a3cb-5f2ca03b60ce","system_id":"levelo_inurba_marseille","lat":43.28479,"lon":5.48397,"is_reserved":false,"is_disabled":false,"rental_uris":{"android":"levelo://app?vid=2e1487b5-ffbe-4174-a3cb-5f2ca03b60ce","ios":"levelo://app?vid=2e1487b5-ffbe-4174-a3cb-5f2ca03b60ce"},"vehicle_type_id":"4","last_reported":1777373608,"current_range_meters":4800,"station_id":"st_d3svhcjqgbts73a3dn0g","pricing_plan_id":"cebpf4jnsgd1na2vs0mg"},{"bike_id":"dc1e148b-dd60-4e5a-acc2-5e8e8362a765","system_id":"levelo_inurba_marseille","lat":43.25308,"lon":5.42145,"is_reserved":false,"is_disabled":false,"rental_uris":{"android":"levelo://app?vid=dc1e148b-dd60-4e5a-acc2-5e8e8362a765","ios":"levelo://app?vid=dc1e148b-dd60-4e5a-acc2-5e8e8362a765"},"vehicle_type_id":"4","last_reported":1777373608,"current_range_meters":4800,"station_id":"st_d2m65c5bi1j21697t3ng","pricing_plan_id":"cebpf4jnsgd1na2vs0mg"},{"bike_id":"b454e7b1-bf96-40d3-ac64-606c60e4a405","system_id":"levelo_inurba_marseille","lat":43.29851,"lon":5.36285,"is_reserved":false,"is_disabled":false,"rental_uris":{"android":"levelo://app?vid=b454e7b1-bf96-40d3-ac64-606c60e4a405","ios":"levelo://app?vid=b454e7b1-bf96-40d3-ac64-606c60e4a405"},"vehicle_type_id":"4","last_reported":1777373608,"current_range_meters":4800,"station_id":"ce4bgpp2rcd13ifvqc3g","pricing_plan_id":"cebpf4jnsgd1na2vs0mg"},{"bike_id":"a3ccf861-6119-4c32-a0cb-493ba93a5bbf","system_id":"levelo_inurba_marseille","lat":43.29848,"lon":5.36284,"is_reserved":false,"is_disabled":false,"rental_uris":{"android":"levelo://app?vid=a3ccf861-6119-4c32-a0cb-493ba93a5bbf","ios":"levelo://app?vid=a3ccf861-6119-4c32-a0cb-493ba93a5bbf"},"vehicle_type_id":"4","last_reported":1777373608,"current_range_meters":4800,"station_id":"ce4bgpp2rcd13ifvqc3g","pricing_plan_id":"cebpf4jnsgd1na2vs0mg"},{"bike_id":"1d51c702-75ba-494d-89c9-6b8c4379e860","system_id":"levelo_inurba_marseille","lat":43.31251,"lon":5.37812,"is_reserved":false,"is_disabled":false,"rental_uris":{"android":"levelo://app?vid=1d51c702-75ba-494d-89c9-6b8c4379e860","ios":"levelo://app?vid=1d51c702-75ba-494d-89c9-6b8c4379e860"},"vehicle_type_id":"4","last_reported":1777373608,"current_range_meters":4800,"station_id":"","pricing_plan_id":"cebpf4jnsgd1na2vs0mg"},{"bike_id":"5a37c0cc-8ab9-4a7e-980e-7cedbe0d9034","system_id":"levelo_inurba_marseille","lat":43.28678,"lon":5.38667,"is_reserved":false,"is_disabled":false,"rental_uris":{"android":"levelo://app?vid=5a37c0cc-8ab9-4a7e-980e-7cedbe0d9034","ios":"levelo://app?vid=5a37c0cc-8ab9-4a7e-980e-7cedbe0d9034"},"vehicle_type_id":"4","last_reported":1777373608,"current_range_meters":4800,"station_id":"ce4bh492rcd13ifvqdug","pricing_plan_id":"cebpf4jnsgd1na2vs0mg"},{"bike_id":"7d24a3ee-0eb9-47a1-8904-33af700bdc69","system_id":"levelo_inurba_marseille","lat":43.28472,"lon":5.48363,"is_reserved":false,"is_disabled":false,"rental_uris":{"android":"levelo://app?vid=7d24a3ee-0eb9-47a1-8904-33af700bdc69","ios":"levelo://app?vid=7d24a3ee-0eb9-47a1-8904-33af700bdc69"},"vehicle_type_id":"4","last_reported":1777373608,"current_range_meters":5600,"station_id":"st_d3svhcjqgbts73a3dn0g","pricing_plan_id":"cebpf4jnsgd1na2vs0mg"},{"bike_id":"ad40a6e0-1825-4608-890e-5faf961bf270","system_id":"levelo_inurba_marseille","lat":43.3131,"lon":5.36714,"is_reserved":false,"is_disabled":false,"rental_uris":{"android":"levelo://app?vid=ad40a6e0-1825-4608-890e-5faf961bf270","ios":"levelo://app?vid=ad40a6e0-1825-4608-890e-5faf961bf270"},"vehicle_type_id":"4","last_reported":1777373608,"current_range_meters":5600,"station_id":"ce4bgr92rcd13ifvqc6g","pricing_plan_id":"cebpf4jnsgd1na2vs0mg"},{"bike_id":"f447fec5-f118-42c2-be2c-8ef32b6d20a2","system_id":"levelo_inurba_marseille","lat":43.25963,"lon":5.41685,"is_reserved":false,"is_disabled":false,"rental_uris":{"android":"levelo://app?vid=f447fec5-f118-42c2-be2c-8ef32b6d20a2","ios":"levelo://app?vid=f447fec5-f118-42c2-be2c-8ef32b6d20a2"},"vehicle_type_id":"4","last_reported":1777373608,"current_range_meters":5600,"station_id":"","pricing_plan_id":"cebpf4jnsgd1na2vs0mg"},{"bike_id":"8ac0bd5f-2f2a-4833-ada5-2e9beded5ddb","system_id":"levelo_inurba_marseille","lat":43.31503,"lon":5.39136,"is_reserved":false,"is_disabled":false,"rental_uris":{"android":"levelo://app?vid=8ac0bd5f-2f2a-4833-ada5-2e9beded5ddb","ios":"levelo://app?vid=8ac0bd5f-2f2a-4833-ada5-2e9beded5ddb"},"vehicle_type_id":"4","last_reported":1777373608,"current_range_meters":5600,"station_id":"","pricing_plan_id":"cebpf4jnsgd1na2vs0mg"},{"bike_id":"14869599-ab60-4e86-8f2c-d0b35d29b95e","system_id":"levelo_inurba_marseille","lat":43.25635,"lon":5.41841,"is_reserved":false,"is_disabled":false,"rental_uris":{"android":"levelo://app?vid=14869599-ab60-4e86-8f2c-d0b35d29b95e","ios":"levelo://app?vid=14869599-ab60-4e86-8f2c-d0b35d29b95e"},"vehicle_type_id":"4","last_reported":1777373608,"current_range_meters":5600,"station_id":"","pricing_plan_id":"cebpf4jnsgd1na2vs0mg"},{"bike_id":"ab2b4285-cbb2-49a4-ae71-50808ce2f0d3","system_id":"levelo_inurba_marseille","lat":43.24546,"lon":5.39509,"is_reserved":false,"is_disabled":false,"rental_uris":{"android":"levelo://app?vid=ab2b4285-cbb2-49a4-ae71-50808ce2f0d3","ios":"levelo://app?vid=ab2b4285-cbb2-49a4-ae71-50808ce2f0d3"},"vehicle_type_id":"4","last_reported":1777373608,"current_range_meters":5600,"station_id":"ce4bhlp2rcd13ifvqgjg","pricing_plan_id":"cebpf4jnsgd1na2vs0mg"},{"bike_id":"dc4f256b-dad1-4b0e-b0aa-70815278bacb","system_id":"levelo_inurba_marseille","lat":43.28967,"lon":5.39318,"is_reserved":false,"is_disabled":false,"rental_uris":{"android":"levelo://app?vid=dc4f256b-dad1-4b0e-b0aa-70815278bacb","ios":"levelo://app?vid=dc4f256b-dad1-4b0e-b0aa-70815278bacb"},"vehicle_type_id":"4","last_reported":1777373608,"current_range_meters":5600,"station_id":"","pricing_plan_id":"cebpf4jnsgd1na2vs0mg"},{"bike_id":"ca05d757-aee0-497c-918a-e06e06e3c564","system_id":"levelo_inurba_marseille","lat":43.3055,"lon":5.3669,"is_reserved":false,"is_disabled":false,"rental_uris":{"android":"levelo://app?vid=ca05d757-aee0-497c-918a-e06e06e3c564","ios":"levelo://app?vid=ca05d757-aee0-497c-918a-e06e06e3c564"},"vehicle_type_id":"4","last_reported":1777373608,"current_range_meters":5600,"station_id":"ce4bgrp2rcd13ifvqc9g","pricing_plan_id":"cebpf4jnsgd1na2vs0mg"},{"bike_id":"5367fafd-42a5-4c52-bd35-5d85953af91c","system_id":"levelo_inurba_marseille","lat":43.3145,"lon":5.37379,"is_reserved":false,"is_disabled":true,"rental_uris":{"android":"levelo://app?vid=5367fafd-42a5-4c52-bd35-5d85953af91c","ios":"levelo://app?vid=5367fafd-42a5-4c52-bd35-5d85953af91c"},"vehicle_type_id":"4","last_reported":1777373608,"current_range_meters":6000,"station_id":"","pricing_plan_id":"cebpf4jnsgd1na2vs0mg"},{"bike_id":"3462feaa-c9a2-441c-b3a1-f70058c367e6","system_id":"levelo_inurba_marseille","lat":43.24395,"lon":5.37067,"is_reserved":false,"is_disabled":false,"rental_uris":{"android":"levelo://app?vid=3462feaa-c9a2-441c-b3a1-f70058c367e6","ios":"levelo://app?vid=3462feaa-c9a2-441c-b3a1-f70058c367e6"},"vehicle_type_id":"4","last_reported":1777373608,"current_range_meters":6000,"station_id":"","pricing_plan_id":"cebpf4jnsgd1na2vs0mg"},{"bike_id":"16d472fe-eb19-4acc-8aa8-94088ad37de6","system_id":"levelo_inurba_marseille","lat":43.35188,"lon":5.36371,"is_reserved":false,"is_disabled":false,"rental_uris":{"android":"levelo://app?vid=16d472fe-eb19-4acc-8aa8-94088ad37de6","ios":"levelo://app?vid=16d472fe-eb19-4acc-8aa8-94088ad37de6"},"vehicle_type_id":"4","last_reported":1777373608,"current_range_meters":6000,"station_id":"","pricing_plan_id":"cebpf4jnsgd1na2vs0mg"},{"bike_id":"74929e98-c2e0-43cc-b447-0901251d01cb","system_id":"levelo_inurba_marseille","lat":43.2549,"lon":5.37677,"is_reserved":false,"is_disabled":false,"rental_uris":{"android":"levelo://app?vid=74929e98-c2e0-43cc-b447-0901251d01cb","ios":"levelo://app?vid=74929e98-c2e0-43cc-b447-0901251d01cb"},"vehicle_type_id":"4","last_reported":1777373608,"current_range_meters":6000,"station_id":"ce4bhh12rcd13ifvqff0","pricing_plan_id":"cebpf4jnsgd1na2vs0mg"},{"bike_id":"e5cd69c7-9379-4379-93b8-62cf25a54177","system_id":"levelo_inurba_marseille","lat":43.337497,"lon":5.374492,"is_reserved":false,"is_disabled":false,"rental_uris":{"android":"levelo://app?vid=e5cd69c7-9379-4379-93b8-62cf25a54177","ios":"levelo://app?vid=e5cd69c7-9379-4379-93b8-62cf25a54177"},"vehicle_type_id":"4","last_reported":1777373608,"current_range_meters":6000,"station_id":"","pricing_plan_id":"cebpf4jnsgd1na2vs0mg"},{"bike_id":"16e943be-0880-430f-b619-cbe210a96917","system_id":"levelo_inurba_marseille","lat":43.32491,"lon":5.3826,"is_reserved":false,"is_disabled":false,"rental_uris":{"android":"levelo://app?vid=16e943be-0880-430f-b619-cbe210a96917","ios":"levelo://app?vid=16e943be-0880-430f-b619-cbe210a96917"},"vehicle_type_id":"4","last_reported":1777373608,"current_range_meters":6000,"station_id":"st_d4asgbiv49dc73anf9m0","pricing_plan_id":"cebpf4jnsgd1na2vs0mg"},{"bike_id":"e112465c-f0ec-4ff4-bfcd-6be28a3d5654","system_id":"levelo_inurba_marseille","lat":43.28419,"lon":5.34979,"is_reserved":false,"is_disabled":false,"rental_uris":{"android":"levelo://app?vid=e112465c-f0ec-4ff4-bfcd-6be28a3d5654","ios":"levelo://app?vid=e112465c-f0ec-4ff4-bfcd-6be28a3d5654"},"vehicle_type_id":"4","last_reported":1777373608,"current_range_meters":6000,"station_id":"ce4bhbh2rcd13ifvqepg","pricing_plan_id":"cebpf4jnsgd1na2vs0mg"},{"bike_id":"46a3a4e1-b69b-418c-b598-1ceb0565cca5","system_id":"levelo_inurba_marseille","lat":43.23181,"lon":5.39999,"is_reserved":false,"is_disabled":false,"rental_uris":{"android":"levelo://app?vid=46a3a4e1-b69b-418c-b598-1ceb0565cca5","ios":"levelo://app?vid=46a3a4e1-b69b-418c-b598-1ceb0565cca5"},"vehicle_type_id":"4","last_reported":1777373608,"current_range_meters":6000,"station_id":"ce4bhn12rcd13ifvqgqg","pricing_plan_id":"cebpf4jnsgd1na2vs0mg"},{"bike_id":"09a00132-8621-41d8-ac82-8d6cfa6a8c48","system_id":"levelo_inurba_marseille","lat":43.30137,"lon":5.43108,"is_reserved":false,"is_disabled":false,"rental_uris":{"android":"levelo://app?vid=09a00132-8621-41d8-ac82-8d6cfa6a8c48","ios":"levelo://app?vid=09a00132-8621-41d8-ac82-8d6cfa6a8c48"},"vehicle_type_id":"4","last_reported":1777373608,"current_range_meters":6000,"station_id":"st_d3js3co5814s73ftftug","pricing_plan_id":"cebpf4jnsgd1na2vs0mg"},{"bike_id":"9daae5fc-029a-4575-8080-71abfd7ee94e","system_id":"levelo_inurba_marseille","lat":43.21195,"lon":5.35088,"is_reserved":false,"is_disabled":false,"rental_uris":{"android":"levelo://app?vid=9daae5fc-029a-4575-8080-71abfd7ee94e","ios":"levelo://app?vid=9daae5fc-029a-4575-8080-71abfd7ee94e"},"vehicle_type_id":"4","last_reported":1777373608,"current_range_meters":6000,"station_id":"st_cvj6sg6p6f1abm77japg","pricing_plan_id":"cebpf4jnsgd1na2vs0mg"},{"bike_id":"486a6bd7-6877-47a7-872d-b6d92138ce35","system_id":"levelo_inurba_marseille","lat":43.28151,"lon":5.42654,"is_reserved":false,"is_disabled":false,"rental_uris":{"android":"levelo://app?vid=486a6bd7-6877-47a7-872d-b6d92138ce35","ios":"levelo://app?vid=486a6bd7-6877-47a7-872d-b6d92138ce35"},"vehicle_type_id":"4","last_reported":1777373608,"current_range_meters":6000,"station_id":"ce4bhnh2rcd13ifvqgug","pricing_plan_id":"cebpf4jnsgd1na2vs0mg"},{"bike_id":"5966df63-83c6-4f34-ae95-a22fe39c03ab","system_id":"levelo_inurba_marseille","lat":43.26563,"lon":5.38982,"is_reserved":false,"is_disabled":false,"rental_uris":{"android":"levelo://app?vid=5966df63-83c6-4f34-ae95-a22fe39c03ab","ios":"levelo://app?vid=5966df63-83c6-4f34-ae95-a22fe39c03ab"},"vehicle_type_id":"4","last_reported":1777373608,"current_range_meters":6000,"station_id":"ce4bhe12rcd13ifvqf30","pricing_plan_id":"cebpf4jnsgd1na2vs0mg"},{"bike_id":"82b70212-2bc2-465f-89cb-bb68d80f2db9","system_id":"levelo_inurba_marseille","lat":43.29567,"lon":5.37492,"is_reserved":false,"is_disabled":false,"rental_uris":{"android":"levelo://app?vid=82b70212-2bc2-465f-89cb-bb68d80f2db9","ios":"levelo://app?vid=82b70212-2bc2-465f-89cb-bb68d80f2db9"},"vehicle_type_id":"4","last_reported":1777373608,"current_range_meters":6000,"station_id":"ce4bgh92rcd13ifvqb50","pricing_plan_id":"cebpf4jnsgd1na2vs0mg"},{"bike_id":"93b45866-f66d-4729-beed-fc668232a420","system_id":"levelo_inurba_marseille","lat":43.31278,"lon":5.40171,"is_reserved":false,"is_disabled":false,"rental_uris":{"android":"levelo://app?vid=93b45866-f66d-4729-beed-fc668232a420","ios":"levelo://app?vid=93b45866-f66d-4729-beed-fc668232a420"},"vehicle_type_id":"4","last_reported":1777373608,"current_range_meters":6400,"station_id":"ce4bh092rcd13ifvqd30","pricing_plan_id":"cebpf4jnsgd1na2vs0mg"},{"bike_id":"53dda291-caff-4c5b-a904-ced786c0d3b0","system_id":"levelo_inurba_marseille","lat":43.29942,"lon":5.37442,"is_reserved":false,"is_disabled":true,"rental_uris":{"android":"levelo://app?vid=53dda291-caff-4c5b-a904-ced786c0d3b0","ios":"levelo://app?vid=53dda291-caff-4c5b-a904-ced786c0d3b0"},"vehicle_type_id":"4","last_reported":1777373608,"current_range_meters":6400,"station_id":"ce4bgjh2rcd13ifvqbg0","pricing_plan_id":"cebpf4jnsgd1na2vs0mg"},{"bike_id":"e5d36b8e-c5dd-43ac-a1bd-b0196adefd6a","system_id":"levelo_inurba_marseille","lat":43.23135,"lon":5.43705,"is_reserved":false,"is_disabled":false,"rental_uris":{"android":"levelo://app?vid=e5d36b8e-c5dd-43ac-a1bd-b0196adefd6a","ios":"levelo://app?vid=e5d36b8e-c5dd-43ac-a1bd-b0196adefd6a"},"vehicle_type_id":"4","last_reported":1777373608,"current_range_meters":6400,"station_id":"ce4bhmp2rcd13ifvqgog","pricing_plan_id":"cebpf4jnsgd1na2vs0mg"},{"bike_id":"e593377f-0b04-468e-be39-461905e9f322","system_id":"levelo_inurba_marseille","lat":43.2465,"lon":5.38897,"is_reserved":false,"is_disabled":false,"rental_uris":{"android":"levelo://app?vid=e593377f-0b04-468e-be39-461905e9f322","ios":"levelo://app?vid=e593377f-0b04-468e-be39-461905e9f322"},"vehicle_type_id":"4","last_reported":1777373608,"current_range_meters":6400,"station_id":"ce4bhg12rcd13ifvqf60","pricing_plan_id":"cebpf4jnsgd1na2vs0mg"},{"bike_id":"55ffa9cb-0e63-4320-8c55-2d765a24cf5f","system_id":"levelo_inurba_marseille","lat":43.24169,"lon":5.36397,"is_reserved":false,"is_disabled":false,"rental_uris":{"android":"levelo://app?vid=55ffa9cb-0e63-4320-8c55-2d765a24cf5f","ios":"levelo://app?vid=55ffa9cb-0e63-4320-8c55-2d765a24cf5f"},"vehicle_type_id":"4","last_reported":1777373608,"current_range_meters":6400,"station_id":"cpo36qri1sfpv3e86is0","pricing_plan_id":"cebpf4jnsgd1na2vs0mg"},{"bike_id":"b5088cd7-5e45-457a-ae9f-32446d67355c","system_id":"levelo_inurba_marseille","lat":43.32477,"lon":5.36578,"is_reserved":false,"is_disabled":false,"rental_uris":{"android":"levelo://app?vid=b5088cd7-5e45-457a-ae9f-32446d67355c","ios":"levelo://app?vid=b5088cd7-5e45-457a-ae9f-32446d67355c"},"vehicle_type_id":"4","last_reported":1777373608,"current_range_meters":6400,"station_id":"ce4bhs12rcd13ifvqhvg","pricing_plan_id":"cebpf4jnsgd1na2vs0mg"},{"bike_id":"dcfab648-74de-4de4-bece-b036d3b1ddbb","system_id":"levelo_inurba_marseille","lat":43.29266,"lon":5.36852,"is_reserved":false,"is_disabled":false,"rental_uris":{"android":"levelo://app?vid=dcfab648-74de-4de4-bece-b036d3b1ddbb","ios":"levelo://app?vid=dcfab648-74de-4de4-bece-b036d3b1ddbb"},"vehicle_type_id":"4","last_reported":1777373608,"current_range_meters":6400,"station_id":"ce4bhbp2rcd13ifvqesg","pricing_plan_id":"cebpf4jnsgd1na2vs0mg"},{"bike_id":"9feac244-8f6d-4afc-bfad-32db7367a2cb","system_id":"levelo_inurba_marseille","lat":43.28721,"lon":5.37942,"is_reserved":false,"is_disabled":false,"rental_uris":{"android":"levelo://app?vid=9feac244-8f6d-4afc-bfad-32db7367a2cb","ios":"levelo://app?vid=9feac244-8f6d-4afc-bfad-32db7367a2cb"},"vehicle_type_id":"4","last_reported":1777373608,"current_range_meters":6400,"station_id":"ce4bh9p2rcd13ifvqec0","pricing_plan_id":"cebpf4jnsgd1na2vs0mg"},{"bike_id":"133863d4-edec-49c6-87eb-49d9d855345c","system_id":"levelo_inurba_marseille","lat":43.29925,"lon":5.36544,"is_reserved":false,"is_disabled":false,"rental_uris":{"android":"levelo://app?vid=133863d4-edec-49c6-87eb-49d9d855345c","ios":"levelo://app?vid=133863d4-edec-49c6-87eb-49d9d855345c"},"vehicle_type_id":"4","last_reported":1777373608,"current_range_meters":6400,"station_id":"ce4bgm92rcd13ifvqbr0","pricing_plan_id":"cebpf4jnsgd1na2vs0mg"},{"bike_id":"3bbd46e2-73ed-4fc5-a90c-7131eb8478a3","system_id":"levelo_inurba_marseille","lat":43.25083,"lon":5.3952,"is_reserved":false,"is_disabled":false,"rental_uris":{"android":"levelo://app?vid=3bbd46e2-73ed-4fc5-a90c-7131eb8478a3","ios":"levelo://app?vid=3bbd46e2-73ed-4fc5-a90c-7131eb8478a3"},"vehicle_type_id":"4","last_reported":1777373608,"current_range_meters":6400,"station_id":"ce4bhm12rcd13ifvqgkg","pricing_plan_id":"cebpf4jnsgd1na2vs0mg"},{"bike_id":"750a05e1-ff8d-469d-b1be-693d6dac94a2","system_id":"levelo_inurba_marseille","lat":43.24618,"lon":5.38132,"is_reserved":false,"is_disabled":false,"rental_uris":{"android":"levelo://app?vid=750a05e1-ff8d-469d-b1be-693d6dac94a2","ios":"levelo://app?vid=750a05e1-ff8d-469d-b1be-693d6dac94a2"},"vehicle_type_id":"4","last_reported":1777373608,"current_range_meters":6400,"station_id":"","pricing_plan_id":"cebpf4jnsgd1na2vs0mg"},{"bike_id":"62f19b7a-e2cc-48e1-8c2d-badef76c3087","system_id":"levelo_inurba_marseille","lat":43.29725,"lon":5.3773,"is_reserved":false,"is_disabled":false,"rental_uris":{"android":"levelo://app?vid=62f19b7a-e2cc-48e1-8c2d-badef76c3087","ios":"levelo://app?vid=62f19b7a-e2cc-48e1-8c2d-badef76c3087"},"vehicle_type_id":"4","last_reported":1777373608,"current_range_meters":6800,"station_id":"ce4bgkh2rcd13ifvqbl0","pricing_plan_id":"cebpf4jnsgd1na2vs0mg"},{"bike_id":"d97577f5-d6f0-486c-9151-5b2bcc834ff6","system_id":"levelo_inurba_marseille","lat":43.29904,"lon":5.38152,"is_reserved":false,"is_disabled":false,"rental_uris":{"android":"levelo://app?vid=d97577f5-d6f0-486c-9151-5b2bcc834ff6","ios":"levelo://app?vid=d97577f5-d6f0-486c-9151-5b2bcc834ff6"},"vehicle_type_id":"4","last_reported":1777373608,"current_range_meters":6800,"station_id":"ce4bgj12rcd13ifvqbc0","pricing_plan_id":"cebpf4jnsgd1na2vs0mg"},{"bike_id":"080d2be9-7388-4f0e-81ef-44ed08923221","system_id":"levelo_inurba_marseille","lat":43.26057,"lon":5.39396,"is_reserved":false,"is_disabled":false,"rental_uris":{"android":"levelo://app?vid=080d2be9-7388-4f0e-81ef-44ed08923221","ios":"levelo://app?vid=080d2be9-7388-4f0e-81ef-44ed08923221"},"vehicle_type_id":"4","last_reported":1777373608,"current_range_meters":6800,"station_id":"ce4bhh92rcd13ifvqfj0","pricing_plan_id":"cebpf4jnsgd1na2vs0mg"},{"bike_id":"0d4dfb01-63c5-4be7-bdb0-5163c6b2578c","system_id":"levelo_inurba_marseille","lat":43.31883,"lon":5.36808,"is_reserved":false,"is_disabled":false,"rental_uris":{"android":"levelo://app?vid=0d4dfb01-63c5-4be7-bdb0-5163c6b2578c","ios":"levelo://app?vid=0d4dfb01-63c5-4be7-bdb0-5163c6b2578c"},"vehicle_type_id":"4","last_reported":1777373608,"current_range_meters":6800,"station_id":"st_d6o2h0d0559c73evc1b0","pricing_plan_id":"cebpf4jnsgd1na2vs0mg"},{"bike_id":"4f586e90-3833-4b14-a473-3f90b0878578","system_id":"levelo_inurba_marseille","lat":43.31225,"lon":5.36843,"is_reserved":false,"is_disabled":true,"rental_uris":{"android":"levelo://app?vid=4f586e90-3833-4b14-a473-3f90b0878578","ios":"levelo://app?vid=4f586e90-3833-4b14-a473-3f90b0878578"},"vehicle_type_id":"4","last_reported":1777373608,"current_range_meters":6800,"station_id":"ce4bgl92rcd13ifvqbq0","pricing_plan_id":"cebpf4jnsgd1na2vs0mg"},{"bike_id":"2b2662f1-d28b-44f2-b2c8-61c6569e4c3d","system_id":"levelo_inurba_marseille","lat":43.29255,"lon":5.40143,"is_reserved":false,"is_disabled":true,"rental_uris":{"android":"levelo://app?vid=2b2662f1-d28b-44f2-b2c8-61c6569e4c3d","ios":"levelo://app?vid=2b2662f1-d28b-44f2-b2c8-61c6569e4c3d"},"vehicle_type_id":"4","last_reported":1777373608,"current_range_meters":6800,"station_id":"ce4bh312rcd13ifvqdk0","pricing_plan_id":"cebpf4jnsgd1na2vs0mg"},{"bike_id":"80c84515-8bb0-4f32-9041-88b03ee3133c","system_id":"levelo_inurba_marseille","lat":43.3046,"lon":5.3791,"is_reserved":false,"is_disabled":false,"rental_uris":{"android":"levelo://app?vid=80c84515-8bb0-4f32-9041-88b03ee3133c","ios":"levelo://app?vid=80c84515-8bb0-4f32-9041-88b03ee3133c"},"vehicle_type_id":"4","last_reported":1777373608,"current_range_meters":6800,"station_id":"ce4bgup2rcd13ifvqcn0","pricing_plan_id":"cebpf4jnsgd1na2vs0mg"},{"bike_id":"afde96ac-1493-4085-af72-e5da568a87fd","system_id":"levelo_inurba_marseille","lat":43.28532,"lon":5.48233,"is_reserved":false,"is_disabled":false,"rental_uris":{"android":"levelo://app?vid=afde96ac-1493-4085-af72-e5da568a87fd","ios":"levelo://app?vid=afde96ac-1493-4085-af72-e5da568a87fd"},"vehicle_type_id":"4","last_reported":1777373608,"current_range_meters":6800,"station_id":"st_d3svhcjqgbts73a3dn0g","pricing_plan_id":"cebpf4jnsgd1na2vs0mg"},{"bike_id":"934d24fd-bc0f-4086-ad83-8ea475709d64","system_id":"levelo_inurba_marseille","lat":43.31378,"lon":5.36696,"is_reserved":false,"is_disabled":false,"rental_uris":{"android":"levelo://app?vid=934d24fd-bc0f-4086-ad83-8ea475709d64","ios":"levelo://app?vid=934d24fd-bc0f-4086-ad83-8ea475709d64"},"vehicle_type_id":"4","last_reported":1777373608,"current_range_meters":6800,"station_id":"ce4bgr92rcd13ifvqc6g","pricing_plan_id":"cebpf4jnsgd1na2vs0mg"},{"bike_id":"a6cfd14b-75d2-4f9d-9367-3fa42b7b1d2c","system_id":"levelo_inurba_marseille","lat":43.32114,"lon":5.36754,"is_reserved":false,"is_disabled":false,"rental_uris":{"android":"levelo://app?vid=a6cfd14b-75d2-4f9d-9367-3fa42b7b1d2c","ios":"levelo://app?vid=a6cfd14b-75d2-4f9d-9367-3fa42b7b1d2c"},"vehicle_type_id":"4","last_reported":1777373608,"current_range_meters":6800,"station_id":"ce4bhrh2rcd13ifvqhug","pricing_plan_id":"cebpf4jnsgd1na2vs0mg"},{"bike_id":"2d4d6cf7-b961-481d-9b67-ad8e29281ec8","system_id":"levelo_inurba_marseille","lat":43.2846,"lon":5.38429,"is_reserved":false,"is_disabled":false,"rental_uris":{"android":"levelo://app?vid=2d4d6cf7-b961-481d-9b67-ad8e29281ec8","ios":"levelo://app?vid=2d4d6cf7-b961-481d-9b67-ad8e29281ec8"},"vehicle_type_id":"4","last_reported":1777373608,"current_range_meters":6800,"station_id":"ce4bh512rcd13ifvqe3g","pricing_plan_id":"cebpf4jnsgd1na2vs0mg"},{"bike_id":"73fa8c06-74cb-45a2-b476-7a136a072d5d","system_id":"levelo_inurba_marseille","lat":43.30462,"lon":5.37906,"is_reserved":false,"is_disabled":false,"rental_uris":{"android":"levelo://app?vid=73fa8c06-74cb-45a2-b476-7a136a072d5d","ios":"levelo://app?vid=73fa8c06-74cb-45a2-b476-7a136a072d5d"},"vehicle_type_id":"4","last_reported":1777373608,"current_range_meters":6800,"station_id":"ce4bgup2rcd13ifvqcn0","pricing_plan_id":"cebpf4jnsgd1na2vs0mg"},{"bike_id":"c571a18b-ebb0-4522-80fc-b0aa2f0b2a0f","system_id":"levelo_inurba_marseille","lat":43.26245,"lon":5.38761,"is_reserved":false,"is_disabled":false,"rental_uris":{"android":"levelo://app?vid=c571a18b-ebb0-4522-80fc-b0aa2f0b2a0f","ios":"levelo://app?vid=c571a18b-ebb0-4522-80fc-b0aa2f0b2a0f"},"vehicle_type_id":"4","last_reported":1777373608,"current_range_meters":6800,"station_id":"","pricing_plan_id":"cebpf4jnsgd1na2vs0mg"},{"bike_id":"d86c4c64-b860-458f-bbb1-39678625195b","system_id":"levelo_inurba_marseille","lat":43.27204,"lon":5.39181,"is_reserved":false,"is_disabled":false,"rental_uris":{"android":"levelo://app?vid=d86c4c64-b860-458f-bbb1-39678625195b","ios":"levelo://app?vid=d86c4c64-b860-458f-bbb1-39678625195b"},"vehicle_type_id":"4","last_reported":1777373608,"current_range_meters":6800,"station_id":"ce4bhhp2rcd13ifvqfm0","pricing_plan_id":"cebpf4jnsgd1na2vs0mg"},{"bike_id":"c04c42cf-36a4-4a3c-b656-dde2fe1bae7e","system_id":"levelo_inurba_marseille","lat":43.28574,"lon":5.40268,"is_reserved":false,"is_disabled":false,"rental_uris":{"android":"levelo://app?vid=c04c42cf-36a4-4a3c-b656-dde2fe1bae7e","ios":"levelo://app?vid=c04c42cf-36a4-4a3c-b656-dde2fe1bae7e"},"vehicle_type_id":"4","last_reported":1777373608,"current_range_meters":6800,"station_id":"","pricing_plan_id":"cebpf4jnsgd1na2vs0mg"},{"bike_id":"52f5bed6-6662-4855-83e6-22f373320f83","system_id":"levelo_inurba_marseille","lat":43.25437,"lon":5.3827,"is_reserved":false,"is_disabled":false,"rental_uris":{"android":"levelo://app?vid=52f5bed6-6662-4855-83e6-22f373320f83","ios":"levelo://app?vid=52f5bed6-6662-4855-83e6-22f373320f83"},"vehicle_type_id":"4","last_reported":1777373608,"current_range_meters":7200,"station_id":"","pricing_plan_id":"cebpf4jnsgd1na2vs0mg"},{"bike_id":"f34173ba-e522-42fc-89f1-ad871c6b29c4","system_id":"levelo_inurba_marseille","lat":43.2949,"lon":5.4331,"is_reserved":false,"is_disabled":false,"rental_uris":{"android":"levelo://app?vid=f34173ba-e522-42fc-89f1-ad871c6b29c4","ios":"levelo://app?vid=f34173ba-e522-42fc-89f1-ad871c6b29c4"},"vehicle_type_id":"4","last_reported":1777373608,"current_range_meters":7200,"station_id":"st_d3j5ugp08ojc73fj9d10","pricing_plan_id":"cebpf4jnsgd1na2vs0mg"},{"bike_id":"3616f8ba-73fd-4d6a-af1a-77151a1973e8","system_id":"levelo_inurba_marseille","lat":43.28709,"lon":5.3794,"is_reserved":false,"is_disabled":false,"rental_uris":{"android":"levelo://app?vid=3616f8ba-73fd-4d6a-af1a-77151a1973e8","ios":"levelo://app?vid=3616f8ba-73fd-4d6a-af1a-77151a1973e8"},"vehicle_type_id":"4","last_reported":1777373608,"current_range_meters":7200,"station_id":"ce4bh9p2rcd13ifvqec0","pricing_plan_id":"cebpf4jnsgd1na2vs0mg"},{"bike_id":"94b1d427-102e-4c64-aa76-0c93e226150f","system_id":"levelo_inurba_marseille","lat":43.28476,"lon":5.48407,"is_reserved":false,"is_disabled":false,"rental_uris":{"android":"levelo://app?vid=94b1d427-102e-4c64-aa76-0c93e226150f","ios":"levelo://app?vid=94b1d427-102e-4c64-aa76-0c93e226150f"},"vehicle_type_id":"4","last_reported":1777373608,"current_range_meters":7200,"station_id":"st_d3svhcjqgbts73a3dn0g","pricing_plan_id":"cebpf4jnsgd1na2vs0mg"},{"bike_id":"8e18a4ee-5453-4edd-9ccf-093d4d754d6c","system_id":"levelo_inurba_marseille","lat":43.28974,"lon":5.37833,"is_reserved":false,"is_disabled":false,"rental_uris":{"android":"levelo://app?vid=8e18a4ee-5453-4edd-9ccf-093d4d754d6c","ios":"levelo://app?vid=8e18a4ee-5453-4edd-9ccf-093d4d754d6c"},"vehicle_type_id":"4","last_reported":1777373608,"current_range_meters":7200,"station_id":"ce4bh9p2rcd13ifvqed0","pricing_plan_id":"cebpf4jnsgd1na2vs0mg"},{"bike_id":"e2f4f5b7-b06b-4898-bad0-3e342eb52875","system_id":"levelo_inurba_marseille","lat":43.28973,"lon":5.37819,"is_reserved":false,"is_disabled":false,"rental_uris":{"android":"levelo://app?vid=e2f4f5b7-b06b-4898-bad0-3e342eb52875","ios":"levelo://app?vid=e2f4f5b7-b06b-4898-bad0-3e342eb52875"},"vehicle_type_id":"4","last_reported":1777373608,"current_range_meters":7200,"station_id":"ce4bh9p2rcd13ifvqed0","pricing_plan_id":"cebpf4jnsgd1na2vs0mg"},{"bike_id":"f9f92c5c-5f51-4e1c-a4a4-da02d7396e3a","system_id":"levelo_inurba_marseille","lat":43.21738,"lon":5.34596,"is_reserved":false,"is_disabled":false,"rental_uris":{"android":"levelo://app?vid=f9f92c5c-5f51-4e1c-a4a4-da02d7396e3a","ios":"levelo://app?vid=f9f92c5c-5f51-4e1c-a4a4-da02d7396e3a"},"vehicle_type_id":"4","last_reported":1777373608,"current_range_meters":7200,"station_id":"st_cvj6r9ubvosntc0bgbag","pricing_plan_id":"cebpf4jnsgd1na2vs0mg"},{"bike_id":"843a000b-5946-4c68-ae79-870b84c26d16","system_id":"levelo_inurba_marseille","lat":43.24461,"lon":5.42523,"is_reserved":false,"is_disabled":false,"rental_uris":{"android":"levelo://app?vid=843a000b-5946-4c68-ae79-870b84c26d16","ios":"levelo://app?vid=843a000b-5946-4c68-ae79-870b84c26d16"},"vehicle_type_id":"4","last_reported":1777373608,"current_range_meters":7200,"station_id":"st_d4a3vfp97mjs738cd8kg","pricing_plan_id":"cebpf4jnsgd1na2vs0mg"},{"bike_id":"626afedd-d732-4bc8-be6f-6408a29380b2","system_id":"levelo_inurba_marseille","lat":43.21191,"lon":5.3506,"is_reserved":false,"is_disabled":false,"rental_uris":{"android":"levelo://app?vid=626afedd-d732-4bc8-be6f-6408a29380b2","ios":"levelo://app?vid=626afedd-d732-4bc8-be6f-6408a29380b2"},"vehicle_type_id":"4","last_reported":1777373608,"current_range_meters":7200,"station_id":"st_cvj6sg6p6f1abm77japg","pricing_plan_id":"cebpf4jnsgd1na2vs0mg"},{"bike_id":"a7ef47ae-ac7a-4811-8371-2ebdbd6eea38","system_id":"levelo_inurba_marseille","lat":43.21753,"lon":5.34598,"is_reserved":false,"is_disabled":false,"rental_uris":{"android":"levelo://app?vid=a7ef47ae-ac7a-4811-8371-2ebdbd6eea38","ios":"levelo://app?vid=a7ef47ae-ac7a-4811-8371-2ebdbd6eea38"},"vehicle_type_id":"4","last_reported":1777373608,"current_range_meters":7200,"station_id":"st_cvj6r9ubvosntc0bgbag","pricing_plan_id":"cebpf4jnsgd1na2vs0mg"},{"bike_id":"d14de05e-8665-4c3d-949e-102c763303bf","system_id":"levelo_inurba_marseille","lat":43.2861,"lon":5.37055,"is_reserved":false,"is_disabled":false,"rental_uris":{"android":"levelo://app?vid=d14de05e-8665-4c3d-949e-102c763303bf","ios":"levelo://app?vid=d14de05e-8665-4c3d-949e-102c763303bf"},"vehicle_type_id":"4","last_reported":1777373608,"current_range_meters":7200,"station_id":"ce4bht12rcd13ifvqi60","pricing_plan_id":"cebpf4jnsgd1na2vs0mg"},{"bike_id":"987eda33-b3ad-4fac-a63c-0e3ff496e921","system_id":"levelo_inurba_marseille","lat":43.32344,"lon":5.36737,"is_reserved":false,"is_disabled":false,"rental_uris":{"android":"levelo://app?vid=987eda33-b3ad-4fac-a63c-0e3ff496e921","ios":"levelo://app?vid=987eda33-b3ad-4fac-a63c-0e3ff496e921"},"vehicle_type_id":"4","last_reported":1777373608,"current_range_meters":7200,"station_id":"ce4bhsh2rcd13ifvqi2g","pricing_plan_id":"cebpf4jnsgd1na2vs0mg"},{"bike_id":"92b0e79d-5118-4cdc-a154-ad1d52d847b8","system_id":"levelo_inurba_marseille","lat":43.29608,"lon":5.36065,"is_reserved":false,"is_disabled":false,"rental_uris":{"android":"levelo://app?vid=92b0e79d-5118-4cdc-a154-ad1d52d847b8","ios":"levelo://app?vid=92b0e79d-5118-4cdc-a154-ad1d52d847b8"},"vehicle_type_id":"4","last_reported":1777373608,"current_range_meters":7200,"station_id":"","pricing_plan_id":"cebpf4jnsgd1na2vs0mg"},{"bike_id":"20111a87-41c4-4eaf-9fe8-f7469b02a4e4","system_id":"levelo_inurba_marseille","lat":43.30127,"lon":5.43122,"is_reserved":false,"is_disabled":false,"rental_uris":{"android":"levelo://app?vid=20111a87-41c4-4eaf-9fe8-f7469b02a4e4","ios":"levelo://app?vid=20111a87-41c4-4eaf-9fe8-f7469b02a4e4"},"vehicle_type_id":"4","last_reported":1777373608,"current_range_meters":7200,"station_id":"st_d3js3co5814s73ftftug","pricing_plan_id":"cebpf4jnsgd1na2vs0mg"},{"bike_id":"6b4aa15b-259f-4e69-9c10-9ad064f7be7c","system_id":"levelo_inurba_marseille","lat":43.25576,"lon":5.38233,"is_reserved":false,"is_disabled":false,"rental_uris":{"android":"levelo://app?vid=6b4aa15b-259f-4e69-9c10-9ad064f7be7c","ios":"levelo://app?vid=6b4aa15b-259f-4e69-9c10-9ad064f7be7c"},"vehicle_type_id":"4","last_reported":1777373608,"current_range_meters":7200,"station_id":"ce4bhih2rcd13ifvqfs0","pricing_plan_id":"cebpf4jnsgd1na2vs0mg"},{"bike_id":"5ac5a430-9630-4e61-9850-45696dc20eaa","system_id":"levelo_inurba_marseille","lat":43.26557,"lon":5.37283,"is_reserved":false,"is_disabled":false,"rental_uris":{"android":"levelo://app?vid=5ac5a430-9630-4e61-9850-45696dc20eaa","ios":"levelo://app?vid=5ac5a430-9630-4e61-9850-45696dc20eaa"},"vehicle_type_id":"4","last_reported":1777373608,"current_range_meters":7200,"station_id":"ce4bhg12rcd13ifvqf70","pricing_plan_id":"cebpf4jnsgd1na2vs0mg"},{"bike_id":"9f543810-4dfb-4951-9c10-acd2d2940820","system_id":"levelo_inurba_marseille","lat":43.28583,"lon":5.39486,"is_reserved":false,"is_disabled":true,"rental_uris":{"android":"levelo://app?vid=9f543810-4dfb-4951-9c10-acd2d2940820","ios":"levelo://app?vid=9f543810-4dfb-4951-9c10-acd2d2940820"},"vehicle_type_id":"4","last_reported":1777373608,"current_range_meters":7200,"station_id":"ce4bh292rcd13ifvqdg0","pricing_plan_id":"cebpf4jnsgd1na2vs0mg"},{"bike_id":"fd4f0760-9fb8-43ea-b81d-a30a73892935","system_id":"levelo_inurba_marseille","lat":43.28152,"lon":5.42637,"is_reserved":false,"is_disabled":false,"rental_uris":{"android":"levelo://app?vid=fd4f0760-9fb8-43ea-b81d-a30a73892935","ios":"levelo://app?vid=fd4f0760-9fb8-43ea-b81d-a30a73892935"},"vehicle_type_id":"4","last_reported":1777373608,"current_range_meters":7200,"station_id":"ce4bhnh2rcd13ifvqgug","pricing_plan_id":"cebpf4jnsgd1na2vs0mg"},{"bike_id":"8b4e6bd3-1e82-4277-a45a-3a8abaa4e3ab","system_id":"levelo_inurba_marseille","lat":43.28476,"lon":5.48395,"is_reserved":false,"is_disabled":false,"rental_uris":{"android":"levelo://app?vid=8b4e6bd3-1e82-4277-a45a-3a8abaa4e3ab","ios":"levelo://app?vid=8b4e6bd3-1e82-4277-a45a-3a8abaa4e3ab"},"vehicle_type_id":"4","last_reported":1777373608,"current_range_meters":7200,"station_id":"","pricing_plan_id":"cebpf4jnsgd1na2vs0mg"},{"bike_id":"a3aba329-c9c2-4793-952f-f5cc163325d9","system_id":"levelo_inurba_marseille","lat":43.30489,"lon":5.37874,"is_reserved":false,"is_disabled":false,"rental_uris":{"android":"levelo://app?vid=a3aba329-c9c2-4793-952f-f5cc163325d9","ios":"levelo://app?vid=a3aba329-c9c2-4793-952f-f5cc163325d9"},"vehicle_type_id":"4","last_reported":1777373608,"current_range_meters":7200,"station_id":"ce4bgup2rcd13ifvqcn0","pricing_plan_id":"cebpf4jnsgd1na2vs0mg"},{"bike_id":"5099fcc8-f95e-4589-bb9a-71165fa185c1","system_id":"levelo_inurba_marseille","lat":43.28479,"lon":5.38535,"is_reserved":false,"is_disabled":false,"rental_uris":{"android":"levelo://app?vid=5099fcc8-f95e-4589-bb9a-71165fa185c1","ios":"levelo://app?vid=5099fcc8-f95e-4589-bb9a-71165fa185c1"},"vehicle_type_id":"4","last_reported":1777373608,"current_range_meters":8000,"station_id":"ce4bh8p2rcd13ifvqeb0","pricing_plan_id":"cebpf4jnsgd1na2vs0mg"},{"bike_id":"ca970bed-dff0-40b1-aa6e-d0db5b10d8ee","system_id":"levelo_inurba_marseille","lat":43.2742,"lon":5.3942,"is_reserved":false,"is_disabled":false,"rental_uris":{"android":"levelo://app?vid=ca970bed-dff0-40b1-aa6e-d0db5b10d8ee","ios":"levelo://app?vid=ca970bed-dff0-40b1-aa6e-d0db5b10d8ee"},"vehicle_type_id":"4","last_reported":1777373608,"current_range_meters":8000,"station_id":"ce4bhdp2rcd13ifvqf20","pricing_plan_id":"cebpf4jnsgd1na2vs0mg"},{"bike_id":"b32b5b60-6d3b-47da-9b06-e06658018728","system_id":"levelo_inurba_marseille","lat":43.26924,"lon":5.38922,"is_reserved":false,"is_disabled":false,"rental_uris":{"android":"levelo://app?vid=b32b5b60-6d3b-47da-9b06-e06658018728","ios":"levelo://app?vid=b32b5b60-6d3b-47da-9b06-e06658018728"},"vehicle_type_id":"4","last_reported":1777373608,"current_range_meters":8000,"station_id":"ce4bhhh2rcd13ifvqfl0","pricing_plan_id":"cebpf4jnsgd1na2vs0mg"},{"bike_id":"27cd71a7-0940-4415-a67f-21597fbf1cd9","system_id":"levelo_inurba_marseille","lat":43.34534,"lon":5.37787,"is_reserved":false,"is_disabled":true,"rental_uris":{"android":"levelo://app?vid=27cd71a7-0940-4415-a67f-21597fbf1cd9","ios":"levelo://app?vid=27cd71a7-0940-4415-a67f-21597fbf1cd9"},"vehicle_type_id":"4","last_reported":1777373608,"current_range_meters":8000,"station_id":"","pricing_plan_id":"cebpf4jnsgd1na2vs0mg"},{"bike_id":"66fd292d-5970-4e69-8ee6-9c6a1e0f9e63","system_id":"levelo_inurba_marseille","lat":43.26541,"lon":5.37296,"is_reserved":false,"is_disabled":true,"rental_uris":{"android":"levelo://app?vid=66fd292d-5970-4e69-8ee6-9c6a1e0f9e63","ios":"levelo://app?vid=66fd292d-5970-4e69-8ee6-9c6a1e0f9e63"},"vehicle_type_id":"4","last_reported":1777373608,"current_range_meters":8000,"station_id":"ce4bhg12rcd13ifvqf70","pricing_plan_id":"cebpf4jnsgd1na2vs0mg"},{"bike_id":"bc18d277-6f90-4268-83ca-0147a84d3292","system_id":"levelo_inurba_marseille","lat":43.29843,"lon":5.36276,"is_reserved":false,"is_disabled":false,"rental_uris":{"android":"levelo://app?vid=bc18d277-6f90-4268-83ca-0147a84d3292","ios":"levelo://app?vid=bc18d277-6f90-4268-83ca-0147a84d3292"},"vehicle_type_id":"4","last_reported":1777373608,"current_range_meters":8000,"station_id":"ce4bgpp2rcd13ifvqc3g","pricing_plan_id":"cebpf4jnsgd1na2vs0mg"},{"bike_id":"02ebb0f5-8793-4f8a-8f6e-65aad3bcbf41","system_id":"levelo_inurba_marseille","lat":43.30945,"lon":5.3903,"is_reserved":false,"is_disabled":false,"rental_uris":{"android":"levelo://app?vid=02ebb0f5-8793-4f8a-8f6e-65aad3bcbf41","ios":"levelo://app?vid=02ebb0f5-8793-4f8a-8f6e-65aad3bcbf41"},"vehicle_type_id":"4","last_reported":1777373608,"current_range_meters":8000,"station_id":"ce4bgup2rcd13ifvqco0","pricing_plan_id":"cebpf4jnsgd1na2vs0mg"},{"bike_id":"b26f72b1-3436-474e-8d21-a89781343c8b","system_id":"levelo_inurba_marseille","lat":43.25954,"lon":5.40925,"is_reserved":false,"is_disabled":false,"rental_uris":{"android":"levelo://app?vid=b26f72b1-3436-474e-8d21-a89781343c8b","ios":"levelo://app?vid=b26f72b1-3436-474e-8d21-a89781343c8b"},"vehicle_type_id":"4","last_reported":1777373608,"current_range_meters":8000,"station_id":"ce4bhm92rcd13ifvqglg","pricing_plan_id":"cebpf4jnsgd1na2vs0mg"},{"bike_id":"cea5c900-6846-469c-a102-14a14fb7cb4f","system_id":"levelo_inurba_marseille","lat":43.29559,"lon":5.37499,"is_reserved":false,"is_disabled":false,"rental_uris":{"android":"levelo://app?vid=cea5c900-6846-469c-a102-14a14fb7cb4f","ios":"levelo://app?vid=cea5c900-6846-469c-a102-14a14fb7cb4f"},"vehicle_type_id":"4","last_reported":1777373608,"current_range_meters":8000,"station_id":"ce4bgh92rcd13ifvqb50","pricing_plan_id":"cebpf4jnsgd1na2vs0mg"},{"bike_id":"d2276d1c-4dd8-4805-b674-72347073e05f","system_id":"levelo_inurba_marseille","lat":43.28863,"lon":5.4252,"is_reserved":false,"is_disabled":false,"rental_uris":{"android":"levelo://app?vid=d2276d1c-4dd8-4805-b674-72347073e05f","ios":"levelo://app?vid=d2276d1c-4dd8-4805-b674-72347073e05f"},"vehicle_type_id":"4","last_reported":1777373608,"current_range_meters":8000,"station_id":"st_d3b462108ojc7389ooeg","pricing_plan_id":"cebpf4jnsgd1na2vs0mg"},{"bike_id":"76907408-a8ff-4688-9cbf-66e48bb415e8","system_id":"levelo_inurba_marseille","lat":43.28698,"lon":5.4669,"is_reserved":false,"is_disabled":false,"rental_uris":{"android":"levelo://app?vid=76907408-a8ff-4688-9cbf-66e48bb415e8","ios":"levelo://app?vid=76907408-a8ff-4688-9cbf-66e48bb415e8"},"vehicle_type_id":"4","last_reported":1777373608,"current_range_meters":8000,"station_id":"st_d6tc3vkotcvc738tfjhg","pricing_plan_id":"cebpf4jnsgd1na2vs0mg"},{"bike_id":"f13c1412-9987-4b53-aa5c-79a6ecb2ba2d","system_id":"levelo_inurba_marseille","lat":43.32361,"lon":5.36781,"is_reserved":false,"is_disabled":false,"rental_uris":{"android":"levelo://app?vid=f13c1412-9987-4b53-aa5c-79a6ecb2ba2d","ios":"levelo://app?vid=f13c1412-9987-4b53-aa5c-79a6ecb2ba2d"},"vehicle_type_id":"4","last_reported":1777373608,"current_range_meters":8000,"station_id":"ce4bhsh2rcd13ifvqi2g","pricing_plan_id":"cebpf4jnsgd1na2vs0mg"},{"bike_id":"4c0fb81d-552f-402a-953b-8b3343daee2c","system_id":"levelo_inurba_marseille","lat":43.337444,"lon":5.374475,"is_reserved":false,"is_disabled":false,"rental_uris":{"android":"levelo://app?vid=4c0fb81d-552f-402a-953b-8b3343daee2c","ios":"levelo://app?vid=4c0fb81d-552f-402a-953b-8b3343daee2c"},"vehicle_type_id":"4","last_reported":1777373608,"current_range_meters":8000,"station_id":"","pricing_plan_id":"cebpf4jnsgd1na2vs0mg"},{"bike_id":"ed8343bf-39e5-4aab-a113-1213ddf8928d","system_id":"levelo_inurba_marseille","lat":43.29368,"lon":5.37848,"is_reserved":false,"is_disabled":false,"rental_uris":{"android":"levelo://app?vid=ed8343bf-39e5-4aab-a113-1213ddf8928d","ios":"levelo://app?vid=ed8343bf-39e5-4aab-a113-1213ddf8928d"},"vehicle_type_id":"4","last_reported":1777373608,"current_range_meters":8000,"station_id":"ce4bgjh2rcd13ifvqbf0","pricing_plan_id":"cebpf4jnsgd1na2vs0mg"},{"bike_id":"60dba6de-54c0-480e-929d-4ee08e29c2b6","system_id":"levelo_inurba_marseille","lat":43.31222,"lon":5.36872,"is_reserved":false,"is_disabled":false,"rental_uris":{"android":"levelo://app?vid=60dba6de-54c0-480e-929d-4ee08e29c2b6","ios":"levelo://app?vid=60dba6de-54c0-480e-929d-4ee08e29c2b6"},"vehicle_type_id":"4","last_reported":1777373608,"current_range_meters":8000,"station_id":"ce4bgl92rcd13ifvqbq0","pricing_plan_id":"cebpf4jnsgd1na2vs0mg"},{"bike_id":"227e4028-246b-4a4b-bf88-36b7ff5228dd","system_id":"levelo_inurba_marseille","lat":43.29492,"lon":5.37594,"is_reserved":false,"is_disabled":true,"rental_uris":{"android":"levelo://app?vid=227e4028-246b-4a4b-bf88-36b7ff5228dd","ios":"levelo://app?vid=227e4028-246b-4a4b-bf88-36b7ff5228dd"},"vehicle_type_id":"4","last_reported":1777373608,"current_range_meters":8400,"station_id":"","pricing_plan_id":"cebpf4jnsgd1na2vs0mg"},{"bike_id":"3c2f4a7a-43d9-4d2f-b294-2554393813f3","system_id":"levelo_inurba_marseille","lat":43.26782,"lon":5.39411,"is_reserved":false,"is_disabled":false,"rental_uris":{"android":"levelo://app?vid=3c2f4a7a-43d9-4d2f-b294-2554393813f3","ios":"levelo://app?vid=3c2f4a7a-43d9-4d2f-b294-2554393813f3"},"vehicle_type_id":"4","last_reported":1777373608,"current_range_meters":8400,"station_id":"ce4bhh12rcd13ifvqfg0","pricing_plan_id":"cebpf4jnsgd1na2vs0mg"},{"bike_id":"dabc5e28-b9df-4b1a-affa-f2e365a8b45b","system_id":"levelo_inurba_marseille","lat":43.32096,"lon":5.36763,"is_reserved":false,"is_disabled":false,"rental_uris":{"android":"levelo://app?vid=dabc5e28-b9df-4b1a-affa-f2e365a8b45b","ios":"levelo://app?vid=dabc5e28-b9df-4b1a-affa-f2e365a8b45b"},"vehicle_type_id":"4","last_reported":1777373608,"current_range_meters":8400,"station_id":"ce4bhrh2rcd13ifvqhug","pricing_plan_id":"cebpf4jnsgd1na2vs0mg"},{"bike_id":"4541a58b-5803-4873-8531-8182c7674429","system_id":"levelo_inurba_marseille","lat":43.28481,"lon":5.48388,"is_reserved":false,"is_disabled":false,"rental_uris":{"android":"levelo://app?vid=4541a58b-5803-4873-8531-8182c7674429","ios":"levelo://app?vid=4541a58b-5803-4873-8531-8182c7674429"},"vehicle_type_id":"4","last_reported":1777373608,"current_range_meters":8400,"station_id":"st_d3svhcjqgbts73a3dn0g","pricing_plan_id":"cebpf4jnsgd1na2vs0mg"},{"bike_id":"80e1e11c-3ddb-4ade-a02f-05f6f042e922","system_id":"levelo_inurba_marseille","lat":43.30123,"lon":5.37422,"is_reserved":false,"is_disabled":false,"rental_uris":{"android":"levelo://app?vid=80e1e11c-3ddb-4ade-a02f-05f6f042e922","ios":"levelo://app?vid=80e1e11c-3ddb-4ade-a02f-05f6f042e922"},"vehicle_type_id":"4","last_reported":1777373608,"current_range_meters":8400,"station_id":"ce4bgs92rcd13ifvqcc0","pricing_plan_id":"cebpf4jnsgd1na2vs0mg"},{"bike_id":"81e52b6e-bff7-4875-a0d8-d533ea21c465","system_id":"levelo_inurba_marseille","lat":43.28141,"lon":5.42643,"is_reserved":false,"is_disabled":false,"rental_uris":{"android":"levelo://app?vid=81e52b6e-bff7-4875-a0d8-d533ea21c465","ios":"levelo://app?vid=81e52b6e-bff7-4875-a0d8-d533ea21c465"},"vehicle_type_id":"4","last_reported":1777373608,"current_range_meters":8400,"station_id":"ce4bhnh2rcd13ifvqgug","pricing_plan_id":"cebpf4jnsgd1na2vs0mg"},{"bike_id":"fdb18965-35f3-4301-ad5d-a2c0d6957715","system_id":"levelo_inurba_marseille","lat":43.26683,"lon":5.38271,"is_reserved":false,"is_disabled":false,"rental_uris":{"android":"levelo://app?vid=fdb18965-35f3-4301-ad5d-a2c0d6957715","ios":"levelo://app?vid=fdb18965-35f3-4301-ad5d-a2c0d6957715"},"vehicle_type_id":"4","last_reported":1777373608,"current_range_meters":8400,"station_id":"ce4bhg92rcd13ifvqf90","pricing_plan_id":"cebpf4jnsgd1na2vs0mg"},{"bike_id":"9e2682f2-afa5-44eb-83c3-396915ca22b6","system_id":"levelo_inurba_marseille","lat":43.27501,"lon":5.4244,"is_reserved":false,"is_disabled":false,"rental_uris":{"android":"levelo://app?vid=9e2682f2-afa5-44eb-83c3-396915ca22b6","ios":"levelo://app?vid=9e2682f2-afa5-44eb-83c3-396915ca22b6"},"vehicle_type_id":"4","last_reported":1777373608,"current_range_meters":8400,"station_id":"ce4bhn92rcd13ifvqgrg","pricing_plan_id":"cebpf4jnsgd1na2vs0mg"},{"bike_id":"7d0e029d-b46b-45df-a2df-9698f77d4f30","system_id":"levelo_inurba_marseille","lat":43.26551,"lon":5.37283,"is_reserved":false,"is_disabled":false,"rental_uris":{"android":"levelo://app?vid=7d0e029d-b46b-45df-a2df-9698f77d4f30","ios":"levelo://app?vid=7d0e029d-b46b-45df-a2df-9698f77d4f30"},"vehicle_type_id":"4","last_reported":1777373608,"current_range_meters":8400,"station_id":"ce4bhg12rcd13ifvqf70","pricing_plan_id":"cebpf4jnsgd1na2vs0mg"},{"bike_id":"4a6072da-faf4-4315-a34c-1222fd8ed265","system_id":"levelo_inurba_marseille","lat":43.27945,"lon":5.38667,"is_reserved":false,"is_disabled":false,"rental_uris":{"android":"levelo://app?vid=4a6072da-faf4-4315-a34c-1222fd8ed265","ios":"levelo://app?vid=4a6072da-faf4-4315-a34c-1222fd8ed265"},"vehicle_type_id":"4","last_reported":1777373608,"current_range_meters":8400,"station_id":"","pricing_plan_id":"cebpf4jnsgd1na2vs0mg"},{"bike_id":"270ca009-9515-4a12-be52-3d4bdef64a90","system_id":"levelo_inurba_marseille","lat":43.30877,"lon":5.3719,"is_reserved":false,"is_disabled":false,"rental_uris":{"android":"levelo://app?vid=270ca009-9515-4a12-be52-3d4bdef64a90","ios":"levelo://app?vid=270ca009-9515-4a12-be52-3d4bdef64a90"},"vehicle_type_id":"4","last_reported":1777373608,"current_range_meters":8400,"station_id":"ce4bguh2rcd13ifvqckg","pricing_plan_id":"cebpf4jnsgd1na2vs0mg"},{"bike_id":"81799b3c-2906-44bd-a2ab-946f7e82f63e","system_id":"levelo_inurba_marseille","lat":43.28024,"lon":5.41629,"is_reserved":false,"is_disabled":false,"rental_uris":{"android":"levelo://app?vid=81799b3c-2906-44bd-a2ab-946f7e82f63e","ios":"levelo://app?vid=81799b3c-2906-44bd-a2ab-946f7e82f63e"},"vehicle_type_id":"4","last_reported":1777373608,"current_range_meters":8400,"station_id":"ce4bho12rcd13ifvqh1g","pricing_plan_id":"cebpf4jnsgd1na2vs0mg"},{"bike_id":"ccc64b12-fba8-4953-9e4c-789c15629674","system_id":"levelo_inurba_marseille","lat":43.23204,"lon":5.35082,"is_reserved":false,"is_disabled":false,"rental_uris":{"android":"levelo://app?vid=ccc64b12-fba8-4953-9e4c-789c15629674","ios":"levelo://app?vid=ccc64b12-fba8-4953-9e4c-789c15629674"},"vehicle_type_id":"4","last_reported":1777373608,"current_range_meters":8400,"station_id":"","pricing_plan_id":"cebpf4jnsgd1na2vs0mg"},{"bike_id":"c7924eb8-e219-4bd9-b49d-9b787cfcc337","system_id":"levelo_inurba_marseille","lat":43.2587,"lon":5.39895,"is_reserved":false,"is_disabled":false,"rental_uris":{"android":"levelo://app?vid=c7924eb8-e219-4bd9-b49d-9b787cfcc337","ios":"levelo://app?vid=c7924eb8-e219-4bd9-b49d-9b787cfcc337"},"vehicle_type_id":"4","last_reported":1777373608,"current_range_meters":8400,"station_id":"ce4bhl92rcd13ifvqghg","pricing_plan_id":"cebpf4jnsgd1na2vs0mg"},{"bike_id":"199b591c-a5a9-448a-8aea-d534809f9901","system_id":"levelo_inurba_marseille","lat":43.28946,"lon":5.36385,"is_reserved":false,"is_disabled":false,"rental_uris":{"android":"levelo://app?vid=199b591c-a5a9-448a-8aea-d534809f9901","ios":"levelo://app?vid=199b591c-a5a9-448a-8aea-d534809f9901"},"vehicle_type_id":"4","last_reported":1777373608,"current_range_meters":8400,"station_id":"ce4bhc92rcd13ifvqetg","pricing_plan_id":"cebpf4jnsgd1na2vs0mg"},{"bike_id":"27daba1f-50b8-42ee-aef1-7ebddaa6c0dd","system_id":"levelo_inurba_marseille","lat":43.3043,"lon":5.3887,"is_reserved":false,"is_disabled":false,"rental_uris":{"android":"levelo://app?vid=27daba1f-50b8-42ee-aef1-7ebddaa6c0dd","ios":"levelo://app?vid=27daba1f-50b8-42ee-aef1-7ebddaa6c0dd"},"vehicle_type_id":"4","last_reported":1777373608,"current_range_meters":8400,"station_id":"ce4bgk12rcd13ifvqbi0","pricing_plan_id":"cebpf4jnsgd1na2vs0mg"},{"bike_id":"04a6ad0c-3eb0-4419-842c-ef05732a8fbf","system_id":"levelo_inurba_marseille","lat":43.27214,"lon":5.39176,"is_reserved":false,"is_disabled":false,"rental_uris":{"android":"levelo://app?vid=04a6ad0c-3eb0-4419-842c-ef05732a8fbf","ios":"levelo://app?vid=04a6ad0c-3eb0-4419-842c-ef05732a8fbf"},"vehicle_type_id":"4","last_reported":1777373608,"current_range_meters":8400,"station_id":"ce4bhhp2rcd13ifvqfm0","pricing_plan_id":"cebpf4jnsgd1na2vs0mg"},{"bike_id":"688cba93-f574-463f-97b1-3b9137560d8f","system_id":"levelo_inurba_marseille","lat":43.29519,"lon":5.37496,"is_reserved":false,"is_disabled":false,"rental_uris":{"android":"levelo://app?vid=688cba93-f574-463f-97b1-3b9137560d8f","ios":"levelo://app?vid=688cba93-f574-463f-97b1-3b9137560d8f"},"vehicle_type_id":"4","last_reported":1777373608,"current_range_meters":8400,"station_id":"ce4bgkp2rcd13ifvqbmg","pricing_plan_id":"cebpf4jnsgd1na2vs0mg"},{"bike_id":"b9824a6b-1abf-4f9e-80f4-56c02deb08e1","system_id":"levelo_inurba_marseille","lat":43.30543,"lon":5.3651,"is_reserved":false,"is_disabled":false,"rental_uris":{"android":"levelo://app?vid=b9824a6b-1abf-4f9e-80f4-56c02deb08e1","ios":"levelo://app?vid=b9824a6b-1abf-4f9e-80f4-56c02deb08e1"},"vehicle_type_id":"4","last_reported":1777373608,"current_range_meters":8400,"station_id":"ce4bgs12rcd13ifvqcag","pricing_plan_id":"cebpf4jnsgd1na2vs0mg"},{"bike_id":"182b844f-174c-4ce6-8bf5-b13fd0c048bf","system_id":"levelo_inurba_marseille","lat":43.27491,"lon":5.42468,"is_reserved":false,"is_disabled":false,"rental_uris":{"android":"levelo://app?vid=182b844f-174c-4ce6-8bf5-b13fd0c048bf","ios":"levelo://app?vid=182b844f-174c-4ce6-8bf5-b13fd0c048bf"},"vehicle_type_id":"4","last_reported":1777373608,"current_range_meters":8400,"station_id":"ce4bhn92rcd13ifvqgrg","pricing_plan_id":"cebpf4jnsgd1na2vs0mg"},{"bike_id":"835b890c-8b59-44c6-9d4b-9eeecdc3eb6a","system_id":"levelo_inurba_marseille","lat":43.24173,"lon":5.39726,"is_reserved":false,"is_disabled":false,"rental_uris":{"android":"levelo://app?vid=835b890c-8b59-44c6-9d4b-9eeecdc3eb6a","ios":"levelo://app?vid=835b890c-8b59-44c6-9d4b-9eeecdc3eb6a"},"vehicle_type_id":"4","last_reported":1777373608,"current_range_meters":8800,"station_id":"ce4bhn12rcd13ifvqgpg","pricing_plan_id":"cebpf4jnsgd1na2vs0mg"},{"bike_id":"4a1cbfec-4d87-49b2-b072-5c838fd1bbc0","system_id":"levelo_inurba_marseille","lat":43.22557,"lon":5.41637,"is_reserved":false,"is_disabled":false,"rental_uris":{"android":"levelo://app?vid=4a1cbfec-4d87-49b2-b072-5c838fd1bbc0","ios":"levelo://app?vid=4a1cbfec-4d87-49b2-b072-5c838fd1bbc0"},"vehicle_type_id":"4","last_reported":1777373608,"current_range_meters":8800,"station_id":"st_d2o4gvlbi1j2169b742g","pricing_plan_id":"cebpf4jnsgd1na2vs0mg"},{"bike_id":"bcd67e65-43b0-4b23-bb5c-0bdd7484ac57","system_id":"levelo_inurba_marseille","lat":43.33173,"lon":5.37785,"is_reserved":false,"is_disabled":false,"rental_uris":{"android":"levelo://app?vid=bcd67e65-43b0-4b23-bb5c-0bdd7484ac57","ios":"levelo://app?vid=bcd67e65-43b0-4b23-bb5c-0bdd7484ac57"},"vehicle_type_id":"4","last_reported":1777373608,"current_range_meters":8800,"station_id":"","pricing_plan_id":"cebpf4jnsgd1na2vs0mg"},{"bike_id":"23b9edcd-305b-48b3-b42b-c5b2d1a2cdca","system_id":"levelo_inurba_marseille","lat":43.27052,"lon":5.38651,"is_reserved":false,"is_disabled":false,"rental_uris":{"android":"levelo://app?vid=23b9edcd-305b-48b3-b42b-c5b2d1a2cdca","ios":"levelo://app?vid=23b9edcd-305b-48b3-b42b-c5b2d1a2cdca"},"vehicle_type_id":"4","last_reported":1777373608,"current_range_meters":8800,"station_id":"","pricing_plan_id":"cebpf4jnsgd1na2vs0mg"},{"bike_id":"e71a0864-e5f1-4cab-88d7-93e50a43a152","system_id":"levelo_inurba_marseille","lat":43.2822,"lon":5.3904,"is_reserved":false,"is_disabled":false,"rental_uris":{"android":"levelo://app?vid=e71a0864-e5f1-4cab-88d7-93e50a43a152","ios":"levelo://app?vid=e71a0864-e5f1-4cab-88d7-93e50a43a152"},"vehicle_type_id":"4","last_reported":1777373608,"current_range_meters":8800,"station_id":"ce4bhn92rcd13ifvqgsg","pricing_plan_id":"cebpf4jnsgd1na2vs0mg"},{"bike_id":"11effbb2-3489-4e85-aec9-0e018fcdcc03","system_id":"levelo_inurba_marseille","lat":43.23195,"lon":5.35552,"is_reserved":false,"is_disabled":false,"rental_uris":{"android":"levelo://app?vid=11effbb2-3489-4e85-aec9-0e018fcdcc03","ios":"levelo://app?vid=11effbb2-3489-4e85-aec9-0e018fcdcc03"},"vehicle_type_id":"4","last_reported":1777373608,"current_range_meters":8800,"station_id":"ce4bhu92rcd13ifvqi70","pricing_plan_id":"cebpf4jnsgd1na2vs0mg"},{"bike_id":"e03a9553-f014-4591-84d1-bb481db182e5","system_id":"levelo_inurba_marseille","lat":43.287,"lon":5.46687,"is_reserved":false,"is_disabled":false,"rental_uris":{"android":"levelo://app?vid=e03a9553-f014-4591-84d1-bb481db182e5","ios":"levelo://app?vid=e03a9553-f014-4591-84d1-bb481db182e5"},"vehicle_type_id":"4","last_reported":1777373608,"current_range_meters":8800,"station_id":"st_d6tc3vkotcvc738tfjhg","pricing_plan_id":"cebpf4jnsgd1na2vs0mg"},{"bike_id":"833123e4-306b-4633-a69c-bcebe931bf5a","system_id":"levelo_inurba_marseille","lat":43.31131,"lon":5.3774,"is_reserved":false,"is_disabled":false,"rental_uris":{"android":"levelo://app?vid=833123e4-306b-4633-a69c-bcebe931bf5a","ios":"levelo://app?vid=833123e4-306b-4633-a69c-bcebe931bf5a"},"vehicle_type_id":"4","last_reported":1777373608,"current_range_meters":8800,"station_id":"ce4bgt92rcd13ifvqcg0","pricing_plan_id":"cebpf4jnsgd1na2vs0mg"},{"bike_id":"ef809088-19f7-4902-a559-51469dadba8c","system_id":"levelo_inurba_marseille","lat":43.27099,"lon":5.39155,"is_reserved":false,"is_disabled":false,"rental_uris":{"android":"levelo://app?vid=ef809088-19f7-4902-a559-51469dadba8c","ios":"levelo://app?vid=ef809088-19f7-4902-a559-51469dadba8c"},"vehicle_type_id":"4","last_reported":1777373608,"current_range_meters":8800,"station_id":"","pricing_plan_id":"cebpf4jnsgd1na2vs0mg"},{"bike_id":"ad3ad917-7fd7-4a8d-82dc-f421f6dac7f1","system_id":"levelo_inurba_marseille","lat":43.28683,"lon":5.38637,"is_reserved":false,"is_disabled":false,"rental_uris":{"android":"levelo://app?vid=ad3ad917-7fd7-4a8d-82dc-f421f6dac7f1","ios":"levelo://app?vid=ad3ad917-7fd7-4a8d-82dc-f421f6dac7f1"},"vehicle_type_id":"4","last_reported":1777373608,"current_range_meters":8800,"station_id":"ce4bh492rcd13ifvqdug","pricing_plan_id":"cebpf4jnsgd1na2vs0mg"},{"bike_id":"f11e3633-986d-40f4-8b5f-6b5e41220dfc","system_id":"levelo_inurba_marseille","lat":43.31906,"lon":5.368,"is_reserved":false,"is_disabled":false,"rental_uris":{"android":"levelo://app?vid=f11e3633-986d-40f4-8b5f-6b5e41220dfc","ios":"levelo://app?vid=f11e3633-986d-40f4-8b5f-6b5e41220dfc"},"vehicle_type_id":"4","last_reported":1777373608,"current_range_meters":8800,"station_id":"st_d6o2h0d0559c73evc1b0","pricing_plan_id":"cebpf4jnsgd1na2vs0mg"},{"bike_id":"35a6cb4b-5d8c-4bef-b99f-fe238abc9fa9","system_id":"levelo_inurba_marseille","lat":43.21742,"lon":5.34605,"is_reserved":false,"is_disabled":false,"rental_uris":{"android":"levelo://app?vid=35a6cb4b-5d8c-4bef-b99f-fe238abc9fa9","ios":"levelo://app?vid=35a6cb4b-5d8c-4bef-b99f-fe238abc9fa9"},"vehicle_type_id":"4","last_reported":1777373608,"current_range_meters":8800,"station_id":"st_cvj6r9ubvosntc0bgbag","pricing_plan_id":"cebpf4jnsgd1na2vs0mg"},{"bike_id":"bee1e284-8a37-4aab-b08e-1f416955bb28","system_id":"levelo_inurba_marseille","lat":43.26547,"lon":5.37298,"is_reserved":false,"is_disabled":false,"rental_uris":{"android":"levelo://app?vid=bee1e284-8a37-4aab-b08e-1f416955bb28","ios":"levelo://app?vid=bee1e284-8a37-4aab-b08e-1f416955bb28"},"vehicle_type_id":"4","last_reported":1777373608,"current_range_meters":8800,"station_id":"ce4bhg12rcd13ifvqf70","pricing_plan_id":"cebpf4jnsgd1na2vs0mg"},{"bike_id":"66424f1a-983a-4557-988f-2b78020dfc98","system_id":"levelo_inurba_marseille","lat":43.29301,"lon":5.37455,"is_reserved":false,"is_disabled":false,"rental_uris":{"android":"levelo://app?vid=66424f1a-983a-4557-988f-2b78020dfc98","ios":"levelo://app?vid=66424f1a-983a-4557-988f-2b78020dfc98"},"vehicle_type_id":"4","last_reported":1777373608,"current_range_meters":8800,"station_id":"ce4bgi12rcd13ifvqb70","pricing_plan_id":"cebpf4jnsgd1na2vs0mg"},{"bike_id":"7411c997-4373-4930-94c6-bccc1a2fb4d9","system_id":"levelo_inurba_marseille","lat":43.30283,"lon":5.39904,"is_reserved":false,"is_disabled":false,"rental_uris":{"android":"levelo://app?vid=7411c997-4373-4930-94c6-bccc1a2fb4d9","ios":"levelo://app?vid=7411c997-4373-4930-94c6-bccc1a2fb4d9"},"vehicle_type_id":"4","last_reported":1777373608,"current_range_meters":8800,"station_id":"","pricing_plan_id":"cebpf4jnsgd1na2vs0mg"},{"bike_id":"fb4cb4a4-b55a-486f-a92c-316ad0a840d5","system_id":"levelo_inurba_marseille","lat":43.25002,"lon":5.38958,"is_reserved":false,"is_disabled":false,"rental_uris":{"android":"levelo://app?vid=fb4cb4a4-b55a-486f-a92c-316ad0a840d5","ios":"levelo://app?vid=fb4cb4a4-b55a-486f-a92c-316ad0a840d5"},"vehicle_type_id":"4","last_reported":1777373608,"current_range_meters":8800,"station_id":"ce4bhgp2rcd13ifvqfd0","pricing_plan_id":"cebpf4jnsgd1na2vs0mg"},{"bike_id":"2341c3d9-f437-4c42-ae7c-72ed2aa31917","system_id":"levelo_inurba_marseille","lat":43.28571,"lon":5.39501,"is_reserved":false,"is_disabled":false,"rental_uris":{"android":"levelo://app?vid=2341c3d9-f437-4c42-ae7c-72ed2aa31917","ios":"levelo://app?vid=2341c3d9-f437-4c42-ae7c-72ed2aa31917"},"vehicle_type_id":"4","last_reported":1777373608,"current_range_meters":8800,"station_id":"ce4bh292rcd13ifvqdg0","pricing_plan_id":"cebpf4jnsgd1na2vs0mg"},{"bike_id":"ea90c556-0fcc-4c40-960c-857cff8cbb45","system_id":"levelo_inurba_marseille","lat":43.26688,"lon":5.38257,"is_reserved":false,"is_disabled":false,"rental_uris":{"android":"levelo://app?vid=ea90c556-0fcc-4c40-960c-857cff8cbb45","ios":"levelo://app?vid=ea90c556-0fcc-4c40-960c-857cff8cbb45"},"vehicle_type_id":"4","last_reported":1777373608,"current_range_meters":8800,"station_id":"ce4bhg92rcd13ifvqf90","pricing_plan_id":"cebpf4jnsgd1na2vs0mg"},{"bike_id":"0c17c7bb-7d23-4755-9f4b-21aa0ae2cf05","system_id":"levelo_inurba_marseille","lat":43.24399,"lon":5.37084,"is_reserved":false,"is_disabled":false,"rental_uris":{"android":"levelo://app?vid=0c17c7bb-7d23-4755-9f4b-21aa0ae2cf05","ios":"levelo://app?vid=0c17c7bb-7d23-4755-9f4b-21aa0ae2cf05"},"vehicle_type_id":"4","last_reported":1777373608,"current_range_meters":9200,"station_id":"ce4bhhh2rcd13ifvqfk0","pricing_plan_id":"cebpf4jnsgd1na2vs0mg"},{"bike_id":"f7a5267e-ffda-4cb3-8f6e-89eeda61dbbe","system_id":"levelo_inurba_marseille","lat":43.27809,"lon":5.40721,"is_reserved":false,"is_disabled":true,"rental_uris":{"android":"levelo://app?vid=f7a5267e-ffda-4cb3-8f6e-89eeda61dbbe","ios":"levelo://app?vid=f7a5267e-ffda-4cb3-8f6e-89eeda61dbbe"},"vehicle_type_id":"4","last_reported":1777373608,"current_range_meters":9200,"station_id":"ce4bhnh2rcd13ifvqgtg","pricing_plan_id":"cebpf4jnsgd1na2vs0mg"},{"bike_id":"e116e98a-e7c1-4e2d-9ae3-1a759c33b548","system_id":"levelo_inurba_marseille","lat":43.337444,"lon":5.374475,"is_reserved":false,"is_disabled":false,"rental_uris":{"android":"levelo://app?vid=e116e98a-e7c1-4e2d-9ae3-1a759c33b548","ios":"levelo://app?vid=e116e98a-e7c1-4e2d-9ae3-1a759c33b548"},"vehicle_type_id":"4","last_reported":1777373608,"current_range_meters":9200,"station_id":"ce4bgop2rcd13ifvqc1g","pricing_plan_id":"cebpf4jnsgd1na2vs0mg"},{"bike_id":"eb27abcf-4f01-48a4-9495-dcda68cace44","system_id":"levelo_inurba_marseille","lat":43.30149,"lon":5.38075,"is_reserved":false,"is_disabled":false,"rental_uris":{"android":"levelo://app?vid=eb27abcf-4f01-48a4-9495-dcda68cace44","ios":"levelo://app?vid=eb27abcf-4f01-48a4-9495-dcda68cace44"},"vehicle_type_id":"4","last_reported":1777373608,"current_range_meters":9200,"station_id":"ce4bgjp2rcd13ifvqbh0","pricing_plan_id":"cebpf4jnsgd1na2vs0mg"},{"bike_id":"e43e6601-2e16-471e-8f57-8abf089d636b","system_id":"levelo_inurba_marseille","lat":43.24468,"lon":5.42533,"is_reserved":false,"is_disabled":false,"rental_uris":{"android":"levelo://app?vid=e43e6601-2e16-471e-8f57-8abf089d636b","ios":"levelo://app?vid=e43e6601-2e16-471e-8f57-8abf089d636b"},"vehicle_type_id":"4","last_reported":1777373608,"current_range_meters":9200,"station_id":"st_d4a3vfp97mjs738cd8kg","pricing_plan_id":"cebpf4jnsgd1na2vs0mg"},{"bike_id":"5f89b9c1-7d43-4b08-937e-eab558419f59","system_id":"levelo_inurba_marseille","lat":43.30552,"lon":5.36514,"is_reserved":false,"is_disabled":false,"rental_uris":{"android":"levelo://app?vid=5f89b9c1-7d43-4b08-937e-eab558419f59","ios":"levelo://app?vid=5f89b9c1-7d43-4b08-937e-eab558419f59"},"vehicle_type_id":"4","last_reported":1777373608,"current_range_meters":9200,"station_id":"ce4bgs12rcd13ifvqcag","pricing_plan_id":"cebpf4jnsgd1na2vs0mg"},{"bike_id":"71963ef3-1521-45f4-9629-af165421eeb7","system_id":"levelo_inurba_marseille","lat":43.30594,"lon":5.39355,"is_reserved":false,"is_disabled":false,"rental_uris":{"android":"levelo://app?vid=71963ef3-1521-45f4-9629-af165421eeb7","ios":"levelo://app?vid=71963ef3-1521-45f4-9629-af165421eeb7"},"vehicle_type_id":"4","last_reported":1777373608,"current_range_meters":9200,"station_id":"ce4bh0p2rcd13ifvqd80","pricing_plan_id":"cebpf4jnsgd1na2vs0mg"},{"bike_id":"879e92af-a08b-4550-983a-fe38aeb5346f","system_id":"levelo_inurba_marseille","lat":43.32483,"lon":5.36557,"is_reserved":false,"is_disabled":false,"rental_uris":{"android":"levelo://app?vid=879e92af-a08b-4550-983a-fe38aeb5346f","ios":"levelo://app?vid=879e92af-a08b-4550-983a-fe38aeb5346f"},"vehicle_type_id":"4","last_reported":1777373608,"current_range_meters":9200,"station_id":"ce4bhs12rcd13ifvqhvg","pricing_plan_id":"cebpf4jnsgd1na2vs0mg"},{"bike_id":"8ccf5c30-8465-484b-aff1-ddac8b54a501","system_id":"levelo_inurba_marseille","lat":43.28436,"lon":5.3917,"is_reserved":false,"is_disabled":false,"rental_uris":{"android":"levelo://app?vid=8ccf5c30-8465-484b-aff1-ddac8b54a501","ios":"levelo://app?vid=8ccf5c30-8465-484b-aff1-ddac8b54a501"},"vehicle_type_id":"4","last_reported":1777373608,"current_range_meters":9200,"station_id":"ce4bhoh2rcd13ifvqh5g","pricing_plan_id":"cebpf4jnsgd1na2vs0mg"},{"bike_id":"d8ed8289-69e9-4e21-809b-47a820f4cbed","system_id":"levelo_inurba_marseille","lat":43.26682,"lon":5.38264,"is_reserved":false,"is_disabled":false,"rental_uris":{"android":"levelo://app?vid=d8ed8289-69e9-4e21-809b-47a820f4cbed","ios":"levelo://app?vid=d8ed8289-69e9-4e21-809b-47a820f4cbed"},"vehicle_type_id":"4","last_reported":1777373608,"current_range_meters":9200,"station_id":"ce4bhg92rcd13ifvqf90","pricing_plan_id":"cebpf4jnsgd1na2vs0mg"},{"bike_id":"8ddf78e6-7053-4f51-a052-cbf410efa6bf","system_id":"levelo_inurba_marseille","lat":43.31204,"lon":5.36843,"is_reserved":false,"is_disabled":false,"rental_uris":{"android":"levelo://app?vid=8ddf78e6-7053-4f51-a052-cbf410efa6bf","ios":"levelo://app?vid=8ddf78e6-7053-4f51-a052-cbf410efa6bf"},"vehicle_type_id":"4","last_reported":1777373608,"current_range_meters":9200,"station_id":"ce4bgl92rcd13ifvqbq0","pricing_plan_id":"cebpf4jnsgd1na2vs0mg"},{"bike_id":"8db8d472-b87b-4adf-a58d-94efbb33b674","system_id":"levelo_inurba_marseille","lat":43.28962,"lon":5.37836,"is_reserved":false,"is_disabled":false,"rental_uris":{"android":"levelo://app?vid=8db8d472-b87b-4adf-a58d-94efbb33b674","ios":"levelo://app?vid=8db8d472-b87b-4adf-a58d-94efbb33b674"},"vehicle_type_id":"4","last_reported":1777373608,"current_range_meters":9200,"station_id":"ce4bh9p2rcd13ifvqed0","pricing_plan_id":"cebpf4jnsgd1na2vs0mg"},{"bike_id":"2a9f517f-dc7e-442a-8a6e-b3ad6200cb4e","system_id":"levelo_inurba_marseille","lat":43.3354,"lon":5.37464,"is_reserved":false,"is_disabled":false,"rental_uris":{"android":"levelo://app?vid=2a9f517f-dc7e-442a-8a6e-b3ad6200cb4e","ios":"levelo://app?vid=2a9f517f-dc7e-442a-8a6e-b3ad6200cb4e"},"vehicle_type_id":"4","last_reported":1777373608,"current_range_meters":9200,"station_id":"st_d46tts09ee8s73dlu43g","pricing_plan_id":"cebpf4jnsgd1na2vs0mg"},{"bike_id":"b2cc911e-38a3-4824-8680-687909a9b742","system_id":"levelo_inurba_marseille","lat":43.28678,"lon":5.38657,"is_reserved":false,"is_disabled":false,"rental_uris":{"android":"levelo://app?vid=b2cc911e-38a3-4824-8680-687909a9b742","ios":"levelo://app?vid=b2cc911e-38a3-4824-8680-687909a9b742"},"vehicle_type_id":"4","last_reported":1777373608,"current_range_meters":9200,"station_id":"ce4bh492rcd13ifvqdug","pricing_plan_id":"cebpf4jnsgd1na2vs0mg"},{"bike_id":"72380ac0-399d-4b80-bf49-fa9a0ced653e","system_id":"levelo_inurba_marseille","lat":43.30169,"lon":5.3808,"is_reserved":false,"is_disabled":false,"rental_uris":{"android":"levelo://app?vid=72380ac0-399d-4b80-bf49-fa9a0ced653e","ios":"levelo://app?vid=72380ac0-399d-4b80-bf49-fa9a0ced653e"},"vehicle_type_id":"4","last_reported":1777373608,"current_range_meters":9200,"station_id":"ce4bgjp2rcd13ifvqbh0","pricing_plan_id":"cebpf4jnsgd1na2vs0mg"},{"bike_id":"04d07930-42f0-4c92-9bce-6eaea7bbfac2","system_id":"levelo_inurba_marseille","lat":43.2957,"lon":5.38222,"is_reserved":false,"is_disabled":false,"rental_uris":{"android":"levelo://app?vid=04d07930-42f0-4c92-9bce-6eaea7bbfac2","ios":"levelo://app?vid=04d07930-42f0-4c92-9bce-6eaea7bbfac2"},"vehicle_type_id":"4","last_reported":1777373608,"current_range_meters":9200,"station_id":"","pricing_plan_id":"cebpf4jnsgd1na2vs0mg"},{"bike_id":"3a4564c3-0b02-4ddb-af59-c18d926ac0d5","system_id":"levelo_inurba_marseille","lat":43.24473,"lon":5.42552,"is_reserved":false,"is_disabled":false,"rental_uris":{"android":"levelo://app?vid=3a4564c3-0b02-4ddb-af59-c18d926ac0d5","ios":"levelo://app?vid=3a4564c3-0b02-4ddb-af59-c18d926ac0d5"},"vehicle_type_id":"4","last_reported":1777373608,"current_range_meters":9200,"station_id":"st_d4a3vfp97mjs738cd8kg","pricing_plan_id":"cebpf4jnsgd1na2vs0mg"},{"bike_id":"04ad3113-27a5-48ea-ae18-79eeaf0717d1","system_id":"levelo_inurba_marseille","lat":43.3035,"lon":5.41893,"is_reserved":false,"is_disabled":false,"rental_uris":{"android":"levelo://app?vid=04ad3113-27a5-48ea-ae18-79eeaf0717d1","ios":"levelo://app?vid=04ad3113-27a5-48ea-ae18-79eeaf0717d1"},"vehicle_type_id":"4","last_reported":1777373608,"current_range_meters":9200,"station_id":"ce4bhop2rcd13ifvqh7g","pricing_plan_id":"cebpf4jnsgd1na2vs0mg"},{"bike_id":"025b0dd6-a6d6-4231-a248-4bf1d595788c","system_id":"levelo_inurba_marseille","lat":43.28702,"lon":5.46675,"is_reserved":false,"is_disabled":false,"rental_uris":{"android":"levelo://app?vid=025b0dd6-a6d6-4231-a248-4bf1d595788c","ios":"levelo://app?vid=025b0dd6-a6d6-4231-a248-4bf1d595788c"},"vehicle_type_id":"4","last_reported":1777373608,"current_range_meters":9200,"station_id":"st_d6tc3vkotcvc738tfjhg","pricing_plan_id":"cebpf4jnsgd1na2vs0mg"},{"bike_id":"ced2e028-6d09-479b-801f-3e4aaefeed79","system_id":"levelo_inurba_marseille","lat":43.30433,"lon":5.38867,"is_reserved":false,"is_disabled":false,"rental_uris":{"android":"levelo://app?vid=ced2e028-6d09-479b-801f-3e4aaefeed79","ios":"levelo://app?vid=ced2e028-6d09-479b-801f-3e4aaefeed79"},"vehicle_type_id":"4","last_reported":1777373608,"current_range_meters":9200,"station_id":"ce4bgk12rcd13ifvqbi0","pricing_plan_id":"cebpf4jnsgd1na2vs0mg"},{"bike_id":"a0faf62e-3fd3-41e6-8c3f-14765bb7d79d","system_id":"levelo_inurba_marseille","lat":43.29607,"lon":5.38017,"is_reserved":false,"is_disabled":false,"rental_uris":{"android":"levelo://app?vid=a0faf62e-3fd3-41e6-8c3f-14765bb7d79d","ios":"levelo://app?vid=a0faf62e-3fd3-41e6-8c3f-14765bb7d79d"},"vehicle_type_id":"4","last_reported":1777373608,"current_range_meters":9200,"station_id":"","pricing_plan_id":"cebpf4jnsgd1na2vs0mg"},{"bike_id":"32f2b2b8-ccb1-4c58-8eee-85314b2a01f0","system_id":"levelo_inurba_marseille","lat":43.30078,"lon":5.43092,"is_reserved":false,"is_disabled":false,"rental_uris":{"android":"levelo://app?vid=32f2b2b8-ccb1-4c58-8eee-85314b2a01f0","ios":"levelo://app?vid=32f2b2b8-ccb1-4c58-8eee-85314b2a01f0"},"vehicle_type_id":"4","last_reported":1777373608,"current_range_meters":9600,"station_id":"st_d3js3co5814s73ftftug","pricing_plan_id":"cebpf4jnsgd1na2vs0mg"},{"bike_id":"b9c0ca4a-61af-4a0b-994f-7b554a71a91c","system_id":"levelo_inurba_marseille","lat":43.32374,"lon":5.36709,"is_reserved":false,"is_disabled":false,"rental_uris":{"android":"levelo://app?vid=b9c0ca4a-61af-4a0b-994f-7b554a71a91c","ios":"levelo://app?vid=b9c0ca4a-61af-4a0b-994f-7b554a71a91c"},"vehicle_type_id":"4","last_reported":1777373608,"current_range_meters":9600,"station_id":"","pricing_plan_id":"cebpf4jnsgd1na2vs0mg"},{"bike_id":"b4e349b1-3758-41c0-986d-367554a0653c","system_id":"levelo_inurba_marseille","lat":43.28031,"lon":5.36952,"is_reserved":false,"is_disabled":true,"rental_uris":{"android":"levelo://app?vid=b4e349b1-3758-41c0-986d-367554a0653c","ios":"levelo://app?vid=b4e349b1-3758-41c0-986d-367554a0653c"},"vehicle_type_id":"4","last_reported":1777373608,"current_range_meters":9600,"station_id":"ce4bha12rcd13ifvqef0","pricing_plan_id":"cebpf4jnsgd1na2vs0mg"},{"bike_id":"6a1af093-4f97-48a4-b2b1-fff7f08a6372","system_id":"levelo_inurba_marseille","lat":43.30145,"lon":5.38088,"is_reserved":false,"is_disabled":false,"rental_uris":{"android":"levelo://app?vid=6a1af093-4f97-48a4-b2b1-fff7f08a6372","ios":"levelo://app?vid=6a1af093-4f97-48a4-b2b1-fff7f08a6372"},"vehicle_type_id":"4","last_reported":1777373608,"current_range_meters":9600,"station_id":"ce4bgjp2rcd13ifvqbh0","pricing_plan_id":"cebpf4jnsgd1na2vs0mg"},{"bike_id":"c2fcc733-6492-4678-b97d-3fc84d1b63ea","system_id":"levelo_inurba_marseille","lat":43.30915,"lon":5.36838,"is_reserved":false,"is_disabled":false,"rental_uris":{"android":"levelo://app?vid=c2fcc733-6492-4678-b97d-3fc84d1b63ea","ios":"levelo://app?vid=c2fcc733-6492-4678-b97d-3fc84d1b63ea"},"vehicle_type_id":"4","last_reported":1777373608,"current_range_meters":9600,"station_id":"ce4bgn92rcd13ifvqbvg","pricing_plan_id":"cebpf4jnsgd1na2vs0mg"},{"bike_id":"ee5bca21-2a39-4c24-aced-c94d2451e251","system_id":"levelo_inurba_marseille","lat":43.27995,"lon":5.41648,"is_reserved":false,"is_disabled":false,"rental_uris":{"android":"levelo://app?vid=ee5bca21-2a39-4c24-aced-c94d2451e251","ios":"levelo://app?vid=ee5bca21-2a39-4c24-aced-c94d2451e251"},"vehicle_type_id":"4","last_reported":1777373608,"current_range_meters":9600,"station_id":"ce4bho12rcd13ifvqh1g","pricing_plan_id":"cebpf4jnsgd1na2vs0mg"},{"bike_id":"c66f0dc9-c7b0-4370-a87a-7a5a98d6427e","system_id":"levelo_inurba_marseille","lat":43.27207,"lon":5.39186,"is_reserved":false,"is_disabled":false,"rental_uris":{"android":"levelo://app?vid=c66f0dc9-c7b0-4370-a87a-7a5a98d6427e","ios":"levelo://app?vid=c66f0dc9-c7b0-4370-a87a-7a5a98d6427e"},"vehicle_type_id":"4","last_reported":1777373608,"current_range_meters":9600,"station_id":"ce4bhhp2rcd13ifvqfm0","pricing_plan_id":"cebpf4jnsgd1na2vs0mg"},{"bike_id":"114100ef-6fbd-4605-ae0d-8f71fe920c18","system_id":"levelo_inurba_marseille","lat":43.25577,"lon":5.3824,"is_reserved":false,"is_disabled":false,"rental_uris":{"android":"levelo://app?vid=114100ef-6fbd-4605-ae0d-8f71fe920c18","ios":"levelo://app?vid=114100ef-6fbd-4605-ae0d-8f71fe920c18"},"vehicle_type_id":"4","last_reported":1777373608,"current_range_meters":9600,"station_id":"ce4bhih2rcd13ifvqfs0","pricing_plan_id":"cebpf4jnsgd1na2vs0mg"},{"bike_id":"8c1ed4f7-6c2b-44cc-9c9e-92a099a9a009","system_id":"levelo_inurba_marseille","lat":43.27224,"lon":5.39204,"is_reserved":false,"is_disabled":true,"rental_uris":{"android":"levelo://app?vid=8c1ed4f7-6c2b-44cc-9c9e-92a099a9a009","ios":"levelo://app?vid=8c1ed4f7-6c2b-44cc-9c9e-92a099a9a009"},"vehicle_type_id":"4","last_reported":1777373608,"current_range_meters":9600,"station_id":"ce4bhhp2rcd13ifvqfm0","pricing_plan_id":"cebpf4jnsgd1na2vs0mg"},{"bike_id":"5a082d0b-9dcd-4b27-b749-e7a082c3a4b6","system_id":"levelo_inurba_marseille","lat":43.25143,"lon":5.4046,"is_reserved":false,"is_disabled":false,"rental_uris":{"android":"levelo://app?vid=5a082d0b-9dcd-4b27-b749-e7a082c3a4b6","ios":"levelo://app?vid=5a082d0b-9dcd-4b27-b749-e7a082c3a4b6"},"vehicle_type_id":"4","last_reported":1777373608,"current_range_meters":9600,"station_id":"","pricing_plan_id":"cebpf4jnsgd1na2vs0mg"},{"bike_id":"65010c6b-26f0-4ad8-b6d9-a2be7775660c","system_id":"levelo_inurba_marseille","lat":43.25565,"lon":5.38244,"is_reserved":false,"is_disabled":false,"rental_uris":{"android":"levelo://app?vid=65010c6b-26f0-4ad8-b6d9-a2be7775660c","ios":"levelo://app?vid=65010c6b-26f0-4ad8-b6d9-a2be7775660c"},"vehicle_type_id":"4","last_reported":1777373608,"current_range_meters":9600,"station_id":"ce4bhih2rcd13ifvqfs0","pricing_plan_id":"cebpf4jnsgd1na2vs0mg"},{"bike_id":"fadbd9a5-2a49-4734-8db0-528994d97e40","system_id":"levelo_inurba_marseille","lat":43.29272,"lon":5.38362,"is_reserved":false,"is_disabled":false,"rental_uris":{"android":"levelo://app?vid=fadbd9a5-2a49-4734-8db0-528994d97e40","ios":"levelo://app?vid=fadbd9a5-2a49-4734-8db0-528994d97e40"},"vehicle_type_id":"4","last_reported":1777373608,"current_range_meters":9600,"station_id":"","pricing_plan_id":"cebpf4jnsgd1na2vs0mg"},{"bike_id":"b2f4375d-7e08-4ebd-b4b6-9f49c6fdecbb","system_id":"levelo_inurba_marseille","lat":43.2119,"lon":5.35059,"is_reserved":false,"is_disabled":false,"rental_uris":{"android":"levelo://app?vid=b2f4375d-7e08-4ebd-b4b6-9f49c6fdecbb","ios":"levelo://app?vid=b2f4375d-7e08-4ebd-b4b6-9f49c6fdecbb"},"vehicle_type_id":"4","last_reported":1777373608,"current_range_meters":9600,"station_id":"st_cvj6sg6p6f1abm77japg","pricing_plan_id":"cebpf4jnsgd1na2vs0mg"},{"bike_id":"475b56ab-fd61-45ae-be40-05696313ed1d","system_id":"levelo_inurba_marseille","lat":43.29415,"lon":5.40179,"is_reserved":false,"is_disabled":true,"rental_uris":{"android":"levelo://app?vid=475b56ab-fd61-45ae-be40-05696313ed1d","ios":"levelo://app?vid=475b56ab-fd61-45ae-be40-05696313ed1d"},"vehicle_type_id":"4","last_reported":1777373608,"current_range_meters":9600,"station_id":"","pricing_plan_id":"cebpf4jnsgd1na2vs0mg"},{"bike_id":"cbdeac21-e75a-4d54-ae90-6dafa845846c","system_id":"levelo_inurba_marseille","lat":43.30947,"lon":5.39033,"is_reserved":false,"is_disabled":false,"rental_uris":{"android":"levelo://app?vid=cbdeac21-e75a-4d54-ae90-6dafa845846c","ios":"levelo://app?vid=cbdeac21-e75a-4d54-ae90-6dafa845846c"},"vehicle_type_id":"4","last_reported":1777373608,"current_range_meters":10000,"station_id":"ce4bgup2rcd13ifvqco0","pricing_plan_id":"cebpf4jnsgd1na2vs0mg"},{"bike_id":"60ae7bab-1a5c-4f05-9d31-31cb1f6608ec","system_id":"levelo_inurba_marseille","lat":43.25092,"lon":5.39529,"is_reserved":false,"is_disabled":false,"rental_uris":{"android":"levelo://app?vid=60ae7bab-1a5c-4f05-9d31-31cb1f6608ec","ios":"levelo://app?vid=60ae7bab-1a5c-4f05-9d31-31cb1f6608ec"},"vehicle_type_id":"4","last_reported":1777373608,"current_range_meters":10000,"station_id":"ce4bhm12rcd13ifvqgkg","pricing_plan_id":"cebpf4jnsgd1na2vs0mg"},{"bike_id":"c5b11747-9480-4f76-becd-b3f69b042f65","system_id":"levelo_inurba_marseille","lat":43.30118,"lon":5.37418,"is_reserved":false,"is_disabled":false,"rental_uris":{"android":"levelo://app?vid=c5b11747-9480-4f76-becd-b3f69b042f65","ios":"levelo://app?vid=c5b11747-9480-4f76-becd-b3f69b042f65"},"vehicle_type_id":"4","last_reported":1777373608,"current_range_meters":10000,"station_id":"ce4bgs92rcd13ifvqcc0","pricing_plan_id":"cebpf4jnsgd1na2vs0mg"},{"bike_id":"2aeea09e-8f12-47b1-a5fe-8156e4784bf9","system_id":"levelo_inurba_marseille","lat":43.30556,"lon":5.36511,"is_reserved":false,"is_disabled":false,"rental_uris":{"android":"levelo://app?vid=2aeea09e-8f12-47b1-a5fe-8156e4784bf9","ios":"levelo://app?vid=2aeea09e-8f12-47b1-a5fe-8156e4784bf9"},"vehicle_type_id":"4","last_reported":1777373608,"current_range_meters":10000,"station_id":"ce4bgs12rcd13ifvqcag","pricing_plan_id":"cebpf4jnsgd1na2vs0mg"},{"bike_id":"a4c652d9-601b-416d-a69c-74566345572f","system_id":"levelo_inurba_marseille","lat":43.24081,"lon":5.37744,"is_reserved":false,"is_disabled":false,"rental_uris":{"android":"levelo://app?vid=a4c652d9-601b-416d-a69c-74566345572f","ios":"levelo://app?vid=a4c652d9-601b-416d-a69c-74566345572f"},"vehicle_type_id":"4","last_reported":1777373608,"current_range_meters":10000,"station_id":"ce4bhnp2rcd13ifvqgvg","pricing_plan_id":"cebpf4jnsgd1na2vs0mg"},{"bike_id":"9636d742-aa1d-44cf-92e1-b8b9b4e2a2f6","system_id":"levelo_inurba_marseille","lat":43.30268,"lon":5.37715,"is_reserved":false,"is_disabled":false,"rental_uris":{"android":"levelo://app?vid=9636d742-aa1d-44cf-92e1-b8b9b4e2a2f6","ios":"levelo://app?vid=9636d742-aa1d-44cf-92e1-b8b9b4e2a2f6"},"vehicle_type_id":"4","last_reported":1777373608,"current_range_meters":10000,"station_id":"ce4bguh2rcd13ifvqcj0","pricing_plan_id":"cebpf4jnsgd1na2vs0mg"},{"bike_id":"9eb22f4d-16f8-46bd-87f4-95b293aa9d94","system_id":"levelo_inurba_marseille","lat":43.24797,"lon":5.37481,"is_reserved":false,"is_disabled":false,"rental_uris":{"android":"levelo://app?vid=9eb22f4d-16f8-46bd-87f4-95b293aa9d94","ios":"levelo://app?vid=9eb22f4d-16f8-46bd-87f4-95b293aa9d94"},"vehicle_type_id":"4","last_reported":1777373608,"current_range_meters":10000,"station_id":"ce4bhgh2rcd13ifvqfb0","pricing_plan_id":"cebpf4jnsgd1na2vs0mg"},{"bike_id":"c5d87c94-f8c8-47f4-ae84-ea0b6e6ae165","system_id":"levelo_inurba_marseille","lat":43.26245,"lon":5.38857,"is_reserved":false,"is_disabled":false,"rental_uris":{"android":"levelo://app?vid=c5d87c94-f8c8-47f4-ae84-ea0b6e6ae165","ios":"levelo://app?vid=c5d87c94-f8c8-47f4-ae84-ea0b6e6ae165"},"vehicle_type_id":"4","last_reported":1777373608,"current_range_meters":10000,"station_id":"","pricing_plan_id":"cebpf4jnsgd1na2vs0mg"},{"bike_id":"44620b1b-5f85-41e4-9394-c720a89b90ed","system_id":"levelo_inurba_marseille","lat":43.32021,"lon":5.41521,"is_reserved":false,"is_disabled":false,"rental_uris":{"android":"levelo://app?vid=44620b1b-5f85-41e4-9394-c720a89b90ed","ios":"levelo://app?vid=44620b1b-5f85-41e4-9394-c720a89b90ed"},"vehicle_type_id":"4","last_reported":1777373608,"current_range_meters":10000,"station_id":"ce4bhq92rcd13ifvqhkg","pricing_plan_id":"cebpf4jnsgd1na2vs0mg"},{"bike_id":"f54c8d1b-321e-429b-a2b9-753ff69a66bf","system_id":"levelo_inurba_marseille","lat":43.23152,"lon":5.43724,"is_reserved":false,"is_disabled":false,"rental_uris":{"android":"levelo://app?vid=f54c8d1b-321e-429b-a2b9-753ff69a66bf","ios":"levelo://app?vid=f54c8d1b-321e-429b-a2b9-753ff69a66bf"},"vehicle_type_id":"4","last_reported":1777373608,"current_range_meters":10000,"station_id":"ce4bhmp2rcd13ifvqgog","pricing_plan_id":"cebpf4jnsgd1na2vs0mg"},{"bike_id":"e502c55f-8017-463c-89aa-51d46d0d1dea","system_id":"levelo_inurba_marseille","lat":43.30526,"lon":5.3672,"is_reserved":false,"is_disabled":false,"rental_uris":{"android":"levelo://app?vid=e502c55f-8017-463c-89aa-51d46d0d1dea","ios":"levelo://app?vid=e502c55f-8017-463c-89aa-51d46d0d1dea"},"vehicle_type_id":"4","last_reported":1777373608,"current_range_meters":10000,"station_id":"ce4bgrp2rcd13ifvqc9g","pricing_plan_id":"cebpf4jnsgd1na2vs0mg"},