{"last_updated":1774005763,"ttl":60,"version":"2.2","data":{"bikes":[{"bike_id":"719e9861-af82-4022-a2ea-bd7d6f00ff5f","system_id":"levelo_inurba_marseille","lat":43.28746,"lon":5.42515,"is_reserved":false,"is_disabled":true,"rental_uris":{"android":"levelo://app?vid=719e9861-af82-4022-a2ea-bd7d6f00ff5f","ios":"levelo://app?vid=719e9861-af82-4022-a2ea-bd7d6f00ff5f"},"vehicle_type_id":"4","last_reported":1774005764,"current_range_meters":2800,"station_id":"","pricing_plan_id":"cebpf4jnsgd1na2vs0mg"},{"bike_id":"cbc8599d-0f53-4276-b29f-85b323d36cb9","system_id":"levelo_inurba_marseille","lat":43.25473,"lon":5.37648,"is_reserved":false,"is_disabled":false,"rental_uris":{"android":"levelo://app?vid=cbc8599d-0f53-4276-b29f-85b323d36cb9","ios":"levelo://app?vid=cbc8599d-0f53-4276-b29f-85b323d36cb9"},"vehicle_type_id":"4","last_reported":1774005764,"current_range_meters":2800,"station_id":"ce4bhh12rcd13ifvqff0","pricing_plan_id":"cebpf4jnsgd1na2vs0mg"},{"bike_id":"8c29270d-5d11-446e-a3f0-f5c56ae9c816","system_id":"levelo_inurba_marseille","lat":43.27562,"lon":5.43281,"is_reserved":false,"is_disabled":false,"rental_uris":{"android":"levelo://app?vid=8c29270d-5d11-446e-a3f0-f5c56ae9c816","ios":"levelo://app?vid=8c29270d-5d11-446e-a3f0-f5c56ae9c816"},"vehicle_type_id":"4","last_reported":1774005764,"current_range_meters":2800,"station_id":"","pricing_plan_id":"cebpf4jnsgd1na2vs0mg"},{"bike_id":"82cf9b6c-bb16-4e3c-9fb4-e331ebf59e36","system_id":"levelo_inurba_marseille","lat":43.24398,"lon":5.37065,"is_reserved":false,"is_disabled":false,"rental_uris":{"android":"levelo://app?vid=82cf9b6c-bb16-4e3c-9fb4-e331ebf59e36","ios":"levelo://app?vid=82cf9b6c-bb16-4e3c-9fb4-e331ebf59e36"},"vehicle_type_id":"4","last_reported":1774005764,"current_range_meters":2800,"station_id":"ce4bhhh2rcd13ifvqfk0","pricing_plan_id":"cebpf4jnsgd1na2vs0mg"},{"bike_id":"3fd8ef50-88b4-42ca-93ad-316de6f9e9bc","system_id":"levelo_inurba_marseille","lat":43.28163,"lon":5.42604,"is_reserved":false,"is_disabled":false,"rental_uris":{"android":"levelo://app?vid=3fd8ef50-88b4-42ca-93ad-316de6f9e9bc","ios":"levelo://app?vid=3fd8ef50-88b4-42ca-93ad-316de6f9e9bc"},"vehicle_type_id":"4","last_reported":1774005764,"current_range_meters":2800,"station_id":"ce4bhnh2rcd13ifvqgug","pricing_plan_id":"cebpf4jnsgd1na2vs0mg"},{"bike_id":"caf5e45c-f3f2-43eb-99a6-b11ec33451e8","system_id":"levelo_inurba_marseille","lat":43.2397,"lon":5.36615,"is_reserved":false,"is_disabled":false,"rental_uris":{"android":"levelo://app?vid=caf5e45c-f3f2-43eb-99a6-b11ec33451e8","ios":"levelo://app?vid=caf5e45c-f3f2-43eb-99a6-b11ec33451e8"},"vehicle_type_id":"4","last_reported":1774005764,"current_range_meters":2800,"station_id":"ce4bhi12rcd13ifvqfp0","pricing_plan_id":"cebpf4jnsgd1na2vs0mg"},{"bike_id":"f1308f5c-4e19-4acb-9388-a1e1ece965ad","system_id":"levelo_inurba_marseille","lat":43.287183,"lon":5.379364,"is_reserved":false,"is_disabled":false,"rental_uris":{"android":"levelo://app?vid=f1308f5c-4e19-4acb-9388-a1e1ece965ad","ios":"levelo://app?vid=f1308f5c-4e19-4acb-9388-a1e1ece965ad"},"vehicle_type_id":"4","last_reported":1774005764,"current_range_meters":2800,"station_id":"ce4bh9p2rcd13ifvqec0","pricing_plan_id":"cebpf4jnsgd1na2vs0mg"},{"bike_id":"2d4ed8a4-a8e0-4bc4-980f-e7901fbc6e20","system_id":"levelo_inurba_marseille","lat":43.3042,"lon":5.39734,"is_reserved":false,"is_disabled":false,"rental_uris":{"android":"levelo://app?vid=2d4ed8a4-a8e0-4bc4-980f-e7901fbc6e20","ios":"levelo://app?vid=2d4ed8a4-a8e0-4bc4-980f-e7901fbc6e20"},"vehicle_type_id":"4","last_reported":1774005764,"current_range_meters":2800,"station_id":"ce4bh092rcd13ifvqd20","pricing_plan_id":"cebpf4jnsgd1na2vs0mg"},{"bike_id":"73e44213-1cd8-4593-a09e-a9c4a914a5d2","system_id":"levelo_inurba_marseille","lat":43.28478,"lon":5.48388,"is_reserved":false,"is_disabled":false,"rental_uris":{"android":"levelo://app?vid=73e44213-1cd8-4593-a09e-a9c4a914a5d2","ios":"levelo://app?vid=73e44213-1cd8-4593-a09e-a9c4a914a5d2"},"vehicle_type_id":"4","last_reported":1774005764,"current_range_meters":2800,"station_id":"st_d3svhcjqgbts73a3dn0g","pricing_plan_id":"cebpf4jnsgd1na2vs0mg"},{"bike_id":"37b975f8-1f84-4e4b-92cd-3bedcf69760d","system_id":"levelo_inurba_marseille","lat":43.30469,"lon":5.37911,"is_reserved":false,"is_disabled":false,"rental_uris":{"android":"levelo://app?vid=37b975f8-1f84-4e4b-92cd-3bedcf69760d","ios":"levelo://app?vid=37b975f8-1f84-4e4b-92cd-3bedcf69760d"},"vehicle_type_id":"4","last_reported":1774005764,"current_range_meters":2800,"station_id":"","pricing_plan_id":"cebpf4jnsgd1na2vs0mg"},{"bike_id":"a7c1f17f-dc87-4a25-ae79-bf69caf75b28","system_id":"levelo_inurba_marseille","lat":43.29261,"lon":5.36854,"is_reserved":false,"is_disabled":false,"rental_uris":{"android":"levelo://app?vid=a7c1f17f-dc87-4a25-ae79-bf69caf75b28","ios":"levelo://app?vid=a7c1f17f-dc87-4a25-ae79-bf69caf75b28"},"vehicle_type_id":"4","last_reported":1774005764,"current_range_meters":3200,"station_id":"ce4bhbp2rcd13ifvqesg","pricing_plan_id":"cebpf4jnsgd1na2vs0mg"},{"bike_id":"f8002e32-7d40-48f8-99b3-a631b985eba5","system_id":"levelo_inurba_marseille","lat":43.337566,"lon":5.374557,"is_reserved":false,"is_disabled":false,"rental_uris":{"android":"levelo://app?vid=f8002e32-7d40-48f8-99b3-a631b985eba5","ios":"levelo://app?vid=f8002e32-7d40-48f8-99b3-a631b985eba5"},"vehicle_type_id":"4","last_reported":1774005764,"current_range_meters":3200,"station_id":"","pricing_plan_id":"cebpf4jnsgd1na2vs0mg"},{"bike_id":"653417a1-4b3e-4d39-9c57-a85e662a0357","system_id":"levelo_inurba_marseille","lat":43.32107,"lon":5.36764,"is_reserved":false,"is_disabled":false,"rental_uris":{"android":"levelo://app?vid=653417a1-4b3e-4d39-9c57-a85e662a0357","ios":"levelo://app?vid=653417a1-4b3e-4d39-9c57-a85e662a0357"},"vehicle_type_id":"4","last_reported":1774005764,"current_range_meters":3200,"station_id":"ce4bhrh2rcd13ifvqhug","pricing_plan_id":"cebpf4jnsgd1na2vs0mg"},{"bike_id":"e1fcda96-10f8-4416-a2de-b3c0381d6f12","system_id":"levelo_inurba_marseille","lat":43.27382,"lon":5.36249,"is_reserved":false,"is_disabled":true,"rental_uris":{"android":"levelo://app?vid=e1fcda96-10f8-4416-a2de-b3c0381d6f12","ios":"levelo://app?vid=e1fcda96-10f8-4416-a2de-b3c0381d6f12"},"vehicle_type_id":"4","last_reported":1774005764,"current_range_meters":3200,"station_id":"ce4bhbh2rcd13ifvqeo0","pricing_plan_id":"cebpf4jnsgd1na2vs0mg"},{"bike_id":"3cdb9282-92ea-46a0-a841-f2dd988ecc68","system_id":"levelo_inurba_marseille","lat":43.22932,"lon":5.35386,"is_reserved":false,"is_disabled":false,"rental_uris":{"android":"levelo://app?vid=3cdb9282-92ea-46a0-a841-f2dd988ecc68","ios":"levelo://app?vid=3cdb9282-92ea-46a0-a841-f2dd988ecc68"},"vehicle_type_id":"4","last_reported":1774005764,"current_range_meters":3200,"station_id":"cpo3532slgdg3j2ikp40","pricing_plan_id":"cebpf4jnsgd1na2vs0mg"},{"bike_id":"cf21a704-d1d6-45ac-b508-b7d48f023c9f","system_id":"levelo_inurba_marseille","lat":43.32134,"lon":5.36765,"is_reserved":false,"is_disabled":false,"rental_uris":{"android":"levelo://app?vid=cf21a704-d1d6-45ac-b508-b7d48f023c9f","ios":"levelo://app?vid=cf21a704-d1d6-45ac-b508-b7d48f023c9f"},"vehicle_type_id":"4","last_reported":1774005764,"current_range_meters":3600,"station_id":"ce4bhrh2rcd13ifvqhug","pricing_plan_id":"cebpf4jnsgd1na2vs0mg"},{"bike_id":"65392da3-415b-40a9-bb9c-b2ea70ec8e47","system_id":"levelo_inurba_marseille","lat":43.30888,"lon":5.39623,"is_reserved":false,"is_disabled":false,"rental_uris":{"android":"levelo://app?vid=65392da3-415b-40a9-bb9c-b2ea70ec8e47","ios":"levelo://app?vid=65392da3-415b-40a9-bb9c-b2ea70ec8e47"},"vehicle_type_id":"4","last_reported":1774005764,"current_range_meters":3600,"station_id":"ce4bh012rcd13ifvqcv0","pricing_plan_id":"cebpf4jnsgd1na2vs0mg"},{"bike_id":"a0ae2982-85c4-4de7-b9eb-5ab3919346ff","system_id":"levelo_inurba_marseille","lat":43.2317,"lon":5.39987,"is_reserved":false,"is_disabled":false,"rental_uris":{"android":"levelo://app?vid=a0ae2982-85c4-4de7-b9eb-5ab3919346ff","ios":"levelo://app?vid=a0ae2982-85c4-4de7-b9eb-5ab3919346ff"},"vehicle_type_id":"4","last_reported":1774005764,"current_range_meters":3600,"station_id":"ce4bhn12rcd13ifvqgqg","pricing_plan_id":"cebpf4jnsgd1na2vs0mg"},{"bike_id":"24dc1ce5-2db6-421b-869a-69d6f082b300","system_id":"levelo_inurba_marseille","lat":43.29823,"lon":5.36199,"is_reserved":false,"is_disabled":false,"rental_uris":{"android":"levelo://app?vid=24dc1ce5-2db6-421b-869a-69d6f082b300","ios":"levelo://app?vid=24dc1ce5-2db6-421b-869a-69d6f082b300"},"vehicle_type_id":"4","last_reported":1774005764,"current_range_meters":3600,"station_id":"","pricing_plan_id":"cebpf4jnsgd1na2vs0mg"},{"bike_id":"bd60a6ec-18d4-4476-ab1b-f354043c4b72","system_id":"levelo_inurba_marseille","lat":43.29815,"lon":5.42585,"is_reserved":false,"is_disabled":false,"rental_uris":{"android":"levelo://app?vid=bd60a6ec-18d4-4476-ab1b-f354043c4b72","ios":"levelo://app?vid=bd60a6ec-18d4-4476-ab1b-f354043c4b72"},"vehicle_type_id":"4","last_reported":1774005764,"current_range_meters":3600,"station_id":"","pricing_plan_id":"cebpf4jnsgd1na2vs0mg"},{"bike_id":"ca4caf57-25f1-44aa-848a-d481b9729486","system_id":"levelo_inurba_marseille","lat":43.28662,"lon":5.36347,"is_reserved":false,"is_disabled":false,"rental_uris":{"android":"levelo://app?vid=ca4caf57-25f1-44aa-848a-d481b9729486","ios":"levelo://app?vid=ca4caf57-25f1-44aa-848a-d481b9729486"},"vehicle_type_id":"4","last_reported":1774005764,"current_range_meters":3600,"station_id":"ce4bhah2rcd13ifvqej0","pricing_plan_id":"cebpf4jnsgd1na2vs0mg"},{"bike_id":"dd10efc5-28b9-436a-be78-8011941e89fc","system_id":"levelo_inurba_marseille","lat":43.28477,"lon":5.4838,"is_reserved":false,"is_disabled":false,"rental_uris":{"android":"levelo://app?vid=dd10efc5-28b9-436a-be78-8011941e89fc","ios":"levelo://app?vid=dd10efc5-28b9-436a-be78-8011941e89fc"},"vehicle_type_id":"4","last_reported":1774005764,"current_range_meters":3600,"station_id":"st_d3svhcjqgbts73a3dn0g","pricing_plan_id":"cebpf4jnsgd1na2vs0mg"},{"bike_id":"a2858752-113b-4571-b0d9-f5de0d1f5974","system_id":"levelo_inurba_marseille","lat":43.244,"lon":5.37068,"is_reserved":false,"is_disabled":false,"rental_uris":{"android":"levelo://app?vid=a2858752-113b-4571-b0d9-f5de0d1f5974","ios":"levelo://app?vid=a2858752-113b-4571-b0d9-f5de0d1f5974"},"vehicle_type_id":"4","last_reported":1774005764,"current_range_meters":3600,"station_id":"ce4bhhh2rcd13ifvqfk0","pricing_plan_id":"cebpf4jnsgd1na2vs0mg"},{"bike_id":"ba7b385a-0c68-4f04-8157-81f213fac302","system_id":"levelo_inurba_marseille","lat":43.28479,"lon":5.38416,"is_reserved":false,"is_disabled":false,"rental_uris":{"android":"levelo://app?vid=ba7b385a-0c68-4f04-8157-81f213fac302","ios":"levelo://app?vid=ba7b385a-0c68-4f04-8157-81f213fac302"},"vehicle_type_id":"4","last_reported":1774005764,"current_range_meters":3600,"station_id":"ce4bh512rcd13ifvqe3g","pricing_plan_id":"cebpf4jnsgd1na2vs0mg"},{"bike_id":"13243d3c-36f1-423c-9b1a-5632aef121d8","system_id":"levelo_inurba_marseille","lat":43.337444,"lon":5.374475,"is_reserved":false,"is_disabled":false,"rental_uris":{"android":"levelo://app?vid=13243d3c-36f1-423c-9b1a-5632aef121d8","ios":"levelo://app?vid=13243d3c-36f1-423c-9b1a-5632aef121d8"},"vehicle_type_id":"4","last_reported":1774005764,"current_range_meters":3600,"station_id":"","pricing_plan_id":"cebpf4jnsgd1na2vs0mg"},{"bike_id":"19962afb-c05d-40c2-b180-66056af81508","system_id":"levelo_inurba_marseille","lat":43.23169,"lon":5.43687,"is_reserved":false,"is_disabled":false,"rental_uris":{"android":"levelo://app?vid=19962afb-c05d-40c2-b180-66056af81508","ios":"levelo://app?vid=19962afb-c05d-40c2-b180-66056af81508"},"vehicle_type_id":"4","last_reported":1774005764,"current_range_meters":3600,"station_id":"ce4bhmp2rcd13ifvqgog","pricing_plan_id":"cebpf4jnsgd1na2vs0mg"},{"bike_id":"ec327ac2-9680-48a1-8584-22f43bc41c50","system_id":"levelo_inurba_marseille","lat":43.29273,"lon":5.37619,"is_reserved":false,"is_disabled":true,"rental_uris":{"android":"levelo://app?vid=ec327ac2-9680-48a1-8584-22f43bc41c50","ios":"levelo://app?vid=ec327ac2-9680-48a1-8584-22f43bc41c50"},"vehicle_type_id":"4","last_reported":1774005764,"current_range_meters":3600,"station_id":"ce4bgi12rcd13ifvqb80","pricing_plan_id":"cebpf4jnsgd1na2vs0mg"},{"bike_id":"176d112f-c763-438c-a660-8435b79ad057","system_id":"levelo_inurba_marseille","lat":43.31499,"lon":5.37275,"is_reserved":false,"is_disabled":false,"rental_uris":{"android":"levelo://app?vid=176d112f-c763-438c-a660-8435b79ad057","ios":"levelo://app?vid=176d112f-c763-438c-a660-8435b79ad057"},"vehicle_type_id":"4","last_reported":1774005764,"current_range_meters":4000,"station_id":"ce4bgt12rcd13ifvqcd0","pricing_plan_id":"cebpf4jnsgd1na2vs0mg"},{"bike_id":"698d152c-7898-487a-918f-9e4c5fe73dcd","system_id":"levelo_inurba_marseille","lat":43.30281,"lon":5.37713,"is_reserved":false,"is_disabled":false,"rental_uris":{"android":"levelo://app?vid=698d152c-7898-487a-918f-9e4c5fe73dcd","ios":"levelo://app?vid=698d152c-7898-487a-918f-9e4c5fe73dcd"},"vehicle_type_id":"4","last_reported":1774005764,"current_range_meters":4000,"station_id":"ce4bguh2rcd13ifvqcj0","pricing_plan_id":"cebpf4jnsgd1na2vs0mg"},{"bike_id":"444c441c-dff7-40df-99ee-f500ea5c6bdf","system_id":"levelo_inurba_marseille","lat":43.29571,"lon":5.37522,"is_reserved":false,"is_disabled":false,"rental_uris":{"android":"levelo://app?vid=444c441c-dff7-40df-99ee-f500ea5c6bdf","ios":"levelo://app?vid=444c441c-dff7-40df-99ee-f500ea5c6bdf"},"vehicle_type_id":"4","last_reported":1774005764,"current_range_meters":4000,"station_id":"ce4bgh92rcd13ifvqb50","pricing_plan_id":"cebpf4jnsgd1na2vs0mg"},{"bike_id":"a7589a93-7e92-46e3-9adb-33c382fc7b2d","system_id":"levelo_inurba_marseille","lat":43.23964,"lon":5.36621,"is_reserved":false,"is_disabled":false,"rental_uris":{"android":"levelo://app?vid=a7589a93-7e92-46e3-9adb-33c382fc7b2d","ios":"levelo://app?vid=a7589a93-7e92-46e3-9adb-33c382fc7b2d"},"vehicle_type_id":"4","last_reported":1774005764,"current_range_meters":4000,"station_id":"ce4bhi12rcd13ifvqfp0","pricing_plan_id":"cebpf4jnsgd1na2vs0mg"},{"bike_id":"299e519b-3b2c-4aa3-9af1-362f343fe8f8","system_id":"levelo_inurba_marseille","lat":43.23782,"lon":5.36634,"is_reserved":false,"is_disabled":false,"rental_uris":{"android":"levelo://app?vid=299e519b-3b2c-4aa3-9af1-362f343fe8f8","ios":"levelo://app?vid=299e519b-3b2c-4aa3-9af1-362f343fe8f8"},"vehicle_type_id":"4","last_reported":1774005764,"current_range_meters":4000,"station_id":"st_d3nk18o9ro0c73en2l3g","pricing_plan_id":"cebpf4jnsgd1na2vs0mg"},{"bike_id":"206c09d7-d879-4491-97d6-cc55faeb36e0","system_id":"levelo_inurba_marseille","lat":43.27814,"lon":5.4072,"is_reserved":false,"is_disabled":false,"rental_uris":{"android":"levelo://app?vid=206c09d7-d879-4491-97d6-cc55faeb36e0","ios":"levelo://app?vid=206c09d7-d879-4491-97d6-cc55faeb36e0"},"vehicle_type_id":"4","last_reported":1774005764,"current_range_meters":4000,"station_id":"ce4bhnh2rcd13ifvqgtg","pricing_plan_id":"cebpf4jnsgd1na2vs0mg"},{"bike_id":"2f3d8542-dd38-46e2-84e6-8412d37ebc9b","system_id":"levelo_inurba_marseille","lat":43.29869,"lon":5.39732,"is_reserved":false,"is_disabled":false,"rental_uris":{"android":"levelo://app?vid=2f3d8542-dd38-46e2-84e6-8412d37ebc9b","ios":"levelo://app?vid=2f3d8542-dd38-46e2-84e6-8412d37ebc9b"},"vehicle_type_id":"4","last_reported":1774005764,"current_range_meters":4000,"station_id":"ce4bh0h2rcd13ifvqd50","pricing_plan_id":"cebpf4jnsgd1na2vs0mg"},{"bike_id":"5ab2600a-040b-4995-bfc6-9e44799ea303","system_id":"levelo_inurba_marseille","lat":43.30958,"lon":5.39029,"is_reserved":false,"is_disabled":false,"rental_uris":{"android":"levelo://app?vid=5ab2600a-040b-4995-bfc6-9e44799ea303","ios":"levelo://app?vid=5ab2600a-040b-4995-bfc6-9e44799ea303"},"vehicle_type_id":"4","last_reported":1774005764,"current_range_meters":4000,"station_id":"ce4bgup2rcd13ifvqco0","pricing_plan_id":"cebpf4jnsgd1na2vs0mg"},{"bike_id":"9f04a6e4-5685-481d-90b8-1ccc5c88e6df","system_id":"levelo_inurba_marseille","lat":43.24392,"lon":5.37055,"is_reserved":false,"is_disabled":false,"rental_uris":{"android":"levelo://app?vid=9f04a6e4-5685-481d-90b8-1ccc5c88e6df","ios":"levelo://app?vid=9f04a6e4-5685-481d-90b8-1ccc5c88e6df"},"vehicle_type_id":"4","last_reported":1774005764,"current_range_meters":4400,"station_id":"ce4bhhh2rcd13ifvqfk0","pricing_plan_id":"cebpf4jnsgd1na2vs0mg"},{"bike_id":"3f9fb310-6fac-4137-b487-279ff0e33710","system_id":"levelo_inurba_marseille","lat":43.26035,"lon":5.37551,"is_reserved":false,"is_disabled":false,"rental_uris":{"android":"levelo://app?vid=3f9fb310-6fac-4137-b487-279ff0e33710","ios":"levelo://app?vid=3f9fb310-6fac-4137-b487-279ff0e33710"},"vehicle_type_id":"4","last_reported":1774005764,"current_range_meters":4400,"station_id":"ce4bhgh2rcd13ifvqfa0","pricing_plan_id":"cebpf4jnsgd1na2vs0mg"},{"bike_id":"24e02049-7d35-48ad-9eee-757709960f87","system_id":"levelo_inurba_marseille","lat":43.26034,"lon":5.37542,"is_reserved":false,"is_disabled":false,"rental_uris":{"android":"levelo://app?vid=24e02049-7d35-48ad-9eee-757709960f87","ios":"levelo://app?vid=24e02049-7d35-48ad-9eee-757709960f87"},"vehicle_type_id":"4","last_reported":1774005764,"current_range_meters":4400,"station_id":"ce4bhgh2rcd13ifvqfa0","pricing_plan_id":"cebpf4jnsgd1na2vs0mg"},{"bike_id":"dd1f9324-94a4-4037-abbf-1bf19a1a7dbb","system_id":"levelo_inurba_marseille","lat":43.30164,"lon":5.39841,"is_reserved":false,"is_disabled":false,"rental_uris":{"android":"levelo://app?vid=dd1f9324-94a4-4037-abbf-1bf19a1a7dbb","ios":"levelo://app?vid=dd1f9324-94a4-4037-abbf-1bf19a1a7dbb"},"vehicle_type_id":"4","last_reported":1774005764,"current_range_meters":4400,"station_id":"ce4bh0h2rcd13ifvqd40","pricing_plan_id":"cebpf4jnsgd1na2vs0mg"},{"bike_id":"01d2833f-f2ec-4df5-8fb2-bf3cba12ca37","system_id":"levelo_inurba_marseille","lat":43.29408,"lon":5.37859,"is_reserved":false,"is_disabled":false,"rental_uris":{"android":"levelo://app?vid=01d2833f-f2ec-4df5-8fb2-bf3cba12ca37","ios":"levelo://app?vid=01d2833f-f2ec-4df5-8fb2-bf3cba12ca37"},"vehicle_type_id":"4","last_reported":1774005764,"current_range_meters":4400,"station_id":"","pricing_plan_id":"cebpf4jnsgd1na2vs0mg"},{"bike_id":"8d5674df-ab48-4722-bf79-c4299042c0a4","system_id":"levelo_inurba_marseille","lat":43.29312,"lon":5.37193,"is_reserved":false,"is_disabled":false,"rental_uris":{"android":"levelo://app?vid=8d5674df-ab48-4722-bf79-c4299042c0a4","ios":"levelo://app?vid=8d5674df-ab48-4722-bf79-c4299042c0a4"},"vehicle_type_id":"4","last_reported":1774005764,"current_range_meters":4400,"station_id":"ce4bgh92rcd13ifvqb40","pricing_plan_id":"cebpf4jnsgd1na2vs0mg"},{"bike_id":"d5f7f0bf-c4f5-45e1-bf7d-f4959ca7505e","system_id":"levelo_inurba_marseille","lat":43.24399,"lon":5.3707,"is_reserved":false,"is_disabled":false,"rental_uris":{"android":"levelo://app?vid=d5f7f0bf-c4f5-45e1-bf7d-f4959ca7505e","ios":"levelo://app?vid=d5f7f0bf-c4f5-45e1-bf7d-f4959ca7505e"},"vehicle_type_id":"4","last_reported":1774005764,"current_range_meters":4400,"station_id":"ce4bhhh2rcd13ifvqfk0","pricing_plan_id":"cebpf4jnsgd1na2vs0mg"},{"bike_id":"868e32ef-041c-4da6-9818-4d2e0ec63d82","system_id":"levelo_inurba_marseille","lat":43.30945,"lon":5.39038,"is_reserved":false,"is_disabled":false,"rental_uris":{"android":"levelo://app?vid=868e32ef-041c-4da6-9818-4d2e0ec63d82","ios":"levelo://app?vid=868e32ef-041c-4da6-9818-4d2e0ec63d82"},"vehicle_type_id":"4","last_reported":1774005764,"current_range_meters":4400,"station_id":"ce4bgup2rcd13ifvqco0","pricing_plan_id":"cebpf4jnsgd1na2vs0mg"},{"bike_id":"c92be20d-ef01-425f-b100-9307a4617ccc","system_id":"levelo_inurba_marseille","lat":43.29566,"lon":5.37493,"is_reserved":false,"is_disabled":false,"rental_uris":{"android":"levelo://app?vid=c92be20d-ef01-425f-b100-9307a4617ccc","ios":"levelo://app?vid=c92be20d-ef01-425f-b100-9307a4617ccc"},"vehicle_type_id":"4","last_reported":1774005764,"current_range_meters":4400,"station_id":"ce4bgh92rcd13ifvqb50","pricing_plan_id":"cebpf4jnsgd1na2vs0mg"},{"bike_id":"fdd03303-2b0b-4345-b5de-b005c814069b","system_id":"levelo_inurba_marseille","lat":43.30259,"lon":5.40082,"is_reserved":false,"is_disabled":false,"rental_uris":{"android":"levelo://app?vid=fdd03303-2b0b-4345-b5de-b005c814069b","ios":"levelo://app?vid=fdd03303-2b0b-4345-b5de-b005c814069b"},"vehicle_type_id":"4","last_reported":1774005764,"current_range_meters":4400,"station_id":"ce4bgvh2rcd13ifvqcs0","pricing_plan_id":"cebpf4jnsgd1na2vs0mg"},{"bike_id":"8b0f9f01-7679-45b7-b424-321a4910f558","system_id":"levelo_inurba_marseille","lat":43.29888,"lon":5.38909,"is_reserved":false,"is_disabled":false,"rental_uris":{"android":"levelo://app?vid=8b0f9f01-7679-45b7-b424-321a4910f558","ios":"levelo://app?vid=8b0f9f01-7679-45b7-b424-321a4910f558"},"vehicle_type_id":"4","last_reported":1774005764,"current_range_meters":4400,"station_id":"ce4bh392rcd13ifvqdl0","pricing_plan_id":"cebpf4jnsgd1na2vs0mg"},{"bike_id":"f0572f62-4b35-4e01-90cf-a1b609375ea8","system_id":"levelo_inurba_marseille","lat":43.29009,"lon":5.35607,"is_reserved":false,"is_disabled":false,"rental_uris":{"android":"levelo://app?vid=f0572f62-4b35-4e01-90cf-a1b609375ea8","ios":"levelo://app?vid=f0572f62-4b35-4e01-90cf-a1b609375ea8"},"vehicle_type_id":"4","last_reported":1774005764,"current_range_meters":4400,"station_id":"ce4bhb92rcd13ifvqen0","pricing_plan_id":"cebpf4jnsgd1na2vs0mg"},{"bike_id":"d51fe815-5335-4e1f-8e42-efe91c7e85aa","system_id":"levelo_inurba_marseille","lat":43.22925,"lon":5.35406,"is_reserved":false,"is_disabled":false,"rental_uris":{"android":"levelo://app?vid=d51fe815-5335-4e1f-8e42-efe91c7e85aa","ios":"levelo://app?vid=d51fe815-5335-4e1f-8e42-efe91c7e85aa"},"vehicle_type_id":"4","last_reported":1774005764,"current_range_meters":4400,"station_id":"cpo3532slgdg3j2ikp40","pricing_plan_id":"cebpf4jnsgd1na2vs0mg"},{"bike_id":"be523ae7-f0fc-4e2a-970b-30a3029fa717","system_id":"levelo_inurba_marseille","lat":43.28477,"lon":5.48395,"is_reserved":false,"is_disabled":false,"rental_uris":{"android":"levelo://app?vid=be523ae7-f0fc-4e2a-970b-30a3029fa717","ios":"levelo://app?vid=be523ae7-f0fc-4e2a-970b-30a3029fa717"},"vehicle_type_id":"4","last_reported":1774005764,"current_range_meters":4400,"station_id":"st_d3svhcjqgbts73a3dn0g","pricing_plan_id":"cebpf4jnsgd1na2vs0mg"},{"bike_id":"15750178-4f9b-426f-bafa-493e04eb7e36","system_id":"levelo_inurba_marseille","lat":43.30808,"lon":5.40656,"is_reserved":false,"is_disabled":false,"rental_uris":{"android":"levelo://app?vid=15750178-4f9b-426f-bafa-493e04eb7e36","ios":"levelo://app?vid=15750178-4f9b-426f-bafa-493e04eb7e36"},"vehicle_type_id":"4","last_reported":1774005764,"current_range_meters":4400,"station_id":"","pricing_plan_id":"cebpf4jnsgd1na2vs0mg"},{"bike_id":"5ed87fc4-3766-4414-bcbf-5ec6ad59bf72","system_id":"levelo_inurba_marseille","lat":43.24078,"lon":5.37752,"is_reserved":false,"is_disabled":false,"rental_uris":{"android":"levelo://app?vid=5ed87fc4-3766-4414-bcbf-5ec6ad59bf72","ios":"levelo://app?vid=5ed87fc4-3766-4414-bcbf-5ec6ad59bf72"},"vehicle_type_id":"4","last_reported":1774005764,"current_range_meters":4400,"station_id":"ce4bhnp2rcd13ifvqgvg","pricing_plan_id":"cebpf4jnsgd1na2vs0mg"},{"bike_id":"a0e0b99d-efb0-4677-a10a-197c3a29ac3f","system_id":"levelo_inurba_marseille","lat":43.30133,"lon":5.38776,"is_reserved":false,"is_disabled":false,"rental_uris":{"android":"levelo://app?vid=a0e0b99d-efb0-4677-a10a-197c3a29ac3f","ios":"levelo://app?vid=a0e0b99d-efb0-4677-a10a-197c3a29ac3f"},"vehicle_type_id":"4","last_reported":1774005764,"current_range_meters":4400,"station_id":"ce4bghh2rcd13ifvqb60","pricing_plan_id":"cebpf4jnsgd1na2vs0mg"},{"bike_id":"27cfd7f2-48c6-4fe4-9d82-e5b76120df75","system_id":"levelo_inurba_marseille","lat":43.2984,"lon":5.44033,"is_reserved":false,"is_disabled":false,"rental_uris":{"android":"levelo://app?vid=27cfd7f2-48c6-4fe4-9d82-e5b76120df75","ios":"levelo://app?vid=27cfd7f2-48c6-4fe4-9d82-e5b76120df75"},"vehicle_type_id":"4","last_reported":1774005764,"current_range_meters":4800,"station_id":"st_d3jp68qikq2c7381ktn0","pricing_plan_id":"cebpf4jnsgd1na2vs0mg"},{"bike_id":"7f69ea73-8aff-462b-a819-a0809de4b8a2","system_id":"levelo_inurba_marseille","lat":43.30564,"lon":5.36525,"is_reserved":false,"is_disabled":false,"rental_uris":{"android":"levelo://app?vid=7f69ea73-8aff-462b-a819-a0809de4b8a2","ios":"levelo://app?vid=7f69ea73-8aff-462b-a819-a0809de4b8a2"},"vehicle_type_id":"4","last_reported":1774005764,"current_range_meters":4800,"station_id":"ce4bgs12rcd13ifvqcag","pricing_plan_id":"cebpf4jnsgd1na2vs0mg"},{"bike_id":"ccc71fdc-06a7-4b51-bb86-68d4fb7611ee","system_id":"levelo_inurba_marseille","lat":43.29035,"lon":5.38143,"is_reserved":false,"is_disabled":false,"rental_uris":{"android":"levelo://app?vid=ccc71fdc-06a7-4b51-bb86-68d4fb7611ee","ios":"levelo://app?vid=ccc71fdc-06a7-4b51-bb86-68d4fb7611ee"},"vehicle_type_id":"4","last_reported":1774005764,"current_range_meters":4800,"station_id":"ce4bh4p2rcd13ifvqe1g","pricing_plan_id":"cebpf4jnsgd1na2vs0mg"},{"bike_id":"a2cbd3c7-8f12-4cb0-b11f-385373eef8a4","system_id":"levelo_inurba_marseille","lat":43.30954,"lon":5.39049,"is_reserved":false,"is_disabled":false,"rental_uris":{"android":"levelo://app?vid=a2cbd3c7-8f12-4cb0-b11f-385373eef8a4","ios":"levelo://app?vid=a2cbd3c7-8f12-4cb0-b11f-385373eef8a4"},"vehicle_type_id":"4","last_reported":1774005764,"current_range_meters":4800,"station_id":"ce4bgup2rcd13ifvqco0","pricing_plan_id":"cebpf4jnsgd1na2vs0mg"},{"bike_id":"a0cfa6be-d7dc-4973-8a19-4ee68eeaf60e","system_id":"levelo_inurba_marseille","lat":43.30438,"lon":5.39726,"is_reserved":false,"is_disabled":false,"rental_uris":{"android":"levelo://app?vid=a0cfa6be-d7dc-4973-8a19-4ee68eeaf60e","ios":"levelo://app?vid=a0cfa6be-d7dc-4973-8a19-4ee68eeaf60e"},"vehicle_type_id":"4","last_reported":1774005764,"current_range_meters":4800,"station_id":"ce4bh092rcd13ifvqd20","pricing_plan_id":"cebpf4jnsgd1na2vs0mg"},{"bike_id":"6443900c-da0c-4905-bee6-0bb1b84d34d9","system_id":"levelo_inurba_marseille","lat":43.24549,"lon":5.39532,"is_reserved":false,"is_disabled":false,"rental_uris":{"android":"levelo://app?vid=6443900c-da0c-4905-bee6-0bb1b84d34d9","ios":"levelo://app?vid=6443900c-da0c-4905-bee6-0bb1b84d34d9"},"vehicle_type_id":"4","last_reported":1774005764,"current_range_meters":4800,"station_id":"ce4bhlp2rcd13ifvqgjg","pricing_plan_id":"cebpf4jnsgd1na2vs0mg"},{"bike_id":"663f0ac1-2461-4e67-baec-974b090c828c","system_id":"levelo_inurba_marseille","lat":43.28661,"lon":5.36344,"is_reserved":false,"is_disabled":false,"rental_uris":{"android":"levelo://app?vid=663f0ac1-2461-4e67-baec-974b090c828c","ios":"levelo://app?vid=663f0ac1-2461-4e67-baec-974b090c828c"},"vehicle_type_id":"4","last_reported":1774005764,"current_range_meters":4800,"station_id":"ce4bhah2rcd13ifvqej0","pricing_plan_id":"cebpf4jnsgd1na2vs0mg"},{"bike_id":"57b87c5e-22a3-4f97-b869-f636cb99aa48","system_id":"levelo_inurba_marseille","lat":43.3095,"lon":5.39037,"is_reserved":false,"is_disabled":false,"rental_uris":{"android":"levelo://app?vid=57b87c5e-22a3-4f97-b869-f636cb99aa48","ios":"levelo://app?vid=57b87c5e-22a3-4f97-b869-f636cb99aa48"},"vehicle_type_id":"4","last_reported":1774005764,"current_range_meters":5600,"station_id":"ce4bgup2rcd13ifvqco0","pricing_plan_id":"cebpf4jnsgd1na2vs0mg"},{"bike_id":"9083b64c-9df9-44ed-95a6-7fe8603be4f3","system_id":"levelo_inurba_marseille","lat":43.29266,"lon":5.3684,"is_reserved":false,"is_disabled":false,"rental_uris":{"android":"levelo://app?vid=9083b64c-9df9-44ed-95a6-7fe8603be4f3","ios":"levelo://app?vid=9083b64c-9df9-44ed-95a6-7fe8603be4f3"},"vehicle_type_id":"4","last_reported":1774005764,"current_range_meters":5600,"station_id":"ce4bhbp2rcd13ifvqesg","pricing_plan_id":"cebpf4jnsgd1na2vs0mg"},{"bike_id":"52f6a6b9-7af9-4956-b458-baf5061e66bf","system_id":"levelo_inurba_marseille","lat":43.2333,"lon":5.44465,"is_reserved":false,"is_disabled":false,"rental_uris":{"android":"levelo://app?vid=52f6a6b9-7af9-4956-b458-baf5061e66bf","ios":"levelo://app?vid=52f6a6b9-7af9-4956-b458-baf5061e66bf"},"vehicle_type_id":"4","last_reported":1774005764,"current_range_meters":5600,"station_id":"","pricing_plan_id":"cebpf4jnsgd1na2vs0mg"},{"bike_id":"c6b20400-3641-48f3-b609-b110a5527d07","system_id":"levelo_inurba_marseille","lat":43.22565,"lon":5.4162,"is_reserved":false,"is_disabled":false,"rental_uris":{"android":"levelo://app?vid=c6b20400-3641-48f3-b609-b110a5527d07","ios":"levelo://app?vid=c6b20400-3641-48f3-b609-b110a5527d07"},"vehicle_type_id":"4","last_reported":1774005764,"current_range_meters":5600,"station_id":"st_d2o4gvlbi1j2169b742g","pricing_plan_id":"cebpf4jnsgd1na2vs0mg"},{"bike_id":"347a0133-45d3-4213-ae48-606f4453bbf3","system_id":"levelo_inurba_marseille","lat":43.2305,"lon":5.35493,"is_reserved":false,"is_disabled":false,"rental_uris":{"android":"levelo://app?vid=347a0133-45d3-4213-ae48-606f4453bbf3","ios":"levelo://app?vid=347a0133-45d3-4213-ae48-606f4453bbf3"},"vehicle_type_id":"4","last_reported":1774005764,"current_range_meters":5600,"station_id":"cpo3342slgdg3j2ifvpg","pricing_plan_id":"cebpf4jnsgd1na2vs0mg"},{"bike_id":"88f62a4c-1dd5-4d07-a59a-902271acdb70","system_id":"levelo_inurba_marseille","lat":43.28164,"lon":5.42633,"is_reserved":false,"is_disabled":false,"rental_uris":{"android":"levelo://app?vid=88f62a4c-1dd5-4d07-a59a-902271acdb70","ios":"levelo://app?vid=88f62a4c-1dd5-4d07-a59a-902271acdb70"},"vehicle_type_id":"4","last_reported":1774005764,"current_range_meters":5600,"station_id":"ce4bhnh2rcd13ifvqgug","pricing_plan_id":"cebpf4jnsgd1na2vs0mg"},{"bike_id":"115f83ab-a2b1-4600-ba64-cad36b2edcf7","system_id":"levelo_inurba_marseille","lat":43.27205,"lon":5.39167,"is_reserved":false,"is_disabled":false,"rental_uris":{"android":"levelo://app?vid=115f83ab-a2b1-4600-ba64-cad36b2edcf7","ios":"levelo://app?vid=115f83ab-a2b1-4600-ba64-cad36b2edcf7"},"vehicle_type_id":"4","last_reported":1774005764,"current_range_meters":5600,"station_id":"ce4bhhp2rcd13ifvqfm0","pricing_plan_id":"cebpf4jnsgd1na2vs0mg"},{"bike_id":"81ea61d3-b0d2-47db-a76d-70d4d606a6e6","system_id":"levelo_inurba_marseille","lat":43.24802,"lon":5.37452,"is_reserved":false,"is_disabled":false,"rental_uris":{"android":"levelo://app?vid=81ea61d3-b0d2-47db-a76d-70d4d606a6e6","ios":"levelo://app?vid=81ea61d3-b0d2-47db-a76d-70d4d606a6e6"},"vehicle_type_id":"4","last_reported":1774005764,"current_range_meters":5600,"station_id":"ce4bhgh2rcd13ifvqfb0","pricing_plan_id":"cebpf4jnsgd1na2vs0mg"},{"bike_id":"c86bc19f-cacf-4edb-af3a-b8bffca50dfc","system_id":"levelo_inurba_marseille","lat":43.28425,"lon":5.34984,"is_reserved":false,"is_disabled":false,"rental_uris":{"android":"levelo://app?vid=c86bc19f-cacf-4edb-af3a-b8bffca50dfc","ios":"levelo://app?vid=c86bc19f-cacf-4edb-af3a-b8bffca50dfc"},"vehicle_type_id":"4","last_reported":1774005764,"current_range_meters":5600,"station_id":"ce4bhbh2rcd13ifvqepg","pricing_plan_id":"cebpf4jnsgd1na2vs0mg"},{"bike_id":"b3c6ee7e-839e-47ca-8bd1-12618e78dd87","system_id":"levelo_inurba_marseille","lat":43.23963,"lon":5.36607,"is_reserved":false,"is_disabled":false,"rental_uris":{"android":"levelo://app?vid=b3c6ee7e-839e-47ca-8bd1-12618e78dd87","ios":"levelo://app?vid=b3c6ee7e-839e-47ca-8bd1-12618e78dd87"},"vehicle_type_id":"4","last_reported":1774005764,"current_range_meters":5600,"station_id":"ce4bhi12rcd13ifvqfp0","pricing_plan_id":"cebpf4jnsgd1na2vs0mg"},{"bike_id":"f14aff41-730a-4b5e-a3d1-aa44d92a860d","system_id":"levelo_inurba_marseille","lat":43.29281,"lon":5.36819,"is_reserved":false,"is_disabled":false,"rental_uris":{"android":"levelo://app?vid=f14aff41-730a-4b5e-a3d1-aa44d92a860d","ios":"levelo://app?vid=f14aff41-730a-4b5e-a3d1-aa44d92a860d"},"vehicle_type_id":"4","last_reported":1774005764,"current_range_meters":6000,"station_id":"ce4bhbp2rcd13ifvqesg","pricing_plan_id":"cebpf4jnsgd1na2vs0mg"},{"bike_id":"0836c59c-4e19-4ca7-8410-a79df9dfcc6b","system_id":"levelo_inurba_marseille","lat":43.28534,"lon":5.44097,"is_reserved":false,"is_disabled":false,"rental_uris":{"android":"levelo://app?vid=0836c59c-4e19-4ca7-8410-a79df9dfcc6b","ios":"levelo://app?vid=0836c59c-4e19-4ca7-8410-a79df9dfcc6b"},"vehicle_type_id":"4","last_reported":1774005764,"current_range_meters":6000,"station_id":"st_d3j3df2ikq2c7380ej80","pricing_plan_id":"cebpf4jnsgd1na2vs0mg"},{"bike_id":"b790cc6c-beda-4dcd-96dd-e541806c10fa","system_id":"levelo_inurba_marseille","lat":43.27512,"lon":5.41601,"is_reserved":false,"is_disabled":false,"rental_uris":{"android":"levelo://app?vid=b790cc6c-beda-4dcd-96dd-e541806c10fa","ios":"levelo://app?vid=b790cc6c-beda-4dcd-96dd-e541806c10fa"},"vehicle_type_id":"4","last_reported":1774005764,"current_range_meters":6000,"station_id":"st_d6im8g6chgec73a5pndg","pricing_plan_id":"cebpf4jnsgd1na2vs0mg"},{"bike_id":"addd9e53-bfde-4c2f-8c89-4a891b6a7add","system_id":"levelo_inurba_marseille","lat":43.31352,"lon":5.37921,"is_reserved":false,"is_disabled":false,"rental_uris":{"android":"levelo://app?vid=addd9e53-bfde-4c2f-8c89-4a891b6a7add","ios":"levelo://app?vid=addd9e53-bfde-4c2f-8c89-4a891b6a7add"},"vehicle_type_id":"4","last_reported":1774005764,"current_range_meters":6000,"station_id":"","pricing_plan_id":"cebpf4jnsgd1na2vs0mg"},{"bike_id":"a7dd1c2f-1863-4db6-9064-755a90a3283b","system_id":"levelo_inurba_marseille","lat":43.29718,"lon":5.42601,"is_reserved":false,"is_disabled":false,"rental_uris":{"android":"levelo://app?vid=a7dd1c2f-1863-4db6-9064-755a90a3283b","ios":"levelo://app?vid=a7dd1c2f-1863-4db6-9064-755a90a3283b"},"vehicle_type_id":"4","last_reported":1774005764,"current_range_meters":6000,"station_id":"","pricing_plan_id":"cebpf4jnsgd1na2vs0mg"},{"bike_id":"0f380e48-6eb4-411a-b4e1-e2730604484e","system_id":"levelo_inurba_marseille","lat":43.28036,"lon":5.36946,"is_reserved":false,"is_disabled":false,"rental_uris":{"android":"levelo://app?vid=0f380e48-6eb4-411a-b4e1-e2730604484e","ios":"levelo://app?vid=0f380e48-6eb4-411a-b4e1-e2730604484e"},"vehicle_type_id":"4","last_reported":1774005764,"current_range_meters":6000,"station_id":"ce4bha12rcd13ifvqef0","pricing_plan_id":"cebpf4jnsgd1na2vs0mg"},{"bike_id":"6e50a54a-c657-4ef5-9339-4c225154dc0d","system_id":"levelo_inurba_marseille","lat":43.27943,"lon":5.42236,"is_reserved":false,"is_disabled":false,"rental_uris":{"android":"levelo://app?vid=6e50a54a-c657-4ef5-9339-4c225154dc0d","ios":"levelo://app?vid=6e50a54a-c657-4ef5-9339-4c225154dc0d"},"vehicle_type_id":"4","last_reported":1774005764,"current_range_meters":6000,"station_id":"","pricing_plan_id":"cebpf4jnsgd1na2vs0mg"},{"bike_id":"744826ba-753a-4ecc-8e5c-e31c07526efd","system_id":"levelo_inurba_marseille","lat":43.27992,"lon":5.41669,"is_reserved":false,"is_disabled":false,"rental_uris":{"android":"levelo://app?vid=744826ba-753a-4ecc-8e5c-e31c07526efd","ios":"levelo://app?vid=744826ba-753a-4ecc-8e5c-e31c07526efd"},"vehicle_type_id":"4","last_reported":1774005764,"current_range_meters":6000,"station_id":"ce4bho12rcd13ifvqh1g","pricing_plan_id":"cebpf4jnsgd1na2vs0mg"},{"bike_id":"1fc87fed-6040-40bc-99c6-6f694d257aa1","system_id":"levelo_inurba_marseille","lat":43.30945,"lon":5.40855,"is_reserved":false,"is_disabled":false,"rental_uris":{"android":"levelo://app?vid=1fc87fed-6040-40bc-99c6-6f694d257aa1","ios":"levelo://app?vid=1fc87fed-6040-40bc-99c6-6f694d257aa1"},"vehicle_type_id":"4","last_reported":1774005764,"current_range_meters":6000,"station_id":"","pricing_plan_id":"cebpf4jnsgd1na2vs0mg"},{"bike_id":"b3ce5f4e-fe9b-4f42-8117-38663f8ce0a8","system_id":"levelo_inurba_marseille","lat":43.31483,"lon":5.37296,"is_reserved":false,"is_disabled":false,"rental_uris":{"android":"levelo://app?vid=b3ce5f4e-fe9b-4f42-8117-38663f8ce0a8","ios":"levelo://app?vid=b3ce5f4e-fe9b-4f42-8117-38663f8ce0a8"},"vehicle_type_id":"4","last_reported":1774005764,"current_range_meters":6400,"station_id":"ce4bgt12rcd13ifvqcd0","pricing_plan_id":"cebpf4jnsgd1na2vs0mg"},{"bike_id":"8ba5e59c-1b23-4850-921f-9f05aa4326d2","system_id":"levelo_inurba_marseille","lat":43.32655,"lon":5.40985,"is_reserved":false,"is_disabled":true,"rental_uris":{"android":"levelo://app?vid=8ba5e59c-1b23-4850-921f-9f05aa4326d2","ios":"levelo://app?vid=8ba5e59c-1b23-4850-921f-9f05aa4326d2"},"vehicle_type_id":"4","last_reported":1774005764,"current_range_meters":6400,"station_id":"ce4bhpp2rcd13ifvqhgg","pricing_plan_id":"cebpf4jnsgd1na2vs0mg"},{"bike_id":"10ced8a1-0004-454c-a343-b116c3880ed6","system_id":"levelo_inurba_marseille","lat":43.32127,"lon":5.36759,"is_reserved":false,"is_disabled":false,"rental_uris":{"android":"levelo://app?vid=10ced8a1-0004-454c-a343-b116c3880ed6","ios":"levelo://app?vid=10ced8a1-0004-454c-a343-b116c3880ed6"},"vehicle_type_id":"4","last_reported":1774005764,"current_range_meters":6400,"station_id":"ce4bhrh2rcd13ifvqhug","pricing_plan_id":"cebpf4jnsgd1na2vs0mg"},{"bike_id":"33e015f6-34a2-44b9-a37e-fd5fd3630f6d","system_id":"levelo_inurba_marseille","lat":43.24165,"lon":5.36401,"is_reserved":false,"is_disabled":false,"rental_uris":{"android":"levelo://app?vid=33e015f6-34a2-44b9-a37e-fd5fd3630f6d","ios":"levelo://app?vid=33e015f6-34a2-44b9-a37e-fd5fd3630f6d"},"vehicle_type_id":"4","last_reported":1774005764,"current_range_meters":6400,"station_id":"cpo36qri1sfpv3e86is0","pricing_plan_id":"cebpf4jnsgd1na2vs0mg"},{"bike_id":"0f901b1c-cf83-48f3-9866-9a1d20a14463","system_id":"levelo_inurba_marseille","lat":43.29273,"lon":5.36826,"is_reserved":false,"is_disabled":false,"rental_uris":{"android":"levelo://app?vid=0f901b1c-cf83-48f3-9866-9a1d20a14463","ios":"levelo://app?vid=0f901b1c-cf83-48f3-9866-9a1d20a14463"},"vehicle_type_id":"4","last_reported":1774005764,"current_range_meters":6400,"station_id":"ce4bhbp2rcd13ifvqesg","pricing_plan_id":"cebpf4jnsgd1na2vs0mg"},{"bike_id":"e08d225b-8f4a-4ce0-895d-d9f7f842408c","system_id":"levelo_inurba_marseille","lat":43.24179,"lon":5.36386,"is_reserved":false,"is_disabled":false,"rental_uris":{"android":"levelo://app?vid=e08d225b-8f4a-4ce0-895d-d9f7f842408c","ios":"levelo://app?vid=e08d225b-8f4a-4ce0-895d-d9f7f842408c"},"vehicle_type_id":"4","last_reported":1774005764,"current_range_meters":6400,"station_id":"cpo36qri1sfpv3e86is0","pricing_plan_id":"cebpf4jnsgd1na2vs0mg"},{"bike_id":"3bcd3f37-7909-4e8a-be03-a9562a2c0e45","system_id":"levelo_inurba_marseille","lat":43.2849,"lon":5.48375,"is_reserved":false,"is_disabled":false,"rental_uris":{"android":"levelo://app?vid=3bcd3f37-7909-4e8a-be03-a9562a2c0e45","ios":"levelo://app?vid=3bcd3f37-7909-4e8a-be03-a9562a2c0e45"},"vehicle_type_id":"4","last_reported":1774005764,"current_range_meters":6800,"station_id":"","pricing_plan_id":"cebpf4jnsgd1na2vs0mg"},{"bike_id":"856fe66d-4acf-4111-b537-8a0bb0fdb356","system_id":"levelo_inurba_marseille","lat":43.29909,"lon":5.38459,"is_reserved":false,"is_disabled":false,"rental_uris":{"android":"levelo://app?vid=856fe66d-4acf-4111-b537-8a0bb0fdb356","ios":"levelo://app?vid=856fe66d-4acf-4111-b537-8a0bb0fdb356"},"vehicle_type_id":"4","last_reported":1774005764,"current_range_meters":6800,"station_id":"","pricing_plan_id":"cebpf4jnsgd1na2vs0mg"},{"bike_id":"69067704-4b9d-4067-8ddd-5b71f4ef1a8a","system_id":"levelo_inurba_marseille","lat":43.25963,"lon":5.40892,"is_reserved":false,"is_disabled":true,"rental_uris":{"android":"levelo://app?vid=69067704-4b9d-4067-8ddd-5b71f4ef1a8a","ios":"levelo://app?vid=69067704-4b9d-4067-8ddd-5b71f4ef1a8a"},"vehicle_type_id":"4","last_reported":1774005764,"current_range_meters":6800,"station_id":"ce4bhm92rcd13ifvqglg","pricing_plan_id":"cebpf4jnsgd1na2vs0mg"},{"bike_id":"cfc8ae9d-11d4-40f9-846e-1eff624ddef7","system_id":"levelo_inurba_marseille","lat":43.29776,"lon":5.3711,"is_reserved":false,"is_disabled":false,"rental_uris":{"android":"levelo://app?vid=cfc8ae9d-11d4-40f9-846e-1eff624ddef7","ios":"levelo://app?vid=cfc8ae9d-11d4-40f9-846e-1eff624ddef7"},"vehicle_type_id":"4","last_reported":1774005764,"current_range_meters":6800,"station_id":"ce4bgop2rcd13ifvqc1g","pricing_plan_id":"cebpf4jnsgd1na2vs0mg"},{"bike_id":"a58b14be-ade4-498e-ab67-6c2572ad511a","system_id":"levelo_inurba_marseille","lat":43.309,"lon":5.36873,"is_reserved":false,"is_disabled":false,"rental_uris":{"android":"levelo://app?vid=a58b14be-ade4-498e-ab67-6c2572ad511a","ios":"levelo://app?vid=a58b14be-ade4-498e-ab67-6c2572ad511a"},"vehicle_type_id":"4","last_reported":1774005764,"current_range_meters":6800,"station_id":"ce4bgn92rcd13ifvqbvg","pricing_plan_id":"cebpf4jnsgd1na2vs0mg"},{"bike_id":"bba6287a-c0e6-4bdd-894c-034fee77fa8c","system_id":"levelo_inurba_marseille","lat":43.29909,"lon":5.38126,"is_reserved":false,"is_disabled":false,"rental_uris":{"android":"levelo://app?vid=bba6287a-c0e6-4bdd-894c-034fee77fa8c","ios":"levelo://app?vid=bba6287a-c0e6-4bdd-894c-034fee77fa8c"},"vehicle_type_id":"4","last_reported":1774005764,"current_range_meters":6800,"station_id":"ce4bgj12rcd13ifvqbc0","pricing_plan_id":"cebpf4jnsgd1na2vs0mg"},{"bike_id":"4ebc5a1c-fa8c-44d8-a7fc-38229c55eb9d","system_id":"levelo_inurba_marseille","lat":43.24645,"lon":5.38923,"is_reserved":false,"is_disabled":false,"rental_uris":{"android":"levelo://app?vid=4ebc5a1c-fa8c-44d8-a7fc-38229c55eb9d","ios":"levelo://app?vid=4ebc5a1c-fa8c-44d8-a7fc-38229c55eb9d"},"vehicle_type_id":"4","last_reported":1774005764,"current_range_meters":6800,"station_id":"ce4bhg12rcd13ifvqf60","pricing_plan_id":"cebpf4jnsgd1na2vs0mg"},{"bike_id":"5d093622-4e87-4d50-9da4-eab65f5eb92c","system_id":"levelo_inurba_marseille","lat":43.26367,"lon":5.41048,"is_reserved":false,"is_disabled":false,"rental_uris":{"android":"levelo://app?vid=5d093622-4e87-4d50-9da4-eab65f5eb92c","ios":"levelo://app?vid=5d093622-4e87-4d50-9da4-eab65f5eb92c"},"vehicle_type_id":"4","last_reported":1774005764,"current_range_meters":6800,"station_id":"st_d4e5ca6na9uc73bfl5fg","pricing_plan_id":"cebpf4jnsgd1na2vs0mg"},{"bike_id":"681f5372-2ff2-4dd0-a093-84c447cff888","system_id":"levelo_inurba_marseille","lat":43.22555,"lon":5.41629,"is_reserved":false,"is_disabled":false,"rental_uris":{"android":"levelo://app?vid=681f5372-2ff2-4dd0-a093-84c447cff888","ios":"levelo://app?vid=681f5372-2ff2-4dd0-a093-84c447cff888"},"vehicle_type_id":"4","last_reported":1774005764,"current_range_meters":6800,"station_id":"st_d2o4gvlbi1j2169b742g","pricing_plan_id":"cebpf4jnsgd1na2vs0mg"},{"bike_id":"b8af7d45-c198-42a0-a3da-edeb4ef58804","system_id":"levelo_inurba_marseille","lat":43.30792,"lon":5.37646,"is_reserved":false,"is_disabled":false,"rental_uris":{"android":"levelo://app?vid=b8af7d45-c198-42a0-a3da-edeb4ef58804","ios":"levelo://app?vid=b8af7d45-c198-42a0-a3da-edeb4ef58804"},"vehicle_type_id":"4","last_reported":1774005764,"current_range_meters":6800,"station_id":"ce4bgv92rcd13ifvqcq0","pricing_plan_id":"cebpf4jnsgd1na2vs0mg"},{"bike_id":"2b15899e-8abb-46ce-a672-e497d3bf290b","system_id":"levelo_inurba_marseille","lat":43.32656,"lon":5.4098,"is_reserved":false,"is_disabled":false,"rental_uris":{"android":"levelo://app?vid=2b15899e-8abb-46ce-a672-e497d3bf290b","ios":"levelo://app?vid=2b15899e-8abb-46ce-a672-e497d3bf290b"},"vehicle_type_id":"4","last_reported":1774005764,"current_range_meters":7200,"station_id":"ce4bhpp2rcd13ifvqhgg","pricing_plan_id":"cebpf4jnsgd1na2vs0mg"},{"bike_id":"12118d88-8157-4d76-ad00-12ce3bc20921","system_id":"levelo_inurba_marseille","lat":43.30873,"lon":5.37068,"is_reserved":false,"is_disabled":false,"rental_uris":{"android":"levelo://app?vid=12118d88-8157-4d76-ad00-12ce3bc20921","ios":"levelo://app?vid=12118d88-8157-4d76-ad00-12ce3bc20921"},"vehicle_type_id":"4","last_reported":1774005764,"current_range_meters":7200,"station_id":"","pricing_plan_id":"cebpf4jnsgd1na2vs0mg"},{"bike_id":"3165bc1b-1cdc-48ac-bccc-fe7023580417","system_id":"levelo_inurba_marseille","lat":43.28555,"lon":5.44069,"is_reserved":false,"is_disabled":false,"rental_uris":{"android":"levelo://app?vid=3165bc1b-1cdc-48ac-bccc-fe7023580417","ios":"levelo://app?vid=3165bc1b-1cdc-48ac-bccc-fe7023580417"},"vehicle_type_id":"4","last_reported":1774005764,"current_range_meters":7200,"station_id":"st_d3j3df2ikq2c7380ej80","pricing_plan_id":"cebpf4jnsgd1na2vs0mg"},{"bike_id":"0264288d-82fa-4432-8751-6c08c0e54bb7","system_id":"levelo_inurba_marseille","lat":43.30294,"lon":5.42479,"is_reserved":false,"is_disabled":false,"rental_uris":{"android":"levelo://app?vid=0264288d-82fa-4432-8751-6c08c0e54bb7","ios":"levelo://app?vid=0264288d-82fa-4432-8751-6c08c0e54bb7"},"vehicle_type_id":"4","last_reported":1774005764,"current_range_meters":7200,"station_id":"","pricing_plan_id":"cebpf4jnsgd1na2vs0mg"},{"bike_id":"be9b4f06-9d1a-41ee-b10b-9de4e628d9db","system_id":"levelo_inurba_marseille","lat":43.25567,"lon":5.3822,"is_reserved":false,"is_disabled":false,"rental_uris":{"android":"levelo://app?vid=be9b4f06-9d1a-41ee-b10b-9de4e628d9db","ios":"levelo://app?vid=be9b4f06-9d1a-41ee-b10b-9de4e628d9db"},"vehicle_type_id":"4","last_reported":1774005764,"current_range_meters":7200,"station_id":"ce4bhih2rcd13ifvqfs0","pricing_plan_id":"cebpf4jnsgd1na2vs0mg"},{"bike_id":"97f89870-e3a2-4acc-b807-3b7fdbf7b741","system_id":"levelo_inurba_marseille","lat":43.26547,"lon":5.37289,"is_reserved":false,"is_disabled":false,"rental_uris":{"android":"levelo://app?vid=97f89870-e3a2-4acc-b807-3b7fdbf7b741","ios":"levelo://app?vid=97f89870-e3a2-4acc-b807-3b7fdbf7b741"},"vehicle_type_id":"4","last_reported":1774005764,"current_range_meters":7200,"station_id":"ce4bhg12rcd13ifvqf70","pricing_plan_id":"cebpf4jnsgd1na2vs0mg"},{"bike_id":"dd74091b-705a-4531-bc39-afff2195d9a1","system_id":"levelo_inurba_marseille","lat":43.24802,"lon":5.37442,"is_reserved":false,"is_disabled":false,"rental_uris":{"android":"levelo://app?vid=dd74091b-705a-4531-bc39-afff2195d9a1","ios":"levelo://app?vid=dd74091b-705a-4531-bc39-afff2195d9a1"},"vehicle_type_id":"4","last_reported":1774005764,"current_range_meters":7200,"station_id":"ce4bhgh2rcd13ifvqfb0","pricing_plan_id":"cebpf4jnsgd1na2vs0mg"},{"bike_id":"de1f77cc-59e8-4532-85c5-ccd8b5c1cd10","system_id":"levelo_inurba_marseille","lat":43.27995,"lon":5.4167,"is_reserved":false,"is_disabled":false,"rental_uris":{"android":"levelo://app?vid=de1f77cc-59e8-4532-85c5-ccd8b5c1cd10","ios":"levelo://app?vid=de1f77cc-59e8-4532-85c5-ccd8b5c1cd10"},"vehicle_type_id":"4","last_reported":1774005764,"current_range_meters":7200,"station_id":"ce4bho12rcd13ifvqh1g","pricing_plan_id":"cebpf4jnsgd1na2vs0mg"},{"bike_id":"29ceb06a-4df8-4e2a-9dd9-b070e185b37f","system_id":"levelo_inurba_marseille","lat":43.28471,"lon":5.48399,"is_reserved":false,"is_disabled":false,"rental_uris":{"android":"levelo://app?vid=29ceb06a-4df8-4e2a-9dd9-b070e185b37f","ios":"levelo://app?vid=29ceb06a-4df8-4e2a-9dd9-b070e185b37f"},"vehicle_type_id":"4","last_reported":1774005764,"current_range_meters":7200,"station_id":"st_d3svhcjqgbts73a3dn0g","pricing_plan_id":"cebpf4jnsgd1na2vs0mg"},{"bike_id":"285135fe-1457-4437-a1ef-29c11c574182","system_id":"levelo_inurba_marseille","lat":43.28417,"lon":5.34978,"is_reserved":false,"is_disabled":false,"rental_uris":{"android":"levelo://app?vid=285135fe-1457-4437-a1ef-29c11c574182","ios":"levelo://app?vid=285135fe-1457-4437-a1ef-29c11c574182"},"vehicle_type_id":"4","last_reported":1774005764,"current_range_meters":7200,"station_id":"ce4bhbh2rcd13ifvqepg","pricing_plan_id":"cebpf4jnsgd1na2vs0mg"},{"bike_id":"93e7ba94-d614-4c08-b9f8-35f3439e3411","system_id":"levelo_inurba_marseille","lat":43.21191,"lon":5.35073,"is_reserved":false,"is_disabled":false,"rental_uris":{"android":"levelo://app?vid=93e7ba94-d614-4c08-b9f8-35f3439e3411","ios":"levelo://app?vid=93e7ba94-d614-4c08-b9f8-35f3439e3411"},"vehicle_type_id":"4","last_reported":1774005764,"current_range_meters":7200,"station_id":"st_cvj6sg6p6f1abm77japg","pricing_plan_id":"cebpf4jnsgd1na2vs0mg"},{"bike_id":"c142af26-b83c-4aa3-ab8b-699576493d34","system_id":"levelo_inurba_marseille","lat":43.2121,"lon":5.35048,"is_reserved":false,"is_disabled":true,"rental_uris":{"android":"levelo://app?vid=c142af26-b83c-4aa3-ab8b-699576493d34","ios":"levelo://app?vid=c142af26-b83c-4aa3-ab8b-699576493d34"},"vehicle_type_id":"4","last_reported":1774005764,"current_range_meters":7200,"station_id":"st_cvj6sg6p6f1abm77japg","pricing_plan_id":"cebpf4jnsgd1na2vs0mg"},{"bike_id":"29705345-7a8e-4bdd-8b65-5ba8856c877f","system_id":"levelo_inurba_marseille","lat":43.30311,"lon":5.4495,"is_reserved":false,"is_disabled":false,"rental_uris":{"android":"levelo://app?vid=29705345-7a8e-4bdd-8b65-5ba8856c877f","ios":"levelo://app?vid=29705345-7a8e-4bdd-8b65-5ba8856c877f"},"vehicle_type_id":"4","last_reported":1774005764,"current_range_meters":7200,"station_id":"","pricing_plan_id":"cebpf4jnsgd1na2vs0mg"},{"bike_id":"fc4bdd35-8359-4a9c-92ce-1f6eb635de57","system_id":"levelo_inurba_marseille","lat":43.24651,"lon":5.38892,"is_reserved":false,"is_disabled":false,"rental_uris":{"android":"levelo://app?vid=fc4bdd35-8359-4a9c-92ce-1f6eb635de57","ios":"levelo://app?vid=fc4bdd35-8359-4a9c-92ce-1f6eb635de57"},"vehicle_type_id":"4","last_reported":1774005764,"current_range_meters":7200,"station_id":"ce4bhg12rcd13ifvqf60","pricing_plan_id":"cebpf4jnsgd1na2vs0mg"},{"bike_id":"b019a4fb-c87a-4b65-a186-bbefeaaa0d9f","system_id":"levelo_inurba_marseille","lat":43.30152,"lon":5.38089,"is_reserved":false,"is_disabled":false,"rental_uris":{"android":"levelo://app?vid=b019a4fb-c87a-4b65-a186-bbefeaaa0d9f","ios":"levelo://app?vid=b019a4fb-c87a-4b65-a186-bbefeaaa0d9f"},"vehicle_type_id":"4","last_reported":1774005764,"current_range_meters":7200,"station_id":"ce4bgjp2rcd13ifvqbh0","pricing_plan_id":"cebpf4jnsgd1na2vs0mg"},{"bike_id":"c48440d7-f4d5-4be3-a842-7dc1a317748e","system_id":"levelo_inurba_marseille","lat":43.33948,"lon":5.35695,"is_reserved":false,"is_disabled":false,"rental_uris":{"android":"levelo://app?vid=c48440d7-f4d5-4be3-a842-7dc1a317748e","ios":"levelo://app?vid=c48440d7-f4d5-4be3-a842-7dc1a317748e"},"vehicle_type_id":"4","last_reported":1774005764,"current_range_meters":7200,"station_id":"","pricing_plan_id":"cebpf4jnsgd1na2vs0mg"},{"bike_id":"ab09d209-60f6-4303-8d09-86dc43261279","system_id":"levelo_inurba_marseille","lat":43.21201,"lon":5.35068,"is_reserved":false,"is_disabled":false,"rental_uris":{"android":"levelo://app?vid=ab09d209-60f6-4303-8d09-86dc43261279","ios":"levelo://app?vid=ab09d209-60f6-4303-8d09-86dc43261279"},"vehicle_type_id":"4","last_reported":1774005764,"current_range_meters":7200,"station_id":"st_cvj6sg6p6f1abm77japg","pricing_plan_id":"cebpf4jnsgd1na2vs0mg"},{"bike_id":"ea5f9520-90f0-49e6-8d6a-50c76753ddaa","system_id":"levelo_inurba_marseille","lat":43.308952,"lon":5.396642,"is_reserved":false,"is_disabled":false,"rental_uris":{"android":"levelo://app?vid=ea5f9520-90f0-49e6-8d6a-50c76753ddaa","ios":"levelo://app?vid=ea5f9520-90f0-49e6-8d6a-50c76753ddaa"},"vehicle_type_id":"4","last_reported":1774005764,"current_range_meters":8000,"station_id":"ce4bh012rcd13ifvqcv0","pricing_plan_id":"cebpf4jnsgd1na2vs0mg"},{"bike_id":"f328e3b6-a38c-49fe-80e0-c552630893a5","system_id":"levelo_inurba_marseille","lat":43.22918,"lon":5.35383,"is_reserved":false,"is_disabled":false,"rental_uris":{"android":"levelo://app?vid=f328e3b6-a38c-49fe-80e0-c552630893a5","ios":"levelo://app?vid=f328e3b6-a38c-49fe-80e0-c552630893a5"},"vehicle_type_id":"4","last_reported":1774005764,"current_range_meters":8000,"station_id":"cpo3532slgdg3j2ikp40","pricing_plan_id":"cebpf4jnsgd1na2vs0mg"},{"bike_id":"a775511c-9985-4a58-8c4c-775aad7f3e36","system_id":"levelo_inurba_marseille","lat":43.29899,"lon":5.43664,"is_reserved":false,"is_disabled":false,"rental_uris":{"android":"levelo://app?vid=a775511c-9985-4a58-8c4c-775aad7f3e36","ios":"levelo://app?vid=a775511c-9985-4a58-8c4c-775aad7f3e36"},"vehicle_type_id":"4","last_reported":1774005764,"current_range_meters":8000,"station_id":"ce4bhpp2rcd13ifvqhfg","pricing_plan_id":"cebpf4jnsgd1na2vs0mg"},{"bike_id":"2d9e4754-9b17-40b5-bbeb-5b1c9c5bbe64","system_id":"levelo_inurba_marseille","lat":43.30127,"lon":5.38781,"is_reserved":false,"is_disabled":true,"rental_uris":{"android":"levelo://app?vid=2d9e4754-9b17-40b5-bbeb-5b1c9c5bbe64","ios":"levelo://app?vid=2d9e4754-9b17-40b5-bbeb-5b1c9c5bbe64"},"vehicle_type_id":"4","last_reported":1774005764,"current_range_meters":8000,"station_id":"ce4bghh2rcd13ifvqb60","pricing_plan_id":"cebpf4jnsgd1na2vs0mg"},{"bike_id":"c104b7cc-99ef-4c85-9c4c-0cd89d68f0a0","system_id":"levelo_inurba_marseille","lat":43.28404,"lon":5.37522,"is_reserved":false,"is_disabled":false,"rental_uris":{"android":"levelo://app?vid=c104b7cc-99ef-4c85-9c4c-0cd89d68f0a0","ios":"levelo://app?vid=c104b7cc-99ef-4c85-9c4c-0cd89d68f0a0"},"vehicle_type_id":"4","last_reported":1774005764,"current_range_meters":8000,"station_id":"ce4bh412rcd13ifvqds0","pricing_plan_id":"cebpf4jnsgd1na2vs0mg"},{"bike_id":"e5eba928-e3a4-441b-9540-937747ee47b9","system_id":"levelo_inurba_marseille","lat":43.22563,"lon":5.41622,"is_reserved":false,"is_disabled":false,"rental_uris":{"android":"levelo://app?vid=e5eba928-e3a4-441b-9540-937747ee47b9","ios":"levelo://app?vid=e5eba928-e3a4-441b-9540-937747ee47b9"},"vehicle_type_id":"4","last_reported":1774005764,"current_range_meters":8000,"station_id":"st_d2o4gvlbi1j2169b742g","pricing_plan_id":"cebpf4jnsgd1na2vs0mg"},{"bike_id":"646c7015-5400-49b6-9ecb-1fc782efa767","system_id":"levelo_inurba_marseille","lat":43.21747,"lon":5.34615,"is_reserved":false,"is_disabled":false,"rental_uris":{"android":"levelo://app?vid=646c7015-5400-49b6-9ecb-1fc782efa767","ios":"levelo://app?vid=646c7015-5400-49b6-9ecb-1fc782efa767"},"vehicle_type_id":"4","last_reported":1774005764,"current_range_meters":8000,"station_id":"st_cvj6r9ubvosntc0bgbag","pricing_plan_id":"cebpf4jnsgd1na2vs0mg"},{"bike_id":"5d76d7be-3aca-461e-84ed-7cc20b2099bf","system_id":"levelo_inurba_marseille","lat":43.24832,"lon":5.3744,"is_reserved":false,"is_disabled":false,"rental_uris":{"android":"levelo://app?vid=5d76d7be-3aca-461e-84ed-7cc20b2099bf","ios":"levelo://app?vid=5d76d7be-3aca-461e-84ed-7cc20b2099bf"},"vehicle_type_id":"4","last_reported":1774005764,"current_range_meters":8000,"station_id":"ce4bhgh2rcd13ifvqfb0","pricing_plan_id":"cebpf4jnsgd1na2vs0mg"},{"bike_id":"82da6c3a-fe16-4711-9731-a3c69841de7a","system_id":"levelo_inurba_marseille","lat":43.29007,"lon":5.3561,"is_reserved":false,"is_disabled":false,"rental_uris":{"android":"levelo://app?vid=82da6c3a-fe16-4711-9731-a3c69841de7a","ios":"levelo://app?vid=82da6c3a-fe16-4711-9731-a3c69841de7a"},"vehicle_type_id":"4","last_reported":1774005764,"current_range_meters":8000,"station_id":"ce4bhb92rcd13ifvqen0","pricing_plan_id":"cebpf4jnsgd1na2vs0mg"},{"bike_id":"e8488505-b4b3-48f5-9614-4f024e6c764b","system_id":"levelo_inurba_marseille","lat":43.29554,"lon":5.42278,"is_reserved":false,"is_disabled":false,"rental_uris":{"android":"levelo://app?vid=e8488505-b4b3-48f5-9614-4f024e6c764b","ios":"levelo://app?vid=e8488505-b4b3-48f5-9614-4f024e6c764b"},"vehicle_type_id":"4","last_reported":1774005764,"current_range_meters":8000,"station_id":"ce4bhph2rcd13ifvqhdg","pricing_plan_id":"cebpf4jnsgd1na2vs0mg"},{"bike_id":"53f48266-4564-420b-96ab-d243233055dc","system_id":"levelo_inurba_marseille","lat":43.28474,"lon":5.48396,"is_reserved":false,"is_disabled":false,"rental_uris":{"android":"levelo://app?vid=53f48266-4564-420b-96ab-d243233055dc","ios":"levelo://app?vid=53f48266-4564-420b-96ab-d243233055dc"},"vehicle_type_id":"4","last_reported":1774005764,"current_range_meters":8400,"station_id":"","pricing_plan_id":"cebpf4jnsgd1na2vs0mg"},{"bike_id":"98fd4811-f5fe-471b-acec-fa220e91fa77","system_id":"levelo_inurba_marseille","lat":43.3031,"lon":5.36897,"is_reserved":false,"is_disabled":false,"rental_uris":{"android":"levelo://app?vid=98fd4811-f5fe-471b-acec-fa220e91fa77","ios":"levelo://app?vid=98fd4811-f5fe-471b-acec-fa220e91fa77"},"vehicle_type_id":"4","last_reported":1774005764,"current_range_meters":8400,"station_id":"ce4bgqh2rcd13ifvqc5g","pricing_plan_id":"cebpf4jnsgd1na2vs0mg"},{"bike_id":"5c37a49c-ab60-4c11-8a61-6592ff444186","system_id":"levelo_inurba_marseille","lat":43.27908,"lon":5.39175,"is_reserved":false,"is_disabled":false,"rental_uris":{"android":"levelo://app?vid=5c37a49c-ab60-4c11-8a61-6592ff444186","ios":"levelo://app?vid=5c37a49c-ab60-4c11-8a61-6592ff444186"},"vehicle_type_id":"4","last_reported":1774005764,"current_range_meters":8400,"station_id":"","pricing_plan_id":"cebpf4jnsgd1na2vs0mg"},{"bike_id":"ac94a75f-91df-4818-a357-956d25b78ee0","system_id":"levelo_inurba_marseille","lat":43.30436,"lon":5.40946,"is_reserved":false,"is_disabled":false,"rental_uris":{"android":"levelo://app?vid=ac94a75f-91df-4818-a357-956d25b78ee0","ios":"levelo://app?vid=ac94a75f-91df-4818-a357-956d25b78ee0"},"vehicle_type_id":"4","last_reported":1774005764,"current_range_meters":8400,"station_id":"","pricing_plan_id":"cebpf4jnsgd1na2vs0mg"},{"bike_id":"1e9cfcf9-7262-454f-b6f3-4059ad37dfe5","system_id":"levelo_inurba_marseille","lat":43.266786,"lon":5.392427,"is_reserved":false,"is_disabled":false,"rental_uris":{"android":"levelo://app?vid=1e9cfcf9-7262-454f-b6f3-4059ad37dfe5","ios":"levelo://app?vid=1e9cfcf9-7262-454f-b6f3-4059ad37dfe5"},"vehicle_type_id":"4","last_reported":1774005764,"current_range_meters":8400,"station_id":"ce4bhh12rcd13ifvqfg0","pricing_plan_id":"cebpf4jnsgd1na2vs0mg"},{"bike_id":"91aa598b-3fb8-4341-b0c3-0da042590735","system_id":"levelo_inurba_marseille","lat":43.28532,"lon":5.44102,"is_reserved":false,"is_disabled":false,"rental_uris":{"android":"levelo://app?vid=91aa598b-3fb8-4341-b0c3-0da042590735","ios":"levelo://app?vid=91aa598b-3fb8-4341-b0c3-0da042590735"},"vehicle_type_id":"4","last_reported":1774005764,"current_range_meters":8400,"station_id":"st_d3j3df2ikq2c7380ej80","pricing_plan_id":"cebpf4jnsgd1na2vs0mg"},{"bike_id":"21588457-c3a6-4b76-bff5-54611492464f","system_id":"levelo_inurba_marseille","lat":43.28258,"lon":5.35068,"is_reserved":false,"is_disabled":false,"rental_uris":{"android":"levelo://app?vid=21588457-c3a6-4b76-bff5-54611492464f","ios":"levelo://app?vid=21588457-c3a6-4b76-bff5-54611492464f"},"vehicle_type_id":"4","last_reported":1774005764,"current_range_meters":8400,"station_id":"ce4bhbp2rcd13ifvqerg","pricing_plan_id":"cebpf4jnsgd1na2vs0mg"},{"bike_id":"89ad46cf-ad84-4e5e-be57-87ac2cebe69c","system_id":"levelo_inurba_marseille","lat":43.28494,"lon":5.48391,"is_reserved":false,"is_disabled":false,"rental_uris":{"android":"levelo://app?vid=89ad46cf-ad84-4e5e-be57-87ac2cebe69c","ios":"levelo://app?vid=89ad46cf-ad84-4e5e-be57-87ac2cebe69c"},"vehicle_type_id":"4","last_reported":1774005764,"current_range_meters":8400,"station_id":"st_d3svhcjqgbts73a3dn0g","pricing_plan_id":"cebpf4jnsgd1na2vs0mg"},{"bike_id":"b93e7583-9af5-4fc7-b321-9136ef9ec2c1","system_id":"levelo_inurba_marseille","lat":43.28938,"lon":5.39626,"is_reserved":false,"is_disabled":false,"rental_uris":{"android":"levelo://app?vid=b93e7583-9af5-4fc7-b321-9136ef9ec2c1","ios":"levelo://app?vid=b93e7583-9af5-4fc7-b321-9136ef9ec2c1"},"vehicle_type_id":"4","last_reported":1774005764,"current_range_meters":8400,"station_id":"ce4bh3h2rcd13ifvqdn0","pricing_plan_id":"cebpf4jnsgd1na2vs0mg"},{"bike_id":"9e2308d9-37dd-470c-aa56-a0dd7a027efb","system_id":"levelo_inurba_marseille","lat":43.29534,"lon":5.37488,"is_reserved":false,"is_disabled":true,"rental_uris":{"android":"levelo://app?vid=9e2308d9-37dd-470c-aa56-a0dd7a027efb","ios":"levelo://app?vid=9e2308d9-37dd-470c-aa56-a0dd7a027efb"},"vehicle_type_id":"4","last_reported":1774005764,"current_range_meters":8400,"station_id":"ce4bgkp2rcd13ifvqbmg","pricing_plan_id":"cebpf4jnsgd1na2vs0mg"},{"bike_id":"59d2267f-7247-4a75-b01c-e6739320c121","system_id":"levelo_inurba_marseille","lat":43.28962,"lon":5.37827,"is_reserved":false,"is_disabled":true,"rental_uris":{"android":"levelo://app?vid=59d2267f-7247-4a75-b01c-e6739320c121","ios":"levelo://app?vid=59d2267f-7247-4a75-b01c-e6739320c121"},"vehicle_type_id":"4","last_reported":1774005764,"current_range_meters":8400,"station_id":"ce4bh9p2rcd13ifvqed0","pricing_plan_id":"cebpf4jnsgd1na2vs0mg"},{"bike_id":"0f77ab19-02c3-4b4a-be9a-c8801aa3d4b5","system_id":"levelo_inurba_marseille","lat":43.33156,"lon":5.37689,"is_reserved":false,"is_disabled":false,"rental_uris":{"android":"levelo://app?vid=0f77ab19-02c3-4b4a-be9a-c8801aa3d4b5","ios":"levelo://app?vid=0f77ab19-02c3-4b4a-be9a-c8801aa3d4b5"},"vehicle_type_id":"4","last_reported":1774005764,"current_range_meters":8400,"station_id":"st_d46cu089ee8s73dldbu0","pricing_plan_id":"cebpf4jnsgd1na2vs0mg"},{"bike_id":"524d4f4d-9481-4c69-a364-dc591d52f94a","system_id":"levelo_inurba_marseille","lat":43.30959,"lon":5.3902,"is_reserved":false,"is_disabled":false,"rental_uris":{"android":"levelo://app?vid=524d4f4d-9481-4c69-a364-dc591d52f94a","ios":"levelo://app?vid=524d4f4d-9481-4c69-a364-dc591d52f94a"},"vehicle_type_id":"4","last_reported":1774005764,"current_range_meters":8400,"station_id":"ce4bgup2rcd13ifvqco0","pricing_plan_id":"cebpf4jnsgd1na2vs0mg"},{"bike_id":"92efc26c-f135-442a-bbe4-74d33ca9979a","system_id":"levelo_inurba_marseille","lat":43.30807,"lon":5.37631,"is_reserved":false,"is_disabled":false,"rental_uris":{"android":"levelo://app?vid=92efc26c-f135-442a-bbe4-74d33ca9979a","ios":"levelo://app?vid=92efc26c-f135-442a-bbe4-74d33ca9979a"},"vehicle_type_id":"4","last_reported":1774005764,"current_range_meters":8400,"station_id":"ce4bgv92rcd13ifvqcq0","pricing_plan_id":"cebpf4jnsgd1na2vs0mg"},{"bike_id":"a545c754-e350-45a1-864b-ec76871d3bf7","system_id":"levelo_inurba_marseille","lat":43.21753,"lon":5.34604,"is_reserved":false,"is_disabled":false,"rental_uris":{"android":"levelo://app?vid=a545c754-e350-45a1-864b-ec76871d3bf7","ios":"levelo://app?vid=a545c754-e350-45a1-864b-ec76871d3bf7"},"vehicle_type_id":"4","last_reported":1774005764,"current_range_meters":8400,"station_id":"","pricing_plan_id":"cebpf4jnsgd1na2vs0mg"},{"bike_id":"912e5f30-2e0b-48a9-85db-a984611241c9","system_id":"levelo_inurba_marseille","lat":43.29809,"lon":5.44094,"is_reserved":false,"is_disabled":false,"rental_uris":{"android":"levelo://app?vid=912e5f30-2e0b-48a9-85db-a984611241c9","ios":"levelo://app?vid=912e5f30-2e0b-48a9-85db-a984611241c9"},"vehicle_type_id":"4","last_reported":1774005764,"current_range_meters":8800,"station_id":"st_d3jp68qikq2c7381ktn0","pricing_plan_id":"cebpf4jnsgd1na2vs0mg"},{"bike_id":"9ec1942c-b173-4801-9f27-3e6493805e2b","system_id":"levelo_inurba_marseille","lat":43.2463,"lon":5.38888,"is_reserved":false,"is_disabled":false,"rental_uris":{"android":"levelo://app?vid=9ec1942c-b173-4801-9f27-3e6493805e2b","ios":"levelo://app?vid=9ec1942c-b173-4801-9f27-3e6493805e2b"},"vehicle_type_id":"4","last_reported":1774005764,"current_range_meters":8800,"station_id":"ce4bhg12rcd13ifvqf60","pricing_plan_id":"cebpf4jnsgd1na2vs0mg"},{"bike_id":"4a0e609e-6c21-48e8-8aeb-8e3d0c22ce4c","system_id":"levelo_inurba_marseille","lat":43.26554,"lon":5.37268,"is_reserved":false,"is_disabled":false,"rental_uris":{"android":"levelo://app?vid=4a0e609e-6c21-48e8-8aeb-8e3d0c22ce4c","ios":"levelo://app?vid=4a0e609e-6c21-48e8-8aeb-8e3d0c22ce4c"},"vehicle_type_id":"4","last_reported":1774005764,"current_range_meters":8800,"station_id":"ce4bhg12rcd13ifvqf70","pricing_plan_id":"cebpf4jnsgd1na2vs0mg"},{"bike_id":"8648ff3d-a49d-4491-be6c-bab3f9812603","system_id":"levelo_inurba_marseille","lat":43.28295,"lon":5.43813,"is_reserved":false,"is_disabled":false,"rental_uris":{"android":"levelo://app?vid=8648ff3d-a49d-4491-be6c-bab3f9812603","ios":"levelo://app?vid=8648ff3d-a49d-4491-be6c-bab3f9812603"},"vehicle_type_id":"4","last_reported":1774005764,"current_range_meters":8800,"station_id":"","pricing_plan_id":"cebpf4jnsgd1na2vs0mg"},{"bike_id":"1b491845-a098-414f-bdf6-ed8b8d983f9f","system_id":"levelo_inurba_marseille","lat":43.272,"lon":5.39175,"is_reserved":false,"is_disabled":false,"rental_uris":{"android":"levelo://app?vid=1b491845-a098-414f-bdf6-ed8b8d983f9f","ios":"levelo://app?vid=1b491845-a098-414f-bdf6-ed8b8d983f9f"},"vehicle_type_id":"4","last_reported":1774005764,"current_range_meters":8800,"station_id":"ce4bhhp2rcd13ifvqfm0","pricing_plan_id":"cebpf4jnsgd1na2vs0mg"},{"bike_id":"f732920d-0fa2-4824-88aa-f9ec92b93826","system_id":"levelo_inurba_marseille","lat":43.29042,"lon":5.39967,"is_reserved":false,"is_disabled":false,"rental_uris":{"android":"levelo://app?vid=f732920d-0fa2-4824-88aa-f9ec92b93826","ios":"levelo://app?vid=f732920d-0fa2-4824-88aa-f9ec92b93826"},"vehicle_type_id":"4","last_reported":1774005764,"current_range_meters":8800,"station_id":"ce4bh392rcd13ifvqdm0","pricing_plan_id":"cebpf4jnsgd1na2vs0mg"},{"bike_id":"962e3e51-db50-4f61-a079-9b1c6a103eb5","system_id":"levelo_inurba_marseille","lat":43.30963,"lon":5.36814,"is_reserved":false,"is_disabled":false,"rental_uris":{"android":"levelo://app?vid=962e3e51-db50-4f61-a079-9b1c6a103eb5","ios":"levelo://app?vid=962e3e51-db50-4f61-a079-9b1c6a103eb5"},"vehicle_type_id":"4","last_reported":1774005764,"current_range_meters":8800,"station_id":"","pricing_plan_id":"cebpf4jnsgd1na2vs0mg"},{"bike_id":"7fa64d84-cd92-4f02-a79d-c348b129b15f","system_id":"levelo_inurba_marseille","lat":43.24178,"lon":5.36384,"is_reserved":false,"is_disabled":false,"rental_uris":{"android":"levelo://app?vid=7fa64d84-cd92-4f02-a79d-c348b129b15f","ios":"levelo://app?vid=7fa64d84-cd92-4f02-a79d-c348b129b15f"},"vehicle_type_id":"4","last_reported":1774005764,"current_range_meters":8800,"station_id":"cpo36qri1sfpv3e86is0","pricing_plan_id":"cebpf4jnsgd1na2vs0mg"},{"bike_id":"cf644b4a-b00b-4198-9a69-695c69bc416b","system_id":"levelo_inurba_marseille","lat":43.23056,"lon":5.35504,"is_reserved":false,"is_disabled":false,"rental_uris":{"android":"levelo://app?vid=cf644b4a-b00b-4198-9a69-695c69bc416b","ios":"levelo://app?vid=cf644b4a-b00b-4198-9a69-695c69bc416b"},"vehicle_type_id":"4","last_reported":1774005764,"current_range_meters":8800,"station_id":"cpo3342slgdg3j2ifvpg","pricing_plan_id":"cebpf4jnsgd1na2vs0mg"},{"bike_id":"586940fc-d90e-49ac-8459-e88b2c09a0a7","system_id":"levelo_inurba_marseille","lat":43.29717,"lon":5.37692,"is_reserved":false,"is_disabled":false,"rental_uris":{"android":"levelo://app?vid=586940fc-d90e-49ac-8459-e88b2c09a0a7","ios":"levelo://app?vid=586940fc-d90e-49ac-8459-e88b2c09a0a7"},"vehicle_type_id":"4","last_reported":1774005764,"current_range_meters":8800,"station_id":"ce4bgkh2rcd13ifvqbl0","pricing_plan_id":"cebpf4jnsgd1na2vs0mg"},{"bike_id":"3add597e-de9e-4a27-8917-1bea49de3ab3","system_id":"levelo_inurba_marseille","lat":43.26018,"lon":5.41739,"is_reserved":false,"is_disabled":false,"rental_uris":{"android":"levelo://app?vid=3add597e-de9e-4a27-8917-1bea49de3ab3","ios":"levelo://app?vid=3add597e-de9e-4a27-8917-1bea49de3ab3"},"vehicle_type_id":"4","last_reported":1774005764,"current_range_meters":8800,"station_id":"","pricing_plan_id":"cebpf4jnsgd1na2vs0mg"},{"bike_id":"6bb0c2e5-1335-4421-9659-20ed1931b21c","system_id":"levelo_inurba_marseille","lat":43.231943,"lon":5.400059,"is_reserved":false,"is_disabled":false,"rental_uris":{"android":"levelo://app?vid=6bb0c2e5-1335-4421-9659-20ed1931b21c","ios":"levelo://app?vid=6bb0c2e5-1335-4421-9659-20ed1931b21c"},"vehicle_type_id":"4","last_reported":1774005764,"current_range_meters":9200,"station_id":"ce4bhn12rcd13ifvqgqg","pricing_plan_id":"cebpf4jnsgd1na2vs0mg"},{"bike_id":"d98676a3-493e-49af-8b89-e7d7e5b495a4","system_id":"levelo_inurba_marseille","lat":43.3055,"lon":5.36691,"is_reserved":false,"is_disabled":false,"rental_uris":{"android":"levelo://app?vid=d98676a3-493e-49af-8b89-e7d7e5b495a4","ios":"levelo://app?vid=d98676a3-493e-49af-8b89-e7d7e5b495a4"},"vehicle_type_id":"4","last_reported":1774005764,"current_range_meters":9200,"station_id":"ce4bgrp2rcd13ifvqc9g","pricing_plan_id":"cebpf4jnsgd1na2vs0mg"},{"bike_id":"b63e28c4-e4db-4a92-a9ce-06fc27566f70","system_id":"levelo_inurba_marseille","lat":43.254928,"lon":5.376482,"is_reserved":false,"is_disabled":true,"rental_uris":{"android":"levelo://app?vid=b63e28c4-e4db-4a92-a9ce-06fc27566f70","ios":"levelo://app?vid=b63e28c4-e4db-4a92-a9ce-06fc27566f70"},"vehicle_type_id":"4","last_reported":1774005764,"current_range_meters":9200,"station_id":"ce4bhh12rcd13ifvqff0","pricing_plan_id":"cebpf4jnsgd1na2vs0mg"},{"bike_id":"e2420c11-4646-4145-aa2e-baedb91a43dc","system_id":"levelo_inurba_marseille","lat":43.32446,"lon":5.36757,"is_reserved":false,"is_disabled":false,"rental_uris":{"android":"levelo://app?vid=e2420c11-4646-4145-aa2e-baedb91a43dc","ios":"levelo://app?vid=e2420c11-4646-4145-aa2e-baedb91a43dc"},"vehicle_type_id":"4","last_reported":1774005764,"current_range_meters":9200,"station_id":"","pricing_plan_id":"cebpf4jnsgd1na2vs0mg"},{"bike_id":"d00ce6b1-d263-4644-9ac8-801c3d34ac19","system_id":"levelo_inurba_marseille","lat":43.22581,"lon":5.4162,"is_reserved":false,"is_disabled":false,"rental_uris":{"android":"levelo://app?vid=d00ce6b1-d263-4644-9ac8-801c3d34ac19","ios":"levelo://app?vid=d00ce6b1-d263-4644-9ac8-801c3d34ac19"},"vehicle_type_id":"4","last_reported":1774005764,"current_range_meters":9200,"station_id":"st_d2o4gvlbi1j2169b742g","pricing_plan_id":"cebpf4jnsgd1na2vs0mg"},{"bike_id":"a8c8307b-e1e9-4950-a785-578e1a82f805","system_id":"levelo_inurba_marseille","lat":43.31274,"lon":5.37785,"is_reserved":false,"is_disabled":false,"rental_uris":{"android":"levelo://app?vid=a8c8307b-e1e9-4950-a785-578e1a82f805","ios":"levelo://app?vid=a8c8307b-e1e9-4950-a785-578e1a82f805"},"vehicle_type_id":"4","last_reported":1774005764,"current_range_meters":9200,"station_id":"","pricing_plan_id":"cebpf4jnsgd1na2vs0mg"},{"bike_id":"7f166c91-9eb1-4dc8-a940-85d8139ad9d9","system_id":"levelo_inurba_marseille","lat":43.23951,"lon":5.36635,"is_reserved":false,"is_disabled":false,"rental_uris":{"android":"levelo://app?vid=7f166c91-9eb1-4dc8-a940-85d8139ad9d9","ios":"levelo://app?vid=7f166c91-9eb1-4dc8-a940-85d8139ad9d9"},"vehicle_type_id":"4","last_reported":1774005764,"current_range_meters":9200,"station_id":"ce4bhi12rcd13ifvqfp0","pricing_plan_id":"cebpf4jnsgd1na2vs0mg"},{"bike_id":"d83d86a0-48a4-442a-9465-a11cff966d5c","system_id":"levelo_inurba_marseille","lat":43.30476,"lon":5.37887,"is_reserved":false,"is_disabled":false,"rental_uris":{"android":"levelo://app?vid=d83d86a0-48a4-442a-9465-a11cff966d5c","ios":"levelo://app?vid=d83d86a0-48a4-442a-9465-a11cff966d5c"},"vehicle_type_id":"4","last_reported":1774005764,"current_range_meters":9200,"station_id":"","pricing_plan_id":"cebpf4jnsgd1na2vs0mg"},{"bike_id":"2b86208f-8086-4e01-8e6f-3bdaebe5cd81","system_id":"levelo_inurba_marseille","lat":43.3095,"lon":5.39039,"is_reserved":false,"is_disabled":false,"rental_uris":{"android":"levelo://app?vid=2b86208f-8086-4e01-8e6f-3bdaebe5cd81","ios":"levelo://app?vid=2b86208f-8086-4e01-8e6f-3bdaebe5cd81"},"vehicle_type_id":"4","last_reported":1774005764,"current_range_meters":9200,"station_id":"ce4bgup2rcd13ifvqco0","pricing_plan_id":"cebpf4jnsgd1na2vs0mg"},{"bike_id":"1919d8af-2c65-4a98-82dc-f67d83dfecc8","system_id":"levelo_inurba_marseille","lat":43.23161,"lon":5.43703,"is_reserved":false,"is_disabled":false,"rental_uris":{"android":"levelo://app?vid=1919d8af-2c65-4a98-82dc-f67d83dfecc8","ios":"levelo://app?vid=1919d8af-2c65-4a98-82dc-f67d83dfecc8"},"vehicle_type_id":"4","last_reported":1774005764,"current_range_meters":9200,"station_id":"ce4bhmp2rcd13ifvqgog","pricing_plan_id":"cebpf4jnsgd1na2vs0mg"},{"bike_id":"e05d1ed7-bbc1-4b39-bce6-dc34bf6cb512","system_id":"levelo_inurba_marseille","lat":43.24081,"lon":5.37749,"is_reserved":false,"is_disabled":false,"rental_uris":{"android":"levelo://app?vid=e05d1ed7-bbc1-4b39-bce6-dc34bf6cb512","ios":"levelo://app?vid=e05d1ed7-bbc1-4b39-bce6-dc34bf6cb512"},"vehicle_type_id":"4","last_reported":1774005764,"current_range_meters":9200,"station_id":"ce4bhnp2rcd13ifvqgvg","pricing_plan_id":"cebpf4jnsgd1na2vs0mg"},{"bike_id":"ee244123-5f0e-4086-b901-74a02a68967d","system_id":"levelo_inurba_marseille","lat":43.24387,"lon":5.37052,"is_reserved":false,"is_disabled":false,"rental_uris":{"android":"levelo://app?vid=ee244123-5f0e-4086-b901-74a02a68967d","ios":"levelo://app?vid=ee244123-5f0e-4086-b901-74a02a68967d"},"vehicle_type_id":"4","last_reported":1774005764,"current_range_meters":9200,"station_id":"ce4bhhh2rcd13ifvqfk0","pricing_plan_id":"cebpf4jnsgd1na2vs0mg"},{"bike_id":"164ef4bd-d279-4e43-b18f-276ca93b0ec8","system_id":"levelo_inurba_marseille","lat":43.26677,"lon":5.38272,"is_reserved":false,"is_disabled":false,"rental_uris":{"android":"levelo://app?vid=164ef4bd-d279-4e43-b18f-276ca93b0ec8","ios":"levelo://app?vid=164ef4bd-d279-4e43-b18f-276ca93b0ec8"},"vehicle_type_id":"4","last_reported":1774005764,"current_range_meters":9200,"station_id":"ce4bhg92rcd13ifvqf90","pricing_plan_id":"cebpf4jnsgd1na2vs0mg"},{"bike_id":"852f518b-c53f-4169-93fa-c62e8e358f9f","system_id":"levelo_inurba_marseille","lat":43.29288,"lon":5.36817,"is_reserved":false,"is_disabled":false,"rental_uris":{"android":"levelo://app?vid=852f518b-c53f-4169-93fa-c62e8e358f9f","ios":"levelo://app?vid=852f518b-c53f-4169-93fa-c62e8e358f9f"},"vehicle_type_id":"4","last_reported":1774005764,"current_range_meters":9200,"station_id":"ce4bhbp2rcd13ifvqesg","pricing_plan_id":"cebpf4jnsgd1na2vs0mg"},{"bike_id":"b2977745-9e0a-4791-8acd-53d3c0cda19a","system_id":"levelo_inurba_marseille","lat":43.30187,"lon":5.36625,"is_reserved":false,"is_disabled":false,"rental_uris":{"android":"levelo://app?vid=b2977745-9e0a-4791-8acd-53d3c0cda19a","ios":"levelo://app?vid=b2977745-9e0a-4791-8acd-53d3c0cda19a"},"vehicle_type_id":"4","last_reported":1774005764,"current_range_meters":9600,"station_id":"ce4bgrh2rcd13ifvqc8g","pricing_plan_id":"cebpf4jnsgd1na2vs0mg"},{"bike_id":"15c3e7ad-f871-4796-b17d-a8e4059ab7b4","system_id":"levelo_inurba_marseille","lat":43.28486,"lon":5.38545,"is_reserved":false,"is_disabled":false,"rental_uris":{"android":"levelo://app?vid=15c3e7ad-f871-4796-b17d-a8e4059ab7b4","ios":"levelo://app?vid=15c3e7ad-f871-4796-b17d-a8e4059ab7b4"},"vehicle_type_id":"4","last_reported":1774005764,"current_range_meters":9600,"station_id":"ce4bh8p2rcd13ifvqeb0","pricing_plan_id":"cebpf4jnsgd1na2vs0mg"},{"bike_id":"31f54568-ee2a-4e1a-8776-1ff926e2109d","system_id":"levelo_inurba_marseille","lat":43.2595,"lon":5.40855,"is_reserved":false,"is_disabled":false,"rental_uris":{"android":"levelo://app?vid=31f54568-ee2a-4e1a-8776-1ff926e2109d","ios":"levelo://app?vid=31f54568-ee2a-4e1a-8776-1ff926e2109d"},"vehicle_type_id":"4","last_reported":1774005764,"current_range_meters":9600,"station_id":"ce4bhm92rcd13ifvqglg","pricing_plan_id":"cebpf4jnsgd1na2vs0mg"},{"bike_id":"d4c6f501-fff5-4202-ab66-c28212c8a314","system_id":"levelo_inurba_marseille","lat":43.23191,"lon":5.3997,"is_reserved":false,"is_disabled":false,"rental_uris":{"android":"levelo://app?vid=d4c6f501-fff5-4202-ab66-c28212c8a314","ios":"levelo://app?vid=d4c6f501-fff5-4202-ab66-c28212c8a314"},"vehicle_type_id":"4","last_reported":1774005764,"current_range_meters":9600,"station_id":"ce4bhn12rcd13ifvqgqg","pricing_plan_id":"cebpf4jnsgd1na2vs0mg"},{"bike_id":"92f32112-8a58-4a2d-8380-c50aa46da344","system_id":"levelo_inurba_marseille","lat":43.24078,"lon":5.36387,"is_reserved":false,"is_disabled":false,"rental_uris":{"android":"levelo://app?vid=92f32112-8a58-4a2d-8380-c50aa46da344","ios":"levelo://app?vid=92f32112-8a58-4a2d-8380-c50aa46da344"},"vehicle_type_id":"4","last_reported":1774005764,"current_range_meters":9600,"station_id":"","pricing_plan_id":"cebpf4jnsgd1na2vs0mg"},{"bike_id":"1ada5283-9afe-4610-93e7-df507e72c73e","system_id":"levelo_inurba_marseille","lat":43.27227,"lon":5.39166,"is_reserved":false,"is_disabled":false,"rental_uris":{"android":"levelo://app?vid=1ada5283-9afe-4610-93e7-df507e72c73e","ios":"levelo://app?vid=1ada5283-9afe-4610-93e7-df507e72c73e"},"vehicle_type_id":"4","last_reported":1774005764,"current_range_meters":9600,"station_id":"ce4bhhp2rcd13ifvqfm0","pricing_plan_id":"cebpf4jnsgd1na2vs0mg"},{"bike_id":"47786148-3158-4346-a285-e47a9280a644","system_id":"levelo_inurba_marseille","lat":43.26541,"lon":5.39024,"is_reserved":false,"is_disabled":false,"rental_uris":{"android":"levelo://app?vid=47786148-3158-4346-a285-e47a9280a644","ios":"levelo://app?vid=47786148-3158-4346-a285-e47a9280a644"},"vehicle_type_id":"4","last_reported":1774005764,"current_range_meters":9600,"station_id":"ce4bhe12rcd13ifvqf30","pricing_plan_id":"cebpf4jnsgd1na2vs0mg"},{"bike_id":"f3414e99-2d7c-4b03-96db-df8c1c6d3f2b","system_id":"levelo_inurba_marseille","lat":43.28478,"lon":5.48374,"is_reserved":false,"is_disabled":false,"rental_uris":{"android":"levelo://app?vid=f3414e99-2d7c-4b03-96db-df8c1c6d3f2b","ios":"levelo://app?vid=f3414e99-2d7c-4b03-96db-df8c1c6d3f2b"},"vehicle_type_id":"4","last_reported":1774005764,"current_range_meters":9600,"station_id":"","pricing_plan_id":"cebpf4jnsgd1na2vs0mg"},{"bike_id":"bfa999de-7a32-454a-b31e-f99ace51a3fc","system_id":"levelo_inurba_marseille","lat":43.28484,"lon":5.48383,"is_reserved":false,"is_disabled":false,"rental_uris":{"android":"levelo://app?vid=bfa999de-7a32-454a-b31e-f99ace51a3fc","ios":"levelo://app?vid=bfa999de-7a32-454a-b31e-f99ace51a3fc"},"vehicle_type_id":"4","last_reported":1774005764,"current_range_meters":9600,"station_id":"","pricing_plan_id":"cebpf4jnsgd1na2vs0mg"},{"bike_id":"b3b3bb0b-fb2d-4490-a557-6f80b344e03f","system_id":"levelo_inurba_marseille","lat":43.2894,"lon":5.3963,"is_reserved":false,"is_disabled":true,"rental_uris":{"android":"levelo://app?vid=b3b3bb0b-fb2d-4490-a557-6f80b344e03f","ios":"levelo://app?vid=b3b3bb0b-fb2d-4490-a557-6f80b344e03f"},"vehicle_type_id":"4","last_reported":1774005764,"current_range_meters":9600,"station_id":"ce4bh3h2rcd13ifvqdn0","pricing_plan_id":"cebpf4jnsgd1na2vs0mg"},{"bike_id":"1a36a430-70b6-4a0e-8b98-64863c8c8d02","system_id":"levelo_inurba_marseille","lat":43.28932,"lon":5.36632,"is_reserved":false,"is_disabled":true,"rental_uris":{"android":"levelo://app?vid=1a36a430-70b6-4a0e-8b98-64863c8c8d02","ios":"levelo://app?vid=1a36a430-70b6-4a0e-8b98-64863c8c8d02"},"vehicle_type_id":"4","last_reported":1774005764,"current_range_meters":9600,"station_id":"ce4bhap2rcd13ifvqek0","pricing_plan_id":"cebpf4jnsgd1na2vs0mg"},{"bike_id":"e0cac70a-102e-45a3-a5cc-d5ba79673d38","system_id":"levelo_inurba_marseille","lat":43.28147,"lon":5.42641,"is_reserved":false,"is_disabled":false,"rental_uris":{"android":"levelo://app?vid=e0cac70a-102e-45a3-a5cc-d5ba79673d38","ios":"levelo://app?vid=e0cac70a-102e-45a3-a5cc-d5ba79673d38"},"vehicle_type_id":"4","last_reported":1774005764,"current_range_meters":9600,"station_id":"ce4bhnh2rcd13ifvqgug","pricing_plan_id":"cebpf4jnsgd1na2vs0mg"},{"bike_id":"6876c581-c603-43f4-83ab-6218e72452fc","system_id":"levelo_inurba_marseille","lat":43.25114,"lon":5.4032,"is_reserved":false,"is_disabled":false,"rental_uris":{"android":"levelo://app?vid=6876c581-c603-43f4-83ab-6218e72452fc","ios":"levelo://app?vid=6876c581-c603-43f4-83ab-6218e72452fc"},"vehicle_type_id":"4","last_reported":1774005764,"current_range_meters":9600,"station_id":"ce4bhlh2rcd13ifvqgig","pricing_plan_id":"cebpf4jnsgd1na2vs0mg"},{"bike_id":"9b46b4f7-ba0c-4b16-bd8b-979350ed6fc7","system_id":"levelo_inurba_marseille","lat":43.28939,"lon":5.38409,"is_reserved":false,"is_disabled":false,"rental_uris":{"android":"levelo://app?vid=9b46b4f7-ba0c-4b16-bd8b-979350ed6fc7","ios":"levelo://app?vid=9b46b4f7-ba0c-4b16-bd8b-979350ed6fc7"},"vehicle_type_id":"4","last_reported":1774005764,"current_range_meters":9600,"station_id":"ce4bh612rcd13ifvqe6g","pricing_plan_id":"cebpf4jnsgd1na2vs0mg"},{"bike_id":"abce8bf2-55ad-4073-96c9-021689cbe091","system_id":"levelo_inurba_marseille","lat":43.2315,"lon":5.4371,"is_reserved":false,"is_disabled":false,"rental_uris":{"android":"levelo://app?vid=abce8bf2-55ad-4073-96c9-021689cbe091","ios":"levelo://app?vid=abce8bf2-55ad-4073-96c9-021689cbe091"},"vehicle_type_id":"4","last_reported":1774005764,"current_range_meters":9600,"station_id":"ce4bhmp2rcd13ifvqgog","pricing_plan_id":"cebpf4jnsgd1na2vs0mg"},{"bike_id":"aef78bd0-ea9a-490e-b29e-79fe1986976a","system_id":"levelo_inurba_marseille","lat":43.24654,"lon":5.38889,"is_reserved":false,"is_disabled":false,"rental_uris":{"android":"levelo://app?vid=aef78bd0-ea9a-490e-b29e-79fe1986976a","ios":"levelo://app?vid=aef78bd0-ea9a-490e-b29e-79fe1986976a"},"vehicle_type_id":"4","last_reported":1774005764,"current_range_meters":9600,"station_id":"ce4bhg12rcd13ifvqf60","pricing_plan_id":"cebpf4jnsgd1na2vs0mg"},{"bike_id":"ffb1efc1-bc25-42ea-b6a8-d99aad17e440","system_id":"levelo_inurba_marseille","lat":43.31505,"lon":5.37309,"is_reserved":false,"is_disabled":false,"rental_uris":{"android":"levelo://app?vid=ffb1efc1-bc25-42ea-b6a8-d99aad17e440","ios":"levelo://app?vid=ffb1efc1-bc25-42ea-b6a8-d99aad17e440"},"vehicle_type_id":"4","last_reported":1774005764,"current_range_meters":9600,"station_id":"ce4bgt12rcd13ifvqcd0","pricing_plan_id":"cebpf4jnsgd1na2vs0mg"},{"bike_id":"c49bbaaa-2352-4fdc-b3de-1140d58d5fea","system_id":"levelo_inurba_marseille","lat":43.29158,"lon":5.42727,"is_reserved":false,"is_disabled":false,"rental_uris":{"android":"levelo://app?vid=c49bbaaa-2352-4fdc-b3de-1140d58d5fea","ios":"levelo://app?vid=c49bbaaa-2352-4fdc-b3de-1140d58d5fea"},"vehicle_type_id":"4","last_reported":1774005764,"current_range_meters":9600,"station_id":"","pricing_plan_id":"cebpf4jnsgd1na2vs0mg"},{"bike_id":"c9b3c56d-e58a-4122-ac1f-e329bf8c6d22","system_id":"levelo_inurba_marseille","lat":43.2669,"lon":5.38259,"is_reserved":false,"is_disabled":false,"rental_uris":{"android":"levelo://app?vid=c9b3c56d-e58a-4122-ac1f-e329bf8c6d22","ios":"levelo://app?vid=c9b3c56d-e58a-4122-ac1f-e329bf8c6d22"},"vehicle_type_id":"4","last_reported":1774005764,"current_range_meters":9600,"station_id":"ce4bhg92rcd13ifvqf90","pricing_plan_id":"cebpf4jnsgd1na2vs0mg"},{"bike_id":"54b8391b-9041-426a-8386-b4be1f248145","system_id":"levelo_inurba_marseille","lat":43.25026,"lon":5.38921,"is_reserved":false,"is_disabled":false,"rental_uris":{"android":"levelo://app?vid=54b8391b-9041-426a-8386-b4be1f248145","ios":"levelo://app?vid=54b8391b-9041-426a-8386-b4be1f248145"},"vehicle_type_id":"4","last_reported":1774005764,"current_range_meters":10000,"station_id":"ce4bhgp2rcd13ifvqfd0","pricing_plan_id":"cebpf4jnsgd1na2vs0mg"},{"bike_id":"cc777a7e-f3d4-4026-819d-66c6f1a5d2b6","system_id":"levelo_inurba_marseille","lat":43.29204,"lon":5.42585,"is_reserved":false,"is_disabled":false,"rental_uris":{"android":"levelo://app?vid=cc777a7e-f3d4-4026-819d-66c6f1a5d2b6","ios":"levelo://app?vid=cc777a7e-f3d4-4026-819d-66c6f1a5d2b6"},"vehicle_type_id":"4","last_reported":1774005764,"current_range_meters":10000,"station_id":"","pricing_plan_id":"cebpf4jnsgd1na2vs0mg"},{"bike_id":"3676a395-9d4a-4d07-81c5-7b1d4a0acb38","system_id":"levelo_inurba_marseille","lat":43.31513,"lon":5.37354,"is_reserved":false,"is_disabled":false,"rental_uris":{"android":"levelo://app?vid=3676a395-9d4a-4d07-81c5-7b1d4a0acb38","ios":"levelo://app?vid=3676a395-9d4a-4d07-81c5-7b1d4a0acb38"},"vehicle_type_id":"4","last_reported":1774005764,"current_range_meters":10000,"station_id":"","pricing_plan_id":"cebpf4jnsgd1na2vs0mg"},{"bike_id":"360fd481-1b79-4851-bf35-4750a475ff1d","system_id":"levelo_inurba_marseille","lat":43.28614,"lon":5.35106,"is_reserved":false,"is_disabled":false,"rental_uris":{"android":"levelo://app?vid=360fd481-1b79-4851-bf35-4750a475ff1d","ios":"levelo://app?vid=360fd481-1b79-4851-bf35-4750a475ff1d"},"vehicle_type_id":"4","last_reported":1774005764,"current_range_meters":10000,"station_id":"ce4bhch2rcd13ifvqeug","pricing_plan_id":"cebpf4jnsgd1na2vs0mg"},{"bike_id":"5823234a-ebe5-4f73-a6ca-e22e8e37fb65","system_id":"levelo_inurba_marseille","lat":43.30776,"lon":5.37664,"is_reserved":false,"is_disabled":true,"rental_uris":{"android":"levelo://app?vid=5823234a-ebe5-4f73-a6ca-e22e8e37fb65","ios":"levelo://app?vid=5823234a-ebe5-4f73-a6ca-e22e8e37fb65"},"vehicle_type_id":"4","last_reported":1774005764,"current_range_meters":10000,"station_id":"ce4bgv92rcd13ifvqcq0","pricing_plan_id":"cebpf4jnsgd1na2vs0mg"},{"bike_id":"56fe43ae-5724-4ddf-81d8-01b89d490e95","system_id":"levelo_inurba_marseille","lat":43.26053,"lon":5.37528,"is_reserved":false,"is_disabled":false,"rental_uris":{"android":"levelo://app?vid=56fe43ae-5724-4ddf-81d8-01b89d490e95","ios":"levelo://app?vid=56fe43ae-5724-4ddf-81d8-01b89d490e95"},"vehicle_type_id":"4","last_reported":1774005764,"current_range_meters":10000,"station_id":"ce4bhgh2rcd13ifvqfa0","pricing_plan_id":"cebpf4jnsgd1na2vs0mg"},{"bike_id":"bb64248e-0e5d-4ee1-9d8f-d48a0dd77d66","system_id":"levelo_inurba_marseille","lat":43.21643,"lon":5.3445,"is_reserved":false,"is_disabled":false,"rental_uris":{"android":"levelo://app?vid=bb64248e-0e5d-4ee1-9d8f-d48a0dd77d66","ios":"levelo://app?vid=bb64248e-0e5d-4ee1-9d8f-d48a0dd77d66"},"vehicle_type_id":"4","last_reported":1774005764,"current_range_meters":10000,"station_id":"","pricing_plan_id":"cebpf4jnsgd1na2vs0mg"},{"bike_id":"269e3b0a-f918-4659-80d7-ae5f59491a30","system_id":"levelo_inurba_marseille","lat":43.29898,"lon":5.38121,"is_reserved":false,"is_disabled":true,"rental_uris":{"android":"levelo://app?vid=269e3b0a-f918-4659-80d7-ae5f59491a30","ios":"levelo://app?vid=269e3b0a-f918-4659-80d7-ae5f59491a30"},"vehicle_type_id":"4","last_reported":1774005764,"current_range_meters":10000,"station_id":"ce4bgj12rcd13ifvqbc0","pricing_plan_id":"cebpf4jnsgd1na2vs0mg"},{"bike_id":"11dbd7d3-331f-4f60-846c-d82a84653f03","system_id":"levelo_inurba_marseille","lat":43.2514,"lon":5.403,"is_reserved":false,"is_disabled":false,"rental_uris":{"android":"levelo://app?vid=11dbd7d3-331f-4f60-846c-d82a84653f03","ios":"levelo://app?vid=11dbd7d3-331f-4f60-846c-d82a84653f03"},"vehicle_type_id":"4","last_reported":1774005764,"current_range_meters":10000,"station_id":"ce4bhlh2rcd13ifvqgig","pricing_plan_id":"cebpf4jnsgd1na2vs0mg"},{"bike_id":"3e2982da-4b77-43dc-8e9f-b50920ff82f4","system_id":"levelo_inurba_marseille","lat":43.24391,"lon":5.37055,"is_reserved":false,"is_disabled":false,"rental_uris":{"android":"levelo://app?vid=3e2982da-4b77-43dc-8e9f-b50920ff82f4","ios":"levelo://app?vid=3e2982da-4b77-43dc-8e9f-b50920ff82f4"},"vehicle_type_id":"4","last_reported":1774005764,"current_range_meters":10000,"station_id":"ce4bhhh2rcd13ifvqfk0","pricing_plan_id":"cebpf4jnsgd1na2vs0mg"},{"bike_id":"a8ec2749-dc44-4f65-b4b6-5e6dec576433","system_id":"levelo_inurba_marseille","lat":43.27804,"lon":5.40709,"is_reserved":false,"is_disabled":false,"rental_uris":{"android":"levelo://app?vid=a8ec2749-dc44-4f65-b4b6-5e6dec576433","ios":"levelo://app?vid=a8ec2749-dc44-4f65-b4b6-5e6dec576433"},"vehicle_type_id":"4","last_reported":1774005764,"current_range_meters":10000,"station_id":"ce4bhnh2rcd13ifvqgtg","pricing_plan_id":"cebpf4jnsgd1na2vs0mg"},{"bike_id":"b1144be4-4642-4dc6-9a38-cb8cd1471a8e","system_id":"levelo_inurba_marseille","lat":43.26698,"lon":5.38257,"is_reserved":false,"is_disabled":false,"rental_uris":{"android":"levelo://app?vid=b1144be4-4642-4dc6-9a38-cb8cd1471a8e","ios":"levelo://app?vid=b1144be4-4642-4dc6-9a38-cb8cd1471a8e"},"vehicle_type_id":"4","last_reported":1774005764,"current_range_meters":10000,"station_id":"ce4bhg92rcd13ifvqf90","pricing_plan_id":"cebpf4jnsgd1na2vs0mg"},{"bike_id":"df5ad533-8354-43dd-b4db-d4118becde63","system_id":"levelo_inurba_marseille","lat":43.28507,"lon":5.48338,"is_reserved":false,"is_disabled":false,"rental_uris":{"android":"levelo://app?vid=df5ad533-8354-43dd-b4db-d4118becde63","ios":"levelo://app?vid=df5ad533-8354-43dd-b4db-d4118becde63"},"vehicle_type_id":"4","last_reported":1774005764,"current_range_meters":10800,"station_id":"","pricing_plan_id":"cebpf4jnsgd1na2vs0mg"},{"bike_id":"5cedefe2-ed17-4452-9933-659cd1a0200b","system_id":"levelo_inurba_marseille","lat":43.30313,"lon":5.36893,"is_reserved":false,"is_disabled":false,"rental_uris":{"android":"levelo://app?vid=5cedefe2-ed17-4452-9933-659cd1a0200b","ios":"levelo://app?vid=5cedefe2-ed17-4452-9933-659cd1a0200b"},"vehicle_type_id":"4","last_reported":1774005764,"current_range_meters":10800,"station_id":"ce4bgqh2rcd13ifvqc5g","pricing_plan_id":"cebpf4jnsgd1na2vs0mg"},{"bike_id":"3727d6e3-4577-49ea-959e-93a5e09450a3","system_id":"levelo_inurba_marseille","lat":43.31446,"lon":5.40077,"is_reserved":false,"is_disabled":false,"rental_uris":{"android":"levelo://app?vid=3727d6e3-4577-49ea-959e-93a5e09450a3","ios":"levelo://app?vid=3727d6e3-4577-49ea-959e-93a5e09450a3"},"vehicle_type_id":"4","last_reported":1774005764,"current_range_meters":10800,"station_id":"","pricing_plan_id":"cebpf4jnsgd1na2vs0mg"},{"bike_id":"d9a2340f-4dc0-456b-89f0-454af4d93a65","system_id":"levelo_inurba_marseille","lat":43.28494,"lon":5.35135,"is_reserved":false,"is_disabled":false,"rental_uris":{"android":"levelo://app?vid=d9a2340f-4dc0-456b-89f0-454af4d93a65","ios":"levelo://app?vid=d9a2340f-4dc0-456b-89f0-454af4d93a65"},"vehicle_type_id":"4","last_reported":1774005764,"current_range_meters":10800,"station_id":"","pricing_plan_id":"cebpf4jnsgd1na2vs0mg"},{"bike_id":"082220aa-d370-432c-9051-6818fbf15d1d","system_id":"levelo_inurba_marseille","lat":43.31249,"lon":5.36862,"is_reserved":false,"is_disabled":true,"rental_uris":{"android":"levelo://app?vid=082220aa-d370-432c-9051-6818fbf15d1d","ios":"levelo://app?vid=082220aa-d370-432c-9051-6818fbf15d1d"},"vehicle_type_id":"4","last_reported":1774005764,"current_range_meters":10800,"station_id":"ce4bgl92rcd13ifvqbq0","pricing_plan_id":"cebpf4jnsgd1na2vs0mg"},{"bike_id":"f44e27c5-d3c1-470f-b047-cface7316b82","system_id":"levelo_inurba_marseille","lat":43.31191,"lon":5.36805,"is_reserved":false,"is_disabled":false,"rental_uris":{"android":"levelo://app?vid=f44e27c5-d3c1-470f-b047-cface7316b82","ios":"levelo://app?vid=f44e27c5-d3c1-470f-b047-cface7316b82"},"vehicle_type_id":"4","last_reported":1774005764,"current_range_meters":10800,"station_id":"ce4bgl92rcd13ifvqbq0","pricing_plan_id":"cebpf4jnsgd1na2vs0mg"},{"bike_id":"7b872287-314c-4d83-8fa7-890133a9b88e","system_id":"levelo_inurba_marseille","lat":43.27085,"lon":5.4225,"is_reserved":false,"is_disabled":false,"rental_uris":{"android":"levelo://app?vid=7b872287-314c-4d83-8fa7-890133a9b88e","ios":"levelo://app?vid=7b872287-314c-4d83-8fa7-890133a9b88e"},"vehicle_type_id":"4","last_reported":1774005764,"current_range_meters":11200,"station_id":"ce4bhk92rcd13ifvqgb0","pricing_plan_id":"cebpf4jnsgd1na2vs0mg"},{"bike_id":"402be54a-7b5e-4ba5-bee0-d150a5a4ebd8","system_id":"levelo_inurba_marseille","lat":43.29743,"lon":5.37678,"is_reserved":false,"is_disabled":false,"rental_uris":{"android":"levelo://app?vid=402be54a-7b5e-4ba5-bee0-d150a5a4ebd8","ios":"levelo://app?vid=402be54a-7b5e-4ba5-bee0-d150a5a4ebd8"},"vehicle_type_id":"4","last_reported":1774005764,"current_range_meters":11200,"station_id":"ce4bgkh2rcd13ifvqbl0","pricing_plan_id":"cebpf4jnsgd1na2vs0mg"},{"bike_id":"36750a5a-e715-404b-ab4e-4dfa557014c3","system_id":"levelo_inurba_marseille","lat":43.24465,"lon":5.42548,"is_reserved":false,"is_disabled":false,"rental_uris":{"android":"levelo://app?vid=36750a5a-e715-404b-ab4e-4dfa557014c3","ios":"levelo://app?vid=36750a5a-e715-404b-ab4e-4dfa557014c3"},"vehicle_type_id":"4","last_reported":1774005764,"current_range_meters":11200,"station_id":"st_d4a3vfp97mjs738cd8kg","pricing_plan_id":"cebpf4jnsgd1na2vs0mg"},{"bike_id":"9fc3100e-4d82-48d6-89bc-f6f291702956","system_id":"levelo_inurba_marseille","lat":43.3175,"lon":5.39022,"is_reserved":false,"is_disabled":false,"rental_uris":{"android":"levelo://app?vid=9fc3100e-4d82-48d6-89bc-f6f291702956","ios":"levelo://app?vid=9fc3100e-4d82-48d6-89bc-f6f291702956"},"vehicle_type_id":"4","last_reported":1774005764,"current_range_meters":11200,"station_id":"ce4bhqp2rcd13ifvqhng","pricing_plan_id":"cebpf4jnsgd1na2vs0mg"},{"bike_id":"3ed078f5-5498-466f-b8bc-cc4221a03208","system_id":"levelo_inurba_marseille","lat":43.30218,"lon":5.37349,"is_reserved":false,"is_disabled":false,"rental_uris":{"android":"levelo://app?vid=3ed078f5-5498-466f-b8bc-cc4221a03208","ios":"levelo://app?vid=3ed078f5-5498-466f-b8bc-cc4221a03208"},"vehicle_type_id":"4","last_reported":1774005764,"current_range_meters":11200,"station_id":"ce4bgs92rcd13ifvqcc0","pricing_plan_id":"cebpf4jnsgd1na2vs0mg"},{"bike_id":"8ff4739f-da8f-493e-b609-b54b4435f7a9","system_id":"levelo_inurba_marseille","lat":43.30956,"lon":5.39043,"is_reserved":false,"is_disabled":false,"rental_uris":{"android":"levelo://app?vid=8ff4739f-da8f-493e-b609-b54b4435f7a9","ios":"levelo://app?vid=8ff4739f-da8f-493e-b609-b54b4435f7a9"},"vehicle_type_id":"4","last_reported":1774005764,"current_range_meters":11200,"station_id":"ce4bgup2rcd13ifvqco0","pricing_plan_id":"cebpf4jnsgd1na2vs0mg"},{"bike_id":"8a1fe596-ddaa-4ccc-b72e-86a4d8376eaf","system_id":"levelo_inurba_marseille","lat":43.23961,"lon":5.36628,"is_reserved":false,"is_disabled":false,"rental_uris":{"android":"levelo://app?vid=8a1fe596-ddaa-4ccc-b72e-86a4d8376eaf","ios":"levelo://app?vid=8a1fe596-ddaa-4ccc-b72e-86a4d8376eaf"},"vehicle_type_id":"4","last_reported":1774005764,"current_range_meters":11200,"station_id":"ce4bhi12rcd13ifvqfp0","pricing_plan_id":"cebpf4jnsgd1na2vs0mg"},{"bike_id":"72357539-5d4f-4305-97ee-5ff971d2871b","system_id":"levelo_inurba_marseille","lat":43.29031,"lon":5.39958,"is_reserved":false,"is_disabled":false,"rental_uris":{"android":"levelo://app?vid=72357539-5d4f-4305-97ee-5ff971d2871b","ios":"levelo://app?vid=72357539-5d4f-4305-97ee-5ff971d2871b"},"vehicle_type_id":"4","last_reported":1774005764,"current_range_meters":11200,"station_id":"ce4bh392rcd13ifvqdm0","pricing_plan_id":"cebpf4jnsgd1na2vs0mg"},{"bike_id":"62141a0d-6e1d-4eb4-b801-ff9ce4d30928","system_id":"levelo_inurba_marseille","lat":43.32475,"lon":5.36546,"is_reserved":false,"is_disabled":false,"rental_uris":{"android":"levelo://app?vid=62141a0d-6e1d-4eb4-b801-ff9ce4d30928","ios":"levelo://app?vid=62141a0d-6e1d-4eb4-b801-ff9ce4d30928"},"vehicle_type_id":"4","last_reported":1774005764,"current_range_meters":11200,"station_id":"ce4bhs12rcd13ifvqhvg","pricing_plan_id":"cebpf4jnsgd1na2vs0mg"},{"bike_id":"7db5496d-09d6-4603-99f4-8236883013ea","system_id":"levelo_inurba_marseille","lat":43.27077,"lon":5.42292,"is_reserved":false,"is_disabled":false,"rental_uris":{"android":"levelo://app?vid=7db5496d-09d6-4603-99f4-8236883013ea","ios":"levelo://app?vid=7db5496d-09d6-4603-99f4-8236883013ea"},"vehicle_type_id":"4","last_reported":1774005764,"current_range_meters":11200,"station_id":"ce4bhk92rcd13ifvqgb0","pricing_plan_id":"cebpf4jnsgd1na2vs0mg"},{"bike_id":"01364959-f5cb-45fc-b2ab-fcb016f80f7e","system_id":"levelo_inurba_marseille","lat":43.28951,"lon":5.38391,"is_reserved":false,"is_disabled":false,"rental_uris":{"android":"levelo://app?vid=01364959-f5cb-45fc-b2ab-fcb016f80f7e","ios":"levelo://app?vid=01364959-f5cb-45fc-b2ab-fcb016f80f7e"},"vehicle_type_id":"4","last_reported":1774005764,"current_range_meters":11200,"station_id":"ce4bh612rcd13ifvqe6g","pricing_plan_id":"cebpf4jnsgd1na2vs0mg"},{"bike_id":"c099b05c-932c-4a8c-a998-8a4fc85b771d","system_id":"levelo_inurba_marseille","lat":43.2717,"lon":5.40989,"is_reserved":false,"is_disabled":false,"rental_uris":{"android":"levelo://app?vid=c099b05c-932c-4a8c-a998-8a4fc85b771d","ios":"levelo://app?vid=c099b05c-932c-4a8c-a998-8a4fc85b771d"},"vehicle_type_id":"4","last_reported":1774005764,"current_range_meters":11200,"station_id":"ce4bhl12rcd13ifvqgf0","pricing_plan_id":"cebpf4jnsgd1na2vs0mg"},{"bike_id":"462e97f1-cf43-440b-b806-5b7a6bdfe717","system_id":"levelo_inurba_marseille","lat":43.25115,"lon":5.40315,"is_reserved":false,"is_disabled":false,"rental_uris":{"android":"levelo://app?vid=462e97f1-cf43-440b-b806-5b7a6bdfe717","ios":"levelo://app?vid=462e97f1-cf43-440b-b806-5b7a6bdfe717"},"vehicle_type_id":"4","last_reported":1774005764,"current_range_meters":11200,"station_id":"ce4bhlh2rcd13ifvqgig","pricing_plan_id":"cebpf4jnsgd1na2vs0mg"},{"bike_id":"8d70627c-251d-451e-b0bd-cf0ce62e8e5b","system_id":"levelo_inurba_marseille","lat":43.25869,"lon":5.39898,"is_reserved":false,"is_disabled":false,"rental_uris":{"android":"levelo://app?vid=8d70627c-251d-451e-b0bd-cf0ce62e8e5b","ios":"levelo://app?vid=8d70627c-251d-451e-b0bd-cf0ce62e8e5b"},"vehicle_type_id":"4","last_reported":1774005764,"current_range_meters":11200,"station_id":"ce4bhl92rcd13ifvqghg","pricing_plan_id":"cebpf4jnsgd1na2vs0mg"},{"bike_id":"703efbe1-feef-417d-a9e3-0fca1a7eab74","system_id":"levelo_inurba_marseille","lat":43.35151,"lon":5.37981,"is_reserved":false,"is_disabled":false,"rental_uris":{"android":"levelo://app?vid=703efbe1-feef-417d-a9e3-0fca1a7eab74","ios":"levelo://app?vid=703efbe1-feef-417d-a9e3-0fca1a7eab74"},"vehicle_type_id":"4","last_reported":1774005764,"current_range_meters":11200,"station_id":"","pricing_plan_id":"cebpf4jnsgd1na2vs0mg"},{"bike_id":"972ad57a-a3c2-4b95-85c1-7578e0fa3f49","system_id":"levelo_inurba_marseille","lat":43.26378,"lon":5.41059,"is_reserved":false,"is_disabled":false,"rental_uris":{"android":"levelo://app?vid=972ad57a-a3c2-4b95-85c1-7578e0fa3f49","ios":"levelo://app?vid=972ad57a-a3c2-4b95-85c1-7578e0fa3f49"},"vehicle_type_id":"4","last_reported":1774005764,"current_range_meters":11200,"station_id":"st_d4e5ca6na9uc73bfl5fg","pricing_plan_id":"cebpf4jnsgd1na2vs0mg"},{"bike_id":"d7c74efb-b5bb-4377-9374-b151a23ce647","system_id":"levelo_inurba_marseille","lat":43.27208,"lon":5.39174,"is_reserved":false,"is_disabled":false,"rental_uris":{"android":"levelo://app?vid=d7c74efb-b5bb-4377-9374-b151a23ce647","ios":"levelo://app?vid=d7c74efb-b5bb-4377-9374-b151a23ce647"},"vehicle_type_id":"4","last_reported":1774005764,"current_range_meters":11200,"station_id":"ce4bhhp2rcd13ifvqfm0","pricing_plan_id":"cebpf4jnsgd1na2vs0mg"},{"bike_id":"8530af84-314c-4601-bdf6-731da6eb34ae","system_id":"levelo_inurba_marseille","lat":43.29283,"lon":5.36823,"is_reserved":false,"is_disabled":false,"rental_uris":{"android":"levelo://app?vid=8530af84-314c-4601-bdf6-731da6eb34ae","ios":"levelo://app?vid=8530af84-314c-4601-bdf6-731da6eb34ae"},"vehicle_type_id":"4","last_reported":1774005764,"current_range_meters":11200,"station_id":"ce4bhbp2rcd13ifvqesg","pricing_plan_id":"cebpf4jnsgd1na2vs0mg"},{"bike_id":"86f73dcc-9b40-4620-b69a-9558994d45d3","system_id":"levelo_inurba_marseille","lat":43.30957,"lon":5.39023,"is_reserved":false,"is_disabled":false,"rental_uris":{"android":"levelo://app?vid=86f73dcc-9b40-4620-b69a-9558994d45d3","ios":"levelo://app?vid=86f73dcc-9b40-4620-b69a-9558994d45d3"},"vehicle_type_id":"4","last_reported":1774005764,"current_range_meters":11200,"station_id":"ce4bgup2rcd13ifvqco0","pricing_plan_id":"cebpf4jnsgd1na2vs0mg"},{"bike_id":"8ce9e10b-5de7-47d2-80fa-30be095be833","system_id":"levelo_inurba_marseille","lat":43.2553,"lon":5.40695,"is_reserved":false,"is_disabled":false,"rental_uris":{"android":"levelo://app?vid=8ce9e10b-5de7-47d2-80fa-30be095be833","ios":"levelo://app?vid=8ce9e10b-5de7-47d2-80fa-30be095be833"},"vehicle_type_id":"4","last_reported":1774005764,"current_range_meters":11200,"station_id":"","pricing_plan_id":"cebpf4jnsgd1na2vs0mg"},{"bike_id":"7ba13d9e-e310-4f10-ac9e-7e929117f35e","system_id":"levelo_inurba_marseille","lat":43.2794,"lon":5.41052,"is_reserved":false,"is_disabled":false,"rental_uris":{"android":"levelo://app?vid=7ba13d9e-e310-4f10-ac9e-7e929117f35e","ios":"levelo://app?vid=7ba13d9e-e310-4f10-ac9e-7e929117f35e"},"vehicle_type_id":"4","last_reported":1774005764,"current_range_meters":11200,"station_id":"ce4bhnp2rcd13ifvqh0g","pricing_plan_id":"cebpf4jnsgd1na2vs0mg"},{"bike_id":"4e7144fd-da6e-4ea4-9570-e4ed1bd664ff","system_id":"levelo_inurba_marseille","lat":43.28893,"lon":5.425,"is_reserved":false,"is_disabled":false,"rental_uris":{"android":"levelo://app?vid=4e7144fd-da6e-4ea4-9570-e4ed1bd664ff","ios":"levelo://app?vid=4e7144fd-da6e-4ea4-9570-e4ed1bd664ff"},"vehicle_type_id":"4","last_reported":1774005764,"current_range_meters":11600,"station_id":"","pricing_plan_id":"cebpf4jnsgd1na2vs0mg"},{"bike_id":"b79edf21-0164-4a0c-b31c-d86dd5687815","system_id":"levelo_inurba_marseille","lat":43.337572,"lon":5.37466,"is_reserved":false,"is_disabled":false,"rental_uris":{"android":"levelo://app?vid=b79edf21-0164-4a0c-b31c-d86dd5687815","ios":"levelo://app?vid=b79edf21-0164-4a0c-b31c-d86dd5687815"},