{"last_updated":1762349122,"ttl":60,"version":"2.2","data":{"bikes":[{"bike_id":"b7c5e96f-2666-418c-b8cc-36dfc613348c","system_id":"levelo_inurba_marseille","lat":43.337444,"lon":5.374475,"is_reserved":false,"is_disabled":false,"rental_uris":{"android":"levelo://app?vid=b7c5e96f-2666-418c-b8cc-36dfc613348c","ios":"levelo://app?vid=b7c5e96f-2666-418c-b8cc-36dfc613348c"},"vehicle_type_id":"4","last_reported":1762349122,"current_range_meters":0,"station_id":"","pricing_plan_id":"cebpf4jnsgd1na2vs0mg"},{"bike_id":"9c46a9f5-39cb-461a-ac28-286dc216524b","system_id":"levelo_inurba_marseille","lat":43.337444,"lon":5.374475,"is_reserved":false,"is_disabled":false,"rental_uris":{"android":"levelo://app?vid=9c46a9f5-39cb-461a-ac28-286dc216524b","ios":"levelo://app?vid=9c46a9f5-39cb-461a-ac28-286dc216524b"},"vehicle_type_id":"4","last_reported":1762349122,"current_range_meters":0,"station_id":"","pricing_plan_id":"cebpf4jnsgd1na2vs0mg"},{"bike_id":"2aa95e42-5a8c-4825-81d0-40d356e0168e","system_id":"levelo_inurba_marseille","lat":43.337444,"lon":5.374475,"is_reserved":false,"is_disabled":false,"rental_uris":{"android":"levelo://app?vid=2aa95e42-5a8c-4825-81d0-40d356e0168e","ios":"levelo://app?vid=2aa95e42-5a8c-4825-81d0-40d356e0168e"},"vehicle_type_id":"4","last_reported":1762349122,"current_range_meters":0,"station_id":"","pricing_plan_id":"cebpf4jnsgd1na2vs0mg"},{"bike_id":"23f7c00c-abd3-4b9e-b454-b625ef68ddce","system_id":"levelo_inurba_marseille","lat":43.337444,"lon":5.374475,"is_reserved":false,"is_disabled":false,"rental_uris":{"android":"levelo://app?vid=23f7c00c-abd3-4b9e-b454-b625ef68ddce","ios":"levelo://app?vid=23f7c00c-abd3-4b9e-b454-b625ef68ddce"},"vehicle_type_id":"4","last_reported":1762349122,"current_range_meters":0,"station_id":"","pricing_plan_id":"cebpf4jnsgd1na2vs0mg"},{"bike_id":"a3451d83-9c80-4ffa-96f9-a14c25634465","system_id":"levelo_inurba_marseille","lat":43.337444,"lon":5.374475,"is_reserved":false,"is_disabled":false,"rental_uris":{"android":"levelo://app?vid=a3451d83-9c80-4ffa-96f9-a14c25634465","ios":"levelo://app?vid=a3451d83-9c80-4ffa-96f9-a14c25634465"},"vehicle_type_id":"4","last_reported":1762349122,"current_range_meters":0,"station_id":"","pricing_plan_id":"cebpf4jnsgd1na2vs0mg"},{"bike_id":"19649598-fd0f-4237-a302-8b748132eb30","system_id":"levelo_inurba_marseille","lat":43.337444,"lon":5.374475,"is_reserved":false,"is_disabled":false,"rental_uris":{"android":"levelo://app?vid=19649598-fd0f-4237-a302-8b748132eb30","ios":"levelo://app?vid=19649598-fd0f-4237-a302-8b748132eb30"},"vehicle_type_id":"4","last_reported":1762349122,"current_range_meters":0,"station_id":"","pricing_plan_id":"cebpf4jnsgd1na2vs0mg"},{"bike_id":"79f0199f-1fbb-40b2-9337-191d82b520a7","system_id":"levelo_inurba_marseille","lat":43.337444,"lon":5.374475,"is_reserved":false,"is_disabled":false,"rental_uris":{"android":"levelo://app?vid=79f0199f-1fbb-40b2-9337-191d82b520a7","ios":"levelo://app?vid=79f0199f-1fbb-40b2-9337-191d82b520a7"},"vehicle_type_id":"4","last_reported":1762349122,"current_range_meters":0,"station_id":"","pricing_plan_id":"cebpf4jnsgd1na2vs0mg"},{"bike_id":"34a0d96e-bbf5-4ab6-8de8-a56cc767fd57","system_id":"levelo_inurba_marseille","lat":43.337444,"lon":5.374475,"is_reserved":false,"is_disabled":false,"rental_uris":{"android":"levelo://app?vid=34a0d96e-bbf5-4ab6-8de8-a56cc767fd57","ios":"levelo://app?vid=34a0d96e-bbf5-4ab6-8de8-a56cc767fd57"},"vehicle_type_id":"4","last_reported":1762349122,"current_range_meters":0,"station_id":"","pricing_plan_id":"cebpf4jnsgd1na2vs0mg"},{"bike_id":"30c4756b-2e3a-4ac9-b1fb-aa08283eecaa","system_id":"levelo_inurba_marseille","lat":43.337444,"lon":5.374475,"is_reserved":false,"is_disabled":false,"rental_uris":{"android":"levelo://app?vid=30c4756b-2e3a-4ac9-b1fb-aa08283eecaa","ios":"levelo://app?vid=30c4756b-2e3a-4ac9-b1fb-aa08283eecaa"},"vehicle_type_id":"4","last_reported":1762349122,"current_range_meters":0,"station_id":"","pricing_plan_id":"cebpf4jnsgd1na2vs0mg"},{"bike_id":"cb5b6ee7-3ef8-4299-a38d-cc32f035098b","system_id":"levelo_inurba_marseille","lat":43.337444,"lon":5.374475,"is_reserved":false,"is_disabled":false,"rental_uris":{"android":"levelo://app?vid=cb5b6ee7-3ef8-4299-a38d-cc32f035098b","ios":"levelo://app?vid=cb5b6ee7-3ef8-4299-a38d-cc32f035098b"},"vehicle_type_id":"4","last_reported":1762349122,"current_range_meters":0,"station_id":"","pricing_plan_id":"cebpf4jnsgd1na2vs0mg"},{"bike_id":"0dbf8834-1963-4427-879a-60d5139a1252","system_id":"levelo_inurba_marseille","lat":43.337444,"lon":5.374475,"is_reserved":false,"is_disabled":false,"rental_uris":{"android":"levelo://app?vid=0dbf8834-1963-4427-879a-60d5139a1252","ios":"levelo://app?vid=0dbf8834-1963-4427-879a-60d5139a1252"},"vehicle_type_id":"4","last_reported":1762349122,"current_range_meters":0,"station_id":"","pricing_plan_id":"cebpf4jnsgd1na2vs0mg"},{"bike_id":"c3d3ce5c-8075-4b42-9455-beadd1468f17","system_id":"levelo_inurba_marseille","lat":43.337444,"lon":5.374475,"is_reserved":false,"is_disabled":false,"rental_uris":{"android":"levelo://app?vid=c3d3ce5c-8075-4b42-9455-beadd1468f17","ios":"levelo://app?vid=c3d3ce5c-8075-4b42-9455-beadd1468f17"},"vehicle_type_id":"4","last_reported":1762349122,"current_range_meters":0,"station_id":"","pricing_plan_id":"cebpf4jnsgd1na2vs0mg"},{"bike_id":"2177a091-7ad7-4fcd-ad08-e78406d1a8ef","system_id":"levelo_inurba_marseille","lat":43.337444,"lon":5.374475,"is_reserved":false,"is_disabled":false,"rental_uris":{"android":"levelo://app?vid=2177a091-7ad7-4fcd-ad08-e78406d1a8ef","ios":"levelo://app?vid=2177a091-7ad7-4fcd-ad08-e78406d1a8ef"},"vehicle_type_id":"4","last_reported":1762349122,"current_range_meters":0,"station_id":"","pricing_plan_id":"cebpf4jnsgd1na2vs0mg"},{"bike_id":"ed2dc6ad-7a96-47d2-b4d0-3deee38fd62c","system_id":"levelo_inurba_marseille","lat":43.337444,"lon":5.374475,"is_reserved":false,"is_disabled":false,"rental_uris":{"android":"levelo://app?vid=ed2dc6ad-7a96-47d2-b4d0-3deee38fd62c","ios":"levelo://app?vid=ed2dc6ad-7a96-47d2-b4d0-3deee38fd62c"},"vehicle_type_id":"4","last_reported":1762349122,"current_range_meters":0,"station_id":"","pricing_plan_id":"cebpf4jnsgd1na2vs0mg"},{"bike_id":"42735ee1-244b-4d96-8480-f9806199924f","system_id":"levelo_inurba_marseille","lat":43.337444,"lon":5.374475,"is_reserved":false,"is_disabled":false,"rental_uris":{"android":"levelo://app?vid=42735ee1-244b-4d96-8480-f9806199924f","ios":"levelo://app?vid=42735ee1-244b-4d96-8480-f9806199924f"},"vehicle_type_id":"4","last_reported":1762349122,"current_range_meters":0,"station_id":"","pricing_plan_id":"cebpf4jnsgd1na2vs0mg"},{"bike_id":"0d7ab61a-02ec-456f-ab23-ba92f34594d5","system_id":"levelo_inurba_marseille","lat":43.337444,"lon":5.374475,"is_reserved":false,"is_disabled":false,"rental_uris":{"android":"levelo://app?vid=0d7ab61a-02ec-456f-ab23-ba92f34594d5","ios":"levelo://app?vid=0d7ab61a-02ec-456f-ab23-ba92f34594d5"},"vehicle_type_id":"4","last_reported":1762349122,"current_range_meters":0,"station_id":"","pricing_plan_id":"cebpf4jnsgd1na2vs0mg"},{"bike_id":"f68022fa-eb0a-4aac-8aea-6f2e14d0afb9","system_id":"levelo_inurba_marseille","lat":43.337444,"lon":5.374475,"is_reserved":false,"is_disabled":false,"rental_uris":{"android":"levelo://app?vid=f68022fa-eb0a-4aac-8aea-6f2e14d0afb9","ios":"levelo://app?vid=f68022fa-eb0a-4aac-8aea-6f2e14d0afb9"},"vehicle_type_id":"4","last_reported":1762349122,"current_range_meters":0,"station_id":"","pricing_plan_id":"cebpf4jnsgd1na2vs0mg"},{"bike_id":"386a9781-f1f4-4d33-8679-4d1163c3b9de","system_id":"levelo_inurba_marseille","lat":43.337444,"lon":5.374475,"is_reserved":false,"is_disabled":false,"rental_uris":{"android":"levelo://app?vid=386a9781-f1f4-4d33-8679-4d1163c3b9de","ios":"levelo://app?vid=386a9781-f1f4-4d33-8679-4d1163c3b9de"},"vehicle_type_id":"4","last_reported":1762349122,"current_range_meters":0,"station_id":"","pricing_plan_id":"cebpf4jnsgd1na2vs0mg"},{"bike_id":"4692d694-8a80-47c7-a7c6-1264ca94c6df","system_id":"levelo_inurba_marseille","lat":43.337444,"lon":5.374475,"is_reserved":false,"is_disabled":false,"rental_uris":{"android":"levelo://app?vid=4692d694-8a80-47c7-a7c6-1264ca94c6df","ios":"levelo://app?vid=4692d694-8a80-47c7-a7c6-1264ca94c6df"},"vehicle_type_id":"4","last_reported":1762349122,"current_range_meters":0,"station_id":"","pricing_plan_id":"cebpf4jnsgd1na2vs0mg"},{"bike_id":"4706d18d-408c-4dc1-a44f-b0f99f27bdf0","system_id":"levelo_inurba_marseille","lat":43.337444,"lon":5.374475,"is_reserved":false,"is_disabled":false,"rental_uris":{"android":"levelo://app?vid=4706d18d-408c-4dc1-a44f-b0f99f27bdf0","ios":"levelo://app?vid=4706d18d-408c-4dc1-a44f-b0f99f27bdf0"},"vehicle_type_id":"4","last_reported":1762349122,"current_range_meters":0,"station_id":"","pricing_plan_id":"cebpf4jnsgd1na2vs0mg"},{"bike_id":"abb77335-fe7b-4b75-9b2f-be4bb45cbb0d","system_id":"levelo_inurba_marseille","lat":43.337444,"lon":5.374475,"is_reserved":false,"is_disabled":false,"rental_uris":{"android":"levelo://app?vid=abb77335-fe7b-4b75-9b2f-be4bb45cbb0d","ios":"levelo://app?vid=abb77335-fe7b-4b75-9b2f-be4bb45cbb0d"},"vehicle_type_id":"4","last_reported":1762349122,"current_range_meters":0,"station_id":"","pricing_plan_id":"cebpf4jnsgd1na2vs0mg"},{"bike_id":"4bde9393-6919-41f3-8fef-f4b40f375cc0","system_id":"levelo_inurba_marseille","lat":43.337444,"lon":5.374475,"is_reserved":false,"is_disabled":false,"rental_uris":{"android":"levelo://app?vid=4bde9393-6919-41f3-8fef-f4b40f375cc0","ios":"levelo://app?vid=4bde9393-6919-41f3-8fef-f4b40f375cc0"},"vehicle_type_id":"4","last_reported":1762349122,"current_range_meters":0,"station_id":"","pricing_plan_id":"cebpf4jnsgd1na2vs0mg"},{"bike_id":"51f4e824-5009-4c5b-9283-cfda2d34404c","system_id":"levelo_inurba_marseille","lat":43.337444,"lon":5.374475,"is_reserved":false,"is_disabled":false,"rental_uris":{"android":"levelo://app?vid=51f4e824-5009-4c5b-9283-cfda2d34404c","ios":"levelo://app?vid=51f4e824-5009-4c5b-9283-cfda2d34404c"},"vehicle_type_id":"4","last_reported":1762349122,"current_range_meters":0,"station_id":"","pricing_plan_id":"cebpf4jnsgd1na2vs0mg"},{"bike_id":"d155d58c-f50a-4469-b126-b5af1b8d3f8a","system_id":"levelo_inurba_marseille","lat":43.337444,"lon":5.374475,"is_reserved":false,"is_disabled":false,"rental_uris":{"android":"levelo://app?vid=d155d58c-f50a-4469-b126-b5af1b8d3f8a","ios":"levelo://app?vid=d155d58c-f50a-4469-b126-b5af1b8d3f8a"},"vehicle_type_id":"4","last_reported":1762349122,"current_range_meters":0,"station_id":"","pricing_plan_id":"cebpf4jnsgd1na2vs0mg"},{"bike_id":"16f471c2-a8ed-4e61-ba2a-d83085a9c284","system_id":"levelo_inurba_marseille","lat":43.337444,"lon":5.374475,"is_reserved":false,"is_disabled":false,"rental_uris":{"android":"levelo://app?vid=16f471c2-a8ed-4e61-ba2a-d83085a9c284","ios":"levelo://app?vid=16f471c2-a8ed-4e61-ba2a-d83085a9c284"},"vehicle_type_id":"4","last_reported":1762349122,"current_range_meters":0,"station_id":"","pricing_plan_id":"cebpf4jnsgd1na2vs0mg"},{"bike_id":"b8bd4cc4-f519-43de-b194-2cc2cf75483c","system_id":"levelo_inurba_marseille","lat":43.337444,"lon":5.374475,"is_reserved":false,"is_disabled":false,"rental_uris":{"android":"levelo://app?vid=b8bd4cc4-f519-43de-b194-2cc2cf75483c","ios":"levelo://app?vid=b8bd4cc4-f519-43de-b194-2cc2cf75483c"},"vehicle_type_id":"4","last_reported":1762349122,"current_range_meters":0,"station_id":"","pricing_plan_id":"cebpf4jnsgd1na2vs0mg"},{"bike_id":"591b062c-0423-40a0-9120-f7c30f97e98f","system_id":"levelo_inurba_marseille","lat":43.337444,"lon":5.374475,"is_reserved":false,"is_disabled":false,"rental_uris":{"android":"levelo://app?vid=591b062c-0423-40a0-9120-f7c30f97e98f","ios":"levelo://app?vid=591b062c-0423-40a0-9120-f7c30f97e98f"},"vehicle_type_id":"4","last_reported":1762349122,"current_range_meters":0,"station_id":"","pricing_plan_id":"cebpf4jnsgd1na2vs0mg"},{"bike_id":"8fbb8d57-565e-4232-a867-846a316b3375","system_id":"levelo_inurba_marseille","lat":43.337444,"lon":5.374475,"is_reserved":false,"is_disabled":false,"rental_uris":{"android":"levelo://app?vid=8fbb8d57-565e-4232-a867-846a316b3375","ios":"levelo://app?vid=8fbb8d57-565e-4232-a867-846a316b3375"},"vehicle_type_id":"4","last_reported":1762349122,"current_range_meters":0,"station_id":"","pricing_plan_id":"cebpf4jnsgd1na2vs0mg"},{"bike_id":"e6134458-396f-46c5-87ab-a79cf2b6424c","system_id":"levelo_inurba_marseille","lat":43.337444,"lon":5.374475,"is_reserved":false,"is_disabled":false,"rental_uris":{"android":"levelo://app?vid=e6134458-396f-46c5-87ab-a79cf2b6424c","ios":"levelo://app?vid=e6134458-396f-46c5-87ab-a79cf2b6424c"},"vehicle_type_id":"4","last_reported":1762349122,"current_range_meters":0,"station_id":"","pricing_plan_id":"cebpf4jnsgd1na2vs0mg"},{"bike_id":"0a0d4295-fe5b-4614-b2ca-f5579d5190b0","system_id":"levelo_inurba_marseille","lat":43.337444,"lon":5.374475,"is_reserved":false,"is_disabled":false,"rental_uris":{"android":"levelo://app?vid=0a0d4295-fe5b-4614-b2ca-f5579d5190b0","ios":"levelo://app?vid=0a0d4295-fe5b-4614-b2ca-f5579d5190b0"},"vehicle_type_id":"4","last_reported":1762349122,"current_range_meters":0,"station_id":"","pricing_plan_id":"cebpf4jnsgd1na2vs0mg"},{"bike_id":"78653021-51f7-454f-abbf-85eedff5500e","system_id":"levelo_inurba_marseille","lat":43.27618,"lon":5.36114,"is_reserved":false,"is_disabled":false,"rental_uris":{"android":"levelo://app?vid=78653021-51f7-454f-abbf-85eedff5500e","ios":"levelo://app?vid=78653021-51f7-454f-abbf-85eedff5500e"},"vehicle_type_id":"4","last_reported":1762349122,"current_range_meters":2800,"station_id":"ce4bgj92rcd13ifvqbe0","pricing_plan_id":"cebpf4jnsgd1na2vs0mg"},{"bike_id":"cf4de177-fc86-4582-a8f6-97e9b32a0db4","system_id":"levelo_inurba_marseille","lat":43.25937,"lon":5.40904,"is_reserved":false,"is_disabled":false,"rental_uris":{"android":"levelo://app?vid=cf4de177-fc86-4582-a8f6-97e9b32a0db4","ios":"levelo://app?vid=cf4de177-fc86-4582-a8f6-97e9b32a0db4"},"vehicle_type_id":"4","last_reported":1762349122,"current_range_meters":2800,"station_id":"ce4bhm92rcd13ifvqglg","pricing_plan_id":"cebpf4jnsgd1na2vs0mg"},{"bike_id":"e316d8c0-567f-4794-97db-615dfaa55771","system_id":"levelo_inurba_marseille","lat":43.29507,"lon":5.37492,"is_reserved":false,"is_disabled":true,"rental_uris":{"android":"levelo://app?vid=e316d8c0-567f-4794-97db-615dfaa55771","ios":"levelo://app?vid=e316d8c0-567f-4794-97db-615dfaa55771"},"vehicle_type_id":"4","last_reported":1762349122,"current_range_meters":2800,"station_id":"ce4bgkp2rcd13ifvqbmg","pricing_plan_id":"cebpf4jnsgd1na2vs0mg"},{"bike_id":"67842f6f-98fe-4358-b85e-7f04e0f0b59c","system_id":"levelo_inurba_marseille","lat":43.313499,"lon":5.379119,"is_reserved":false,"is_disabled":true,"rental_uris":{"android":"levelo://app?vid=67842f6f-98fe-4358-b85e-7f04e0f0b59c","ios":"levelo://app?vid=67842f6f-98fe-4358-b85e-7f04e0f0b59c"},"vehicle_type_id":"4","last_reported":1762349122,"current_range_meters":2800,"station_id":"","pricing_plan_id":"cebpf4jnsgd1na2vs0mg"},{"bike_id":"c2975991-4a66-4dd5-aff4-17f7f2536bf3","system_id":"levelo_inurba_marseille","lat":43.29605,"lon":5.37714,"is_reserved":false,"is_disabled":false,"rental_uris":{"android":"levelo://app?vid=c2975991-4a66-4dd5-aff4-17f7f2536bf3","ios":"levelo://app?vid=c2975991-4a66-4dd5-aff4-17f7f2536bf3"},"vehicle_type_id":"4","last_reported":1762349122,"current_range_meters":2800,"station_id":"ce4bgi92rcd13ifvqb90","pricing_plan_id":"cebpf4jnsgd1na2vs0mg"},{"bike_id":"5bfde13a-681a-4014-80a5-e8794835e685","system_id":"levelo_inurba_marseille","lat":43.23163,"lon":5.4374,"is_reserved":false,"is_disabled":false,"rental_uris":{"android":"levelo://app?vid=5bfde13a-681a-4014-80a5-e8794835e685","ios":"levelo://app?vid=5bfde13a-681a-4014-80a5-e8794835e685"},"vehicle_type_id":"4","last_reported":1762349122,"current_range_meters":3200,"station_id":"ce4bhmp2rcd13ifvqgog","pricing_plan_id":"cebpf4jnsgd1na2vs0mg"},{"bike_id":"994145df-abf2-4f4d-9746-dc331a3ec5c7","system_id":"levelo_inurba_marseille","lat":43.290405,"lon":5.399629,"is_reserved":false,"is_disabled":false,"rental_uris":{"android":"levelo://app?vid=994145df-abf2-4f4d-9746-dc331a3ec5c7","ios":"levelo://app?vid=994145df-abf2-4f4d-9746-dc331a3ec5c7"},"vehicle_type_id":"4","last_reported":1762349122,"current_range_meters":3200,"station_id":"ce4bh392rcd13ifvqdm0","pricing_plan_id":"cebpf4jnsgd1na2vs0mg"},{"bike_id":"c469a8f3-7eee-4b63-880b-e8922011b1b3","system_id":"levelo_inurba_marseille","lat":43.28532,"lon":5.44097,"is_reserved":false,"is_disabled":false,"rental_uris":{"android":"levelo://app?vid=c469a8f3-7eee-4b63-880b-e8922011b1b3","ios":"levelo://app?vid=c469a8f3-7eee-4b63-880b-e8922011b1b3"},"vehicle_type_id":"4","last_reported":1762349122,"current_range_meters":3200,"station_id":"st_d3j3df2ikq2c7380ej80","pricing_plan_id":"cebpf4jnsgd1na2vs0mg"},{"bike_id":"0464b9d1-e411-4c9a-8aee-df4743e5280b","system_id":"levelo_inurba_marseille","lat":43.32106,"lon":5.36772,"is_reserved":false,"is_disabled":false,"rental_uris":{"android":"levelo://app?vid=0464b9d1-e411-4c9a-8aee-df4743e5280b","ios":"levelo://app?vid=0464b9d1-e411-4c9a-8aee-df4743e5280b"},"vehicle_type_id":"4","last_reported":1762349122,"current_range_meters":3200,"station_id":"ce4bhrh2rcd13ifvqhug","pricing_plan_id":"cebpf4jnsgd1na2vs0mg"},{"bike_id":"4206fd1c-fca5-4468-81b6-1c50d2a4a589","system_id":"levelo_inurba_marseille","lat":43.2983,"lon":5.43798,"is_reserved":false,"is_disabled":false,"rental_uris":{"android":"levelo://app?vid=4206fd1c-fca5-4468-81b6-1c50d2a4a589","ios":"levelo://app?vid=4206fd1c-fca5-4468-81b6-1c50d2a4a589"},"vehicle_type_id":"4","last_reported":1762349122,"current_range_meters":3600,"station_id":"","pricing_plan_id":"cebpf4jnsgd1na2vs0mg"},{"bike_id":"c2579447-c19e-4ae5-a167-f910b7772bfe","system_id":"levelo_inurba_marseille","lat":43.30333,"lon":5.40471,"is_reserved":false,"is_disabled":false,"rental_uris":{"android":"levelo://app?vid=c2579447-c19e-4ae5-a167-f910b7772bfe","ios":"levelo://app?vid=c2579447-c19e-4ae5-a167-f910b7772bfe"},"vehicle_type_id":"4","last_reported":1762349122,"current_range_meters":3600,"station_id":"ce4bh012rcd13ifvqd10","pricing_plan_id":"cebpf4jnsgd1na2vs0mg"},{"bike_id":"066ae4c5-f672-4a13-9b01-8fb326a7397c","system_id":"levelo_inurba_marseille","lat":43.302071,"lon":5.395555,"is_reserved":false,"is_disabled":false,"rental_uris":{"android":"levelo://app?vid=066ae4c5-f672-4a13-9b01-8fb326a7397c","ios":"levelo://app?vid=066ae4c5-f672-4a13-9b01-8fb326a7397c"},"vehicle_type_id":"4","last_reported":1762349122,"current_range_meters":3600,"station_id":"ce4bh0h2rcd13ifvqd50","pricing_plan_id":"cebpf4jnsgd1na2vs0mg"},{"bike_id":"6b7227d9-546c-46d3-bac4-ddad98263634","system_id":"levelo_inurba_marseille","lat":43.27941,"lon":5.41046,"is_reserved":false,"is_disabled":true,"rental_uris":{"android":"levelo://app?vid=6b7227d9-546c-46d3-bac4-ddad98263634","ios":"levelo://app?vid=6b7227d9-546c-46d3-bac4-ddad98263634"},"vehicle_type_id":"4","last_reported":1762349122,"current_range_meters":4000,"station_id":"ce4bhnp2rcd13ifvqh0g","pricing_plan_id":"cebpf4jnsgd1na2vs0mg"},{"bike_id":"b7274164-d104-4569-8e8d-d56b2a397565","system_id":"levelo_inurba_marseille","lat":43.28471,"lon":5.48396,"is_reserved":false,"is_disabled":false,"rental_uris":{"android":"levelo://app?vid=b7274164-d104-4569-8e8d-d56b2a397565","ios":"levelo://app?vid=b7274164-d104-4569-8e8d-d56b2a397565"},"vehicle_type_id":"4","last_reported":1762349122,"current_range_meters":4000,"station_id":"st_d3svhcjqgbts73a3dn0g","pricing_plan_id":"cebpf4jnsgd1na2vs0mg"},{"bike_id":"140b7ff9-c8ad-48cb-9157-5a3f85067c0e","system_id":"levelo_inurba_marseille","lat":43.23124,"lon":5.43706,"is_reserved":false,"is_disabled":false,"rental_uris":{"android":"levelo://app?vid=140b7ff9-c8ad-48cb-9157-5a3f85067c0e","ios":"levelo://app?vid=140b7ff9-c8ad-48cb-9157-5a3f85067c0e"},"vehicle_type_id":"4","last_reported":1762349122,"current_range_meters":4000,"station_id":"ce4bhmp2rcd13ifvqgog","pricing_plan_id":"cebpf4jnsgd1na2vs0mg"},{"bike_id":"1e023dea-839a-4656-bec2-5c1fd115de7d","system_id":"levelo_inurba_marseille","lat":43.297915,"lon":5.380825,"is_reserved":false,"is_disabled":false,"rental_uris":{"android":"levelo://app?vid=1e023dea-839a-4656-bec2-5c1fd115de7d","ios":"levelo://app?vid=1e023dea-839a-4656-bec2-5c1fd115de7d"},"vehicle_type_id":"4","last_reported":1762349122,"current_range_meters":4400,"station_id":"ce4bgip2rcd13ifvqbb0","pricing_plan_id":"cebpf4jnsgd1na2vs0mg"},{"bike_id":"59ebe6d3-7cca-436f-922d-8b9c51ac34d2","system_id":"levelo_inurba_marseille","lat":43.2706,"lon":5.38316,"is_reserved":false,"is_disabled":false,"rental_uris":{"android":"levelo://app?vid=59ebe6d3-7cca-436f-922d-8b9c51ac34d2","ios":"levelo://app?vid=59ebe6d3-7cca-436f-922d-8b9c51ac34d2"},"vehicle_type_id":"4","last_reported":1762349122,"current_range_meters":4800,"station_id":"st_d3n2fo6cfp8s73cte1j0","pricing_plan_id":"cebpf4jnsgd1na2vs0mg"},{"bike_id":"b2c85356-29e2-4229-8dd2-9ef675930524","system_id":"levelo_inurba_marseille","lat":43.29707,"lon":5.37701,"is_reserved":false,"is_disabled":false,"rental_uris":{"android":"levelo://app?vid=b2c85356-29e2-4229-8dd2-9ef675930524","ios":"levelo://app?vid=b2c85356-29e2-4229-8dd2-9ef675930524"},"vehicle_type_id":"4","last_reported":1762349122,"current_range_meters":4800,"station_id":"ce4bgkh2rcd13ifvqbl0","pricing_plan_id":"cebpf4jnsgd1na2vs0mg"},{"bike_id":"887642d5-1c55-4a1c-be66-22040e42ee8a","system_id":"levelo_inurba_marseille","lat":43.25711,"lon":5.41116,"is_reserved":false,"is_disabled":false,"rental_uris":{"android":"levelo://app?vid=887642d5-1c55-4a1c-be66-22040e42ee8a","ios":"levelo://app?vid=887642d5-1c55-4a1c-be66-22040e42ee8a"},"vehicle_type_id":"4","last_reported":1762349122,"current_range_meters":4800,"station_id":"ce4bhkp2rcd13ifvqgd0","pricing_plan_id":"cebpf4jnsgd1na2vs0mg"},{"bike_id":"036b0dd2-258b-4864-991e-436be9282b5c","system_id":"levelo_inurba_marseille","lat":43.265754,"lon":5.390383,"is_reserved":false,"is_disabled":false,"rental_uris":{"android":"levelo://app?vid=036b0dd2-258b-4864-991e-436be9282b5c","ios":"levelo://app?vid=036b0dd2-258b-4864-991e-436be9282b5c"},"vehicle_type_id":"4","last_reported":1762349122,"current_range_meters":4800,"station_id":"ce4bhe12rcd13ifvqf30","pricing_plan_id":"cebpf4jnsgd1na2vs0mg"},{"bike_id":"28b85111-1e3c-4e94-9d4a-5a837507bfee","system_id":"levelo_inurba_marseille","lat":43.29734,"lon":5.42651,"is_reserved":false,"is_disabled":false,"rental_uris":{"android":"levelo://app?vid=28b85111-1e3c-4e94-9d4a-5a837507bfee","ios":"levelo://app?vid=28b85111-1e3c-4e94-9d4a-5a837507bfee"},"vehicle_type_id":"4","last_reported":1762349122,"current_range_meters":5600,"station_id":"","pricing_plan_id":"cebpf4jnsgd1na2vs0mg"},{"bike_id":"e6e6cbfc-4b6f-41b6-9ad1-61a09fa8b0b5","system_id":"levelo_inurba_marseille","lat":43.272046,"lon":5.391829,"is_reserved":false,"is_disabled":false,"rental_uris":{"android":"levelo://app?vid=e6e6cbfc-4b6f-41b6-9ad1-61a09fa8b0b5","ios":"levelo://app?vid=e6e6cbfc-4b6f-41b6-9ad1-61a09fa8b0b5"},"vehicle_type_id":"4","last_reported":1762349122,"current_range_meters":5600,"station_id":"","pricing_plan_id":"cebpf4jnsgd1na2vs0mg"},{"bike_id":"e9856231-4e72-4013-8cb8-847322beb61e","system_id":"levelo_inurba_marseille","lat":43.31547,"lon":5.37252,"is_reserved":false,"is_disabled":false,"rental_uris":{"android":"levelo://app?vid=e9856231-4e72-4013-8cb8-847322beb61e","ios":"levelo://app?vid=e9856231-4e72-4013-8cb8-847322beb61e"},"vehicle_type_id":"4","last_reported":1762349122,"current_range_meters":5600,"station_id":"","pricing_plan_id":"cebpf4jnsgd1na2vs0mg"},{"bike_id":"f9b55f15-cf36-4ad9-90e5-59c582e0b2c7","system_id":"levelo_inurba_marseille","lat":43.22983,"lon":5.44009,"is_reserved":false,"is_disabled":false,"rental_uris":{"android":"levelo://app?vid=f9b55f15-cf36-4ad9-90e5-59c582e0b2c7","ios":"levelo://app?vid=f9b55f15-cf36-4ad9-90e5-59c582e0b2c7"},"vehicle_type_id":"4","last_reported":1762349122,"current_range_meters":6000,"station_id":"","pricing_plan_id":"cebpf4jnsgd1na2vs0mg"},{"bike_id":"aa245444-6a34-4efe-9949-e29bca990e53","system_id":"levelo_inurba_marseille","lat":43.21743,"lon":5.34617,"is_reserved":false,"is_disabled":false,"rental_uris":{"android":"levelo://app?vid=aa245444-6a34-4efe-9949-e29bca990e53","ios":"levelo://app?vid=aa245444-6a34-4efe-9949-e29bca990e53"},"vehicle_type_id":"4","last_reported":1762349122,"current_range_meters":6000,"station_id":"st_cvj6r9ubvosntc0bgbag","pricing_plan_id":"cebpf4jnsgd1na2vs0mg"},{"bike_id":"b2edbec7-9959-4a3c-90f0-6e77723c6b7d","system_id":"levelo_inurba_marseille","lat":43.31717,"lon":5.42397,"is_reserved":false,"is_disabled":false,"rental_uris":{"android":"levelo://app?vid=b2edbec7-9959-4a3c-90f0-6e77723c6b7d","ios":"levelo://app?vid=b2edbec7-9959-4a3c-90f0-6e77723c6b7d"},"vehicle_type_id":"4","last_reported":1762349122,"current_range_meters":6000,"station_id":"ce4bhp92rcd13ifvqhbg","pricing_plan_id":"cebpf4jnsgd1na2vs0mg"},{"bike_id":"2f838315-9d8e-40da-9e79-103124df0adf","system_id":"levelo_inurba_marseille","lat":43.23758,"lon":5.36637,"is_reserved":false,"is_disabled":false,"rental_uris":{"android":"levelo://app?vid=2f838315-9d8e-40da-9e79-103124df0adf","ios":"levelo://app?vid=2f838315-9d8e-40da-9e79-103124df0adf"},"vehicle_type_id":"4","last_reported":1762349122,"current_range_meters":6000,"station_id":"st_d3nk18o9ro0c73en2l3g","pricing_plan_id":"cebpf4jnsgd1na2vs0mg"},{"bike_id":"28138799-2852-4d2f-b7e1-87c81b57d571","system_id":"levelo_inurba_marseille","lat":43.30132,"lon":5.38772,"is_reserved":false,"is_disabled":false,"rental_uris":{"android":"levelo://app?vid=28138799-2852-4d2f-b7e1-87c81b57d571","ios":"levelo://app?vid=28138799-2852-4d2f-b7e1-87c81b57d571"},"vehicle_type_id":"4","last_reported":1762349122,"current_range_meters":6000,"station_id":"ce4bghh2rcd13ifvqb60","pricing_plan_id":"cebpf4jnsgd1na2vs0mg"},{"bike_id":"fe87764c-d8fd-45cf-af5e-b39d52de8f1f","system_id":"levelo_inurba_marseille","lat":43.26788,"lon":5.39428,"is_reserved":false,"is_disabled":false,"rental_uris":{"android":"levelo://app?vid=fe87764c-d8fd-45cf-af5e-b39d52de8f1f","ios":"levelo://app?vid=fe87764c-d8fd-45cf-af5e-b39d52de8f1f"},"vehicle_type_id":"4","last_reported":1762349122,"current_range_meters":6000,"station_id":"ce4bhh12rcd13ifvqfg0","pricing_plan_id":"cebpf4jnsgd1na2vs0mg"},{"bike_id":"4267e7e2-2a1f-42db-8a30-b41b75895769","system_id":"levelo_inurba_marseille","lat":43.25107,"lon":5.40328,"is_reserved":false,"is_disabled":false,"rental_uris":{"android":"levelo://app?vid=4267e7e2-2a1f-42db-8a30-b41b75895769","ios":"levelo://app?vid=4267e7e2-2a1f-42db-8a30-b41b75895769"},"vehicle_type_id":"4","last_reported":1762349122,"current_range_meters":6400,"station_id":"ce4bhlh2rcd13ifvqgig","pricing_plan_id":"cebpf4jnsgd1na2vs0mg"},{"bike_id":"a07a02bf-f48e-48f1-a084-0757f112ed21","system_id":"levelo_inurba_marseille","lat":43.27426,"lon":5.3943,"is_reserved":false,"is_disabled":false,"rental_uris":{"android":"levelo://app?vid=a07a02bf-f48e-48f1-a084-0757f112ed21","ios":"levelo://app?vid=a07a02bf-f48e-48f1-a084-0757f112ed21"},"vehicle_type_id":"4","last_reported":1762349122,"current_range_meters":6400,"station_id":"ce4bhdp2rcd13ifvqf20","pricing_plan_id":"cebpf4jnsgd1na2vs0mg"},{"bike_id":"e293c94d-bbef-4cf9-b794-82c1dc96debf","system_id":"levelo_inurba_marseille","lat":43.27809,"lon":5.4072,"is_reserved":false,"is_disabled":false,"rental_uris":{"android":"levelo://app?vid=e293c94d-bbef-4cf9-b794-82c1dc96debf","ios":"levelo://app?vid=e293c94d-bbef-4cf9-b794-82c1dc96debf"},"vehicle_type_id":"4","last_reported":1762349122,"current_range_meters":6400,"station_id":"ce4bhnh2rcd13ifvqgtg","pricing_plan_id":"cebpf4jnsgd1na2vs0mg"},{"bike_id":"2d61eb2a-e36e-4366-a34c-2c28aed57ead","system_id":"levelo_inurba_marseille","lat":43.30946,"lon":5.39038,"is_reserved":false,"is_disabled":false,"rental_uris":{"android":"levelo://app?vid=2d61eb2a-e36e-4366-a34c-2c28aed57ead","ios":"levelo://app?vid=2d61eb2a-e36e-4366-a34c-2c28aed57ead"},"vehicle_type_id":"4","last_reported":1762349122,"current_range_meters":6800,"station_id":"ce4bgup2rcd13ifvqco0","pricing_plan_id":"cebpf4jnsgd1na2vs0mg"},{"bike_id":"fc8f9cae-9394-495c-ac53-7055defbc1eb","system_id":"levelo_inurba_marseille","lat":43.28461,"lon":5.35884,"is_reserved":false,"is_disabled":false,"rental_uris":{"android":"levelo://app?vid=fc8f9cae-9394-495c-ac53-7055defbc1eb","ios":"levelo://app?vid=fc8f9cae-9394-495c-ac53-7055defbc1eb"},"vehicle_type_id":"4","last_reported":1762349122,"current_range_meters":6800,"station_id":"ce4bhah2rcd13ifvqei0","pricing_plan_id":"cebpf4jnsgd1na2vs0mg"},{"bike_id":"3d9816c6-2ffc-489d-a148-871be8b82b95","system_id":"levelo_inurba_marseille","lat":43.31166,"lon":5.38724,"is_reserved":false,"is_disabled":false,"rental_uris":{"android":"levelo://app?vid=3d9816c6-2ffc-489d-a148-871be8b82b95","ios":"levelo://app?vid=3d9816c6-2ffc-489d-a148-871be8b82b95"},"vehicle_type_id":"4","last_reported":1762349122,"current_range_meters":6800,"station_id":"ce4bgv12rcd13ifvqcp0","pricing_plan_id":"cebpf4jnsgd1na2vs0mg"},{"bike_id":"3800314d-6410-4feb-bd76-28cb0729c673","system_id":"levelo_inurba_marseille","lat":43.30358,"lon":5.4008,"is_reserved":false,"is_disabled":false,"rental_uris":{"android":"levelo://app?vid=3800314d-6410-4feb-bd76-28cb0729c673","ios":"levelo://app?vid=3800314d-6410-4feb-bd76-28cb0729c673"},"vehicle_type_id":"4","last_reported":1762349122,"current_range_meters":6800,"station_id":"","pricing_plan_id":"cebpf4jnsgd1na2vs0mg"},{"bike_id":"8f0f918c-4121-4b65-946e-d51f449efc6f","system_id":"levelo_inurba_marseille","lat":43.25934,"lon":5.40915,"is_reserved":false,"is_disabled":false,"rental_uris":{"android":"levelo://app?vid=8f0f918c-4121-4b65-946e-d51f449efc6f","ios":"levelo://app?vid=8f0f918c-4121-4b65-946e-d51f449efc6f"},"vehicle_type_id":"4","last_reported":1762349122,"current_range_meters":6800,"station_id":"ce4bhm92rcd13ifvqglg","pricing_plan_id":"cebpf4jnsgd1na2vs0mg"},{"bike_id":"f0a4ca04-26ea-4d67-8f1d-fe6f062d1355","system_id":"levelo_inurba_marseille","lat":43.26491,"lon":5.39538,"is_reserved":false,"is_disabled":false,"rental_uris":{"android":"levelo://app?vid=f0a4ca04-26ea-4d67-8f1d-fe6f062d1355","ios":"levelo://app?vid=f0a4ca04-26ea-4d67-8f1d-fe6f062d1355"},"vehicle_type_id":"4","last_reported":1762349122,"current_range_meters":6800,"station_id":"ce4bhi12rcd13ifvqfq0","pricing_plan_id":"cebpf4jnsgd1na2vs0mg"},{"bike_id":"5779709c-8329-46c0-9fa5-98e9b86ab776","system_id":"levelo_inurba_marseille","lat":43.28851,"lon":5.35858,"is_reserved":false,"is_disabled":false,"rental_uris":{"android":"levelo://app?vid=5779709c-8329-46c0-9fa5-98e9b86ab776","ios":"levelo://app?vid=5779709c-8329-46c0-9fa5-98e9b86ab776"},"vehicle_type_id":"4","last_reported":1762349122,"current_range_meters":7200,"station_id":"ce4bhb12rcd13ifvqem0","pricing_plan_id":"cebpf4jnsgd1na2vs0mg"},{"bike_id":"11d40e71-4ca5-48fa-8510-84cd0e14098e","system_id":"levelo_inurba_marseille","lat":43.27951,"lon":5.38694,"is_reserved":false,"is_disabled":false,"rental_uris":{"android":"levelo://app?vid=11d40e71-4ca5-48fa-8510-84cd0e14098e","ios":"levelo://app?vid=11d40e71-4ca5-48fa-8510-84cd0e14098e"},"vehicle_type_id":"4","last_reported":1762349122,"current_range_meters":7200,"station_id":"ce4bhg12rcd13ifvqf80","pricing_plan_id":"cebpf4jnsgd1na2vs0mg"},{"bike_id":"62a7cbdc-1473-4213-b423-400b7a94035c","system_id":"levelo_inurba_marseille","lat":43.231496,"lon":5.437159,"is_reserved":false,"is_disabled":false,"rental_uris":{"android":"levelo://app?vid=62a7cbdc-1473-4213-b423-400b7a94035c","ios":"levelo://app?vid=62a7cbdc-1473-4213-b423-400b7a94035c"},"vehicle_type_id":"4","last_reported":1762349122,"current_range_meters":7200,"station_id":"","pricing_plan_id":"cebpf4jnsgd1na2vs0mg"},{"bike_id":"f558d479-ce57-4cf0-a0fa-5a549c753dc8","system_id":"levelo_inurba_marseille","lat":43.23071,"lon":5.35497,"is_reserved":false,"is_disabled":false,"rental_uris":{"android":"levelo://app?vid=f558d479-ce57-4cf0-a0fa-5a549c753dc8","ios":"levelo://app?vid=f558d479-ce57-4cf0-a0fa-5a549c753dc8"},"vehicle_type_id":"4","last_reported":1762349122,"current_range_meters":8000,"station_id":"cpo3342slgdg3j2ifvpg","pricing_plan_id":"cebpf4jnsgd1na2vs0mg"},{"bike_id":"4976ade0-c20f-459f-bfdb-1e16a8419b23","system_id":"levelo_inurba_marseille","lat":43.29526,"lon":5.38542,"is_reserved":false,"is_disabled":false,"rental_uris":{"android":"levelo://app?vid=4976ade0-c20f-459f-bfdb-1e16a8419b23","ios":"levelo://app?vid=4976ade0-c20f-459f-bfdb-1e16a8419b23"},"vehicle_type_id":"4","last_reported":1762349122,"current_range_meters":8000,"station_id":"ce4bgih2rcd13ifvqba0","pricing_plan_id":"cebpf4jnsgd1na2vs0mg"},{"bike_id":"f62a3834-e5fc-44ea-b314-17365fab1872","system_id":"levelo_inurba_marseille","lat":43.269335,"lon":5.389232,"is_reserved":false,"is_disabled":false,"rental_uris":{"android":"levelo://app?vid=f62a3834-e5fc-44ea-b314-17365fab1872","ios":"levelo://app?vid=f62a3834-e5fc-44ea-b314-17365fab1872"},"vehicle_type_id":"4","last_reported":1762349122,"current_range_meters":8000,"station_id":"ce4bhhh2rcd13ifvqfl0","pricing_plan_id":"cebpf4jnsgd1na2vs0mg"},{"bike_id":"aacf42e0-2f18-4200-a64b-11d1f88c92f0","system_id":"levelo_inurba_marseille","lat":43.292671,"lon":5.37626,"is_reserved":false,"is_disabled":true,"rental_uris":{"android":"levelo://app?vid=aacf42e0-2f18-4200-a64b-11d1f88c92f0","ios":"levelo://app?vid=aacf42e0-2f18-4200-a64b-11d1f88c92f0"},"vehicle_type_id":"4","last_reported":1762349122,"current_range_meters":8000,"station_id":"ce4bgi12rcd13ifvqb80","pricing_plan_id":"cebpf4jnsgd1na2vs0mg"},{"bike_id":"c10ec399-9c52-4d37-a96c-607ed410b782","system_id":"levelo_inurba_marseille","lat":43.262179,"lon":5.404611,"is_reserved":false,"is_disabled":false,"rental_uris":{"android":"levelo://app?vid=c10ec399-9c52-4d37-a96c-607ed410b782","ios":"levelo://app?vid=c10ec399-9c52-4d37-a96c-607ed410b782"},"vehicle_type_id":"4","last_reported":1762349122,"current_range_meters":8000,"station_id":"ce4bhmh2rcd13ifvqgmg","pricing_plan_id":"cebpf4jnsgd1na2vs0mg"},{"bike_id":"ca027186-72c6-4358-8d7a-70b219e6273a","system_id":"levelo_inurba_marseille","lat":43.35084,"lon":5.3812,"is_reserved":false,"is_disabled":false,"rental_uris":{"android":"levelo://app?vid=ca027186-72c6-4358-8d7a-70b219e6273a","ios":"levelo://app?vid=ca027186-72c6-4358-8d7a-70b219e6273a"},"vehicle_type_id":"4","last_reported":1762349122,"current_range_meters":8000,"station_id":"","pricing_plan_id":"cebpf4jnsgd1na2vs0mg"},{"bike_id":"faced5f8-0d58-4762-8c0a-2df9652fbd78","system_id":"levelo_inurba_marseille","lat":43.31347,"lon":5.36727,"is_reserved":false,"is_disabled":false,"rental_uris":{"android":"levelo://app?vid=faced5f8-0d58-4762-8c0a-2df9652fbd78","ios":"levelo://app?vid=faced5f8-0d58-4762-8c0a-2df9652fbd78"},"vehicle_type_id":"4","last_reported":1762349122,"current_range_meters":8000,"station_id":"ce4bgr92rcd13ifvqc6g","pricing_plan_id":"cebpf4jnsgd1na2vs0mg"},{"bike_id":"654dc482-8458-4686-a09b-a5e21a822232","system_id":"levelo_inurba_marseille","lat":43.23192,"lon":5.355513,"is_reserved":false,"is_disabled":true,"rental_uris":{"android":"levelo://app?vid=654dc482-8458-4686-a09b-a5e21a822232","ios":"levelo://app?vid=654dc482-8458-4686-a09b-a5e21a822232"},"vehicle_type_id":"4","last_reported":1762349122,"current_range_meters":8000,"station_id":"ce4bhu92rcd13ifvqi70","pricing_plan_id":"cebpf4jnsgd1na2vs0mg"},{"bike_id":"0b99781a-2ad5-48a3-80ff-729d58cb1be4","system_id":"levelo_inurba_marseille","lat":43.26561,"lon":5.40325,"is_reserved":false,"is_disabled":false,"rental_uris":{"android":"levelo://app?vid=0b99781a-2ad5-48a3-80ff-729d58cb1be4","ios":"levelo://app?vid=0b99781a-2ad5-48a3-80ff-729d58cb1be4"},"vehicle_type_id":"4","last_reported":1762349122,"current_range_meters":8000,"station_id":"ce4bhmp2rcd13ifvqgng","pricing_plan_id":"cebpf4jnsgd1na2vs0mg"},{"bike_id":"b1c606eb-e513-456f-8eff-6449996a6e9f","system_id":"levelo_inurba_marseille","lat":43.24635,"lon":5.43128,"is_reserved":false,"is_disabled":false,"rental_uris":{"android":"levelo://app?vid=b1c606eb-e513-456f-8eff-6449996a6e9f","ios":"levelo://app?vid=b1c606eb-e513-456f-8eff-6449996a6e9f"},"vehicle_type_id":"4","last_reported":1762349122,"current_range_meters":8000,"station_id":"st_d2m6c4gdas8pm72e190g","pricing_plan_id":"cebpf4jnsgd1na2vs0mg"},{"bike_id":"075d56b1-d6ba-4377-9ae4-c93cbf5abf7f","system_id":"levelo_inurba_marseille","lat":43.30664,"lon":5.40094,"is_reserved":false,"is_disabled":false,"rental_uris":{"android":"levelo://app?vid=075d56b1-d6ba-4377-9ae4-c93cbf5abf7f","ios":"levelo://app?vid=075d56b1-d6ba-4377-9ae4-c93cbf5abf7f"},"vehicle_type_id":"4","last_reported":1762349122,"current_range_meters":8400,"station_id":"ce4bh112rcd13ifvqda0","pricing_plan_id":"cebpf4jnsgd1na2vs0mg"},{"bike_id":"89400b87-e083-45d4-808f-319ec7d3a40e","system_id":"levelo_inurba_marseille","lat":43.29776,"lon":5.39337,"is_reserved":false,"is_disabled":false,"rental_uris":{"android":"levelo://app?vid=89400b87-e083-45d4-808f-319ec7d3a40e","ios":"levelo://app?vid=89400b87-e083-45d4-808f-319ec7d3a40e"},"vehicle_type_id":"4","last_reported":1762349122,"current_range_meters":8400,"station_id":"chh1huq6cuj3fo74tm60","pricing_plan_id":"cebpf4jnsgd1na2vs0mg"},{"bike_id":"ddb84b37-fa05-4317-b548-61c61a956ec9","system_id":"levelo_inurba_marseille","lat":43.28457,"lon":5.35898,"is_reserved":false,"is_disabled":false,"rental_uris":{"android":"levelo://app?vid=ddb84b37-fa05-4317-b548-61c61a956ec9","ios":"levelo://app?vid=ddb84b37-fa05-4317-b548-61c61a956ec9"},"vehicle_type_id":"4","last_reported":1762349122,"current_range_meters":8400,"station_id":"ce4bhah2rcd13ifvqei0","pricing_plan_id":"cebpf4jnsgd1na2vs0mg"},{"bike_id":"8625fd71-52f7-4d25-987b-6e76164035a5","system_id":"levelo_inurba_marseille","lat":43.30782,"lon":5.40544,"is_reserved":false,"is_disabled":false,"rental_uris":{"android":"levelo://app?vid=8625fd71-52f7-4d25-987b-6e76164035a5","ios":"levelo://app?vid=8625fd71-52f7-4d25-987b-6e76164035a5"},"vehicle_type_id":"4","last_reported":1762349122,"current_range_meters":8400,"station_id":"","pricing_plan_id":"cebpf4jnsgd1na2vs0mg"},{"bike_id":"f842f661-e0b9-4ed7-9590-2fd2f10216f5","system_id":"levelo_inurba_marseille","lat":43.32349,"lon":5.36734,"is_reserved":false,"is_disabled":false,"rental_uris":{"android":"levelo://app?vid=f842f661-e0b9-4ed7-9590-2fd2f10216f5","ios":"levelo://app?vid=f842f661-e0b9-4ed7-9590-2fd2f10216f5"},"vehicle_type_id":"4","last_reported":1762349122,"current_range_meters":8400,"station_id":"ce4bhsh2rcd13ifvqi2g","pricing_plan_id":"cebpf4jnsgd1na2vs0mg"},{"bike_id":"e931d45c-c0d6-40bd-8344-c7ad268a5de1","system_id":"levelo_inurba_marseille","lat":43.281337,"lon":5.426625,"is_reserved":false,"is_disabled":false,"rental_uris":{"android":"levelo://app?vid=e931d45c-c0d6-40bd-8344-c7ad268a5de1","ios":"levelo://app?vid=e931d45c-c0d6-40bd-8344-c7ad268a5de1"},"vehicle_type_id":"4","last_reported":1762349122,"current_range_meters":8400,"station_id":"ce4bhnh2rcd13ifvqgug","pricing_plan_id":"cebpf4jnsgd1na2vs0mg"},{"bike_id":"53dda434-dc8b-4c51-879b-e5cd0d7bf8c7","system_id":"levelo_inurba_marseille","lat":43.31236,"lon":5.36862,"is_reserved":false,"is_disabled":false,"rental_uris":{"android":"levelo://app?vid=53dda434-dc8b-4c51-879b-e5cd0d7bf8c7","ios":"levelo://app?vid=53dda434-dc8b-4c51-879b-e5cd0d7bf8c7"},"vehicle_type_id":"4","last_reported":1762349122,"current_range_meters":8800,"station_id":"ce4bgl92rcd13ifvqbq0","pricing_plan_id":"cebpf4jnsgd1na2vs0mg"},{"bike_id":"5e6b5e6b-9f8a-43ab-9eb8-b69e41a6c1e6","system_id":"levelo_inurba_marseille","lat":43.225298,"lon":5.348365,"is_reserved":false,"is_disabled":false,"rental_uris":{"android":"levelo://app?vid=5e6b5e6b-9f8a-43ab-9eb8-b69e41a6c1e6","ios":"levelo://app?vid=5e6b5e6b-9f8a-43ab-9eb8-b69e41a6c1e6"},"vehicle_type_id":"4","last_reported":1762349122,"current_range_meters":8800,"station_id":"","pricing_plan_id":"cebpf4jnsgd1na2vs0mg"},{"bike_id":"30e787c9-cad1-4d78-a3be-639f3585cff5","system_id":"levelo_inurba_marseille","lat":43.29625,"lon":5.37715,"is_reserved":false,"is_disabled":false,"rental_uris":{"android":"levelo://app?vid=30e787c9-cad1-4d78-a3be-639f3585cff5","ios":"levelo://app?vid=30e787c9-cad1-4d78-a3be-639f3585cff5"},"vehicle_type_id":"4","last_reported":1762349122,"current_range_meters":8800,"station_id":"ce4bgi92rcd13ifvqb90","pricing_plan_id":"cebpf4jnsgd1na2vs0mg"},{"bike_id":"eed78698-4705-4f36-b1cc-c3cc31682f5d","system_id":"levelo_inurba_marseille","lat":43.33411,"lon":5.41949,"is_reserved":false,"is_disabled":false,"rental_uris":{"android":"levelo://app?vid=eed78698-4705-4f36-b1cc-c3cc31682f5d","ios":"levelo://app?vid=eed78698-4705-4f36-b1cc-c3cc31682f5d"},"vehicle_type_id":"4","last_reported":1762349122,"current_range_meters":8800,"station_id":"","pricing_plan_id":"cebpf4jnsgd1na2vs0mg"},{"bike_id":"ad483091-7411-4e16-8cc4-09042e8161f5","system_id":"levelo_inurba_marseille","lat":43.273468,"lon":5.385179,"is_reserved":false,"is_disabled":true,"rental_uris":{"android":"levelo://app?vid=ad483091-7411-4e16-8cc4-09042e8161f5","ios":"levelo://app?vid=ad483091-7411-4e16-8cc4-09042e8161f5"},"vehicle_type_id":"4","last_reported":1762349122,"current_range_meters":8800,"station_id":"","pricing_plan_id":"cebpf4jnsgd1na2vs0mg"},{"bike_id":"26faa3b5-ca27-42e8-b96e-b08098a0b652","system_id":"levelo_inurba_marseille","lat":43.2962,"lon":5.37152,"is_reserved":false,"is_disabled":false,"rental_uris":{"android":"levelo://app?vid=26faa3b5-ca27-42e8-b96e-b08098a0b652","ios":"levelo://app?vid=26faa3b5-ca27-42e8-b96e-b08098a0b652"},"vehicle_type_id":"4","last_reported":1762349122,"current_range_meters":9200,"station_id":"ce4bgnh2rcd13ifvqc0g","pricing_plan_id":"cebpf4jnsgd1na2vs0mg"},{"bike_id":"f7a192fe-ecfa-451f-8d3a-3c4f39209fc4","system_id":"levelo_inurba_marseille","lat":43.32368,"lon":5.38886,"is_reserved":false,"is_disabled":false,"rental_uris":{"android":"levelo://app?vid=f7a192fe-ecfa-451f-8d3a-3c4f39209fc4","ios":"levelo://app?vid=f7a192fe-ecfa-451f-8d3a-3c4f39209fc4"},"vehicle_type_id":"4","last_reported":1762349122,"current_range_meters":9200,"station_id":"ce4bhqp2rcd13ifvqhog","pricing_plan_id":"cebpf4jnsgd1na2vs0mg"},{"bike_id":"cd9c6c8f-813a-4b2c-b0c7-7a3265cb2fa0","system_id":"levelo_inurba_marseille","lat":43.242358,"lon":5.393297,"is_reserved":false,"is_disabled":false,"rental_uris":{"android":"levelo://app?vid=cd9c6c8f-813a-4b2c-b0c7-7a3265cb2fa0","ios":"levelo://app?vid=cd9c6c8f-813a-4b2c-b0c7-7a3265cb2fa0"},"vehicle_type_id":"4","last_reported":1762349122,"current_range_meters":9200,"station_id":"","pricing_plan_id":"cebpf4jnsgd1na2vs0mg"},{"bike_id":"1632c4d1-dfc5-4f37-a3f1-a6882663f796","system_id":"levelo_inurba_marseille","lat":43.28459,"lon":5.35882,"is_reserved":false,"is_disabled":false,"rental_uris":{"android":"levelo://app?vid=1632c4d1-dfc5-4f37-a3f1-a6882663f796","ios":"levelo://app?vid=1632c4d1-dfc5-4f37-a3f1-a6882663f796"},"vehicle_type_id":"4","last_reported":1762349122,"current_range_meters":9200,"station_id":"ce4bhah2rcd13ifvqei0","pricing_plan_id":"cebpf4jnsgd1na2vs0mg"},{"bike_id":"29c4effc-94f7-4d7b-b8e3-80eb487d1c71","system_id":"levelo_inurba_marseille","lat":43.30947,"lon":5.39041,"is_reserved":false,"is_disabled":false,"rental_uris":{"android":"levelo://app?vid=29c4effc-94f7-4d7b-b8e3-80eb487d1c71","ios":"levelo://app?vid=29c4effc-94f7-4d7b-b8e3-80eb487d1c71"},"vehicle_type_id":"4","last_reported":1762349122,"current_range_meters":9200,"station_id":"ce4bgup2rcd13ifvqco0","pricing_plan_id":"cebpf4jnsgd1na2vs0mg"},{"bike_id":"5b847e08-3d6b-4d81-a54f-1c6807c31ca9","system_id":"levelo_inurba_marseille","lat":43.31115,"lon":5.37776,"is_reserved":false,"is_disabled":false,"rental_uris":{"android":"levelo://app?vid=5b847e08-3d6b-4d81-a54f-1c6807c31ca9","ios":"levelo://app?vid=5b847e08-3d6b-4d81-a54f-1c6807c31ca9"},"vehicle_type_id":"4","last_reported":1762349122,"current_range_meters":9600,"station_id":"ce4bgt92rcd13ifvqcg0","pricing_plan_id":"cebpf4jnsgd1na2vs0mg"},{"bike_id":"17bbf34e-30a3-48ae-89a7-101afb24d19d","system_id":"levelo_inurba_marseille","lat":43.2956,"lon":5.381621,"is_reserved":false,"is_disabled":true,"rental_uris":{"android":"levelo://app?vid=17bbf34e-30a3-48ae-89a7-101afb24d19d","ios":"levelo://app?vid=17bbf34e-30a3-48ae-89a7-101afb24d19d"},"vehicle_type_id":"4","last_reported":1762349122,"current_range_meters":9600,"station_id":"","pricing_plan_id":"cebpf4jnsgd1na2vs0mg"},{"bike_id":"8a80570e-bf7a-4811-b6f7-f7bef821bdac","system_id":"levelo_inurba_marseille","lat":43.309533,"lon":5.390179,"is_reserved":false,"is_disabled":true,"rental_uris":{"android":"levelo://app?vid=8a80570e-bf7a-4811-b6f7-f7bef821bdac","ios":"levelo://app?vid=8a80570e-bf7a-4811-b6f7-f7bef821bdac"},"vehicle_type_id":"4","last_reported":1762349122,"current_range_meters":9600,"station_id":"ce4bgkp2rcd13ifvqbmg","pricing_plan_id":"cebpf4jnsgd1na2vs0mg"},{"bike_id":"f181f5fd-b70e-4ea2-825f-df149e0ed166","system_id":"levelo_inurba_marseille","lat":43.29761,"lon":5.42781,"is_reserved":false,"is_disabled":false,"rental_uris":{"android":"levelo://app?vid=f181f5fd-b70e-4ea2-825f-df149e0ed166","ios":"levelo://app?vid=f181f5fd-b70e-4ea2-825f-df149e0ed166"},"vehicle_type_id":"4","last_reported":1762349122,"current_range_meters":9600,"station_id":"st_d3md5207bmas73dh9klg","pricing_plan_id":"cebpf4jnsgd1na2vs0mg"},{"bike_id":"9133e6a3-e292-48ba-8f23-154eaa10f07a","system_id":"levelo_inurba_marseille","lat":43.24661,"lon":5.38151,"is_reserved":false,"is_disabled":false,"rental_uris":{"android":"levelo://app?vid=9133e6a3-e292-48ba-8f23-154eaa10f07a","ios":"levelo://app?vid=9133e6a3-e292-48ba-8f23-154eaa10f07a"},"vehicle_type_id":"4","last_reported":1762349122,"current_range_meters":9600,"station_id":"ce4bhih2rcd13ifvqfr0","pricing_plan_id":"cebpf4jnsgd1na2vs0mg"},{"bike_id":"71631b2f-cdf1-4743-8c14-fd94f2e7fd2e","system_id":"levelo_inurba_marseille","lat":43.24541,"lon":5.39513,"is_reserved":false,"is_disabled":false,"rental_uris":{"android":"levelo://app?vid=71631b2f-cdf1-4743-8c14-fd94f2e7fd2e","ios":"levelo://app?vid=71631b2f-cdf1-4743-8c14-fd94f2e7fd2e"},"vehicle_type_id":"4","last_reported":1762349122,"current_range_meters":9600,"station_id":"ce4bhlp2rcd13ifvqgjg","pricing_plan_id":"cebpf4jnsgd1na2vs0mg"},{"bike_id":"63865220-b2d8-48bc-b629-21f6e39c125c","system_id":"levelo_inurba_marseille","lat":43.29265,"lon":5.38439,"is_reserved":false,"is_disabled":false,"rental_uris":{"android":"levelo://app?vid=63865220-b2d8-48bc-b629-21f6e39c125c","ios":"levelo://app?vid=63865220-b2d8-48bc-b629-21f6e39c125c"},"vehicle_type_id":"4","last_reported":1762349122,"current_range_meters":9600,"station_id":"ce4bh692rcd13ifvqea0","pricing_plan_id":"cebpf4jnsgd1na2vs0mg"},{"bike_id":"adce2f17-10d2-4348-bc53-ce245ff7f4a7","system_id":"levelo_inurba_marseille","lat":43.29564,"lon":5.37506,"is_reserved":false,"is_disabled":false,"rental_uris":{"android":"levelo://app?vid=adce2f17-10d2-4348-bc53-ce245ff7f4a7","ios":"levelo://app?vid=adce2f17-10d2-4348-bc53-ce245ff7f4a7"},"vehicle_type_id":"4","last_reported":1762349122,"current_range_meters":9600,"station_id":"ce4bgh92rcd13ifvqb50","pricing_plan_id":"cebpf4jnsgd1na2vs0mg"},{"bike_id":"279117c7-98cc-481f-91c8-c7a9f6f1227e","system_id":"levelo_inurba_marseille","lat":43.28407,"lon":5.34987,"is_reserved":false,"is_disabled":false,"rental_uris":{"android":"levelo://app?vid=279117c7-98cc-481f-91c8-c7a9f6f1227e","ios":"levelo://app?vid=279117c7-98cc-481f-91c8-c7a9f6f1227e"},"vehicle_type_id":"4","last_reported":1762349122,"current_range_meters":10000,"station_id":"ce4bhbh2rcd13ifvqepg","pricing_plan_id":"cebpf4jnsgd1na2vs0mg"},{"bike_id":"7479cfee-6f68-4a59-afc8-ceca6b83dba4","system_id":"levelo_inurba_marseille","lat":43.255706,"lon":5.382314,"is_reserved":false,"is_disabled":false,"rental_uris":{"android":"levelo://app?vid=7479cfee-6f68-4a59-afc8-ceca6b83dba4","ios":"levelo://app?vid=7479cfee-6f68-4a59-afc8-ceca6b83dba4"},"vehicle_type_id":"4","last_reported":1762349122,"current_range_meters":10000,"station_id":"ce4bhih2rcd13ifvqfs0","pricing_plan_id":"cebpf4jnsgd1na2vs0mg"},{"bike_id":"36dadbf7-a228-4f6f-8b08-391008b68693","system_id":"levelo_inurba_marseille","lat":43.345395,"lon":5.368599,"is_reserved":false,"is_disabled":false,"rental_uris":{"android":"levelo://app?vid=36dadbf7-a228-4f6f-8b08-391008b68693","ios":"levelo://app?vid=36dadbf7-a228-4f6f-8b08-391008b68693"},"vehicle_type_id":"4","last_reported":1762349122,"current_range_meters":10000,"station_id":"","pricing_plan_id":"cebpf4jnsgd1na2vs0mg"},{"bike_id":"12f0a2fa-475f-43a3-8250-e27a3f7547b9","system_id":"levelo_inurba_marseille","lat":43.29969,"lon":5.38502,"is_reserved":false,"is_disabled":false,"rental_uris":{"android":"levelo://app?vid=12f0a2fa-475f-43a3-8250-e27a3f7547b9","ios":"levelo://app?vid=12f0a2fa-475f-43a3-8250-e27a3f7547b9"},"vehicle_type_id":"4","last_reported":1762349122,"current_range_meters":10000,"station_id":"ce4bgj92rcd13ifvqbd0","pricing_plan_id":"cebpf4jnsgd1na2vs0mg"},{"bike_id":"1fa05adc-1cdd-439c-8338-11661feee686","system_id":"levelo_inurba_marseille","lat":43.27898,"lon":5.38015,"is_reserved":false,"is_disabled":false,"rental_uris":{"android":"levelo://app?vid=1fa05adc-1cdd-439c-8338-11661feee686","ios":"levelo://app?vid=1fa05adc-1cdd-439c-8338-11661feee686"},"vehicle_type_id":"4","last_reported":1762349122,"current_range_meters":10000,"station_id":"ce4bhf92rcd13ifvqf50","pricing_plan_id":"cebpf4jnsgd1na2vs0mg"},{"bike_id":"47de9693-398c-4078-bb2e-bf0d38c76c57","system_id":"levelo_inurba_marseille","lat":43.28552,"lon":5.38851,"is_reserved":false,"is_disabled":false,"rental_uris":{"android":"levelo://app?vid=47de9693-398c-4078-bb2e-bf0d38c76c57","ios":"levelo://app?vid=47de9693-398c-4078-bb2e-bf0d38c76c57"},"vehicle_type_id":"4","last_reported":1762349122,"current_range_meters":10000,"station_id":"","pricing_plan_id":"cebpf4jnsgd1na2vs0mg"},{"bike_id":"82fc0fa7-976b-4860-9185-53bd269e1313","system_id":"levelo_inurba_marseille","lat":43.28538,"lon":5.441,"is_reserved":false,"is_disabled":false,"rental_uris":{"android":"levelo://app?vid=82fc0fa7-976b-4860-9185-53bd269e1313","ios":"levelo://app?vid=82fc0fa7-976b-4860-9185-53bd269e1313"},"vehicle_type_id":"4","last_reported":1762349122,"current_range_meters":10000,"station_id":"st_d3j3df2ikq2c7380ej80","pricing_plan_id":"cebpf4jnsgd1na2vs0mg"},{"bike_id":"28069767-84bb-4c35-b19c-b38cef0c3a3a","system_id":"levelo_inurba_marseille","lat":43.27338,"lon":5.42421,"is_reserved":false,"is_disabled":false,"rental_uris":{"android":"levelo://app?vid=28069767-84bb-4c35-b19c-b38cef0c3a3a","ios":"levelo://app?vid=28069767-84bb-4c35-b19c-b38cef0c3a3a"},"vehicle_type_id":"4","last_reported":1762349122,"current_range_meters":10000,"station_id":"","pricing_plan_id":"cebpf4jnsgd1na2vs0mg"},{"bike_id":"ea4f4b84-78b0-4180-a7f8-ecb8c6182713","system_id":"levelo_inurba_marseille","lat":43.2953,"lon":5.36104,"is_reserved":false,"is_disabled":true,"rental_uris":{"android":"levelo://app?vid=ea4f4b84-78b0-4180-a7f8-ecb8c6182713","ios":"levelo://app?vid=ea4f4b84-78b0-4180-a7f8-ecb8c6182713"},"vehicle_type_id":"4","last_reported":1762349122,"current_range_meters":10000,"station_id":"","pricing_plan_id":"cebpf4jnsgd1na2vs0mg"},{"bike_id":"05ddb561-7b8f-40b7-8df0-880489339544","system_id":"levelo_inurba_marseille","lat":43.26804,"lon":5.40273,"is_reserved":false,"is_disabled":false,"rental_uris":{"android":"levelo://app?vid=05ddb561-7b8f-40b7-8df0-880489339544","ios":"levelo://app?vid=05ddb561-7b8f-40b7-8df0-880489339544"},"vehicle_type_id":"4","last_reported":1762349122,"current_range_meters":10000,"station_id":"ce501612rcd8frsf0b60","pricing_plan_id":"cebpf4jnsgd1na2vs0mg"},{"bike_id":"83fd6b1b-793d-4b4f-b8b8-524c1c6af90e","system_id":"levelo_inurba_marseille","lat":43.30325,"lon":5.40445,"is_reserved":false,"is_disabled":false,"rental_uris":{"android":"levelo://app?vid=83fd6b1b-793d-4b4f-b8b8-524c1c6af90e","ios":"levelo://app?vid=83fd6b1b-793d-4b4f-b8b8-524c1c6af90e"},"vehicle_type_id":"4","last_reported":1762349122,"current_range_meters":10800,"station_id":"ce4bh012rcd13ifvqd10","pricing_plan_id":"cebpf4jnsgd1na2vs0mg"},{"bike_id":"727a9c0d-962b-461c-aeb7-f39d94fd2815","system_id":"levelo_inurba_marseille","lat":43.25727,"lon":5.41109,"is_reserved":false,"is_disabled":false,"rental_uris":{"android":"levelo://app?vid=727a9c0d-962b-461c-aeb7-f39d94fd2815","ios":"levelo://app?vid=727a9c0d-962b-461c-aeb7-f39d94fd2815"},"vehicle_type_id":"4","last_reported":1762349122,"current_range_meters":10800,"station_id":"ce4bhkp2rcd13ifvqgd0","pricing_plan_id":"cebpf4jnsgd1na2vs0mg"},{"bike_id":"7308dfb7-28f2-4303-b59b-72ac28fc5a85","system_id":"levelo_inurba_marseille","lat":43.30905,"lon":5.36844,"is_reserved":false,"is_disabled":false,"rental_uris":{"android":"levelo://app?vid=7308dfb7-28f2-4303-b59b-72ac28fc5a85","ios":"levelo://app?vid=7308dfb7-28f2-4303-b59b-72ac28fc5a85"},"vehicle_type_id":"4","last_reported":1762349122,"current_range_meters":10800,"station_id":"ce4bgn92rcd13ifvqbvg","pricing_plan_id":"cebpf4jnsgd1na2vs0mg"},{"bike_id":"1f26d7cf-c178-41e0-b8fd-52e6feef212c","system_id":"levelo_inurba_marseille","lat":43.325404,"lon":5.414294,"is_reserved":false,"is_disabled":false,"rental_uris":{"android":"levelo://app?vid=1f26d7cf-c178-41e0-b8fd-52e6feef212c","ios":"levelo://app?vid=1f26d7cf-c178-41e0-b8fd-52e6feef212c"},"vehicle_type_id":"4","last_reported":1762349122,"current_range_meters":10800,"station_id":"ce4bhq12rcd13ifvqhhg","pricing_plan_id":"cebpf4jnsgd1na2vs0mg"},{"bike_id":"02c565c9-e1be-4475-b1a9-b37751cdb830","system_id":"levelo_inurba_marseille","lat":43.34376,"lon":5.34888,"is_reserved":false,"is_disabled":false,"rental_uris":{"android":"levelo://app?vid=02c565c9-e1be-4475-b1a9-b37751cdb830","ios":"levelo://app?vid=02c565c9-e1be-4475-b1a9-b37751cdb830"},"vehicle_type_id":"4","last_reported":1762349122,"current_range_meters":11200,"station_id":"","pricing_plan_id":"cebpf4jnsgd1na2vs0mg"},{"bike_id":"f367fe54-2e48-4cfa-b7f0-aa33bc02bcc8","system_id":"levelo_inurba_marseille","lat":43.27685,"lon":5.38895,"is_reserved":false,"is_disabled":false,"rental_uris":{"android":"levelo://app?vid=f367fe54-2e48-4cfa-b7f0-aa33bc02bcc8","ios":"levelo://app?vid=f367fe54-2e48-4cfa-b7f0-aa33bc02bcc8"},"vehicle_type_id":"4","last_reported":1762349122,"current_range_meters":11200,"station_id":"ce4bhi12rcd13ifvqfo0","pricing_plan_id":"cebpf4jnsgd1na2vs0mg"},{"bike_id":"d9fd7bb5-fd79-41f8-b907-8d24aff88403","system_id":"levelo_inurba_marseille","lat":43.30262,"lon":5.39929,"is_reserved":false,"is_disabled":false,"rental_uris":{"android":"levelo://app?vid=d9fd7bb5-fd79-41f8-b907-8d24aff88403","ios":"levelo://app?vid=d9fd7bb5-fd79-41f8-b907-8d24aff88403"},"vehicle_type_id":"4","last_reported":1762349122,"current_range_meters":11200,"station_id":"","pricing_plan_id":"cebpf4jnsgd1na2vs0mg"},{"bike_id":"8eb5f570-9a25-480b-b418-b84f2ab4ef7c","system_id":"levelo_inurba_marseille","lat":43.287076,"lon":5.373817,"is_reserved":false,"is_disabled":false,"rental_uris":{"android":"levelo://app?vid=8eb5f570-9a25-480b-b418-b84f2ab4ef7c","ios":"levelo://app?vid=8eb5f570-9a25-480b-b418-b84f2ab4ef7c"},"vehicle_type_id":"4","last_reported":1762349122,"current_range_meters":11200,"station_id":"ce4bh3p2rcd13ifvqdq0","pricing_plan_id":"cebpf4jnsgd1na2vs0mg"},{"bike_id":"93979793-1756-4705-a77d-554698a3c6ea","system_id":"levelo_inurba_marseille","lat":43.29368,"lon":5.3786,"is_reserved":false,"is_disabled":false,"rental_uris":{"android":"levelo://app?vid=93979793-1756-4705-a77d-554698a3c6ea","ios":"levelo://app?vid=93979793-1756-4705-a77d-554698a3c6ea"},"vehicle_type_id":"4","last_reported":1762349122,"current_range_meters":11200,"station_id":"ce4bgjh2rcd13ifvqbf0","pricing_plan_id":"cebpf4jnsgd1na2vs0mg"},{"bike_id":"4b24dbba-41a5-4ecf-ade9-ac15d69f3a39","system_id":"levelo_inurba_marseille","lat":43.30277,"lon":5.37689,"is_reserved":false,"is_disabled":false,"rental_uris":{"android":"levelo://app?vid=4b24dbba-41a5-4ecf-ade9-ac15d69f3a39","ios":"levelo://app?vid=4b24dbba-41a5-4ecf-ade9-ac15d69f3a39"},"vehicle_type_id":"4","last_reported":1762349122,"current_range_meters":11600,"station_id":"ce4bguh2rcd13ifvqcj0","pricing_plan_id":"cebpf4jnsgd1na2vs0mg"},{"bike_id":"dceb4beb-6bb5-4225-ae7e-d3c4b9815bbe","system_id":"levelo_inurba_marseille","lat":43.284719,"lon":5.484082,"is_reserved":false,"is_disabled":false,"rental_uris":{"android":"levelo://app?vid=dceb4beb-6bb5-4225-ae7e-d3c4b9815bbe","ios":"levelo://app?vid=dceb4beb-6bb5-4225-ae7e-d3c4b9815bbe"},"vehicle_type_id":"4","last_reported":1762349122,"current_range_meters":11600,"station_id":"st_d3svhcjqgbts73a3dn0g","pricing_plan_id":"cebpf4jnsgd1na2vs0mg"},{"bike_id":"17b3e484-a2dc-4a18-9a8e-0f2e9aa1526c","system_id":"levelo_inurba_marseille","lat":43.231331,"lon":5.43734,"is_reserved":false,"is_disabled":false,"rental_uris":{"android":"levelo://app?vid=17b3e484-a2dc-4a18-9a8e-0f2e9aa1526c","ios":"levelo://app?vid=17b3e484-a2dc-4a18-9a8e-0f2e9aa1526c"},"vehicle_type_id":"4","last_reported":1762349122,"current_range_meters":11600,"station_id":"ce4bhmp2rcd13ifvqgog","pricing_plan_id":"cebpf4jnsgd1na2vs0mg"},{"bike_id":"b9f0b48c-5091-4aa1-9a33-c184939b44ea","system_id":"levelo_inurba_marseille","lat":43.28819,"lon":5.38624,"is_reserved":false,"is_disabled":false,"rental_uris":{"android":"levelo://app?vid=b9f0b48c-5091-4aa1-9a33-c184939b44ea","ios":"levelo://app?vid=b9f0b48c-5091-4aa1-9a33-c184939b44ea"},"vehicle_type_id":"4","last_reported":1762349122,"current_range_meters":11600,"station_id":"","pricing_plan_id":"cebpf4jnsgd1na2vs0mg"},{"bike_id":"705688a3-2790-457f-a6bd-7184ba64fb54","system_id":"levelo_inurba_marseille","lat":43.24657,"lon":5.3816,"is_reserved":false,"is_disabled":false,"rental_uris":{"android":"levelo://app?vid=705688a3-2790-457f-a6bd-7184ba64fb54","ios":"levelo://app?vid=705688a3-2790-457f-a6bd-7184ba64fb54"},"vehicle_type_id":"4","last_reported":1762349122,"current_range_meters":11600,"station_id":"ce4bhih2rcd13ifvqfr0","pricing_plan_id":"cebpf4jnsgd1na2vs0mg"},{"bike_id":"e7002296-a724-4792-9c77-9aa7da662e7d","system_id":"levelo_inurba_marseille","lat":43.29752,"lon":5.36248,"is_reserved":false,"is_disabled":false,"rental_uris":{"android":"levelo://app?vid=e7002296-a724-4792-9c77-9aa7da662e7d","ios":"levelo://app?vid=e7002296-a724-4792-9c77-9aa7da662e7d"},"vehicle_type_id":"4","last_reported":1762349122,"current_range_meters":11600,"station_id":"","pricing_plan_id":"cebpf4jnsgd1na2vs0mg"},{"bike_id":"2345d568-b135-4b48-9704-ce2a4a69f2c4","system_id":"levelo_inurba_marseille","lat":43.30427,"lon":5.38886,"is_reserved":false,"is_disabled":false,"rental_uris":{"android":"levelo://app?vid=2345d568-b135-4b48-9704-ce2a4a69f2c4","ios":"levelo://app?vid=2345d568-b135-4b48-9704-ce2a4a69f2c4"},"vehicle_type_id":"4","last_reported":1762349122,"current_range_meters":11600,"station_id":"ce4bgk12rcd13ifvqbi0","pricing_plan_id":"cebpf4jnsgd1na2vs0mg"},{"bike_id":"7e8da862-2af0-47cd-9267-b7b5a54bf28d","system_id":"levelo_inurba_marseille","lat":43.229284,"lon":5.353789,"is_reserved":false,"is_disabled":false,"rental_uris":{"android":"levelo://app?vid=7e8da862-2af0-47cd-9267-b7b5a54bf28d","ios":"levelo://app?vid=7e8da862-2af0-47cd-9267-b7b5a54bf28d"},"vehicle_type_id":"4","last_reported":1762349122,"current_range_meters":12000,"station_id":"cpo3532slgdg3j2ikp40","pricing_plan_id":"cebpf4jnsgd1na2vs0mg"},{"bike_id":"765b9661-2b24-4c0f-a9fb-732d7409b10c","system_id":"levelo_inurba_marseille","lat":43.21614,"lon":5.34432,"is_reserved":false,"is_disabled":false,"rental_uris":{"android":"levelo://app?vid=765b9661-2b24-4c0f-a9fb-732d7409b10c","ios":"levelo://app?vid=765b9661-2b24-4c0f-a9fb-732d7409b10c"},"vehicle_type_id":"4","last_reported":1762349122,"current_range_meters":12000,"station_id":"","pricing_plan_id":"cebpf4jnsgd1na2vs0mg"},{"bike_id":"7c8c77e6-611f-4f5e-8374-da326e1729a3","system_id":"levelo_inurba_marseille","lat":43.298,"lon":5.44073,"is_reserved":false,"is_disabled":false,"rental_uris":{"android":"levelo://app?vid=7c8c77e6-611f-4f5e-8374-da326e1729a3","ios":"levelo://app?vid=7c8c77e6-611f-4f5e-8374-da326e1729a3"},"vehicle_type_id":"4","last_reported":1762349122,"current_range_meters":12000,"station_id":"st_d3jp68qikq2c7381ktn0","pricing_plan_id":"cebpf4jnsgd1na2vs0mg"},{"bike_id":"92f1987a-55b8-4d4f-b4b6-cdbfa4658be9","system_id":"levelo_inurba_marseille","lat":43.32475,"lon":5.36572,"is_reserved":false,"is_disabled":false,"rental_uris":{"android":"levelo://app?vid=92f1987a-55b8-4d4f-b4b6-cdbfa4658be9","ios":"levelo://app?vid=92f1987a-55b8-4d4f-b4b6-cdbfa4658be9"},"vehicle_type_id":"4","last_reported":1762349122,"current_range_meters":12000,"station_id":"ce4bhs12rcd13ifvqhvg","pricing_plan_id":"cebpf4jnsgd1na2vs0mg"},{"bike_id":"5ab6274b-8d1e-4166-afa8-5a32e0d4b43e","system_id":"levelo_inurba_marseille","lat":43.30138,"lon":5.38782,"is_reserved":false,"is_disabled":false,"rental_uris":{"android":"levelo://app?vid=5ab6274b-8d1e-4166-afa8-5a32e0d4b43e","ios":"levelo://app?vid=5ab6274b-8d1e-4166-afa8-5a32e0d4b43e"},"vehicle_type_id":"4","last_reported":1762349122,"current_range_meters":12000,"station_id":"ce4bghh2rcd13ifvqb60","pricing_plan_id":"cebpf4jnsgd1na2vs0mg"},{"bike_id":"ba2938fb-1ec4-425e-b6e5-c82904ce08fe","system_id":"levelo_inurba_marseille","lat":43.24625,"lon":5.43148,"is_reserved":false,"is_disabled":false,"rental_uris":{"android":"levelo://app?vid=ba2938fb-1ec4-425e-b6e5-c82904ce08fe","ios":"levelo://app?vid=ba2938fb-1ec4-425e-b6e5-c82904ce08fe"},"vehicle_type_id":"4","last_reported":1762349122,"current_range_meters":12000,"station_id":"st_d2m6c4gdas8pm72e190g","pricing_plan_id":"cebpf4jnsgd1na2vs0mg"},{"bike_id":"b0b9d276-407a-4a54-a28e-5094ce4baacb","system_id":"levelo_inurba_marseille","lat":43.30143,"lon":5.37424,"is_reserved":false,"is_disabled":false,"rental_uris":{"android":"levelo://app?vid=b0b9d276-407a-4a54-a28e-5094ce4baacb","ios":"levelo://app?vid=b0b9d276-407a-4a54-a28e-5094ce4baacb"},"vehicle_type_id":"4","last_reported":1762349122,"current_range_meters":12000,"station_id":"ce4bgs92rcd13ifvqcc0","pricing_plan_id":"cebpf4jnsgd1na2vs0mg"},{"bike_id":"ecde8636-2f0f-43d3-96b7-59cd7e0cf43f","system_id":"levelo_inurba_marseille","lat":43.269854,"lon":5.422203,"is_reserved":false,"is_disabled":false,"rental_uris":{"android":"levelo://app?vid=ecde8636-2f0f-43d3-96b7-59cd7e0cf43f","ios":"levelo://app?vid=ecde8636-2f0f-43d3-96b7-59cd7e0cf43f"},"vehicle_type_id":"4","last_reported":1762349122,"current_range_meters":12000,"station_id":"ce4bhk92rcd13ifvqgb0","pricing_plan_id":"cebpf4jnsgd1na2vs0mg"},{"bike_id":"b8950634-601f-4b1a-a8ca-9ac75a365486","system_id":"levelo_inurba_marseille","lat":43.30487,"lon":5.37903,"is_reserved":false,"is_disabled":false,"rental_uris":{"android":"levelo://app?vid=b8950634-601f-4b1a-a8ca-9ac75a365486","ios":"levelo://app?vid=b8950634-601f-4b1a-a8ca-9ac75a365486"},"vehicle_type_id":"4","last_reported":1762349122,"current_range_meters":12400,"station_id":"ce4bgup2rcd13ifvqcn0","pricing_plan_id":"cebpf4jnsgd1na2vs0mg"},{"bike_id":"09774ef3-71e0-480b-a7dd-b7de8d19488d","system_id":"levelo_inurba_marseille","lat":43.23143,"lon":5.43719,"is_reserved":false,"is_disabled":false,"rental_uris":{"android":"levelo://app?vid=09774ef3-71e0-480b-a7dd-b7de8d19488d","ios":"levelo://app?vid=09774ef3-71e0-480b-a7dd-b7de8d19488d"},"vehicle_type_id":"4","last_reported":1762349122,"current_range_meters":12400,"station_id":"ce4bhmp2rcd13ifvqgog","pricing_plan_id":"cebpf4jnsgd1na2vs0mg"},{"bike_id":"5f95b3ec-a0ae-4e23-a88c-93c6693e8e4a","system_id":"levelo_inurba_marseille","lat":43.287977,"lon":5.366533,"is_reserved":false,"is_disabled":false,"rental_uris":{"android":"levelo://app?vid=5f95b3ec-a0ae-4e23-a88c-93c6693e8e4a","ios":"levelo://app?vid=5f95b3ec-a0ae-4e23-a88c-93c6693e8e4a"},"vehicle_type_id":"4","last_reported":1762349122,"current_range_meters":12400,"station_id":"ce4bhah2rcd13ifvqej0","pricing_plan_id":"cebpf4jnsgd1na2vs0mg"},{"bike_id":"dae30738-204c-4787-a9b5-e056fa94e0c9","system_id":"levelo_inurba_marseille","lat":43.22556,"lon":5.41649,"is_reserved":false,"is_disabled":false,"rental_uris":{"android":"levelo://app?vid=dae30738-204c-4787-a9b5-e056fa94e0c9","ios":"levelo://app?vid=dae30738-204c-4787-a9b5-e056fa94e0c9"},"vehicle_type_id":"4","last_reported":1762349122,"current_range_meters":12400,"station_id":"st_d2o4gvlbi1j2169b742g","pricing_plan_id":"cebpf4jnsgd1na2vs0mg"},{"bike_id":"d16911f9-0093-4796-bbbd-eb912eeb6174","system_id":"levelo_inurba_marseille","lat":43.25917,"lon":5.40878,"is_reserved":false,"is_disabled":false,"rental_uris":{"android":"levelo://app?vid=d16911f9-0093-4796-bbbd-eb912eeb6174","ios":"levelo://app?vid=d16911f9-0093-4796-bbbd-eb912eeb6174"},"vehicle_type_id":"4","last_reported":1762349122,"current_range_meters":12400,"station_id":"ce4bhm92rcd13ifvqglg","pricing_plan_id":"cebpf4jnsgd1na2vs0mg"},{"bike_id":"0da36b10-9b33-4e3b-8dff-2a3894249380","system_id":"levelo_inurba_marseille","lat":43.26787,"lon":5.39413,"is_reserved":false,"is_disabled":false,"rental_uris":{"android":"levelo://app?vid=0da36b10-9b33-4e3b-8dff-2a3894249380","ios":"levelo://app?vid=0da36b10-9b33-4e3b-8dff-2a3894249380"},"vehicle_type_id":"4","last_reported":1762349122,"current_range_meters":12400,"station_id":"ce4bhh12rcd13ifvqfg0","pricing_plan_id":"cebpf4jnsgd1na2vs0mg"},{"bike_id":"e2104b6a-7e12-4a20-ae1b-cf4b446d5e26","system_id":"levelo_inurba_marseille","lat":43.28476,"lon":5.48409,"is_reserved":false,"is_disabled":false,"rental_uris":{"android":"levelo://app?vid=e2104b6a-7e12-4a20-ae1b-cf4b446d5e26","ios":"levelo://app?vid=e2104b6a-7e12-4a20-ae1b-cf4b446d5e26"},"vehicle_type_id":"4","last_reported":1762349122,"current_range_meters":12400,"station_id":"st_d3svhcjqgbts73a3dn0g","pricing_plan_id":"cebpf4jnsgd1na2vs0mg"},{"bike_id":"2ecf69a5-dd5a-4797-a967-76411d68b0f1","system_id":"levelo_inurba_marseille","lat":43.2781,"lon":5.40716,"is_reserved":false,"is_disabled":false,"rental_uris":{"android":"levelo://app?vid=2ecf69a5-dd5a-4797-a967-76411d68b0f1","ios":"levelo://app?vid=2ecf69a5-dd5a-4797-a967-76411d68b0f1"},"vehicle_type_id":"4","last_reported":1762349122,"current_range_meters":12400,"station_id":"ce4bhnh2rcd13ifvqgtg","pricing_plan_id":"cebpf4jnsgd1na2vs0mg"},{"bike_id":"bcc138ed-a420-49ce-bd09-2812d40d19ee","system_id":"levelo_inurba_marseille","lat":43.25837,"lon":5.39421,"is_reserved":false,"is_disabled":false,"rental_uris":{"android":"levelo://app?vid=bcc138ed-a420-49ce-bd09-2812d40d19ee","ios":"levelo://app?vid=bcc138ed-a420-49ce-bd09-2812d40d19ee"},"vehicle_type_id":"4","last_reported":1762349122,"current_range_meters":12400,"station_id":"ce4bhip2rcd13ifvqft0","pricing_plan_id":"cebpf4jnsgd1na2vs0mg"},{"bike_id":"e458a04e-8648-405c-ad83-b53d61f3e64a","system_id":"levelo_inurba_marseille","lat":43.229332,"lon":5.353786,"is_reserved":false,"is_disabled":false,"rental_uris":{"android":"levelo://app?vid=e458a04e-8648-405c-ad83-b53d61f3e64a","ios":"levelo://app?vid=e458a04e-8648-405c-ad83-b53d61f3e64a"},"vehicle_type_id":"4","last_reported":1762349122,"current_range_meters":12800,"station_id":"cpo3532slgdg3j2ikp40","pricing_plan_id":"cebpf4jnsgd1na2vs0mg"},{"bike_id":"82199599-7551-48d3-81a5-6ed885f0a93b","system_id":"levelo_inurba_marseille","lat":43.3046,"lon":5.37932,"is_reserved":false,"is_disabled":false,"rental_uris":{"android":"levelo://app?vid=82199599-7551-48d3-81a5-6ed885f0a93b","ios":"levelo://app?vid=82199599-7551-48d3-81a5-6ed885f0a93b"},"vehicle_type_id":"4","last_reported":1762349122,"current_range_meters":12800,"station_id":"ce4bgup2rcd13ifvqcn0","pricing_plan_id":"cebpf4jnsgd1na2vs0mg"},{"bike_id":"13c3ccaa-99d2-4685-a1fa-a15f41ed3f72","system_id":"levelo_inurba_marseille","lat":43.30562,"lon":5.36539,"is_reserved":false,"is_disabled":false,"rental_uris":{"android":"levelo://app?vid=13c3ccaa-99d2-4685-a1fa-a15f41ed3f72","ios":"levelo://app?vid=13c3ccaa-99d2-4685-a1fa-a15f41ed3f72"},"vehicle_type_id":"4","last_reported":1762349122,"current_range_meters":12800,"station_id":"ce4bgs12rcd13ifvqcag","pricing_plan_id":"cebpf4jnsgd1na2vs0mg"},{"bike_id":"5ae8ea99-7d84-48b0-b4af-a1457fc0273b","system_id":"levelo_inurba_marseille","lat":43.259314,"lon":5.409044,"is_reserved":false,"is_disabled":false,"rental_uris":{"android":"levelo://app?vid=5ae8ea99-7d84-48b0-b4af-a1457fc0273b","ios":"levelo://app?vid=5ae8ea99-7d84-48b0-b4af-a1457fc0273b"},"vehicle_type_id":"4","last_reported":1762349122,"current_range_meters":12800,"station_id":"ce4bhm92rcd13ifvqglg","pricing_plan_id":"cebpf4jnsgd1na2vs0mg"},{"bike_id":"4a17f9f5-312b-4224-8300-68793370d24c","system_id":"levelo_inurba_marseille","lat":43.29619,"lon":5.37155,"is_reserved":false,"is_disabled":false,"rental_uris":{"android":"levelo://app?vid=4a17f9f5-312b-4224-8300-68793370d24c","ios":"levelo://app?vid=4a17f9f5-312b-4224-8300-68793370d24c"},"vehicle_type_id":"4","last_reported":1762349122,"current_range_meters":12800,"station_id":"ce4bgnh2rcd13ifvqc0g","pricing_plan_id":"cebpf4jnsgd1na2vs0mg"},{"bike_id":"bacb9c52-ae0d-48f0-aa92-6c038e31315d","system_id":"levelo_inurba_marseille","lat":43.29273,"lon":5.38767,"is_reserved":false,"is_disabled":false,"rental_uris":{"android":"levelo://app?vid=bacb9c52-ae0d-48f0-aa92-6c038e31315d","ios":"levelo://app?vid=bacb9c52-ae0d-48f0-aa92-6c038e31315d"},"vehicle_type_id":"4","last_reported":1762349122,"current_range_meters":12800,"station_id":"","pricing_plan_id":"cebpf4jnsgd1na2vs0mg"},{"bike_id":"b573ac8b-cb4a-4c71-bb4e-3d473e6fb97e","system_id":"levelo_inurba_marseille","lat":43.24632,"lon":5.43147,"is_reserved":false,"is_disabled":false,"rental_uris":{"android":"levelo://app?vid=b573ac8b-cb4a-4c71-bb4e-3d473e6fb97e","ios":"levelo://app?vid=b573ac8b-cb4a-4c71-bb4e-3d473e6fb97e"},"vehicle_type_id":"4","last_reported":1762349122,"current_range_meters":12800,"station_id":"st_d2m6c4gdas8pm72e190g","pricing_plan_id":"cebpf4jnsgd1na2vs0mg"},{"bike_id":"a887b1cd-286a-477e-b7f7-98653ff5555e","system_id":"levelo_inurba_marseille","lat":43.26704,"lon":5.41224,"is_reserved":false,"is_disabled":false,"rental_uris":{"android":"levelo://app?vid=a887b1cd-286a-477e-b7f7-98653ff5555e","ios":"levelo://app?vid=a887b1cd-286a-477e-b7f7-98653ff5555e"},"vehicle_type_id":"4","last_reported":1762349122,"current_range_meters":13600,"station_id":"","pricing_plan_id":"cebpf4jnsgd1na2vs0mg"},{"bike_id":"5f93c904-b9ec-4f25-8b7b-6c7a835949a0","system_id":"levelo_inurba_marseille","lat":43.25928,"lon":5.40902,"is_reserved":false,"is_disabled":false,"rental_uris":{"android":"levelo://app?vid=5f93c904-b9ec-4f25-8b7b-6c7a835949a0","ios":"levelo://app?vid=5f93c904-b9ec-4f25-8b7b-6c7a835949a0"},"vehicle_type_id":"4","last_reported":1762349122,"current_range_meters":13600,"station_id":"ce4bhm92rcd13ifvqglg","pricing_plan_id":"cebpf4jnsgd1na2vs0mg"},{"bike_id":"f9ae971d-7f7a-4c1d-83ef-b53b52a7b47c","system_id":"levelo_inurba_marseille","lat":43.30781,"lon":5.38153,"is_reserved":false,"is_disabled":false,"rental_uris":{"android":"levelo://app?vid=f9ae971d-7f7a-4c1d-83ef-b53b52a7b47c","ios":"levelo://app?vid=f9ae971d-7f7a-4c1d-83ef-b53b52a7b47c"},"vehicle_type_id":"4","last_reported":1762349122,"current_range_meters":13600,"station_id":"ce4bgt12rcd13ifvqce0","pricing_plan_id":"cebpf4jnsgd1na2vs0mg"},{"bike_id":"ab9b2bcc-ea75-449d-adbb-4add292d38c4","system_id":"levelo_inurba_marseille","lat":43.34059,"lon":5.38121,"is_reserved":false,"is_disabled":false,"rental_uris":{"android":"levelo://app?vid=ab9b2bcc-ea75-449d-adbb-4add292d38c4","ios":"levelo://app?vid=ab9b2bcc-ea75-449d-adbb-4add292d38c4"},"vehicle_type_id":"4","last_reported":1762349122,"current_range_meters":13600,"station_id":"","pricing_plan_id":"cebpf4jnsgd1na2vs0mg"},{"bike_id":"8dcca48b-f36b-4574-ac35-0f04b245352c","system_id":"levelo_inurba_marseille","lat":43.307953,"lon":5.435225,"is_reserved":false,"is_disabled":false,"rental_uris":{"android":"levelo://app?vid=8dcca48b-f36b-4574-ac35-0f04b245352c","ios":"levelo://app?vid=8dcca48b-f36b-4574-ac35-0f04b245352c"},"vehicle_type_id":"4","last_reported":1762349122,"current_range_meters":13600,"station_id":"","pricing_plan_id":"cebpf4jnsgd1na2vs0mg"},{"bike_id":"aede2523-197d-48f9-a4e1-d4f298ddb5b5","system_id":"levelo_inurba_marseille","lat":43.31152,"lon":5.3872,"is_reserved":false,"is_disabled":false,"rental_uris":{"android":"levelo://app?vid=aede2523-197d-48f9-a4e1-d4f298ddb5b5","ios":"levelo://app?vid=aede2523-197d-48f9-a4e1-d4f298ddb5b5"},"vehicle_type_id":"4","last_reported":1762349122,"current_range_meters":14000,"station_id":"ce4bgv12rcd13ifvqcp0","pricing_plan_id":"cebpf4jnsgd1na2vs0mg"},{"bike_id":"fe2f6f05-8d5e-4a7a-aadd-cb33b6774ccc","system_id":"levelo_inurba_marseille","lat":43.28079,"lon":5.39666,"is_reserved":false,"is_disabled":false,"rental_uris":{"android":"levelo://app?vid=fe2f6f05-8d5e-4a7a-aadd-cb33b6774ccc","ios":"levelo://app?vid=fe2f6f05-8d5e-4a7a-aadd-cb33b6774ccc"},"vehicle_type_id":"4","last_reported":1762349122,"current_range_meters":14000,"station_id":"ce4bho12rcd13ifvqh2g","pricing_plan_id":"cebpf4jnsgd1na2vs0mg"},{"bike_id":"b9211a18-502a-4b61-ac71-cf29c2a37ede","system_id":"levelo_inurba_marseille","lat":43.31226,"lon":5.369,"is_reserved":false,"is_disabled":false,"rental_uris":{"android":"levelo://app?vid=b9211a18-502a-4b61-ac71-cf29c2a37ede","ios":"levelo://app?vid=b9211a18-502a-4b61-ac71-cf29c2a37ede"},"vehicle_type_id":"4","last_reported":1762349122,"current_range_meters":14000,"station_id":"ce4bgl92rcd13ifvqbq0","pricing_plan_id":"cebpf4jnsgd1na2vs0mg"},{"bike_id":"879d958d-a506-45c4-943b-a2c3fa29f453","system_id":"levelo_inurba_marseille","lat":43.21193,"lon":5.3508,"is_reserved":false,"is_disabled":false,"rental_uris":{"android":"levelo://app?vid=879d958d-a506-45c4-943b-a2c3fa29f453","ios":"levelo://app?vid=879d958d-a506-45c4-943b-a2c3fa29f453"},"vehicle_type_id":"4","last_reported":1762349122,"current_range_meters":14000,"station_id":"st_cvj6sg6p6f1abm77japg","pricing_plan_id":"cebpf4jnsgd1na2vs0mg"},{"bike_id":"20da5794-97a8-4b4e-aab5-461816702308","system_id":"levelo_inurba_marseille","lat":43.27211,"lon":5.39183,"is_reserved":false,"is_disabled":false,"rental_uris":{"android":"levelo://app?vid=20da5794-97a8-4b4e-aab5-461816702308","ios":"levelo://app?vid=20da5794-97a8-4b4e-aab5-461816702308"},"vehicle_type_id":"4","last_reported":1762349122,"current_range_meters":14400,"station_id":"ce4bhhp2rcd13ifvqfm0","pricing_plan_id":"cebpf4jnsgd1na2vs0mg"},{"bike_id":"604a4a96-00ae-4719-afaf-053b11b9b8d2","system_id":"levelo_inurba_marseille","lat":43.25345,"lon":5.42171,"is_reserved":false,"is_disabled":false,"rental_uris":{"android":"levelo://app?vid=604a4a96-00ae-4719-afaf-053b11b9b8d2","ios":"levelo://app?vid=604a4a96-00ae-4719-afaf-053b11b9b8d2"},"vehicle_type_id":"4","last_reported":1762349122,"current_range_meters":14400,"station_id":"st_d2m65c5bi1j21697t3ng","pricing_plan_id":"cebpf4jnsgd1na2vs0mg"},{"bike_id":"8718bdb6-5029-4277-a93d-0baafe3b96a9","system_id":"levelo_inurba_marseille","lat":43.26555,"lon":5.37273,"is_reserved":false,"is_disabled":false,"rental_uris":{"android":"levelo://app?vid=8718bdb6-5029-4277-a93d-0baafe3b96a9","ios":"levelo://app?vid=8718bdb6-5029-4277-a93d-0baafe3b96a9"},"vehicle_type_id":"4","last_reported":1762349122,"current_range_meters":14400,"station_id":"ce4bhg12rcd13ifvqf70","pricing_plan_id":"cebpf4jnsgd1na2vs0mg"},{"bike_id":"6edaa430-e37a-4cc5-b572-2c09b5252b2c","system_id":"levelo_inurba_marseille","lat":43.323693,"lon":5.388809,"is_reserved":false,"is_disabled":false,"rental_uris":{"android":"levelo://app?vid=6edaa430-e37a-4cc5-b572-2c09b5252b2c","ios":"levelo://app?vid=6edaa430-e37a-4cc5-b572-2c09b5252b2c"},"vehicle_type_id":"4","last_reported":1762349122,"current_range_meters":14400,"station_id":"ce4bhqp2rcd13ifvqhog","pricing_plan_id":"cebpf4jnsgd1na2vs0mg"},{"bike_id":"94b06f3e-9c43-404e-899a-d1e48d6d7a76","system_id":"levelo_inurba_marseille","lat":43.287102,"lon":5.399967,"is_reserved":false,"is_disabled":false,"rental_uris":{"android":"levelo://app?vid=94b06f3e-9c43-404e-899a-d1e48d6d7a76","ios":"levelo://app?vid=94b06f3e-9c43-404e-899a-d1e48d6d7a76"},"vehicle_type_id":"4","last_reported":1762349122,"current_range_meters":14800,"station_id":"ce4bho92rcd13ifvqh3g","pricing_plan_id":"cebpf4jnsgd1na2vs0mg"},{"bike_id":"bcb3c39b-ec48-48ef-9eac-eb8b71840959","system_id":"levelo_inurba_marseille","lat":43.33757,"lon":5.37464,"is_reserved":false,"is_disabled":false,"rental_uris":{"android":"levelo://app?vid=bcb3c39b-ec48-48ef-9eac-eb8b71840959","ios":"levelo://app?vid=bcb3c39b-ec48-48ef-9eac-eb8b71840959"},"vehicle_type_id":"4","last_reported":1762349122,"current_range_meters":14800,"station_id":"","pricing_plan_id":"cebpf4jnsgd1na2vs0mg"},{"bike_id":"22f48cc6-594c-43fb-9a62-57c1d39f6208","system_id":"levelo_inurba_marseille","lat":43.28103,"lon":5.39278,"is_reserved":false,"is_disabled":false,"rental_uris":{"android":"levelo://app?vid=22f48cc6-594c-43fb-9a62-57c1d39f6208","ios":"levelo://app?vid=22f48cc6-594c-43fb-9a62-57c1d39f6208"},"vehicle_type_id":"4","last_reported":1762349122,"current_range_meters":14800,"station_id":"","pricing_plan_id":"cebpf4jnsgd1na2vs0mg"},{"bike_id":"9439ed6c-d676-4d8f-ae18-93ccd719e0b1","system_id":"levelo_inurba_marseille","lat":43.26504,"lon":5.39565,"is_reserved":false,"is_disabled":false,"rental_uris":{"android":"levelo://app?vid=9439ed6c-d676-4d8f-ae18-93ccd719e0b1","ios":"levelo://app?vid=9439ed6c-d676-4d8f-ae18-93ccd719e0b1"},"vehicle_type_id":"4","last_reported":1762349122,"current_range_meters":14800,"station_id":"ce4bhi12rcd13ifvqfq0","pricing_plan_id":"cebpf4jnsgd1na2vs0mg"},{"bike_id":"0a567e7b-a8c7-4700-b2e5-90b665b67c4d","system_id":"levelo_inurba_marseille","lat":43.25924,"lon":5.40879,"is_reserved":false,"is_disabled":false,"rental_uris":{"android":"levelo://app?vid=0a567e7b-a8c7-4700-b2e5-90b665b67c4d","ios":"levelo://app?vid=0a567e7b-a8c7-4700-b2e5-90b665b67c4d"},"vehicle_type_id":"4","last_reported":1762349122,"current_range_meters":14800,"station_id":"ce4bhm92rcd13ifvqglg","pricing_plan_id":"cebpf4jnsgd1na2vs0mg"},{"bike_id":"126f7977-ec7a-4816-9bec-e3fecb7644bb","system_id":"levelo_inurba_marseille","lat":43.28841,"lon":5.35863,"is_reserved":false,"is_disabled":false,"rental_uris":{"android":"levelo://app?vid=126f7977-ec7a-4816-9bec-e3fecb7644bb","ios":"levelo://app?vid=126f7977-ec7a-4816-9bec-e3fecb7644bb"},"vehicle_type_id":"4","last_reported":1762349122,"current_range_meters":14800,"station_id":"ce4bhb12rcd13ifvqem0","pricing_plan_id":"cebpf4jnsgd1na2vs0mg"},{"bike_id":"9f2da96b-e073-41e9-9cb6-b8c289d4a763","system_id":"levelo_inurba_marseille","lat":43.23178,"lon":5.39986,"is_reserved":false,"is_disabled":false,"rental_uris":{"android":"levelo://app?vid=9f2da96b-e073-41e9-9cb6-b8c289d4a763","ios":"levelo://app?vid=9f2da96b-e073-41e9-9cb6-b8c289d4a763"},"vehicle_type_id":"4","last_reported":1762349122,"current_range_meters":14800,"station_id":"ce4bhn12rcd13ifvqgqg","pricing_plan_id":"cebpf4jnsgd1na2vs0mg"},{"bike_id":"38cd961b-4d33-497b-8892-a0fbcbbfdca1","system_id":"levelo_inurba_marseille","lat":43.2558,"lon":5.3823,"is_reserved":false,"is_disabled":false,"rental_uris":{"android":"levelo://app?vid=38cd961b-4d33-497b-8892-a0fbcbbfdca1","ios":"levelo://app?vid=38cd961b-4d33-497b-8892-a0fbcbbfdca1"},"vehicle_type_id":"4","last_reported":1762349122,"current_range_meters":14800,"station_id":"ce4bhih2rcd13ifvqfs0","pricing_plan_id":"cebpf4jnsgd1na2vs0mg"},{"bike_id":"663c1282-fbf9-4303-b9aa-00529c606e1f","system_id":"levelo_inurba_marseille","lat":43.31365,"lon":5.38473,"is_reserved":false,"is_disabled":false,"rental_uris":{"android":"levelo://app?vid=663c1282-fbf9-4303-b9aa-00529c606e1f","ios":"levelo://app?vid=663c1282-fbf9-4303-b9aa-00529c606e1f"},"vehicle_type_id":"4","last_reported":1762349122,"current_range_meters":14800,"station_id":"ce4bgt92rcd13ifvqcf0","pricing_plan_id":"cebpf4jnsgd1na2vs0mg"},{"bike_id":"ee7b4a2a-327b-4f7c-88c2-d8bb993ed935","system_id":"levelo_inurba_marseille","lat":43.25942,"lon":5.40886,"is_reserved":false,"is_disabled":false,"rental_uris":{"android":"levelo://app?vid=ee7b4a2a-327b-4f7c-88c2-d8bb993ed935","ios":"levelo://app?vid=ee7b4a2a-327b-4f7c-88c2-d8bb993ed935"},"vehicle_type_id":"4","last_reported":1762349122,"current_range_meters":15200,"station_id":"ce4bhm92rcd13ifvqglg","pricing_plan_id":"cebpf4jnsgd1na2vs0mg"},{"bike_id":"bcac1c24-90fc-4609-baac-34013d616e31","system_id":"levelo_inurba_marseille","lat":43.241648,"lon":5.363921,"is_reserved":false,"is_disabled":false,"rental_uris":{"android":"levelo://app?vid=bcac1c24-90fc-4609-baac-34013d616e31","ios":"levelo://app?vid=bcac1c24-90fc-4609-baac-34013d616e31"},"vehicle_type_id":"4","last_reported":1762349122,"current_range_meters":15200,"station_id":"cpo36qri1sfpv3e86is0","pricing_plan_id":"cebpf4jnsgd1na2vs0mg"},{"bike_id":"9f42320e-716a-463d-a0ac-defefad10bcf","system_id":"levelo_inurba_marseille","lat":43.24173,"lon":5.397296,"is_reserved":false,"is_disabled":false,"rental_uris":{"android":"levelo://app?vid=9f42320e-716a-463d-a0ac-defefad10bcf","ios":"levelo://app?vid=9f42320e-716a-463d-a0ac-defefad10bcf"},"vehicle_type_id":"4","last_reported":1762349122,"current_range_meters":15200,"station_id":"ce4bhn12rcd13ifvqgpg","pricing_plan_id":"cebpf4jnsgd1na2vs0mg"},{"bike_id":"c14b70b2-98d4-4848-a2d9-32722b8d1daf","system_id":"levelo_inurba_marseille","lat":43.32108,"lon":5.36787,"is_reserved":false,"is_disabled":false,"rental_uris":{"android":"levelo://app?vid=c14b70b2-98d4-4848-a2d9-32722b8d1daf","ios":"levelo://app?vid=c14b70b2-98d4-4848-a2d9-32722b8d1daf"},"vehicle_type_id":"4","last_reported":1762349122,"current_range_meters":15200,"station_id":"ce4bhrh2rcd13ifvqhug","pricing_plan_id":"cebpf4jnsgd1na2vs0mg"},{"bike_id":"42d2792a-88bd-48e5-afe0-4b6400cd337a","system_id":"levelo_inurba_marseille","lat":43.31666,"lon":5.38226,"is_reserved":false,"is_disabled":false,"rental_uris":{"android":"levelo://app?vid=42d2792a-88bd-48e5-afe0-4b6400cd337a","ios":"levelo://app?vid=42d2792a-88bd-48e5-afe0-4b6400cd337a"},"vehicle_type_id":"4","last_reported":1762349122,"current_range_meters":15200,"station_id":"","pricing_plan_id":"cebpf4jnsgd1na2vs0mg"},{"bike_id":"dbb6b5e9-b188-4887-bba4-ba2a589c69fd","system_id":"levelo_inurba_marseille","lat":43.25882,"lon":5.39896,"is_reserved":false,"is_disabled":false,"rental_uris":{"android":"levelo://app?vid=dbb6b5e9-b188-4887-bba4-ba2a589c69fd","ios":"levelo://app?vid=dbb6b5e9-b188-4887-bba4-ba2a589c69fd"},"vehicle_type_id":"4","last_reported":1762349122,"current_range_meters":15200,"station_id":"ce4bhl92rcd13ifvqghg","pricing_plan_id":"cebpf4jnsgd1na2vs0mg"},{"bike_id":"8dc7779b-3ef6-4e6f-af35-7b777172050f","system_id":"levelo_inurba_marseille","lat":43.257168,"lon":5.410979,"is_reserved":false,"is_disabled":false,"rental_uris":{"android":"levelo://app?vid=8dc7779b-3ef6-4e6f-af35-7b777172050f","ios":"levelo://app?vid=8dc7779b-3ef6-4e6f-af35-7b777172050f"},"vehicle_type_id":"4","last_reported":1762349122,"current_range_meters":15200,"station_id":"ce4bhkp2rcd13ifvqgd0","pricing_plan_id":"cebpf4jnsgd1na2vs0mg"},{"bike_id":"27aefe03-bbd2-43d3-8d72-3a7105da9194","system_id":"levelo_inurba_marseille","lat":43.31356,"lon":5.37911,"is_reserved":false,"is_disabled":false,"rental_uris":{"android":"levelo://app?vid=27aefe03-bbd2-43d3-8d72-3a7105da9194","ios":"levelo://app?vid=27aefe03-bbd2-43d3-8d72-3a7105da9194"},"vehicle_type_id":"4","last_reported":1762349122,"current_range_meters":15200,"station_id":"","pricing_plan_id":"cebpf4jnsgd1na2vs0mg"},{"bike_id":"81dcc136-dea2-46c0-98af-42dbdee92b54","system_id":"levelo_inurba_marseille","lat":43.284735,"lon":5.484094,"is_reserved":false,"is_disabled":false,"rental_uris":{"android":"levelo://app?vid=81dcc136-dea2-46c0-98af-42dbdee92b54","ios":"levelo://app?vid=81dcc136-dea2-46c0-98af-42dbdee92b54"},"vehicle_type_id":"4","last_reported":1762349122,"current_range_meters":15200,"station_id":"","pricing_plan_id":"cebpf4jnsgd1na2vs0mg"},{"bike_id":"e2c2b61c-f03c-4a6b-86fe-7a3a994f4b2b","system_id":"levelo_inurba_marseille","lat":43.30912,"lon":5.36866,"is_reserved":false,"is_disabled":false,"rental_uris":{"android":"levelo://app?vid=e2c2b61c-f03c-4a6b-86fe-7a3a994f4b2b","ios":"levelo://app?vid=e2c2b61c-f03c-4a6b-86fe-7a3a994f4b2b"},"vehicle_type_id":"4","last_reported":1762349122,"current_range_meters":15200,"station_id":"ce4bgn92rcd13ifvqbvg","pricing_plan_id":"cebpf4jnsgd1na2vs0mg"},{"bike_id":"1f21d1bf-7bfe-4ad2-9993-587586886f5e","system_id":"levelo_inurba_marseille","lat":43.27499,"lon":5.4245,"is_reserved":false,"is_disabled":false,"rental_uris":{"android":"levelo://app?vid=1f21d1bf-7bfe-4ad2-9993-587586886f5e","ios":"levelo://app?vid=1f21d1bf-7bfe-4ad2-9993-587586886f5e"},"vehicle_type_id":"4","last_reported":1762349122,"current_range_meters":16000,"station_id":"ce4bhn92rcd13ifvqgrg","pricing_plan_id":"cebpf4jnsgd1na2vs0mg"},{"bike_id":"0b70ad78-1965-41d8-a947-c05919da1b58","system_id":"levelo_inurba_marseille","lat":43.31084,"lon":5.42432,"is_reserved":false,"is_disabled":false,"rental_uris":{"android":"levelo://app?vid=0b70ad78-1965-41d8-a947-c05919da1b58","ios":"levelo://app?vid=0b70ad78-1965-41d8-a947-c05919da1b58"},"vehicle_type_id":"4","last_reported":1762349122,"current_range_meters":16000,"station_id":"ce4bhp92rcd13ifvqhag","pricing_plan_id":"cebpf4jnsgd1na2vs0mg"},{"bike_id":"813d84df-d28e-442a-86a4-2693a3f1117d","system_id":"levelo_inurba_marseille","lat":43.23049,"lon":5.35468,"is_reserved":false,"is_disabled":false,"rental_uris":{"android":"levelo://app?vid=813d84df-d28e-442a-86a4-2693a3f1117d","ios":"levelo://app?vid=813d84df-d28e-442a-86a4-2693a3f1117d"},"vehicle_type_id":"4","last_reported":1762349122,"current_range_meters":16000,"station_id":"cpo3342slgdg3j2ifvpg","pricing_plan_id":"cebpf4jnsgd1na2vs0mg"},{"bike_id":"a7f06d63-6c02-423f-94e0-7e3009819feb","system_id":"levelo_inurba_marseille","lat":43.30537,"lon":5.36721,"is_reserved":false,"is_disabled":false,"rental_uris":{"android":"levelo://app?vid=a7f06d63-6c02-423f-94e0-7e3009819feb","ios":"levelo://app?vid=a7f06d63-6c02-423f-94e0-7e3009819feb"},"vehicle_type_id":"4","last_reported":1762349122,"current_range_meters":16000,"station_id":"ce4bgrp2rcd13ifvqc9g","pricing_plan_id":"cebpf4jnsgd1na2vs0mg"},{"bike_id":"cff64f4e-5f37-43ea-ae7e-1ca574864a38","system_id":"levelo_inurba_marseille","lat":43.32441,"lon":5.42733,"is_reserved":false,"is_disabled":false,"rental_uris":{"android":"levelo://app?vid=cff64f4e-5f37-43ea-ae7e-1ca574864a38","ios":"levelo://app?vid=cff64f4e-5f37-43ea-ae7e-1ca574864a38"},"vehicle_type_id":"4","last_reported":1762349122,"current_range_meters":16000,"station_id":"","pricing_plan_id":"cebpf4jnsgd1na2vs0mg"},{"bike_id":"1ed22b7a-dc3d-4f79-8221-4432c0d926c8","system_id":"levelo_inurba_marseille","lat":43.26193,"lon":5.3745,"is_reserved":false,"is_disabled":false,"rental_uris":{"android":"levelo://app?vid=1ed22b7a-dc3d-4f79-8221-4432c0d926c8","ios":"levelo://app?vid=1ed22b7a-dc3d-4f79-8221-4432c0d926c8"},"vehicle_type_id":"4","last_reported":1762349122,"current_range_meters":16000,"station_id":"ce4bhgp2rcd13ifvqfc0","pricing_plan_id":"cebpf4jnsgd1na2vs0mg"},{"bike_id":"81ac0ba6-3f71-481e-bb86-6417cb8d40e0","system_id":"levelo_inurba_marseille","lat":43.30948,"lon":5.39049,"is_reserved":false,"is_disabled":false,"rental_uris":{"android":"levelo://app?vid=81ac0ba6-3f71-481e-bb86-6417cb8d40e0","ios":"levelo://app?vid=81ac0ba6-3f71-481e-bb86-6417cb8d40e0"},"vehicle_type_id":"4","last_reported":1762349122,"current_range_meters":16000,"station_id":"ce4bgup2rcd13ifvqco0","pricing_plan_id":"cebpf4jnsgd1na2vs0mg"},{"bike_id":"ca46fdbd-ac89-432a-9c58-507605a7d54c","system_id":"levelo_inurba_marseille","lat":43.29269,"lon":5.37629,"is_reserved":false,"is_disabled":false,"rental_uris":{"android":"levelo://app?vid=ca46fdbd-ac89-432a-9c58-507605a7d54c","ios":"levelo://app?vid=ca46fdbd-ac89-432a-9c58-507605a7d54c"},"vehicle_type_id":"4","last_reported":1762349122,"current_range_meters":16000,"station_id":"ce4bgi12rcd13ifvqb80","pricing_plan_id":"cebpf4jnsgd1na2vs0mg"},{"bike_id":"0672cd33-e8f3-4d78-ae9d-38368285ad6f","system_id":"levelo_inurba_marseille","lat":43.29625,"lon":5.37166,"is_reserved":false,"is_disabled":false,"rental_uris":{"android":"levelo://app?vid=0672cd33-e8f3-4d78-ae9d-38368285ad6f","ios":"levelo://app?vid=0672cd33-e8f3-4d78-ae9d-38368285ad6f"},"vehicle_type_id":"4","last_reported":1762349122,"current_range_meters":16000,"station_id":"ce4bgnh2rcd13ifvqc0g","pricing_plan_id":"cebpf4jnsgd1na2vs0mg"},{"bike_id":"d5f03a16-afb9-4cd4-ad13-88cb33c9f5ce","system_id":"levelo_inurba_marseille","lat":43.29091,"lon":5.38153,"is_reserved":false,"is_disabled":false,"rental_uris":{"android":"levelo://app?vid=d5f03a16-afb9-4cd4-ad13-88cb33c9f5ce","ios":"levelo://app?vid=d5f03a16-afb9-4cd4-ad13-88cb33c9f5ce"},"vehicle_type_id":"4","last_reported":1762349122,"current_range_meters":16000,"station_id":"ce4bh512rcd13ifvqe2g","pricing_plan_id":"cebpf4jnsgd1na2vs0mg"},{"bike_id":"20e2438e-6a75-44cf-8959-f01276b88cdd","system_id":"levelo_inurba_marseille","lat":43.27995,"lon":5.40007,"is_reserved":false,"is_disabled":false,"rental_uris":{"android":"levelo://app?vid=20e2438e-6a75-44cf-8959-f01276b88cdd","ios":"levelo://app?vid=20e2438e-6a75-44cf-8959-f01276b88cdd"},"vehicle_type_id":"4","last_reported":1762349122,"current_range_meters":16000,"station_id":"ce4bho92rcd13ifvqh4g","pricing_plan_id":"cebpf4jnsgd1na2vs0mg"},{"bike_id":"cae79087-0d8c-456b-808b-67649a544dde","system_id":"levelo_inurba_marseille","lat":43.25113,"lon":5.40322,"is_reserved":false,"is_disabled":false,"rental_uris":{"android":"levelo://app?vid=cae79087-0d8c-456b-808b-67649a544dde","ios":"levelo://app?vid=cae79087-0d8c-456b-808b-67649a544dde"},"vehicle_type_id":"4","last_reported":1762349122,"current_range_meters":16000,"station_id":"ce4bhlh2rcd13ifvqgig","pricing_plan_id":"cebpf4jnsgd1na2vs0mg"},{"bike_id":"61d604da-77f9-401a-9720-8b04cc50ea08","system_id":"levelo_inurba_marseille","lat":43.27566,"lon":5.38427,"is_reserved":false,"is_disabled":false,"rental_uris":{"android":"levelo://app?vid=61d604da-77f9-401a-9720-8b04cc50ea08","ios":"levelo://app?vid=61d604da-77f9-401a-9720-8b04cc50ea08"},"vehicle_type_id":"4","last_reported":1762349122,"current_range_meters":16000,"station_id":"ce4bhh92rcd13ifvqfi0","pricing_plan_id":"cebpf4jnsgd1na2vs0mg"},{"bike_id":"8cf54d33-efb5-4166-8509-df2cb57488b1","system_id":"levelo_inurba_marseille","lat":43.33421,"lon":5.40034,"is_reserved":false,"is_disabled":false,"rental_uris":{"android":"levelo://app?vid=8cf54d33-efb5-4166-8509-df2cb57488b1","ios":"levelo://app?vid=8cf54d33-efb5-4166-8509-df2cb57488b1"},"vehicle_type_id":"4","last_reported":1762349122,"current_range_meters":16000,"station_id":"","pricing_plan_id":"cebpf4jnsgd1na2vs0mg"},{"bike_id":"c35ae767-b94d-4a13-984c-f18ce49a28eb","system_id":"levelo_inurba_marseille","lat":43.31172,"lon":5.387187,"is_reserved":false,"is_disabled":false,"rental_uris":{"android":"levelo://app?vid=c35ae767-b94d-4a13-984c-f18ce49a28eb","ios":"levelo://app?vid=c35ae767-b94d-4a13-984c-f18ce49a28eb"},"vehicle_type_id":"4","last_reported":1762349122,"current_range_meters":16400,"station_id":"ce4bgv12rcd13ifvqcp0","pricing_plan_id":"cebpf4jnsgd1na2vs0mg"},{"bike_id":"64f63343-4494-416c-90c6-98a294ecb70d","system_id":"levelo_inurba_marseille","lat":43.30956,"lon":5.39037,"is_reserved":false,"is_disabled":false,"rental_uris":{"android":"levelo://app?vid=64f63343-4494-416c-90c6-98a294ecb70d","ios":"levelo://app?vid=64f63343-4494-416c-90c6-98a294ecb70d"},"vehicle_type_id":"4","last_reported":1762349122,"current_range_meters":16400,"station_id":"ce4bgup2rcd13ifvqco0","pricing_plan_id":"cebpf4jnsgd1na2vs0mg"},{"bike_id":"c6d2dafc-fb2c-4b82-8b78-f3d7d347211b","system_id":"levelo_inurba_marseille","lat":43.32353,"lon":5.36733,"is_reserved":false,"is_disabled":false,"rental_uris":{"android":"levelo://app?vid=c6d2dafc-fb2c-4b82-8b78-f3d7d347211b","ios":"levelo://app?vid=c6d2dafc-fb2c-4b82-8b78-f3d7d347211b"},"vehicle_type_id":"4","last_reported":1762349122,"current_range_meters":16400,"station_id":"ce4bhsh2rcd13ifvqi2g","pricing_plan_id":"cebpf4jnsgd1na2vs0mg"},{"bike_id":"89668189-b95b-43c4-a0b4-cad5f1f90638","system_id":"levelo_inurba_marseille","lat":43.3017,"lon":5.38115,"is_reserved":false,"is_disabled":true,"rental_uris":{"android":"levelo://app?vid=89668189-b95b-43c4-a0b4-cad5f1f90638","ios":"levelo://app?vid=89668189-b95b-43c4-a0b4-cad5f1f90638"},"vehicle_type_id":"4","last_reported":1762349122,"current_range_meters":16400,"station_id":"ce4bgjp2rcd13ifvqbh0","pricing_plan_id":"cebpf4jnsgd1na2vs0mg"},{"bike_id":"eec9c292-9e04-48fd-8154-21c5b9e6c93b","system_id":"levelo_inurba_marseille","lat":43.28611,"lon":5.3511,"is_reserved":false,"is_disabled":false,"rental_uris":{"android":"levelo://app?vid=eec9c292-9e04-48fd-8154-21c5b9e6c93b","ios":"levelo://app?vid=eec9c292-9e04-48fd-8154-21c5b9e6c93b"},"vehicle_type_id":"4","last_reported":1762349122,"current_range_meters":16400,"station_id":"ce4bhch2rcd13ifvqeug","pricing_plan_id":"cebpf4jnsgd1na2vs0mg"},{"bike_id":"d8c5c888-31e3-48d4-8881-36cdc651e5df","system_id":"levelo_inurba_marseille","lat":43.22532,"lon":5.34842,"is_reserved":false,"is_disabled":false,"rental_uris":{"android":"levelo://app?vid=d8c5c888-31e3-48d4-8881-36cdc651e5df","ios":"levelo://app?vid=d8c5c888-31e3-48d4-8881-36cdc651e5df"},"vehicle_type_id":"4","last_reported":1762349122,"current_range_meters":16400,"station_id":"","pricing_plan_id":"cebpf4jnsgd1na2vs0mg"},{"bike_id":"22f9a369-683c-4ee7-a362-c654110ecbc2","system_id":"levelo_inurba_marseille","lat":43.30533,"lon":5.38425,"is_reserved":false,"is_disabled":false,"rental_uris":{"android":"levelo://app?vid=22f9a369-683c-4ee7-a362-c654110ecbc2","ios":"levelo://app?vid=22f9a369-683c-4ee7-a362-c654110ecbc2"},"vehicle_type_id":"4","last_reported":1762349122,"current_range_meters":16400,"station_id":"ce4bgg92rcd13ifvqb30","pricing_plan_id":"cebpf4jnsgd1na2vs0mg"},{"bike_id":"a1e62124-48f5-4f46-9a34-a097be464e5a","system_id":"levelo_inurba_marseille","lat":43.30733,"lon":5.42473,"is_reserved":false,"is_disabled":false,"rental_uris":{"android":"levelo://app?vid=a1e62124-48f5-4f46-9a34-a097be464e5a","ios":"levelo://app?vid=a1e62124-48f5-4f46-9a34-a097be464e5a"},"vehicle_type_id":"4","last_reported":1762349122,"current_range_meters":16400,"station_id":"st_cvj6ca6bvosntc0bfgr0","pricing_plan_id":"cebpf4jnsgd1na2vs0mg"},{"bike_id":"4b9b61f9-e84c-4648-b6f6-faf53029a4ee","system_id":"levelo_inurba_marseille","lat":43.27066,"lon":5.42281,"is_reserved":false,"is_disabled":false,"rental_uris":{"android":"levelo://app?vid=4b9b61f9-e84c-4648-b6f6-faf53029a4ee","ios":"levelo://app?vid=4b9b61f9-e84c-4648-b6f6-faf53029a4ee"},"vehicle_type_id":"4","last_reported":1762349122,"current_range_meters":16800,"station_id":"ce4bhk92rcd13ifvqgb0","pricing_plan_id":"cebpf4jnsgd1na2vs0mg"},{"bike_id":"b38291d5-95f5-4acd-9e6d-a9aa047fbb3d","system_id":"levelo_inurba_marseille","lat":43.26536,"lon":5.37342,"is_reserved":false,"is_disabled":false,"rental_uris":{"android":"levelo://app?vid=b38291d5-95f5-4acd-9e6d-a9aa047fbb3d","ios":"levelo://app?vid=b38291d5-95f5-4acd-9e6d-a9aa047fbb3d"},"vehicle_type_id":"4","last_reported":1762349122,"current_range_meters":16800,"station_id":"","pricing_plan_id":"cebpf4jnsgd1na2vs0mg"},{"bike_id":"5498fff1-bad7-4fe9-a980-89edcdfca969","system_id":"levelo_inurba_marseille","lat":43.26225,"lon":5.40455,"is_reserved":false,"is_disabled":false,"rental_uris":{"android":"levelo://app?vid=5498fff1-bad7-4fe9-a980-89edcdfca969","ios":"levelo://app?vid=5498fff1-bad7-4fe9-a980-89edcdfca969"},"vehicle_type_id":"4","last_reported":1762349122,"current_range_meters":16800,"station_id":"ce4bhmh2rcd13ifvqgmg","pricing_plan_id":"cebpf4jnsgd1na2vs0mg"},{"bike_id":"657ae5d2-7824-467a-af19-111c99196a49","system_id":"levelo_inurba_marseille","lat":43.30906,"lon":5.36847,"is_reserved":false,"is_disabled":false,"rental_uris":{"android":"levelo://app?vid=657ae5d2-7824-467a-af19-111c99196a49","ios":"levelo://app?vid=657ae5d2-7824-467a-af19-111c99196a49"},"vehicle_type_id":"4","last_reported":1762349122,"current_range_meters":16800,"station_id":"ce4bgn92rcd13ifvqbvg","pricing_plan_id":"cebpf4jnsgd1na2vs0mg"},{"bike_id":"a6010974-670e-49c0-b408-8e5fee4c2775","system_id":"levelo_inurba_marseille","lat":43.24155,"lon":5.36382,"is_reserved":false,"is_disabled":false,"rental_uris":{"android":"levelo://app?vid=a6010974-670e-49c0-b408-8e5fee4c2775","ios":"levelo://app?vid=a6010974-670e-49c0-b408-8e5fee4c2775"},"vehicle_type_id":"4","last_reported":1762349122,"current_range_meters":16800,"station_id":"cpo36qri1sfpv3e86is0","pricing_plan_id":"cebpf4jnsgd1na2vs0mg"},{"bike_id":"cb8ee62f-fc52-4fa5-a545-b823cfc4aedd","system_id":"levelo_inurba_marseille","lat":43.32362,"lon":5.38901,"is_reserved":false,"is_disabled":false,"rental_uris":{"android":"levelo://app?vid=cb8ee62f-fc52-4fa5-a545-b823cfc4aedd","ios":"levelo://app?vid=cb8ee62f-fc52-4fa5-a545-b823cfc4aedd"},"vehicle_type_id":"4","last_reported":1762349122,"current_range_meters":16800,"station_id":"ce4bhqp2rcd13ifvqhog","pricing_plan_id":"cebpf4jnsgd1na2vs0mg"},{"bike_id":"7b27bc8f-3ee9-4d6a-89db-08fea62226a9","system_id":"levelo_inurba_marseille","lat":43.262,"lon":5.37945,"is_reserved":false,"is_disabled":false,"rental_uris":{"android":"levelo://app?vid=7b27bc8f-3ee9-4d6a-89db-08fea62226a9","ios":"levelo://app?vid=7b27bc8f-3ee9-4d6a-89db-08fea62226a9"},"vehicle_type_id":"4","last_reported":1762349122,"current_range_meters":16800,"station_id":"ce4bhjp2rcd13ifvqg90","pricing_plan_id":"cebpf4jnsgd1na2vs0mg"},{"bike_id":"302a54b6-94f8-4e2e-aa42-d3a7c1af3a9c","system_id":"levelo_inurba_marseille","lat":43.30111,"lon":5.43131,"is_reserved":false,"is_disabled":false,"rental_uris":{"android":"levelo://app?vid=302a54b6-94f8-4e2e-aa42-d3a7c1af3a9c","ios":"levelo://app?vid=302a54b6-94f8-4e2e-aa42-d3a7c1af3a9c"},"vehicle_type_id":"4","last_reported":1762349122,"current_range_meters":16800,"station_id":"st_d3js3co5814s73ftftug","pricing_plan_id":"cebpf4jnsgd1na2vs0mg"},{"bike_id":"3517c829-5868-451e-a2ab-1c037110fd0b","system_id":"levelo_inurba_marseille","lat":43.26546,"lon":5.37379,"is_reserved":false,"is_disabled":false,"rental_uris":{"android":"levelo://app?vid=3517c829-5868-451e-a2ab-1c037110fd0b","ios":"levelo://app?vid=3517c829-5868-451e-a2ab-1c037110fd0b"},"vehicle_type_id":"4","last_reported":1762349122,"current_range_meters":16800,"station_id":"ce4bhg12rcd13ifvqf70","pricing_plan_id":"cebpf4jnsgd1na2vs0mg"},{"bike_id":"e946e9ec-a4d2-434a-b465-1ffc5a3e6b52","system_id":"levelo_inurba_marseille","lat":43.25936,"lon":5.4092,"is_reserved":false,"is_disabled":false,"rental_uris":{"android":"levelo://app?vid=e946e9ec-a4d2-434a-b465-1ffc5a3e6b52","ios":"levelo://app?vid=e946e9ec-a4d2-434a-b465-1ffc5a3e6b52"},"vehicle_type_id":"4","last_reported":1762349122,"current_range_meters":16800,"station_id":"ce4bhm92rcd13ifvqglg","pricing_plan_id":"cebpf4jnsgd1na2vs0mg"},{"bike_id":"aee05e44-58d8-4251-b642-bba3a7afe48a","system_id":"levelo_inurba_marseille","lat":43.2119,"lon":5.35086,"is_reserved":false,"is_disabled":false,"rental_uris":{"android":"levelo://app?vid=aee05e44-58d8-4251-b642-bba3a7afe48a","ios":"levelo://app?vid=aee05e44-58d8-4251-b642-bba3a7afe48a"},"vehicle_type_id":"4","last_reported":1762349122,"current_range_meters":16800,"station_id":"st_cvj6sg6p6f1abm77japg","pricing_plan_id":"cebpf4jnsgd1na2vs0mg"},{"bike_id":"460958aa-abb4-46e7-a2e3-909165861081","system_id":"levelo_inurba_marseille","lat":43.298533,"lon":5.362785,"is_reserved":false,"is_disabled":false,"rental_uris":{"android":"levelo://app?vid=460958aa-abb4-46e7-a2e3-909165861081","ios":"levelo://app?vid=460958aa-abb4-46e7-a2e3-909165861081"},"vehicle_type_id":"4","last_reported":1762349122,"current_range_meters":16800,"station_id":"ce4bgpp2rcd13ifvqc3g","pricing_plan_id":"cebpf4jnsgd1na2vs0mg"},{"bike_id":"47736315-8b90-44cc-b99f-8aef71ce361f","system_id":"levelo_inurba_marseille","lat":43.311512,"lon":5.388249,"is_reserved":false,"is_disabled":false,"rental_uris":{"android":"levelo://app?vid=47736315-8b90-44cc-b99f-8aef71ce361f","ios":"levelo://app?vid=47736315-8b90-44cc-b99f-8aef71ce361f"},