{"last_updated":1761941496,"ttl":60,"version":"2.2","data":{"bikes":[{"bike_id":"03d7b585-a9e2-4849-adb5-0b83ea69e280","system_id":"levelo_inurba_marseille","lat":43.279427,"lon":5.41038,"is_reserved":false,"is_disabled":false,"rental_uris":{"android":"levelo://app?vid=03d7b585-a9e2-4849-adb5-0b83ea69e280","ios":"levelo://app?vid=03d7b585-a9e2-4849-adb5-0b83ea69e280"},"vehicle_type_id":"4","last_reported":1761941496,"current_range_meters":2800,"station_id":"ce4bhnp2rcd13ifvqh0g","pricing_plan_id":"cebpf4jnsgd1na2vs0mg"},{"bike_id":"502d8826-83c4-45cd-b1be-c0ab97727776","system_id":"levelo_inurba_marseille","lat":43.33711,"lon":5.39178,"is_reserved":false,"is_disabled":false,"rental_uris":{"android":"levelo://app?vid=502d8826-83c4-45cd-b1be-c0ab97727776","ios":"levelo://app?vid=502d8826-83c4-45cd-b1be-c0ab97727776"},"vehicle_type_id":"4","last_reported":1761941496,"current_range_meters":3200,"station_id":"ce4bhr92rcd13ifvqhsg","pricing_plan_id":"cebpf4jnsgd1na2vs0mg"},{"bike_id":"be0f9feb-1e97-4b7a-b0ec-f7e35eb1f312","system_id":"levelo_inurba_marseille","lat":43.28926,"lon":5.38395,"is_reserved":false,"is_disabled":false,"rental_uris":{"android":"levelo://app?vid=be0f9feb-1e97-4b7a-b0ec-f7e35eb1f312","ios":"levelo://app?vid=be0f9feb-1e97-4b7a-b0ec-f7e35eb1f312"},"vehicle_type_id":"4","last_reported":1761941496,"current_range_meters":3200,"station_id":"ce4bh612rcd13ifvqe6g","pricing_plan_id":"cebpf4jnsgd1na2vs0mg"},{"bike_id":"80d3e652-6aea-4931-9dae-279d5865e8a7","system_id":"levelo_inurba_marseille","lat":43.30741,"lon":5.37036,"is_reserved":false,"is_disabled":false,"rental_uris":{"android":"levelo://app?vid=80d3e652-6aea-4931-9dae-279d5865e8a7","ios":"levelo://app?vid=80d3e652-6aea-4931-9dae-279d5865e8a7"},"vehicle_type_id":"4","last_reported":1761941496,"current_range_meters":3600,"station_id":"","pricing_plan_id":"cebpf4jnsgd1na2vs0mg"},{"bike_id":"fbd91a42-8524-47ff-b7e1-76ce56aa2a51","system_id":"levelo_inurba_marseille","lat":43.25339,"lon":5.42195,"is_reserved":false,"is_disabled":false,"rental_uris":{"android":"levelo://app?vid=fbd91a42-8524-47ff-b7e1-76ce56aa2a51","ios":"levelo://app?vid=fbd91a42-8524-47ff-b7e1-76ce56aa2a51"},"vehicle_type_id":"4","last_reported":1761941496,"current_range_meters":3600,"station_id":"st_d2m65c5bi1j21697t3ng","pricing_plan_id":"cebpf4jnsgd1na2vs0mg"},{"bike_id":"f9a30996-fcf0-4586-a5d2-cf80104d1773","system_id":"levelo_inurba_marseille","lat":43.28412,"lon":5.37513,"is_reserved":false,"is_disabled":false,"rental_uris":{"android":"levelo://app?vid=f9a30996-fcf0-4586-a5d2-cf80104d1773","ios":"levelo://app?vid=f9a30996-fcf0-4586-a5d2-cf80104d1773"},"vehicle_type_id":"4","last_reported":1761941496,"current_range_meters":4000,"station_id":"ce4bh412rcd13ifvqds0","pricing_plan_id":"cebpf4jnsgd1na2vs0mg"},{"bike_id":"187c9dd3-990b-4e75-bbb0-de3c66274966","system_id":"levelo_inurba_marseille","lat":43.31702,"lon":5.40446,"is_reserved":false,"is_disabled":false,"rental_uris":{"android":"levelo://app?vid=187c9dd3-990b-4e75-bbb0-de3c66274966","ios":"levelo://app?vid=187c9dd3-990b-4e75-bbb0-de3c66274966"},"vehicle_type_id":"4","last_reported":1761941496,"current_range_meters":4400,"station_id":"ce4bh012rcd13ifvqd00","pricing_plan_id":"cebpf4jnsgd1na2vs0mg"},{"bike_id":"7429e722-0140-4583-bd6d-6fc4e8aad56b","system_id":"levelo_inurba_marseille","lat":43.305314,"lon":5.370559,"is_reserved":false,"is_disabled":false,"rental_uris":{"android":"levelo://app?vid=7429e722-0140-4583-bd6d-6fc4e8aad56b","ios":"levelo://app?vid=7429e722-0140-4583-bd6d-6fc4e8aad56b"},"vehicle_type_id":"4","last_reported":1761941496,"current_range_meters":4800,"station_id":"","pricing_plan_id":"cebpf4jnsgd1na2vs0mg"},{"bike_id":"ed059341-f3be-45d0-8bd8-0c8a0fb703eb","system_id":"levelo_inurba_marseille","lat":43.29027,"lon":5.38642,"is_reserved":false,"is_disabled":false,"rental_uris":{"android":"levelo://app?vid=ed059341-f3be-45d0-8bd8-0c8a0fb703eb","ios":"levelo://app?vid=ed059341-f3be-45d0-8bd8-0c8a0fb703eb"},"vehicle_type_id":"4","last_reported":1761941496,"current_range_meters":4800,"station_id":"ce4bh4p2rcd13ifvqe0g","pricing_plan_id":"cebpf4jnsgd1na2vs0mg"},{"bike_id":"3651c4aa-08a1-49ae-a599-8f74f8252178","system_id":"levelo_inurba_marseille","lat":43.30433,"lon":5.38888,"is_reserved":false,"is_disabled":false,"rental_uris":{"android":"levelo://app?vid=3651c4aa-08a1-49ae-a599-8f74f8252178","ios":"levelo://app?vid=3651c4aa-08a1-49ae-a599-8f74f8252178"},"vehicle_type_id":"4","last_reported":1761941496,"current_range_meters":5600,"station_id":"ce4bgk12rcd13ifvqbi0","pricing_plan_id":"cebpf4jnsgd1na2vs0mg"},{"bike_id":"c7712653-9fe0-4bdc-8aa3-75545e0ff7ef","system_id":"levelo_inurba_marseille","lat":43.29635,"lon":5.3805,"is_reserved":false,"is_disabled":false,"rental_uris":{"android":"levelo://app?vid=c7712653-9fe0-4bdc-8aa3-75545e0ff7ef","ios":"levelo://app?vid=c7712653-9fe0-4bdc-8aa3-75545e0ff7ef"},"vehicle_type_id":"4","last_reported":1761941496,"current_range_meters":5600,"station_id":"","pricing_plan_id":"cebpf4jnsgd1na2vs0mg"},{"bike_id":"1bdb0524-fd2f-434a-9e83-4b7a1a09b5bb","system_id":"levelo_inurba_marseille","lat":43.33388,"lon":5.41127,"is_reserved":false,"is_disabled":false,"rental_uris":{"android":"levelo://app?vid=1bdb0524-fd2f-434a-9e83-4b7a1a09b5bb","ios":"levelo://app?vid=1bdb0524-fd2f-434a-9e83-4b7a1a09b5bb"},"vehicle_type_id":"4","last_reported":1761941496,"current_range_meters":5600,"station_id":"","pricing_plan_id":"cebpf4jnsgd1na2vs0mg"},{"bike_id":"e1aff080-21b0-4275-9d19-a442626c54b0","system_id":"levelo_inurba_marseille","lat":43.32367,"lon":5.38884,"is_reserved":false,"is_disabled":false,"rental_uris":{"android":"levelo://app?vid=e1aff080-21b0-4275-9d19-a442626c54b0","ios":"levelo://app?vid=e1aff080-21b0-4275-9d19-a442626c54b0"},"vehicle_type_id":"4","last_reported":1761941496,"current_range_meters":5600,"station_id":"ce4bhqp2rcd13ifvqhog","pricing_plan_id":"cebpf4jnsgd1na2vs0mg"},{"bike_id":"b8e8f624-25f1-4537-845a-1740b5f64814","system_id":"levelo_inurba_marseille","lat":43.29555,"lon":5.4227,"is_reserved":false,"is_disabled":false,"rental_uris":{"android":"levelo://app?vid=b8e8f624-25f1-4537-845a-1740b5f64814","ios":"levelo://app?vid=b8e8f624-25f1-4537-845a-1740b5f64814"},"vehicle_type_id":"4","last_reported":1761941496,"current_range_meters":6000,"station_id":"ce4bhph2rcd13ifvqhdg","pricing_plan_id":"cebpf4jnsgd1na2vs0mg"},{"bike_id":"6357b643-31fd-4ce9-bf78-eb6c2df213a2","system_id":"levelo_inurba_marseille","lat":43.29535,"lon":5.3902,"is_reserved":false,"is_disabled":false,"rental_uris":{"android":"levelo://app?vid=6357b643-31fd-4ce9-bf78-eb6c2df213a2","ios":"levelo://app?vid=6357b643-31fd-4ce9-bf78-eb6c2df213a2"},"vehicle_type_id":"4","last_reported":1761941496,"current_range_meters":6000,"station_id":"","pricing_plan_id":"cebpf4jnsgd1na2vs0mg"},{"bike_id":"6fff56e2-dc33-4322-9554-e738206d1bc0","system_id":"levelo_inurba_marseille","lat":43.21186,"lon":5.35066,"is_reserved":false,"is_disabled":false,"rental_uris":{"android":"levelo://app?vid=6fff56e2-dc33-4322-9554-e738206d1bc0","ios":"levelo://app?vid=6fff56e2-dc33-4322-9554-e738206d1bc0"},"vehicle_type_id":"4","last_reported":1761941496,"current_range_meters":6000,"station_id":"st_cvj6sg6p6f1abm77japg","pricing_plan_id":"cebpf4jnsgd1na2vs0mg"},{"bike_id":"a927b327-6c0a-4271-92d1-8aa8ec56ed3f","system_id":"levelo_inurba_marseille","lat":43.29528,"lon":5.385413,"is_reserved":false,"is_disabled":false,"rental_uris":{"android":"levelo://app?vid=a927b327-6c0a-4271-92d1-8aa8ec56ed3f","ios":"levelo://app?vid=a927b327-6c0a-4271-92d1-8aa8ec56ed3f"},"vehicle_type_id":"4","last_reported":1761941496,"current_range_meters":6000,"station_id":"ce4bgih2rcd13ifvqba0","pricing_plan_id":"cebpf4jnsgd1na2vs0mg"},{"bike_id":"f1fb0e92-7dc0-4bd5-ae13-00df0e23f008","system_id":"levelo_inurba_marseille","lat":43.24663,"lon":5.38165,"is_reserved":false,"is_disabled":false,"rental_uris":{"android":"levelo://app?vid=f1fb0e92-7dc0-4bd5-ae13-00df0e23f008","ios":"levelo://app?vid=f1fb0e92-7dc0-4bd5-ae13-00df0e23f008"},"vehicle_type_id":"4","last_reported":1761941496,"current_range_meters":6000,"station_id":"ce4bhih2rcd13ifvqfr0","pricing_plan_id":"cebpf4jnsgd1na2vs0mg"},{"bike_id":"65eb9f43-50b7-4816-8b37-7fb614d22e26","system_id":"levelo_inurba_marseille","lat":43.30522,"lon":5.36691,"is_reserved":false,"is_disabled":false,"rental_uris":{"android":"levelo://app?vid=65eb9f43-50b7-4816-8b37-7fb614d22e26","ios":"levelo://app?vid=65eb9f43-50b7-4816-8b37-7fb614d22e26"},"vehicle_type_id":"4","last_reported":1761941496,"current_range_meters":6400,"station_id":"ce4bgrp2rcd13ifvqc9g","pricing_plan_id":"cebpf4jnsgd1na2vs0mg"},{"bike_id":"4ea5c8d3-596b-4c15-9f77-2d54d14bff42","system_id":"levelo_inurba_marseille","lat":43.29875,"lon":5.3844,"is_reserved":false,"is_disabled":false,"rental_uris":{"android":"levelo://app?vid=4ea5c8d3-596b-4c15-9f77-2d54d14bff42","ios":"levelo://app?vid=4ea5c8d3-596b-4c15-9f77-2d54d14bff42"},"vehicle_type_id":"4","last_reported":1761941496,"current_range_meters":6400,"station_id":"","pricing_plan_id":"cebpf4jnsgd1na2vs0mg"},{"bike_id":"a9b96ece-b91f-4803-9ae5-ab1c80f8034c","system_id":"levelo_inurba_marseille","lat":43.25725,"lon":5.41103,"is_reserved":false,"is_disabled":false,"rental_uris":{"android":"levelo://app?vid=a9b96ece-b91f-4803-9ae5-ab1c80f8034c","ios":"levelo://app?vid=a9b96ece-b91f-4803-9ae5-ab1c80f8034c"},"vehicle_type_id":"4","last_reported":1761941496,"current_range_meters":6800,"station_id":"ce4bhkp2rcd13ifvqgd0","pricing_plan_id":"cebpf4jnsgd1na2vs0mg"},{"bike_id":"afd3bf2e-00d1-41f8-ad90-f5c852d4383e","system_id":"levelo_inurba_marseille","lat":43.25336,"lon":5.4217,"is_reserved":false,"is_disabled":false,"rental_uris":{"android":"levelo://app?vid=afd3bf2e-00d1-41f8-ad90-f5c852d4383e","ios":"levelo://app?vid=afd3bf2e-00d1-41f8-ad90-f5c852d4383e"},"vehicle_type_id":"4","last_reported":1761941496,"current_range_meters":7200,"station_id":"st_d2m65c5bi1j21697t3ng","pricing_plan_id":"cebpf4jnsgd1na2vs0mg"},{"bike_id":"3dc661ff-5f62-43cb-b0ca-d255d22ee989","system_id":"levelo_inurba_marseille","lat":43.27211,"lon":5.39183,"is_reserved":false,"is_disabled":false,"rental_uris":{"android":"levelo://app?vid=3dc661ff-5f62-43cb-b0ca-d255d22ee989","ios":"levelo://app?vid=3dc661ff-5f62-43cb-b0ca-d255d22ee989"},"vehicle_type_id":"4","last_reported":1761941496,"current_range_meters":7200,"station_id":"ce4bhhp2rcd13ifvqfm0","pricing_plan_id":"cebpf4jnsgd1na2vs0mg"},{"bike_id":"b3da9764-5166-412c-ae7a-d87934d55928","system_id":"levelo_inurba_marseille","lat":43.257167,"lon":5.411158,"is_reserved":false,"is_disabled":false,"rental_uris":{"android":"levelo://app?vid=b3da9764-5166-412c-ae7a-d87934d55928","ios":"levelo://app?vid=b3da9764-5166-412c-ae7a-d87934d55928"},"vehicle_type_id":"4","last_reported":1761941496,"current_range_meters":7200,"station_id":"ce4bhkp2rcd13ifvqgd0","pricing_plan_id":"cebpf4jnsgd1na2vs0mg"},{"bike_id":"699d8f46-418e-4ac2-9a8d-149ee1ace077","system_id":"levelo_inurba_marseille","lat":43.25822,"lon":5.39434,"is_reserved":false,"is_disabled":false,"rental_uris":{"android":"levelo://app?vid=699d8f46-418e-4ac2-9a8d-149ee1ace077","ios":"levelo://app?vid=699d8f46-418e-4ac2-9a8d-149ee1ace077"},"vehicle_type_id":"4","last_reported":1761941496,"current_range_meters":7200,"station_id":"ce4bhip2rcd13ifvqft0","pricing_plan_id":"cebpf4jnsgd1na2vs0mg"},{"bike_id":"99dcc97a-b2dd-4a64-a819-297da00fd74c","system_id":"levelo_inurba_marseille","lat":43.2963,"lon":5.40597,"is_reserved":false,"is_disabled":false,"rental_uris":{"android":"levelo://app?vid=99dcc97a-b2dd-4a64-a819-297da00fd74c","ios":"levelo://app?vid=99dcc97a-b2dd-4a64-a819-297da00fd74c"},"vehicle_type_id":"4","last_reported":1761941496,"current_range_meters":8000,"station_id":"ce4bh0h2rcd13ifvqd60","pricing_plan_id":"cebpf4jnsgd1na2vs0mg"},{"bike_id":"688e0991-23bb-4f67-a97d-b9bb7704a66a","system_id":"levelo_inurba_marseille","lat":43.29255,"lon":5.39101,"is_reserved":false,"is_disabled":false,"rental_uris":{"android":"levelo://app?vid=688e0991-23bb-4f67-a97d-b9bb7704a66a","ios":"levelo://app?vid=688e0991-23bb-4f67-a97d-b9bb7704a66a"},"vehicle_type_id":"4","last_reported":1761941496,"current_range_meters":8000,"station_id":"","pricing_plan_id":"cebpf4jnsgd1na2vs0mg"},{"bike_id":"fcab4ddf-7c9a-4832-a957-af763c1f4abb","system_id":"levelo_inurba_marseille","lat":43.30383,"lon":5.4249,"is_reserved":false,"is_disabled":true,"rental_uris":{"android":"levelo://app?vid=fcab4ddf-7c9a-4832-a957-af763c1f4abb","ios":"levelo://app?vid=fcab4ddf-7c9a-4832-a957-af763c1f4abb"},"vehicle_type_id":"4","last_reported":1761941496,"current_range_meters":8000,"station_id":"ce4bhoh2rcd13ifvqh6g","pricing_plan_id":"cebpf4jnsgd1na2vs0mg"},{"bike_id":"963537c0-d668-4657-aa81-b24faa594524","system_id":"levelo_inurba_marseille","lat":43.24802,"lon":5.37456,"is_reserved":false,"is_disabled":false,"rental_uris":{"android":"levelo://app?vid=963537c0-d668-4657-aa81-b24faa594524","ios":"levelo://app?vid=963537c0-d668-4657-aa81-b24faa594524"},"vehicle_type_id":"4","last_reported":1761941496,"current_range_meters":8400,"station_id":"ce4bhgh2rcd13ifvqfb0","pricing_plan_id":"cebpf4jnsgd1na2vs0mg"},{"bike_id":"0a64590a-e587-40e4-bedd-35503586ad44","system_id":"levelo_inurba_marseille","lat":43.27206,"lon":5.3918,"is_reserved":false,"is_disabled":false,"rental_uris":{"android":"levelo://app?vid=0a64590a-e587-40e4-bedd-35503586ad44","ios":"levelo://app?vid=0a64590a-e587-40e4-bedd-35503586ad44"},"vehicle_type_id":"4","last_reported":1761941496,"current_range_meters":8400,"station_id":"ce4bhhp2rcd13ifvqfm0","pricing_plan_id":"cebpf4jnsgd1na2vs0mg"},{"bike_id":"9f8d350e-3116-42ed-a432-d650d47d5608","system_id":"levelo_inurba_marseille","lat":43.2887,"lon":5.4251,"is_reserved":false,"is_disabled":false,"rental_uris":{"android":"levelo://app?vid=9f8d350e-3116-42ed-a432-d650d47d5608","ios":"levelo://app?vid=9f8d350e-3116-42ed-a432-d650d47d5608"},"vehicle_type_id":"4","last_reported":1761941496,"current_range_meters":8400,"station_id":"st_d3b462108ojc7389ooeg","pricing_plan_id":"cebpf4jnsgd1na2vs0mg"},{"bike_id":"dbbf01d5-146c-4703-b0d4-a6fb876476cb","system_id":"levelo_inurba_marseille","lat":43.211953,"lon":5.35079,"is_reserved":false,"is_disabled":false,"rental_uris":{"android":"levelo://app?vid=dbbf01d5-146c-4703-b0d4-a6fb876476cb","ios":"levelo://app?vid=dbbf01d5-146c-4703-b0d4-a6fb876476cb"},"vehicle_type_id":"4","last_reported":1761941496,"current_range_meters":8400,"station_id":"st_cvj6sg6p6f1abm77japg","pricing_plan_id":"cebpf4jnsgd1na2vs0mg"},{"bike_id":"73100a13-5452-417c-b3fa-d41e45e02e18","system_id":"levelo_inurba_marseille","lat":43.29471,"lon":5.38544,"is_reserved":false,"is_disabled":false,"rental_uris":{"android":"levelo://app?vid=73100a13-5452-417c-b3fa-d41e45e02e18","ios":"levelo://app?vid=73100a13-5452-417c-b3fa-d41e45e02e18"},"vehicle_type_id":"4","last_reported":1761941496,"current_range_meters":8400,"station_id":"","pricing_plan_id":"cebpf4jnsgd1na2vs0mg"},{"bike_id":"3dab03ab-b250-4b40-b286-0668266ab52e","system_id":"levelo_inurba_marseille","lat":43.2886,"lon":5.42518,"is_reserved":false,"is_disabled":false,"rental_uris":{"android":"levelo://app?vid=3dab03ab-b250-4b40-b286-0668266ab52e","ios":"levelo://app?vid=3dab03ab-b250-4b40-b286-0668266ab52e"},"vehicle_type_id":"4","last_reported":1761941496,"current_range_meters":8800,"station_id":"st_d3b462108ojc7389ooeg","pricing_plan_id":"cebpf4jnsgd1na2vs0mg"},{"bike_id":"b7bf08da-3155-4ebd-90f6-2c65138a1e9a","system_id":"levelo_inurba_marseille","lat":43.21196,"lon":5.35056,"is_reserved":false,"is_disabled":false,"rental_uris":{"android":"levelo://app?vid=b7bf08da-3155-4ebd-90f6-2c65138a1e9a","ios":"levelo://app?vid=b7bf08da-3155-4ebd-90f6-2c65138a1e9a"},"vehicle_type_id":"4","last_reported":1761941496,"current_range_meters":8800,"station_id":"st_cvj6sg6p6f1abm77japg","pricing_plan_id":"cebpf4jnsgd1na2vs0mg"},{"bike_id":"066f8f42-50ce-4c9b-b28d-05dec3aea7ee","system_id":"levelo_inurba_marseille","lat":43.29484,"lon":5.43316,"is_reserved":false,"is_disabled":false,"rental_uris":{"android":"levelo://app?vid=066f8f42-50ce-4c9b-b28d-05dec3aea7ee","ios":"levelo://app?vid=066f8f42-50ce-4c9b-b28d-05dec3aea7ee"},"vehicle_type_id":"4","last_reported":1761941496,"current_range_meters":8800,"station_id":"st_d3j5ugp08ojc73fj9d10","pricing_plan_id":"cebpf4jnsgd1na2vs0mg"},{"bike_id":"3fba44d0-77a4-4854-bb42-3dedb127a9c9","system_id":"levelo_inurba_marseille","lat":43.29533,"lon":5.39019,"is_reserved":false,"is_disabled":false,"rental_uris":{"android":"levelo://app?vid=3fba44d0-77a4-4854-bb42-3dedb127a9c9","ios":"levelo://app?vid=3fba44d0-77a4-4854-bb42-3dedb127a9c9"},"vehicle_type_id":"4","last_reported":1761941496,"current_range_meters":8800,"station_id":"ce4bh3p2rcd13ifvqdp0","pricing_plan_id":"cebpf4jnsgd1na2vs0mg"},{"bike_id":"d30971f8-b748-4c26-a282-c86cad907482","system_id":"levelo_inurba_marseille","lat":43.30257,"lon":5.38465,"is_reserved":false,"is_disabled":false,"rental_uris":{"android":"levelo://app?vid=d30971f8-b748-4c26-a282-c86cad907482","ios":"levelo://app?vid=d30971f8-b748-4c26-a282-c86cad907482"},"vehicle_type_id":"4","last_reported":1761941496,"current_range_meters":8800,"station_id":"","pricing_plan_id":"cebpf4jnsgd1na2vs0mg"},{"bike_id":"d99505fe-d7a7-4e44-b7f5-f0065cd01a03","system_id":"levelo_inurba_marseille","lat":43.33381,"lon":5.42889,"is_reserved":false,"is_disabled":false,"rental_uris":{"android":"levelo://app?vid=d99505fe-d7a7-4e44-b7f5-f0065cd01a03","ios":"levelo://app?vid=d99505fe-d7a7-4e44-b7f5-f0065cd01a03"},"vehicle_type_id":"4","last_reported":1761941496,"current_range_meters":9200,"station_id":"","pricing_plan_id":"cebpf4jnsgd1na2vs0mg"},{"bike_id":"9b93b5e1-c939-4745-bf85-2d21945442dc","system_id":"levelo_inurba_marseille","lat":43.29992,"lon":5.36403,"is_reserved":false,"is_disabled":false,"rental_uris":{"android":"levelo://app?vid=9b93b5e1-c939-4745-bf85-2d21945442dc","ios":"levelo://app?vid=9b93b5e1-c939-4745-bf85-2d21945442dc"},"vehicle_type_id":"4","last_reported":1761941496,"current_range_meters":9200,"station_id":"","pricing_plan_id":"cebpf4jnsgd1na2vs0mg"},{"bike_id":"a18dbf48-2c4d-4fa4-a4c5-c9871d73c9a0","system_id":"levelo_inurba_marseille","lat":43.301994,"lon":5.383462,"is_reserved":false,"is_disabled":false,"rental_uris":{"android":"levelo://app?vid=a18dbf48-2c4d-4fa4-a4c5-c9871d73c9a0","ios":"levelo://app?vid=a18dbf48-2c4d-4fa4-a4c5-c9871d73c9a0"},"vehicle_type_id":"4","last_reported":1761941496,"current_range_meters":9200,"station_id":"ce4bgup2rcd13ifvqcn0","pricing_plan_id":"cebpf4jnsgd1na2vs0mg"},{"bike_id":"aa2f553c-e345-4196-aab3-ca656545fe7f","system_id":"levelo_inurba_marseille","lat":43.27945,"lon":5.41044,"is_reserved":false,"is_disabled":false,"rental_uris":{"android":"levelo://app?vid=aa2f553c-e345-4196-aab3-ca656545fe7f","ios":"levelo://app?vid=aa2f553c-e345-4196-aab3-ca656545fe7f"},"vehicle_type_id":"4","last_reported":1761941496,"current_range_meters":9200,"station_id":"ce4bhnp2rcd13ifvqh0g","pricing_plan_id":"cebpf4jnsgd1na2vs0mg"},{"bike_id":"1fa638f1-2f03-4488-ae65-70b476eeb3b9","system_id":"levelo_inurba_marseille","lat":43.30429,"lon":5.38893,"is_reserved":false,"is_disabled":false,"rental_uris":{"android":"levelo://app?vid=1fa638f1-2f03-4488-ae65-70b476eeb3b9","ios":"levelo://app?vid=1fa638f1-2f03-4488-ae65-70b476eeb3b9"},"vehicle_type_id":"4","last_reported":1761941496,"current_range_meters":9200,"station_id":"ce4bgk12rcd13ifvqbi0","pricing_plan_id":"cebpf4jnsgd1na2vs0mg"},{"bike_id":"84a7e43e-135b-4037-b0a2-8f4921b8aa95","system_id":"levelo_inurba_marseille","lat":43.30914,"lon":5.40144,"is_reserved":false,"is_disabled":false,"rental_uris":{"android":"levelo://app?vid=84a7e43e-135b-4037-b0a2-8f4921b8aa95","ios":"levelo://app?vid=84a7e43e-135b-4037-b0a2-8f4921b8aa95"},"vehicle_type_id":"4","last_reported":1761941496,"current_range_meters":9600,"station_id":"ce4bgvp2rcd13ifvqct0","pricing_plan_id":"cebpf4jnsgd1na2vs0mg"},{"bike_id":"253f0a75-f988-48d8-b65f-2aed9312ed49","system_id":"levelo_inurba_marseille","lat":43.26223,"lon":5.40462,"is_reserved":false,"is_disabled":false,"rental_uris":{"android":"levelo://app?vid=253f0a75-f988-48d8-b65f-2aed9312ed49","ios":"levelo://app?vid=253f0a75-f988-48d8-b65f-2aed9312ed49"},"vehicle_type_id":"4","last_reported":1761941496,"current_range_meters":9600,"station_id":"ce4bhmh2rcd13ifvqgmg","pricing_plan_id":"cebpf4jnsgd1na2vs0mg"},{"bike_id":"77e72291-0125-4369-8802-398419b1f9b6","system_id":"levelo_inurba_marseille","lat":43.30378,"lon":5.42489,"is_reserved":false,"is_disabled":false,"rental_uris":{"android":"levelo://app?vid=77e72291-0125-4369-8802-398419b1f9b6","ios":"levelo://app?vid=77e72291-0125-4369-8802-398419b1f9b6"},"vehicle_type_id":"4","last_reported":1761941496,"current_range_meters":9600,"station_id":"ce4bhoh2rcd13ifvqh6g","pricing_plan_id":"cebpf4jnsgd1na2vs0mg"},{"bike_id":"07994c72-bf44-43e1-8a8d-d1c2ed3fb617","system_id":"levelo_inurba_marseille","lat":43.2924,"lon":5.3832,"is_reserved":false,"is_disabled":false,"rental_uris":{"android":"levelo://app?vid=07994c72-bf44-43e1-8a8d-d1c2ed3fb617","ios":"levelo://app?vid=07994c72-bf44-43e1-8a8d-d1c2ed3fb617"},"vehicle_type_id":"4","last_reported":1761941496,"current_range_meters":9600,"station_id":"","pricing_plan_id":"cebpf4jnsgd1na2vs0mg"},{"bike_id":"7526c8c8-da2c-4eb3-82f5-da540cba8cb4","system_id":"levelo_inurba_marseille","lat":43.305328,"lon":5.384206,"is_reserved":false,"is_disabled":false,"rental_uris":{"android":"levelo://app?vid=7526c8c8-da2c-4eb3-82f5-da540cba8cb4","ios":"levelo://app?vid=7526c8c8-da2c-4eb3-82f5-da540cba8cb4"},"vehicle_type_id":"4","last_reported":1761941496,"current_range_meters":9600,"station_id":"ce4bgg92rcd13ifvqb30","pricing_plan_id":"cebpf4jnsgd1na2vs0mg"},{"bike_id":"f2a16810-af1a-499d-9ddd-ff04b1ee6343","system_id":"levelo_inurba_marseille","lat":43.28832,"lon":5.37766,"is_reserved":false,"is_disabled":false,"rental_uris":{"android":"levelo://app?vid=f2a16810-af1a-499d-9ddd-ff04b1ee6343","ios":"levelo://app?vid=f2a16810-af1a-499d-9ddd-ff04b1ee6343"},"vehicle_type_id":"4","last_reported":1761941496,"current_range_meters":10000,"station_id":"","pricing_plan_id":"cebpf4jnsgd1na2vs0mg"},{"bike_id":"19700f25-adf5-45de-9e24-a1680a1a19ca","system_id":"levelo_inurba_marseille","lat":43.25087,"lon":5.39523,"is_reserved":false,"is_disabled":false,"rental_uris":{"android":"levelo://app?vid=19700f25-adf5-45de-9e24-a1680a1a19ca","ios":"levelo://app?vid=19700f25-adf5-45de-9e24-a1680a1a19ca"},"vehicle_type_id":"4","last_reported":1761941496,"current_range_meters":10000,"station_id":"ce4bhm12rcd13ifvqgkg","pricing_plan_id":"cebpf4jnsgd1na2vs0mg"},{"bike_id":"1b02b54c-5b10-4f6d-8bca-fdfc230c832f","system_id":"levelo_inurba_marseille","lat":43.26555,"lon":5.37283,"is_reserved":false,"is_disabled":false,"rental_uris":{"android":"levelo://app?vid=1b02b54c-5b10-4f6d-8bca-fdfc230c832f","ios":"levelo://app?vid=1b02b54c-5b10-4f6d-8bca-fdfc230c832f"},"vehicle_type_id":"4","last_reported":1761941496,"current_range_meters":10000,"station_id":"ce4bhg12rcd13ifvqf70","pricing_plan_id":"cebpf4jnsgd1na2vs0mg"},{"bike_id":"9180c200-36aa-492e-8656-29dc38b1eed7","system_id":"levelo_inurba_marseille","lat":43.301471,"lon":5.38083,"is_reserved":false,"is_disabled":false,"rental_uris":{"android":"levelo://app?vid=9180c200-36aa-492e-8656-29dc38b1eed7","ios":"levelo://app?vid=9180c200-36aa-492e-8656-29dc38b1eed7"},"vehicle_type_id":"4","last_reported":1761941496,"current_range_meters":10800,"station_id":"ce4bgjp2rcd13ifvqbh0","pricing_plan_id":"cebpf4jnsgd1na2vs0mg"},{"bike_id":"a56a8a64-8aaf-4f2b-9086-ab5ca516b670","system_id":"levelo_inurba_marseille","lat":43.24671,"lon":5.38145,"is_reserved":false,"is_disabled":false,"rental_uris":{"android":"levelo://app?vid=a56a8a64-8aaf-4f2b-9086-ab5ca516b670","ios":"levelo://app?vid=a56a8a64-8aaf-4f2b-9086-ab5ca516b670"},"vehicle_type_id":"4","last_reported":1761941496,"current_range_meters":10800,"station_id":"ce4bhih2rcd13ifvqfr0","pricing_plan_id":"cebpf4jnsgd1na2vs0mg"},{"bike_id":"2f477f8f-972b-406c-841a-14096d9c76ee","system_id":"levelo_inurba_marseille","lat":43.297606,"lon":5.427786,"is_reserved":false,"is_disabled":false,"rental_uris":{"android":"levelo://app?vid=2f477f8f-972b-406c-841a-14096d9c76ee","ios":"levelo://app?vid=2f477f8f-972b-406c-841a-14096d9c76ee"},"vehicle_type_id":"4","last_reported":1761941496,"current_range_meters":10800,"station_id":"st_d3md5207bmas73dh9klg","pricing_plan_id":"cebpf4jnsgd1na2vs0mg"},{"bike_id":"fc382774-1f52-4992-a32a-afc6edfd0654","system_id":"levelo_inurba_marseille","lat":43.29974,"lon":5.38482,"is_reserved":false,"is_disabled":false,"rental_uris":{"android":"levelo://app?vid=fc382774-1f52-4992-a32a-afc6edfd0654","ios":"levelo://app?vid=fc382774-1f52-4992-a32a-afc6edfd0654"},"vehicle_type_id":"4","last_reported":1761941496,"current_range_meters":10800,"station_id":"ce4bgj92rcd13ifvqbd0","pricing_plan_id":"cebpf4jnsgd1na2vs0mg"},{"bike_id":"c146682f-7a97-4216-a11c-c898a2232e37","system_id":"levelo_inurba_marseille","lat":43.25326,"lon":5.42165,"is_reserved":false,"is_disabled":false,"rental_uris":{"android":"levelo://app?vid=c146682f-7a97-4216-a11c-c898a2232e37","ios":"levelo://app?vid=c146682f-7a97-4216-a11c-c898a2232e37"},"vehicle_type_id":"4","last_reported":1761941496,"current_range_meters":11200,"station_id":"st_d2m65c5bi1j21697t3ng","pricing_plan_id":"cebpf4jnsgd1na2vs0mg"},{"bike_id":"44380454-89e2-4b07-89dd-f2270434d08c","system_id":"levelo_inurba_marseille","lat":43.29442,"lon":5.39741,"is_reserved":false,"is_disabled":false,"rental_uris":{"android":"levelo://app?vid=44380454-89e2-4b07-89dd-f2270434d08c","ios":"levelo://app?vid=44380454-89e2-4b07-89dd-f2270434d08c"},"vehicle_type_id":"4","last_reported":1761941496,"current_range_meters":11200,"station_id":"ce4bh3h2rcd13ifvqdo0","pricing_plan_id":"cebpf4jnsgd1na2vs0mg"},{"bike_id":"3544b89a-465f-4bb0-b336-be8a8f03277f","system_id":"levelo_inurba_marseille","lat":43.26207,"lon":5.37442,"is_reserved":false,"is_disabled":false,"rental_uris":{"android":"levelo://app?vid=3544b89a-465f-4bb0-b336-be8a8f03277f","ios":"levelo://app?vid=3544b89a-465f-4bb0-b336-be8a8f03277f"},"vehicle_type_id":"4","last_reported":1761941496,"current_range_meters":11200,"station_id":"ce4bhgp2rcd13ifvqfc0","pricing_plan_id":"cebpf4jnsgd1na2vs0mg"},{"bike_id":"55ad9196-fe88-42f7-aa51-6fda8a2c6a49","system_id":"levelo_inurba_marseille","lat":43.29257,"lon":5.38446,"is_reserved":false,"is_disabled":false,"rental_uris":{"android":"levelo://app?vid=55ad9196-fe88-42f7-aa51-6fda8a2c6a49","ios":"levelo://app?vid=55ad9196-fe88-42f7-aa51-6fda8a2c6a49"},"vehicle_type_id":"4","last_reported":1761941496,"current_range_meters":11200,"station_id":"ce4bh692rcd13ifvqea0","pricing_plan_id":"cebpf4jnsgd1na2vs0mg"},{"bike_id":"80c53fab-d9fd-4b9a-94e7-e3f3183e35da","system_id":"levelo_inurba_marseille","lat":43.33027,"lon":5.39037,"is_reserved":false,"is_disabled":false,"rental_uris":{"android":"levelo://app?vid=80c53fab-d9fd-4b9a-94e7-e3f3183e35da","ios":"levelo://app?vid=80c53fab-d9fd-4b9a-94e7-e3f3183e35da"},"vehicle_type_id":"4","last_reported":1761941496,"current_range_meters":11200,"station_id":"ce4bhr92rcd13ifvqhrg","pricing_plan_id":"cebpf4jnsgd1na2vs0mg"},{"bike_id":"51c02004-b7af-4fea-b0a6-0669e7b94d3c","system_id":"levelo_inurba_marseille","lat":43.33595,"lon":5.41006,"is_reserved":false,"is_disabled":false,"rental_uris":{"android":"levelo://app?vid=51c02004-b7af-4fea-b0a6-0669e7b94d3c","ios":"levelo://app?vid=51c02004-b7af-4fea-b0a6-0669e7b94d3c"},"vehicle_type_id":"4","last_reported":1761941496,"current_range_meters":11200,"station_id":"ce4bhqh2rcd13ifvqhmg","pricing_plan_id":"cebpf4jnsgd1na2vs0mg"},{"bike_id":"70b7527d-67eb-4818-84c6-51aae343ca97","system_id":"levelo_inurba_marseille","lat":43.28477,"lon":5.48393,"is_reserved":false,"is_disabled":false,"rental_uris":{"android":"levelo://app?vid=70b7527d-67eb-4818-84c6-51aae343ca97","ios":"levelo://app?vid=70b7527d-67eb-4818-84c6-51aae343ca97"},"vehicle_type_id":"4","last_reported":1761941496,"current_range_meters":11200,"station_id":"st_d3svhcjqgbts73a3dn0g","pricing_plan_id":"cebpf4jnsgd1na2vs0mg"},{"bike_id":"df87f0c2-4d4f-4e68-8a2b-3150d17edb80","system_id":"levelo_inurba_marseille","lat":43.29259,"lon":5.38435,"is_reserved":false,"is_disabled":false,"rental_uris":{"android":"levelo://app?vid=df87f0c2-4d4f-4e68-8a2b-3150d17edb80","ios":"levelo://app?vid=df87f0c2-4d4f-4e68-8a2b-3150d17edb80"},"vehicle_type_id":"4","last_reported":1761941496,"current_range_meters":11200,"station_id":"ce4bh692rcd13ifvqea0","pricing_plan_id":"cebpf4jnsgd1na2vs0mg"},{"bike_id":"1213ff01-604d-4b83-b3a2-60440c4b245e","system_id":"levelo_inurba_marseille","lat":43.23786,"lon":5.36635,"is_reserved":false,"is_disabled":false,"rental_uris":{"android":"levelo://app?vid=1213ff01-604d-4b83-b3a2-60440c4b245e","ios":"levelo://app?vid=1213ff01-604d-4b83-b3a2-60440c4b245e"},"vehicle_type_id":"4","last_reported":1761941496,"current_range_meters":11200,"station_id":"st_d3nk18o9ro0c73en2l3g","pricing_plan_id":"cebpf4jnsgd1na2vs0mg"},{"bike_id":"e1374d14-ca8c-4d30-bf7a-1e91101e2cee","system_id":"levelo_inurba_marseille","lat":43.28548,"lon":5.44102,"is_reserved":false,"is_disabled":false,"rental_uris":{"android":"levelo://app?vid=e1374d14-ca8c-4d30-bf7a-1e91101e2cee","ios":"levelo://app?vid=e1374d14-ca8c-4d30-bf7a-1e91101e2cee"},"vehicle_type_id":"4","last_reported":1761941496,"current_range_meters":11600,"station_id":"st_d3j3df2ikq2c7380ej80","pricing_plan_id":"cebpf4jnsgd1na2vs0mg"},{"bike_id":"bb21024e-0823-4d5d-a0e4-5d663a413489","system_id":"levelo_inurba_marseille","lat":43.28867,"lon":5.42522,"is_reserved":false,"is_disabled":false,"rental_uris":{"android":"levelo://app?vid=bb21024e-0823-4d5d-a0e4-5d663a413489","ios":"levelo://app?vid=bb21024e-0823-4d5d-a0e4-5d663a413489"},"vehicle_type_id":"4","last_reported":1761941496,"current_range_meters":11600,"station_id":"st_d3b462108ojc7389ooeg","pricing_plan_id":"cebpf4jnsgd1na2vs0mg"},{"bike_id":"102c872e-2509-4c82-9415-127c093a0f7e","system_id":"levelo_inurba_marseille","lat":43.28114,"lon":5.40165,"is_reserved":false,"is_disabled":false,"rental_uris":{"android":"levelo://app?vid=102c872e-2509-4c82-9415-127c093a0f7e","ios":"levelo://app?vid=102c872e-2509-4c82-9415-127c093a0f7e"},"vehicle_type_id":"4","last_reported":1761941496,"current_range_meters":11600,"station_id":"","pricing_plan_id":"cebpf4jnsgd1na2vs0mg"},{"bike_id":"4fd9f5aa-a2d3-48e0-aee2-704d6db584ac","system_id":"levelo_inurba_marseille","lat":43.25528,"lon":5.37662,"is_reserved":false,"is_disabled":false,"rental_uris":{"android":"levelo://app?vid=4fd9f5aa-a2d3-48e0-aee2-704d6db584ac","ios":"levelo://app?vid=4fd9f5aa-a2d3-48e0-aee2-704d6db584ac"},"vehicle_type_id":"4","last_reported":1761941496,"current_range_meters":11600,"station_id":"ce4bhh12rcd13ifvqff0","pricing_plan_id":"cebpf4jnsgd1na2vs0mg"},{"bike_id":"ec53eff6-568f-4876-b1b7-7085cdef020c","system_id":"levelo_inurba_marseille","lat":43.29265,"lon":5.38454,"is_reserved":false,"is_disabled":false,"rental_uris":{"android":"levelo://app?vid=ec53eff6-568f-4876-b1b7-7085cdef020c","ios":"levelo://app?vid=ec53eff6-568f-4876-b1b7-7085cdef020c"},"vehicle_type_id":"4","last_reported":1761941496,"current_range_meters":11600,"station_id":"ce4bh692rcd13ifvqea0","pricing_plan_id":"cebpf4jnsgd1na2vs0mg"},{"bike_id":"7f09a132-d41e-48be-af37-157ccfd26cff","system_id":"levelo_inurba_marseille","lat":43.29529,"lon":5.38541,"is_reserved":false,"is_disabled":false,"rental_uris":{"android":"levelo://app?vid=7f09a132-d41e-48be-af37-157ccfd26cff","ios":"levelo://app?vid=7f09a132-d41e-48be-af37-157ccfd26cff"},"vehicle_type_id":"4","last_reported":1761941496,"current_range_meters":12000,"station_id":"ce4bgih2rcd13ifvqba0","pricing_plan_id":"cebpf4jnsgd1na2vs0mg"},{"bike_id":"bfea6413-afbc-4cd0-a1c3-3175840c533c","system_id":"levelo_inurba_marseille","lat":43.295319,"lon":5.39099,"is_reserved":false,"is_disabled":false,"rental_uris":{"android":"levelo://app?vid=bfea6413-afbc-4cd0-a1c3-3175840c533c","ios":"levelo://app?vid=bfea6413-afbc-4cd0-a1c3-3175840c533c"},"vehicle_type_id":"4","last_reported":1761941496,"current_range_meters":12000,"station_id":"","pricing_plan_id":"cebpf4jnsgd1na2vs0mg"},{"bike_id":"96ad2f8e-1ff0-415a-a84a-9186f2a5baf6","system_id":"levelo_inurba_marseille","lat":43.29606,"lon":5.37672,"is_reserved":false,"is_disabled":false,"rental_uris":{"android":"levelo://app?vid=96ad2f8e-1ff0-415a-a84a-9186f2a5baf6","ios":"levelo://app?vid=96ad2f8e-1ff0-415a-a84a-9186f2a5baf6"},"vehicle_type_id":"4","last_reported":1761941496,"current_range_meters":12000,"station_id":"ce4bgi12rcd13ifvqb80","pricing_plan_id":"cebpf4jnsgd1na2vs0mg"},{"bike_id":"3b0ed919-3f15-4150-9bb7-c2e454e63927","system_id":"levelo_inurba_marseille","lat":43.246623,"lon":5.381663,"is_reserved":false,"is_disabled":false,"rental_uris":{"android":"levelo://app?vid=3b0ed919-3f15-4150-9bb7-c2e454e63927","ios":"levelo://app?vid=3b0ed919-3f15-4150-9bb7-c2e454e63927"},"vehicle_type_id":"4","last_reported":1761941496,"current_range_meters":12000,"station_id":"ce4bhih2rcd13ifvqfr0","pricing_plan_id":"cebpf4jnsgd1na2vs0mg"},{"bike_id":"cfe95386-912d-4bf5-abcf-83a4f7785b31","system_id":"levelo_inurba_marseille","lat":43.28143,"lon":5.42635,"is_reserved":false,"is_disabled":false,"rental_uris":{"android":"levelo://app?vid=cfe95386-912d-4bf5-abcf-83a4f7785b31","ios":"levelo://app?vid=cfe95386-912d-4bf5-abcf-83a4f7785b31"},"vehicle_type_id":"4","last_reported":1761941496,"current_range_meters":12000,"station_id":"ce4bhnh2rcd13ifvqgug","pricing_plan_id":"cebpf4jnsgd1na2vs0mg"},{"bike_id":"83ef4327-e091-44b5-8fac-eda637201c20","system_id":"levelo_inurba_marseille","lat":43.30306,"lon":5.39207,"is_reserved":false,"is_disabled":false,"rental_uris":{"android":"levelo://app?vid=83ef4327-e091-44b5-8fac-eda637201c20","ios":"levelo://app?vid=83ef4327-e091-44b5-8fac-eda637201c20"},"vehicle_type_id":"4","last_reported":1761941496,"current_range_meters":12000,"station_id":"ce4bgkh2rcd13ifvqbk0","pricing_plan_id":"cebpf4jnsgd1na2vs0mg"},{"bike_id":"7af2ea98-ce20-4954-bebb-ba5a49308a55","system_id":"levelo_inurba_marseille","lat":43.237886,"lon":5.366353,"is_reserved":false,"is_disabled":false,"rental_uris":{"android":"levelo://app?vid=7af2ea98-ce20-4954-bebb-ba5a49308a55","ios":"levelo://app?vid=7af2ea98-ce20-4954-bebb-ba5a49308a55"},"vehicle_type_id":"4","last_reported":1761941496,"current_range_meters":12000,"station_id":"st_d3nk18o9ro0c73en2l3g","pricing_plan_id":"cebpf4jnsgd1na2vs0mg"},{"bike_id":"046a1335-a486-4ea9-9d74-735f65499375","system_id":"levelo_inurba_marseille","lat":43.29222,"lon":5.38465,"is_reserved":false,"is_disabled":false,"rental_uris":{"android":"levelo://app?vid=046a1335-a486-4ea9-9d74-735f65499375","ios":"levelo://app?vid=046a1335-a486-4ea9-9d74-735f65499375"},"vehicle_type_id":"4","last_reported":1761941496,"current_range_meters":12400,"station_id":"","pricing_plan_id":"cebpf4jnsgd1na2vs0mg"},{"bike_id":"a4dac4fa-66e6-48be-a654-6e17cdc7ca0b","system_id":"levelo_inurba_marseille","lat":43.337571,"lon":5.374323,"is_reserved":false,"is_disabled":false,"rental_uris":{"android":"levelo://app?vid=a4dac4fa-66e6-48be-a654-6e17cdc7ca0b","ios":"levelo://app?vid=a4dac4fa-66e6-48be-a654-6e17cdc7ca0b"},"vehicle_type_id":"4","last_reported":1761941496,"current_range_meters":12400,"station_id":"","pricing_plan_id":"cebpf4jnsgd1na2vs0mg"},{"bike_id":"533c54d0-1036-4905-a11a-1402c178f6ea","system_id":"levelo_inurba_marseille","lat":43.29268,"lon":5.38446,"is_reserved":false,"is_disabled":false,"rental_uris":{"android":"levelo://app?vid=533c54d0-1036-4905-a11a-1402c178f6ea","ios":"levelo://app?vid=533c54d0-1036-4905-a11a-1402c178f6ea"},"vehicle_type_id":"4","last_reported":1761941496,"current_range_meters":12400,"station_id":"ce4bh692rcd13ifvqea0","pricing_plan_id":"cebpf4jnsgd1na2vs0mg"},{"bike_id":"8f2a3e44-5b12-43cf-b135-af816011bed8","system_id":"levelo_inurba_marseille","lat":43.27212,"lon":5.39177,"is_reserved":false,"is_disabled":false,"rental_uris":{"android":"levelo://app?vid=8f2a3e44-5b12-43cf-b135-af816011bed8","ios":"levelo://app?vid=8f2a3e44-5b12-43cf-b135-af816011bed8"},"vehicle_type_id":"4","last_reported":1761941496,"current_range_meters":12400,"station_id":"ce4bhhp2rcd13ifvqfm0","pricing_plan_id":"cebpf4jnsgd1na2vs0mg"},{"bike_id":"8a632559-d61b-4289-915b-e6215ea4bf27","system_id":"levelo_inurba_marseille","lat":43.32352,"lon":5.36737,"is_reserved":false,"is_disabled":false,"rental_uris":{"android":"levelo://app?vid=8a632559-d61b-4289-915b-e6215ea4bf27","ios":"levelo://app?vid=8a632559-d61b-4289-915b-e6215ea4bf27"},"vehicle_type_id":"4","last_reported":1761941496,"current_range_meters":12400,"station_id":"ce4bhsh2rcd13ifvqi2g","pricing_plan_id":"cebpf4jnsgd1na2vs0mg"},{"bike_id":"a99e7dc5-ab5a-4671-a3fa-da28854f2d2f","system_id":"levelo_inurba_marseille","lat":43.33612,"lon":5.41037,"is_reserved":false,"is_disabled":false,"rental_uris":{"android":"levelo://app?vid=a99e7dc5-ab5a-4671-a3fa-da28854f2d2f","ios":"levelo://app?vid=a99e7dc5-ab5a-4671-a3fa-da28854f2d2f"},"vehicle_type_id":"4","last_reported":1761941496,"current_range_meters":12400,"station_id":"ce4bhqh2rcd13ifvqhmg","pricing_plan_id":"cebpf4jnsgd1na2vs0mg"},{"bike_id":"2829c7de-14aa-4891-bee5-904e78845d87","system_id":"levelo_inurba_marseille","lat":43.312751,"lon":5.401741,"is_reserved":false,"is_disabled":false,"rental_uris":{"android":"levelo://app?vid=2829c7de-14aa-4891-bee5-904e78845d87","ios":"levelo://app?vid=2829c7de-14aa-4891-bee5-904e78845d87"},"vehicle_type_id":"4","last_reported":1761941496,"current_range_meters":12400,"station_id":"ce4bh092rcd13ifvqd30","pricing_plan_id":"cebpf4jnsgd1na2vs0mg"},{"bike_id":"42e986d2-36be-4b0e-87e8-71dc3f97c04d","system_id":"levelo_inurba_marseille","lat":43.24655,"lon":5.38114,"is_reserved":false,"is_disabled":false,"rental_uris":{"android":"levelo://app?vid=42e986d2-36be-4b0e-87e8-71dc3f97c04d","ios":"levelo://app?vid=42e986d2-36be-4b0e-87e8-71dc3f97c04d"},"vehicle_type_id":"4","last_reported":1761941496,"current_range_meters":12800,"station_id":"ce4bhih2rcd13ifvqfr0","pricing_plan_id":"cebpf4jnsgd1na2vs0mg"},{"bike_id":"a4411a31-dc75-48de-8b4a-eee0e7dbe4d1","system_id":"levelo_inurba_marseille","lat":43.28147,"lon":5.42638,"is_reserved":false,"is_disabled":false,"rental_uris":{"android":"levelo://app?vid=a4411a31-dc75-48de-8b4a-eee0e7dbe4d1","ios":"levelo://app?vid=a4411a31-dc75-48de-8b4a-eee0e7dbe4d1"},"vehicle_type_id":"4","last_reported":1761941496,"current_range_meters":12800,"station_id":"ce4bhnh2rcd13ifvqgug","pricing_plan_id":"cebpf4jnsgd1na2vs0mg"},{"bike_id":"d4c93aa3-22b2-4ed1-8801-bbd590c41509","system_id":"levelo_inurba_marseille","lat":43.32385,"lon":5.38877,"is_reserved":false,"is_disabled":false,"rental_uris":{"android":"levelo://app?vid=d4c93aa3-22b2-4ed1-8801-bbd590c41509","ios":"levelo://app?vid=d4c93aa3-22b2-4ed1-8801-bbd590c41509"},"vehicle_type_id":"4","last_reported":1761941496,"current_range_meters":12800,"station_id":"ce4bhqp2rcd13ifvqhog","pricing_plan_id":"cebpf4jnsgd1na2vs0mg"},{"bike_id":"0dc930ae-88e6-493c-ab95-8df0b3ac1f8b","system_id":"levelo_inurba_marseille","lat":43.29896,"lon":5.43662,"is_reserved":false,"is_disabled":false,"rental_uris":{"android":"levelo://app?vid=0dc930ae-88e6-493c-ab95-8df0b3ac1f8b","ios":"levelo://app?vid=0dc930ae-88e6-493c-ab95-8df0b3ac1f8b"},"vehicle_type_id":"4","last_reported":1761941496,"current_range_meters":13600,"station_id":"ce4bhpp2rcd13ifvqhfg","pricing_plan_id":"cebpf4jnsgd1na2vs0mg"},{"bike_id":"3e2d4b33-c489-414d-901a-32eac6807f84","system_id":"levelo_inurba_marseille","lat":43.29523,"lon":5.38542,"is_reserved":false,"is_disabled":false,"rental_uris":{"android":"levelo://app?vid=3e2d4b33-c489-414d-901a-32eac6807f84","ios":"levelo://app?vid=3e2d4b33-c489-414d-901a-32eac6807f84"},"vehicle_type_id":"4","last_reported":1761941496,"current_range_meters":13600,"station_id":"ce4bgih2rcd13ifvqba0","pricing_plan_id":"cebpf4jnsgd1na2vs0mg"},{"bike_id":"aad6a064-c048-4ba9-a156-1745b89548aa","system_id":"levelo_inurba_marseille","lat":43.28315,"lon":5.4109,"is_reserved":false,"is_disabled":false,"rental_uris":{"android":"levelo://app?vid=aad6a064-c048-4ba9-a156-1745b89548aa","ios":"levelo://app?vid=aad6a064-c048-4ba9-a156-1745b89548aa"},"vehicle_type_id":"4","last_reported":1761941496,"current_range_meters":13600,"station_id":"","pricing_plan_id":"cebpf4jnsgd1na2vs0mg"},{"bike_id":"17c4d6b8-072b-4aea-994a-596dd01ada9d","system_id":"levelo_inurba_marseille","lat":43.29019,"lon":5.38638,"is_reserved":false,"is_disabled":false,"rental_uris":{"android":"levelo://app?vid=17c4d6b8-072b-4aea-994a-596dd01ada9d","ios":"levelo://app?vid=17c4d6b8-072b-4aea-994a-596dd01ada9d"},"vehicle_type_id":"4","last_reported":1761941496,"current_range_meters":13600,"station_id":"ce4bh4p2rcd13ifvqe0g","pricing_plan_id":"cebpf4jnsgd1na2vs0mg"},{"bike_id":"a74ca4e6-9019-4ce4-a364-7a22bd8e206a","system_id":"levelo_inurba_marseille","lat":43.26506,"lon":5.3851,"is_reserved":false,"is_disabled":false,"rental_uris":{"android":"levelo://app?vid=a74ca4e6-9019-4ce4-a364-7a22bd8e206a","ios":"levelo://app?vid=a74ca4e6-9019-4ce4-a364-7a22bd8e206a"},"vehicle_type_id":"4","last_reported":1761941496,"current_range_meters":13600,"station_id":"","pricing_plan_id":"cebpf4jnsgd1na2vs0mg"},{"bike_id":"62bdc97a-5b20-4d06-aa34-6927ef5000bb","system_id":"levelo_inurba_marseille","lat":43.29529,"lon":5.385311,"is_reserved":false,"is_disabled":false,"rental_uris":{"android":"levelo://app?vid=62bdc97a-5b20-4d06-aa34-6927ef5000bb","ios":"levelo://app?vid=62bdc97a-5b20-4d06-aa34-6927ef5000bb"},"vehicle_type_id":"4","last_reported":1761941496,"current_range_meters":14000,"station_id":"ce4bgih2rcd13ifvqba0","pricing_plan_id":"cebpf4jnsgd1na2vs0mg"},{"bike_id":"6cd59db7-cb12-4301-8385-22b87d7a5cfd","system_id":"levelo_inurba_marseille","lat":43.28545,"lon":5.44088,"is_reserved":false,"is_disabled":false,"rental_uris":{"android":"levelo://app?vid=6cd59db7-cb12-4301-8385-22b87d7a5cfd","ios":"levelo://app?vid=6cd59db7-cb12-4301-8385-22b87d7a5cfd"},"vehicle_type_id":"4","last_reported":1761941496,"current_range_meters":14000,"station_id":"st_d3j3df2ikq2c7380ej80","pricing_plan_id":"cebpf4jnsgd1na2vs0mg"},{"bike_id":"5e5f24e8-459d-439e-8dd0-efe46ddd94dd","system_id":"levelo_inurba_marseille","lat":43.28935,"lon":5.36639,"is_reserved":false,"is_disabled":false,"rental_uris":{"android":"levelo://app?vid=5e5f24e8-459d-439e-8dd0-efe46ddd94dd","ios":"levelo://app?vid=5e5f24e8-459d-439e-8dd0-efe46ddd94dd"},"vehicle_type_id":"4","last_reported":1761941496,"current_range_meters":14000,"station_id":"ce4bhap2rcd13ifvqek0","pricing_plan_id":"cebpf4jnsgd1na2vs0mg"},{"bike_id":"119c0272-5e17-450d-b994-304071626f10","system_id":"levelo_inurba_marseille","lat":43.29285,"lon":5.38434,"is_reserved":false,"is_disabled":false,"rental_uris":{"android":"levelo://app?vid=119c0272-5e17-450d-b994-304071626f10","ios":"levelo://app?vid=119c0272-5e17-450d-b994-304071626f10"},"vehicle_type_id":"4","last_reported":1761941496,"current_range_meters":14000,"station_id":"ce4bh692rcd13ifvqea0","pricing_plan_id":"cebpf4jnsgd1na2vs0mg"},{"bike_id":"eb35936c-41a9-48e6-b845-b0405c51cb79","system_id":"levelo_inurba_marseille","lat":43.279378,"lon":5.41061,"is_reserved":false,"is_disabled":false,"rental_uris":{"android":"levelo://app?vid=eb35936c-41a9-48e6-b845-b0405c51cb79","ios":"levelo://app?vid=eb35936c-41a9-48e6-b845-b0405c51cb79"},"vehicle_type_id":"4","last_reported":1761941496,"current_range_meters":14400,"station_id":"","pricing_plan_id":"cebpf4jnsgd1na2vs0mg"},{"bike_id":"523713e0-3b79-444c-b403-f6ac4c4a4a77","system_id":"levelo_inurba_marseille","lat":43.29261,"lon":5.38447,"is_reserved":false,"is_disabled":false,"rental_uris":{"android":"levelo://app?vid=523713e0-3b79-444c-b403-f6ac4c4a4a77","ios":"levelo://app?vid=523713e0-3b79-444c-b403-f6ac4c4a4a77"},"vehicle_type_id":"4","last_reported":1761941496,"current_range_meters":14400,"station_id":"ce4bh692rcd13ifvqea0","pricing_plan_id":"cebpf4jnsgd1na2vs0mg"},{"bike_id":"cdf75cc4-a43e-4623-98b3-0c34b0dcd061","system_id":"levelo_inurba_marseille","lat":43.2962,"lon":5.3772,"is_reserved":false,"is_disabled":false,"rental_uris":{"android":"levelo://app?vid=cdf75cc4-a43e-4623-98b3-0c34b0dcd061","ios":"levelo://app?vid=cdf75cc4-a43e-4623-98b3-0c34b0dcd061"},"vehicle_type_id":"4","last_reported":1761941496,"current_range_meters":14400,"station_id":"ce4bgi92rcd13ifvqb90","pricing_plan_id":"cebpf4jnsgd1na2vs0mg"},{"bike_id":"83871ece-9065-472e-9b68-4d7b082b6bcc","system_id":"levelo_inurba_marseille","lat":43.290291,"lon":5.399596,"is_reserved":false,"is_disabled":false,"rental_uris":{"android":"levelo://app?vid=83871ece-9065-472e-9b68-4d7b082b6bcc","ios":"levelo://app?vid=83871ece-9065-472e-9b68-4d7b082b6bcc"},"vehicle_type_id":"4","last_reported":1761941496,"current_range_meters":14400,"station_id":"ce4bh392rcd13ifvqdm0","pricing_plan_id":"cebpf4jnsgd1na2vs0mg"},{"bike_id":"aad731fe-f402-47a2-a9e2-d1ab53621c21","system_id":"levelo_inurba_marseille","lat":43.23792,"lon":5.36614,"is_reserved":false,"is_disabled":false,"rental_uris":{"android":"levelo://app?vid=aad731fe-f402-47a2-a9e2-d1ab53621c21","ios":"levelo://app?vid=aad731fe-f402-47a2-a9e2-d1ab53621c21"},"vehicle_type_id":"4","last_reported":1761941496,"current_range_meters":14400,"station_id":"st_d3nk18o9ro0c73en2l3g","pricing_plan_id":"cebpf4jnsgd1na2vs0mg"},{"bike_id":"fd4ce9f4-b592-4cc5-acf9-1c794ff3f3cd","system_id":"levelo_inurba_marseille","lat":43.279388,"lon":5.410454,"is_reserved":false,"is_disabled":false,"rental_uris":{"android":"levelo://app?vid=fd4ce9f4-b592-4cc5-acf9-1c794ff3f3cd","ios":"levelo://app?vid=fd4ce9f4-b592-4cc5-acf9-1c794ff3f3cd"},"vehicle_type_id":"4","last_reported":1761941496,"current_range_meters":14400,"station_id":"ce4bhnp2rcd13ifvqh0g","pricing_plan_id":"cebpf4jnsgd1na2vs0mg"},{"bike_id":"d3b96a45-0c36-482a-b421-c63df9f9d284","system_id":"levelo_inurba_marseille","lat":43.29259,"lon":5.38448,"is_reserved":false,"is_disabled":false,"rental_uris":{"android":"levelo://app?vid=d3b96a45-0c36-482a-b421-c63df9f9d284","ios":"levelo://app?vid=d3b96a45-0c36-482a-b421-c63df9f9d284"},"vehicle_type_id":"4","last_reported":1761941496,"current_range_meters":14400,"station_id":"ce4bh692rcd13ifvqea0","pricing_plan_id":"cebpf4jnsgd1na2vs0mg"},{"bike_id":"455f34a8-58e4-4acc-b2e9-e37e3f8ee341","system_id":"levelo_inurba_marseille","lat":43.29535,"lon":5.38546,"is_reserved":false,"is_disabled":false,"rental_uris":{"android":"levelo://app?vid=455f34a8-58e4-4acc-b2e9-e37e3f8ee341","ios":"levelo://app?vid=455f34a8-58e4-4acc-b2e9-e37e3f8ee341"},"vehicle_type_id":"4","last_reported":1761941496,"current_range_meters":14400,"station_id":"ce4bgih2rcd13ifvqba0","pricing_plan_id":"cebpf4jnsgd1na2vs0mg"},{"bike_id":"b8260940-1349-485d-9243-33fa537b4fce","system_id":"levelo_inurba_marseille","lat":43.27941,"lon":5.41036,"is_reserved":false,"is_disabled":false,"rental_uris":{"android":"levelo://app?vid=b8260940-1349-485d-9243-33fa537b4fce","ios":"levelo://app?vid=b8260940-1349-485d-9243-33fa537b4fce"},"vehicle_type_id":"4","last_reported":1761941496,"current_range_meters":14400,"station_id":"ce4bhnp2rcd13ifvqh0g","pricing_plan_id":"cebpf4jnsgd1na2vs0mg"},{"bike_id":"5a1a3f29-649a-4e51-8569-c7c858695985","system_id":"levelo_inurba_marseille","lat":43.29281,"lon":5.38434,"is_reserved":false,"is_disabled":false,"rental_uris":{"android":"levelo://app?vid=5a1a3f29-649a-4e51-8569-c7c858695985","ios":"levelo://app?vid=5a1a3f29-649a-4e51-8569-c7c858695985"},"vehicle_type_id":"4","last_reported":1761941496,"current_range_meters":14800,"station_id":"ce4bh692rcd13ifvqea0","pricing_plan_id":"cebpf4jnsgd1na2vs0mg"},{"bike_id":"b2ce8e73-e59b-4d30-b8e2-e59e2e1e3b22","system_id":"levelo_inurba_marseille","lat":43.33775,"lon":5.37482,"is_reserved":false,"is_disabled":false,"rental_uris":{"android":"levelo://app?vid=b2ce8e73-e59b-4d30-b8e2-e59e2e1e3b22","ios":"levelo://app?vid=b2ce8e73-e59b-4d30-b8e2-e59e2e1e3b22"},"vehicle_type_id":"4","last_reported":1761941496,"current_range_meters":14800,"station_id":"","pricing_plan_id":"cebpf4jnsgd1na2vs0mg"},{"bike_id":"3ead910e-6d20-43ff-b430-acaa82febea4","system_id":"levelo_inurba_marseille","lat":43.293374,"lon":5.371627,"is_reserved":false,"is_disabled":false,"rental_uris":{"android":"levelo://app?vid=3ead910e-6d20-43ff-b430-acaa82febea4","ios":"levelo://app?vid=3ead910e-6d20-43ff-b430-acaa82febea4"},"vehicle_type_id":"4","last_reported":1761941496,"current_range_meters":14800,"station_id":"ce4bgh92rcd13ifvqb40","pricing_plan_id":"cebpf4jnsgd1na2vs0mg"},{"bike_id":"9c245696-f9bb-4e6b-b021-1e0fc5e14885","system_id":"levelo_inurba_marseille","lat":43.29249,"lon":5.38425,"is_reserved":false,"is_disabled":false,"rental_uris":{"android":"levelo://app?vid=9c245696-f9bb-4e6b-b021-1e0fc5e14885","ios":"levelo://app?vid=9c245696-f9bb-4e6b-b021-1e0fc5e14885"},"vehicle_type_id":"4","last_reported":1761941496,"current_range_meters":14800,"station_id":"ce4bh692rcd13ifvqea0","pricing_plan_id":"cebpf4jnsgd1na2vs0mg"},{"bike_id":"26b9e370-206e-46cf-b64a-75078bc979a1","system_id":"levelo_inurba_marseille","lat":43.30312,"lon":5.36907,"is_reserved":false,"is_disabled":false,"rental_uris":{"android":"levelo://app?vid=26b9e370-206e-46cf-b64a-75078bc979a1","ios":"levelo://app?vid=26b9e370-206e-46cf-b64a-75078bc979a1"},"vehicle_type_id":"4","last_reported":1761941496,"current_range_meters":14800,"station_id":"ce4bgqh2rcd13ifvqc5g","pricing_plan_id":"cebpf4jnsgd1na2vs0mg"},{"bike_id":"52b117f2-4c01-4f66-887d-006722496528","system_id":"levelo_inurba_marseille","lat":43.30877,"lon":5.3719,"is_reserved":false,"is_disabled":false,"rental_uris":{"android":"levelo://app?vid=52b117f2-4c01-4f66-887d-006722496528","ios":"levelo://app?vid=52b117f2-4c01-4f66-887d-006722496528"},"vehicle_type_id":"4","last_reported":1761941496,"current_range_meters":14800,"station_id":"ce4bguh2rcd13ifvqckg","pricing_plan_id":"cebpf4jnsgd1na2vs0mg"},{"bike_id":"fc587986-f360-46fa-802f-10a98c58d5be","system_id":"levelo_inurba_marseille","lat":43.31719,"lon":5.37783,"is_reserved":false,"is_disabled":false,"rental_uris":{"android":"levelo://app?vid=fc587986-f360-46fa-802f-10a98c58d5be","ios":"levelo://app?vid=fc587986-f360-46fa-802f-10a98c58d5be"},"vehicle_type_id":"4","last_reported":1761941496,"current_range_meters":14800,"station_id":"ce4bgth2rcd13ifvqch0","pricing_plan_id":"cebpf4jnsgd1na2vs0mg"},{"bike_id":"9221d2ee-72c2-4402-b22d-ffdee8b1f2e3","system_id":"levelo_inurba_marseille","lat":43.29283,"lon":5.38412,"is_reserved":false,"is_disabled":false,"rental_uris":{"android":"levelo://app?vid=9221d2ee-72c2-4402-b22d-ffdee8b1f2e3","ios":"levelo://app?vid=9221d2ee-72c2-4402-b22d-ffdee8b1f2e3"},"vehicle_type_id":"4","last_reported":1761941496,"current_range_meters":14800,"station_id":"ce4bh692rcd13ifvqea0","pricing_plan_id":"cebpf4jnsgd1na2vs0mg"},{"bike_id":"b8426e54-f900-4874-82f8-f2e442e4a12d","system_id":"levelo_inurba_marseille","lat":43.29537,"lon":5.38543,"is_reserved":false,"is_disabled":false,"rental_uris":{"android":"levelo://app?vid=b8426e54-f900-4874-82f8-f2e442e4a12d","ios":"levelo://app?vid=b8426e54-f900-4874-82f8-f2e442e4a12d"},"vehicle_type_id":"4","last_reported":1761941496,"current_range_meters":14800,"station_id":"ce4bgih2rcd13ifvqba0","pricing_plan_id":"cebpf4jnsgd1na2vs0mg"},{"bike_id":"b1e81361-2b17-4ef1-8a58-6def5753471b","system_id":"levelo_inurba_marseille","lat":43.33753,"lon":5.37484,"is_reserved":false,"is_disabled":false,"rental_uris":{"android":"levelo://app?vid=b1e81361-2b17-4ef1-8a58-6def5753471b","ios":"levelo://app?vid=b1e81361-2b17-4ef1-8a58-6def5753471b"},"vehicle_type_id":"4","last_reported":1761941496,"current_range_meters":15200,"station_id":"","pricing_plan_id":"cebpf4jnsgd1na2vs0mg"},{"bike_id":"9a2513e5-89a1-4655-809a-8b0e79879274","system_id":"levelo_inurba_marseille","lat":43.28863,"lon":5.42517,"is_reserved":false,"is_disabled":false,"rental_uris":{"android":"levelo://app?vid=9a2513e5-89a1-4655-809a-8b0e79879274","ios":"levelo://app?vid=9a2513e5-89a1-4655-809a-8b0e79879274"},"vehicle_type_id":"4","last_reported":1761941496,"current_range_meters":15200,"station_id":"st_d3b462108ojc7389ooeg","pricing_plan_id":"cebpf4jnsgd1na2vs0mg"},{"bike_id":"5c237bef-9b4a-467b-8c73-b34c4c4d5ca0","system_id":"levelo_inurba_marseille","lat":43.3013,"lon":5.39865,"is_reserved":false,"is_disabled":false,"rental_uris":{"android":"levelo://app?vid=5c237bef-9b4a-467b-8c73-b34c4c4d5ca0","ios":"levelo://app?vid=5c237bef-9b4a-467b-8c73-b34c4c4d5ca0"},"vehicle_type_id":"4","last_reported":1761941496,"current_range_meters":15200,"station_id":"ce4bh0h2rcd13ifvqd40","pricing_plan_id":"cebpf4jnsgd1na2vs0mg"},{"bike_id":"67e1b110-af18-4ceb-ac19-c7eb327c49fe","system_id":"levelo_inurba_marseille","lat":43.265625,"lon":5.390137,"is_reserved":false,"is_disabled":false,"rental_uris":{"android":"levelo://app?vid=67e1b110-af18-4ceb-ac19-c7eb327c49fe","ios":"levelo://app?vid=67e1b110-af18-4ceb-ac19-c7eb327c49fe"},"vehicle_type_id":"4","last_reported":1761941496,"current_range_meters":15200,"station_id":"ce4bhe12rcd13ifvqf30","pricing_plan_id":"cebpf4jnsgd1na2vs0mg"},{"bike_id":"b85bc24e-8c14-4e57-985a-b934bd839fc6","system_id":"levelo_inurba_marseille","lat":43.29968,"lon":5.38522,"is_reserved":false,"is_disabled":false,"rental_uris":{"android":"levelo://app?vid=b85bc24e-8c14-4e57-985a-b934bd839fc6","ios":"levelo://app?vid=b85bc24e-8c14-4e57-985a-b934bd839fc6"},"vehicle_type_id":"4","last_reported":1761941496,"current_range_meters":15200,"station_id":"ce4bgj92rcd13ifvqbd0","pricing_plan_id":"cebpf4jnsgd1na2vs0mg"},{"bike_id":"3a644204-4cf0-4c7d-87c9-d392aea26a35","system_id":"levelo_inurba_marseille","lat":43.29525,"lon":5.39024,"is_reserved":false,"is_disabled":false,"rental_uris":{"android":"levelo://app?vid=3a644204-4cf0-4c7d-87c9-d392aea26a35","ios":"levelo://app?vid=3a644204-4cf0-4c7d-87c9-d392aea26a35"},"vehicle_type_id":"4","last_reported":1761941496,"current_range_meters":15200,"station_id":"ce4bh3p2rcd13ifvqdp0","pricing_plan_id":"cebpf4jnsgd1na2vs0mg"},{"bike_id":"21f6fada-8bf2-4802-9bd2-d91bb8dd26bd","system_id":"levelo_inurba_marseille","lat":43.29192,"lon":5.39325,"is_reserved":false,"is_disabled":false,"rental_uris":{"android":"levelo://app?vid=21f6fada-8bf2-4802-9bd2-d91bb8dd26bd","ios":"levelo://app?vid=21f6fada-8bf2-4802-9bd2-d91bb8dd26bd"},"vehicle_type_id":"4","last_reported":1761941496,"current_range_meters":15200,"station_id":"ce4bh192rcd13ifvqdd0","pricing_plan_id":"cebpf4jnsgd1na2vs0mg"},{"bike_id":"3b8b3baa-293d-4d79-8c49-8e2c2f1604ee","system_id":"levelo_inurba_marseille","lat":43.24076,"lon":5.37756,"is_reserved":false,"is_disabled":false,"rental_uris":{"android":"levelo://app?vid=3b8b3baa-293d-4d79-8c49-8e2c2f1604ee","ios":"levelo://app?vid=3b8b3baa-293d-4d79-8c49-8e2c2f1604ee"},"vehicle_type_id":"4","last_reported":1761941496,"current_range_meters":15200,"station_id":"ce4bhnp2rcd13ifvqgvg","pricing_plan_id":"cebpf4jnsgd1na2vs0mg"},{"bike_id":"c43da4ca-4a27-413f-8de1-73fb68abccf6","system_id":"levelo_inurba_marseille","lat":43.27968,"lon":5.40037,"is_reserved":false,"is_disabled":false,"rental_uris":{"android":"levelo://app?vid=c43da4ca-4a27-413f-8de1-73fb68abccf6","ios":"levelo://app?vid=c43da4ca-4a27-413f-8de1-73fb68abccf6"},"vehicle_type_id":"4","last_reported":1761941496,"current_range_meters":15200,"station_id":"ce4bho92rcd13ifvqh4g","pricing_plan_id":"cebpf4jnsgd1na2vs0mg"},{"bike_id":"b82f481c-17e5-4a3c-9f47-f1f7b37bbfaf","system_id":"levelo_inurba_marseille","lat":43.29273,"lon":5.38446,"is_reserved":false,"is_disabled":false,"rental_uris":{"android":"levelo://app?vid=b82f481c-17e5-4a3c-9f47-f1f7b37bbfaf","ios":"levelo://app?vid=b82f481c-17e5-4a3c-9f47-f1f7b37bbfaf"},"vehicle_type_id":"4","last_reported":1761941496,"current_range_meters":15200,"station_id":"ce4bh692rcd13ifvqea0","pricing_plan_id":"cebpf4jnsgd1na2vs0mg"},{"bike_id":"694f50dd-3c2d-490e-a647-3c4ec78c2cf5","system_id":"levelo_inurba_marseille","lat":43.26211,"lon":5.37443,"is_reserved":false,"is_disabled":false,"rental_uris":{"android":"levelo://app?vid=694f50dd-3c2d-490e-a647-3c4ec78c2cf5","ios":"levelo://app?vid=694f50dd-3c2d-490e-a647-3c4ec78c2cf5"},"vehicle_type_id":"4","last_reported":1761941496,"current_range_meters":16000,"station_id":"ce4bhgp2rcd13ifvqfc0","pricing_plan_id":"cebpf4jnsgd1na2vs0mg"},{"bike_id":"3a295d23-5ed5-44a8-8742-6388c10ec50a","system_id":"levelo_inurba_marseille","lat":43.29529,"lon":5.39036,"is_reserved":false,"is_disabled":false,"rental_uris":{"android":"levelo://app?vid=3a295d23-5ed5-44a8-8742-6388c10ec50a","ios":"levelo://app?vid=3a295d23-5ed5-44a8-8742-6388c10ec50a"},"vehicle_type_id":"4","last_reported":1761941496,"current_range_meters":16000,"station_id":"ce4bh3p2rcd13ifvqdp0","pricing_plan_id":"cebpf4jnsgd1na2vs0mg"},{"bike_id":"202e88b2-90d2-41aa-9e87-3c5e971e4e31","system_id":"levelo_inurba_marseille","lat":43.288147,"lon":5.391652,"is_reserved":false,"is_disabled":false,"rental_uris":{"android":"levelo://app?vid=202e88b2-90d2-41aa-9e87-3c5e971e4e31","ios":"levelo://app?vid=202e88b2-90d2-41aa-9e87-3c5e971e4e31"},"vehicle_type_id":"4","last_reported":1761941496,"current_range_meters":16000,"station_id":"","pricing_plan_id":"cebpf4jnsgd1na2vs0mg"},{"bike_id":"902cb9d8-ef70-438b-8a4e-f92339b55170","system_id":"levelo_inurba_marseille","lat":43.292626,"lon":5.384398,"is_reserved":false,"is_disabled":false,"rental_uris":{"android":"levelo://app?vid=902cb9d8-ef70-438b-8a4e-f92339b55170","ios":"levelo://app?vid=902cb9d8-ef70-438b-8a4e-f92339b55170"},"vehicle_type_id":"4","last_reported":1761941496,"current_range_meters":16000,"station_id":"ce4bh692rcd13ifvqea0","pricing_plan_id":"cebpf4jnsgd1na2vs0mg"},{"bike_id":"86a2d006-bc4c-47d6-9000-0b32a707a13b","system_id":"levelo_inurba_marseille","lat":43.30356,"lon":5.39331,"is_reserved":false,"is_disabled":false,"rental_uris":{"android":"levelo://app?vid=86a2d006-bc4c-47d6-9000-0b32a707a13b","ios":"levelo://app?vid=86a2d006-bc4c-47d6-9000-0b32a707a13b"},"vehicle_type_id":"4","last_reported":1761941496,"current_range_meters":16000,"station_id":"ce4bhbh2rcd13ifvqeqg","pricing_plan_id":"cebpf4jnsgd1na2vs0mg"},{"bike_id":"6df5d1b3-a573-47f0-acd9-dcc1039518a8","system_id":"levelo_inurba_marseille","lat":43.27944,"lon":5.41038,"is_reserved":false,"is_disabled":false,"rental_uris":{"android":"levelo://app?vid=6df5d1b3-a573-47f0-acd9-dcc1039518a8","ios":"levelo://app?vid=6df5d1b3-a573-47f0-acd9-dcc1039518a8"},"vehicle_type_id":"4","last_reported":1761941496,"current_range_meters":16000,"station_id":"ce4bhnp2rcd13ifvqh0g","pricing_plan_id":"cebpf4jnsgd1na2vs0mg"},{"bike_id":"36a40590-ec8d-4911-b110-4cf64635fc24","system_id":"levelo_inurba_marseille","lat":43.29262,"lon":5.38445,"is_reserved":false,"is_disabled":false,"rental_uris":{"android":"levelo://app?vid=36a40590-ec8d-4911-b110-4cf64635fc24","ios":"levelo://app?vid=36a40590-ec8d-4911-b110-4cf64635fc24"},"vehicle_type_id":"4","last_reported":1761941496,"current_range_meters":16400,"station_id":"ce4bh692rcd13ifvqea0","pricing_plan_id":"cebpf4jnsgd1na2vs0mg"},{"bike_id":"43185184-6bd6-4ef4-914d-fcbe02021410","system_id":"levelo_inurba_marseille","lat":43.28139,"lon":5.42641,"is_reserved":false,"is_disabled":false,"rental_uris":{"android":"levelo://app?vid=43185184-6bd6-4ef4-914d-fcbe02021410","ios":"levelo://app?vid=43185184-6bd6-4ef4-914d-fcbe02021410"},"vehicle_type_id":"4","last_reported":1761941496,"current_range_meters":16400,"station_id":"ce4bhnh2rcd13ifvqgug","pricing_plan_id":"cebpf4jnsgd1na2vs0mg"},{"bike_id":"772e79c3-d115-4fd9-9f88-5291ce2424a6","system_id":"levelo_inurba_marseille","lat":43.27991,"lon":5.40009,"is_reserved":false,"is_disabled":false,"rental_uris":{"android":"levelo://app?vid=772e79c3-d115-4fd9-9f88-5291ce2424a6","ios":"levelo://app?vid=772e79c3-d115-4fd9-9f88-5291ce2424a6"},"vehicle_type_id":"4","last_reported":1761941496,"current_range_meters":16400,"station_id":"ce4bho92rcd13ifvqh4g","pricing_plan_id":"cebpf4jnsgd1na2vs0mg"},{"bike_id":"472a1028-9e29-4e6f-b089-eae1dc72cf56","system_id":"levelo_inurba_marseille","lat":43.23067,"lon":5.35496,"is_reserved":false,"is_disabled":false,"rental_uris":{"android":"levelo://app?vid=472a1028-9e29-4e6f-b089-eae1dc72cf56","ios":"levelo://app?vid=472a1028-9e29-4e6f-b089-eae1dc72cf56"},"vehicle_type_id":"4","last_reported":1761941496,"current_range_meters":16400,"station_id":"cpo3342slgdg3j2ifvpg","pricing_plan_id":"cebpf4jnsgd1na2vs0mg"},{"bike_id":"a5a16550-6fb4-48f8-8a89-89ded033084f","system_id":"levelo_inurba_marseille","lat":43.281581,"lon":5.426487,"is_reserved":false,"is_disabled":false,"rental_uris":{"android":"levelo://app?vid=a5a16550-6fb4-48f8-8a89-89ded033084f","ios":"levelo://app?vid=a5a16550-6fb4-48f8-8a89-89ded033084f"},"vehicle_type_id":"4","last_reported":1761941496,"current_range_meters":16400,"station_id":"ce4bhnh2rcd13ifvqgug","pricing_plan_id":"cebpf4jnsgd1na2vs0mg"},{"bike_id":"c2807477-fd8d-44ed-9bdc-b3f90f0cbde0","system_id":"levelo_inurba_marseille","lat":43.31877,"lon":5.39988,"is_reserved":false,"is_disabled":false,"rental_uris":{"android":"levelo://app?vid=c2807477-fd8d-44ed-9bdc-b3f90f0cbde0","ios":"levelo://app?vid=c2807477-fd8d-44ed-9bdc-b3f90f0cbde0"},"vehicle_type_id":"4","last_reported":1761941496,"current_range_meters":16400,"station_id":"","pricing_plan_id":"cebpf4jnsgd1na2vs0mg"},{"bike_id":"8880e74f-69a6-415f-ad7a-6283909c5b52","system_id":"levelo_inurba_marseille","lat":43.28148,"lon":5.42649,"is_reserved":false,"is_disabled":false,"rental_uris":{"android":"levelo://app?vid=8880e74f-69a6-415f-ad7a-6283909c5b52","ios":"levelo://app?vid=8880e74f-69a6-415f-ad7a-6283909c5b52"},"vehicle_type_id":"4","last_reported":1761941496,"current_range_meters":16400,"station_id":"ce4bhnh2rcd13ifvqgug","pricing_plan_id":"cebpf4jnsgd1na2vs0mg"},{"bike_id":"6f2b060c-262d-42f7-9e1a-49da46df6f46","system_id":"levelo_inurba_marseille","lat":43.24074,"lon":5.37758,"is_reserved":false,"is_disabled":false,"rental_uris":{"android":"levelo://app?vid=6f2b060c-262d-42f7-9e1a-49da46df6f46","ios":"levelo://app?vid=6f2b060c-262d-42f7-9e1a-49da46df6f46"},"vehicle_type_id":"4","last_reported":1761941496,"current_range_meters":16400,"station_id":"ce4bhnp2rcd13ifvqgvg","pricing_plan_id":"cebpf4jnsgd1na2vs0mg"},{"bike_id":"c54e575d-9d7e-42ed-9ec5-0e46002c13e0","system_id":"levelo_inurba_marseille","lat":43.30119,"lon":5.43119,"is_reserved":false,"is_disabled":false,"rental_uris":{"android":"levelo://app?vid=c54e575d-9d7e-42ed-9ec5-0e46002c13e0","ios":"levelo://app?vid=c54e575d-9d7e-42ed-9ec5-0e46002c13e0"},"vehicle_type_id":"4","last_reported":1761941496,"current_range_meters":16400,"station_id":"st_d3js3co5814s73ftftug","pricing_plan_id":"cebpf4jnsgd1na2vs0mg"},{"bike_id":"8e61a1b0-b51e-4808-89e8-bacdad2c9db4","system_id":"levelo_inurba_marseille","lat":43.27556,"lon":5.384293,"is_reserved":false,"is_disabled":false,"rental_uris":{"android":"levelo://app?vid=8e61a1b0-b51e-4808-89e8-bacdad2c9db4","ios":"levelo://app?vid=8e61a1b0-b51e-4808-89e8-bacdad2c9db4"},"vehicle_type_id":"4","last_reported":1761941496,"current_range_meters":16400,"station_id":"ce4bhh92rcd13ifvqfi0","pricing_plan_id":"cebpf4jnsgd1na2vs0mg"},{"bike_id":"966062a4-3679-4c02-ad8f-b190c1981aee","system_id":"levelo_inurba_marseille","lat":43.30886,"lon":5.3719,"is_reserved":false,"is_disabled":false,"rental_uris":{"android":"levelo://app?vid=966062a4-3679-4c02-ad8f-b190c1981aee","ios":"levelo://app?vid=966062a4-3679-4c02-ad8f-b190c1981aee"},"vehicle_type_id":"4","last_reported":1761941496,"current_range_meters":16400,"station_id":"ce4bguh2rcd13ifvqckg","pricing_plan_id":"cebpf4jnsgd1na2vs0mg"},{"bike_id":"695de3a4-31d3-49c6-8e07-16d7c347c0e0","system_id":"levelo_inurba_marseille","lat":43.278957,"lon":5.39603,"is_reserved":false,"is_disabled":false,"rental_uris":{"android":"levelo://app?vid=695de3a4-31d3-49c6-8e07-16d7c347c0e0","ios":"levelo://app?vid=695de3a4-31d3-49c6-8e07-16d7c347c0e0"},"vehicle_type_id":"4","last_reported":1761941496,"current_range_meters":16400,"station_id":"ce4bhf92rcd13ifvqf40","pricing_plan_id":"cebpf4jnsgd1na2vs0mg"},{"bike_id":"ec5ef9a8-e4bf-4df5-9c0d-1a0956d8b219","system_id":"levelo_inurba_marseille","lat":43.26569,"lon":5.40317,"is_reserved":false,"is_disabled":false,"rental_uris":{"android":"levelo://app?vid=ec5ef9a8-e4bf-4df5-9c0d-1a0956d8b219","ios":"levelo://app?vid=ec5ef9a8-e4bf-4df5-9c0d-1a0956d8b219"},"vehicle_type_id":"4","last_reported":1761941496,"current_range_meters":16400,"station_id":"ce4bhmp2rcd13ifvqgng","pricing_plan_id":"cebpf4jnsgd1na2vs0mg"},{"bike_id":"d618314f-f73c-412f-886f-0e7a63213353","system_id":"levelo_inurba_marseille","lat":43.305342,"lon":5.384204,"is_reserved":false,"is_disabled":false,"rental_uris":{"android":"levelo://app?vid=d618314f-f73c-412f-886f-0e7a63213353","ios":"levelo://app?vid=d618314f-f73c-412f-886f-0e7a63213353"},"vehicle_type_id":"4","last_reported":1761941496,"current_range_meters":16800,"station_id":"ce4bgg92rcd13ifvqb30","pricing_plan_id":"cebpf4jnsgd1na2vs0mg"},{"bike_id":"e97bd841-a757-4f02-af2a-2c6920cfa105","system_id":"levelo_inurba_marseille","lat":43.28158,"lon":5.42625,"is_reserved":false,"is_disabled":false,"rental_uris":{"android":"levelo://app?vid=e97bd841-a757-4f02-af2a-2c6920cfa105","ios":"levelo://app?vid=e97bd841-a757-4f02-af2a-2c6920cfa105"},"vehicle_type_id":"4","last_reported":1761941496,"current_range_meters":16800,"station_id":"ce4bhnh2rcd13ifvqgug","pricing_plan_id":"cebpf4jnsgd1na2vs0mg"},{"bike_id":"e04f332d-b41c-47fd-b12f-6fdc7d63f429","system_id":"levelo_inurba_marseille","lat":43.30842,"lon":5.383062,"is_reserved":false,"is_disabled":false,"rental_uris":{"android":"levelo://app?vid=e04f332d-b41c-47fd-b12f-6fdc7d63f429","ios":"levelo://app?vid=e04f332d-b41c-47fd-b12f-6fdc7d63f429"},"vehicle_type_id":"4","last_reported":1761941496,"current_range_meters":16800,"station_id":"","pricing_plan_id":"cebpf4jnsgd1na2vs0mg"},{"bike_id":"ced8b747-e5ab-4e7a-b1f4-22a1ebc20f6f","system_id":"levelo_inurba_marseille","lat":43.30766,"lon":5.37624,"is_reserved":false,"is_disabled":true,"rental_uris":{"android":"levelo://app?vid=ced8b747-e5ab-4e7a-b1f4-22a1ebc20f6f","ios":"levelo://app?vid=ced8b747-e5ab-4e7a-b1f4-22a1ebc20f6f"},"vehicle_type_id":"4","last_reported":1761941496,"current_range_meters":16800,"station_id":"ce4bgv92rcd13ifvqcq0","pricing_plan_id":"cebpf4jnsgd1na2vs0mg"},{"bike_id":"c7497258-8248-48bb-85dc-e533217b6fe9","system_id":"levelo_inurba_marseille","lat":43.24071,"lon":5.3776,"is_reserved":false,"is_disabled":false,"rental_uris":{"android":"levelo://app?vid=c7497258-8248-48bb-85dc-e533217b6fe9","ios":"levelo://app?vid=c7497258-8248-48bb-85dc-e533217b6fe9"},"vehicle_type_id":"4","last_reported":1761941496,"current_range_meters":16800,"station_id":"ce4bhnp2rcd13ifvqgvg","pricing_plan_id":"cebpf4jnsgd1na2vs0mg"},{"bike_id":"c42de068-ba0a-471e-b3b4-17e367f4671b","system_id":"levelo_inurba_marseille","lat":43.29546,"lon":5.39046,"is_reserved":false,"is_disabled":false,"rental_uris":{"android":"levelo://app?vid=c42de068-ba0a-471e-b3b4-17e367f4671b","ios":"levelo://app?vid=c42de068-ba0a-471e-b3b4-17e367f4671b"},"vehicle_type_id":"4","last_reported":1761941496,"current_range_meters":16800,"station_id":"ce4bh3p2rcd13ifvqdp0","pricing_plan_id":"cebpf4jnsgd1na2vs0mg"},{"bike_id":"98d10a64-5b1c-423c-87e7-a8af1618811d","system_id":"levelo_inurba_marseille","lat":43.29531,"lon":5.38539,"is_reserved":false,"is_disabled":false,"rental_uris":{"android":"levelo://app?vid=98d10a64-5b1c-423c-87e7-a8af1618811d","ios":"levelo://app?vid=98d10a64-5b1c-423c-87e7-a8af1618811d"},"vehicle_type_id":"4","last_reported":1761941496,"current_range_meters":16800,"station_id":"ce4bgih2rcd13ifvqba0","pricing_plan_id":"cebpf4jnsgd1na2vs0mg"},{"bike_id":"77cb26a1-52f9-40bd-b524-f34c2c796d9a","system_id":"levelo_inurba_marseille","lat":43.2783,"lon":5.39201,"is_reserved":false,"is_disabled":false,"rental_uris":{"android":"levelo://app?vid=77cb26a1-52f9-40bd-b524-f34c2c796d9a","ios":"levelo://app?vid=77cb26a1-52f9-40bd-b524-f34c2c796d9a"},"vehicle_type_id":"4","last_reported":1761941496,"current_range_meters":17200,"station_id":"ce4bhjp2rcd13ifvqga0","pricing_plan_id":"cebpf4jnsgd1na2vs0mg"},{"bike_id":"c4aa9d59-3ee0-47ad-afd6-964ca21413f9","system_id":"levelo_inurba_marseille","lat":43.27991,"lon":5.40025,"is_reserved":false,"is_disabled":false,"rental_uris":{"android":"levelo://app?vid=c4aa9d59-3ee0-47ad-afd6-964ca21413f9","ios":"levelo://app?vid=c4aa9d59-3ee0-47ad-afd6-964ca21413f9"},"vehicle_type_id":"4","last_reported":1761941496,"current_range_meters":17200,"station_id":"ce4bho92rcd13ifvqh4g","pricing_plan_id":"cebpf4jnsgd1na2vs0mg"},{"bike_id":"6da830a8-111a-4fc5-a34c-ced64d9d2dc3","system_id":"levelo_inurba_marseille","lat":43.30594,"lon":5.39357,"is_reserved":false,"is_disabled":true,"rental_uris":{"android":"levelo://app?vid=6da830a8-111a-4fc5-a34c-ced64d9d2dc3","ios":"levelo://app?vid=6da830a8-111a-4fc5-a34c-ced64d9d2dc3"},"vehicle_type_id":"4","last_reported":1761941496,"current_range_meters":17200,"station_id":"ce4bh0p2rcd13ifvqd80","pricing_plan_id":"cebpf4jnsgd1na2vs0mg"},{"bike_id":"c04ea6ec-c85d-4b9a-aa74-f0de2415a6d2","system_id":"levelo_inurba_marseille","lat":43.31551,"lon":5.3835,"is_reserved":false,"is_disabled":false,"rental_uris":{"android":"levelo://app?vid=c04ea6ec-c85d-4b9a-aa74-f0de2415a6d2","ios":"levelo://app?vid=c04ea6ec-c85d-4b9a-aa74-f0de2415a6d2"},"vehicle_type_id":"4","last_reported":1761941496,"current_range_meters":17200,"station_id":"","pricing_plan_id":"cebpf4jnsgd1na2vs0mg"},{"bike_id":"fbcc5886-69e3-488f-96fd-e45314a075e6","system_id":"levelo_inurba_marseille","lat":43.288697,"lon":5.425177,"is_reserved":false,"is_disabled":false,"rental_uris":{"android":"levelo://app?vid=fbcc5886-69e3-488f-96fd-e45314a075e6","ios":"levelo://app?vid=fbcc5886-69e3-488f-96fd-e45314a075e6"},"vehicle_type_id":"4","last_reported":1761941496,"current_range_meters":17200,"station_id":"st_d3b462108ojc7389ooeg","pricing_plan_id":"cebpf4jnsgd1na2vs0mg"},{"bike_id":"a52d6c36-34c4-44d8-be2f-4926d387c817","system_id":"levelo_inurba_marseille","lat":43.29532,"lon":5.38532,"is_reserved":false,"is_disabled":false,"rental_uris":{"android":"levelo://app?vid=a52d6c36-34c4-44d8-be2f-4926d387c817","ios":"levelo://app?vid=a52d6c36-34c4-44d8-be2f-4926d387c817"},"vehicle_type_id":"4","last_reported":1761941496,"current_range_meters":17600,"station_id":"ce4bgih2rcd13ifvqba0","pricing_plan_id":"cebpf4jnsgd1na2vs0mg"},{"bike_id":"f4138efc-7778-4d94-abf8-053b4cd27475","system_id":"levelo_inurba_marseille","lat":43.23198,"lon":5.35552,"is_reserved":false,"is_disabled":false,"rental_uris":{"android":"levelo://app?vid=f4138efc-7778-4d94-abf8-053b4cd27475","ios":"levelo://app?vid=f4138efc-7778-4d94-abf8-053b4cd27475"},"vehicle_type_id":"4","last_reported":1761941496,"current_range_meters":17600,"station_id":"ce4bhu92rcd13ifvqi70","pricing_plan_id":"cebpf4jnsgd1na2vs0mg"},{"bike_id":"4c6dc4c9-9ec2-42fc-8420-c02e31e8c0b5","system_id":"levelo_inurba_marseille","lat":43.287104,"lon":5.373787,"is_reserved":false,"is_disabled":false,"rental_uris":{"android":"levelo://app?vid=4c6dc4c9-9ec2-42fc-8420-c02e31e8c0b5","ios":"levelo://app?vid=4c6dc4c9-9ec2-42fc-8420-c02e31e8c0b5"},"vehicle_type_id":"4","last_reported":1761941496,"current_range_meters":17600,"station_id":"ce4bh3p2rcd13ifvqdq0","pricing_plan_id":"cebpf4jnsgd1na2vs0mg"},{"bike_id":"4e54111d-f227-41f6-8c56-6e1811feaf6c","system_id":"levelo_inurba_marseille","lat":43.292546,"lon":5.384489,"is_reserved":false,"is_disabled":false,"rental_uris":{"android":"levelo://app?vid=4e54111d-f227-41f6-8c56-6e1811feaf6c","ios":"levelo://app?vid=4e54111d-f227-41f6-8c56-6e1811feaf6c"},"vehicle_type_id":"4","last_reported":1761941496,"current_range_meters":17600,"station_id":"ce4bh692rcd13ifvqea0","pricing_plan_id":"cebpf4jnsgd1na2vs0mg"},{"bike_id":"3708e1d2-c0c2-45b9-9650-3c749e33056e","system_id":"levelo_inurba_marseille","lat":43.251,"lon":5.39522,"is_reserved":false,"is_disabled":false,"rental_uris":{"android":"levelo://app?vid=3708e1d2-c0c2-45b9-9650-3c749e33056e","ios":"levelo://app?vid=3708e1d2-c0c2-45b9-9650-3c749e33056e"},"vehicle_type_id":"4","last_reported":1761941496,"current_range_meters":17600,"station_id":"ce4bhm12rcd13ifvqgkg","pricing_plan_id":"cebpf4jnsgd1na2vs0mg"},{"bike_id":"67a570ca-eb62-4481-8c1b-084f64fd428d","system_id":"levelo_inurba_marseille","lat":43.26554,"lon":5.39,"is_reserved":false,"is_disabled":false,"rental_uris":{"android":"levelo://app?vid=67a570ca-eb62-4481-8c1b-084f64fd428d","ios":"levelo://app?vid=67a570ca-eb62-4481-8c1b-084f64fd428d"},"vehicle_type_id":"4","last_reported":1761941496,"current_range_meters":17600,"station_id":"ce4bhe12rcd13ifvqf30","pricing_plan_id":"cebpf4jnsgd1na2vs0mg"},{"bike_id":"cdd112f3-6912-49dd-9e7f-dbb25c44d0bb","system_id":"levelo_inurba_marseille","lat":43.29758,"lon":5.42778,"is_reserved":false,"is_disabled":false,"rental_uris":{"android":"levelo://app?vid=cdd112f3-6912-49dd-9e7f-dbb25c44d0bb","ios":"levelo://app?vid=cdd112f3-6912-49dd-9e7f-dbb25c44d0bb"},"vehicle_type_id":"4","last_reported":1761941496,"current_range_meters":18000,"station_id":"st_d3md5207bmas73dh9klg","pricing_plan_id":"cebpf4jnsgd1na2vs0mg"},{"bike_id":"c3514b9c-6d2f-411d-a29e-11576e100683","system_id":"levelo_inurba_marseille","lat":43.29294,"lon":5.37459,"is_reserved":false,"is_disabled":false,"rental_uris":{"android":"levelo://app?vid=c3514b9c-6d2f-411d-a29e-11576e100683","ios":"levelo://app?vid=c3514b9c-6d2f-411d-a29e-11576e100683"},"vehicle_type_id":"4","last_reported":1761941496,"current_range_meters":18000,"station_id":"ce4bgi12rcd13ifvqb70","pricing_plan_id":"cebpf4jnsgd1na2vs0mg"},{"bike_id":"c03308b3-342c-4986-a370-683055a4c6ec","system_id":"levelo_inurba_marseille","lat":43.30886,"lon":5.39635,"is_reserved":false,"is_disabled":false,"rental_uris":{"android":"levelo://app?vid=c03308b3-342c-4986-a370-683055a4c6ec","ios":"levelo://app?vid=c03308b3-342c-4986-a370-683055a4c6ec"},"vehicle_type_id":"4","last_reported":1761941496,"current_range_meters":18000,"station_id":"ce4bh012rcd13ifvqcv0","pricing_plan_id":"cebpf4jnsgd1na2vs0mg"},{"bike_id":"c3de4193-b30f-4c53-a743-4e3a738e9dde","system_id":"levelo_inurba_marseille","lat":43.26685,"lon":5.38269,"is_reserved":false,"is_disabled":false,"rental_uris":{"android":"levelo://app?vid=c3de4193-b30f-4c53-a743-4e3a738e9dde","ios":"levelo://app?vid=c3de4193-b30f-4c53-a743-4e3a738e9dde"},"vehicle_type_id":"4","last_reported":1761941496,"current_range_meters":18000,"station_id":"ce4bhg92rcd13ifvqf90","pricing_plan_id":"cebpf4jnsgd1na2vs0mg"},{"bike_id":"0089665c-d050-4f0d-8d27-e9a6af9208fc","system_id":"levelo_inurba_marseille","lat":43.30195,"lon":5.38026,"is_reserved":false,"is_disabled":false,"rental_uris":{"android":"levelo://app?vid=0089665c-d050-4f0d-8d27-e9a6af9208fc","ios":"levelo://app?vid=0089665c-d050-4f0d-8d27-e9a6af9208fc"},"vehicle_type_id":"4","last_reported":1761941496,"current_range_meters":18000,"station_id":"","pricing_plan_id":"cebpf4jnsgd1na2vs0mg"},{"bike_id":"0c3bfe72-1bfa-4fe4-8ec1-abc531b0b6c5","system_id":"levelo_inurba_marseille","lat":43.2655,"lon":5.37286,"is_reserved":false,"is_disabled":true,"rental_uris":{"android":"levelo://app?vid=0c3bfe72-1bfa-4fe4-8ec1-abc531b0b6c5","ios":"levelo://app?vid=0c3bfe72-1bfa-4fe4-8ec1-abc531b0b6c5"},"vehicle_type_id":"4","last_reported":1761941496,"current_range_meters":18000,"station_id":"ce4bhg12rcd13ifvqf70","pricing_plan_id":"cebpf4jnsgd1na2vs0mg"},{"bike_id":"252ff558-e70b-4ae0-9044-acc668b445bb","system_id":"levelo_inurba_marseille","lat":43.21194,"lon":5.3506,"is_reserved":false,"is_disabled":false,"rental_uris":{"android":"levelo://app?vid=252ff558-e70b-4ae0-9044-acc668b445bb","ios":"levelo://app?vid=252ff558-e70b-4ae0-9044-acc668b445bb"},"vehicle_type_id":"4","last_reported":1761941496,"current_range_meters":18000,"station_id":"st_cvj6sg6p6f1abm77japg","pricing_plan_id":"cebpf4jnsgd1na2vs0mg"},{"bike_id":"f9a376bb-e16d-419c-884a-492ffebe4f2f","system_id":"levelo_inurba_marseille","lat":43.25338,"lon":5.42177,"is_reserved":false,"is_disabled":false,"rental_uris":{"android":"levelo://app?vid=f9a376bb-e16d-419c-884a-492ffebe4f2f","ios":"levelo://app?vid=f9a376bb-e16d-419c-884a-492ffebe4f2f"},"vehicle_type_id":"4","last_reported":1761941496,"current_range_meters":18000,"station_id":"st_d2m65c5bi1j21697t3ng","pricing_plan_id":"cebpf4jnsgd1na2vs0mg"},{"bike_id":"7a40df5c-50cc-4a80-bd27-e690d1783ee8","system_id":"levelo_inurba_marseille","lat":43.32112,"lon":5.36777,"is_reserved":false,"is_disabled":false,"rental_uris":{"android":"levelo://app?vid=7a40df5c-50cc-4a80-bd27-e690d1783ee8","ios":"levelo://app?vid=7a40df5c-50cc-4a80-bd27-e690d1783ee8"},"vehicle_type_id":"4","last_reported":1761941496,"current_range_meters":18000,"station_id":"ce4bhrh2rcd13ifvqhug","pricing_plan_id":"cebpf4jnsgd1na2vs0mg"},{"bike_id":"1e229b78-95ec-4431-8fc4-6d1022be1e43","system_id":"levelo_inurba_marseille","lat":43.299622,"lon":5.384852,"is_reserved":false,"is_disabled":false,"rental_uris":{"android":"levelo://app?vid=1e229b78-95ec-4431-8fc4-6d1022be1e43","ios":"levelo://app?vid=1e229b78-95ec-4431-8fc4-6d1022be1e43"},"vehicle_type_id":"4","last_reported":1761941496,"current_range_meters":18000,"station_id":"","pricing_plan_id":"cebpf4jnsgd1na2vs0mg"},{"bike_id":"23e74654-c6b6-4808-9a7b-3df075e37d1c","system_id":"levelo_inurba_marseille","lat":43.309265,"lon":5.37163,"is_reserved":false,"is_disabled":false,"rental_uris":{"android":"levelo://app?vid=23e74654-c6b6-4808-9a7b-3df075e37d1c","ios":"levelo://app?vid=23e74654-c6b6-4808-9a7b-3df075e37d1c"},"vehicle_type_id":"4","last_reported":1761941496,"current_range_meters":18000,"station_id":"ce4bguh2rcd13ifvqckg","pricing_plan_id":"cebpf4jnsgd1na2vs0mg"},{"bike_id":"d452d34c-d4bc-48b1-a676-b04c892b33ad","system_id":"levelo_inurba_marseille","lat":43.29525,"lon":5.38534,"is_reserved":false,"is_disabled":false,"rental_uris":{"android":"levelo://app?vid=d452d34c-d4bc-48b1-a676-b04c892b33ad","ios":"levelo://app?vid=d452d34c-d4bc-48b1-a676-b04c892b33ad"},"vehicle_type_id":"4","last_reported":1761941496,"current_range_meters":18000,"station_id":"ce4bgih2rcd13ifvqba0","pricing_plan_id":"cebpf4jnsgd1na2vs0mg"},{"bike_id":"bfd47976-4b12-4a3a-abee-96cc29a7d071","system_id":"levelo_inurba_marseille","lat":43.29487,"lon":5.43299,"is_reserved":false,"is_disabled":false,"rental_uris":{"android":"levelo://app?vid=bfd47976-4b12-4a3a-abee-96cc29a7d071","ios":"levelo://app?vid=bfd47976-4b12-4a3a-abee-96cc29a7d071"},"vehicle_type_id":"4","last_reported":1761941496,"current_range_meters":18800,"station_id":"st_d3j5ugp08ojc73fj9d10","pricing_plan_id":"cebpf4jnsgd1na2vs0mg"},{"bike_id":"0b951a33-8ea4-4d55-9b90-e84b0ed21ff0","system_id":"levelo_inurba_marseille","lat":43.29258,"lon":5.38438,"is_reserved":false,"is_disabled":true,"rental_uris":{"android":"levelo://app?vid=0b951a33-8ea4-4d55-9b90-e84b0ed21ff0","ios":"levelo://app?vid=0b951a33-8ea4-4d55-9b90-e84b0ed21ff0"},"vehicle_type_id":"4","last_reported":1761941496,"current_range_meters":18800,"station_id":"ce4bh692rcd13ifvqea0","pricing_plan_id":"cebpf4jnsgd1na2vs0mg"},{"bike_id":"a62c8899-99d3-4b36-998e-f99186dfc0b8","system_id":"levelo_inurba_marseille","lat":43.27842,"lon":5.39196,"is_reserved":false,"is_disabled":false,"rental_uris":{"android":"levelo://app?vid=a62c8899-99d3-4b36-998e-f99186dfc0b8","ios":"levelo://app?vid=a62c8899-99d3-4b36-998e-f99186dfc0b8"},"vehicle_type_id":"4","last_reported":1761941496,"current_range_meters":18800,"station_id":"ce4bhjp2rcd13ifvqga0","pricing_plan_id":"cebpf4jnsgd1na2vs0mg"},{"bike_id":"3150b169-6d8b-4786-81cd-4b890da98702","system_id":"levelo_inurba_marseille","lat":43.23788,"lon":5.36615,"is_reserved":false,"is_disabled":false,"rental_uris":{"android":"levelo://app?vid=3150b169-6d8b-4786-81cd-4b890da98702","ios":"levelo://app?vid=3150b169-6d8b-4786-81cd-4b890da98702"},"vehicle_type_id":"4","last_reported":1761941496,"current_range_meters":18800,"station_id":"st_d3nk18o9ro0c73en2l3g","pricing_plan_id":"cebpf4jnsgd1na2vs0mg"},{"bike_id":"5705d6c1-6e72-4c3c-b826-c310b29abf10","system_id":"levelo_inurba_marseille","lat":43.25718,"lon":5.41116,"is_reserved":false,"is_disabled":false,"rental_uris":{"android":"levelo://app?vid=5705d6c1-6e72-4c3c-b826-c310b29abf10","ios":"levelo://app?vid=5705d6c1-6e72-4c3c-b826-c310b29abf10"},"vehicle_type_id":"4","last_reported":1761941496,"current_range_meters":18800,"station_id":"ce4bhkp2rcd13ifvqgd0","pricing_plan_id":"cebpf4jnsgd1na2vs0mg"},{"bike_id":"fef11fd7-1b3f-4eb2-bfc2-e3bfca3a156c","system_id":"levelo_inurba_marseille","lat":43.27945,"lon":5.41043,"is_reserved":false,"is_disabled":false,"rental_uris":{"android":"levelo://app?vid=fef11fd7-1b3f-4eb2-bfc2-e3bfca3a156c","ios":"levelo://app?vid=fef11fd7-1b3f-4eb2-bfc2-e3bfca3a156c"},"vehicle_type_id":"4","last_reported":1761941496,"current_range_meters":18800,"station_id":"ce4bhnp2rcd13ifvqh0g","pricing_plan_id":"cebpf4jnsgd1na2vs0mg"},{"bike_id":"cd863979-95f7-4e5c-a2c4-d0799c22e8f1","system_id":"levelo_inurba_marseille","lat":43.28866,"lon":5.42516,"is_reserved":false,"is_disabled":false,"rental_uris":{"android":"levelo://app?vid=cd863979-95f7-4e5c-a2c4-d0799c22e8f1","ios":"levelo://app?vid=cd863979-95f7-4e5c-a2c4-d0799c22e8f1"},"vehicle_type_id":"4","last_reported":1761941496,"current_range_meters":18800,"station_id":"st_d3b462108ojc7389ooeg","pricing_plan_id":"cebpf4jnsgd1na2vs0mg"},{"bike_id":"e3fb49f5-399b-4d6f-8db8-5b0bff4d385f","system_id":"levelo_inurba_marseille","lat":43.33798,"lon":5.37404,"is_reserved":false,"is_disabled":false,"rental_uris":{"android":"levelo://app?vid=e3fb49f5-399b-4d6f-8db8-5b0bff4d385f","ios":"levelo://app?vid=e3fb49f5-399b-4d6f-8db8-5b0bff4d385f"},"vehicle_type_id":"4","last_reported":1761941496,"current_range_meters":19200,"station_id":"ce4bh612rcd13ifvqe6g","pricing_plan_id":"cebpf4jnsgd1na2vs0mg"},{"bike_id":"94084d75-b1ec-4cf5-8736-b1d0c7eed7ce","system_id":"levelo_inurba_marseille","lat":43.33024,"lon":5.39041,"is_reserved":false,"is_disabled":false,"rental_uris":{"android":"levelo://app?vid=94084d75-b1ec-4cf5-8736-b1d0c7eed7ce","ios":"levelo://app?vid=94084d75-b1ec-4cf5-8736-b1d0c7eed7ce"},"vehicle_type_id":"4","last_reported":1761941496,"current_range_meters":19200,"station_id":"ce4bhr92rcd13ifvqhrg","pricing_plan_id":"cebpf4jnsgd1na2vs0mg"},{"bike_id":"9b2522ed-ea4d-4908-a39c-af315e308446","system_id":"levelo_inurba_marseille","lat":43.299347,"lon":5.365595,"is_reserved":false,"is_disabled":false,"rental_uris":{"android":"levelo://app?vid=9b2522ed-ea4d-4908-a39c-af315e308446","ios":"levelo://app?vid=9b2522ed-ea4d-4908-a39c-af315e308446"},"vehicle_type_id":"4","last_reported":1761941496,"current_range_meters":19200,"station_id":"ce4bgm92rcd13ifvqbr0","pricing_plan_id":"cebpf4jnsgd1na2vs0mg"},{"bike_id":"32632625-b281-4348-990f-071d78c42b84","system_id":"levelo_inurba_marseille","lat":43.26569,"lon":5.39014,"is_reserved":false,"is_disabled":false,"rental_uris":{"android":"levelo://app?vid=32632625-b281-4348-990f-071d78c42b84","ios":"levelo://app?vid=32632625-b281-4348-990f-071d78c42b84"},"vehicle_type_id":"4","last_reported":1761941496,"current_range_meters":19200,"station_id":"","pricing_plan_id":"cebpf4jnsgd1na2vs0mg"},{"bike_id":"a5f9d115-2eb0-463d-bf65-9070eaddf3fb","system_id":"levelo_inurba_marseille","lat":43.23954,"lon":5.36624,"is_reserved":false,"is_disabled":false,"rental_uris":{"android":"levelo://app?vid=a5f9d115-2eb0-463d-bf65-9070eaddf3fb","ios":"levelo://app?vid=a5f9d115-2eb0-463d-bf65-9070eaddf3fb"},"vehicle_type_id":"4","last_reported":1761941496,"current_range_meters":19200,"station_id":"ce4bhi12rcd13ifvqfp0","pricing_plan_id":"cebpf4jnsgd1na2vs0mg"},{"bike_id":"41598790-345d-414f-9e87-720cb432f278","system_id":"levelo_inurba_marseille","lat":43.29477,"lon":5.36227,"is_reserved":false,"is_disabled":false,"rental_uris":{"android":"levelo://app?vid=41598790-345d-414f-9e87-720cb432f278","ios":"levelo://app?vid=41598790-345d-414f-9e87-720cb432f278"},"vehicle_type_id":"4","last_reported":1761941496,"current_range_meters":19200,"station_id":"","pricing_plan_id":"cebpf4jnsgd1na2vs0mg"},{"bike_id":"9ee030a8-2096-47dc-9a00-9b0afd75e3d0","system_id":"levelo_inurba_marseille","lat":43.32661,"lon":5.41002,"is_reserved":false,"is_disabled":false,"rental_uris":{"android":"levelo://app?vid=9ee030a8-2096-47dc-9a00-9b0afd75e3d0","ios":"levelo://app?vid=9ee030a8-2096-47dc-9a00-9b0afd75e3d0"},"vehicle_type_id":"4","last_reported":1761941496,"current_range_meters":19200,"station_id":"ce4bhpp2rcd13ifvqhgg","pricing_plan_id":"cebpf4jnsgd1na2vs0mg"},{"bike_id":"50c2c89c-4a9b-41f6-af05-b4e430e07029","system_id":"levelo_inurba_marseille","lat":43.24637,"lon":5.43142,"is_reserved":false,"is_disabled":false,"rental_uris":{"android":"levelo://app?vid=50c2c89c-4a9b-41f6-af05-b4e430e07029","ios":"levelo://app?vid=50c2c89c-4a9b-41f6-af05-b4e430e07029"},"vehicle_type_id":"4","last_reported":1761941496,"current_range_meters":19200,"station_id":"st_d2m6c4gdas8pm72e190g","pricing_plan_id":"cebpf4jnsgd1na2vs0mg"},{"bike_id":"cc0d6697-bf7c-4001-828f-c5cf42c80c59","system_id":"levelo_inurba_marseille","lat":43.2119,"lon":5.35059,"is_reserved":false,"is_disabled":false,"rental_uris":{"android":"levelo://app?vid=cc0d6697-bf7c-4001-828f-c5cf42c80c59","ios":"levelo://app?vid=cc0d6697-bf7c-4001-828f-c5cf42c80c59"},"vehicle_type_id":"4","last_reported":1761941496,"current_range_meters":19200,"station_id":"","pricing_plan_id":"cebpf4jnsgd1na2vs0mg"},{"bike_id":"1d29646a-da1f-4f66-b008-0838ffb2fa84","system_id":"levelo_inurba_marseille","lat":43.29998,"lon":5.3721,"is_reserved":false,"is_disabled":false,"rental_uris":{"android":"levelo://app?vid=1d29646a-da1f-4f66-b008-0838ffb2fa84","ios":"levelo://app?vid=1d29646a-da1f-4f66-b008-0838ffb2fa84"},"vehicle_type_id":"4","last_reported":1761941496,"current_range_meters":19200,"station_id":"ce4bgr92rcd13ifvqc7g","pricing_plan_id":"cebpf4jnsgd1na2vs0mg"},{"bike_id":"5e53d316-e3d2-41ec-be79-ebe26a4881b8","system_id":"levelo_inurba_marseille","lat":43.29268,"lon":5.38448,"is_reserved":false,"is_disabled":false,"rental_uris":{"android":"levelo://app?vid=5e53d316-e3d2-41ec-be79-ebe26a4881b8","ios":"levelo://app?vid=5e53d316-e3d2-41ec-be79-ebe26a4881b8"},"vehicle_type_id":"4","last_reported":1761941496,"current_range_meters":19600,"station_id":"ce4bh692rcd13ifvqea0","pricing_plan_id":"cebpf4jnsgd1na2vs0mg"},{"bike_id":"f4c38a56-4a35-49a9-bdea-5d14ae1ba768","system_id":"levelo_inurba_marseille","lat":43.29756,"lon":5.42773,"is_reserved":false,"is_disabled":false,"rental_uris":{"android":"levelo://app?vid=f4c38a56-4a35-49a9-bdea-5d14ae1ba768","ios":"levelo://app?vid=f4c38a56-4a35-49a9-bdea-5d14ae1ba768"},"vehicle_type_id":"4","last_reported":1761941496,"current_range_meters":19600,"station_id":"st_d3md5207bmas73dh9klg","pricing_plan_id":"cebpf4jnsgd1na2vs0mg"},{"bike_id":"e3ef3d09-361a-4912-8cea-2a659dc7108c","system_id":"levelo_inurba_marseille","lat":43.29266,"lon":5.3844,"is_reserved":false,"is_disabled":false,"rental_uris":{"android":"levelo://app?vid=e3ef3d09-361a-4912-8cea-2a659dc7108c","ios":"levelo://app?vid=e3ef3d09-361a-4912-8cea-2a659dc7108c"},"vehicle_type_id":"4","last_reported":1761941496,"current_range_meters":19600,"station_id":"ce4bh692rcd13ifvqea0","pricing_plan_id":"cebpf4jnsgd1na2vs0mg"},{"bike_id":"27a57e98-74a5-4199-b34c-179e5a67edc4","system_id":"levelo_inurba_marseille","lat":43.29092,"lon":5.38145,"is_reserved":false,"is_disabled":false,"rental_uris":{"android":"levelo://app?vid=27a57e98-74a5-4199-b34c-179e5a67edc4","ios":"levelo://app?vid=27a57e98-74a5-4199-b34c-179e5a67edc4"},"vehicle_type_id":"4","last_reported":1761941496,"current_range_meters":19600,"station_id":"ce4bh512rcd13ifvqe2g","pricing_plan_id":"cebpf4jnsgd1na2vs0mg"},{"bike_id":"7c19b7e9-393b-4fa2-b057-4dd7dff08f6d","system_id":"levelo_inurba_marseille","lat":43.21192,"lon":5.35071,"is_reserved":false,"is_disabled":false,"rental_uris":{"android":"levelo://app?vid=7c19b7e9-393b-4fa2-b057-4dd7dff08f6d","ios":"levelo://app?vid=7c19b7e9-393b-4fa2-b057-4dd7dff08f6d"},"vehicle_type_id":"4","last_reported":1761941496,"current_range_meters":19600,"station_id":"st_cvj6sg6p6f1abm77japg","pricing_plan_id":"cebpf4jnsgd1na2vs0mg"},{"bike_id":"1510912d-5500-4029-8c52-09b2dbc632be","system_id":"levelo_inurba_marseille","lat":43.29444,"lon":5.40129,"is_reserved":false,"is_disabled":true,"rental_uris":{"android":"levelo://app?vid=1510912d-5500-4029-8c52-09b2dbc632be","ios":"levelo://app?vid=1510912d-5500-4029-8c52-09b2dbc632be"},"vehicle_type_id":"4","last_reported":1761941496,"current_range_meters":20000,"station_id":"","pricing_plan_id":"cebpf4jnsgd1na2vs0mg"},{"bike_id":"52b04612-cd38-411f-a68e-6bb9cb24a90a","system_id":"levelo_inurba_marseille","lat":43.24162,"lon":5.36392,"is_reserved":false,"is_disabled":false,"rental_uris":{"android":"levelo://app?vid=52b04612-cd38-411f-a68e-6bb9cb24a90a","ios":"levelo://app?vid=52b04612-cd38-411f-a68e-6bb9cb24a90a"},"vehicle_type_id":"4","last_reported":1761941496,"current_range_meters":20000,"station_id":"cpo36qri1sfpv3e86is0","pricing_plan_id":"cebpf4jnsgd1na2vs0mg"},{"bike_id":"008d8a36-0aaf-4928-a033-bb55e1c12e8c","system_id":"levelo_inurba_marseille","lat":43.30949,"lon":5.39028,"is_reserved":false,"is_disabled":false,"rental_uris":{"android":"levelo://app?vid=008d8a36-0aaf-4928-a033-bb55e1c12e8c","ios":"levelo://app?vid=008d8a36-0aaf-4928-a033-bb55e1c12e8c"},"vehicle_type_id":"4","last_reported":1761941496,"current_range_meters":20000,"station_id":"ce4bgup2rcd13ifvqco0","pricing_plan_id":"cebpf4jnsgd1na2vs0mg"},{"bike_id":"c3cf2536-fdb8-48ce-817b-cd879e43e0db","system_id":"levelo_inurba_marseille","lat":43.30896,"lon":5.37194,"is_reserved":false,"is_disabled":false,"rental_uris":{"android":"levelo://app?vid=c3cf2536-fdb8-48ce-817b-cd879e43e0db","ios":"levelo://app?vid=c3cf2536-fdb8-48ce-817b-cd879e43e0db"},"vehicle_type_id":"4","last_reported":1761941496,"current_range_meters":20000,"station_id":"ce4bguh2rcd13ifvqckg","pricing_plan_id":"cebpf4jnsgd1na2vs0mg"},{"bike_id":"a5cb859b-d1f6-4546-b44d-58f2af5faab8","system_id":"levelo_inurba_marseille","lat":43.30155,"lon":5.38088,"is_reserved":false,"is_disabled":true,"rental_uris":{"android":"levelo://app?vid=a5cb859b-d1f6-4546-b44d-58f2af5faab8","ios":"levelo://app?vid=a5cb859b-d1f6-4546-b44d-58f2af5faab8"},"vehicle_type_id":"4","last_reported":1761941496,"current_range_meters":20000,"station_id":"ce4bgjp2rcd13ifvqbh0","pricing_plan_id":"cebpf4jnsgd1na2vs0mg"},{"bike_id":"ea8030a7-7630-4c71-bb5c-1e271bfc61ac","system_id":"levelo_inurba_marseille","lat":43.29541,"lon":5.38533,"is_reserved":false,"is_disabled":false,"rental_uris":{"android":"levelo://app?vid=ea8030a7-7630-4c71-bb5c-1e271bfc61ac","ios":"levelo://app?vid=ea8030a7-7630-4c71-bb5c-1e271bfc61ac"},"vehicle_type_id":"4","last_reported":1761941496,"current_range_meters":20000,"station_id":"ce4bgih2rcd13ifvqba0","pricing_plan_id":"cebpf4jnsgd1na2vs0mg"},{"bike_id":"7776d34e-6db1-4a95-b64a-dfa1faf6c280","system_id":"levelo_inurba_marseille","lat":43.30202,"lon":5.36981,"is_reserved":false,"is_disabled":false,"rental_uris":{"android":"levelo://app?vid=7776d34e-6db1-4a95-b64a-dfa1faf6c280","ios":"levelo://app?vid=7776d34e-6db1-4a95-b64a-dfa1faf6c280"},"vehicle_type_id":"4","last_reported":1761941496,"current_range_meters":20000,"station_id":"","pricing_plan_id":"cebpf4jnsgd1na2vs0mg"},{"bike_id":"b4a09c0d-7b1e-4054-98f9-e5bf1a00e19e","system_id":"levelo_inurba_marseille","lat":43.30557,"lon":5.36521,"is_reserved":false,"is_disabled":false,"rental_uris":{"android":"levelo://app?vid=b4a09c0d-7b1e-4054-98f9-e5bf1a00e19e","ios":"levelo://app?vid=b4a09c0d-7b1e-4054-98f9-e5bf1a00e19e"},"vehicle_type_id":"4","last_reported":1761941496,"current_range_meters":20000,"station_id":"ce4bgs12rcd13ifvqcag","pricing_plan_id":"cebpf4jnsgd1na2vs0mg"},{"bike_id":"82307e5d-1d88-4836-b33e-a10a4da30997","system_id":"levelo_inurba_marseille","lat":43.265616,"lon":5.403266,"is_reserved":false,"is_disabled":false,"rental_uris":{"android":"levelo://app?vid=82307e5d-1d88-4836-b33e-a10a4da30997","ios":"levelo://app?vid=82307e5d-1d88-4836-b33e-a10a4da30997"},"vehicle_type_id":"4","last_reported":1761941496,"current_range_meters":20000,"station_id":"ce4bhmp2rcd13ifvqgng","pricing_plan_id":"cebpf4jnsgd1na2vs0mg"},{"bike_id":"5a467d9b-0b12-4aa4-b21c-7519f80e3f8b","system_id":"levelo_inurba_marseille","lat":43.299223,"lon":5.374789,"is_reserved":false,"is_disabled":false,"rental_uris":{"android":"levelo://app?vid=5a467d9b-0b12-4aa4-b21c-7519f80e3f8b","ios":"levelo://app?vid=5a467d9b-0b12-4aa4-b21c-7519f80e3f8b"},"vehicle_type_id":"4","last_reported":1761941496,"current_range_meters":20000,"station_id":"ce4bgjh2rcd13ifvqbg0","pricing_plan_id":"cebpf4jnsgd1na2vs0mg"},{"bike_id":"578a57cc-dd8f-4b86-9eea-c52481c8e90f","system_id":"levelo_inurba_marseille","lat":43.21192,"lon":5.35064,"is_reserved":false,"is_disabled":false,"rental_uris":{"android":"levelo://app?vid=578a57cc-dd8f-4b86-9eea-c52481c8e90f","ios":"levelo://app?vid=578a57cc-dd8f-4b86-9eea-c52481c8e90f"},"vehicle_type_id":"4","last_reported":1761941496,"current_range_meters":20000,"station_id":"st_cvj6sg6p6f1abm77japg","pricing_plan_id":"cebpf4jnsgd1na2vs0mg"},{"bike_id":"2c073f97-d145-41b9-a286-3254806a9db3","system_id":"levelo_inurba_marseille","lat":43.31531,"lon":5.38019,"is_reserved":false,"is_disabled":false,"rental_uris":{"android":"levelo://app?vid=2c073f97-d145-41b9-a286-3254806a9db3","ios":"levelo://app?vid=2c073f97-d145-41b9-a286-3254806a9db3"},"vehicle_type_id":"4","last_reported":1761941496,"current_range_meters":20000,"station_id":"ce4bhsp2rcd13ifvqi50","pricing_plan_id":"cebpf4jnsgd1na2vs0mg"},{"bike_id":"a73a24c3-2218-4652-a302-2ad81b7034ad","system_id":"levelo_inurba_marseille","lat":43.31832,"lon":5.38763,"is_reserved":false,"is_disabled":false,"rental_uris":{"android":"levelo://app?vid=a73a24c3-2218-4652-a302-2ad81b7034ad","ios":"levelo://app?vid=a73a24c3-2218-4652-a302-2ad81b7034ad"},"vehicle_type_id":"4","last_reported":1761941496,"current_range_meters":20000,"station_id":"","pricing_plan_id":"cebpf4jnsgd1na2vs0mg"},{"bike_id":"ba541a52-7e4e-4241-9791-ae6f1fb03dcd","system_id":"levelo_inurba_marseille","lat":43.32,"lon":5.41595,"is_reserved":false,"is_disabled":false,"rental_uris":{"android":"levelo://app?vid=ba541a52-7e4e-4241-9791-ae6f1fb03dcd","ios":"levelo://app?vid=ba541a52-7e4e-4241-9791-ae6f1fb03dcd"},"vehicle_type_id":"4","last_reported":1761941496,"current_range_meters":20000,"station_id":"","pricing_plan_id":"cebpf4jnsgd1na2vs0mg"},{"bike_id":"d8fb1702-924c-4042-9597-3b3d8915486d","system_id":"levelo_inurba_marseille","lat":43.305355,"lon":5.365446,"is_reserved":false,"is_disabled":false,"rental_uris":{"android":"levelo://app?vid=d8fb1702-924c-4042-9597-3b3d8915486d","ios":"levelo://app?vid=d8fb1702-924c-4042-9597-3b3d8915486d"},"vehicle_type_id":"4","last_reported":1761941496,"current_range_meters":20000,"station_id":"ce4bgs12rcd13ifvqcag","pricing_plan_id":"cebpf4jnsgd1na2vs0mg"},{"bike_id":"848aa9e7-f6b2-494a-a070-86601a8c35c8","system_id":"levelo_inurba_marseille","lat":43.29795,"lon":5.40404,"is_reserved":false,"is_disabled":false,"rental_uris":{"android":"levelo://app?vid=848aa9e7-f6b2-494a-a070-86601a8c35c8","ios":"levelo://app?vid=848aa9e7-f6b2-494a-a070-86601a8c35c8"},"vehicle_type_id":"4","last_reported":1761941496,"current_range_meters":20000,"station_id":"ce4bh112rcd13ifvqd90","pricing_plan_id":"cebpf4jnsgd1na2vs0mg"},{"bike_id":"2cb83849-1ef4-418a-97fa-7fd0c0a73de7","system_id":"levelo_inurba_marseille","lat":43.30907,"lon":5.36849,"is_reserved":false,"is_disabled":false,"rental_uris":{"android":"levelo://app?vid=2cb83849-1ef4-418a-97fa-7fd0c0a73de7","ios":"levelo://app?vid=2cb83849-1ef4-418a-97fa-7fd0c0a73de7"},"vehicle_type_id":"4","last_reported":1761941496,"current_range_meters":20400,"station_id":"ce4bgn92rcd13ifvqbvg","pricing_plan_id":"cebpf4jnsgd1na2vs0mg"},{"bike_id":"2742994a-7270-4ff9-8fc6-08f4fbae31ca","system_id":"levelo_inurba_marseille","lat":43.29532,"lon":5.3854,"is_reserved":false,"is_disabled":false,"rental_uris":{"android":"levelo://app?vid=2742994a-7270-4ff9-8fc6-08f4fbae31ca","ios":"levelo://app?vid=2742994a-7270-4ff9-8fc6-08f4fbae31ca"},"vehicle_type_id":"4","last_reported":1761941496,"current_range_meters":20400,"station_id":"ce4bgih2rcd13ifvqba0","pricing_plan_id":"cebpf4jnsgd1na2vs0mg"},{"bike_id":"32e850fa-348d-426a-a3de-01fea2bfa2c9","system_id":"levelo_inurba_marseille","lat":43.29781,"lon":5.37095,"is_reserved":false,"is_disabled":false,"rental_uris":{"android":"levelo://app?vid=32e850fa-348d-426a-a3de-01fea2bfa2c9","ios":"levelo://app?vid=32e850fa-348d-426a-a3de-01fea2bfa2c9"},"vehicle_type_id":"4","last_reported":1761941496,"current_range_meters":20400,"station_id":"ce4bgop2rcd13ifvqc1g","pricing_plan_id":"cebpf4jnsgd1na2vs0mg"},{"bike_id":"a02f400b-e987-490e-8c31-52f08ee5cea5","system_id":"levelo_inurba_marseille","lat":43.29793,"lon":5.38098,"is_reserved":false,"is_disabled":false,"rental_uris":{"android":"levelo://app?vid=a02f400b-e987-490e-8c31-52f08ee5cea5","ios":"levelo://app?vid=a02f400b-e987-490e-8c31-52f08ee5cea5"},"vehicle_type_id":"4","last_reported":1761941496,"current_range_meters":20400,"station_id":"ce4bgip2rcd13ifvqbb0","pricing_plan_id":"cebpf4jnsgd1na2vs0mg"},{"bike_id":"7bffe7d3-ee8f-44c7-a5bc-22d4f4db841d","system_id":"levelo_inurba_marseille","lat":43.31761,"lon":5.39011,"is_reserved":false,"is_disabled":false,"rental_uris":{"android":"levelo://app?vid=7bffe7d3-ee8f-44c7-a5bc-22d4f4db841d","ios":"levelo://app?vid=7bffe7d3-ee8f-44c7-a5bc-22d4f4db841d"},"vehicle_type_id":"4","last_reported":1761941496,"current_range_meters":20400,"station_id":"ce4bhqp2rcd13ifvqhng","pricing_plan_id":"cebpf4jnsgd1na2vs0mg"},{"bike_id":"79c3e17b-6b52-40f3-829f-6b443681b1d3","system_id":"levelo_inurba_marseille","lat":43.28088,"lon":5.39656,"is_reserved":false,"is_disabled":false,"rental_uris":{"android":"levelo://app?vid=79c3e17b-6b52-40f3-829f-6b443681b1d3","ios":"levelo://app?vid=79c3e17b-6b52-40f3-829f-6b443681b1d3"},"vehicle_type_id":"4","last_reported":1761941496,"current_range_meters":20800,"station_id":"ce4bho12rcd13ifvqh2g","pricing_plan_id":"cebpf4jnsgd1na2vs0mg"},{"bike_id":"d2754b2e-b279-492a-905f-afe36bde47ce","system_id":"levelo_inurba_marseille","lat":43.29964,"lon":5.38498,"is_reserved":false,"is_disabled":false,"rental_uris":{"android":"levelo://app?vid=d2754b2e-b279-492a-905f-afe36bde47ce","ios":"levelo://app?vid=d2754b2e-b279-492a-905f-afe36bde47ce"},"vehicle_type_id":"4","last_reported":1761941496,"current_range_meters":20800,"station_id":"ce4bgj92rcd13ifvqbd0","pricing_plan_id":"cebpf4jnsgd1na2vs0mg"},{"bike_id":"1af74fe3-6ad6-4b8f-af9a-1a1810def892","system_id":"levelo_inurba_marseille","lat":43.281553,"lon":5.426471,"is_reserved":false,"is_disabled":false,"rental_uris":{"android":"levelo://app?vid=1af74fe3-6ad6-4b8f-af9a-1a1810def892","ios":"levelo://app?vid=1af74fe3-6ad6-4b8f-af9a-1a1810def892"},"vehicle_type_id":"4","last_reported":1761941496,"current_range_meters":20800,"station_id":"ce4bhnh2rcd13ifvqgug","pricing_plan_id":"cebpf4jnsgd1na2vs0mg"},{"bike_id":"565cc599-e2e4-4d0e-aef3-effc6ee3ffe7","system_id":"levelo_inurba_marseille","lat":43.27939,"lon":5.41035,"is_reserved":false,"is_disabled":false,"rental_uris":{"android":"levelo://app?vid=565cc599-e2e4-4d0e-aef3-effc6ee3ffe7","ios":"levelo://app?vid=565cc599-e2e4-4d0e-aef3-effc6ee3ffe7"},"vehicle_type_id":"4","last_reported":1761941496,"current_range_meters":20800,"station_id":"ce4bhnp2rcd13ifvqh0g","pricing_plan_id":"cebpf4jnsgd1na2vs0mg"},{"bike_id":"aa724d1b-646b-4013-8744-077fd73d61a3","system_id":"levelo_inurba_marseille","lat":43.26061,"lon":5.39396,"is_reserved":false,"is_disabled":false,"rental_uris":{"android":"levelo://app?vid=aa724d1b-646b-4013-8744-077fd73d61a3","ios":"levelo://app?vid=aa724d1b-646b-4013-8744-077fd73d61a3"},"vehicle_type_id":"4","last_reported":1761941496,"current_range_meters":20800,"station_id":"ce4bhh92rcd13ifvqfj0","pricing_plan_id":"cebpf4jnsgd1na2vs0mg"},