{"last_updated":1726582115,"ttl":30,"version":"2.2","data":{"bikes":[{"bike_id":"30fde23d-ad30-47c3-9a8a-56ae22a5021a","system_id":"levelo_inurba_marseille","lat":43.29603,"lon":5.37717,"is_reserved":false,"is_disabled":false,"rental_uris":{"android":"levelo://app?vid=30fde23d-ad30-47c3-9a8a-56ae22a5021a","ios":"levelo://app?vid=30fde23d-ad30-47c3-9a8a-56ae22a5021a"},"vehicle_type_id":"4","last_reported":1726582115,"current_range_meters":35200,"station_id":"ce4bgi92rcd13ifvqb90","pricing_plan_id":"cebpf4jnsgd1na2vs0mg"},{"bike_id":"4c4e43b7-d715-49b5-a858-87ad08c6e04b","system_id":"levelo_inurba_marseille","lat":43.28613,"lon":5.37059,"is_reserved":false,"is_disabled":false,"rental_uris":{"android":"levelo://app?vid=4c4e43b7-d715-49b5-a858-87ad08c6e04b","ios":"levelo://app?vid=4c4e43b7-d715-49b5-a858-87ad08c6e04b"},"vehicle_type_id":"4","last_reported":1726582115,"current_range_meters":33200,"station_id":"ce4bht12rcd13ifvqi60","pricing_plan_id":"cebpf4jnsgd1na2vs0mg"},{"bike_id":"92f0ae7a-f94e-4606-9c60-77a82c00205d","system_id":"levelo_inurba_marseille","lat":43.27511,"lon":5.42438,"is_reserved":false,"is_disabled":false,"rental_uris":{"android":"levelo://app?vid=92f0ae7a-f94e-4606-9c60-77a82c00205d","ios":"levelo://app?vid=92f0ae7a-f94e-4606-9c60-77a82c00205d"},"vehicle_type_id":"4","last_reported":1726582115,"current_range_meters":3600,"station_id":"ce4bhn92rcd13ifvqgrg","pricing_plan_id":"cebpf4jnsgd1na2vs0mg"},{"bike_id":"9cb4b340-4d9f-4316-9ec2-b18a3be9faeb","system_id":"levelo_inurba_marseille","lat":43.2694,"lon":5.40253,"is_reserved":false,"is_disabled":false,"rental_uris":{"android":"levelo://app?vid=9cb4b340-4d9f-4316-9ec2-b18a3be9faeb","ios":"levelo://app?vid=9cb4b340-4d9f-4316-9ec2-b18a3be9faeb"},"vehicle_type_id":"4","last_reported":1726582115,"current_range_meters":22400,"station_id":"cjm6bp8fraef2m0cb0m0","pricing_plan_id":"cebpf4jnsgd1na2vs0mg"},{"bike_id":"414ef2e7-b4fd-4c04-88c4-6c5612017eb7","system_id":"levelo_inurba_marseille","lat":43.29715,"lon":5.3661,"is_reserved":false,"is_disabled":false,"rental_uris":{"android":"levelo://app?vid=414ef2e7-b4fd-4c04-88c4-6c5612017eb7","ios":"levelo://app?vid=414ef2e7-b4fd-4c04-88c4-6c5612017eb7"},"vehicle_type_id":"4","last_reported":1726582115,"current_range_meters":25600,"station_id":"ce4bgn12rcd13ifvqbt0","pricing_plan_id":"cebpf4jnsgd1na2vs0mg"},{"bike_id":"43176770-eaee-4996-86c7-d408161e4ce6","system_id":"levelo_inurba_marseille","lat":43.29899,"lon":5.4366,"is_reserved":false,"is_disabled":false,"rental_uris":{"android":"levelo://app?vid=43176770-eaee-4996-86c7-d408161e4ce6","ios":"levelo://app?vid=43176770-eaee-4996-86c7-d408161e4ce6"},"vehicle_type_id":"4","last_reported":1726582115,"current_range_meters":5600,"station_id":"ce4bhpp2rcd13ifvqhfg","pricing_plan_id":"cebpf4jnsgd1na2vs0mg"},{"bike_id":"7b2f97db-eeab-498c-8f29-9de35d358bfe","system_id":"levelo_inurba_marseille","lat":43.26554,"lon":5.37286,"is_reserved":false,"is_disabled":false,"rental_uris":{"android":"levelo://app?vid=7b2f97db-eeab-498c-8f29-9de35d358bfe","ios":"levelo://app?vid=7b2f97db-eeab-498c-8f29-9de35d358bfe"},"vehicle_type_id":"4","last_reported":1726582115,"current_range_meters":34800,"station_id":"ce4bhg12rcd13ifvqf70","pricing_plan_id":"cebpf4jnsgd1na2vs0mg"},{"bike_id":"7242170e-59ed-4ff8-9bd1-442c5b9f4d28","system_id":"levelo_inurba_marseille","lat":43.25494,"lon":5.37653,"is_reserved":false,"is_disabled":false,"rental_uris":{"android":"levelo://app?vid=7242170e-59ed-4ff8-9bd1-442c5b9f4d28","ios":"levelo://app?vid=7242170e-59ed-4ff8-9bd1-442c5b9f4d28"},"vehicle_type_id":"4","last_reported":1726582115,"current_range_meters":19200,"station_id":"ce4bhh12rcd13ifvqff0","pricing_plan_id":"cebpf4jnsgd1na2vs0mg"},{"bike_id":"017ad941-2bc7-4c23-aa10-a9af1a423d28","system_id":"levelo_inurba_marseille","lat":43.33027,"lon":5.39035,"is_reserved":false,"is_disabled":false,"rental_uris":{"android":"levelo://app?vid=017ad941-2bc7-4c23-aa10-a9af1a423d28","ios":"levelo://app?vid=017ad941-2bc7-4c23-aa10-a9af1a423d28"},"vehicle_type_id":"4","last_reported":1726582115,"current_range_meters":15200,"station_id":"ce4bhr92rcd13ifvqhrg","pricing_plan_id":"cebpf4jnsgd1na2vs0mg"},{"bike_id":"8ee5198f-f2e6-42b0-9222-7b0c644ae14e","system_id":"levelo_inurba_marseille","lat":43.31085,"lon":5.42433,"is_reserved":false,"is_disabled":false,"rental_uris":{"android":"levelo://app?vid=8ee5198f-f2e6-42b0-9222-7b0c644ae14e","ios":"levelo://app?vid=8ee5198f-f2e6-42b0-9222-7b0c644ae14e"},"vehicle_type_id":"4","last_reported":1726582115,"current_range_meters":38800,"station_id":"ce4bhp92rcd13ifvqhag","pricing_plan_id":"cebpf4jnsgd1na2vs0mg"},{"bike_id":"5a567a26-d9cf-4db5-9a45-0cc60399f6f1","system_id":"levelo_inurba_marseille","lat":43.30304,"lon":5.368932,"is_reserved":false,"is_disabled":false,"rental_uris":{"android":"levelo://app?vid=5a567a26-d9cf-4db5-9a45-0cc60399f6f1","ios":"levelo://app?vid=5a567a26-d9cf-4db5-9a45-0cc60399f6f1"},"vehicle_type_id":"4","last_reported":1726582115,"current_range_meters":30800,"station_id":"ce4bgqh2rcd13ifvqc5g","pricing_plan_id":"cebpf4jnsgd1na2vs0mg"},{"bike_id":"56845603-e681-4bcf-bd89-fdbea338a6e6","system_id":"levelo_inurba_marseille","lat":43.29674,"lon":5.37294,"is_reserved":false,"is_disabled":false,"rental_uris":{"android":"levelo://app?vid=56845603-e681-4bcf-bd89-fdbea338a6e6","ios":"levelo://app?vid=56845603-e681-4bcf-bd89-fdbea338a6e6"},"vehicle_type_id":"4","last_reported":1726582115,"current_range_meters":20400,"station_id":"ce4bgk12rcd13ifvqbj0","pricing_plan_id":"cebpf4jnsgd1na2vs0mg"},{"bike_id":"429ced8e-1f8d-43af-8c5a-8d0e0195a199","system_id":"levelo_inurba_marseille","lat":43.2989,"lon":5.39744,"is_reserved":false,"is_disabled":false,"rental_uris":{"android":"levelo://app?vid=429ced8e-1f8d-43af-8c5a-8d0e0195a199","ios":"levelo://app?vid=429ced8e-1f8d-43af-8c5a-8d0e0195a199"},"vehicle_type_id":"4","last_reported":1726582115,"current_range_meters":38800,"station_id":"ce4bh0h2rcd13ifvqd50","pricing_plan_id":"cebpf4jnsgd1na2vs0mg"},{"bike_id":"9d243943-f186-4f8f-b775-710d28fca1e0","system_id":"levelo_inurba_marseille","lat":43.32544,"lon":5.41427,"is_reserved":false,"is_disabled":false,"rental_uris":{"android":"levelo://app?vid=9d243943-f186-4f8f-b775-710d28fca1e0","ios":"levelo://app?vid=9d243943-f186-4f8f-b775-710d28fca1e0"},"vehicle_type_id":"4","last_reported":1726582115,"current_range_meters":32800,"station_id":"ce4bhq12rcd13ifvqhhg","pricing_plan_id":"cebpf4jnsgd1na2vs0mg"},{"bike_id":"bb2e8da6-4d6a-4933-b324-753c0f37e491","system_id":"levelo_inurba_marseille","lat":43.30548,"lon":5.36531,"is_reserved":false,"is_disabled":false,"rental_uris":{"android":"levelo://app?vid=bb2e8da6-4d6a-4933-b324-753c0f37e491","ios":"levelo://app?vid=bb2e8da6-4d6a-4933-b324-753c0f37e491"},"vehicle_type_id":"4","last_reported":1726582115,"current_range_meters":25200,"station_id":"ce4bgs12rcd13ifvqcag","pricing_plan_id":"cebpf4jnsgd1na2vs0mg"},{"bike_id":"bf8cb7f4-7acb-496c-9a23-20c68c54c9b4","system_id":"levelo_inurba_marseille","lat":43.25117,"lon":5.40318,"is_reserved":false,"is_disabled":false,"rental_uris":{"android":"levelo://app?vid=bf8cb7f4-7acb-496c-9a23-20c68c54c9b4","ios":"levelo://app?vid=bf8cb7f4-7acb-496c-9a23-20c68c54c9b4"},"vehicle_type_id":"4","last_reported":1726582115,"current_range_meters":31200,"station_id":"ce4bhlh2rcd13ifvqgig","pricing_plan_id":"cebpf4jnsgd1na2vs0mg"},{"bike_id":"88f23be9-09b8-4460-93f5-49e98dd270fb","system_id":"levelo_inurba_marseille","lat":43.2803,"lon":5.36946,"is_reserved":false,"is_disabled":false,"rental_uris":{"android":"levelo://app?vid=88f23be9-09b8-4460-93f5-49e98dd270fb","ios":"levelo://app?vid=88f23be9-09b8-4460-93f5-49e98dd270fb"},"vehicle_type_id":"4","last_reported":1726582115,"current_range_meters":22400,"station_id":"ce4bha12rcd13ifvqef0","pricing_plan_id":"cebpf4jnsgd1na2vs0mg"},{"bike_id":"ebbcefaf-20d5-462a-9932-6512ad59f94f","system_id":"levelo_inurba_marseille","lat":43.29846,"lon":5.36272,"is_reserved":false,"is_disabled":false,"rental_uris":{"android":"levelo://app?vid=ebbcefaf-20d5-462a-9932-6512ad59f94f","ios":"levelo://app?vid=ebbcefaf-20d5-462a-9932-6512ad59f94f"},"vehicle_type_id":"4","last_reported":1726582115,"current_range_meters":18800,"station_id":"ce4bgpp2rcd13ifvqc3g","pricing_plan_id":"cebpf4jnsgd1na2vs0mg"},{"bike_id":"add46327-23bc-4055-bbe1-314cfc8e3709","system_id":"levelo_inurba_marseille","lat":43.23201,"lon":5.35543,"is_reserved":false,"is_disabled":false,"rental_uris":{"android":"levelo://app?vid=add46327-23bc-4055-bbe1-314cfc8e3709","ios":"levelo://app?vid=add46327-23bc-4055-bbe1-314cfc8e3709"},"vehicle_type_id":"4","last_reported":1726582115,"current_range_meters":6000,"station_id":"ce4bhu92rcd13ifvqi70","pricing_plan_id":"cebpf4jnsgd1na2vs0mg"},{"bike_id":"36587967-1e79-47c3-ba21-dd6bfe64ec87","system_id":"levelo_inurba_marseille","lat":43.32368,"lon":5.38873,"is_reserved":false,"is_disabled":false,"rental_uris":{"android":"levelo://app?vid=36587967-1e79-47c3-ba21-dd6bfe64ec87","ios":"levelo://app?vid=36587967-1e79-47c3-ba21-dd6bfe64ec87"},"vehicle_type_id":"4","last_reported":1726582115,"current_range_meters":16000,"station_id":"ce4bhqp2rcd13ifvqhog","pricing_plan_id":"cebpf4jnsgd1na2vs0mg"},{"bike_id":"7332924d-e6e3-477e-a9d7-7f99c0d01656","system_id":"levelo_inurba_marseille","lat":43.28943,"lon":5.36635,"is_reserved":false,"is_disabled":false,"rental_uris":{"android":"levelo://app?vid=7332924d-e6e3-477e-a9d7-7f99c0d01656","ios":"levelo://app?vid=7332924d-e6e3-477e-a9d7-7f99c0d01656"},"vehicle_type_id":"4","last_reported":1726582115,"current_range_meters":25600,"station_id":"ce4bhap2rcd13ifvqek0","pricing_plan_id":"cebpf4jnsgd1na2vs0mg"},{"bike_id":"50e6c921-2b59-423f-98dd-2166e2a0b07f","system_id":"levelo_inurba_marseille","lat":43.29616,"lon":5.37717,"is_reserved":false,"is_disabled":false,"rental_uris":{"android":"levelo://app?vid=50e6c921-2b59-423f-98dd-2166e2a0b07f","ios":"levelo://app?vid=50e6c921-2b59-423f-98dd-2166e2a0b07f"},"vehicle_type_id":"4","last_reported":1726582115,"current_range_meters":27600,"station_id":"ce4bgi92rcd13ifvqb90","pricing_plan_id":"cebpf4jnsgd1na2vs0mg"},{"bike_id":"eec0cf62-e748-4627-affd-023a6704ecc6","system_id":"levelo_inurba_marseille","lat":43.29524,"lon":5.39045,"is_reserved":false,"is_disabled":false,"rental_uris":{"android":"levelo://app?vid=eec0cf62-e748-4627-affd-023a6704ecc6","ios":"levelo://app?vid=eec0cf62-e748-4627-affd-023a6704ecc6"},"vehicle_type_id":"4","last_reported":1726582115,"current_range_meters":38000,"station_id":"ce4bh3p2rcd13ifvqdp0","pricing_plan_id":"cebpf4jnsgd1na2vs0mg"},{"bike_id":"da5f5e31-f865-4a00-a247-c1c71e894d53","system_id":"levelo_inurba_marseille","lat":43.30646,"lon":5.40072,"is_reserved":false,"is_disabled":false,"rental_uris":{"android":"levelo://app?vid=da5f5e31-f865-4a00-a247-c1c71e894d53","ios":"levelo://app?vid=da5f5e31-f865-4a00-a247-c1c71e894d53"},"vehicle_type_id":"4","last_reported":1726582115,"current_range_meters":38800,"station_id":"ce4bh112rcd13ifvqda0","pricing_plan_id":"cebpf4jnsgd1na2vs0mg"},{"bike_id":"2050c9b2-57bb-4db1-ac5e-79c988433192","system_id":"levelo_inurba_marseille","lat":43.30932,"lon":5.40133,"is_reserved":false,"is_disabled":false,"rental_uris":{"android":"levelo://app?vid=2050c9b2-57bb-4db1-ac5e-79c988433192","ios":"levelo://app?vid=2050c9b2-57bb-4db1-ac5e-79c988433192"},"vehicle_type_id":"4","last_reported":1726582115,"current_range_meters":27600,"station_id":"ce4bgvp2rcd13ifvqct0","pricing_plan_id":"cebpf4jnsgd1na2vs0mg"},{"bike_id":"c9051fb2-e268-45de-b959-b85aef8f7644","system_id":"levelo_inurba_marseille","lat":43.29612,"lon":5.37705,"is_reserved":false,"is_disabled":false,"rental_uris":{"android":"levelo://app?vid=c9051fb2-e268-45de-b959-b85aef8f7644","ios":"levelo://app?vid=c9051fb2-e268-45de-b959-b85aef8f7644"},"vehicle_type_id":"4","last_reported":1726582115,"current_range_meters":28400,"station_id":"ce4bgi92rcd13ifvqb90","pricing_plan_id":"cebpf4jnsgd1na2vs0mg"},{"bike_id":"932d2370-44fa-43e9-a275-adb59fea4682","system_id":"levelo_inurba_marseille","lat":43.30971,"lon":5.39035,"is_reserved":false,"is_disabled":false,"rental_uris":{"android":"levelo://app?vid=932d2370-44fa-43e9-a275-adb59fea4682","ios":"levelo://app?vid=932d2370-44fa-43e9-a275-adb59fea4682"},"vehicle_type_id":"4","last_reported":1726582115,"current_range_meters":38800,"station_id":"ce4bgup2rcd13ifvqco0","pricing_plan_id":"cebpf4jnsgd1na2vs0mg"},{"bike_id":"1929c344-1874-47c2-8a0c-9c82d344ce5a","system_id":"levelo_inurba_marseille","lat":43.28861,"lon":5.35841,"is_reserved":false,"is_disabled":false,"rental_uris":{"android":"levelo://app?vid=1929c344-1874-47c2-8a0c-9c82d344ce5a","ios":"levelo://app?vid=1929c344-1874-47c2-8a0c-9c82d344ce5a"},"vehicle_type_id":"4","last_reported":1726582115,"current_range_meters":38000,"station_id":"ce4bhb12rcd13ifvqem0","pricing_plan_id":"cebpf4jnsgd1na2vs0mg"},{"bike_id":"dabffe39-4ea4-4ee5-a5c0-af5c3e980a1e","system_id":"levelo_inurba_marseille","lat":43.24076,"lon":5.37762,"is_reserved":false,"is_disabled":false,"rental_uris":{"android":"levelo://app?vid=dabffe39-4ea4-4ee5-a5c0-af5c3e980a1e","ios":"levelo://app?vid=dabffe39-4ea4-4ee5-a5c0-af5c3e980a1e"},"vehicle_type_id":"4","last_reported":1726582115,"current_range_meters":22000,"station_id":"ce4bhnp2rcd13ifvqgvg","pricing_plan_id":"cebpf4jnsgd1na2vs0mg"},{"bike_id":"2a5808e5-1612-4dc1-a62b-b9c71459256c","system_id":"levelo_inurba_marseille","lat":43.34088,"lon":5.39104,"is_reserved":false,"is_disabled":false,"rental_uris":{"android":"levelo://app?vid=2a5808e5-1612-4dc1-a62b-b9c71459256c","ios":"levelo://app?vid=2a5808e5-1612-4dc1-a62b-b9c71459256c"},"vehicle_type_id":"4","last_reported":1726582115,"current_range_meters":11200,"station_id":"","pricing_plan_id":"cebpf4jnsgd1na2vs0mg"},{"bike_id":"9def4d63-7cec-4ef3-bac5-883bf42519e2","system_id":"levelo_inurba_marseille","lat":43.28463,"lon":5.35888,"is_reserved":false,"is_disabled":false,"rental_uris":{"android":"levelo://app?vid=9def4d63-7cec-4ef3-bac5-883bf42519e2","ios":"levelo://app?vid=9def4d63-7cec-4ef3-bac5-883bf42519e2"},"vehicle_type_id":"4","last_reported":1726582115,"current_range_meters":17600,"station_id":"ce4bhah2rcd13ifvqei0","pricing_plan_id":"cebpf4jnsgd1na2vs0mg"},{"bike_id":"43e2219b-dd8c-4128-b213-7038aa9554c3","system_id":"levelo_inurba_marseille","lat":43.26216,"lon":5.37441,"is_reserved":false,"is_disabled":false,"rental_uris":{"android":"levelo://app?vid=43e2219b-dd8c-4128-b213-7038aa9554c3","ios":"levelo://app?vid=43e2219b-dd8c-4128-b213-7038aa9554c3"},"vehicle_type_id":"4","last_reported":1726582115,"current_range_meters":17600,"station_id":"ce4bhgp2rcd13ifvqfc0","pricing_plan_id":"cebpf4jnsgd1na2vs0mg"},{"bike_id":"ae233565-c8ba-49d9-aed7-4ba3812e7b9f","system_id":"levelo_inurba_marseille","lat":43.30886,"lon":5.39659,"is_reserved":false,"is_disabled":false,"rental_uris":{"android":"levelo://app?vid=ae233565-c8ba-49d9-aed7-4ba3812e7b9f","ios":"levelo://app?vid=ae233565-c8ba-49d9-aed7-4ba3812e7b9f"},"vehicle_type_id":"4","last_reported":1726582115,"current_range_meters":17600,"station_id":"ce4bh012rcd13ifvqcv0","pricing_plan_id":"cebpf4jnsgd1na2vs0mg"},{"bike_id":"36e016df-1c6d-465d-b2b9-053e662a0f4c","system_id":"levelo_inurba_marseille","lat":43.2978,"lon":5.40398,"is_reserved":false,"is_disabled":false,"rental_uris":{"android":"levelo://app?vid=36e016df-1c6d-465d-b2b9-053e662a0f4c","ios":"levelo://app?vid=36e016df-1c6d-465d-b2b9-053e662a0f4c"},"vehicle_type_id":"4","last_reported":1726582115,"current_range_meters":34800,"station_id":"ce4bh112rcd13ifvqd90","pricing_plan_id":"cebpf4jnsgd1na2vs0mg"},{"bike_id":"26ba68ce-9abf-45c1-9160-ad0d48c72a28","system_id":"levelo_inurba_marseille","lat":43.30541,"lon":5.36528,"is_reserved":false,"is_disabled":false,"rental_uris":{"android":"levelo://app?vid=26ba68ce-9abf-45c1-9160-ad0d48c72a28","ios":"levelo://app?vid=26ba68ce-9abf-45c1-9160-ad0d48c72a28"},"vehicle_type_id":"4","last_reported":1726582115,"current_range_meters":34000,"station_id":"ce4bgs12rcd13ifvqcag","pricing_plan_id":"cebpf4jnsgd1na2vs0mg"},{"bike_id":"c4896bbf-0996-4e9b-89d9-534cb9b1e51f","system_id":"levelo_inurba_marseille","lat":43.301452,"lon":5.380743,"is_reserved":false,"is_disabled":false,"rental_uris":{"android":"levelo://app?vid=c4896bbf-0996-4e9b-89d9-534cb9b1e51f","ios":"levelo://app?vid=c4896bbf-0996-4e9b-89d9-534cb9b1e51f"},"vehicle_type_id":"4","last_reported":1726582115,"current_range_meters":12000,"station_id":"ce4bgjp2rcd13ifvqbh0","pricing_plan_id":"cebpf4jnsgd1na2vs0mg"},{"bike_id":"6c3b465f-08c2-4171-978e-02e7d0439687","system_id":"levelo_inurba_marseille","lat":43.31997,"lon":5.38149,"is_reserved":false,"is_disabled":false,"rental_uris":{"android":"levelo://app?vid=6c3b465f-08c2-4171-978e-02e7d0439687","ios":"levelo://app?vid=6c3b465f-08c2-4171-978e-02e7d0439687"},"vehicle_type_id":"4","last_reported":1726582115,"current_range_meters":31200,"station_id":"ce4bhr12rcd13ifvqhpg","pricing_plan_id":"cebpf4jnsgd1na2vs0mg"},{"bike_id":"f701636f-5785-4315-b84b-03eda67bcee2","system_id":"levelo_inurba_marseille","lat":43.239683,"lon":5.366241,"is_reserved":false,"is_disabled":false,"rental_uris":{"android":"levelo://app?vid=f701636f-5785-4315-b84b-03eda67bcee2","ios":"levelo://app?vid=f701636f-5785-4315-b84b-03eda67bcee2"},"vehicle_type_id":"4","last_reported":1726582115,"current_range_meters":33200,"station_id":"ce4bhi12rcd13ifvqfp0","pricing_plan_id":"cebpf4jnsgd1na2vs0mg"},{"bike_id":"8ed03d4f-f681-4f9a-b0c7-e1c5f7fb06d9","system_id":"levelo_inurba_marseille","lat":43.24084,"lon":5.37749,"is_reserved":false,"is_disabled":false,"rental_uris":{"android":"levelo://app?vid=8ed03d4f-f681-4f9a-b0c7-e1c5f7fb06d9","ios":"levelo://app?vid=8ed03d4f-f681-4f9a-b0c7-e1c5f7fb06d9"},"vehicle_type_id":"4","last_reported":1726582115,"current_range_meters":27200,"station_id":"ce4bhnp2rcd13ifvqgvg","pricing_plan_id":"cebpf4jnsgd1na2vs0mg"},{"bike_id":"42085980-51f6-48da-962d-1c1968ba6c68","system_id":"levelo_inurba_marseille","lat":43.24073,"lon":5.37763,"is_reserved":false,"is_disabled":false,"rental_uris":{"android":"levelo://app?vid=42085980-51f6-48da-962d-1c1968ba6c68","ios":"levelo://app?vid=42085980-51f6-48da-962d-1c1968ba6c68"},"vehicle_type_id":"4","last_reported":1726582115,"current_range_meters":33200,"station_id":"ce4bhnp2rcd13ifvqgvg","pricing_plan_id":"cebpf4jnsgd1na2vs0mg"},{"bike_id":"5d638799-d9dd-4911-9f52-112d253fc6d7","system_id":"levelo_inurba_marseille","lat":43.287079,"lon":5.379254,"is_reserved":false,"is_disabled":false,"rental_uris":{"android":"levelo://app?vid=5d638799-d9dd-4911-9f52-112d253fc6d7","ios":"levelo://app?vid=5d638799-d9dd-4911-9f52-112d253fc6d7"},"vehicle_type_id":"4","last_reported":1726582115,"current_range_meters":38000,"station_id":"ce4bh9p2rcd13ifvqec0","pricing_plan_id":"cebpf4jnsgd1na2vs0mg"},{"bike_id":"882e327a-d92c-4bd6-b42d-19c69c8b050c","system_id":"levelo_inurba_marseille","lat":43.30542,"lon":5.36694,"is_reserved":false,"is_disabled":false,"rental_uris":{"android":"levelo://app?vid=882e327a-d92c-4bd6-b42d-19c69c8b050c","ios":"levelo://app?vid=882e327a-d92c-4bd6-b42d-19c69c8b050c"},"vehicle_type_id":"4","last_reported":1726582115,"current_range_meters":36400,"station_id":"ce4bgrp2rcd13ifvqc9g","pricing_plan_id":"cebpf4jnsgd1na2vs0mg"},{"bike_id":"6686a262-b20a-4d62-8105-3e491ef36b46","system_id":"levelo_inurba_marseille","lat":43.24068,"lon":5.37755,"is_reserved":false,"is_disabled":false,"rental_uris":{"android":"levelo://app?vid=6686a262-b20a-4d62-8105-3e491ef36b46","ios":"levelo://app?vid=6686a262-b20a-4d62-8105-3e491ef36b46"},"vehicle_type_id":"4","last_reported":1726582115,"current_range_meters":29600,"station_id":"ce4bhnp2rcd13ifvqgvg","pricing_plan_id":"cebpf4jnsgd1na2vs0mg"},{"bike_id":"b9f6a000-29a1-4547-89da-cef6582d7a03","system_id":"levelo_inurba_marseille","lat":43.29712,"lon":5.36591,"is_reserved":false,"is_disabled":false,"rental_uris":{"android":"levelo://app?vid=b9f6a000-29a1-4547-89da-cef6582d7a03","ios":"levelo://app?vid=b9f6a000-29a1-4547-89da-cef6582d7a03"},"vehicle_type_id":"4","last_reported":1726582115,"current_range_meters":34800,"station_id":"ce4bgn12rcd13ifvqbt0","pricing_plan_id":"cebpf4jnsgd1na2vs0mg"},{"bike_id":"f409a27c-3291-4d9b-ac57-9e74e75d80d1","system_id":"levelo_inurba_marseille","lat":43.32367,"lon":5.3887,"is_reserved":false,"is_disabled":false,"rental_uris":{"android":"levelo://app?vid=f409a27c-3291-4d9b-ac57-9e74e75d80d1","ios":"levelo://app?vid=f409a27c-3291-4d9b-ac57-9e74e75d80d1"},"vehicle_type_id":"4","last_reported":1726582115,"current_range_meters":14000,"station_id":"ce4bhqp2rcd13ifvqhog","pricing_plan_id":"cebpf4jnsgd1na2vs0mg"},{"bike_id":"c7cc55d8-4eb2-4579-8434-921b0c6ed4f4","system_id":"levelo_inurba_marseille","lat":43.29791,"lon":5.3809,"is_reserved":false,"is_disabled":false,"rental_uris":{"android":"levelo://app?vid=c7cc55d8-4eb2-4579-8434-921b0c6ed4f4","ios":"levelo://app?vid=c7cc55d8-4eb2-4579-8434-921b0c6ed4f4"},"vehicle_type_id":"4","last_reported":1726582115,"current_range_meters":28000,"station_id":"ce4bgip2rcd13ifvqbb0","pricing_plan_id":"cebpf4jnsgd1na2vs0mg"},{"bike_id":"e632dfdb-78f4-47fa-8abe-3b4836f94471","system_id":"levelo_inurba_marseille","lat":43.27496,"lon":5.42454,"is_reserved":false,"is_disabled":false,"rental_uris":{"android":"levelo://app?vid=e632dfdb-78f4-47fa-8abe-3b4836f94471","ios":"levelo://app?vid=e632dfdb-78f4-47fa-8abe-3b4836f94471"},"vehicle_type_id":"4","last_reported":1726582115,"current_range_meters":27200,"station_id":"ce4bhn92rcd13ifvqgrg","pricing_plan_id":"cebpf4jnsgd1na2vs0mg"},{"bike_id":"30ce5f9d-e14d-4ee7-b9f8-22f7215e3c5f","system_id":"levelo_inurba_marseille","lat":43.23152,"lon":5.43723,"is_reserved":false,"is_disabled":false,"rental_uris":{"android":"levelo://app?vid=30ce5f9d-e14d-4ee7-b9f8-22f7215e3c5f","ios":"levelo://app?vid=30ce5f9d-e14d-4ee7-b9f8-22f7215e3c5f"},"vehicle_type_id":"4","last_reported":1726582115,"current_range_meters":22800,"station_id":"ce4bhmp2rcd13ifvqgog","pricing_plan_id":"cebpf4jnsgd1na2vs0mg"},{"bike_id":"d8c4c12b-846d-4a23-9c59-55365613ede0","system_id":"levelo_inurba_marseille","lat":43.29977,"lon":5.38498,"is_reserved":false,"is_disabled":false,"rental_uris":{"android":"levelo://app?vid=d8c4c12b-846d-4a23-9c59-55365613ede0","ios":"levelo://app?vid=d8c4c12b-846d-4a23-9c59-55365613ede0"},"vehicle_type_id":"4","last_reported":1726582115,"current_range_meters":26000,"station_id":"ce4bgj92rcd13ifvqbd0","pricing_plan_id":"cebpf4jnsgd1na2vs0mg"},{"bike_id":"cd1d4c55-2cbb-4b85-a1be-a7235ca53de6","system_id":"levelo_inurba_marseille","lat":43.3248,"lon":5.36581,"is_reserved":false,"is_disabled":false,"rental_uris":{"android":"levelo://app?vid=cd1d4c55-2cbb-4b85-a1be-a7235ca53de6","ios":"levelo://app?vid=cd1d4c55-2cbb-4b85-a1be-a7235ca53de6"},"vehicle_type_id":"4","last_reported":1726582115,"current_range_meters":24400,"station_id":"ce4bhs12rcd13ifvqhvg","pricing_plan_id":"cebpf4jnsgd1na2vs0mg"},{"bike_id":"ee7cab51-ac41-4df2-a570-0b8afed077f6","system_id":"levelo_inurba_marseille","lat":43.3303,"lon":5.39036,"is_reserved":false,"is_disabled":false,"rental_uris":{"android":"levelo://app?vid=ee7cab51-ac41-4df2-a570-0b8afed077f6","ios":"levelo://app?vid=ee7cab51-ac41-4df2-a570-0b8afed077f6"},"vehicle_type_id":"4","last_reported":1726582115,"current_range_meters":30000,"station_id":"ce4bhr92rcd13ifvqhrg","pricing_plan_id":"cebpf4jnsgd1na2vs0mg"},{"bike_id":"c7f93bf2-2b30-4c5c-aa72-447b3f4a28ea","system_id":"levelo_inurba_marseille","lat":43.29896,"lon":5.43664,"is_reserved":false,"is_disabled":false,"rental_uris":{"android":"levelo://app?vid=c7f93bf2-2b30-4c5c-aa72-447b3f4a28ea","ios":"levelo://app?vid=c7f93bf2-2b30-4c5c-aa72-447b3f4a28ea"},"vehicle_type_id":"4","last_reported":1726582115,"current_range_meters":8800,"station_id":"ce4bhpp2rcd13ifvqhfg","pricing_plan_id":"cebpf4jnsgd1na2vs0mg"},{"bike_id":"24d82575-6adb-4bd7-9a9a-d5ea2287bd14","system_id":"levelo_inurba_marseille","lat":43.32367,"lon":5.38885,"is_reserved":false,"is_disabled":false,"rental_uris":{"android":"levelo://app?vid=24d82575-6adb-4bd7-9a9a-d5ea2287bd14","ios":"levelo://app?vid=24d82575-6adb-4bd7-9a9a-d5ea2287bd14"},"vehicle_type_id":"4","last_reported":1726582115,"current_range_meters":7200,"station_id":"ce4bhqp2rcd13ifvqhog","pricing_plan_id":"cebpf4jnsgd1na2vs0mg"},{"bike_id":"58ce924a-882e-43b6-9991-ea8db65c1e2c","system_id":"levelo_inurba_marseille","lat":43.25487,"lon":5.37646,"is_reserved":false,"is_disabled":false,"rental_uris":{"android":"levelo://app?vid=58ce924a-882e-43b6-9991-ea8db65c1e2c","ios":"levelo://app?vid=58ce924a-882e-43b6-9991-ea8db65c1e2c"},"vehicle_type_id":"4","last_reported":1726582115,"current_range_meters":22000,"station_id":"ce4bhh12rcd13ifvqff0","pricing_plan_id":"cebpf4jnsgd1na2vs0mg"},{"bike_id":"22a588b1-cfec-4a63-9499-3cf933091fed","system_id":"levelo_inurba_marseille","lat":43.30542,"lon":5.36691,"is_reserved":false,"is_disabled":false,"rental_uris":{"android":"levelo://app?vid=22a588b1-cfec-4a63-9499-3cf933091fed","ios":"levelo://app?vid=22a588b1-cfec-4a63-9499-3cf933091fed"},"vehicle_type_id":"4","last_reported":1726582115,"current_range_meters":38800,"station_id":"ce4bgrp2rcd13ifvqc9g","pricing_plan_id":"cebpf4jnsgd1na2vs0mg"},{"bike_id":"282e5177-2620-40e3-9e8f-7934f27674ad","system_id":"levelo_inurba_marseille","lat":43.29629,"lon":5.40595,"is_reserved":false,"is_disabled":false,"rental_uris":{"android":"levelo://app?vid=282e5177-2620-40e3-9e8f-7934f27674ad","ios":"levelo://app?vid=282e5177-2620-40e3-9e8f-7934f27674ad"},"vehicle_type_id":"4","last_reported":1726582115,"current_range_meters":38800,"station_id":"ce4bh0h2rcd13ifvqd60","pricing_plan_id":"cebpf4jnsgd1na2vs0mg"},{"bike_id":"d0052fd2-1a9d-4123-9bcb-b8bd1cd0c9f4","system_id":"levelo_inurba_marseille","lat":43.28937,"lon":5.36638,"is_reserved":false,"is_disabled":false,"rental_uris":{"android":"levelo://app?vid=d0052fd2-1a9d-4123-9bcb-b8bd1cd0c9f4","ios":"levelo://app?vid=d0052fd2-1a9d-4123-9bcb-b8bd1cd0c9f4"},"vehicle_type_id":"4","last_reported":1726582115,"current_range_meters":21600,"station_id":"ce4bhap2rcd13ifvqek0","pricing_plan_id":"cebpf4jnsgd1na2vs0mg"},{"bike_id":"54d27f26-f2ca-40f9-9a5a-6647c45caba7","system_id":"levelo_inurba_marseille","lat":43.28514,"lon":5.37959,"is_reserved":false,"is_disabled":false,"rental_uris":{"android":"levelo://app?vid=54d27f26-f2ca-40f9-9a5a-6647c45caba7","ios":"levelo://app?vid=54d27f26-f2ca-40f9-9a5a-6647c45caba7"},"vehicle_type_id":"4","last_reported":1726582115,"current_range_meters":27600,"station_id":"","pricing_plan_id":"cebpf4jnsgd1na2vs0mg"},{"bike_id":"34d1d709-4cef-47c7-a4d4-ad8fa3126f48","system_id":"levelo_inurba_marseille","lat":43.2903,"lon":5.38637,"is_reserved":false,"is_disabled":false,"rental_uris":{"android":"levelo://app?vid=34d1d709-4cef-47c7-a4d4-ad8fa3126f48","ios":"levelo://app?vid=34d1d709-4cef-47c7-a4d4-ad8fa3126f48"},"vehicle_type_id":"4","last_reported":1726582115,"current_range_meters":17600,"station_id":"ce4bh4p2rcd13ifvqe0g","pricing_plan_id":"cebpf4jnsgd1na2vs0mg"},{"bike_id":"9a2ae8e0-9d3d-4609-a3b2-d4c7fb1c1e2d","system_id":"levelo_inurba_marseille","lat":43.299818,"lon":5.371828,"is_reserved":false,"is_disabled":false,"rental_uris":{"android":"levelo://app?vid=9a2ae8e0-9d3d-4609-a3b2-d4c7fb1c1e2d","ios":"levelo://app?vid=9a2ae8e0-9d3d-4609-a3b2-d4c7fb1c1e2d"},"vehicle_type_id":"4","last_reported":1726582115,"current_range_meters":22400,"station_id":"ce4bgr92rcd13ifvqc7g","pricing_plan_id":"cebpf4jnsgd1na2vs0mg"},{"bike_id":"b88d8bac-711e-49d2-9eee-8f0f2fcec434","system_id":"levelo_inurba_marseille","lat":43.337444,"lon":5.374475,"is_reserved":false,"is_disabled":false,"rental_uris":{"android":"levelo://app?vid=b88d8bac-711e-49d2-9eee-8f0f2fcec434","ios":"levelo://app?vid=b88d8bac-711e-49d2-9eee-8f0f2fcec434"},"vehicle_type_id":"4","last_reported":1726582115,"current_range_meters":30000,"station_id":"ce4bhr92rcd13ifvqhrg","pricing_plan_id":"cebpf4jnsgd1na2vs0mg"},{"bike_id":"a2c50649-157e-444d-8d69-10e3a5314911","system_id":"levelo_inurba_marseille","lat":43.29807,"lon":5.40404,"is_reserved":false,"is_disabled":false,"rental_uris":{"android":"levelo://app?vid=a2c50649-157e-444d-8d69-10e3a5314911","ios":"levelo://app?vid=a2c50649-157e-444d-8d69-10e3a5314911"},"vehicle_type_id":"4","last_reported":1726582115,"current_range_meters":24000,"station_id":"ce4bh112rcd13ifvqd90","pricing_plan_id":"cebpf4jnsgd1na2vs0mg"},{"bike_id":"949b2b1b-2478-4285-b374-cd23dd785a68","system_id":"levelo_inurba_marseille","lat":43.29979,"lon":5.37174,"is_reserved":false,"is_disabled":false,"rental_uris":{"android":"levelo://app?vid=949b2b1b-2478-4285-b374-cd23dd785a68","ios":"levelo://app?vid=949b2b1b-2478-4285-b374-cd23dd785a68"},"vehicle_type_id":"4","last_reported":1726582115,"current_range_meters":4800,"station_id":"ce4bgr92rcd13ifvqc7g","pricing_plan_id":"cebpf4jnsgd1na2vs0mg"},{"bike_id":"219d775b-e3d5-4c31-9579-99f4bbf71813","system_id":"levelo_inurba_marseille","lat":43.29961,"lon":5.41317,"is_reserved":false,"is_disabled":false,"rental_uris":{"android":"levelo://app?vid=219d775b-e3d5-4c31-9579-99f4bbf71813","ios":"levelo://app?vid=219d775b-e3d5-4c31-9579-99f4bbf71813"},"vehicle_type_id":"4","last_reported":1726582115,"current_range_meters":38800,"station_id":"ce4bhp12rcd13ifvqh9g","pricing_plan_id":"cebpf4jnsgd1na2vs0mg"},{"bike_id":"27698c9e-0f9b-4d1b-a066-3722f2f4c644","system_id":"levelo_inurba_marseille","lat":43.301422,"lon":5.374971,"is_reserved":false,"is_disabled":false,"rental_uris":{"android":"levelo://app?vid=27698c9e-0f9b-4d1b-a066-3722f2f4c644","ios":"levelo://app?vid=27698c9e-0f9b-4d1b-a066-3722f2f4c644"},"vehicle_type_id":"4","last_reported":1726582115,"current_range_meters":25200,"station_id":"ce4bgs92rcd13ifvqcc0","pricing_plan_id":"cebpf4jnsgd1na2vs0mg"},{"bike_id":"5b480d12-fbaf-4516-ad27-42d71b9d210f","system_id":"levelo_inurba_marseille","lat":43.27062,"lon":5.40252,"is_reserved":false,"is_disabled":false,"rental_uris":{"android":"levelo://app?vid=5b480d12-fbaf-4516-ad27-42d71b9d210f","ios":"levelo://app?vid=5b480d12-fbaf-4516-ad27-42d71b9d210f"},"vehicle_type_id":"4","last_reported":1726582115,"current_range_meters":5600,"station_id":"ce4bhk92rcd13ifvqgc0","pricing_plan_id":"cebpf4jnsgd1na2vs0mg"},{"bike_id":"8cb592d9-f82f-4171-894f-8d7ffa6525e5","system_id":"levelo_inurba_marseille","lat":43.23203,"lon":5.3555,"is_reserved":false,"is_disabled":false,"rental_uris":{"android":"levelo://app?vid=8cb592d9-f82f-4171-894f-8d7ffa6525e5","ios":"levelo://app?vid=8cb592d9-f82f-4171-894f-8d7ffa6525e5"},"vehicle_type_id":"4","last_reported":1726582115,"current_range_meters":19200,"station_id":"ce4bhu92rcd13ifvqi70","pricing_plan_id":"cebpf4jnsgd1na2vs0mg"},{"bike_id":"5d75f6aa-86df-493f-8d69-fe45e17e7161","system_id":"levelo_inurba_marseille","lat":43.27372,"lon":5.36244,"is_reserved":false,"is_disabled":false,"rental_uris":{"android":"levelo://app?vid=5d75f6aa-86df-493f-8d69-fe45e17e7161","ios":"levelo://app?vid=5d75f6aa-86df-493f-8d69-fe45e17e7161"},"vehicle_type_id":"4","last_reported":1726582115,"current_range_meters":38000,"station_id":"ce4bhbh2rcd13ifvqeo0","pricing_plan_id":"cebpf4jnsgd1na2vs0mg"},{"bike_id":"277c735b-d5d8-4974-98c1-11d4365e331e","system_id":"levelo_inurba_marseille","lat":43.32548,"lon":5.41435,"is_reserved":false,"is_disabled":false,"rental_uris":{"android":"levelo://app?vid=277c735b-d5d8-4974-98c1-11d4365e331e","ios":"levelo://app?vid=277c735b-d5d8-4974-98c1-11d4365e331e"},"vehicle_type_id":"4","last_reported":1726582115,"current_range_meters":2800,"station_id":"ce4bhq12rcd13ifvqhhg","pricing_plan_id":"cebpf4jnsgd1na2vs0mg"},{"bike_id":"20a4a91d-8541-4958-9b2e-4e75165c8a2a","system_id":"levelo_inurba_marseille","lat":43.30799,"lon":5.43518,"is_reserved":false,"is_disabled":false,"rental_uris":{"android":"levelo://app?vid=20a4a91d-8541-4958-9b2e-4e75165c8a2a","ios":"levelo://app?vid=20a4a91d-8541-4958-9b2e-4e75165c8a2a"},"vehicle_type_id":"4","last_reported":1726582115,"current_range_meters":14000,"station_id":"ce4bhph2rcd13ifvqheg","pricing_plan_id":"cebpf4jnsgd1na2vs0mg"},{"bike_id":"c3bcca86-6294-4639-9d07-9722d40f464e","system_id":"levelo_inurba_marseille","lat":43.29897,"lon":5.43658,"is_reserved":false,"is_disabled":false,"rental_uris":{"android":"levelo://app?vid=c3bcca86-6294-4639-9d07-9722d40f464e","ios":"levelo://app?vid=c3bcca86-6294-4639-9d07-9722d40f464e"},"vehicle_type_id":"4","last_reported":1726582115,"current_range_meters":34000,"station_id":"ce4bhpp2rcd13ifvqhfg","pricing_plan_id":"cebpf4jnsgd1na2vs0mg"},{"bike_id":"b8575011-8302-48a4-8af4-a59ce79d4a2f","system_id":"levelo_inurba_marseille","lat":43.31087,"lon":5.42427,"is_reserved":false,"is_disabled":false,"rental_uris":{"android":"levelo://app?vid=b8575011-8302-48a4-8af4-a59ce79d4a2f","ios":"levelo://app?vid=b8575011-8302-48a4-8af4-a59ce79d4a2f"},"vehicle_type_id":"4","last_reported":1726582115,"current_range_meters":30800,"station_id":"ce4bhp92rcd13ifvqhag","pricing_plan_id":"cebpf4jnsgd1na2vs0mg"},{"bike_id":"464b765a-5bcf-418f-9058-526dab1b44f9","system_id":"levelo_inurba_marseille","lat":43.32293,"lon":5.38269,"is_reserved":false,"is_disabled":false,"rental_uris":{"android":"levelo://app?vid=464b765a-5bcf-418f-9058-526dab1b44f9","ios":"levelo://app?vid=464b765a-5bcf-418f-9058-526dab1b44f9"},"vehicle_type_id":"4","last_reported":1726582115,"current_range_meters":26800,"station_id":"ce4bhr12rcd13ifvqhqg","pricing_plan_id":"cebpf4jnsgd1na2vs0mg"},{"bike_id":"8d4fa9ce-4f53-4bbd-8ebe-9fa61a6486de","system_id":"levelo_inurba_marseille","lat":43.27617,"lon":5.36112,"is_reserved":false,"is_disabled":false,"rental_uris":{"android":"levelo://app?vid=8d4fa9ce-4f53-4bbd-8ebe-9fa61a6486de","ios":"levelo://app?vid=8d4fa9ce-4f53-4bbd-8ebe-9fa61a6486de"},"vehicle_type_id":"4","last_reported":1726582115,"current_range_meters":17200,"station_id":"ce4bgj92rcd13ifvqbe0","pricing_plan_id":"cebpf4jnsgd1na2vs0mg"},{"bike_id":"2742dba8-d69c-4409-9216-4c7d2860c110","system_id":"levelo_inurba_marseille","lat":43.298676,"lon":5.397288,"is_reserved":false,"is_disabled":false,"rental_uris":{"android":"levelo://app?vid=2742dba8-d69c-4409-9216-4c7d2860c110","ios":"levelo://app?vid=2742dba8-d69c-4409-9216-4c7d2860c110"},"vehicle_type_id":"4","last_reported":1726582115,"current_range_meters":31200,"station_id":"ce4bgvh2rcd13ifvqcs0","pricing_plan_id":"cebpf4jnsgd1na2vs0mg"},{"bike_id":"8e3c84db-879d-4669-8d43-f74eed3d4c1b","system_id":"levelo_inurba_marseille","lat":43.2737,"lon":5.36253,"is_reserved":false,"is_disabled":false,"rental_uris":{"android":"levelo://app?vid=8e3c84db-879d-4669-8d43-f74eed3d4c1b","ios":"levelo://app?vid=8e3c84db-879d-4669-8d43-f74eed3d4c1b"},"vehicle_type_id":"4","last_reported":1726582115,"current_range_meters":38800,"station_id":"ce4bhbh2rcd13ifvqeo0","pricing_plan_id":"cebpf4jnsgd1na2vs0mg"},{"bike_id":"ab7c80e1-ad2d-4dd9-a1bf-015c5bdf9ba4","system_id":"levelo_inurba_marseille","lat":43.26554,"lon":5.372857,"is_reserved":false,"is_disabled":false,"rental_uris":{"android":"levelo://app?vid=ab7c80e1-ad2d-4dd9-a1bf-015c5bdf9ba4","ios":"levelo://app?vid=ab7c80e1-ad2d-4dd9-a1bf-015c5bdf9ba4"},"vehicle_type_id":"4","last_reported":1726582115,"current_range_meters":8000,"station_id":"ce4bhg12rcd13ifvqf70","pricing_plan_id":"cebpf4jnsgd1na2vs0mg"},{"bike_id":"7ad090fa-145a-426d-8cde-bcdd34d8905c","system_id":"levelo_inurba_marseille","lat":43.29636,"lon":5.406,"is_reserved":false,"is_disabled":false,"rental_uris":{"android":"levelo://app?vid=7ad090fa-145a-426d-8cde-bcdd34d8905c","ios":"levelo://app?vid=7ad090fa-145a-426d-8cde-bcdd34d8905c"},"vehicle_type_id":"4","last_reported":1726582115,"current_range_meters":18000,"station_id":"ce4bh0h2rcd13ifvqd60","pricing_plan_id":"cebpf4jnsgd1na2vs0mg"},{"bike_id":"b1db6496-7d7b-4acc-a88c-e5406d38e100","system_id":"levelo_inurba_marseille","lat":43.232,"lon":5.35545,"is_reserved":false,"is_disabled":false,"rental_uris":{"android":"levelo://app?vid=b1db6496-7d7b-4acc-a88c-e5406d38e100","ios":"levelo://app?vid=b1db6496-7d7b-4acc-a88c-e5406d38e100"},"vehicle_type_id":"4","last_reported":1726582115,"current_range_meters":27200,"station_id":"ce4bhu92rcd13ifvqi70","pricing_plan_id":"cebpf4jnsgd1na2vs0mg"},{"bike_id":"733e4865-3357-4a1f-819b-4a724885d4e3","system_id":"levelo_inurba_marseille","lat":43.26923,"lon":5.38635,"is_reserved":false,"is_disabled":false,"rental_uris":{"android":"levelo://app?vid=733e4865-3357-4a1f-819b-4a724885d4e3","ios":"levelo://app?vid=733e4865-3357-4a1f-819b-4a724885d4e3"},"vehicle_type_id":"4","last_reported":1726582115,"current_range_meters":32000,"station_id":"ce4bhh92rcd13ifvqfh0","pricing_plan_id":"cebpf4jnsgd1na2vs0mg"},{"bike_id":"3f842f6d-9b1e-4244-a4a3-4fa001a71b59","system_id":"levelo_inurba_marseille","lat":43.27496,"lon":5.42449,"is_reserved":false,"is_disabled":false,"rental_uris":{"android":"levelo://app?vid=3f842f6d-9b1e-4244-a4a3-4fa001a71b59","ios":"levelo://app?vid=3f842f6d-9b1e-4244-a4a3-4fa001a71b59"},"vehicle_type_id":"4","last_reported":1726582115,"current_range_meters":2000,"station_id":"ce4bhn92rcd13ifvqgrg","pricing_plan_id":"cebpf4jnsgd1na2vs0mg"},{"bike_id":"cc3b8af5-922b-47a4-9520-14c9cfb481c6","system_id":"levelo_inurba_marseille","lat":43.27496,"lon":5.42441,"is_reserved":false,"is_disabled":false,"rental_uris":{"android":"levelo://app?vid=cc3b8af5-922b-47a4-9520-14c9cfb481c6","ios":"levelo://app?vid=cc3b8af5-922b-47a4-9520-14c9cfb481c6"},"vehicle_type_id":"4","last_reported":1726582115,"current_range_meters":8400,"station_id":"ce4bhn92rcd13ifvqgrg","pricing_plan_id":"cebpf4jnsgd1na2vs0mg"},{"bike_id":"0b5ee002-7c8c-4920-b452-630d357d8f46","system_id":"levelo_inurba_marseille","lat":43.30548,"lon":5.36524,"is_reserved":false,"is_disabled":false,"rental_uris":{"android":"levelo://app?vid=0b5ee002-7c8c-4920-b452-630d357d8f46","ios":"levelo://app?vid=0b5ee002-7c8c-4920-b452-630d357d8f46"},"vehicle_type_id":"4","last_reported":1726582115,"current_range_meters":6400,"station_id":"ce4bgs12rcd13ifvqcag","pricing_plan_id":"cebpf4jnsgd1na2vs0mg"},{"bike_id":"23f580f6-b2aa-4292-9b5e-a15885f9c1a5","system_id":"levelo_inurba_marseille","lat":43.28264,"lon":5.40252,"is_reserved":false,"is_disabled":false,"rental_uris":{"android":"levelo://app?vid=23f580f6-b2aa-4292-9b5e-a15885f9c1a5","ios":"levelo://app?vid=23f580f6-b2aa-4292-9b5e-a15885f9c1a5"},"vehicle_type_id":"4","last_reported":1726582115,"current_range_meters":17600,"station_id":"ce4bho92rcd13ifvqh4g","pricing_plan_id":"cebpf4jnsgd1na2vs0mg"},{"bike_id":"b645ac77-0d58-4fa9-8ad3-947af8bdb1d9","system_id":"levelo_inurba_marseille","lat":43.29897,"lon":5.43669,"is_reserved":false,"is_disabled":false,"rental_uris":{"android":"levelo://app?vid=b645ac77-0d58-4fa9-8ad3-947af8bdb1d9","ios":"levelo://app?vid=b645ac77-0d58-4fa9-8ad3-947af8bdb1d9"},"vehicle_type_id":"4","last_reported":1726582115,"current_range_meters":24800,"station_id":"ce4bhpp2rcd13ifvqhfg","pricing_plan_id":"cebpf4jnsgd1na2vs0mg"},{"bike_id":"75f7f11e-9f0a-4136-85bf-0b0ce04e45cd","system_id":"levelo_inurba_marseille","lat":43.27172,"lon":5.40975,"is_reserved":false,"is_disabled":false,"rental_uris":{"android":"levelo://app?vid=75f7f11e-9f0a-4136-85bf-0b0ce04e45cd","ios":"levelo://app?vid=75f7f11e-9f0a-4136-85bf-0b0ce04e45cd"},"vehicle_type_id":"4","last_reported":1726582115,"current_range_meters":38800,"station_id":"ce4bhl12rcd13ifvqgf0","pricing_plan_id":"cebpf4jnsgd1na2vs0mg"},{"bike_id":"f4d204dc-ef89-4dbb-b80c-d775f6a54a87","system_id":"levelo_inurba_marseille","lat":43.27432,"lon":5.39422,"is_reserved":false,"is_disabled":false,"rental_uris":{"android":"levelo://app?vid=f4d204dc-ef89-4dbb-b80c-d775f6a54a87","ios":"levelo://app?vid=f4d204dc-ef89-4dbb-b80c-d775f6a54a87"},"vehicle_type_id":"4","last_reported":1726582115,"current_range_meters":21600,"station_id":"ce4bhdp2rcd13ifvqf20","pricing_plan_id":"cebpf4jnsgd1na2vs0mg"},{"bike_id":"dfd2b010-d2fb-4362-b034-681d537287af","system_id":"levelo_inurba_marseille","lat":43.25003,"lon":5.38933,"is_reserved":false,"is_disabled":false,"rental_uris":{"android":"levelo://app?vid=dfd2b010-d2fb-4362-b034-681d537287af","ios":"levelo://app?vid=dfd2b010-d2fb-4362-b034-681d537287af"},"vehicle_type_id":"4","last_reported":1726582115,"current_range_meters":36000,"station_id":"ce4bhgp2rcd13ifvqfd0","pricing_plan_id":"cebpf4jnsgd1na2vs0mg"},{"bike_id":"62671458-8eaa-4077-b200-54702184bb40","system_id":"levelo_inurba_marseille","lat":43.27834,"lon":5.39209,"is_reserved":false,"is_disabled":false,"rental_uris":{"android":"levelo://app?vid=62671458-8eaa-4077-b200-54702184bb40","ios":"levelo://app?vid=62671458-8eaa-4077-b200-54702184bb40"},"vehicle_type_id":"4","last_reported":1726582115,"current_range_meters":24800,"station_id":"ce4bhjp2rcd13ifvqga0","pricing_plan_id":"cebpf4jnsgd1na2vs0mg"},{"bike_id":"d07510fb-c4f4-4c85-81e3-a462d20e3255","system_id":"levelo_inurba_marseille","lat":43.23152,"lon":5.43712,"is_reserved":false,"is_disabled":false,"rental_uris":{"android":"levelo://app?vid=d07510fb-c4f4-4c85-81e3-a462d20e3255","ios":"levelo://app?vid=d07510fb-c4f4-4c85-81e3-a462d20e3255"},"vehicle_type_id":"4","last_reported":1726582115,"current_range_meters":28800,"station_id":"ce4bhmp2rcd13ifvqgog","pricing_plan_id":"cebpf4jnsgd1na2vs0mg"},{"bike_id":"408c5749-702c-43ea-9058-5bebe1ea2111","system_id":"levelo_inurba_marseille","lat":43.27495,"lon":5.42449,"is_reserved":false,"is_disabled":false,"rental_uris":{"android":"levelo://app?vid=408c5749-702c-43ea-9058-5bebe1ea2111","ios":"levelo://app?vid=408c5749-702c-43ea-9058-5bebe1ea2111"},"vehicle_type_id":"4","last_reported":1726582115,"current_range_meters":14800,"station_id":"ce4bhn92rcd13ifvqgrg","pricing_plan_id":"cebpf4jnsgd1na2vs0mg"},{"bike_id":"e63a1021-708d-4d92-b1ed-68b44bba9e76","system_id":"levelo_inurba_marseille","lat":43.33786,"lon":5.37451,"is_reserved":false,"is_disabled":false,"rental_uris":{"android":"levelo://app?vid=e63a1021-708d-4d92-b1ed-68b44bba9e76","ios":"levelo://app?vid=e63a1021-708d-4d92-b1ed-68b44bba9e76"},"vehicle_type_id":"4","last_reported":1726582115,"current_range_meters":37600,"station_id":"","pricing_plan_id":"cebpf4jnsgd1na2vs0mg"},{"bike_id":"0a815f04-e776-4aa2-bb03-e720f30cbd56","system_id":"levelo_inurba_marseille","lat":43.282684,"lon":5.350614,"is_reserved":false,"is_disabled":false,"rental_uris":{"android":"levelo://app?vid=0a815f04-e776-4aa2-bb03-e720f30cbd56","ios":"levelo://app?vid=0a815f04-e776-4aa2-bb03-e720f30cbd56"},"vehicle_type_id":"4","last_reported":1726582115,"current_range_meters":20400,"station_id":"ce4bhbp2rcd13ifvqerg","pricing_plan_id":"cebpf4jnsgd1na2vs0mg"},{"bike_id":"677498c9-746b-4650-9a8e-2c7479635944","system_id":"levelo_inurba_marseille","lat":43.33026,"lon":5.39046,"is_reserved":false,"is_disabled":false,"rental_uris":{"android":"levelo://app?vid=677498c9-746b-4650-9a8e-2c7479635944","ios":"levelo://app?vid=677498c9-746b-4650-9a8e-2c7479635944"},"vehicle_type_id":"4","last_reported":1726582115,"current_range_meters":22000,"station_id":"ce4bhr92rcd13ifvqhrg","pricing_plan_id":"cebpf4jnsgd1na2vs0mg"},{"bike_id":"a8f001cc-011c-492d-845a-c4644d2a1f1e","system_id":"levelo_inurba_marseille","lat":43.32544,"lon":5.4144,"is_reserved":false,"is_disabled":false,"rental_uris":{"android":"levelo://app?vid=a8f001cc-011c-492d-845a-c4644d2a1f1e","ios":"levelo://app?vid=a8f001cc-011c-492d-845a-c4644d2a1f1e"},"vehicle_type_id":"4","last_reported":1726582115,"current_range_meters":14000,"station_id":"ce4bhq12rcd13ifvqhhg","pricing_plan_id":"cebpf4jnsgd1na2vs0mg"},{"bike_id":"41f4b530-ece4-4389-8afa-99b29da2bf8e","system_id":"levelo_inurba_marseille","lat":43.27181,"lon":5.40997,"is_reserved":false,"is_disabled":false,"rental_uris":{"android":"levelo://app?vid=41f4b530-ece4-4389-8afa-99b29da2bf8e","ios":"levelo://app?vid=41f4b530-ece4-4389-8afa-99b29da2bf8e"},"vehicle_type_id":"4","last_reported":1726582115,"current_range_meters":2000,"station_id":"ce4bhl12rcd13ifvqgf0","pricing_plan_id":"cebpf4jnsgd1na2vs0mg"},{"bike_id":"38b6ba0d-33c2-41ec-a02a-d6ab28191916","system_id":"levelo_inurba_marseille","lat":43.28731,"lon":5.36076,"is_reserved":false,"is_disabled":false,"rental_uris":{"android":"levelo://app?vid=38b6ba0d-33c2-41ec-a02a-d6ab28191916","ios":"levelo://app?vid=38b6ba0d-33c2-41ec-a02a-d6ab28191916"},"vehicle_type_id":"4","last_reported":1726582115,"current_range_meters":39200,"station_id":"cki0cbj6b192h4jlfktg","pricing_plan_id":"cebpf4jnsgd1na2vs0mg"},{"bike_id":"e99ef4cc-db5d-4937-90ae-ef4bc6ab20e0","system_id":"levelo_inurba_marseille","lat":43.32464,"lon":5.36555,"is_reserved":false,"is_disabled":false,"rental_uris":{"android":"levelo://app?vid=e99ef4cc-db5d-4937-90ae-ef4bc6ab20e0","ios":"levelo://app?vid=e99ef4cc-db5d-4937-90ae-ef4bc6ab20e0"},"vehicle_type_id":"4","last_reported":1726582115,"current_range_meters":38800,"station_id":"ce4bhs12rcd13ifvqhvg","pricing_plan_id":"cebpf4jnsgd1na2vs0mg"},{"bike_id":"c77d2d3b-0e56-41f9-b2e2-e3ae93cae781","system_id":"levelo_inurba_marseille","lat":43.30307,"lon":5.39211,"is_reserved":false,"is_disabled":false,"rental_uris":{"android":"levelo://app?vid=c77d2d3b-0e56-41f9-b2e2-e3ae93cae781","ios":"levelo://app?vid=c77d2d3b-0e56-41f9-b2e2-e3ae93cae781"},"vehicle_type_id":"4","last_reported":1726582115,"current_range_meters":38000,"station_id":"ce4bgkh2rcd13ifvqbk0","pricing_plan_id":"cebpf4jnsgd1na2vs0mg"},{"bike_id":"55cf1243-68c6-4e83-8056-4ffaf9009e99","system_id":"levelo_inurba_marseille","lat":43.30535,"lon":5.36532,"is_reserved":false,"is_disabled":false,"rental_uris":{"android":"levelo://app?vid=55cf1243-68c6-4e83-8056-4ffaf9009e99","ios":"levelo://app?vid=55cf1243-68c6-4e83-8056-4ffaf9009e99"},"vehicle_type_id":"4","last_reported":1726582115,"current_range_meters":37600,"station_id":"ce4bgs12rcd13ifvqcag","pricing_plan_id":"cebpf4jnsgd1na2vs0mg"},{"bike_id":"3a99222f-e472-480e-b428-ceac4ae65dce","system_id":"levelo_inurba_marseille","lat":43.30262,"lon":5.40074,"is_reserved":false,"is_disabled":false,"rental_uris":{"android":"levelo://app?vid=3a99222f-e472-480e-b428-ceac4ae65dce","ios":"levelo://app?vid=3a99222f-e472-480e-b428-ceac4ae65dce"},"vehicle_type_id":"4","last_reported":1726582115,"current_range_meters":35600,"station_id":"ce4bgvh2rcd13ifvqcs0","pricing_plan_id":"cebpf4jnsgd1na2vs0mg"},{"bike_id":"81ef296d-5cd1-4d8c-8609-bc535a0c6c7e","system_id":"levelo_inurba_marseille","lat":43.24073,"lon":5.37752,"is_reserved":false,"is_disabled":false,"rental_uris":{"android":"levelo://app?vid=81ef296d-5cd1-4d8c-8609-bc535a0c6c7e","ios":"levelo://app?vid=81ef296d-5cd1-4d8c-8609-bc535a0c6c7e"},"vehicle_type_id":"4","last_reported":1726582115,"current_range_meters":4000,"station_id":"ce4bhnp2rcd13ifvqgvg","pricing_plan_id":"cebpf4jnsgd1na2vs0mg"},{"bike_id":"e322896a-9301-4e00-8a2b-00ac0afcf56a","system_id":"levelo_inurba_marseille","lat":43.2972,"lon":5.36616,"is_reserved":false,"is_disabled":false,"rental_uris":{"android":"levelo://app?vid=e322896a-9301-4e00-8a2b-00ac0afcf56a","ios":"levelo://app?vid=e322896a-9301-4e00-8a2b-00ac0afcf56a"},"vehicle_type_id":"4","last_reported":1726582115,"current_range_meters":8800,"station_id":"ce4bgn12rcd13ifvqbt0","pricing_plan_id":"cebpf4jnsgd1na2vs0mg"},{"bike_id":"bdab53d1-6c0d-4e22-ae92-62ac99d9be2f","system_id":"levelo_inurba_marseille","lat":43.31247,"lon":5.36843,"is_reserved":false,"is_disabled":false,"rental_uris":{"android":"levelo://app?vid=bdab53d1-6c0d-4e22-ae92-62ac99d9be2f","ios":"levelo://app?vid=bdab53d1-6c0d-4e22-ae92-62ac99d9be2f"},"vehicle_type_id":"4","last_reported":1726582115,"current_range_meters":30400,"station_id":"ce4bgl92rcd13ifvqbq0","pricing_plan_id":"cebpf4jnsgd1na2vs0mg"},{"bike_id":"182d1093-90b1-4c7b-b983-e0d1fe141873","system_id":"levelo_inurba_marseille","lat":43.2512,"lon":5.40319,"is_reserved":false,"is_disabled":false,"rental_uris":{"android":"levelo://app?vid=182d1093-90b1-4c7b-b983-e0d1fe141873","ios":"levelo://app?vid=182d1093-90b1-4c7b-b983-e0d1fe141873"},"vehicle_type_id":"4","last_reported":1726582115,"current_range_meters":38000,"station_id":"ce4bhlh2rcd13ifvqgig","pricing_plan_id":"cebpf4jnsgd1na2vs0mg"},{"bike_id":"35afb824-316d-45af-a42c-15c6eaea3dd2","system_id":"levelo_inurba_marseille","lat":43.28943,"lon":5.38419,"is_reserved":false,"is_disabled":false,"rental_uris":{"android":"levelo://app?vid=35afb824-316d-45af-a42c-15c6eaea3dd2","ios":"levelo://app?vid=35afb824-316d-45af-a42c-15c6eaea3dd2"},"vehicle_type_id":"4","last_reported":1726582115,"current_range_meters":30400,"station_id":"ce4bh612rcd13ifvqe6g","pricing_plan_id":"cebpf4jnsgd1na2vs0mg"},{"bike_id":"69fc45f7-dd19-4407-a454-e92646802611","system_id":"levelo_inurba_marseille","lat":43.25006,"lon":5.38924,"is_reserved":false,"is_disabled":false,"rental_uris":{"android":"levelo://app?vid=69fc45f7-dd19-4407-a454-e92646802611","ios":"levelo://app?vid=69fc45f7-dd19-4407-a454-e92646802611"},"vehicle_type_id":"4","last_reported":1726582115,"current_range_meters":12000,"station_id":"ce4bhgp2rcd13ifvqfd0","pricing_plan_id":"cebpf4jnsgd1na2vs0mg"},{"bike_id":"1de4de3a-2ef8-42cb-8c7d-7ebf1bc7e98b","system_id":"levelo_inurba_marseille","lat":43.27617,"lon":5.36117,"is_reserved":false,"is_disabled":false,"rental_uris":{"android":"levelo://app?vid=1de4de3a-2ef8-42cb-8c7d-7ebf1bc7e98b","ios":"levelo://app?vid=1de4de3a-2ef8-42cb-8c7d-7ebf1bc7e98b"},"vehicle_type_id":"4","last_reported":1726582115,"current_range_meters":38000,"station_id":"ce4bgj92rcd13ifvqbe0","pricing_plan_id":"cebpf4jnsgd1na2vs0mg"},{"bike_id":"99684f50-b398-427b-a4e9-7ca0a0382c79","system_id":"levelo_inurba_marseille","lat":43.23199,"lon":5.35547,"is_reserved":false,"is_disabled":false,"rental_uris":{"android":"levelo://app?vid=99684f50-b398-427b-a4e9-7ca0a0382c79","ios":"levelo://app?vid=99684f50-b398-427b-a4e9-7ca0a0382c79"},"vehicle_type_id":"4","last_reported":1726582115,"current_range_meters":38800,"station_id":"ce4bhu92rcd13ifvqi70","pricing_plan_id":"cebpf4jnsgd1na2vs0mg"},{"bike_id":"9ccf09c4-446d-4772-a0bd-09498236e035","system_id":"levelo_inurba_marseille","lat":43.29303,"lon":5.37171,"is_reserved":false,"is_disabled":false,"rental_uris":{"android":"levelo://app?vid=9ccf09c4-446d-4772-a0bd-09498236e035","ios":"levelo://app?vid=9ccf09c4-446d-4772-a0bd-09498236e035"},"vehicle_type_id":"4","last_reported":1726582115,"current_range_meters":30800,"station_id":"ce4bgh92rcd13ifvqb40","pricing_plan_id":"cebpf4jnsgd1na2vs0mg"},{"bike_id":"d782c430-b2c7-45ce-aaaf-78dc9a80ca97","system_id":"levelo_inurba_marseille","lat":43.337444,"lon":5.374475,"is_reserved":false,"is_disabled":false,"rental_uris":{"android":"levelo://app?vid=d782c430-b2c7-45ce-aaaf-78dc9a80ca97","ios":"levelo://app?vid=d782c430-b2c7-45ce-aaaf-78dc9a80ca97"},"vehicle_type_id":"4","last_reported":1726582115,"current_range_meters":28800,"station_id":"ce4bhr92rcd13ifvqhrg","pricing_plan_id":"cebpf4jnsgd1na2vs0mg"},{"bike_id":"8152c2a2-68ba-43a3-8d65-5eabfa41f989","system_id":"levelo_inurba_marseille","lat":43.25107,"lon":5.4032,"is_reserved":false,"is_disabled":false,"rental_uris":{"android":"levelo://app?vid=8152c2a2-68ba-43a3-8d65-5eabfa41f989","ios":"levelo://app?vid=8152c2a2-68ba-43a3-8d65-5eabfa41f989"},"vehicle_type_id":"4","last_reported":1726582115,"current_range_meters":32800,"station_id":"ce4bhlh2rcd13ifvqgig","pricing_plan_id":"cebpf4jnsgd1na2vs0mg"},{"bike_id":"6c1468de-e14a-407b-9a20-3cdfa0922744","system_id":"levelo_inurba_marseille","lat":43.28462,"lon":5.35891,"is_reserved":false,"is_disabled":false,"rental_uris":{"android":"levelo://app?vid=6c1468de-e14a-407b-9a20-3cdfa0922744","ios":"levelo://app?vid=6c1468de-e14a-407b-9a20-3cdfa0922744"},"vehicle_type_id":"4","last_reported":1726582115,"current_range_meters":38800,"station_id":"ce4bhah2rcd13ifvqei0","pricing_plan_id":"cebpf4jnsgd1na2vs0mg"},{"bike_id":"34195e9b-fc36-4b98-a05c-c2c2aad12108","system_id":"levelo_inurba_marseille","lat":43.2408,"lon":5.37747,"is_reserved":false,"is_disabled":false,"rental_uris":{"android":"levelo://app?vid=34195e9b-fc36-4b98-a05c-c2c2aad12108","ios":"levelo://app?vid=34195e9b-fc36-4b98-a05c-c2c2aad12108"},"vehicle_type_id":"4","last_reported":1726582115,"current_range_meters":26000,"station_id":"ce4bhnp2rcd13ifvqgvg","pricing_plan_id":"cebpf4jnsgd1na2vs0mg"},{"bike_id":"34a90722-f629-41bb-bdb8-6f743a933f4a","system_id":"levelo_inurba_marseille","lat":43.29587,"lon":5.36734,"is_reserved":false,"is_disabled":false,"rental_uris":{"android":"levelo://app?vid=34a90722-f629-41bb-bdb8-6f743a933f4a","ios":"levelo://app?vid=34a90722-f629-41bb-bdb8-6f743a933f4a"},"vehicle_type_id":"4","last_reported":1726582115,"current_range_meters":36800,"station_id":"ce4bgph2rcd13ifvqc2g","pricing_plan_id":"cebpf4jnsgd1na2vs0mg"},{"bike_id":"2b714e73-49f8-4f26-bb6d-7d72ce23aabc","system_id":"levelo_inurba_marseille","lat":43.23053,"lon":5.35488,"is_reserved":false,"is_disabled":false,"rental_uris":{"android":"levelo://app?vid=2b714e73-49f8-4f26-bb6d-7d72ce23aabc","ios":"levelo://app?vid=2b714e73-49f8-4f26-bb6d-7d72ce23aabc"},"vehicle_type_id":"4","last_reported":1726582115,"current_range_meters":12800,"station_id":"cpo3342slgdg3j2ifvpg","pricing_plan_id":"cebpf4jnsgd1na2vs0mg"},{"bike_id":"6553cf04-ff49-4fb9-b535-8be61d192157","system_id":"levelo_inurba_marseille","lat":43.269136,"lon":5.38886,"is_reserved":false,"is_disabled":false,"rental_uris":{"android":"levelo://app?vid=6553cf04-ff49-4fb9-b535-8be61d192157","ios":"levelo://app?vid=6553cf04-ff49-4fb9-b535-8be61d192157"},"vehicle_type_id":"4","last_reported":1726582115,"current_range_meters":20400,"station_id":"ce4bhhh2rcd13ifvqfl0","pricing_plan_id":"cebpf4jnsgd1na2vs0mg"},{"bike_id":"86487b22-4b2f-4876-a550-05cc03d3ed0f","system_id":"levelo_inurba_marseille","lat":43.31122,"lon":5.37766,"is_reserved":false,"is_disabled":false,"rental_uris":{"android":"levelo://app?vid=86487b22-4b2f-4876-a550-05cc03d3ed0f","ios":"levelo://app?vid=86487b22-4b2f-4876-a550-05cc03d3ed0f"},"vehicle_type_id":"4","last_reported":1726582115,"current_range_meters":38800,"station_id":"ce4bgt92rcd13ifvqcg0","pricing_plan_id":"cebpf4jnsgd1na2vs0mg"},{"bike_id":"3dc8a05d-268b-4a33-bb8b-831348a36510","system_id":"levelo_inurba_marseille","lat":43.24666,"lon":5.38166,"is_reserved":false,"is_disabled":false,"rental_uris":{"android":"levelo://app?vid=3dc8a05d-268b-4a33-bb8b-831348a36510","ios":"levelo://app?vid=3dc8a05d-268b-4a33-bb8b-831348a36510"},"vehicle_type_id":"4","last_reported":1726582115,"current_range_meters":8000,"station_id":"ce4bhih2rcd13ifvqfr0","pricing_plan_id":"cebpf4jnsgd1na2vs0mg"},{"bike_id":"0e21d6c2-5561-4456-b649-9b557c4533fc","system_id":"levelo_inurba_marseille","lat":43.28109,"lon":5.37846,"is_reserved":false,"is_disabled":false,"rental_uris":{"android":"levelo://app?vid=0e21d6c2-5561-4456-b649-9b557c4533fc","ios":"levelo://app?vid=0e21d6c2-5561-4456-b649-9b557c4533fc"},"vehicle_type_id":"4","last_reported":1726582115,"current_range_meters":6800,"station_id":"ce4bha12rcd13ifvqee0","pricing_plan_id":"cebpf4jnsgd1na2vs0mg"},{"bike_id":"ad722464-32b1-4125-bf35-54f1e4aed3dd","system_id":"levelo_inurba_marseille","lat":43.24072,"lon":5.37747,"is_reserved":false,"is_disabled":false,"rental_uris":{"android":"levelo://app?vid=ad722464-32b1-4125-bf35-54f1e4aed3dd","ios":"levelo://app?vid=ad722464-32b1-4125-bf35-54f1e4aed3dd"},"vehicle_type_id":"4","last_reported":1726582115,"current_range_meters":4800,"station_id":"ce4bhnp2rcd13ifvqgvg","pricing_plan_id":"cebpf4jnsgd1na2vs0mg"},{"bike_id":"6898ecd2-d5f6-4299-92af-d6df00f41948","system_id":"levelo_inurba_marseille","lat":43.24071,"lon":5.37752,"is_reserved":false,"is_disabled":false,"rental_uris":{"android":"levelo://app?vid=6898ecd2-d5f6-4299-92af-d6df00f41948","ios":"levelo://app?vid=6898ecd2-d5f6-4299-92af-d6df00f41948"},"vehicle_type_id":"4","last_reported":1726582115,"current_range_meters":14000,"station_id":"ce4bhnp2rcd13ifvqgvg","pricing_plan_id":"cebpf4jnsgd1na2vs0mg"},{"bike_id":"83328cc9-dd29-4afe-9919-4e141c6bb922","system_id":"levelo_inurba_marseille","lat":43.29795,"lon":5.38093,"is_reserved":false,"is_disabled":false,"rental_uris":{"android":"levelo://app?vid=83328cc9-dd29-4afe-9919-4e141c6bb922","ios":"levelo://app?vid=83328cc9-dd29-4afe-9919-4e141c6bb922"},"vehicle_type_id":"4","last_reported":1726582115,"current_range_meters":28400,"station_id":"ce4bgip2rcd13ifvqbb0","pricing_plan_id":"cebpf4jnsgd1na2vs0mg"},{"bike_id":"fed25c85-b3e7-4093-a992-a9eacb54e345","system_id":"levelo_inurba_marseille","lat":43.25506,"lon":5.37649,"is_reserved":false,"is_disabled":false,"rental_uris":{"android":"levelo://app?vid=fed25c85-b3e7-4093-a992-a9eacb54e345","ios":"levelo://app?vid=fed25c85-b3e7-4093-a992-a9eacb54e345"},"vehicle_type_id":"4","last_reported":1726582115,"current_range_meters":37600,"station_id":"ce4bhh12rcd13ifvqff0","pricing_plan_id":"cebpf4jnsgd1na2vs0mg"},{"bike_id":"2d132183-9542-447b-8318-cefe146f40ca","system_id":"levelo_inurba_marseille","lat":43.32367,"lon":5.38875,"is_reserved":false,"is_disabled":false,"rental_uris":{"android":"levelo://app?vid=2d132183-9542-447b-8318-cefe146f40ca","ios":"levelo://app?vid=2d132183-9542-447b-8318-cefe146f40ca"},"vehicle_type_id":"4","last_reported":1726582115,"current_range_meters":12800,"station_id":"ce4bhqp2rcd13ifvqhog","pricing_plan_id":"cebpf4jnsgd1na2vs0mg"},{"bike_id":"5a56b1cc-f02c-4c9a-ac04-632782260db3","system_id":"levelo_inurba_marseille","lat":43.30545,"lon":5.36523,"is_reserved":false,"is_disabled":false,"rental_uris":{"android":"levelo://app?vid=5a56b1cc-f02c-4c9a-ac04-632782260db3","ios":"levelo://app?vid=5a56b1cc-f02c-4c9a-ac04-632782260db3"},"vehicle_type_id":"4","last_reported":1726582115,"current_range_meters":24000,"station_id":"ce4bgs12rcd13ifvqcag","pricing_plan_id":"cebpf4jnsgd1na2vs0mg"},{"bike_id":"af873a2a-8057-4ff8-8825-54419226205d","system_id":"levelo_inurba_marseille","lat":43.30547,"lon":5.36536,"is_reserved":false,"is_disabled":false,"rental_uris":{"android":"levelo://app?vid=af873a2a-8057-4ff8-8825-54419226205d","ios":"levelo://app?vid=af873a2a-8057-4ff8-8825-54419226205d"},"vehicle_type_id":"4","last_reported":1726582115,"current_range_meters":17200,"station_id":"ce4bgs12rcd13ifvqcag","pricing_plan_id":"cebpf4jnsgd1na2vs0mg"},{"bike_id":"5ce18740-1041-4048-b11d-64251e2ba0a2","system_id":"levelo_inurba_marseille","lat":43.32494,"lon":5.36562,"is_reserved":false,"is_disabled":false,"rental_uris":{"android":"levelo://app?vid=5ce18740-1041-4048-b11d-64251e2ba0a2","ios":"levelo://app?vid=5ce18740-1041-4048-b11d-64251e2ba0a2"},"vehicle_type_id":"4","last_reported":1726582115,"current_range_meters":38800,"station_id":"ce4bhs12rcd13ifvqhvg","pricing_plan_id":"cebpf4jnsgd1na2vs0mg"},{"bike_id":"8cc5c28d-fb68-4bb4-b394-13d803ad03c2","system_id":"levelo_inurba_marseille","lat":43.28106,"lon":5.3783,"is_reserved":false,"is_disabled":false,"rental_uris":{"android":"levelo://app?vid=8cc5c28d-fb68-4bb4-b394-13d803ad03c2","ios":"levelo://app?vid=8cc5c28d-fb68-4bb4-b394-13d803ad03c2"},"vehicle_type_id":"4","last_reported":1726582115,"current_range_meters":26000,"station_id":"ce4bha12rcd13ifvqee0","pricing_plan_id":"cebpf4jnsgd1na2vs0mg"},{"bike_id":"255def12-1a7e-4787-b2e4-a6a54888a394","system_id":"levelo_inurba_marseille","lat":43.32483,"lon":5.36573,"is_reserved":false,"is_disabled":false,"rental_uris":{"android":"levelo://app?vid=255def12-1a7e-4787-b2e4-a6a54888a394","ios":"levelo://app?vid=255def12-1a7e-4787-b2e4-a6a54888a394"},"vehicle_type_id":"4","last_reported":1726582115,"current_range_meters":7200,"station_id":"ce4bhs12rcd13ifvqhvg","pricing_plan_id":"cebpf4jnsgd1na2vs0mg"},{"bike_id":"6dd17a2f-59bb-4453-859d-2c09ab795824","system_id":"levelo_inurba_marseille","lat":43.33024,"lon":5.39043,"is_reserved":false,"is_disabled":false,"rental_uris":{"android":"levelo://app?vid=6dd17a2f-59bb-4453-859d-2c09ab795824","ios":"levelo://app?vid=6dd17a2f-59bb-4453-859d-2c09ab795824"},"vehicle_type_id":"4","last_reported":1726582115,"current_range_meters":30400,"station_id":"ce4bhr92rcd13ifvqhrg","pricing_plan_id":"cebpf4jnsgd1na2vs0mg"},{"bike_id":"3922915c-5935-4627-9b6b-7f88183522c3","system_id":"levelo_inurba_marseille","lat":43.3014,"lon":5.37426,"is_reserved":false,"is_disabled":false,"rental_uris":{"android":"levelo://app?vid=3922915c-5935-4627-9b6b-7f88183522c3","ios":"levelo://app?vid=3922915c-5935-4627-9b6b-7f88183522c3"},"vehicle_type_id":"4","last_reported":1726582115,"current_range_meters":18000,"station_id":"ce4bgs92rcd13ifvqcc0","pricing_plan_id":"cebpf4jnsgd1na2vs0mg"},{"bike_id":"c2ecb147-8ee1-4803-aa1c-5a9b13d8ea1c","system_id":"levelo_inurba_marseille","lat":43.23153,"lon":5.43711,"is_reserved":false,"is_disabled":false,"rental_uris":{"android":"levelo://app?vid=c2ecb147-8ee1-4803-aa1c-5a9b13d8ea1c","ios":"levelo://app?vid=c2ecb147-8ee1-4803-aa1c-5a9b13d8ea1c"},"vehicle_type_id":"4","last_reported":1726582115,"current_range_meters":38800,"station_id":"ce4bhmp2rcd13ifvqgog","pricing_plan_id":"cebpf4jnsgd1na2vs0mg"},{"bike_id":"8ac17af3-1087-4030-8684-fc752197666e","system_id":"levelo_inurba_marseille","lat":43.32367,"lon":5.38876,"is_reserved":false,"is_disabled":false,"rental_uris":{"android":"levelo://app?vid=8ac17af3-1087-4030-8684-fc752197666e","ios":"levelo://app?vid=8ac17af3-1087-4030-8684-fc752197666e"},"vehicle_type_id":"4","last_reported":1726582115,"current_range_meters":17600,"station_id":"ce4bhqp2rcd13ifvqhog","pricing_plan_id":"cebpf4jnsgd1na2vs0mg"},{"bike_id":"6f91733e-62db-4102-8e58-98958b95b85b","system_id":"levelo_inurba_marseille","lat":43.30896,"lon":5.37182,"is_reserved":false,"is_disabled":false,"rental_uris":{"android":"levelo://app?vid=6f91733e-62db-4102-8e58-98958b95b85b","ios":"levelo://app?vid=6f91733e-62db-4102-8e58-98958b95b85b"},"vehicle_type_id":"4","last_reported":1726582115,"current_range_meters":10800,"station_id":"ce4bguh2rcd13ifvqckg","pricing_plan_id":"cebpf4jnsgd1na2vs0mg"},{"bike_id":"894e94ff-e209-48b9-a98c-975cf4fe6182","system_id":"levelo_inurba_marseille","lat":43.32371,"lon":5.38873,"is_reserved":false,"is_disabled":false,"rental_uris":{"android":"levelo://app?vid=894e94ff-e209-48b9-a98c-975cf4fe6182","ios":"levelo://app?vid=894e94ff-e209-48b9-a98c-975cf4fe6182"},"vehicle_type_id":"4","last_reported":1726582115,"current_range_meters":14800,"station_id":"ce4bhqp2rcd13ifvqhog","pricing_plan_id":"cebpf4jnsgd1na2vs0mg"},{"bike_id":"f11293b9-5944-418c-9cea-2087ec8521d3","system_id":"levelo_inurba_marseille","lat":43.31236,"lon":5.36832,"is_reserved":false,"is_disabled":false,"rental_uris":{"android":"levelo://app?vid=f11293b9-5944-418c-9cea-2087ec8521d3","ios":"levelo://app?vid=f11293b9-5944-418c-9cea-2087ec8521d3"},"vehicle_type_id":"4","last_reported":1726582115,"current_range_meters":14800,"station_id":"ce4bgl92rcd13ifvqbq0","pricing_plan_id":"cebpf4jnsgd1na2vs0mg"},{"bike_id":"d00ef931-ca94-46a5-a153-d39e1f7651c4","system_id":"levelo_inurba_marseille","lat":43.24649,"lon":5.38896,"is_reserved":false,"is_disabled":false,"rental_uris":{"android":"levelo://app?vid=d00ef931-ca94-46a5-a153-d39e1f7651c4","ios":"levelo://app?vid=d00ef931-ca94-46a5-a153-d39e1f7651c4"},"vehicle_type_id":"4","last_reported":1726582115,"current_range_meters":3200,"station_id":"ce4bhg12rcd13ifvqf60","pricing_plan_id":"cebpf4jnsgd1na2vs0mg"},{"bike_id":"0308f358-78cd-4ed3-9f73-03a0aff7b7aa","system_id":"levelo_inurba_marseille","lat":43.29901,"lon":5.43654,"is_reserved":false,"is_disabled":false,"rental_uris":{"android":"levelo://app?vid=0308f358-78cd-4ed3-9f73-03a0aff7b7aa","ios":"levelo://app?vid=0308f358-78cd-4ed3-9f73-03a0aff7b7aa"},"vehicle_type_id":"4","last_reported":1726582115,"current_range_meters":18000,"station_id":"ce4bhpp2rcd13ifvqhfg","pricing_plan_id":"cebpf4jnsgd1na2vs0mg"},{"bike_id":"eafe2a97-40a5-4936-a5e6-43bd1352689d","system_id":"levelo_inurba_marseille","lat":43.2603,"lon":5.37546,"is_reserved":false,"is_disabled":false,"rental_uris":{"android":"levelo://app?vid=eafe2a97-40a5-4936-a5e6-43bd1352689d","ios":"levelo://app?vid=eafe2a97-40a5-4936-a5e6-43bd1352689d"},"vehicle_type_id":"4","last_reported":1726582115,"current_range_meters":24400,"station_id":"ce4bhgh2rcd13ifvqfa0","pricing_plan_id":"cebpf4jnsgd1na2vs0mg"},{"bike_id":"5b61e811-fe69-45fc-9c01-7ca98ea36a3f","system_id":"levelo_inurba_marseille","lat":43.25875,"lon":5.39894,"is_reserved":false,"is_disabled":false,"rental_uris":{"android":"levelo://app?vid=5b61e811-fe69-45fc-9c01-7ca98ea36a3f","ios":"levelo://app?vid=5b61e811-fe69-45fc-9c01-7ca98ea36a3f"},"vehicle_type_id":"4","last_reported":1726582115,"current_range_meters":26000,"station_id":"ce4bhl92rcd13ifvqghg","pricing_plan_id":"cebpf4jnsgd1na2vs0mg"},{"bike_id":"d8202a43-c16b-4caa-b66d-4260af5f2b4b","system_id":"levelo_inurba_marseille","lat":43.29614,"lon":5.37727,"is_reserved":false,"is_disabled":false,"rental_uris":{"android":"levelo://app?vid=d8202a43-c16b-4caa-b66d-4260af5f2b4b","ios":"levelo://app?vid=d8202a43-c16b-4caa-b66d-4260af5f2b4b"},"vehicle_type_id":"4","last_reported":1726582115,"current_range_meters":38800,"station_id":"ce4bgi92rcd13ifvqb90","pricing_plan_id":"cebpf4jnsgd1na2vs0mg"},{"bike_id":"0d830da1-088f-410f-befa-e68ac04cbdf5","system_id":"levelo_inurba_marseille","lat":43.24081,"lon":5.3775,"is_reserved":false,"is_disabled":false,"rental_uris":{"android":"levelo://app?vid=0d830da1-088f-410f-befa-e68ac04cbdf5","ios":"levelo://app?vid=0d830da1-088f-410f-befa-e68ac04cbdf5"},"vehicle_type_id":"4","last_reported":1726582115,"current_range_meters":30000,"station_id":"ce4bhnp2rcd13ifvqgvg","pricing_plan_id":"cebpf4jnsgd1na2vs0mg"},{"bike_id":"40403005-f85d-47ad-9107-335d66db8b6d","system_id":"levelo_inurba_marseille","lat":43.29024,"lon":5.37559,"is_reserved":false,"is_disabled":false,"rental_uris":{"android":"levelo://app?vid=40403005-f85d-47ad-9107-335d66db8b6d","ios":"levelo://app?vid=40403005-f85d-47ad-9107-335d66db8b6d"},"vehicle_type_id":"4","last_reported":1726582115,"current_range_meters":38400,"station_id":"ce4bh692rcd13ifvqe90","pricing_plan_id":"cebpf4jnsgd1na2vs0mg"},{"bike_id":"65eecb51-7024-4f30-af20-d65f809bce2b","system_id":"levelo_inurba_marseille","lat":43.31408,"lon":5.37979,"is_reserved":false,"is_disabled":false,"rental_uris":{"android":"levelo://app?vid=65eecb51-7024-4f30-af20-d65f809bce2b","ios":"levelo://app?vid=65eecb51-7024-4f30-af20-d65f809bce2b"},"vehicle_type_id":"4","last_reported":1726582115,"current_range_meters":8000,"station_id":"","pricing_plan_id":"cebpf4jnsgd1na2vs0mg"},{"bike_id":"2c77c5f0-cb55-4024-8106-9340ac23b8eb","system_id":"levelo_inurba_marseille","lat":43.229273,"lon":5.353722,"is_reserved":false,"is_disabled":false,"rental_uris":{"android":"levelo://app?vid=2c77c5f0-cb55-4024-8106-9340ac23b8eb","ios":"levelo://app?vid=2c77c5f0-cb55-4024-8106-9340ac23b8eb"},"vehicle_type_id":"4","last_reported":1726582115,"current_range_meters":27200,"station_id":"cpo3532slgdg3j2ikp40","pricing_plan_id":"cebpf4jnsgd1na2vs0mg"},{"bike_id":"93dd37e5-c30e-445f-960a-2c313f3eb6cb","system_id":"levelo_inurba_marseille","lat":43.24809,"lon":5.37455,"is_reserved":false,"is_disabled":false,"rental_uris":{"android":"levelo://app?vid=93dd37e5-c30e-445f-960a-2c313f3eb6cb","ios":"levelo://app?vid=93dd37e5-c30e-445f-960a-2c313f3eb6cb"},"vehicle_type_id":"4","last_reported":1726582115,"current_range_meters":18800,"station_id":"ce4bhgh2rcd13ifvqfb0","pricing_plan_id":"cebpf4jnsgd1na2vs0mg"},{"bike_id":"a916f344-2470-4b3c-9b4f-0e33ef18e85d","system_id":"levelo_inurba_marseille","lat":43.31715,"lon":5.43702,"is_reserved":false,"is_disabled":false,"rental_uris":{"android":"levelo://app?vid=a916f344-2470-4b3c-9b4f-0e33ef18e85d","ios":"levelo://app?vid=a916f344-2470-4b3c-9b4f-0e33ef18e85d"},"vehicle_type_id":"4","last_reported":1726582115,"current_range_meters":4000,"station_id":"ce4bhp92rcd13ifvqhcg","pricing_plan_id":"cebpf4jnsgd1na2vs0mg"},{"bike_id":"9e6acc5e-94a7-4e9f-94a9-f4362cac3b04","system_id":"levelo_inurba_marseille","lat":43.30923,"lon":5.36854,"is_reserved":false,"is_disabled":false,"rental_uris":{"android":"levelo://app?vid=9e6acc5e-94a7-4e9f-94a9-f4362cac3b04","ios":"levelo://app?vid=9e6acc5e-94a7-4e9f-94a9-f4362cac3b04"},"vehicle_type_id":"4","last_reported":1726582115,"current_range_meters":38800,"station_id":"ce4bgn92rcd13ifvqbvg","pricing_plan_id":"cebpf4jnsgd1na2vs0mg"},{"bike_id":"e7fbe6a9-6452-4605-ad98-ec8f6c725938","system_id":"levelo_inurba_marseille","lat":43.3172,"lon":5.42395,"is_reserved":false,"is_disabled":false,"rental_uris":{"android":"levelo://app?vid=e7fbe6a9-6452-4605-ad98-ec8f6c725938","ios":"levelo://app?vid=e7fbe6a9-6452-4605-ad98-ec8f6c725938"},"vehicle_type_id":"4","last_reported":1726582115,"current_range_meters":37600,"station_id":"ce4bhp92rcd13ifvqhbg","pricing_plan_id":"cebpf4jnsgd1na2vs0mg"},{"bike_id":"e613a823-c946-44ae-b344-3ce1dda08f4a","system_id":"levelo_inurba_marseille","lat":43.28706,"lon":5.39978,"is_reserved":false,"is_disabled":false,"rental_uris":{"android":"levelo://app?vid=e613a823-c946-44ae-b344-3ce1dda08f4a","ios":"levelo://app?vid=e613a823-c946-44ae-b344-3ce1dda08f4a"},"vehicle_type_id":"4","last_reported":1726582115,"current_range_meters":34000,"station_id":"ce4bho92rcd13ifvqh3g","pricing_plan_id":"cebpf4jnsgd1na2vs0mg"},{"bike_id":"23dd0c20-fce0-40ea-aaa2-cab4c3dedbd9","system_id":"levelo_inurba_marseille","lat":43.23145,"lon":5.43723,"is_reserved":false,"is_disabled":false,"rental_uris":{"android":"levelo://app?vid=23dd0c20-fce0-40ea-aaa2-cab4c3dedbd9","ios":"levelo://app?vid=23dd0c20-fce0-40ea-aaa2-cab4c3dedbd9"},"vehicle_type_id":"4","last_reported":1726582115,"current_range_meters":9600,"station_id":"ce4bhmp2rcd13ifvqgog","pricing_plan_id":"cebpf4jnsgd1na2vs0mg"},{"bike_id":"1a72562e-4a87-4b67-a557-27799b4d5715","system_id":"levelo_inurba_marseille","lat":43.30921,"lon":5.36847,"is_reserved":false,"is_disabled":false,"rental_uris":{"android":"levelo://app?vid=1a72562e-4a87-4b67-a557-27799b4d5715","ios":"levelo://app?vid=1a72562e-4a87-4b67-a557-27799b4d5715"},"vehicle_type_id":"4","last_reported":1726582115,"current_range_meters":24800,"station_id":"ce4bgn92rcd13ifvqbvg","pricing_plan_id":"cebpf4jnsgd1na2vs0mg"},{"bike_id":"fb389055-f66c-4e32-b271-86411d587f5d","system_id":"levelo_inurba_marseille","lat":43.30315,"lon":5.36901,"is_reserved":false,"is_disabled":false,"rental_uris":{"android":"levelo://app?vid=fb389055-f66c-4e32-b271-86411d587f5d","ios":"levelo://app?vid=fb389055-f66c-4e32-b271-86411d587f5d"},"vehicle_type_id":"4","last_reported":1726582115,"current_range_meters":38800,"station_id":"ce4bgqh2rcd13ifvqc5g","pricing_plan_id":"cebpf4jnsgd1na2vs0mg"},{"bike_id":"7fcba497-92f6-42c3-8274-1655e7534e4a","system_id":"levelo_inurba_marseille","lat":43.28682,"lon":5.38658,"is_reserved":false,"is_disabled":false,"rental_uris":{"android":"levelo://app?vid=7fcba497-92f6-42c3-8274-1655e7534e4a","ios":"levelo://app?vid=7fcba497-92f6-42c3-8274-1655e7534e4a"},"vehicle_type_id":"4","last_reported":1726582115,"current_range_meters":37600,"station_id":"ce4bh492rcd13ifvqdug","pricing_plan_id":"cebpf4jnsgd1na2vs0mg"},{"bike_id":"7dd25116-4b08-418f-b59a-2cd52163c135","system_id":"levelo_inurba_marseille","lat":43.24078,"lon":5.37746,"is_reserved":false,"is_disabled":false,"rental_uris":{"android":"levelo://app?vid=7dd25116-4b08-418f-b59a-2cd52163c135","ios":"levelo://app?vid=7dd25116-4b08-418f-b59a-2cd52163c135"},"vehicle_type_id":"4","last_reported":1726582115,"current_range_meters":28000,"station_id":"ce4bhnp2rcd13ifvqgvg","pricing_plan_id":"cebpf4jnsgd1na2vs0mg"},{"bike_id":"8ea79706-33c2-4140-a630-4d917dade742","system_id":"levelo_inurba_marseille","lat":43.2315,"lon":5.43723,"is_reserved":false,"is_disabled":false,"rental_uris":{"android":"levelo://app?vid=8ea79706-33c2-4140-a630-4d917dade742","ios":"levelo://app?vid=8ea79706-33c2-4140-a630-4d917dade742"},"vehicle_type_id":"4","last_reported":1726582115,"current_range_meters":16800,"station_id":"ce4bhmp2rcd13ifvqgog","pricing_plan_id":"cebpf4jnsgd1na2vs0mg"},{"bike_id":"1f38c15a-9705-4563-aafc-3c0e4b2a60f8","system_id":"levelo_inurba_marseille","lat":43.29842,"lon":5.36257,"is_reserved":false,"is_disabled":false,"rental_uris":{"android":"levelo://app?vid=1f38c15a-9705-4563-aafc-3c0e4b2a60f8","ios":"levelo://app?vid=1f38c15a-9705-4563-aafc-3c0e4b2a60f8"},"vehicle_type_id":"4","last_reported":1726582115,"current_range_meters":38800,"station_id":"ce4bgpp2rcd13ifvqc3g","pricing_plan_id":"cebpf4jnsgd1na2vs0mg"},{"bike_id":"e1055f26-c66c-41ee-bf2f-25406c6db080","system_id":"levelo_inurba_marseille","lat":43.330261,"lon":5.390394,"is_reserved":false,"is_disabled":false,"rental_uris":{"android":"levelo://app?vid=e1055f26-c66c-41ee-bf2f-25406c6db080","ios":"levelo://app?vid=e1055f26-c66c-41ee-bf2f-25406c6db080"},"vehicle_type_id":"4","last_reported":1726582115,"current_range_meters":38400,"station_id":"ce4bhr92rcd13ifvqhrg","pricing_plan_id":"cebpf4jnsgd1na2vs0mg"},{"bike_id":"66109984-929d-40a5-ad20-847ed75ddcee","system_id":"levelo_inurba_marseille","lat":43.29619,"lon":5.37725,"is_reserved":false,"is_disabled":false,"rental_uris":{"android":"levelo://app?vid=66109984-929d-40a5-ad20-847ed75ddcee","ios":"levelo://app?vid=66109984-929d-40a5-ad20-847ed75ddcee"},"vehicle_type_id":"4","last_reported":1726582115,"current_range_meters":26800,"station_id":"ce4bgi92rcd13ifvqb90","pricing_plan_id":"cebpf4jnsgd1na2vs0mg"},{"bike_id":"a13b8302-4ea2-4c29-8731-e0e42e68149a","system_id":"levelo_inurba_marseille","lat":43.32291,"lon":5.38279,"is_reserved":false,"is_disabled":false,"rental_uris":{"android":"levelo://app?vid=a13b8302-4ea2-4c29-8731-e0e42e68149a","ios":"levelo://app?vid=a13b8302-4ea2-4c29-8731-e0e42e68149a"},"vehicle_type_id":"4","last_reported":1726582115,"current_range_meters":32800,"station_id":"ce4bhr12rcd13ifvqhqg","pricing_plan_id":"cebpf4jnsgd1na2vs0mg"},{"bike_id":"dc17347b-6de9-4ce4-9462-db5c81d57c80","system_id":"levelo_inurba_marseille","lat":43.23964,"lon":5.36632,"is_reserved":false,"is_disabled":false,"rental_uris":{"android":"levelo://app?vid=dc17347b-6de9-4ce4-9462-db5c81d57c80","ios":"levelo://app?vid=dc17347b-6de9-4ce4-9462-db5c81d57c80"},"vehicle_type_id":"4","last_reported":1726582115,"current_range_meters":6000,"station_id":"ce4bhi12rcd13ifvqfp0","pricing_plan_id":"cebpf4jnsgd1na2vs0mg"},{"bike_id":"0093f99f-32e7-41b0-abe0-a28b802c66c9","system_id":"levelo_inurba_marseille","lat":43.29941,"lon":5.36543,"is_reserved":false,"is_disabled":false,"rental_uris":{"android":"levelo://app?vid=0093f99f-32e7-41b0-abe0-a28b802c66c9","ios":"levelo://app?vid=0093f99f-32e7-41b0-abe0-a28b802c66c9"},"vehicle_type_id":"4","last_reported":1726582115,"current_range_meters":25600,"station_id":"ce4bgm92rcd13ifvqbr0","pricing_plan_id":"cebpf4jnsgd1na2vs0mg"},{"bike_id":"330f8db0-d988-4f1e-bc42-7159d26df211","system_id":"levelo_inurba_marseille","lat":43.28279,"lon":5.35064,"is_reserved":false,"is_disabled":false,"rental_uris":{"android":"levelo://app?vid=330f8db0-d988-4f1e-bc42-7159d26df211","ios":"levelo://app?vid=330f8db0-d988-4f1e-bc42-7159d26df211"},"vehicle_type_id":"4","last_reported":1726582115,"current_range_meters":6400,"station_id":"ce4bhbp2rcd13ifvqerg","pricing_plan_id":"cebpf4jnsgd1na2vs0mg"},{"bike_id":"2946c917-7b25-488b-a2e0-d63d47c6fa39","system_id":"levelo_inurba_marseille","lat":43.29616,"lon":5.37726,"is_reserved":false,"is_disabled":false,"rental_uris":{"android":"levelo://app?vid=2946c917-7b25-488b-a2e0-d63d47c6fa39","ios":"levelo://app?vid=2946c917-7b25-488b-a2e0-d63d47c6fa39"},"vehicle_type_id":"4","last_reported":1726582115,"current_range_meters":38400,"station_id":"ce4bgi92rcd13ifvqb90","pricing_plan_id":"cebpf4jnsgd1na2vs0mg"},{"bike_id":"fee3d5bb-6253-48da-96ac-cce5fd5baf46","system_id":"levelo_inurba_marseille","lat":43.3055,"lon":5.36524,"is_reserved":false,"is_disabled":false,"rental_uris":{"android":"levelo://app?vid=fee3d5bb-6253-48da-96ac-cce5fd5baf46","ios":"levelo://app?vid=fee3d5bb-6253-48da-96ac-cce5fd5baf46"},"vehicle_type_id":"4","last_reported":1726582115,"current_range_meters":39200,"station_id":"ce4bgs12rcd13ifvqcag","pricing_plan_id":"cebpf4jnsgd1na2vs0mg"},{"bike_id":"c674a2e5-99a4-4fa4-bf06-ab98e8c00cc5","system_id":"levelo_inurba_marseille","lat":43.30292,"lon":5.39668,"is_reserved":false,"is_disabled":false,"rental_uris":{"android":"levelo://app?vid=c674a2e5-99a4-4fa4-bf06-ab98e8c00cc5","ios":"levelo://app?vid=c674a2e5-99a4-4fa4-bf06-ab98e8c00cc5"},"vehicle_type_id":"4","last_reported":1726582115,"current_range_meters":33600,"station_id":"ce4bgqh2rcd13ifvqc4g","pricing_plan_id":"cebpf4jnsgd1na2vs0mg"},{"bike_id":"cbaf03bf-0340-4293-a424-18d0ef0b595f","system_id":"levelo_inurba_marseille","lat":43.29897,"lon":5.43666,"is_reserved":false,"is_disabled":false,"rental_uris":{"android":"levelo://app?vid=cbaf03bf-0340-4293-a424-18d0ef0b595f","ios":"levelo://app?vid=cbaf03bf-0340-4293-a424-18d0ef0b595f"},"vehicle_type_id":"4","last_reported":1726582115,"current_range_meters":20800,"station_id":"ce4bhpp2rcd13ifvqhfg","pricing_plan_id":"cebpf4jnsgd1na2vs0mg"},{"bike_id":"83bfaef7-553a-43d8-9d3c-badf4867b8b0","system_id":"levelo_inurba_marseille","lat":43.29614,"lon":5.37721,"is_reserved":false,"is_disabled":false,"rental_uris":{"android":"levelo://app?vid=83bfaef7-553a-43d8-9d3c-badf4867b8b0","ios":"levelo://app?vid=83bfaef7-553a-43d8-9d3c-badf4867b8b0"},"vehicle_type_id":"4","last_reported":1726582115,"current_range_meters":34800,"station_id":"ce4bgi92rcd13ifvqb90","pricing_plan_id":"cebpf4jnsgd1na2vs0mg"},{"bike_id":"9a868d00-c62d-465d-83b0-5ae20cc81fc9","system_id":"levelo_inurba_marseille","lat":43.30541,"lon":5.36705,"is_reserved":false,"is_disabled":false,"rental_uris":{"android":"levelo://app?vid=9a868d00-c62d-465d-83b0-5ae20cc81fc9","ios":"levelo://app?vid=9a868d00-c62d-465d-83b0-5ae20cc81fc9"},"vehicle_type_id":"4","last_reported":1726582115,"current_range_meters":20000,"station_id":"ce4bgrp2rcd13ifvqc9g","pricing_plan_id":"cebpf4jnsgd1na2vs0mg"},{"bike_id":"49e200ca-be2e-44c1-88e1-5c0a88694170","system_id":"levelo_inurba_marseille","lat":43.30538,"lon":5.36533,"is_reserved":false,"is_disabled":false,"rental_uris":{"android":"levelo://app?vid=49e200ca-be2e-44c1-88e1-5c0a88694170","ios":"levelo://app?vid=49e200ca-be2e-44c1-88e1-5c0a88694170"},"vehicle_type_id":"4","last_reported":1726582115,"current_range_meters":33600,"station_id":"ce4bgs12rcd13ifvqcag","pricing_plan_id":"cebpf4jnsgd1na2vs0mg"},{"bike_id":"e3a9e172-150c-499d-87ea-a7513220de56","system_id":"levelo_inurba_marseille","lat":43.24072,"lon":5.37755,"is_reserved":false,"is_disabled":false,"rental_uris":{"android":"levelo://app?vid=e3a9e172-150c-499d-87ea-a7513220de56","ios":"levelo://app?vid=e3a9e172-150c-499d-87ea-a7513220de56"},"vehicle_type_id":"4","last_reported":1726582115,"current_range_meters":2800,"station_id":"ce4bhnp2rcd13ifvqgvg","pricing_plan_id":"cebpf4jnsgd1na2vs0mg"},{"bike_id":"9f9c4d16-6809-481e-8732-59cb0f9b9faa","system_id":"levelo_inurba_marseille","lat":43.30427,"lon":5.397428,"is_reserved":false,"is_disabled":false,"rental_uris":{"android":"levelo://app?vid=9f9c4d16-6809-481e-8732-59cb0f9b9faa","ios":"levelo://app?vid=9f9c4d16-6809-481e-8732-59cb0f9b9faa"},"vehicle_type_id":"4","last_reported":1726582115,"current_range_meters":22000,"station_id":"ce4bh092rcd13ifvqd20","pricing_plan_id":"cebpf4jnsgd1na2vs0mg"},{"bike_id":"d8e751ce-68d8-4843-af31-f29be99d953d","system_id":"levelo_inurba_marseille","lat":43.23964,"lon":5.36619,"is_reserved":false,"is_disabled":false,"rental_uris":{"android":"levelo://app?vid=d8e751ce-68d8-4843-af31-f29be99d953d","ios":"levelo://app?vid=d8e751ce-68d8-4843-af31-f29be99d953d"},"vehicle_type_id":"4","last_reported":1726582115,"current_range_meters":12800,"station_id":"ce4bhi12rcd13ifvqfp0","pricing_plan_id":"cebpf4jnsgd1na2vs0mg"},{"bike_id":"76176415-bec7-48b5-86fa-dc9a394b0ac4","system_id":"levelo_inurba_marseille","lat":43.296051,"lon":5.377111,"is_reserved":false,"is_disabled":false,"rental_uris":{"android":"levelo://app?vid=76176415-bec7-48b5-86fa-dc9a394b0ac4","ios":"levelo://app?vid=76176415-bec7-48b5-86fa-dc9a394b0ac4"},"vehicle_type_id":"4","last_reported":1726582115,"current_range_meters":32400,"station_id":"ce4bgi92rcd13ifvqb90","pricing_plan_id":"cebpf4jnsgd1na2vs0mg"},{"bike_id":"f78ec244-0aef-4b6c-a1be-b01f3523a44d","system_id":"levelo_inurba_marseille","lat":43.2749,"lon":5.42457,"is_reserved":false,"is_disabled":false,"rental_uris":{"android":"levelo://app?vid=f78ec244-0aef-4b6c-a1be-b01f3523a44d","ios":"levelo://app?vid=f78ec244-0aef-4b6c-a1be-b01f3523a44d"},"vehicle_type_id":"4","last_reported":1726582115,"current_range_meters":32000,"station_id":"ce4bhn92rcd13ifvqgrg","pricing_plan_id":"cebpf4jnsgd1na2vs0mg"},{"bike_id":"df323691-cbec-4003-829c-19217c745d2b","system_id":"levelo_inurba_marseille","lat":43.30304,"lon":5.36894,"is_reserved":false,"is_disabled":false,"rental_uris":{"android":"levelo://app?vid=df323691-cbec-4003-829c-19217c745d2b","ios":"levelo://app?vid=df323691-cbec-4003-829c-19217c745d2b"},"vehicle_type_id":"4","last_reported":1726582115,"current_range_meters":30800,"station_id":"ce4bgqh2rcd13ifvqc5g","pricing_plan_id":"cebpf4jnsgd1na2vs0mg"},{"bike_id":"31d7628c-a98b-4127-881d-92022a3abc84","system_id":"levelo_inurba_marseille","lat":43.25939,"lon":5.40909,"is_reserved":false,"is_disabled":false,"rental_uris":{"android":"levelo://app?vid=31d7628c-a98b-4127-881d-92022a3abc84","ios":"levelo://app?vid=31d7628c-a98b-4127-881d-92022a3abc84"},"vehicle_type_id":"4","last_reported":1726582115,"current_range_meters":28000,"station_id":"ce4bhm92rcd13ifvqglg","pricing_plan_id":"cebpf4jnsgd1na2vs0mg"},{"bike_id":"bb9b0b96-fc7b-46c6-8bd7-e61f24aa0921","system_id":"levelo_inurba_marseille","lat":43.32365,"lon":5.38876,"is_reserved":false,"is_disabled":false,"rental_uris":{"android":"levelo://app?vid=bb9b0b96-fc7b-46c6-8bd7-e61f24aa0921","ios":"levelo://app?vid=bb9b0b96-fc7b-46c6-8bd7-e61f24aa0921"},"vehicle_type_id":"4","last_reported":1726582115,"current_range_meters":5600,"station_id":"ce4bhqp2rcd13ifvqhog","pricing_plan_id":"cebpf4jnsgd1na2vs0mg"},{"bike_id":"a3dc66ac-ec81-47a5-8dc4-56011c5e10db","system_id":"levelo_inurba_marseille","lat":43.31224,"lon":5.3685,"is_reserved":false,"is_disabled":false,"rental_uris":{"android":"levelo://app?vid=a3dc66ac-ec81-47a5-8dc4-56011c5e10db","ios":"levelo://app?vid=a3dc66ac-ec81-47a5-8dc4-56011c5e10db"},"vehicle_type_id":"4","last_reported":1726582115,"current_range_meters":32000,"station_id":"ce4bgl92rcd13ifvqbq0","pricing_plan_id":"cebpf4jnsgd1na2vs0mg"},{"bike_id":"fb6b2e20-1181-4228-aab7-94d05e809797","system_id":"levelo_inurba_marseille","lat":43.30916,"lon":5.36849,"is_reserved":false,"is_disabled":false,"rental_uris":{"android":"levelo://app?vid=fb6b2e20-1181-4228-aab7-94d05e809797","ios":"levelo://app?vid=fb6b2e20-1181-4228-aab7-94d05e809797"},"vehicle_type_id":"4","last_reported":1726582115,"current_range_meters":38400,"station_id":"ce4bgn92rcd13ifvqbvg","pricing_plan_id":"cebpf4jnsgd1na2vs0mg"},{"bike_id":"cf90bb2f-1beb-46be-8901-81c30ea2c3d9","system_id":"levelo_inurba_marseille","lat":43.29625,"lon":5.37165,"is_reserved":false,"is_disabled":false,"rental_uris":{"android":"levelo://app?vid=cf90bb2f-1beb-46be-8901-81c30ea2c3d9","ios":"levelo://app?vid=cf90bb2f-1beb-46be-8901-81c30ea2c3d9"},"vehicle_type_id":"4","last_reported":1726582115,"current_range_meters":20000,"station_id":"ce4bgnh2rcd13ifvqc0g","pricing_plan_id":"cebpf4jnsgd1na2vs0mg"},{"bike_id":"764492cd-7476-4794-9106-061c8cb03c80","system_id":"levelo_inurba_marseille","lat":43.27494,"lon":5.424245,"is_reserved":false,"is_disabled":false,"rental_uris":{"android":"levelo://app?vid=764492cd-7476-4794-9106-061c8cb03c80","ios":"levelo://app?vid=764492cd-7476-4794-9106-061c8cb03c80"},"vehicle_type_id":"4","last_reported":1726582115,"current_range_meters":28800,"station_id":"ce4bhn92rcd13ifvqgrg","pricing_plan_id":"cebpf4jnsgd1na2vs0mg"},{"bike_id":"d050d7b7-e817-42dd-99e2-bc8a4864acf7","system_id":"levelo_inurba_marseille","lat":43.33616,"lon":5.41031,"is_reserved":false,"is_disabled":false,"rental_uris":{"android":"levelo://app?vid=d050d7b7-e817-42dd-99e2-bc8a4864acf7","ios":"levelo://app?vid=d050d7b7-e817-42dd-99e2-bc8a4864acf7"},"vehicle_type_id":"4","last_reported":1726582115,"current_range_meters":38000,"station_id":"ce4bhqh2rcd13ifvqhmg","pricing_plan_id":"cebpf4jnsgd1na2vs0mg"},{"bike_id":"328d45f9-980e-4811-97c0-47d761861509","system_id":"levelo_inurba_marseille","lat":43.29847,"lon":5.37836,"is_reserved":false,"is_disabled":false,"rental_uris":{"android":"levelo://app?vid=328d45f9-980e-4811-97c0-47d761861509","ios":"levelo://app?vid=328d45f9-980e-4811-97c0-47d761861509"},"vehicle_type_id":"4","last_reported":1726582115,"current_range_meters":17200,"station_id":"ce4bgkh2rcd13ifvqbl0","pricing_plan_id":"cebpf4jnsgd1na2vs0mg"},{"bike_id":"de322f32-ff04-4812-bc5f-4299fcca384f","system_id":"levelo_inurba_marseille","lat":43.28043,"lon":5.36936,"is_reserved":false,"is_disabled":false,"rental_uris":{"android":"levelo://app?vid=de322f32-ff04-4812-bc5f-4299fcca384f","ios":"levelo://app?vid=de322f32-ff04-4812-bc5f-4299fcca384f"},"vehicle_type_id":"4","last_reported":1726582115,"current_range_meters":30800,"station_id":"ce4bha12rcd13ifvqef0","pricing_plan_id":"cebpf4jnsgd1na2vs0mg"},{"bike_id":"b5d0dcef-4e54-4a1e-89e5-b07996e108a4","system_id":"levelo_inurba_marseille","lat":43.2991,"lon":5.38155,"is_reserved":false,"is_disabled":false,"rental_uris":{"android":"levelo://app?vid=b5d0dcef-4e54-4a1e-89e5-b07996e108a4","ios":"levelo://app?vid=b5d0dcef-4e54-4a1e-89e5-b07996e108a4"},"vehicle_type_id":"4","last_reported":1726582115,"current_range_meters":38800,"station_id":"ce4bgj12rcd13ifvqbc0","pricing_plan_id":"cebpf4jnsgd1na2vs0mg"},{"bike_id":"e08c625d-a2e3-4d74-bde5-1f2cfec9c04b","system_id":"levelo_inurba_marseille","lat":43.29613,"lon":5.37726,"is_reserved":false,"is_disabled":false,"rental_uris":{"android":"levelo://app?vid=e08c625d-a2e3-4d74-bde5-1f2cfec9c04b","ios":"levelo://app?vid=e08c625d-a2e3-4d74-bde5-1f2cfec9c04b"},"vehicle_type_id":"4","last_reported":1726582115,"current_range_meters":38800,"station_id":"ce4bgi92rcd13ifvqb90","pricing_plan_id":"cebpf4jnsgd1na2vs0mg"},{"bike_id":"d84d461a-0f80-4d5c-8030-45ef5ea64552","system_id":"levelo_inurba_marseille","lat":43.26216,"lon":5.3744,"is_reserved":false,"is_disabled":false,"rental_uris":{"android":"levelo://app?vid=d84d461a-0f80-4d5c-8030-45ef5ea64552","ios":"levelo://app?vid=d84d461a-0f80-4d5c-8030-45ef5ea64552"},"vehicle_type_id":"4","last_reported":1726582115,"current_range_meters":38400,"station_id":"ce4bhgp2rcd13ifvqfc0","pricing_plan_id":"cebpf4jnsgd1na2vs0mg"},{"bike_id":"1d589d6d-c99b-4f81-9483-06b8bf72e492","system_id":"levelo_inurba_marseille","lat":43.31229,"lon":5.36864,"is_reserved":false,"is_disabled":false,"rental_uris":{"android":"levelo://app?vid=1d589d6d-c99b-4f81-9483-06b8bf72e492","ios":"levelo://app?vid=1d589d6d-c99b-4f81-9483-06b8bf72e492"},"vehicle_type_id":"4","last_reported":1726582115,"current_range_meters":32000,"station_id":"ce4bgl92rcd13ifvqbq0","pricing_plan_id":"cebpf4jnsgd1na2vs0mg"},{"bike_id":"fa690805-233a-4a70-a9f3-33f1b67cdb1f","system_id":"levelo_inurba_marseille","lat":43.32289,"lon":5.38266,"is_reserved":false,"is_disabled":false,"rental_uris":{"android":"levelo://app?vid=fa690805-233a-4a70-a9f3-33f1b67cdb1f","ios":"levelo://app?vid=fa690805-233a-4a70-a9f3-33f1b67cdb1f"},"vehicle_type_id":"4","last_reported":1726582115,"current_range_meters":32400,"station_id":"ce4bhr12rcd13ifvqhqg","pricing_plan_id":"cebpf4jnsgd1na2vs0mg"},{"bike_id":"8b608b96-fedf-4511-8d4b-09bad2606e1a","system_id":"levelo_inurba_marseille","lat":43.27717,"lon":5.41135,"is_reserved":false,"is_disabled":false,"rental_uris":{"android":"levelo://app?vid=8b608b96-fedf-4511-8d4b-09bad2606e1a","ios":"levelo://app?vid=8b608b96-fedf-4511-8d4b-09bad2606e1a"},"vehicle_type_id":"4","last_reported":1726582115,"current_range_meters":9600,"station_id":"","pricing_plan_id":"cebpf4jnsgd1na2vs0mg"},{"bike_id":"092c4523-aca0-4180-8062-2a7283044bfa","system_id":"levelo_inurba_marseille","lat":43.31176,"lon":5.38704,"is_reserved":false,"is_disabled":false,"rental_uris":{"android":"levelo://app?vid=092c4523-aca0-4180-8062-2a7283044bfa","ios":"levelo://app?vid=092c4523-aca0-4180-8062-2a7283044bfa"},"vehicle_type_id":"4","last_reported":1726582115,"current_range_meters":22800,"station_id":"ce4bgv12rcd13ifvqcp0","pricing_plan_id":"cebpf4jnsgd1na2vs0mg"},{"bike_id":"2d759c45-1c48-4814-a60a-e3f6a816c11e","system_id":"levelo_inurba_marseille","lat":43.3229,"lon":5.38268,"is_reserved":false,"is_disabled":false,"rental_uris":{"android":"levelo://app?vid=2d759c45-1c48-4814-a60a-e3f6a816c11e","ios":"levelo://app?vid=2d759c45-1c48-4814-a60a-e3f6a816c11e"},"vehicle_type_id":"4","last_reported":1726582115,"current_range_meters":36800,"station_id":"ce4bhr12rcd13ifvqhqg","pricing_plan_id":"cebpf4jnsgd1na2vs0mg"},{"bike_id":"ef198de9-a314-4836-ac3c-a2e825008fe4","system_id":"levelo_inurba_marseille","lat":43.29611,"lon":5.37716,"is_reserved":false,"is_disabled":false,"rental_uris":{"android":"levelo://app?vid=ef198de9-a314-4836-ac3c-a2e825008fe4","ios":"levelo://app?vid=ef198de9-a314-4836-ac3c-a2e825008fe4"},"vehicle_type_id":"4","last_reported":1726582115,"current_range_meters":38000,"station_id":"ce4bgi92rcd13ifvqb90","pricing_plan_id":"cebpf4jnsgd1na2vs0mg"},{"bike_id":"ef2764ef-0fab-40a3-9505-6dbdd20c9a4b","system_id":"levelo_inurba_marseille","lat":43.24079,"lon":5.37753,"is_reserved":false,"is_disabled":false,"rental_uris":{"android":"levelo://app?vid=ef2764ef-0fab-40a3-9505-6dbdd20c9a4b","ios":"levelo://app?vid=ef2764ef-0fab-40a3-9505-6dbdd20c9a4b"},"vehicle_type_id":"4","last_reported":1726582115,"current_range_meters":4000,"station_id":"ce4bhnp2rcd13ifvqgvg","pricing_plan_id":"cebpf4jnsgd1na2vs0mg"},{"bike_id":"ce5ffba7-a814-4584-b40b-46879ad32048","system_id":"levelo_inurba_marseille","lat":43.29633,"lon":5.40592,"is_reserved":false,"is_disabled":false,"rental_uris":{"android":"levelo://app?vid=ce5ffba7-a814-4584-b40b-46879ad32048","ios":"levelo://app?vid=ce5ffba7-a814-4584-b40b-46879ad32048"},"vehicle_type_id":"4","last_reported":1726582115,"current_range_meters":31200,"station_id":"ce4bh0h2rcd13ifvqd60","pricing_plan_id":"cebpf4jnsgd1na2vs0mg"},{"bike_id":"36aeed49-da71-4106-9676-9768d0b45ee4","system_id":"levelo_inurba_marseille","lat":43.27754,"lon":5.39093,"is_reserved":false,"is_disabled":false,"rental_uris":{"android":"levelo://app?vid=36aeed49-da71-4106-9676-9768d0b45ee4","ios":"levelo://app?vid=36aeed49-da71-4106-9676-9768d0b45ee4"},"vehicle_type_id":"4","last_reported":1726582115,"current_range_meters":22800,"station_id":"","pricing_plan_id":"cebpf4jnsgd1na2vs0mg"},{"bike_id":"44296eb7-091e-4e36-bbd8-97bbdd30b65d","system_id":"levelo_inurba_marseille","lat":43.28656,"lon":5.36352,"is_reserved":false,"is_disabled":false,"rental_uris":{"android":"levelo://app?vid=44296eb7-091e-4e36-bbd8-97bbdd30b65d","ios":"levelo://app?vid=44296eb7-091e-4e36-bbd8-97bbdd30b65d"},"vehicle_type_id":"4","last_reported":1726582115,"current_range_meters":22800,"station_id":"ce4bhah2rcd13ifvqej0","pricing_plan_id":"cebpf4jnsgd1na2vs0mg"},{"bike_id":"442d380e-fe45-42c1-9280-0a6b07954710","system_id":"levelo_inurba_marseille","lat":43.239604,"lon":5.366294,"is_reserved":false,"is_disabled":false,"rental_uris":{"android":"levelo://app?vid=442d380e-fe45-42c1-9280-0a6b07954710","ios":"levelo://app?vid=442d380e-fe45-42c1-9280-0a6b07954710"},"vehicle_type_id":"4","last_reported":1726582115,"current_range_meters":14000,"station_id":"ce4bhi12rcd13ifvqfp0","pricing_plan_id":"cebpf4jnsgd1na2vs0mg"},{"bike_id":"b5833eb2-5cea-4231-a524-e4b8fedefc4f","system_id":"levelo_inurba_marseille","lat":43.3013,"lon":5.39855,"is_reserved":false,"is_disabled":false,"rental_uris":{"android":"levelo://app?vid=b5833eb2-5cea-4231-a524-e4b8fedefc4f","ios":"levelo://app?vid=b5833eb2-5cea-4231-a524-e4b8fedefc4f"},"vehicle_type_id":"4","last_reported":1726582115,"current_range_meters":12000,"station_id":"ce4bh0h2rcd13ifvqd40","pricing_plan_id":"cebpf4jnsgd1na2vs0mg"},{"bike_id":"7368f27b-4a19-44e8-9488-8e51a57ca5e8","system_id":"levelo_inurba_marseille","lat":43.28378,"lon":5.38635,"is_reserved":false,"is_disabled":false,"rental_uris":{"android":"levelo://app?vid=7368f27b-4a19-44e8-9488-8e51a57ca5e8","ios":"levelo://app?vid=7368f27b-4a19-44e8-9488-8e51a57ca5e8"},"vehicle_type_id":"4","last_reported":1726582115,"current_range_meters":25200,"station_id":"ce4bh492rcd13ifvqdvg","pricing_plan_id":"cebpf4jnsgd1na2vs0mg"},{"bike_id":"cb62d564-15ab-44ae-85e9-21db5dac12b9","system_id":"levelo_inurba_marseille","lat":43.29811,"lon":5.38103,"is_reserved":false,"is_disabled":false,"rental_uris":{"android":"levelo://app?vid=cb62d564-15ab-44ae-85e9-21db5dac12b9","ios":"levelo://app?vid=cb62d564-15ab-44ae-85e9-21db5dac12b9"},"vehicle_type_id":"4","last_reported":1726582115,"current_range_meters":38800,"station_id":"ce4bgip2rcd13ifvqbb0","pricing_plan_id":"cebpf4jnsgd1na2vs0mg"},{"bike_id":"c02317e4-3b9a-451b-9ef8-7886ce7ae93a","system_id":"levelo_inurba_marseille","lat":43.33759,"lon":5.37429,"is_reserved":false,"is_disabled":false,"rental_uris":{"android":"levelo://app?vid=c02317e4-3b9a-451b-9ef8-7886ce7ae93a","ios":"levelo://app?vid=c02317e4-3b9a-451b-9ef8-7886ce7ae93a"},"vehicle_type_id":"4","last_reported":1726582115,"current_range_meters":38400,"station_id":"","pricing_plan_id":"cebpf4jnsgd1na2vs0mg"},{"bike_id":"f233866d-c509-48df-b217-5e6d9983e2e3","system_id":"levelo_inurba_marseille","lat":43.22934,"lon":5.353748,"is_reserved":false,"is_disabled":false,"rental_uris":{"android":"levelo://app?vid=f233866d-c509-48df-b217-5e6d9983e2e3","ios":"levelo://app?vid=f233866d-c509-48df-b217-5e6d9983e2e3"},"vehicle_type_id":"4","last_reported":1726582115,"current_range_meters":10000,"station_id":"cpo3532slgdg3j2ikp40","pricing_plan_id":"cebpf4jnsgd1na2vs0mg"},{"bike_id":"4794a437-9232-4ded-ada9-c1413dd4f781","system_id":"levelo_inurba_marseille","lat":43.25937,"lon":5.40895,"is_reserved":false,"is_disabled":false,"rental_uris":{"android":"levelo://app?vid=4794a437-9232-4ded-ada9-c1413dd4f781","ios":"levelo://app?vid=4794a437-9232-4ded-ada9-c1413dd4f781"},"vehicle_type_id":"4","last_reported":1726582115,"current_range_meters":36800,"station_id":"ce4bhm92rcd13ifvqglg","pricing_plan_id":"cebpf4jnsgd1na2vs0mg"},{"bike_id":"ac552e57-2e76-4073-91c5-f9cfff3a32a3","system_id":"levelo_inurba_marseille","lat":43.29583,"lon":5.36728,"is_reserved":false,"is_disabled":false,"rental_uris":{"android":"levelo://app?vid=ac552e57-2e76-4073-91c5-f9cfff3a32a3","ios":"levelo://app?vid=ac552e57-2e76-4073-91c5-f9cfff3a32a3"},"vehicle_type_id":"4","last_reported":1726582115,"current_range_meters":7200,"station_id":"ce4bgph2rcd13ifvqc2g","pricing_plan_id":"cebpf4jnsgd1na2vs0mg"},{"bike_id":"700c77f8-fd54-478e-94c2-30c4250236bd","system_id":"levelo_inurba_marseille","lat":43.30354,"lon":5.41873,"is_reserved":false,"is_disabled":false,"rental_uris":{"android":"levelo://app?vid=700c77f8-fd54-478e-94c2-30c4250236bd","ios":"levelo://app?vid=700c77f8-fd54-478e-94c2-30c4250236bd"},"vehicle_type_id":"4","last_reported":1726582115,"current_range_meters":32800,"station_id":"ce4bhop2rcd13ifvqh7g","pricing_plan_id":"cebpf4jnsgd1na2vs0mg"},{"bike_id":"cac679ff-5392-43ea-93bf-7befb04a5cb2","system_id":"levelo_inurba_marseille","lat":43.28711,"lon":5.37399,"is_reserved":false,"is_disabled":false,"rental_uris":{"android":"levelo://app?vid=cac679ff-5392-43ea-93bf-7befb04a5cb2","ios":"levelo://app?vid=cac679ff-5392-43ea-93bf-7befb04a5cb2"},"vehicle_type_id":"4","last_reported":1726582115,"current_range_meters":19600,"station_id":"ce4bh3p2rcd13ifvqdq0","pricing_plan_id":"cebpf4jnsgd1na2vs0mg"},{"bike_id":"fa8b1d46-4cee-45a9-867e-31d22cd4e8c3","system_id":"levelo_inurba_marseille","lat":43.29853,"lon":5.36287,"is_reserved":false,"is_disabled":false,"rental_uris":{"android":"levelo://app?vid=fa8b1d46-4cee-45a9-867e-31d22cd4e8c3","ios":"levelo://app?vid=fa8b1d46-4cee-45a9-867e-31d22cd4e8c3"},"vehicle_type_id":"4","last_reported":1726582115,"current_range_meters":38400,"station_id":"ce4bgpp2rcd13ifvqc3g","pricing_plan_id":"cebpf4jnsgd1na2vs0mg"},{"bike_id":"3d91f249-42ba-4304-ae7b-e082d59624f0","system_id":"levelo_inurba_marseille","lat":43.30549,"lon":5.36692,"is_reserved":false,"is_disabled":false,"rental_uris":{"android":"levelo://app?vid=3d91f249-42ba-4304-ae7b-e082d59624f0","ios":"levelo://app?vid=3d91f249-42ba-4304-ae7b-e082d59624f0"},"vehicle_type_id":"4","last_reported":1726582115,"current_range_meters":28000,"station_id":"ce4bgrp2rcd13ifvqc9g","pricing_plan_id":"cebpf4jnsgd1na2vs0mg"},{"bike_id":"9e8c8ba4-72c4-40f1-b01a-a4dd1914705a","system_id":"levelo_inurba_marseille","lat":43.28726,"lon":5.36089,"is_reserved":false,"is_disabled":false,"rental_uris":{"android":"levelo://app?vid=9e8c8ba4-72c4-40f1-b01a-a4dd1914705a","ios":"levelo://app?vid=9e8c8ba4-72c4-40f1-b01a-a4dd1914705a"},"vehicle_type_id":"4","last_reported":1726582115,"current_range_meters":12400,"station_id":"cki0cbj6b192h4jlfktg","pricing_plan_id":"cebpf4jnsgd1na2vs0mg"},{"bike_id":"48e2fd7f-0f32-4ff3-91f5-6507be6dcb42","system_id":"levelo_inurba_marseille","lat":43.27921,"lon":5.39598,"is_reserved":false,"is_disabled":false,"rental_uris":{"android":"levelo://app?vid=48e2fd7f-0f32-4ff3-91f5-6507be6dcb42","ios":"levelo://app?vid=48e2fd7f-0f32-4ff3-91f5-6507be6dcb42"},"vehicle_type_id":"4","last_reported":1726582115,"current_range_meters":22800,"station_id":"ce4bhf92rcd13ifvqf40","pricing_plan_id":"cebpf4jnsgd1na2vs0mg"},{"bike_id":"e1a51395-7ad7-4724-8a2f-34b9ae6c009c","system_id":"levelo_inurba_marseille","lat":43.25009,"lon":5.38923,"is_reserved":false,"is_disabled":false,"rental_uris":{"android":"levelo://app?vid=e1a51395-7ad7-4724-8a2f-34b9ae6c009c","ios":"levelo://app?vid=e1a51395-7ad7-4724-8a2f-34b9ae6c009c"},"vehicle_type_id":"4","last_reported":1726582115,"current_range_meters":38800,"station_id":"ce4bhgp2rcd13ifvqfd0","pricing_plan_id":"cebpf4jnsgd1na2vs0mg"},{"bike_id":"83e44ca2-a729-4823-9df0-20ff9948b8d6","system_id":"levelo_inurba_marseille","lat":43.30324,"lon":5.36898,"is_reserved":false,"is_disabled":false,"rental_uris":{"android":"levelo://app?vid=83e44ca2-a729-4823-9df0-20ff9948b8d6","ios":"levelo://app?vid=83e44ca2-a729-4823-9df0-20ff9948b8d6"},"vehicle_type_id":"4","last_reported":1726582115,"current_range_meters":20000,"station_id":"ce4bgqh2rcd13ifvqc5g","pricing_plan_id":"cebpf4jnsgd1na2vs0mg"},{"bike_id":"79aae6c9-2353-4e66-b227-d1a2adcc2132","system_id":"levelo_inurba_marseille","lat":43.24652,"lon":5.38886,"is_reserved":false,"is_disabled":false,"rental_uris":{"android":"levelo://app?vid=79aae6c9-2353-4e66-b227-d1a2adcc2132","ios":"levelo://app?vid=79aae6c9-2353-4e66-b227-d1a2adcc2132"},"vehicle_type_id":"4","last_reported":1726582115,"current_range_meters":26800,"station_id":"ce4bhg12rcd13ifvqf60","pricing_plan_id":"cebpf4jnsgd1na2vs0mg"},{"bike_id":"59aed6a6-009a-43a8-b48a-81a326d67eda","system_id":"levelo_inurba_marseille","lat":43.30543,"lon":5.367,"is_reserved":false,"is_disabled":false,"rental_uris":{"android":"levelo://app?vid=59aed6a6-009a-43a8-b48a-81a326d67eda","ios":"levelo://app?vid=59aed6a6-009a-43a8-b48a-81a326d67eda"},"vehicle_type_id":"4","last_reported":1726582115,"current_range_meters":26000,"station_id":"ce4bgrp2rcd13ifvqc9g","pricing_plan_id":"cebpf4jnsgd1na2vs0mg"},{"bike_id":"6bac06ab-2aaa-46a0-91dd-72ad49d8a1e4","system_id":"levelo_inurba_marseille","lat":43.30251,"lon":5.40064,"is_reserved":false,"is_disabled":false,"rental_uris":{"android":"levelo://app?vid=6bac06ab-2aaa-46a0-91dd-72ad49d8a1e4","ios":"levelo://app?vid=6bac06ab-2aaa-46a0-91dd-72ad49d8a1e4"},"vehicle_type_id":"4","last_reported":1726582115,"current_range_meters":6000,"station_id":"ce4bgvh2rcd13ifvqcs0","pricing_plan_id":"cebpf4jnsgd1na2vs0mg"},{"bike_id":"b16db5ba-e744-4aed-928a-742a8d295f54","system_id":"levelo_inurba_marseille","lat":43.28427,"lon":5.37513,"is_reserved":false,"is_disabled":false,"rental_uris":{"android":"levelo://app?vid=b16db5ba-e744-4aed-928a-742a8d295f54","ios":"levelo://app?vid=b16db5ba-e744-4aed-928a-742a8d295f54"},"vehicle_type_id":"4","last_reported":1726582115,"current_range_meters":36800,"station_id":"ce4bh412rcd13ifvqds0","pricing_plan_id":"cebpf4jnsgd1na2vs0mg"},