{"last_updated":1769238731,"ttl":60,"version":"2.2","data":{"bikes":[{"bike_id":"5ed4e9d2-631e-4b69-8907-913cd14f0cf9","system_id":"levelo_inurba_marseille","lat":43.25826,"lon":5.39464,"is_reserved":false,"is_disabled":false,"rental_uris":{"android":"levelo://app?vid=5ed4e9d2-631e-4b69-8907-913cd14f0cf9","ios":"levelo://app?vid=5ed4e9d2-631e-4b69-8907-913cd14f0cf9"},"vehicle_type_id":"4","last_reported":1769238731,"current_range_meters":2800,"station_id":"ce4bhip2rcd13ifvqft0","pricing_plan_id":"cebpf4jnsgd1na2vs0mg"},{"bike_id":"286df5d3-05b3-4c84-9dca-8403134e187f","system_id":"levelo_inurba_marseille","lat":43.246316,"lon":5.431487,"is_reserved":false,"is_disabled":false,"rental_uris":{"android":"levelo://app?vid=286df5d3-05b3-4c84-9dca-8403134e187f","ios":"levelo://app?vid=286df5d3-05b3-4c84-9dca-8403134e187f"},"vehicle_type_id":"4","last_reported":1769238731,"current_range_meters":2800,"station_id":"st_d2m6c4gdas8pm72e190g","pricing_plan_id":"cebpf4jnsgd1na2vs0mg"},{"bike_id":"eac3130b-3d80-4e31-9196-f622cf6df9b4","system_id":"levelo_inurba_marseille","lat":43.29899,"lon":5.38139,"is_reserved":false,"is_disabled":false,"rental_uris":{"android":"levelo://app?vid=eac3130b-3d80-4e31-9196-f622cf6df9b4","ios":"levelo://app?vid=eac3130b-3d80-4e31-9196-f622cf6df9b4"},"vehicle_type_id":"4","last_reported":1769238731,"current_range_meters":2800,"station_id":"ce4bgj12rcd13ifvqbc0","pricing_plan_id":"cebpf4jnsgd1na2vs0mg"},{"bike_id":"4656ced7-866b-4405-99f7-01085d8601a7","system_id":"levelo_inurba_marseille","lat":43.28019,"lon":5.36962,"is_reserved":false,"is_disabled":false,"rental_uris":{"android":"levelo://app?vid=4656ced7-866b-4405-99f7-01085d8601a7","ios":"levelo://app?vid=4656ced7-866b-4405-99f7-01085d8601a7"},"vehicle_type_id":"4","last_reported":1769238731,"current_range_meters":2800,"station_id":"ce4bha12rcd13ifvqef0","pricing_plan_id":"cebpf4jnsgd1na2vs0mg"},{"bike_id":"a887fc7f-7edf-476c-a4e2-1301810a1681","system_id":"levelo_inurba_marseille","lat":43.23778,"lon":5.36637,"is_reserved":false,"is_disabled":false,"rental_uris":{"android":"levelo://app?vid=a887fc7f-7edf-476c-a4e2-1301810a1681","ios":"levelo://app?vid=a887fc7f-7edf-476c-a4e2-1301810a1681"},"vehicle_type_id":"4","last_reported":1769238731,"current_range_meters":2800,"station_id":"st_d3nk18o9ro0c73en2l3g","pricing_plan_id":"cebpf4jnsgd1na2vs0mg"},{"bike_id":"64554e54-c473-4dc7-85fd-aa2167597bab","system_id":"levelo_inurba_marseille","lat":43.31451,"lon":5.45379,"is_reserved":false,"is_disabled":false,"rental_uris":{"android":"levelo://app?vid=64554e54-c473-4dc7-85fd-aa2167597bab","ios":"levelo://app?vid=64554e54-c473-4dc7-85fd-aa2167597bab"},"vehicle_type_id":"4","last_reported":1769238731,"current_range_meters":3200,"station_id":"","pricing_plan_id":"cebpf4jnsgd1na2vs0mg"},{"bike_id":"249a4cf7-06f6-4fea-96cc-c9c6b750c37f","system_id":"levelo_inurba_marseille","lat":43.24179,"lon":5.36374,"is_reserved":false,"is_disabled":false,"rental_uris":{"android":"levelo://app?vid=249a4cf7-06f6-4fea-96cc-c9c6b750c37f","ios":"levelo://app?vid=249a4cf7-06f6-4fea-96cc-c9c6b750c37f"},"vehicle_type_id":"4","last_reported":1769238731,"current_range_meters":3200,"station_id":"cpo36qri1sfpv3e86is0","pricing_plan_id":"cebpf4jnsgd1na2vs0mg"},{"bike_id":"17ce03ac-b852-455a-8f41-b3a09136849e","system_id":"levelo_inurba_marseille","lat":43.24161,"lon":5.364053,"is_reserved":false,"is_disabled":false,"rental_uris":{"android":"levelo://app?vid=17ce03ac-b852-455a-8f41-b3a09136849e","ios":"levelo://app?vid=17ce03ac-b852-455a-8f41-b3a09136849e"},"vehicle_type_id":"4","last_reported":1769238731,"current_range_meters":3200,"station_id":"cpo36qri1sfpv3e86is0","pricing_plan_id":"cebpf4jnsgd1na2vs0mg"},{"bike_id":"751ffa1c-687c-4c14-b167-cf8c71a79ffa","system_id":"levelo_inurba_marseille","lat":43.29547,"lon":5.3751,"is_reserved":false,"is_disabled":true,"rental_uris":{"android":"levelo://app?vid=751ffa1c-687c-4c14-b167-cf8c71a79ffa","ios":"levelo://app?vid=751ffa1c-687c-4c14-b167-cf8c71a79ffa"},"vehicle_type_id":"4","last_reported":1769238731,"current_range_meters":3200,"station_id":"ce4bgkp2rcd13ifvqbmg","pricing_plan_id":"cebpf4jnsgd1na2vs0mg"},{"bike_id":"9f9c4f85-7d9e-4e8a-9123-cbd1f8de03db","system_id":"levelo_inurba_marseille","lat":43.31835,"lon":5.38993,"is_reserved":false,"is_disabled":false,"rental_uris":{"android":"levelo://app?vid=9f9c4f85-7d9e-4e8a-9123-cbd1f8de03db","ios":"levelo://app?vid=9f9c4f85-7d9e-4e8a-9123-cbd1f8de03db"},"vehicle_type_id":"4","last_reported":1769238731,"current_range_meters":3200,"station_id":"","pricing_plan_id":"cebpf4jnsgd1na2vs0mg"},{"bike_id":"a730c815-e775-4129-8064-c5472248920d","system_id":"levelo_inurba_marseille","lat":43.229312,"lon":5.353705,"is_reserved":false,"is_disabled":false,"rental_uris":{"android":"levelo://app?vid=a730c815-e775-4129-8064-c5472248920d","ios":"levelo://app?vid=a730c815-e775-4129-8064-c5472248920d"},"vehicle_type_id":"4","last_reported":1769238731,"current_range_meters":3200,"station_id":"cpo3532slgdg3j2ikp40","pricing_plan_id":"cebpf4jnsgd1na2vs0mg"},{"bike_id":"640ee36d-83fc-46a1-9d41-1d8f44651d74","system_id":"levelo_inurba_marseille","lat":43.290288,"lon":5.378088,"is_reserved":false,"is_disabled":false,"rental_uris":{"android":"levelo://app?vid=640ee36d-83fc-46a1-9d41-1d8f44651d74","ios":"levelo://app?vid=640ee36d-83fc-46a1-9d41-1d8f44651d74"},"vehicle_type_id":"4","last_reported":1769238731,"current_range_meters":3200,"station_id":"ce4bh9p2rcd13ifvqed0","pricing_plan_id":"cebpf4jnsgd1na2vs0mg"},{"bike_id":"217c986b-eb9e-44c4-a3e0-92f4ba70b7a5","system_id":"levelo_inurba_marseille","lat":43.23188,"lon":5.39988,"is_reserved":false,"is_disabled":false,"rental_uris":{"android":"levelo://app?vid=217c986b-eb9e-44c4-a3e0-92f4ba70b7a5","ios":"levelo://app?vid=217c986b-eb9e-44c4-a3e0-92f4ba70b7a5"},"vehicle_type_id":"4","last_reported":1769238731,"current_range_meters":3600,"station_id":"ce4bhn12rcd13ifvqgqg","pricing_plan_id":"cebpf4jnsgd1na2vs0mg"},{"bike_id":"fd8d02a9-f7c8-4f8d-b3d5-69fac1a3fa34","system_id":"levelo_inurba_marseille","lat":43.29009,"lon":5.38637,"is_reserved":false,"is_disabled":true,"rental_uris":{"android":"levelo://app?vid=fd8d02a9-f7c8-4f8d-b3d5-69fac1a3fa34","ios":"levelo://app?vid=fd8d02a9-f7c8-4f8d-b3d5-69fac1a3fa34"},"vehicle_type_id":"4","last_reported":1769238731,"current_range_meters":3600,"station_id":"ce4bh4p2rcd13ifvqe0g","pricing_plan_id":"cebpf4jnsgd1na2vs0mg"},{"bike_id":"0cab4dce-1eba-4f48-9e41-4b96789c1c25","system_id":"levelo_inurba_marseille","lat":43.24056,"lon":5.37767,"is_reserved":false,"is_disabled":false,"rental_uris":{"android":"levelo://app?vid=0cab4dce-1eba-4f48-9e41-4b96789c1c25","ios":"levelo://app?vid=0cab4dce-1eba-4f48-9e41-4b96789c1c25"},"vehicle_type_id":"4","last_reported":1769238731,"current_range_meters":3600,"station_id":"ce4bhnp2rcd13ifvqgvg","pricing_plan_id":"cebpf4jnsgd1na2vs0mg"},{"bike_id":"b57df7ad-97cd-44b3-a204-ea83c250292c","system_id":"levelo_inurba_marseille","lat":43.23193,"lon":5.355646,"is_reserved":false,"is_disabled":false,"rental_uris":{"android":"levelo://app?vid=b57df7ad-97cd-44b3-a204-ea83c250292c","ios":"levelo://app?vid=b57df7ad-97cd-44b3-a204-ea83c250292c"},"vehicle_type_id":"4","last_reported":1769238731,"current_range_meters":3600,"station_id":"ce4bhu92rcd13ifvqi70","pricing_plan_id":"cebpf4jnsgd1na2vs0mg"},{"bike_id":"4bda9fbf-e807-4004-97a4-a46713e183ee","system_id":"levelo_inurba_marseille","lat":43.30177,"lon":5.3809,"is_reserved":false,"is_disabled":false,"rental_uris":{"android":"levelo://app?vid=4bda9fbf-e807-4004-97a4-a46713e183ee","ios":"levelo://app?vid=4bda9fbf-e807-4004-97a4-a46713e183ee"},"vehicle_type_id":"4","last_reported":1769238731,"current_range_meters":3600,"station_id":"ce4bgjp2rcd13ifvqbh0","pricing_plan_id":"cebpf4jnsgd1na2vs0mg"},{"bike_id":"ed71c47e-02fc-4788-a4eb-7f8ea7ac094a","system_id":"levelo_inurba_marseille","lat":43.29221,"lon":5.36068,"is_reserved":false,"is_disabled":false,"rental_uris":{"android":"levelo://app?vid=ed71c47e-02fc-4788-a4eb-7f8ea7ac094a","ios":"levelo://app?vid=ed71c47e-02fc-4788-a4eb-7f8ea7ac094a"},"vehicle_type_id":"4","last_reported":1769238731,"current_range_meters":3600,"station_id":"ce4bhbh2rcd13ifvqeqg","pricing_plan_id":"cebpf4jnsgd1na2vs0mg"},{"bike_id":"731e3c39-4cfc-47aa-926e-d6f514d68010","system_id":"levelo_inurba_marseille","lat":43.225619,"lon":5.41623,"is_reserved":false,"is_disabled":false,"rental_uris":{"android":"levelo://app?vid=731e3c39-4cfc-47aa-926e-d6f514d68010","ios":"levelo://app?vid=731e3c39-4cfc-47aa-926e-d6f514d68010"},"vehicle_type_id":"4","last_reported":1769238731,"current_range_meters":4000,"station_id":"st_d2o4gvlbi1j2169b742g","pricing_plan_id":"cebpf4jnsgd1na2vs0mg"},{"bike_id":"11d8474e-3112-47d4-80fd-3fa52fa54959","system_id":"levelo_inurba_marseille","lat":43.26558,"lon":5.40322,"is_reserved":false,"is_disabled":false,"rental_uris":{"android":"levelo://app?vid=11d8474e-3112-47d4-80fd-3fa52fa54959","ios":"levelo://app?vid=11d8474e-3112-47d4-80fd-3fa52fa54959"},"vehicle_type_id":"4","last_reported":1769238731,"current_range_meters":4000,"station_id":"ce4bhmp2rcd13ifvqgng","pricing_plan_id":"cebpf4jnsgd1na2vs0mg"},{"bike_id":"efb17210-569e-45df-a419-7341a606d801","system_id":"levelo_inurba_marseille","lat":43.24939,"lon":5.40526,"is_reserved":false,"is_disabled":false,"rental_uris":{"android":"levelo://app?vid=efb17210-569e-45df-a419-7341a606d801","ios":"levelo://app?vid=efb17210-569e-45df-a419-7341a606d801"},"vehicle_type_id":"4","last_reported":1769238731,"current_range_meters":4000,"station_id":"st_d2ngiaodas8pm72gd1h0","pricing_plan_id":"cebpf4jnsgd1na2vs0mg"},{"bike_id":"b0815f8a-4ef7-45b3-b5d8-3fcd8734f0b2","system_id":"levelo_inurba_marseille","lat":43.311782,"lon":5.387166,"is_reserved":false,"is_disabled":false,"rental_uris":{"android":"levelo://app?vid=b0815f8a-4ef7-45b3-b5d8-3fcd8734f0b2","ios":"levelo://app?vid=b0815f8a-4ef7-45b3-b5d8-3fcd8734f0b2"},"vehicle_type_id":"4","last_reported":1769238731,"current_range_meters":4000,"station_id":"ce4bgv12rcd13ifvqcp0","pricing_plan_id":"cebpf4jnsgd1na2vs0mg"},{"bike_id":"b773bbbb-d72b-4b38-92a3-28fca628ed6c","system_id":"levelo_inurba_marseille","lat":43.22926,"lon":5.35397,"is_reserved":false,"is_disabled":false,"rental_uris":{"android":"levelo://app?vid=b773bbbb-d72b-4b38-92a3-28fca628ed6c","ios":"levelo://app?vid=b773bbbb-d72b-4b38-92a3-28fca628ed6c"},"vehicle_type_id":"4","last_reported":1769238731,"current_range_meters":4000,"station_id":"cpo3532slgdg3j2ikp40","pricing_plan_id":"cebpf4jnsgd1na2vs0mg"},{"bike_id":"d8368424-7a2e-4ab4-b75d-24eb5c1743cf","system_id":"levelo_inurba_marseille","lat":43.305287,"lon":5.36711,"is_reserved":false,"is_disabled":false,"rental_uris":{"android":"levelo://app?vid=d8368424-7a2e-4ab4-b75d-24eb5c1743cf","ios":"levelo://app?vid=d8368424-7a2e-4ab4-b75d-24eb5c1743cf"},"vehicle_type_id":"4","last_reported":1769238731,"current_range_meters":4000,"station_id":"ce4bgrp2rcd13ifvqc9g","pricing_plan_id":"cebpf4jnsgd1na2vs0mg"},{"bike_id":"b3e5a56e-3fab-4277-a25e-9fba39a3f617","system_id":"levelo_inurba_marseille","lat":43.27991,"lon":5.41666,"is_reserved":false,"is_disabled":false,"rental_uris":{"android":"levelo://app?vid=b3e5a56e-3fab-4277-a25e-9fba39a3f617","ios":"levelo://app?vid=b3e5a56e-3fab-4277-a25e-9fba39a3f617"},"vehicle_type_id":"4","last_reported":1769238731,"current_range_meters":4000,"station_id":"ce4bho12rcd13ifvqh1g","pricing_plan_id":"cebpf4jnsgd1na2vs0mg"},{"bike_id":"16590669-22b9-475f-acf3-c7e2ee0e80fd","system_id":"levelo_inurba_marseille","lat":43.24996,"lon":5.38921,"is_reserved":false,"is_disabled":false,"rental_uris":{"android":"levelo://app?vid=16590669-22b9-475f-acf3-c7e2ee0e80fd","ios":"levelo://app?vid=16590669-22b9-475f-acf3-c7e2ee0e80fd"},"vehicle_type_id":"4","last_reported":1769238731,"current_range_meters":4000,"station_id":"ce4bhgp2rcd13ifvqfd0","pricing_plan_id":"cebpf4jnsgd1na2vs0mg"},{"bike_id":"3046e026-9ad0-4040-9762-5420b00c2e3e","system_id":"levelo_inurba_marseille","lat":43.31064,"lon":5.371693,"is_reserved":false,"is_disabled":false,"rental_uris":{"android":"levelo://app?vid=3046e026-9ad0-4040-9762-5420b00c2e3e","ios":"levelo://app?vid=3046e026-9ad0-4040-9762-5420b00c2e3e"},"vehicle_type_id":"4","last_reported":1769238731,"current_range_meters":4000,"station_id":"st_d4kl2rp97mjs73e7tdfg","pricing_plan_id":"cebpf4jnsgd1na2vs0mg"},{"bike_id":"8750ab90-342c-4b21-9046-287ee13df746","system_id":"levelo_inurba_marseille","lat":43.32347,"lon":5.36763,"is_reserved":false,"is_disabled":false,"rental_uris":{"android":"levelo://app?vid=8750ab90-342c-4b21-9046-287ee13df746","ios":"levelo://app?vid=8750ab90-342c-4b21-9046-287ee13df746"},"vehicle_type_id":"4","last_reported":1769238731,"current_range_meters":4000,"station_id":"ce4bhsh2rcd13ifvqi2g","pricing_plan_id":"cebpf4jnsgd1na2vs0mg"},{"bike_id":"8008594e-a479-4cad-900c-79592b5808d4","system_id":"levelo_inurba_marseille","lat":43.292242,"lon":5.360667,"is_reserved":false,"is_disabled":false,"rental_uris":{"android":"levelo://app?vid=8008594e-a479-4cad-900c-79592b5808d4","ios":"levelo://app?vid=8008594e-a479-4cad-900c-79592b5808d4"},"vehicle_type_id":"4","last_reported":1769238731,"current_range_meters":4400,"station_id":"","pricing_plan_id":"cebpf4jnsgd1na2vs0mg"},{"bike_id":"d85a1379-fca2-41ad-b64a-86faffd7e125","system_id":"levelo_inurba_marseille","lat":43.26536,"lon":5.37295,"is_reserved":false,"is_disabled":false,"rental_uris":{"android":"levelo://app?vid=d85a1379-fca2-41ad-b64a-86faffd7e125","ios":"levelo://app?vid=d85a1379-fca2-41ad-b64a-86faffd7e125"},"vehicle_type_id":"4","last_reported":1769238731,"current_range_meters":4400,"station_id":"ce4bhg12rcd13ifvqf70","pricing_plan_id":"cebpf4jnsgd1na2vs0mg"},{"bike_id":"aa3b2638-12ae-4779-ad7a-7c1579b567ec","system_id":"levelo_inurba_marseille","lat":43.24079,"lon":5.3776,"is_reserved":false,"is_disabled":false,"rental_uris":{"android":"levelo://app?vid=aa3b2638-12ae-4779-ad7a-7c1579b567ec","ios":"levelo://app?vid=aa3b2638-12ae-4779-ad7a-7c1579b567ec"},"vehicle_type_id":"4","last_reported":1769238731,"current_range_meters":4400,"station_id":"ce4bhnp2rcd13ifvqgvg","pricing_plan_id":"cebpf4jnsgd1na2vs0mg"},{"bike_id":"493afd47-0150-4eb7-b05d-19b96b3484d1","system_id":"levelo_inurba_marseille","lat":43.263715,"lon":5.410768,"is_reserved":false,"is_disabled":false,"rental_uris":{"android":"levelo://app?vid=493afd47-0150-4eb7-b05d-19b96b3484d1","ios":"levelo://app?vid=493afd47-0150-4eb7-b05d-19b96b3484d1"},"vehicle_type_id":"4","last_reported":1769238731,"current_range_meters":4400,"station_id":"st_d4e5ca6na9uc73bfl5fg","pricing_plan_id":"cebpf4jnsgd1na2vs0mg"},{"bike_id":"dc82bfc6-2b44-4bff-8892-9b8eb7e91578","system_id":"levelo_inurba_marseille","lat":43.23962,"lon":5.36628,"is_reserved":false,"is_disabled":false,"rental_uris":{"android":"levelo://app?vid=dc82bfc6-2b44-4bff-8892-9b8eb7e91578","ios":"levelo://app?vid=dc82bfc6-2b44-4bff-8892-9b8eb7e91578"},"vehicle_type_id":"4","last_reported":1769238731,"current_range_meters":4400,"station_id":"ce4bhi12rcd13ifvqfp0","pricing_plan_id":"cebpf4jnsgd1na2vs0mg"},{"bike_id":"cb460f60-b642-42e9-b6ac-50ce1fc863df","system_id":"levelo_inurba_marseille","lat":43.28983,"lon":5.378433,"is_reserved":false,"is_disabled":false,"rental_uris":{"android":"levelo://app?vid=cb460f60-b642-42e9-b6ac-50ce1fc863df","ios":"levelo://app?vid=cb460f60-b642-42e9-b6ac-50ce1fc863df"},"vehicle_type_id":"4","last_reported":1769238731,"current_range_meters":4400,"station_id":"","pricing_plan_id":"cebpf4jnsgd1na2vs0mg"},{"bike_id":"f1e185b8-5e0b-4b89-8faa-045ef6935269","system_id":"levelo_inurba_marseille","lat":43.30025,"lon":5.37809,"is_reserved":false,"is_disabled":false,"rental_uris":{"android":"levelo://app?vid=f1e185b8-5e0b-4b89-8faa-045ef6935269","ios":"levelo://app?vid=f1e185b8-5e0b-4b89-8faa-045ef6935269"},"vehicle_type_id":"4","last_reported":1769238731,"current_range_meters":4400,"station_id":"","pricing_plan_id":"cebpf4jnsgd1na2vs0mg"},{"bike_id":"8765f5ca-3ede-4ade-8d10-982a2f369fc3","system_id":"levelo_inurba_marseille","lat":43.31613,"lon":5.40722,"is_reserved":false,"is_disabled":false,"rental_uris":{"android":"levelo://app?vid=8765f5ca-3ede-4ade-8d10-982a2f369fc3","ios":"levelo://app?vid=8765f5ca-3ede-4ade-8d10-982a2f369fc3"},"vehicle_type_id":"4","last_reported":1769238731,"current_range_meters":4400,"station_id":"","pricing_plan_id":"cebpf4jnsgd1na2vs0mg"},{"bike_id":"7dc9374e-ff67-42c2-8fdf-a0f9104cad12","system_id":"levelo_inurba_marseille","lat":43.292273,"lon":5.360384,"is_reserved":false,"is_disabled":false,"rental_uris":{"android":"levelo://app?vid=7dc9374e-ff67-42c2-8fdf-a0f9104cad12","ios":"levelo://app?vid=7dc9374e-ff67-42c2-8fdf-a0f9104cad12"},"vehicle_type_id":"4","last_reported":1769238731,"current_range_meters":4400,"station_id":"ce4bhbh2rcd13ifvqeqg","pricing_plan_id":"cebpf4jnsgd1na2vs0mg"},{"bike_id":"bad75388-e421-4a71-a9aa-cd2865663d67","system_id":"levelo_inurba_marseille","lat":43.32104,"lon":5.36785,"is_reserved":false,"is_disabled":false,"rental_uris":{"android":"levelo://app?vid=bad75388-e421-4a71-a9aa-cd2865663d67","ios":"levelo://app?vid=bad75388-e421-4a71-a9aa-cd2865663d67"},"vehicle_type_id":"4","last_reported":1769238731,"current_range_meters":4400,"station_id":"ce4bhrh2rcd13ifvqhug","pricing_plan_id":"cebpf4jnsgd1na2vs0mg"},{"bike_id":"3b1fd3c0-810b-467b-a1ff-662dc231cb83","system_id":"levelo_inurba_marseille","lat":43.28353,"lon":5.3862,"is_reserved":false,"is_disabled":false,"rental_uris":{"android":"levelo://app?vid=3b1fd3c0-810b-467b-a1ff-662dc231cb83","ios":"levelo://app?vid=3b1fd3c0-810b-467b-a1ff-662dc231cb83"},"vehicle_type_id":"4","last_reported":1769238731,"current_range_meters":4400,"station_id":"ce4bh492rcd13ifvqdvg","pricing_plan_id":"cebpf4jnsgd1na2vs0mg"},{"bike_id":"02e7a81c-add2-44fa-966b-2d696b46b0f6","system_id":"levelo_inurba_marseille","lat":43.29485,"lon":5.3738,"is_reserved":false,"is_disabled":false,"rental_uris":{"android":"levelo://app?vid=02e7a81c-add2-44fa-966b-2d696b46b0f6","ios":"levelo://app?vid=02e7a81c-add2-44fa-966b-2d696b46b0f6"},"vehicle_type_id":"4","last_reported":1769238731,"current_range_meters":4400,"station_id":"","pricing_plan_id":"cebpf4jnsgd1na2vs0mg"},{"bike_id":"a35157b8-f52d-4b67-9dfc-9c6979992a5c","system_id":"levelo_inurba_marseille","lat":43.24803,"lon":5.37475,"is_reserved":false,"is_disabled":false,"rental_uris":{"android":"levelo://app?vid=a35157b8-f52d-4b67-9dfc-9c6979992a5c","ios":"levelo://app?vid=a35157b8-f52d-4b67-9dfc-9c6979992a5c"},"vehicle_type_id":"4","last_reported":1769238731,"current_range_meters":4400,"station_id":"ce4bhgh2rcd13ifvqfb0","pricing_plan_id":"cebpf4jnsgd1na2vs0mg"},{"bike_id":"9843f11a-f39a-44ed-a63d-64bd2d452c6d","system_id":"levelo_inurba_marseille","lat":43.26547,"lon":5.40337,"is_reserved":false,"is_disabled":false,"rental_uris":{"android":"levelo://app?vid=9843f11a-f39a-44ed-a63d-64bd2d452c6d","ios":"levelo://app?vid=9843f11a-f39a-44ed-a63d-64bd2d452c6d"},"vehicle_type_id":"4","last_reported":1769238731,"current_range_meters":4800,"station_id":"ce4bhmp2rcd13ifvqgng","pricing_plan_id":"cebpf4jnsgd1na2vs0mg"},{"bike_id":"f2cf4006-04c8-4943-83ec-ca4b18b297c9","system_id":"levelo_inurba_marseille","lat":43.27369,"lon":5.36264,"is_reserved":false,"is_disabled":false,"rental_uris":{"android":"levelo://app?vid=f2cf4006-04c8-4943-83ec-ca4b18b297c9","ios":"levelo://app?vid=f2cf4006-04c8-4943-83ec-ca4b18b297c9"},"vehicle_type_id":"4","last_reported":1769238731,"current_range_meters":4800,"station_id":"ce4bhbh2rcd13ifvqeo0","pricing_plan_id":"cebpf4jnsgd1na2vs0mg"},{"bike_id":"6ad619ab-b9bd-4b5b-9c57-f794324fd855","system_id":"levelo_inurba_marseille","lat":43.28046,"lon":5.40617,"is_reserved":false,"is_disabled":false,"rental_uris":{"android":"levelo://app?vid=6ad619ab-b9bd-4b5b-9c57-f794324fd855","ios":"levelo://app?vid=6ad619ab-b9bd-4b5b-9c57-f794324fd855"},"vehicle_type_id":"4","last_reported":1769238731,"current_range_meters":4800,"station_id":"","pricing_plan_id":"cebpf4jnsgd1na2vs0mg"},{"bike_id":"d2dd2bd5-35c6-4cf8-86dc-87c4bf274249","system_id":"levelo_inurba_marseille","lat":43.24645,"lon":5.38889,"is_reserved":false,"is_disabled":false,"rental_uris":{"android":"levelo://app?vid=d2dd2bd5-35c6-4cf8-86dc-87c4bf274249","ios":"levelo://app?vid=d2dd2bd5-35c6-4cf8-86dc-87c4bf274249"},"vehicle_type_id":"4","last_reported":1769238731,"current_range_meters":4800,"station_id":"ce4bhg12rcd13ifvqf60","pricing_plan_id":"cebpf4jnsgd1na2vs0mg"},{"bike_id":"8922c302-f86b-43f3-9807-7ebc28264ed3","system_id":"levelo_inurba_marseille","lat":43.2621,"lon":5.40463,"is_reserved":false,"is_disabled":false,"rental_uris":{"android":"levelo://app?vid=8922c302-f86b-43f3-9807-7ebc28264ed3","ios":"levelo://app?vid=8922c302-f86b-43f3-9807-7ebc28264ed3"},"vehicle_type_id":"4","last_reported":1769238731,"current_range_meters":4800,"station_id":"ce4bhmh2rcd13ifvqgmg","pricing_plan_id":"cebpf4jnsgd1na2vs0mg"},{"bike_id":"5560fc7f-1e40-4887-b56f-d8792953a489","system_id":"levelo_inurba_marseille","lat":43.24159,"lon":5.364,"is_reserved":false,"is_disabled":false,"rental_uris":{"android":"levelo://app?vid=5560fc7f-1e40-4887-b56f-d8792953a489","ios":"levelo://app?vid=5560fc7f-1e40-4887-b56f-d8792953a489"},"vehicle_type_id":"4","last_reported":1769238731,"current_range_meters":4800,"station_id":"cpo36qri1sfpv3e86is0","pricing_plan_id":"cebpf4jnsgd1na2vs0mg"},{"bike_id":"d5979a98-94ba-4609-af07-e02fe23bf3bc","system_id":"levelo_inurba_marseille","lat":43.22552,"lon":5.41643,"is_reserved":false,"is_disabled":false,"rental_uris":{"android":"levelo://app?vid=d5979a98-94ba-4609-af07-e02fe23bf3bc","ios":"levelo://app?vid=d5979a98-94ba-4609-af07-e02fe23bf3bc"},"vehicle_type_id":"4","last_reported":1769238731,"current_range_meters":4800,"station_id":"st_d2o4gvlbi1j2169b742g","pricing_plan_id":"cebpf4jnsgd1na2vs0mg"},{"bike_id":"10d81607-b2c6-4f43-9034-1dd057977b39","system_id":"levelo_inurba_marseille","lat":43.24211,"lon":5.39649,"is_reserved":false,"is_disabled":false,"rental_uris":{"android":"levelo://app?vid=10d81607-b2c6-4f43-9034-1dd057977b39","ios":"levelo://app?vid=10d81607-b2c6-4f43-9034-1dd057977b39"},"vehicle_type_id":"4","last_reported":1769238731,"current_range_meters":4800,"station_id":"","pricing_plan_id":"cebpf4jnsgd1na2vs0mg"},{"bike_id":"3a904c28-b5d3-44ce-8dbc-fbb8f7a99de8","system_id":"levelo_inurba_marseille","lat":43.295801,"lon":5.367355,"is_reserved":false,"is_disabled":false,"rental_uris":{"android":"levelo://app?vid=3a904c28-b5d3-44ce-8dbc-fbb8f7a99de8","ios":"levelo://app?vid=3a904c28-b5d3-44ce-8dbc-fbb8f7a99de8"},"vehicle_type_id":"4","last_reported":1769238731,"current_range_meters":5600,"station_id":"ce4bgph2rcd13ifvqc2g","pricing_plan_id":"cebpf4jnsgd1na2vs0mg"},{"bike_id":"ee1097c7-66cb-4cde-affa-a4b0a3128b81","system_id":"levelo_inurba_marseille","lat":43.28421,"lon":5.37132,"is_reserved":false,"is_disabled":false,"rental_uris":{"android":"levelo://app?vid=ee1097c7-66cb-4cde-affa-a4b0a3128b81","ios":"levelo://app?vid=ee1097c7-66cb-4cde-affa-a4b0a3128b81"},"vehicle_type_id":"4","last_reported":1769238731,"current_range_meters":5600,"station_id":"","pricing_plan_id":"cebpf4jnsgd1na2vs0mg"},{"bike_id":"d1248e4b-c241-4185-9668-62cef44fb4ea","system_id":"levelo_inurba_marseille","lat":43.3233,"lon":5.3675,"is_reserved":false,"is_disabled":false,"rental_uris":{"android":"levelo://app?vid=d1248e4b-c241-4185-9668-62cef44fb4ea","ios":"levelo://app?vid=d1248e4b-c241-4185-9668-62cef44fb4ea"},"vehicle_type_id":"4","last_reported":1769238731,"current_range_meters":5600,"station_id":"ce4bhsh2rcd13ifvqi2g","pricing_plan_id":"cebpf4jnsgd1na2vs0mg"},{"bike_id":"3f2251c2-5185-4cac-808a-d69526c32cf1","system_id":"levelo_inurba_marseille","lat":43.249509,"lon":5.404878,"is_reserved":false,"is_disabled":false,"rental_uris":{"android":"levelo://app?vid=3f2251c2-5185-4cac-808a-d69526c32cf1","ios":"levelo://app?vid=3f2251c2-5185-4cac-808a-d69526c32cf1"},"vehicle_type_id":"4","last_reported":1769238731,"current_range_meters":5600,"station_id":"st_d2ngiaodas8pm72gd1h0","pricing_plan_id":"cebpf4jnsgd1na2vs0mg"},{"bike_id":"6dc2295e-435d-4bef-b4b9-b4337ddaf865","system_id":"levelo_inurba_marseille","lat":43.29445,"lon":5.39735,"is_reserved":false,"is_disabled":false,"rental_uris":{"android":"levelo://app?vid=6dc2295e-435d-4bef-b4b9-b4337ddaf865","ios":"levelo://app?vid=6dc2295e-435d-4bef-b4b9-b4337ddaf865"},"vehicle_type_id":"4","last_reported":1769238731,"current_range_meters":5600,"station_id":"ce4bh3h2rcd13ifvqdo0","pricing_plan_id":"cebpf4jnsgd1na2vs0mg"},{"bike_id":"d3746757-64c0-4deb-8ffa-a59c72b048ff","system_id":"levelo_inurba_marseille","lat":43.29676,"lon":5.37297,"is_reserved":false,"is_disabled":false,"rental_uris":{"android":"levelo://app?vid=d3746757-64c0-4deb-8ffa-a59c72b048ff","ios":"levelo://app?vid=d3746757-64c0-4deb-8ffa-a59c72b048ff"},"vehicle_type_id":"4","last_reported":1769238731,"current_range_meters":5600,"station_id":"ce4bgk12rcd13ifvqbj0","pricing_plan_id":"cebpf4jnsgd1na2vs0mg"},{"bike_id":"1755120d-9bb6-4f67-b470-f1a9abb79a61","system_id":"levelo_inurba_marseille","lat":43.23178,"lon":5.35539,"is_reserved":false,"is_disabled":false,"rental_uris":{"android":"levelo://app?vid=1755120d-9bb6-4f67-b470-f1a9abb79a61","ios":"levelo://app?vid=1755120d-9bb6-4f67-b470-f1a9abb79a61"},"vehicle_type_id":"4","last_reported":1769238731,"current_range_meters":5600,"station_id":"ce4bhu92rcd13ifvqi70","pricing_plan_id":"cebpf4jnsgd1na2vs0mg"},{"bike_id":"26a6c9df-0866-44d7-a5e4-77dd7fdf73b3","system_id":"levelo_inurba_marseille","lat":43.286,"lon":5.3707,"is_reserved":false,"is_disabled":false,"rental_uris":{"android":"levelo://app?vid=26a6c9df-0866-44d7-a5e4-77dd7fdf73b3","ios":"levelo://app?vid=26a6c9df-0866-44d7-a5e4-77dd7fdf73b3"},"vehicle_type_id":"4","last_reported":1769238731,"current_range_meters":5600,"station_id":"ce4bht12rcd13ifvqi60","pricing_plan_id":"cebpf4jnsgd1na2vs0mg"},{"bike_id":"242c68f1-6b62-4a57-bfce-28531eca4eaf","system_id":"levelo_inurba_marseille","lat":43.29751,"lon":5.4279,"is_reserved":false,"is_disabled":false,"rental_uris":{"android":"levelo://app?vid=242c68f1-6b62-4a57-bfce-28531eca4eaf","ios":"levelo://app?vid=242c68f1-6b62-4a57-bfce-28531eca4eaf"},"vehicle_type_id":"4","last_reported":1769238731,"current_range_meters":5600,"station_id":"st_d3md5207bmas73dh9klg","pricing_plan_id":"cebpf4jnsgd1na2vs0mg"},{"bike_id":"8c0442e3-2101-49d9-a999-4e4315bd74c6","system_id":"levelo_inurba_marseille","lat":43.33537,"lon":5.37485,"is_reserved":false,"is_disabled":false,"rental_uris":{"android":"levelo://app?vid=8c0442e3-2101-49d9-a999-4e4315bd74c6","ios":"levelo://app?vid=8c0442e3-2101-49d9-a999-4e4315bd74c6"},"vehicle_type_id":"4","last_reported":1769238731,"current_range_meters":6000,"station_id":"st_d46tts09ee8s73dlu43g","pricing_plan_id":"cebpf4jnsgd1na2vs0mg"},{"bike_id":"48070294-4eb0-424a-97e1-0c60a2bf8df9","system_id":"levelo_inurba_marseille","lat":43.30266,"lon":5.40038,"is_reserved":false,"is_disabled":false,"rental_uris":{"android":"levelo://app?vid=48070294-4eb0-424a-97e1-0c60a2bf8df9","ios":"levelo://app?vid=48070294-4eb0-424a-97e1-0c60a2bf8df9"},"vehicle_type_id":"4","last_reported":1769238731,"current_range_meters":6000,"station_id":"ce4bgvh2rcd13ifvqcs0","pricing_plan_id":"cebpf4jnsgd1na2vs0mg"},{"bike_id":"83cfc6fc-818a-4d29-b877-3fdba22e0a51","system_id":"levelo_inurba_marseille","lat":43.30517,"lon":5.36687,"is_reserved":false,"is_disabled":false,"rental_uris":{"android":"levelo://app?vid=83cfc6fc-818a-4d29-b877-3fdba22e0a51","ios":"levelo://app?vid=83cfc6fc-818a-4d29-b877-3fdba22e0a51"},"vehicle_type_id":"4","last_reported":1769238731,"current_range_meters":6000,"station_id":"ce4bgrp2rcd13ifvqc9g","pricing_plan_id":"cebpf4jnsgd1na2vs0mg"},{"bike_id":"04df064f-6595-4d9c-a76e-ac9b3521f389","system_id":"levelo_inurba_marseille","lat":43.2465,"lon":5.38919,"is_reserved":false,"is_disabled":false,"rental_uris":{"android":"levelo://app?vid=04df064f-6595-4d9c-a76e-ac9b3521f389","ios":"levelo://app?vid=04df064f-6595-4d9c-a76e-ac9b3521f389"},"vehicle_type_id":"4","last_reported":1769238731,"current_range_meters":6000,"station_id":"ce4bhg12rcd13ifvqf60","pricing_plan_id":"cebpf4jnsgd1na2vs0mg"},{"bike_id":"37157e9e-7479-4a8c-8dd4-393e08e7c336","system_id":"levelo_inurba_marseille","lat":43.31255,"lon":5.40179,"is_reserved":false,"is_disabled":false,"rental_uris":{"android":"levelo://app?vid=37157e9e-7479-4a8c-8dd4-393e08e7c336","ios":"levelo://app?vid=37157e9e-7479-4a8c-8dd4-393e08e7c336"},"vehicle_type_id":"4","last_reported":1769238731,"current_range_meters":6000,"station_id":"ce4bh092rcd13ifvqd30","pricing_plan_id":"cebpf4jnsgd1na2vs0mg"},{"bike_id":"9cea3fab-a99e-4f27-ac36-13187248fc09","system_id":"levelo_inurba_marseille","lat":43.30457,"lon":5.38223,"is_reserved":false,"is_disabled":false,"rental_uris":{"android":"levelo://app?vid=9cea3fab-a99e-4f27-ac36-13187248fc09","ios":"levelo://app?vid=9cea3fab-a99e-4f27-ac36-13187248fc09"},"vehicle_type_id":"4","last_reported":1769238731,"current_range_meters":6000,"station_id":"","pricing_plan_id":"cebpf4jnsgd1na2vs0mg"},{"bike_id":"8c62329e-71c2-4f7a-81bf-708e91fc92be","system_id":"levelo_inurba_marseille","lat":43.24903,"lon":5.38979,"is_reserved":false,"is_disabled":true,"rental_uris":{"android":"levelo://app?vid=8c62329e-71c2-4f7a-81bf-708e91fc92be","ios":"levelo://app?vid=8c62329e-71c2-4f7a-81bf-708e91fc92be"},"vehicle_type_id":"4","last_reported":1769238731,"current_range_meters":6000,"station_id":"","pricing_plan_id":"cebpf4jnsgd1na2vs0mg"},{"bike_id":"a406e8a4-835e-4d37-afdc-cc2038bc8238","system_id":"levelo_inurba_marseille","lat":43.3015,"lon":5.38089,"is_reserved":false,"is_disabled":false,"rental_uris":{"android":"levelo://app?vid=a406e8a4-835e-4d37-afdc-cc2038bc8238","ios":"levelo://app?vid=a406e8a4-835e-4d37-afdc-cc2038bc8238"},"vehicle_type_id":"4","last_reported":1769238731,"current_range_meters":6400,"station_id":"ce4bgjp2rcd13ifvqbh0","pricing_plan_id":"cebpf4jnsgd1na2vs0mg"},{"bike_id":"c5e3a1b8-0e16-4ec6-b79f-fad374e4fd25","system_id":"levelo_inurba_marseille","lat":43.27485,"lon":5.42442,"is_reserved":false,"is_disabled":false,"rental_uris":{"android":"levelo://app?vid=c5e3a1b8-0e16-4ec6-b79f-fad374e4fd25","ios":"levelo://app?vid=c5e3a1b8-0e16-4ec6-b79f-fad374e4fd25"},"vehicle_type_id":"4","last_reported":1769238731,"current_range_meters":6400,"station_id":"ce4bhn92rcd13ifvqgrg","pricing_plan_id":"cebpf4jnsgd1na2vs0mg"},{"bike_id":"651915f3-ebc5-4ef3-a2ae-2742ff4a9c5f","system_id":"levelo_inurba_marseille","lat":43.28146,"lon":5.42637,"is_reserved":false,"is_disabled":false,"rental_uris":{"android":"levelo://app?vid=651915f3-ebc5-4ef3-a2ae-2742ff4a9c5f","ios":"levelo://app?vid=651915f3-ebc5-4ef3-a2ae-2742ff4a9c5f"},"vehicle_type_id":"4","last_reported":1769238731,"current_range_meters":6400,"station_id":"ce4bhnh2rcd13ifvqgug","pricing_plan_id":"cebpf4jnsgd1na2vs0mg"},{"bike_id":"17ed46bf-b051-47fc-a887-339e35ccca50","system_id":"levelo_inurba_marseille","lat":43.29041,"lon":5.37565,"is_reserved":false,"is_disabled":false,"rental_uris":{"android":"levelo://app?vid=17ed46bf-b051-47fc-a887-339e35ccca50","ios":"levelo://app?vid=17ed46bf-b051-47fc-a887-339e35ccca50"},"vehicle_type_id":"4","last_reported":1769238731,"current_range_meters":6400,"station_id":"ce4bh692rcd13ifvqe90","pricing_plan_id":"cebpf4jnsgd1na2vs0mg"},{"bike_id":"1b139ae1-6ca0-4d07-883d-20a8cc24d754","system_id":"levelo_inurba_marseille","lat":43.31271,"lon":5.40177,"is_reserved":false,"is_disabled":false,"rental_uris":{"android":"levelo://app?vid=1b139ae1-6ca0-4d07-883d-20a8cc24d754","ios":"levelo://app?vid=1b139ae1-6ca0-4d07-883d-20a8cc24d754"},"vehicle_type_id":"4","last_reported":1769238731,"current_range_meters":6400,"station_id":"ce4bh092rcd13ifvqd30","pricing_plan_id":"cebpf4jnsgd1na2vs0mg"},{"bike_id":"cfbb9345-bae0-43a7-a74b-5ceff25b15dd","system_id":"levelo_inurba_marseille","lat":43.2893,"lon":5.36648,"is_reserved":false,"is_disabled":false,"rental_uris":{"android":"levelo://app?vid=cfbb9345-bae0-43a7-a74b-5ceff25b15dd","ios":"levelo://app?vid=cfbb9345-bae0-43a7-a74b-5ceff25b15dd"},"vehicle_type_id":"4","last_reported":1769238731,"current_range_meters":6400,"station_id":"ce4bhap2rcd13ifvqek0","pricing_plan_id":"cebpf4jnsgd1na2vs0mg"},{"bike_id":"640121a6-98f3-4df3-8ec4-d218eca026e4","system_id":"levelo_inurba_marseille","lat":43.24185,"lon":5.36407,"is_reserved":false,"is_disabled":false,"rental_uris":{"android":"levelo://app?vid=640121a6-98f3-4df3-8ec4-d218eca026e4","ios":"levelo://app?vid=640121a6-98f3-4df3-8ec4-d218eca026e4"},"vehicle_type_id":"4","last_reported":1769238731,"current_range_meters":6400,"station_id":"cpo36qri1sfpv3e86is0","pricing_plan_id":"cebpf4jnsgd1na2vs0mg"},{"bike_id":"d26d9ea2-ce28-42f1-b4d6-90586df6c347","system_id":"levelo_inurba_marseille","lat":43.29859,"lon":5.39741,"is_reserved":false,"is_disabled":false,"rental_uris":{"android":"levelo://app?vid=d26d9ea2-ce28-42f1-b4d6-90586df6c347","ios":"levelo://app?vid=d26d9ea2-ce28-42f1-b4d6-90586df6c347"},"vehicle_type_id":"4","last_reported":1769238731,"current_range_meters":6400,"station_id":"ce4bh0h2rcd13ifvqd50","pricing_plan_id":"cebpf4jnsgd1na2vs0mg"},{"bike_id":"15ce2f7b-e27b-4b73-b1d7-521910c86f00","system_id":"levelo_inurba_marseille","lat":43.28478,"lon":5.48393,"is_reserved":false,"is_disabled":false,"rental_uris":{"android":"levelo://app?vid=15ce2f7b-e27b-4b73-b1d7-521910c86f00","ios":"levelo://app?vid=15ce2f7b-e27b-4b73-b1d7-521910c86f00"},"vehicle_type_id":"4","last_reported":1769238731,"current_range_meters":6400,"station_id":"","pricing_plan_id":"cebpf4jnsgd1na2vs0mg"},{"bike_id":"1300ded7-38f8-48ea-8cda-4bcde6508d56","system_id":"levelo_inurba_marseille","lat":43.31082,"lon":5.38338,"is_reserved":false,"is_disabled":false,"rental_uris":{"android":"levelo://app?vid=1300ded7-38f8-48ea-8cda-4bcde6508d56","ios":"levelo://app?vid=1300ded7-38f8-48ea-8cda-4bcde6508d56"},"vehicle_type_id":"4","last_reported":1769238731,"current_range_meters":6400,"station_id":"ce4bgv92rcd13ifvqcr0","pricing_plan_id":"cebpf4jnsgd1na2vs0mg"},{"bike_id":"42258f14-4722-4aac-b949-245a1ef55bb3","system_id":"levelo_inurba_marseille","lat":43.22916,"lon":5.35391,"is_reserved":false,"is_disabled":false,"rental_uris":{"android":"levelo://app?vid=42258f14-4722-4aac-b949-245a1ef55bb3","ios":"levelo://app?vid=42258f14-4722-4aac-b949-245a1ef55bb3"},"vehicle_type_id":"4","last_reported":1769238731,"current_range_meters":6400,"station_id":"cpo3532slgdg3j2ikp40","pricing_plan_id":"cebpf4jnsgd1na2vs0mg"},{"bike_id":"dca5a5e3-f9ef-438a-9f98-fe8f71b0ba09","system_id":"levelo_inurba_marseille","lat":43.25337,"lon":5.42168,"is_reserved":false,"is_disabled":false,"rental_uris":{"android":"levelo://app?vid=dca5a5e3-f9ef-438a-9f98-fe8f71b0ba09","ios":"levelo://app?vid=dca5a5e3-f9ef-438a-9f98-fe8f71b0ba09"},"vehicle_type_id":"4","last_reported":1769238731,"current_range_meters":6400,"station_id":"st_d2m65c5bi1j21697t3ng","pricing_plan_id":"cebpf4jnsgd1na2vs0mg"},{"bike_id":"f9a9942f-2b8c-4b2e-91ad-50a9e46645a4","system_id":"levelo_inurba_marseille","lat":43.30951,"lon":5.37803,"is_reserved":false,"is_disabled":false,"rental_uris":{"android":"levelo://app?vid=f9a9942f-2b8c-4b2e-91ad-50a9e46645a4","ios":"levelo://app?vid=f9a9942f-2b8c-4b2e-91ad-50a9e46645a4"},"vehicle_type_id":"4","last_reported":1769238731,"current_range_meters":6400,"station_id":"","pricing_plan_id":"cebpf4jnsgd1na2vs0mg"},{"bike_id":"325d6000-e7a8-417c-aa29-6d5b58f2d9fb","system_id":"levelo_inurba_marseille","lat":43.29607,"lon":5.37183,"is_reserved":false,"is_disabled":false,"rental_uris":{"android":"levelo://app?vid=325d6000-e7a8-417c-aa29-6d5b58f2d9fb","ios":"levelo://app?vid=325d6000-e7a8-417c-aa29-6d5b58f2d9fb"},"vehicle_type_id":"4","last_reported":1769238731,"current_range_meters":6400,"station_id":"ce4bgnh2rcd13ifvqc0g","pricing_plan_id":"cebpf4jnsgd1na2vs0mg"},{"bike_id":"14efa2bf-0b67-4cc5-8ef4-45f69910a7e5","system_id":"levelo_inurba_marseille","lat":43.30723,"lon":5.42459,"is_reserved":false,"is_disabled":false,"rental_uris":{"android":"levelo://app?vid=14efa2bf-0b67-4cc5-8ef4-45f69910a7e5","ios":"levelo://app?vid=14efa2bf-0b67-4cc5-8ef4-45f69910a7e5"},"vehicle_type_id":"4","last_reported":1769238731,"current_range_meters":6400,"station_id":"st_cvj6ca6bvosntc0bfgr0","pricing_plan_id":"cebpf4jnsgd1na2vs0mg"},{"bike_id":"6deea6e9-9ab3-48ca-9abc-afa805f8a442","system_id":"levelo_inurba_marseille","lat":43.30213,"lon":5.39472,"is_reserved":false,"is_disabled":false,"rental_uris":{"android":"levelo://app?vid=6deea6e9-9ab3-48ca-9abc-afa805f8a442","ios":"levelo://app?vid=6deea6e9-9ab3-48ca-9abc-afa805f8a442"},"vehicle_type_id":"4","last_reported":1769238731,"current_range_meters":6400,"station_id":"ce4bh0p2rcd13ifvqd70","pricing_plan_id":"cebpf4jnsgd1na2vs0mg"},{"bike_id":"3e10bd30-a062-4bb4-8e27-f93eb1e497ff","system_id":"levelo_inurba_marseille","lat":43.29616,"lon":5.37714,"is_reserved":false,"is_disabled":true,"rental_uris":{"android":"levelo://app?vid=3e10bd30-a062-4bb4-8e27-f93eb1e497ff","ios":"levelo://app?vid=3e10bd30-a062-4bb4-8e27-f93eb1e497ff"},"vehicle_type_id":"4","last_reported":1769238731,"current_range_meters":6800,"station_id":"ce4bgi92rcd13ifvqb90","pricing_plan_id":"cebpf4jnsgd1na2vs0mg"},{"bike_id":"0dc9dc39-9a79-4974-b3ae-9c8631cf059e","system_id":"levelo_inurba_marseille","lat":43.2398,"lon":5.39605,"is_reserved":false,"is_disabled":false,"rental_uris":{"android":"levelo://app?vid=0dc9dc39-9a79-4974-b3ae-9c8631cf059e","ios":"levelo://app?vid=0dc9dc39-9a79-4974-b3ae-9c8631cf059e"},"vehicle_type_id":"4","last_reported":1769238731,"current_range_meters":6800,"station_id":"","pricing_plan_id":"cebpf4jnsgd1na2vs0mg"},{"bike_id":"911d5535-cfd0-4827-af14-2b91cedb15fe","system_id":"levelo_inurba_marseille","lat":43.29971,"lon":5.39905,"is_reserved":false,"is_disabled":false,"rental_uris":{"android":"levelo://app?vid=911d5535-cfd0-4827-af14-2b91cedb15fe","ios":"levelo://app?vid=911d5535-cfd0-4827-af14-2b91cedb15fe"},"vehicle_type_id":"4","last_reported":1769238731,"current_range_meters":6800,"station_id":"","pricing_plan_id":"cebpf4jnsgd1na2vs0mg"},{"bike_id":"718d5db1-dc44-4b74-8e82-1e977ee8f15e","system_id":"levelo_inurba_marseille","lat":43.25096,"lon":5.40433,"is_reserved":false,"is_disabled":false,"rental_uris":{"android":"levelo://app?vid=718d5db1-dc44-4b74-8e82-1e977ee8f15e","ios":"levelo://app?vid=718d5db1-dc44-4b74-8e82-1e977ee8f15e"},"vehicle_type_id":"4","last_reported":1769238731,"current_range_meters":6800,"station_id":"","pricing_plan_id":"cebpf4jnsgd1na2vs0mg"},{"bike_id":"7c7cc252-7f4f-4ac1-8175-44f20e46ac77","system_id":"levelo_inurba_marseille","lat":43.2673,"lon":5.40192,"is_reserved":false,"is_disabled":false,"rental_uris":{"android":"levelo://app?vid=7c7cc252-7f4f-4ac1-8175-44f20e46ac77","ios":"levelo://app?vid=7c7cc252-7f4f-4ac1-8175-44f20e46ac77"},"vehicle_type_id":"4","last_reported":1769238731,"current_range_meters":6800,"station_id":"","pricing_plan_id":"cebpf4jnsgd1na2vs0mg"},{"bike_id":"b157a369-dcb2-414f-baf7-cb543b38c70a","system_id":"levelo_inurba_marseille","lat":43.30094,"lon":5.39061,"is_reserved":false,"is_disabled":false,"rental_uris":{"android":"levelo://app?vid=b157a369-dcb2-414f-baf7-cb543b38c70a","ios":"levelo://app?vid=b157a369-dcb2-414f-baf7-cb543b38c70a"},"vehicle_type_id":"4","last_reported":1769238731,"current_range_meters":6800,"station_id":"ce4bh192rcd13ifvqdb0","pricing_plan_id":"cebpf4jnsgd1na2vs0mg"},{"bike_id":"649130ba-b454-4e9e-b1dd-b09db0cd29f1","system_id":"levelo_inurba_marseille","lat":43.29247,"lon":5.40912,"is_reserved":false,"is_disabled":false,"rental_uris":{"android":"levelo://app?vid=649130ba-b454-4e9e-b1dd-b09db0cd29f1","ios":"levelo://app?vid=649130ba-b454-4e9e-b1dd-b09db0cd29f1"},"vehicle_type_id":"4","last_reported":1769238731,"current_range_meters":6800,"station_id":"ce4bh192rcd13ifvqdc0","pricing_plan_id":"cebpf4jnsgd1na2vs0mg"},{"bike_id":"9efed3b6-c2c5-42d9-aec2-08a345e6ba87","system_id":"levelo_inurba_marseille","lat":43.26352,"lon":5.4109,"is_reserved":false,"is_disabled":false,"rental_uris":{"android":"levelo://app?vid=9efed3b6-c2c5-42d9-aec2-08a345e6ba87","ios":"levelo://app?vid=9efed3b6-c2c5-42d9-aec2-08a345e6ba87"},"vehicle_type_id":"4","last_reported":1769238731,"current_range_meters":6800,"station_id":"st_d4e5ca6na9uc73bfl5fg","pricing_plan_id":"cebpf4jnsgd1na2vs0mg"},{"bike_id":"45bb63fe-8270-4a18-9d30-feedae2fa6a6","system_id":"levelo_inurba_marseille","lat":43.268242,"lon":5.384408,"is_reserved":false,"is_disabled":false,"rental_uris":{"android":"levelo://app?vid=45bb63fe-8270-4a18-9d30-feedae2fa6a6","ios":"levelo://app?vid=45bb63fe-8270-4a18-9d30-feedae2fa6a6"},"vehicle_type_id":"4","last_reported":1769238731,"current_range_meters":6800,"station_id":"","pricing_plan_id":"cebpf4jnsgd1na2vs0mg"},{"bike_id":"8d651ce5-2af6-4d67-a695-d29bc342bb83","system_id":"levelo_inurba_marseille","lat":43.229376,"lon":5.353703,"is_reserved":false,"is_disabled":false,"rental_uris":{"android":"levelo://app?vid=8d651ce5-2af6-4d67-a695-d29bc342bb83","ios":"levelo://app?vid=8d651ce5-2af6-4d67-a695-d29bc342bb83"},"vehicle_type_id":"4","last_reported":1769238731,"current_range_meters":6800,"station_id":"cpo3532slgdg3j2ikp40","pricing_plan_id":"cebpf4jnsgd1na2vs0mg"},{"bike_id":"8249b795-1399-4a9c-bbc0-1737c461790c","system_id":"levelo_inurba_marseille","lat":43.24552,"lon":5.39528,"is_reserved":false,"is_disabled":false,"rental_uris":{"android":"levelo://app?vid=8249b795-1399-4a9c-bbc0-1737c461790c","ios":"levelo://app?vid=8249b795-1399-4a9c-bbc0-1737c461790c"},"vehicle_type_id":"4","last_reported":1769238731,"current_range_meters":6800,"station_id":"ce4bhlp2rcd13ifvqgjg","pricing_plan_id":"cebpf4jnsgd1na2vs0mg"},{"bike_id":"fb17407f-cd04-49b2-9056-6a1a5f3482ca","system_id":"levelo_inurba_marseille","lat":43.30089,"lon":5.39092,"is_reserved":false,"is_disabled":false,"rental_uris":{"android":"levelo://app?vid=fb17407f-cd04-49b2-9056-6a1a5f3482ca","ios":"levelo://app?vid=fb17407f-cd04-49b2-9056-6a1a5f3482ca"},"vehicle_type_id":"4","last_reported":1769238731,"current_range_meters":6800,"station_id":"ce4bh192rcd13ifvqdb0","pricing_plan_id":"cebpf4jnsgd1na2vs0mg"},{"bike_id":"ca08b871-7556-4423-ab4f-4b47cc411081","system_id":"levelo_inurba_marseille","lat":43.31695,"lon":5.43757,"is_reserved":false,"is_disabled":false,"rental_uris":{"android":"levelo://app?vid=ca08b871-7556-4423-ab4f-4b47cc411081","ios":"levelo://app?vid=ca08b871-7556-4423-ab4f-4b47cc411081"},"vehicle_type_id":"4","last_reported":1769238731,"current_range_meters":6800,"station_id":"ce4bhp92rcd13ifvqhcg","pricing_plan_id":"cebpf4jnsgd1na2vs0mg"},{"bike_id":"d040ef4c-b503-4ce1-af38-2d8a33b49cb0","system_id":"levelo_inurba_marseille","lat":43.31694,"lon":5.43716,"is_reserved":false,"is_disabled":false,"rental_uris":{"android":"levelo://app?vid=d040ef4c-b503-4ce1-af38-2d8a33b49cb0","ios":"levelo://app?vid=d040ef4c-b503-4ce1-af38-2d8a33b49cb0"},"vehicle_type_id":"4","last_reported":1769238731,"current_range_meters":6800,"station_id":"ce4bhp92rcd13ifvqhcg","pricing_plan_id":"cebpf4jnsgd1na2vs0mg"},{"bike_id":"631483d0-ada8-4ace-8a32-eb461cd8070c","system_id":"levelo_inurba_marseille","lat":43.30527,"lon":5.36731,"is_reserved":false,"is_disabled":false,"rental_uris":{"android":"levelo://app?vid=631483d0-ada8-4ace-8a32-eb461cd8070c","ios":"levelo://app?vid=631483d0-ada8-4ace-8a32-eb461cd8070c"},"vehicle_type_id":"4","last_reported":1769238731,"current_range_meters":6800,"station_id":"ce4bgrp2rcd13ifvqc9g","pricing_plan_id":"cebpf4jnsgd1na2vs0mg"},{"bike_id":"d6bcc36c-0988-4104-853c-6ca0cbca9b29","system_id":"levelo_inurba_marseille","lat":43.2887,"lon":5.4252,"is_reserved":false,"is_disabled":false,"rental_uris":{"android":"levelo://app?vid=d6bcc36c-0988-4104-853c-6ca0cbca9b29","ios":"levelo://app?vid=d6bcc36c-0988-4104-853c-6ca0cbca9b29"},"vehicle_type_id":"4","last_reported":1769238731,"current_range_meters":6800,"station_id":"st_d3b462108ojc7389ooeg","pricing_plan_id":"cebpf4jnsgd1na2vs0mg"},{"bike_id":"2e2ce66a-3f89-4c21-a9df-34056a5a5860","system_id":"levelo_inurba_marseille","lat":43.22555,"lon":5.4163,"is_reserved":false,"is_disabled":false,"rental_uris":{"android":"levelo://app?vid=2e2ce66a-3f89-4c21-a9df-34056a5a5860","ios":"levelo://app?vid=2e2ce66a-3f89-4c21-a9df-34056a5a5860"},"vehicle_type_id":"4","last_reported":1769238731,"current_range_meters":6800,"station_id":"st_d2o4gvlbi1j2169b742g","pricing_plan_id":"cebpf4jnsgd1na2vs0mg"},{"bike_id":"e4c4f5dd-c80d-4d75-801c-35c973416425","system_id":"levelo_inurba_marseille","lat":43.26564,"lon":5.37295,"is_reserved":false,"is_disabled":false,"rental_uris":{"android":"levelo://app?vid=e4c4f5dd-c80d-4d75-801c-35c973416425","ios":"levelo://app?vid=e4c4f5dd-c80d-4d75-801c-35c973416425"},"vehicle_type_id":"4","last_reported":1769238731,"current_range_meters":7200,"station_id":"ce4bhg12rcd13ifvqf70","pricing_plan_id":"cebpf4jnsgd1na2vs0mg"},{"bike_id":"0067e0af-5ba0-4b0d-a268-ed0ed9e19547","system_id":"levelo_inurba_marseille","lat":43.32324,"lon":5.36766,"is_reserved":false,"is_disabled":false,"rental_uris":{"android":"levelo://app?vid=0067e0af-5ba0-4b0d-a268-ed0ed9e19547","ios":"levelo://app?vid=0067e0af-5ba0-4b0d-a268-ed0ed9e19547"},"vehicle_type_id":"4","last_reported":1769238731,"current_range_meters":7200,"station_id":"ce4bhsh2rcd13ifvqi2g","pricing_plan_id":"cebpf4jnsgd1na2vs0mg"},{"bike_id":"862cb741-2bf3-4242-8bdb-dee5bd865982","system_id":"levelo_inurba_marseille","lat":43.28932,"lon":5.36415,"is_reserved":false,"is_disabled":true,"rental_uris":{"android":"levelo://app?vid=862cb741-2bf3-4242-8bdb-dee5bd865982","ios":"levelo://app?vid=862cb741-2bf3-4242-8bdb-dee5bd865982"},"vehicle_type_id":"4","last_reported":1769238731,"current_range_meters":7200,"station_id":"ce4bhc92rcd13ifvqetg","pricing_plan_id":"cebpf4jnsgd1na2vs0mg"},{"bike_id":"ce91f19c-6b5f-4475-ac98-6aba43530cf5","system_id":"levelo_inurba_marseille","lat":43.25013,"lon":5.3891,"is_reserved":false,"is_disabled":false,"rental_uris":{"android":"levelo://app?vid=ce91f19c-6b5f-4475-ac98-6aba43530cf5","ios":"levelo://app?vid=ce91f19c-6b5f-4475-ac98-6aba43530cf5"},"vehicle_type_id":"4","last_reported":1769238731,"current_range_meters":7200,"station_id":"ce4bhgp2rcd13ifvqfd0","pricing_plan_id":"cebpf4jnsgd1na2vs0mg"},{"bike_id":"10c585ec-0d69-49bc-a403-a71e7446105a","system_id":"levelo_inurba_marseille","lat":43.24927,"lon":5.39706,"is_reserved":false,"is_disabled":false,"rental_uris":{"android":"levelo://app?vid=10c585ec-0d69-49bc-a403-a71e7446105a","ios":"levelo://app?vid=10c585ec-0d69-49bc-a403-a71e7446105a"},"vehicle_type_id":"4","last_reported":1769238731,"current_range_meters":7200,"station_id":"","pricing_plan_id":"cebpf4jnsgd1na2vs0mg"},{"bike_id":"5ef0fcdb-b107-4dbb-97e8-c66d13c4cf00","system_id":"levelo_inurba_marseille","lat":43.28075,"lon":5.39634,"is_reserved":false,"is_disabled":false,"rental_uris":{"android":"levelo://app?vid=5ef0fcdb-b107-4dbb-97e8-c66d13c4cf00","ios":"levelo://app?vid=5ef0fcdb-b107-4dbb-97e8-c66d13c4cf00"},"vehicle_type_id":"4","last_reported":1769238731,"current_range_meters":7200,"station_id":"","pricing_plan_id":"cebpf4jnsgd1na2vs0mg"},{"bike_id":"dd691680-cdb0-4645-9edc-bb007955de28","system_id":"levelo_inurba_marseille","lat":43.29268,"lon":5.40155,"is_reserved":false,"is_disabled":false,"rental_uris":{"android":"levelo://app?vid=dd691680-cdb0-4645-9edc-bb007955de28","ios":"levelo://app?vid=dd691680-cdb0-4645-9edc-bb007955de28"},"vehicle_type_id":"4","last_reported":1769238731,"current_range_meters":7200,"station_id":"ce4bh312rcd13ifvqdk0","pricing_plan_id":"cebpf4jnsgd1na2vs0mg"},{"bike_id":"98ce3a91-bb68-49dc-9094-facdbdc00ca7","system_id":"levelo_inurba_marseille","lat":43.28139,"lon":5.42675,"is_reserved":false,"is_disabled":false,"rental_uris":{"android":"levelo://app?vid=98ce3a91-bb68-49dc-9094-facdbdc00ca7","ios":"levelo://app?vid=98ce3a91-bb68-49dc-9094-facdbdc00ca7"},"vehicle_type_id":"4","last_reported":1769238731,"current_range_meters":7200,"station_id":"ce4bhnh2rcd13ifvqgug","pricing_plan_id":"cebpf4jnsgd1na2vs0mg"},{"bike_id":"e3bf064c-53bb-4e5e-a214-36779e2347bf","system_id":"levelo_inurba_marseille","lat":43.27984,"lon":5.41668,"is_reserved":false,"is_disabled":false,"rental_uris":{"android":"levelo://app?vid=e3bf064c-53bb-4e5e-a214-36779e2347bf","ios":"levelo://app?vid=e3bf064c-53bb-4e5e-a214-36779e2347bf"},"vehicle_type_id":"4","last_reported":1769238731,"current_range_meters":7200,"station_id":"ce4bho12rcd13ifvqh1g","pricing_plan_id":"cebpf4jnsgd1na2vs0mg"},{"bike_id":"859c0b56-daf9-47de-8a3d-a09ddfbed08a","system_id":"levelo_inurba_marseille","lat":43.24991,"lon":5.38931,"is_reserved":false,"is_disabled":false,"rental_uris":{"android":"levelo://app?vid=859c0b56-daf9-47de-8a3d-a09ddfbed08a","ios":"levelo://app?vid=859c0b56-daf9-47de-8a3d-a09ddfbed08a"},"vehicle_type_id":"4","last_reported":1769238731,"current_range_meters":7200,"station_id":"ce4bhgp2rcd13ifvqfd0","pricing_plan_id":"cebpf4jnsgd1na2vs0mg"},{"bike_id":"81501642-8bc1-455e-bd31-54a9b040d3f2","system_id":"levelo_inurba_marseille","lat":43.3047,"lon":5.37939,"is_reserved":false,"is_disabled":false,"rental_uris":{"android":"levelo://app?vid=81501642-8bc1-455e-bd31-54a9b040d3f2","ios":"levelo://app?vid=81501642-8bc1-455e-bd31-54a9b040d3f2"},"vehicle_type_id":"4","last_reported":1769238731,"current_range_meters":7200,"station_id":"ce4bgup2rcd13ifvqcn0","pricing_plan_id":"cebpf4jnsgd1na2vs0mg"},{"bike_id":"1ee07084-a0a9-43af-bdb4-955f248e5678","system_id":"levelo_inurba_marseille","lat":43.28388,"lon":5.387533,"is_reserved":false,"is_disabled":false,"rental_uris":{"android":"levelo://app?vid=1ee07084-a0a9-43af-bdb4-955f248e5678","ios":"levelo://app?vid=1ee07084-a0a9-43af-bdb4-955f248e5678"},"vehicle_type_id":"4","last_reported":1769238731,"current_range_meters":7200,"station_id":"","pricing_plan_id":"cebpf4jnsgd1na2vs0mg"},{"bike_id":"f69c475e-c12f-49e2-82f7-ca17c71851e6","system_id":"levelo_inurba_marseille","lat":43.26205,"lon":5.37443,"is_reserved":false,"is_disabled":false,"rental_uris":{"android":"levelo://app?vid=f69c475e-c12f-49e2-82f7-ca17c71851e6","ios":"levelo://app?vid=f69c475e-c12f-49e2-82f7-ca17c71851e6"},"vehicle_type_id":"4","last_reported":1769238731,"current_range_meters":7200,"station_id":"ce4bhgp2rcd13ifvqfc0","pricing_plan_id":"cebpf4jnsgd1na2vs0mg"},{"bike_id":"16525725-a4c4-4bd9-9925-eb9b950936aa","system_id":"levelo_inurba_marseille","lat":43.2693,"lon":5.39089,"is_reserved":false,"is_disabled":false,"rental_uris":{"android":"levelo://app?vid=16525725-a4c4-4bd9-9925-eb9b950936aa","ios":"levelo://app?vid=16525725-a4c4-4bd9-9925-eb9b950936aa"},"vehicle_type_id":"4","last_reported":1769238731,"current_range_meters":7200,"station_id":"","pricing_plan_id":"cebpf4jnsgd1na2vs0mg"},{"bike_id":"ab3e7800-8d6a-49f9-93f5-958bc95acb12","system_id":"levelo_inurba_marseille","lat":43.23183,"lon":5.39987,"is_reserved":false,"is_disabled":false,"rental_uris":{"android":"levelo://app?vid=ab3e7800-8d6a-49f9-93f5-958bc95acb12","ios":"levelo://app?vid=ab3e7800-8d6a-49f9-93f5-958bc95acb12"},"vehicle_type_id":"4","last_reported":1769238731,"current_range_meters":7200,"station_id":"ce4bhn12rcd13ifvqgqg","pricing_plan_id":"cebpf4jnsgd1na2vs0mg"},{"bike_id":"bfc17676-cb60-420c-a40f-47b09d723384","system_id":"levelo_inurba_marseille","lat":43.30409,"lon":5.41296,"is_reserved":false,"is_disabled":false,"rental_uris":{"android":"levelo://app?vid=bfc17676-cb60-420c-a40f-47b09d723384","ios":"levelo://app?vid=bfc17676-cb60-420c-a40f-47b09d723384"},"vehicle_type_id":"4","last_reported":1769238731,"current_range_meters":7200,"station_id":"ce4bhop2rcd13ifvqh8g","pricing_plan_id":"cebpf4jnsgd1na2vs0mg"},{"bike_id":"514778f3-cb3c-44e7-bfaa-f93fb491b5fc","system_id":"levelo_inurba_marseille","lat":43.25016,"lon":5.3893,"is_reserved":false,"is_disabled":false,"rental_uris":{"android":"levelo://app?vid=514778f3-cb3c-44e7-bfaa-f93fb491b5fc","ios":"levelo://app?vid=514778f3-cb3c-44e7-bfaa-f93fb491b5fc"},"vehicle_type_id":"4","last_reported":1769238731,"current_range_meters":7200,"station_id":"ce4bhgp2rcd13ifvqfd0","pricing_plan_id":"cebpf4jnsgd1na2vs0mg"},{"bike_id":"2b16ff9b-1532-4a37-9b9d-95bb7d5a2516","system_id":"levelo_inurba_marseille","lat":43.2815,"lon":5.42665,"is_reserved":false,"is_disabled":true,"rental_uris":{"android":"levelo://app?vid=2b16ff9b-1532-4a37-9b9d-95bb7d5a2516","ios":"levelo://app?vid=2b16ff9b-1532-4a37-9b9d-95bb7d5a2516"},"vehicle_type_id":"4","last_reported":1769238731,"current_range_meters":7200,"station_id":"ce4bhnh2rcd13ifvqgug","pricing_plan_id":"cebpf4jnsgd1na2vs0mg"},{"bike_id":"659801ea-543c-4468-8b42-99ee594819ce","system_id":"levelo_inurba_marseille","lat":43.30876,"lon":5.39645,"is_reserved":false,"is_disabled":true,"rental_uris":{"android":"levelo://app?vid=659801ea-543c-4468-8b42-99ee594819ce","ios":"levelo://app?vid=659801ea-543c-4468-8b42-99ee594819ce"},"vehicle_type_id":"4","last_reported":1769238731,"current_range_meters":7200,"station_id":"ce4bh012rcd13ifvqcv0","pricing_plan_id":"cebpf4jnsgd1na2vs0mg"},{"bike_id":"824c621c-a202-476e-adb4-d2ef81fa6574","system_id":"levelo_inurba_marseille","lat":43.2446,"lon":5.42556,"is_reserved":false,"is_disabled":false,"rental_uris":{"android":"levelo://app?vid=824c621c-a202-476e-adb4-d2ef81fa6574","ios":"levelo://app?vid=824c621c-a202-476e-adb4-d2ef81fa6574"},"vehicle_type_id":"4","last_reported":1769238731,"current_range_meters":7200,"station_id":"st_d4a3vfp97mjs738cd8kg","pricing_plan_id":"cebpf4jnsgd1na2vs0mg"},{"bike_id":"0e7c9739-7c0b-462d-b69e-90718e9a5775","system_id":"levelo_inurba_marseille","lat":43.26539,"lon":5.37317,"is_reserved":false,"is_disabled":false,"rental_uris":{"android":"levelo://app?vid=0e7c9739-7c0b-462d-b69e-90718e9a5775","ios":"levelo://app?vid=0e7c9739-7c0b-462d-b69e-90718e9a5775"},"vehicle_type_id":"4","last_reported":1769238731,"current_range_meters":8000,"station_id":"ce4bhg12rcd13ifvqf70","pricing_plan_id":"cebpf4jnsgd1na2vs0mg"},{"bike_id":"f95f1b41-c459-4716-90e0-3945d441d261","system_id":"levelo_inurba_marseille","lat":43.29707,"lon":5.36611,"is_reserved":false,"is_disabled":false,"rental_uris":{"android":"levelo://app?vid=f95f1b41-c459-4716-90e0-3945d441d261","ios":"levelo://app?vid=f95f1b41-c459-4716-90e0-3945d441d261"},"vehicle_type_id":"4","last_reported":1769238731,"current_range_meters":8000,"station_id":"ce4bgn12rcd13ifvqbt0","pricing_plan_id":"cebpf4jnsgd1na2vs0mg"},{"bike_id":"3df1c2ce-b029-4e4a-acf7-75de203dd298","system_id":"levelo_inurba_marseille","lat":43.24946,"lon":5.40525,"is_reserved":false,"is_disabled":false,"rental_uris":{"android":"levelo://app?vid=3df1c2ce-b029-4e4a-acf7-75de203dd298","ios":"levelo://app?vid=3df1c2ce-b029-4e4a-acf7-75de203dd298"},"vehicle_type_id":"4","last_reported":1769238731,"current_range_meters":8000,"station_id":"st_d2ngiaodas8pm72gd1h0","pricing_plan_id":"cebpf4jnsgd1na2vs0mg"},{"bike_id":"05d1c121-28b2-4089-b97e-95b3b06f8585","system_id":"levelo_inurba_marseille","lat":43.31337,"lon":5.37137,"is_reserved":false,"is_disabled":false,"rental_uris":{"android":"levelo://app?vid=05d1c121-28b2-4089-b97e-95b3b06f8585","ios":"levelo://app?vid=05d1c121-28b2-4089-b97e-95b3b06f8585"},"vehicle_type_id":"4","last_reported":1769238731,"current_range_meters":8000,"station_id":"","pricing_plan_id":"cebpf4jnsgd1na2vs0mg"},{"bike_id":"44ff8850-ae68-4cf9-ac2c-234966d5cf18","system_id":"levelo_inurba_marseille","lat":43.29679,"lon":5.37295,"is_reserved":false,"is_disabled":false,"rental_uris":{"android":"levelo://app?vid=44ff8850-ae68-4cf9-ac2c-234966d5cf18","ios":"levelo://app?vid=44ff8850-ae68-4cf9-ac2c-234966d5cf18"},"vehicle_type_id":"4","last_reported":1769238731,"current_range_meters":8000,"station_id":"ce4bgk12rcd13ifvqbj0","pricing_plan_id":"cebpf4jnsgd1na2vs0mg"},{"bike_id":"d53aa9d5-2a5b-4c87-a2ec-7bd3f4bf9eba","system_id":"levelo_inurba_marseille","lat":43.25002,"lon":5.38923,"is_reserved":false,"is_disabled":false,"rental_uris":{"android":"levelo://app?vid=d53aa9d5-2a5b-4c87-a2ec-7bd3f4bf9eba","ios":"levelo://app?vid=d53aa9d5-2a5b-4c87-a2ec-7bd3f4bf9eba"},"vehicle_type_id":"4","last_reported":1769238731,"current_range_meters":8000,"station_id":"ce4bhgp2rcd13ifvqfd0","pricing_plan_id":"cebpf4jnsgd1na2vs0mg"},{"bike_id":"c12b25a7-3400-4559-8334-7bd3f633fa25","system_id":"levelo_inurba_marseille","lat":43.24556,"lon":5.37334,"is_reserved":false,"is_disabled":false,"rental_uris":{"android":"levelo://app?vid=c12b25a7-3400-4559-8334-7bd3f633fa25","ios":"levelo://app?vid=c12b25a7-3400-4559-8334-7bd3f633fa25"},"vehicle_type_id":"4","last_reported":1769238731,"current_range_meters":8000,"station_id":"","pricing_plan_id":"cebpf4jnsgd1na2vs0mg"},{"bike_id":"786d9288-fe4b-4af5-944f-89b1f2ed3ca1","system_id":"levelo_inurba_marseille","lat":43.29431,"lon":5.39754,"is_reserved":false,"is_disabled":false,"rental_uris":{"android":"levelo://app?vid=786d9288-fe4b-4af5-944f-89b1f2ed3ca1","ios":"levelo://app?vid=786d9288-fe4b-4af5-944f-89b1f2ed3ca1"},"vehicle_type_id":"4","last_reported":1769238731,"current_range_meters":8000,"station_id":"ce4bh3h2rcd13ifvqdo0","pricing_plan_id":"cebpf4jnsgd1na2vs0mg"},{"bike_id":"54247625-5421-4985-8cfb-4f29ba1ac252","system_id":"levelo_inurba_marseille","lat":43.31641,"lon":5.37673,"is_reserved":false,"is_disabled":false,"rental_uris":{"android":"levelo://app?vid=54247625-5421-4985-8cfb-4f29ba1ac252","ios":"levelo://app?vid=54247625-5421-4985-8cfb-4f29ba1ac252"},"vehicle_type_id":"4","last_reported":1769238731,"current_range_meters":8000,"station_id":"","pricing_plan_id":"cebpf4jnsgd1na2vs0mg"},{"bike_id":"914c29ca-d94d-43d4-8b43-5f05213a1257","system_id":"levelo_inurba_marseille","lat":43.30154,"lon":5.38102,"is_reserved":false,"is_disabled":false,"rental_uris":{"android":"levelo://app?vid=914c29ca-d94d-43d4-8b43-5f05213a1257","ios":"levelo://app?vid=914c29ca-d94d-43d4-8b43-5f05213a1257"},"vehicle_type_id":"4","last_reported":1769238731,"current_range_meters":8000,"station_id":"ce4bgjp2rcd13ifvqbh0","pricing_plan_id":"cebpf4jnsgd1na2vs0mg"},{"bike_id":"7a1b6b69-5f61-4e11-91d3-12cf02858ca8","system_id":"levelo_inurba_marseille","lat":43.24386,"lon":5.37075,"is_reserved":false,"is_disabled":false,"rental_uris":{"android":"levelo://app?vid=7a1b6b69-5f61-4e11-91d3-12cf02858ca8","ios":"levelo://app?vid=7a1b6b69-5f61-4e11-91d3-12cf02858ca8"},"vehicle_type_id":"4","last_reported":1769238731,"current_range_meters":8400,"station_id":"ce4bhhh2rcd13ifvqfk0","pricing_plan_id":"cebpf4jnsgd1na2vs0mg"},{"bike_id":"00017738-b4c1-47b3-8105-45d98f09854a","system_id":"levelo_inurba_marseille","lat":43.32105,"lon":5.36767,"is_reserved":false,"is_disabled":false,"rental_uris":{"android":"levelo://app?vid=00017738-b4c1-47b3-8105-45d98f09854a","ios":"levelo://app?vid=00017738-b4c1-47b3-8105-45d98f09854a"},"vehicle_type_id":"4","last_reported":1769238731,"current_range_meters":8400,"station_id":"ce4bhrh2rcd13ifvqhug","pricing_plan_id":"cebpf4jnsgd1na2vs0mg"},{"bike_id":"994cd074-f869-4813-80d0-fd8e13f5f341","system_id":"levelo_inurba_marseille","lat":43.29941,"lon":5.36539,"is_reserved":false,"is_disabled":false,"rental_uris":{"android":"levelo://app?vid=994cd074-f869-4813-80d0-fd8e13f5f341","ios":"levelo://app?vid=994cd074-f869-4813-80d0-fd8e13f5f341"},"vehicle_type_id":"4","last_reported":1769238731,"current_range_meters":8400,"station_id":"ce4bgm92rcd13ifvqbr0","pricing_plan_id":"cebpf4jnsgd1na2vs0mg"},{"bike_id":"f50ab09b-5d0e-47a7-a8be-db0e252af394","system_id":"levelo_inurba_marseille","lat":43.22564,"lon":5.41637,"is_reserved":false,"is_disabled":false,"rental_uris":{"android":"levelo://app?vid=f50ab09b-5d0e-47a7-a8be-db0e252af394","ios":"levelo://app?vid=f50ab09b-5d0e-47a7-a8be-db0e252af394"},"vehicle_type_id":"4","last_reported":1769238731,"current_range_meters":8400,"station_id":"st_d2o4gvlbi1j2169b742g","pricing_plan_id":"cebpf4jnsgd1na2vs0mg"},{"bike_id":"21f6fd5f-51e0-4ace-adf3-8e7223e07642","system_id":"levelo_inurba_marseille","lat":43.29902,"lon":5.43646,"is_reserved":false,"is_disabled":false,"rental_uris":{"android":"levelo://app?vid=21f6fd5f-51e0-4ace-adf3-8e7223e07642","ios":"levelo://app?vid=21f6fd5f-51e0-4ace-adf3-8e7223e07642"},"vehicle_type_id":"4","last_reported":1769238731,"current_range_meters":8400,"station_id":"ce4bhpp2rcd13ifvqhfg","pricing_plan_id":"cebpf4jnsgd1na2vs0mg"},{"bike_id":"b019e1a9-e9bb-4a00-b8fa-7bb78b5700ac","system_id":"levelo_inurba_marseille","lat":43.32349,"lon":5.36739,"is_reserved":false,"is_disabled":false,"rental_uris":{"android":"levelo://app?vid=b019e1a9-e9bb-4a00-b8fa-7bb78b5700ac","ios":"levelo://app?vid=b019e1a9-e9bb-4a00-b8fa-7bb78b5700ac"},"vehicle_type_id":"4","last_reported":1769238731,"current_range_meters":8400,"station_id":"ce4bhsh2rcd13ifvqi2g","pricing_plan_id":"cebpf4jnsgd1na2vs0mg"},{"bike_id":"b8d70063-1063-4a8b-8a6c-15c01f2ab3f8","system_id":"levelo_inurba_marseille","lat":43.30374,"lon":5.42488,"is_reserved":false,"is_disabled":false,"rental_uris":{"android":"levelo://app?vid=b8d70063-1063-4a8b-8a6c-15c01f2ab3f8","ios":"levelo://app?vid=b8d70063-1063-4a8b-8a6c-15c01f2ab3f8"},"vehicle_type_id":"4","last_reported":1769238731,"current_range_meters":8400,"station_id":"ce4bhoh2rcd13ifvqh6g","pricing_plan_id":"cebpf4jnsgd1na2vs0mg"},{"bike_id":"08962946-fb02-4f38-815e-994eda782353","system_id":"levelo_inurba_marseille","lat":43.28398,"lon":5.39427,"is_reserved":false,"is_disabled":false,"rental_uris":{"android":"levelo://app?vid=08962946-fb02-4f38-815e-994eda782353","ios":"levelo://app?vid=08962946-fb02-4f38-815e-994eda782353"},"vehicle_type_id":"4","last_reported":1769238731,"current_range_meters":8400,"station_id":"","pricing_plan_id":"cebpf4jnsgd1na2vs0mg"},{"bike_id":"3f444b80-42a5-44cb-ab46-d7a22aca5751","system_id":"levelo_inurba_marseille","lat":43.26553,"lon":5.37289,"is_reserved":false,"is_disabled":false,"rental_uris":{"android":"levelo://app?vid=3f444b80-42a5-44cb-ab46-d7a22aca5751","ios":"levelo://app?vid=3f444b80-42a5-44cb-ab46-d7a22aca5751"},"vehicle_type_id":"4","last_reported":1769238731,"current_range_meters":8400,"station_id":"ce4bhg12rcd13ifvqf70","pricing_plan_id":"cebpf4jnsgd1na2vs0mg"},{"bike_id":"8f72bfe4-ee21-4ee8-b70c-bdb39befee0d","system_id":"levelo_inurba_marseille","lat":43.23193,"lon":5.4001,"is_reserved":false,"is_disabled":false,"rental_uris":{"android":"levelo://app?vid=8f72bfe4-ee21-4ee8-b70c-bdb39befee0d","ios":"levelo://app?vid=8f72bfe4-ee21-4ee8-b70c-bdb39befee0d"},"vehicle_type_id":"4","last_reported":1769238731,"current_range_meters":8400,"station_id":"ce4bhn12rcd13ifvqgqg","pricing_plan_id":"cebpf4jnsgd1na2vs0mg"},{"bike_id":"82db4c88-0894-40e3-a1c0-b0b986fd760a","system_id":"levelo_inurba_marseille","lat":43.24336,"lon":5.37131,"is_reserved":false,"is_disabled":false,"rental_uris":{"android":"levelo://app?vid=82db4c88-0894-40e3-a1c0-b0b986fd760a","ios":"levelo://app?vid=82db4c88-0894-40e3-a1c0-b0b986fd760a"},"vehicle_type_id":"4","last_reported":1769238731,"current_range_meters":8400,"station_id":"","pricing_plan_id":"cebpf4jnsgd1na2vs0mg"},{"bike_id":"89d2f176-9210-47d4-8e8a-9009973231fc","system_id":"levelo_inurba_marseille","lat":43.31347,"lon":5.3672,"is_reserved":false,"is_disabled":false,"rental_uris":{"android":"levelo://app?vid=89d2f176-9210-47d4-8e8a-9009973231fc","ios":"levelo://app?vid=89d2f176-9210-47d4-8e8a-9009973231fc"},"vehicle_type_id":"4","last_reported":1769238731,"current_range_meters":8400,"station_id":"ce4bgr92rcd13ifvqc6g","pricing_plan_id":"cebpf4jnsgd1na2vs0mg"},{"bike_id":"5b91b93d-b3ae-4751-8498-b1dabc506a1f","system_id":"levelo_inurba_marseille","lat":43.244656,"lon":5.425335,"is_reserved":false,"is_disabled":false,"rental_uris":{"android":"levelo://app?vid=5b91b93d-b3ae-4751-8498-b1dabc506a1f","ios":"levelo://app?vid=5b91b93d-b3ae-4751-8498-b1dabc506a1f"},"vehicle_type_id":"4","last_reported":1769238731,"current_range_meters":8400,"station_id":"st_d4a3vfp97mjs738cd8kg","pricing_plan_id":"cebpf4jnsgd1na2vs0mg"},{"bike_id":"e1d27491-b72b-4ef0-a0bb-689c46d99a28","system_id":"levelo_inurba_marseille","lat":43.28477,"lon":5.48398,"is_reserved":false,"is_disabled":false,"rental_uris":{"android":"levelo://app?vid=e1d27491-b72b-4ef0-a0bb-689c46d99a28","ios":"levelo://app?vid=e1d27491-b72b-4ef0-a0bb-689c46d99a28"},"vehicle_type_id":"4","last_reported":1769238731,"current_range_meters":8400,"station_id":"","pricing_plan_id":"cebpf4jnsgd1na2vs0mg"},{"bike_id":"8d270819-adc1-49e1-abc4-b636cf1a9812","system_id":"levelo_inurba_marseille","lat":43.30548,"lon":5.36684,"is_reserved":false,"is_disabled":false,"rental_uris":{"android":"levelo://app?vid=8d270819-adc1-49e1-abc4-b636cf1a9812","ios":"levelo://app?vid=8d270819-adc1-49e1-abc4-b636cf1a9812"},"vehicle_type_id":"4","last_reported":1769238731,"current_range_meters":8400,"station_id":"ce4bgrp2rcd13ifvqc9g","pricing_plan_id":"cebpf4jnsgd1na2vs0mg"},{"bike_id":"b09b1361-457f-41a9-8d0f-135e88227a1b","system_id":"levelo_inurba_marseille","lat":43.27328,"lon":5.39103,"is_reserved":false,"is_disabled":false,"rental_uris":{"android":"levelo://app?vid=b09b1361-457f-41a9-8d0f-135e88227a1b","ios":"levelo://app?vid=b09b1361-457f-41a9-8d0f-135e88227a1b"},"vehicle_type_id":"4","last_reported":1769238731,"current_range_meters":8400,"station_id":"ce4bhgp2rcd13ifvqfe0","pricing_plan_id":"cebpf4jnsgd1na2vs0mg"},{"bike_id":"5c44d9da-a9f7-4333-ab1c-8bd91f24f729","system_id":"levelo_inurba_marseille","lat":43.22564,"lon":5.41613,"is_reserved":false,"is_disabled":false,"rental_uris":{"android":"levelo://app?vid=5c44d9da-a9f7-4333-ab1c-8bd91f24f729","ios":"levelo://app?vid=5c44d9da-a9f7-4333-ab1c-8bd91f24f729"},"vehicle_type_id":"4","last_reported":1769238731,"current_range_meters":8400,"station_id":"st_d2o4gvlbi1j2169b742g","pricing_plan_id":"cebpf4jnsgd1na2vs0mg"},{"bike_id":"46ab6aa7-f50a-4b91-a31e-e243979c5335","system_id":"levelo_inurba_marseille","lat":43.30166,"lon":5.38082,"is_reserved":false,"is_disabled":false,"rental_uris":{"android":"levelo://app?vid=46ab6aa7-f50a-4b91-a31e-e243979c5335","ios":"levelo://app?vid=46ab6aa7-f50a-4b91-a31e-e243979c5335"},"vehicle_type_id":"4","last_reported":1769238731,"current_range_meters":8400,"station_id":"ce4bgjp2rcd13ifvqbh0","pricing_plan_id":"cebpf4jnsgd1na2vs0mg"},{"bike_id":"4b73a86a-ace9-4683-832c-d7e9942c343c","system_id":"levelo_inurba_marseille","lat":43.29708,"lon":5.36602,"is_reserved":false,"is_disabled":false,"rental_uris":{"android":"levelo://app?vid=4b73a86a-ace9-4683-832c-d7e9942c343c","ios":"levelo://app?vid=4b73a86a-ace9-4683-832c-d7e9942c343c"},"vehicle_type_id":"4","last_reported":1769238731,"current_range_meters":8800,"station_id":"ce4bgn12rcd13ifvqbt0","pricing_plan_id":"cebpf4jnsgd1na2vs0mg"},{"bike_id":"903ed6fb-e30d-426f-a862-93953b3b0883","system_id":"levelo_inurba_marseille","lat":43.32342,"lon":5.36729,"is_reserved":false,"is_disabled":false,"rental_uris":{"android":"levelo://app?vid=903ed6fb-e30d-426f-a862-93953b3b0883","ios":"levelo://app?vid=903ed6fb-e30d-426f-a862-93953b3b0883"},"vehicle_type_id":"4","last_reported":1769238731,"current_range_meters":8800,"station_id":"ce4bhsh2rcd13ifvqi2g","pricing_plan_id":"cebpf4jnsgd1na2vs0mg"},{"bike_id":"60e17fba-3b8a-4c94-a214-7485e58f4176","system_id":"levelo_inurba_marseille","lat":43.26372,"lon":5.41066,"is_reserved":false,"is_disabled":false,"rental_uris":{"android":"levelo://app?vid=60e17fba-3b8a-4c94-a214-7485e58f4176","ios":"levelo://app?vid=60e17fba-3b8a-4c94-a214-7485e58f4176"},"vehicle_type_id":"4","last_reported":1769238731,"current_range_meters":8800,"station_id":"st_d4e5ca6na9uc73bfl5fg","pricing_plan_id":"cebpf4jnsgd1na2vs0mg"},{"bike_id":"66c2f67d-9378-4299-a196-56e15500f607","system_id":"levelo_inurba_marseille","lat":43.24659,"lon":5.38163,"is_reserved":false,"is_disabled":false,"rental_uris":{"android":"levelo://app?vid=66c2f67d-9378-4299-a196-56e15500f607","ios":"levelo://app?vid=66c2f67d-9378-4299-a196-56e15500f607"},"vehicle_type_id":"4","last_reported":1769238731,"current_range_meters":8800,"station_id":"ce4bhih2rcd13ifvqfr0","pricing_plan_id":"cebpf4jnsgd1na2vs0mg"},{"bike_id":"7fbd08ac-4873-40ce-8348-00e50d4fd738","system_id":"levelo_inurba_marseille","lat":43.27176,"lon":5.40991,"is_reserved":false,"is_disabled":false,"rental_uris":{"android":"levelo://app?vid=7fbd08ac-4873-40ce-8348-00e50d4fd738","ios":"levelo://app?vid=7fbd08ac-4873-40ce-8348-00e50d4fd738"},"vehicle_type_id":"4","last_reported":1769238731,"current_range_meters":8800,"station_id":"ce4bhl12rcd13ifvqgf0","pricing_plan_id":"cebpf4jnsgd1na2vs0mg"},{"bike_id":"42e07818-1b39-4532-9657-17361bba031a","system_id":"levelo_inurba_marseille","lat":43.308644,"lon":5.377416,"is_reserved":false,"is_disabled":false,"rental_uris":{"android":"levelo://app?vid=42e07818-1b39-4532-9657-17361bba031a","ios":"levelo://app?vid=42e07818-1b39-4532-9657-17361bba031a"},"vehicle_type_id":"4","last_reported":1769238731,"current_range_meters":8800,"station_id":"ce4bgv92rcd13ifvqcq0","pricing_plan_id":"cebpf4jnsgd1na2vs0mg"},{"bike_id":"ad323744-06fd-45f0-8106-c7e6ac5566c6","system_id":"levelo_inurba_marseille","lat":43.29569,"lon":5.42301,"is_reserved":false,"is_disabled":false,"rental_uris":{"android":"levelo://app?vid=ad323744-06fd-45f0-8106-c7e6ac5566c6","ios":"levelo://app?vid=ad323744-06fd-45f0-8106-c7e6ac5566c6"},"vehicle_type_id":"4","last_reported":1769238731,"current_range_meters":8800,"station_id":"ce4bhph2rcd13ifvqhdg","pricing_plan_id":"cebpf4jnsgd1na2vs0mg"},{"bike_id":"49208718-4763-495e-944d-0d3acc9a003f","system_id":"levelo_inurba_marseille","lat":43.288591,"lon":5.425186,"is_reserved":false,"is_disabled":false,"rental_uris":{"android":"levelo://app?vid=49208718-4763-495e-944d-0d3acc9a003f","ios":"levelo://app?vid=49208718-4763-495e-944d-0d3acc9a003f"},"vehicle_type_id":"4","last_reported":1769238731,"current_range_meters":8800,"station_id":"st_d3b462108ojc7389ooeg","pricing_plan_id":"cebpf4jnsgd1na2vs0mg"},{"bike_id":"ee836985-9c91-4410-a89e-feab34f96b34","system_id":"levelo_inurba_marseille","lat":43.30186,"lon":5.3665,"is_reserved":false,"is_disabled":false,"rental_uris":{"android":"levelo://app?vid=ee836985-9c91-4410-a89e-feab34f96b34","ios":"levelo://app?vid=ee836985-9c91-4410-a89e-feab34f96b34"},"vehicle_type_id":"4","last_reported":1769238731,"current_range_meters":8800,"station_id":"ce4bgrh2rcd13ifvqc8g","pricing_plan_id":"cebpf4jnsgd1na2vs0mg"},{"bike_id":"ec5dc6b7-2816-44ea-885d-0be83c86a930","system_id":"levelo_inurba_marseille","lat":43.33032,"lon":5.42955,"is_reserved":false,"is_disabled":true,"rental_uris":{"android":"levelo://app?vid=ec5dc6b7-2816-44ea-885d-0be83c86a930","ios":"levelo://app?vid=ec5dc6b7-2816-44ea-885d-0be83c86a930"},"vehicle_type_id":"4","last_reported":1769238731,"current_range_meters":8800,"station_id":"","pricing_plan_id":"cebpf4jnsgd1na2vs0mg"},{"bike_id":"819d554d-33ee-4abe-894a-dc86ff277d52","system_id":"levelo_inurba_marseille","lat":43.22929,"lon":5.35402,"is_reserved":false,"is_disabled":false,"rental_uris":{"android":"levelo://app?vid=819d554d-33ee-4abe-894a-dc86ff277d52","ios":"levelo://app?vid=819d554d-33ee-4abe-894a-dc86ff277d52"},"vehicle_type_id":"4","last_reported":1769238731,"current_range_meters":8800,"station_id":"cpo3532slgdg3j2ikp40","pricing_plan_id":"cebpf4jnsgd1na2vs0mg"},{"bike_id":"c4b9fb50-c1c1-45e2-a420-d27b5fd55927","system_id":"levelo_inurba_marseille","lat":43.2318,"lon":5.39978,"is_reserved":false,"is_disabled":false,"rental_uris":{"android":"levelo://app?vid=c4b9fb50-c1c1-45e2-a420-d27b5fd55927","ios":"levelo://app?vid=c4b9fb50-c1c1-45e2-a420-d27b5fd55927"},"vehicle_type_id":"4","last_reported":1769238731,"current_range_meters":8800,"station_id":"ce4bhn12rcd13ifvqgqg","pricing_plan_id":"cebpf4jnsgd1na2vs0mg"},{"bike_id":"5a626986-ad66-468c-a8b6-d68cc0ed79d7","system_id":"levelo_inurba_marseille","lat":43.29937,"lon":5.36548,"is_reserved":false,"is_disabled":false,"rental_uris":{"android":"levelo://app?vid=5a626986-ad66-468c-a8b6-d68cc0ed79d7","ios":"levelo://app?vid=5a626986-ad66-468c-a8b6-d68cc0ed79d7"},"vehicle_type_id":"4","last_reported":1769238731,"current_range_meters":8800,"station_id":"ce4bgm92rcd13ifvqbr0","pricing_plan_id":"cebpf4jnsgd1na2vs0mg"},{"bike_id":"589eebb0-c0cf-4d19-afe3-eff9c648d5c0","system_id":"levelo_inurba_marseille","lat":43.26218,"lon":5.40468,"is_reserved":false,"is_disabled":false,"rental_uris":{"android":"levelo://app?vid=589eebb0-c0cf-4d19-afe3-eff9c648d5c0","ios":"levelo://app?vid=589eebb0-c0cf-4d19-afe3-eff9c648d5c0"},"vehicle_type_id":"4","last_reported":1769238731,"current_range_meters":8800,"station_id":"ce4bhmh2rcd13ifvqgmg","pricing_plan_id":"cebpf4jnsgd1na2vs0mg"},{"bike_id":"13283d82-8c02-42ed-bd4e-535a0a93bd96","system_id":"levelo_inurba_marseille","lat":43.29632,"lon":5.37192,"is_reserved":false,"is_disabled":false,"rental_uris":{"android":"levelo://app?vid=13283d82-8c02-42ed-bd4e-535a0a93bd96","ios":"levelo://app?vid=13283d82-8c02-42ed-bd4e-535a0a93bd96"},"vehicle_type_id":"4","last_reported":1769238731,"current_range_meters":8800,"station_id":"ce4bgnh2rcd13ifvqc0g","pricing_plan_id":"cebpf4jnsgd1na2vs0mg"},{"bike_id":"dc3bd017-a36c-437c-a91a-6cab42202242","system_id":"levelo_inurba_marseille","lat":43.28539,"lon":5.44102,"is_reserved":false,"is_disabled":false,"rental_uris":{"android":"levelo://app?vid=dc3bd017-a36c-437c-a91a-6cab42202242","ios":"levelo://app?vid=dc3bd017-a36c-437c-a91a-6cab42202242"},"vehicle_type_id":"4","last_reported":1769238731,"current_range_meters":8800,"station_id":"st_d3j3df2ikq2c7380ej80","pricing_plan_id":"cebpf4jnsgd1na2vs0mg"},{"bike_id":"49db504b-cbd9-40f8-a23a-5b00c0d70792","system_id":"levelo_inurba_marseille","lat":43.3013,"lon":5.38103,"is_reserved":false,"is_disabled":false,"rental_uris":{"android":"levelo://app?vid=49db504b-cbd9-40f8-a23a-5b00c0d70792","ios":"levelo://app?vid=49db504b-cbd9-40f8-a23a-5b00c0d70792"},"vehicle_type_id":"4","last_reported":1769238731,"current_range_meters":8800,"station_id":"ce4bgjp2rcd13ifvqbh0","pricing_plan_id":"cebpf4jnsgd1na2vs0mg"},{"bike_id":"c8f043c8-a1cd-4533-8ac5-09a3aac34519","system_id":"levelo_inurba_marseille","lat":43.26555,"lon":5.37288,"is_reserved":false,"is_disabled":false,"rental_uris":{"android":"levelo://app?vid=c8f043c8-a1cd-4533-8ac5-09a3aac34519","ios":"levelo://app?vid=c8f043c8-a1cd-4533-8ac5-09a3aac34519"},"vehicle_type_id":"4","last_reported":1769238731,"current_range_meters":8800,"station_id":"ce4bhg12rcd13ifvqf70","pricing_plan_id":"cebpf4jnsgd1na2vs0mg"},{"bike_id":"3018bd0f-1eb9-47af-8fda-422f2be35d9a","system_id":"levelo_inurba_marseille","lat":43.21181,"lon":5.35134,"is_reserved":false,"is_disabled":false,"rental_uris":{"android":"levelo://app?vid=3018bd0f-1eb9-47af-8fda-422f2be35d9a","ios":"levelo://app?vid=3018bd0f-1eb9-47af-8fda-422f2be35d9a"},"vehicle_type_id":"4","last_reported":1769238731,"current_range_meters":8800,"station_id":"st_cvj6sg6p6f1abm77japg","pricing_plan_id":"cebpf4jnsgd1na2vs0mg"},{"bike_id":"ca530a77-a462-4ac5-bfb0-0a38fceefdbb","system_id":"levelo_inurba_marseille","lat":43.28844,"lon":5.35858,"is_reserved":false,"is_disabled":false,"rental_uris":{"android":"levelo://app?vid=ca530a77-a462-4ac5-bfb0-0a38fceefdbb","ios":"levelo://app?vid=ca530a77-a462-4ac5-bfb0-0a38fceefdbb"},"vehicle_type_id":"4","last_reported":1769238731,"current_range_meters":8800,"station_id":"ce4bhb12rcd13ifvqem0","pricing_plan_id":"cebpf4jnsgd1na2vs0mg"},{"bike_id":"6a64249b-aa80-4b1e-9ead-cb0abdbd0c3a","system_id":"levelo_inurba_marseille","lat":43.27805,"lon":5.40724,"is_reserved":false,"is_disabled":false,"rental_uris":{"android":"levelo://app?vid=6a64249b-aa80-4b1e-9ead-cb0abdbd0c3a","ios":"levelo://app?vid=6a64249b-aa80-4b1e-9ead-cb0abdbd0c3a"},"vehicle_type_id":"4","last_reported":1769238731,"current_range_meters":8800,"station_id":"ce4bhnh2rcd13ifvqgtg","pricing_plan_id":"cebpf4jnsgd1na2vs0mg"},{"bike_id":"f5ac4918-0ec2-4761-b7b6-0929b50d8bfd","system_id":"levelo_inurba_marseille","lat":43.28485,"lon":5.48395,"is_reserved":false,"is_disabled":false,"rental_uris":{"android":"levelo://app?vid=f5ac4918-0ec2-4761-b7b6-0929b50d8bfd","ios":"levelo://app?vid=f5ac4918-0ec2-4761-b7b6-0929b50d8bfd"},"vehicle_type_id":"4","last_reported":1769238731,"current_range_meters":8800,"station_id":"","pricing_plan_id":"cebpf4jnsgd1na2vs0mg"},{"bike_id":"830a8f10-eae2-4706-8de2-4317b95956ac","system_id":"levelo_inurba_marseille","lat":43.31173,"lon":5.38721,"is_reserved":false,"is_disabled":false,"rental_uris":{"android":"levelo://app?vid=830a8f10-eae2-4706-8de2-4317b95956ac","ios":"levelo://app?vid=830a8f10-eae2-4706-8de2-4317b95956ac"},"vehicle_type_id":"4","last_reported":1769238731,"current_range_meters":8800,"station_id":"ce4bgv12rcd13ifvqcp0","pricing_plan_id":"cebpf4jnsgd1na2vs0mg"},{"bike_id":"33b8ea8f-7204-4afb-ae62-d27688a9f033","system_id":"levelo_inurba_marseille","lat":43.32096,"lon":5.36797,"is_reserved":false,"is_disabled":false,"rental_uris":{"android":"levelo://app?vid=33b8ea8f-7204-4afb-ae62-d27688a9f033","ios":"levelo://app?vid=33b8ea8f-7204-4afb-ae62-d27688a9f033"},"vehicle_type_id":"4","last_reported":1769238731,"current_range_meters":8800,"station_id":"ce4bhrh2rcd13ifvqhug","pricing_plan_id":"cebpf4jnsgd1na2vs0mg"},{"bike_id":"4e90e248-219d-49fb-a2e7-e6805342c8d3","system_id":"levelo_inurba_marseille","lat":43.24664,"lon":5.38152,"is_reserved":false,"is_disabled":false,"rental_uris":{"android":"levelo://app?vid=4e90e248-219d-49fb-a2e7-e6805342c8d3","ios":"levelo://app?vid=4e90e248-219d-49fb-a2e7-e6805342c8d3"},"vehicle_type_id":"4","last_reported":1769238731,"current_range_meters":8800,"station_id":"ce4bhih2rcd13ifvqfr0","pricing_plan_id":"cebpf4jnsgd1na2vs0mg"},{"bike_id":"810615af-4dfc-4ff9-8fd7-15ca4401249a","system_id":"levelo_inurba_marseille","lat":43.24138,"lon":5.39746,"is_reserved":false,"is_disabled":false,"rental_uris":{"android":"levelo://app?vid=810615af-4dfc-4ff9-8fd7-15ca4401249a","ios":"levelo://app?vid=810615af-4dfc-4ff9-8fd7-15ca4401249a"},"vehicle_type_id":"4","last_reported":1769238731,"current_range_meters":8800,"station_id":"ce4bhn12rcd13ifvqgpg","pricing_plan_id":"cebpf4jnsgd1na2vs0mg"},{"bike_id":"37bd7041-f8cd-4c52-9be6-cf9d5c39a1ee","system_id":"levelo_inurba_marseille","lat":43.311771,"lon":5.387092,"is_reserved":false,"is_disabled":false,"rental_uris":{"android":"levelo://app?vid=37bd7041-f8cd-4c52-9be6-cf9d5c39a1ee","ios":"levelo://app?vid=37bd7041-f8cd-4c52-9be6-cf9d5c39a1ee"},"vehicle_type_id":"4","last_reported":1769238731,"current_range_meters":8800,"station_id":"ce4bgv12rcd13ifvqcp0","pricing_plan_id":"cebpf4jnsgd1na2vs0mg"},{"bike_id":"ba883ae6-41d0-430b-b2c5-fa8f015c672b","system_id":"levelo_inurba_marseille","lat":43.30489,"lon":5.41053,"is_reserved":false,"is_disabled":false,"rental_uris":{"android":"levelo://app?vid=ba883ae6-41d0-430b-b2c5-fa8f015c672b","ios":"levelo://app?vid=ba883ae6-41d0-430b-b2c5-fa8f015c672b"},"vehicle_type_id":"4","last_reported":1769238731,"current_range_meters":8800,"station_id":"","pricing_plan_id":"cebpf4jnsgd1na2vs0mg"},{"bike_id":"42a9072c-20ae-4f3e-9a38-771201cc3731","system_id":"levelo_inurba_marseille","lat":43.26531,"lon":5.37293,"is_reserved":false,"is_disabled":false,"rental_uris":{"android":"levelo://app?vid=42a9072c-20ae-4f3e-9a38-771201cc3731","ios":"levelo://app?vid=42a9072c-20ae-4f3e-9a38-771201cc3731"},"vehicle_type_id":"4","last_reported":1769238731,"current_range_meters":9200,"station_id":"ce4bhg12rcd13ifvqf70","pricing_plan_id":"cebpf4jnsgd1na2vs0mg"},{"bike_id":"deb0f9ab-4e96-4b90-b1a2-21716682812d","system_id":"levelo_inurba_marseille","lat":43.28335,"lon":5.38138,"is_reserved":false,"is_disabled":false,"rental_uris":{"android":"levelo://app?vid=deb0f9ab-4e96-4b90-b1a2-21716682812d","ios":"levelo://app?vid=deb0f9ab-4e96-4b90-b1a2-21716682812d"},"vehicle_type_id":"4","last_reported":1769238731,"current_range_meters":9200,"station_id":"ce4bh412rcd13ifvqdr0","pricing_plan_id":"cebpf4jnsgd1na2vs0mg"},{"bike_id":"e07e68dd-c898-432c-ba3f-2dae4d6b1eb0","system_id":"levelo_inurba_marseille","lat":43.2605,"lon":5.39402,"is_reserved":false,"is_disabled":false,"rental_uris":{"android":"levelo://app?vid=e07e68dd-c898-432c-ba3f-2dae4d6b1eb0","ios":"levelo://app?vid=e07e68dd-c898-432c-ba3f-2dae4d6b1eb0"},"vehicle_type_id":"4","last_reported":1769238731,"current_range_meters":9200,"station_id":"ce4bhh92rcd13ifvqfj0","pricing_plan_id":"cebpf4jnsgd1na2vs0mg"},{"bike_id":"0bafe95d-c6af-4907-954c-2ea938e72107","system_id":"levelo_inurba_marseille","lat":43.2558,"lon":5.382346,"is_reserved":false,"is_disabled":false,"rental_uris":{"android":"levelo://app?vid=0bafe95d-c6af-4907-954c-2ea938e72107","ios":"levelo://app?vid=0bafe95d-c6af-4907-954c-2ea938e72107"},"vehicle_type_id":"4","last_reported":1769238731,"current_range_meters":9200,"station_id":"ce4bhih2rcd13ifvqfs0","pricing_plan_id":"cebpf4jnsgd1na2vs0mg"},{"bike_id":"2762ef31-30af-4622-8a7b-f8bc59330d3d","system_id":"levelo_inurba_marseille","lat":43.30191,"lon":5.3745,"is_reserved":false,"is_disabled":false,"rental_uris":{"android":"levelo://app?vid=2762ef31-30af-4622-8a7b-f8bc59330d3d","ios":"levelo://app?vid=2762ef31-30af-4622-8a7b-f8bc59330d3d"},"vehicle_type_id":"4","last_reported":1769238731,"current_range_meters":9200,"station_id":"","pricing_plan_id":"cebpf4jnsgd1na2vs0mg"},{"bike_id":"21565e7c-0187-4a95-9988-6198b784b204","system_id":"levelo_inurba_marseille","lat":43.3112,"lon":5.37793,"is_reserved":false,"is_disabled":false,"rental_uris":{"android":"levelo://app?vid=21565e7c-0187-4a95-9988-6198b784b204","ios":"levelo://app?vid=21565e7c-0187-4a95-9988-6198b784b204"},"vehicle_type_id":"4","last_reported":1769238731,"current_range_meters":9200,"station_id":"ce4bgt92rcd13ifvqcg0","pricing_plan_id":"cebpf4jnsgd1na2vs0mg"},{"bike_id":"94cfdaf1-4d3a-477d-b13b-1ee3f2eea34a","system_id":"levelo_inurba_marseille","lat":43.24946,"lon":5.40487,"is_reserved":false,"is_disabled":false,"rental_uris":{"android":"levelo://app?vid=94cfdaf1-4d3a-477d-b13b-1ee3f2eea34a","ios":"levelo://app?vid=94cfdaf1-4d3a-477d-b13b-1ee3f2eea34a"},"vehicle_type_id":"4","last_reported":1769238731,"current_range_meters":9200,"station_id":"st_d2ngiaodas8pm72gd1h0","pricing_plan_id":"cebpf4jnsgd1na2vs0mg"},{"bike_id":"4327602b-692d-4825-a0ec-f44e8f870c7a","system_id":"levelo_inurba_marseille","lat":43.28616,"lon":5.35111,"is_reserved":false,"is_disabled":false,"rental_uris":{"android":"levelo://app?vid=4327602b-692d-4825-a0ec-f44e8f870c7a","ios":"levelo://app?vid=4327602b-692d-4825-a0ec-f44e8f870c7a"},"vehicle_type_id":"4","last_reported":1769238731,"current_range_meters":9200,"station_id":"ce4bhch2rcd13ifvqeug","pricing_plan_id":"cebpf4jnsgd1na2vs0mg"},{"bike_id":"3770c2e9-8904-416b-a171-2857d4f07466","system_id":"levelo_inurba_marseille","lat":43.24389,"lon":5.37051,"is_reserved":false,"is_disabled":false,"rental_uris":{"android":"levelo://app?vid=3770c2e9-8904-416b-a171-2857d4f07466","ios":"levelo://app?vid=3770c2e9-8904-416b-a171-2857d4f07466"},"vehicle_type_id":"4","last_reported":1769238731,"current_range_meters":9200,"station_id":"ce4bhhh2rcd13ifvqfk0","pricing_plan_id":"cebpf4jnsgd1na2vs0mg"},{"bike_id":"655bd777-1439-41cf-b1e8-61377b5a3625","system_id":"levelo_inurba_marseille","lat":43.29652,"lon":5.3757,"is_reserved":false,"is_disabled":false,"rental_uris":{"android":"levelo://app?vid=655bd777-1439-41cf-b1e8-61377b5a3625","ios":"levelo://app?vid=655bd777-1439-41cf-b1e8-61377b5a3625"},"vehicle_type_id":"4","last_reported":1769238731,"current_range_meters":9200,"station_id":"","pricing_plan_id":"cebpf4jnsgd1na2vs0mg"},{"bike_id":"d61a244e-b23b-494c-be27-f30f30c6be07","system_id":"levelo_inurba_marseille","lat":43.29567,"lon":5.39987,"is_reserved":false,"is_disabled":false,"rental_uris":{"android":"levelo://app?vid=d61a244e-b23b-494c-be27-f30f30c6be07","ios":"levelo://app?vid=d61a244e-b23b-494c-be27-f30f30c6be07"},"vehicle_type_id":"4","last_reported":1769238731,"current_range_meters":9200,"station_id":"ce4bh312rcd13ifvqdj0","pricing_plan_id":"cebpf4jnsgd1na2vs0mg"},{"bike_id":"69cc34b5-7c8e-4e8c-b5ec-b2922820af15","system_id":"levelo_inurba_marseille","lat":43.29916,"lon":5.36544,"is_reserved":false,"is_disabled":false,"rental_uris":{"android":"levelo://app?vid=69cc34b5-7c8e-4e8c-b5ec-b2922820af15","ios":"levelo://app?vid=69cc34b5-7c8e-4e8c-b5ec-b2922820af15"},"vehicle_type_id":"4","last_reported":1769238731,"current_range_meters":9200,"station_id":"ce4bgm92rcd13ifvqbr0","pricing_plan_id":"cebpf4jnsgd1na2vs0mg"},{"bike_id":"12438ae0-14e9-46b7-85a9-9c498346a50d","system_id":"levelo_inurba_marseille","lat":43.27955,"lon":5.38714,"is_reserved":false,"is_disabled":false,"rental_uris":{"android":"levelo://app?vid=12438ae0-14e9-46b7-85a9-9c498346a50d","ios":"levelo://app?vid=12438ae0-14e9-46b7-85a9-9c498346a50d"},"vehicle_type_id":"4","last_reported":1769238731,"current_range_meters":9200,"station_id":"ce4bhg12rcd13ifvqf80","pricing_plan_id":"cebpf4jnsgd1na2vs0mg"},{"bike_id":"4fdcdcbd-0ffb-4827-b33f-dde05c750210","system_id":"levelo_inurba_marseille","lat":43.28192,"lon":5.39063,"is_reserved":false,"is_disabled":false,"rental_uris":{"android":"levelo://app?vid=4fdcdcbd-0ffb-4827-b33f-dde05c750210","ios":"levelo://app?vid=4fdcdcbd-0ffb-4827-b33f-dde05c750210"},"vehicle_type_id":"4","last_reported":1769238731,"current_range_meters":9600,"station_id":"ce4bhn92rcd13ifvqgsg","pricing_plan_id":"cebpf4jnsgd1na2vs0mg"},{"bike_id":"19c8abb5-25aa-48c9-930f-c466f9945354","system_id":"levelo_inurba_marseille","lat":43.32479,"lon":5.36567,"is_reserved":false,"is_disabled":false,"rental_uris":{"android":"levelo://app?vid=19c8abb5-25aa-48c9-930f-c466f9945354","ios":"levelo://app?vid=19c8abb5-25aa-48c9-930f-c466f9945354"},"vehicle_type_id":"4","last_reported":1769238731,"current_range_meters":9600,"station_id":"ce4bhs12rcd13ifvqhvg","pricing_plan_id":"cebpf4jnsgd1na2vs0mg"},{"bike_id":"f8d6a6e0-1d68-4650-a94d-f633bf8c4370","system_id":"levelo_inurba_marseille","lat":43.23783,"lon":5.36635,"is_reserved":false,"is_disabled":false,"rental_uris":{"android":"levelo://app?vid=f8d6a6e0-1d68-4650-a94d-f633bf8c4370","ios":"levelo://app?vid=f8d6a6e0-1d68-4650-a94d-f633bf8c4370"},"vehicle_type_id":"4","last_reported":1769238731,"current_range_meters":9600,"station_id":"st_d3nk18o9ro0c73en2l3g","pricing_plan_id":"cebpf4jnsgd1na2vs0mg"},{"bike_id":"0c1db0f6-04c1-4e73-b12d-3dd98c0a03f3","system_id":"levelo_inurba_marseille","lat":43.31053,"lon":5.37181,"is_reserved":false,"is_disabled":false,"rental_uris":{"android":"levelo://app?vid=0c1db0f6-04c1-4e73-b12d-3dd98c0a03f3","ios":"levelo://app?vid=0c1db0f6-04c1-4e73-b12d-3dd98c0a03f3"},"vehicle_type_id":"4","last_reported":1769238731,"current_range_meters":9600,"station_id":"st_d4kl2rp97mjs73e7tdfg","pricing_plan_id":"cebpf4jnsgd1na2vs0mg"},{"bike_id":"126cf0a7-4589-4b93-bb41-55dcf1b0bf93","system_id":"levelo_inurba_marseille","lat":43.265571,"lon":5.372745,"is_reserved":false,"is_disabled":false,"rental_uris":{"android":"levelo://app?vid=126cf0a7-4589-4b93-bb41-55dcf1b0bf93","ios":"levelo://app?vid=126cf0a7-4589-4b93-bb41-55dcf1b0bf93"},"vehicle_type_id":"4","last_reported":1769238731,"current_range_meters":9600,"station_id":"ce4bhg12rcd13ifvqf70","pricing_plan_id":"cebpf4jnsgd1na2vs0mg"},{"bike_id":"f301db56-7a53-4623-9881-de65666325e9","system_id":"levelo_inurba_marseille","lat":43.28555,"lon":5.3953,"is_reserved":false,"is_disabled":false,"rental_uris":{"android":"levelo://app?vid=f301db56-7a53-4623-9881-de65666325e9","ios":"levelo://app?vid=f301db56-7a53-4623-9881-de65666325e9"},"vehicle_type_id":"4","last_reported":1769238731,"current_range_meters":9600,"station_id":"ce4bh292rcd13ifvqdg0","pricing_plan_id":"cebpf4jnsgd1na2vs0mg"},{"bike_id":"e46d8a17-af5a-42e0-b036-cb3c86080336","system_id":"levelo_inurba_marseille","lat":43.2445,"lon":5.42526,"is_reserved":false,"is_disabled":false,"rental_uris":{"android":"levelo://app?vid=e46d8a17-af5a-42e0-b036-cb3c86080336","ios":"levelo://app?vid=e46d8a17-af5a-42e0-b036-cb3c86080336"},"vehicle_type_id":"4","last_reported":1769238731,"current_range_meters":9600,"station_id":"st_d4a3vfp97mjs738cd8kg","pricing_plan_id":"cebpf4jnsgd1na2vs0mg"},{"bike_id":"531078e9-e6ae-426d-a507-48f287cdb17b","system_id":"levelo_inurba_marseille","lat":43.24674,"lon":5.38165,"is_reserved":false,"is_disabled":false,"rental_uris":{"android":"levelo://app?vid=531078e9-e6ae-426d-a507-48f287cdb17b","ios":"levelo://app?vid=531078e9-e6ae-426d-a507-48f287cdb17b"},"vehicle_type_id":"4","last_reported":1769238731,"current_range_meters":9600,"station_id":"ce4bhih2rcd13ifvqfr0","pricing_plan_id":"cebpf4jnsgd1na2vs0mg"},{"bike_id":"666eb9ec-3e25-4ddc-b189-f89b7bd0381b","system_id":"levelo_inurba_marseille","lat":43.29857,"lon":5.38944,"is_reserved":false,"is_disabled":false,"rental_uris":{"android":"levelo://app?vid=666eb9ec-3e25-4ddc-b189-f89b7bd0381b","ios":"levelo://app?vid=666eb9ec-3e25-4ddc-b189-f89b7bd0381b"},"vehicle_type_id":"4","last_reported":1769238731,"current_range_meters":9600,"station_id":"ce4bh392rcd13ifvqdl0","pricing_plan_id":"cebpf4jnsgd1na2vs0mg"},{"bike_id":"695ba03e-aa60-4a16-ad44-0d1b43b21bd5","system_id":"levelo_inurba_marseille","lat":43.22564,"lon":5.41628,"is_reserved":false,"is_disabled":false,"rental_uris":{"android":"levelo://app?vid=695ba03e-aa60-4a16-ad44-0d1b43b21bd5","ios":"levelo://app?vid=695ba03e-aa60-4a16-ad44-0d1b43b21bd5"},"vehicle_type_id":"4","last_reported":1769238731,"current_range_meters":9600,"station_id":"st_d2o4gvlbi1j2169b742g","pricing_plan_id":"cebpf4jnsgd1na2vs0mg"},{"bike_id":"fbb3e0e1-93ef-4ce4-871d-b7b38b04969f","system_id":"levelo_inurba_marseille","lat":43.21171,"lon":5.3509,"is_reserved":false,"is_disabled":false,"rental_uris":{"android":"levelo://app?vid=fbb3e0e1-93ef-4ce4-871d-b7b38b04969f","ios":"levelo://app?vid=fbb3e0e1-93ef-4ce4-871d-b7b38b04969f"},"vehicle_type_id":"4","last_reported":1769238731,"current_range_meters":9600,"station_id":"st_cvj6sg6p6f1abm77japg","pricing_plan_id":"cebpf4jnsgd1na2vs0mg"},{"bike_id":"53a59507-c154-4a40-9d9d-269841157214","system_id":"levelo_inurba_marseille","lat":43.24387,"lon":5.37055,"is_reserved":false,"is_disabled":false,"rental_uris":{"android":"levelo://app?vid=53a59507-c154-4a40-9d9d-269841157214","ios":"levelo://app?vid=53a59507-c154-4a40-9d9d-269841157214"},"vehicle_type_id":"4","last_reported":1769238731,"current_range_meters":9600,"station_id":"ce4bhhh2rcd13ifvqfk0","pricing_plan_id":"cebpf4jnsgd1na2vs0mg"},{"bike_id":"2f9ecc88-f2dc-4775-91fc-f791fe0f4d54","system_id":"levelo_inurba_marseille","lat":43.26206,"lon":5.40466,"is_reserved":false,"is_disabled":false,"rental_uris":{"android":"levelo://app?vid=2f9ecc88-f2dc-4775-91fc-f791fe0f4d54","ios":"levelo://app?vid=2f9ecc88-f2dc-4775-91fc-f791fe0f4d54"},"vehicle_type_id":"4","last_reported":1769238731,"current_range_meters":9600,"station_id":"ce4bhmh2rcd13ifvqgmg","pricing_plan_id":"cebpf4jnsgd1na2vs0mg"},{"bike_id":"71da8860-67fd-467d-ab47-bcfee6c132db","system_id":"levelo_inurba_marseille","lat":43.27334,"lon":5.36267,"is_reserved":false,"is_disabled":false,"rental_uris":{"android":"levelo://app?vid=71da8860-67fd-467d-ab47-bcfee6c132db","ios":"levelo://app?vid=71da8860-67fd-467d-ab47-bcfee6c132db"},"vehicle_type_id":"4","last_reported":1769238731,"current_range_meters":9600,"station_id":"ce4bhbh2rcd13ifvqeo0","pricing_plan_id":"cebpf4jnsgd1na2vs0mg"},{"bike_id":"43ace758-19e2-45f5-81d3-4d0e67cb2c4e","system_id":"levelo_inurba_marseille","lat":43.23786,"lon":5.36635,"is_reserved":false,"is_disabled":false,"rental_uris":{"android":"levelo://app?vid=43ace758-19e2-45f5-81d3-4d0e67cb2c4e","ios":"levelo://app?vid=43ace758-19e2-45f5-81d3-4d0e67cb2c4e"},"vehicle_type_id":"4","last_reported":1769238731,"current_range_meters":9600,"station_id":"st_d3nk18o9ro0c73en2l3g","pricing_plan_id":"cebpf4jnsgd1na2vs0mg"},{"bike_id":"d6ac2728-169d-4b29-9c33-f22ccca7268c","system_id":"levelo_inurba_marseille","lat":43.301,"lon":5.39071,"is_reserved":false,"is_disabled":false,"rental_uris":{"android":"levelo://app?vid=d6ac2728-169d-4b29-9c33-f22ccca7268c","ios":"levelo://app?vid=d6ac2728-169d-4b29-9c33-f22ccca7268c"},"vehicle_type_id":"4","last_reported":1769238731,"current_range_meters":10000,"station_id":"ce4bh192rcd13ifvqdb0","pricing_plan_id":"cebpf4jnsgd1na2vs0mg"},{"bike_id":"8d5ed014-e7fa-4984-8196-4fc3cd1a56b5","system_id":"levelo_inurba_marseille","lat":43.26951,"lon":5.38626,"is_reserved":false,"is_disabled":false,"rental_uris":{"android":"levelo://app?vid=8d5ed014-e7fa-4984-8196-4fc3cd1a56b5","ios":"levelo://app?vid=8d5ed014-e7fa-4984-8196-4fc3cd1a56b5"},"vehicle_type_id":"4","last_reported":1769238731,"current_range_meters":10000,"station_id":"ce4bhh92rcd13ifvqfh0","pricing_plan_id":"cebpf4jnsgd1na2vs0mg"},{"bike_id":"7c1e2111-63c2-4e90-b360-b8082e56570c","system_id":"levelo_inurba_marseille","lat":43.2873,"lon":5.3609,"is_reserved":false,"is_disabled":false,"rental_uris":{"android":"levelo://app?vid=7c1e2111-63c2-4e90-b360-b8082e56570c","ios":"levelo://app?vid=7c1e2111-63c2-4e90-b360-b8082e56570c"},"vehicle_type_id":"4","last_reported":1769238731,"current_range_meters":10000,"station_id":"cki0cbj6b192h4jlfktg","pricing_plan_id":"cebpf4jnsgd1na2vs0mg"},{"bike_id":"989595b1-ce7f-4351-bcfe-516505fd7625","system_id":"levelo_inurba_marseille","lat":43.30119,"lon":5.431072,"is_reserved":false,"is_disabled":false,"rental_uris":{"android":"levelo://app?vid=989595b1-ce7f-4351-bcfe-516505fd7625","ios":"levelo://app?vid=989595b1-ce7f-4351-bcfe-516505fd7625"},"vehicle_type_id":"4","last_reported":1769238731,"current_range_meters":10000,"station_id":"st_d3js3co5814s73ftftug","pricing_plan_id":"cebpf4jnsgd1na2vs0mg"},{"bike_id":"943d758d-a5d9-442d-9ffc-241d0b55ecb3","system_id":"levelo_inurba_marseille","lat":43.30734,"lon":5.42439,"is_reserved":false,"is_disabled":false,"rental_uris":{"android":"levelo://app?vid=943d758d-a5d9-442d-9ffc-241d0b55ecb3","ios":"levelo://app?vid=943d758d-a5d9-442d-9ffc-241d0b55ecb3"},"vehicle_type_id":"4","last_reported":1769238731,"current_range_meters":10000,"station_id":"st_cvj6ca6bvosntc0bfgr0","pricing_plan_id":"cebpf4jnsgd1na2vs0mg"},{"bike_id":"a0465d4f-9ced-4178-ad4c-29e5c29e87ff","system_id":"levelo_inurba_marseille","lat":43.28473,"lon":5.48417,"is_reserved":false,"is_disabled":false,"rental_uris":{"android":"levelo://app?vid=a0465d4f-9ced-4178-ad4c-29e5c29e87ff","ios":"levelo://app?vid=a0465d4f-9ced-4178-ad4c-29e5c29e87ff"},"vehicle_type_id":"4","last_reported":1769238731,"current_range_meters":10000,"station_id":"","pricing_plan_id":"cebpf4jnsgd1na2vs0mg"},{"bike_id":"3b781fc0-785a-46db-80a2-c41d552c10df","system_id":"levelo_inurba_marseille","lat":43.23783,"lon":5.36634,"is_reserved":false,"is_disabled":false,"rental_uris":{"android":"levelo://app?vid=3b781fc0-785a-46db-80a2-c41d552c10df","ios":"levelo://app?vid=3b781fc0-785a-46db-80a2-c41d552c10df"},"vehicle_type_id":"4","last_reported":1769238731,"current_range_meters":10000,"station_id":"st_d3nk18o9ro0c73en2l3g","pricing_plan_id":"cebpf4jnsgd1na2vs0mg"},{"bike_id":"fe5d83d6-9898-42c5-8cb8-7a1e2cfda92b","system_id":"levelo_inurba_marseille","lat":43.27804,"lon":5.40718,"is_reserved":false,"is_disabled":false,"rental_uris":{"android":"levelo://app?vid=fe5d83d6-9898-42c5-8cb8-7a1e2cfda92b","ios":"levelo://app?vid=fe5d83d6-9898-42c5-8cb8-7a1e2cfda92b"},"vehicle_type_id":"4","last_reported":1769238731,"current_range_meters":10000,"station_id":"ce4bhnh2rcd13ifvqgtg","pricing_plan_id":"cebpf4jnsgd1na2vs0mg"},{"bike_id":"f25efc39-fce0-447d-90cb-d44925c70a67","system_id":"levelo_inurba_marseille","lat":43.30464,"lon":5.37914,"is_reserved":false,"is_disabled":false,"rental_uris":{"android":"levelo://app?vid=f25efc39-fce0-447d-90cb-d44925c70a67","ios":"levelo://app?vid=f25efc39-fce0-447d-90cb-d44925c70a67"},"vehicle_type_id":"4","last_reported":1769238731,"current_range_meters":10000,"station_id":"ce4bgup2rcd13ifvqcn0","pricing_plan_id":"cebpf4jnsgd1na2vs0mg"},{"bike_id":"090d68fd-b8f6-42aa-a688-f39ed4d39c2d","system_id":"levelo_inurba_marseille","lat":43.2257,"lon":5.41626,"is_reserved":false,"is_disabled":false,"rental_uris":{"android":"levelo://app?vid=090d68fd-b8f6-42aa-a688-f39ed4d39c2d","ios":"levelo://app?vid=090d68fd-b8f6-42aa-a688-f39ed4d39c2d"},"vehicle_type_id":"4","last_reported":1769238731,"current_range_meters":10000,"station_id":"st_d2o4gvlbi1j2169b742g","pricing_plan_id":"cebpf4jnsgd1na2vs0mg"},{"bike_id":"cd60316d-bd8c-4b06-99e5-f8333d66f817","system_id":"levelo_inurba_marseille","lat":43.28269,"lon":5.35067,"is_reserved":false,"is_disabled":false,"rental_uris":{"android":"levelo://app?vid=cd60316d-bd8c-4b06-99e5-f8333d66f817","ios":"levelo://app?vid=cd60316d-bd8c-4b06-99e5-f8333d66f817"},"vehicle_type_id":"4","last_reported":1769238731,"current_range_meters":10000,"station_id":"ce4bhbp2rcd13ifvqerg","pricing_plan_id":"cebpf4jnsgd1na2vs0mg"},{"bike_id":"d23e957b-30e5-4310-998d-191d81d5f962","system_id":"levelo_inurba_marseille","lat":43.28422,"lon":5.38823,"is_reserved":false,"is_disabled":false,"rental_uris":{"android":"levelo://app?vid=d23e957b-30e5-4310-998d-191d81d5f962","ios":"levelo://app?vid=d23e957b-30e5-4310-998d-191d81d5f962"},"vehicle_type_id":"4","last_reported":1769238731,"current_range_meters":10000,"station_id":"","pricing_plan_id":"cebpf4jnsgd1na2vs0mg"},{"bike_id":"c8f37130-ec71-43fd-8172-718b9bfd87e5","system_id":"levelo_inurba_marseille","lat":43.284617,"lon":5.358798,"is_reserved":false,"is_disabled":false,"rental_uris":{"android":"levelo://app?vid=c8f37130-ec71-43fd-8172-718b9bfd87e5","ios":"levelo://app?vid=c8f37130-ec71-43fd-8172-718b9bfd87e5"},"vehicle_type_id":"4","last_reported":1769238731,"current_range_meters":10000,"station_id":"ce4bhah2rcd13ifvqei0","pricing_plan_id":"cebpf4jnsgd1na2vs0mg"},{"bike_id":"4e8ceb26-dcda-41c9-b988-c7429cb4d9cf","system_id":"levelo_inurba_marseille","lat":43.28474,"lon":5.38427,"is_reserved":false,"is_disabled":false,"rental_uris":{"android":"levelo://app?vid=4e8ceb26-dcda-41c9-b988-c7429cb4d9cf","ios":"levelo://app?vid=4e8ceb26-dcda-41c9-b988-c7429cb4d9cf"},"vehicle_type_id":"4","last_reported":1769238731,"current_range_meters":10800,"station_id":"ce4bh512rcd13ifvqe3g","pricing_plan_id":"cebpf4jnsgd1na2vs0mg"},{"bike_id":"c95e6f4f-dea5-4c8f-900f-ccf591c989cb","system_id":"levelo_inurba_marseille","lat":43.25822,"lon":5.39447,"is_reserved":false,"is_disabled":false,"rental_uris":{"android":"levelo://app?vid=c95e6f4f-dea5-4c8f-900f-ccf591c989cb","ios":"levelo://app?vid=c95e6f4f-dea5-4c8f-900f-ccf591c989cb"},"vehicle_type_id":"4","last_reported":1769238731,"current_range_meters":10800,"station_id":"ce4bhip2rcd13ifvqft0","pricing_plan_id":"cebpf4jnsgd1na2vs0mg"},{"bike_id":"7a4e3005-837e-4425-a268-ddb5f45bb9f3","system_id":"levelo_inurba_marseille","lat":43.24658,"lon":5.43133,"is_reserved":false,"is_disabled":false,"rental_uris":{"android":"levelo://app?vid=7a4e3005-837e-4425-a268-ddb5f45bb9f3","ios":"levelo://app?vid=7a4e3005-837e-4425-a268-ddb5f45bb9f3"},"vehicle_type_id":"4","last_reported":1769238731,"current_range_meters":10800,"station_id":"st_d2m6c4gdas8pm72e190g","pricing_plan_id":"cebpf4jnsgd1na2vs0mg"},{"bike_id":"ae71a52e-3d46-4289-a470-4e64eab9ff51","system_id":"levelo_inurba_marseille","lat":43.28531,"lon":5.44099,"is_reserved":false,"is_disabled":false,"rental_uris":{"android":"levelo://app?vid=ae71a52e-3d46-4289-a470-4e64eab9ff51","ios":"levelo://app?vid=ae71a52e-3d46-4289-a470-4e64eab9ff51"},"vehicle_type_id":"4","last_reported":1769238731,"current_range_meters":10800,"station_id":"st_d3j3df2ikq2c7380ej80","pricing_plan_id":"cebpf4jnsgd1na2vs0mg"},{"bike_id":"5d5ffbbb-74c0-43cf-b09c-4df4c0347781","system_id":"levelo_inurba_marseille","lat":43.26202,"lon":5.37926,"is_reserved":false,"is_disabled":false,"rental_uris":{"android":"levelo://app?vid=5d5ffbbb-74c0-43cf-b09c-4df4c0347781","ios":"levelo://app?vid=5d5ffbbb-74c0-43cf-b09c-4df4c0347781"},"vehicle_type_id":"4","last_reported":1769238731,"current_range_meters":10800,"station_id":"ce4bhjp2rcd13ifvqg90","pricing_plan_id":"cebpf4jnsgd1na2vs0mg"},