{"last_updated":1706450693,"ttl":30,"version":"2.2","data":{"bikes":[{"bike_id":"869b492d-2884-45ef-b775-ad5e200f5295","system_id":"levelo_inurba_marseille","lat":43.31341,"lon":5.367098,"is_reserved":false,"is_disabled":false,"rental_uris":{"android":"levelo://app?vid=869b492d-2884-45ef-b775-ad5e200f5295","ios":"levelo://app?vid=869b492d-2884-45ef-b775-ad5e200f5295"},"vehicle_type_id":"4","last_reported":1706450693,"current_range_meters":31200,"station_id":"ce4bgr92rcd13ifvqc6g","pricing_plan_id":"free"},{"bike_id":"26eb7c4c-d820-4609-a57f-4739d1caec33","system_id":"levelo_inurba_marseille","lat":43.31341,"lon":5.367098,"is_reserved":false,"is_disabled":false,"rental_uris":{"android":"levelo://app?vid=26eb7c4c-d820-4609-a57f-4739d1caec33","ios":"levelo://app?vid=26eb7c4c-d820-4609-a57f-4739d1caec33"},"vehicle_type_id":"4","last_reported":1706450693,"current_range_meters":30400,"station_id":"ce4bgr92rcd13ifvqc6g","pricing_plan_id":"free"},{"bike_id":"6d62df7d-1424-4269-96de-d92955ba9c4e","system_id":"levelo_inurba_marseille","lat":43.312239,"lon":5.368562,"is_reserved":false,"is_disabled":false,"rental_uris":{"android":"levelo://app?vid=6d62df7d-1424-4269-96de-d92955ba9c4e","ios":"levelo://app?vid=6d62df7d-1424-4269-96de-d92955ba9c4e"},"vehicle_type_id":"4","last_reported":1706450693,"current_range_meters":29200,"station_id":"ce4bgl92rcd13ifvqbq0","pricing_plan_id":"free"},{"bike_id":"735165c4-64c4-4b08-bb51-409503b731c5","system_id":"levelo_inurba_marseille","lat":43.312239,"lon":5.368562,"is_reserved":false,"is_disabled":false,"rental_uris":{"android":"levelo://app?vid=735165c4-64c4-4b08-bb51-409503b731c5","ios":"levelo://app?vid=735165c4-64c4-4b08-bb51-409503b731c5"},"vehicle_type_id":"4","last_reported":1706450693,"current_range_meters":28000,"station_id":"ce4bgl92rcd13ifvqbq0","pricing_plan_id":"free"},{"bike_id":"133c3f9b-7455-4379-8366-1463f593cb7d","system_id":"levelo_inurba_marseille","lat":43.314811,"lon":5.373103,"is_reserved":false,"is_disabled":false,"rental_uris":{"android":"levelo://app?vid=133c3f9b-7455-4379-8366-1463f593cb7d","ios":"levelo://app?vid=133c3f9b-7455-4379-8366-1463f593cb7d"},"vehicle_type_id":"4","last_reported":1706450693,"current_range_meters":2400,"station_id":"ce4bgt12rcd13ifvqcd0","pricing_plan_id":"free"},{"bike_id":"1a3d829b-da0a-440e-bd77-4996fdba56bf","system_id":"levelo_inurba_marseille","lat":43.314811,"lon":5.373104,"is_reserved":false,"is_disabled":false,"rental_uris":{"android":"levelo://app?vid=1a3d829b-da0a-440e-bd77-4996fdba56bf","ios":"levelo://app?vid=1a3d829b-da0a-440e-bd77-4996fdba56bf"},"vehicle_type_id":"4","last_reported":1706450693,"current_range_meters":28000,"station_id":"ce4bgt12rcd13ifvqcd0","pricing_plan_id":"free"},{"bike_id":"9aafb85b-c374-4a91-8dd3-69f4cb388216","system_id":"levelo_inurba_marseille","lat":43.314811,"lon":5.373103,"is_reserved":false,"is_disabled":false,"rental_uris":{"android":"levelo://app?vid=9aafb85b-c374-4a91-8dd3-69f4cb388216","ios":"levelo://app?vid=9aafb85b-c374-4a91-8dd3-69f4cb388216"},"vehicle_type_id":"4","last_reported":1706450693,"current_range_meters":10400,"station_id":"ce4bgt12rcd13ifvqcd0","pricing_plan_id":"free"},{"bike_id":"0c879c7c-b478-4341-b557-d8fa9e7ce411","system_id":"levelo_inurba_marseille","lat":43.314811,"lon":5.373104,"is_reserved":false,"is_disabled":false,"rental_uris":{"android":"levelo://app?vid=0c879c7c-b478-4341-b557-d8fa9e7ce411","ios":"levelo://app?vid=0c879c7c-b478-4341-b557-d8fa9e7ce411"},"vehicle_type_id":"4","last_reported":1706450693,"current_range_meters":30800,"station_id":"ce4bgt12rcd13ifvqcd0","pricing_plan_id":"free"},{"bike_id":"c26d9d98-cd68-4a8a-a849-f715a3d4b2a6","system_id":"levelo_inurba_marseille","lat":43.314811,"lon":5.373104,"is_reserved":false,"is_disabled":false,"rental_uris":{"android":"levelo://app?vid=c26d9d98-cd68-4a8a-a849-f715a3d4b2a6","ios":"levelo://app?vid=c26d9d98-cd68-4a8a-a849-f715a3d4b2a6"},"vehicle_type_id":"4","last_reported":1706450693,"current_range_meters":0,"station_id":"ce4bgt12rcd13ifvqcd0","pricing_plan_id":"free"},{"bike_id":"e6e54046-fd09-4b74-892b-511869d6a791","system_id":"levelo_inurba_marseille","lat":43.314811,"lon":5.373104,"is_reserved":false,"is_disabled":false,"rental_uris":{"android":"levelo://app?vid=e6e54046-fd09-4b74-892b-511869d6a791","ios":"levelo://app?vid=e6e54046-fd09-4b74-892b-511869d6a791"},"vehicle_type_id":"4","last_reported":1706450693,"current_range_meters":25200,"station_id":"ce4bgt12rcd13ifvqcd0","pricing_plan_id":"free"},{"bike_id":"eca7a80f-655d-4c33-8615-296c2e0d6569","system_id":"levelo_inurba_marseille","lat":43.314811,"lon":5.373103,"is_reserved":false,"is_disabled":false,"rental_uris":{"android":"levelo://app?vid=eca7a80f-655d-4c33-8615-296c2e0d6569","ios":"levelo://app?vid=eca7a80f-655d-4c33-8615-296c2e0d6569"},"vehicle_type_id":"4","last_reported":1706450693,"current_range_meters":28800,"station_id":"ce4bgt12rcd13ifvqcd0","pricing_plan_id":"free"},{"bike_id":"50f8ed3c-5c4e-48ea-ae19-fdc8ad40b412","system_id":"levelo_inurba_marseille","lat":43.309039,"lon":5.371797,"is_reserved":false,"is_disabled":false,"rental_uris":{"android":"levelo://app?vid=50f8ed3c-5c4e-48ea-ae19-fdc8ad40b412","ios":"levelo://app?vid=50f8ed3c-5c4e-48ea-ae19-fdc8ad40b412"},"vehicle_type_id":"4","last_reported":1706450693,"current_range_meters":17600,"station_id":"ce4bguh2rcd13ifvqckg","pricing_plan_id":"free"},{"bike_id":"ab463a2a-a401-4447-8932-6ee2d753ca7c","system_id":"levelo_inurba_marseille","lat":43.309034,"lon":5.371783,"is_reserved":false,"is_disabled":false,"rental_uris":{"android":"levelo://app?vid=ab463a2a-a401-4447-8932-6ee2d753ca7c","ios":"levelo://app?vid=ab463a2a-a401-4447-8932-6ee2d753ca7c"},"vehicle_type_id":"4","last_reported":1706450693,"current_range_meters":25600,"station_id":"ce4bguh2rcd13ifvqckg","pricing_plan_id":"free"},{"bike_id":"fe6da1e3-fd66-4a72-ae9b-ae08eb908528","system_id":"levelo_inurba_marseille","lat":43.30555,"lon":5.36697,"is_reserved":false,"is_disabled":false,"rental_uris":{"android":"levelo://app?vid=fe6da1e3-fd66-4a72-ae9b-ae08eb908528","ios":"levelo://app?vid=fe6da1e3-fd66-4a72-ae9b-ae08eb908528"},"vehicle_type_id":"4","last_reported":1706450693,"current_range_meters":14800,"station_id":"ce4bgrp2rcd13ifvqc9g","pricing_plan_id":"free"},{"bike_id":"975835fb-15b5-4dc5-ba30-d6cee492d890","system_id":"levelo_inurba_marseille","lat":43.30553,"lon":5.36538,"is_reserved":false,"is_disabled":false,"rental_uris":{"android":"levelo://app?vid=975835fb-15b5-4dc5-ba30-d6cee492d890","ios":"levelo://app?vid=975835fb-15b5-4dc5-ba30-d6cee492d890"},"vehicle_type_id":"4","last_reported":1706450693,"current_range_meters":22800,"station_id":"ce4bgs12rcd13ifvqcag","pricing_plan_id":"free"},{"bike_id":"105498d5-f505-4770-8b74-36a4d9316066","system_id":"levelo_inurba_marseille","lat":43.305714,"lon":5.365633,"is_reserved":false,"is_disabled":false,"rental_uris":{"android":"levelo://app?vid=105498d5-f505-4770-8b74-36a4d9316066","ios":"levelo://app?vid=105498d5-f505-4770-8b74-36a4d9316066"},"vehicle_type_id":"4","last_reported":1706450693,"current_range_meters":6400,"station_id":"ce4bgs12rcd13ifvqcag","pricing_plan_id":"free"},{"bike_id":"95fdba65-afc9-47fe-af1f-4582801e87ad","system_id":"levelo_inurba_marseille","lat":43.305706,"lon":5.365654,"is_reserved":false,"is_disabled":false,"rental_uris":{"android":"levelo://app?vid=95fdba65-afc9-47fe-af1f-4582801e87ad","ios":"levelo://app?vid=95fdba65-afc9-47fe-af1f-4582801e87ad"},"vehicle_type_id":"4","last_reported":1706450693,"current_range_meters":20000,"station_id":"ce4bgs12rcd13ifvqcag","pricing_plan_id":"free"},{"bike_id":"4dbce1f5-73e5-4706-b317-bdbf2f603d15","system_id":"levelo_inurba_marseille","lat":43.305989,"lon":5.37225,"is_reserved":false,"is_disabled":false,"rental_uris":{"android":"levelo://app?vid=4dbce1f5-73e5-4706-b317-bdbf2f603d15","ios":"levelo://app?vid=4dbce1f5-73e5-4706-b317-bdbf2f603d15"},"vehicle_type_id":"4","last_reported":1706450693,"current_range_meters":25200,"station_id":"ce4bgqh2rcd13ifvqc4g","pricing_plan_id":"free"},{"bike_id":"a8dbff34-8926-49ba-afd0-eea44b4a0bde","system_id":"levelo_inurba_marseille","lat":43.305989,"lon":5.37225,"is_reserved":false,"is_disabled":false,"rental_uris":{"android":"levelo://app?vid=a8dbff34-8926-49ba-afd0-eea44b4a0bde","ios":"levelo://app?vid=a8dbff34-8926-49ba-afd0-eea44b4a0bde"},"vehicle_type_id":"4","last_reported":1706450693,"current_range_meters":19200,"station_id":"ce4bgqh2rcd13ifvqc4g","pricing_plan_id":"free"},{"bike_id":"f9a95911-3d3c-4470-a975-7971158cc078","system_id":"levelo_inurba_marseille","lat":43.30787,"lon":5.376458,"is_reserved":false,"is_disabled":false,"rental_uris":{"android":"levelo://app?vid=f9a95911-3d3c-4470-a975-7971158cc078","ios":"levelo://app?vid=f9a95911-3d3c-4470-a975-7971158cc078"},"vehicle_type_id":"4","last_reported":1706450693,"current_range_meters":19200,"station_id":"ce4bgv92rcd13ifvqcq0","pricing_plan_id":"free"},{"bike_id":"90ad4654-f915-4600-94e5-c535f500ee73","system_id":"levelo_inurba_marseille","lat":43.307945,"lon":5.376487,"is_reserved":false,"is_disabled":false,"rental_uris":{"android":"levelo://app?vid=90ad4654-f915-4600-94e5-c535f500ee73","ios":"levelo://app?vid=90ad4654-f915-4600-94e5-c535f500ee73"},"vehicle_type_id":"4","last_reported":1706450693,"current_range_meters":15200,"station_id":"ce4bgv92rcd13ifvqcq0","pricing_plan_id":"free"},{"bike_id":"07a14a18-5906-425b-843b-00c757a8b992","system_id":"levelo_inurba_marseille","lat":43.307945,"lon":5.376487,"is_reserved":false,"is_disabled":false,"rental_uris":{"android":"levelo://app?vid=07a14a18-5906-425b-843b-00c757a8b992","ios":"levelo://app?vid=07a14a18-5906-425b-843b-00c757a8b992"},"vehicle_type_id":"4","last_reported":1706450693,"current_range_meters":4800,"station_id":"ce4bgv92rcd13ifvqcq0","pricing_plan_id":"free"},{"bike_id":"f704be19-83f3-4523-bd93-a51fdddce688","system_id":"levelo_inurba_marseille","lat":43.307945,"lon":5.376487,"is_reserved":false,"is_disabled":false,"rental_uris":{"android":"levelo://app?vid=f704be19-83f3-4523-bd93-a51fdddce688","ios":"levelo://app?vid=f704be19-83f3-4523-bd93-a51fdddce688"},"vehicle_type_id":"4","last_reported":1706450693,"current_range_meters":28800,"station_id":"ce4bgv92rcd13ifvqcq0","pricing_plan_id":"free"},{"bike_id":"bf70306f-e475-47ca-8724-a7e42b25d923","system_id":"levelo_inurba_marseille","lat":43.317075,"lon":5.377367,"is_reserved":false,"is_disabled":false,"rental_uris":{"android":"levelo://app?vid=bf70306f-e475-47ca-8724-a7e42b25d923","ios":"levelo://app?vid=bf70306f-e475-47ca-8724-a7e42b25d923"},"vehicle_type_id":"4","last_reported":1706450693,"current_range_meters":30800,"station_id":"ce4bgth2rcd13ifvqch0","pricing_plan_id":"free"},{"bike_id":"6fff0b7d-2514-4e0c-a138-b6e9cb85be95","system_id":"levelo_inurba_marseille","lat":43.317075,"lon":5.377367,"is_reserved":false,"is_disabled":false,"rental_uris":{"android":"levelo://app?vid=6fff0b7d-2514-4e0c-a138-b6e9cb85be95","ios":"levelo://app?vid=6fff0b7d-2514-4e0c-a138-b6e9cb85be95"},"vehicle_type_id":"4","last_reported":1706450693,"current_range_meters":31200,"station_id":"ce4bgth2rcd13ifvqch0","pricing_plan_id":"free"},{"bike_id":"d0cfac42-19e8-43ad-9ffa-e16d59730091","system_id":"levelo_inurba_marseille","lat":43.30304,"lon":5.368987,"is_reserved":false,"is_disabled":false,"rental_uris":{"android":"levelo://app?vid=d0cfac42-19e8-43ad-9ffa-e16d59730091","ios":"levelo://app?vid=d0cfac42-19e8-43ad-9ffa-e16d59730091"},"vehicle_type_id":"4","last_reported":1706450693,"current_range_meters":21600,"station_id":"ce4bgqh2rcd13ifvqc5g","pricing_plan_id":"free"},{"bike_id":"b83daeb9-a39c-4884-86e2-16a37c651f7f","system_id":"levelo_inurba_marseille","lat":43.319994,"lon":5.376253,"is_reserved":false,"is_disabled":false,"rental_uris":{"android":"levelo://app?vid=b83daeb9-a39c-4884-86e2-16a37c651f7f","ios":"levelo://app?vid=b83daeb9-a39c-4884-86e2-16a37c651f7f"},"vehicle_type_id":"4","last_reported":1706450693,"current_range_meters":6000,"station_id":"","pricing_plan_id":"free"},{"bike_id":"e85fac75-cc6f-4196-a2cd-85179b4b7bcf","system_id":"levelo_inurba_marseille","lat":43.308012,"lon":5.381511,"is_reserved":false,"is_disabled":false,"rental_uris":{"android":"levelo://app?vid=e85fac75-cc6f-4196-a2cd-85179b4b7bcf","ios":"levelo://app?vid=e85fac75-cc6f-4196-a2cd-85179b4b7bcf"},"vehicle_type_id":"4","last_reported":1706450693,"current_range_meters":31200,"station_id":"ce4bgt12rcd13ifvqce0","pricing_plan_id":"free"},{"bike_id":"52a4fbf5-5232-4a05-ba60-113ff0b6c401","system_id":"levelo_inurba_marseille","lat":43.308012,"lon":5.381511,"is_reserved":false,"is_disabled":false,"rental_uris":{"android":"levelo://app?vid=52a4fbf5-5232-4a05-ba60-113ff0b6c401","ios":"levelo://app?vid=52a4fbf5-5232-4a05-ba60-113ff0b6c401"},"vehicle_type_id":"4","last_reported":1706450693,"current_range_meters":24000,"station_id":"ce4bgt12rcd13ifvqce0","pricing_plan_id":"free"},{"bike_id":"9dabc0af-5807-48d9-9d0f-396c4c76b370","system_id":"levelo_inurba_marseille","lat":43.304606,"lon":5.379026,"is_reserved":false,"is_disabled":false,"rental_uris":{"android":"levelo://app?vid=9dabc0af-5807-48d9-9d0f-396c4c76b370","ios":"levelo://app?vid=9dabc0af-5807-48d9-9d0f-396c4c76b370"},"vehicle_type_id":"4","last_reported":1706450693,"current_range_meters":26800,"station_id":"ce4bgup2rcd13ifvqcn0","pricing_plan_id":"free"},{"bike_id":"dc00bdf8-dc57-4b02-8d44-8ea4906debe3","system_id":"levelo_inurba_marseille","lat":43.324771,"lon":5.36557,"is_reserved":false,"is_disabled":false,"rental_uris":{"android":"levelo://app?vid=dc00bdf8-dc57-4b02-8d44-8ea4906debe3","ios":"levelo://app?vid=dc00bdf8-dc57-4b02-8d44-8ea4906debe3"},"vehicle_type_id":"4","last_reported":1706450693,"current_range_meters":17600,"station_id":"ce4bhs12rcd13ifvqhvg","pricing_plan_id":"free"},{"bike_id":"ae58da6c-e5c1-4345-9693-0ff2302c9a29","system_id":"levelo_inurba_marseille","lat":43.30451,"lon":5.37909,"is_reserved":false,"is_disabled":false,"rental_uris":{"android":"levelo://app?vid=ae58da6c-e5c1-4345-9693-0ff2302c9a29","ios":"levelo://app?vid=ae58da6c-e5c1-4345-9693-0ff2302c9a29"},"vehicle_type_id":"4","last_reported":1706450693,"current_range_meters":10000,"station_id":"ce4bgup2rcd13ifvqcn0","pricing_plan_id":"free"},{"bike_id":"d6848ef5-32bf-4a80-b9ba-ff178961e93c","system_id":"levelo_inurba_marseille","lat":43.30143,"lon":5.37413,"is_reserved":false,"is_disabled":false,"rental_uris":{"android":"levelo://app?vid=d6848ef5-32bf-4a80-b9ba-ff178961e93c","ios":"levelo://app?vid=d6848ef5-32bf-4a80-b9ba-ff178961e93c"},"vehicle_type_id":"4","last_reported":1706450693,"current_range_meters":26400,"station_id":"ce4bgs92rcd13ifvqcc0","pricing_plan_id":"free"},{"bike_id":"b741f5b9-9f0b-4227-a79f-5ad658b0a791","system_id":"levelo_inurba_marseille","lat":43.30143,"lon":5.37413,"is_reserved":false,"is_disabled":false,"rental_uris":{"android":"levelo://app?vid=b741f5b9-9f0b-4227-a79f-5ad658b0a791","ios":"levelo://app?vid=b741f5b9-9f0b-4227-a79f-5ad658b0a791"},"vehicle_type_id":"4","last_reported":1706450693,"current_range_meters":30800,"station_id":"ce4bgs92rcd13ifvqcc0","pricing_plan_id":"free"},{"bike_id":"053cb833-e11b-4a27-b8a1-bf009362de17","system_id":"levelo_inurba_marseille","lat":43.302784,"lon":5.377158,"is_reserved":false,"is_disabled":false,"rental_uris":{"android":"levelo://app?vid=053cb833-e11b-4a27-b8a1-bf009362de17","ios":"levelo://app?vid=053cb833-e11b-4a27-b8a1-bf009362de17"},"vehicle_type_id":"4","last_reported":1706450693,"current_range_meters":8000,"station_id":"ce4bguh2rcd13ifvqcj0","pricing_plan_id":"free"},{"bike_id":"ede1c460-5bfa-430e-8b6f-1886ddddb675","system_id":"levelo_inurba_marseille","lat":43.302784,"lon":5.377158,"is_reserved":false,"is_disabled":false,"rental_uris":{"android":"levelo://app?vid=ede1c460-5bfa-430e-8b6f-1886ddddb675","ios":"levelo://app?vid=ede1c460-5bfa-430e-8b6f-1886ddddb675"},"vehicle_type_id":"4","last_reported":1706450693,"current_range_meters":8800,"station_id":"ce4bguh2rcd13ifvqcj0","pricing_plan_id":"free"},{"bike_id":"862d09f5-91a2-4ddb-b18c-4a1646f1bfdf","system_id":"levelo_inurba_marseille","lat":43.299222,"lon":5.365554,"is_reserved":false,"is_disabled":false,"rental_uris":{"android":"levelo://app?vid=862d09f5-91a2-4ddb-b18c-4a1646f1bfdf","ios":"levelo://app?vid=862d09f5-91a2-4ddb-b18c-4a1646f1bfdf"},"vehicle_type_id":"4","last_reported":1706450693,"current_range_meters":18000,"station_id":"ce4bgm92rcd13ifvqbr0","pricing_plan_id":"free"},{"bike_id":"b17ff96d-40e4-4ae9-ba90-59d08c533691","system_id":"levelo_inurba_marseille","lat":43.305364,"lon":5.384119,"is_reserved":false,"is_disabled":false,"rental_uris":{"android":"levelo://app?vid=b17ff96d-40e4-4ae9-ba90-59d08c533691","ios":"levelo://app?vid=b17ff96d-40e4-4ae9-ba90-59d08c533691"},"vehicle_type_id":"4","last_reported":1706450693,"current_range_meters":6800,"station_id":"ce4bgg92rcd13ifvqb30","pricing_plan_id":"free"},{"bike_id":"a118026d-135a-4ae4-841c-1aaeb9417059","system_id":"levelo_inurba_marseille","lat":43.298433,"lon":5.362774,"is_reserved":false,"is_disabled":false,"rental_uris":{"android":"levelo://app?vid=a118026d-135a-4ae4-841c-1aaeb9417059","ios":"levelo://app?vid=a118026d-135a-4ae4-841c-1aaeb9417059"},"vehicle_type_id":"4","last_reported":1706450693,"current_range_meters":6400,"station_id":"ce4bgpp2rcd13ifvqc3g","pricing_plan_id":"free"},{"bike_id":"3bf9bc6f-34d6-40af-93a6-26f2a3fc397e","system_id":"levelo_inurba_marseille","lat":43.298433,"lon":5.362774,"is_reserved":false,"is_disabled":false,"rental_uris":{"android":"levelo://app?vid=3bf9bc6f-34d6-40af-93a6-26f2a3fc397e","ios":"levelo://app?vid=3bf9bc6f-34d6-40af-93a6-26f2a3fc397e"},"vehicle_type_id":"4","last_reported":1706450693,"current_range_meters":11200,"station_id":"ce4bgpp2rcd13ifvqc3g","pricing_plan_id":"free"},{"bike_id":"5ca51aec-54ed-473d-9ddd-42fa3ebc471a","system_id":"levelo_inurba_marseille","lat":43.298433,"lon":5.362774,"is_reserved":false,"is_disabled":false,"rental_uris":{"android":"levelo://app?vid=5ca51aec-54ed-473d-9ddd-42fa3ebc471a","ios":"levelo://app?vid=5ca51aec-54ed-473d-9ddd-42fa3ebc471a"},"vehicle_type_id":"4","last_reported":1706450693,"current_range_meters":9600,"station_id":"ce4bgpp2rcd13ifvqc3g","pricing_plan_id":"free"},{"bike_id":"69f11149-2799-486f-bb3b-74ca76b92b12","system_id":"levelo_inurba_marseille","lat":43.298433,"lon":5.362774,"is_reserved":false,"is_disabled":false,"rental_uris":{"android":"levelo://app?vid=69f11149-2799-486f-bb3b-74ca76b92b12","ios":"levelo://app?vid=69f11149-2799-486f-bb3b-74ca76b92b12"},"vehicle_type_id":"4","last_reported":1706450693,"current_range_meters":24000,"station_id":"ce4bgpp2rcd13ifvqc3g","pricing_plan_id":"free"},{"bike_id":"bfc3c32a-88e2-4b68-8f8e-2147c8fc8894","system_id":"levelo_inurba_marseille","lat":43.298433,"lon":5.362774,"is_reserved":false,"is_disabled":false,"rental_uris":{"android":"levelo://app?vid=bfc3c32a-88e2-4b68-8f8e-2147c8fc8894","ios":"levelo://app?vid=bfc3c32a-88e2-4b68-8f8e-2147c8fc8894"},"vehicle_type_id":"4","last_reported":1706450693,"current_range_meters":13200,"station_id":"ce4bgpp2rcd13ifvqc3g","pricing_plan_id":"free"},{"bike_id":"0c2f0c4d-67ab-447c-97d9-e06e64747839","system_id":"levelo_inurba_marseille","lat":43.322872,"lon":5.382756,"is_reserved":false,"is_disabled":false,"rental_uris":{"android":"levelo://app?vid=0c2f0c4d-67ab-447c-97d9-e06e64747839","ios":"levelo://app?vid=0c2f0c4d-67ab-447c-97d9-e06e64747839"},"vehicle_type_id":"4","last_reported":1706450693,"current_range_meters":24000,"station_id":"ce4bhr12rcd13ifvqhqg","pricing_plan_id":"free"},{"bike_id":"a3b74381-0d58-448f-9a1c-2f1261e3769d","system_id":"levelo_inurba_marseille","lat":43.322872,"lon":5.382756,"is_reserved":false,"is_disabled":false,"rental_uris":{"android":"levelo://app?vid=a3b74381-0d58-448f-9a1c-2f1261e3769d","ios":"levelo://app?vid=a3b74381-0d58-448f-9a1c-2f1261e3769d"},"vehicle_type_id":"4","last_reported":1706450693,"current_range_meters":31200,"station_id":"ce4bhr12rcd13ifvqhqg","pricing_plan_id":"free"},{"bike_id":"e1539f0d-02e3-46ca-8fd2-b115fd55a782","system_id":"levelo_inurba_marseille","lat":43.322872,"lon":5.382756,"is_reserved":false,"is_disabled":false,"rental_uris":{"android":"levelo://app?vid=e1539f0d-02e3-46ca-8fd2-b115fd55a782","ios":"levelo://app?vid=e1539f0d-02e3-46ca-8fd2-b115fd55a782"},"vehicle_type_id":"4","last_reported":1706450693,"current_range_meters":24400,"station_id":"ce4bhr12rcd13ifvqhqg","pricing_plan_id":"free"},{"bike_id":"29681540-ea76-4bd8-9b98-4da22d2bca06","system_id":"levelo_inurba_marseille","lat":43.322872,"lon":5.382756,"is_reserved":false,"is_disabled":false,"rental_uris":{"android":"levelo://app?vid=29681540-ea76-4bd8-9b98-4da22d2bca06","ios":"levelo://app?vid=29681540-ea76-4bd8-9b98-4da22d2bca06"},"vehicle_type_id":"4","last_reported":1706450693,"current_range_meters":19600,"station_id":"ce4bhr12rcd13ifvqhqg","pricing_plan_id":"free"},{"bike_id":"1e3dac1e-79bb-416e-9a25-92222494a4ee","system_id":"levelo_inurba_marseille","lat":43.328371,"lon":5.366912,"is_reserved":false,"is_disabled":false,"rental_uris":{"android":"levelo://app?vid=1e3dac1e-79bb-416e-9a25-92222494a4ee","ios":"levelo://app?vid=1e3dac1e-79bb-416e-9a25-92222494a4ee"},"vehicle_type_id":"4","last_reported":1706450693,"current_range_meters":18000,"station_id":"ce4bhs92rcd13ifvqi0g","pricing_plan_id":"free"},{"bike_id":"0f7b98a3-6434-4866-adac-ccd99f91e009","system_id":"levelo_inurba_marseille","lat":43.32826,"lon":5.36686,"is_reserved":false,"is_disabled":false,"rental_uris":{"android":"levelo://app?vid=0f7b98a3-6434-4866-adac-ccd99f91e009","ios":"levelo://app?vid=0f7b98a3-6434-4866-adac-ccd99f91e009"},"vehicle_type_id":"4","last_reported":1706450693,"current_range_meters":0,"station_id":"ce4bhs92rcd13ifvqi0g","pricing_plan_id":"free"},{"bike_id":"e46bb925-481b-445c-8790-e0bc35914cef","system_id":"levelo_inurba_marseille","lat":43.32828,"lon":5.36674,"is_reserved":false,"is_disabled":false,"rental_uris":{"android":"levelo://app?vid=e46bb925-481b-445c-8790-e0bc35914cef","ios":"levelo://app?vid=e46bb925-481b-445c-8790-e0bc35914cef"},"vehicle_type_id":"4","last_reported":1706450693,"current_range_meters":22400,"station_id":"ce4bhs92rcd13ifvqi0g","pricing_plan_id":"free"},{"bike_id":"12edd8fe-ac42-424b-86a0-ddbc64b4f114","system_id":"levelo_inurba_marseille","lat":43.328371,"lon":5.366909,"is_reserved":false,"is_disabled":false,"rental_uris":{"android":"levelo://app?vid=12edd8fe-ac42-424b-86a0-ddbc64b4f114","ios":"levelo://app?vid=12edd8fe-ac42-424b-86a0-ddbc64b4f114"},"vehicle_type_id":"4","last_reported":1706450693,"current_range_meters":13600,"station_id":"ce4bhs92rcd13ifvqi0g","pricing_plan_id":"free"},{"bike_id":"af1c8fc0-8183-4d68-848c-9159b1d2bf45","system_id":"levelo_inurba_marseille","lat":43.328371,"lon":5.366909,"is_reserved":false,"is_disabled":false,"rental_uris":{"android":"levelo://app?vid=af1c8fc0-8183-4d68-848c-9159b1d2bf45","ios":"levelo://app?vid=af1c8fc0-8183-4d68-848c-9159b1d2bf45"},"vehicle_type_id":"4","last_reported":1706450693,"current_range_meters":10000,"station_id":"ce4bhs92rcd13ifvqi0g","pricing_plan_id":"free"},{"bike_id":"1c92a68f-dd19-40cd-a344-b9886f7050a4","system_id":"levelo_inurba_marseille","lat":43.32832,"lon":5.36677,"is_reserved":false,"is_disabled":false,"rental_uris":{"android":"levelo://app?vid=1c92a68f-dd19-40cd-a344-b9886f7050a4","ios":"levelo://app?vid=1c92a68f-dd19-40cd-a344-b9886f7050a4"},"vehicle_type_id":"4","last_reported":1706450693,"current_range_meters":26800,"station_id":"ce4bhs92rcd13ifvqi0g","pricing_plan_id":"free"},{"bike_id":"276a073c-0c6b-4bdb-a25e-2ec5fef4adcb","system_id":"levelo_inurba_marseille","lat":43.32843,"lon":5.37513,"is_reserved":false,"is_disabled":false,"rental_uris":{"android":"levelo://app?vid=276a073c-0c6b-4bdb-a25e-2ec5fef4adcb","ios":"levelo://app?vid=276a073c-0c6b-4bdb-a25e-2ec5fef4adcb"},"vehicle_type_id":"4","last_reported":1706450693,"current_range_meters":28000,"station_id":"","pricing_plan_id":"free"},{"bike_id":"76640b9a-7199-4b88-892c-478a6adcd0ee","system_id":"levelo_inurba_marseille","lat":43.309589,"lon":5.390258,"is_reserved":false,"is_disabled":false,"rental_uris":{"android":"levelo://app?vid=76640b9a-7199-4b88-892c-478a6adcd0ee","ios":"levelo://app?vid=76640b9a-7199-4b88-892c-478a6adcd0ee"},"vehicle_type_id":"4","last_reported":1706450693,"current_range_meters":6800,"station_id":"ce4bgup2rcd13ifvqco0","pricing_plan_id":"free"},{"bike_id":"af3b809f-a562-45d1-923f-898b1bd99001","system_id":"levelo_inurba_marseille","lat":43.317557,"lon":5.390173,"is_reserved":false,"is_disabled":false,"rental_uris":{"android":"levelo://app?vid=af3b809f-a562-45d1-923f-898b1bd99001","ios":"levelo://app?vid=af3b809f-a562-45d1-923f-898b1bd99001"},"vehicle_type_id":"4","last_reported":1706450693,"current_range_meters":27200,"station_id":"ce4bhqp2rcd13ifvqhng","pricing_plan_id":"free"},{"bike_id":"84765d62-6690-4dbc-98cf-c055fdf3b0c7","system_id":"levelo_inurba_marseille","lat":43.304274,"lon":5.388873,"is_reserved":false,"is_disabled":false,"rental_uris":{"android":"levelo://app?vid=84765d62-6690-4dbc-98cf-c055fdf3b0c7","ios":"levelo://app?vid=84765d62-6690-4dbc-98cf-c055fdf3b0c7"},"vehicle_type_id":"4","last_reported":1706450693,"current_range_meters":2800,"station_id":"ce4bgk12rcd13ifvqbi0","pricing_plan_id":"free"},{"bike_id":"48836917-e91d-4bda-a6e6-707c304f92e0","system_id":"levelo_inurba_marseille","lat":43.299717,"lon":5.384845,"is_reserved":false,"is_disabled":false,"rental_uris":{"android":"levelo://app?vid=48836917-e91d-4bda-a6e6-707c304f92e0","ios":"levelo://app?vid=48836917-e91d-4bda-a6e6-707c304f92e0"},"vehicle_type_id":"4","last_reported":1706450693,"current_range_meters":18400,"station_id":"ce4bgj92rcd13ifvqbd0","pricing_plan_id":"free"},{"bike_id":"ec7de5c0-0955-40b3-b10f-6cb91164c6d1","system_id":"levelo_inurba_marseille","lat":43.299724,"lon":5.384848,"is_reserved":false,"is_disabled":false,"rental_uris":{"android":"levelo://app?vid=ec7de5c0-0955-40b3-b10f-6cb91164c6d1","ios":"levelo://app?vid=ec7de5c0-0955-40b3-b10f-6cb91164c6d1"},"vehicle_type_id":"4","last_reported":1706450693,"current_range_meters":25200,"station_id":"ce4bgj92rcd13ifvqbd0","pricing_plan_id":"free"},{"bike_id":"57dc5b8c-319d-417b-b44e-edce063d7c1a","system_id":"levelo_inurba_marseille","lat":43.32367,"lon":5.388836,"is_reserved":false,"is_disabled":false,"rental_uris":{"android":"levelo://app?vid=57dc5b8c-319d-417b-b44e-edce063d7c1a","ios":"levelo://app?vid=57dc5b8c-319d-417b-b44e-edce063d7c1a"},"vehicle_type_id":"4","last_reported":1706450693,"current_range_meters":7200,"station_id":"ce4bhqp2rcd13ifvqhog","pricing_plan_id":"free"},{"bike_id":"311f2bb5-da85-44fc-915b-153e21fa0c75","system_id":"levelo_inurba_marseille","lat":43.32368,"lon":5.38883,"is_reserved":false,"is_disabled":false,"rental_uris":{"android":"levelo://app?vid=311f2bb5-da85-44fc-915b-153e21fa0c75","ios":"levelo://app?vid=311f2bb5-da85-44fc-915b-153e21fa0c75"},"vehicle_type_id":"4","last_reported":1706450693,"current_range_meters":0,"station_id":"ce4bhqp2rcd13ifvqhog","pricing_plan_id":"free"},{"bike_id":"8a33758a-88df-484d-be96-917dfb2f5d96","system_id":"levelo_inurba_marseille","lat":43.323675,"lon":5.3889,"is_reserved":false,"is_disabled":false,"rental_uris":{"android":"levelo://app?vid=8a33758a-88df-484d-be96-917dfb2f5d96","ios":"levelo://app?vid=8a33758a-88df-484d-be96-917dfb2f5d96"},"vehicle_type_id":"4","last_reported":1706450693,"current_range_meters":22000,"station_id":"ce4bhqp2rcd13ifvqhog","pricing_plan_id":"free"},{"bike_id":"433a68e3-2f0b-4549-afb8-0f077800e166","system_id":"levelo_inurba_marseille","lat":43.292749,"lon":5.368402,"is_reserved":false,"is_disabled":false,"rental_uris":{"android":"levelo://app?vid=433a68e3-2f0b-4549-afb8-0f077800e166","ios":"levelo://app?vid=433a68e3-2f0b-4549-afb8-0f077800e166"},"vehicle_type_id":"4","last_reported":1706450693,"current_range_meters":0,"station_id":"ce4bhbp2rcd13ifvqesg","pricing_plan_id":"free"},{"bike_id":"37f4f7e3-bb85-4f53-8886-452759cccbb5","system_id":"levelo_inurba_marseille","lat":43.29268,"lon":5.36853,"is_reserved":false,"is_disabled":false,"rental_uris":{"android":"levelo://app?vid=37f4f7e3-bb85-4f53-8886-452759cccbb5","ios":"levelo://app?vid=37f4f7e3-bb85-4f53-8886-452759cccbb5"},"vehicle_type_id":"4","last_reported":1706450693,"current_range_meters":0,"station_id":"ce4bhbp2rcd13ifvqesg","pricing_plan_id":"free"},{"bike_id":"718a8ec6-49ac-43f9-b2c2-e20105c5bccd","system_id":"levelo_inurba_marseille","lat":43.303002,"lon":5.392142,"is_reserved":false,"is_disabled":false,"rental_uris":{"android":"levelo://app?vid=718a8ec6-49ac-43f9-b2c2-e20105c5bccd","ios":"levelo://app?vid=718a8ec6-49ac-43f9-b2c2-e20105c5bccd"},"vehicle_type_id":"4","last_reported":1706450693,"current_range_meters":30400,"station_id":"ce4bgkh2rcd13ifvqbk0","pricing_plan_id":"free"},{"bike_id":"6ce0f8da-3ba9-4809-92e9-391015fea9f5","system_id":"levelo_inurba_marseille","lat":43.292311,"lon":5.360731,"is_reserved":false,"is_disabled":false,"rental_uris":{"android":"levelo://app?vid=6ce0f8da-3ba9-4809-92e9-391015fea9f5","ios":"levelo://app?vid=6ce0f8da-3ba9-4809-92e9-391015fea9f5"},"vehicle_type_id":"4","last_reported":1706450693,"current_range_meters":9200,"station_id":"ce4bhbh2rcd13ifvqeqg","pricing_plan_id":"free"},{"bike_id":"32fe8802-eac2-40c2-9275-c56d78ae61ec","system_id":"levelo_inurba_marseille","lat":43.292157,"lon":5.360453,"is_reserved":false,"is_disabled":false,"rental_uris":{"android":"levelo://app?vid=32fe8802-eac2-40c2-9275-c56d78ae61ec","ios":"levelo://app?vid=32fe8802-eac2-40c2-9275-c56d78ae61ec"},"vehicle_type_id":"4","last_reported":1706450693,"current_range_meters":24800,"station_id":"ce4bhbh2rcd13ifvqeqg","pricing_plan_id":"free"},{"bike_id":"17e6cf96-9f90-492b-a275-2599d613166e","system_id":"levelo_inurba_marseille","lat":43.291671,"lon":5.371575,"is_reserved":false,"is_disabled":false,"rental_uris":{"android":"levelo://app?vid=17e6cf96-9f90-492b-a275-2599d613166e","ios":"levelo://app?vid=17e6cf96-9f90-492b-a275-2599d613166e"},"vehicle_type_id":"4","last_reported":1706450693,"current_range_meters":13600,"station_id":"ce4bha92rcd13ifvqeh0","pricing_plan_id":"free"},{"bike_id":"6d676313-dd3b-40c9-bea8-c0c8701539fa","system_id":"levelo_inurba_marseille","lat":43.291994,"lon":5.357886,"is_reserved":false,"is_disabled":false,"rental_uris":{"android":"levelo://app?vid=6d676313-dd3b-40c9-bea8-c0c8701539fa","ios":"levelo://app?vid=6d676313-dd3b-40c9-bea8-c0c8701539fa"},"vehicle_type_id":"4","last_reported":1706450693,"current_range_meters":0,"station_id":"ce4bhb12rcd13ifvqel0","pricing_plan_id":"free"},{"bike_id":"187e8dd7-03c6-425d-b2f0-8a658f9a4ed5","system_id":"levelo_inurba_marseille","lat":43.313291,"lon":5.396838,"is_reserved":false,"is_disabled":false,"rental_uris":{"android":"levelo://app?vid=187e8dd7-03c6-425d-b2f0-8a658f9a4ed5","ios":"levelo://app?vid=187e8dd7-03c6-425d-b2f0-8a658f9a4ed5"},"vehicle_type_id":"4","last_reported":1706450693,"current_range_meters":24800,"station_id":"ce4bgvp2rcd13ifvqcu0","pricing_plan_id":"free"},{"bike_id":"b98001d8-3bd5-40bf-915b-108c42c4f1c8","system_id":"levelo_inurba_marseille","lat":43.313291,"lon":5.396838,"is_reserved":false,"is_disabled":false,"rental_uris":{"android":"levelo://app?vid=b98001d8-3bd5-40bf-915b-108c42c4f1c8","ios":"levelo://app?vid=b98001d8-3bd5-40bf-915b-108c42c4f1c8"},"vehicle_type_id":"4","last_reported":1706450693,"current_range_meters":26800,"station_id":"ce4bgvp2rcd13ifvqcu0","pricing_plan_id":"free"},{"bike_id":"67253f71-9665-4dc2-ab94-5c325474a646","system_id":"levelo_inurba_marseille","lat":43.290779,"lon":5.371482,"is_reserved":false,"is_disabled":false,"rental_uris":{"android":"levelo://app?vid=67253f71-9665-4dc2-ab94-5c325474a646","ios":"levelo://app?vid=67253f71-9665-4dc2-ab94-5c325474a646"},"vehicle_type_id":"4","last_reported":1706450693,"current_range_meters":25200,"station_id":"ce4bh5p2rcd13ifvqe4g","pricing_plan_id":"free"},{"bike_id":"ae9a4ab6-d7e4-4647-9f3b-67091ffacc6c","system_id":"levelo_inurba_marseille","lat":43.294153,"lon":5.386305,"is_reserved":false,"is_disabled":false,"rental_uris":{"android":"levelo://app?vid=ae9a4ab6-d7e4-4647-9f3b-67091ffacc6c","ios":"levelo://app?vid=ae9a4ab6-d7e4-4647-9f3b-67091ffacc6c"},"vehicle_type_id":"4","last_reported":1706450693,"current_range_meters":0,"station_id":"ce4bh2h2rcd13ifvqdh0","pricing_plan_id":"free"},{"bike_id":"e3d5677c-45db-440f-a40a-c2ea5c6d60fa","system_id":"levelo_inurba_marseille","lat":43.290327,"lon":5.375711,"is_reserved":false,"is_disabled":false,"rental_uris":{"android":"levelo://app?vid=e3d5677c-45db-440f-a40a-c2ea5c6d60fa","ios":"levelo://app?vid=e3d5677c-45db-440f-a40a-c2ea5c6d60fa"},"vehicle_type_id":"4","last_reported":1706450693,"current_range_meters":20000,"station_id":"ce4bh692rcd13ifvqe90","pricing_plan_id":"free"},{"bike_id":"2b71109d-69d4-4f25-a9ea-faf824d2ddb4","system_id":"levelo_inurba_marseille","lat":43.29008,"lon":5.35609,"is_reserved":false,"is_disabled":false,"rental_uris":{"android":"levelo://app?vid=2b71109d-69d4-4f25-a9ea-faf824d2ddb4","ios":"levelo://app?vid=2b71109d-69d4-4f25-a9ea-faf824d2ddb4"},"vehicle_type_id":"4","last_reported":1706450693,"current_range_meters":29600,"station_id":"ce4bhb92rcd13ifvqen0","pricing_plan_id":"free"},{"bike_id":"eab4f264-004a-474d-8139-7a7de8088804","system_id":"levelo_inurba_marseille","lat":43.290104,"lon":5.356111,"is_reserved":false,"is_disabled":false,"rental_uris":{"android":"levelo://app?vid=eab4f264-004a-474d-8139-7a7de8088804","ios":"levelo://app?vid=eab4f264-004a-474d-8139-7a7de8088804"},"vehicle_type_id":"4","last_reported":1706450693,"current_range_meters":8800,"station_id":"ce4bhb92rcd13ifvqen0","pricing_plan_id":"free"},{"bike_id":"321059ca-8470-4e9f-bf28-1dee634c9f12","system_id":"levelo_inurba_marseille","lat":43.29006,"lon":5.35606,"is_reserved":false,"is_disabled":false,"rental_uris":{"android":"levelo://app?vid=321059ca-8470-4e9f-bf28-1dee634c9f12","ios":"levelo://app?vid=321059ca-8470-4e9f-bf28-1dee634c9f12"},"vehicle_type_id":"4","last_reported":1706450693,"current_range_meters":27600,"station_id":"ce4bhb92rcd13ifvqen0","pricing_plan_id":"free"},{"bike_id":"733c159d-98cf-43a3-b8b9-5a5b9f47afdd","system_id":"levelo_inurba_marseille","lat":43.295169,"lon":5.390426,"is_reserved":false,"is_disabled":false,"rental_uris":{"android":"levelo://app?vid=733c159d-98cf-43a3-b8b9-5a5b9f47afdd","ios":"levelo://app?vid=733c159d-98cf-43a3-b8b9-5a5b9f47afdd"},"vehicle_type_id":"4","last_reported":1706450693,"current_range_meters":10000,"station_id":"ce4bh3p2rcd13ifvqdp0","pricing_plan_id":"free"},{"bike_id":"481dad6f-9967-4f6f-97c2-139abd002c75","system_id":"levelo_inurba_marseille","lat":43.330442,"lon":5.389148,"is_reserved":false,"is_disabled":false,"rental_uris":{"android":"levelo://app?vid=481dad6f-9967-4f6f-97c2-139abd002c75","ios":"levelo://app?vid=481dad6f-9967-4f6f-97c2-139abd002c75"},"vehicle_type_id":"4","last_reported":1706450693,"current_range_meters":1600,"station_id":"ce4bhr92rcd13ifvqhrg","pricing_plan_id":"free"},{"bike_id":"8aaa63a1-7000-4ce6-9fd1-3442aadb46eb","system_id":"levelo_inurba_marseille","lat":43.295169,"lon":5.390426,"is_reserved":false,"is_disabled":false,"rental_uris":{"android":"levelo://app?vid=8aaa63a1-7000-4ce6-9fd1-3442aadb46eb","ios":"levelo://app?vid=8aaa63a1-7000-4ce6-9fd1-3442aadb46eb"},"vehicle_type_id":"4","last_reported":1706450693,"current_range_meters":1200,"station_id":"ce4bh3p2rcd13ifvqdp0","pricing_plan_id":"free"},{"bike_id":"6629075f-ac44-4fcd-a171-a822a6a68c9c","system_id":"levelo_inurba_marseille","lat":43.312609,"lon":5.401662,"is_reserved":false,"is_disabled":false,"rental_uris":{"android":"levelo://app?vid=6629075f-ac44-4fcd-a171-a822a6a68c9c","ios":"levelo://app?vid=6629075f-ac44-4fcd-a171-a822a6a68c9c"},"vehicle_type_id":"4","last_reported":1706450693,"current_range_meters":4400,"station_id":"ce4bh092rcd13ifvqd30","pricing_plan_id":"free"},{"bike_id":"db446cf8-e2f9-4c92-bdb8-02c05f8334d7","system_id":"levelo_inurba_marseille","lat":43.312609,"lon":5.401662,"is_reserved":false,"is_disabled":false,"rental_uris":{"android":"levelo://app?vid=db446cf8-e2f9-4c92-bdb8-02c05f8334d7","ios":"levelo://app?vid=db446cf8-e2f9-4c92-bdb8-02c05f8334d7"},"vehicle_type_id":"4","last_reported":1706450693,"current_range_meters":25600,"station_id":"ce4bh092rcd13ifvqd30","pricing_plan_id":"free"},{"bike_id":"acc80e8f-9341-4b70-9af2-fde0a95accd4","system_id":"levelo_inurba_marseille","lat":43.309371,"lon":5.401449,"is_reserved":false,"is_disabled":false,"rental_uris":{"android":"levelo://app?vid=acc80e8f-9341-4b70-9af2-fde0a95accd4","ios":"levelo://app?vid=acc80e8f-9341-4b70-9af2-fde0a95accd4"},"vehicle_type_id":"4","last_reported":1706450693,"current_range_meters":22000,"station_id":"ce4bgvp2rcd13ifvqct0","pricing_plan_id":"free"},{"bike_id":"0f2c1b5b-2255-427d-8e1c-a2e4920df7dd","system_id":"levelo_inurba_marseille","lat":43.337474,"lon":5.374446,"is_reserved":false,"is_disabled":false,"rental_uris":{"android":"levelo://app?vid=0f2c1b5b-2255-427d-8e1c-a2e4920df7dd","ios":"levelo://app?vid=0f2c1b5b-2255-427d-8e1c-a2e4920df7dd"},"vehicle_type_id":"4","last_reported":1706450693,"current_range_meters":26800,"station_id":"","pricing_plan_id":"free"},{"bike_id":"25426a14-0213-4e16-9b03-be7b9eb551a5","system_id":"levelo_inurba_marseille","lat":43.33748,"lon":5.37443,"is_reserved":false,"is_disabled":false,"rental_uris":{"android":"levelo://app?vid=25426a14-0213-4e16-9b03-be7b9eb551a5","ios":"levelo://app?vid=25426a14-0213-4e16-9b03-be7b9eb551a5"},"vehicle_type_id":"4","last_reported":1706450693,"current_range_meters":32000,"station_id":"","pricing_plan_id":"free"},{"bike_id":"fb45b453-54a4-4a89-9584-0edc83f13748","system_id":"levelo_inurba_marseille","lat":43.30934,"lon":5.40145,"is_reserved":false,"is_disabled":false,"rental_uris":{"android":"levelo://app?vid=fb45b453-54a4-4a89-9584-0edc83f13748","ios":"levelo://app?vid=fb45b453-54a4-4a89-9584-0edc83f13748"},"vehicle_type_id":"4","last_reported":1706450693,"current_range_meters":6400,"station_id":"ce4bgvp2rcd13ifvqct0","pricing_plan_id":"free"},{"bike_id":"d113985a-72a1-467b-89bc-8849c4b413e3","system_id":"levelo_inurba_marseille","lat":43.309371,"lon":5.401449,"is_reserved":false,"is_disabled":false,"rental_uris":{"android":"levelo://app?vid=d113985a-72a1-467b-89bc-8849c4b413e3","ios":"levelo://app?vid=d113985a-72a1-467b-89bc-8849c4b413e3"},"vehicle_type_id":"4","last_reported":1706450693,"current_range_meters":19200,"station_id":"ce4bgvp2rcd13ifvqct0","pricing_plan_id":"free"},{"bike_id":"a563cdbf-78b8-441c-8dce-8da1c3325b92","system_id":"levelo_inurba_marseille","lat":43.337481,"lon":5.374566,"is_reserved":false,"is_disabled":false,"rental_uris":{"android":"levelo://app?vid=a563cdbf-78b8-441c-8dce-8da1c3325b92","ios":"levelo://app?vid=a563cdbf-78b8-441c-8dce-8da1c3325b92"},"vehicle_type_id":"4","last_reported":1706450693,"current_range_meters":20000,"station_id":"","pricing_plan_id":"free"},{"bike_id":"be789c11-86a9-4b74-9d6b-86313fcd875f","system_id":"levelo_inurba_marseille","lat":43.3093,"lon":5.40146,"is_reserved":false,"is_disabled":false,"rental_uris":{"android":"levelo://app?vid=be789c11-86a9-4b74-9d6b-86313fcd875f","ios":"levelo://app?vid=be789c11-86a9-4b74-9d6b-86313fcd875f"},"vehicle_type_id":"4","last_reported":1706450693,"current_range_meters":23200,"station_id":"ce4bgvp2rcd13ifvqct0","pricing_plan_id":"free"},{"bike_id":"b7f12eab-e0a6-499e-87ec-2b4381c4602a","system_id":"levelo_inurba_marseille","lat":43.337514,"lon":5.374594,"is_reserved":false,"is_disabled":false,"rental_uris":{"android":"levelo://app?vid=b7f12eab-e0a6-499e-87ec-2b4381c4602a","ios":"levelo://app?vid=b7f12eab-e0a6-499e-87ec-2b4381c4602a"},"vehicle_type_id":"4","last_reported":1706450693,"current_range_meters":24000,"station_id":"","pricing_plan_id":"free"},{"bike_id":"780115cc-2008-422a-85d2-96336ed829b3","system_id":"levelo_inurba_marseille","lat":43.309555,"lon":5.401565,"is_reserved":false,"is_disabled":false,"rental_uris":{"android":"levelo://app?vid=780115cc-2008-422a-85d2-96336ed829b3","ios":"levelo://app?vid=780115cc-2008-422a-85d2-96336ed829b3"},"vehicle_type_id":"4","last_reported":1706450693,"current_range_meters":800,"station_id":"ce4bgvp2rcd13ifvqct0","pricing_plan_id":"free"},{"bike_id":"c99f518e-1025-4b11-b00f-819e0b25a9e5","system_id":"levelo_inurba_marseille","lat":43.306412,"lon":5.401035,"is_reserved":false,"is_disabled":false,"rental_uris":{"android":"levelo://app?vid=c99f518e-1025-4b11-b00f-819e0b25a9e5","ios":"levelo://app?vid=c99f518e-1025-4b11-b00f-819e0b25a9e5"},"vehicle_type_id":"4","last_reported":1706450693,"current_range_meters":22400,"station_id":"ce4bh112rcd13ifvqda0","pricing_plan_id":"free"},{"bike_id":"b95109db-ea13-42a4-9a3b-190bc80af99b","system_id":"levelo_inurba_marseille","lat":43.301117,"lon":5.398795,"is_reserved":false,"is_disabled":false,"rental_uris":{"android":"levelo://app?vid=b95109db-ea13-42a4-9a3b-190bc80af99b","ios":"levelo://app?vid=b95109db-ea13-42a4-9a3b-190bc80af99b"},"vehicle_type_id":"4","last_reported":1706450693,"current_range_meters":3600,"station_id":"ce4bh0h2rcd13ifvqd40","pricing_plan_id":"free"},{"bike_id":"2fe24097-b1c2-4583-ba1f-cf8501171a4c","system_id":"levelo_inurba_marseille","lat":43.33756,"lon":5.37487,"is_reserved":false,"is_disabled":false,"rental_uris":{"android":"levelo://app?vid=2fe24097-b1c2-4583-ba1f-cf8501171a4c","ios":"levelo://app?vid=2fe24097-b1c2-4583-ba1f-cf8501171a4c"},"vehicle_type_id":"4","last_reported":1706450693,"current_range_meters":11600,"station_id":"","pricing_plan_id":"free"},{"bike_id":"ce5cd671-7274-4c76-9ee7-e22a8ce37c17","system_id":"levelo_inurba_marseille","lat":43.337621,"lon":5.374534,"is_reserved":false,"is_disabled":false,"rental_uris":{"android":"levelo://app?vid=ce5cd671-7274-4c76-9ee7-e22a8ce37c17","ios":"levelo://app?vid=ce5cd671-7274-4c76-9ee7-e22a8ce37c17"},"vehicle_type_id":"4","last_reported":1706450693,"current_range_meters":28400,"station_id":"","pricing_plan_id":"free"},{"bike_id":"b7d3b81d-d85a-44b5-a0c7-8f9c9f74639e","system_id":"levelo_inurba_marseille","lat":43.33765,"lon":5.374672,"is_reserved":false,"is_disabled":false,"rental_uris":{"android":"levelo://app?vid=b7d3b81d-d85a-44b5-a0c7-8f9c9f74639e","ios":"levelo://app?vid=b7d3b81d-d85a-44b5-a0c7-8f9c9f74639e"},"vehicle_type_id":"4","last_reported":1706450693,"current_range_meters":26800,"station_id":"","pricing_plan_id":"free"},{"bike_id":"1facbbf3-baac-42f8-85eb-cb1e36f3e4b9","system_id":"levelo_inurba_marseille","lat":43.33762,"lon":5.374882,"is_reserved":false,"is_disabled":false,"rental_uris":{"android":"levelo://app?vid=1facbbf3-baac-42f8-85eb-cb1e36f3e4b9","ios":"levelo://app?vid=1facbbf3-baac-42f8-85eb-cb1e36f3e4b9"},"vehicle_type_id":"4","last_reported":1706450693,"current_range_meters":14000,"station_id":"","pricing_plan_id":"free"},{"bike_id":"43baca94-f3f2-439e-bcd4-77847183f584","system_id":"levelo_inurba_marseille","lat":43.286921,"lon":5.37467,"is_reserved":false,"is_disabled":false,"rental_uris":{"android":"levelo://app?vid=43baca94-f3f2-439e-bcd4-77847183f584","ios":"levelo://app?vid=43baca94-f3f2-439e-bcd4-77847183f584"},"vehicle_type_id":"4","last_reported":1706450693,"current_range_meters":27200,"station_id":"","pricing_plan_id":"free"},{"bike_id":"183bb1c1-398f-466c-b05d-327ac4efc436","system_id":"levelo_inurba_marseille","lat":43.302511,"lon":5.400653,"is_reserved":false,"is_disabled":false,"rental_uris":{"android":"levelo://app?vid=183bb1c1-398f-466c-b05d-327ac4efc436","ios":"levelo://app?vid=183bb1c1-398f-466c-b05d-327ac4efc436"},"vehicle_type_id":"4","last_reported":1706450693,"current_range_meters":10800,"station_id":"ce4bgth2rcd13ifvqch0","pricing_plan_id":"free"},{"bike_id":"38538879-0547-40e5-b9ad-1f8774883315","system_id":"levelo_inurba_marseille","lat":43.28619,"lon":5.35112,"is_reserved":false,"is_disabled":false,"rental_uris":{"android":"levelo://app?vid=38538879-0547-40e5-b9ad-1f8774883315","ios":"levelo://app?vid=38538879-0547-40e5-b9ad-1f8774883315"},"vehicle_type_id":"4","last_reported":1706450693,"current_range_meters":23200,"station_id":"ce4bhch2rcd13ifvqeug","pricing_plan_id":"free"},{"bike_id":"a10a92df-6321-46ba-98da-b8ea0e5a0c11","system_id":"levelo_inurba_marseille","lat":43.28617,"lon":5.35106,"is_reserved":false,"is_disabled":false,"rental_uris":{"android":"levelo://app?vid=a10a92df-6321-46ba-98da-b8ea0e5a0c11","ios":"levelo://app?vid=a10a92df-6321-46ba-98da-b8ea0e5a0c11"},"vehicle_type_id":"4","last_reported":1706450693,"current_range_meters":0,"station_id":"ce4bhch2rcd13ifvqeug","pricing_plan_id":"free"},{"bike_id":"7ce4bf7d-327c-4671-8b09-01082e54b6f9","system_id":"levelo_inurba_marseille","lat":43.285856,"lon":5.350771,"is_reserved":false,"is_disabled":false,"rental_uris":{"android":"levelo://app?vid=7ce4bf7d-327c-4671-8b09-01082e54b6f9","ios":"levelo://app?vid=7ce4bf7d-327c-4671-8b09-01082e54b6f9"},"vehicle_type_id":"4","last_reported":1706450693,"current_range_meters":30400,"station_id":"ce4bhch2rcd13ifvqeug","pricing_plan_id":"free"},{"bike_id":"f602668e-b248-44db-8fef-7dbb89adc80b","system_id":"levelo_inurba_marseille","lat":43.28615,"lon":5.35112,"is_reserved":false,"is_disabled":false,"rental_uris":{"android":"levelo://app?vid=f602668e-b248-44db-8fef-7dbb89adc80b","ios":"levelo://app?vid=f602668e-b248-44db-8fef-7dbb89adc80b"},"vehicle_type_id":"4","last_reported":1706450693,"current_range_meters":8000,"station_id":"ce4bhch2rcd13ifvqeug","pricing_plan_id":"free"},{"bike_id":"84939456-6752-47ce-b628-fed93bcd290d","system_id":"levelo_inurba_marseille","lat":43.28617,"lon":5.35099,"is_reserved":false,"is_disabled":false,"rental_uris":{"android":"levelo://app?vid=84939456-6752-47ce-b628-fed93bcd290d","ios":"levelo://app?vid=84939456-6752-47ce-b628-fed93bcd290d"},"vehicle_type_id":"4","last_reported":1706450693,"current_range_meters":27600,"station_id":"ce4bhch2rcd13ifvqeug","pricing_plan_id":"free"},{"bike_id":"40ed2eed-d225-4dbc-b72d-0dff08b6c5fe","system_id":"levelo_inurba_marseille","lat":43.28614,"lon":5.35102,"is_reserved":false,"is_disabled":false,"rental_uris":{"android":"levelo://app?vid=40ed2eed-d225-4dbc-b72d-0dff08b6c5fe","ios":"levelo://app?vid=40ed2eed-d225-4dbc-b72d-0dff08b6c5fe"},"vehicle_type_id":"4","last_reported":1706450693,"current_range_meters":28000,"station_id":"ce4bhch2rcd13ifvqeug","pricing_plan_id":"free"},{"bike_id":"7721fc89-1e6f-432e-9e2d-983a3e3f421e","system_id":"levelo_inurba_marseille","lat":43.285856,"lon":5.350771,"is_reserved":false,"is_disabled":false,"rental_uris":{"android":"levelo://app?vid=7721fc89-1e6f-432e-9e2d-983a3e3f421e","ios":"levelo://app?vid=7721fc89-1e6f-432e-9e2d-983a3e3f421e"},"vehicle_type_id":"4","last_reported":1706450693,"current_range_meters":14000,"station_id":"ce4bhch2rcd13ifvqeug","pricing_plan_id":"free"},{"bike_id":"3096b737-fac4-4887-a112-0840054b2eae","system_id":"levelo_inurba_marseille","lat":43.285856,"lon":5.350771,"is_reserved":false,"is_disabled":false,"rental_uris":{"android":"levelo://app?vid=3096b737-fac4-4887-a112-0840054b2eae","ios":"levelo://app?vid=3096b737-fac4-4887-a112-0840054b2eae"},"vehicle_type_id":"4","last_reported":1706450693,"current_range_meters":800,"station_id":"ce4bhch2rcd13ifvqeug","pricing_plan_id":"free"},{"bike_id":"6156bf97-c4ae-4dc0-9712-c45626125463","system_id":"levelo_inurba_marseille","lat":43.283998,"lon":5.375062,"is_reserved":false,"is_disabled":false,"rental_uris":{"android":"levelo://app?vid=6156bf97-c4ae-4dc0-9712-c45626125463","ios":"levelo://app?vid=6156bf97-c4ae-4dc0-9712-c45626125463"},"vehicle_type_id":"4","last_reported":1706450693,"current_range_meters":10000,"station_id":"ce4bh412rcd13ifvqds0","pricing_plan_id":"free"},{"bike_id":"4ca5d17c-021c-4ab7-976f-355b8c09bcbb","system_id":"levelo_inurba_marseille","lat":43.283998,"lon":5.375062,"is_reserved":false,"is_disabled":false,"rental_uris":{"android":"levelo://app?vid=4ca5d17c-021c-4ab7-976f-355b8c09bcbb","ios":"levelo://app?vid=4ca5d17c-021c-4ab7-976f-355b8c09bcbb"},"vehicle_type_id":"4","last_reported":1706450693,"current_range_meters":13200,"station_id":"ce4bh412rcd13ifvqds0","pricing_plan_id":"free"},{"bike_id":"e1aa2086-c374-4e8a-a04a-cf3c36b71fb5","system_id":"levelo_inurba_marseille","lat":43.283998,"lon":5.375062,"is_reserved":false,"is_disabled":false,"rental_uris":{"android":"levelo://app?vid=e1aa2086-c374-4e8a-a04a-cf3c36b71fb5","ios":"levelo://app?vid=e1aa2086-c374-4e8a-a04a-cf3c36b71fb5"},"vehicle_type_id":"4","last_reported":1706450693,"current_range_meters":12800,"station_id":"ce4bh412rcd13ifvqds0","pricing_plan_id":"free"},{"bike_id":"3bd81dda-95dd-4705-bed3-8b2c38d0b279","system_id":"levelo_inurba_marseille","lat":43.283998,"lon":5.375062,"is_reserved":false,"is_disabled":false,"rental_uris":{"android":"levelo://app?vid=3bd81dda-95dd-4705-bed3-8b2c38d0b279","ios":"levelo://app?vid=3bd81dda-95dd-4705-bed3-8b2c38d0b279"},"vehicle_type_id":"4","last_reported":1706450693,"current_range_meters":2400,"station_id":"ce4bh412rcd13ifvqds0","pricing_plan_id":"free"},{"bike_id":"a35669b8-9ae4-4ce2-b905-97379abd5919","system_id":"levelo_inurba_marseille","lat":43.283998,"lon":5.375062,"is_reserved":false,"is_disabled":false,"rental_uris":{"android":"levelo://app?vid=a35669b8-9ae4-4ce2-b905-97379abd5919","ios":"levelo://app?vid=a35669b8-9ae4-4ce2-b905-97379abd5919"},"vehicle_type_id":"4","last_reported":1706450693,"current_range_meters":4800,"station_id":"ce4bh412rcd13ifvqds0","pricing_plan_id":"free"},{"bike_id":"50b1af7f-697c-456a-b2c0-aaf507c51a13","system_id":"levelo_inurba_marseille","lat":43.33717,"lon":5.391857,"is_reserved":false,"is_disabled":false,"rental_uris":{"android":"levelo://app?vid=50b1af7f-697c-456a-b2c0-aaf507c51a13","ios":"levelo://app?vid=50b1af7f-697c-456a-b2c0-aaf507c51a13"},"vehicle_type_id":"4","last_reported":1706450693,"current_range_meters":26400,"station_id":"ce4bhr92rcd13ifvqhsg","pricing_plan_id":"free"},{"bike_id":"52439912-ff96-4432-94df-69b05275e890","system_id":"levelo_inurba_marseille","lat":43.323464,"lon":5.406297,"is_reserved":false,"is_disabled":false,"rental_uris":{"android":"levelo://app?vid=52439912-ff96-4432-94df-69b05275e890","ios":"levelo://app?vid=52439912-ff96-4432-94df-69b05275e890"},"vehicle_type_id":"4","last_reported":1706450693,"current_range_meters":26800,"station_id":"ce4bhq92rcd13ifvqhjg","pricing_plan_id":"free"},{"bike_id":"20006862-874b-40bf-be45-b592d2d11337","system_id":"levelo_inurba_marseille","lat":43.284793,"lon":5.384113,"is_reserved":false,"is_disabled":false,"rental_uris":{"android":"levelo://app?vid=20006862-874b-40bf-be45-b592d2d11337","ios":"levelo://app?vid=20006862-874b-40bf-be45-b592d2d11337"},"vehicle_type_id":"4","last_reported":1706450693,"current_range_meters":0,"station_id":"ce4bh512rcd13ifvqe3g","pricing_plan_id":"free"},{"bike_id":"a02492d5-9767-4d8d-a9be-4832d9df6f40","system_id":"levelo_inurba_marseille","lat":43.284787,"lon":5.384116,"is_reserved":false,"is_disabled":false,"rental_uris":{"android":"levelo://app?vid=a02492d5-9767-4d8d-a9be-4832d9df6f40","ios":"levelo://app?vid=a02492d5-9767-4d8d-a9be-4832d9df6f40"},"vehicle_type_id":"4","last_reported":1706450693,"current_range_meters":800,"station_id":"ce4bh512rcd13ifvqe3g","pricing_plan_id":"free"},{"bike_id":"890b6862-bec4-42d7-9a15-88375b7eff83","system_id":"levelo_inurba_marseille","lat":43.284214,"lon":5.349706,"is_reserved":false,"is_disabled":false,"rental_uris":{"android":"levelo://app?vid=890b6862-bec4-42d7-9a15-88375b7eff83","ios":"levelo://app?vid=890b6862-bec4-42d7-9a15-88375b7eff83"},"vehicle_type_id":"4","last_reported":1706450693,"current_range_meters":13600,"station_id":"ce4bhbh2rcd13ifvqepg","pricing_plan_id":"free"},{"bike_id":"f2e61fd9-99de-406a-b9cf-8cd3ff57a7cf","system_id":"levelo_inurba_marseille","lat":43.284219,"lon":5.3497,"is_reserved":false,"is_disabled":false,"rental_uris":{"android":"levelo://app?vid=f2e61fd9-99de-406a-b9cf-8cd3ff57a7cf","ios":"levelo://app?vid=f2e61fd9-99de-406a-b9cf-8cd3ff57a7cf"},"vehicle_type_id":"4","last_reported":1706450693,"current_range_meters":12800,"station_id":"ce4bhbh2rcd13ifvqepg","pricing_plan_id":"free"},{"bike_id":"bb5ac85c-fcff-44a0-b4e1-81862daa817c","system_id":"levelo_inurba_marseille","lat":43.284217,"lon":5.349697,"is_reserved":false,"is_disabled":false,"rental_uris":{"android":"levelo://app?vid=bb5ac85c-fcff-44a0-b4e1-81862daa817c","ios":"levelo://app?vid=bb5ac85c-fcff-44a0-b4e1-81862daa817c"},"vehicle_type_id":"4","last_reported":1706450693,"current_range_meters":25200,"station_id":"ce4bhbh2rcd13ifvqepg","pricing_plan_id":"free"},{"bike_id":"d4b3c849-44e7-44f7-b92f-d53cb93dc54e","system_id":"levelo_inurba_marseille","lat":43.284217,"lon":5.349697,"is_reserved":false,"is_disabled":false,"rental_uris":{"android":"levelo://app?vid=d4b3c849-44e7-44f7-b92f-d53cb93dc54e","ios":"levelo://app?vid=d4b3c849-44e7-44f7-b92f-d53cb93dc54e"},"vehicle_type_id":"4","last_reported":1706450693,"current_range_meters":25600,"station_id":"ce4bhbh2rcd13ifvqepg","pricing_plan_id":"free"},{"bike_id":"b2780e63-292f-4a6e-9c5d-a5b7fcd70da5","system_id":"levelo_inurba_marseille","lat":43.284219,"lon":5.3497,"is_reserved":false,"is_disabled":false,"rental_uris":{"android":"levelo://app?vid=b2780e63-292f-4a6e-9c5d-a5b7fcd70da5","ios":"levelo://app?vid=b2780e63-292f-4a6e-9c5d-a5b7fcd70da5"},"vehicle_type_id":"4","last_reported":1706450693,"current_range_meters":31600,"station_id":"ce4bhbh2rcd13ifvqepg","pricing_plan_id":"free"},{"bike_id":"b41bcd76-cb12-4b33-95cd-9444d1e23578","system_id":"levelo_inurba_marseille","lat":43.293556,"lon":5.401561,"is_reserved":false,"is_disabled":false,"rental_uris":{"android":"levelo://app?vid=b41bcd76-cb12-4b33-95cd-9444d1e23578","ios":"levelo://app?vid=b41bcd76-cb12-4b33-95cd-9444d1e23578"},"vehicle_type_id":"4","last_reported":1706450693,"current_range_meters":6000,"station_id":"","pricing_plan_id":"free"},{"bike_id":"6d191f29-0d73-4ff1-8c43-c6f61b09ce5e","system_id":"levelo_inurba_marseille","lat":43.33717,"lon":5.391857,"is_reserved":false,"is_disabled":false,"rental_uris":{"android":"levelo://app?vid=6d191f29-0d73-4ff1-8c43-c6f61b09ce5e","ios":"levelo://app?vid=6d191f29-0d73-4ff1-8c43-c6f61b09ce5e"},"vehicle_type_id":"4","last_reported":1706450693,"current_range_meters":25600,"station_id":"ce4bhr92rcd13ifvqhsg","pricing_plan_id":"free"},{"bike_id":"c125a1b9-bc29-41cc-8177-c1a2ef3feab1","system_id":"levelo_inurba_marseille","lat":43.283498,"lon":5.380948,"is_reserved":false,"is_disabled":false,"rental_uris":{"android":"levelo://app?vid=c125a1b9-bc29-41cc-8177-c1a2ef3feab1","ios":"levelo://app?vid=c125a1b9-bc29-41cc-8177-c1a2ef3feab1"},"vehicle_type_id":"4","last_reported":1706450693,"current_range_meters":12400,"station_id":"ce4bh412rcd13ifvqdr0","pricing_plan_id":"free"},{"bike_id":"d3445544-7c5c-4dec-ab28-a14db4197112","system_id":"levelo_inurba_marseille","lat":43.292724,"lon":5.401131,"is_reserved":false,"is_disabled":false,"rental_uris":{"android":"levelo://app?vid=d3445544-7c5c-4dec-ab28-a14db4197112","ios":"levelo://app?vid=d3445544-7c5c-4dec-ab28-a14db4197112"},"vehicle_type_id":"4","last_reported":1706450693,"current_range_meters":22400,"station_id":"ce4bh312rcd13ifvqdk0","pricing_plan_id":"free"},{"bike_id":"df81f12f-a14b-4234-b4ba-9a0cb150b315","system_id":"levelo_inurba_marseille","lat":43.292724,"lon":5.401131,"is_reserved":false,"is_disabled":false,"rental_uris":{"android":"levelo://app?vid=df81f12f-a14b-4234-b4ba-9a0cb150b315","ios":"levelo://app?vid=df81f12f-a14b-4234-b4ba-9a0cb150b315"},"vehicle_type_id":"4","last_reported":1706450693,"current_range_meters":9200,"station_id":"ce4bh312rcd13ifvqdk0","pricing_plan_id":"free"},{"bike_id":"30296f3d-f8c3-4e1f-a77f-dc746bd81749","system_id":"levelo_inurba_marseille","lat":43.282839,"lon":5.350602,"is_reserved":false,"is_disabled":false,"rental_uris":{"android":"levelo://app?vid=30296f3d-f8c3-4e1f-a77f-dc746bd81749","ios":"levelo://app?vid=30296f3d-f8c3-4e1f-a77f-dc746bd81749"},"vehicle_type_id":"4","last_reported":1706450693,"current_range_meters":21200,"station_id":"ce4bhbp2rcd13ifvqerg","pricing_plan_id":"free"},{"bike_id":"948d1731-23e5-43c3-bbfc-ecc34192a129","system_id":"levelo_inurba_marseille","lat":43.282822,"lon":5.350612,"is_reserved":false,"is_disabled":false,"rental_uris":{"android":"levelo://app?vid=948d1731-23e5-43c3-bbfc-ecc34192a129","ios":"levelo://app?vid=948d1731-23e5-43c3-bbfc-ecc34192a129"},"vehicle_type_id":"4","last_reported":1706450693,"current_range_meters":22000,"station_id":"ce4bhbp2rcd13ifvqerg","pricing_plan_id":"free"},{"bike_id":"ebc081b3-d9eb-43e8-9994-accb1a1dd961","system_id":"levelo_inurba_marseille","lat":43.282837,"lon":5.350523,"is_reserved":false,"is_disabled":false,"rental_uris":{"android":"levelo://app?vid=ebc081b3-d9eb-43e8-9994-accb1a1dd961","ios":"levelo://app?vid=ebc081b3-d9eb-43e8-9994-accb1a1dd961"},"vehicle_type_id":"4","last_reported":1706450693,"current_range_meters":18000,"station_id":"ce4bhbp2rcd13ifvqerg","pricing_plan_id":"free"},{"bike_id":"cb7fd5f1-c72b-4c81-a870-c56a0d2db6bc","system_id":"levelo_inurba_marseille","lat":43.282753,"lon":5.350733,"is_reserved":false,"is_disabled":false,"rental_uris":{"android":"levelo://app?vid=cb7fd5f1-c72b-4c81-a870-c56a0d2db6bc","ios":"levelo://app?vid=cb7fd5f1-c72b-4c81-a870-c56a0d2db6bc"},"vehicle_type_id":"4","last_reported":1706450693,"current_range_meters":1600,"station_id":"ce4bhbp2rcd13ifvqerg","pricing_plan_id":"free"},{"bike_id":"3d65bbba-15ef-4f5b-8d79-3885732213fd","system_id":"levelo_inurba_marseille","lat":43.28275,"lon":5.35067,"is_reserved":false,"is_disabled":false,"rental_uris":{"android":"levelo://app?vid=3d65bbba-15ef-4f5b-8d79-3885732213fd","ios":"levelo://app?vid=3d65bbba-15ef-4f5b-8d79-3885732213fd"},"vehicle_type_id":"4","last_reported":1706450693,"current_range_meters":31200,"station_id":"ce4bhbp2rcd13ifvqerg","pricing_plan_id":"free"},{"bike_id":"27b7cfc9-d994-4907-8aa4-037e5aebe68b","system_id":"levelo_inurba_marseille","lat":43.28274,"lon":5.35065,"is_reserved":false,"is_disabled":false,"rental_uris":{"android":"levelo://app?vid=27b7cfc9-d994-4907-8aa4-037e5aebe68b","ios":"levelo://app?vid=27b7cfc9-d994-4907-8aa4-037e5aebe68b"},"vehicle_type_id":"4","last_reported":1706450693,"current_range_meters":16400,"station_id":"ce4bhbp2rcd13ifvqerg","pricing_plan_id":"free"},{"bike_id":"d7b7d22d-740a-4e6a-bcb6-e9610b317206","system_id":"levelo_inurba_marseille","lat":43.28268,"lon":5.35067,"is_reserved":false,"is_disabled":false,"rental_uris":{"android":"levelo://app?vid=d7b7d22d-740a-4e6a-bcb6-e9610b317206","ios":"levelo://app?vid=d7b7d22d-740a-4e6a-bcb6-e9610b317206"},"vehicle_type_id":"4","last_reported":1706450693,"current_range_meters":5200,"station_id":"ce4bhbp2rcd13ifvqerg","pricing_plan_id":"free"},{"bike_id":"c700f2d3-cfaa-4534-b67f-b1901890108a","system_id":"levelo_inurba_marseille","lat":43.282754,"lon":5.350519,"is_reserved":false,"is_disabled":false,"rental_uris":{"android":"levelo://app?vid=c700f2d3-cfaa-4534-b67f-b1901890108a","ios":"levelo://app?vid=c700f2d3-cfaa-4534-b67f-b1901890108a"},"vehicle_type_id":"4","last_reported":1706450693,"current_range_meters":3600,"station_id":"ce4bhbp2rcd13ifvqerg","pricing_plan_id":"free"},{"bike_id":"e4fd8856-9805-4091-aed8-839f8134fb67","system_id":"levelo_inurba_marseille","lat":43.28265,"lon":5.35053,"is_reserved":false,"is_disabled":false,"rental_uris":{"android":"levelo://app?vid=e4fd8856-9805-4091-aed8-839f8134fb67","ios":"levelo://app?vid=e4fd8856-9805-4091-aed8-839f8134fb67"},"vehicle_type_id":"4","last_reported":1706450693,"current_range_meters":20800,"station_id":"ce4bhbp2rcd13ifvqerg","pricing_plan_id":"free"},{"bike_id":"77846410-e54c-4049-a89a-5b7c79aca10c","system_id":"levelo_inurba_marseille","lat":43.282754,"lon":5.350519,"is_reserved":false,"is_disabled":false,"rental_uris":{"android":"levelo://app?vid=77846410-e54c-4049-a89a-5b7c79aca10c","ios":"levelo://app?vid=77846410-e54c-4049-a89a-5b7c79aca10c"},"vehicle_type_id":"4","last_reported":1706450693,"current_range_meters":1600,"station_id":"ce4bhbp2rcd13ifvqerg","pricing_plan_id":"free"},{"bike_id":"9117ae62-e4c4-4086-b35c-3e579defca49","system_id":"levelo_inurba_marseille","lat":43.28039,"lon":5.369297,"is_reserved":false,"is_disabled":false,"rental_uris":{"android":"levelo://app?vid=9117ae62-e4c4-4086-b35c-3e579defca49","ios":"levelo://app?vid=9117ae62-e4c4-4086-b35c-3e579defca49"},"vehicle_type_id":"4","last_reported":1706450693,"current_range_meters":18800,"station_id":"ce4bha12rcd13ifvqef0","pricing_plan_id":"free"},{"bike_id":"b042bebf-fb8c-4ddf-862e-718aeb989330","system_id":"levelo_inurba_marseille","lat":43.282553,"lon":5.350584,"is_reserved":false,"is_disabled":false,"rental_uris":{"android":"levelo://app?vid=b042bebf-fb8c-4ddf-862e-718aeb989330","ios":"levelo://app?vid=b042bebf-fb8c-4ddf-862e-718aeb989330"},"vehicle_type_id":"4","last_reported":1706450693,"current_range_meters":30000,"station_id":"ce4bhbp2rcd13ifvqerg","pricing_plan_id":"free"},{"bike_id":"1c1735a5-a1dc-45e4-8c1b-f1c035a77967","system_id":"levelo_inurba_marseille","lat":43.281044,"lon":5.378308,"is_reserved":false,"is_disabled":false,"rental_uris":{"android":"levelo://app?vid=1c1735a5-a1dc-45e4-8c1b-f1c035a77967","ios":"levelo://app?vid=1c1735a5-a1dc-45e4-8c1b-f1c035a77967"},"vehicle_type_id":"4","last_reported":1706450693,"current_range_meters":4000,"station_id":"ce4bha12rcd13ifvqee0","pricing_plan_id":"free"},{"bike_id":"8ad302b0-bf2f-4d4c-af1d-697d69f450f9","system_id":"levelo_inurba_marseille","lat":43.290412,"lon":5.399633,"is_reserved":false,"is_disabled":false,"rental_uris":{"android":"levelo://app?vid=8ad302b0-bf2f-4d4c-af1d-697d69f450f9","ios":"levelo://app?vid=8ad302b0-bf2f-4d4c-af1d-697d69f450f9"},"vehicle_type_id":"4","last_reported":1706450693,"current_range_meters":15200,"station_id":"ce4bh392rcd13ifvqdm0","pricing_plan_id":"free"},{"bike_id":"4e262b50-806b-45a4-8c71-b15ef7c7f49e","system_id":"levelo_inurba_marseille","lat":43.290412,"lon":5.399633,"is_reserved":false,"is_disabled":false,"rental_uris":{"android":"levelo://app?vid=4e262b50-806b-45a4-8c71-b15ef7c7f49e","ios":"levelo://app?vid=4e262b50-806b-45a4-8c71-b15ef7c7f49e"},"vehicle_type_id":"4","last_reported":1706450693,"current_range_meters":15200,"station_id":"ce4bh392rcd13ifvqdm0","pricing_plan_id":"free"},{"bike_id":"cbb0a1d2-2958-40a1-a5cc-459847017ddf","system_id":"levelo_inurba_marseille","lat":43.326605,"lon":5.409903,"is_reserved":false,"is_disabled":false,"rental_uris":{"android":"levelo://app?vid=cbb0a1d2-2958-40a1-a5cc-459847017ddf","ios":"levelo://app?vid=cbb0a1d2-2958-40a1-a5cc-459847017ddf"},"vehicle_type_id":"4","last_reported":1706450693,"current_range_meters":12800,"station_id":"ce4bhpp2rcd13ifvqhgg","pricing_plan_id":"free"},{"bike_id":"6ebeeb43-da80-478d-86c7-69e65aa6887e","system_id":"levelo_inurba_marseille","lat":43.326605,"lon":5.409903,"is_reserved":false,"is_disabled":false,"rental_uris":{"android":"levelo://app?vid=6ebeeb43-da80-478d-86c7-69e65aa6887e","ios":"levelo://app?vid=6ebeeb43-da80-478d-86c7-69e65aa6887e"},"vehicle_type_id":"4","last_reported":1706450693,"current_range_meters":31200,"station_id":"ce4bhpp2rcd13ifvqhgg","pricing_plan_id":"free"},{"bike_id":"1671bc9b-ca7a-4d25-8432-6b00508c8aa6","system_id":"levelo_inurba_marseille","lat":43.287154,"lon":5.399979,"is_reserved":false,"is_disabled":false,"rental_uris":{"android":"levelo://app?vid=1671bc9b-ca7a-4d25-8432-6b00508c8aa6","ios":"levelo://app?vid=1671bc9b-ca7a-4d25-8432-6b00508c8aa6"},"vehicle_type_id":"4","last_reported":1706450693,"current_range_meters":5600,"station_id":"ce4bho92rcd13ifvqh3g","pricing_plan_id":"free"},{"bike_id":"a539d426-9e55-4e9c-b7bf-13cd28eecf36","system_id":"levelo_inurba_marseille","lat":43.27819,"lon":5.35483,"is_reserved":false,"is_disabled":false,"rental_uris":{"android":"levelo://app?vid=a539d426-9e55-4e9c-b7bf-13cd28eecf36","ios":"levelo://app?vid=a539d426-9e55-4e9c-b7bf-13cd28eecf36"},"vehicle_type_id":"4","last_reported":1706450693,"current_range_meters":8400,"station_id":"","pricing_plan_id":"free"},{"bike_id":"0cbfd314-90b6-49fe-af97-084cb688065a","system_id":"levelo_inurba_marseille","lat":43.320045,"lon":5.415046,"is_reserved":false,"is_disabled":false,"rental_uris":{"android":"levelo://app?vid=0cbfd314-90b6-49fe-af97-084cb688065a","ios":"levelo://app?vid=0cbfd314-90b6-49fe-af97-084cb688065a"},"vehicle_type_id":"4","last_reported":1706450693,"current_range_meters":21600,"station_id":"ce4bhq92rcd13ifvqhkg","pricing_plan_id":"free"},{"bike_id":"a10e714b-29b5-405f-b89d-b86d2ad56c7b","system_id":"levelo_inurba_marseille","lat":43.320045,"lon":5.415048,"is_reserved":false,"is_disabled":false,"rental_uris":{"android":"levelo://app?vid=a10e714b-29b5-405f-b89d-b86d2ad56c7b","ios":"levelo://app?vid=a10e714b-29b5-405f-b89d-b86d2ad56c7b"},"vehicle_type_id":"4","last_reported":1706450693,"current_range_meters":22000,"station_id":"ce4bhq92rcd13ifvqhkg","pricing_plan_id":"free"},{"bike_id":"a41ae808-4eee-4985-bc8a-d09a9154c012","system_id":"levelo_inurba_marseille","lat":43.325233,"lon":5.414318,"is_reserved":false,"is_disabled":false,"rental_uris":{"android":"levelo://app?vid=a41ae808-4eee-4985-bc8a-d09a9154c012","ios":"levelo://app?vid=a41ae808-4eee-4985-bc8a-d09a9154c012"},"vehicle_type_id":"4","last_reported":1706450693,"current_range_meters":22000,"station_id":"ce4bhq12rcd13ifvqhhg","pricing_plan_id":"free"},{"bike_id":"d5d2281b-6771-4faf-a5b2-db3ba2d0f539","system_id":"levelo_inurba_marseille","lat":43.325243,"lon":5.414326,"is_reserved":false,"is_disabled":false,"rental_uris":{"android":"levelo://app?vid=d5d2281b-6771-4faf-a5b2-db3ba2d0f539","ios":"levelo://app?vid=d5d2281b-6771-4faf-a5b2-db3ba2d0f539"},"vehicle_type_id":"4","last_reported":1706450693,"current_range_meters":17600,"station_id":"ce4bhq12rcd13ifvqhhg","pricing_plan_id":"free"},{"bike_id":"a6d897d5-6de3-40c3-aeae-1686e659c213","system_id":"levelo_inurba_marseille","lat":43.276179,"lon":5.361009,"is_reserved":false,"is_disabled":false,"rental_uris":{"android":"levelo://app?vid=a6d897d5-6de3-40c3-aeae-1686e659c213","ios":"levelo://app?vid=a6d897d5-6de3-40c3-aeae-1686e659c213"},"vehicle_type_id":"4","last_reported":1706450693,"current_range_meters":8400,"station_id":"ce4bgj92rcd13ifvqbe0","pricing_plan_id":"free"},{"bike_id":"7545280e-e9e9-4464-841c-5a066cc819a2","system_id":"levelo_inurba_marseille","lat":43.276179,"lon":5.361009,"is_reserved":false,"is_disabled":false,"rental_uris":{"android":"levelo://app?vid=7545280e-e9e9-4464-841c-5a066cc819a2","ios":"levelo://app?vid=7545280e-e9e9-4464-841c-5a066cc819a2"},"vehicle_type_id":"4","last_reported":1706450693,"current_range_meters":9600,"station_id":"ce4bgj92rcd13ifvqbe0","pricing_plan_id":"free"},{"bike_id":"5d42b5e7-ee9e-4940-bdb8-277f31cb673f","system_id":"levelo_inurba_marseille","lat":43.280784,"lon":5.396622,"is_reserved":false,"is_disabled":false,"rental_uris":{"android":"levelo://app?vid=5d42b5e7-ee9e-4940-bdb8-277f31cb673f","ios":"levelo://app?vid=5d42b5e7-ee9e-4940-bdb8-277f31cb673f"},"vehicle_type_id":"4","last_reported":1706450693,"current_range_meters":25600,"station_id":"ce4bho12rcd13ifvqh2g","pricing_plan_id":"free"},{"bike_id":"aa0f517f-ada5-4a72-96f0-a728567ac06e","system_id":"levelo_inurba_marseille","lat":43.27383,"lon":5.36254,"is_reserved":false,"is_disabled":false,"rental_uris":{"android":"levelo://app?vid=aa0f517f-ada5-4a72-96f0-a728567ac06e","ios":"levelo://app?vid=aa0f517f-ada5-4a72-96f0-a728567ac06e"},"vehicle_type_id":"4","last_reported":1706450693,"current_range_meters":30400,"station_id":"ce4bhbh2rcd13ifvqeo0","pricing_plan_id":"free"},{"bike_id":"6ef6cea5-279b-4734-b184-642fd171d26e","system_id":"levelo_inurba_marseille","lat":43.2738,"lon":5.36256,"is_reserved":false,"is_disabled":false,"rental_uris":{"android":"levelo://app?vid=6ef6cea5-279b-4734-b184-642fd171d26e","ios":"levelo://app?vid=6ef6cea5-279b-4734-b184-642fd171d26e"},"vehicle_type_id":"4","last_reported":1706450693,"current_range_meters":12000,"station_id":"ce4bhbh2rcd13ifvqeo0","pricing_plan_id":"free"},{"bike_id":"00181456-910d-4654-a55a-782977addfc0","system_id":"levelo_inurba_marseille","lat":43.2738,"lon":5.36255,"is_reserved":false,"is_disabled":false,"rental_uris":{"android":"levelo://app?vid=00181456-910d-4654-a55a-782977addfc0","ios":"levelo://app?vid=00181456-910d-4654-a55a-782977addfc0"},"vehicle_type_id":"4","last_reported":1706450693,"current_range_meters":15200,"station_id":"ce4bhbh2rcd13ifvqeo0","pricing_plan_id":"free"},{"bike_id":"d2464a80-55c6-466f-862e-f683488b65eb","system_id":"levelo_inurba_marseille","lat":43.2738,"lon":5.36255,"is_reserved":false,"is_disabled":false,"rental_uris":{"android":"levelo://app?vid=d2464a80-55c6-466f-862e-f683488b65eb","ios":"levelo://app?vid=d2464a80-55c6-466f-862e-f683488b65eb"},"vehicle_type_id":"4","last_reported":1706450693,"current_range_meters":0,"station_id":"ce4bhbh2rcd13ifvqeo0","pricing_plan_id":"free"},{"bike_id":"af8f0c8b-fc2b-497e-a8d6-e5f44e740e9c","system_id":"levelo_inurba_marseille","lat":43.273613,"lon":5.362705,"is_reserved":false,"is_disabled":false,"rental_uris":{"android":"levelo://app?vid=af8f0c8b-fc2b-497e-a8d6-e5f44e740e9c","ios":"levelo://app?vid=af8f0c8b-fc2b-497e-a8d6-e5f44e740e9c"},"vehicle_type_id":"4","last_reported":1706450693,"current_range_meters":26400,"station_id":"ce4bhbh2rcd13ifvqeo0","pricing_plan_id":"free"},{"bike_id":"08e95487-6327-4001-8f0d-8ed1d4593628","system_id":"levelo_inurba_marseille","lat":43.27378,"lon":5.36247,"is_reserved":false,"is_disabled":false,"rental_uris":{"android":"levelo://app?vid=08e95487-6327-4001-8f0d-8ed1d4593628","ios":"levelo://app?vid=08e95487-6327-4001-8f0d-8ed1d4593628"},"vehicle_type_id":"4","last_reported":1706450693,"current_range_meters":30400,"station_id":"ce4bhbh2rcd13ifvqeo0","pricing_plan_id":"free"},{"bike_id":"b25fa1c4-251f-4601-ba24-21edc42bb4a4","system_id":"levelo_inurba_marseille","lat":43.273613,"lon":5.362705,"is_reserved":false,"is_disabled":false,"rental_uris":{"android":"levelo://app?vid=b25fa1c4-251f-4601-ba24-21edc42bb4a4","ios":"levelo://app?vid=b25fa1c4-251f-4601-ba24-21edc42bb4a4"},"vehicle_type_id":"4","last_reported":1706450693,"current_range_meters":21600,"station_id":"ce4bhbh2rcd13ifvqeo0","pricing_plan_id":"free"},{"bike_id":"fdb3f4ce-cbf2-48f1-a805-434234895141","system_id":"levelo_inurba_marseille","lat":43.27377,"lon":5.36259,"is_reserved":false,"is_disabled":false,"rental_uris":{"android":"levelo://app?vid=fdb3f4ce-cbf2-48f1-a805-434234895141","ios":"levelo://app?vid=fdb3f4ce-cbf2-48f1-a805-434234895141"},"vehicle_type_id":"4","last_reported":1706450693,"current_range_meters":26400,"station_id":"ce4bhbh2rcd13ifvqeo0","pricing_plan_id":"free"},{"bike_id":"c62370f5-ed2d-4939-afd3-2a8b3bc2f3d9","system_id":"levelo_inurba_marseille","lat":43.273613,"lon":5.362705,"is_reserved":false,"is_disabled":false,"rental_uris":{"android":"levelo://app?vid=c62370f5-ed2d-4939-afd3-2a8b3bc2f3d9","ios":"levelo://app?vid=c62370f5-ed2d-4939-afd3-2a8b3bc2f3d9"},"vehicle_type_id":"4","last_reported":1706450693,"current_range_meters":31200,"station_id":"ce4bhbh2rcd13ifvqeo0","pricing_plan_id":"free"},{"bike_id":"a13dd372-9444-40e2-b6c6-1f77d905b760","system_id":"levelo_inurba_marseille","lat":43.27376,"lon":5.36253,"is_reserved":false,"is_disabled":false,"rental_uris":{"android":"levelo://app?vid=a13dd372-9444-40e2-b6c6-1f77d905b760","ios":"levelo://app?vid=a13dd372-9444-40e2-b6c6-1f77d905b760"},"vehicle_type_id":"4","last_reported":1706450693,"current_range_meters":30800,"station_id":"ce4bhbh2rcd13ifvqeo0","pricing_plan_id":"free"},{"bike_id":"54049a08-f8b0-490e-99c5-5554c8d366b2","system_id":"levelo_inurba_marseille","lat":43.27375,"lon":5.36267,"is_reserved":false,"is_disabled":false,"rental_uris":{"android":"levelo://app?vid=54049a08-f8b0-490e-99c5-5554c8d366b2","ios":"levelo://app?vid=54049a08-f8b0-490e-99c5-5554c8d366b2"},"vehicle_type_id":"4","last_reported":1706450693,"current_range_meters":28000,"station_id":"ce4bhbh2rcd13ifvqeo0","pricing_plan_id":"free"},{"bike_id":"c0971226-fcae-4d74-b9a7-942a2c35d059","system_id":"levelo_inurba_marseille","lat":43.273613,"lon":5.362705,"is_reserved":false,"is_disabled":false,"rental_uris":{"android":"levelo://app?vid=c0971226-fcae-4d74-b9a7-942a2c35d059","ios":"levelo://app?vid=c0971226-fcae-4d74-b9a7-942a2c35d059"},"vehicle_type_id":"4","last_reported":1706450693,"current_range_meters":8000,"station_id":"ce4bhbh2rcd13ifvqeo0","pricing_plan_id":"free"},{"bike_id":"2b5b0a95-7d91-40ed-bc88-7b1a45b69c94","system_id":"levelo_inurba_marseille","lat":43.27375,"lon":5.36257,"is_reserved":false,"is_disabled":false,"rental_uris":{"android":"levelo://app?vid=2b5b0a95-7d91-40ed-bc88-7b1a45b69c94","ios":"levelo://app?vid=2b5b0a95-7d91-40ed-bc88-7b1a45b69c94"},"vehicle_type_id":"4","last_reported":1706450693,"current_range_meters":6800,"station_id":"ce4bhbh2rcd13ifvqeo0","pricing_plan_id":"free"},{"bike_id":"fa8661d5-d626-4b80-b5a5-f600b8c722d0","system_id":"levelo_inurba_marseille","lat":43.336134,"lon":5.410341,"is_reserved":false,"is_disabled":false,"rental_uris":{"android":"levelo://app?vid=fa8661d5-d626-4b80-b5a5-f600b8c722d0","ios":"levelo://app?vid=fa8661d5-d626-4b80-b5a5-f600b8c722d0"},"vehicle_type_id":"4","last_reported":1706450693,"current_range_meters":9200,"station_id":"ce4bhqh2rcd13ifvqhmg","pricing_plan_id":"free"},{"bike_id":"f3a94508-1d6d-4c8f-a608-f8cef0d8ef6b","system_id":"levelo_inurba_marseille","lat":43.27373,"lon":5.3626,"is_reserved":false,"is_disabled":false,"rental_uris":{"android":"levelo://app?vid=f3a94508-1d6d-4c8f-a608-f8cef0d8ef6b","ios":"levelo://app?vid=f3a94508-1d6d-4c8f-a608-f8cef0d8ef6b"},"vehicle_type_id":"4","last_reported":1706450693,"current_range_meters":22800,"station_id":"ce4bhbh2rcd13ifvqeo0","pricing_plan_id":"free"},{"bike_id":"cff84d80-538b-41ae-af5c-37997cc805be","system_id":"levelo_inurba_marseille","lat":43.27373,"lon":5.36258,"is_reserved":false,"is_disabled":false,"rental_uris":{"android":"levelo://app?vid=cff84d80-538b-41ae-af5c-37997cc805be","ios":"levelo://app?vid=cff84d80-538b-41ae-af5c-37997cc805be"},"vehicle_type_id":"4","last_reported":1706450693,"current_range_meters":2800,"station_id":"ce4bhbh2rcd13ifvqeo0","pricing_plan_id":"free"},{"bike_id":"f52ae61d-4e59-4f67-90c5-98415b9f4304","system_id":"levelo_inurba_marseille","lat":43.27373,"lon":5.36258,"is_reserved":false,"is_disabled":false,"rental_uris":{"android":"levelo://app?vid=f52ae61d-4e59-4f67-90c5-98415b9f4304","ios":"levelo://app?vid=f52ae61d-4e59-4f67-90c5-98415b9f4304"},"vehicle_type_id":"4","last_reported":1706450693,"current_range_meters":23600,"station_id":"ce4bhbh2rcd13ifvqeo0","pricing_plan_id":"free"},{"bike_id":"66164650-0b87-4422-ba49-905ebe3395ff","system_id":"levelo_inurba_marseille","lat":43.273613,"lon":5.362705,"is_reserved":false,"is_disabled":false,"rental_uris":{"android":"levelo://app?vid=66164650-0b87-4422-ba49-905ebe3395ff","ios":"levelo://app?vid=66164650-0b87-4422-ba49-905ebe3395ff"},"vehicle_type_id":"4","last_reported":1706450693,"current_range_meters":24000,"station_id":"ce4bhbh2rcd13ifvqeo0","pricing_plan_id":"free"},{"bike_id":"48f0aa32-5d0f-474a-b960-73b4272b87f5","system_id":"levelo_inurba_marseille","lat":43.2737,"lon":5.36263,"is_reserved":false,"is_disabled":false,"rental_uris":{"android":"levelo://app?vid=48f0aa32-5d0f-474a-b960-73b4272b87f5","ios":"levelo://app?vid=48f0aa32-5d0f-474a-b960-73b4272b87f5"},"vehicle_type_id":"4","last_reported":1706450693,"current_range_meters":29600,"station_id":"ce4bhbh2rcd13ifvqeo0","pricing_plan_id":"free"},{"bike_id":"65f041e4-7942-445e-b7c2-8bb3a14702aa","system_id":"levelo_inurba_marseille","lat":43.27365,"lon":5.3626,"is_reserved":false,"is_disabled":false,"rental_uris":{"android":"levelo://app?vid=65f041e4-7942-445e-b7c2-8bb3a14702aa","ios":"levelo://app?vid=65f041e4-7942-445e-b7c2-8bb3a14702aa"},"vehicle_type_id":"4","last_reported":1706450693,"current_range_meters":28000,"station_id":"ce4bhbh2rcd13ifvqeo0","pricing_plan_id":"free"},{"bike_id":"b2a45882-a807-4b8e-9950-0228ef6b1119","system_id":"levelo_inurba_marseille","lat":43.336134,"lon":5.410341,"is_reserved":false,"is_disabled":false,"rental_uris":{"android":"levelo://app?vid=b2a45882-a807-4b8e-9950-0228ef6b1119","ios":"levelo://app?vid=b2a45882-a807-4b8e-9950-0228ef6b1119"},"vehicle_type_id":"4","last_reported":1706450693,"current_range_meters":1200,"station_id":"ce4bhqh2rcd13ifvqhmg","pricing_plan_id":"free"},{"bike_id":"6c7b3ae5-49bc-4aef-8cf4-4684bc89048b","system_id":"levelo_inurba_marseille","lat":43.336107,"lon":5.410329,"is_reserved":false,"is_disabled":false,"rental_uris":{"android":"levelo://app?vid=6c7b3ae5-49bc-4aef-8cf4-4684bc89048b","ios":"levelo://app?vid=6c7b3ae5-49bc-4aef-8cf4-4684bc89048b"},"vehicle_type_id":"4","last_reported":1706450693,"current_range_meters":30400,"station_id":"ce4bhqh2rcd13ifvqhmg","pricing_plan_id":"free"},{"bike_id":"81e9e01e-1e29-4467-aff8-992019661ef1","system_id":"levelo_inurba_marseille","lat":43.336115,"lon":5.410357,"is_reserved":false,"is_disabled":false,"rental_uris":{"android":"levelo://app?vid=81e9e01e-1e29-4467-aff8-992019661ef1","ios":"levelo://app?vid=81e9e01e-1e29-4467-aff8-992019661ef1"},"vehicle_type_id":"4","last_reported":1706450693,"current_range_meters":0,"station_id":"ce4bhqh2rcd13ifvqhmg","pricing_plan_id":"free"},{"bike_id":"6e46480a-3e24-44be-9b6c-60a8ec342681","system_id":"levelo_inurba_marseille","lat":43.33611,"lon":5.41039,"is_reserved":false,"is_disabled":false,"rental_uris":{"android":"levelo://app?vid=6e46480a-3e24-44be-9b6c-60a8ec342681","ios":"levelo://app?vid=6e46480a-3e24-44be-9b6c-60a8ec342681"},"vehicle_type_id":"4","last_reported":1706450693,"current_range_meters":5200,"station_id":"ce4bhqh2rcd13ifvqhmg","pricing_plan_id":"free"},{"bike_id":"15f4cb05-2a8d-4066-9c07-2e42d1f03a9d","system_id":"levelo_inurba_marseille","lat":43.276771,"lon":5.388799,"is_reserved":false,"is_disabled":false,"rental_uris":{"android":"levelo://app?vid=15f4cb05-2a8d-4066-9c07-2e42d1f03a9d","ios":"levelo://app?vid=15f4cb05-2a8d-4066-9c07-2e42d1f03a9d"},"vehicle_type_id":"4","last_reported":1706450693,"current_range_meters":20800,"station_id":"ce4bhi12rcd13ifvqfo0","pricing_plan_id":"free"},{"bike_id":"fca74503-3836-4251-bc7a-8bbd7f08cbb0","system_id":"levelo_inurba_marseille","lat":43.279952,"lon":5.400085,"is_reserved":false,"is_disabled":false,"rental_uris":{"android":"levelo://app?vid=fca74503-3836-4251-bc7a-8bbd7f08cbb0","ios":"levelo://app?vid=fca74503-3836-4251-bc7a-8bbd7f08cbb0"},"vehicle_type_id":"4","last_reported":1706450693,"current_range_meters":2800,"station_id":"ce4bho92rcd13ifvqh4g","pricing_plan_id":"free"},{"bike_id":"6f46a34b-d5d1-4592-8607-98eec5146735","system_id":"levelo_inurba_marseille","lat":43.283731,"lon":5.407089,"is_reserved":false,"is_disabled":false,"rental_uris":{"android":"levelo://app?vid=6f46a34b-d5d1-4592-8607-98eec5146735","ios":"levelo://app?vid=6f46a34b-d5d1-4592-8607-98eec5146735"},"vehicle_type_id":"4","last_reported":1706450693,"current_range_meters":2400,"station_id":"","pricing_plan_id":"free"},{"bike_id":"87c998a4-b27c-4b57-8568-42f4629803bf","system_id":"levelo_inurba_marseille","lat":43.27624,"lon":5.39465,"is_reserved":false,"is_disabled":false,"rental_uris":{"android":"levelo://app?vid=87c998a4-b27c-4b57-8568-42f4629803bf","ios":"levelo://app?vid=87c998a4-b27c-4b57-8568-42f4629803bf"},"vehicle_type_id":"4","last_reported":1706450693,"current_range_meters":12000,"station_id":"","pricing_plan_id":"free"},{"bike_id":"c7034082-bffb-4f86-bb91-40ab0c03be2f","system_id":"levelo_inurba_marseille","lat":43.317121,"lon":5.423936,"is_reserved":false,"is_disabled":false,"rental_uris":{"android":"levelo://app?vid=c7034082-bffb-4f86-bb91-40ab0c03be2f","ios":"levelo://app?vid=c7034082-bffb-4f86-bb91-40ab0c03be2f"},"vehicle_type_id":"4","last_reported":1706450693,"current_range_meters":9600,"station_id":"ce4bhp92rcd13ifvqhbg","pricing_plan_id":"free"},{"bike_id":"6a9f72e8-8bc8-4abe-9758-e5e0e8502f9b","system_id":"levelo_inurba_marseille","lat":43.3108,"lon":5.42431,"is_reserved":false,"is_disabled":false,"rental_uris":{"android":"levelo://app?vid=6a9f72e8-8bc8-4abe-9758-e5e0e8502f9b","ios":"levelo://app?vid=6a9f72e8-8bc8-4abe-9758-e5e0e8502f9b"},"vehicle_type_id":"4","last_reported":1706450693,"current_range_meters":0,"station_id":"ce4bhp92rcd13ifvqhag","pricing_plan_id":"free"},{"bike_id":"3a6e045f-56f6-4956-bcc5-f96b9edaa018","system_id":"levelo_inurba_marseille","lat":43.31082,"lon":5.42433,"is_reserved":false,"is_disabled":false,"rental_uris":{"android":"levelo://app?vid=3a6e045f-56f6-4956-bcc5-f96b9edaa018","ios":"levelo://app?vid=3a6e045f-56f6-4956-bcc5-f96b9edaa018"},"vehicle_type_id":"4","last_reported":1706450693,"current_range_meters":14800,"station_id":"ce4bhp92rcd13ifvqhag","pricing_plan_id":"free"},{"bike_id":"cc1d4968-6c22-47e5-9694-9b81ed3dffce","system_id":"levelo_inurba_marseille","lat":43.340804,"lon":5.410219,"is_reserved":false,"is_disabled":false,"rental_uris":{"android":"levelo://app?vid=cc1d4968-6c22-47e5-9694-9b81ed3dffce","ios":"levelo://app?vid=cc1d4968-6c22-47e5-9694-9b81ed3dffce"},"vehicle_type_id":"4","last_reported":1706450693,"current_range_meters":8800,"station_id":"ce4bhqh2rcd13ifvqhlg","pricing_plan_id":"free"},{"bike_id":"79ba457f-e2e0-465e-914c-1aa6ff168bdd","system_id":"levelo_inurba_marseille","lat":43.273156,"lon":5.390909,"is_reserved":false,"is_disabled":false,"rental_uris":{"android":"levelo://app?vid=79ba457f-e2e0-465e-914c-1aa6ff168bdd","ios":"levelo://app?vid=79ba457f-e2e0-465e-914c-1aa6ff168bdd"},"vehicle_type_id":"4","last_reported":1706450693,"current_range_meters":0,"station_id":"ce4bhgp2rcd13ifvqfe0","pricing_plan_id":"free"},{"bike_id":"6fe4555c-13a8-443a-bc04-01ca818a618f","system_id":"levelo_inurba_marseille","lat":43.295388,"lon":5.423081,"is_reserved":false,"is_disabled":false,"rental_uris":{"android":"levelo://app?vid=6fe4555c-13a8-443a-bc04-01ca818a618f","ios":"levelo://app?vid=6fe4555c-13a8-443a-bc04-01ca818a618f"},"vehicle_type_id":"4","last_reported":1706450693,"current_range_meters":20800,"station_id":"ce4bhph2rcd13ifvqhdg","pricing_plan_id":"free"},{"bike_id":"3d14cb8c-ebba-4e29-af31-4761cadfc2f6","system_id":"levelo_inurba_marseille","lat":43.27206,"lon":5.39189,"is_reserved":false,"is_disabled":false,"rental_uris":{"android":"levelo://app?vid=3d14cb8c-ebba-4e29-af31-4761cadfc2f6","ios":"levelo://app?vid=3d14cb8c-ebba-4e29-af31-4761cadfc2f6"},"vehicle_type_id":"4","last_reported":1706450693,"current_range_meters":0,"station_id":"ce4bhhp2rcd13ifvqfm0","pricing_plan_id":"free"},{"bike_id":"00ca5024-8e84-49ff-baf6-9e5f93fec4c5","system_id":"levelo_inurba_marseille","lat":43.278128,"lon":5.407195,"is_reserved":false,"is_disabled":false,"rental_uris":{"android":"levelo://app?vid=00ca5024-8e84-49ff-baf6-9e5f93fec4c5","ios":"levelo://app?vid=00ca5024-8e84-49ff-baf6-9e5f93fec4c5"},"vehicle_type_id":"4","last_reported":1706450693,"current_range_meters":20000,"station_id":"ce4bhnh2rcd13ifvqgtg","pricing_plan_id":"free"},{"bike_id":"05786094-3896-4f03-9513-5b10b509beeb","system_id":"levelo_inurba_marseille","lat":43.269467,"lon":5.386439,"is_reserved":false,"is_disabled":false,"rental_uris":{"android":"levelo://app?vid=05786094-3896-4f03-9513-5b10b509beeb","ios":"levelo://app?vid=05786094-3896-4f03-9513-5b10b509beeb"},"vehicle_type_id":"4","last_reported":1706450693,"current_range_meters":19200,"station_id":"ce4bhh92rcd13ifvqfh0","pricing_plan_id":"free"},{"bike_id":"7a953ad6-52d3-4165-a714-9c977a7562fe","system_id":"levelo_inurba_marseille","lat":43.279465,"lon":5.410561,"is_reserved":false,"is_disabled":false,"rental_uris":{"android":"levelo://app?vid=7a953ad6-52d3-4165-a714-9c977a7562fe","ios":"levelo://app?vid=7a953ad6-52d3-4165-a714-9c977a7562fe"},"vehicle_type_id":"4","last_reported":1706450693,"current_range_meters":11200,"station_id":"ce4bhnp2rcd13ifvqh0g","pricing_plan_id":"free"},{"bike_id":"a1554db5-93fa-458e-af31-73dc8d6a92ce","system_id":"levelo_inurba_marseille","lat":43.279465,"lon":5.410561,"is_reserved":false,"is_disabled":false,"rental_uris":{"android":"levelo://app?vid=a1554db5-93fa-458e-af31-73dc8d6a92ce","ios":"levelo://app?vid=a1554db5-93fa-458e-af31-73dc8d6a92ce"},"vehicle_type_id":"4","last_reported":1706450693,"current_range_meters":14400,"station_id":"ce4bhnp2rcd13ifvqh0g","pricing_plan_id":"free"},{"bike_id":"a6873b99-c0eb-414d-8cd8-25df9750478d","system_id":"levelo_inurba_marseille","lat":43.26681,"lon":5.382694,"is_reserved":false,"is_disabled":false,"rental_uris":{"android":"levelo://app?vid=a6873b99-c0eb-414d-8cd8-25df9750478d","ios":"levelo://app?vid=a6873b99-c0eb-414d-8cd8-25df9750478d"},"vehicle_type_id":"4","last_reported":1706450693,"current_range_meters":12800,"station_id":"ce4bhg92rcd13ifvqf90","pricing_plan_id":"free"},{"bike_id":"900a39e8-074c-4d8e-91a4-29bfc5a7b64e","system_id":"levelo_inurba_marseille","lat":43.26681,"lon":5.382694,"is_reserved":false,"is_disabled":false,"rental_uris":{"android":"levelo://app?vid=900a39e8-074c-4d8e-91a4-29bfc5a7b64e","ios":"levelo://app?vid=900a39e8-074c-4d8e-91a4-29bfc5a7b64e"},"vehicle_type_id":"4","last_reported":1706450693,"current_range_meters":13600,"station_id":"ce4bhg92rcd13ifvqf90","pricing_plan_id":"free"},{"bike_id":"fce707bd-5514-4436-acf8-f36ad4138c3b","system_id":"levelo_inurba_marseille","lat":43.27996,"lon":5.416624,"is_reserved":false,"is_disabled":false,"rental_uris":{"android":"levelo://app?vid=fce707bd-5514-4436-acf8-f36ad4138c3b","ios":"levelo://app?vid=fce707bd-5514-4436-acf8-f36ad4138c3b"},"vehicle_type_id":"4","last_reported":1706450693,"current_range_meters":21200,"station_id":"ce4bho12rcd13ifvqh1g","pricing_plan_id":"free"},{"bike_id":"4526169b-477b-494c-8e23-bb17ddc0c59a","system_id":"levelo_inurba_marseille","lat":43.27996,"lon":5.416624,"is_reserved":false,"is_disabled":false,"rental_uris":{"android":"levelo://app?vid=4526169b-477b-494c-8e23-bb17ddc0c59a","ios":"levelo://app?vid=4526169b-477b-494c-8e23-bb17ddc0c59a"},"vehicle_type_id":"4","last_reported":1706450693,"current_range_meters":14400,"station_id":"ce4bho12rcd13ifvqh1g","pricing_plan_id":"free"},{"bike_id":"63d95574-1b72-4eb8-be0c-0f955f9841c0","system_id":"levelo_inurba_marseille","lat":43.308051,"lon":5.43527,"is_reserved":false,"is_disabled":false,"rental_uris":{"android":"levelo://app?vid=63d95574-1b72-4eb8-be0c-0f955f9841c0","ios":"levelo://app?vid=63d95574-1b72-4eb8-be0c-0f955f9841c0"},"vehicle_type_id":"4","last_reported":1706450693,"current_range_meters":7200,"station_id":"ce4bhph2rcd13ifvqheg","pricing_plan_id":"free"},{"bike_id":"a0c1da5c-da2c-4591-819f-e09460076444","system_id":"levelo_inurba_marseille","lat":43.33418,"lon":5.42896,"is_reserved":false,"is_disabled":false,"rental_uris":{"android":"levelo://app?vid=a0c1da5c-da2c-4591-819f-e09460076444","ios":"levelo://app?vid=a0c1da5c-da2c-4591-819f-e09460076444"},"vehicle_type_id":"4","last_reported":1706450693,"current_range_meters":4000,"station_id":"","pricing_plan_id":"free"},{"bike_id":"e394370c-52aa-4a37-a669-a727fb75ac93","system_id":"levelo_inurba_marseille","lat":43.26539,"lon":5.38998,"is_reserved":false,"is_disabled":false,"rental_uris":{"android":"levelo://app?vid=e394370c-52aa-4a37-a669-a727fb75ac93","ios":"levelo://app?vid=e394370c-52aa-4a37-a669-a727fb75ac93"},"vehicle_type_id":"4","last_reported":1706450693,"current_range_meters":28800,"station_id":"","pricing_plan_id":"free"},{"bike_id":"84c02470-0b16-4b31-9f6d-a5a31ed889c1","system_id":"levelo_inurba_marseille","lat":43.26946,"lon":5.40246,"is_reserved":false,"is_disabled":false,"rental_uris":{"android":"levelo://app?vid=84c02470-0b16-4b31-9f6d-a5a31ed889c1","ios":"levelo://app?vid=84c02470-0b16-4b31-9f6d-a5a31ed889c1"},"vehicle_type_id":"4","last_reported":1706450693,"current_range_meters":6400,"station_id":"cjm6bp8fraef2m0cb0m0","pricing_plan_id":"free"},{"bike_id":"437a6e47-df90-43c3-a39d-6c9d6938d1fe","system_id":"levelo_inurba_marseille","lat":43.26946,"lon":5.40249,"is_reserved":false,"is_disabled":false,"rental_uris":{"android":"levelo://app?vid=437a6e47-df90-43c3-a39d-6c9d6938d1fe","ios":"levelo://app?vid=437a6e47-df90-43c3-a39d-6c9d6938d1fe"},"vehicle_type_id":"4","last_reported":1706450693,"current_range_meters":28400,"station_id":"cjm6bp8fraef2m0cb0m0","pricing_plan_id":"free"},{"bike_id":"19db3207-a94a-4027-bf54-ce6eb520bddf","system_id":"levelo_inurba_marseille","lat":43.26946,"lon":5.40249,"is_reserved":false,"is_disabled":false,"rental_uris":{"android":"levelo://app?vid=19db3207-a94a-4027-bf54-ce6eb520bddf","ios":"levelo://app?vid=19db3207-a94a-4027-bf54-ce6eb520bddf"},"vehicle_type_id":"4","last_reported":1706450693,"current_range_meters":26800,"station_id":"cjm6bp8fraef2m0cb0m0","pricing_plan_id":"free"},{"bike_id":"bd7506a1-de79-4cde-b10f-3619d81198c4","system_id":"levelo_inurba_marseille","lat":43.26944,"lon":5.402463,"is_reserved":false,"is_disabled":false,"rental_uris":{"android":"levelo://app?vid=bd7506a1-de79-4cde-b10f-3619d81198c4","ios":"levelo://app?vid=bd7506a1-de79-4cde-b10f-3619d81198c4"},"vehicle_type_id":"4","last_reported":1706450693,"current_range_meters":18800,"station_id":"cjm6bp8fraef2m0cb0m0","pricing_plan_id":"free"},{"bike_id":"0bff4a87-697f-434c-862f-4db21d2888ca","system_id":"levelo_inurba_marseille","lat":43.261782,"lon":5.374515,"is_reserved":false,"is_disabled":false,"rental_uris":{"android":"levelo://app?vid=0bff4a87-697f-434c-862f-4db21d2888ca","ios":"levelo://app?vid=0bff4a87-697f-434c-862f-4db21d2888ca"},"vehicle_type_id":"4","last_reported":1706450693,"current_range_meters":9600,"station_id":"ce4bhgp2rcd13ifvqfc0","pricing_plan_id":"free"},{"bike_id":"e2136876-82ef-4e7f-ac01-f76226b84078","system_id":"levelo_inurba_marseille","lat":43.261782,"lon":5.374515,"is_reserved":false,"is_disabled":false,"rental_uris":{"android":"levelo://app?vid=e2136876-82ef-4e7f-ac01-f76226b84078","ios":"levelo://app?vid=e2136876-82ef-4e7f-ac01-f76226b84078"},"vehicle_type_id":"4","last_reported":1706450693,"current_range_meters":15600,"station_id":"ce4bhgp2rcd13ifvqfc0","pricing_plan_id":"free"},{"bike_id":"a5f33c41-d6e7-4525-aea2-16746cfcb742","system_id":"levelo_inurba_marseille","lat":43.261782,"lon":5.374515,"is_reserved":false,"is_disabled":false,"rental_uris":{"android":"levelo://app?vid=a5f33c41-d6e7-4525-aea2-16746cfcb742","ios":"levelo://app?vid=a5f33c41-d6e7-4525-aea2-16746cfcb742"},"vehicle_type_id":"4","last_reported":1706450693,"current_range_meters":16000,"station_id":"ce4bhgp2rcd13ifvqfc0","pricing_plan_id":"free"},{"bike_id":"aeb79815-bf2d-4b7e-a3b4-80aae5408eea","system_id":"levelo_inurba_marseille","lat":43.261824,"lon":5.37443,"is_reserved":false,"is_disabled":false,"rental_uris":{"android":"levelo://app?vid=aeb79815-bf2d-4b7e-a3b4-80aae5408eea","ios":"levelo://app?vid=aeb79815-bf2d-4b7e-a3b4-80aae5408eea"},"vehicle_type_id":"4","last_reported":1706450693,"current_range_meters":24800,"station_id":"ce4bhgp2rcd13ifvqfc0","pricing_plan_id":"free"},{"bike_id":"6bef11f6-dbd5-488e-b500-966939b0fb57","system_id":"levelo_inurba_marseille","lat":43.26202,"lon":5.379299,"is_reserved":false,"is_disabled":false,"rental_uris":{"android":"levelo://app?vid=6bef11f6-dbd5-488e-b500-966939b0fb57","ios":"levelo://app?vid=6bef11f6-dbd5-488e-b500-966939b0fb57"},"vehicle_type_id":"4","last_reported":1706450693,"current_range_meters":23200,"station_id":"ce4bhjp2rcd13ifvqg90","pricing_plan_id":"free"},{"bike_id":"16b7575f-3c57-4c6d-a94a-f05f7def18e1","system_id":"levelo_inurba_marseille","lat":43.271388,"lon":5.409269,"is_reserved":false,"is_disabled":false,"rental_uris":{"android":"levelo://app?vid=16b7575f-3c57-4c6d-a94a-f05f7def18e1","ios":"levelo://app?vid=16b7575f-3c57-4c6d-a94a-f05f7def18e1"},"vehicle_type_id":"4","last_reported":1706450693,"current_range_meters":27200,"station_id":"ce4bhl12rcd13ifvqgf0","pricing_plan_id":"free"},{"bike_id":"c6bc74aa-fc8f-4a6f-ab1f-9f352da0963e","system_id":"levelo_inurba_marseille","lat":43.26202,"lon":5.379299,"is_reserved":false,"is_disabled":false,"rental_uris":{"android":"levelo://app?vid=c6bc74aa-fc8f-4a6f-ab1f-9f352da0963e","ios":"levelo://app?vid=c6bc74aa-fc8f-4a6f-ab1f-9f352da0963e"},"vehicle_type_id":"4","last_reported":1706450693,"current_range_meters":10400,"station_id":"ce4bhjp2rcd13ifvqg90","pricing_plan_id":"free"},{"bike_id":"04c17a24-a02a-450b-9bd0-8d8711dc0959","system_id":"levelo_inurba_marseille","lat":43.267959,"lon":5.402685,"is_reserved":false,"is_disabled":false,"rental_uris":{"android":"levelo://app?vid=04c17a24-a02a-450b-9bd0-8d8711dc0959","ios":"levelo://app?vid=04c17a24-a02a-450b-9bd0-8d8711dc0959"},"vehicle_type_id":"4","last_reported":1706450693,"current_range_meters":24800,"station_id":"ce501612rcd8frsf0b60","pricing_plan_id":"free"},{"bike_id":"5bd04cd7-d197-40c8-ac21-4734ab07ccfd","system_id":"levelo_inurba_marseille","lat":43.267959,"lon":5.402687,"is_reserved":false,"is_disabled":false,"rental_uris":{"android":"levelo://app?vid=5bd04cd7-d197-40c8-ac21-4734ab07ccfd","ios":"levelo://app?vid=5bd04cd7-d197-40c8-ac21-4734ab07ccfd"},"vehicle_type_id":"4","last_reported":1706450693,"current_range_meters":22000,"station_id":"ce501612rcd8frsf0b60","pricing_plan_id":"free"},{"bike_id":"0b64b476-00c2-4381-ac92-a0f87502201d","system_id":"levelo_inurba_marseille","lat":43.267959,"lon":5.402687,"is_reserved":false,"is_disabled":false,"rental_uris":{"android":"levelo://app?vid=0b64b476-00c2-4381-ac92-a0f87502201d","ios":"levelo://app?vid=0b64b476-00c2-4381-ac92-a0f87502201d"},"vehicle_type_id":"4","last_reported":1706450693,"current_range_meters":26800,"station_id":"ce501612rcd8frsf0b60","pricing_plan_id":"free"},{"bike_id":"bc92b168-9def-4028-9c96-b8922d8d2862","system_id":"levelo_inurba_marseille","lat":43.298964,"lon":5.436591,"is_reserved":false,"is_disabled":false,"rental_uris":{"android":"levelo://app?vid=bc92b168-9def-4028-9c96-b8922d8d2862","ios":"levelo://app?vid=bc92b168-9def-4028-9c96-b8922d8d2862"},"vehicle_type_id":"4","last_reported":1706450693,"current_range_meters":22400,"station_id":"ce4bhpp2rcd13ifvqhfg","pricing_plan_id":"free"},{"bike_id":"12997fb5-883c-4230-99a8-176a3a81dbcf","system_id":"levelo_inurba_marseille","lat":43.29898,"lon":5.436659,"is_reserved":false,"is_disabled":false,"rental_uris":{"android":"levelo://app?vid=12997fb5-883c-4230-99a8-176a3a81dbcf","ios":"levelo://app?vid=12997fb5-883c-4230-99a8-176a3a81dbcf"},"vehicle_type_id":"4","last_reported":1706450693,"current_range_meters":25600,"station_id":"ce4bhpp2rcd13ifvqhfg","pricing_plan_id":"free"},{"bike_id":"753d6921-1f8f-42a9-a695-776f5a15aa39","system_id":"levelo_inurba_marseille","lat":43.29897,"lon":5.436661,"is_reserved":false,"is_disabled":false,"rental_uris":{"android":"levelo://app?vid=753d6921-1f8f-42a9-a695-776f5a15aa39","ios":"levelo://app?vid=753d6921-1f8f-42a9-a695-776f5a15aa39"},"vehicle_type_id":"4","last_reported":1706450693,"current_range_meters":27600,"station_id":"ce4bhpp2rcd13ifvqhfg","pricing_plan_id":"free"},{"bike_id":"6b61ab2c-ab67-440f-8712-0e7d44411e15","system_id":"levelo_inurba_marseille","lat":43.29897,"lon":5.43671,"is_reserved":false,"is_disabled":false,"rental_uris":{"android":"levelo://app?vid=6b61ab2c-ab67-440f-8712-0e7d44411e15","ios":"levelo://app?vid=6b61ab2c-ab67-440f-8712-0e7d44411e15"},"vehicle_type_id":"4","last_reported":1706450693,"current_range_meters":6000,"station_id":"ce4bhpp2rcd13ifvqhfg","pricing_plan_id":"free"},{"bike_id":"9748140e-de12-4a96-a337-9fff733d1621","system_id":"levelo_inurba_marseille","lat":43.260225,"lon":5.375455,"is_reserved":false,"is_disabled":false,"rental_uris":{"android":"levelo://app?vid=9748140e-de12-4a96-a337-9fff733d1621","ios":"levelo://app?vid=9748140e-de12-4a96-a337-9fff733d1621"},"vehicle_type_id":"4","last_reported":1706450693,"current_range_meters":22000,"station_id":"ce4bhgh2rcd13ifvqfa0","pricing_plan_id":"free"},{"bike_id":"7ea530d9-d2f0-490b-a0a5-17381b10d220","system_id":"levelo_inurba_marseille","lat":43.260219,"lon":5.37546,"is_reserved":false,"is_disabled":false,"rental_uris":{"android":"levelo://app?vid=7ea530d9-d2f0-490b-a0a5-17381b10d220","ios":"levelo://app?vid=7ea530d9-d2f0-490b-a0a5-17381b10d220"},"vehicle_type_id":"4","last_reported":1706450693,"current_range_meters":17600,"station_id":"ce4bhgh2rcd13ifvqfa0","pricing_plan_id":"free"},{"bike_id":"cd0746ff-0a1c-4ef6-bfe2-7317b8289122","system_id":"levelo_inurba_marseille","lat":43.260219,"lon":5.37546,"is_reserved":false,"is_disabled":false,"rental_uris":{"android":"levelo://app?vid=cd0746ff-0a1c-4ef6-bfe2-7317b8289122","ios":"levelo://app?vid=cd0746ff-0a1c-4ef6-bfe2-7317b8289122"},"vehicle_type_id":"4","last_reported":1706450693,"current_range_meters":9200,"station_id":"ce4bhgh2rcd13ifvqfa0","pricing_plan_id":"free"},{"bike_id":"b9c297e9-a4f0-43ee-b803-e7cc171f3969","system_id":"levelo_inurba_marseille","lat":43.28157,"lon":5.42643,"is_reserved":false,"is_disabled":false,"rental_uris":{"android":"levelo://app?vid=b9c297e9-a4f0-43ee-b803-e7cc171f3969","ios":"levelo://app?vid=b9c297e9-a4f0-43ee-b803-e7cc171f3969"},"vehicle_type_id":"4","last_reported":1706450693,"current_range_meters":0,"station_id":"ce4bhnh2rcd13ifvqgug","pricing_plan_id":"free"},{"bike_id":"0ae55a9b-4fac-4307-93a4-3081d0859a4f","system_id":"levelo_inurba_marseille","lat":43.326129,"lon":5.438138,"is_reserved":false,"is_disabled":false,"rental_uris":{"android":"levelo://app?vid=0ae55a9b-4fac-4307-93a4-3081d0859a4f","ios":"levelo://app?vid=0ae55a9b-4fac-4307-93a4-3081d0859a4f"},"vehicle_type_id":"4","last_reported":1706450693,"current_range_meters":19600,"station_id":"","pricing_plan_id":"free"},{"bike_id":"9e840305-fbd9-4f32-87ff-66ac5fd91d30","system_id":"levelo_inurba_marseille","lat":43.275028,"lon":5.424534,"is_reserved":false,"is_disabled":false,"rental_uris":{"android":"levelo://app?vid=9e840305-fbd9-4f32-87ff-66ac5fd91d30","ios":"levelo://app?vid=9e840305-fbd9-4f32-87ff-66ac5fd91d30"},"vehicle_type_id":"4","last_reported":1706450693,"current_range_meters":8400,"station_id":"ce4bhn92rcd13ifvqgrg","pricing_plan_id":"free"},{"bike_id":"cfc4b1dd-e628-4917-bf3c-41e8678cc630","system_id":"levelo_inurba_marseille","lat":43.275028,"lon":5.424534,"is_reserved":false,"is_disabled":false,"rental_uris":{"android":"levelo://app?vid=cfc4b1dd-e628-4917-bf3c-41e8678cc630","ios":"levelo://app?vid=cfc4b1dd-e628-4917-bf3c-41e8678cc630"},"vehicle_type_id":"4","last_reported":1706450693,"current_range_meters":29200,"station_id":"ce4bhn92rcd13ifvqgrg","pricing_plan_id":"free"},{"bike_id":"c029fd37-f006-4f46-aea8-9bbbadd0c920","system_id":"levelo_inurba_marseille","lat":43.27493,"lon":5.4245,"is_reserved":false,"is_disabled":false,"rental_uris":{"android":"levelo://app?vid=c029fd37-f006-4f46-aea8-9bbbadd0c920","ios":"levelo://app?vid=c029fd37-f006-4f46-aea8-9bbbadd0c920"},"vehicle_type_id":"4","last_reported":1706450693,"current_range_meters":3600,"station_id":"ce4bhn92rcd13ifvqgrg","pricing_plan_id":"free"},{"bike_id":"5179cacc-badf-46fd-a04b-b8a11113bbb3","system_id":"levelo_inurba_marseille","lat":43.2607,"lon":5.393983,"is_reserved":false,"is_disabled":false,"rental_uris":{"android":"levelo://app?vid=5179cacc-badf-46fd-a04b-b8a11113bbb3","ios":"levelo://app?vid=5179cacc-badf-46fd-a04b-b8a11113bbb3"},"vehicle_type_id":"4","last_reported":1706450693,"current_range_meters":20400,"station_id":"ce4bhh92rcd13ifvqfj0","pricing_plan_id":"free"},{"bike_id":"d56ec2c2-cfca-4562-a779-940602b26b3b","system_id":"levelo_inurba_marseille","lat":43.258224,"lon":5.394369,"is_reserved":false,"is_disabled":false,"rental_uris":{"android":"levelo://app?vid=d56ec2c2-cfca-4562-a779-940602b26b3b","ios":"levelo://app?vid=d56ec2c2-cfca-4562-a779-940602b26b3b"},"vehicle_type_id":"4","last_reported":1706450693,"current_range_meters":10400,"station_id":"ce4bhip2rcd13ifvqft0","pricing_plan_id":"free"},{"bike_id":"4bd8d963-a2fd-4403-a395-8cb83a08f39d","system_id":"levelo_inurba_marseille","lat":43.258224,"lon":5.394369,"is_reserved":false,"is_disabled":false,"rental_uris":{"android":"levelo://app?vid=4bd8d963-a2fd-4403-a395-8cb83a08f39d","ios":"levelo://app?vid=4bd8d963-a2fd-4403-a395-8cb83a08f39d"},