{"last_updated":1726236486,"ttl":30,"version":"2.2","data":{"bikes":[{"bike_id":"bc35aeaa-3e4d-43e6-9935-c8f1110a4b4c","system_id":"levelo_inurba_marseille","lat":43.30499,"lon":5.36701,"is_reserved":false,"is_disabled":false,"rental_uris":{"android":"levelo://app?vid=bc35aeaa-3e4d-43e6-9935-c8f1110a4b4c","ios":"levelo://app?vid=bc35aeaa-3e4d-43e6-9935-c8f1110a4b4c"},"vehicle_type_id":"4","last_reported":1726236487,"current_range_meters":37600,"station_id":"ce4bgrp2rcd13ifvqc9g","pricing_plan_id":"cebpf4jnsgd1na2vs0mg"},{"bike_id":"2ca2fd52-6283-4397-ac7e-8db28b0c8f78","system_id":"levelo_inurba_marseille","lat":43.23196,"lon":5.35555,"is_reserved":false,"is_disabled":false,"rental_uris":{"android":"levelo://app?vid=2ca2fd52-6283-4397-ac7e-8db28b0c8f78","ios":"levelo://app?vid=2ca2fd52-6283-4397-ac7e-8db28b0c8f78"},"vehicle_type_id":"4","last_reported":1726236487,"current_range_meters":11200,"station_id":"ce4bhu92rcd13ifvqi70","pricing_plan_id":"cebpf4jnsgd1na2vs0mg"},{"bike_id":"df7edb97-2a32-471d-9c43-e73e5f6f871c","system_id":"levelo_inurba_marseille","lat":43.32372,"lon":5.3889,"is_reserved":false,"is_disabled":false,"rental_uris":{"android":"levelo://app?vid=df7edb97-2a32-471d-9c43-e73e5f6f871c","ios":"levelo://app?vid=df7edb97-2a32-471d-9c43-e73e5f6f871c"},"vehicle_type_id":"4","last_reported":1726236487,"current_range_meters":16400,"station_id":"ce4bhqp2rcd13ifvqhog","pricing_plan_id":"cebpf4jnsgd1na2vs0mg"},{"bike_id":"78daf548-540b-4a2e-b49b-346b3b3d76ec","system_id":"levelo_inurba_marseille","lat":43.23202,"lon":5.43694,"is_reserved":false,"is_disabled":false,"rental_uris":{"android":"levelo://app?vid=78daf548-540b-4a2e-b49b-346b3b3d76ec","ios":"levelo://app?vid=78daf548-540b-4a2e-b49b-346b3b3d76ec"},"vehicle_type_id":"4","last_reported":1726236487,"current_range_meters":17600,"station_id":"","pricing_plan_id":"cebpf4jnsgd1na2vs0mg"},{"bike_id":"1433cc86-19c5-4d38-a0b5-c5c087739e0a","system_id":"levelo_inurba_marseille","lat":43.22932,"lon":5.35374,"is_reserved":false,"is_disabled":false,"rental_uris":{"android":"levelo://app?vid=1433cc86-19c5-4d38-a0b5-c5c087739e0a","ios":"levelo://app?vid=1433cc86-19c5-4d38-a0b5-c5c087739e0a"},"vehicle_type_id":"4","last_reported":1726236487,"current_range_meters":30400,"station_id":"cpo3532slgdg3j2ikp40","pricing_plan_id":"cebpf4jnsgd1na2vs0mg"},{"bike_id":"c8b8ea19-50a3-4edd-a25b-8da33014e65a","system_id":"levelo_inurba_marseille","lat":43.2695,"lon":5.38627,"is_reserved":false,"is_disabled":false,"rental_uris":{"android":"levelo://app?vid=c8b8ea19-50a3-4edd-a25b-8da33014e65a","ios":"levelo://app?vid=c8b8ea19-50a3-4edd-a25b-8da33014e65a"},"vehicle_type_id":"4","last_reported":1726236487,"current_range_meters":6000,"station_id":"ce4bhh92rcd13ifvqfh0","pricing_plan_id":"cebpf4jnsgd1na2vs0mg"},{"bike_id":"c96fe6f3-013d-4e7a-a4f4-e1d66a7e1d0a","system_id":"levelo_inurba_marseille","lat":43.32373,"lon":5.38891,"is_reserved":false,"is_disabled":false,"rental_uris":{"android":"levelo://app?vid=c96fe6f3-013d-4e7a-a4f4-e1d66a7e1d0a","ios":"levelo://app?vid=c96fe6f3-013d-4e7a-a4f4-e1d66a7e1d0a"},"vehicle_type_id":"4","last_reported":1726236487,"current_range_meters":36800,"station_id":"ce4bhqp2rcd13ifvqhog","pricing_plan_id":"cebpf4jnsgd1na2vs0mg"},{"bike_id":"ae8c7bd4-e320-4650-aaec-5acdea38c512","system_id":"levelo_inurba_marseille","lat":43.28074,"lon":5.3873,"is_reserved":false,"is_disabled":false,"rental_uris":{"android":"levelo://app?vid=ae8c7bd4-e320-4650-aaec-5acdea38c512","ios":"levelo://app?vid=ae8c7bd4-e320-4650-aaec-5acdea38c512"},"vehicle_type_id":"4","last_reported":1726236487,"current_range_meters":22400,"station_id":"","pricing_plan_id":"cebpf4jnsgd1na2vs0mg"},{"bike_id":"083984dd-1abd-4a7d-84c6-e8ceb7b63abe","system_id":"levelo_inurba_marseille","lat":43.31088,"lon":5.37773,"is_reserved":false,"is_disabled":false,"rental_uris":{"android":"levelo://app?vid=083984dd-1abd-4a7d-84c6-e8ceb7b63abe","ios":"levelo://app?vid=083984dd-1abd-4a7d-84c6-e8ceb7b63abe"},"vehicle_type_id":"4","last_reported":1726236487,"current_range_meters":38000,"station_id":"ce4bgt92rcd13ifvqcg0","pricing_plan_id":"cebpf4jnsgd1na2vs0mg"},{"bike_id":"f2aab370-6e0a-414f-a9aa-b82870be9ba4","system_id":"levelo_inurba_marseille","lat":43.28618,"lon":5.35106,"is_reserved":false,"is_disabled":false,"rental_uris":{"android":"levelo://app?vid=f2aab370-6e0a-414f-a9aa-b82870be9ba4","ios":"levelo://app?vid=f2aab370-6e0a-414f-a9aa-b82870be9ba4"},"vehicle_type_id":"4","last_reported":1726236487,"current_range_meters":20800,"station_id":"ce4bhch2rcd13ifvqeug","pricing_plan_id":"cebpf4jnsgd1na2vs0mg"},{"bike_id":"e0b9cb6c-4996-4b35-baa2-36f702866204","system_id":"levelo_inurba_marseille","lat":43.26033,"lon":5.37548,"is_reserved":false,"is_disabled":false,"rental_uris":{"android":"levelo://app?vid=e0b9cb6c-4996-4b35-baa2-36f702866204","ios":"levelo://app?vid=e0b9cb6c-4996-4b35-baa2-36f702866204"},"vehicle_type_id":"4","last_reported":1726236487,"current_range_meters":28400,"station_id":"ce4bhgh2rcd13ifvqfa0","pricing_plan_id":"cebpf4jnsgd1na2vs0mg"},{"bike_id":"27d4b97b-eb82-427c-b757-61d4240cae82","system_id":"levelo_inurba_marseille","lat":43.28707,"lon":5.39983,"is_reserved":false,"is_disabled":false,"rental_uris":{"android":"levelo://app?vid=27d4b97b-eb82-427c-b757-61d4240cae82","ios":"levelo://app?vid=27d4b97b-eb82-427c-b757-61d4240cae82"},"vehicle_type_id":"4","last_reported":1726236487,"current_range_meters":30000,"station_id":"ce4bho92rcd13ifvqh3g","pricing_plan_id":"cebpf4jnsgd1na2vs0mg"},{"bike_id":"20a93905-b3a1-4ead-a861-f6bd36aa5b5e","system_id":"levelo_inurba_marseille","lat":43.23155,"lon":5.4371,"is_reserved":false,"is_disabled":false,"rental_uris":{"android":"levelo://app?vid=20a93905-b3a1-4ead-a861-f6bd36aa5b5e","ios":"levelo://app?vid=20a93905-b3a1-4ead-a861-f6bd36aa5b5e"},"vehicle_type_id":"4","last_reported":1726236487,"current_range_meters":19600,"station_id":"ce4bhmp2rcd13ifvqgog","pricing_plan_id":"cebpf4jnsgd1na2vs0mg"},{"bike_id":"c5ed8bab-12e3-4101-81bb-39350c57310d","system_id":"levelo_inurba_marseille","lat":43.24179,"lon":5.36392,"is_reserved":false,"is_disabled":false,"rental_uris":{"android":"levelo://app?vid=c5ed8bab-12e3-4101-81bb-39350c57310d","ios":"levelo://app?vid=c5ed8bab-12e3-4101-81bb-39350c57310d"},"vehicle_type_id":"4","last_reported":1726236487,"current_range_meters":4400,"station_id":"cpo36qri1sfpv3e86is0","pricing_plan_id":"cebpf4jnsgd1na2vs0mg"},{"bike_id":"f87da9c5-fe9f-4390-9a64-bc438907c29e","system_id":"levelo_inurba_marseille","lat":43.30549,"lon":5.38417,"is_reserved":false,"is_disabled":false,"rental_uris":{"android":"levelo://app?vid=f87da9c5-fe9f-4390-9a64-bc438907c29e","ios":"levelo://app?vid=f87da9c5-fe9f-4390-9a64-bc438907c29e"},"vehicle_type_id":"4","last_reported":1726236487,"current_range_meters":32800,"station_id":"ce4bgg92rcd13ifvqb30","pricing_plan_id":"cebpf4jnsgd1na2vs0mg"},{"bike_id":"f45d9413-9a73-47f2-a10e-0dc762623601","system_id":"levelo_inurba_marseille","lat":43.23152,"lon":5.43703,"is_reserved":false,"is_disabled":false,"rental_uris":{"android":"levelo://app?vid=f45d9413-9a73-47f2-a10e-0dc762623601","ios":"levelo://app?vid=f45d9413-9a73-47f2-a10e-0dc762623601"},"vehicle_type_id":"4","last_reported":1726236487,"current_range_meters":39200,"station_id":"ce4bhmp2rcd13ifvqgog","pricing_plan_id":"cebpf4jnsgd1na2vs0mg"},{"bike_id":"fb9dbfe1-01d0-400a-aab3-c465c4c7ed0b","system_id":"levelo_inurba_marseille","lat":43.31176,"lon":5.38722,"is_reserved":false,"is_disabled":false,"rental_uris":{"android":"levelo://app?vid=fb9dbfe1-01d0-400a-aab3-c465c4c7ed0b","ios":"levelo://app?vid=fb9dbfe1-01d0-400a-aab3-c465c4c7ed0b"},"vehicle_type_id":"4","last_reported":1726236487,"current_range_meters":27600,"station_id":"ce4bgv12rcd13ifvqcp0","pricing_plan_id":"cebpf4jnsgd1na2vs0mg"},{"bike_id":"66392a4f-4a09-4c71-8bf6-e1937714ad14","system_id":"levelo_inurba_marseille","lat":43.28939,"lon":5.39622,"is_reserved":false,"is_disabled":false,"rental_uris":{"android":"levelo://app?vid=66392a4f-4a09-4c71-8bf6-e1937714ad14","ios":"levelo://app?vid=66392a4f-4a09-4c71-8bf6-e1937714ad14"},"vehicle_type_id":"4","last_reported":1726236487,"current_range_meters":38800,"station_id":"ce4bh3h2rcd13ifvqdn0","pricing_plan_id":"cebpf4jnsgd1na2vs0mg"},{"bike_id":"b6b5b04f-9239-40ce-aecb-bf75b0bbb561","system_id":"levelo_inurba_marseille","lat":43.28454,"lon":5.35892,"is_reserved":false,"is_disabled":false,"rental_uris":{"android":"levelo://app?vid=b6b5b04f-9239-40ce-aecb-bf75b0bbb561","ios":"levelo://app?vid=b6b5b04f-9239-40ce-aecb-bf75b0bbb561"},"vehicle_type_id":"4","last_reported":1726236487,"current_range_meters":27200,"station_id":"ce4bhah2rcd13ifvqei0","pricing_plan_id":"cebpf4jnsgd1na2vs0mg"},{"bike_id":"13ec4916-f0ea-4897-8afc-596425b42c42","system_id":"levelo_inurba_marseille","lat":43.23194,"lon":5.35553,"is_reserved":false,"is_disabled":false,"rental_uris":{"android":"levelo://app?vid=13ec4916-f0ea-4897-8afc-596425b42c42","ios":"levelo://app?vid=13ec4916-f0ea-4897-8afc-596425b42c42"},"vehicle_type_id":"4","last_reported":1726236487,"current_range_meters":31200,"station_id":"ce4bhu92rcd13ifvqi70","pricing_plan_id":"cebpf4jnsgd1na2vs0mg"},{"bike_id":"fbb69908-0749-45d1-8a5b-8e8131c59359","system_id":"levelo_inurba_marseille","lat":43.24661,"lon":5.38162,"is_reserved":false,"is_disabled":false,"rental_uris":{"android":"levelo://app?vid=fbb69908-0749-45d1-8a5b-8e8131c59359","ios":"levelo://app?vid=fbb69908-0749-45d1-8a5b-8e8131c59359"},"vehicle_type_id":"4","last_reported":1726236487,"current_range_meters":19200,"station_id":"ce4bhih2rcd13ifvqfr0","pricing_plan_id":"cebpf4jnsgd1na2vs0mg"},{"bike_id":"171e7c83-45c5-4f40-968b-a2410f7f37a5","system_id":"levelo_inurba_marseille","lat":43.23182,"lon":5.39994,"is_reserved":false,"is_disabled":false,"rental_uris":{"android":"levelo://app?vid=171e7c83-45c5-4f40-968b-a2410f7f37a5","ios":"levelo://app?vid=171e7c83-45c5-4f40-968b-a2410f7f37a5"},"vehicle_type_id":"4","last_reported":1726236487,"current_range_meters":39200,"station_id":"ce4bhn12rcd13ifvqgqg","pricing_plan_id":"cebpf4jnsgd1na2vs0mg"},{"bike_id":"2bdd6e82-6df8-4eec-8c3d-9e20a3d0a36b","system_id":"levelo_inurba_marseille","lat":43.27335,"lon":5.39085,"is_reserved":false,"is_disabled":false,"rental_uris":{"android":"levelo://app?vid=2bdd6e82-6df8-4eec-8c3d-9e20a3d0a36b","ios":"levelo://app?vid=2bdd6e82-6df8-4eec-8c3d-9e20a3d0a36b"},"vehicle_type_id":"4","last_reported":1726236487,"current_range_meters":4800,"station_id":"ce4bhgp2rcd13ifvqfe0","pricing_plan_id":"cebpf4jnsgd1na2vs0mg"},{"bike_id":"a59d64a6-0c90-478e-8726-6eda2f84c2f7","system_id":"levelo_inurba_marseille","lat":43.26035,"lon":5.37546,"is_reserved":false,"is_disabled":false,"rental_uris":{"android":"levelo://app?vid=a59d64a6-0c90-478e-8726-6eda2f84c2f7","ios":"levelo://app?vid=a59d64a6-0c90-478e-8726-6eda2f84c2f7"},"vehicle_type_id":"4","last_reported":1726236487,"current_range_meters":4400,"station_id":"ce4bhgh2rcd13ifvqfa0","pricing_plan_id":"cebpf4jnsgd1na2vs0mg"},{"bike_id":"1b69e28d-b657-4802-b5dd-aa17fb5a768b","system_id":"levelo_inurba_marseille","lat":43.27134,"lon":5.42801,"is_reserved":false,"is_disabled":false,"rental_uris":{"android":"levelo://app?vid=1b69e28d-b657-4802-b5dd-aa17fb5a768b","ios":"levelo://app?vid=1b69e28d-b657-4802-b5dd-aa17fb5a768b"},"vehicle_type_id":"4","last_reported":1726236487,"current_range_meters":30800,"station_id":"","pricing_plan_id":"cebpf4jnsgd1na2vs0mg"},{"bike_id":"ba2bc136-60e4-407e-8700-ecc807afc4b6","system_id":"levelo_inurba_marseille","lat":43.30145,"lon":5.37404,"is_reserved":false,"is_disabled":false,"rental_uris":{"android":"levelo://app?vid=ba2bc136-60e4-407e-8700-ecc807afc4b6","ios":"levelo://app?vid=ba2bc136-60e4-407e-8700-ecc807afc4b6"},"vehicle_type_id":"4","last_reported":1726236487,"current_range_meters":10800,"station_id":"ce4bgs92rcd13ifvqcc0","pricing_plan_id":"cebpf4jnsgd1na2vs0mg"},{"bike_id":"1a8bf0ad-cf79-4a9a-8c49-929f90fe7b67","system_id":"levelo_inurba_marseille","lat":43.24661,"lon":5.3816,"is_reserved":false,"is_disabled":false,"rental_uris":{"android":"levelo://app?vid=1a8bf0ad-cf79-4a9a-8c49-929f90fe7b67","ios":"levelo://app?vid=1a8bf0ad-cf79-4a9a-8c49-929f90fe7b67"},"vehicle_type_id":"4","last_reported":1726236487,"current_range_meters":6400,"station_id":"ce4bhih2rcd13ifvqfr0","pricing_plan_id":"cebpf4jnsgd1na2vs0mg"},{"bike_id":"995d3a7e-289e-4ebd-b785-9d2da426ad57","system_id":"levelo_inurba_marseille","lat":43.23198,"lon":5.35548,"is_reserved":false,"is_disabled":false,"rental_uris":{"android":"levelo://app?vid=995d3a7e-289e-4ebd-b785-9d2da426ad57","ios":"levelo://app?vid=995d3a7e-289e-4ebd-b785-9d2da426ad57"},"vehicle_type_id":"4","last_reported":1726236487,"current_range_meters":25600,"station_id":"ce4bhu92rcd13ifvqi70","pricing_plan_id":"cebpf4jnsgd1na2vs0mg"},{"bike_id":"74c67d55-8a5f-40c9-8066-d68354718f8c","system_id":"levelo_inurba_marseille","lat":43.23192,"lon":5.35549,"is_reserved":false,"is_disabled":false,"rental_uris":{"android":"levelo://app?vid=74c67d55-8a5f-40c9-8066-d68354718f8c","ios":"levelo://app?vid=74c67d55-8a5f-40c9-8066-d68354718f8c"},"vehicle_type_id":"4","last_reported":1726236487,"current_range_meters":29600,"station_id":"ce4bhu92rcd13ifvqi70","pricing_plan_id":"cebpf4jnsgd1na2vs0mg"},{"bike_id":"a16d5950-f2d0-4789-bb73-fab93aac5119","system_id":"levelo_inurba_marseille","lat":43.29793,"lon":5.38109,"is_reserved":false,"is_disabled":false,"rental_uris":{"android":"levelo://app?vid=a16d5950-f2d0-4789-bb73-fab93aac5119","ios":"levelo://app?vid=a16d5950-f2d0-4789-bb73-fab93aac5119"},"vehicle_type_id":"4","last_reported":1726236487,"current_range_meters":32400,"station_id":"ce4bgip2rcd13ifvqbb0","pricing_plan_id":"cebpf4jnsgd1na2vs0mg"},{"bike_id":"0f981abd-3027-4d17-82e4-6cb53a98da27","system_id":"levelo_inurba_marseille","lat":43.27841,"lon":5.3921,"is_reserved":false,"is_disabled":false,"rental_uris":{"android":"levelo://app?vid=0f981abd-3027-4d17-82e4-6cb53a98da27","ios":"levelo://app?vid=0f981abd-3027-4d17-82e4-6cb53a98da27"},"vehicle_type_id":"4","last_reported":1726236487,"current_range_meters":18800,"station_id":"ce4bhjp2rcd13ifvqga0","pricing_plan_id":"cebpf4jnsgd1na2vs0mg"},{"bike_id":"e2be0aea-67dc-4dc6-b46f-e2412631f2dd","system_id":"levelo_inurba_marseille","lat":43.25007,"lon":5.38931,"is_reserved":false,"is_disabled":false,"rental_uris":{"android":"levelo://app?vid=e2be0aea-67dc-4dc6-b46f-e2412631f2dd","ios":"levelo://app?vid=e2be0aea-67dc-4dc6-b46f-e2412631f2dd"},"vehicle_type_id":"4","last_reported":1726236487,"current_range_meters":8000,"station_id":"ce4bhgp2rcd13ifvqfd0","pricing_plan_id":"cebpf4jnsgd1na2vs0mg"},{"bike_id":"18363dd6-7c9b-4898-acf1-e538c99e26ab","system_id":"levelo_inurba_marseille","lat":43.30554,"lon":5.36532,"is_reserved":false,"is_disabled":false,"rental_uris":{"android":"levelo://app?vid=18363dd6-7c9b-4898-acf1-e538c99e26ab","ios":"levelo://app?vid=18363dd6-7c9b-4898-acf1-e538c99e26ab"},"vehicle_type_id":"4","last_reported":1726236487,"current_range_meters":39200,"station_id":"ce4bgs12rcd13ifvqcag","pricing_plan_id":"cebpf4jnsgd1na2vs0mg"},{"bike_id":"becf01b7-79cb-4d83-b797-89f2c0f6135a","system_id":"levelo_inurba_marseille","lat":43.29625,"lon":5.37156,"is_reserved":false,"is_disabled":false,"rental_uris":{"android":"levelo://app?vid=becf01b7-79cb-4d83-b797-89f2c0f6135a","ios":"levelo://app?vid=becf01b7-79cb-4d83-b797-89f2c0f6135a"},"vehicle_type_id":"4","last_reported":1726236487,"current_range_meters":36800,"station_id":"ce4bgnh2rcd13ifvqc0g","pricing_plan_id":"cebpf4jnsgd1na2vs0mg"},{"bike_id":"ddcd6a1d-6048-412e-a374-9c40896ddcb7","system_id":"levelo_inurba_marseille","lat":43.23151,"lon":5.43705,"is_reserved":false,"is_disabled":false,"rental_uris":{"android":"levelo://app?vid=ddcd6a1d-6048-412e-a374-9c40896ddcb7","ios":"levelo://app?vid=ddcd6a1d-6048-412e-a374-9c40896ddcb7"},"vehicle_type_id":"4","last_reported":1726236487,"current_range_meters":14000,"station_id":"ce4bhmp2rcd13ifvqgog","pricing_plan_id":"cebpf4jnsgd1na2vs0mg"},{"bike_id":"6d276034-1f3f-472e-add4-1f566be84615","system_id":"levelo_inurba_marseille","lat":43.30547,"lon":5.36537,"is_reserved":false,"is_disabled":false,"rental_uris":{"android":"levelo://app?vid=6d276034-1f3f-472e-add4-1f566be84615","ios":"levelo://app?vid=6d276034-1f3f-472e-add4-1f566be84615"},"vehicle_type_id":"4","last_reported":1726236487,"current_range_meters":29600,"station_id":"ce4bgs12rcd13ifvqcag","pricing_plan_id":"cebpf4jnsgd1na2vs0mg"},{"bike_id":"f1372604-344e-4259-90eb-cf63a9f9e1ba","system_id":"levelo_inurba_marseille","lat":43.3148,"lon":5.3731,"is_reserved":false,"is_disabled":false,"rental_uris":{"android":"levelo://app?vid=f1372604-344e-4259-90eb-cf63a9f9e1ba","ios":"levelo://app?vid=f1372604-344e-4259-90eb-cf63a9f9e1ba"},"vehicle_type_id":"4","last_reported":1726236487,"current_range_meters":4000,"station_id":"ce4bgt12rcd13ifvqcd0","pricing_plan_id":"cebpf4jnsgd1na2vs0mg"},{"bike_id":"e01f0e47-6a14-4e05-a5a4-3b13e529d0fa","system_id":"levelo_inurba_marseille","lat":43.28265,"lon":5.35069,"is_reserved":false,"is_disabled":false,"rental_uris":{"android":"levelo://app?vid=e01f0e47-6a14-4e05-a5a4-3b13e529d0fa","ios":"levelo://app?vid=e01f0e47-6a14-4e05-a5a4-3b13e529d0fa"},"vehicle_type_id":"4","last_reported":1726236487,"current_range_meters":16800,"station_id":"ce4bhbp2rcd13ifvqerg","pricing_plan_id":"cebpf4jnsgd1na2vs0mg"},{"bike_id":"d84214b9-11c2-4a5e-8f9e-9bd274cfac2e","system_id":"levelo_inurba_marseille","lat":43.2668,"lon":5.38266,"is_reserved":false,"is_disabled":false,"rental_uris":{"android":"levelo://app?vid=d84214b9-11c2-4a5e-8f9e-9bd274cfac2e","ios":"levelo://app?vid=d84214b9-11c2-4a5e-8f9e-9bd274cfac2e"},"vehicle_type_id":"4","last_reported":1726236487,"current_range_meters":38800,"station_id":"ce4bhg92rcd13ifvqf90","pricing_plan_id":"cebpf4jnsgd1na2vs0mg"},{"bike_id":"445c1462-9e37-40c2-92bd-b577e6c50a54","system_id":"levelo_inurba_marseille","lat":43.26953,"lon":5.38628,"is_reserved":false,"is_disabled":false,"rental_uris":{"android":"levelo://app?vid=445c1462-9e37-40c2-92bd-b577e6c50a54","ios":"levelo://app?vid=445c1462-9e37-40c2-92bd-b577e6c50a54"},"vehicle_type_id":"4","last_reported":1726236487,"current_range_meters":37600,"station_id":"ce4bhh92rcd13ifvqfh0","pricing_plan_id":"cebpf4jnsgd1na2vs0mg"},{"bike_id":"9da182e8-0d93-432f-b25f-1518e645be40","system_id":"levelo_inurba_marseille","lat":43.310857,"lon":5.377066,"is_reserved":false,"is_disabled":false,"rental_uris":{"android":"levelo://app?vid=9da182e8-0d93-432f-b25f-1518e645be40","ios":"levelo://app?vid=9da182e8-0d93-432f-b25f-1518e645be40"},"vehicle_type_id":"4","last_reported":1726236487,"current_range_meters":37600,"station_id":"ce4bgt12rcd13ifvqcd0","pricing_plan_id":"cebpf4jnsgd1na2vs0mg"},{"bike_id":"69d67a7b-eee0-4809-a960-f55b23e7bd6e","system_id":"levelo_inurba_marseille","lat":43.2988,"lon":5.38911,"is_reserved":false,"is_disabled":false,"rental_uris":{"android":"levelo://app?vid=69d67a7b-eee0-4809-a960-f55b23e7bd6e","ios":"levelo://app?vid=69d67a7b-eee0-4809-a960-f55b23e7bd6e"},"vehicle_type_id":"4","last_reported":1726236487,"current_range_meters":3600,"station_id":"ce4bh392rcd13ifvqdl0","pricing_plan_id":"cebpf4jnsgd1na2vs0mg"},{"bike_id":"6df965e0-9534-47ea-b248-ceda89c3b8a8","system_id":"levelo_inurba_marseille","lat":43.23155,"lon":5.43704,"is_reserved":false,"is_disabled":false,"rental_uris":{"android":"levelo://app?vid=6df965e0-9534-47ea-b248-ceda89c3b8a8","ios":"levelo://app?vid=6df965e0-9534-47ea-b248-ceda89c3b8a8"},"vehicle_type_id":"4","last_reported":1726236487,"current_range_meters":18000,"station_id":"ce4bhmp2rcd13ifvqgog","pricing_plan_id":"cebpf4jnsgd1na2vs0mg"},{"bike_id":"2a089944-b1a6-45af-99d1-9b70add064d3","system_id":"levelo_inurba_marseille","lat":43.24808,"lon":5.37464,"is_reserved":false,"is_disabled":false,"rental_uris":{"android":"levelo://app?vid=2a089944-b1a6-45af-99d1-9b70add064d3","ios":"levelo://app?vid=2a089944-b1a6-45af-99d1-9b70add064d3"},"vehicle_type_id":"4","last_reported":1726236487,"current_range_meters":16800,"station_id":"ce4bhgh2rcd13ifvqfb0","pricing_plan_id":"cebpf4jnsgd1na2vs0mg"},{"bike_id":"34721204-9cc8-4128-8304-5b698c26b1e6","system_id":"levelo_inurba_marseille","lat":43.23185,"lon":5.39977,"is_reserved":false,"is_disabled":false,"rental_uris":{"android":"levelo://app?vid=34721204-9cc8-4128-8304-5b698c26b1e6","ios":"levelo://app?vid=34721204-9cc8-4128-8304-5b698c26b1e6"},"vehicle_type_id":"4","last_reported":1726236487,"current_range_meters":3200,"station_id":"ce4bhn12rcd13ifvqgqg","pricing_plan_id":"cebpf4jnsgd1na2vs0mg"},{"bike_id":"3e7284f6-6b22-423f-83c6-066d093107cb","system_id":"levelo_inurba_marseille","lat":43.27618,"lon":5.36111,"is_reserved":false,"is_disabled":false,"rental_uris":{"android":"levelo://app?vid=3e7284f6-6b22-423f-83c6-066d093107cb","ios":"levelo://app?vid=3e7284f6-6b22-423f-83c6-066d093107cb"},"vehicle_type_id":"4","last_reported":1726236487,"current_range_meters":26000,"station_id":"ce4bgj92rcd13ifvqbe0","pricing_plan_id":"cebpf4jnsgd1na2vs0mg"},{"bike_id":"1047d85e-20d2-4932-b933-8347dc0b163e","system_id":"levelo_inurba_marseille","lat":43.30798,"lon":5.38158,"is_reserved":false,"is_disabled":false,"rental_uris":{"android":"levelo://app?vid=1047d85e-20d2-4932-b933-8347dc0b163e","ios":"levelo://app?vid=1047d85e-20d2-4932-b933-8347dc0b163e"},"vehicle_type_id":"4","last_reported":1726236487,"current_range_meters":23200,"station_id":"ce4bgt12rcd13ifvqce0","pricing_plan_id":"cebpf4jnsgd1na2vs0mg"},{"bike_id":"39b86749-80ef-4310-953b-c60370086942","system_id":"levelo_inurba_marseille","lat":43.24545,"lon":5.39525,"is_reserved":false,"is_disabled":false,"rental_uris":{"android":"levelo://app?vid=39b86749-80ef-4310-953b-c60370086942","ios":"levelo://app?vid=39b86749-80ef-4310-953b-c60370086942"},"vehicle_type_id":"4","last_reported":1726236487,"current_range_meters":30400,"station_id":"ce4bhlp2rcd13ifvqgjg","pricing_plan_id":"cebpf4jnsgd1na2vs0mg"},{"bike_id":"6a8f2f10-9a94-4930-acf4-9d3abaa17531","system_id":"levelo_inurba_marseille","lat":43.25502,"lon":5.3765,"is_reserved":false,"is_disabled":false,"rental_uris":{"android":"levelo://app?vid=6a8f2f10-9a94-4930-acf4-9d3abaa17531","ios":"levelo://app?vid=6a8f2f10-9a94-4930-acf4-9d3abaa17531"},"vehicle_type_id":"4","last_reported":1726236487,"current_range_meters":36400,"station_id":"ce4bhh12rcd13ifvqff0","pricing_plan_id":"cebpf4jnsgd1na2vs0mg"},{"bike_id":"4cad2379-f22f-4bf0-a45e-a36b3b61dd30","system_id":"levelo_inurba_marseille","lat":43.25588,"lon":5.38239,"is_reserved":false,"is_disabled":false,"rental_uris":{"android":"levelo://app?vid=4cad2379-f22f-4bf0-a45e-a36b3b61dd30","ios":"levelo://app?vid=4cad2379-f22f-4bf0-a45e-a36b3b61dd30"},"vehicle_type_id":"4","last_reported":1726236487,"current_range_meters":38000,"station_id":"ce4bhih2rcd13ifvqfs0","pricing_plan_id":"cebpf4jnsgd1na2vs0mg"},{"bike_id":"463a29c6-de5f-452d-8ad2-3526bf777173","system_id":"levelo_inurba_marseille","lat":43.3053,"lon":5.36531,"is_reserved":false,"is_disabled":false,"rental_uris":{"android":"levelo://app?vid=463a29c6-de5f-452d-8ad2-3526bf777173","ios":"levelo://app?vid=463a29c6-de5f-452d-8ad2-3526bf777173"},"vehicle_type_id":"4","last_reported":1726236487,"current_range_meters":39200,"station_id":"ce4bgs12rcd13ifvqcag","pricing_plan_id":"cebpf4jnsgd1na2vs0mg"},{"bike_id":"8cb3e149-39ae-4d66-b9b7-961d088e9fdc","system_id":"levelo_inurba_marseille","lat":43.32369,"lon":5.38888,"is_reserved":false,"is_disabled":false,"rental_uris":{"android":"levelo://app?vid=8cb3e149-39ae-4d66-b9b7-961d088e9fdc","ios":"levelo://app?vid=8cb3e149-39ae-4d66-b9b7-961d088e9fdc"},"vehicle_type_id":"4","last_reported":1726236487,"current_range_meters":25600,"station_id":"ce4bhqp2rcd13ifvqhog","pricing_plan_id":"cebpf4jnsgd1na2vs0mg"},{"bike_id":"acb4473c-f793-440a-9c76-0eca7b03c7c3","system_id":"levelo_inurba_marseille","lat":43.2766,"lon":5.38132,"is_reserved":false,"is_disabled":false,"rental_uris":{"android":"levelo://app?vid=acb4473c-f793-440a-9c76-0eca7b03c7c3","ios":"levelo://app?vid=acb4473c-f793-440a-9c76-0eca7b03c7c3"},"vehicle_type_id":"4","last_reported":1726236487,"current_range_meters":7200,"station_id":"","pricing_plan_id":"cebpf4jnsgd1na2vs0mg"},{"bike_id":"2bfc62ef-89cd-4528-9f05-d83dcbe95997","system_id":"levelo_inurba_marseille","lat":43.29164,"lon":5.37169,"is_reserved":false,"is_disabled":false,"rental_uris":{"android":"levelo://app?vid=2bfc62ef-89cd-4528-9f05-d83dcbe95997","ios":"levelo://app?vid=2bfc62ef-89cd-4528-9f05-d83dcbe95997"},"vehicle_type_id":"4","last_reported":1726236487,"current_range_meters":4400,"station_id":"ce4bha92rcd13ifvqeh0","pricing_plan_id":"cebpf4jnsgd1na2vs0mg"},{"bike_id":"5cb60f37-03a3-4a06-8e33-a3da3e0454bb","system_id":"levelo_inurba_marseille","lat":43.2466,"lon":5.38898,"is_reserved":false,"is_disabled":false,"rental_uris":{"android":"levelo://app?vid=5cb60f37-03a3-4a06-8e33-a3da3e0454bb","ios":"levelo://app?vid=5cb60f37-03a3-4a06-8e33-a3da3e0454bb"},"vehicle_type_id":"4","last_reported":1726236487,"current_range_meters":31200,"station_id":"ce4bhg12rcd13ifvqf60","pricing_plan_id":"cebpf4jnsgd1na2vs0mg"},{"bike_id":"702d6e97-d2e4-48bc-9181-e8da46eb6615","system_id":"levelo_inurba_marseille","lat":43.29504,"lon":5.39039,"is_reserved":false,"is_disabled":false,"rental_uris":{"android":"levelo://app?vid=702d6e97-d2e4-48bc-9181-e8da46eb6615","ios":"levelo://app?vid=702d6e97-d2e4-48bc-9181-e8da46eb6615"},"vehicle_type_id":"4","last_reported":1726236487,"current_range_meters":30400,"station_id":"ce4bh3p2rcd13ifvqdp0","pricing_plan_id":"cebpf4jnsgd1na2vs0mg"},{"bike_id":"88ee1b6c-0df9-478c-b3b0-ed3bc438c950","system_id":"levelo_inurba_marseille","lat":43.30785,"lon":5.37653,"is_reserved":false,"is_disabled":false,"rental_uris":{"android":"levelo://app?vid=88ee1b6c-0df9-478c-b3b0-ed3bc438c950","ios":"levelo://app?vid=88ee1b6c-0df9-478c-b3b0-ed3bc438c950"},"vehicle_type_id":"4","last_reported":1726236487,"current_range_meters":27600,"station_id":"ce4bgv92rcd13ifvqcq0","pricing_plan_id":"cebpf4jnsgd1na2vs0mg"},{"bike_id":"4067cf6c-6e3d-4ac9-99bf-c1b92b69f736","system_id":"levelo_inurba_marseille","lat":43.32485,"lon":5.3656,"is_reserved":false,"is_disabled":false,"rental_uris":{"android":"levelo://app?vid=4067cf6c-6e3d-4ac9-99bf-c1b92b69f736","ios":"levelo://app?vid=4067cf6c-6e3d-4ac9-99bf-c1b92b69f736"},"vehicle_type_id":"4","last_reported":1726236487,"current_range_meters":24000,"station_id":"ce4bhs12rcd13ifvqhvg","pricing_plan_id":"cebpf4jnsgd1na2vs0mg"},{"bike_id":"9a294201-177a-42e2-b4e6-ec74738f7951","system_id":"levelo_inurba_marseille","lat":43.26957,"lon":5.38639,"is_reserved":false,"is_disabled":false,"rental_uris":{"android":"levelo://app?vid=9a294201-177a-42e2-b4e6-ec74738f7951","ios":"levelo://app?vid=9a294201-177a-42e2-b4e6-ec74738f7951"},"vehicle_type_id":"4","last_reported":1726236487,"current_range_meters":39200,"station_id":"ce4bhh92rcd13ifvqfh0","pricing_plan_id":"cebpf4jnsgd1na2vs0mg"},{"bike_id":"de0c03fd-df53-4c90-bdc6-56641ff0a144","system_id":"levelo_inurba_marseille","lat":43.28421,"lon":5.34978,"is_reserved":false,"is_disabled":false,"rental_uris":{"android":"levelo://app?vid=de0c03fd-df53-4c90-bdc6-56641ff0a144","ios":"levelo://app?vid=de0c03fd-df53-4c90-bdc6-56641ff0a144"},"vehicle_type_id":"4","last_reported":1726236487,"current_range_meters":16000,"station_id":"ce4bhbh2rcd13ifvqepg","pricing_plan_id":"cebpf4jnsgd1na2vs0mg"},{"bike_id":"965f9d09-d8da-4f5f-8f8d-3582dbf927d4","system_id":"levelo_inurba_marseille","lat":43.29304,"lon":5.37186,"is_reserved":false,"is_disabled":false,"rental_uris":{"android":"levelo://app?vid=965f9d09-d8da-4f5f-8f8d-3582dbf927d4","ios":"levelo://app?vid=965f9d09-d8da-4f5f-8f8d-3582dbf927d4"},"vehicle_type_id":"4","last_reported":1726236487,"current_range_meters":36000,"station_id":"ce4bgh92rcd13ifvqb40","pricing_plan_id":"cebpf4jnsgd1na2vs0mg"},{"bike_id":"f3cc3ea1-d7e6-427f-99ed-d3e9f444f58e","system_id":"levelo_inurba_marseille","lat":43.27209,"lon":5.39185,"is_reserved":false,"is_disabled":false,"rental_uris":{"android":"levelo://app?vid=f3cc3ea1-d7e6-427f-99ed-d3e9f444f58e","ios":"levelo://app?vid=f3cc3ea1-d7e6-427f-99ed-d3e9f444f58e"},"vehicle_type_id":"4","last_reported":1726236487,"current_range_meters":6800,"station_id":"ce4bhhp2rcd13ifvqfm0","pricing_plan_id":"cebpf4jnsgd1na2vs0mg"},{"bike_id":"eaf3218e-3b2a-4dde-9c15-99a6c4254e56","system_id":"levelo_inurba_marseille","lat":43.299,"lon":5.43657,"is_reserved":false,"is_disabled":false,"rental_uris":{"android":"levelo://app?vid=eaf3218e-3b2a-4dde-9c15-99a6c4254e56","ios":"levelo://app?vid=eaf3218e-3b2a-4dde-9c15-99a6c4254e56"},"vehicle_type_id":"4","last_reported":1726236487,"current_range_meters":38800,"station_id":"ce4bhpp2rcd13ifvqhfg","pricing_plan_id":"cebpf4jnsgd1na2vs0mg"},{"bike_id":"a91883c6-12d3-44ff-9d57-b07bc67fba09","system_id":"levelo_inurba_marseille","lat":43.30939,"lon":5.40142,"is_reserved":false,"is_disabled":false,"rental_uris":{"android":"levelo://app?vid=a91883c6-12d3-44ff-9d57-b07bc67fba09","ios":"levelo://app?vid=a91883c6-12d3-44ff-9d57-b07bc67fba09"},"vehicle_type_id":"4","last_reported":1726236487,"current_range_meters":36000,"station_id":"ce4bgvp2rcd13ifvqct0","pricing_plan_id":"cebpf4jnsgd1na2vs0mg"},{"bike_id":"c938fb69-6e48-4f8d-818f-acbbbe460a2b","system_id":"levelo_inurba_marseille","lat":43.30548,"lon":5.36533,"is_reserved":false,"is_disabled":false,"rental_uris":{"android":"levelo://app?vid=c938fb69-6e48-4f8d-818f-acbbbe460a2b","ios":"levelo://app?vid=c938fb69-6e48-4f8d-818f-acbbbe460a2b"},"vehicle_type_id":"4","last_reported":1726236487,"current_range_meters":31200,"station_id":"ce4bgs12rcd13ifvqcag","pricing_plan_id":"cebpf4jnsgd1na2vs0mg"},{"bike_id":"6dfe49f4-83e2-40d0-8865-0920a4415a17","system_id":"levelo_inurba_marseille","lat":43.29684,"lon":5.37695,"is_reserved":false,"is_disabled":false,"rental_uris":{"android":"levelo://app?vid=6dfe49f4-83e2-40d0-8865-0920a4415a17","ios":"levelo://app?vid=6dfe49f4-83e2-40d0-8865-0920a4415a17"},"vehicle_type_id":"4","last_reported":1726236487,"current_range_meters":38800,"station_id":"ce4bgkh2rcd13ifvqbl0","pricing_plan_id":"cebpf4jnsgd1na2vs0mg"},{"bike_id":"0ea99d89-f29c-4e54-9766-bdcd2d65271c","system_id":"levelo_inurba_marseille","lat":43.22936,"lon":5.35375,"is_reserved":false,"is_disabled":false,"rental_uris":{"android":"levelo://app?vid=0ea99d89-f29c-4e54-9766-bdcd2d65271c","ios":"levelo://app?vid=0ea99d89-f29c-4e54-9766-bdcd2d65271c"},"vehicle_type_id":"4","last_reported":1726236487,"current_range_meters":26800,"station_id":"cpo3532slgdg3j2ikp40","pricing_plan_id":"cebpf4jnsgd1na2vs0mg"},{"bike_id":"ba81e19a-02db-4df6-ba4c-045bfb8f6f7d","system_id":"levelo_inurba_marseille","lat":43.30532,"lon":5.36537,"is_reserved":false,"is_disabled":false,"rental_uris":{"android":"levelo://app?vid=ba81e19a-02db-4df6-ba4c-045bfb8f6f7d","ios":"levelo://app?vid=ba81e19a-02db-4df6-ba4c-045bfb8f6f7d"},"vehicle_type_id":"4","last_reported":1726236487,"current_range_meters":39200,"station_id":"ce4bgs12rcd13ifvqcag","pricing_plan_id":"cebpf4jnsgd1na2vs0mg"},{"bike_id":"a9666f7c-f231-48c0-8103-a4acac2f2757","system_id":"levelo_inurba_marseille","lat":43.28108,"lon":5.3783,"is_reserved":false,"is_disabled":false,"rental_uris":{"android":"levelo://app?vid=a9666f7c-f231-48c0-8103-a4acac2f2757","ios":"levelo://app?vid=a9666f7c-f231-48c0-8103-a4acac2f2757"},"vehicle_type_id":"4","last_reported":1726236487,"current_range_meters":9600,"station_id":"ce4bha12rcd13ifvqee0","pricing_plan_id":"cebpf4jnsgd1na2vs0mg"},{"bike_id":"da752d37-08d6-4594-a91f-f2daa05620f5","system_id":"levelo_inurba_marseille","lat":43.24653,"lon":5.38892,"is_reserved":false,"is_disabled":false,"rental_uris":{"android":"levelo://app?vid=da752d37-08d6-4594-a91f-f2daa05620f5","ios":"levelo://app?vid=da752d37-08d6-4594-a91f-f2daa05620f5"},"vehicle_type_id":"4","last_reported":1726236487,"current_range_meters":32800,"station_id":"ce4bhg12rcd13ifvqf60","pricing_plan_id":"cebpf4jnsgd1na2vs0mg"},{"bike_id":"7aac5c76-0b93-49e7-b0ee-5df0d1c5cd30","system_id":"levelo_inurba_marseille","lat":43.24667,"lon":5.38168,"is_reserved":false,"is_disabled":false,"rental_uris":{"android":"levelo://app?vid=7aac5c76-0b93-49e7-b0ee-5df0d1c5cd30","ios":"levelo://app?vid=7aac5c76-0b93-49e7-b0ee-5df0d1c5cd30"},"vehicle_type_id":"4","last_reported":1726236487,"current_range_meters":6000,"station_id":"ce4bhih2rcd13ifvqfr0","pricing_plan_id":"cebpf4jnsgd1na2vs0mg"},{"bike_id":"e49093f7-6383-4e7f-9f16-cb91fa6cb74b","system_id":"levelo_inurba_marseille","lat":43.25002,"lon":5.38926,"is_reserved":false,"is_disabled":false,"rental_uris":{"android":"levelo://app?vid=e49093f7-6383-4e7f-9f16-cb91fa6cb74b","ios":"levelo://app?vid=e49093f7-6383-4e7f-9f16-cb91fa6cb74b"},"vehicle_type_id":"4","last_reported":1726236487,"current_range_meters":28800,"station_id":"ce4bhgp2rcd13ifvqfd0","pricing_plan_id":"cebpf4jnsgd1na2vs0mg"},{"bike_id":"f5d80230-6671-4c19-998a-9bc8d3d47824","system_id":"levelo_inurba_marseille","lat":43.29004,"lon":5.35607,"is_reserved":false,"is_disabled":false,"rental_uris":{"android":"levelo://app?vid=f5d80230-6671-4c19-998a-9bc8d3d47824","ios":"levelo://app?vid=f5d80230-6671-4c19-998a-9bc8d3d47824"},"vehicle_type_id":"4","last_reported":1726236487,"current_range_meters":39200,"station_id":"ce4bhb92rcd13ifvqen0","pricing_plan_id":"cebpf4jnsgd1na2vs0mg"},{"bike_id":"ec9d5964-90d2-45ae-bbed-de8ff3618c90","system_id":"levelo_inurba_marseille","lat":43.24664,"lon":5.3817,"is_reserved":false,"is_disabled":false,"rental_uris":{"android":"levelo://app?vid=ec9d5964-90d2-45ae-bbed-de8ff3618c90","ios":"levelo://app?vid=ec9d5964-90d2-45ae-bbed-de8ff3618c90"},"vehicle_type_id":"4","last_reported":1726236487,"current_range_meters":28000,"station_id":"ce4bhih2rcd13ifvqfr0","pricing_plan_id":"cebpf4jnsgd1na2vs0mg"},{"bike_id":"92d94f46-c5a7-46a5-8413-dc1d6b66f0bb","system_id":"levelo_inurba_marseille","lat":43.29441,"lon":5.39757,"is_reserved":false,"is_disabled":false,"rental_uris":{"android":"levelo://app?vid=92d94f46-c5a7-46a5-8413-dc1d6b66f0bb","ios":"levelo://app?vid=92d94f46-c5a7-46a5-8413-dc1d6b66f0bb"},"vehicle_type_id":"4","last_reported":1726236487,"current_range_meters":38000,"station_id":"ce4bh3h2rcd13ifvqdo0","pricing_plan_id":"cebpf4jnsgd1na2vs0mg"},{"bike_id":"e09e3f76-06e6-4eb1-9bba-f08aa4e37fea","system_id":"levelo_inurba_marseille","lat":43.31369,"lon":5.38491,"is_reserved":false,"is_disabled":false,"rental_uris":{"android":"levelo://app?vid=e09e3f76-06e6-4eb1-9bba-f08aa4e37fea","ios":"levelo://app?vid=e09e3f76-06e6-4eb1-9bba-f08aa4e37fea"},"vehicle_type_id":"4","last_reported":1726236487,"current_range_meters":38000,"station_id":"ce4bgt92rcd13ifvqcf0","pricing_plan_id":"cebpf4jnsgd1na2vs0mg"},{"bike_id":"3bbf0c6f-01ad-4bc3-a6b8-ec287505f254","system_id":"levelo_inurba_marseille","lat":43.28933,"lon":5.36407,"is_reserved":false,"is_disabled":false,"rental_uris":{"android":"levelo://app?vid=3bbf0c6f-01ad-4bc3-a6b8-ec287505f254","ios":"levelo://app?vid=3bbf0c6f-01ad-4bc3-a6b8-ec287505f254"},"vehicle_type_id":"4","last_reported":1726236487,"current_range_meters":17600,"station_id":"ce4bhc92rcd13ifvqetg","pricing_plan_id":"cebpf4jnsgd1na2vs0mg"},{"bike_id":"96cb29cb-8da1-4dd6-bd35-ee190827a973","system_id":"levelo_inurba_marseille","lat":43.26556,"lon":5.37285,"is_reserved":false,"is_disabled":false,"rental_uris":{"android":"levelo://app?vid=96cb29cb-8da1-4dd6-bd35-ee190827a973","ios":"levelo://app?vid=96cb29cb-8da1-4dd6-bd35-ee190827a973"},"vehicle_type_id":"4","last_reported":1726236487,"current_range_meters":6400,"station_id":"ce4bhg12rcd13ifvqf70","pricing_plan_id":"cebpf4jnsgd1na2vs0mg"},{"bike_id":"fbc33ae5-1d06-49ef-8dd1-79a0965f4a68","system_id":"levelo_inurba_marseille","lat":43.29537,"lon":5.38544,"is_reserved":false,"is_disabled":false,"rental_uris":{"android":"levelo://app?vid=fbc33ae5-1d06-49ef-8dd1-79a0965f4a68","ios":"levelo://app?vid=fbc33ae5-1d06-49ef-8dd1-79a0965f4a68"},"vehicle_type_id":"4","last_reported":1726236487,"current_range_meters":28400,"station_id":"ce4bgih2rcd13ifvqba0","pricing_plan_id":"cebpf4jnsgd1na2vs0mg"},{"bike_id":"533506f7-d560-48b7-a019-e3cd9d59ab37","system_id":"levelo_inurba_marseille","lat":43.2439,"lon":5.37057,"is_reserved":false,"is_disabled":false,"rental_uris":{"android":"levelo://app?vid=533506f7-d560-48b7-a019-e3cd9d59ab37","ios":"levelo://app?vid=533506f7-d560-48b7-a019-e3cd9d59ab37"},"vehicle_type_id":"4","last_reported":1726236487,"current_range_meters":28400,"station_id":"ce4bhhh2rcd13ifvqfk0","pricing_plan_id":"cebpf4jnsgd1na2vs0mg"},{"bike_id":"9b49fc06-69dc-4375-9bc8-2ab31283d424","system_id":"levelo_inurba_marseille","lat":43.29901,"lon":5.43657,"is_reserved":false,"is_disabled":false,"rental_uris":{"android":"levelo://app?vid=9b49fc06-69dc-4375-9bc8-2ab31283d424","ios":"levelo://app?vid=9b49fc06-69dc-4375-9bc8-2ab31283d424"},"vehicle_type_id":"4","last_reported":1726236487,"current_range_meters":37600,"station_id":"ce4bhpp2rcd13ifvqhfg","pricing_plan_id":"cebpf4jnsgd1na2vs0mg"},{"bike_id":"5ec98b49-1cbc-448a-967c-10e4d3cc5e69","system_id":"levelo_inurba_marseille","lat":43.26064,"lon":5.39392,"is_reserved":false,"is_disabled":false,"rental_uris":{"android":"levelo://app?vid=5ec98b49-1cbc-448a-967c-10e4d3cc5e69","ios":"levelo://app?vid=5ec98b49-1cbc-448a-967c-10e4d3cc5e69"},"vehicle_type_id":"4","last_reported":1726236487,"current_range_meters":28000,"station_id":"ce4bhh92rcd13ifvqfj0","pricing_plan_id":"cebpf4jnsgd1na2vs0mg"},{"bike_id":"a45c4f10-691d-49e6-9dba-0bef3b8ef5a9","system_id":"levelo_inurba_marseille","lat":43.25723,"lon":5.41113,"is_reserved":false,"is_disabled":false,"rental_uris":{"android":"levelo://app?vid=a45c4f10-691d-49e6-9dba-0bef3b8ef5a9","ios":"levelo://app?vid=a45c4f10-691d-49e6-9dba-0bef3b8ef5a9"},"vehicle_type_id":"4","last_reported":1726236487,"current_range_meters":14000,"station_id":"ce4bhkp2rcd13ifvqgd0","pricing_plan_id":"cebpf4jnsgd1na2vs0mg"},{"bike_id":"8cd504bb-7ccc-41c6-a736-850a175d54b9","system_id":"levelo_inurba_marseille","lat":43.28424,"lon":5.34993,"is_reserved":false,"is_disabled":false,"rental_uris":{"android":"levelo://app?vid=8cd504bb-7ccc-41c6-a736-850a175d54b9","ios":"levelo://app?vid=8cd504bb-7ccc-41c6-a736-850a175d54b9"},"vehicle_type_id":"4","last_reported":1726236487,"current_range_meters":29600,"station_id":"ce4bhbh2rcd13ifvqepg","pricing_plan_id":"cebpf4jnsgd1na2vs0mg"},{"bike_id":"1b01ab5d-5379-4ac8-8e00-e0e84ff0547c","system_id":"levelo_inurba_marseille","lat":43.3029,"lon":5.37704,"is_reserved":false,"is_disabled":false,"rental_uris":{"android":"levelo://app?vid=1b01ab5d-5379-4ac8-8e00-e0e84ff0547c","ios":"levelo://app?vid=1b01ab5d-5379-4ac8-8e00-e0e84ff0547c"},"vehicle_type_id":"4","last_reported":1726236487,"current_range_meters":30000,"station_id":"ce4bguh2rcd13ifvqcj0","pricing_plan_id":"cebpf4jnsgd1na2vs0mg"},{"bike_id":"a462c5c7-db76-4a28-9f54-599566284cc6","system_id":"levelo_inurba_marseille","lat":43.292,"lon":5.39326,"is_reserved":false,"is_disabled":false,"rental_uris":{"android":"levelo://app?vid=a462c5c7-db76-4a28-9f54-599566284cc6","ios":"levelo://app?vid=a462c5c7-db76-4a28-9f54-599566284cc6"},"vehicle_type_id":"4","last_reported":1726236487,"current_range_meters":28000,"station_id":"ce4bh192rcd13ifvqdd0","pricing_plan_id":"cebpf4jnsgd1na2vs0mg"},{"bike_id":"46d70e9c-49ee-440a-a92c-d8b60775e17c","system_id":"levelo_inurba_marseille","lat":43.27425,"lon":5.39418,"is_reserved":false,"is_disabled":false,"rental_uris":{"android":"levelo://app?vid=46d70e9c-49ee-440a-a92c-d8b60775e17c","ios":"levelo://app?vid=46d70e9c-49ee-440a-a92c-d8b60775e17c"},"vehicle_type_id":"4","last_reported":1726236487,"current_range_meters":8800,"station_id":"ce4bhdp2rcd13ifvqf20","pricing_plan_id":"cebpf4jnsgd1na2vs0mg"},{"bike_id":"a2065f96-47d3-4a85-be06-4c0f1ffbde51","system_id":"levelo_inurba_marseille","lat":43.26065,"lon":5.39395,"is_reserved":false,"is_disabled":false,"rental_uris":{"android":"levelo://app?vid=a2065f96-47d3-4a85-be06-4c0f1ffbde51","ios":"levelo://app?vid=a2065f96-47d3-4a85-be06-4c0f1ffbde51"},"vehicle_type_id":"4","last_reported":1726236487,"current_range_meters":8800,"station_id":"ce4bhh92rcd13ifvqfj0","pricing_plan_id":"cebpf4jnsgd1na2vs0mg"},{"bike_id":"79b7950d-90c8-4e3c-a243-1a31b18cd68e","system_id":"levelo_inurba_marseille","lat":43.23968,"lon":5.36626,"is_reserved":false,"is_disabled":false,"rental_uris":{"android":"levelo://app?vid=79b7950d-90c8-4e3c-a243-1a31b18cd68e","ios":"levelo://app?vid=79b7950d-90c8-4e3c-a243-1a31b18cd68e"},"vehicle_type_id":"4","last_reported":1726236487,"current_range_meters":10800,"station_id":"ce4bhi12rcd13ifvqfp0","pricing_plan_id":"cebpf4jnsgd1na2vs0mg"},{"bike_id":"72b517d2-6987-46d8-857e-779bc7604f01","system_id":"levelo_inurba_marseille","lat":43.26028,"lon":5.37551,"is_reserved":false,"is_disabled":false,"rental_uris":{"android":"levelo://app?vid=72b517d2-6987-46d8-857e-779bc7604f01","ios":"levelo://app?vid=72b517d2-6987-46d8-857e-779bc7604f01"},"vehicle_type_id":"4","last_reported":1726236487,"current_range_meters":19600,"station_id":"ce4bhgh2rcd13ifvqfa0","pricing_plan_id":"cebpf4jnsgd1na2vs0mg"},{"bike_id":"8111be22-ab85-4eb8-ae8c-58d2b9bd4150","system_id":"levelo_inurba_marseille","lat":43.32488,"lon":5.36573,"is_reserved":false,"is_disabled":false,"rental_uris":{"android":"levelo://app?vid=8111be22-ab85-4eb8-ae8c-58d2b9bd4150","ios":"levelo://app?vid=8111be22-ab85-4eb8-ae8c-58d2b9bd4150"},"vehicle_type_id":"4","last_reported":1726236487,"current_range_meters":13600,"station_id":"ce4bhs12rcd13ifvqhvg","pricing_plan_id":"cebpf4jnsgd1na2vs0mg"},{"bike_id":"dd2da4a1-1e2d-4a91-8829-9d22598c1c22","system_id":"levelo_inurba_marseille","lat":43.30201,"lon":5.36624,"is_reserved":false,"is_disabled":false,"rental_uris":{"android":"levelo://app?vid=dd2da4a1-1e2d-4a91-8829-9d22598c1c22","ios":"levelo://app?vid=dd2da4a1-1e2d-4a91-8829-9d22598c1c22"},"vehicle_type_id":"4","last_reported":1726236487,"current_range_meters":27600,"station_id":"ce4bgrh2rcd13ifvqc8g","pricing_plan_id":"cebpf4jnsgd1na2vs0mg"},{"bike_id":"2c4577b3-3689-495e-a3c3-a78eafd4dc43","system_id":"levelo_inurba_marseille","lat":43.26561,"lon":5.37291,"is_reserved":false,"is_disabled":false,"rental_uris":{"android":"levelo://app?vid=2c4577b3-3689-495e-a3c3-a78eafd4dc43","ios":"levelo://app?vid=2c4577b3-3689-495e-a3c3-a78eafd4dc43"},"vehicle_type_id":"4","last_reported":1726236487,"current_range_meters":27200,"station_id":"ce4bhg12rcd13ifvqf70","pricing_plan_id":"cebpf4jnsgd1na2vs0mg"},{"bike_id":"5808faf6-9bd9-4730-8859-0718e969bfc3","system_id":"levelo_inurba_marseille","lat":43.30547,"lon":5.36528,"is_reserved":false,"is_disabled":false,"rental_uris":{"android":"levelo://app?vid=5808faf6-9bd9-4730-8859-0718e969bfc3","ios":"levelo://app?vid=5808faf6-9bd9-4730-8859-0718e969bfc3"},"vehicle_type_id":"4","last_reported":1726236487,"current_range_meters":38800,"station_id":"ce4bgs12rcd13ifvqcag","pricing_plan_id":"cebpf4jnsgd1na2vs0mg"},{"bike_id":"a895688b-f660-4b1f-8303-92aea550a840","system_id":"levelo_inurba_marseille","lat":43.29965,"lon":5.38526,"is_reserved":false,"is_disabled":false,"rental_uris":{"android":"levelo://app?vid=a895688b-f660-4b1f-8303-92aea550a840","ios":"levelo://app?vid=a895688b-f660-4b1f-8303-92aea550a840"},"vehicle_type_id":"4","last_reported":1726236487,"current_range_meters":38800,"station_id":"ce4bgj92rcd13ifvqbd0","pricing_plan_id":"cebpf4jnsgd1na2vs0mg"},{"bike_id":"2495b6ac-c8de-4e69-bdbc-48daafdcfb92","system_id":"levelo_inurba_marseille","lat":43.297882,"lon":5.380845,"is_reserved":false,"is_disabled":false,"rental_uris":{"android":"levelo://app?vid=2495b6ac-c8de-4e69-bdbc-48daafdcfb92","ios":"levelo://app?vid=2495b6ac-c8de-4e69-bdbc-48daafdcfb92"},"vehicle_type_id":"4","last_reported":1726236487,"current_range_meters":30400,"station_id":"ce4bgip2rcd13ifvqbb0","pricing_plan_id":"cebpf4jnsgd1na2vs0mg"},{"bike_id":"131d5fa5-c1d9-42f5-aee0-b67b8af4e503","system_id":"levelo_inurba_marseille","lat":43.30187,"lon":5.36612,"is_reserved":false,"is_disabled":false,"rental_uris":{"android":"levelo://app?vid=131d5fa5-c1d9-42f5-aee0-b67b8af4e503","ios":"levelo://app?vid=131d5fa5-c1d9-42f5-aee0-b67b8af4e503"},"vehicle_type_id":"4","last_reported":1726236487,"current_range_meters":37600,"station_id":"ce4bgrh2rcd13ifvqc8g","pricing_plan_id":"cebpf4jnsgd1na2vs0mg"},{"bike_id":"60d5bda9-f640-405a-935d-62d1314e50fa","system_id":"levelo_inurba_marseille","lat":43.23973,"lon":5.36633,"is_reserved":false,"is_disabled":false,"rental_uris":{"android":"levelo://app?vid=60d5bda9-f640-405a-935d-62d1314e50fa","ios":"levelo://app?vid=60d5bda9-f640-405a-935d-62d1314e50fa"},"vehicle_type_id":"4","last_reported":1726236487,"current_range_meters":27200,"station_id":"ce4bhi12rcd13ifvqfp0","pricing_plan_id":"cebpf4jnsgd1na2vs0mg"},{"bike_id":"e68bbd50-fe84-4a72-81cf-4eecfde5abcf","system_id":"levelo_inurba_marseille","lat":43.24813,"lon":5.37459,"is_reserved":false,"is_disabled":false,"rental_uris":{"android":"levelo://app?vid=e68bbd50-fe84-4a72-81cf-4eecfde5abcf","ios":"levelo://app?vid=e68bbd50-fe84-4a72-81cf-4eecfde5abcf"},"vehicle_type_id":"4","last_reported":1726236487,"current_range_meters":12000,"station_id":"ce4bhgh2rcd13ifvqfb0","pricing_plan_id":"cebpf4jnsgd1na2vs0mg"},{"bike_id":"d1f6621d-f127-48be-8c2f-95a32aa798ab","system_id":"levelo_inurba_marseille","lat":43.25125,"lon":5.40329,"is_reserved":false,"is_disabled":false,"rental_uris":{"android":"levelo://app?vid=d1f6621d-f127-48be-8c2f-95a32aa798ab","ios":"levelo://app?vid=d1f6621d-f127-48be-8c2f-95a32aa798ab"},"vehicle_type_id":"4","last_reported":1726236487,"current_range_meters":9600,"station_id":"ce4bhlh2rcd13ifvqgig","pricing_plan_id":"cebpf4jnsgd1na2vs0mg"},{"bike_id":"4f0ea37a-15ba-4240-b0fa-68e3874bc062","system_id":"levelo_inurba_marseille","lat":43.25004,"lon":5.38937,"is_reserved":false,"is_disabled":false,"rental_uris":{"android":"levelo://app?vid=4f0ea37a-15ba-4240-b0fa-68e3874bc062","ios":"levelo://app?vid=4f0ea37a-15ba-4240-b0fa-68e3874bc062"},"vehicle_type_id":"4","last_reported":1726236487,"current_range_meters":6400,"station_id":"ce4bhgp2rcd13ifvqfd0","pricing_plan_id":"cebpf4jnsgd1na2vs0mg"},{"bike_id":"af3bb50c-b2bc-4829-b52f-372167d0673e","system_id":"levelo_inurba_marseille","lat":43.31182,"lon":5.38714,"is_reserved":false,"is_disabled":false,"rental_uris":{"android":"levelo://app?vid=af3bb50c-b2bc-4829-b52f-372167d0673e","ios":"levelo://app?vid=af3bb50c-b2bc-4829-b52f-372167d0673e"},"vehicle_type_id":"4","last_reported":1726236487,"current_range_meters":28400,"station_id":"ce4bgv12rcd13ifvqcp0","pricing_plan_id":"cebpf4jnsgd1na2vs0mg"},{"bike_id":"06bb22c4-2772-4ba9-aae0-27d4367daa50","system_id":"levelo_inurba_marseille","lat":43.25867,"lon":5.399,"is_reserved":false,"is_disabled":false,"rental_uris":{"android":"levelo://app?vid=06bb22c4-2772-4ba9-aae0-27d4367daa50","ios":"levelo://app?vid=06bb22c4-2772-4ba9-aae0-27d4367daa50"},"vehicle_type_id":"4","last_reported":1726236487,"current_range_meters":7200,"station_id":"ce4bhl92rcd13ifvqghg","pricing_plan_id":"cebpf4jnsgd1na2vs0mg"},{"bike_id":"32c341b5-2d30-4a4f-af3d-30588a421739","system_id":"levelo_inurba_marseille","lat":43.26944,"lon":5.40262,"is_reserved":false,"is_disabled":false,"rental_uris":{"android":"levelo://app?vid=32c341b5-2d30-4a4f-af3d-30588a421739","ios":"levelo://app?vid=32c341b5-2d30-4a4f-af3d-30588a421739"},"vehicle_type_id":"4","last_reported":1726236487,"current_range_meters":38000,"station_id":"cjm6bp8fraef2m0cb0m0","pricing_plan_id":"cebpf4jnsgd1na2vs0mg"},{"bike_id":"c61b49d7-8c8f-4d56-9187-d7249896e6d8","system_id":"levelo_inurba_marseille","lat":43.23154,"lon":5.43699,"is_reserved":false,"is_disabled":false,"rental_uris":{"android":"levelo://app?vid=c61b49d7-8c8f-4d56-9187-d7249896e6d8","ios":"levelo://app?vid=c61b49d7-8c8f-4d56-9187-d7249896e6d8"},"vehicle_type_id":"4","last_reported":1726236487,"current_range_meters":39200,"station_id":"ce4bhmp2rcd13ifvqgog","pricing_plan_id":"cebpf4jnsgd1na2vs0mg"},{"bike_id":"b09c33f1-211c-4401-9c5f-be63fa7524f7","system_id":"levelo_inurba_marseille","lat":43.23152,"lon":5.43704,"is_reserved":false,"is_disabled":false,"rental_uris":{"android":"levelo://app?vid=b09c33f1-211c-4401-9c5f-be63fa7524f7","ios":"levelo://app?vid=b09c33f1-211c-4401-9c5f-be63fa7524f7"},"vehicle_type_id":"4","last_reported":1726236487,"current_range_meters":11200,"station_id":"ce4bhmp2rcd13ifvqgog","pricing_plan_id":"cebpf4jnsgd1na2vs0mg"},{"bike_id":"aa4e8f1d-9407-485a-87ff-f80b98af6f87","system_id":"levelo_inurba_marseille","lat":43.32487,"lon":5.36563,"is_reserved":false,"is_disabled":false,"rental_uris":{"android":"levelo://app?vid=aa4e8f1d-9407-485a-87ff-f80b98af6f87","ios":"levelo://app?vid=aa4e8f1d-9407-485a-87ff-f80b98af6f87"},"vehicle_type_id":"4","last_reported":1726236487,"current_range_meters":11600,"station_id":"ce4bhs12rcd13ifvqhvg","pricing_plan_id":"cebpf4jnsgd1na2vs0mg"},{"bike_id":"2d9f6a36-1e8d-46ce-8819-b2bb04006d43","system_id":"levelo_inurba_marseille","lat":43.25589,"lon":5.38224,"is_reserved":false,"is_disabled":false,"rental_uris":{"android":"levelo://app?vid=2d9f6a36-1e8d-46ce-8819-b2bb04006d43","ios":"levelo://app?vid=2d9f6a36-1e8d-46ce-8819-b2bb04006d43"},"vehicle_type_id":"4","last_reported":1726236487,"current_range_meters":29600,"station_id":"ce4bhih2rcd13ifvqfs0","pricing_plan_id":"cebpf4jnsgd1na2vs0mg"},{"bike_id":"2fefa422-d9c5-41d5-9353-5e94420bfc39","system_id":"levelo_inurba_marseille","lat":43.30426,"lon":5.39745,"is_reserved":false,"is_disabled":false,"rental_uris":{"android":"levelo://app?vid=2fefa422-d9c5-41d5-9353-5e94420bfc39","ios":"levelo://app?vid=2fefa422-d9c5-41d5-9353-5e94420bfc39"},"vehicle_type_id":"4","last_reported":1726236487,"current_range_meters":25200,"station_id":"ce4bh092rcd13ifvqd20","pricing_plan_id":"cebpf4jnsgd1na2vs0mg"},{"bike_id":"5cf7c162-1ed3-46ed-b88d-291487355079","system_id":"levelo_inurba_marseille","lat":43.299655,"lon":5.384913,"is_reserved":false,"is_disabled":false,"rental_uris":{"android":"levelo://app?vid=5cf7c162-1ed3-46ed-b88d-291487355079","ios":"levelo://app?vid=5cf7c162-1ed3-46ed-b88d-291487355079"},"vehicle_type_id":"4","last_reported":1726236487,"current_range_meters":38800,"station_id":"ce4bgj92rcd13ifvqbd0","pricing_plan_id":"cebpf4jnsgd1na2vs0mg"},{"bike_id":"e62c8c71-b14f-4c94-8aa4-e0afcaaf93b6","system_id":"levelo_inurba_marseille","lat":43.24816,"lon":5.37461,"is_reserved":false,"is_disabled":false,"rental_uris":{"android":"levelo://app?vid=e62c8c71-b14f-4c94-8aa4-e0afcaaf93b6","ios":"levelo://app?vid=e62c8c71-b14f-4c94-8aa4-e0afcaaf93b6"},"vehicle_type_id":"4","last_reported":1726236487,"current_range_meters":32000,"station_id":"ce4bhgh2rcd13ifvqfb0","pricing_plan_id":"cebpf4jnsgd1na2vs0mg"},{"bike_id":"17e16d80-9ddf-4022-8403-1bf0defb4b3e","system_id":"levelo_inurba_marseille","lat":43.30137,"lon":5.37428,"is_reserved":false,"is_disabled":false,"rental_uris":{"android":"levelo://app?vid=17e16d80-9ddf-4022-8403-1bf0defb4b3e","ios":"levelo://app?vid=17e16d80-9ddf-4022-8403-1bf0defb4b3e"},"vehicle_type_id":"4","last_reported":1726236487,"current_range_meters":40000,"station_id":"ce4bgs92rcd13ifvqcc0","pricing_plan_id":"cebpf4jnsgd1na2vs0mg"},{"bike_id":"9e955087-931f-42c6-a5de-4480d9f0a58c","system_id":"levelo_inurba_marseille","lat":43.32489,"lon":5.3656,"is_reserved":false,"is_disabled":false,"rental_uris":{"android":"levelo://app?vid=9e955087-931f-42c6-a5de-4480d9f0a58c","ios":"levelo://app?vid=9e955087-931f-42c6-a5de-4480d9f0a58c"},"vehicle_type_id":"4","last_reported":1726236487,"current_range_meters":26800,"station_id":"ce4bhs12rcd13ifvqhvg","pricing_plan_id":"cebpf4jnsgd1na2vs0mg"},{"bike_id":"f45c8b7d-a625-49b9-9a1b-25e3a19fbb59","system_id":"levelo_inurba_marseille","lat":43.29531,"lon":5.39404,"is_reserved":false,"is_disabled":false,"rental_uris":{"android":"levelo://app?vid=f45c8b7d-a625-49b9-9a1b-25e3a19fbb59","ios":"levelo://app?vid=f45c8b7d-a625-49b9-9a1b-25e3a19fbb59"},"vehicle_type_id":"4","last_reported":1726236487,"current_range_meters":32800,"station_id":"ce4bh292rcd13ifvqdf0","pricing_plan_id":"cebpf4jnsgd1na2vs0mg"},{"bike_id":"69b26a0b-db83-4395-8ee1-1e784091ffad","system_id":"levelo_inurba_marseille","lat":43.23152,"lon":5.43707,"is_reserved":false,"is_disabled":false,"rental_uris":{"android":"levelo://app?vid=69b26a0b-db83-4395-8ee1-1e784091ffad","ios":"levelo://app?vid=69b26a0b-db83-4395-8ee1-1e784091ffad"},"vehicle_type_id":"4","last_reported":1726236487,"current_range_meters":38800,"station_id":"ce4bhmp2rcd13ifvqgog","pricing_plan_id":"cebpf4jnsgd1na2vs0mg"},{"bike_id":"b506159f-a775-4733-b310-23093ca74a69","system_id":"levelo_inurba_marseille","lat":43.330249,"lon":5.390444,"is_reserved":false,"is_disabled":false,"rental_uris":{"android":"levelo://app?vid=b506159f-a775-4733-b310-23093ca74a69","ios":"levelo://app?vid=b506159f-a775-4733-b310-23093ca74a69"},"vehicle_type_id":"4","last_reported":1726236487,"current_range_meters":18000,"station_id":"ce4bhr92rcd13ifvqhrg","pricing_plan_id":"cebpf4jnsgd1na2vs0mg"},{"bike_id":"89f52e50-6b50-4586-86fd-31a3522a1f60","system_id":"levelo_inurba_marseille","lat":43.29279,"lon":5.36841,"is_reserved":false,"is_disabled":false,"rental_uris":{"android":"levelo://app?vid=89f52e50-6b50-4586-86fd-31a3522a1f60","ios":"levelo://app?vid=89f52e50-6b50-4586-86fd-31a3522a1f60"},"vehicle_type_id":"4","last_reported":1726236487,"current_range_meters":20000,"station_id":"ce4bhbp2rcd13ifvqesg","pricing_plan_id":"cebpf4jnsgd1na2vs0mg"},{"bike_id":"848e4701-faff-4bd9-9f92-ca534abc7b7f","system_id":"levelo_inurba_marseille","lat":43.28938,"lon":5.36629,"is_reserved":false,"is_disabled":false,"rental_uris":{"android":"levelo://app?vid=848e4701-faff-4bd9-9f92-ca534abc7b7f","ios":"levelo://app?vid=848e4701-faff-4bd9-9f92-ca534abc7b7f"},"vehicle_type_id":"4","last_reported":1726236487,"current_range_meters":38800,"station_id":"ce4bhap2rcd13ifvqek0","pricing_plan_id":"cebpf4jnsgd1na2vs0mg"},{"bike_id":"5867c1cf-77a0-405b-877c-53bf84f17b53","system_id":"levelo_inurba_marseille","lat":43.29984,"lon":5.37183,"is_reserved":false,"is_disabled":false,"rental_uris":{"android":"levelo://app?vid=5867c1cf-77a0-405b-877c-53bf84f17b53","ios":"levelo://app?vid=5867c1cf-77a0-405b-877c-53bf84f17b53"},"vehicle_type_id":"4","last_reported":1726236487,"current_range_meters":23200,"station_id":"ce4bgr92rcd13ifvqc7g","pricing_plan_id":"cebpf4jnsgd1na2vs0mg"},{"bike_id":"5987713b-d8c0-4903-81ac-fe80cbeac0b3","system_id":"levelo_inurba_marseille","lat":43.27073,"lon":5.42276,"is_reserved":false,"is_disabled":false,"rental_uris":{"android":"levelo://app?vid=5987713b-d8c0-4903-81ac-fe80cbeac0b3","ios":"levelo://app?vid=5987713b-d8c0-4903-81ac-fe80cbeac0b3"},"vehicle_type_id":"4","last_reported":1726236487,"current_range_meters":39200,"station_id":"ce4bhk92rcd13ifvqgb0","pricing_plan_id":"cebpf4jnsgd1na2vs0mg"},{"bike_id":"8f3b999b-b1dc-4c45-bff6-36b07ddcbe92","system_id":"levelo_inurba_marseille","lat":43.29301,"lon":5.37467,"is_reserved":false,"is_disabled":false,"rental_uris":{"android":"levelo://app?vid=8f3b999b-b1dc-4c45-bff6-36b07ddcbe92","ios":"levelo://app?vid=8f3b999b-b1dc-4c45-bff6-36b07ddcbe92"},"vehicle_type_id":"4","last_reported":1726236487,"current_range_meters":8400,"station_id":"ce4bgi12rcd13ifvqb70","pricing_plan_id":"cebpf4jnsgd1na2vs0mg"},{"bike_id":"a8408bc0-1ad0-4261-92e7-4324637d7c82","system_id":"levelo_inurba_marseille","lat":43.29006,"lon":5.35614,"is_reserved":false,"is_disabled":false,"rental_uris":{"android":"levelo://app?vid=a8408bc0-1ad0-4261-92e7-4324637d7c82","ios":"levelo://app?vid=a8408bc0-1ad0-4261-92e7-4324637d7c82"},"vehicle_type_id":"4","last_reported":1726236487,"current_range_meters":38800,"station_id":"ce4bhb92rcd13ifvqen0","pricing_plan_id":"cebpf4jnsgd1na2vs0mg"},{"bike_id":"0d9f035c-8e47-426d-8593-e2bc7f05f235","system_id":"levelo_inurba_marseille","lat":43.30466,"lon":5.36715,"is_reserved":false,"is_disabled":false,"rental_uris":{"android":"levelo://app?vid=0d9f035c-8e47-426d-8593-e2bc7f05f235","ios":"levelo://app?vid=0d9f035c-8e47-426d-8593-e2bc7f05f235"},"vehicle_type_id":"4","last_reported":1726236487,"current_range_meters":12400,"station_id":"","pricing_plan_id":"cebpf4jnsgd1na2vs0mg"},{"bike_id":"deaeb920-23ab-4b51-a90a-3a4d369b9959","system_id":"levelo_inurba_marseille","lat":43.2656,"lon":5.3729,"is_reserved":false,"is_disabled":false,"rental_uris":{"android":"levelo://app?vid=deaeb920-23ab-4b51-a90a-3a4d369b9959","ios":"levelo://app?vid=deaeb920-23ab-4b51-a90a-3a4d369b9959"},"vehicle_type_id":"4","last_reported":1726236487,"current_range_meters":8000,"station_id":"ce4bhg12rcd13ifvqf70","pricing_plan_id":"cebpf4jnsgd1na2vs0mg"},{"bike_id":"b1ef9f5c-48fe-4b6e-b5cb-3758aac5ecd5","system_id":"levelo_inurba_marseille","lat":43.23156,"lon":5.43713,"is_reserved":false,"is_disabled":false,"rental_uris":{"android":"levelo://app?vid=b1ef9f5c-48fe-4b6e-b5cb-3758aac5ecd5","ios":"levelo://app?vid=b1ef9f5c-48fe-4b6e-b5cb-3758aac5ecd5"},"vehicle_type_id":"4","last_reported":1726236487,"current_range_meters":38800,"station_id":"ce4bhmp2rcd13ifvqgog","pricing_plan_id":"cebpf4jnsgd1na2vs0mg"},{"bike_id":"3622b2e2-b415-4605-b192-83420befa424","system_id":"levelo_inurba_marseille","lat":43.30283,"lon":5.37696,"is_reserved":false,"is_disabled":false,"rental_uris":{"android":"levelo://app?vid=3622b2e2-b415-4605-b192-83420befa424","ios":"levelo://app?vid=3622b2e2-b415-4605-b192-83420befa424"},"vehicle_type_id":"4","last_reported":1726236487,"current_range_meters":26000,"station_id":"ce4bguh2rcd13ifvqcj0","pricing_plan_id":"cebpf4jnsgd1na2vs0mg"},{"bike_id":"4f6ba2b4-7946-42cf-ad2a-95f068c566bd","system_id":"levelo_inurba_marseille","lat":43.29895,"lon":5.38152,"is_reserved":false,"is_disabled":false,"rental_uris":{"android":"levelo://app?vid=4f6ba2b4-7946-42cf-ad2a-95f068c566bd","ios":"levelo://app?vid=4f6ba2b4-7946-42cf-ad2a-95f068c566bd"},"vehicle_type_id":"4","last_reported":1726236487,"current_range_meters":11200,"station_id":"ce4bgj12rcd13ifvqbc0","pricing_plan_id":"cebpf4jnsgd1na2vs0mg"},{"bike_id":"521f4167-2412-4069-835d-d5c6cf1a6288","system_id":"levelo_inurba_marseille","lat":43.25868,"lon":5.39902,"is_reserved":false,"is_disabled":false,"rental_uris":{"android":"levelo://app?vid=521f4167-2412-4069-835d-d5c6cf1a6288","ios":"levelo://app?vid=521f4167-2412-4069-835d-d5c6cf1a6288"},"vehicle_type_id":"4","last_reported":1726236487,"current_range_meters":26000,"station_id":"ce4bhl92rcd13ifvqghg","pricing_plan_id":"cebpf4jnsgd1na2vs0mg"},{"bike_id":"7c0ae92f-06d0-4ab8-bbd8-831a5ec57f08","system_id":"levelo_inurba_marseille","lat":43.24656,"lon":5.38565,"is_reserved":false,"is_disabled":false,"rental_uris":{"android":"levelo://app?vid=7c0ae92f-06d0-4ab8-bbd8-831a5ec57f08","ios":"levelo://app?vid=7c0ae92f-06d0-4ab8-bbd8-831a5ec57f08"},"vehicle_type_id":"4","last_reported":1726236487,"current_range_meters":4000,"station_id":"","pricing_plan_id":"cebpf4jnsgd1na2vs0mg"},{"bike_id":"7ff0f913-b592-4051-9030-c1bf70f47219","system_id":"levelo_inurba_marseille","lat":43.27203,"lon":5.39186,"is_reserved":false,"is_disabled":false,"rental_uris":{"android":"levelo://app?vid=7ff0f913-b592-4051-9030-c1bf70f47219","ios":"levelo://app?vid=7ff0f913-b592-4051-9030-c1bf70f47219"},"vehicle_type_id":"4","last_reported":1726236487,"current_range_meters":12400,"station_id":"ce4bhhp2rcd13ifvqfm0","pricing_plan_id":"cebpf4jnsgd1na2vs0mg"},{"bike_id":"fba3b93f-de3b-42b1-bb58-f41aaa38be1c","system_id":"levelo_inurba_marseille","lat":43.29965,"lon":5.37168,"is_reserved":false,"is_disabled":false,"rental_uris":{"android":"levelo://app?vid=fba3b93f-de3b-42b1-bb58-f41aaa38be1c","ios":"levelo://app?vid=fba3b93f-de3b-42b1-bb58-f41aaa38be1c"},"vehicle_type_id":"4","last_reported":1726236487,"current_range_meters":12800,"station_id":"ce4bgr92rcd13ifvqc7g","pricing_plan_id":"cebpf4jnsgd1na2vs0mg"},{"bike_id":"8bd55524-b3e4-4e83-b5a9-a71c62252fee","system_id":"levelo_inurba_marseille","lat":43.297895,"lon":5.393487,"is_reserved":false,"is_disabled":false,"rental_uris":{"android":"levelo://app?vid=8bd55524-b3e4-4e83-b5a9-a71c62252fee","ios":"levelo://app?vid=8bd55524-b3e4-4e83-b5a9-a71c62252fee"},"vehicle_type_id":"4","last_reported":1726236487,"current_range_meters":28000,"station_id":"ce4bhb92rcd13ifvqen0","pricing_plan_id":"cebpf4jnsgd1na2vs0mg"},{"bike_id":"46732748-f3ec-4441-9b01-3ff59507536a","system_id":"levelo_inurba_marseille","lat":43.29615,"lon":5.37719,"is_reserved":false,"is_disabled":false,"rental_uris":{"android":"levelo://app?vid=46732748-f3ec-4441-9b01-3ff59507536a","ios":"levelo://app?vid=46732748-f3ec-4441-9b01-3ff59507536a"},"vehicle_type_id":"4","last_reported":1726236487,"current_range_meters":2800,"station_id":"ce4bgi92rcd13ifvqb90","pricing_plan_id":"cebpf4jnsgd1na2vs0mg"},{"bike_id":"c5624a13-ec4f-45f7-83d6-7aada1d8c251","system_id":"levelo_inurba_marseille","lat":43.24668,"lon":5.38167,"is_reserved":false,"is_disabled":false,"rental_uris":{"android":"levelo://app?vid=c5624a13-ec4f-45f7-83d6-7aada1d8c251","ios":"levelo://app?vid=c5624a13-ec4f-45f7-83d6-7aada1d8c251"},"vehicle_type_id":"4","last_reported":1726236487,"current_range_meters":12400,"station_id":"ce4bhih2rcd13ifvqfr0","pricing_plan_id":"cebpf4jnsgd1na2vs0mg"},{"bike_id":"db4cd345-db40-4be1-84fa-e88ab4ca73da","system_id":"levelo_inurba_marseille","lat":43.30338,"lon":5.40428,"is_reserved":false,"is_disabled":false,"rental_uris":{"android":"levelo://app?vid=db4cd345-db40-4be1-84fa-e88ab4ca73da","ios":"levelo://app?vid=db4cd345-db40-4be1-84fa-e88ab4ca73da"},"vehicle_type_id":"4","last_reported":1726236487,"current_range_meters":26000,"station_id":"ce4bh012rcd13ifvqd10","pricing_plan_id":"cebpf4jnsgd1na2vs0mg"},{"bike_id":"d093cabe-e20b-431f-a905-ee2541759ecf","system_id":"levelo_inurba_marseille","lat":43.27944,"lon":5.41043,"is_reserved":false,"is_disabled":false,"rental_uris":{"android":"levelo://app?vid=d093cabe-e20b-431f-a905-ee2541759ecf","ios":"levelo://app?vid=d093cabe-e20b-431f-a905-ee2541759ecf"},"vehicle_type_id":"4","last_reported":1726236487,"current_range_meters":24000,"station_id":"ce4bhnp2rcd13ifvqh0g","pricing_plan_id":"cebpf4jnsgd1na2vs0mg"},{"bike_id":"8261ace5-2139-442c-b15a-c46a7ca49df2","system_id":"levelo_inurba_marseille","lat":43.299,"lon":5.43668,"is_reserved":false,"is_disabled":false,"rental_uris":{"android":"levelo://app?vid=8261ace5-2139-442c-b15a-c46a7ca49df2","ios":"levelo://app?vid=8261ace5-2139-442c-b15a-c46a7ca49df2"},"vehicle_type_id":"4","last_reported":1726236487,"current_range_meters":30800,"station_id":"ce4bhpp2rcd13ifvqhfg","pricing_plan_id":"cebpf4jnsgd1na2vs0mg"},{"bike_id":"4afb8b00-be3a-4d15-9b8b-47916e625762","system_id":"levelo_inurba_marseille","lat":43.28539,"lon":5.44234,"is_reserved":false,"is_disabled":false,"rental_uris":{"android":"levelo://app?vid=4afb8b00-be3a-4d15-9b8b-47916e625762","ios":"levelo://app?vid=4afb8b00-be3a-4d15-9b8b-47916e625762"},"vehicle_type_id":"4","last_reported":1726236487,"current_range_meters":27600,"station_id":"","pricing_plan_id":"cebpf4jnsgd1na2vs0mg"},{"bike_id":"6160092f-4981-4a7f-8ab0-7f6f0d746aa2","system_id":"levelo_inurba_marseille","lat":43.25001,"lon":5.38937,"is_reserved":false,"is_disabled":false,"rental_uris":{"android":"levelo://app?vid=6160092f-4981-4a7f-8ab0-7f6f0d746aa2","ios":"levelo://app?vid=6160092f-4981-4a7f-8ab0-7f6f0d746aa2"},"vehicle_type_id":"4","last_reported":1726236487,"current_range_meters":3600,"station_id":"ce4bhgp2rcd13ifvqfd0","pricing_plan_id":"cebpf4jnsgd1na2vs0mg"},{"bike_id":"bb7acf50-b6bc-4b2d-adf4-833abc23b24c","system_id":"levelo_inurba_marseille","lat":43.232,"lon":5.35551,"is_reserved":false,"is_disabled":false,"rental_uris":{"android":"levelo://app?vid=bb7acf50-b6bc-4b2d-adf4-833abc23b24c","ios":"levelo://app?vid=bb7acf50-b6bc-4b2d-adf4-833abc23b24c"},"vehicle_type_id":"4","last_reported":1726236487,"current_range_meters":39200,"station_id":"ce4bhu92rcd13ifvqi70","pricing_plan_id":"cebpf4jnsgd1na2vs0mg"},{"bike_id":"48a060ab-9f02-4905-8b17-8c1c960b8fe8","system_id":"levelo_inurba_marseille","lat":43.29008,"lon":5.35613,"is_reserved":false,"is_disabled":false,"rental_uris":{"android":"levelo://app?vid=48a060ab-9f02-4905-8b17-8c1c960b8fe8","ios":"levelo://app?vid=48a060ab-9f02-4905-8b17-8c1c960b8fe8"},"vehicle_type_id":"4","last_reported":1726236487,"current_range_meters":12800,"station_id":"ce4bhb92rcd13ifvqen0","pricing_plan_id":"cebpf4jnsgd1na2vs0mg"},{"bike_id":"452dd062-9dd5-418a-a8a9-271926c5cfa3","system_id":"levelo_inurba_marseille","lat":43.30196,"lon":5.36616,"is_reserved":false,"is_disabled":false,"rental_uris":{"android":"levelo://app?vid=452dd062-9dd5-418a-a8a9-271926c5cfa3","ios":"levelo://app?vid=452dd062-9dd5-418a-a8a9-271926c5cfa3"},"vehicle_type_id":"4","last_reported":1726236487,"current_range_meters":8400,"station_id":"ce4bgrh2rcd13ifvqc8g","pricing_plan_id":"cebpf4jnsgd1na2vs0mg"},{"bike_id":"fdbafa38-50a6-4c06-990b-5b9471c13f38","system_id":"levelo_inurba_marseille","lat":43.30551,"lon":5.36527,"is_reserved":false,"is_disabled":false,"rental_uris":{"android":"levelo://app?vid=fdbafa38-50a6-4c06-990b-5b9471c13f38","ios":"levelo://app?vid=fdbafa38-50a6-4c06-990b-5b9471c13f38"},"vehicle_type_id":"4","last_reported":1726236487,"current_range_meters":37600,"station_id":"ce4bgs12rcd13ifvqcag","pricing_plan_id":"cebpf4jnsgd1na2vs0mg"},{"bike_id":"2aaf5d97-e1c2-4e2e-b85f-7494eb8ad466","system_id":"levelo_inurba_marseille","lat":43.31716,"lon":5.43705,"is_reserved":false,"is_disabled":false,"rental_uris":{"android":"levelo://app?vid=2aaf5d97-e1c2-4e2e-b85f-7494eb8ad466","ios":"levelo://app?vid=2aaf5d97-e1c2-4e2e-b85f-7494eb8ad466"},"vehicle_type_id":"4","last_reported":1726236487,"current_range_meters":6800,"station_id":"ce4bhp92rcd13ifvqhcg","pricing_plan_id":"cebpf4jnsgd1na2vs0mg"},{"bike_id":"931d64a5-cffd-493f-b19b-09687dfd9b55","system_id":"levelo_inurba_marseille","lat":43.29068,"lon":5.37172,"is_reserved":false,"is_disabled":false,"rental_uris":{"android":"levelo://app?vid=931d64a5-cffd-493f-b19b-09687dfd9b55","ios":"levelo://app?vid=931d64a5-cffd-493f-b19b-09687dfd9b55"},"vehicle_type_id":"4","last_reported":1726236487,"current_range_meters":8800,"station_id":"ce4bh5p2rcd13ifvqe4g","pricing_plan_id":"cebpf4jnsgd1na2vs0mg"},{"bike_id":"d8dca9fe-b9af-4568-87bb-8c5d09248c53","system_id":"levelo_inurba_marseille","lat":43.2894,"lon":5.36396,"is_reserved":false,"is_disabled":false,"rental_uris":{"android":"levelo://app?vid=d8dca9fe-b9af-4568-87bb-8c5d09248c53","ios":"levelo://app?vid=d8dca9fe-b9af-4568-87bb-8c5d09248c53"},"vehicle_type_id":"4","last_reported":1726236487,"current_range_meters":38800,"station_id":"ce4bhc92rcd13ifvqetg","pricing_plan_id":"cebpf4jnsgd1na2vs0mg"},{"bike_id":"2cdc504d-2565-4bae-ba11-73f50a1d8f08","system_id":"levelo_inurba_marseille","lat":43.33023,"lon":5.39039,"is_reserved":false,"is_disabled":false,"rental_uris":{"android":"levelo://app?vid=2cdc504d-2565-4bae-ba11-73f50a1d8f08","ios":"levelo://app?vid=2cdc504d-2565-4bae-ba11-73f50a1d8f08"},"vehicle_type_id":"4","last_reported":1726236487,"current_range_meters":38800,"station_id":"ce4bhr92rcd13ifvqhrg","pricing_plan_id":"cebpf4jnsgd1na2vs0mg"},{"bike_id":"054b3b88-9fb1-48b0-a3d9-d5b8cf7bbf03","system_id":"levelo_inurba_marseille","lat":43.2956,"lon":5.42294,"is_reserved":false,"is_disabled":false,"rental_uris":{"android":"levelo://app?vid=054b3b88-9fb1-48b0-a3d9-d5b8cf7bbf03","ios":"levelo://app?vid=054b3b88-9fb1-48b0-a3d9-d5b8cf7bbf03"},"vehicle_type_id":"4","last_reported":1726236487,"current_range_meters":9600,"station_id":"ce4bhph2rcd13ifvqhdg","pricing_plan_id":"cebpf4jnsgd1na2vs0mg"},{"bike_id":"65c1412b-046f-4164-bac6-8d82df38fef4","system_id":"levelo_inurba_marseille","lat":43.30545,"lon":5.36525,"is_reserved":false,"is_disabled":false,"rental_uris":{"android":"levelo://app?vid=65c1412b-046f-4164-bac6-8d82df38fef4","ios":"levelo://app?vid=65c1412b-046f-4164-bac6-8d82df38fef4"},"vehicle_type_id":"4","last_reported":1726236487,"current_range_meters":39200,"station_id":"ce4bgs12rcd13ifvqcag","pricing_plan_id":"cebpf4jnsgd1na2vs0mg"},{"bike_id":"32cefab6-35f5-40ab-8287-459a96bbd3d2","system_id":"levelo_inurba_marseille","lat":43.30528,"lon":5.36545,"is_reserved":false,"is_disabled":false,"rental_uris":{"android":"levelo://app?vid=32cefab6-35f5-40ab-8287-459a96bbd3d2","ios":"levelo://app?vid=32cefab6-35f5-40ab-8287-459a96bbd3d2"},"vehicle_type_id":"4","last_reported":1726236487,"current_range_meters":24000,"station_id":"ce4bgs12rcd13ifvqcag","pricing_plan_id":"cebpf4jnsgd1na2vs0mg"},{"bike_id":"c28ff0f1-1713-431a-bccf-4e7a21e8e39b","system_id":"levelo_inurba_marseille","lat":43.25502,"lon":5.37653,"is_reserved":false,"is_disabled":false,"rental_uris":{"android":"levelo://app?vid=c28ff0f1-1713-431a-bccf-4e7a21e8e39b","ios":"levelo://app?vid=c28ff0f1-1713-431a-bccf-4e7a21e8e39b"},"vehicle_type_id":"4","last_reported":1726236487,"current_range_meters":39200,"station_id":"ce4bhh12rcd13ifvqff0","pricing_plan_id":"cebpf4jnsgd1na2vs0mg"},{"bike_id":"8ec62066-06f5-4149-aa4b-e967f3d79484","system_id":"levelo_inurba_marseille","lat":43.281,"lon":5.37824,"is_reserved":false,"is_disabled":false,"rental_uris":{"android":"levelo://app?vid=8ec62066-06f5-4149-aa4b-e967f3d79484","ios":"levelo://app?vid=8ec62066-06f5-4149-aa4b-e967f3d79484"},"vehicle_type_id":"4","last_reported":1726236487,"current_range_meters":16000,"station_id":"ce4bha12rcd13ifvqee0","pricing_plan_id":"cebpf4jnsgd1na2vs0mg"},{"bike_id":"4c1548cc-cda4-45d8-95c7-8bac7e5fe0ad","system_id":"levelo_inurba_marseille","lat":43.27691,"lon":5.38905,"is_reserved":false,"is_disabled":false,"rental_uris":{"android":"levelo://app?vid=4c1548cc-cda4-45d8-95c7-8bac7e5fe0ad","ios":"levelo://app?vid=4c1548cc-cda4-45d8-95c7-8bac7e5fe0ad"},"vehicle_type_id":"4","last_reported":1726236487,"current_range_meters":38400,"station_id":"ce4bhi12rcd13ifvqfo0","pricing_plan_id":"cebpf4jnsgd1na2vs0mg"},{"bike_id":"d63b08fd-7716-422a-94e4-8f1dfff5bb11","system_id":"levelo_inurba_marseille","lat":43.28615,"lon":5.35097,"is_reserved":false,"is_disabled":false,"rental_uris":{"android":"levelo://app?vid=d63b08fd-7716-422a-94e4-8f1dfff5bb11","ios":"levelo://app?vid=d63b08fd-7716-422a-94e4-8f1dfff5bb11"},"vehicle_type_id":"4","last_reported":1726236487,"current_range_meters":38800,"station_id":"ce4bhch2rcd13ifvqeug","pricing_plan_id":"cebpf4jnsgd1na2vs0mg"},{"bike_id":"ec70d30b-37ec-4b5c-b10c-9617e30c7fa0","system_id":"levelo_inurba_marseille","lat":43.30187,"lon":5.36625,"is_reserved":false,"is_disabled":false,"rental_uris":{"android":"levelo://app?vid=ec70d30b-37ec-4b5c-b10c-9617e30c7fa0","ios":"levelo://app?vid=ec70d30b-37ec-4b5c-b10c-9617e30c7fa0"},"vehicle_type_id":"4","last_reported":1726236487,"current_range_meters":17600,"station_id":"","pricing_plan_id":"cebpf4jnsgd1na2vs0mg"},{"bike_id":"8f487187-cff0-4712-8663-f837b3077516","system_id":"levelo_inurba_marseille","lat":43.24393,"lon":5.37059,"is_reserved":false,"is_disabled":false,"rental_uris":{"android":"levelo://app?vid=8f487187-cff0-4712-8663-f837b3077516","ios":"levelo://app?vid=8f487187-cff0-4712-8663-f837b3077516"},"vehicle_type_id":"4","last_reported":1726236487,"current_range_meters":28400,"station_id":"ce4bhhh2rcd13ifvqfk0","pricing_plan_id":"cebpf4jnsgd1na2vs0mg"},{"bike_id":"87a34f97-0adb-4c94-8b27-6099e9a5d3ae","system_id":"levelo_inurba_marseille","lat":43.302917,"lon":5.368883,"is_reserved":false,"is_disabled":false,"rental_uris":{"android":"levelo://app?vid=87a34f97-0adb-4c94-8b27-6099e9a5d3ae","ios":"levelo://app?vid=87a34f97-0adb-4c94-8b27-6099e9a5d3ae"},"vehicle_type_id":"4","last_reported":1726236487,"current_range_meters":26000,"station_id":"ce4bgqh2rcd13ifvqc5g","pricing_plan_id":"cebpf4jnsgd1na2vs0mg"},{"bike_id":"39ff1e25-1476-44a7-83e1-977e2ef6932b","system_id":"levelo_inurba_marseille","lat":43.23198,"lon":5.35548,"is_reserved":false,"is_disabled":false,"rental_uris":{"android":"levelo://app?vid=39ff1e25-1476-44a7-83e1-977e2ef6932b","ios":"levelo://app?vid=39ff1e25-1476-44a7-83e1-977e2ef6932b"},"vehicle_type_id":"4","last_reported":1726236487,"current_range_meters":2000,"station_id":"ce4bhu92rcd13ifvqi70","pricing_plan_id":"cebpf4jnsgd1na2vs0mg"},{"bike_id":"415d3c4f-5242-4572-8d05-9e1bd45eae7f","system_id":"levelo_inurba_marseille","lat":43.25592,"lon":5.38234,"is_reserved":false,"is_disabled":false,"rental_uris":{"android":"levelo://app?vid=415d3c4f-5242-4572-8d05-9e1bd45eae7f","ios":"levelo://app?vid=415d3c4f-5242-4572-8d05-9e1bd45eae7f"},"vehicle_type_id":"4","last_reported":1726236487,"current_range_meters":32800,"station_id":"ce4bhih2rcd13ifvqfs0","pricing_plan_id":"cebpf4jnsgd1na2vs0mg"},{"bike_id":"06be586c-7c46-466c-8f97-eac0c3d41244","system_id":"levelo_inurba_marseille","lat":43.27372,"lon":5.3626,"is_reserved":false,"is_disabled":false,"rental_uris":{"android":"levelo://app?vid=06be586c-7c46-466c-8f97-eac0c3d41244","ios":"levelo://app?vid=06be586c-7c46-466c-8f97-eac0c3d41244"},"vehicle_type_id":"4","last_reported":1726236487,"current_range_meters":28800,"station_id":"ce4bhbh2rcd13ifvqeo0","pricing_plan_id":"cebpf4jnsgd1na2vs0mg"},{"bike_id":"321776d9-93da-4f1b-96be-0c30e8fca15a","system_id":"levelo_inurba_marseille","lat":43.25724,"lon":5.41106,"is_reserved":false,"is_disabled":false,"rental_uris":{"android":"levelo://app?vid=321776d9-93da-4f1b-96be-0c30e8fca15a","ios":"levelo://app?vid=321776d9-93da-4f1b-96be-0c30e8fca15a"},"vehicle_type_id":"4","last_reported":1726236487,"current_range_meters":26800,"station_id":"ce4bhkp2rcd13ifvqgd0","pricing_plan_id":"cebpf4jnsgd1na2vs0mg"},{"bike_id":"ca5e601b-9ce8-475f-861a-521663ae1c34","system_id":"levelo_inurba_marseille","lat":43.30552,"lon":5.3656,"is_reserved":false,"is_disabled":false,"rental_uris":{"android":"levelo://app?vid=ca5e601b-9ce8-475f-861a-521663ae1c34","ios":"levelo://app?vid=ca5e601b-9ce8-475f-861a-521663ae1c34"},"vehicle_type_id":"4","last_reported":1726236487,"current_range_meters":34000,"station_id":"ce4bgs12rcd13ifvqcag","pricing_plan_id":"cebpf4jnsgd1na2vs0mg"},{"bike_id":"db3c2f76-d7fd-47df-ba22-745306b0c317","system_id":"levelo_inurba_marseille","lat":43.29792,"lon":5.40404,"is_reserved":false,"is_disabled":false,"rental_uris":{"android":"levelo://app?vid=db3c2f76-d7fd-47df-ba22-745306b0c317","ios":"levelo://app?vid=db3c2f76-d7fd-47df-ba22-745306b0c317"},"vehicle_type_id":"4","last_reported":1726236487,"current_range_meters":17600,"station_id":"ce4bh112rcd13ifvqd90","pricing_plan_id":"cebpf4jnsgd1na2vs0mg"},{"bike_id":"42e84e6d-33b9-4c46-830b-ea91b25f5838","system_id":"levelo_inurba_marseille","lat":43.30645,"lon":5.40103,"is_reserved":false,"is_disabled":false,"rental_uris":{"android":"levelo://app?vid=42e84e6d-33b9-4c46-830b-ea91b25f5838","ios":"levelo://app?vid=42e84e6d-33b9-4c46-830b-ea91b25f5838"},"vehicle_type_id":"4","last_reported":1726236487,"current_range_meters":30800,"station_id":"ce4bh112rcd13ifvqda0","pricing_plan_id":"cebpf4jnsgd1na2vs0mg"},{"bike_id":"2f85786c-cd4f-4342-a776-73504aab5005","system_id":"levelo_inurba_marseille","lat":43.250863,"lon":5.395262,"is_reserved":false,"is_disabled":false,"rental_uris":{"android":"levelo://app?vid=2f85786c-cd4f-4342-a776-73504aab5005","ios":"levelo://app?vid=2f85786c-cd4f-4342-a776-73504aab5005"},"vehicle_type_id":"4","last_reported":1726236487,"current_range_meters":25600,"station_id":"ce4bhm12rcd13ifvqgkg","pricing_plan_id":"cebpf4jnsgd1na2vs0mg"},{"bike_id":"e7811449-424e-465f-a413-9a324c616070","system_id":"levelo_inurba_marseille","lat":43.30141,"lon":5.37417,"is_reserved":false,"is_disabled":false,"rental_uris":{"android":"levelo://app?vid=e7811449-424e-465f-a413-9a324c616070","ios":"levelo://app?vid=e7811449-424e-465f-a413-9a324c616070"},"vehicle_type_id":"4","last_reported":1726236487,"current_range_meters":38800,"station_id":"ce4bgs92rcd13ifvqcc0","pricing_plan_id":"cebpf4jnsgd1na2vs0mg"},{"bike_id":"5370546a-7244-45da-af29-6ba1e105add1","system_id":"levelo_inurba_marseille","lat":43.27372,"lon":5.36245,"is_reserved":false,"is_disabled":false,"rental_uris":{"android":"levelo://app?vid=5370546a-7244-45da-af29-6ba1e105add1","ios":"levelo://app?vid=5370546a-7244-45da-af29-6ba1e105add1"},"vehicle_type_id":"4","last_reported":1726236487,"current_range_meters":24400,"station_id":"ce4bhbh2rcd13ifvqeo0","pricing_plan_id":"cebpf4jnsgd1na2vs0mg"},{"bike_id":"ffd70a77-c284-4424-967a-f18b173c279c","system_id":"levelo_inurba_marseille","lat":43.23154,"lon":5.43706,"is_reserved":false,"is_disabled":false,"rental_uris":{"android":"levelo://app?vid=ffd70a77-c284-4424-967a-f18b173c279c","ios":"levelo://app?vid=ffd70a77-c284-4424-967a-f18b173c279c"},"vehicle_type_id":"4","last_reported":1726236487,"current_range_meters":12400,"station_id":"ce4bhmp2rcd13ifvqgog","pricing_plan_id":"cebpf4jnsgd1na2vs0mg"},{"bike_id":"5e82665b-e237-4fcb-a61b-c96e0b058daf","system_id":"levelo_inurba_marseille","lat":43.29263,"lon":5.38447,"is_reserved":false,"is_disabled":false,"rental_uris":{"android":"levelo://app?vid=5e82665b-e237-4fcb-a61b-c96e0b058daf","ios":"levelo://app?vid=5e82665b-e237-4fcb-a61b-c96e0b058daf"},"vehicle_type_id":"4","last_reported":1726236487,"current_range_meters":36800,"station_id":"ce4bh692rcd13ifvqea0","pricing_plan_id":"cebpf4jnsgd1na2vs0mg"},{"bike_id":"b5794166-cade-45b3-a984-8145a75883a1","system_id":"levelo_inurba_marseille","lat":43.29979,"lon":5.3851,"is_reserved":false,"is_disabled":false,"rental_uris":{"android":"levelo://app?vid=b5794166-cade-45b3-a984-8145a75883a1","ios":"levelo://app?vid=b5794166-cade-45b3-a984-8145a75883a1"},"vehicle_type_id":"4","last_reported":1726236487,"current_range_meters":37600,"station_id":"ce4bgj92rcd13ifvqbd0","pricing_plan_id":"cebpf4jnsgd1na2vs0mg"},{"bike_id":"18a15787-e7df-4d98-b234-0d8d226538c5","system_id":"levelo_inurba_marseille","lat":43.29703,"lon":5.37687,"is_reserved":false,"is_disabled":false,"rental_uris":{"android":"levelo://app?vid=18a15787-e7df-4d98-b234-0d8d226538c5","ios":"levelo://app?vid=18a15787-e7df-4d98-b234-0d8d226538c5"},"vehicle_type_id":"4","last_reported":1726236487,"current_range_meters":32800,"station_id":"ce4bgkh2rcd13ifvqbl0","pricing_plan_id":"cebpf4jnsgd1na2vs0mg"},{"bike_id":"5072cfd2-6a5a-47bb-831e-af7e40f43e3d","system_id":"levelo_inurba_marseille","lat":43.265228,"lon":5.380338,"is_reserved":false,"is_disabled":false,"rental_uris":{"android":"levelo://app?vid=5072cfd2-6a5a-47bb-831e-af7e40f43e3d","ios":"levelo://app?vid=5072cfd2-6a5a-47bb-831e-af7e40f43e3d"},"vehicle_type_id":"4","last_reported":1726236487,"current_range_meters":25200,"station_id":"","pricing_plan_id":"cebpf4jnsgd1na2vs0mg"},{"bike_id":"03200ce1-e816-4485-a9db-29a204ad97d8","system_id":"levelo_inurba_marseille","lat":43.23971,"lon":5.36632,"is_reserved":false,"is_disabled":false,"rental_uris":{"android":"levelo://app?vid=03200ce1-e816-4485-a9db-29a204ad97d8","ios":"levelo://app?vid=03200ce1-e816-4485-a9db-29a204ad97d8"},"vehicle_type_id":"4","last_reported":1726236487,"current_range_meters":38800,"station_id":"ce4bhi12rcd13ifvqfp0","pricing_plan_id":"cebpf4jnsgd1na2vs0mg"},{"bike_id":"954d2b54-362e-442e-bcaa-d17939d90e2d","system_id":"levelo_inurba_marseille","lat":43.25495,"lon":5.37653,"is_reserved":false,"is_disabled":false,"rental_uris":{"android":"levelo://app?vid=954d2b54-362e-442e-bcaa-d17939d90e2d","ios":"levelo://app?vid=954d2b54-362e-442e-bcaa-d17939d90e2d"},"vehicle_type_id":"4","last_reported":1726236487,"current_range_meters":39200,"station_id":"ce4bhh12rcd13ifvqff0","pricing_plan_id":"cebpf4jnsgd1na2vs0mg"},{"bike_id":"82dec1e1-c024-4a59-b080-1ca526441f94","system_id":"levelo_inurba_marseille","lat":43.337612,"lon":5.374504,"is_reserved":false,"is_disabled":false,"rental_uris":{"android":"levelo://app?vid=82dec1e1-c024-4a59-b080-1ca526441f94","ios":"levelo://app?vid=82dec1e1-c024-4a59-b080-1ca526441f94"},"vehicle_type_id":"4","last_reported":1726236487,"current_range_meters":14400,"station_id":"","pricing_plan_id":"cebpf4jnsgd1na2vs0mg"},{"bike_id":"c388f329-6f3c-470d-96b0-fb1532620c7b","system_id":"levelo_inurba_marseille","lat":43.23155,"lon":5.43713,"is_reserved":false,"is_disabled":false,"rental_uris":{"android":"levelo://app?vid=c388f329-6f3c-470d-96b0-fb1532620c7b","ios":"levelo://app?vid=c388f329-6f3c-470d-96b0-fb1532620c7b"},"vehicle_type_id":"4","last_reported":1726236487,"current_range_meters":20800,"station_id":"ce4bhmp2rcd13ifvqgog","pricing_plan_id":"cebpf4jnsgd1na2vs0mg"},{"bike_id":"482796c1-2dd4-4ac0-869c-7c6b5e1669a8","system_id":"levelo_inurba_marseille","lat":43.26962,"lon":5.38631,"is_reserved":false,"is_disabled":false,"rental_uris":{"android":"levelo://app?vid=482796c1-2dd4-4ac0-869c-7c6b5e1669a8","ios":"levelo://app?vid=482796c1-2dd4-4ac0-869c-7c6b5e1669a8"},"vehicle_type_id":"4","last_reported":1726236487,"current_range_meters":36400,"station_id":"ce4bhh92rcd13ifvqfh0","pricing_plan_id":"cebpf4jnsgd1na2vs0mg"},{"bike_id":"41d5a75e-b418-4c97-b928-46f1031a4a8c","system_id":"levelo_inurba_marseille","lat":43.30491,"lon":5.36971,"is_reserved":false,"is_disabled":false,"rental_uris":{"android":"levelo://app?vid=41d5a75e-b418-4c97-b928-46f1031a4a8c","ios":"levelo://app?vid=41d5a75e-b418-4c97-b928-46f1031a4a8c"},"vehicle_type_id":"4","last_reported":1726236487,"current_range_meters":22400,"station_id":"ce4bgop2rcd13ifvqc1g","pricing_plan_id":"cebpf4jnsgd1na2vs0mg"},{"bike_id":"2deeed66-456e-4f3b-be82-f36b0e3c9d4c","system_id":"levelo_inurba_marseille","lat":43.23152,"lon":5.43709,"is_reserved":false,"is_disabled":false,"rental_uris":{"android":"levelo://app?vid=2deeed66-456e-4f3b-be82-f36b0e3c9d4c","ios":"levelo://app?vid=2deeed66-456e-4f3b-be82-f36b0e3c9d4c"},"vehicle_type_id":"4","last_reported":1726236487,"current_range_meters":17600,"station_id":"ce4bhmp2rcd13ifvqgog","pricing_plan_id":"cebpf4jnsgd1na2vs0mg"},{"bike_id":"fad4ce5f-29e2-4402-92b3-eafa4b8fc708","system_id":"levelo_inurba_marseille","lat":43.26029,"lon":5.37551,"is_reserved":false,"is_disabled":false,"rental_uris":{"android":"levelo://app?vid=fad4ce5f-29e2-4402-92b3-eafa4b8fc708","ios":"levelo://app?vid=fad4ce5f-29e2-4402-92b3-eafa4b8fc708"},"vehicle_type_id":"4","last_reported":1726236487,"current_range_meters":30800,"station_id":"ce4bhgh2rcd13ifvqfa0","pricing_plan_id":"cebpf4jnsgd1na2vs0mg"},{"bike_id":"25d97d32-d2d5-4b4e-bd90-73f2237da42c","system_id":"levelo_inurba_marseille","lat":43.29303,"lon":5.37462,"is_reserved":false,"is_disabled":false,"rental_uris":{"android":"levelo://app?vid=25d97d32-d2d5-4b4e-bd90-73f2237da42c","ios":"levelo://app?vid=25d97d32-d2d5-4b4e-bd90-73f2237da42c"},"vehicle_type_id":"4","last_reported":1726236487,"current_range_meters":12000,"station_id":"ce4bgi12rcd13ifvqb70","pricing_plan_id":"cebpf4jnsgd1na2vs0mg"},{"bike_id":"68ff4151-97ec-460a-970f-20908099f2f1","system_id":"levelo_inurba_marseille","lat":43.30557,"lon":5.36531,"is_reserved":false,"is_disabled":false,"rental_uris":{"android":"levelo://app?vid=68ff4151-97ec-460a-970f-20908099f2f1","ios":"levelo://app?vid=68ff4151-97ec-460a-970f-20908099f2f1"},"vehicle_type_id":"4","last_reported":1726236487,"current_range_meters":39200,"station_id":"ce4bgs12rcd13ifvqcag","pricing_plan_id":"cebpf4jnsgd1na2vs0mg"},{"bike_id":"d6766db9-65af-4436-94ce-bd1adef694c7","system_id":"levelo_inurba_marseille","lat":43.26684,"lon":5.38263,"is_reserved":false,"is_disabled":false,"rental_uris":{"android":"levelo://app?vid=d6766db9-65af-4436-94ce-bd1adef694c7","ios":"levelo://app?vid=d6766db9-65af-4436-94ce-bd1adef694c7"},"vehicle_type_id":"4","last_reported":1726236487,"current_range_meters":38800,"station_id":"ce4bhg92rcd13ifvqf90","pricing_plan_id":"cebpf4jnsgd1na2vs0mg"},{"bike_id":"c5316401-bd1f-44c8-b0df-5dc7bdba245f","system_id":"levelo_inurba_marseille","lat":43.29677,"lon":5.37288,"is_reserved":false,"is_disabled":false,"rental_uris":{"android":"levelo://app?vid=c5316401-bd1f-44c8-b0df-5dc7bdba245f","ios":"levelo://app?vid=c5316401-bd1f-44c8-b0df-5dc7bdba245f"},"vehicle_type_id":"4","last_reported":1726236487,"current_range_meters":36000,"station_id":"ce4bgk12rcd13ifvqbj0","pricing_plan_id":"cebpf4jnsgd1na2vs0mg"},{"bike_id":"61e00977-be43-400f-99ea-3c33330f7657","system_id":"levelo_inurba_marseille","lat":43.2501,"lon":5.38916,"is_reserved":false,"is_disabled":false,"rental_uris":{"android":"levelo://app?vid=61e00977-be43-400f-99ea-3c33330f7657","ios":"levelo://app?vid=61e00977-be43-400f-99ea-3c33330f7657"},"vehicle_type_id":"4","last_reported":1726236487,"current_range_meters":25200,"station_id":"ce4bhgp2rcd13ifvqfd0","pricing_plan_id":"cebpf4jnsgd1na2vs0mg"},{"bike_id":"0032f5f1-e541-4093-a68c-d29e851a1466","system_id":"levelo_inurba_marseille","lat":43.25007,"lon":5.38931,"is_reserved":false,"is_disabled":false,"rental_uris":{"android":"levelo://app?vid=0032f5f1-e541-4093-a68c-d29e851a1466","ios":"levelo://app?vid=0032f5f1-e541-4093-a68c-d29e851a1466"},"vehicle_type_id":"4","last_reported":1726236487,"current_range_meters":17200,"station_id":"ce4bhgp2rcd13ifvqfd0","pricing_plan_id":"cebpf4jnsgd1na2vs0mg"},{"bike_id":"6f460960-ce1e-4b86-8066-4975ee77fdb2","system_id":"levelo_inurba_marseille","lat":43.32482,"lon":5.36556,"is_reserved":false,"is_disabled":false,"rental_uris":{"android":"levelo://app?vid=6f460960-ce1e-4b86-8066-4975ee77fdb2","ios":"levelo://app?vid=6f460960-ce1e-4b86-8066-4975ee77fdb2"},"vehicle_type_id":"4","last_reported":1726236487,"current_range_meters":5600,"station_id":"ce4bhs12rcd13ifvqhvg","pricing_plan_id":"cebpf4jnsgd1na2vs0mg"},{"bike_id":"72dd6a67-214b-43ea-aa3b-7d9d8650531f","system_id":"levelo_inurba_marseille","lat":43.30252,"lon":5.40077,"is_reserved":false,"is_disabled":false,"rental_uris":{"android":"levelo://app?vid=72dd6a67-214b-43ea-aa3b-7d9d8650531f","ios":"levelo://app?vid=72dd6a67-214b-43ea-aa3b-7d9d8650531f"},"vehicle_type_id":"4","last_reported":1726236487,"current_range_meters":38800,"station_id":"ce4bgvh2rcd13ifvqcs0","pricing_plan_id":"cebpf4jnsgd1na2vs0mg"},{"bike_id":"ffbfff3f-dda9-40c1-b1a5-13e364dc0fdd","system_id":"levelo_inurba_marseille","lat":43.29771,"lon":5.38088,"is_reserved":false,"is_disabled":false,"rental_uris":{"android":"levelo://app?vid=ffbfff3f-dda9-40c1-b1a5-13e364dc0fdd","ios":"levelo://app?vid=ffbfff3f-dda9-40c1-b1a5-13e364dc0fdd"},"vehicle_type_id":"4","last_reported":1726236487,"current_range_meters":26800,"station_id":"ce4bgip2rcd13ifvqbb0","pricing_plan_id":"cebpf4jnsgd1na2vs0mg"},{"bike_id":"cd36c563-2066-400a-aeb7-7d2e69a58965","system_id":"levelo_inurba_marseille","lat":43.26681,"lon":5.38264,"is_reserved":false,"is_disabled":false,"rental_uris":{"android":"levelo://app?vid=cd36c563-2066-400a-aeb7-7d2e69a58965","ios":"levelo://app?vid=cd36c563-2066-400a-aeb7-7d2e69a58965"},"vehicle_type_id":"4","last_reported":1726236487,"current_range_meters":38800,"station_id":"ce4bhg92rcd13ifvqf90","pricing_plan_id":"cebpf4jnsgd1na2vs0mg"},{"bike_id":"319d3f8d-e442-470d-8352-3eed4b72d37e","system_id":"levelo_inurba_marseille","lat":43.29717,"lon":5.377,"is_reserved":false,"is_disabled":false,"rental_uris":{"android":"levelo://app?vid=319d3f8d-e442-470d-8352-3eed4b72d37e","ios":"levelo://app?vid=319d3f8d-e442-470d-8352-3eed4b72d37e"},"vehicle_type_id":"4","last_reported":1726236487,"current_range_meters":18800,"station_id":"ce4bgkh2rcd13ifvqbl0","pricing_plan_id":"cebpf4jnsgd1na2vs0mg"},{"bike_id":"0058bb13-4f53-4b3f-928f-445d963bdb0e","system_id":"levelo_inurba_marseille","lat":43.29562,"lon":5.39957,"is_reserved":false,"is_disabled":false,"rental_uris":{"android":"levelo://app?vid=0058bb13-4f53-4b3f-928f-445d963bdb0e","ios":"levelo://app?vid=0058bb13-4f53-4b3f-928f-445d963bdb0e"},"vehicle_type_id":"4","last_reported":1726236487,"current_range_meters":26000,"station_id":"ce4bh312rcd13ifvqdj0","pricing_plan_id":"cebpf4jnsgd1na2vs0mg"},{"bike_id":"56830307-4a49-40f0-86d8-1373f06855be","system_id":"levelo_inurba_marseille","lat":43.29897,"lon":5.38145,"is_reserved":false,"is_disabled":false,"rental_uris":{"android":"levelo://app?vid=56830307-4a49-40f0-86d8-1373f06855be","ios":"levelo://app?vid=56830307-4a49-40f0-86d8-1373f06855be"},"vehicle_type_id":"4","last_reported":1726236487,"current_range_meters":20000,"station_id":"ce4bgj12rcd13ifvqbc0","pricing_plan_id":"cebpf4jnsgd1na2vs0mg"},{"bike_id":"5a36b040-5267-4d19-ae9e-97e9971f0b4e","system_id":"levelo_inurba_marseille","lat":43.29887,"lon":5.389,"is_reserved":false,"is_disabled":false,"rental_uris":{"android":"levelo://app?vid=5a36b040-5267-4d19-ae9e-97e9971f0b4e","ios":"levelo://app?vid=5a36b040-5267-4d19-ae9e-97e9971f0b4e"},"vehicle_type_id":"4","last_reported":1726236487,"current_range_meters":22400,"station_id":"ce4bh392rcd13ifvqdl0","pricing_plan_id":"cebpf4jnsgd1na2vs0mg"},{"bike_id":"8375304b-8959-48b9-88d3-f98e6b2b9263","system_id":"levelo_inurba_marseille","lat":43.30199,"lon":5.36613,"is_reserved":false,"is_disabled":false,"rental_uris":{"android":"levelo://app?vid=8375304b-8959-48b9-88d3-f98e6b2b9263","ios":"levelo://app?vid=8375304b-8959-48b9-88d3-f98e6b2b9263"},"vehicle_type_id":"4","last_reported":1726236487,"current_range_meters":24400,"station_id":"ce4bgrh2rcd13ifvqc8g","pricing_plan_id":"cebpf4jnsgd1na2vs0mg"},{"bike_id":"a45a1df7-7bab-45ab-8705-38226200840c","system_id":"levelo_inurba_marseille","lat":43.29871,"lon":5.38907,"is_reserved":false,"is_disabled":false,"rental_uris":{"android":"levelo://app?vid=a45a1df7-7bab-45ab-8705-38226200840c","ios":"levelo://app?vid=a45a1df7-7bab-45ab-8705-38226200840c"},"vehicle_type_id":"4","last_reported":1726236487,"current_range_meters":35200,"station_id":"ce4bh392rcd13ifvqdl0","pricing_plan_id":"cebpf4jnsgd1na2vs0mg"},{"bike_id":"df6c1155-2cb5-497f-8229-4c48a245c359","system_id":"levelo_inurba_marseille","lat":43.26784,"lon":5.39413,"is_reserved":false,"is_disabled":false,"rental_uris":{"android":"levelo://app?vid=df6c1155-2cb5-497f-8229-4c48a245c359","ios":"levelo://app?vid=df6c1155-2cb5-497f-8229-4c48a245c359"},"vehicle_type_id":"4","last_reported":1726236487,"current_range_meters":19200,"station_id":"ce4bhh12rcd13ifvqfg0","pricing_plan_id":"cebpf4jnsgd1na2vs0mg"},{"bike_id":"bc6f5d67-e5da-4841-a122-d160861ea0ae","system_id":"levelo_inurba_marseille","lat":43.29633,"lon":5.37166,"is_reserved":false,"is_disabled":false,"rental_uris":{"android":"levelo://app?vid=bc6f5d67-e5da-4841-a122-d160861ea0ae","ios":"levelo://app?vid=bc6f5d67-e5da-4841-a122-d160861ea0ae"},"vehicle_type_id":"4","last_reported":1726236487,"current_range_meters":28400,"station_id":"ce4bgnh2rcd13ifvqc0g","pricing_plan_id":"cebpf4jnsgd1na2vs0mg"},{"bike_id":"f20f613d-77b3-4abc-847d-4abd98073b48","system_id":"levelo_inurba_marseille","lat":43.28621,"lon":5.35104,"is_reserved":false,"is_disabled":false,"rental_uris":{"android":"levelo://app?vid=f20f613d-77b3-4abc-847d-4abd98073b48","ios":"levelo://app?vid=f20f613d-77b3-4abc-847d-4abd98073b48"},"vehicle_type_id":"4","last_reported":1726236487,"current_range_meters":31200,"station_id":"ce4bhch2rcd13ifvqeug","pricing_plan_id":"cebpf4jnsgd1na2vs0mg"},{"bike_id":"37391d25-87c0-4505-bac8-a768bab779a6","system_id":"levelo_inurba_marseille","lat":43.32486,"lon":5.36554,"is_reserved":false,"is_disabled":false,"rental_uris":{"android":"levelo://app?vid=37391d25-87c0-4505-bac8-a768bab779a6","ios":"levelo://app?vid=37391d25-87c0-4505-bac8-a768bab779a6"},"vehicle_type_id":"4","last_reported":1726236487,"current_range_meters":12800,"station_id":"ce4bhs12rcd13ifvqhvg","pricing_plan_id":"cebpf4jnsgd1na2vs0mg"},{"bike_id":"52ef493d-112f-4c68-8662-3bb1cdb9cb18","system_id":"levelo_inurba_marseille","lat":43.23152,"lon":5.43721,"is_reserved":false,"is_disabled":false,"rental_uris":{"android":"levelo://app?vid=52ef493d-112f-4c68-8662-3bb1cdb9cb18","ios":"levelo://app?vid=52ef493d-112f-4c68-8662-3bb1cdb9cb18"},"vehicle_type_id":"4","last_reported":1726236487,"current_range_meters":35200,"station_id":"ce4bhmp2rcd13ifvqgog","pricing_plan_id":"cebpf4jnsgd1na2vs0mg"},{"bike_id":"c6291268-f967-406b-8462-6432e051c013","system_id":"levelo_inurba_marseille","lat":43.29505,"lon":5.3904,"is_reserved":false,"is_disabled":false,"rental_uris":{"android":"levelo://app?vid=c6291268-f967-406b-8462-6432e051c013","ios":"levelo://app?vid=c6291268-f967-406b-8462-6432e051c013"},"vehicle_type_id":"4","last_reported":1726236487,"current_range_meters":11600,"station_id":"ce4bh3p2rcd13ifvqdp0","pricing_plan_id":"cebpf4jnsgd1na2vs0mg"},{"bike_id":"e2a9ef80-b0c6-4e8a-a032-3e6634094c93","system_id":"levelo_inurba_marseille","lat":43.2862,"lon":5.35111,"is_reserved":false,"is_disabled":false,"rental_uris":{"android":"levelo://app?vid=e2a9ef80-b0c6-4e8a-a032-3e6634094c93","ios":"levelo://app?vid=e2a9ef80-b0c6-4e8a-a032-3e6634094c93"},"vehicle_type_id":"4","last_reported":1726236487,"current_range_meters":4000,"station_id":"ce4bhch2rcd13ifvqeug","pricing_plan_id":"cebpf4jnsgd1na2vs0mg"},{"bike_id":"777e8c02-4812-4553-9346-a7a9f60db499","system_id":"levelo_inurba_marseille","lat":43.30421,"lon":5.41286,"is_reserved":false,"is_disabled":false,"rental_uris":{"android":"levelo://app?vid=777e8c02-4812-4553-9346-a7a9f60db499","ios":"levelo://app?vid=777e8c02-4812-4553-9346-a7a9f60db499"},"vehicle_type_id":"4","last_reported":1726236487,"current_range_meters":25200,"station_id":"ce4bhop2rcd13ifvqh8g","pricing_plan_id":"cebpf4jnsgd1na2vs0mg"},{"bike_id":"09b30918-6491-4480-b178-c9a1bb6ab112","system_id":"levelo_inurba_marseille","lat":43.30913,"lon":5.36849,"is_reserved":false,"is_disabled":false,"rental_uris":{"android":"levelo://app?vid=09b30918-6491-4480-b178-c9a1bb6ab112","ios":"levelo://app?vid=09b30918-6491-4480-b178-c9a1bb6ab112"},"vehicle_type_id":"4","last_reported":1726236487,"current_range_meters":36000,"station_id":"ce4bgn92rcd13ifvqbvg","pricing_plan_id":"cebpf4jnsgd1na2vs0mg"},{"bike_id":"78a19e14-5ef8-4995-a212-c9c7b2b69636","system_id":"levelo_inurba_marseille","lat":43.30194,"lon":5.36616,"is_reserved":false,"is_disabled":false,"rental_uris":{"android":"levelo://app?vid=78a19e14-5ef8-4995-a212-c9c7b2b69636","ios":"levelo://app?vid=78a19e14-5ef8-4995-a212-c9c7b2b69636"},"vehicle_type_id":"4","last_reported":1726236487,"current_range_meters":28800,"station_id":"ce4bgrh2rcd13ifvqc8g","pricing_plan_id":"cebpf4jnsgd1na2vs0mg"},{"bike_id":"ecb1b0b8-08ac-4ca7-9999-dc16ad016b59","system_id":"levelo_inurba_marseille","lat":43.28271,"lon":5.35062,"is_reserved":false,"is_disabled":false,"rental_uris":{"android":"levelo://app?vid=ecb1b0b8-08ac-4ca7-9999-dc16ad016b59","ios":"levelo://app?vid=ecb1b0b8-08ac-4ca7-9999-dc16ad016b59"},"vehicle_type_id":"4","last_reported":1726236487,"current_range_meters":8800,"station_id":"ce4bhbp2rcd13ifvqerg","pricing_plan_id":"cebpf4jnsgd1na2vs0mg"},{"bike_id":"d91b2ce1-75f7-4b47-9670-dd17a0cfcfa7","system_id":"levelo_inurba_marseille","lat":43.24542,"lon":5.39531,"is_reserved":false,"is_disabled":false,"rental_uris":{"android":"levelo://app?vid=d91b2ce1-75f7-4b47-9670-dd17a0cfcfa7","ios":"levelo://app?vid=d91b2ce1-75f7-4b47-9670-dd17a0cfcfa7"},"vehicle_type_id":"4","last_reported":1726236487,"current_range_meters":28800,"station_id":"ce4bhlp2rcd13ifvqgjg","pricing_plan_id":"cebpf4jnsgd1na2vs0mg"},{"bike_id":"b6ed4c6e-b410-494f-9ce2-475ffb9aac51","system_id":"levelo_inurba_marseille","lat":43.308897,"lon":5.371897,"is_reserved":false,"is_disabled":false,"rental_uris":{"android":"levelo://app?vid=b6ed4c6e-b410-494f-9ce2-475ffb9aac51","ios":"levelo://app?vid=b6ed4c6e-b410-494f-9ce2-475ffb9aac51"},"vehicle_type_id":"4","last_reported":1726236487,"current_range_meters":36400,"station_id":"ce4bguh2rcd13ifvqckg","pricing_plan_id":"cebpf4jnsgd1na2vs0mg"},{"bike_id":"b8958452-e2aa-4a1c-af39-89f3868232f0","system_id":"levelo_inurba_marseille","lat":43.26683,"lon":5.38264,"is_reserved":false,"is_disabled":false,"rental_uris":{"android":"levelo://app?vid=b8958452-e2aa-4a1c-af39-89f3868232f0","ios":"levelo://app?vid=b8958452-e2aa-4a1c-af39-89f3868232f0"},"vehicle_type_id":"4","last_reported":1726236487,"current_range_meters":30400,"station_id":"ce4bhg92rcd13ifvqf90","pricing_plan_id":"cebpf4jnsgd1na2vs0mg"},{"bike_id":"f48c178a-aff3-4573-b2d6-812d502b91b7","system_id":"levelo_inurba_marseille","lat":43.26571,"lon":5.39015,"is_reserved":false,"is_disabled":false,"rental_uris":{"android":"levelo://app?vid=f48c178a-aff3-4573-b2d6-812d502b91b7","ios":"levelo://app?vid=f48c178a-aff3-4573-b2d6-812d502b91b7"},"vehicle_type_id":"4","last_reported":1726236487,"current_range_meters":28000,"station_id":"ce4bhe12rcd13ifvqf30","pricing_plan_id":"cebpf4jnsgd1na2vs0mg"},{"bike_id":"eebefa60-8a13-4c92-8a67-7912f4c54922","system_id":"levelo_inurba_marseille","lat":43.27217,"lon":5.39183,"is_reserved":false,"is_disabled":false,"rental_uris":{"android":"levelo://app?vid=eebefa60-8a13-4c92-8a67-7912f4c54922","ios":"levelo://app?vid=eebefa60-8a13-4c92-8a67-7912f4c54922"},"vehicle_type_id":"4","last_reported":1726236487,"current_range_meters":15200,"station_id":"ce4bhhp2rcd13ifvqfm0","pricing_plan_id":"cebpf4jnsgd1na2vs0mg"},{"bike_id":"8431cde2-6bab-4b9d-9d3c-38ae873b457e","system_id":"levelo_inurba_marseille","lat":43.2418,"lon":5.39722,"is_reserved":false,"is_disabled":false,"rental_uris":{"android":"levelo://app?vid=8431cde2-6bab-4b9d-9d3c-38ae873b457e","ios":"levelo://app?vid=8431cde2-6bab-4b9d-9d3c-38ae873b457e"},"vehicle_type_id":"4","last_reported":1726236487,"current_range_meters":12000,"station_id":"ce4bhn12rcd13ifvqgpg","pricing_plan_id":"cebpf4jnsgd1na2vs0mg"},{"bike_id":"e362f321-9b01-4b87-93b8-695636b159d2","system_id":"levelo_inurba_marseille","lat":43.30139,"lon":5.38094,"is_reserved":false,"is_disabled":false,"rental_uris":{"android":"levelo://app?vid=e362f321-9b01-4b87-93b8-695636b159d2","ios":"levelo://app?vid=e362f321-9b01-4b87-93b8-695636b159d2"},"vehicle_type_id":"4","last_reported":1726236487,"current_range_meters":36800,"station_id":"ce4bgjp2rcd13ifvqbh0","pricing_plan_id":"cebpf4jnsgd1na2vs0mg"},{"bike_id":"1fbfcef5-5c30-4030-a701-888e9e3dc455","system_id":"levelo_inurba_marseille","lat":43.26942,"lon":5.38914,"is_reserved":false,"is_disabled":false,"rental_uris":{"android":"levelo://app?vid=1fbfcef5-5c30-4030-a701-888e9e3dc455","ios":"levelo://app?vid=1fbfcef5-5c30-4030-a701-888e9e3dc455"},"vehicle_type_id":"4","last_reported":1726236487,"current_range_meters":20400,"station_id":"ce4bhhh2rcd13ifvqfl0","pricing_plan_id":"cebpf4jnsgd1na2vs0mg"},{"bike_id":"f400d370-a20e-4ced-86f0-64f62510749c","system_id":"levelo_inurba_marseille","lat":43.3237,"lon":5.38926,"is_reserved":false,"is_disabled":false,"rental_uris":{"android":"levelo://app?vid=f400d370-a20e-4ced-86f0-64f62510749c","ios":"levelo://app?vid=f400d370-a20e-4ced-86f0-64f62510749c"},"vehicle_type_id":"4","last_reported":1726236487,"current_range_meters":4400,"station_id":"","pricing_plan_id":"cebpf4jnsgd1na2vs0mg"},{"bike_id":"8578940c-55cb-4da5-a5e8-95031a7a0872","system_id":"levelo_inurba_marseille","lat":43.25858,"lon":5.39912,"is_reserved":false,"is_disabled":false,"rental_uris":{"android":"levelo://app?vid=8578940c-55cb-4da5-a5e8-95031a7a0872","ios":"levelo://app?vid=8578940c-55cb-4da5-a5e8-95031a7a0872"},"vehicle_type_id":"4","last_reported":1726236487,"current_range_meters":36400,"station_id":"ce4bhl92rcd13ifvqghg","pricing_plan_id":"cebpf4jnsgd1na2vs0mg"},{"bike_id":"5115cfc7-2f9b-470d-8e05-d689bff19441","system_id":"levelo_inurba_marseille","lat":43.30552,"lon":5.36551,"is_reserved":false,"is_disabled":false,"rental_uris":{"android":"levelo://app?vid=5115cfc7-2f9b-470d-8e05-d689bff19441","ios":"levelo://app?vid=5115cfc7-2f9b-470d-8e05-d689bff19441"},"vehicle_type_id":"4","last_reported":1726236487,"current_range_meters":11200,"station_id":"ce4bgs12rcd13ifvqcag","pricing_plan_id":"cebpf4jnsgd1na2vs0mg"},{"bike_id":"29cde858-91d6-4fe7-8095-73bb300eeeb0","system_id":"levelo_inurba_marseille","lat":43.31762,"lon":5.39013,"is_reserved":false,"is_disabled":false,"rental_uris":{"android":"levelo://app?vid=29cde858-91d6-4fe7-8095-73bb300eeeb0","ios":"levelo://app?vid=29cde858-91d6-4fe7-8095-73bb300eeeb0"},"vehicle_type_id":"4","last_reported":1726236487,"current_range_meters":30800,"station_id":"ce4bhqp2rcd13ifvqhng","pricing_plan_id":"cebpf4jnsgd1na2vs0mg"},