{"last_updated":1778692019,"ttl":60,"version":"2.2","data":{"bikes":[{"bike_id":"90f38254-f3bf-4358-b0b6-5ce555f17b65","system_id":"levelo_inurba_marseille","lat":43.32345,"lon":5.36544,"is_reserved":false,"is_disabled":false,"rental_uris":{"android":"levelo://app?vid=90f38254-f3bf-4358-b0b6-5ce555f17b65","ios":"levelo://app?vid=90f38254-f3bf-4358-b0b6-5ce555f17b65"},"vehicle_type_id":"4","last_reported":1778692020,"current_range_meters":2800,"station_id":"","pricing_plan_id":"cebpf4jnsgd1na2vs0mg"},{"bike_id":"d1b7b774-5370-4cd6-8165-34aa9c771a51","system_id":"levelo_inurba_marseille","lat":43.27055,"lon":5.42292,"is_reserved":false,"is_disabled":false,"rental_uris":{"android":"levelo://app?vid=d1b7b774-5370-4cd6-8165-34aa9c771a51","ios":"levelo://app?vid=d1b7b774-5370-4cd6-8165-34aa9c771a51"},"vehicle_type_id":"4","last_reported":1778692020,"current_range_meters":2800,"station_id":"ce4bhk92rcd13ifvqgb0","pricing_plan_id":"cebpf4jnsgd1na2vs0mg"},{"bike_id":"a190b0c4-eded-417e-a9de-ec0509f2b0f1","system_id":"levelo_inurba_marseille","lat":43.24729,"lon":5.38152,"is_reserved":false,"is_disabled":true,"rental_uris":{"android":"levelo://app?vid=a190b0c4-eded-417e-a9de-ec0509f2b0f1","ios":"levelo://app?vid=a190b0c4-eded-417e-a9de-ec0509f2b0f1"},"vehicle_type_id":"4","last_reported":1778692020,"current_range_meters":2800,"station_id":"ce4bhih2rcd13ifvqfr0","pricing_plan_id":"cebpf4jnsgd1na2vs0mg"},{"bike_id":"5ad0eedc-f318-43e8-90fc-aa9ab75328a2","system_id":"levelo_inurba_marseille","lat":43.30933,"lon":5.40145,"is_reserved":false,"is_disabled":false,"rental_uris":{"android":"levelo://app?vid=5ad0eedc-f318-43e8-90fc-aa9ab75328a2","ios":"levelo://app?vid=5ad0eedc-f318-43e8-90fc-aa9ab75328a2"},"vehicle_type_id":"4","last_reported":1778692020,"current_range_meters":2800,"station_id":"ce4bgvp2rcd13ifvqct0","pricing_plan_id":"cebpf4jnsgd1na2vs0mg"},{"bike_id":"94343661-868b-45f0-9f0f-4ed489017932","system_id":"levelo_inurba_marseille","lat":43.26225,"lon":5.38763,"is_reserved":false,"is_disabled":false,"rental_uris":{"android":"levelo://app?vid=94343661-868b-45f0-9f0f-4ed489017932","ios":"levelo://app?vid=94343661-868b-45f0-9f0f-4ed489017932"},"vehicle_type_id":"4","last_reported":1778692020,"current_range_meters":2800,"station_id":"","pricing_plan_id":"cebpf4jnsgd1na2vs0mg"},{"bike_id":"109645b8-698d-45b6-8a16-159e92ab9770","system_id":"levelo_inurba_marseille","lat":43.27913,"lon":5.39582,"is_reserved":false,"is_disabled":false,"rental_uris":{"android":"levelo://app?vid=109645b8-698d-45b6-8a16-159e92ab9770","ios":"levelo://app?vid=109645b8-698d-45b6-8a16-159e92ab9770"},"vehicle_type_id":"4","last_reported":1778692020,"current_range_meters":2800,"station_id":"ce4bhf92rcd13ifvqf40","pricing_plan_id":"cebpf4jnsgd1na2vs0mg"},{"bike_id":"c60f990f-a4e0-4c11-b2f1-131cd2a240f5","system_id":"levelo_inurba_marseille","lat":43.2749,"lon":5.41577,"is_reserved":false,"is_disabled":true,"rental_uris":{"android":"levelo://app?vid=c60f990f-a4e0-4c11-b2f1-131cd2a240f5","ios":"levelo://app?vid=c60f990f-a4e0-4c11-b2f1-131cd2a240f5"},"vehicle_type_id":"4","last_reported":1778692020,"current_range_meters":2800,"station_id":"st_d6im8g6chgec73a5pndg","pricing_plan_id":"cebpf4jnsgd1na2vs0mg"},{"bike_id":"df5874c8-3b40-41ee-bdab-5981f1b819d6","system_id":"levelo_inurba_marseille","lat":43.24774,"lon":5.40675,"is_reserved":false,"is_disabled":false,"rental_uris":{"android":"levelo://app?vid=df5874c8-3b40-41ee-bdab-5981f1b819d6","ios":"levelo://app?vid=df5874c8-3b40-41ee-bdab-5981f1b819d6"},"vehicle_type_id":"4","last_reported":1778692020,"current_range_meters":2800,"station_id":"","pricing_plan_id":"cebpf4jnsgd1na2vs0mg"},{"bike_id":"8d2a74ad-8eab-4ed8-a3cc-c7b45b866f6e","system_id":"levelo_inurba_marseille","lat":43.28671,"lon":5.36345,"is_reserved":false,"is_disabled":false,"rental_uris":{"android":"levelo://app?vid=8d2a74ad-8eab-4ed8-a3cc-c7b45b866f6e","ios":"levelo://app?vid=8d2a74ad-8eab-4ed8-a3cc-c7b45b866f6e"},"vehicle_type_id":"4","last_reported":1778692020,"current_range_meters":2800,"station_id":"ce4bhah2rcd13ifvqej0","pricing_plan_id":"cebpf4jnsgd1na2vs0mg"},{"bike_id":"a2cbe65c-1c7e-405e-ba2b-030323272f4d","system_id":"levelo_inurba_marseille","lat":43.28566,"lon":5.39496,"is_reserved":false,"is_disabled":false,"rental_uris":{"android":"levelo://app?vid=a2cbe65c-1c7e-405e-ba2b-030323272f4d","ios":"levelo://app?vid=a2cbe65c-1c7e-405e-ba2b-030323272f4d"},"vehicle_type_id":"4","last_reported":1778692020,"current_range_meters":2800,"station_id":"ce4bh292rcd13ifvqdg0","pricing_plan_id":"cebpf4jnsgd1na2vs0mg"},{"bike_id":"af9c4a38-2243-433c-8b25-7f4502d7706e","system_id":"levelo_inurba_marseille","lat":43.30735,"lon":5.42431,"is_reserved":false,"is_disabled":false,"rental_uris":{"android":"levelo://app?vid=af9c4a38-2243-433c-8b25-7f4502d7706e","ios":"levelo://app?vid=af9c4a38-2243-433c-8b25-7f4502d7706e"},"vehicle_type_id":"4","last_reported":1778692020,"current_range_meters":3200,"station_id":"st_cvj6ca6bvosntc0bfgr0","pricing_plan_id":"cebpf4jnsgd1na2vs0mg"},{"bike_id":"d7b3200b-4689-4a6c-84ed-fc7951f3610a","system_id":"levelo_inurba_marseille","lat":43.295203,"lon":5.390492,"is_reserved":false,"is_disabled":false,"rental_uris":{"android":"levelo://app?vid=d7b3200b-4689-4a6c-84ed-fc7951f3610a","ios":"levelo://app?vid=d7b3200b-4689-4a6c-84ed-fc7951f3610a"},"vehicle_type_id":"4","last_reported":1778692020,"current_range_meters":3200,"station_id":"ce4bh3p2rcd13ifvqdp0","pricing_plan_id":"cebpf4jnsgd1na2vs0mg"},{"bike_id":"b0f4ff54-eb17-4630-9d54-290306b462e6","system_id":"levelo_inurba_marseille","lat":43.27679,"lon":5.38886,"is_reserved":false,"is_disabled":false,"rental_uris":{"android":"levelo://app?vid=b0f4ff54-eb17-4630-9d54-290306b462e6","ios":"levelo://app?vid=b0f4ff54-eb17-4630-9d54-290306b462e6"},"vehicle_type_id":"4","last_reported":1778692020,"current_range_meters":3200,"station_id":"ce4bhi12rcd13ifvqfo0","pricing_plan_id":"cebpf4jnsgd1na2vs0mg"},{"bike_id":"2d976765-3a6a-41ee-af04-3852ec7c7f1a","system_id":"levelo_inurba_marseille","lat":43.282733,"lon":5.350593,"is_reserved":false,"is_disabled":false,"rental_uris":{"android":"levelo://app?vid=2d976765-3a6a-41ee-af04-3852ec7c7f1a","ios":"levelo://app?vid=2d976765-3a6a-41ee-af04-3852ec7c7f1a"},"vehicle_type_id":"4","last_reported":1778692020,"current_range_meters":3200,"station_id":"ce4bhbp2rcd13ifvqerg","pricing_plan_id":"cebpf4jnsgd1na2vs0mg"},{"bike_id":"ee5b88c7-75aa-434a-80a6-99367bd461e5","system_id":"levelo_inurba_marseille","lat":43.27368,"lon":5.36262,"is_reserved":false,"is_disabled":false,"rental_uris":{"android":"levelo://app?vid=ee5b88c7-75aa-434a-80a6-99367bd461e5","ios":"levelo://app?vid=ee5b88c7-75aa-434a-80a6-99367bd461e5"},"vehicle_type_id":"4","last_reported":1778692020,"current_range_meters":3200,"station_id":"ce4bhbh2rcd13ifvqeo0","pricing_plan_id":"cebpf4jnsgd1na2vs0mg"},{"bike_id":"dcd3f23f-80e3-4322-a024-19f8544463d9","system_id":"levelo_inurba_marseille","lat":43.2587,"lon":5.39897,"is_reserved":false,"is_disabled":false,"rental_uris":{"android":"levelo://app?vid=dcd3f23f-80e3-4322-a024-19f8544463d9","ios":"levelo://app?vid=dcd3f23f-80e3-4322-a024-19f8544463d9"},"vehicle_type_id":"4","last_reported":1778692020,"current_range_meters":3200,"station_id":"ce4bhl92rcd13ifvqghg","pricing_plan_id":"cebpf4jnsgd1na2vs0mg"},{"bike_id":"eba75a83-d417-436f-bb1a-0b2a956c41ae","system_id":"levelo_inurba_marseille","lat":43.3283,"lon":5.42604,"is_reserved":false,"is_disabled":false,"rental_uris":{"android":"levelo://app?vid=eba75a83-d417-436f-bb1a-0b2a956c41ae","ios":"levelo://app?vid=eba75a83-d417-436f-bb1a-0b2a956c41ae"},"vehicle_type_id":"4","last_reported":1778692020,"current_range_meters":3200,"station_id":"","pricing_plan_id":"cebpf4jnsgd1na2vs0mg"},{"bike_id":"219e40ae-8620-456d-bebe-54a80e614030","system_id":"levelo_inurba_marseille","lat":43.3169,"lon":5.4048,"is_reserved":false,"is_disabled":false,"rental_uris":{"android":"levelo://app?vid=219e40ae-8620-456d-bebe-54a80e614030","ios":"levelo://app?vid=219e40ae-8620-456d-bebe-54a80e614030"},"vehicle_type_id":"4","last_reported":1778692020,"current_range_meters":3200,"station_id":"ce4bh012rcd13ifvqd00","pricing_plan_id":"cebpf4jnsgd1na2vs0mg"},{"bike_id":"0bccf6c2-5557-482a-91cb-2382f92b8be0","system_id":"levelo_inurba_marseille","lat":43.304324,"lon":5.389039,"is_reserved":false,"is_disabled":false,"rental_uris":{"android":"levelo://app?vid=0bccf6c2-5557-482a-91cb-2382f92b8be0","ios":"levelo://app?vid=0bccf6c2-5557-482a-91cb-2382f92b8be0"},"vehicle_type_id":"4","last_reported":1778692020,"current_range_meters":3200,"station_id":"ce4bgk12rcd13ifvqbi0","pricing_plan_id":"cebpf4jnsgd1na2vs0mg"},{"bike_id":"82ff63f0-d348-434e-ab24-ee17a6fc3848","system_id":"levelo_inurba_marseille","lat":43.295288,"lon":5.385497,"is_reserved":false,"is_disabled":false,"rental_uris":{"android":"levelo://app?vid=82ff63f0-d348-434e-ab24-ee17a6fc3848","ios":"levelo://app?vid=82ff63f0-d348-434e-ab24-ee17a6fc3848"},"vehicle_type_id":"4","last_reported":1778692020,"current_range_meters":3200,"station_id":"ce4bgih2rcd13ifvqba0","pricing_plan_id":"cebpf4jnsgd1na2vs0mg"},{"bike_id":"e0359bf0-84b3-4fec-b949-b7bb380063e8","system_id":"levelo_inurba_marseille","lat":43.30109,"lon":5.39064,"is_reserved":false,"is_disabled":false,"rental_uris":{"android":"levelo://app?vid=e0359bf0-84b3-4fec-b949-b7bb380063e8","ios":"levelo://app?vid=e0359bf0-84b3-4fec-b949-b7bb380063e8"},"vehicle_type_id":"4","last_reported":1778692020,"current_range_meters":3200,"station_id":"ce4bh192rcd13ifvqdb0","pricing_plan_id":"cebpf4jnsgd1na2vs0mg"},{"bike_id":"cfcadd03-2fdd-4a09-8570-41edd1270fef","system_id":"levelo_inurba_marseille","lat":43.30953,"lon":5.39038,"is_reserved":false,"is_disabled":false,"rental_uris":{"android":"levelo://app?vid=cfcadd03-2fdd-4a09-8570-41edd1270fef","ios":"levelo://app?vid=cfcadd03-2fdd-4a09-8570-41edd1270fef"},"vehicle_type_id":"4","last_reported":1778692020,"current_range_meters":3600,"station_id":"ce4bgup2rcd13ifvqco0","pricing_plan_id":"cebpf4jnsgd1na2vs0mg"},{"bike_id":"d86c4c29-5ee2-4713-9f2e-032c3902dc08","system_id":"levelo_inurba_marseille","lat":43.29762,"lon":5.37949,"is_reserved":false,"is_disabled":false,"rental_uris":{"android":"levelo://app?vid=d86c4c29-5ee2-4713-9f2e-032c3902dc08","ios":"levelo://app?vid=d86c4c29-5ee2-4713-9f2e-032c3902dc08"},"vehicle_type_id":"4","last_reported":1778692020,"current_range_meters":3600,"station_id":"","pricing_plan_id":"cebpf4jnsgd1na2vs0mg"},{"bike_id":"f616a4ab-db61-4e46-b152-6ffccaf416de","system_id":"levelo_inurba_marseille","lat":43.28416,"lon":5.37516,"is_reserved":false,"is_disabled":false,"rental_uris":{"android":"levelo://app?vid=f616a4ab-db61-4e46-b152-6ffccaf416de","ios":"levelo://app?vid=f616a4ab-db61-4e46-b152-6ffccaf416de"},"vehicle_type_id":"4","last_reported":1778692020,"current_range_meters":3600,"station_id":"ce4bh412rcd13ifvqds0","pricing_plan_id":"cebpf4jnsgd1na2vs0mg"},{"bike_id":"e22c40dd-fc1c-48cd-a85f-34ec2ea8c935","system_id":"levelo_inurba_marseille","lat":43.30302,"lon":5.3691,"is_reserved":false,"is_disabled":false,"rental_uris":{"android":"levelo://app?vid=e22c40dd-fc1c-48cd-a85f-34ec2ea8c935","ios":"levelo://app?vid=e22c40dd-fc1c-48cd-a85f-34ec2ea8c935"},"vehicle_type_id":"4","last_reported":1778692020,"current_range_meters":3600,"station_id":"ce4bgqh2rcd13ifvqc5g","pricing_plan_id":"cebpf4jnsgd1na2vs0mg"},{"bike_id":"0e7035f8-7bde-4eeb-93b1-1d1942eaf681","system_id":"levelo_inurba_marseille","lat":43.29526,"lon":5.38542,"is_reserved":false,"is_disabled":false,"rental_uris":{"android":"levelo://app?vid=0e7035f8-7bde-4eeb-93b1-1d1942eaf681","ios":"levelo://app?vid=0e7035f8-7bde-4eeb-93b1-1d1942eaf681"},"vehicle_type_id":"4","last_reported":1778692020,"current_range_meters":3600,"station_id":"ce4bgih2rcd13ifvqba0","pricing_plan_id":"cebpf4jnsgd1na2vs0mg"},{"bike_id":"0256c1de-dee6-48bf-9608-cdc92de5d4b5","system_id":"levelo_inurba_marseille","lat":43.29787,"lon":5.38111,"is_reserved":false,"is_disabled":false,"rental_uris":{"android":"levelo://app?vid=0256c1de-dee6-48bf-9608-cdc92de5d4b5","ios":"levelo://app?vid=0256c1de-dee6-48bf-9608-cdc92de5d4b5"},"vehicle_type_id":"4","last_reported":1778692020,"current_range_meters":3600,"station_id":"ce4bgip2rcd13ifvqbb0","pricing_plan_id":"cebpf4jnsgd1na2vs0mg"},{"bike_id":"ace4576a-b4d0-4c16-b598-0c3cbb8147bb","system_id":"levelo_inurba_marseille","lat":43.24166,"lon":5.39727,"is_reserved":false,"is_disabled":false,"rental_uris":{"android":"levelo://app?vid=ace4576a-b4d0-4c16-b598-0c3cbb8147bb","ios":"levelo://app?vid=ace4576a-b4d0-4c16-b598-0c3cbb8147bb"},"vehicle_type_id":"4","last_reported":1778692020,"current_range_meters":3600,"station_id":"ce4bhn12rcd13ifvqgpg","pricing_plan_id":"cebpf4jnsgd1na2vs0mg"},{"bike_id":"9d089406-4f97-46f9-8bc4-16305ebf2766","system_id":"levelo_inurba_marseille","lat":43.25516,"lon":5.37651,"is_reserved":false,"is_disabled":false,"rental_uris":{"android":"levelo://app?vid=9d089406-4f97-46f9-8bc4-16305ebf2766","ios":"levelo://app?vid=9d089406-4f97-46f9-8bc4-16305ebf2766"},"vehicle_type_id":"4","last_reported":1778692020,"current_range_meters":3600,"station_id":"ce4bhh12rcd13ifvqff0","pricing_plan_id":"cebpf4jnsgd1na2vs0mg"},{"bike_id":"047b1edb-38f7-4ce3-8c99-b41ced83b0bf","system_id":"levelo_inurba_marseille","lat":43.26212,"lon":5.37449,"is_reserved":false,"is_disabled":true,"rental_uris":{"android":"levelo://app?vid=047b1edb-38f7-4ce3-8c99-b41ced83b0bf","ios":"levelo://app?vid=047b1edb-38f7-4ce3-8c99-b41ced83b0bf"},"vehicle_type_id":"4","last_reported":1778692020,"current_range_meters":3600,"station_id":"ce4bhgp2rcd13ifvqfc0","pricing_plan_id":"cebpf4jnsgd1na2vs0mg"},{"bike_id":"3ccd6ec3-3446-456f-b60e-dad4d68bf856","system_id":"levelo_inurba_marseille","lat":43.23173,"lon":5.39986,"is_reserved":false,"is_disabled":false,"rental_uris":{"android":"levelo://app?vid=3ccd6ec3-3446-456f-b60e-dad4d68bf856","ios":"levelo://app?vid=3ccd6ec3-3446-456f-b60e-dad4d68bf856"},"vehicle_type_id":"4","last_reported":1778692020,"current_range_meters":3600,"station_id":"ce4bhn12rcd13ifvqgqg","pricing_plan_id":"cebpf4jnsgd1na2vs0mg"},{"bike_id":"4bbcb336-82c5-46eb-a6a9-6fe6aad30092","system_id":"levelo_inurba_marseille","lat":43.2981,"lon":5.38107,"is_reserved":false,"is_disabled":false,"rental_uris":{"android":"levelo://app?vid=4bbcb336-82c5-46eb-a6a9-6fe6aad30092","ios":"levelo://app?vid=4bbcb336-82c5-46eb-a6a9-6fe6aad30092"},"vehicle_type_id":"4","last_reported":1778692020,"current_range_meters":3600,"station_id":"ce4bgip2rcd13ifvqbb0","pricing_plan_id":"cebpf4jnsgd1na2vs0mg"},{"bike_id":"4b44dfb5-a512-4d7f-a597-30a32a961c14","system_id":"levelo_inurba_marseille","lat":43.29968,"lon":5.38523,"is_reserved":false,"is_disabled":false,"rental_uris":{"android":"levelo://app?vid=4b44dfb5-a512-4d7f-a597-30a32a961c14","ios":"levelo://app?vid=4b44dfb5-a512-4d7f-a597-30a32a961c14"},"vehicle_type_id":"4","last_reported":1778692020,"current_range_meters":3600,"station_id":"ce4bgj92rcd13ifvqbd0","pricing_plan_id":"cebpf4jnsgd1na2vs0mg"},{"bike_id":"8b3763ab-cfd8-4141-b63a-08bd12cf1189","system_id":"levelo_inurba_marseille","lat":43.2437,"lon":5.38394,"is_reserved":false,"is_disabled":false,"rental_uris":{"android":"levelo://app?vid=8b3763ab-cfd8-4141-b63a-08bd12cf1189","ios":"levelo://app?vid=8b3763ab-cfd8-4141-b63a-08bd12cf1189"},"vehicle_type_id":"4","last_reported":1778692020,"current_range_meters":4000,"station_id":"","pricing_plan_id":"cebpf4jnsgd1na2vs0mg"},{"bike_id":"d42eff96-2a63-4bb7-854f-d06471913ef6","system_id":"levelo_inurba_marseille","lat":43.31745,"lon":5.37817,"is_reserved":false,"is_disabled":true,"rental_uris":{"android":"levelo://app?vid=d42eff96-2a63-4bb7-854f-d06471913ef6","ios":"levelo://app?vid=d42eff96-2a63-4bb7-854f-d06471913ef6"},"vehicle_type_id":"4","last_reported":1778692020,"current_range_meters":4000,"station_id":"ce4bgth2rcd13ifvqch0","pricing_plan_id":"cebpf4jnsgd1na2vs0mg"},{"bike_id":"2a8b24e9-9caf-4306-b9f8-0461eeb21443","system_id":"levelo_inurba_marseille","lat":43.3134,"lon":5.37918,"is_reserved":false,"is_disabled":false,"rental_uris":{"android":"levelo://app?vid=2a8b24e9-9caf-4306-b9f8-0461eeb21443","ios":"levelo://app?vid=2a8b24e9-9caf-4306-b9f8-0461eeb21443"},"vehicle_type_id":"4","last_reported":1778692020,"current_range_meters":4000,"station_id":"","pricing_plan_id":"cebpf4jnsgd1na2vs0mg"},{"bike_id":"dd30dafa-ab4c-4185-b2c3-6f6ba4f3e360","system_id":"levelo_inurba_marseille","lat":43.25557,"lon":5.38244,"is_reserved":false,"is_disabled":true,"rental_uris":{"android":"levelo://app?vid=dd30dafa-ab4c-4185-b2c3-6f6ba4f3e360","ios":"levelo://app?vid=dd30dafa-ab4c-4185-b2c3-6f6ba4f3e360"},"vehicle_type_id":"4","last_reported":1778692020,"current_range_meters":4000,"station_id":"ce4bhih2rcd13ifvqfs0","pricing_plan_id":"cebpf4jnsgd1na2vs0mg"},{"bike_id":"3fb8d288-0df5-4c43-9ef3-f6d62aadf1fb","system_id":"levelo_inurba_marseille","lat":43.30077,"lon":5.38707,"is_reserved":false,"is_disabled":false,"rental_uris":{"android":"levelo://app?vid=3fb8d288-0df5-4c43-9ef3-f6d62aadf1fb","ios":"levelo://app?vid=3fb8d288-0df5-4c43-9ef3-f6d62aadf1fb"},"vehicle_type_id":"4","last_reported":1778692020,"current_range_meters":4000,"station_id":"","pricing_plan_id":"cebpf4jnsgd1na2vs0mg"},{"bike_id":"b08622a3-72db-4a2e-bcf0-dfe85e04359c","system_id":"levelo_inurba_marseille","lat":43.28661,"lon":5.36257,"is_reserved":false,"is_disabled":false,"rental_uris":{"android":"levelo://app?vid=b08622a3-72db-4a2e-bcf0-dfe85e04359c","ios":"levelo://app?vid=b08622a3-72db-4a2e-bcf0-dfe85e04359c"},"vehicle_type_id":"4","last_reported":1778692020,"current_range_meters":4000,"station_id":"","pricing_plan_id":"cebpf4jnsgd1na2vs0mg"},{"bike_id":"ddf74fd6-7d32-4dec-a23c-9ada93014687","system_id":"levelo_inurba_marseille","lat":43.31112,"lon":5.37749,"is_reserved":false,"is_disabled":false,"rental_uris":{"android":"levelo://app?vid=ddf74fd6-7d32-4dec-a23c-9ada93014687","ios":"levelo://app?vid=ddf74fd6-7d32-4dec-a23c-9ada93014687"},"vehicle_type_id":"4","last_reported":1778692020,"current_range_meters":4000,"station_id":"ce4bgt92rcd13ifvqcg0","pricing_plan_id":"cebpf4jnsgd1na2vs0mg"},{"bike_id":"47ccc023-7d25-4fa7-ba24-f7751f9ff7bc","system_id":"levelo_inurba_marseille","lat":43.28412,"lon":5.37499,"is_reserved":false,"is_disabled":false,"rental_uris":{"android":"levelo://app?vid=47ccc023-7d25-4fa7-ba24-f7751f9ff7bc","ios":"levelo://app?vid=47ccc023-7d25-4fa7-ba24-f7751f9ff7bc"},"vehicle_type_id":"4","last_reported":1778692020,"current_range_meters":4000,"station_id":"ce4bh412rcd13ifvqds0","pricing_plan_id":"cebpf4jnsgd1na2vs0mg"},{"bike_id":"41b33df6-f8a6-4ba9-ad62-3fbe53b86521","system_id":"levelo_inurba_marseille","lat":43.30914,"lon":5.41628,"is_reserved":false,"is_disabled":false,"rental_uris":{"android":"levelo://app?vid=41b33df6-f8a6-4ba9-ad62-3fbe53b86521","ios":"levelo://app?vid=41b33df6-f8a6-4ba9-ad62-3fbe53b86521"},"vehicle_type_id":"4","last_reported":1778692020,"current_range_meters":4000,"station_id":"","pricing_plan_id":"cebpf4jnsgd1na2vs0mg"},{"bike_id":"0a97cf36-63eb-4b3f-b9cd-620772e0b1b3","system_id":"levelo_inurba_marseille","lat":43.316597,"lon":5.37833,"is_reserved":false,"is_disabled":false,"rental_uris":{"android":"levelo://app?vid=0a97cf36-63eb-4b3f-b9cd-620772e0b1b3","ios":"levelo://app?vid=0a97cf36-63eb-4b3f-b9cd-620772e0b1b3"},"vehicle_type_id":"4","last_reported":1778692020,"current_range_meters":4000,"station_id":"ce4bgth2rcd13ifvqch0","pricing_plan_id":"cebpf4jnsgd1na2vs0mg"},{"bike_id":"7c751807-3e59-4785-b070-f68419d4328d","system_id":"levelo_inurba_marseille","lat":43.2575,"lon":5.411,"is_reserved":false,"is_disabled":false,"rental_uris":{"android":"levelo://app?vid=7c751807-3e59-4785-b070-f68419d4328d","ios":"levelo://app?vid=7c751807-3e59-4785-b070-f68419d4328d"},"vehicle_type_id":"4","last_reported":1778692020,"current_range_meters":4000,"station_id":"ce4bhkp2rcd13ifvqgd0","pricing_plan_id":"cebpf4jnsgd1na2vs0mg"},{"bike_id":"d8f71289-0fe3-4458-be9e-072aca48ebc0","system_id":"levelo_inurba_marseille","lat":43.29878,"lon":5.389,"is_reserved":false,"is_disabled":false,"rental_uris":{"android":"levelo://app?vid=d8f71289-0fe3-4458-be9e-072aca48ebc0","ios":"levelo://app?vid=d8f71289-0fe3-4458-be9e-072aca48ebc0"},"vehicle_type_id":"4","last_reported":1778692020,"current_range_meters":4000,"station_id":"ce4bh392rcd13ifvqdl0","pricing_plan_id":"cebpf4jnsgd1na2vs0mg"},{"bike_id":"e896907d-6dc0-4812-be51-eb66c7a8df30","system_id":"levelo_inurba_marseille","lat":43.29511,"lon":5.38549,"is_reserved":false,"is_disabled":false,"rental_uris":{"android":"levelo://app?vid=e896907d-6dc0-4812-be51-eb66c7a8df30","ios":"levelo://app?vid=e896907d-6dc0-4812-be51-eb66c7a8df30"},"vehicle_type_id":"4","last_reported":1778692020,"current_range_meters":4400,"station_id":"ce4bgih2rcd13ifvqba0","pricing_plan_id":"cebpf4jnsgd1na2vs0mg"},{"bike_id":"c741c360-02b1-4b87-8c8b-62cd584f38dd","system_id":"levelo_inurba_marseille","lat":43.29615,"lon":5.40613,"is_reserved":false,"is_disabled":false,"rental_uris":{"android":"levelo://app?vid=c741c360-02b1-4b87-8c8b-62cd584f38dd","ios":"levelo://app?vid=c741c360-02b1-4b87-8c8b-62cd584f38dd"},"vehicle_type_id":"4","last_reported":1778692020,"current_range_meters":4400,"station_id":"ce4bh0h2rcd13ifvqd60","pricing_plan_id":"cebpf4jnsgd1na2vs0mg"},{"bike_id":"0f4a975b-7889-43db-857b-2d6fb8450403","system_id":"levelo_inurba_marseille","lat":43.27377,"lon":5.36261,"is_reserved":false,"is_disabled":false,"rental_uris":{"android":"levelo://app?vid=0f4a975b-7889-43db-857b-2d6fb8450403","ios":"levelo://app?vid=0f4a975b-7889-43db-857b-2d6fb8450403"},"vehicle_type_id":"4","last_reported":1778692020,"current_range_meters":4400,"station_id":"ce4bhbh2rcd13ifvqeo0","pricing_plan_id":"cebpf4jnsgd1na2vs0mg"},{"bike_id":"7a53680f-beb7-41c1-b94c-c6b28309a1f2","system_id":"levelo_inurba_marseille","lat":43.3089,"lon":5.37193,"is_reserved":false,"is_disabled":false,"rental_uris":{"android":"levelo://app?vid=7a53680f-beb7-41c1-b94c-c6b28309a1f2","ios":"levelo://app?vid=7a53680f-beb7-41c1-b94c-c6b28309a1f2"},"vehicle_type_id":"4","last_reported":1778692020,"current_range_meters":4400,"station_id":"ce4bguh2rcd13ifvqckg","pricing_plan_id":"cebpf4jnsgd1na2vs0mg"},{"bike_id":"e4519eaa-7388-4758-91d4-b960a930af26","system_id":"levelo_inurba_marseille","lat":43.29038,"lon":5.35911,"is_reserved":false,"is_disabled":false,"rental_uris":{"android":"levelo://app?vid=e4519eaa-7388-4758-91d4-b960a930af26","ios":"levelo://app?vid=e4519eaa-7388-4758-91d4-b960a930af26"},"vehicle_type_id":"4","last_reported":1778692020,"current_range_meters":4400,"station_id":"ce4bha92rcd13ifvqeg0","pricing_plan_id":"cebpf4jnsgd1na2vs0mg"},{"bike_id":"3770492f-e753-44d8-9be7-5fea3ee25beb","system_id":"levelo_inurba_marseille","lat":43.29984,"lon":5.36744,"is_reserved":false,"is_disabled":false,"rental_uris":{"android":"levelo://app?vid=3770492f-e753-44d8-9be7-5fea3ee25beb","ios":"levelo://app?vid=3770492f-e753-44d8-9be7-5fea3ee25beb"},"vehicle_type_id":"4","last_reported":1778692020,"current_range_meters":4400,"station_id":"","pricing_plan_id":"cebpf4jnsgd1na2vs0mg"},{"bike_id":"7ea9e662-5760-4bec-8f45-f366950f126a","system_id":"levelo_inurba_marseille","lat":43.30591,"lon":5.39363,"is_reserved":false,"is_disabled":false,"rental_uris":{"android":"levelo://app?vid=7ea9e662-5760-4bec-8f45-f366950f126a","ios":"levelo://app?vid=7ea9e662-5760-4bec-8f45-f366950f126a"},"vehicle_type_id":"4","last_reported":1778692020,"current_range_meters":4400,"station_id":"ce4bh0p2rcd13ifvqd80","pricing_plan_id":"cebpf4jnsgd1na2vs0mg"},{"bike_id":"747056e7-2d2b-4845-9b96-546cdc0941ba","system_id":"levelo_inurba_marseille","lat":43.31359,"lon":5.385,"is_reserved":false,"is_disabled":false,"rental_uris":{"android":"levelo://app?vid=747056e7-2d2b-4845-9b96-546cdc0941ba","ios":"levelo://app?vid=747056e7-2d2b-4845-9b96-546cdc0941ba"},"vehicle_type_id":"4","last_reported":1778692020,"current_range_meters":4400,"station_id":"ce4bgt92rcd13ifvqcf0","pricing_plan_id":"cebpf4jnsgd1na2vs0mg"},{"bike_id":"9c0da445-3774-4be6-a63e-33371f1227a1","system_id":"levelo_inurba_marseille","lat":43.24546,"lon":5.39526,"is_reserved":false,"is_disabled":false,"rental_uris":{"android":"levelo://app?vid=9c0da445-3774-4be6-a63e-33371f1227a1","ios":"levelo://app?vid=9c0da445-3774-4be6-a63e-33371f1227a1"},"vehicle_type_id":"4","last_reported":1778692020,"current_range_meters":4400,"station_id":"ce4bhlp2rcd13ifvqgjg","pricing_plan_id":"cebpf4jnsgd1na2vs0mg"},{"bike_id":"a0203571-9868-484b-ac8b-eb7b89e3f1f0","system_id":"levelo_inurba_marseille","lat":43.28697,"lon":5.46694,"is_reserved":false,"is_disabled":false,"rental_uris":{"android":"levelo://app?vid=a0203571-9868-484b-ac8b-eb7b89e3f1f0","ios":"levelo://app?vid=a0203571-9868-484b-ac8b-eb7b89e3f1f0"},"vehicle_type_id":"4","last_reported":1778692020,"current_range_meters":4400,"station_id":"st_d6tc3vkotcvc738tfjhg","pricing_plan_id":"cebpf4jnsgd1na2vs0mg"},{"bike_id":"5dd68511-b4a3-4276-9fb9-d30a191306db","system_id":"levelo_inurba_marseille","lat":43.33761,"lon":5.37453,"is_reserved":false,"is_disabled":false,"rental_uris":{"android":"levelo://app?vid=5dd68511-b4a3-4276-9fb9-d30a191306db","ios":"levelo://app?vid=5dd68511-b4a3-4276-9fb9-d30a191306db"},"vehicle_type_id":"4","last_reported":1778692020,"current_range_meters":4800,"station_id":"","pricing_plan_id":"cebpf4jnsgd1na2vs0mg"},{"bike_id":"0fb1a10b-0da4-4d23-9d75-717a553b5b08","system_id":"levelo_inurba_marseille","lat":43.29264,"lon":5.38434,"is_reserved":false,"is_disabled":false,"rental_uris":{"android":"levelo://app?vid=0fb1a10b-0da4-4d23-9d75-717a553b5b08","ios":"levelo://app?vid=0fb1a10b-0da4-4d23-9d75-717a553b5b08"},"vehicle_type_id":"4","last_reported":1778692020,"current_range_meters":4800,"station_id":"ce4bh692rcd13ifvqea0","pricing_plan_id":"cebpf4jnsgd1na2vs0mg"},{"bike_id":"3549c190-ba25-4a06-b751-5b52c4ff2b2c","system_id":"levelo_inurba_marseille","lat":43.225323,"lon":5.348352,"is_reserved":false,"is_disabled":false,"rental_uris":{"android":"levelo://app?vid=3549c190-ba25-4a06-b751-5b52c4ff2b2c","ios":"levelo://app?vid=3549c190-ba25-4a06-b751-5b52c4ff2b2c"},"vehicle_type_id":"4","last_reported":1778692020,"current_range_meters":4800,"station_id":"st_cvj5dfep6f1abm77gieg","pricing_plan_id":"cebpf4jnsgd1na2vs0mg"},{"bike_id":"2f9bd9c0-fde0-466f-b831-9ebf84c61562","system_id":"levelo_inurba_marseille","lat":43.29706,"lon":5.36614,"is_reserved":false,"is_disabled":false,"rental_uris":{"android":"levelo://app?vid=2f9bd9c0-fde0-466f-b831-9ebf84c61562","ios":"levelo://app?vid=2f9bd9c0-fde0-466f-b831-9ebf84c61562"},"vehicle_type_id":"4","last_reported":1778692020,"current_range_meters":4800,"station_id":"ce4bgn12rcd13ifvqbt0","pricing_plan_id":"cebpf4jnsgd1na2vs0mg"},{"bike_id":"95cd5537-647a-4fdd-ae7e-abc2f3d9c3b3","system_id":"levelo_inurba_marseille","lat":43.24956,"lon":5.4048,"is_reserved":false,"is_disabled":false,"rental_uris":{"android":"levelo://app?vid=95cd5537-647a-4fdd-ae7e-abc2f3d9c3b3","ios":"levelo://app?vid=95cd5537-647a-4fdd-ae7e-abc2f3d9c3b3"},"vehicle_type_id":"4","last_reported":1778692020,"current_range_meters":4800,"station_id":"st_d2ngiaodas8pm72gd1h0","pricing_plan_id":"cebpf4jnsgd1na2vs0mg"},{"bike_id":"9d6101e5-2d01-4614-895a-7ef4bc17d5fd","system_id":"levelo_inurba_marseille","lat":43.25113,"lon":5.40319,"is_reserved":false,"is_disabled":false,"rental_uris":{"android":"levelo://app?vid=9d6101e5-2d01-4614-895a-7ef4bc17d5fd","ios":"levelo://app?vid=9d6101e5-2d01-4614-895a-7ef4bc17d5fd"},"vehicle_type_id":"4","last_reported":1778692020,"current_range_meters":4800,"station_id":"ce4bhlh2rcd13ifvqgig","pricing_plan_id":"cebpf4jnsgd1na2vs0mg"},{"bike_id":"f4b8ee2b-082a-4dd4-97bb-f9a95f78cc7a","system_id":"levelo_inurba_marseille","lat":43.3015,"lon":5.38079,"is_reserved":false,"is_disabled":false,"rental_uris":{"android":"levelo://app?vid=f4b8ee2b-082a-4dd4-97bb-f9a95f78cc7a","ios":"levelo://app?vid=f4b8ee2b-082a-4dd4-97bb-f9a95f78cc7a"},"vehicle_type_id":"4","last_reported":1778692020,"current_range_meters":4800,"station_id":"ce4bgjp2rcd13ifvqbh0","pricing_plan_id":"cebpf4jnsgd1na2vs0mg"},{"bike_id":"43a06db5-04b5-4a22-9e6f-f46b3fa2bbc7","system_id":"levelo_inurba_marseille","lat":43.32094,"lon":5.36818,"is_reserved":false,"is_disabled":false,"rental_uris":{"android":"levelo://app?vid=43a06db5-04b5-4a22-9e6f-f46b3fa2bbc7","ios":"levelo://app?vid=43a06db5-04b5-4a22-9e6f-f46b3fa2bbc7"},"vehicle_type_id":"4","last_reported":1778692020,"current_range_meters":4800,"station_id":"ce4bhrh2rcd13ifvqhug","pricing_plan_id":"cebpf4jnsgd1na2vs0mg"},{"bike_id":"1f5556bc-4bf7-481f-9874-e3e1df7edc42","system_id":"levelo_inurba_marseille","lat":43.28534,"lon":5.44089,"is_reserved":false,"is_disabled":true,"rental_uris":{"android":"levelo://app?vid=1f5556bc-4bf7-481f-9874-e3e1df7edc42","ios":"levelo://app?vid=1f5556bc-4bf7-481f-9874-e3e1df7edc42"},"vehicle_type_id":"4","last_reported":1778692020,"current_range_meters":4800,"station_id":"st_d3j3df2ikq2c7380ej80","pricing_plan_id":"cebpf4jnsgd1na2vs0mg"},{"bike_id":"b8c52f40-c88b-41d6-98f6-76196ddf5d74","system_id":"levelo_inurba_marseille","lat":43.29119,"lon":5.38053,"is_reserved":false,"is_disabled":false,"rental_uris":{"android":"levelo://app?vid=b8c52f40-c88b-41d6-98f6-76196ddf5d74","ios":"levelo://app?vid=b8c52f40-c88b-41d6-98f6-76196ddf5d74"},"vehicle_type_id":"4","last_reported":1778692020,"current_range_meters":4800,"station_id":"","pricing_plan_id":"cebpf4jnsgd1na2vs0mg"},{"bike_id":"264e74c9-f02a-4b21-a016-19934ac47360","system_id":"levelo_inurba_marseille","lat":43.28432,"lon":5.37507,"is_reserved":false,"is_disabled":false,"rental_uris":{"android":"levelo://app?vid=264e74c9-f02a-4b21-a016-19934ac47360","ios":"levelo://app?vid=264e74c9-f02a-4b21-a016-19934ac47360"},"vehicle_type_id":"4","last_reported":1778692020,"current_range_meters":4800,"station_id":"ce4bh412rcd13ifvqds0","pricing_plan_id":"cebpf4jnsgd1na2vs0mg"},{"bike_id":"7bdc3b7b-b80d-43ec-9602-857d5c4d9a12","system_id":"levelo_inurba_marseille","lat":43.283476,"lon":5.381034,"is_reserved":false,"is_disabled":false,"rental_uris":{"android":"levelo://app?vid=7bdc3b7b-b80d-43ec-9602-857d5c4d9a12","ios":"levelo://app?vid=7bdc3b7b-b80d-43ec-9602-857d5c4d9a12"},"vehicle_type_id":"4","last_reported":1778692020,"current_range_meters":4800,"station_id":"ce4bh412rcd13ifvqdr0","pricing_plan_id":"cebpf4jnsgd1na2vs0mg"},{"bike_id":"630f590b-0a9f-466b-9ca4-6c71573fb46f","system_id":"levelo_inurba_marseille","lat":43.29169,"lon":5.3609,"is_reserved":false,"is_disabled":false,"rental_uris":{"android":"levelo://app?vid=630f590b-0a9f-466b-9ca4-6c71573fb46f","ios":"levelo://app?vid=630f590b-0a9f-466b-9ca4-6c71573fb46f"},"vehicle_type_id":"4","last_reported":1778692020,"current_range_meters":4800,"station_id":"","pricing_plan_id":"cebpf4jnsgd1na2vs0mg"},{"bike_id":"8e012732-d687-40e6-979a-b5776aae3c15","system_id":"levelo_inurba_marseille","lat":43.32115,"lon":5.36777,"is_reserved":false,"is_disabled":false,"rental_uris":{"android":"levelo://app?vid=8e012732-d687-40e6-979a-b5776aae3c15","ios":"levelo://app?vid=8e012732-d687-40e6-979a-b5776aae3c15"},"vehicle_type_id":"4","last_reported":1778692020,"current_range_meters":5600,"station_id":"ce4bhrh2rcd13ifvqhug","pricing_plan_id":"cebpf4jnsgd1na2vs0mg"},{"bike_id":"0c0f7498-7242-48f2-9930-810b381a109f","system_id":"levelo_inurba_marseille","lat":43.30202,"lon":5.36905,"is_reserved":false,"is_disabled":false,"rental_uris":{"android":"levelo://app?vid=0c0f7498-7242-48f2-9930-810b381a109f","ios":"levelo://app?vid=0c0f7498-7242-48f2-9930-810b381a109f"},"vehicle_type_id":"4","last_reported":1778692020,"current_range_meters":5600,"station_id":"","pricing_plan_id":"cebpf4jnsgd1na2vs0mg"},{"bike_id":"64a46267-6b52-4a02-b6f6-f5c2f77a133d","system_id":"levelo_inurba_marseille","lat":43.28833,"lon":5.40062,"is_reserved":false,"is_disabled":true,"rental_uris":{"android":"levelo://app?vid=64a46267-6b52-4a02-b6f6-f5c2f77a133d","ios":"levelo://app?vid=64a46267-6b52-4a02-b6f6-f5c2f77a133d"},"vehicle_type_id":"4","last_reported":1778692020,"current_range_meters":5600,"station_id":"","pricing_plan_id":"cebpf4jnsgd1na2vs0mg"},{"bike_id":"eb43fb1f-e7d2-4a45-8b7a-d533d1474787","system_id":"levelo_inurba_marseille","lat":43.30149,"lon":5.38084,"is_reserved":false,"is_disabled":false,"rental_uris":{"android":"levelo://app?vid=eb43fb1f-e7d2-4a45-8b7a-d533d1474787","ios":"levelo://app?vid=eb43fb1f-e7d2-4a45-8b7a-d533d1474787"},"vehicle_type_id":"4","last_reported":1778692020,"current_range_meters":5600,"station_id":"ce4bgjp2rcd13ifvqbh0","pricing_plan_id":"cebpf4jnsgd1na2vs0mg"},{"bike_id":"a797fc47-8d72-4b8d-b357-4f90d7220463","system_id":"levelo_inurba_marseille","lat":43.26955,"lon":5.38642,"is_reserved":false,"is_disabled":false,"rental_uris":{"android":"levelo://app?vid=a797fc47-8d72-4b8d-b357-4f90d7220463","ios":"levelo://app?vid=a797fc47-8d72-4b8d-b357-4f90d7220463"},"vehicle_type_id":"4","last_reported":1778692020,"current_range_meters":5600,"station_id":"ce4bhh92rcd13ifvqfh0","pricing_plan_id":"cebpf4jnsgd1na2vs0mg"},{"bike_id":"6b348f5e-a179-416a-a4be-34da1f15ed49","system_id":"levelo_inurba_marseille","lat":43.2893,"lon":5.396344,"is_reserved":false,"is_disabled":false,"rental_uris":{"android":"levelo://app?vid=6b348f5e-a179-416a-a4be-34da1f15ed49","ios":"levelo://app?vid=6b348f5e-a179-416a-a4be-34da1f15ed49"},"vehicle_type_id":"4","last_reported":1778692020,"current_range_meters":5600,"station_id":"ce4bh392rcd13ifvqdm0","pricing_plan_id":"cebpf4jnsgd1na2vs0mg"},{"bike_id":"cac6a18a-a3e6-4cc4-b0ec-4f4cd3b818a6","system_id":"levelo_inurba_marseille","lat":43.31701,"lon":5.40471,"is_reserved":false,"is_disabled":false,"rental_uris":{"android":"levelo://app?vid=cac6a18a-a3e6-4cc4-b0ec-4f4cd3b818a6","ios":"levelo://app?vid=cac6a18a-a3e6-4cc4-b0ec-4f4cd3b818a6"},"vehicle_type_id":"4","last_reported":1778692020,"current_range_meters":5600,"station_id":"ce4bh012rcd13ifvqd00","pricing_plan_id":"cebpf4jnsgd1na2vs0mg"},{"bike_id":"9228e291-1a35-47d8-8357-d23b037ea477","system_id":"levelo_inurba_marseille","lat":43.27323,"lon":5.39099,"is_reserved":false,"is_disabled":false,"rental_uris":{"android":"levelo://app?vid=9228e291-1a35-47d8-8357-d23b037ea477","ios":"levelo://app?vid=9228e291-1a35-47d8-8357-d23b037ea477"},"vehicle_type_id":"4","last_reported":1778692020,"current_range_meters":5600,"station_id":"ce4bhgp2rcd13ifvqfe0","pricing_plan_id":"cebpf4jnsgd1na2vs0mg"},{"bike_id":"f3acf221-ac54-4ed5-b1ec-a3daba4e5770","system_id":"levelo_inurba_marseille","lat":43.288594,"lon":5.425146,"is_reserved":false,"is_disabled":true,"rental_uris":{"android":"levelo://app?vid=f3acf221-ac54-4ed5-b1ec-a3daba4e5770","ios":"levelo://app?vid=f3acf221-ac54-4ed5-b1ec-a3daba4e5770"},"vehicle_type_id":"4","last_reported":1778692020,"current_range_meters":5600,"station_id":"","pricing_plan_id":"cebpf4jnsgd1na2vs0mg"},{"bike_id":"461990b0-c5dd-4ea4-b953-5eb562c00d69","system_id":"levelo_inurba_marseille","lat":43.26218,"lon":5.37451,"is_reserved":false,"is_disabled":false,"rental_uris":{"android":"levelo://app?vid=461990b0-c5dd-4ea4-b953-5eb562c00d69","ios":"levelo://app?vid=461990b0-c5dd-4ea4-b953-5eb562c00d69"},"vehicle_type_id":"4","last_reported":1778692020,"current_range_meters":5600,"station_id":"ce4bhgp2rcd13ifvqfc0","pricing_plan_id":"cebpf4jnsgd1na2vs0mg"},{"bike_id":"1c4431e8-bc4f-407b-8237-44d3b24b8af7","system_id":"levelo_inurba_marseille","lat":43.29002,"lon":5.35615,"is_reserved":false,"is_disabled":false,"rental_uris":{"android":"levelo://app?vid=1c4431e8-bc4f-407b-8237-44d3b24b8af7","ios":"levelo://app?vid=1c4431e8-bc4f-407b-8237-44d3b24b8af7"},"vehicle_type_id":"4","last_reported":1778692020,"current_range_meters":5600,"station_id":"ce4bhb92rcd13ifvqen0","pricing_plan_id":"cebpf4jnsgd1na2vs0mg"},{"bike_id":"113138a6-8ed0-4535-8fd3-1f8478eb429a","system_id":"levelo_inurba_marseille","lat":43.29022,"lon":5.3865,"is_reserved":false,"is_disabled":false,"rental_uris":{"android":"levelo://app?vid=113138a6-8ed0-4535-8fd3-1f8478eb429a","ios":"levelo://app?vid=113138a6-8ed0-4535-8fd3-1f8478eb429a"},"vehicle_type_id":"4","last_reported":1778692020,"current_range_meters":5600,"station_id":"ce4bh4p2rcd13ifvqe0g","pricing_plan_id":"cebpf4jnsgd1na2vs0mg"},{"bike_id":"da4a429d-bfc6-48ce-9c3d-5d8ca4b6484f","system_id":"levelo_inurba_marseille","lat":43.29528,"lon":5.38546,"is_reserved":false,"is_disabled":false,"rental_uris":{"android":"levelo://app?vid=da4a429d-bfc6-48ce-9c3d-5d8ca4b6484f","ios":"levelo://app?vid=da4a429d-bfc6-48ce-9c3d-5d8ca4b6484f"},"vehicle_type_id":"4","last_reported":1778692020,"current_range_meters":5600,"station_id":"ce4bgih2rcd13ifvqba0","pricing_plan_id":"cebpf4jnsgd1na2vs0mg"},{"bike_id":"fdcdbd3b-3ba0-4321-b79d-c59dd15550f6","system_id":"levelo_inurba_marseille","lat":43.28214,"lon":5.39057,"is_reserved":false,"is_disabled":false,"rental_uris":{"android":"levelo://app?vid=fdcdbd3b-3ba0-4321-b79d-c59dd15550f6","ios":"levelo://app?vid=fdcdbd3b-3ba0-4321-b79d-c59dd15550f6"},"vehicle_type_id":"4","last_reported":1778692020,"current_range_meters":5600,"station_id":"ce4bhn92rcd13ifvqgsg","pricing_plan_id":"cebpf4jnsgd1na2vs0mg"},{"bike_id":"af2fe825-5a3c-4a3c-b6a5-74aa3ecaecd0","system_id":"levelo_inurba_marseille","lat":43.29016,"lon":5.35622,"is_reserved":false,"is_disabled":false,"rental_uris":{"android":"levelo://app?vid=af2fe825-5a3c-4a3c-b6a5-74aa3ecaecd0","ios":"levelo://app?vid=af2fe825-5a3c-4a3c-b6a5-74aa3ecaecd0"},"vehicle_type_id":"4","last_reported":1778692020,"current_range_meters":5600,"station_id":"ce4bhb92rcd13ifvqen0","pricing_plan_id":"cebpf4jnsgd1na2vs0mg"},{"bike_id":"1e4ce23d-de1a-4688-8fe9-f47bf93c8a92","system_id":"levelo_inurba_marseille","lat":43.30218,"lon":5.39466,"is_reserved":false,"is_disabled":false,"rental_uris":{"android":"levelo://app?vid=1e4ce23d-de1a-4688-8fe9-f47bf93c8a92","ios":"levelo://app?vid=1e4ce23d-de1a-4688-8fe9-f47bf93c8a92"},"vehicle_type_id":"4","last_reported":1778692020,"current_range_meters":5600,"station_id":"ce4bh0p2rcd13ifvqd70","pricing_plan_id":"cebpf4jnsgd1na2vs0mg"},{"bike_id":"efbf2b68-9b8c-4089-83a7-63f313e30ef0","system_id":"levelo_inurba_marseille","lat":43.28625,"lon":5.35088,"is_reserved":false,"is_disabled":false,"rental_uris":{"android":"levelo://app?vid=efbf2b68-9b8c-4089-83a7-63f313e30ef0","ios":"levelo://app?vid=efbf2b68-9b8c-4089-83a7-63f313e30ef0"},"vehicle_type_id":"4","last_reported":1778692020,"current_range_meters":5600,"station_id":"ce4bhch2rcd13ifvqeug","pricing_plan_id":"cebpf4jnsgd1na2vs0mg"},{"bike_id":"6e70dae6-54d0-47a0-93ef-de0e8a081ba0","system_id":"levelo_inurba_marseille","lat":43.30153,"lon":5.37415,"is_reserved":false,"is_disabled":true,"rental_uris":{"android":"levelo://app?vid=6e70dae6-54d0-47a0-93ef-de0e8a081ba0","ios":"levelo://app?vid=6e70dae6-54d0-47a0-93ef-de0e8a081ba0"},"vehicle_type_id":"4","last_reported":1778692020,"current_range_meters":5600,"station_id":"ce4bgs92rcd13ifvqcc0","pricing_plan_id":"cebpf4jnsgd1na2vs0mg"},{"bike_id":"72d9b333-6340-445d-b4a3-2541590e555d","system_id":"levelo_inurba_marseille","lat":43.24665,"lon":5.38167,"is_reserved":false,"is_disabled":false,"rental_uris":{"android":"levelo://app?vid=72d9b333-6340-445d-b4a3-2541590e555d","ios":"levelo://app?vid=72d9b333-6340-445d-b4a3-2541590e555d"},"vehicle_type_id":"4","last_reported":1778692020,"current_range_meters":5600,"station_id":"ce4bhih2rcd13ifvqfr0","pricing_plan_id":"cebpf4jnsgd1na2vs0mg"},{"bike_id":"32580d85-4ae2-4c62-8c68-f748caaf1ad5","system_id":"levelo_inurba_marseille","lat":43.29714,"lon":5.37722,"is_reserved":false,"is_disabled":false,"rental_uris":{"android":"levelo://app?vid=32580d85-4ae2-4c62-8c68-f748caaf1ad5","ios":"levelo://app?vid=32580d85-4ae2-4c62-8c68-f748caaf1ad5"},"vehicle_type_id":"4","last_reported":1778692020,"current_range_meters":5600,"station_id":"ce4bgkh2rcd13ifvqbl0","pricing_plan_id":"cebpf4jnsgd1na2vs0mg"},{"bike_id":"0f37d688-46c0-4558-9b09-89bb1915d2b6","system_id":"levelo_inurba_marseille","lat":43.33539,"lon":5.37438,"is_reserved":false,"is_disabled":false,"rental_uris":{"android":"levelo://app?vid=0f37d688-46c0-4558-9b09-89bb1915d2b6","ios":"levelo://app?vid=0f37d688-46c0-4558-9b09-89bb1915d2b6"},"vehicle_type_id":"4","last_reported":1778692020,"current_range_meters":5600,"station_id":"st_d46tts09ee8s73dlu43g","pricing_plan_id":"cebpf4jnsgd1na2vs0mg"},{"bike_id":"e1b77a67-2e7a-462a-816e-d742d96fe03c","system_id":"levelo_inurba_marseille","lat":43.33553,"lon":5.37461,"is_reserved":false,"is_disabled":false,"rental_uris":{"android":"levelo://app?vid=e1b77a67-2e7a-462a-816e-d742d96fe03c","ios":"levelo://app?vid=e1b77a67-2e7a-462a-816e-d742d96fe03c"},"vehicle_type_id":"4","last_reported":1778692020,"current_range_meters":6000,"station_id":"st_d46tts09ee8s73dlu43g","pricing_plan_id":"cebpf4jnsgd1na2vs0mg"},{"bike_id":"4685b90e-2b73-4802-b777-c45c4167e5fa","system_id":"levelo_inurba_marseille","lat":43.3012,"lon":5.43118,"is_reserved":false,"is_disabled":false,"rental_uris":{"android":"levelo://app?vid=4685b90e-2b73-4802-b777-c45c4167e5fa","ios":"levelo://app?vid=4685b90e-2b73-4802-b777-c45c4167e5fa"},"vehicle_type_id":"4","last_reported":1778692020,"current_range_meters":6000,"station_id":"st_d3js3co5814s73ftftug","pricing_plan_id":"cebpf4jnsgd1na2vs0mg"},{"bike_id":"04457e6f-0405-4b98-9944-c702e39a01bd","system_id":"levelo_inurba_marseille","lat":43.3144,"lon":5.37392,"is_reserved":false,"is_disabled":false,"rental_uris":{"android":"levelo://app?vid=04457e6f-0405-4b98-9944-c702e39a01bd","ios":"levelo://app?vid=04457e6f-0405-4b98-9944-c702e39a01bd"},"vehicle_type_id":"4","last_reported":1778692020,"current_range_meters":6000,"station_id":"","pricing_plan_id":"cebpf4jnsgd1na2vs0mg"},{"bike_id":"ec09b295-1cb9-4669-abee-66d7b8d8eb2c","system_id":"levelo_inurba_marseille","lat":43.24801,"lon":5.37452,"is_reserved":false,"is_disabled":false,"rental_uris":{"android":"levelo://app?vid=ec09b295-1cb9-4669-abee-66d7b8d8eb2c","ios":"levelo://app?vid=ec09b295-1cb9-4669-abee-66d7b8d8eb2c"},"vehicle_type_id":"4","last_reported":1778692020,"current_range_meters":6000,"station_id":"ce4bhgh2rcd13ifvqfb0","pricing_plan_id":"cebpf4jnsgd1na2vs0mg"},{"bike_id":"87c81631-4451-4236-92c6-4b297de3f797","system_id":"levelo_inurba_marseille","lat":43.31371,"lon":5.38498,"is_reserved":false,"is_disabled":false,"rental_uris":{"android":"levelo://app?vid=87c81631-4451-4236-92c6-4b297de3f797","ios":"levelo://app?vid=87c81631-4451-4236-92c6-4b297de3f797"},"vehicle_type_id":"4","last_reported":1778692020,"current_range_meters":6000,"station_id":"ce4bgt92rcd13ifvqcf0","pricing_plan_id":"cebpf4jnsgd1na2vs0mg"},{"bike_id":"9d804935-1a0f-4fea-a0ed-aa039b2f220b","system_id":"levelo_inurba_marseille","lat":43.25092,"lon":5.39493,"is_reserved":false,"is_disabled":false,"rental_uris":{"android":"levelo://app?vid=9d804935-1a0f-4fea-a0ed-aa039b2f220b","ios":"levelo://app?vid=9d804935-1a0f-4fea-a0ed-aa039b2f220b"},"vehicle_type_id":"4","last_reported":1778692020,"current_range_meters":6000,"station_id":"ce4bhm12rcd13ifvqgkg","pricing_plan_id":"cebpf4jnsgd1na2vs0mg"},{"bike_id":"8b609039-a43e-4e09-a071-c3aa71fb22dc","system_id":"levelo_inurba_marseille","lat":43.29878,"lon":5.39724,"is_reserved":false,"is_disabled":false,"rental_uris":{"android":"levelo://app?vid=8b609039-a43e-4e09-a071-c3aa71fb22dc","ios":"levelo://app?vid=8b609039-a43e-4e09-a071-c3aa71fb22dc"},"vehicle_type_id":"4","last_reported":1778692020,"current_range_meters":6000,"station_id":"ce4bh0h2rcd13ifvqd50","pricing_plan_id":"cebpf4jnsgd1na2vs0mg"},{"bike_id":"b2624d21-8d60-49d1-abad-bef1f0574231","system_id":"levelo_inurba_marseille","lat":43.25497,"lon":5.37639,"is_reserved":false,"is_disabled":false,"rental_uris":{"android":"levelo://app?vid=b2624d21-8d60-49d1-abad-bef1f0574231","ios":"levelo://app?vid=b2624d21-8d60-49d1-abad-bef1f0574231"},"vehicle_type_id":"4","last_reported":1778692020,"current_range_meters":6000,"station_id":"ce4bhh12rcd13ifvqff0","pricing_plan_id":"cebpf4jnsgd1na2vs0mg"},{"bike_id":"53ab3346-6ae3-47d4-9670-f84e0aea8e0c","system_id":"levelo_inurba_marseille","lat":43.24811,"lon":5.37445,"is_reserved":false,"is_disabled":false,"rental_uris":{"android":"levelo://app?vid=53ab3346-6ae3-47d4-9670-f84e0aea8e0c","ios":"levelo://app?vid=53ab3346-6ae3-47d4-9670-f84e0aea8e0c"},"vehicle_type_id":"4","last_reported":1778692020,"current_range_meters":6000,"station_id":"ce4bhgh2rcd13ifvqfb0","pricing_plan_id":"cebpf4jnsgd1na2vs0mg"},{"bike_id":"68f12e2e-0f78-4ccf-8476-809c6a033da9","system_id":"levelo_inurba_marseille","lat":43.298,"lon":5.39335,"is_reserved":false,"is_disabled":false,"rental_uris":{"android":"levelo://app?vid=68f12e2e-0f78-4ccf-8476-809c6a033da9","ios":"levelo://app?vid=68f12e2e-0f78-4ccf-8476-809c6a033da9"},"vehicle_type_id":"4","last_reported":1778692020,"current_range_meters":6000,"station_id":"chh1huq6cuj3fo74tm60","pricing_plan_id":"cebpf4jnsgd1na2vs0mg"},{"bike_id":"3a230b6e-dd1d-49e1-842d-1bf82e4cc29c","system_id":"levelo_inurba_marseille","lat":43.28706,"lon":5.46704,"is_reserved":false,"is_disabled":false,"rental_uris":{"android":"levelo://app?vid=3a230b6e-dd1d-49e1-842d-1bf82e4cc29c","ios":"levelo://app?vid=3a230b6e-dd1d-49e1-842d-1bf82e4cc29c"},"vehicle_type_id":"4","last_reported":1778692020,"current_range_meters":6000,"station_id":"st_d6tc3vkotcvc738tfjhg","pricing_plan_id":"cebpf4jnsgd1na2vs0mg"},{"bike_id":"12f4bd1c-cc02-4aa2-aaaf-942f6647a5f2","system_id":"levelo_inurba_marseille","lat":43.33109,"lon":5.39399,"is_reserved":false,"is_disabled":false,"rental_uris":{"android":"levelo://app?vid=12f4bd1c-cc02-4aa2-aaaf-942f6647a5f2","ios":"levelo://app?vid=12f4bd1c-cc02-4aa2-aaaf-942f6647a5f2"},"vehicle_type_id":"4","last_reported":1778692020,"current_range_meters":6000,"station_id":"","pricing_plan_id":"cebpf4jnsgd1na2vs0mg"},{"bike_id":"492bc1b5-62c1-45cd-be18-d591945c5eae","system_id":"levelo_inurba_marseille","lat":43.25886,"lon":5.39892,"is_reserved":false,"is_disabled":true,"rental_uris":{"android":"levelo://app?vid=492bc1b5-62c1-45cd-be18-d591945c5eae","ios":"levelo://app?vid=492bc1b5-62c1-45cd-be18-d591945c5eae"},"vehicle_type_id":"4","last_reported":1778692020,"current_range_meters":6400,"station_id":"ce4bhl92rcd13ifvqghg","pricing_plan_id":"cebpf4jnsgd1na2vs0mg"},{"bike_id":"04fab4f5-3865-44d6-9da6-cd03201dc7b5","system_id":"levelo_inurba_marseille","lat":43.29509,"lon":5.42304,"is_reserved":false,"is_disabled":false,"rental_uris":{"android":"levelo://app?vid=04fab4f5-3865-44d6-9da6-cd03201dc7b5","ios":"levelo://app?vid=04fab4f5-3865-44d6-9da6-cd03201dc7b5"},"vehicle_type_id":"4","last_reported":1778692020,"current_range_meters":6400,"station_id":"ce4bhph2rcd13ifvqhdg","pricing_plan_id":"cebpf4jnsgd1na2vs0mg"},{"bike_id":"6d5846d2-0874-495b-b7bc-c517b4a30462","system_id":"levelo_inurba_marseille","lat":43.30202,"lon":5.38062,"is_reserved":false,"is_disabled":false,"rental_uris":{"android":"levelo://app?vid=6d5846d2-0874-495b-b7bc-c517b4a30462","ios":"levelo://app?vid=6d5846d2-0874-495b-b7bc-c517b4a30462"},"vehicle_type_id":"4","last_reported":1778692020,"current_range_meters":6400,"station_id":"","pricing_plan_id":"cebpf4jnsgd1na2vs0mg"},{"bike_id":"697a07d2-41ee-4ed1-ada3-c72a40d07b27","system_id":"levelo_inurba_marseille","lat":43.24461,"lon":5.42551,"is_reserved":false,"is_disabled":false,"rental_uris":{"android":"levelo://app?vid=697a07d2-41ee-4ed1-ada3-c72a40d07b27","ios":"levelo://app?vid=697a07d2-41ee-4ed1-ada3-c72a40d07b27"},"vehicle_type_id":"4","last_reported":1778692020,"current_range_meters":6400,"station_id":"st_d4a3vfp97mjs738cd8kg","pricing_plan_id":"cebpf4jnsgd1na2vs0mg"},{"bike_id":"55adef7e-fa6c-4ec7-9da7-2e7150877ae4","system_id":"levelo_inurba_marseille","lat":43.31485,"lon":5.37293,"is_reserved":false,"is_disabled":false,"rental_uris":{"android":"levelo://app?vid=55adef7e-fa6c-4ec7-9da7-2e7150877ae4","ios":"levelo://app?vid=55adef7e-fa6c-4ec7-9da7-2e7150877ae4"},"vehicle_type_id":"4","last_reported":1778692020,"current_range_meters":6400,"station_id":"ce4bgt12rcd13ifvqcd0","pricing_plan_id":"cebpf4jnsgd1na2vs0mg"},{"bike_id":"48066121-841a-4b69-bb96-5a67813041e0","system_id":"levelo_inurba_marseille","lat":43.28705,"lon":5.46688,"is_reserved":false,"is_disabled":false,"rental_uris":{"android":"levelo://app?vid=48066121-841a-4b69-bb96-5a67813041e0","ios":"levelo://app?vid=48066121-841a-4b69-bb96-5a67813041e0"},"vehicle_type_id":"4","last_reported":1778692020,"current_range_meters":6400,"station_id":"st_d6tc3vkotcvc738tfjhg","pricing_plan_id":"cebpf4jnsgd1na2vs0mg"},{"bike_id":"22418c41-98c8-454e-b794-2a1abe0ca90b","system_id":"levelo_inurba_marseille","lat":43.28947,"lon":5.36637,"is_reserved":false,"is_disabled":false,"rental_uris":{"android":"levelo://app?vid=22418c41-98c8-454e-b794-2a1abe0ca90b","ios":"levelo://app?vid=22418c41-98c8-454e-b794-2a1abe0ca90b"},"vehicle_type_id":"4","last_reported":1778692020,"current_range_meters":6400,"station_id":"ce4bhap2rcd13ifvqek0","pricing_plan_id":"cebpf4jnsgd1na2vs0mg"},{"bike_id":"05720470-2b78-4343-a7b5-8a1a654dbfaa","system_id":"levelo_inurba_marseille","lat":43.32989,"lon":5.37485,"is_reserved":false,"is_disabled":false,"rental_uris":{"android":"levelo://app?vid=05720470-2b78-4343-a7b5-8a1a654dbfaa","ios":"levelo://app?vid=05720470-2b78-4343-a7b5-8a1a654dbfaa"},"vehicle_type_id":"4","last_reported":1778692020,"current_range_meters":6400,"station_id":"","pricing_plan_id":"cebpf4jnsgd1na2vs0mg"},{"bike_id":"8b2482db-e468-44a2-9f5e-15c9614724f2","system_id":"levelo_inurba_marseille","lat":43.29525,"lon":5.38537,"is_reserved":false,"is_disabled":false,"rental_uris":{"android":"levelo://app?vid=8b2482db-e468-44a2-9f5e-15c9614724f2","ios":"levelo://app?vid=8b2482db-e468-44a2-9f5e-15c9614724f2"},"vehicle_type_id":"4","last_reported":1778692020,"current_range_meters":6400,"station_id":"ce4bgih2rcd13ifvqba0","pricing_plan_id":"cebpf4jnsgd1na2vs0mg"},{"bike_id":"d2a4ed66-8f65-4605-9c7a-a6d80dc51506","system_id":"levelo_inurba_marseille","lat":43.296,"lon":5.39995,"is_reserved":false,"is_disabled":false,"rental_uris":{"android":"levelo://app?vid=d2a4ed66-8f65-4605-9c7a-a6d80dc51506","ios":"levelo://app?vid=d2a4ed66-8f65-4605-9c7a-a6d80dc51506"},"vehicle_type_id":"4","last_reported":1778692020,"current_range_meters":6400,"station_id":"ce4bh312rcd13ifvqdj0","pricing_plan_id":"cebpf4jnsgd1na2vs0mg"},{"bike_id":"07412a7a-ee0f-483f-a227-8c38aeb4daa0","system_id":"levelo_inurba_marseille","lat":43.23466,"lon":5.37229,"is_reserved":false,"is_disabled":false,"rental_uris":{"android":"levelo://app?vid=07412a7a-ee0f-483f-a227-8c38aeb4daa0","ios":"levelo://app?vid=07412a7a-ee0f-483f-a227-8c38aeb4daa0"},"vehicle_type_id":"4","last_reported":1778692020,"current_range_meters":6400,"station_id":"","pricing_plan_id":"cebpf4jnsgd1na2vs0mg"},{"bike_id":"6efbac5a-c9c4-484f-9963-c67bf841265e","system_id":"levelo_inurba_marseille","lat":43.311172,"lon":5.377768,"is_reserved":false,"is_disabled":false,"rental_uris":{"android":"levelo://app?vid=6efbac5a-c9c4-484f-9963-c67bf841265e","ios":"levelo://app?vid=6efbac5a-c9c4-484f-9963-c67bf841265e"},"vehicle_type_id":"4","last_reported":1778692020,"current_range_meters":6400,"station_id":"ce4bgt92rcd13ifvqcg0","pricing_plan_id":"cebpf4jnsgd1na2vs0mg"},{"bike_id":"43032abe-6876-41f9-8ba3-9a4890d652ae","system_id":"levelo_inurba_marseille","lat":43.28447,"lon":5.35888,"is_reserved":false,"is_disabled":false,"rental_uris":{"android":"levelo://app?vid=43032abe-6876-41f9-8ba3-9a4890d652ae","ios":"levelo://app?vid=43032abe-6876-41f9-8ba3-9a4890d652ae"},"vehicle_type_id":"4","last_reported":1778692020,"current_range_meters":6400,"station_id":"ce4bhah2rcd13ifvqei0","pricing_plan_id":"cebpf4jnsgd1na2vs0mg"},{"bike_id":"3a0357dc-6fee-4e4e-8814-c54ef66d9e82","system_id":"levelo_inurba_marseille","lat":43.25656,"lon":5.43048,"is_reserved":false,"is_disabled":false,"rental_uris":{"android":"levelo://app?vid=3a0357dc-6fee-4e4e-8814-c54ef66d9e82","ios":"levelo://app?vid=3a0357dc-6fee-4e4e-8814-c54ef66d9e82"},"vehicle_type_id":"4","last_reported":1778692020,"current_range_meters":6400,"station_id":"","pricing_plan_id":"cebpf4jnsgd1na2vs0mg"},{"bike_id":"5fb8929d-8102-448c-b915-edd3a3b92015","system_id":"levelo_inurba_marseille","lat":43.33161,"lon":5.37683,"is_reserved":false,"is_disabled":false,"rental_uris":{"android":"levelo://app?vid=5fb8929d-8102-448c-b915-edd3a3b92015","ios":"levelo://app?vid=5fb8929d-8102-448c-b915-edd3a3b92015"},"vehicle_type_id":"4","last_reported":1778692020,"current_range_meters":6400,"station_id":"st_d46cu089ee8s73dldbu0","pricing_plan_id":"cebpf4jnsgd1na2vs0mg"},{"bike_id":"aa3f6d5a-caf7-4884-92ce-12eb0b9c9e82","system_id":"levelo_inurba_marseille","lat":43.28033,"lon":5.39322,"is_reserved":false,"is_disabled":false,"rental_uris":{"android":"levelo://app?vid=aa3f6d5a-caf7-4884-92ce-12eb0b9c9e82","ios":"levelo://app?vid=aa3f6d5a-caf7-4884-92ce-12eb0b9c9e82"},"vehicle_type_id":"4","last_reported":1778692020,"current_range_meters":6400,"station_id":"","pricing_plan_id":"cebpf4jnsgd1na2vs0mg"},{"bike_id":"5ea7a2af-0cb1-4373-9e74-1dc5d0550a48","system_id":"levelo_inurba_marseille","lat":43.29019,"lon":5.38135,"is_reserved":false,"is_disabled":false,"rental_uris":{"android":"levelo://app?vid=5ea7a2af-0cb1-4373-9e74-1dc5d0550a48","ios":"levelo://app?vid=5ea7a2af-0cb1-4373-9e74-1dc5d0550a48"},"vehicle_type_id":"4","last_reported":1778692020,"current_range_meters":6400,"station_id":"ce4bh4p2rcd13ifvqe1g","pricing_plan_id":"cebpf4jnsgd1na2vs0mg"},{"bike_id":"28a72b76-c11c-4d88-beb8-3c52acaa7017","system_id":"levelo_inurba_marseille","lat":43.28404,"lon":5.3753,"is_reserved":false,"is_disabled":false,"rental_uris":{"android":"levelo://app?vid=28a72b76-c11c-4d88-beb8-3c52acaa7017","ios":"levelo://app?vid=28a72b76-c11c-4d88-beb8-3c52acaa7017"},"vehicle_type_id":"4","last_reported":1778692020,"current_range_meters":6400,"station_id":"ce4bh412rcd13ifvqds0","pricing_plan_id":"cebpf4jnsgd1na2vs0mg"},{"bike_id":"90696508-a5d0-432c-92b1-dc6f9bd70bd0","system_id":"levelo_inurba_marseille","lat":43.299713,"lon":5.37188,"is_reserved":false,"is_disabled":false,"rental_uris":{"android":"levelo://app?vid=90696508-a5d0-432c-92b1-dc6f9bd70bd0","ios":"levelo://app?vid=90696508-a5d0-432c-92b1-dc6f9bd70bd0"},"vehicle_type_id":"4","last_reported":1778692020,"current_range_meters":6800,"station_id":"ce4bgr92rcd13ifvqc7g","pricing_plan_id":"cebpf4jnsgd1na2vs0mg"},{"bike_id":"c5f06cd9-b5e5-4c77-bb22-127d718df46e","system_id":"levelo_inurba_marseille","lat":43.29787,"lon":5.39348,"is_reserved":false,"is_disabled":false,"rental_uris":{"android":"levelo://app?vid=c5f06cd9-b5e5-4c77-bb22-127d718df46e","ios":"levelo://app?vid=c5f06cd9-b5e5-4c77-bb22-127d718df46e"},"vehicle_type_id":"4","last_reported":1778692020,"current_range_meters":6800,"station_id":"chh1huq6cuj3fo74tm60","pricing_plan_id":"cebpf4jnsgd1na2vs0mg"},{"bike_id":"029c5a43-1e45-4c3e-8988-03f5d95399a9","system_id":"levelo_inurba_marseille","lat":43.28942,"lon":5.36636,"is_reserved":false,"is_disabled":false,"rental_uris":{"android":"levelo://app?vid=029c5a43-1e45-4c3e-8988-03f5d95399a9","ios":"levelo://app?vid=029c5a43-1e45-4c3e-8988-03f5d95399a9"},"vehicle_type_id":"4","last_reported":1778692020,"current_range_meters":6800,"station_id":"ce4bhap2rcd13ifvqek0","pricing_plan_id":"cebpf4jnsgd1na2vs0mg"},{"bike_id":"6df995e3-8bf3-456d-b246-adb59c053d03","system_id":"levelo_inurba_marseille","lat":43.30556,"lon":5.36533,"is_reserved":false,"is_disabled":false,"rental_uris":{"android":"levelo://app?vid=6df995e3-8bf3-456d-b246-adb59c053d03","ios":"levelo://app?vid=6df995e3-8bf3-456d-b246-adb59c053d03"},"vehicle_type_id":"4","last_reported":1778692020,"current_range_meters":6800,"station_id":"ce4bgs12rcd13ifvqcag","pricing_plan_id":"cebpf4jnsgd1na2vs0mg"},{"bike_id":"c60dce36-fce5-4ea5-8415-b2a2cb522d0b","system_id":"levelo_inurba_marseille","lat":43.29915,"lon":5.37485,"is_reserved":false,"is_disabled":false,"rental_uris":{"android":"levelo://app?vid=c60dce36-fce5-4ea5-8415-b2a2cb522d0b","ios":"levelo://app?vid=c60dce36-fce5-4ea5-8415-b2a2cb522d0b"},"vehicle_type_id":"4","last_reported":1778692020,"current_range_meters":6800,"station_id":"ce4bgjh2rcd13ifvqbg0","pricing_plan_id":"cebpf4jnsgd1na2vs0mg"},{"bike_id":"4660d09c-3d67-4691-b901-cf7c81798d2c","system_id":"levelo_inurba_marseille","lat":43.27505,"lon":5.41572,"is_reserved":false,"is_disabled":true,"rental_uris":{"android":"levelo://app?vid=4660d09c-3d67-4691-b901-cf7c81798d2c","ios":"levelo://app?vid=4660d09c-3d67-4691-b901-cf7c81798d2c"},"vehicle_type_id":"4","last_reported":1778692020,"current_range_meters":6800,"station_id":"st_d6im8g6chgec73a5pndg","pricing_plan_id":"cebpf4jnsgd1na2vs0mg"},{"bike_id":"e87d90bf-7f27-4494-86f8-3a1d5cd041da","system_id":"levelo_inurba_marseille","lat":43.2379,"lon":5.36638,"is_reserved":false,"is_disabled":false,"rental_uris":{"android":"levelo://app?vid=e87d90bf-7f27-4494-86f8-3a1d5cd041da","ios":"levelo://app?vid=e87d90bf-7f27-4494-86f8-3a1d5cd041da"},"vehicle_type_id":"4","last_reported":1778692020,"current_range_meters":6800,"station_id":"st_d3nk18o9ro0c73en2l3g","pricing_plan_id":"cebpf4jnsgd1na2vs0mg"},{"bike_id":"b4fa7954-cff6-454a-8698-60eb0bbab1eb","system_id":"levelo_inurba_marseille","lat":43.2861,"lon":5.35106,"is_reserved":false,"is_disabled":false,"rental_uris":{"android":"levelo://app?vid=b4fa7954-cff6-454a-8698-60eb0bbab1eb","ios":"levelo://app?vid=b4fa7954-cff6-454a-8698-60eb0bbab1eb"},"vehicle_type_id":"4","last_reported":1778692020,"current_range_meters":6800,"station_id":"ce4bhch2rcd13ifvqeug","pricing_plan_id":"cebpf4jnsgd1na2vs0mg"},{"bike_id":"0488962e-1f80-4bf5-823e-3f2ffcb1ae51","system_id":"levelo_inurba_marseille","lat":43.24642,"lon":5.38155,"is_reserved":false,"is_disabled":false,"rental_uris":{"android":"levelo://app?vid=0488962e-1f80-4bf5-823e-3f2ffcb1ae51","ios":"levelo://app?vid=0488962e-1f80-4bf5-823e-3f2ffcb1ae51"},"vehicle_type_id":"4","last_reported":1778692020,"current_range_meters":6800,"station_id":"ce4bhih2rcd13ifvqfr0","pricing_plan_id":"cebpf4jnsgd1na2vs0mg"},{"bike_id":"2e0b1d6e-c2d5-4a2d-bfd5-3984f0112eca","system_id":"levelo_inurba_marseille","lat":43.28397,"lon":5.37529,"is_reserved":false,"is_disabled":false,"rental_uris":{"android":"levelo://app?vid=2e0b1d6e-c2d5-4a2d-bfd5-3984f0112eca","ios":"levelo://app?vid=2e0b1d6e-c2d5-4a2d-bfd5-3984f0112eca"},"vehicle_type_id":"4","last_reported":1778692020,"current_range_meters":6800,"station_id":"ce4bh412rcd13ifvqds0","pricing_plan_id":"cebpf4jnsgd1na2vs0mg"},{"bike_id":"b68725fb-48bd-4094-a63b-2967d5e783dd","system_id":"levelo_inurba_marseille","lat":43.27921,"lon":5.39583,"is_reserved":false,"is_disabled":true,"rental_uris":{"android":"levelo://app?vid=b68725fb-48bd-4094-a63b-2967d5e783dd","ios":"levelo://app?vid=b68725fb-48bd-4094-a63b-2967d5e783dd"},"vehicle_type_id":"4","last_reported":1778692020,"current_range_meters":6800,"station_id":"ce4bhf92rcd13ifvqf40","pricing_plan_id":"cebpf4jnsgd1na2vs0mg"},{"bike_id":"cf30276d-44a6-4d99-9097-12bff2d6b62a","system_id":"levelo_inurba_marseille","lat":43.301524,"lon":5.380861,"is_reserved":false,"is_disabled":false,"rental_uris":{"android":"levelo://app?vid=cf30276d-44a6-4d99-9097-12bff2d6b62a","ios":"levelo://app?vid=cf30276d-44a6-4d99-9097-12bff2d6b62a"},"vehicle_type_id":"4","last_reported":1778692020,"current_range_meters":6800,"station_id":"ce4bgjp2rcd13ifvqbh0","pricing_plan_id":"cebpf4jnsgd1na2vs0mg"},{"bike_id":"1b92dc77-fa37-4622-8e11-1fa6fd28c9b8","system_id":"levelo_inurba_marseille","lat":43.31322,"lon":5.397,"is_reserved":false,"is_disabled":false,"rental_uris":{"android":"levelo://app?vid=1b92dc77-fa37-4622-8e11-1fa6fd28c9b8","ios":"levelo://app?vid=1b92dc77-fa37-4622-8e11-1fa6fd28c9b8"},"vehicle_type_id":"4","last_reported":1778692020,"current_range_meters":6800,"station_id":"ce4bgvp2rcd13ifvqcu0","pricing_plan_id":"cebpf4jnsgd1na2vs0mg"},{"bike_id":"0dac72c1-f82f-4c1f-95e6-fbf0c1410ae5","system_id":"levelo_inurba_marseille","lat":43.23971,"lon":5.3665,"is_reserved":false,"is_disabled":false,"rental_uris":{"android":"levelo://app?vid=0dac72c1-f82f-4c1f-95e6-fbf0c1410ae5","ios":"levelo://app?vid=0dac72c1-f82f-4c1f-95e6-fbf0c1410ae5"},"vehicle_type_id":"4","last_reported":1778692020,"current_range_meters":6800,"station_id":"ce4bhi12rcd13ifvqfp0","pricing_plan_id":"cebpf4jnsgd1na2vs0mg"},{"bike_id":"386a0781-ba44-458a-8526-4864b27dc5e8","system_id":"levelo_inurba_marseille","lat":43.2318,"lon":5.39997,"is_reserved":false,"is_disabled":false,"rental_uris":{"android":"levelo://app?vid=386a0781-ba44-458a-8526-4864b27dc5e8","ios":"levelo://app?vid=386a0781-ba44-458a-8526-4864b27dc5e8"},"vehicle_type_id":"4","last_reported":1778692020,"current_range_meters":7200,"station_id":"ce4bhn12rcd13ifvqgqg","pricing_plan_id":"cebpf4jnsgd1na2vs0mg"},{"bike_id":"6206d17b-cf9d-41b3-a41d-c6052f6a6ce2","system_id":"levelo_inurba_marseille","lat":43.33533,"lon":5.3747,"is_reserved":false,"is_disabled":false,"rental_uris":{"android":"levelo://app?vid=6206d17b-cf9d-41b3-a41d-c6052f6a6ce2","ios":"levelo://app?vid=6206d17b-cf9d-41b3-a41d-c6052f6a6ce2"},"vehicle_type_id":"4","last_reported":1778692020,"current_range_meters":7200,"station_id":"st_d46tts09ee8s73dlu43g","pricing_plan_id":"cebpf4jnsgd1na2vs0mg"},{"bike_id":"405f1dbf-c088-4880-9365-03325b4d46a5","system_id":"levelo_inurba_marseille","lat":43.27991,"lon":5.40026,"is_reserved":false,"is_disabled":false,"rental_uris":{"android":"levelo://app?vid=405f1dbf-c088-4880-9365-03325b4d46a5","ios":"levelo://app?vid=405f1dbf-c088-4880-9365-03325b4d46a5"},"vehicle_type_id":"4","last_reported":1778692020,"current_range_meters":7200,"station_id":"ce4bho92rcd13ifvqh4g","pricing_plan_id":"cebpf4jnsgd1na2vs0mg"},{"bike_id":"cd5c5fe1-7b4c-4490-9e82-584dc3d81e71","system_id":"levelo_inurba_marseille","lat":43.26784,"lon":5.39408,"is_reserved":false,"is_disabled":false,"rental_uris":{"android":"levelo://app?vid=cd5c5fe1-7b4c-4490-9e82-584dc3d81e71","ios":"levelo://app?vid=cd5c5fe1-7b4c-4490-9e82-584dc3d81e71"},"vehicle_type_id":"4","last_reported":1778692020,"current_range_meters":7200,"station_id":"ce4bhh12rcd13ifvqfg0","pricing_plan_id":"cebpf4jnsgd1na2vs0mg"},{"bike_id":"b1ea83cc-aef5-497d-b992-c5f5e4fe7e7a","system_id":"levelo_inurba_marseille","lat":43.23968,"lon":5.36625,"is_reserved":false,"is_disabled":false,"rental_uris":{"android":"levelo://app?vid=b1ea83cc-aef5-497d-b992-c5f5e4fe7e7a","ios":"levelo://app?vid=b1ea83cc-aef5-497d-b992-c5f5e4fe7e7a"},"vehicle_type_id":"4","last_reported":1778692020,"current_range_meters":7200,"station_id":"ce4bhi12rcd13ifvqfp0","pricing_plan_id":"cebpf4jnsgd1na2vs0mg"},{"bike_id":"a69bbb17-e904-4bbe-b1a6-d8e7b08362c7","system_id":"levelo_inurba_marseille","lat":43.23993,"lon":5.39925,"is_reserved":false,"is_disabled":false,"rental_uris":{"android":"levelo://app?vid=a69bbb17-e904-4bbe-b1a6-d8e7b08362c7","ios":"levelo://app?vid=a69bbb17-e904-4bbe-b1a6-d8e7b08362c7"},"vehicle_type_id":"4","last_reported":1778692020,"current_range_meters":7200,"station_id":"","pricing_plan_id":"cebpf4jnsgd1na2vs0mg"},{"bike_id":"81e7602c-a050-4d46-a06a-cc5a7ea03153","system_id":"levelo_inurba_marseille","lat":43.28415,"lon":5.34976,"is_reserved":false,"is_disabled":false,"rental_uris":{"android":"levelo://app?vid=81e7602c-a050-4d46-a06a-cc5a7ea03153","ios":"levelo://app?vid=81e7602c-a050-4d46-a06a-cc5a7ea03153"},"vehicle_type_id":"4","last_reported":1778692020,"current_range_meters":7200,"station_id":"ce4bhbh2rcd13ifvqepg","pricing_plan_id":"cebpf4jnsgd1na2vs0mg"},{"bike_id":"59862f75-c286-4094-9d03-f69a04659447","system_id":"levelo_inurba_marseille","lat":43.26931,"lon":5.38907,"is_reserved":false,"is_disabled":false,"rental_uris":{"android":"levelo://app?vid=59862f75-c286-4094-9d03-f69a04659447","ios":"levelo://app?vid=59862f75-c286-4094-9d03-f69a04659447"},"vehicle_type_id":"4","last_reported":1778692020,"current_range_meters":7200,"station_id":"ce4bhhh2rcd13ifvqfl0","pricing_plan_id":"cebpf4jnsgd1na2vs0mg"},{"bike_id":"a220398f-a526-4d5e-aaa9-d4c239c994be","system_id":"levelo_inurba_marseille","lat":43.28269,"lon":5.3508,"is_reserved":false,"is_disabled":false,"rental_uris":{"android":"levelo://app?vid=a220398f-a526-4d5e-aaa9-d4c239c994be","ios":"levelo://app?vid=a220398f-a526-4d5e-aaa9-d4c239c994be"},"vehicle_type_id":"4","last_reported":1778692020,"current_range_meters":7200,"station_id":"ce4bhbp2rcd13ifvqerg","pricing_plan_id":"cebpf4jnsgd1na2vs0mg"},{"bike_id":"0b7a1cd6-de1e-4703-ab64-a352b37f7b77","system_id":"levelo_inurba_marseille","lat":43.2606,"lon":5.39382,"is_reserved":false,"is_disabled":false,"rental_uris":{"android":"levelo://app?vid=0b7a1cd6-de1e-4703-ab64-a352b37f7b77","ios":"levelo://app?vid=0b7a1cd6-de1e-4703-ab64-a352b37f7b77"},"vehicle_type_id":"4","last_reported":1778692020,"current_range_meters":7200,"station_id":"ce4bhh92rcd13ifvqfj0","pricing_plan_id":"cebpf4jnsgd1na2vs0mg"},{"bike_id":"522b9102-3cdd-4246-a390-321fdd09f5bf","system_id":"levelo_inurba_marseille","lat":43.308977,"lon":5.39645,"is_reserved":false,"is_disabled":false,"rental_uris":{"android":"levelo://app?vid=522b9102-3cdd-4246-a390-321fdd09f5bf","ios":"levelo://app?vid=522b9102-3cdd-4246-a390-321fdd09f5bf"},"vehicle_type_id":"4","last_reported":1778692020,"current_range_meters":7200,"station_id":"ce4bh012rcd13ifvqcv0","pricing_plan_id":"cebpf4jnsgd1na2vs0mg"},{"bike_id":"006ba8fa-d589-423d-b511-579d6756de38","system_id":"levelo_inurba_marseille","lat":43.30154,"lon":5.37409,"is_reserved":false,"is_disabled":false,"rental_uris":{"android":"levelo://app?vid=006ba8fa-d589-423d-b511-579d6756de38","ios":"levelo://app?vid=006ba8fa-d589-423d-b511-579d6756de38"},"vehicle_type_id":"4","last_reported":1778692020,"current_range_meters":7200,"station_id":"ce4bgs92rcd13ifvqcc0","pricing_plan_id":"cebpf4jnsgd1na2vs0mg"},{"bike_id":"3ee2ecc2-8fcd-4ba3-a16a-f395343be9b2","system_id":"levelo_inurba_marseille","lat":43.29929,"lon":5.36551,"is_reserved":false,"is_disabled":false,"rental_uris":{"android":"levelo://app?vid=3ee2ecc2-8fcd-4ba3-a16a-f395343be9b2","ios":"levelo://app?vid=3ee2ecc2-8fcd-4ba3-a16a-f395343be9b2"},"vehicle_type_id":"4","last_reported":1778692020,"current_range_meters":7200,"station_id":"ce4bgm92rcd13ifvqbr0","pricing_plan_id":"cebpf4jnsgd1na2vs0mg"},{"bike_id":"2155b81d-4ed5-458a-9a0a-b79f20514091","system_id":"levelo_inurba_marseille","lat":43.27373,"lon":5.36263,"is_reserved":false,"is_disabled":false,"rental_uris":{"android":"levelo://app?vid=2155b81d-4ed5-458a-9a0a-b79f20514091","ios":"levelo://app?vid=2155b81d-4ed5-458a-9a0a-b79f20514091"},"vehicle_type_id":"4","last_reported":1778692020,"current_range_meters":7200,"station_id":"ce4bhbh2rcd13ifvqeo0","pricing_plan_id":"cebpf4jnsgd1na2vs0mg"},{"bike_id":"14e00871-c6be-4bbd-b22b-0cccac5a86ca","system_id":"levelo_inurba_marseille","lat":43.29025,"lon":5.3863,"is_reserved":false,"is_disabled":false,"rental_uris":{"android":"levelo://app?vid=14e00871-c6be-4bbd-b22b-0cccac5a86ca","ios":"levelo://app?vid=14e00871-c6be-4bbd-b22b-0cccac5a86ca"},"vehicle_type_id":"4","last_reported":1778692020,"current_range_meters":7200,"station_id":"ce4bh4p2rcd13ifvqe0g","pricing_plan_id":"cebpf4jnsgd1na2vs0mg"},{"bike_id":"f7b71e8a-de3b-4d59-8cbd-1c1ed6357a73","system_id":"levelo_inurba_marseille","lat":43.26942,"lon":5.40275,"is_reserved":false,"is_disabled":true,"rental_uris":{"android":"levelo://app?vid=f7b71e8a-de3b-4d59-8cbd-1c1ed6357a73","ios":"levelo://app?vid=f7b71e8a-de3b-4d59-8cbd-1c1ed6357a73"},"vehicle_type_id":"4","last_reported":1778692020,"current_range_meters":7200,"station_id":"cjm6bp8fraef2m0cb0m0","pricing_plan_id":"cebpf4jnsgd1na2vs0mg"},{"bike_id":"7d315b33-2d26-43f5-b8ee-0e097f55adc4","system_id":"levelo_inurba_marseille","lat":43.30611,"lon":5.37237,"is_reserved":false,"is_disabled":false,"rental_uris":{"android":"levelo://app?vid=7d315b33-2d26-43f5-b8ee-0e097f55adc4","ios":"levelo://app?vid=7d315b33-2d26-43f5-b8ee-0e097f55adc4"},"vehicle_type_id":"4","last_reported":1778692020,"current_range_meters":7200,"station_id":"ce4bgqh2rcd13ifvqc4g","pricing_plan_id":"cebpf4jnsgd1na2vs0mg"},{"bike_id":"635d703d-21a9-47e2-9792-d096ac73cd66","system_id":"levelo_inurba_marseille","lat":43.26902,"lon":5.40279,"is_reserved":false,"is_disabled":false,"rental_uris":{"android":"levelo://app?vid=635d703d-21a9-47e2-9792-d096ac73cd66","ios":"levelo://app?vid=635d703d-21a9-47e2-9792-d096ac73cd66"},"vehicle_type_id":"4","last_reported":1778692020,"current_range_meters":7200,"station_id":"cjm6bp8fraef2m0cb0m0","pricing_plan_id":"cebpf4jnsgd1na2vs0mg"},{"bike_id":"e8be6d30-92bd-4faa-804d-9aab5a4d7b08","system_id":"levelo_inurba_marseille","lat":43.28936,"lon":5.36642,"is_reserved":false,"is_disabled":false,"rental_uris":{"android":"levelo://app?vid=e8be6d30-92bd-4faa-804d-9aab5a4d7b08","ios":"levelo://app?vid=e8be6d30-92bd-4faa-804d-9aab5a4d7b08"},"vehicle_type_id":"4","last_reported":1778692020,"current_range_meters":7200,"station_id":"ce4bhap2rcd13ifvqek0","pricing_plan_id":"cebpf4jnsgd1na2vs0mg"},{"bike_id":"175d2ecc-03de-490a-b0be-420b83a25287","system_id":"levelo_inurba_marseille","lat":43.29529,"lon":5.38538,"is_reserved":false,"is_disabled":false,"rental_uris":{"android":"levelo://app?vid=175d2ecc-03de-490a-b0be-420b83a25287","ios":"levelo://app?vid=175d2ecc-03de-490a-b0be-420b83a25287"},"vehicle_type_id":"4","last_reported":1778692020,"current_range_meters":7200,"station_id":"ce4bgih2rcd13ifvqba0","pricing_plan_id":"cebpf4jnsgd1na2vs0mg"},{"bike_id":"68455200-1d3e-428a-ac13-eea87743b51c","system_id":"levelo_inurba_marseille","lat":43.315012,"lon":5.373105,"is_reserved":false,"is_disabled":false,"rental_uris":{"android":"levelo://app?vid=68455200-1d3e-428a-ac13-eea87743b51c","ios":"levelo://app?vid=68455200-1d3e-428a-ac13-eea87743b51c"},"vehicle_type_id":"4","last_reported":1778692020,"current_range_meters":7200,"station_id":"ce4bgt12rcd13ifvqcd0","pricing_plan_id":"cebpf4jnsgd1na2vs0mg"},{"bike_id":"45040a2a-c6f7-42be-8977-18c5a2c9eccf","system_id":"levelo_inurba_marseille","lat":43.30552,"lon":5.36528,"is_reserved":false,"is_disabled":false,"rental_uris":{"android":"levelo://app?vid=45040a2a-c6f7-42be-8977-18c5a2c9eccf","ios":"levelo://app?vid=45040a2a-c6f7-42be-8977-18c5a2c9eccf"},"vehicle_type_id":"4","last_reported":1778692020,"current_range_meters":7200,"station_id":"ce4bgs12rcd13ifvqcag","pricing_plan_id":"cebpf4jnsgd1na2vs0mg"},{"bike_id":"494adee6-8142-45e6-aa8e-488e47195f5f","system_id":"levelo_inurba_marseille","lat":43.29267,"lon":5.36845,"is_reserved":false,"is_disabled":false,"rental_uris":{"android":"levelo://app?vid=494adee6-8142-45e6-aa8e-488e47195f5f","ios":"levelo://app?vid=494adee6-8142-45e6-aa8e-488e47195f5f"},"vehicle_type_id":"4","last_reported":1778692020,"current_range_meters":7200,"station_id":"ce4bhbp2rcd13ifvqesg","pricing_plan_id":"cebpf4jnsgd1na2vs0mg"},{"bike_id":"41988071-8196-4ce7-9902-98d5a58a7607","system_id":"levelo_inurba_marseille","lat":43.29853,"lon":5.39742,"is_reserved":false,"is_disabled":false,"rental_uris":{"android":"levelo://app?vid=41988071-8196-4ce7-9902-98d5a58a7607","ios":"levelo://app?vid=41988071-8196-4ce7-9902-98d5a58a7607"},"vehicle_type_id":"4","last_reported":1778692020,"current_range_meters":7200,"station_id":"ce4bh0h2rcd13ifvqd50","pricing_plan_id":"cebpf4jnsgd1na2vs0mg"},{"bike_id":"02b0c393-3fce-4646-8e55-954077194616","system_id":"levelo_inurba_marseille","lat":43.27364,"lon":5.36263,"is_reserved":false,"is_disabled":false,"rental_uris":{"android":"levelo://app?vid=02b0c393-3fce-4646-8e55-954077194616","ios":"levelo://app?vid=02b0c393-3fce-4646-8e55-954077194616"},"vehicle_type_id":"4","last_reported":1778692020,"current_range_meters":7200,"station_id":"ce4bhbh2rcd13ifvqeo0","pricing_plan_id":"cebpf4jnsgd1na2vs0mg"},{"bike_id":"8edf9741-10e3-4dc0-96d6-2bc85a82680e","system_id":"levelo_inurba_marseille","lat":43.29528,"lon":5.38541,"is_reserved":false,"is_disabled":false,"rental_uris":{"android":"levelo://app?vid=8edf9741-10e3-4dc0-96d6-2bc85a82680e","ios":"levelo://app?vid=8edf9741-10e3-4dc0-96d6-2bc85a82680e"},"vehicle_type_id":"4","last_reported":1778692020,"current_range_meters":7200,"station_id":"ce4bgih2rcd13ifvqba0","pricing_plan_id":"cebpf4jnsgd1na2vs0mg"},{"bike_id":"aac60e2d-bb40-48a7-9747-fb902418b8f6","system_id":"levelo_inurba_marseille","lat":43.25493,"lon":5.3765,"is_reserved":false,"is_disabled":false,"rental_uris":{"android":"levelo://app?vid=aac60e2d-bb40-48a7-9747-fb902418b8f6","ios":"levelo://app?vid=aac60e2d-bb40-48a7-9747-fb902418b8f6"},"vehicle_type_id":"4","last_reported":1778692020,"current_range_meters":7200,"station_id":"ce4bhh12rcd13ifvqff0","pricing_plan_id":"cebpf4jnsgd1na2vs0mg"},{"bike_id":"58c1f74b-cc7d-4b1e-b516-c525d9a76899","system_id":"levelo_inurba_marseille","lat":43.30292,"lon":5.39211,"is_reserved":false,"is_disabled":false,"rental_uris":{"android":"levelo://app?vid=58c1f74b-cc7d-4b1e-b516-c525d9a76899","ios":"levelo://app?vid=58c1f74b-cc7d-4b1e-b516-c525d9a76899"},"vehicle_type_id":"4","last_reported":1778692020,"current_range_meters":7200,"station_id":"ce4bgkh2rcd13ifvqbk0","pricing_plan_id":"cebpf4jnsgd1na2vs0mg"},{"bike_id":"7f5e3a56-bcf2-4432-8deb-b7a09dc12c51","system_id":"levelo_inurba_marseille","lat":43.28224,"lon":5.39062,"is_reserved":false,"is_disabled":false,"rental_uris":{"android":"levelo://app?vid=7f5e3a56-bcf2-4432-8deb-b7a09dc12c51","ios":"levelo://app?vid=7f5e3a56-bcf2-4432-8deb-b7a09dc12c51"},"vehicle_type_id":"4","last_reported":1778692020,"current_range_meters":7200,"station_id":"ce4bhn92rcd13ifvqgsg","pricing_plan_id":"cebpf4jnsgd1na2vs0mg"},{"bike_id":"7af43ac5-ec6a-4e6c-b58e-fefff544feee","system_id":"levelo_inurba_marseille","lat":43.3014,"lon":5.38072,"is_reserved":false,"is_disabled":false,"rental_uris":{"android":"levelo://app?vid=7af43ac5-ec6a-4e6c-b58e-fefff544feee","ios":"levelo://app?vid=7af43ac5-ec6a-4e6c-b58e-fefff544feee"},"vehicle_type_id":"4","last_reported":1778692020,"current_range_meters":7200,"station_id":"ce4bgjp2rcd13ifvqbh0","pricing_plan_id":"cebpf4jnsgd1na2vs0mg"},{"bike_id":"22a8e894-1e23-4da1-968a-f12c830231c4","system_id":"levelo_inurba_marseille","lat":43.2378,"lon":5.41449,"is_reserved":false,"is_disabled":false,"rental_uris":{"android":"levelo://app?vid=22a8e894-1e23-4da1-968a-f12c830231c4","ios":"levelo://app?vid=22a8e894-1e23-4da1-968a-f12c830231c4"},"vehicle_type_id":"4","last_reported":1778692020,"current_range_meters":7200,"station_id":"","pricing_plan_id":"cebpf4jnsgd1na2vs0mg"},{"bike_id":"ed122cb0-9c4b-4104-b359-218c1bf83706","system_id":"levelo_inurba_marseille","lat":43.29584,"lon":5.39951,"is_reserved":false,"is_disabled":true,"rental_uris":{"android":"levelo://app?vid=ed122cb0-9c4b-4104-b359-218c1bf83706","ios":"levelo://app?vid=ed122cb0-9c4b-4104-b359-218c1bf83706"},"vehicle_type_id":"4","last_reported":1778692020,"current_range_meters":8000,"station_id":"ce4bh312rcd13ifvqdj0","pricing_plan_id":"cebpf4jnsgd1na2vs0mg"},{"bike_id":"564fc6a0-0823-41e1-8704-556cfb2aedc9","system_id":"levelo_inurba_marseille","lat":43.26901,"lon":5.40273,"is_reserved":false,"is_disabled":false,"rental_uris":{"android":"levelo://app?vid=564fc6a0-0823-41e1-8704-556cfb2aedc9","ios":"levelo://app?vid=564fc6a0-0823-41e1-8704-556cfb2aedc9"},"vehicle_type_id":"4","last_reported":1778692020,"current_range_meters":8000,"station_id":"","pricing_plan_id":"cebpf4jnsgd1na2vs0mg"},{"bike_id":"0cea4717-0949-40fd-ae94-1db72ec6ad8c","system_id":"levelo_inurba_marseille","lat":43.29532,"lon":5.38548,"is_reserved":false,"is_disabled":false,"rental_uris":{"android":"levelo://app?vid=0cea4717-0949-40fd-ae94-1db72ec6ad8c","ios":"levelo://app?vid=0cea4717-0949-40fd-ae94-1db72ec6ad8c"},"vehicle_type_id":"4","last_reported":1778692020,"current_range_meters":8000,"station_id":"ce4bgih2rcd13ifvqba0","pricing_plan_id":"cebpf4jnsgd1na2vs0mg"},{"bike_id":"9f02bc8a-fa31-4d99-9454-67e6be4c4e30","system_id":"levelo_inurba_marseille","lat":43.2482,"lon":5.3745,"is_reserved":false,"is_disabled":false,"rental_uris":{"android":"levelo://app?vid=9f02bc8a-fa31-4d99-9454-67e6be4c4e30","ios":"levelo://app?vid=9f02bc8a-fa31-4d99-9454-67e6be4c4e30"},"vehicle_type_id":"4","last_reported":1778692020,"current_range_meters":8000,"station_id":"ce4bhgh2rcd13ifvqfb0","pricing_plan_id":"cebpf4jnsgd1na2vs0mg"},{"bike_id":"487d159d-c12c-4923-83fe-fe85d6105288","system_id":"levelo_inurba_marseille","lat":43.28668,"lon":5.38671,"is_reserved":false,"is_disabled":false,"rental_uris":{"android":"levelo://app?vid=487d159d-c12c-4923-83fe-fe85d6105288","ios":"levelo://app?vid=487d159d-c12c-4923-83fe-fe85d6105288"},"vehicle_type_id":"4","last_reported":1778692020,"current_range_meters":8000,"station_id":"ce4bh492rcd13ifvqdug","pricing_plan_id":"cebpf4jnsgd1na2vs0mg"},{"bike_id":"b27d874d-c244-4f31-8a52-2337ee2cb05a","system_id":"levelo_inurba_marseille","lat":43.2928,"lon":5.3685,"is_reserved":false,"is_disabled":false,"rental_uris":{"android":"levelo://app?vid=b27d874d-c244-4f31-8a52-2337ee2cb05a","ios":"levelo://app?vid=b27d874d-c244-4f31-8a52-2337ee2cb05a"},"vehicle_type_id":"4","last_reported":1778692020,"current_range_meters":8000,"station_id":"ce4bhbp2rcd13ifvqesg","pricing_plan_id":"cebpf4jnsgd1na2vs0mg"},{"bike_id":"0eafe8b1-60a5-45a3-be27-b27e2f9c6121","system_id":"levelo_inurba_marseille","lat":43.30312,"lon":5.39213,"is_reserved":false,"is_disabled":false,"rental_uris":{"android":"levelo://app?vid=0eafe8b1-60a5-45a3-be27-b27e2f9c6121","ios":"levelo://app?vid=0eafe8b1-60a5-45a3-be27-b27e2f9c6121"},"vehicle_type_id":"4","last_reported":1778692020,"current_range_meters":8000,"station_id":"ce4bgkh2rcd13ifvqbk0","pricing_plan_id":"cebpf4jnsgd1na2vs0mg"},{"bike_id":"7e4d72ce-6da2-4490-970a-282d3c06f627","system_id":"levelo_inurba_marseille","lat":43.30609,"lon":5.36503,"is_reserved":false,"is_disabled":false,"rental_uris":{"android":"levelo://app?vid=7e4d72ce-6da2-4490-970a-282d3c06f627","ios":"levelo://app?vid=7e4d72ce-6da2-4490-970a-282d3c06f627"},"vehicle_type_id":"4","last_reported":1778692020,"current_range_meters":8000,"station_id":"","pricing_plan_id":"cebpf4jnsgd1na2vs0mg"},{"bike_id":"95c02ffd-d429-4bb4-9cec-b7834d99f0f6","system_id":"levelo_inurba_marseille","lat":43.33167,"lon":5.37683,"is_reserved":false,"is_disabled":false,"rental_uris":{"android":"levelo://app?vid=95c02ffd-d429-4bb4-9cec-b7834d99f0f6","ios":"levelo://app?vid=95c02ffd-d429-4bb4-9cec-b7834d99f0f6"},"vehicle_type_id":"4","last_reported":1778692020,"current_range_meters":8000,"station_id":"st_d46cu089ee8s73dldbu0","pricing_plan_id":"cebpf4jnsgd1na2vs0mg"},{"bike_id":"33c1b5c3-bef6-4ac0-bc4d-59f14603adf7","system_id":"levelo_inurba_marseille","lat":43.29918,"lon":5.37483,"is_reserved":false,"is_disabled":false,"rental_uris":{"android":"levelo://app?vid=33c1b5c3-bef6-4ac0-bc4d-59f14603adf7","ios":"levelo://app?vid=33c1b5c3-bef6-4ac0-bc4d-59f14603adf7"},"vehicle_type_id":"4","last_reported":1778692020,"current_range_meters":8000,"station_id":"ce4bgjh2rcd13ifvqbg0","pricing_plan_id":"cebpf4jnsgd1na2vs0mg"},{"bike_id":"0d5417b2-a847-4ee0-863e-1b43343dd51e","system_id":"levelo_inurba_marseille","lat":43.30729,"lon":5.42446,"is_reserved":false,"is_disabled":false,"rental_uris":{"android":"levelo://app?vid=0d5417b2-a847-4ee0-863e-1b43343dd51e","ios":"levelo://app?vid=0d5417b2-a847-4ee0-863e-1b43343dd51e"},"vehicle_type_id":"4","last_reported":1778692020,"current_range_meters":8000,"station_id":"st_cvj6ca6bvosntc0bfgr0","pricing_plan_id":"cebpf4jnsgd1na2vs0mg"},{"bike_id":"28afe368-8de6-4b1f-a078-819e1bba53eb","system_id":"levelo_inurba_marseille","lat":43.25013,"lon":5.38904,"is_reserved":false,"is_disabled":false,"rental_uris":{"android":"levelo://app?vid=28afe368-8de6-4b1f-a078-819e1bba53eb","ios":"levelo://app?vid=28afe368-8de6-4b1f-a078-819e1bba53eb"},"vehicle_type_id":"4","last_reported":1778692020,"current_range_meters":8000,"station_id":"ce4bhgp2rcd13ifvqfd0","pricing_plan_id":"cebpf4jnsgd1na2vs0mg"},{"bike_id":"8a2db05a-6c70-4a54-a3cf-8592dcb6f7e0","system_id":"levelo_inurba_marseille","lat":43.292,"lon":5.35783,"is_reserved":false,"is_disabled":false,"rental_uris":{"android":"levelo://app?vid=8a2db05a-6c70-4a54-a3cf-8592dcb6f7e0","ios":"levelo://app?vid=8a2db05a-6c70-4a54-a3cf-8592dcb6f7e0"},"vehicle_type_id":"4","last_reported":1778692020,"current_range_meters":8000,"station_id":"ce4bhb12rcd13ifvqel0","pricing_plan_id":"cebpf4jnsgd1na2vs0mg"},{"bike_id":"ce074118-931a-45f0-85a9-21de1c76d0e7","system_id":"levelo_inurba_marseille","lat":43.29536,"lon":5.38542,"is_reserved":false,"is_disabled":false,"rental_uris":{"android":"levelo://app?vid=ce074118-931a-45f0-85a9-21de1c76d0e7","ios":"levelo://app?vid=ce074118-931a-45f0-85a9-21de1c76d0e7"},"vehicle_type_id":"4","last_reported":1778692020,"current_range_meters":8000,"station_id":"ce4bgih2rcd13ifvqba0","pricing_plan_id":"cebpf4jnsgd1na2vs0mg"},{"bike_id":"8bb75740-110f-4d4e-8348-fb9d76c42c05","system_id":"levelo_inurba_marseille","lat":43.28703,"lon":5.46683,"is_reserved":false,"is_disabled":false,"rental_uris":{"android":"levelo://app?vid=8bb75740-110f-4d4e-8348-fb9d76c42c05","ios":"levelo://app?vid=8bb75740-110f-4d4e-8348-fb9d76c42c05"},"vehicle_type_id":"4","last_reported":1778692020,"current_range_meters":8000,"station_id":"st_d6tc3vkotcvc738tfjhg","pricing_plan_id":"cebpf4jnsgd1na2vs0mg"},{"bike_id":"12eb4ac9-8e68-4281-be88-daa574912f85","system_id":"levelo_inurba_marseille","lat":43.283417,"lon":5.38113,"is_reserved":false,"is_disabled":false,"rental_uris":{"android":"levelo://app?vid=12eb4ac9-8e68-4281-be88-daa574912f85","ios":"levelo://app?vid=12eb4ac9-8e68-4281-be88-daa574912f85"},"vehicle_type_id":"4","last_reported":1778692020,"current_range_meters":8000,"station_id":"ce4bh412rcd13ifvqdr0","pricing_plan_id":"cebpf4jnsgd1na2vs0mg"},{"bike_id":"3de88e1c-3cec-48cd-a993-779c81bfbe2b","system_id":"levelo_inurba_marseille","lat":43.29987,"lon":5.38492,"is_reserved":false,"is_disabled":false,"rental_uris":{"android":"levelo://app?vid=3de88e1c-3cec-48cd-a993-779c81bfbe2b","ios":"levelo://app?vid=3de88e1c-3cec-48cd-a993-779c81bfbe2b"},"vehicle_type_id":"4","last_reported":1778692020,"current_range_meters":8000,"station_id":"ce4bgj92rcd13ifvqbd0","pricing_plan_id":"cebpf4jnsgd1na2vs0mg"},{"bike_id":"e0e3f93f-16e8-4b39-b089-98387a4c334d","system_id":"levelo_inurba_marseille","lat":43.33534,"lon":5.37463,"is_reserved":false,"is_disabled":false,"rental_uris":{"android":"levelo://app?vid=e0e3f93f-16e8-4b39-b089-98387a4c334d","ios":"levelo://app?vid=e0e3f93f-16e8-4b39-b089-98387a4c334d"},"vehicle_type_id":"4","last_reported":1778692020,"current_range_meters":8000,"station_id":"st_d46tts09ee8s73dlu43g","pricing_plan_id":"cebpf4jnsgd1na2vs0mg"},{"bike_id":"4751127d-3aa2-446e-8601-6629ed659fa5","system_id":"levelo_inurba_marseille","lat":43.2256,"lon":5.41616,"is_reserved":false,"is_disabled":false,"rental_uris":{"android":"levelo://app?vid=4751127d-3aa2-446e-8601-6629ed659fa5","ios":"levelo://app?vid=4751127d-3aa2-446e-8601-6629ed659fa5"},"vehicle_type_id":"4","last_reported":1778692020,"current_range_meters":8000,"station_id":"st_d2o4gvlbi1j2169b742g","pricing_plan_id":"cebpf4jnsgd1na2vs0mg"},{"bike_id":"81024744-39a7-4671-8896-502703aa22e9","system_id":"levelo_inurba_marseille","lat":43.29524,"lon":5.38527,"is_reserved":false,"is_disabled":false,"rental_uris":{"android":"levelo://app?vid=81024744-39a7-4671-8896-502703aa22e9","ios":"levelo://app?vid=81024744-39a7-4671-8896-502703aa22e9"},"vehicle_type_id":"4","last_reported":1778692020,"current_range_meters":8000,"station_id":"ce4bgih2rcd13ifvqba0","pricing_plan_id":"cebpf4jnsgd1na2vs0mg"},{"bike_id":"a837d482-82b4-4861-96d6-d582d4fa0838","system_id":"levelo_inurba_marseille","lat":43.2396,"lon":5.36643,"is_reserved":false,"is_disabled":false,"rental_uris":{"android":"levelo://app?vid=a837d482-82b4-4861-96d6-d582d4fa0838","ios":"levelo://app?vid=a837d482-82b4-4861-96d6-d582d4fa0838"},"vehicle_type_id":"4","last_reported":1778692020,"current_range_meters":8000,"station_id":"ce4bhi12rcd13ifvqfp0","pricing_plan_id":"cebpf4jnsgd1na2vs0mg"},{"bike_id":"3c6f04ad-b77c-488c-a6a4-2a4c4e95fb7a","system_id":"levelo_inurba_marseille","lat":43.28348,"lon":5.38107,"is_reserved":false,"is_disabled":false,"rental_uris":{"android":"levelo://app?vid=3c6f04ad-b77c-488c-a6a4-2a4c4e95fb7a","ios":"levelo://app?vid=3c6f04ad-b77c-488c-a6a4-2a4c4e95fb7a"},"vehicle_type_id":"4","last_reported":1778692020,"current_range_meters":8000,"station_id":"ce4bh412rcd13ifvqdr0","pricing_plan_id":"cebpf4jnsgd1na2vs0mg"},{"bike_id":"1dee72ea-cbbb-4f0f-b373-7962e2bff9d2","system_id":"levelo_inurba_marseille","lat":43.24642,"lon":5.38975,"is_reserved":false,"is_disabled":false,"rental_uris":{"android":"levelo://app?vid=1dee72ea-cbbb-4f0f-b373-7962e2bff9d2","ios":"levelo://app?vid=1dee72ea-cbbb-4f0f-b373-7962e2bff9d2"},"vehicle_type_id":"4","last_reported":1778692020,"current_range_meters":8000,"station_id":"","pricing_plan_id":"cebpf4jnsgd1na2vs0mg"},{"bike_id":"a0606dcd-56a2-486d-a97d-ece2bbdc6e78","system_id":"levelo_inurba_marseille","lat":43.33165,"lon":5.3773,"is_reserved":false,"is_disabled":false,"rental_uris":{"android":"levelo://app?vid=a0606dcd-56a2-486d-a97d-ece2bbdc6e78","ios":"levelo://app?vid=a0606dcd-56a2-486d-a97d-ece2bbdc6e78"},"vehicle_type_id":"4","last_reported":1778692020,"current_range_meters":8400,"station_id":"st_d46cu089ee8s73dldbu0","pricing_plan_id":"cebpf4jnsgd1na2vs0mg"},{"bike_id":"8c213e32-c8d9-4960-bc93-fa01f8be8240","system_id":"levelo_inurba_marseille","lat":43.31041,"lon":5.37182,"is_reserved":false,"is_disabled":false,"rental_uris":{"android":"levelo://app?vid=8c213e32-c8d9-4960-bc93-fa01f8be8240","ios":"levelo://app?vid=8c213e32-c8d9-4960-bc93-fa01f8be8240"},"vehicle_type_id":"4","last_reported":1778692020,"current_range_meters":8400,"station_id":"st_d4kl2rp97mjs73e7tdfg","pricing_plan_id":"cebpf4jnsgd1na2vs0mg"},{"bike_id":"3baf60fe-0260-4ac0-9a4d-b71fdd4d99a9","system_id":"levelo_inurba_marseille","lat":43.3168,"lon":5.40473,"is_reserved":false,"is_disabled":false,"rental_uris":{"android":"levelo://app?vid=3baf60fe-0260-4ac0-9a4d-b71fdd4d99a9","ios":"levelo://app?vid=3baf60fe-0260-4ac0-9a4d-b71fdd4d99a9"},"vehicle_type_id":"4","last_reported":1778692020,"current_range_meters":8400,"station_id":"ce4bh012rcd13ifvqd00","pricing_plan_id":"cebpf4jnsgd1na2vs0mg"},{"bike_id":"f10c18c3-c4d2-4e79-902d-64e472387bad","system_id":"levelo_inurba_marseille","lat":43.28981,"lon":5.37841,"is_reserved":false,"is_disabled":true,"rental_uris":{"android":"levelo://app?vid=f10c18c3-c4d2-4e79-902d-64e472387bad","ios":"levelo://app?vid=f10c18c3-c4d2-4e79-902d-64e472387bad"},"vehicle_type_id":"4","last_reported":1778692020,"current_range_meters":8400,"station_id":"ce4bh9p2rcd13ifvqed0","pricing_plan_id":"cebpf4jnsgd1na2vs0mg"},{"bike_id":"54335d2b-a00f-4a45-8b0d-61893da24f1e","system_id":"levelo_inurba_marseille","lat":43.27618,"lon":5.36108,"is_reserved":false,"is_disabled":false,"rental_uris":{"android":"levelo://app?vid=54335d2b-a00f-4a45-8b0d-61893da24f1e","ios":"levelo://app?vid=54335d2b-a00f-4a45-8b0d-61893da24f1e"},"vehicle_type_id":"4","last_reported":1778692020,"current_range_meters":8400,"station_id":"ce4bgj92rcd13ifvqbe0","pricing_plan_id":"cebpf4jnsgd1na2vs0mg"},{"bike_id":"ed4c3f2a-5d31-4810-95b1-c0338c5b21d1","system_id":"levelo_inurba_marseille","lat":43.337742,"lon":5.374345,"is_reserved":false,"is_disabled":false,"rental_uris":{"android":"levelo://app?vid=ed4c3f2a-5d31-4810-95b1-c0338c5b21d1","ios":"levelo://app?vid=ed4c3f2a-5d31-4810-95b1-c0338c5b21d1"},"vehicle_type_id":"4","last_reported":1778692020,"current_range_meters":8400,"station_id":"","pricing_plan_id":"cebpf4jnsgd1na2vs0mg"},{"bike_id":"b1f85c10-3a72-4895-b4df-4b7782abd0b1","system_id":"levelo_inurba_marseille","lat":43.28532,"lon":5.44097,"is_reserved":false,"is_disabled":false,"rental_uris":{"android":"levelo://app?vid=b1f85c10-3a72-4895-b4df-4b7782abd0b1","ios":"levelo://app?vid=b1f85c10-3a72-4895-b4df-4b7782abd0b1"},"vehicle_type_id":"4","last_reported":1778692020,"current_range_meters":8400,"station_id":"st_d3j3df2ikq2c7380ej80","pricing_plan_id":"cebpf4jnsgd1na2vs0mg"},{"bike_id":"bba60722-2030-4ae6-a920-7244cb3a2d9e","system_id":"levelo_inurba_marseille","lat":43.26556,"lon":5.37277,"is_reserved":false,"is_disabled":false,"rental_uris":{"android":"levelo://app?vid=bba60722-2030-4ae6-a920-7244cb3a2d9e","ios":"levelo://app?vid=bba60722-2030-4ae6-a920-7244cb3a2d9e"},"vehicle_type_id":"4","last_reported":1778692020,"current_range_meters":8400,"station_id":"ce4bhg12rcd13ifvqf70","pricing_plan_id":"cebpf4jnsgd1na2vs0mg"},{"bike_id":"cca1d82c-0eb6-46fd-9a26-94a084e3cf72","system_id":"levelo_inurba_marseille","lat":43.29527,"lon":5.38547,"is_reserved":false,"is_disabled":false,"rental_uris":{"android":"levelo://app?vid=cca1d82c-0eb6-46fd-9a26-94a084e3cf72","ios":"levelo://app?vid=cca1d82c-0eb6-46fd-9a26-94a084e3cf72"},"vehicle_type_id":"4","last_reported":1778692020,"current_range_meters":8400,"station_id":"ce4bgih2rcd13ifvqba0","pricing_plan_id":"cebpf4jnsgd1na2vs0mg"},{"bike_id":"50da3b66-89f4-4295-8d98-42d3179e7dd8","system_id":"levelo_inurba_marseille","lat":43.27915,"lon":5.39578,"is_reserved":false,"is_disabled":false,"rental_uris":{"android":"levelo://app?vid=50da3b66-89f4-4295-8d98-42d3179e7dd8","ios":"levelo://app?vid=50da3b66-89f4-4295-8d98-42d3179e7dd8"},"vehicle_type_id":"4","last_reported":1778692020,"current_range_meters":8400,"station_id":"ce4bhf92rcd13ifvqf40","pricing_plan_id":"cebpf4jnsgd1na2vs0mg"},{"bike_id":"0343112a-a190-4b9d-9ccb-4051c2b98241","system_id":"levelo_inurba_marseille","lat":43.31372,"lon":5.38495,"is_reserved":false,"is_disabled":false,"rental_uris":{"android":"levelo://app?vid=0343112a-a190-4b9d-9ccb-4051c2b98241","ios":"levelo://app?vid=0343112a-a190-4b9d-9ccb-4051c2b98241"},"vehicle_type_id":"4","last_reported":1778692020,"current_range_meters":8400,"station_id":"ce4bgt92rcd13ifvqcf0","pricing_plan_id":"cebpf4jnsgd1na2vs0mg"},{"bike_id":"fb152d9e-0b47-4b62-a19b-65afeed90d65","system_id":"levelo_inurba_marseille","lat":43.28827,"lon":5.35868,"is_reserved":false,"is_disabled":false,"rental_uris":{"android":"levelo://app?vid=fb152d9e-0b47-4b62-a19b-65afeed90d65","ios":"levelo://app?vid=fb152d9e-0b47-4b62-a19b-65afeed90d65"},"vehicle_type_id":"4","last_reported":1778692020,"current_range_meters":8400,"station_id":"ce4bhb12rcd13ifvqem0","pricing_plan_id":"cebpf4jnsgd1na2vs0mg"},{"bike_id":"94b9c4bc-7e00-4eb8-8cfe-8f907f0c2e67","system_id":"levelo_inurba_marseille","lat":43.33524,"lon":5.37471,"is_reserved":false,"is_disabled":false,"rental_uris":{"android":"levelo://app?vid=94b9c4bc-7e00-4eb8-8cfe-8f907f0c2e67","ios":"levelo://app?vid=94b9c4bc-7e00-4eb8-8cfe-8f907f0c2e67"},"vehicle_type_id":"4","last_reported":1778692020,"current_range_meters":8400,"station_id":"st_d46tts09ee8s73dlu43g","pricing_plan_id":"cebpf4jnsgd1na2vs0mg"},{"bike_id":"6dfcb1c5-0228-4961-8f82-5942333b94f3","system_id":"levelo_inurba_marseille","lat":43.28158,"lon":5.4265,"is_reserved":false,"is_disabled":false,"rental_uris":{"android":"levelo://app?vid=6dfcb1c5-0228-4961-8f82-5942333b94f3","ios":"levelo://app?vid=6dfcb1c5-0228-4961-8f82-5942333b94f3"},"vehicle_type_id":"4","last_reported":1778692020,"current_range_meters":8400,"station_id":"ce4bhnh2rcd13ifvqgug","pricing_plan_id":"cebpf4jnsgd1na2vs0mg"},{"bike_id":"314464de-d4c5-48a4-87d3-bcf47d66ea70","system_id":"levelo_inurba_marseille","lat":43.283455,"lon":5.381093,"is_reserved":false,"is_disabled":false,"rental_uris":{"android":"levelo://app?vid=314464de-d4c5-48a4-87d3-bcf47d66ea70","ios":"levelo://app?vid=314464de-d4c5-48a4-87d3-bcf47d66ea70"},"vehicle_type_id":"4","last_reported":1778692020,"current_range_meters":8400,"station_id":"ce4bh412rcd13ifvqdr0","pricing_plan_id":"cebpf4jnsgd1na2vs0mg"},{"bike_id":"24f9755c-98bf-4a00-bc57-70d96e11c52c","system_id":"levelo_inurba_marseille","lat":43.27144,"lon":5.41021,"is_reserved":false,"is_disabled":false,"rental_uris":{"android":"levelo://app?vid=24f9755c-98bf-4a00-bc57-70d96e11c52c","ios":"levelo://app?vid=24f9755c-98bf-4a00-bc57-70d96e11c52c"},"vehicle_type_id":"4","last_reported":1778692020,"current_range_meters":8800,"station_id":"ce4bhl12rcd13ifvqgf0","pricing_plan_id":"cebpf4jnsgd1na2vs0mg"},{"bike_id":"f996bb4c-e86c-4c45-b487-212831eac7fd","system_id":"levelo_inurba_marseille","lat":43.29977,"lon":5.38492,"is_reserved":false,"is_disabled":false,"rental_uris":{"android":"levelo://app?vid=f996bb4c-e86c-4c45-b487-212831eac7fd","ios":"levelo://app?vid=f996bb4c-e86c-4c45-b487-212831eac7fd"},"vehicle_type_id":"4","last_reported":1778692020,"current_range_meters":8800,"station_id":"ce4bgj92rcd13ifvqbd0","pricing_plan_id":"cebpf4jnsgd1na2vs0mg"},{"bike_id":"668a9b41-354e-4bee-bad3-4c0c0c7f49fe","system_id":"levelo_inurba_marseille","lat":43.27967,"lon":5.3874,"is_reserved":false,"is_disabled":true,"rental_uris":{"android":"levelo://app?vid=668a9b41-354e-4bee-bad3-4c0c0c7f49fe","ios":"levelo://app?vid=668a9b41-354e-4bee-bad3-4c0c0c7f49fe"},"vehicle_type_id":"4","last_reported":1778692020,"current_range_meters":8800,"station_id":"ce4bhg12rcd13ifvqf80","pricing_plan_id":"cebpf4jnsgd1na2vs0mg"},{"bike_id":"a37d1bc8-8490-4fa7-8d1b-a0ad4623e970","system_id":"levelo_inurba_marseille","lat":43.29872,"lon":5.39717,"is_reserved":false,"is_disabled":false,"rental_uris":{"android":"levelo://app?vid=a37d1bc8-8490-4fa7-8d1b-a0ad4623e970","ios":"levelo://app?vid=a37d1bc8-8490-4fa7-8d1b-a0ad4623e970"},"vehicle_type_id":"4","last_reported":1778692020,"current_range_meters":8800,"station_id":"ce4bh0h2rcd13ifvqd50","pricing_plan_id":"cebpf4jnsgd1na2vs0mg"},{"bike_id":"d42a7cf1-1fa2-40ee-b441-c73427ab11ef","system_id":"levelo_inurba_marseille","lat":43.23965,"lon":5.36632,"is_reserved":false,"is_disabled":false,"rental_uris":{"android":"levelo://app?vid=d42a7cf1-1fa2-40ee-b441-c73427ab11ef","ios":"levelo://app?vid=d42a7cf1-1fa2-40ee-b441-c73427ab11ef"},"vehicle_type_id":"4","last_reported":1778692020,"current_range_meters":8800,"station_id":"ce4bhi12rcd13ifvqfp0","pricing_plan_id":"cebpf4jnsgd1na2vs0mg"},{"bike_id":"14592ca4-73d5-4377-8507-ead18861fbf6","system_id":"levelo_inurba_marseille","lat":43.27962,"lon":5.38714,"is_reserved":false,"is_disabled":false,"rental_uris":{"android":"levelo://app?vid=14592ca4-73d5-4377-8507-ead18861fbf6","ios":"levelo://app?vid=14592ca4-73d5-4377-8507-ead18861fbf6"},"vehicle_type_id":"4","last_reported":1778692020,"current_range_meters":8800,"station_id":"ce4bhg12rcd13ifvqf80","pricing_plan_id":"cebpf4jnsgd1na2vs0mg"},{"bike_id":"ab0f8a6f-607b-4132-8d1a-1939b4f0a04d","system_id":"levelo_inurba_marseille","lat":43.24673,"lon":5.38805,"is_reserved":false,"is_disabled":false,"rental_uris":{"android":"levelo://app?vid=ab0f8a6f-607b-4132-8d1a-1939b4f0a04d","ios":"levelo://app?vid=ab0f8a6f-607b-4132-8d1a-1939b4f0a04d"},"vehicle_type_id":"4","last_reported":1778692020,"current_range_meters":8800,"station_id":"","pricing_plan_id":"cebpf4jnsgd1na2vs0mg"},{"bike_id":"66c6046f-3075-415e-aedf-764fdea9be89","system_id":"levelo_inurba_marseille","lat":43.24067,"lon":5.37753,"is_reserved":false,"is_disabled":false,"rental_uris":{"android":"levelo://app?vid=66c6046f-3075-415e-aedf-764fdea9be89","ios":"levelo://app?vid=66c6046f-3075-415e-aedf-764fdea9be89"},"vehicle_type_id":"4","last_reported":1778692020,"current_range_meters":8800,"station_id":"ce4bhnp2rcd13ifvqgvg","pricing_plan_id":"cebpf4jnsgd1na2vs0mg"},{"bike_id":"c461471f-f56d-4e3a-b231-826a57a8af51","system_id":"levelo_inurba_marseille","lat":43.29943,"lon":5.3747,"is_reserved":false,"is_disabled":false,"rental_uris":{"android":"levelo://app?vid=c461471f-f56d-4e3a-b231-826a57a8af51","ios":"levelo://app?vid=c461471f-f56d-4e3a-b231-826a57a8af51"},"vehicle_type_id":"4","last_reported":1778692020,"current_range_meters":8800,"station_id":"ce4bgjh2rcd13ifvqbg0","pricing_plan_id":"cebpf4jnsgd1na2vs0mg"},{"bike_id":"bdec0714-2661-4d5d-b0ca-dfb1e5acc403","system_id":"levelo_inurba_marseille","lat":43.21762,"lon":5.34608,"is_reserved":false,"is_disabled":true,"rental_uris":{"android":"levelo://app?vid=bdec0714-2661-4d5d-b0ca-dfb1e5acc403","ios":"levelo://app?vid=bdec0714-2661-4d5d-b0ca-dfb1e5acc403"},"vehicle_type_id":"4","last_reported":1778692020,"current_range_meters":8800,"station_id":"st_cvj6r9ubvosntc0bgbag","pricing_plan_id":"cebpf4jnsgd1na2vs0mg"},{"bike_id":"5161cb0b-cad3-4b3e-b1c2-444f323a0112","system_id":"levelo_inurba_marseille","lat":43.24798,"lon":5.40151,"is_reserved":false,"is_disabled":false,"rental_uris":{"android":"levelo://app?vid=5161cb0b-cad3-4b3e-b1c2-444f323a0112","ios":"levelo://app?vid=5161cb0b-cad3-4b3e-b1c2-444f323a0112"},"vehicle_type_id":"4","last_reported":1778692020,"current_range_meters":8800,"station_id":"","pricing_plan_id":"cebpf4jnsgd1na2vs0mg"},{"bike_id":"4a568d14-8b20-4b0f-a249-47ba1e0114bd","system_id":"levelo_inurba_marseille","lat":43.26215,"lon":5.37344,"is_reserved":false,"is_disabled":true,"rental_uris":{"android":"levelo://app?vid=4a568d14-8b20-4b0f-a249-47ba1e0114bd","ios":"levelo://app?vid=4a568d14-8b20-4b0f-a249-47ba1e0114bd"},"vehicle_type_id":"4","last_reported":1778692020,"current_range_meters":8800,"station_id":"","pricing_plan_id":"cebpf4jnsgd1na2vs0mg"},{"bike_id":"4d2f6501-f59d-42f5-8f2d-638fca42e820","system_id":"levelo_inurba_marseille","lat":43.28489,"lon":5.48379,"is_reserved":false,"is_disabled":false,"rental_uris":{"android":"levelo://app?vid=4d2f6501-f59d-42f5-8f2d-638fca42e820","ios":"levelo://app?vid=4d2f6501-f59d-42f5-8f2d-638fca42e820"},"vehicle_type_id":"4","last_reported":1778692020,"current_range_meters":8800,"station_id":"","pricing_plan_id":"cebpf4jnsgd1na2vs0mg"},{"bike_id":"54c752d5-cd69-4a10-8dab-a9996fcd6f6a","system_id":"levelo_inurba_marseille","lat":43.29022,"lon":5.38652,"is_reserved":false,"is_disabled":false,"rental_uris":{"android":"levelo://app?vid=54c752d5-cd69-4a10-8dab-a9996fcd6f6a","ios":"levelo://app?vid=54c752d5-cd69-4a10-8dab-a9996fcd6f6a"},"vehicle_type_id":"4","last_reported":1778692020,"current_range_meters":8800,"station_id":"ce4bh4p2rcd13ifvqe0g","pricing_plan_id":"cebpf4jnsgd1na2vs0mg"},{"bike_id":"191b3015-6fc5-4b14-813f-6fe359d5ceb3","system_id":"levelo_inurba_marseille","lat":43.23197,"lon":5.35561,"is_reserved":false,"is_disabled":false,"rental_uris":{"android":"levelo://app?vid=191b3015-6fc5-4b14-813f-6fe359d5ceb3","ios":"levelo://app?vid=191b3015-6fc5-4b14-813f-6fe359d5ceb3"},"vehicle_type_id":"4","last_reported":1778692020,"current_range_meters":8800,"station_id":"ce4bhu92rcd13ifvqi70","pricing_plan_id":"cebpf4jnsgd1na2vs0mg"},{"bike_id":"0964bc95-3503-4f72-8fdf-9131d7f8127e","system_id":"levelo_inurba_marseille","lat":43.30157,"lon":5.3885,"is_reserved":false,"is_disabled":false,"rental_uris":{"android":"levelo://app?vid=0964bc95-3503-4f72-8fdf-9131d7f8127e","ios":"levelo://app?vid=0964bc95-3503-4f72-8fdf-9131d7f8127e"},"vehicle_type_id":"4","last_reported":1778692020,"current_range_meters":8800,"station_id":"","pricing_plan_id":"cebpf4jnsgd1na2vs0mg"},{"bike_id":"5453f44a-1ef3-41e0-92a7-a34fe2ce5c03","system_id":"levelo_inurba_marseille","lat":43.26214,"lon":5.37434,"is_reserved":false,"is_disabled":false,"rental_uris":{"android":"levelo://app?vid=5453f44a-1ef3-41e0-92a7-a34fe2ce5c03","ios":"levelo://app?vid=5453f44a-1ef3-41e0-92a7-a34fe2ce5c03"},"vehicle_type_id":"4","last_reported":1778692020,"current_range_meters":8800,"station_id":"ce4bhgp2rcd13ifvqfc0","pricing_plan_id":"cebpf4jnsgd1na2vs0mg"},{"bike_id":"ab320e90-5f21-43ac-a9a5-0a24de8382db","system_id":"levelo_inurba_marseille","lat":43.26204,"lon":5.37445,"is_reserved":false,"is_disabled":false,"rental_uris":{"android":"levelo://app?vid=ab320e90-5f21-43ac-a9a5-0a24de8382db","ios":"levelo://app?vid=ab320e90-5f21-43ac-a9a5-0a24de8382db"},"vehicle_type_id":"4","last_reported":1778692020,"current_range_meters":8800,"station_id":"ce4bhgp2rcd13ifvqfc0","pricing_plan_id":"cebpf4jnsgd1na2vs0mg"},