{"last_updated":1729955271,"ttl":60,"version":"2.2","data":{"bikes":[{"bike_id":"c894f70f-2a6f-425b-ba00-c08216f3e7e3","system_id":"levelo_inurba_marseille","lat":43.29619,"lon":5.3717,"is_reserved":false,"is_disabled":false,"rental_uris":{"android":"levelo://app?vid=c894f70f-2a6f-425b-ba00-c08216f3e7e3","ios":"levelo://app?vid=c894f70f-2a6f-425b-ba00-c08216f3e7e3"},"vehicle_type_id":"4","last_reported":1729955272,"current_range_meters":38800,"station_id":"ce4bgnh2rcd13ifvqc0g","pricing_plan_id":"cebpf4jnsgd1na2vs0mg"},{"bike_id":"bfbee877-bc72-4bf6-b414-83080bae6a72","system_id":"levelo_inurba_marseille","lat":43.30295,"lon":5.3921,"is_reserved":false,"is_disabled":false,"rental_uris":{"android":"levelo://app?vid=bfbee877-bc72-4bf6-b414-83080bae6a72","ios":"levelo://app?vid=bfbee877-bc72-4bf6-b414-83080bae6a72"},"vehicle_type_id":"4","last_reported":1729955272,"current_range_meters":38800,"station_id":"ce4bgkh2rcd13ifvqbk0","pricing_plan_id":"cebpf4jnsgd1na2vs0mg"},{"bike_id":"d823a23a-2fbd-470a-80be-cad25f26315b","system_id":"levelo_inurba_marseille","lat":43.29932,"lon":5.36548,"is_reserved":false,"is_disabled":false,"rental_uris":{"android":"levelo://app?vid=d823a23a-2fbd-470a-80be-cad25f26315b","ios":"levelo://app?vid=d823a23a-2fbd-470a-80be-cad25f26315b"},"vehicle_type_id":"4","last_reported":1729955272,"current_range_meters":22800,"station_id":"ce4bgm92rcd13ifvqbr0","pricing_plan_id":"cebpf4jnsgd1na2vs0mg"},{"bike_id":"163eddd4-107c-441d-b897-daa82cca5a31","system_id":"levelo_inurba_marseille","lat":43.28079,"lon":5.39654,"is_reserved":false,"is_disabled":false,"rental_uris":{"android":"levelo://app?vid=163eddd4-107c-441d-b897-daa82cca5a31","ios":"levelo://app?vid=163eddd4-107c-441d-b897-daa82cca5a31"},"vehicle_type_id":"4","last_reported":1729955272,"current_range_meters":39200,"station_id":"ce4bho12rcd13ifvqh2g","pricing_plan_id":"cebpf4jnsgd1na2vs0mg"},{"bike_id":"5dc256a7-37e6-4e88-83a2-2c8d9179fe79","system_id":"levelo_inurba_marseille","lat":43.27211,"lon":5.39176,"is_reserved":false,"is_disabled":false,"rental_uris":{"android":"levelo://app?vid=5dc256a7-37e6-4e88-83a2-2c8d9179fe79","ios":"levelo://app?vid=5dc256a7-37e6-4e88-83a2-2c8d9179fe79"},"vehicle_type_id":"4","last_reported":1729955272,"current_range_meters":35200,"station_id":"ce4bhhp2rcd13ifvqfm0","pricing_plan_id":"cebpf4jnsgd1na2vs0mg"},{"bike_id":"26d518f2-e761-46eb-bc7c-d62463112389","system_id":"levelo_inurba_marseille","lat":43.29678,"lon":5.37293,"is_reserved":false,"is_disabled":false,"rental_uris":{"android":"levelo://app?vid=26d518f2-e761-46eb-bc7c-d62463112389","ios":"levelo://app?vid=26d518f2-e761-46eb-bc7c-d62463112389"},"vehicle_type_id":"4","last_reported":1729955272,"current_range_meters":38800,"station_id":"ce4bgk12rcd13ifvqbj0","pricing_plan_id":"cebpf4jnsgd1na2vs0mg"},{"bike_id":"48660d12-eacc-4f93-a06c-04c2aa9e37e4","system_id":"levelo_inurba_marseille","lat":43.268,"lon":5.40275,"is_reserved":false,"is_disabled":false,"rental_uris":{"android":"levelo://app?vid=48660d12-eacc-4f93-a06c-04c2aa9e37e4","ios":"levelo://app?vid=48660d12-eacc-4f93-a06c-04c2aa9e37e4"},"vehicle_type_id":"4","last_reported":1729955272,"current_range_meters":22800,"station_id":"ce501612rcd8frsf0b60","pricing_plan_id":"cebpf4jnsgd1na2vs0mg"},{"bike_id":"70c7e2a0-aae9-4f06-b379-488fa885b01c","system_id":"levelo_inurba_marseille","lat":43.29793,"lon":5.38087,"is_reserved":false,"is_disabled":false,"rental_uris":{"android":"levelo://app?vid=70c7e2a0-aae9-4f06-b379-488fa885b01c","ios":"levelo://app?vid=70c7e2a0-aae9-4f06-b379-488fa885b01c"},"vehicle_type_id":"4","last_reported":1729955272,"current_range_meters":38000,"station_id":"ce4bgip2rcd13ifvqbb0","pricing_plan_id":"cebpf4jnsgd1na2vs0mg"},{"bike_id":"3381cd79-1316-4c50-ad86-ee5056cd0e14","system_id":"levelo_inurba_marseille","lat":43.26067,"lon":5.39398,"is_reserved":false,"is_disabled":false,"rental_uris":{"android":"levelo://app?vid=3381cd79-1316-4c50-ad86-ee5056cd0e14","ios":"levelo://app?vid=3381cd79-1316-4c50-ad86-ee5056cd0e14"},"vehicle_type_id":"4","last_reported":1729955272,"current_range_meters":36000,"station_id":"ce4bhh92rcd13ifvqfj0","pricing_plan_id":"cebpf4jnsgd1na2vs0mg"},{"bike_id":"04690084-e349-43e2-9bc1-77b06607832e","system_id":"levelo_inurba_marseille","lat":43.2978,"lon":5.38108,"is_reserved":false,"is_disabled":false,"rental_uris":{"android":"levelo://app?vid=04690084-e349-43e2-9bc1-77b06607832e","ios":"levelo://app?vid=04690084-e349-43e2-9bc1-77b06607832e"},"vehicle_type_id":"4","last_reported":1729955272,"current_range_meters":22000,"station_id":"ce4bgip2rcd13ifvqbb0","pricing_plan_id":"cebpf4jnsgd1na2vs0mg"},{"bike_id":"237d3b48-9f57-4803-afc9-795d1c42e505","system_id":"levelo_inurba_marseille","lat":43.31064,"lon":5.3836,"is_reserved":false,"is_disabled":false,"rental_uris":{"android":"levelo://app?vid=237d3b48-9f57-4803-afc9-795d1c42e505","ios":"levelo://app?vid=237d3b48-9f57-4803-afc9-795d1c42e505"},"vehicle_type_id":"4","last_reported":1729955272,"current_range_meters":33200,"station_id":"ce4bgv92rcd13ifvqcr0","pricing_plan_id":"cebpf4jnsgd1na2vs0mg"},{"bike_id":"1aea71de-cd7d-41db-b11f-6e33a2520fbb","system_id":"levelo_inurba_marseille","lat":43.3047,"lon":5.37916,"is_reserved":false,"is_disabled":false,"rental_uris":{"android":"levelo://app?vid=1aea71de-cd7d-41db-b11f-6e33a2520fbb","ios":"levelo://app?vid=1aea71de-cd7d-41db-b11f-6e33a2520fbb"},"vehicle_type_id":"4","last_reported":1729955272,"current_range_meters":24000,"station_id":"ce4bgup2rcd13ifvqcn0","pricing_plan_id":"cebpf4jnsgd1na2vs0mg"},{"bike_id":"5dd6f00e-0457-43e9-8bdd-9f3b8e631a9a","system_id":"levelo_inurba_marseille","lat":43.31878,"lon":5.40739,"is_reserved":false,"is_disabled":false,"rental_uris":{"android":"levelo://app?vid=5dd6f00e-0457-43e9-8bdd-9f3b8e631a9a","ios":"levelo://app?vid=5dd6f00e-0457-43e9-8bdd-9f3b8e631a9a"},"vehicle_type_id":"4","last_reported":1729955272,"current_range_meters":27600,"station_id":"ce4bhq12rcd13ifvqhig","pricing_plan_id":"cebpf4jnsgd1na2vs0mg"},{"bike_id":"3cd8377e-3996-45b3-95b3-df34102fce7d","system_id":"levelo_inurba_marseille","lat":43.31327,"lon":5.39701,"is_reserved":false,"is_disabled":false,"rental_uris":{"android":"levelo://app?vid=3cd8377e-3996-45b3-95b3-df34102fce7d","ios":"levelo://app?vid=3cd8377e-3996-45b3-95b3-df34102fce7d"},"vehicle_type_id":"4","last_reported":1729955272,"current_range_meters":23200,"station_id":"ce4bgvp2rcd13ifvqcu0","pricing_plan_id":"cebpf4jnsgd1na2vs0mg"},{"bike_id":"29c56c7c-8fd6-4781-8214-06344a8a7c07","system_id":"levelo_inurba_marseille","lat":43.28852,"lon":5.39305,"is_reserved":false,"is_disabled":false,"rental_uris":{"android":"levelo://app?vid=29c56c7c-8fd6-4781-8214-06344a8a7c07","ios":"levelo://app?vid=29c56c7c-8fd6-4781-8214-06344a8a7c07"},"vehicle_type_id":"4","last_reported":1729955272,"current_range_meters":37600,"station_id":"ce4bh2p2rcd13ifvqdi0","pricing_plan_id":"cebpf4jnsgd1na2vs0mg"},{"bike_id":"8407034c-547e-4e26-bcdd-49baac3ee995","system_id":"levelo_inurba_marseille","lat":43.29044,"lon":5.3591,"is_reserved":false,"is_disabled":false,"rental_uris":{"android":"levelo://app?vid=8407034c-547e-4e26-bcdd-49baac3ee995","ios":"levelo://app?vid=8407034c-547e-4e26-bcdd-49baac3ee995"},"vehicle_type_id":"4","last_reported":1729955272,"current_range_meters":6800,"station_id":"ce4bha92rcd13ifvqeg0","pricing_plan_id":"cebpf4jnsgd1na2vs0mg"},{"bike_id":"0ea6f9fd-4415-4eeb-a22a-9248b4279230","system_id":"levelo_inurba_marseille","lat":43.28695,"lon":5.37386,"is_reserved":false,"is_disabled":false,"rental_uris":{"android":"levelo://app?vid=0ea6f9fd-4415-4eeb-a22a-9248b4279230","ios":"levelo://app?vid=0ea6f9fd-4415-4eeb-a22a-9248b4279230"},"vehicle_type_id":"4","last_reported":1729955272,"current_range_meters":33200,"station_id":"ce4bh3p2rcd13ifvqdq0","pricing_plan_id":"cebpf4jnsgd1na2vs0mg"},{"bike_id":"9ce7d8d9-bdc8-4d05-bd33-1698501743f9","system_id":"levelo_inurba_marseille","lat":43.290244,"lon":5.359214,"is_reserved":false,"is_disabled":false,"rental_uris":{"android":"levelo://app?vid=9ce7d8d9-bdc8-4d05-bd33-1698501743f9","ios":"levelo://app?vid=9ce7d8d9-bdc8-4d05-bd33-1698501743f9"},"vehicle_type_id":"4","last_reported":1729955272,"current_range_meters":20000,"station_id":"ce4bha92rcd13ifvqeg0","pricing_plan_id":"cebpf4jnsgd1na2vs0mg"},{"bike_id":"d35e5b6c-fb08-4a71-b70f-638bcfea4cf6","system_id":"levelo_inurba_marseille","lat":43.31272,"lon":5.40179,"is_reserved":false,"is_disabled":false,"rental_uris":{"android":"levelo://app?vid=d35e5b6c-fb08-4a71-b70f-638bcfea4cf6","ios":"levelo://app?vid=d35e5b6c-fb08-4a71-b70f-638bcfea4cf6"},"vehicle_type_id":"4","last_reported":1729955272,"current_range_meters":24400,"station_id":"ce4bh092rcd13ifvqd30","pricing_plan_id":"cebpf4jnsgd1na2vs0mg"},{"bike_id":"5de3cc0e-0363-46f9-9271-9ace2c22d289","system_id":"levelo_inurba_marseille","lat":43.303,"lon":5.39229,"is_reserved":false,"is_disabled":false,"rental_uris":{"android":"levelo://app?vid=5de3cc0e-0363-46f9-9271-9ace2c22d289","ios":"levelo://app?vid=5de3cc0e-0363-46f9-9271-9ace2c22d289"},"vehicle_type_id":"4","last_reported":1729955272,"current_range_meters":24800,"station_id":"ce4bgkh2rcd13ifvqbk0","pricing_plan_id":"cebpf4jnsgd1na2vs0mg"},{"bike_id":"633bdd84-8a27-486c-8d5a-62bd9dd56f9f","system_id":"levelo_inurba_marseille","lat":43.26934,"lon":5.40256,"is_reserved":false,"is_disabled":false,"rental_uris":{"android":"levelo://app?vid=633bdd84-8a27-486c-8d5a-62bd9dd56f9f","ios":"levelo://app?vid=633bdd84-8a27-486c-8d5a-62bd9dd56f9f"},"vehicle_type_id":"4","last_reported":1729955272,"current_range_meters":39200,"station_id":"cjm6bp8fraef2m0cb0m0","pricing_plan_id":"cebpf4jnsgd1na2vs0mg"},{"bike_id":"365042da-fe2f-49c8-bdd1-2a0373063ba3","system_id":"levelo_inurba_marseille","lat":43.29624,"lon":5.37172,"is_reserved":false,"is_disabled":false,"rental_uris":{"android":"levelo://app?vid=365042da-fe2f-49c8-bdd1-2a0373063ba3","ios":"levelo://app?vid=365042da-fe2f-49c8-bdd1-2a0373063ba3"},"vehicle_type_id":"4","last_reported":1729955272,"current_range_meters":30400,"station_id":"ce4bgnh2rcd13ifvqc0g","pricing_plan_id":"cebpf4jnsgd1na2vs0mg"},{"bike_id":"7ad5cee9-1700-4df5-9506-106d58079bca","system_id":"levelo_inurba_marseille","lat":43.2962,"lon":5.371493,"is_reserved":false,"is_disabled":false,"rental_uris":{"android":"levelo://app?vid=7ad5cee9-1700-4df5-9506-106d58079bca","ios":"levelo://app?vid=7ad5cee9-1700-4df5-9506-106d58079bca"},"vehicle_type_id":"4","last_reported":1729955272,"current_range_meters":38800,"station_id":"ce4bgnh2rcd13ifvqc0g","pricing_plan_id":"cebpf4jnsgd1na2vs0mg"},{"bike_id":"e2bbedfc-f711-45b1-a609-cff84f698200","system_id":"levelo_inurba_marseille","lat":43.30251,"lon":5.40062,"is_reserved":false,"is_disabled":false,"rental_uris":{"android":"levelo://app?vid=e2bbedfc-f711-45b1-a609-cff84f698200","ios":"levelo://app?vid=e2bbedfc-f711-45b1-a609-cff84f698200"},"vehicle_type_id":"4","last_reported":1729955272,"current_range_meters":38800,"station_id":"ce4bgvh2rcd13ifvqcs0","pricing_plan_id":"cebpf4jnsgd1na2vs0mg"},{"bike_id":"11e492af-0f20-42a0-8bbb-60a012ba0db6","system_id":"levelo_inurba_marseille","lat":43.26205,"lon":5.37446,"is_reserved":false,"is_disabled":false,"rental_uris":{"android":"levelo://app?vid=11e492af-0f20-42a0-8bbb-60a012ba0db6","ios":"levelo://app?vid=11e492af-0f20-42a0-8bbb-60a012ba0db6"},"vehicle_type_id":"4","last_reported":1729955272,"current_range_meters":38800,"station_id":"ce4bhgp2rcd13ifvqfc0","pricing_plan_id":"cebpf4jnsgd1na2vs0mg"},{"bike_id":"090d6208-0a1b-4739-846f-ee75a9ed97d4","system_id":"levelo_inurba_marseille","lat":43.27829,"lon":5.39211,"is_reserved":false,"is_disabled":false,"rental_uris":{"android":"levelo://app?vid=090d6208-0a1b-4739-846f-ee75a9ed97d4","ios":"levelo://app?vid=090d6208-0a1b-4739-846f-ee75a9ed97d4"},"vehicle_type_id":"4","last_reported":1729955272,"current_range_meters":38800,"station_id":"ce4bhjp2rcd13ifvqga0","pricing_plan_id":"cebpf4jnsgd1na2vs0mg"},{"bike_id":"69061c67-e1fd-456b-b275-09c3a20ec427","system_id":"levelo_inurba_marseille","lat":43.25868,"lon":5.39898,"is_reserved":false,"is_disabled":false,"rental_uris":{"android":"levelo://app?vid=69061c67-e1fd-456b-b275-09c3a20ec427","ios":"levelo://app?vid=69061c67-e1fd-456b-b275-09c3a20ec427"},"vehicle_type_id":"4","last_reported":1729955272,"current_range_meters":20800,"station_id":"ce4bhl92rcd13ifvqghg","pricing_plan_id":"cebpf4jnsgd1na2vs0mg"},{"bike_id":"37de12fa-1c57-49f3-b53b-1b8c4dc36e85","system_id":"levelo_inurba_marseille","lat":43.29579,"lon":5.36745,"is_reserved":false,"is_disabled":false,"rental_uris":{"android":"levelo://app?vid=37de12fa-1c57-49f3-b53b-1b8c4dc36e85","ios":"levelo://app?vid=37de12fa-1c57-49f3-b53b-1b8c4dc36e85"},"vehicle_type_id":"4","last_reported":1729955272,"current_range_meters":31200,"station_id":"ce4bgph2rcd13ifvqc2g","pricing_plan_id":"cebpf4jnsgd1na2vs0mg"},{"bike_id":"eb546d5a-3c55-44c5-88a2-f5b3aff69b62","system_id":"levelo_inurba_marseille","lat":43.25497,"lon":5.37651,"is_reserved":false,"is_disabled":false,"rental_uris":{"android":"levelo://app?vid=eb546d5a-3c55-44c5-88a2-f5b3aff69b62","ios":"levelo://app?vid=eb546d5a-3c55-44c5-88a2-f5b3aff69b62"},"vehicle_type_id":"4","last_reported":1729955272,"current_range_meters":38800,"station_id":"ce4bhh12rcd13ifvqff0","pricing_plan_id":"cebpf4jnsgd1na2vs0mg"},{"bike_id":"c8f33dbe-8d46-4679-b0bd-686b38e43e1d","system_id":"levelo_inurba_marseille","lat":43.24545,"lon":5.39525,"is_reserved":false,"is_disabled":false,"rental_uris":{"android":"levelo://app?vid=c8f33dbe-8d46-4679-b0bd-686b38e43e1d","ios":"levelo://app?vid=c8f33dbe-8d46-4679-b0bd-686b38e43e1d"},"vehicle_type_id":"4","last_reported":1729955272,"current_range_meters":34000,"station_id":"ce4bhlp2rcd13ifvqgjg","pricing_plan_id":"cebpf4jnsgd1na2vs0mg"},{"bike_id":"a589bf84-5e5c-4ff0-819d-b09734427918","system_id":"levelo_inurba_marseille","lat":43.28707,"lon":5.37947,"is_reserved":false,"is_disabled":false,"rental_uris":{"android":"levelo://app?vid=a589bf84-5e5c-4ff0-819d-b09734427918","ios":"levelo://app?vid=a589bf84-5e5c-4ff0-819d-b09734427918"},"vehicle_type_id":"4","last_reported":1729955272,"current_range_meters":20000,"station_id":"ce4bh9p2rcd13ifvqec0","pricing_plan_id":"cebpf4jnsgd1na2vs0mg"},{"bike_id":"d3f89709-ddc8-47ed-897a-e602854c5b14","system_id":"levelo_inurba_marseille","lat":43.30907,"lon":5.36848,"is_reserved":false,"is_disabled":false,"rental_uris":{"android":"levelo://app?vid=d3f89709-ddc8-47ed-897a-e602854c5b14","ios":"levelo://app?vid=d3f89709-ddc8-47ed-897a-e602854c5b14"},"vehicle_type_id":"4","last_reported":1729955272,"current_range_meters":38800,"station_id":"ce4bgn92rcd13ifvqbvg","pricing_plan_id":"cebpf4jnsgd1na2vs0mg"},{"bike_id":"8c0c2fa1-37f9-48f1-b246-0c1a1c47fbb2","system_id":"levelo_inurba_marseille","lat":43.26567,"lon":5.39014,"is_reserved":false,"is_disabled":false,"rental_uris":{"android":"levelo://app?vid=8c0c2fa1-37f9-48f1-b246-0c1a1c47fbb2","ios":"levelo://app?vid=8c0c2fa1-37f9-48f1-b246-0c1a1c47fbb2"},"vehicle_type_id":"4","last_reported":1729955272,"current_range_meters":8800,"station_id":"ce4bhe12rcd13ifvqf30","pricing_plan_id":"cebpf4jnsgd1na2vs0mg"},{"bike_id":"b4c1c861-a75e-46c9-86c7-2e2349bb876d","system_id":"levelo_inurba_marseille","lat":43.25574,"lon":5.38233,"is_reserved":false,"is_disabled":false,"rental_uris":{"android":"levelo://app?vid=b4c1c861-a75e-46c9-86c7-2e2349bb876d","ios":"levelo://app?vid=b4c1c861-a75e-46c9-86c7-2e2349bb876d"},"vehicle_type_id":"4","last_reported":1729955272,"current_range_meters":28000,"station_id":"ce4bhih2rcd13ifvqfs0","pricing_plan_id":"cebpf4jnsgd1na2vs0mg"},{"bike_id":"0197a995-14d6-405e-84ea-a3fa0187e008","system_id":"levelo_inurba_marseille","lat":43.26955,"lon":5.40241,"is_reserved":false,"is_disabled":false,"rental_uris":{"android":"levelo://app?vid=0197a995-14d6-405e-84ea-a3fa0187e008","ios":"levelo://app?vid=0197a995-14d6-405e-84ea-a3fa0187e008"},"vehicle_type_id":"4","last_reported":1729955272,"current_range_meters":38800,"station_id":"cjm6bp8fraef2m0cb0m0","pricing_plan_id":"cebpf4jnsgd1na2vs0mg"},{"bike_id":"e4749c9a-be4e-4ed6-a912-8903bab4c164","system_id":"levelo_inurba_marseille","lat":43.32477,"lon":5.36569,"is_reserved":false,"is_disabled":false,"rental_uris":{"android":"levelo://app?vid=e4749c9a-be4e-4ed6-a912-8903bab4c164","ios":"levelo://app?vid=e4749c9a-be4e-4ed6-a912-8903bab4c164"},"vehicle_type_id":"4","last_reported":1729955272,"current_range_meters":20800,"station_id":"ce4bhs12rcd13ifvqhvg","pricing_plan_id":"cebpf4jnsgd1na2vs0mg"},{"bike_id":"5a609602-a899-4d5b-bb32-12e931656763","system_id":"levelo_inurba_marseille","lat":43.29006,"lon":5.35622,"is_reserved":false,"is_disabled":false,"rental_uris":{"android":"levelo://app?vid=5a609602-a899-4d5b-bb32-12e931656763","ios":"levelo://app?vid=5a609602-a899-4d5b-bb32-12e931656763"},"vehicle_type_id":"4","last_reported":1729955272,"current_range_meters":10000,"station_id":"ce4bhb92rcd13ifvqen0","pricing_plan_id":"cebpf4jnsgd1na2vs0mg"},{"bike_id":"e6d3bcb8-2f97-4379-9ffc-70495f1bd10c","system_id":"levelo_inurba_marseille","lat":43.27315,"lon":5.39084,"is_reserved":false,"is_disabled":false,"rental_uris":{"android":"levelo://app?vid=e6d3bcb8-2f97-4379-9ffc-70495f1bd10c","ios":"levelo://app?vid=e6d3bcb8-2f97-4379-9ffc-70495f1bd10c"},"vehicle_type_id":"4","last_reported":1729955272,"current_range_meters":17600,"station_id":"ce4bhgp2rcd13ifvqfe0","pricing_plan_id":"cebpf4jnsgd1na2vs0mg"},{"bike_id":"1428b68b-d5ca-4e29-bbf3-ac3a33c51251","system_id":"levelo_inurba_marseille","lat":43.29528,"lon":5.38547,"is_reserved":false,"is_disabled":false,"rental_uris":{"android":"levelo://app?vid=1428b68b-d5ca-4e29-bbf3-ac3a33c51251","ios":"levelo://app?vid=1428b68b-d5ca-4e29-bbf3-ac3a33c51251"},"vehicle_type_id":"4","last_reported":1729955272,"current_range_meters":28000,"station_id":"ce4bgih2rcd13ifvqba0","pricing_plan_id":"cebpf4jnsgd1na2vs0mg"},{"bike_id":"5e5014a1-159f-47eb-bc85-47a631e37cf4","system_id":"levelo_inurba_marseille","lat":43.30259,"lon":5.40072,"is_reserved":false,"is_disabled":false,"rental_uris":{"android":"levelo://app?vid=5e5014a1-159f-47eb-bc85-47a631e37cf4","ios":"levelo://app?vid=5e5014a1-159f-47eb-bc85-47a631e37cf4"},"vehicle_type_id":"4","last_reported":1729955272,"current_range_meters":36800,"station_id":"ce4bgvh2rcd13ifvqcs0","pricing_plan_id":"cebpf4jnsgd1na2vs0mg"},{"bike_id":"373beb12-0cb8-4203-a7f1-f364e7fa360d","system_id":"levelo_inurba_marseille","lat":43.25578,"lon":5.38242,"is_reserved":false,"is_disabled":false,"rental_uris":{"android":"levelo://app?vid=373beb12-0cb8-4203-a7f1-f364e7fa360d","ios":"levelo://app?vid=373beb12-0cb8-4203-a7f1-f364e7fa360d"},"vehicle_type_id":"4","last_reported":1729955272,"current_range_meters":38800,"station_id":"ce4bhih2rcd13ifvqfs0","pricing_plan_id":"cebpf4jnsgd1na2vs0mg"},{"bike_id":"c25d9b60-5434-4e6f-b007-7ec2e900a21f","system_id":"levelo_inurba_marseille","lat":43.29311,"lon":5.37166,"is_reserved":false,"is_disabled":false,"rental_uris":{"android":"levelo://app?vid=c25d9b60-5434-4e6f-b007-7ec2e900a21f","ios":"levelo://app?vid=c25d9b60-5434-4e6f-b007-7ec2e900a21f"},"vehicle_type_id":"4","last_reported":1729955272,"current_range_meters":38400,"station_id":"ce4bgh92rcd13ifvqb40","pricing_plan_id":"cebpf4jnsgd1na2vs0mg"},{"bike_id":"e7360508-6978-487a-a79b-5e2dad5d0ea3","system_id":"levelo_inurba_marseille","lat":43.22928,"lon":5.3538,"is_reserved":false,"is_disabled":false,"rental_uris":{"android":"levelo://app?vid=e7360508-6978-487a-a79b-5e2dad5d0ea3","ios":"levelo://app?vid=e7360508-6978-487a-a79b-5e2dad5d0ea3"},"vehicle_type_id":"4","last_reported":1729955272,"current_range_meters":29600,"station_id":"cpo3532slgdg3j2ikp40","pricing_plan_id":"cebpf4jnsgd1na2vs0mg"},{"bike_id":"d9c06526-3274-4f8f-a488-6595da948d02","system_id":"levelo_inurba_marseille","lat":43.27211,"lon":5.39179,"is_reserved":false,"is_disabled":false,"rental_uris":{"android":"levelo://app?vid=d9c06526-3274-4f8f-a488-6595da948d02","ios":"levelo://app?vid=d9c06526-3274-4f8f-a488-6595da948d02"},"vehicle_type_id":"4","last_reported":1729955272,"current_range_meters":38000,"station_id":"ce4bhhp2rcd13ifvqfm0","pricing_plan_id":"cebpf4jnsgd1na2vs0mg"},{"bike_id":"e57a6bd6-ae0a-4fb9-8dcd-9092c10a8102","system_id":"levelo_inurba_marseille","lat":43.31172,"lon":5.38714,"is_reserved":false,"is_disabled":false,"rental_uris":{"android":"levelo://app?vid=e57a6bd6-ae0a-4fb9-8dcd-9092c10a8102","ios":"levelo://app?vid=e57a6bd6-ae0a-4fb9-8dcd-9092c10a8102"},"vehicle_type_id":"4","last_reported":1729955272,"current_range_meters":28400,"station_id":"ce4bgv12rcd13ifvqcp0","pricing_plan_id":"cebpf4jnsgd1na2vs0mg"},{"bike_id":"65a0b432-1bb9-4e43-a87c-f8817a6ed636","system_id":"levelo_inurba_marseille","lat":43.2408,"lon":5.37753,"is_reserved":false,"is_disabled":false,"rental_uris":{"android":"levelo://app?vid=65a0b432-1bb9-4e43-a87c-f8817a6ed636","ios":"levelo://app?vid=65a0b432-1bb9-4e43-a87c-f8817a6ed636"},"vehicle_type_id":"4","last_reported":1729955272,"current_range_meters":14400,"station_id":"ce4bhnp2rcd13ifvqgvg","pricing_plan_id":"cebpf4jnsgd1na2vs0mg"},{"bike_id":"cef8a6c5-52e4-4542-955f-8afe13b8a51c","system_id":"levelo_inurba_marseille","lat":43.299593,"lon":5.41322,"is_reserved":false,"is_disabled":false,"rental_uris":{"android":"levelo://app?vid=cef8a6c5-52e4-4542-955f-8afe13b8a51c","ios":"levelo://app?vid=cef8a6c5-52e4-4542-955f-8afe13b8a51c"},"vehicle_type_id":"4","last_reported":1729955272,"current_range_meters":37600,"station_id":"ce4bhp12rcd13ifvqh9g","pricing_plan_id":"cebpf4jnsgd1na2vs0mg"},{"bike_id":"3c74d177-f7d5-46aa-be7b-aa6de483a411","system_id":"levelo_inurba_marseille","lat":43.29971,"lon":5.37194,"is_reserved":false,"is_disabled":false,"rental_uris":{"android":"levelo://app?vid=3c74d177-f7d5-46aa-be7b-aa6de483a411","ios":"levelo://app?vid=3c74d177-f7d5-46aa-be7b-aa6de483a411"},"vehicle_type_id":"4","last_reported":1729955272,"current_range_meters":24400,"station_id":"ce4bgr92rcd13ifvqc7g","pricing_plan_id":"cebpf4jnsgd1na2vs0mg"},{"bike_id":"34c0b19e-e327-425b-bf09-25bec92dd9c4","system_id":"levelo_inurba_marseille","lat":43.29318,"lon":5.45472,"is_reserved":false,"is_disabled":false,"rental_uris":{"android":"levelo://app?vid=34c0b19e-e327-425b-bf09-25bec92dd9c4","ios":"levelo://app?vid=34c0b19e-e327-425b-bf09-25bec92dd9c4"},"vehicle_type_id":"4","last_reported":1729955272,"current_range_meters":16000,"station_id":"","pricing_plan_id":"cebpf4jnsgd1na2vs0mg"},{"bike_id":"778cb633-612d-4867-8516-254218b48069","system_id":"levelo_inurba_marseille","lat":43.29581,"lon":5.3675,"is_reserved":false,"is_disabled":false,"rental_uris":{"android":"levelo://app?vid=778cb633-612d-4867-8516-254218b48069","ios":"levelo://app?vid=778cb633-612d-4867-8516-254218b48069"},"vehicle_type_id":"4","last_reported":1729955272,"current_range_meters":38800,"station_id":"ce4bgph2rcd13ifvqc2g","pricing_plan_id":"cebpf4jnsgd1na2vs0mg"},{"bike_id":"65d9020f-e243-473b-8b0a-2119e175300d","system_id":"levelo_inurba_marseille","lat":43.29024,"lon":5.38132,"is_reserved":false,"is_disabled":false,"rental_uris":{"android":"levelo://app?vid=65d9020f-e243-473b-8b0a-2119e175300d","ios":"levelo://app?vid=65d9020f-e243-473b-8b0a-2119e175300d"},"vehicle_type_id":"4","last_reported":1729955272,"current_range_meters":24000,"station_id":"ce4bh4p2rcd13ifvqe1g","pricing_plan_id":"cebpf4jnsgd1na2vs0mg"},{"bike_id":"5063f4af-2df5-4a8d-971c-2e45b710db02","system_id":"levelo_inurba_marseille","lat":43.25573,"lon":5.38258,"is_reserved":false,"is_disabled":false,"rental_uris":{"android":"levelo://app?vid=5063f4af-2df5-4a8d-971c-2e45b710db02","ios":"levelo://app?vid=5063f4af-2df5-4a8d-971c-2e45b710db02"},"vehicle_type_id":"4","last_reported":1729955272,"current_range_meters":36800,"station_id":"ce4bhih2rcd13ifvqfs0","pricing_plan_id":"cebpf4jnsgd1na2vs0mg"},{"bike_id":"e16ba0fb-c8f9-4074-a1c8-ad626ad5602f","system_id":"levelo_inurba_marseille","lat":43.26938,"lon":5.40264,"is_reserved":false,"is_disabled":false,"rental_uris":{"android":"levelo://app?vid=e16ba0fb-c8f9-4074-a1c8-ad626ad5602f","ios":"levelo://app?vid=e16ba0fb-c8f9-4074-a1c8-ad626ad5602f"},"vehicle_type_id":"4","last_reported":1729955272,"current_range_meters":39200,"station_id":"cjm6bp8fraef2m0cb0m0","pricing_plan_id":"cebpf4jnsgd1na2vs0mg"},{"bike_id":"fad42251-2e99-4f0e-8106-075fc5b792cd","system_id":"levelo_inurba_marseille","lat":43.26195,"lon":5.37448,"is_reserved":false,"is_disabled":false,"rental_uris":{"android":"levelo://app?vid=fad42251-2e99-4f0e-8106-075fc5b792cd","ios":"levelo://app?vid=fad42251-2e99-4f0e-8106-075fc5b792cd"},"vehicle_type_id":"4","last_reported":1729955272,"current_range_meters":38400,"station_id":"ce4bhgp2rcd13ifvqfc0","pricing_plan_id":"cebpf4jnsgd1na2vs0mg"},{"bike_id":"cd6085f0-abe4-4e31-91e6-31eaf858a0e1","system_id":"levelo_inurba_marseille","lat":43.30955,"lon":5.39037,"is_reserved":false,"is_disabled":false,"rental_uris":{"android":"levelo://app?vid=cd6085f0-abe4-4e31-91e6-31eaf858a0e1","ios":"levelo://app?vid=cd6085f0-abe4-4e31-91e6-31eaf858a0e1"},"vehicle_type_id":"4","last_reported":1729955272,"current_range_meters":27200,"station_id":"ce4bgup2rcd13ifvqco0","pricing_plan_id":"cebpf4jnsgd1na2vs0mg"},{"bike_id":"0af0e312-de96-4aac-a837-ba38a5b162e6","system_id":"levelo_inurba_marseille","lat":43.29974,"lon":5.37183,"is_reserved":false,"is_disabled":false,"rental_uris":{"android":"levelo://app?vid=0af0e312-de96-4aac-a837-ba38a5b162e6","ios":"levelo://app?vid=0af0e312-de96-4aac-a837-ba38a5b162e6"},"vehicle_type_id":"4","last_reported":1729955272,"current_range_meters":30400,"station_id":"ce4bgr92rcd13ifvqc7g","pricing_plan_id":"cebpf4jnsgd1na2vs0mg"},{"bike_id":"43650981-6b24-4a34-b5e2-fd816b5645ae","system_id":"levelo_inurba_marseille","lat":43.29269,"lon":5.38444,"is_reserved":false,"is_disabled":false,"rental_uris":{"android":"levelo://app?vid=43650981-6b24-4a34-b5e2-fd816b5645ae","ios":"levelo://app?vid=43650981-6b24-4a34-b5e2-fd816b5645ae"},"vehicle_type_id":"4","last_reported":1729955272,"current_range_meters":33200,"station_id":"ce4bh692rcd13ifvqea0","pricing_plan_id":"cebpf4jnsgd1na2vs0mg"},{"bike_id":"604d5b6d-acaa-4b6f-a0c6-03fce7c32101","system_id":"levelo_inurba_marseille","lat":43.29796,"lon":5.38094,"is_reserved":false,"is_disabled":false,"rental_uris":{"android":"levelo://app?vid=604d5b6d-acaa-4b6f-a0c6-03fce7c32101","ios":"levelo://app?vid=604d5b6d-acaa-4b6f-a0c6-03fce7c32101"},"vehicle_type_id":"4","last_reported":1729955272,"current_range_meters":28400,"station_id":"ce4bgip2rcd13ifvqbb0","pricing_plan_id":"cebpf4jnsgd1na2vs0mg"},{"bike_id":"6875a1a6-32b9-4783-93f5-84a3a0c85f67","system_id":"levelo_inurba_marseille","lat":43.23063,"lon":5.35501,"is_reserved":false,"is_disabled":false,"rental_uris":{"android":"levelo://app?vid=6875a1a6-32b9-4783-93f5-84a3a0c85f67","ios":"levelo://app?vid=6875a1a6-32b9-4783-93f5-84a3a0c85f67"},"vehicle_type_id":"4","last_reported":1729955272,"current_range_meters":30000,"station_id":"cpo3342slgdg3j2ifvpg","pricing_plan_id":"cebpf4jnsgd1na2vs0mg"},{"bike_id":"6e3ac822-40c5-4ef0-8923-ff38f3a100d2","system_id":"levelo_inurba_marseille","lat":43.29849,"lon":5.36287,"is_reserved":false,"is_disabled":false,"rental_uris":{"android":"levelo://app?vid=6e3ac822-40c5-4ef0-8923-ff38f3a100d2","ios":"levelo://app?vid=6e3ac822-40c5-4ef0-8923-ff38f3a100d2"},"vehicle_type_id":"4","last_reported":1729955272,"current_range_meters":25600,"station_id":"ce4bgpp2rcd13ifvqc3g","pricing_plan_id":"cebpf4jnsgd1na2vs0mg"},{"bike_id":"889e4acd-dea2-4e5b-91ea-b561581ead61","system_id":"levelo_inurba_marseille","lat":43.2656,"lon":5.39006,"is_reserved":false,"is_disabled":false,"rental_uris":{"android":"levelo://app?vid=889e4acd-dea2-4e5b-91ea-b561581ead61","ios":"levelo://app?vid=889e4acd-dea2-4e5b-91ea-b561581ead61"},"vehicle_type_id":"4","last_reported":1729955272,"current_range_meters":38800,"station_id":"ce4bhe12rcd13ifvqf30","pricing_plan_id":"cebpf4jnsgd1na2vs0mg"},{"bike_id":"dc690ca7-52fc-47f8-a2bd-076e56f966ed","system_id":"levelo_inurba_marseille","lat":43.27051,"lon":5.4026,"is_reserved":false,"is_disabled":false,"rental_uris":{"android":"levelo://app?vid=dc690ca7-52fc-47f8-a2bd-076e56f966ed","ios":"levelo://app?vid=dc690ca7-52fc-47f8-a2bd-076e56f966ed"},"vehicle_type_id":"4","last_reported":1729955272,"current_range_meters":37600,"station_id":"ce4bhk92rcd13ifvqgc0","pricing_plan_id":"cebpf4jnsgd1na2vs0mg"},{"bike_id":"3a9bfb16-0c1d-4441-a397-be908d793bb9","system_id":"levelo_inurba_marseille","lat":43.2549,"lon":5.37649,"is_reserved":false,"is_disabled":false,"rental_uris":{"android":"levelo://app?vid=3a9bfb16-0c1d-4441-a397-be908d793bb9","ios":"levelo://app?vid=3a9bfb16-0c1d-4441-a397-be908d793bb9"},"vehicle_type_id":"4","last_reported":1729955272,"current_range_meters":30800,"station_id":"ce4bhh12rcd13ifvqff0","pricing_plan_id":"cebpf4jnsgd1na2vs0mg"},{"bike_id":"4ddcf968-2e32-4a54-bc25-d63dcfe41b56","system_id":"levelo_inurba_marseille","lat":43.26559,"lon":5.37285,"is_reserved":false,"is_disabled":false,"rental_uris":{"android":"levelo://app?vid=4ddcf968-2e32-4a54-bc25-d63dcfe41b56","ios":"levelo://app?vid=4ddcf968-2e32-4a54-bc25-d63dcfe41b56"},"vehicle_type_id":"4","last_reported":1729955272,"current_range_meters":36000,"station_id":"ce4bhg12rcd13ifvqf70","pricing_plan_id":"cebpf4jnsgd1na2vs0mg"},{"bike_id":"6a9605e0-96ca-4a9a-8766-aeb6b6bd0e72","system_id":"levelo_inurba_marseille","lat":43.29974,"lon":5.38497,"is_reserved":false,"is_disabled":false,"rental_uris":{"android":"levelo://app?vid=6a9605e0-96ca-4a9a-8766-aeb6b6bd0e72","ios":"levelo://app?vid=6a9605e0-96ca-4a9a-8766-aeb6b6bd0e72"},"vehicle_type_id":"4","last_reported":1729955272,"current_range_meters":38800,"station_id":"ce4bgj92rcd13ifvqbd0","pricing_plan_id":"cebpf4jnsgd1na2vs0mg"},{"bike_id":"c1ddeb58-5e9b-4c63-9ddb-573356e18aa1","system_id":"levelo_inurba_marseille","lat":43.32657,"lon":5.4099,"is_reserved":false,"is_disabled":false,"rental_uris":{"android":"levelo://app?vid=c1ddeb58-5e9b-4c63-9ddb-573356e18aa1","ios":"levelo://app?vid=c1ddeb58-5e9b-4c63-9ddb-573356e18aa1"},"vehicle_type_id":"4","last_reported":1729955272,"current_range_meters":38800,"station_id":"ce4bhpp2rcd13ifvqhgg","pricing_plan_id":"cebpf4jnsgd1na2vs0mg"},{"bike_id":"272108ab-c66d-4277-b942-346fbf20d819","system_id":"levelo_inurba_marseille","lat":43.30351,"lon":5.4188,"is_reserved":false,"is_disabled":false,"rental_uris":{"android":"levelo://app?vid=272108ab-c66d-4277-b942-346fbf20d819","ios":"levelo://app?vid=272108ab-c66d-4277-b942-346fbf20d819"},"vehicle_type_id":"4","last_reported":1729955272,"current_range_meters":11600,"station_id":"ce4bhop2rcd13ifvqh7g","pricing_plan_id":"cebpf4jnsgd1na2vs0mg"},{"bike_id":"d4dbb103-b4d9-4e96-8ae8-a3fef8c9dbdf","system_id":"levelo_inurba_marseille","lat":43.31756,"lon":5.3902,"is_reserved":false,"is_disabled":false,"rental_uris":{"android":"levelo://app?vid=d4dbb103-b4d9-4e96-8ae8-a3fef8c9dbdf","ios":"levelo://app?vid=d4dbb103-b4d9-4e96-8ae8-a3fef8c9dbdf"},"vehicle_type_id":"4","last_reported":1729955272,"current_range_meters":16400,"station_id":"ce4bhqp2rcd13ifvqhng","pricing_plan_id":"cebpf4jnsgd1na2vs0mg"},{"bike_id":"72d4fe02-7ad5-4cd4-aa12-822b9a78e2cb","system_id":"levelo_inurba_marseille","lat":43.30928,"lon":5.40149,"is_reserved":false,"is_disabled":false,"rental_uris":{"android":"levelo://app?vid=72d4fe02-7ad5-4cd4-aa12-822b9a78e2cb","ios":"levelo://app?vid=72d4fe02-7ad5-4cd4-aa12-822b9a78e2cb"},"vehicle_type_id":"4","last_reported":1729955272,"current_range_meters":38800,"station_id":"ce4bgvp2rcd13ifvqct0","pricing_plan_id":"cebpf4jnsgd1na2vs0mg"},{"bike_id":"36ded992-f5f7-4a94-bcc7-77f2b25d1af8","system_id":"levelo_inurba_marseille","lat":43.27208,"lon":5.39183,"is_reserved":false,"is_disabled":false,"rental_uris":{"android":"levelo://app?vid=36ded992-f5f7-4a94-bcc7-77f2b25d1af8","ios":"levelo://app?vid=36ded992-f5f7-4a94-bcc7-77f2b25d1af8"},"vehicle_type_id":"4","last_reported":1729955272,"current_range_meters":33200,"station_id":"ce4bhhp2rcd13ifvqfm0","pricing_plan_id":"cebpf4jnsgd1na2vs0mg"},{"bike_id":"03c3662f-d9b5-485a-8a89-75c166e95f18","system_id":"levelo_inurba_marseille","lat":43.30151,"lon":5.38085,"is_reserved":false,"is_disabled":false,"rental_uris":{"android":"levelo://app?vid=03c3662f-d9b5-485a-8a89-75c166e95f18","ios":"levelo://app?vid=03c3662f-d9b5-485a-8a89-75c166e95f18"},"vehicle_type_id":"4","last_reported":1729955272,"current_range_meters":27200,"station_id":"ce4bgjp2rcd13ifvqbh0","pricing_plan_id":"cebpf4jnsgd1na2vs0mg"},{"bike_id":"6a3f9473-1b87-4324-b961-a3969195379a","system_id":"levelo_inurba_marseille","lat":43.24072,"lon":5.37761,"is_reserved":false,"is_disabled":false,"rental_uris":{"android":"levelo://app?vid=6a3f9473-1b87-4324-b961-a3969195379a","ios":"levelo://app?vid=6a3f9473-1b87-4324-b961-a3969195379a"},"vehicle_type_id":"4","last_reported":1729955272,"current_range_meters":18800,"station_id":"ce4bhnp2rcd13ifvqgvg","pricing_plan_id":"cebpf4jnsgd1na2vs0mg"},{"bike_id":"635bb98c-e0ea-429e-a2b5-6fdb29ef8960","system_id":"levelo_inurba_marseille","lat":43.28151,"lon":5.4264,"is_reserved":false,"is_disabled":false,"rental_uris":{"android":"levelo://app?vid=635bb98c-e0ea-429e-a2b5-6fdb29ef8960","ios":"levelo://app?vid=635bb98c-e0ea-429e-a2b5-6fdb29ef8960"},"vehicle_type_id":"4","last_reported":1729955272,"current_range_meters":38800,"station_id":"ce4bhnh2rcd13ifvqgug","pricing_plan_id":"cebpf4jnsgd1na2vs0mg"},{"bike_id":"b00ff3f0-eb85-4cae-8041-4372fdfdcda6","system_id":"levelo_inurba_marseille","lat":43.27313,"lon":5.39095,"is_reserved":false,"is_disabled":false,"rental_uris":{"android":"levelo://app?vid=b00ff3f0-eb85-4cae-8041-4372fdfdcda6","ios":"levelo://app?vid=b00ff3f0-eb85-4cae-8041-4372fdfdcda6"},"vehicle_type_id":"4","last_reported":1729955272,"current_range_meters":3200,"station_id":"ce4bhgp2rcd13ifvqfe0","pricing_plan_id":"cebpf4jnsgd1na2vs0mg"},{"bike_id":"768c002b-6fe9-48c4-8e88-4b7a21cb445a","system_id":"levelo_inurba_marseille","lat":43.27206,"lon":5.39186,"is_reserved":false,"is_disabled":false,"rental_uris":{"android":"levelo://app?vid=768c002b-6fe9-48c4-8e88-4b7a21cb445a","ios":"levelo://app?vid=768c002b-6fe9-48c4-8e88-4b7a21cb445a"},"vehicle_type_id":"4","last_reported":1729955272,"current_range_meters":22800,"station_id":"ce4bhhp2rcd13ifvqfm0","pricing_plan_id":"cebpf4jnsgd1na2vs0mg"},{"bike_id":"432fb7e4-1044-445c-b19b-b39c459ca210","system_id":"levelo_inurba_marseille","lat":43.26063,"lon":5.39397,"is_reserved":false,"is_disabled":false,"rental_uris":{"android":"levelo://app?vid=432fb7e4-1044-445c-b19b-b39c459ca210","ios":"levelo://app?vid=432fb7e4-1044-445c-b19b-b39c459ca210"},"vehicle_type_id":"4","last_reported":1729955272,"current_range_meters":30000,"station_id":"ce4bhh92rcd13ifvqfj0","pricing_plan_id":"cebpf4jnsgd1na2vs0mg"},{"bike_id":"5cf5f756-b610-4ed9-9098-a6f30d1d9a20","system_id":"levelo_inurba_marseille","lat":43.31358,"lon":5.38499,"is_reserved":false,"is_disabled":false,"rental_uris":{"android":"levelo://app?vid=5cf5f756-b610-4ed9-9098-a6f30d1d9a20","ios":"levelo://app?vid=5cf5f756-b610-4ed9-9098-a6f30d1d9a20"},"vehicle_type_id":"4","last_reported":1729955272,"current_range_meters":25600,"station_id":"ce4bgt92rcd13ifvqcf0","pricing_plan_id":"cebpf4jnsgd1na2vs0mg"},{"bike_id":"b3507332-daf4-46b8-b043-cb8c84be67ff","system_id":"levelo_inurba_marseille","lat":43.28474,"lon":5.38422,"is_reserved":false,"is_disabled":false,"rental_uris":{"android":"levelo://app?vid=b3507332-daf4-46b8-b043-cb8c84be67ff","ios":"levelo://app?vid=b3507332-daf4-46b8-b043-cb8c84be67ff"},"vehicle_type_id":"4","last_reported":1729955272,"current_range_meters":32800,"station_id":"ce4bh512rcd13ifvqe3g","pricing_plan_id":"cebpf4jnsgd1na2vs0mg"},{"bike_id":"ff1366e7-ee36-4e8f-bee4-6da896860a5a","system_id":"levelo_inurba_marseille","lat":43.31117,"lon":5.37776,"is_reserved":false,"is_disabled":false,"rental_uris":{"android":"levelo://app?vid=ff1366e7-ee36-4e8f-bee4-6da896860a5a","ios":"levelo://app?vid=ff1366e7-ee36-4e8f-bee4-6da896860a5a"},"vehicle_type_id":"4","last_reported":1729955272,"current_range_meters":20400,"station_id":"ce4bgt92rcd13ifvqcg0","pricing_plan_id":"cebpf4jnsgd1na2vs0mg"},{"bike_id":"ef136fa5-257b-4ee5-bd73-f0de7405e6ba","system_id":"levelo_inurba_marseille","lat":43.24539,"lon":5.39519,"is_reserved":false,"is_disabled":false,"rental_uris":{"android":"levelo://app?vid=ef136fa5-257b-4ee5-bd73-f0de7405e6ba","ios":"levelo://app?vid=ef136fa5-257b-4ee5-bd73-f0de7405e6ba"},"vehicle_type_id":"4","last_reported":1729955272,"current_range_meters":28800,"station_id":"ce4bhlp2rcd13ifvqgjg","pricing_plan_id":"cebpf4jnsgd1na2vs0mg"},{"bike_id":"10cf296e-79f7-40cc-86cc-e7320813f6d7","system_id":"levelo_inurba_marseille","lat":43.291668,"lon":5.371599,"is_reserved":false,"is_disabled":false,"rental_uris":{"android":"levelo://app?vid=10cf296e-79f7-40cc-86cc-e7320813f6d7","ios":"levelo://app?vid=10cf296e-79f7-40cc-86cc-e7320813f6d7"},"vehicle_type_id":"4","last_reported":1729955272,"current_range_meters":30800,"station_id":"ce4bha92rcd13ifvqeh0","pricing_plan_id":"cebpf4jnsgd1na2vs0mg"},{"bike_id":"cc02b216-0a04-476f-9654-691c1348372a","system_id":"levelo_inurba_marseille","lat":43.30351,"lon":5.36785,"is_reserved":false,"is_disabled":false,"rental_uris":{"android":"levelo://app?vid=cc02b216-0a04-476f-9654-691c1348372a","ios":"levelo://app?vid=cc02b216-0a04-476f-9654-691c1348372a"},"vehicle_type_id":"4","last_reported":1729955272,"current_range_meters":38800,"station_id":"","pricing_plan_id":"cebpf4jnsgd1na2vs0mg"},{"bike_id":"9488ca84-aa5e-4311-bde9-38d634703444","system_id":"levelo_inurba_marseille","lat":43.324848,"lon":5.365545,"is_reserved":false,"is_disabled":false,"rental_uris":{"android":"levelo://app?vid=9488ca84-aa5e-4311-bde9-38d634703444","ios":"levelo://app?vid=9488ca84-aa5e-4311-bde9-38d634703444"},"vehicle_type_id":"4","last_reported":1729955272,"current_range_meters":38000,"station_id":"ce4bhs12rcd13ifvqhvg","pricing_plan_id":"cebpf4jnsgd1na2vs0mg"},{"bike_id":"686bdaa2-2068-4612-a41d-ffad56ddfa7d","system_id":"levelo_inurba_marseille","lat":43.30125,"lon":5.36421,"is_reserved":false,"is_disabled":false,"rental_uris":{"android":"levelo://app?vid=686bdaa2-2068-4612-a41d-ffad56ddfa7d","ios":"levelo://app?vid=686bdaa2-2068-4612-a41d-ffad56ddfa7d"},"vehicle_type_id":"4","last_reported":1729955272,"current_range_meters":28400,"station_id":"ce4bgpp2rcd13ifvqc3g","pricing_plan_id":"cebpf4jnsgd1na2vs0mg"},{"bike_id":"709072c7-0987-4ae2-af28-396bcbd988c7","system_id":"levelo_inurba_marseille","lat":43.31529,"lon":5.38038,"is_reserved":false,"is_disabled":false,"rental_uris":{"android":"levelo://app?vid=709072c7-0987-4ae2-af28-396bcbd988c7","ios":"levelo://app?vid=709072c7-0987-4ae2-af28-396bcbd988c7"},"vehicle_type_id":"4","last_reported":1729955272,"current_range_meters":22800,"station_id":"ce4bhsp2rcd13ifvqi50","pricing_plan_id":"cebpf4jnsgd1na2vs0mg"},{"bike_id":"601916c5-3274-4e01-863c-d96df39ce3b1","system_id":"levelo_inurba_marseille","lat":43.26549,"lon":5.39013,"is_reserved":false,"is_disabled":false,"rental_uris":{"android":"levelo://app?vid=601916c5-3274-4e01-863c-d96df39ce3b1","ios":"levelo://app?vid=601916c5-3274-4e01-863c-d96df39ce3b1"},"vehicle_type_id":"4","last_reported":1729955272,"current_range_meters":36400,"station_id":"ce4bhe12rcd13ifvqf30","pricing_plan_id":"cebpf4jnsgd1na2vs0mg"},{"bike_id":"6d736b4c-eedb-4546-a8cf-895a3f0b2d72","system_id":"levelo_inurba_marseille","lat":43.261932,"lon":5.374475,"is_reserved":false,"is_disabled":false,"rental_uris":{"android":"levelo://app?vid=6d736b4c-eedb-4546-a8cf-895a3f0b2d72","ios":"levelo://app?vid=6d736b4c-eedb-4546-a8cf-895a3f0b2d72"},"vehicle_type_id":"4","last_reported":1729955272,"current_range_meters":16000,"station_id":"ce4bhgp2rcd13ifvqfc0","pricing_plan_id":"cebpf4jnsgd1na2vs0mg"},{"bike_id":"dc72e49c-b26a-401b-87fe-367cb03380d0","system_id":"levelo_inurba_marseille","lat":43.28082,"lon":5.3965,"is_reserved":false,"is_disabled":false,"rental_uris":{"android":"levelo://app?vid=dc72e49c-b26a-401b-87fe-367cb03380d0","ios":"levelo://app?vid=dc72e49c-b26a-401b-87fe-367cb03380d0"},"vehicle_type_id":"4","last_reported":1729955272,"current_range_meters":17200,"station_id":"ce4bho12rcd13ifvqh2g","pricing_plan_id":"cebpf4jnsgd1na2vs0mg"},{"bike_id":"ba4e57fc-0c15-4526-8606-39ac1aa2b0fa","system_id":"levelo_inurba_marseille","lat":43.29936,"lon":5.36542,"is_reserved":false,"is_disabled":false,"rental_uris":{"android":"levelo://app?vid=ba4e57fc-0c15-4526-8606-39ac1aa2b0fa","ios":"levelo://app?vid=ba4e57fc-0c15-4526-8606-39ac1aa2b0fa"},"vehicle_type_id":"4","last_reported":1729955272,"current_range_meters":27600,"station_id":"ce4bgm92rcd13ifvqbr0","pricing_plan_id":"cebpf4jnsgd1na2vs0mg"},{"bike_id":"1fafbe93-2ba4-4077-bfcf-7b3992b30a25","system_id":"levelo_inurba_marseille","lat":43.29551,"lon":5.42278,"is_reserved":false,"is_disabled":false,"rental_uris":{"android":"levelo://app?vid=1fafbe93-2ba4-4077-bfcf-7b3992b30a25","ios":"levelo://app?vid=1fafbe93-2ba4-4077-bfcf-7b3992b30a25"},"vehicle_type_id":"4","last_reported":1729955272,"current_range_meters":38800,"station_id":"ce4bhph2rcd13ifvqhdg","pricing_plan_id":"cebpf4jnsgd1na2vs0mg"},{"bike_id":"7b9bb9f6-2747-4f5c-a936-06f552492e45","system_id":"levelo_inurba_marseille","lat":43.3172,"lon":5.42403,"is_reserved":false,"is_disabled":false,"rental_uris":{"android":"levelo://app?vid=7b9bb9f6-2747-4f5c-a936-06f552492e45","ios":"levelo://app?vid=7b9bb9f6-2747-4f5c-a936-06f552492e45"},"vehicle_type_id":"4","last_reported":1729955272,"current_range_meters":38800,"station_id":"ce4bhp92rcd13ifvqhbg","pricing_plan_id":"cebpf4jnsgd1na2vs0mg"},{"bike_id":"4bafa726-86cb-40fe-9c0c-25741165ee73","system_id":"levelo_inurba_marseille","lat":43.29957,"lon":5.41319,"is_reserved":false,"is_disabled":false,"rental_uris":{"android":"levelo://app?vid=4bafa726-86cb-40fe-9c0c-25741165ee73","ios":"levelo://app?vid=4bafa726-86cb-40fe-9c0c-25741165ee73"},"vehicle_type_id":"4","last_reported":1729955272,"current_range_meters":17600,"station_id":"ce4bhp12rcd13ifvqh9g","pricing_plan_id":"cebpf4jnsgd1na2vs0mg"},{"bike_id":"8a55373d-8f54-4890-9729-5db301ba9fa0","system_id":"levelo_inurba_marseille","lat":43.25006,"lon":5.38912,"is_reserved":false,"is_disabled":false,"rental_uris":{"android":"levelo://app?vid=8a55373d-8f54-4890-9729-5db301ba9fa0","ios":"levelo://app?vid=8a55373d-8f54-4890-9729-5db301ba9fa0"},"vehicle_type_id":"4","last_reported":1729955272,"current_range_meters":36800,"station_id":"ce4bhgp2rcd13ifvqfd0","pricing_plan_id":"cebpf4jnsgd1na2vs0mg"},{"bike_id":"217b6992-770c-4501-bf46-01eca14ab494","system_id":"levelo_inurba_marseille","lat":43.29003,"lon":5.35613,"is_reserved":false,"is_disabled":false,"rental_uris":{"android":"levelo://app?vid=217b6992-770c-4501-bf46-01eca14ab494","ios":"levelo://app?vid=217b6992-770c-4501-bf46-01eca14ab494"},"vehicle_type_id":"4","last_reported":1729955272,"current_range_meters":39200,"station_id":"ce4bhb92rcd13ifvqen0","pricing_plan_id":"cebpf4jnsgd1na2vs0mg"},{"bike_id":"e113f747-4daa-44f7-a218-9e030daa2565","system_id":"levelo_inurba_marseille","lat":43.32112,"lon":5.36779,"is_reserved":false,"is_disabled":false,"rental_uris":{"android":"levelo://app?vid=e113f747-4daa-44f7-a218-9e030daa2565","ios":"levelo://app?vid=e113f747-4daa-44f7-a218-9e030daa2565"},"vehicle_type_id":"4","last_reported":1729955272,"current_range_meters":30000,"station_id":"ce4bhrh2rcd13ifvqhug","pricing_plan_id":"cebpf4jnsgd1na2vs0mg"},{"bike_id":"d824071b-a0d8-4c18-b7de-ef04381f0405","system_id":"levelo_inurba_marseille","lat":43.30951,"lon":5.3903,"is_reserved":false,"is_disabled":false,"rental_uris":{"android":"levelo://app?vid=d824071b-a0d8-4c18-b7de-ef04381f0405","ios":"levelo://app?vid=d824071b-a0d8-4c18-b7de-ef04381f0405"},"vehicle_type_id":"4","last_reported":1729955272,"current_range_meters":26800,"station_id":"ce4bgup2rcd13ifvqco0","pricing_plan_id":"cebpf4jnsgd1na2vs0mg"},{"bike_id":"7569b810-af8d-4c95-be87-76834cbad9fe","system_id":"levelo_inurba_marseille","lat":43.273,"lon":5.39088,"is_reserved":false,"is_disabled":false,"rental_uris":{"android":"levelo://app?vid=7569b810-af8d-4c95-be87-76834cbad9fe","ios":"levelo://app?vid=7569b810-af8d-4c95-be87-76834cbad9fe"},"vehicle_type_id":"4","last_reported":1729955272,"current_range_meters":24400,"station_id":"ce4bhgp2rcd13ifvqfe0","pricing_plan_id":"cebpf4jnsgd1na2vs0mg"},{"bike_id":"f52dc158-649d-4a31-90c8-1d3f191fd52c","system_id":"levelo_inurba_marseille","lat":43.27059,"lon":5.40265,"is_reserved":false,"is_disabled":false,"rental_uris":{"android":"levelo://app?vid=f52dc158-649d-4a31-90c8-1d3f191fd52c","ios":"levelo://app?vid=f52dc158-649d-4a31-90c8-1d3f191fd52c"},"vehicle_type_id":"4","last_reported":1729955272,"current_range_meters":5600,"station_id":"ce4bhk92rcd13ifvqgc0","pricing_plan_id":"cebpf4jnsgd1na2vs0mg"},{"bike_id":"c5342152-eaa7-4487-b5ac-2c3245f2bd54","system_id":"levelo_inurba_marseille","lat":43.28489,"lon":5.38425,"is_reserved":false,"is_disabled":false,"rental_uris":{"android":"levelo://app?vid=c5342152-eaa7-4487-b5ac-2c3245f2bd54","ios":"levelo://app?vid=c5342152-eaa7-4487-b5ac-2c3245f2bd54"},"vehicle_type_id":"4","last_reported":1729955272,"current_range_meters":18000,"station_id":"ce4bh512rcd13ifvqe3g","pricing_plan_id":"cebpf4jnsgd1na2vs0mg"},{"bike_id":"f4e57004-ef5f-457a-8a20-9f04755d3f5f","system_id":"levelo_inurba_marseille","lat":43.29025,"lon":5.35924,"is_reserved":false,"is_disabled":false,"rental_uris":{"android":"levelo://app?vid=f4e57004-ef5f-457a-8a20-9f04755d3f5f","ios":"levelo://app?vid=f4e57004-ef5f-457a-8a20-9f04755d3f5f"},"vehicle_type_id":"4","last_reported":1729955272,"current_range_meters":38800,"station_id":"ce4bha92rcd13ifvqeg0","pricing_plan_id":"cebpf4jnsgd1na2vs0mg"},{"bike_id":"bf291e7e-22e0-40c3-9fbf-804e4d125b27","system_id":"levelo_inurba_marseille","lat":43.25574,"lon":5.38232,"is_reserved":false,"is_disabled":false,"rental_uris":{"android":"levelo://app?vid=bf291e7e-22e0-40c3-9fbf-804e4d125b27","ios":"levelo://app?vid=bf291e7e-22e0-40c3-9fbf-804e4d125b27"},"vehicle_type_id":"4","last_reported":1729955272,"current_range_meters":19600,"station_id":"ce4bhih2rcd13ifvqfs0","pricing_plan_id":"cebpf4jnsgd1na2vs0mg"},{"bike_id":"704ff70b-3044-4cc0-a1b3-72bc6b15acdb","system_id":"levelo_inurba_marseille","lat":43.28474,"lon":5.38542,"is_reserved":false,"is_disabled":false,"rental_uris":{"android":"levelo://app?vid=704ff70b-3044-4cc0-a1b3-72bc6b15acdb","ios":"levelo://app?vid=704ff70b-3044-4cc0-a1b3-72bc6b15acdb"},"vehicle_type_id":"4","last_reported":1729955272,"current_range_meters":36800,"station_id":"ce4bh8p2rcd13ifvqeb0","pricing_plan_id":"cebpf4jnsgd1na2vs0mg"},{"bike_id":"cb176300-6569-4931-a7b5-26a3947ac35d","system_id":"levelo_inurba_marseille","lat":43.25007,"lon":5.38919,"is_reserved":false,"is_disabled":false,"rental_uris":{"android":"levelo://app?vid=cb176300-6569-4931-a7b5-26a3947ac35d","ios":"levelo://app?vid=cb176300-6569-4931-a7b5-26a3947ac35d"},"vehicle_type_id":"4","last_reported":1729955272,"current_range_meters":36400,"station_id":"ce4bhgp2rcd13ifvqfd0","pricing_plan_id":"cebpf4jnsgd1na2vs0mg"},{"bike_id":"e43250a0-561d-4773-8683-c787f286bf89","system_id":"levelo_inurba_marseille","lat":43.29527,"lon":5.37508,"is_reserved":false,"is_disabled":false,"rental_uris":{"android":"levelo://app?vid=e43250a0-561d-4773-8683-c787f286bf89","ios":"levelo://app?vid=e43250a0-561d-4773-8683-c787f286bf89"},"vehicle_type_id":"4","last_reported":1729955272,"current_range_meters":16800,"station_id":"ce4bgkp2rcd13ifvqbmg","pricing_plan_id":"cebpf4jnsgd1na2vs0mg"},{"bike_id":"523d5e30-d99b-4455-9945-c46e6c2aba5c","system_id":"levelo_inurba_marseille","lat":43.25823,"lon":5.39438,"is_reserved":false,"is_disabled":false,"rental_uris":{"android":"levelo://app?vid=523d5e30-d99b-4455-9945-c46e6c2aba5c","ios":"levelo://app?vid=523d5e30-d99b-4455-9945-c46e6c2aba5c"},"vehicle_type_id":"4","last_reported":1729955272,"current_range_meters":19600,"station_id":"ce4bhip2rcd13ifvqft0","pricing_plan_id":"cebpf4jnsgd1na2vs0mg"},{"bike_id":"361ec233-7c4e-4e69-a079-9345367740ac","system_id":"levelo_inurba_marseille","lat":43.30788,"lon":5.37654,"is_reserved":false,"is_disabled":false,"rental_uris":{"android":"levelo://app?vid=361ec233-7c4e-4e69-a079-9345367740ac","ios":"levelo://app?vid=361ec233-7c4e-4e69-a079-9345367740ac"},"vehicle_type_id":"4","last_reported":1729955272,"current_range_meters":38800,"station_id":"ce4bgv92rcd13ifvqcq0","pricing_plan_id":"cebpf4jnsgd1na2vs0mg"},{"bike_id":"a4cdb9e2-dcee-478e-b833-1e72009d3ae3","system_id":"levelo_inurba_marseille","lat":43.30414,"lon":5.41292,"is_reserved":false,"is_disabled":false,"rental_uris":{"android":"levelo://app?vid=a4cdb9e2-dcee-478e-b833-1e72009d3ae3","ios":"levelo://app?vid=a4cdb9e2-dcee-478e-b833-1e72009d3ae3"},"vehicle_type_id":"4","last_reported":1729955272,"current_range_meters":5600,"station_id":"ce4bhop2rcd13ifvqh8g","pricing_plan_id":"cebpf4jnsgd1na2vs0mg"},{"bike_id":"bc53a2bf-7061-4c55-b364-13afaab5401f","system_id":"levelo_inurba_marseille","lat":43.29256,"lon":5.38436,"is_reserved":false,"is_disabled":false,"rental_uris":{"android":"levelo://app?vid=bc53a2bf-7061-4c55-b364-13afaab5401f","ios":"levelo://app?vid=bc53a2bf-7061-4c55-b364-13afaab5401f"},"vehicle_type_id":"4","last_reported":1729955272,"current_range_meters":38000,"station_id":"ce4bh692rcd13ifvqea0","pricing_plan_id":"cebpf4jnsgd1na2vs0mg"},{"bike_id":"72e90ceb-ac3b-490c-bc09-52630704a7e9","system_id":"levelo_inurba_marseille","lat":43.33606,"lon":5.4104,"is_reserved":false,"is_disabled":false,"rental_uris":{"android":"levelo://app?vid=72e90ceb-ac3b-490c-bc09-52630704a7e9","ios":"levelo://app?vid=72e90ceb-ac3b-490c-bc09-52630704a7e9"},"vehicle_type_id":"4","last_reported":1729955272,"current_range_meters":16800,"station_id":"ce4bhqh2rcd13ifvqhmg","pricing_plan_id":"cebpf4jnsgd1na2vs0mg"},{"bike_id":"75bc418d-5fa4-4111-819c-79228dcd39de","system_id":"levelo_inurba_marseille","lat":43.2606,"lon":5.39401,"is_reserved":false,"is_disabled":false,"rental_uris":{"android":"levelo://app?vid=75bc418d-5fa4-4111-819c-79228dcd39de","ios":"levelo://app?vid=75bc418d-5fa4-4111-819c-79228dcd39de"},"vehicle_type_id":"4","last_reported":1729955272,"current_range_meters":14000,"station_id":"ce4bhh92rcd13ifvqfj0","pricing_plan_id":"cebpf4jnsgd1na2vs0mg"},{"bike_id":"d7ff7165-6d5c-4f76-865c-b2ea1a2a3c7a","system_id":"levelo_inurba_marseille","lat":43.27488,"lon":5.42458,"is_reserved":false,"is_disabled":false,"rental_uris":{"android":"levelo://app?vid=d7ff7165-6d5c-4f76-865c-b2ea1a2a3c7a","ios":"levelo://app?vid=d7ff7165-6d5c-4f76-865c-b2ea1a2a3c7a"},"vehicle_type_id":"4","last_reported":1729955272,"current_range_meters":10000,"station_id":"ce4bhn92rcd13ifvqgrg","pricing_plan_id":"cebpf4jnsgd1na2vs0mg"},{"bike_id":"d13cfe8d-6bc1-49c8-b259-26c297560ecd","system_id":"levelo_inurba_marseille","lat":43.29793,"lon":5.38091,"is_reserved":false,"is_disabled":false,"rental_uris":{"android":"levelo://app?vid=d13cfe8d-6bc1-49c8-b259-26c297560ecd","ios":"levelo://app?vid=d13cfe8d-6bc1-49c8-b259-26c297560ecd"},"vehicle_type_id":"4","last_reported":1729955272,"current_range_meters":39200,"station_id":"ce4bgip2rcd13ifvqbb0","pricing_plan_id":"cebpf4jnsgd1na2vs0mg"},{"bike_id":"8001b44d-9ab0-46f5-80ea-c34d9f92effc","system_id":"levelo_inurba_marseille","lat":43.26935,"lon":5.40258,"is_reserved":false,"is_disabled":false,"rental_uris":{"android":"levelo://app?vid=8001b44d-9ab0-46f5-80ea-c34d9f92effc","ios":"levelo://app?vid=8001b44d-9ab0-46f5-80ea-c34d9f92effc"},"vehicle_type_id":"4","last_reported":1729955272,"current_range_meters":39200,"station_id":"cjm6bp8fraef2m0cb0m0","pricing_plan_id":"cebpf4jnsgd1na2vs0mg"},{"bike_id":"ec1ef2fd-0187-4063-a08a-f08e31fd67e9","system_id":"levelo_inurba_marseille","lat":43.25004,"lon":5.38918,"is_reserved":false,"is_disabled":false,"rental_uris":{"android":"levelo://app?vid=ec1ef2fd-0187-4063-a08a-f08e31fd67e9","ios":"levelo://app?vid=ec1ef2fd-0187-4063-a08a-f08e31fd67e9"},"vehicle_type_id":"4","last_reported":1729955272,"current_range_meters":36000,"station_id":"ce4bhgp2rcd13ifvqfd0","pricing_plan_id":"cebpf4jnsgd1na2vs0mg"},{"bike_id":"59ed8918-3fc7-413c-93a8-450b612eafbf","system_id":"levelo_inurba_marseille","lat":43.3041,"lon":5.39757,"is_reserved":false,"is_disabled":false,"rental_uris":{"android":"levelo://app?vid=59ed8918-3fc7-413c-93a8-450b612eafbf","ios":"levelo://app?vid=59ed8918-3fc7-413c-93a8-450b612eafbf"},"vehicle_type_id":"4","last_reported":1729955272,"current_range_meters":36000,"station_id":"ce4bh092rcd13ifvqd20","pricing_plan_id":"cebpf4jnsgd1na2vs0mg"},{"bike_id":"cbcabeb5-30d3-4584-a023-dde477c0e5da","system_id":"levelo_inurba_marseille","lat":43.27674,"lon":5.3889,"is_reserved":false,"is_disabled":false,"rental_uris":{"android":"levelo://app?vid=cbcabeb5-30d3-4584-a023-dde477c0e5da","ios":"levelo://app?vid=cbcabeb5-30d3-4584-a023-dde477c0e5da"},"vehicle_type_id":"4","last_reported":1729955272,"current_range_meters":37600,"station_id":"ce4bhi12rcd13ifvqfo0","pricing_plan_id":"cebpf4jnsgd1na2vs0mg"},{"bike_id":"31554b55-47d7-43b1-ad82-9d997bccc8c1","system_id":"levelo_inurba_marseille","lat":43.30093,"lon":5.39081,"is_reserved":false,"is_disabled":false,"rental_uris":{"android":"levelo://app?vid=31554b55-47d7-43b1-ad82-9d997bccc8c1","ios":"levelo://app?vid=31554b55-47d7-43b1-ad82-9d997bccc8c1"},"vehicle_type_id":"4","last_reported":1729955272,"current_range_meters":27600,"station_id":"ce4bh192rcd13ifvqdb0","pricing_plan_id":"cebpf4jnsgd1na2vs0mg"},{"bike_id":"d24c2877-4f1f-42fe-869a-b02fa908b582","system_id":"levelo_inurba_marseille","lat":43.27973,"lon":5.3873,"is_reserved":false,"is_disabled":false,"rental_uris":{"android":"levelo://app?vid=d24c2877-4f1f-42fe-869a-b02fa908b582","ios":"levelo://app?vid=d24c2877-4f1f-42fe-869a-b02fa908b582"},"vehicle_type_id":"4","last_reported":1729955272,"current_range_meters":36800,"station_id":"ce4bhg12rcd13ifvqf80","pricing_plan_id":"cebpf4jnsgd1na2vs0mg"},{"bike_id":"d4aec44f-ddca-4104-91b2-0d4ceaa50166","system_id":"levelo_inurba_marseille","lat":43.28073,"lon":5.39649,"is_reserved":false,"is_disabled":false,"rental_uris":{"android":"levelo://app?vid=d4aec44f-ddca-4104-91b2-0d4ceaa50166","ios":"levelo://app?vid=d4aec44f-ddca-4104-91b2-0d4ceaa50166"},"vehicle_type_id":"4","last_reported":1729955272,"current_range_meters":38800,"station_id":"ce4bho12rcd13ifvqh2g","pricing_plan_id":"cebpf4jnsgd1na2vs0mg"},{"bike_id":"07512975-17c1-45e9-9ed2-449945871421","system_id":"levelo_inurba_marseille","lat":43.27983,"lon":5.4003,"is_reserved":false,"is_disabled":false,"rental_uris":{"android":"levelo://app?vid=07512975-17c1-45e9-9ed2-449945871421","ios":"levelo://app?vid=07512975-17c1-45e9-9ed2-449945871421"},"vehicle_type_id":"4","last_reported":1729955272,"current_range_meters":24000,"station_id":"ce4bho92rcd13ifvqh4g","pricing_plan_id":"cebpf4jnsgd1na2vs0mg"},{"bike_id":"db845eaa-4bce-4564-804c-c6d992cb729c","system_id":"levelo_inurba_marseille","lat":43.29563,"lon":5.37504,"is_reserved":false,"is_disabled":false,"rental_uris":{"android":"levelo://app?vid=db845eaa-4bce-4564-804c-c6d992cb729c","ios":"levelo://app?vid=db845eaa-4bce-4564-804c-c6d992cb729c"},"vehicle_type_id":"4","last_reported":1729955272,"current_range_meters":39200,"station_id":"ce4bgh92rcd13ifvqb50","pricing_plan_id":"cebpf4jnsgd1na2vs0mg"},{"bike_id":"356a8e33-4ab0-42f2-95a5-274f32429f87","system_id":"levelo_inurba_marseille","lat":43.301422,"lon":5.38102,"is_reserved":false,"is_disabled":false,"rental_uris":{"android":"levelo://app?vid=356a8e33-4ab0-42f2-95a5-274f32429f87","ios":"levelo://app?vid=356a8e33-4ab0-42f2-95a5-274f32429f87"},"vehicle_type_id":"4","last_reported":1729955272,"current_range_meters":18800,"station_id":"ce4bgjp2rcd13ifvqbh0","pricing_plan_id":"cebpf4jnsgd1na2vs0mg"},{"bike_id":"f9dd0103-b045-4d3e-97f0-feaf4a2d3923","system_id":"levelo_inurba_marseille","lat":43.24999,"lon":5.38921,"is_reserved":false,"is_disabled":false,"rental_uris":{"android":"levelo://app?vid=f9dd0103-b045-4d3e-97f0-feaf4a2d3923","ios":"levelo://app?vid=f9dd0103-b045-4d3e-97f0-feaf4a2d3923"},"vehicle_type_id":"4","last_reported":1729955272,"current_range_meters":8800,"station_id":"ce4bhgp2rcd13ifvqfd0","pricing_plan_id":"cebpf4jnsgd1na2vs0mg"},{"bike_id":"c1ff30c9-765a-4012-87b1-c5b239bd55a6","system_id":"levelo_inurba_marseille","lat":43.29186,"lon":5.35788,"is_reserved":false,"is_disabled":false,"rental_uris":{"android":"levelo://app?vid=c1ff30c9-765a-4012-87b1-c5b239bd55a6","ios":"levelo://app?vid=c1ff30c9-765a-4012-87b1-c5b239bd55a6"},"vehicle_type_id":"4","last_reported":1729955272,"current_range_meters":38800,"station_id":"ce4bhb12rcd13ifvqel0","pricing_plan_id":"cebpf4jnsgd1na2vs0mg"},{"bike_id":"48876f5b-e353-4ac0-9c4c-bbd49c679bab","system_id":"levelo_inurba_marseille","lat":43.31685,"lon":5.40469,"is_reserved":false,"is_disabled":false,"rental_uris":{"android":"levelo://app?vid=48876f5b-e353-4ac0-9c4c-bbd49c679bab","ios":"levelo://app?vid=48876f5b-e353-4ac0-9c4c-bbd49c679bab"},"vehicle_type_id":"4","last_reported":1729955272,"current_range_meters":31200,"station_id":"ce4bh012rcd13ifvqd00","pricing_plan_id":"cebpf4jnsgd1na2vs0mg"},{"bike_id":"fe0863da-9a70-466a-9350-47fdf2c8cc05","system_id":"levelo_inurba_marseille","lat":43.27056,"lon":5.40259,"is_reserved":false,"is_disabled":false,"rental_uris":{"android":"levelo://app?vid=fe0863da-9a70-466a-9350-47fdf2c8cc05","ios":"levelo://app?vid=fe0863da-9a70-466a-9350-47fdf2c8cc05"},"vehicle_type_id":"4","last_reported":1729955272,"current_range_meters":16400,"station_id":"ce4bhk92rcd13ifvqgc0","pricing_plan_id":"cebpf4jnsgd1na2vs0mg"},{"bike_id":"2502b547-1537-4acc-b38a-ccb5e750204d","system_id":"levelo_inurba_marseille","lat":43.28855,"lon":5.35864,"is_reserved":false,"is_disabled":false,"rental_uris":{"android":"levelo://app?vid=2502b547-1537-4acc-b38a-ccb5e750204d","ios":"levelo://app?vid=2502b547-1537-4acc-b38a-ccb5e750204d"},"vehicle_type_id":"4","last_reported":1729955272,"current_range_meters":38800,"station_id":"ce4bhb12rcd13ifvqem0","pricing_plan_id":"cebpf4jnsgd1na2vs0mg"},{"bike_id":"28aae4cb-a25d-494b-a101-b1f362348da2","system_id":"levelo_inurba_marseille","lat":43.29576,"lon":5.36746,"is_reserved":false,"is_disabled":false,"rental_uris":{"android":"levelo://app?vid=28aae4cb-a25d-494b-a101-b1f362348da2","ios":"levelo://app?vid=28aae4cb-a25d-494b-a101-b1f362348da2"},"vehicle_type_id":"4","last_reported":1729955272,"current_range_meters":36400,"station_id":"ce4bgph2rcd13ifvqc2g","pricing_plan_id":"cebpf4jnsgd1na2vs0mg"},{"bike_id":"9c7e99f6-3852-48e8-93ed-d74a8c4abb02","system_id":"levelo_inurba_marseille","lat":43.30306,"lon":5.36897,"is_reserved":false,"is_disabled":false,"rental_uris":{"android":"levelo://app?vid=9c7e99f6-3852-48e8-93ed-d74a8c4abb02","ios":"levelo://app?vid=9c7e99f6-3852-48e8-93ed-d74a8c4abb02"},"vehicle_type_id":"4","last_reported":1729955272,"current_range_meters":14800,"station_id":"ce4bgqh2rcd13ifvqc5g","pricing_plan_id":"cebpf4jnsgd1na2vs0mg"},{"bike_id":"34a1e83e-0a80-4224-a95a-4b10b861afb7","system_id":"levelo_inurba_marseille","lat":43.31361,"lon":5.3683,"is_reserved":false,"is_disabled":false,"rental_uris":{"android":"levelo://app?vid=34a1e83e-0a80-4224-a95a-4b10b861afb7","ios":"levelo://app?vid=34a1e83e-0a80-4224-a95a-4b10b861afb7"},"vehicle_type_id":"4","last_reported":1729955272,"current_range_meters":38800,"station_id":"","pricing_plan_id":"cebpf4jnsgd1na2vs0mg"},{"bike_id":"a0180174-e12a-4e24-a25b-cde8648607ab","system_id":"levelo_inurba_marseille","lat":43.29035,"lon":5.37563,"is_reserved":false,"is_disabled":false,"rental_uris":{"android":"levelo://app?vid=a0180174-e12a-4e24-a25b-cde8648607ab","ios":"levelo://app?vid=a0180174-e12a-4e24-a25b-cde8648607ab"},"vehicle_type_id":"4","last_reported":1729955272,"current_range_meters":14800,"station_id":"ce4bh692rcd13ifvqe90","pricing_plan_id":"cebpf4jnsgd1na2vs0mg"},{"bike_id":"43698cfd-e175-489f-9955-3010d260a3bb","system_id":"levelo_inurba_marseille","lat":43.27209,"lon":5.39178,"is_reserved":false,"is_disabled":false,"rental_uris":{"android":"levelo://app?vid=43698cfd-e175-489f-9955-3010d260a3bb","ios":"levelo://app?vid=43698cfd-e175-489f-9955-3010d260a3bb"},"vehicle_type_id":"4","last_reported":1729955272,"current_range_meters":35600,"station_id":"ce4bhhp2rcd13ifvqfm0","pricing_plan_id":"cebpf4jnsgd1na2vs0mg"},{"bike_id":"0ecf5e07-d4ac-4f2c-bd1b-3acf9f99ddc6","system_id":"levelo_inurba_marseille","lat":43.2602,"lon":5.37554,"is_reserved":false,"is_disabled":false,"rental_uris":{"android":"levelo://app?vid=0ecf5e07-d4ac-4f2c-bd1b-3acf9f99ddc6","ios":"levelo://app?vid=0ecf5e07-d4ac-4f2c-bd1b-3acf9f99ddc6"},"vehicle_type_id":"4","last_reported":1729955272,"current_range_meters":38800,"station_id":"ce4bhgh2rcd13ifvqfa0","pricing_plan_id":"cebpf4jnsgd1na2vs0mg"},{"bike_id":"79789d3b-fcac-4224-af4d-75a300fd730b","system_id":"levelo_inurba_marseille","lat":43.3009,"lon":5.39074,"is_reserved":false,"is_disabled":false,"rental_uris":{"android":"levelo://app?vid=79789d3b-fcac-4224-af4d-75a300fd730b","ios":"levelo://app?vid=79789d3b-fcac-4224-af4d-75a300fd730b"},"vehicle_type_id":"4","last_reported":1729955272,"current_range_meters":36800,"station_id":"ce4bh192rcd13ifvqdb0","pricing_plan_id":"cebpf4jnsgd1na2vs0mg"},{"bike_id":"3440d9b5-3e68-45f4-98be-6b0e41381653","system_id":"levelo_inurba_marseille","lat":43.28445,"lon":5.39183,"is_reserved":false,"is_disabled":false,"rental_uris":{"android":"levelo://app?vid=3440d9b5-3e68-45f4-98be-6b0e41381653","ios":"levelo://app?vid=3440d9b5-3e68-45f4-98be-6b0e41381653"},"vehicle_type_id":"4","last_reported":1729955272,"current_range_meters":26800,"station_id":"ce4bhoh2rcd13ifvqh5g","pricing_plan_id":"cebpf4jnsgd1na2vs0mg"},{"bike_id":"f6a5ef30-cd45-4f33-acc1-40cc262286be","system_id":"levelo_inurba_marseille","lat":43.26941,"lon":5.40254,"is_reserved":false,"is_disabled":false,"rental_uris":{"android":"levelo://app?vid=f6a5ef30-cd45-4f33-acc1-40cc262286be","ios":"levelo://app?vid=f6a5ef30-cd45-4f33-acc1-40cc262286be"},"vehicle_type_id":"4","last_reported":1729955272,"current_range_meters":38800,"station_id":"cjm6bp8fraef2m0cb0m0","pricing_plan_id":"cebpf4jnsgd1na2vs0mg"},{"bike_id":"88e803c6-c5aa-4282-bb7c-a68a1a86ada3","system_id":"levelo_inurba_marseille","lat":43.28261,"lon":5.35061,"is_reserved":false,"is_disabled":false,"rental_uris":{"android":"levelo://app?vid=88e803c6-c5aa-4282-bb7c-a68a1a86ada3","ios":"levelo://app?vid=88e803c6-c5aa-4282-bb7c-a68a1a86ada3"},"vehicle_type_id":"4","last_reported":1729955272,"current_range_meters":36000,"station_id":"ce4bhbp2rcd13ifvqerg","pricing_plan_id":"cebpf4jnsgd1na2vs0mg"},{"bike_id":"c4f16691-f8e1-494d-b2b9-e447f16bf18a","system_id":"levelo_inurba_marseille","lat":43.25822,"lon":5.39429,"is_reserved":false,"is_disabled":false,"rental_uris":{"android":"levelo://app?vid=c4f16691-f8e1-494d-b2b9-e447f16bf18a","ios":"levelo://app?vid=c4f16691-f8e1-494d-b2b9-e447f16bf18a"},"vehicle_type_id":"4","last_reported":1729955272,"current_range_meters":24800,"station_id":"ce4bhip2rcd13ifvqft0","pricing_plan_id":"cebpf4jnsgd1na2vs0mg"},{"bike_id":"ca2df908-f415-445b-a221-227ef011fae0","system_id":"levelo_inurba_marseille","lat":43.29358,"lon":5.37852,"is_reserved":false,"is_disabled":false,"rental_uris":{"android":"levelo://app?vid=ca2df908-f415-445b-a221-227ef011fae0","ios":"levelo://app?vid=ca2df908-f415-445b-a221-227ef011fae0"},"vehicle_type_id":"4","last_reported":1729955272,"current_range_meters":35600,"station_id":"ce4bgjh2rcd13ifvqbf0","pricing_plan_id":"cebpf4jnsgd1na2vs0mg"},{"bike_id":"7407b721-d09d-4272-a02f-21d20df461b3","system_id":"levelo_inurba_marseille","lat":43.28478,"lon":5.38418,"is_reserved":false,"is_disabled":false,"rental_uris":{"android":"levelo://app?vid=7407b721-d09d-4272-a02f-21d20df461b3","ios":"levelo://app?vid=7407b721-d09d-4272-a02f-21d20df461b3"},"vehicle_type_id":"4","last_reported":1729955272,"current_range_meters":32400,"station_id":"ce4bh512rcd13ifvqe3g","pricing_plan_id":"cebpf4jnsgd1na2vs0mg"},{"bike_id":"9befed88-9f8c-464c-b07b-093bd97066bb","system_id":"levelo_inurba_marseille","lat":43.29805,"lon":5.37136,"is_reserved":false,"is_disabled":false,"rental_uris":{"android":"levelo://app?vid=9befed88-9f8c-464c-b07b-093bd97066bb","ios":"levelo://app?vid=9befed88-9f8c-464c-b07b-093bd97066bb"},"vehicle_type_id":"4","last_reported":1729955272,"current_range_meters":24000,"station_id":"","pricing_plan_id":"cebpf4jnsgd1na2vs0mg"},{"bike_id":"f37e3b02-a49c-4c4e-b112-f9c8c24edf90","system_id":"levelo_inurba_marseille","lat":43.23201,"lon":5.35552,"is_reserved":false,"is_disabled":false,"rental_uris":{"android":"levelo://app?vid=f37e3b02-a49c-4c4e-b112-f9c8c24edf90","ios":"levelo://app?vid=f37e3b02-a49c-4c4e-b112-f9c8c24edf90"},"vehicle_type_id":"4","last_reported":1729955272,"current_range_meters":22000,"station_id":"ce4bhu92rcd13ifvqi70","pricing_plan_id":"cebpf4jnsgd1na2vs0mg"},{"bike_id":"a94f4a23-103c-4252-827d-c4b2b0d10aaf","system_id":"levelo_inurba_marseille","lat":43.25877,"lon":5.399,"is_reserved":false,"is_disabled":false,"rental_uris":{"android":"levelo://app?vid=a94f4a23-103c-4252-827d-c4b2b0d10aaf","ios":"levelo://app?vid=a94f4a23-103c-4252-827d-c4b2b0d10aaf"},"vehicle_type_id":"4","last_reported":1729955272,"current_range_meters":24400,"station_id":"ce4bhl92rcd13ifvqghg","pricing_plan_id":"cebpf4jnsgd1na2vs0mg"},{"bike_id":"caa30749-ab95-45a6-9cd8-e3c51eb81d4d","system_id":"levelo_inurba_marseille","lat":43.30209,"lon":5.39484,"is_reserved":false,"is_disabled":false,"rental_uris":{"android":"levelo://app?vid=caa30749-ab95-45a6-9cd8-e3c51eb81d4d","ios":"levelo://app?vid=caa30749-ab95-45a6-9cd8-e3c51eb81d4d"},"vehicle_type_id":"4","last_reported":1729955272,"current_range_meters":38800,"station_id":"ce4bh0p2rcd13ifvqd70","pricing_plan_id":"cebpf4jnsgd1na2vs0mg"},{"bike_id":"a4d2aac1-98f7-4ee9-bb54-2720ee698eac","system_id":"levelo_inurba_marseille","lat":43.2558,"lon":5.3824,"is_reserved":false,"is_disabled":false,"rental_uris":{"android":"levelo://app?vid=a4d2aac1-98f7-4ee9-bb54-2720ee698eac","ios":"levelo://app?vid=a4d2aac1-98f7-4ee9-bb54-2720ee698eac"},"vehicle_type_id":"4","last_reported":1729955272,"current_range_meters":36000,"station_id":"ce4bhih2rcd13ifvqfs0","pricing_plan_id":"cebpf4jnsgd1na2vs0mg"},{"bike_id":"dad2718b-ffdf-4024-8a84-70e058921ae1","system_id":"levelo_inurba_marseille","lat":43.26056,"lon":5.39396,"is_reserved":false,"is_disabled":false,"rental_uris":{"android":"levelo://app?vid=dad2718b-ffdf-4024-8a84-70e058921ae1","ios":"levelo://app?vid=dad2718b-ffdf-4024-8a84-70e058921ae1"},"vehicle_type_id":"4","last_reported":1729955272,"current_range_meters":32800,"station_id":"ce4bhh92rcd13ifvqfj0","pricing_plan_id":"cebpf4jnsgd1na2vs0mg"},{"bike_id":"5c8d47df-cace-44d5-9922-d4ea86fc841f","system_id":"levelo_inurba_marseille","lat":43.23955,"lon":5.36641,"is_reserved":false,"is_disabled":false,"rental_uris":{"android":"levelo://app?vid=5c8d47df-cace-44d5-9922-d4ea86fc841f","ios":"levelo://app?vid=5c8d47df-cace-44d5-9922-d4ea86fc841f"},"vehicle_type_id":"4","last_reported":1729955272,"current_range_meters":34800,"station_id":"ce4bhi12rcd13ifvqfp0","pricing_plan_id":"cebpf4jnsgd1na2vs0mg"},{"bike_id":"b8fbf6cb-4344-49f0-aa51-6bf07fd511fe","system_id":"levelo_inurba_marseille","lat":43.2549,"lon":5.37646,"is_reserved":false,"is_disabled":false,"rental_uris":{"android":"levelo://app?vid=b8fbf6cb-4344-49f0-aa51-6bf07fd511fe","ios":"levelo://app?vid=b8fbf6cb-4344-49f0-aa51-6bf07fd511fe"},"vehicle_type_id":"4","last_reported":1729955272,"current_range_meters":27600,"station_id":"ce4bhh12rcd13ifvqff0","pricing_plan_id":"cebpf4jnsgd1na2vs0mg"},{"bike_id":"55841616-52dc-4da7-abf2-e48d73a5e891","system_id":"levelo_inurba_marseille","lat":43.25936,"lon":5.4091,"is_reserved":false,"is_disabled":false,"rental_uris":{"android":"levelo://app?vid=55841616-52dc-4da7-abf2-e48d73a5e891","ios":"levelo://app?vid=55841616-52dc-4da7-abf2-e48d73a5e891"},"vehicle_type_id":"4","last_reported":1729955272,"current_range_meters":33600,"station_id":"ce4bhm92rcd13ifvqglg","pricing_plan_id":"cebpf4jnsgd1na2vs0mg"},{"bike_id":"78fe5887-32b3-4abc-bf3a-d9e9dae1fbd2","system_id":"levelo_inurba_marseille","lat":43.27054,"lon":5.40264,"is_reserved":false,"is_disabled":false,"rental_uris":{"android":"levelo://app?vid=78fe5887-32b3-4abc-bf3a-d9e9dae1fbd2","ios":"levelo://app?vid=78fe5887-32b3-4abc-bf3a-d9e9dae1fbd2"},"vehicle_type_id":"4","last_reported":1729955272,"current_range_meters":36800,"station_id":"ce4bhk92rcd13ifvqgc0","pricing_plan_id":"cebpf4jnsgd1na2vs0mg"},{"bike_id":"63dffe58-b321-4992-b66b-9f28a3e3e3b4","system_id":"levelo_inurba_marseille","lat":43.29954,"lon":5.41313,"is_reserved":false,"is_disabled":false,"rental_uris":{"android":"levelo://app?vid=63dffe58-b321-4992-b66b-9f28a3e3e3b4","ios":"levelo://app?vid=63dffe58-b321-4992-b66b-9f28a3e3e3b4"},"vehicle_type_id":"4","last_reported":1729955272,"current_range_meters":39200,"station_id":"ce4bhp12rcd13ifvqh9g","pricing_plan_id":"cebpf4jnsgd1na2vs0mg"},{"bike_id":"8e3a4d15-5d4b-4332-8003-869e8944d7ae","system_id":"levelo_inurba_marseille","lat":43.33023,"lon":5.39047,"is_reserved":false,"is_disabled":false,"rental_uris":{"android":"levelo://app?vid=8e3a4d15-5d4b-4332-8003-869e8944d7ae","ios":"levelo://app?vid=8e3a4d15-5d4b-4332-8003-869e8944d7ae"},"vehicle_type_id":"4","last_reported":1729955272,"current_range_meters":6000,"station_id":"ce4bhr92rcd13ifvqhrg","pricing_plan_id":"cebpf4jnsgd1na2vs0mg"},{"bike_id":"aca2b33f-b66e-4b8a-ba0d-029f32887f02","system_id":"levelo_inurba_marseille","lat":43.29258,"lon":5.38448,"is_reserved":false,"is_disabled":false,"rental_uris":{"android":"levelo://app?vid=aca2b33f-b66e-4b8a-ba0d-029f32887f02","ios":"levelo://app?vid=aca2b33f-b66e-4b8a-ba0d-029f32887f02"},"vehicle_type_id":"4","last_reported":1729955272,"current_range_meters":23200,"station_id":"ce4bh692rcd13ifvqea0","pricing_plan_id":"cebpf4jnsgd1na2vs0mg"},{"bike_id":"915115c3-c76a-4c75-a626-890b3f3badd3","system_id":"levelo_inurba_marseille","lat":43.29938,"lon":5.36547,"is_reserved":false,"is_disabled":false,"rental_uris":{"android":"levelo://app?vid=915115c3-c76a-4c75-a626-890b3f3badd3","ios":"levelo://app?vid=915115c3-c76a-4c75-a626-890b3f3badd3"},"vehicle_type_id":"4","last_reported":1729955272,"current_range_meters":38800,"station_id":"ce4bgm92rcd13ifvqbr0","pricing_plan_id":"cebpf4jnsgd1na2vs0mg"},{"bike_id":"fbe88c76-2e10-40dd-bfca-1b8a61d21b96","system_id":"levelo_inurba_marseille","lat":43.30321,"lon":5.40439,"is_reserved":false,"is_disabled":false,"rental_uris":{"android":"levelo://app?vid=fbe88c76-2e10-40dd-bfca-1b8a61d21b96","ios":"levelo://app?vid=fbe88c76-2e10-40dd-bfca-1b8a61d21b96"},"vehicle_type_id":"4","last_reported":1729955272,"current_range_meters":37600,"station_id":"ce4bh012rcd13ifvqd10","pricing_plan_id":"cebpf4jnsgd1na2vs0mg"},{"bike_id":"e68806bb-1703-4502-b0f5-0e73a895871d","system_id":"levelo_inurba_marseille","lat":43.29572,"lon":5.39973,"is_reserved":false,"is_disabled":false,"rental_uris":{"android":"levelo://app?vid=e68806bb-1703-4502-b0f5-0e73a895871d","ios":"levelo://app?vid=e68806bb-1703-4502-b0f5-0e73a895871d"},"vehicle_type_id":"4","last_reported":1729955272,"current_range_meters":16000,"station_id":"ce4bh312rcd13ifvqdj0","pricing_plan_id":"cebpf4jnsgd1na2vs0mg"},{"bike_id":"d805231a-75d9-4fe1-a158-512c4edc93c0","system_id":"levelo_inurba_marseille","lat":43.28963,"lon":5.37839,"is_reserved":false,"is_disabled":false,"rental_uris":{"android":"levelo://app?vid=d805231a-75d9-4fe1-a158-512c4edc93c0","ios":"levelo://app?vid=d805231a-75d9-4fe1-a158-512c4edc93c0"},"vehicle_type_id":"4","last_reported":1729955272,"current_range_meters":38800,"station_id":"ce4bh9p2rcd13ifvqed0","pricing_plan_id":"cebpf4jnsgd1na2vs0mg"},{"bike_id":"ff0a3573-003d-4966-a881-5959109e57ba","system_id":"levelo_inurba_marseille","lat":43.30949,"lon":5.39042,"is_reserved":false,"is_disabled":false,"rental_uris":{"android":"levelo://app?vid=ff0a3573-003d-4966-a881-5959109e57ba","ios":"levelo://app?vid=ff0a3573-003d-4966-a881-5959109e57ba"},"vehicle_type_id":"4","last_reported":1729955272,"current_range_meters":38800,"station_id":"ce4bgup2rcd13ifvqco0","pricing_plan_id":"cebpf4jnsgd1na2vs0mg"},{"bike_id":"6a074832-fc84-4ee1-a2e0-22b30729f52b","system_id":"levelo_inurba_marseille","lat":43.2721,"lon":5.39183,"is_reserved":false,"is_disabled":false,"rental_uris":{"android":"levelo://app?vid=6a074832-fc84-4ee1-a2e0-22b30729f52b","ios":"levelo://app?vid=6a074832-fc84-4ee1-a2e0-22b30729f52b"},"vehicle_type_id":"4","last_reported":1729955272,"current_range_meters":20000,"station_id":"ce4bhhp2rcd13ifvqfm0","pricing_plan_id":"cebpf4jnsgd1na2vs0mg"},{"bike_id":"b425a53a-2ca1-45d6-9375-1a007f59f76d","system_id":"levelo_inurba_marseille","lat":43.27418,"lon":5.39412,"is_reserved":false,"is_disabled":false,"rental_uris":{"android":"levelo://app?vid=b425a53a-2ca1-45d6-9375-1a007f59f76d","ios":"levelo://app?vid=b425a53a-2ca1-45d6-9375-1a007f59f76d"},"vehicle_type_id":"4","last_reported":1729955272,"current_range_meters":19200,"station_id":"ce4bhdp2rcd13ifvqf20","pricing_plan_id":"cebpf4jnsgd1na2vs0mg"},{"bike_id":"cff8651c-77f0-4779-a7d1-9202230ceabd","system_id":"levelo_inurba_marseille","lat":43.28406,"lon":5.34993,"is_reserved":false,"is_disabled":false,"rental_uris":{"android":"levelo://app?vid=cff8651c-77f0-4779-a7d1-9202230ceabd","ios":"levelo://app?vid=cff8651c-77f0-4779-a7d1-9202230ceabd"},"vehicle_type_id":"4","last_reported":1729955272,"current_range_meters":8400,"station_id":"ce4bhbh2rcd13ifvqepg","pricing_plan_id":"cebpf4jnsgd1na2vs0mg"},{"bike_id":"b62721a0-375f-494b-9aa8-10a1e97e9a85","system_id":"levelo_inurba_marseille","lat":43.29417,"lon":5.3862,"is_reserved":false,"is_disabled":false,"rental_uris":{"android":"levelo://app?vid=b62721a0-375f-494b-9aa8-10a1e97e9a85","ios":"levelo://app?vid=b62721a0-375f-494b-9aa8-10a1e97e9a85"},"vehicle_type_id":"4","last_reported":1729955272,"current_range_meters":32800,"station_id":"ce4bh2h2rcd13ifvqdh0","pricing_plan_id":"cebpf4jnsgd1na2vs0mg"},{"bike_id":"9bd8468e-c1ef-4d86-ab40-fd99610bd7c5","system_id":"levelo_inurba_marseille","lat":43.28439,"lon":5.39195,"is_reserved":false,"is_disabled":false,"rental_uris":{"android":"levelo://app?vid=9bd8468e-c1ef-4d86-ab40-fd99610bd7c5","ios":"levelo://app?vid=9bd8468e-c1ef-4d86-ab40-fd99610bd7c5"},"vehicle_type_id":"4","last_reported":1729955272,"current_range_meters":39200,"station_id":"ce4bhoh2rcd13ifvqh5g","pricing_plan_id":"cebpf4jnsgd1na2vs0mg"},{"bike_id":"53c5f996-6ad5-48af-b7ab-eb0d176e34d5","system_id":"levelo_inurba_marseille","lat":43.32414,"lon":5.38935,"is_reserved":false,"is_disabled":false,"rental_uris":{"android":"levelo://app?vid=53c5f996-6ad5-48af-b7ab-eb0d176e34d5","ios":"levelo://app?vid=53c5f996-6ad5-48af-b7ab-eb0d176e34d5"},"vehicle_type_id":"4","last_reported":1729955272,"current_range_meters":8800,"station_id":"","pricing_plan_id":"cebpf4jnsgd1na2vs0mg"},{"bike_id":"1c122e80-7b9e-4700-9eaa-1e7c46ed2f63","system_id":"levelo_inurba_marseille","lat":43.2844,"lon":5.39191,"is_reserved":false,"is_disabled":false,"rental_uris":{"android":"levelo://app?vid=1c122e80-7b9e-4700-9eaa-1e7c46ed2f63","ios":"levelo://app?vid=1c122e80-7b9e-4700-9eaa-1e7c46ed2f63"},"vehicle_type_id":"4","last_reported":1729955272,"current_range_meters":38800,"station_id":"ce4bhoh2rcd13ifvqh5g","pricing_plan_id":"cebpf4jnsgd1na2vs0mg"},{"bike_id":"b11e3250-41a7-47d9-a829-fd546d235251","system_id":"levelo_inurba_marseille","lat":43.26554,"lon":5.37283,"is_reserved":false,"is_disabled":false,"rental_uris":{"android":"levelo://app?vid=b11e3250-41a7-47d9-a829-fd546d235251","ios":"levelo://app?vid=b11e3250-41a7-47d9-a829-fd546d235251"},"vehicle_type_id":"4","last_reported":1729955272,"current_range_meters":22400,"station_id":"ce4bhg12rcd13ifvqf70","pricing_plan_id":"cebpf4jnsgd1na2vs0mg"},{"bike_id":"9c5bdd23-4ced-431a-9ff5-8741184ae57b","system_id":"levelo_inurba_marseille","lat":43.312223,"lon":5.368498,"is_reserved":false,"is_disabled":false,"rental_uris":{"android":"levelo://app?vid=9c5bdd23-4ced-431a-9ff5-8741184ae57b","ios":"levelo://app?vid=9c5bdd23-4ced-431a-9ff5-8741184ae57b"},"vehicle_type_id":"4","last_reported":1729955272,"current_range_meters":26800,"station_id":"ce4bgl92rcd13ifvqbq0","pricing_plan_id":"cebpf4jnsgd1na2vs0mg"},{"bike_id":"c47ee273-d152-426c-939b-6002a5dfd2a9","system_id":"levelo_inurba_marseille","lat":43.282776,"lon":5.350539,"is_reserved":false,"is_disabled":false,"rental_uris":{"android":"levelo://app?vid=c47ee273-d152-426c-939b-6002a5dfd2a9","ios":"levelo://app?vid=c47ee273-d152-426c-939b-6002a5dfd2a9"},"vehicle_type_id":"4","last_reported":1729955272,"current_range_meters":25200,"station_id":"ce4bh512rcd13ifvqe3g","pricing_plan_id":"cebpf4jnsgd1na2vs0mg"},{"bike_id":"10737337-ef97-41d0-aa74-e8a68d35ebae","system_id":"levelo_inurba_marseille","lat":43.28473,"lon":5.38418,"is_reserved":false,"is_disabled":false,"rental_uris":{"android":"levelo://app?vid=10737337-ef97-41d0-aa74-e8a68d35ebae","ios":"levelo://app?vid=10737337-ef97-41d0-aa74-e8a68d35ebae"},"vehicle_type_id":"4","last_reported":1729955272,"current_range_meters":33600,"station_id":"ce4bh512rcd13ifvqe3g","pricing_plan_id":"cebpf4jnsgd1na2vs0mg"},{"bike_id":"15ecaf45-1191-406f-b0fd-34ec80e664b9","system_id":"levelo_inurba_marseille","lat":43.32281,"lon":5.38274,"is_reserved":false,"is_disabled":false,"rental_uris":{"android":"levelo://app?vid=15ecaf45-1191-406f-b0fd-34ec80e664b9","ios":"levelo://app?vid=15ecaf45-1191-406f-b0fd-34ec80e664b9"},"vehicle_type_id":"4","last_reported":1729955272,"current_range_meters":4800,"station_id":"ce4bhr12rcd13ifvqhqg","pricing_plan_id":"cebpf4jnsgd1na2vs0mg"},{"bike_id":"360a7583-721e-4f83-9f34-71533cc263bf","system_id":"levelo_inurba_marseille","lat":43.31221,"lon":5.36862,"is_reserved":false,"is_disabled":false,"rental_uris":{"android":"levelo://app?vid=360a7583-721e-4f83-9f34-71533cc263bf","ios":"levelo://app?vid=360a7583-721e-4f83-9f34-71533cc263bf"},"vehicle_type_id":"4","last_reported":1729955272,"current_range_meters":8800,"station_id":"ce4bgl92rcd13ifvqbq0","pricing_plan_id":"cebpf4jnsgd1na2vs0mg"},{"bike_id":"65a299e3-c24f-466b-85de-bffe82da7ba6","system_id":"levelo_inurba_marseille","lat":43.30215,"lon":5.40045,"is_reserved":false,"is_disabled":false,"rental_uris":{"android":"levelo://app?vid=65a299e3-c24f-466b-85de-bffe82da7ba6","ios":"levelo://app?vid=65a299e3-c24f-466b-85de-bffe82da7ba6"},"vehicle_type_id":"4","last_reported":1729955272,"current_range_meters":38800,"station_id":"ce4bgvh2rcd13ifvqcs0","pricing_plan_id":"cebpf4jnsgd1na2vs0mg"},{"bike_id":"a3a32520-c902-4f28-8853-079d50e068c3","system_id":"levelo_inurba_marseille","lat":43.26206,"lon":5.37923,"is_reserved":false,"is_disabled":false,"rental_uris":{"android":"levelo://app?vid=a3a32520-c902-4f28-8853-079d50e068c3","ios":"levelo://app?vid=a3a32520-c902-4f28-8853-079d50e068c3"},"vehicle_type_id":"4","last_reported":1729955272,"current_range_meters":39200,"station_id":"ce4bhjp2rcd13ifvqg90","pricing_plan_id":"cebpf4jnsgd1na2vs0mg"},{"bike_id":"f6df19fa-a90b-4a9e-a63f-91822ca104e0","system_id":"levelo_inurba_marseille","lat":43.29191,"lon":5.39325,"is_reserved":false,"is_disabled":false,"rental_uris":{"android":"levelo://app?vid=f6df19fa-a90b-4a9e-a63f-91822ca104e0","ios":"levelo://app?vid=f6df19fa-a90b-4a9e-a63f-91822ca104e0"},"vehicle_type_id":"4","last_reported":1729955272,"current_range_meters":17600,"station_id":"ce4bh192rcd13ifvqdd0","pricing_plan_id":"cebpf4jnsgd1na2vs0mg"},{"bike_id":"b36635ec-777f-460b-8fc4-683b4e7937dc","system_id":"levelo_inurba_marseille","lat":43.23961,"lon":5.3664,"is_reserved":false,"is_disabled":false,"rental_uris":{"android":"levelo://app?vid=b36635ec-777f-460b-8fc4-683b4e7937dc","ios":"levelo://app?vid=b36635ec-777f-460b-8fc4-683b4e7937dc"},"vehicle_type_id":"4","last_reported":1729955272,"current_range_meters":22000,"station_id":"ce4bhi12rcd13ifvqfp0","pricing_plan_id":"cebpf4jnsgd1na2vs0mg"},{"bike_id":"d36dfeb4-c31e-48df-ab3c-ae4e4ad62517","system_id":"levelo_inurba_marseille","lat":43.31183,"lon":5.3871,"is_reserved":false,"is_disabled":false,"rental_uris":{"android":"levelo://app?vid=d36dfeb4-c31e-48df-ab3c-ae4e4ad62517","ios":"levelo://app?vid=d36dfeb4-c31e-48df-ab3c-ae4e4ad62517"},"vehicle_type_id":"4","last_reported":1729955272,"current_range_meters":29600,"station_id":"ce4bgv12rcd13ifvqcp0","pricing_plan_id":"cebpf4jnsgd1na2vs0mg"},{"bike_id":"3e1205ab-0bc6-479c-9e06-2c971082cf74","system_id":"levelo_inurba_marseille","lat":43.32038,"lon":5.41564,"is_reserved":false,"is_disabled":false,"rental_uris":{"android":"levelo://app?vid=3e1205ab-0bc6-479c-9e06-2c971082cf74","ios":"levelo://app?vid=3e1205ab-0bc6-479c-9e06-2c971082cf74"},"vehicle_type_id":"4","last_reported":1729955272,"current_range_meters":17200,"station_id":"ce4bhq92rcd13ifvqhkg","pricing_plan_id":"cebpf4jnsgd1na2vs0mg"},{"bike_id":"8a7ea3b3-7c19-4f13-a31a-07202c98e2c3","system_id":"levelo_inurba_marseille","lat":43.32484,"lon":5.36568,"is_reserved":false,"is_disabled":false,"rental_uris":{"android":"levelo://app?vid=8a7ea3b3-7c19-4f13-a31a-07202c98e2c3","ios":"levelo://app?vid=8a7ea3b3-7c19-4f13-a31a-07202c98e2c3"},"vehicle_type_id":"4","last_reported":1729955272,"current_range_meters":25600,"station_id":"ce4bhs12rcd13ifvqhvg","pricing_plan_id":"cebpf4jnsgd1na2vs0mg"},{"bike_id":"04518ea9-c53f-40a3-80da-3e58bba4a32f","system_id":"levelo_inurba_marseille","lat":43.22928,"lon":5.35376,"is_reserved":false,"is_disabled":false,"rental_uris":{"android":"levelo://app?vid=04518ea9-c53f-40a3-80da-3e58bba4a32f","ios":"levelo://app?vid=04518ea9-c53f-40a3-80da-3e58bba4a32f"},"vehicle_type_id":"4","last_reported":1729955272,"current_range_meters":32000,"station_id":"cpo3532slgdg3j2ikp40","pricing_plan_id":"cebpf4jnsgd1na2vs0mg"},{"bike_id":"3d537944-7a77-435d-8e52-b9b7b4261932","system_id":"levelo_inurba_marseille","lat":43.29622,"lon":5.37154,"is_reserved":false,"is_disabled":false,"rental_uris":{"android":"levelo://app?vid=3d537944-7a77-435d-8e52-b9b7b4261932","ios":"levelo://app?vid=3d537944-7a77-435d-8e52-b9b7b4261932"},"vehicle_type_id":"4","last_reported":1729955272,"current_range_meters":34800,"station_id":"ce4bgnh2rcd13ifvqc0g","pricing_plan_id":"cebpf4jnsgd1na2vs0mg"},{"bike_id":"60528b55-e747-4a9e-8ca0-272ea3a19644","system_id":"levelo_inurba_marseille","lat":43.27835,"lon":5.3921,"is_reserved":false,"is_disabled":false,"rental_uris":{"android":"levelo://app?vid=60528b55-e747-4a9e-8ca0-272ea3a19644","ios":"levelo://app?vid=60528b55-e747-4a9e-8ca0-272ea3a19644"},"vehicle_type_id":"4","last_reported":1729955272,"current_range_meters":38800,"station_id":"ce4bhjp2rcd13ifvqga0","pricing_plan_id":"cebpf4jnsgd1na2vs0mg"},{"bike_id":"3d268554-e261-43e5-aeac-30cb023246f1","system_id":"levelo_inurba_marseille","lat":43.23149,"lon":5.43715,"is_reserved":false,"is_disabled":false,"rental_uris":{"android":"levelo://app?vid=3d268554-e261-43e5-aeac-30cb023246f1","ios":"levelo://app?vid=3d268554-e261-43e5-aeac-30cb023246f1"},"vehicle_type_id":"4","last_reported":1729955272,"current_range_meters":4800,"station_id":"ce4bhmp2rcd13ifvqgog","pricing_plan_id":"cebpf4jnsgd1na2vs0mg"},{"bike_id":"c99defe0-8efc-4702-86ff-f4db4c3ca963","system_id":"levelo_inurba_marseille","lat":43.27427,"lon":5.39418,"is_reserved":false,"is_disabled":false,"rental_uris":{"android":"levelo://app?vid=c99defe0-8efc-4702-86ff-f4db4c3ca963","ios":"levelo://app?vid=c99defe0-8efc-4702-86ff-f4db4c3ca963"},"vehicle_type_id":"4","last_reported":1729955272,"current_range_meters":29600,"station_id":"ce4bhdp2rcd13ifvqf20","pricing_plan_id":"cebpf4jnsgd1na2vs0mg"},{"bike_id":"dee36d10-75d4-4e73-abec-e2f0f4df095c","system_id":"levelo_inurba_marseille","lat":43.30092,"lon":5.39071,"is_reserved":false,"is_disabled":false,"rental_uris":{"android":"levelo://app?vid=dee36d10-75d4-4e73-abec-e2f0f4df095c","ios":"levelo://app?vid=dee36d10-75d4-4e73-abec-e2f0f4df095c"},"vehicle_type_id":"4","last_reported":1729955272,"current_range_meters":38800,"station_id":"ce4bh192rcd13ifvqdb0","pricing_plan_id":"cebpf4jnsgd1na2vs0mg"},{"bike_id":"cd3247ee-311b-4471-8a6c-a1f0ca576f23","system_id":"levelo_inurba_marseille","lat":43.29793,"lon":5.40406,"is_reserved":false,"is_disabled":false,"rental_uris":{"android":"levelo://app?vid=cd3247ee-311b-4471-8a6c-a1f0ca576f23","ios":"levelo://app?vid=cd3247ee-311b-4471-8a6c-a1f0ca576f23"},"vehicle_type_id":"4","last_reported":1729955272,"current_range_meters":22400,"station_id":"ce4bh112rcd13ifvqd90","pricing_plan_id":"cebpf4jnsgd1na2vs0mg"},{"bike_id":"960c25fd-a513-4486-9205-28e40f919a67","system_id":"levelo_inurba_marseille","lat":43.2844,"lon":5.3918,"is_reserved":false,"is_disabled":false,"rental_uris":{"android":"levelo://app?vid=960c25fd-a513-4486-9205-28e40f919a67","ios":"levelo://app?vid=960c25fd-a513-4486-9205-28e40f919a67"},"vehicle_type_id":"4","last_reported":1729955272,"current_range_meters":30800,"station_id":"ce4bhoh2rcd13ifvqh5g","pricing_plan_id":"cebpf4jnsgd1na2vs0mg"},{"bike_id":"374c6b0b-5583-4ed8-8e1b-71051917a33b","system_id":"levelo_inurba_marseille","lat":43.29981,"lon":5.37173,"is_reserved":false,"is_disabled":false,"rental_uris":{"android":"levelo://app?vid=374c6b0b-5583-4ed8-8e1b-71051917a33b","ios":"levelo://app?vid=374c6b0b-5583-4ed8-8e1b-71051917a33b"},"vehicle_type_id":"4","last_reported":1729955272,"current_range_meters":16800,"station_id":"ce4bgr92rcd13ifvqc7g","pricing_plan_id":"cebpf4jnsgd1na2vs0mg"},{"bike_id":"1a9a7ecb-45d0-4964-a255-5d265b4ea339","system_id":"levelo_inurba_marseille","lat":43.284715,"lon":5.384156,"is_reserved":false,"is_disabled":false,"rental_uris":{"android":"levelo://app?vid=1a9a7ecb-45d0-4964-a255-5d265b4ea339","ios":"levelo://app?vid=1a9a7ecb-45d0-4964-a255-5d265b4ea339"},"vehicle_type_id":"4","last_reported":1729955272,"current_range_meters":4400,"station_id":"ce4bh4p2rcd13ifvqe0g","pricing_plan_id":"cebpf4jnsgd1na2vs0mg"},{"bike_id":"fd0ae69c-e449-4d01-8260-25448c8ad3be","system_id":"levelo_inurba_marseille","lat":43.2957,"lon":5.3751,"is_reserved":false,"is_disabled":false,"rental_uris":{"android":"levelo://app?vid=fd0ae69c-e449-4d01-8260-25448c8ad3be","ios":"levelo://app?vid=fd0ae69c-e449-4d01-8260-25448c8ad3be"},"vehicle_type_id":"4","last_reported":1729955272,"current_range_meters":30800,"station_id":"ce4bgh92rcd13ifvqb50","pricing_plan_id":"cebpf4jnsgd1na2vs0mg"},{"bike_id":"8d057b6f-033e-4c2d-a16e-b7503d654914","system_id":"levelo_inurba_marseille","lat":43.30545,"lon":5.36708,"is_reserved":false,"is_disabled":false,"rental_uris":{"android":"levelo://app?vid=8d057b6f-033e-4c2d-a16e-b7503d654914","ios":"levelo://app?vid=8d057b6f-033e-4c2d-a16e-b7503d654914"},"vehicle_type_id":"4","last_reported":1729955272,"current_range_meters":37600,"station_id":"ce4bgrp2rcd13ifvqc9g","pricing_plan_id":"cebpf4jnsgd1na2vs0mg"},{"bike_id":"b085dea5-897b-4be3-987f-f14b28d9fed3","system_id":"levelo_inurba_marseille","lat":43.31071,"lon":5.38363,"is_reserved":false,"is_disabled":false,"rental_uris":{"android":"levelo://app?vid=b085dea5-897b-4be3-987f-f14b28d9fed3","ios":"levelo://app?vid=b085dea5-897b-4be3-987f-f14b28d9fed3"},"vehicle_type_id":"4","last_reported":1729955272,"current_range_meters":36000,"station_id":"ce4bgv92rcd13ifvqcr0","pricing_plan_id":"cebpf4jnsgd1na2vs0mg"},{"bike_id":"cc0ec11a-3289-446f-a3e8-c0a868cda363","system_id":"levelo_inurba_marseille","lat":43.30252,"lon":5.40072,"is_reserved":false,"is_disabled":false,"rental_uris":{"android":"levelo://app?vid=cc0ec11a-3289-446f-a3e8-c0a868cda363","ios":"levelo://app?vid=cc0ec11a-3289-446f-a3e8-c0a868cda363"},"vehicle_type_id":"4","last_reported":1729955272,"current_range_meters":38800,"station_id":"ce4bgvh2rcd13ifvqcs0","pricing_plan_id":"cebpf4jnsgd1na2vs0mg"},{"bike_id":"89137a88-9ba8-40ff-8c0a-4d621039e5f6","system_id":"levelo_inurba_marseille","lat":43.29194,"lon":5.35807,"is_reserved":false,"is_disabled":false,"rental_uris":{"android":"levelo://app?vid=89137a88-9ba8-40ff-8c0a-4d621039e5f6","ios":"levelo://app?vid=89137a88-9ba8-40ff-8c0a-4d621039e5f6"},"vehicle_type_id":"4","last_reported":1729955272,"current_range_meters":36400,"station_id":"ce4bhb12rcd13ifvqel0","pricing_plan_id":"cebpf4jnsgd1na2vs0mg"},{"bike_id":"e89316dc-a19a-469f-a9cd-dc00b495757e","system_id":"levelo_inurba_marseille","lat":43.27416,"lon":5.40637,"is_reserved":false,"is_disabled":false,"rental_uris":{"android":"levelo://app?vid=e89316dc-a19a-469f-a9cd-dc00b495757e","ios":"levelo://app?vid=e89316dc-a19a-469f-a9cd-dc00b495757e"},"vehicle_type_id":"4","last_reported":1729955272,"current_range_meters":14400,"station_id":"","pricing_plan_id":"cebpf4jnsgd1na2vs0mg"},{"bike_id":"bcf262f3-5451-45c4-b42e-8c801e6da553","system_id":"levelo_inurba_marseille","lat":43.29438,"lon":5.39752,"is_reserved":false,"is_disabled":false,"rental_uris":{"android":"levelo://app?vid=bcf262f3-5451-45c4-b42e-8c801e6da553","ios":"levelo://app?vid=bcf262f3-5451-45c4-b42e-8c801e6da553"},"vehicle_type_id":"4","last_reported":1729955272,"current_range_meters":30000,"station_id":"ce4bh3h2rcd13ifvqdo0","pricing_plan_id":"cebpf4jnsgd1na2vs0mg"},{"bike_id":"a09c0ed8-b892-443a-82f5-b903da618355","system_id":"levelo_inurba_marseille","lat":43.30094,"lon":5.39072,"is_reserved":false,"is_disabled":false,"rental_uris":{"android":"levelo://app?vid=a09c0ed8-b892-443a-82f5-b903da618355","ios":"levelo://app?vid=a09c0ed8-b892-443a-82f5-b903da618355"},"vehicle_type_id":"4","last_reported":1729955272,"current_range_meters":38800,"station_id":"ce4bh192rcd13ifvqdb0","pricing_plan_id":"cebpf4jnsgd1na2vs0mg"},{"bike_id":"fa30867d-31fd-449d-bf86-f380d61b29ca","system_id":"levelo_inurba_marseille","lat":43.28426,"lon":5.34993,"is_reserved":false,"is_disabled":false,"rental_uris":{"android":"levelo://app?vid=fa30867d-31fd-449d-bf86-f380d61b29ca","ios":"levelo://app?vid=fa30867d-31fd-449d-bf86-f380d61b29ca"},"vehicle_type_id":"4","last_reported":1729955272,"current_range_meters":36400,"station_id":"ce4bhbh2rcd13ifvqepg","pricing_plan_id":"cebpf4jnsgd1na2vs0mg"},{"bike_id":"332da9d5-f0f1-4cf2-811d-ffee94be1ccc","system_id":"levelo_inurba_marseille","lat":43.28417,"lon":5.34987,"is_reserved":false,"is_disabled":false,"rental_uris":{"android":"levelo://app?vid=332da9d5-f0f1-4cf2-811d-ffee94be1ccc","ios":"levelo://app?vid=332da9d5-f0f1-4cf2-811d-ffee94be1ccc"},"vehicle_type_id":"4","last_reported":1729955272,"current_range_meters":38800,"station_id":"ce4bhbh2rcd13ifvqepg","pricing_plan_id":"cebpf4jnsgd1na2vs0mg"},{"bike_id":"304501af-8b2a-4e89-816d-264a8cc49d9e","system_id":"levelo_inurba_marseille","lat":43.26068,"lon":5.39401,"is_reserved":false,"is_disabled":false,"rental_uris":{"android":"levelo://app?vid=304501af-8b2a-4e89-816d-264a8cc49d9e","ios":"levelo://app?vid=304501af-8b2a-4e89-816d-264a8cc49d9e"},"vehicle_type_id":"4","last_reported":1729955272,"current_range_meters":5600,"station_id":"ce4bhh92rcd13ifvqfj0","pricing_plan_id":"cebpf4jnsgd1na2vs0mg"},{"bike_id":"c1bf6512-cbca-4dd0-9fce-347eb9a22b77","system_id":"levelo_inurba_marseille","lat":43.30157,"lon":5.3808,"is_reserved":false,"is_disabled":false,"rental_uris":{"android":"levelo://app?vid=c1bf6512-cbca-4dd0-9fce-347eb9a22b77","ios":"levelo://app?vid=c1bf6512-cbca-4dd0-9fce-347eb9a22b77"},"vehicle_type_id":"4","last_reported":1729955272,"current_range_meters":35600,"station_id":"ce4bgjp2rcd13ifvqbh0","pricing_plan_id":"cebpf4jnsgd1na2vs0mg"},{"bike_id":"c118d512-c17f-4947-89e5-5e866e12167f","system_id":"levelo_inurba_marseille","lat":43.28407,"lon":5.34993,"is_reserved":false,"is_disabled":false,"rental_uris":{"android":"levelo://app?vid=c118d512-c17f-4947-89e5-5e866e12167f","ios":"levelo://app?vid=c118d512-c17f-4947-89e5-5e866e12167f"},"vehicle_type_id":"4","last_reported":1729955272,"current_range_meters":39200,"station_id":"ce4bhbh2rcd13ifvqepg","pricing_plan_id":"cebpf4jnsgd1na2vs0mg"},{"bike_id":"4a08e4d6-633e-4604-8605-4a562fa4e6b8","system_id":"levelo_inurba_marseille","lat":43.30209,"lon":5.36618,"is_reserved":false,"is_disabled":false,"rental_uris":{"android":"levelo://app?vid=4a08e4d6-633e-4604-8605-4a562fa4e6b8","ios":"levelo://app?vid=4a08e4d6-633e-4604-8605-4a562fa4e6b8"},"vehicle_type_id":"4","last_reported":1729955272,"current_range_meters":10800,"station_id":"ce4bgrh2rcd13ifvqc8g","pricing_plan_id":"cebpf4jnsgd1na2vs0mg"},{"bike_id":"7063d9c0-83c2-4a2e-94fa-e2af7be4d467","system_id":"levelo_inurba_marseille","lat":43.30148,"lon":5.38078,"is_reserved":false,"is_disabled":false,"rental_uris":{"android":"levelo://app?vid=7063d9c0-83c2-4a2e-94fa-e2af7be4d467","ios":"levelo://app?vid=7063d9c0-83c2-4a2e-94fa-e2af7be4d467"},"vehicle_type_id":"4","last_reported":1729955272,"current_range_meters":17200,"station_id":"ce4bgjp2rcd13ifvqbh0","pricing_plan_id":"cebpf4jnsgd1na2vs0mg"},{"bike_id":"0a36a795-9b27-4701-8f95-1ca7c0699e55","system_id":"levelo_inurba_marseille","lat":43.262,"lon":5.37932,"is_reserved":false,"is_disabled":false,"rental_uris":{"android":"levelo://app?vid=0a36a795-9b27-4701-8f95-1ca7c0699e55","ios":"levelo://app?vid=0a36a795-9b27-4701-8f95-1ca7c0699e55"},"vehicle_type_id":"4","last_reported":1729955272,"current_range_meters":38800,"station_id":"ce4bhjp2rcd13ifvqg90","pricing_plan_id":"cebpf4jnsgd1na2vs0mg"},{"bike_id":"f0a235e8-9a12-452d-825e-f30568e2dac3","system_id":"levelo_inurba_marseille","lat":43.2481,"lon":5.37456,"is_reserved":false,"is_disabled":false,"rental_uris":{"android":"levelo://app?vid=f0a235e8-9a12-452d-825e-f30568e2dac3","ios":"levelo://app?vid=f0a235e8-9a12-452d-825e-f30568e2dac3"},"vehicle_type_id":"4","last_reported":1729955272,"current_range_meters":38800,"station_id":"ce4bhgh2rcd13ifvqfb0","pricing_plan_id":"cebpf4jnsgd1na2vs0mg"},{"bike_id":"4d18fdf7-40fd-43b3-89ca-7d0f38bd83c5","system_id":"levelo_inurba_marseille","lat":43.32468,"lon":5.36555,"is_reserved":false,"is_disabled":false,"rental_uris":{"android":"levelo://app?vid=4d18fdf7-40fd-43b3-89ca-7d0f38bd83c5","ios":"levelo://app?vid=4d18fdf7-40fd-43b3-89ca-7d0f38bd83c5"},"vehicle_type_id":"4","last_reported":1729955272,"current_range_meters":28000,"station_id":"ce4bhs12rcd13ifvqhvg","pricing_plan_id":"cebpf4jnsgd1na2vs0mg"},{"bike_id":"ec544e73-f03c-418a-b19e-58778fa8a67d","system_id":"levelo_inurba_marseille","lat":43.23197,"lon":5.35547,"is_reserved":false,"is_disabled":false,"rental_uris":{"android":"levelo://app?vid=ec544e73-f03c-418a-b19e-58778fa8a67d","ios":"levelo://app?vid=ec544e73-f03c-418a-b19e-58778fa8a67d"},"vehicle_type_id":"4","last_reported":1729955272,"current_range_meters":38800,"station_id":"ce4bhu92rcd13ifvqi70","pricing_plan_id":"cebpf4jnsgd1na2vs0mg"},{"bike_id":"4fce8218-6bfc-440b-b108-5cf1b5e5e58a","system_id":"levelo_inurba_marseille","lat":43.23195,"lon":5.35553,"is_reserved":false,"is_disabled":false,"rental_uris":{"android":"levelo://app?vid=4fce8218-6bfc-440b-b108-5cf1b5e5e58a","ios":"levelo://app?vid=4fce8218-6bfc-440b-b108-5cf1b5e5e58a"},"vehicle_type_id":"4","last_reported":1729955272,"current_range_meters":38800,"station_id":"ce4bhu92rcd13ifvqi70","pricing_plan_id":"cebpf4jnsgd1na2vs0mg"},{"bike_id":"5cd7f125-2c7c-4033-b445-e92c97d519fb","system_id":"levelo_inurba_marseille","lat":43.27834,"lon":5.39201,"is_reserved":false,"is_disabled":false,"rental_uris":{"android":"levelo://app?vid=5cd7f125-2c7c-4033-b445-e92c97d519fb","ios":"levelo://app?vid=5cd7f125-2c7c-4033-b445-e92c97d519fb"},"vehicle_type_id":"4","last_reported":1729955272,"current_range_meters":38800,"station_id":"ce4bhjp2rcd13ifvqga0","pricing_plan_id":"cebpf4jnsgd1na2vs0mg"},{"bike_id":"f2e4cb06-eb71-47a5-a1f6-1cfda78f6520","system_id":"levelo_inurba_marseille","lat":43.29263,"lon":5.38436,"is_reserved":false,"is_disabled":false,"rental_uris":{"android":"levelo://app?vid=f2e4cb06-eb71-47a5-a1f6-1cfda78f6520","ios":"levelo://app?vid=f2e4cb06-eb71-47a5-a1f6-1cfda78f6520"},"vehicle_type_id":"4","last_reported":1729955272,"current_range_meters":38800,"station_id":"ce4bh692rcd13ifvqea0","pricing_plan_id":"cebpf4jnsgd1na2vs0mg"},{"bike_id":"9bf00330-3b1e-4799-983d-bdfd757068d7","system_id":"levelo_inurba_marseille","lat":43.29978,"lon":5.38489,"is_reserved":false,"is_disabled":false,"rental_uris":{"android":"levelo://app?vid=9bf00330-3b1e-4799-983d-bdfd757068d7","ios":"levelo://app?vid=9bf00330-3b1e-4799-983d-bdfd757068d7"},"vehicle_type_id":"4","last_reported":1729955272,"current_range_meters":39200,"station_id":"ce4bgj92rcd13ifvqbd0","pricing_plan_id":"cebpf4jnsgd1na2vs0mg"},{"bike_id":"c4b8ad53-bf8e-4f0a-8b78-31e3e2abf426","system_id":"levelo_inurba_marseille","lat":43.29787,"lon":5.381,"is_reserved":false,"is_disabled":false,"rental_uris":{"android":"levelo://app?vid=c4b8ad53-bf8e-4f0a-8b78-31e3e2abf426","ios":"levelo://app?vid=c4b8ad53-bf8e-4f0a-8b78-31e3e2abf426"},"vehicle_type_id":"4","last_reported":1729955272,"current_range_meters":30800,"station_id":"ce4bgip2rcd13ifvqbb0","pricing_plan_id":"cebpf4jnsgd1na2vs0mg"},{"bike_id":"e8902819-6453-40a6-9e4e-de04877554c5","system_id":"levelo_inurba_marseille","lat":43.26564,"lon":5.39012,"is_reserved":false,"is_disabled":false,"rental_uris":{"android":"levelo://app?vid=e8902819-6453-40a6-9e4e-de04877554c5","ios":"levelo://app?vid=e8902819-6453-40a6-9e4e-de04877554c5"},"vehicle_type_id":"4","last_reported":1729955272,"current_range_meters":36800,"station_id":"ce4bhe12rcd13ifvqf30","pricing_plan_id":"cebpf4jnsgd1na2vs0mg"},{"bike_id":"bcd3886e-13e7-4573-9a66-5769ec1af84f","system_id":"levelo_inurba_marseille","lat":43.306443,"lon":5.401054,"is_reserved":false,"is_disabled":false,"rental_uris":{"android":"levelo://app?vid=bcd3886e-13e7-4573-9a66-5769ec1af84f","ios":"levelo://app?vid=bcd3886e-13e7-4573-9a66-5769ec1af84f"},"vehicle_type_id":"4","last_reported":1729955272,"current_range_meters":36000,"station_id":"ce4bh112rcd13ifvqda0","pricing_plan_id":"cebpf4jnsgd1na2vs0mg"},{"bike_id":"2d070e6e-7307-42c5-b537-ff3bfacdf833","system_id":"levelo_inurba_marseille","lat":43.309073,"lon":5.36847,"is_reserved":false,"is_disabled":false,"rental_uris":{"android":"levelo://app?vid=2d070e6e-7307-42c5-b537-ff3bfacdf833","ios":"levelo://app?vid=2d070e6e-7307-42c5-b537-ff3bfacdf833"},"vehicle_type_id":"4","last_reported":1729955272,"current_range_meters":4400,"station_id":"ce4bgn92rcd13ifvqbvg","pricing_plan_id":"cebpf4jnsgd1na2vs0mg"},{"bike_id":"08797ce1-fa1b-4528-ac95-0ee8fa1ecee5","system_id":"levelo_inurba_marseille","lat":43.29513,"lon":5.39407,"is_reserved":false,"is_disabled":false,"rental_uris":{"android":"levelo://app?vid=08797ce1-fa1b-4528-ac95-0ee8fa1ecee5","ios":"levelo://app?vid=08797ce1-fa1b-4528-ac95-0ee8fa1ecee5"},"vehicle_type_id":"4","last_reported":1729955272,"current_range_meters":9200,"station_id":"ce4bh292rcd13ifvqdf0","pricing_plan_id":"cebpf4jnsgd1na2vs0mg"},{"bike_id":"45dceeb2-6507-4dc5-9561-9a9b56b2b743","system_id":"levelo_inurba_marseille","lat":43.26192,"lon":5.37447,"is_reserved":false,"is_disabled":false,"rental_uris":{"android":"levelo://app?vid=45dceeb2-6507-4dc5-9561-9a9b56b2b743","ios":"levelo://app?vid=45dceeb2-6507-4dc5-9561-9a9b56b2b743"},"vehicle_type_id":"4","last_reported":1729955272,"current_range_meters":33600,"station_id":"ce4bhgp2rcd13ifvqfc0","pricing_plan_id":"cebpf4jnsgd1na2vs0mg"},{"bike_id":"7af0d532-f314-459d-aee5-f126a8ca0f1d","system_id":"levelo_inurba_marseille","lat":43.22929,"lon":5.3538,"is_reserved":false,"is_disabled":false,"rental_uris":{"android":"levelo://app?vid=7af0d532-f314-459d-aee5-f126a8ca0f1d","ios":"levelo://app?vid=7af0d532-f314-459d-aee5-f126a8ca0f1d"},"vehicle_type_id":"4","last_reported":1729955272,"current_range_meters":11600,"station_id":"cpo3532slgdg3j2ikp40","pricing_plan_id":"cebpf4jnsgd1na2vs0mg"},{"bike_id":"e1314ed5-bb87-47c5-9705-18b530b8eb05","system_id":"levelo_inurba_marseille","lat":43.25492,"lon":5.37651,"is_reserved":false,"is_disabled":false,"rental_uris":{"android":"levelo://app?vid=e1314ed5-bb87-47c5-9705-18b530b8eb05","ios":"levelo://app?vid=e1314ed5-bb87-47c5-9705-18b530b8eb05"},"vehicle_type_id":"4","last_reported":1729955272,"current_range_meters":20000,"station_id":"ce4bhh12rcd13ifvqff0","pricing_plan_id":"cebpf4jnsgd1na2vs0mg"},