{"last_updated":1761944945,"ttl":60,"version":"2.2","data":{"bikes":[{"bike_id":"502d8826-83c4-45cd-b1be-c0ab97727776","system_id":"levelo_inurba_marseille","lat":43.33737,"lon":5.39181,"is_reserved":false,"is_disabled":false,"rental_uris":{"android":"levelo://app?vid=502d8826-83c4-45cd-b1be-c0ab97727776","ios":"levelo://app?vid=502d8826-83c4-45cd-b1be-c0ab97727776"},"vehicle_type_id":"4","last_reported":1761944945,"current_range_meters":2800,"station_id":"ce4bhr92rcd13ifvqhsg","pricing_plan_id":"cebpf4jnsgd1na2vs0mg"},{"bike_id":"9ae16a52-ecd2-4311-a2b2-c689f979bf0b","system_id":"levelo_inurba_marseille","lat":43.305093,"lon":5.366461,"is_reserved":false,"is_disabled":false,"rental_uris":{"android":"levelo://app?vid=9ae16a52-ecd2-4311-a2b2-c689f979bf0b","ios":"levelo://app?vid=9ae16a52-ecd2-4311-a2b2-c689f979bf0b"},"vehicle_type_id":"4","last_reported":1761944945,"current_range_meters":3200,"station_id":"ce4bgs12rcd13ifvqcag","pricing_plan_id":"cebpf4jnsgd1na2vs0mg"},{"bike_id":"07ab9954-32cf-4fab-9665-b0ef7ce00618","system_id":"levelo_inurba_marseille","lat":43.28919,"lon":5.38404,"is_reserved":false,"is_disabled":false,"rental_uris":{"android":"levelo://app?vid=07ab9954-32cf-4fab-9665-b0ef7ce00618","ios":"levelo://app?vid=07ab9954-32cf-4fab-9665-b0ef7ce00618"},"vehicle_type_id":"4","last_reported":1761944945,"current_range_meters":3600,"station_id":"ce4bh612rcd13ifvqe6g","pricing_plan_id":"cebpf4jnsgd1na2vs0mg"},{"bike_id":"f14b56ec-24f6-484f-a9d0-f3c621de8598","system_id":"levelo_inurba_marseille","lat":43.28703,"lon":5.39988,"is_reserved":false,"is_disabled":false,"rental_uris":{"android":"levelo://app?vid=f14b56ec-24f6-484f-a9d0-f3c621de8598","ios":"levelo://app?vid=f14b56ec-24f6-484f-a9d0-f3c621de8598"},"vehicle_type_id":"4","last_reported":1761944945,"current_range_meters":3600,"station_id":"ce4bho92rcd13ifvqh3g","pricing_plan_id":"cebpf4jnsgd1na2vs0mg"},{"bike_id":"d644be15-9f0d-4b98-9d73-034d6ddb6e4b","system_id":"levelo_inurba_marseille","lat":43.3015,"lon":5.38777,"is_reserved":false,"is_disabled":false,"rental_uris":{"android":"levelo://app?vid=d644be15-9f0d-4b98-9d73-034d6ddb6e4b","ios":"levelo://app?vid=d644be15-9f0d-4b98-9d73-034d6ddb6e4b"},"vehicle_type_id":"4","last_reported":1761944945,"current_range_meters":4400,"station_id":"ce4bghh2rcd13ifvqb60","pricing_plan_id":"cebpf4jnsgd1na2vs0mg"},{"bike_id":"a9faedb9-b317-4957-b98a-d17d9b92dad3","system_id":"levelo_inurba_marseille","lat":43.305178,"lon":5.366189,"is_reserved":false,"is_disabled":false,"rental_uris":{"android":"levelo://app?vid=a9faedb9-b317-4957-b98a-d17d9b92dad3","ios":"levelo://app?vid=a9faedb9-b317-4957-b98a-d17d9b92dad3"},"vehicle_type_id":"4","last_reported":1761944945,"current_range_meters":4400,"station_id":"ce4bgs12rcd13ifvqcag","pricing_plan_id":"cebpf4jnsgd1na2vs0mg"},{"bike_id":"bc7554f1-fd4e-4580-b5d0-02a99a9e8c2b","system_id":"levelo_inurba_marseille","lat":43.291973,"lon":5.393268,"is_reserved":false,"is_disabled":false,"rental_uris":{"android":"levelo://app?vid=bc7554f1-fd4e-4580-b5d0-02a99a9e8c2b","ios":"levelo://app?vid=bc7554f1-fd4e-4580-b5d0-02a99a9e8c2b"},"vehicle_type_id":"4","last_reported":1761944945,"current_range_meters":4400,"station_id":"ce4bh192rcd13ifvqdd0","pricing_plan_id":"cebpf4jnsgd1na2vs0mg"},{"bike_id":"7429e722-0140-4583-bd6d-6fc4e8aad56b","system_id":"levelo_inurba_marseille","lat":43.30515,"lon":5.37084,"is_reserved":false,"is_disabled":false,"rental_uris":{"android":"levelo://app?vid=7429e722-0140-4583-bd6d-6fc4e8aad56b","ios":"levelo://app?vid=7429e722-0140-4583-bd6d-6fc4e8aad56b"},"vehicle_type_id":"4","last_reported":1761944945,"current_range_meters":4800,"station_id":"","pricing_plan_id":"cebpf4jnsgd1na2vs0mg"},{"bike_id":"b8e8f624-25f1-4537-845a-1740b5f64814","system_id":"levelo_inurba_marseille","lat":43.29555,"lon":5.4227,"is_reserved":false,"is_disabled":false,"rental_uris":{"android":"levelo://app?vid=b8e8f624-25f1-4537-845a-1740b5f64814","ios":"levelo://app?vid=b8e8f624-25f1-4537-845a-1740b5f64814"},"vehicle_type_id":"4","last_reported":1761944945,"current_range_meters":5600,"station_id":"ce4bhph2rcd13ifvqhdg","pricing_plan_id":"cebpf4jnsgd1na2vs0mg"},{"bike_id":"c7712653-9fe0-4bdc-8aa3-75545e0ff7ef","system_id":"levelo_inurba_marseille","lat":43.29586,"lon":5.38084,"is_reserved":false,"is_disabled":false,"rental_uris":{"android":"levelo://app?vid=c7712653-9fe0-4bdc-8aa3-75545e0ff7ef","ios":"levelo://app?vid=c7712653-9fe0-4bdc-8aa3-75545e0ff7ef"},"vehicle_type_id":"4","last_reported":1761944945,"current_range_meters":5600,"station_id":"ce4bgl12rcd13ifvqbo0","pricing_plan_id":"cebpf4jnsgd1na2vs0mg"},{"bike_id":"1bdb0524-fd2f-434a-9e83-4b7a1a09b5bb","system_id":"levelo_inurba_marseille","lat":43.33388,"lon":5.41127,"is_reserved":false,"is_disabled":false,"rental_uris":{"android":"levelo://app?vid=1bdb0524-fd2f-434a-9e83-4b7a1a09b5bb","ios":"levelo://app?vid=1bdb0524-fd2f-434a-9e83-4b7a1a09b5bb"},"vehicle_type_id":"4","last_reported":1761944945,"current_range_meters":5600,"station_id":"","pricing_plan_id":"cebpf4jnsgd1na2vs0mg"},{"bike_id":"cf23487d-e129-4524-afd6-124971a910ea","system_id":"levelo_inurba_marseille","lat":43.27953,"lon":5.41042,"is_reserved":false,"is_disabled":true,"rental_uris":{"android":"levelo://app?vid=cf23487d-e129-4524-afd6-124971a910ea","ios":"levelo://app?vid=cf23487d-e129-4524-afd6-124971a910ea"},"vehicle_type_id":"4","last_reported":1761944945,"current_range_meters":5600,"station_id":"ce4bhnp2rcd13ifvqh0g","pricing_plan_id":"cebpf4jnsgd1na2vs0mg"},{"bike_id":"6357b643-31fd-4ce9-bf78-eb6c2df213a2","system_id":"levelo_inurba_marseille","lat":43.29535,"lon":5.3902,"is_reserved":false,"is_disabled":false,"rental_uris":{"android":"levelo://app?vid=6357b643-31fd-4ce9-bf78-eb6c2df213a2","ios":"levelo://app?vid=6357b643-31fd-4ce9-bf78-eb6c2df213a2"},"vehicle_type_id":"4","last_reported":1761944945,"current_range_meters":6000,"station_id":"","pricing_plan_id":"cebpf4jnsgd1na2vs0mg"},{"bike_id":"6fff56e2-dc33-4322-9554-e738206d1bc0","system_id":"levelo_inurba_marseille","lat":43.211996,"lon":5.350703,"is_reserved":false,"is_disabled":false,"rental_uris":{"android":"levelo://app?vid=6fff56e2-dc33-4322-9554-e738206d1bc0","ios":"levelo://app?vid=6fff56e2-dc33-4322-9554-e738206d1bc0"},"vehicle_type_id":"4","last_reported":1761944945,"current_range_meters":6000,"station_id":"st_cvj6sg6p6f1abm77japg","pricing_plan_id":"cebpf4jnsgd1na2vs0mg"},{"bike_id":"a927b327-6c0a-4271-92d1-8aa8ec56ed3f","system_id":"levelo_inurba_marseille","lat":43.29541,"lon":5.3853,"is_reserved":false,"is_disabled":false,"rental_uris":{"android":"levelo://app?vid=a927b327-6c0a-4271-92d1-8aa8ec56ed3f","ios":"levelo://app?vid=a927b327-6c0a-4271-92d1-8aa8ec56ed3f"},"vehicle_type_id":"4","last_reported":1761944945,"current_range_meters":6000,"station_id":"ce4bgih2rcd13ifvqba0","pricing_plan_id":"cebpf4jnsgd1na2vs0mg"},{"bike_id":"9428dc4b-ff25-45b3-9a45-85cbb356adbf","system_id":"levelo_inurba_marseille","lat":43.279922,"lon":5.400151,"is_reserved":false,"is_disabled":false,"rental_uris":{"android":"levelo://app?vid=9428dc4b-ff25-45b3-9a45-85cbb356adbf","ios":"levelo://app?vid=9428dc4b-ff25-45b3-9a45-85cbb356adbf"},"vehicle_type_id":"4","last_reported":1761944945,"current_range_meters":6000,"station_id":"ce4bho92rcd13ifvqh4g","pricing_plan_id":"cebpf4jnsgd1na2vs0mg"},{"bike_id":"4ea5c8d3-596b-4c15-9f77-2d54d14bff42","system_id":"levelo_inurba_marseille","lat":43.29875,"lon":5.3844,"is_reserved":false,"is_disabled":false,"rental_uris":{"android":"levelo://app?vid=4ea5c8d3-596b-4c15-9f77-2d54d14bff42","ios":"levelo://app?vid=4ea5c8d3-596b-4c15-9f77-2d54d14bff42"},"vehicle_type_id":"4","last_reported":1761944945,"current_range_meters":6400,"station_id":"","pricing_plan_id":"cebpf4jnsgd1na2vs0mg"},{"bike_id":"fa011bd5-1350-4ec8-b183-d91bb96d566b","system_id":"levelo_inurba_marseille","lat":43.29524,"lon":5.37421,"is_reserved":false,"is_disabled":false,"rental_uris":{"android":"levelo://app?vid=fa011bd5-1350-4ec8-b183-d91bb96d566b","ios":"levelo://app?vid=fa011bd5-1350-4ec8-b183-d91bb96d566b"},"vehicle_type_id":"4","last_reported":1761944945,"current_range_meters":6400,"station_id":"","pricing_plan_id":"cebpf4jnsgd1na2vs0mg"},{"bike_id":"3f9d89b0-a3c3-4b72-9969-08e348af8256","system_id":"levelo_inurba_marseille","lat":43.2981,"lon":5.40151,"is_reserved":false,"is_disabled":false,"rental_uris":{"android":"levelo://app?vid=3f9d89b0-a3c3-4b72-9969-08e348af8256","ios":"levelo://app?vid=3f9d89b0-a3c3-4b72-9969-08e348af8256"},"vehicle_type_id":"4","last_reported":1761944945,"current_range_meters":6400,"station_id":"","pricing_plan_id":"cebpf4jnsgd1na2vs0mg"},{"bike_id":"80fd7b6f-02fc-4b4e-933d-ac70be1c749c","system_id":"levelo_inurba_marseille","lat":43.31079,"lon":5.38346,"is_reserved":false,"is_disabled":false,"rental_uris":{"android":"levelo://app?vid=80fd7b6f-02fc-4b4e-933d-ac70be1c749c","ios":"levelo://app?vid=80fd7b6f-02fc-4b4e-933d-ac70be1c749c"},"vehicle_type_id":"4","last_reported":1761944945,"current_range_meters":6400,"station_id":"ce4bgv92rcd13ifvqcr0","pricing_plan_id":"cebpf4jnsgd1na2vs0mg"},{"bike_id":"31a528f3-996d-4aca-a1bf-664511e545a5","system_id":"levelo_inurba_marseille","lat":43.26579,"lon":5.39034,"is_reserved":false,"is_disabled":false,"rental_uris":{"android":"levelo://app?vid=31a528f3-996d-4aca-a1bf-664511e545a5","ios":"levelo://app?vid=31a528f3-996d-4aca-a1bf-664511e545a5"},"vehicle_type_id":"4","last_reported":1761944945,"current_range_meters":6800,"station_id":"ce4bhe12rcd13ifvqf30","pricing_plan_id":"cebpf4jnsgd1na2vs0mg"},{"bike_id":"f31218a3-ea7f-4068-a790-13a4c876fc84","system_id":"levelo_inurba_marseille","lat":43.24076,"lon":5.37758,"is_reserved":false,"is_disabled":false,"rental_uris":{"android":"levelo://app?vid=f31218a3-ea7f-4068-a790-13a4c876fc84","ios":"levelo://app?vid=f31218a3-ea7f-4068-a790-13a4c876fc84"},"vehicle_type_id":"4","last_reported":1761944945,"current_range_meters":6800,"station_id":"ce4bhnp2rcd13ifvqgvg","pricing_plan_id":"cebpf4jnsgd1na2vs0mg"},{"bike_id":"d6586133-59d5-4a3c-937f-8ea966a157bc","system_id":"levelo_inurba_marseille","lat":43.29549,"lon":5.42291,"is_reserved":false,"is_disabled":false,"rental_uris":{"android":"levelo://app?vid=d6586133-59d5-4a3c-937f-8ea966a157bc","ios":"levelo://app?vid=d6586133-59d5-4a3c-937f-8ea966a157bc"},"vehicle_type_id":"4","last_reported":1761944945,"current_range_meters":6800,"station_id":"ce4bhph2rcd13ifvqhdg","pricing_plan_id":"cebpf4jnsgd1na2vs0mg"},{"bike_id":"e8bc0e1a-6a90-4c09-acee-b21b47dd9594","system_id":"levelo_inurba_marseille","lat":43.24068,"lon":5.37764,"is_reserved":false,"is_disabled":false,"rental_uris":{"android":"levelo://app?vid=e8bc0e1a-6a90-4c09-acee-b21b47dd9594","ios":"levelo://app?vid=e8bc0e1a-6a90-4c09-acee-b21b47dd9594"},"vehicle_type_id":"4","last_reported":1761944945,"current_range_meters":6800,"station_id":"ce4bhnp2rcd13ifvqgvg","pricing_plan_id":"cebpf4jnsgd1na2vs0mg"},{"bike_id":"afd3bf2e-00d1-41f8-ad90-f5c852d4383e","system_id":"levelo_inurba_marseille","lat":43.25329,"lon":5.42161,"is_reserved":false,"is_disabled":false,"rental_uris":{"android":"levelo://app?vid=afd3bf2e-00d1-41f8-ad90-f5c852d4383e","ios":"levelo://app?vid=afd3bf2e-00d1-41f8-ad90-f5c852d4383e"},"vehicle_type_id":"4","last_reported":1761944945,"current_range_meters":7200,"station_id":"st_d2m65c5bi1j21697t3ng","pricing_plan_id":"cebpf4jnsgd1na2vs0mg"},{"bike_id":"da503111-5feb-4a8e-b697-ab299317bc1a","system_id":"levelo_inurba_marseille","lat":43.28498,"lon":5.36648,"is_reserved":false,"is_disabled":false,"rental_uris":{"android":"levelo://app?vid=da503111-5feb-4a8e-b697-ab299317bc1a","ios":"levelo://app?vid=da503111-5feb-4a8e-b697-ab299317bc1a"},"vehicle_type_id":"4","last_reported":1761944945,"current_range_meters":7200,"station_id":"","pricing_plan_id":"cebpf4jnsgd1na2vs0mg"},{"bike_id":"5e9a2fb0-3d1f-4ee8-be23-59bdddeead25","system_id":"levelo_inurba_marseille","lat":43.27173,"lon":5.40991,"is_reserved":false,"is_disabled":false,"rental_uris":{"android":"levelo://app?vid=5e9a2fb0-3d1f-4ee8-be23-59bdddeead25","ios":"levelo://app?vid=5e9a2fb0-3d1f-4ee8-be23-59bdddeead25"},"vehicle_type_id":"4","last_reported":1761944945,"current_range_meters":8000,"station_id":"ce4bhl12rcd13ifvqgf0","pricing_plan_id":"cebpf4jnsgd1na2vs0mg"},{"bike_id":"688e0991-23bb-4f67-a97d-b9bb7704a66a","system_id":"levelo_inurba_marseille","lat":43.29255,"lon":5.39101,"is_reserved":false,"is_disabled":false,"rental_uris":{"android":"levelo://app?vid=688e0991-23bb-4f67-a97d-b9bb7704a66a","ios":"levelo://app?vid=688e0991-23bb-4f67-a97d-b9bb7704a66a"},"vehicle_type_id":"4","last_reported":1761944945,"current_range_meters":8000,"station_id":"","pricing_plan_id":"cebpf4jnsgd1na2vs0mg"},{"bike_id":"fcab4ddf-7c9a-4832-a957-af763c1f4abb","system_id":"levelo_inurba_marseille","lat":43.303803,"lon":5.424882,"is_reserved":false,"is_disabled":true,"rental_uris":{"android":"levelo://app?vid=fcab4ddf-7c9a-4832-a957-af763c1f4abb","ios":"levelo://app?vid=fcab4ddf-7c9a-4832-a957-af763c1f4abb"},"vehicle_type_id":"4","last_reported":1761944945,"current_range_meters":8000,"station_id":"ce4bhoh2rcd13ifvqh6g","pricing_plan_id":"cebpf4jnsgd1na2vs0mg"},{"bike_id":"1abd320b-ab5b-44b4-b9a9-87c468ee7bbe","system_id":"levelo_inurba_marseille","lat":43.29759,"lon":5.42775,"is_reserved":false,"is_disabled":false,"rental_uris":{"android":"levelo://app?vid=1abd320b-ab5b-44b4-b9a9-87c468ee7bbe","ios":"levelo://app?vid=1abd320b-ab5b-44b4-b9a9-87c468ee7bbe"},"vehicle_type_id":"4","last_reported":1761944945,"current_range_meters":8000,"station_id":"st_d3md5207bmas73dh9klg","pricing_plan_id":"cebpf4jnsgd1na2vs0mg"},{"bike_id":"3dab03ab-b250-4b40-b286-0668266ab52e","system_id":"levelo_inurba_marseille","lat":43.28843,"lon":5.42547,"is_reserved":false,"is_disabled":false,"rental_uris":{"android":"levelo://app?vid=3dab03ab-b250-4b40-b286-0668266ab52e","ios":"levelo://app?vid=3dab03ab-b250-4b40-b286-0668266ab52e"},"vehicle_type_id":"4","last_reported":1761944945,"current_range_meters":8400,"station_id":"st_d3b462108ojc7389ooeg","pricing_plan_id":"cebpf4jnsgd1na2vs0mg"},{"bike_id":"3e716c83-eb12-4182-82df-d984023cd7b3","system_id":"levelo_inurba_marseille","lat":43.31079,"lon":5.42428,"is_reserved":false,"is_disabled":false,"rental_uris":{"android":"levelo://app?vid=3e716c83-eb12-4182-82df-d984023cd7b3","ios":"levelo://app?vid=3e716c83-eb12-4182-82df-d984023cd7b3"},"vehicle_type_id":"4","last_reported":1761944945,"current_range_meters":8400,"station_id":"ce4bhp92rcd13ifvqhag","pricing_plan_id":"cebpf4jnsgd1na2vs0mg"},{"bike_id":"a4d9f483-8f0a-49ef-9cd7-4ad162a64b53","system_id":"levelo_inurba_marseille","lat":43.27615,"lon":5.36102,"is_reserved":false,"is_disabled":false,"rental_uris":{"android":"levelo://app?vid=a4d9f483-8f0a-49ef-9cd7-4ad162a64b53","ios":"levelo://app?vid=a4d9f483-8f0a-49ef-9cd7-4ad162a64b53"},"vehicle_type_id":"4","last_reported":1761944945,"current_range_meters":8400,"station_id":"ce4bgj92rcd13ifvqbe0","pricing_plan_id":"cebpf4jnsgd1na2vs0mg"},{"bike_id":"dbbf01d5-146c-4703-b0d4-a6fb876476cb","system_id":"levelo_inurba_marseille","lat":43.21203,"lon":5.35062,"is_reserved":false,"is_disabled":false,"rental_uris":{"android":"levelo://app?vid=dbbf01d5-146c-4703-b0d4-a6fb876476cb","ios":"levelo://app?vid=dbbf01d5-146c-4703-b0d4-a6fb876476cb"},"vehicle_type_id":"4","last_reported":1761944945,"current_range_meters":8400,"station_id":"st_cvj6sg6p6f1abm77japg","pricing_plan_id":"cebpf4jnsgd1na2vs0mg"},{"bike_id":"48354618-551b-491c-832b-8b2ae071cf1a","system_id":"levelo_inurba_marseille","lat":43.28536,"lon":5.44074,"is_reserved":false,"is_disabled":false,"rental_uris":{"android":"levelo://app?vid=48354618-551b-491c-832b-8b2ae071cf1a","ios":"levelo://app?vid=48354618-551b-491c-832b-8b2ae071cf1a"},"vehicle_type_id":"4","last_reported":1761944945,"current_range_meters":8400,"station_id":"st_d3j3df2ikq2c7380ej80","pricing_plan_id":"cebpf4jnsgd1na2vs0mg"},{"bike_id":"6dd1b229-aab1-46d0-aa93-9befb97ebcc8","system_id":"levelo_inurba_marseille","lat":43.29915,"lon":5.38154,"is_reserved":false,"is_disabled":false,"rental_uris":{"android":"levelo://app?vid=6dd1b229-aab1-46d0-aa93-9befb97ebcc8","ios":"levelo://app?vid=6dd1b229-aab1-46d0-aa93-9befb97ebcc8"},"vehicle_type_id":"4","last_reported":1761944945,"current_range_meters":8400,"station_id":"ce4bgj12rcd13ifvqbc0","pricing_plan_id":"cebpf4jnsgd1na2vs0mg"},{"bike_id":"d99505fe-d7a7-4e44-b7f5-f0065cd01a03","system_id":"levelo_inurba_marseille","lat":43.33375,"lon":5.42901,"is_reserved":false,"is_disabled":false,"rental_uris":{"android":"levelo://app?vid=d99505fe-d7a7-4e44-b7f5-f0065cd01a03","ios":"levelo://app?vid=d99505fe-d7a7-4e44-b7f5-f0065cd01a03"},"vehicle_type_id":"4","last_reported":1761944945,"current_range_meters":8800,"station_id":"","pricing_plan_id":"cebpf4jnsgd1na2vs0mg"},{"bike_id":"b7bf08da-3155-4ebd-90f6-2c65138a1e9a","system_id":"levelo_inurba_marseille","lat":43.2121,"lon":5.3506,"is_reserved":false,"is_disabled":false,"rental_uris":{"android":"levelo://app?vid=b7bf08da-3155-4ebd-90f6-2c65138a1e9a","ios":"levelo://app?vid=b7bf08da-3155-4ebd-90f6-2c65138a1e9a"},"vehicle_type_id":"4","last_reported":1761944945,"current_range_meters":8800,"station_id":"st_cvj6sg6p6f1abm77japg","pricing_plan_id":"cebpf4jnsgd1na2vs0mg"},{"bike_id":"a18dbf48-2c4d-4fa4-a4c5-c9871d73c9a0","system_id":"levelo_inurba_marseille","lat":43.301994,"lon":5.383462,"is_reserved":false,"is_disabled":false,"rental_uris":{"android":"levelo://app?vid=a18dbf48-2c4d-4fa4-a4c5-c9871d73c9a0","ios":"levelo://app?vid=a18dbf48-2c4d-4fa4-a4c5-c9871d73c9a0"},"vehicle_type_id":"4","last_reported":1761944945,"current_range_meters":8800,"station_id":"ce4bgup2rcd13ifvqcn0","pricing_plan_id":"cebpf4jnsgd1na2vs0mg"},{"bike_id":"4d5a84cf-43c4-406d-9f7a-e25a54322838","system_id":"levelo_inurba_marseille","lat":43.27373,"lon":5.36256,"is_reserved":false,"is_disabled":false,"rental_uris":{"android":"levelo://app?vid=4d5a84cf-43c4-406d-9f7a-e25a54322838","ios":"levelo://app?vid=4d5a84cf-43c4-406d-9f7a-e25a54322838"},"vehicle_type_id":"4","last_reported":1761944945,"current_range_meters":8800,"station_id":"ce4bhbh2rcd13ifvqeo0","pricing_plan_id":"cebpf4jnsgd1na2vs0mg"},{"bike_id":"aa2f553c-e345-4196-aab3-ca656545fe7f","system_id":"levelo_inurba_marseille","lat":43.27946,"lon":5.41031,"is_reserved":false,"is_disabled":false,"rental_uris":{"android":"levelo://app?vid=aa2f553c-e345-4196-aab3-ca656545fe7f","ios":"levelo://app?vid=aa2f553c-e345-4196-aab3-ca656545fe7f"},"vehicle_type_id":"4","last_reported":1761944945,"current_range_meters":8800,"station_id":"ce4bhnp2rcd13ifvqh0g","pricing_plan_id":"cebpf4jnsgd1na2vs0mg"},{"bike_id":"2ceba352-952b-458d-baea-a6c5f124f64c","system_id":"levelo_inurba_marseille","lat":43.30895,"lon":5.37184,"is_reserved":false,"is_disabled":false,"rental_uris":{"android":"levelo://app?vid=2ceba352-952b-458d-baea-a6c5f124f64c","ios":"levelo://app?vid=2ceba352-952b-458d-baea-a6c5f124f64c"},"vehicle_type_id":"4","last_reported":1761944945,"current_range_meters":8800,"station_id":"ce4bguh2rcd13ifvqckg","pricing_plan_id":"cebpf4jnsgd1na2vs0mg"},{"bike_id":"066f8f42-50ce-4c9b-b28d-05dec3aea7ee","system_id":"levelo_inurba_marseille","lat":43.29488,"lon":5.43292,"is_reserved":false,"is_disabled":false,"rental_uris":{"android":"levelo://app?vid=066f8f42-50ce-4c9b-b28d-05dec3aea7ee","ios":"levelo://app?vid=066f8f42-50ce-4c9b-b28d-05dec3aea7ee"},"vehicle_type_id":"4","last_reported":1761944945,"current_range_meters":8800,"station_id":"st_d3j5ugp08ojc73fj9d10","pricing_plan_id":"cebpf4jnsgd1na2vs0mg"},{"bike_id":"bba8a760-d801-41d5-9436-0ae8ff807609","system_id":"levelo_inurba_marseille","lat":43.29524,"lon":5.38539,"is_reserved":false,"is_disabled":false,"rental_uris":{"android":"levelo://app?vid=bba8a760-d801-41d5-9436-0ae8ff807609","ios":"levelo://app?vid=bba8a760-d801-41d5-9436-0ae8ff807609"},"vehicle_type_id":"4","last_reported":1761944945,"current_range_meters":8800,"station_id":"","pricing_plan_id":"cebpf4jnsgd1na2vs0mg"},{"bike_id":"9b93b5e1-c939-4745-bf85-2d21945442dc","system_id":"levelo_inurba_marseille","lat":43.2999,"lon":5.364,"is_reserved":false,"is_disabled":false,"rental_uris":{"android":"levelo://app?vid=9b93b5e1-c939-4745-bf85-2d21945442dc","ios":"levelo://app?vid=9b93b5e1-c939-4745-bf85-2d21945442dc"},"vehicle_type_id":"4","last_reported":1761944945,"current_range_meters":9200,"station_id":"","pricing_plan_id":"cebpf4jnsgd1na2vs0mg"},{"bike_id":"5f7bacda-dbee-4efd-8bdc-7c86b9cbff02","system_id":"levelo_inurba_marseille","lat":43.26498,"lon":5.39535,"is_reserved":false,"is_disabled":false,"rental_uris":{"android":"levelo://app?vid=5f7bacda-dbee-4efd-8bdc-7c86b9cbff02","ios":"levelo://app?vid=5f7bacda-dbee-4efd-8bdc-7c86b9cbff02"},"vehicle_type_id":"4","last_reported":1761944945,"current_range_meters":9200,"station_id":"ce4bhi12rcd13ifvqfq0","pricing_plan_id":"cebpf4jnsgd1na2vs0mg"},{"bike_id":"388fc2cb-97fc-4e8d-8993-c846b6e78a44","system_id":"levelo_inurba_marseille","lat":43.29467,"lon":5.43316,"is_reserved":false,"is_disabled":false,"rental_uris":{"android":"levelo://app?vid=388fc2cb-97fc-4e8d-8993-c846b6e78a44","ios":"levelo://app?vid=388fc2cb-97fc-4e8d-8993-c846b6e78a44"},"vehicle_type_id":"4","last_reported":1761944945,"current_range_meters":9200,"station_id":"st_d3j5ugp08ojc73fj9d10","pricing_plan_id":"cebpf4jnsgd1na2vs0mg"},{"bike_id":"d2bd2eb4-12ad-4389-9910-996e6983fbc2","system_id":"levelo_inurba_marseille","lat":43.28661,"lon":5.36351,"is_reserved":false,"is_disabled":false,"rental_uris":{"android":"levelo://app?vid=d2bd2eb4-12ad-4389-9910-996e6983fbc2","ios":"levelo://app?vid=d2bd2eb4-12ad-4389-9910-996e6983fbc2"},"vehicle_type_id":"4","last_reported":1761944945,"current_range_meters":9200,"station_id":"ce4bhah2rcd13ifvqej0","pricing_plan_id":"cebpf4jnsgd1na2vs0mg"},{"bike_id":"73955ae5-2322-4c9f-96fe-facb39d07be5","system_id":"levelo_inurba_marseille","lat":43.28848,"lon":5.39308,"is_reserved":false,"is_disabled":false,"rental_uris":{"android":"levelo://app?vid=73955ae5-2322-4c9f-96fe-facb39d07be5","ios":"levelo://app?vid=73955ae5-2322-4c9f-96fe-facb39d07be5"},"vehicle_type_id":"4","last_reported":1761944945,"current_range_meters":9200,"station_id":"ce4bh2p2rcd13ifvqdi0","pricing_plan_id":"cebpf4jnsgd1na2vs0mg"},{"bike_id":"ee4cff2d-ff81-46e1-8541-780f0acdc87c","system_id":"levelo_inurba_marseille","lat":43.311194,"lon":5.378061,"is_reserved":false,"is_disabled":false,"rental_uris":{"android":"levelo://app?vid=ee4cff2d-ff81-46e1-8541-780f0acdc87c","ios":"levelo://app?vid=ee4cff2d-ff81-46e1-8541-780f0acdc87c"},"vehicle_type_id":"4","last_reported":1761944945,"current_range_meters":9600,"station_id":"ce4bgt92rcd13ifvqcg0","pricing_plan_id":"cebpf4jnsgd1na2vs0mg"},{"bike_id":"064490eb-cdb8-4441-8bcd-fa7f2bcecfa0","system_id":"levelo_inurba_marseille","lat":43.25115,"lon":5.40324,"is_reserved":false,"is_disabled":false,"rental_uris":{"android":"levelo://app?vid=064490eb-cdb8-4441-8bcd-fa7f2bcecfa0","ios":"levelo://app?vid=064490eb-cdb8-4441-8bcd-fa7f2bcecfa0"},"vehicle_type_id":"4","last_reported":1761944945,"current_range_meters":10000,"station_id":"ce4bhlh2rcd13ifvqgig","pricing_plan_id":"cebpf4jnsgd1na2vs0mg"},{"bike_id":"f2a16810-af1a-499d-9ddd-ff04b1ee6343","system_id":"levelo_inurba_marseille","lat":43.28815,"lon":5.37771,"is_reserved":false,"is_disabled":false,"rental_uris":{"android":"levelo://app?vid=f2a16810-af1a-499d-9ddd-ff04b1ee6343","ios":"levelo://app?vid=f2a16810-af1a-499d-9ddd-ff04b1ee6343"},"vehicle_type_id":"4","last_reported":1761944945,"current_range_meters":10000,"station_id":"","pricing_plan_id":"cebpf4jnsgd1na2vs0mg"},{"bike_id":"1b02b54c-5b10-4f6d-8bca-fdfc230c832f","system_id":"levelo_inurba_marseille","lat":43.26564,"lon":5.37278,"is_reserved":false,"is_disabled":false,"rental_uris":{"android":"levelo://app?vid=1b02b54c-5b10-4f6d-8bca-fdfc230c832f","ios":"levelo://app?vid=1b02b54c-5b10-4f6d-8bca-fdfc230c832f"},"vehicle_type_id":"4","last_reported":1761944945,"current_range_meters":10000,"station_id":"ce4bhg12rcd13ifvqf70","pricing_plan_id":"cebpf4jnsgd1na2vs0mg"},{"bike_id":"77e72291-0125-4369-8802-398419b1f9b6","system_id":"levelo_inurba_marseille","lat":43.30372,"lon":5.42494,"is_reserved":false,"is_disabled":false,"rental_uris":{"android":"levelo://app?vid=77e72291-0125-4369-8802-398419b1f9b6","ios":"levelo://app?vid=77e72291-0125-4369-8802-398419b1f9b6"},"vehicle_type_id":"4","last_reported":1761944945,"current_range_meters":10000,"station_id":"ce4bhoh2rcd13ifvqh6g","pricing_plan_id":"cebpf4jnsgd1na2vs0mg"},{"bike_id":"a56a8a64-8aaf-4f2b-9086-ab5ca516b670","system_id":"levelo_inurba_marseille","lat":43.24671,"lon":5.38145,"is_reserved":false,"is_disabled":false,"rental_uris":{"android":"levelo://app?vid=a56a8a64-8aaf-4f2b-9086-ab5ca516b670","ios":"levelo://app?vid=a56a8a64-8aaf-4f2b-9086-ab5ca516b670"},"vehicle_type_id":"4","last_reported":1761944945,"current_range_meters":10800,"station_id":"ce4bhih2rcd13ifvqfr0","pricing_plan_id":"cebpf4jnsgd1na2vs0mg"},{"bike_id":"2f477f8f-972b-406c-841a-14096d9c76ee","system_id":"levelo_inurba_marseille","lat":43.29747,"lon":5.42766,"is_reserved":false,"is_disabled":false,"rental_uris":{"android":"levelo://app?vid=2f477f8f-972b-406c-841a-14096d9c76ee","ios":"levelo://app?vid=2f477f8f-972b-406c-841a-14096d9c76ee"},"vehicle_type_id":"4","last_reported":1761944945,"current_range_meters":10800,"station_id":"st_d3md5207bmas73dh9klg","pricing_plan_id":"cebpf4jnsgd1na2vs0mg"},{"bike_id":"c4aa9d59-3ee0-47ad-afd6-964ca21413f9","system_id":"levelo_inurba_marseille","lat":43.26933,"lon":5.36702,"is_reserved":false,"is_disabled":false,"rental_uris":{"android":"levelo://app?vid=c4aa9d59-3ee0-47ad-afd6-964ca21413f9","ios":"levelo://app?vid=c4aa9d59-3ee0-47ad-afd6-964ca21413f9"},"vehicle_type_id":"4","last_reported":1761944945,"current_range_meters":10800,"station_id":"","pricing_plan_id":"cebpf4jnsgd1na2vs0mg"},{"bike_id":"70b7527d-67eb-4818-84c6-51aae343ca97","system_id":"levelo_inurba_marseille","lat":43.28478,"lon":5.48395,"is_reserved":false,"is_disabled":false,"rental_uris":{"android":"levelo://app?vid=70b7527d-67eb-4818-84c6-51aae343ca97","ios":"levelo://app?vid=70b7527d-67eb-4818-84c6-51aae343ca97"},"vehicle_type_id":"4","last_reported":1761944945,"current_range_meters":10800,"station_id":"st_d3svhcjqgbts73a3dn0g","pricing_plan_id":"cebpf4jnsgd1na2vs0mg"},{"bike_id":"55ad9196-fe88-42f7-aa51-6fda8a2c6a49","system_id":"levelo_inurba_marseille","lat":43.29239,"lon":5.38454,"is_reserved":false,"is_disabled":false,"rental_uris":{"android":"levelo://app?vid=55ad9196-fe88-42f7-aa51-6fda8a2c6a49","ios":"levelo://app?vid=55ad9196-fe88-42f7-aa51-6fda8a2c6a49"},"vehicle_type_id":"4","last_reported":1761944945,"current_range_meters":11200,"station_id":"ce4bh692rcd13ifvqea0","pricing_plan_id":"cebpf4jnsgd1na2vs0mg"},{"bike_id":"e1374d14-ca8c-4d30-bf7a-1e91101e2cee","system_id":"levelo_inurba_marseille","lat":43.285418,"lon":5.440985,"is_reserved":false,"is_disabled":false,"rental_uris":{"android":"levelo://app?vid=e1374d14-ca8c-4d30-bf7a-1e91101e2cee","ios":"levelo://app?vid=e1374d14-ca8c-4d30-bf7a-1e91101e2cee"},"vehicle_type_id":"4","last_reported":1761944945,"current_range_meters":11200,"station_id":"st_d3j3df2ikq2c7380ej80","pricing_plan_id":"cebpf4jnsgd1na2vs0mg"},{"bike_id":"51c02004-b7af-4fea-b0a6-0669e7b94d3c","system_id":"levelo_inurba_marseille","lat":43.33612,"lon":5.41016,"is_reserved":false,"is_disabled":false,"rental_uris":{"android":"levelo://app?vid=51c02004-b7af-4fea-b0a6-0669e7b94d3c","ios":"levelo://app?vid=51c02004-b7af-4fea-b0a6-0669e7b94d3c"},"vehicle_type_id":"4","last_reported":1761944945,"current_range_meters":11200,"station_id":"ce4bhqh2rcd13ifvqhmg","pricing_plan_id":"cebpf4jnsgd1na2vs0mg"},{"bike_id":"db8cd797-29ff-457e-98ae-1267bc8f5e8a","system_id":"levelo_inurba_marseille","lat":43.288605,"lon":5.425209,"is_reserved":false,"is_disabled":false,"rental_uris":{"android":"levelo://app?vid=db8cd797-29ff-457e-98ae-1267bc8f5e8a","ios":"levelo://app?vid=db8cd797-29ff-457e-98ae-1267bc8f5e8a"},"vehicle_type_id":"4","last_reported":1761944945,"current_range_meters":11200,"station_id":"st_d3b462108ojc7389ooeg","pricing_plan_id":"cebpf4jnsgd1na2vs0mg"},{"bike_id":"df87f0c2-4d4f-4e68-8a2b-3150d17edb80","system_id":"levelo_inurba_marseille","lat":43.29249,"lon":5.38439,"is_reserved":false,"is_disabled":false,"rental_uris":{"android":"levelo://app?vid=df87f0c2-4d4f-4e68-8a2b-3150d17edb80","ios":"levelo://app?vid=df87f0c2-4d4f-4e68-8a2b-3150d17edb80"},"vehicle_type_id":"4","last_reported":1761944945,"current_range_meters":11200,"station_id":"ce4bh692rcd13ifvqea0","pricing_plan_id":"cebpf4jnsgd1na2vs0mg"},{"bike_id":"1213ff01-604d-4b83-b3a2-60440c4b245e","system_id":"levelo_inurba_marseille","lat":43.2379,"lon":5.36597,"is_reserved":false,"is_disabled":false,"rental_uris":{"android":"levelo://app?vid=1213ff01-604d-4b83-b3a2-60440c4b245e","ios":"levelo://app?vid=1213ff01-604d-4b83-b3a2-60440c4b245e"},"vehicle_type_id":"4","last_reported":1761944945,"current_range_meters":11200,"station_id":"st_d3nk18o9ro0c73en2l3g","pricing_plan_id":"cebpf4jnsgd1na2vs0mg"},{"bike_id":"1c28f463-5c03-4404-b201-353575627cc6","system_id":"levelo_inurba_marseille","lat":43.29262,"lon":5.38434,"is_reserved":false,"is_disabled":false,"rental_uris":{"android":"levelo://app?vid=1c28f463-5c03-4404-b201-353575627cc6","ios":"levelo://app?vid=1c28f463-5c03-4404-b201-353575627cc6"},"vehicle_type_id":"4","last_reported":1761944945,"current_range_meters":11200,"station_id":"ce4bh692rcd13ifvqea0","pricing_plan_id":"cebpf4jnsgd1na2vs0mg"},{"bike_id":"4fd9f5aa-a2d3-48e0-aee2-704d6db584ac","system_id":"levelo_inurba_marseille","lat":43.255329,"lon":5.377094,"is_reserved":false,"is_disabled":false,"rental_uris":{"android":"levelo://app?vid=4fd9f5aa-a2d3-48e0-aee2-704d6db584ac","ios":"levelo://app?vid=4fd9f5aa-a2d3-48e0-aee2-704d6db584ac"},"vehicle_type_id":"4","last_reported":1761944945,"current_range_meters":11200,"station_id":"","pricing_plan_id":"cebpf4jnsgd1na2vs0mg"},{"bike_id":"ec53eff6-568f-4876-b1b7-7085cdef020c","system_id":"levelo_inurba_marseille","lat":43.29231,"lon":5.38463,"is_reserved":false,"is_disabled":false,"rental_uris":{"android":"levelo://app?vid=ec53eff6-568f-4876-b1b7-7085cdef020c","ios":"levelo://app?vid=ec53eff6-568f-4876-b1b7-7085cdef020c"},"vehicle_type_id":"4","last_reported":1761944945,"current_range_meters":11200,"station_id":"ce4bh692rcd13ifvqea0","pricing_plan_id":"cebpf4jnsgd1na2vs0mg"},{"bike_id":"4f2e5119-d4ee-4617-a8ac-0325228b2aa1","system_id":"levelo_inurba_marseille","lat":43.26552,"lon":5.37284,"is_reserved":false,"is_disabled":false,"rental_uris":{"android":"levelo://app?vid=4f2e5119-d4ee-4617-a8ac-0325228b2aa1","ios":"levelo://app?vid=4f2e5119-d4ee-4617-a8ac-0325228b2aa1"},"vehicle_type_id":"4","last_reported":1761944945,"current_range_meters":11600,"station_id":"ce4bhg12rcd13ifvqf70","pricing_plan_id":"cebpf4jnsgd1na2vs0mg"},{"bike_id":"96ad2f8e-1ff0-415a-a84a-9186f2a5baf6","system_id":"levelo_inurba_marseille","lat":43.29606,"lon":5.37672,"is_reserved":false,"is_disabled":false,"rental_uris":{"android":"levelo://app?vid=96ad2f8e-1ff0-415a-a84a-9186f2a5baf6","ios":"levelo://app?vid=96ad2f8e-1ff0-415a-a84a-9186f2a5baf6"},"vehicle_type_id":"4","last_reported":1761944945,"current_range_meters":11600,"station_id":"ce4bgi12rcd13ifvqb80","pricing_plan_id":"cebpf4jnsgd1na2vs0mg"},{"bike_id":"102c872e-2509-4c82-9415-127c093a0f7e","system_id":"levelo_inurba_marseille","lat":43.28122,"lon":5.40169,"is_reserved":false,"is_disabled":false,"rental_uris":{"android":"levelo://app?vid=102c872e-2509-4c82-9415-127c093a0f7e","ios":"levelo://app?vid=102c872e-2509-4c82-9415-127c093a0f7e"},"vehicle_type_id":"4","last_reported":1761944945,"current_range_meters":11600,"station_id":"","pricing_plan_id":"cebpf4jnsgd1na2vs0mg"},{"bike_id":"e3433503-a741-4622-ad02-73e997584add","system_id":"levelo_inurba_marseille","lat":43.26957,"lon":5.38632,"is_reserved":false,"is_disabled":false,"rental_uris":{"android":"levelo://app?vid=e3433503-a741-4622-ad02-73e997584add","ios":"levelo://app?vid=e3433503-a741-4622-ad02-73e997584add"},"vehicle_type_id":"4","last_reported":1761944945,"current_range_meters":11600,"station_id":"ce4bhh92rcd13ifvqfh0","pricing_plan_id":"cebpf4jnsgd1na2vs0mg"},{"bike_id":"877c48c7-c03d-44f7-a6bf-ad3067265568","system_id":"levelo_inurba_marseille","lat":43.29249,"lon":5.38433,"is_reserved":false,"is_disabled":false,"rental_uris":{"android":"levelo://app?vid=877c48c7-c03d-44f7-a6bf-ad3067265568","ios":"levelo://app?vid=877c48c7-c03d-44f7-a6bf-ad3067265568"},"vehicle_type_id":"4","last_reported":1761944945,"current_range_meters":12000,"station_id":"ce4bh692rcd13ifvqea0","pricing_plan_id":"cebpf4jnsgd1na2vs0mg"},{"bike_id":"a4dac4fa-66e6-48be-a654-6e17cdc7ca0b","system_id":"levelo_inurba_marseille","lat":43.337571,"lon":5.374323,"is_reserved":false,"is_disabled":false,"rental_uris":{"android":"levelo://app?vid=a4dac4fa-66e6-48be-a654-6e17cdc7ca0b","ios":"levelo://app?vid=a4dac4fa-66e6-48be-a654-6e17cdc7ca0b"},"vehicle_type_id":"4","last_reported":1761944945,"current_range_meters":12000,"station_id":"","pricing_plan_id":"cebpf4jnsgd1na2vs0mg"},{"bike_id":"bfea6413-afbc-4cd0-a1c3-3175840c533c","system_id":"levelo_inurba_marseille","lat":43.295319,"lon":5.39099,"is_reserved":false,"is_disabled":false,"rental_uris":{"android":"levelo://app?vid=bfea6413-afbc-4cd0-a1c3-3175840c533c","ios":"levelo://app?vid=bfea6413-afbc-4cd0-a1c3-3175840c533c"},"vehicle_type_id":"4","last_reported":1761944945,"current_range_meters":12000,"station_id":"","pricing_plan_id":"cebpf4jnsgd1na2vs0mg"},{"bike_id":"3b0ed919-3f15-4150-9bb7-c2e454e63927","system_id":"levelo_inurba_marseille","lat":43.246623,"lon":5.381663,"is_reserved":false,"is_disabled":false,"rental_uris":{"android":"levelo://app?vid=3b0ed919-3f15-4150-9bb7-c2e454e63927","ios":"levelo://app?vid=3b0ed919-3f15-4150-9bb7-c2e454e63927"},"vehicle_type_id":"4","last_reported":1761944945,"current_range_meters":12000,"station_id":"ce4bhih2rcd13ifvqfr0","pricing_plan_id":"cebpf4jnsgd1na2vs0mg"},{"bike_id":"0bae2449-02a6-4cb1-9eed-d75e3b4aad72","system_id":"levelo_inurba_marseille","lat":43.30598,"lon":5.37212,"is_reserved":false,"is_disabled":false,"rental_uris":{"android":"levelo://app?vid=0bae2449-02a6-4cb1-9eed-d75e3b4aad72","ios":"levelo://app?vid=0bae2449-02a6-4cb1-9eed-d75e3b4aad72"},"vehicle_type_id":"4","last_reported":1761944945,"current_range_meters":12000,"station_id":"ce4bgqh2rcd13ifvqc4g","pricing_plan_id":"cebpf4jnsgd1na2vs0mg"},{"bike_id":"7f09a132-d41e-48be-af37-157ccfd26cff","system_id":"levelo_inurba_marseille","lat":43.29533,"lon":5.38534,"is_reserved":false,"is_disabled":false,"rental_uris":{"android":"levelo://app?vid=7f09a132-d41e-48be-af37-157ccfd26cff","ios":"levelo://app?vid=7f09a132-d41e-48be-af37-157ccfd26cff"},"vehicle_type_id":"4","last_reported":1761944945,"current_range_meters":12400,"station_id":"ce4bgih2rcd13ifvqba0","pricing_plan_id":"cebpf4jnsgd1na2vs0mg"},{"bike_id":"c642da5d-ef15-4287-ad0f-a746b900e290","system_id":"levelo_inurba_marseille","lat":43.255,"lon":5.376492,"is_reserved":false,"is_disabled":false,"rental_uris":{"android":"levelo://app?vid=c642da5d-ef15-4287-ad0f-a746b900e290","ios":"levelo://app?vid=c642da5d-ef15-4287-ad0f-a746b900e290"},"vehicle_type_id":"4","last_reported":1761944945,"current_range_meters":12400,"station_id":"ce4bhh12rcd13ifvqff0","pricing_plan_id":"cebpf4jnsgd1na2vs0mg"},{"bike_id":"e000454d-06a8-446c-a3d4-c6dceb0378a7","system_id":"levelo_inurba_marseille","lat":43.3059,"lon":5.39344,"is_reserved":false,"is_disabled":false,"rental_uris":{"android":"levelo://app?vid=e000454d-06a8-446c-a3d4-c6dceb0378a7","ios":"levelo://app?vid=e000454d-06a8-446c-a3d4-c6dceb0378a7"},"vehicle_type_id":"4","last_reported":1761944945,"current_range_meters":12400,"station_id":"ce4bh0p2rcd13ifvqd80","pricing_plan_id":"cebpf4jnsgd1na2vs0mg"},{"bike_id":"f71afa96-ae6f-49a1-b300-a49ff4213441","system_id":"levelo_inurba_marseille","lat":43.336094,"lon":5.410368,"is_reserved":false,"is_disabled":false,"rental_uris":{"android":"levelo://app?vid=f71afa96-ae6f-49a1-b300-a49ff4213441","ios":"levelo://app?vid=f71afa96-ae6f-49a1-b300-a49ff4213441"},"vehicle_type_id":"4","last_reported":1761944945,"current_range_meters":12400,"station_id":"ce4bhqh2rcd13ifvqhmg","pricing_plan_id":"cebpf4jnsgd1na2vs0mg"},{"bike_id":"0dc930ae-88e6-493c-ab95-8df0b3ac1f8b","system_id":"levelo_inurba_marseille","lat":43.29892,"lon":5.43673,"is_reserved":false,"is_disabled":false,"rental_uris":{"android":"levelo://app?vid=0dc930ae-88e6-493c-ab95-8df0b3ac1f8b","ios":"levelo://app?vid=0dc930ae-88e6-493c-ab95-8df0b3ac1f8b"},"vehicle_type_id":"4","last_reported":1761944945,"current_range_meters":12800,"station_id":"ce4bhpp2rcd13ifvqhfg","pricing_plan_id":"cebpf4jnsgd1na2vs0mg"},{"bike_id":"9cb7d9c2-d5d9-4ccc-93c2-e46515812c41","system_id":"levelo_inurba_marseille","lat":43.29525,"lon":5.38547,"is_reserved":false,"is_disabled":false,"rental_uris":{"android":"levelo://app?vid=9cb7d9c2-d5d9-4ccc-93c2-e46515812c41","ios":"levelo://app?vid=9cb7d9c2-d5d9-4ccc-93c2-e46515812c41"},"vehicle_type_id":"4","last_reported":1761944945,"current_range_meters":12800,"station_id":"ce4bgih2rcd13ifvqba0","pricing_plan_id":"cebpf4jnsgd1na2vs0mg"},{"bike_id":"42e986d2-36be-4b0e-87e8-71dc3f97c04d","system_id":"levelo_inurba_marseille","lat":43.246739,"lon":5.381621,"is_reserved":false,"is_disabled":false,"rental_uris":{"android":"levelo://app?vid=42e986d2-36be-4b0e-87e8-71dc3f97c04d","ios":"levelo://app?vid=42e986d2-36be-4b0e-87e8-71dc3f97c04d"},"vehicle_type_id":"4","last_reported":1761944945,"current_range_meters":12800,"station_id":"ce4bhih2rcd13ifvqfr0","pricing_plan_id":"cebpf4jnsgd1na2vs0mg"},{"bike_id":"a4411a31-dc75-48de-8b4a-eee0e7dbe4d1","system_id":"levelo_inurba_marseille","lat":43.28153,"lon":5.42618,"is_reserved":false,"is_disabled":false,"rental_uris":{"android":"levelo://app?vid=a4411a31-dc75-48de-8b4a-eee0e7dbe4d1","ios":"levelo://app?vid=a4411a31-dc75-48de-8b4a-eee0e7dbe4d1"},"vehicle_type_id":"4","last_reported":1761944945,"current_range_meters":12800,"station_id":"ce4bhnh2rcd13ifvqgug","pricing_plan_id":"cebpf4jnsgd1na2vs0mg"},{"bike_id":"947dd19a-ee4b-426b-aca8-caedae815b40","system_id":"levelo_inurba_marseille","lat":43.27188,"lon":5.36264,"is_reserved":false,"is_disabled":false,"rental_uris":{"android":"levelo://app?vid=947dd19a-ee4b-426b-aca8-caedae815b40","ios":"levelo://app?vid=947dd19a-ee4b-426b-aca8-caedae815b40"},"vehicle_type_id":"4","last_reported":1761944945,"current_range_meters":12800,"station_id":"ce4bhg12rcd13ifvqf70","pricing_plan_id":"cebpf4jnsgd1na2vs0mg"},{"bike_id":"aad6a064-c048-4ba9-a156-1745b89548aa","system_id":"levelo_inurba_marseille","lat":43.283114,"lon":5.411122,"is_reserved":false,"is_disabled":false,"rental_uris":{"android":"levelo://app?vid=aad6a064-c048-4ba9-a156-1745b89548aa","ios":"levelo://app?vid=aad6a064-c048-4ba9-a156-1745b89548aa"},"vehicle_type_id":"4","last_reported":1761944945,"current_range_meters":12800,"station_id":"","pricing_plan_id":"cebpf4jnsgd1na2vs0mg"},{"bike_id":"7b27e8ad-c12d-468a-ba55-a20cfbffc520","system_id":"levelo_inurba_marseille","lat":43.274087,"lon":5.390248,"is_reserved":false,"is_disabled":false,"rental_uris":{"android":"levelo://app?vid=7b27e8ad-c12d-468a-ba55-a20cfbffc520","ios":"levelo://app?vid=7b27e8ad-c12d-468a-ba55-a20cfbffc520"},"vehicle_type_id":"4","last_reported":1761944945,"current_range_meters":12800,"station_id":"ce4bhgp2rcd13ifvqfe0","pricing_plan_id":"cebpf4jnsgd1na2vs0mg"},{"bike_id":"82606a70-de61-44a2-bda3-54a987088dae","system_id":"levelo_inurba_marseille","lat":43.26193,"lon":5.37445,"is_reserved":false,"is_disabled":false,"rental_uris":{"android":"levelo://app?vid=82606a70-de61-44a2-bda3-54a987088dae","ios":"levelo://app?vid=82606a70-de61-44a2-bda3-54a987088dae"},"vehicle_type_id":"4","last_reported":1761944945,"current_range_meters":12800,"station_id":"ce4bhgp2rcd13ifvqfc0","pricing_plan_id":"cebpf4jnsgd1na2vs0mg"},{"bike_id":"3e2d4b33-c489-414d-901a-32eac6807f84","system_id":"levelo_inurba_marseille","lat":43.29549,"lon":5.38511,"is_reserved":false,"is_disabled":false,"rental_uris":{"android":"levelo://app?vid=3e2d4b33-c489-414d-901a-32eac6807f84","ios":"levelo://app?vid=3e2d4b33-c489-414d-901a-32eac6807f84"},"vehicle_type_id":"4","last_reported":1761944945,"current_range_meters":13600,"station_id":"ce4bgih2rcd13ifvqba0","pricing_plan_id":"cebpf4jnsgd1na2vs0mg"},{"bike_id":"6cd59db7-cb12-4301-8385-22b87d7a5cfd","system_id":"levelo_inurba_marseille","lat":43.285439,"lon":5.440872,"is_reserved":false,"is_disabled":false,"rental_uris":{"android":"levelo://app?vid=6cd59db7-cb12-4301-8385-22b87d7a5cfd","ios":"levelo://app?vid=6cd59db7-cb12-4301-8385-22b87d7a5cfd"},"vehicle_type_id":"4","last_reported":1761944945,"current_range_meters":13600,"station_id":"st_d3j3df2ikq2c7380ej80","pricing_plan_id":"cebpf4jnsgd1na2vs0mg"},{"bike_id":"b85bc24e-8c14-4e57-985a-b934bd839fc6","system_id":"levelo_inurba_marseille","lat":43.299825,"lon":5.384696,"is_reserved":false,"is_disabled":false,"rental_uris":{"android":"levelo://app?vid=b85bc24e-8c14-4e57-985a-b934bd839fc6","ios":"levelo://app?vid=b85bc24e-8c14-4e57-985a-b934bd839fc6"},"vehicle_type_id":"4","last_reported":1761944945,"current_range_meters":13600,"station_id":"ce4bgj92rcd13ifvqbd0","pricing_plan_id":"cebpf4jnsgd1na2vs0mg"},{"bike_id":"17c4d6b8-072b-4aea-994a-596dd01ada9d","system_id":"levelo_inurba_marseille","lat":43.29022,"lon":5.38633,"is_reserved":false,"is_disabled":false,"rental_uris":{"android":"levelo://app?vid=17c4d6b8-072b-4aea-994a-596dd01ada9d","ios":"levelo://app?vid=17c4d6b8-072b-4aea-994a-596dd01ada9d"},"vehicle_type_id":"4","last_reported":1761944945,"current_range_meters":13600,"station_id":"ce4bh4p2rcd13ifvqe0g","pricing_plan_id":"cebpf4jnsgd1na2vs0mg"},{"bike_id":"a74ca4e6-9019-4ce4-a364-7a22bd8e206a","system_id":"levelo_inurba_marseille","lat":43.265019,"lon":5.385133,"is_reserved":false,"is_disabled":false,"rental_uris":{"android":"levelo://app?vid=a74ca4e6-9019-4ce4-a364-7a22bd8e206a","ios":"levelo://app?vid=a74ca4e6-9019-4ce4-a364-7a22bd8e206a"},"vehicle_type_id":"4","last_reported":1761944945,"current_range_meters":13600,"station_id":"","pricing_plan_id":"cebpf4jnsgd1na2vs0mg"},{"bike_id":"83ef4327-e091-44b5-8fac-eda637201c20","system_id":"levelo_inurba_marseille","lat":43.30307,"lon":5.39204,"is_reserved":false,"is_disabled":false,"rental_uris":{"android":"levelo://app?vid=83ef4327-e091-44b5-8fac-eda637201c20","ios":"levelo://app?vid=83ef4327-e091-44b5-8fac-eda637201c20"},"vehicle_type_id":"4","last_reported":1761944945,"current_range_meters":13600,"station_id":"ce4bgkh2rcd13ifvqbk0","pricing_plan_id":"cebpf4jnsgd1na2vs0mg"},{"bike_id":"eb35936c-41a9-48e6-b845-b0405c51cb79","system_id":"levelo_inurba_marseille","lat":43.279378,"lon":5.41061,"is_reserved":false,"is_disabled":false,"rental_uris":{"android":"levelo://app?vid=eb35936c-41a9-48e6-b845-b0405c51cb79","ios":"levelo://app?vid=eb35936c-41a9-48e6-b845-b0405c51cb79"},"vehicle_type_id":"4","last_reported":1761944945,"current_range_meters":14000,"station_id":"","pricing_plan_id":"cebpf4jnsgd1na2vs0mg"},{"bike_id":"4af67fea-217f-4915-a4d3-8ac79aefe37d","system_id":"levelo_inurba_marseille","lat":43.31084,"lon":5.42428,"is_reserved":false,"is_disabled":false,"rental_uris":{"android":"levelo://app?vid=4af67fea-217f-4915-a4d3-8ac79aefe37d","ios":"levelo://app?vid=4af67fea-217f-4915-a4d3-8ac79aefe37d"},"vehicle_type_id":"4","last_reported":1761944945,"current_range_meters":14000,"station_id":"ce4bhp92rcd13ifvqhag","pricing_plan_id":"cebpf4jnsgd1na2vs0mg"},{"bike_id":"92ae6cfc-5c82-42ee-9587-036ceb6ab47f","system_id":"levelo_inurba_marseille","lat":43.25499,"lon":5.37654,"is_reserved":false,"is_disabled":false,"rental_uris":{"android":"levelo://app?vid=92ae6cfc-5c82-42ee-9587-036ceb6ab47f","ios":"levelo://app?vid=92ae6cfc-5c82-42ee-9587-036ceb6ab47f"},"vehicle_type_id":"4","last_reported":1761944945,"current_range_meters":14000,"station_id":"ce4bhh12rcd13ifvqff0","pricing_plan_id":"cebpf4jnsgd1na2vs0mg"},{"bike_id":"1a5de57c-e416-4743-a080-61b0c9e0864a","system_id":"levelo_inurba_marseille","lat":43.28841,"lon":5.39309,"is_reserved":false,"is_disabled":false,"rental_uris":{"android":"levelo://app?vid=1a5de57c-e416-4743-a080-61b0c9e0864a","ios":"levelo://app?vid=1a5de57c-e416-4743-a080-61b0c9e0864a"},"vehicle_type_id":"4","last_reported":1761944945,"current_range_meters":14000,"station_id":"ce4bh2p2rcd13ifvqdi0","pricing_plan_id":"cebpf4jnsgd1na2vs0mg"},{"bike_id":"aad731fe-f402-47a2-a9e2-d1ab53621c21","system_id":"levelo_inurba_marseille","lat":43.23783,"lon":5.36636,"is_reserved":false,"is_disabled":false,"rental_uris":{"android":"levelo://app?vid=aad731fe-f402-47a2-a9e2-d1ab53621c21","ios":"levelo://app?vid=aad731fe-f402-47a2-a9e2-d1ab53621c21"},"vehicle_type_id":"4","last_reported":1761944945,"current_range_meters":14000,"station_id":"st_d3nk18o9ro0c73en2l3g","pricing_plan_id":"cebpf4jnsgd1na2vs0mg"},{"bike_id":"fd4ce9f4-b592-4cc5-acf9-1c794ff3f3cd","system_id":"levelo_inurba_marseille","lat":43.279388,"lon":5.410454,"is_reserved":false,"is_disabled":false,"rental_uris":{"android":"levelo://app?vid=fd4ce9f4-b592-4cc5-acf9-1c794ff3f3cd","ios":"levelo://app?vid=fd4ce9f4-b592-4cc5-acf9-1c794ff3f3cd"},"vehicle_type_id":"4","last_reported":1761944945,"current_range_meters":14000,"station_id":"ce4bhnp2rcd13ifvqh0g","pricing_plan_id":"cebpf4jnsgd1na2vs0mg"},{"bike_id":"d3b96a45-0c36-482a-b421-c63df9f9d284","system_id":"levelo_inurba_marseille","lat":43.29255,"lon":5.38437,"is_reserved":false,"is_disabled":false,"rental_uris":{"android":"levelo://app?vid=d3b96a45-0c36-482a-b421-c63df9f9d284","ios":"levelo://app?vid=d3b96a45-0c36-482a-b421-c63df9f9d284"},"vehicle_type_id":"4","last_reported":1761944945,"current_range_meters":14000,"station_id":"ce4bh692rcd13ifvqea0","pricing_plan_id":"cebpf4jnsgd1na2vs0mg"},{"bike_id":"523713e0-3b79-444c-b403-f6ac4c4a4a77","system_id":"levelo_inurba_marseille","lat":43.29266,"lon":5.38446,"is_reserved":false,"is_disabled":false,"rental_uris":{"android":"levelo://app?vid=523713e0-3b79-444c-b403-f6ac4c4a4a77","ios":"levelo://app?vid=523713e0-3b79-444c-b403-f6ac4c4a4a77"},"vehicle_type_id":"4","last_reported":1761944945,"current_range_meters":14400,"station_id":"ce4bh692rcd13ifvqea0","pricing_plan_id":"cebpf4jnsgd1na2vs0mg"},{"bike_id":"5a1a3f29-649a-4e51-8569-c7c858695985","system_id":"levelo_inurba_marseille","lat":43.29284,"lon":5.38425,"is_reserved":false,"is_disabled":false,"rental_uris":{"android":"levelo://app?vid=5a1a3f29-649a-4e51-8569-c7c858695985","ios":"levelo://app?vid=5a1a3f29-649a-4e51-8569-c7c858695985"},"vehicle_type_id":"4","last_reported":1761944945,"current_range_meters":14400,"station_id":"ce4bh692rcd13ifvqea0","pricing_plan_id":"cebpf4jnsgd1na2vs0mg"},{"bike_id":"b2ce8e73-e59b-4d30-b8e2-e59e2e1e3b22","system_id":"levelo_inurba_marseille","lat":43.33775,"lon":5.37482,"is_reserved":false,"is_disabled":false,"rental_uris":{"android":"levelo://app?vid=b2ce8e73-e59b-4d30-b8e2-e59e2e1e3b22","ios":"levelo://app?vid=b2ce8e73-e59b-4d30-b8e2-e59e2e1e3b22"},"vehicle_type_id":"4","last_reported":1761944945,"current_range_meters":14400,"station_id":"","pricing_plan_id":"cebpf4jnsgd1na2vs0mg"},{"bike_id":"3ead910e-6d20-43ff-b430-acaa82febea4","system_id":"levelo_inurba_marseille","lat":43.293374,"lon":5.371627,"is_reserved":false,"is_disabled":false,"rental_uris":{"android":"levelo://app?vid=3ead910e-6d20-43ff-b430-acaa82febea4","ios":"levelo://app?vid=3ead910e-6d20-43ff-b430-acaa82febea4"},"vehicle_type_id":"4","last_reported":1761944945,"current_range_meters":14400,"station_id":"ce4bgh92rcd13ifvqb40","pricing_plan_id":"cebpf4jnsgd1na2vs0mg"},{"bike_id":"154894a7-7496-40f3-903a-7dc5bdf8383a","system_id":"levelo_inurba_marseille","lat":43.296314,"lon":5.405967,"is_reserved":false,"is_disabled":false,"rental_uris":{"android":"levelo://app?vid=154894a7-7496-40f3-903a-7dc5bdf8383a","ios":"levelo://app?vid=154894a7-7496-40f3-903a-7dc5bdf8383a"},"vehicle_type_id":"4","last_reported":1761944945,"current_range_meters":14400,"station_id":"ce4bh0h2rcd13ifvqd60","pricing_plan_id":"cebpf4jnsgd1na2vs0mg"},{"bike_id":"9c245696-f9bb-4e6b-b021-1e0fc5e14885","system_id":"levelo_inurba_marseille","lat":43.29267,"lon":5.38436,"is_reserved":false,"is_disabled":false,"rental_uris":{"android":"levelo://app?vid=9c245696-f9bb-4e6b-b021-1e0fc5e14885","ios":"levelo://app?vid=9c245696-f9bb-4e6b-b021-1e0fc5e14885"},"vehicle_type_id":"4","last_reported":1761944945,"current_range_meters":14400,"station_id":"ce4bh692rcd13ifvqea0","pricing_plan_id":"cebpf4jnsgd1na2vs0mg"},{"bike_id":"e9bcff9c-cc7f-48a1-8d79-25271435e101","system_id":"levelo_inurba_marseille","lat":43.28672,"lon":5.38681,"is_reserved":false,"is_disabled":false,"rental_uris":{"android":"levelo://app?vid=e9bcff9c-cc7f-48a1-8d79-25271435e101","ios":"levelo://app?vid=e9bcff9c-cc7f-48a1-8d79-25271435e101"},"vehicle_type_id":"4","last_reported":1761944945,"current_range_meters":14400,"station_id":"ce4bh492rcd13ifvqdug","pricing_plan_id":"cebpf4jnsgd1na2vs0mg"},{"bike_id":"02afec55-745f-4def-880b-3daa92d002a1","system_id":"levelo_inurba_marseille","lat":43.29534,"lon":5.3742,"is_reserved":false,"is_disabled":false,"rental_uris":{"android":"levelo://app?vid=02afec55-745f-4def-880b-3daa92d002a1","ios":"levelo://app?vid=02afec55-745f-4def-880b-3daa92d002a1"},"vehicle_type_id":"4","last_reported":1761944945,"current_range_meters":14400,"station_id":"","pricing_plan_id":"cebpf4jnsgd1na2vs0mg"},{"bike_id":"3a8851b0-bea2-4b80-afc7-0c6751111e32","system_id":"levelo_inurba_marseille","lat":43.288609,"lon":5.42517,"is_reserved":false,"is_disabled":false,"rental_uris":{"android":"levelo://app?vid=3a8851b0-bea2-4b80-afc7-0c6751111e32","ios":"levelo://app?vid=3a8851b0-bea2-4b80-afc7-0c6751111e32"},"vehicle_type_id":"4","last_reported":1761944945,"current_range_meters":14400,"station_id":"st_d3b462108ojc7389ooeg","pricing_plan_id":"cebpf4jnsgd1na2vs0mg"},{"bike_id":"52b117f2-4c01-4f66-887d-006722496528","system_id":"levelo_inurba_marseille","lat":43.30863,"lon":5.37146,"is_reserved":false,"is_disabled":false,"rental_uris":{"android":"levelo://app?vid=52b117f2-4c01-4f66-887d-006722496528","ios":"levelo://app?vid=52b117f2-4c01-4f66-887d-006722496528"},"vehicle_type_id":"4","last_reported":1761944945,"current_range_meters":14400,"station_id":"","pricing_plan_id":"cebpf4jnsgd1na2vs0mg"},{"bike_id":"4681f6f6-c5c4-4cc0-901d-70a6197caa3a","system_id":"levelo_inurba_marseille","lat":43.28614,"lon":5.35106,"is_reserved":false,"is_disabled":false,"rental_uris":{"android":"levelo://app?vid=4681f6f6-c5c4-4cc0-901d-70a6197caa3a","ios":"levelo://app?vid=4681f6f6-c5c4-4cc0-901d-70a6197caa3a"},"vehicle_type_id":"4","last_reported":1761944945,"current_range_meters":14400,"station_id":"ce4bhch2rcd13ifvqeug","pricing_plan_id":"cebpf4jnsgd1na2vs0mg"},{"bike_id":"7479e167-6e43-40d8-9949-40e587c076d6","system_id":"levelo_inurba_marseille","lat":43.299358,"lon":5.365593,"is_reserved":false,"is_disabled":false,"rental_uris":{"android":"levelo://app?vid=7479e167-6e43-40d8-9949-40e587c076d6","ios":"levelo://app?vid=7479e167-6e43-40d8-9949-40e587c076d6"},"vehicle_type_id":"4","last_reported":1761944945,"current_range_meters":14400,"station_id":"ce4bgm92rcd13ifvqbr0","pricing_plan_id":"cebpf4jnsgd1na2vs0mg"},{"bike_id":"455f34a8-58e4-4acc-b2e9-e37e3f8ee341","system_id":"levelo_inurba_marseille","lat":43.29543,"lon":5.38549,"is_reserved":false,"is_disabled":false,"rental_uris":{"android":"levelo://app?vid=455f34a8-58e4-4acc-b2e9-e37e3f8ee341","ios":"levelo://app?vid=455f34a8-58e4-4acc-b2e9-e37e3f8ee341"},"vehicle_type_id":"4","last_reported":1761944945,"current_range_meters":14400,"station_id":"ce4bgih2rcd13ifvqba0","pricing_plan_id":"cebpf4jnsgd1na2vs0mg"},{"bike_id":"9221d2ee-72c2-4402-b22d-ffdee8b1f2e3","system_id":"levelo_inurba_marseille","lat":43.29248,"lon":5.38469,"is_reserved":false,"is_disabled":false,"rental_uris":{"android":"levelo://app?vid=9221d2ee-72c2-4402-b22d-ffdee8b1f2e3","ios":"levelo://app?vid=9221d2ee-72c2-4402-b22d-ffdee8b1f2e3"},"vehicle_type_id":"4","last_reported":1761944945,"current_range_meters":14400,"station_id":"ce4bh692rcd13ifvqea0","pricing_plan_id":"cebpf4jnsgd1na2vs0mg"},{"bike_id":"b8426e54-f900-4874-82f8-f2e442e4a12d","system_id":"levelo_inurba_marseille","lat":43.29529,"lon":5.38558,"is_reserved":false,"is_disabled":false,"rental_uris":{"android":"levelo://app?vid=b8426e54-f900-4874-82f8-f2e442e4a12d","ios":"levelo://app?vid=b8426e54-f900-4874-82f8-f2e442e4a12d"},"vehicle_type_id":"4","last_reported":1761944945,"current_range_meters":14400,"station_id":"ce4bgih2rcd13ifvqba0","pricing_plan_id":"cebpf4jnsgd1na2vs0mg"},{"bike_id":"e7b7067b-4689-467a-a1c3-ff953783f6b1","system_id":"levelo_inurba_marseille","lat":43.31161,"lon":5.38718,"is_reserved":false,"is_disabled":false,"rental_uris":{"android":"levelo://app?vid=e7b7067b-4689-467a-a1c3-ff953783f6b1","ios":"levelo://app?vid=e7b7067b-4689-467a-a1c3-ff953783f6b1"},"vehicle_type_id":"4","last_reported":1761944945,"current_range_meters":14800,"station_id":"ce4bgv12rcd13ifvqcp0","pricing_plan_id":"cebpf4jnsgd1na2vs0mg"},{"bike_id":"288b9f4a-9d7e-4f01-adad-679aabc4adf3","system_id":"levelo_inurba_marseille","lat":43.295996,"lon":5.38095,"is_reserved":false,"is_disabled":false,"rental_uris":{"android":"levelo://app?vid=288b9f4a-9d7e-4f01-adad-679aabc4adf3","ios":"levelo://app?vid=288b9f4a-9d7e-4f01-adad-679aabc4adf3"},"vehicle_type_id":"4","last_reported":1761944945,"current_range_meters":14800,"station_id":"ce4bgl12rcd13ifvqbo0","pricing_plan_id":"cebpf4jnsgd1na2vs0mg"},{"bike_id":"7526c8c8-da2c-4eb3-82f5-da540cba8cb4","system_id":"levelo_inurba_marseille","lat":43.30554,"lon":5.38425,"is_reserved":false,"is_disabled":false,"rental_uris":{"android":"levelo://app?vid=7526c8c8-da2c-4eb3-82f5-da540cba8cb4","ios":"levelo://app?vid=7526c8c8-da2c-4eb3-82f5-da540cba8cb4"},"vehicle_type_id":"4","last_reported":1761944945,"current_range_meters":14800,"station_id":"ce4bgg92rcd13ifvqb30","pricing_plan_id":"cebpf4jnsgd1na2vs0mg"},{"bike_id":"3a644204-4cf0-4c7d-87c9-d392aea26a35","system_id":"levelo_inurba_marseille","lat":43.29515,"lon":5.39037,"is_reserved":false,"is_disabled":false,"rental_uris":{"android":"levelo://app?vid=3a644204-4cf0-4c7d-87c9-d392aea26a35","ios":"levelo://app?vid=3a644204-4cf0-4c7d-87c9-d392aea26a35"},"vehicle_type_id":"4","last_reported":1761944945,"current_range_meters":14800,"station_id":"ce4bh3p2rcd13ifvqdp0","pricing_plan_id":"cebpf4jnsgd1na2vs0mg"},{"bike_id":"2c3f1292-079e-4455-b62f-579b3d1fac02","system_id":"levelo_inurba_marseille","lat":43.2957,"lon":5.39986,"is_reserved":false,"is_disabled":false,"rental_uris":{"android":"levelo://app?vid=2c3f1292-079e-4455-b62f-579b3d1fac02","ios":"levelo://app?vid=2c3f1292-079e-4455-b62f-579b3d1fac02"},"vehicle_type_id":"4","last_reported":1761944945,"current_range_meters":14800,"station_id":"ce4bh312rcd13ifvqdj0","pricing_plan_id":"cebpf4jnsgd1na2vs0mg"},{"bike_id":"cfe95386-912d-4bf5-abcf-83a4f7785b31","system_id":"levelo_inurba_marseille","lat":43.2815,"lon":5.42637,"is_reserved":false,"is_disabled":false,"rental_uris":{"android":"levelo://app?vid=cfe95386-912d-4bf5-abcf-83a4f7785b31","ios":"levelo://app?vid=cfe95386-912d-4bf5-abcf-83a4f7785b31"},"vehicle_type_id":"4","last_reported":1761944945,"current_range_meters":14800,"station_id":"ce4bhnh2rcd13ifvqgug","pricing_plan_id":"cebpf4jnsgd1na2vs0mg"},{"bike_id":"2cc83d26-2a12-4973-886f-53af7a6b01c5","system_id":"levelo_inurba_marseille","lat":43.27208,"lon":5.39176,"is_reserved":false,"is_disabled":false,"rental_uris":{"android":"levelo://app?vid=2cc83d26-2a12-4973-886f-53af7a6b01c5","ios":"levelo://app?vid=2cc83d26-2a12-4973-886f-53af7a6b01c5"},"vehicle_type_id":"4","last_reported":1761944945,"current_range_meters":14800,"station_id":"ce4bhhp2rcd13ifvqfm0","pricing_plan_id":"cebpf4jnsgd1na2vs0mg"},{"bike_id":"b1e81361-2b17-4ef1-8a58-6def5753471b","system_id":"levelo_inurba_marseille","lat":43.33753,"lon":5.37484,"is_reserved":false,"is_disabled":false,"rental_uris":{"android":"levelo://app?vid=b1e81361-2b17-4ef1-8a58-6def5753471b","ios":"levelo://app?vid=b1e81361-2b17-4ef1-8a58-6def5753471b"},"vehicle_type_id":"4","last_reported":1761944945,"current_range_meters":15200,"station_id":"","pricing_plan_id":"cebpf4jnsgd1na2vs0mg"},{"bike_id":"40d43d4d-600b-44a2-b942-bf4998c680ad","system_id":"levelo_inurba_marseille","lat":43.290912,"lon":5.385163,"is_reserved":false,"is_disabled":false,"rental_uris":{"android":"levelo://app?vid=40d43d4d-600b-44a2-b942-bf4998c680ad","ios":"levelo://app?vid=40d43d4d-600b-44a2-b942-bf4998c680ad"},"vehicle_type_id":"4","last_reported":1761944945,"current_range_meters":15200,"station_id":"","pricing_plan_id":"cebpf4jnsgd1na2vs0mg"},{"bike_id":"c43da4ca-4a27-413f-8de1-73fb68abccf6","system_id":"levelo_inurba_marseille","lat":43.27995,"lon":5.39999,"is_reserved":false,"is_disabled":false,"rental_uris":{"android":"levelo://app?vid=c43da4ca-4a27-413f-8de1-73fb68abccf6","ios":"levelo://app?vid=c43da4ca-4a27-413f-8de1-73fb68abccf6"},"vehicle_type_id":"4","last_reported":1761944945,"current_range_meters":15200,"station_id":"ce4bho92rcd13ifvqh4g","pricing_plan_id":"cebpf4jnsgd1na2vs0mg"},{"bike_id":"b82f481c-17e5-4a3c-9f47-f1f7b37bbfaf","system_id":"levelo_inurba_marseille","lat":43.29273,"lon":5.38446,"is_reserved":false,"is_disabled":false,"rental_uris":{"android":"levelo://app?vid=b82f481c-17e5-4a3c-9f47-f1f7b37bbfaf","ios":"levelo://app?vid=b82f481c-17e5-4a3c-9f47-f1f7b37bbfaf"},"vehicle_type_id":"4","last_reported":1761944945,"current_range_meters":15200,"station_id":"ce4bh692rcd13ifvqea0","pricing_plan_id":"cebpf4jnsgd1na2vs0mg"},{"bike_id":"4e3f7bdf-3080-4acb-9382-97e071fe821d","system_id":"levelo_inurba_marseille","lat":43.295314,"lon":5.385421,"is_reserved":false,"is_disabled":false,"rental_uris":{"android":"levelo://app?vid=4e3f7bdf-3080-4acb-9382-97e071fe821d","ios":"levelo://app?vid=4e3f7bdf-3080-4acb-9382-97e071fe821d"},"vehicle_type_id":"4","last_reported":1761944945,"current_range_meters":16000,"station_id":"","pricing_plan_id":"cebpf4jnsgd1na2vs0mg"},{"bike_id":"77cb26a1-52f9-40bd-b524-f34c2c796d9a","system_id":"levelo_inurba_marseille","lat":43.27831,"lon":5.39199,"is_reserved":false,"is_disabled":false,"rental_uris":{"android":"levelo://app?vid=77cb26a1-52f9-40bd-b524-f34c2c796d9a","ios":"levelo://app?vid=77cb26a1-52f9-40bd-b524-f34c2c796d9a"},"vehicle_type_id":"4","last_reported":1761944945,"current_range_meters":16000,"station_id":"ce4bhjp2rcd13ifvqga0","pricing_plan_id":"cebpf4jnsgd1na2vs0mg"},{"bike_id":"3a295d23-5ed5-44a8-8742-6388c10ec50a","system_id":"levelo_inurba_marseille","lat":43.29507,"lon":5.39048,"is_reserved":false,"is_disabled":false,"rental_uris":{"android":"levelo://app?vid=3a295d23-5ed5-44a8-8742-6388c10ec50a","ios":"levelo://app?vid=3a295d23-5ed5-44a8-8742-6388c10ec50a"},"vehicle_type_id":"4","last_reported":1761944945,"current_range_meters":16000,"station_id":"ce4bh3p2rcd13ifvqdp0","pricing_plan_id":"cebpf4jnsgd1na2vs0mg"},{"bike_id":"e91ca3bd-716c-4058-aad0-3ad5215c59cc","system_id":"levelo_inurba_marseille","lat":43.335541,"lon":5.410332,"is_reserved":false,"is_disabled":false,"rental_uris":{"android":"levelo://app?vid=e91ca3bd-716c-4058-aad0-3ad5215c59cc","ios":"levelo://app?vid=e91ca3bd-716c-4058-aad0-3ad5215c59cc"},"vehicle_type_id":"4","last_reported":1761944945,"current_range_meters":16000,"station_id":"ce4bhqh2rcd13ifvqhmg","pricing_plan_id":"cebpf4jnsgd1na2vs0mg"},{"bike_id":"0a64590a-e587-40e4-bedd-35503586ad44","system_id":"levelo_inurba_marseille","lat":43.27209,"lon":5.39175,"is_reserved":false,"is_disabled":false,"rental_uris":{"android":"levelo://app?vid=0a64590a-e587-40e4-bedd-35503586ad44","ios":"levelo://app?vid=0a64590a-e587-40e4-bedd-35503586ad44"},"vehicle_type_id":"4","last_reported":1761944945,"current_range_meters":16000,"station_id":"ce4bhhp2rcd13ifvqfm0","pricing_plan_id":"cebpf4jnsgd1na2vs0mg"},{"bike_id":"202e88b2-90d2-41aa-9e87-3c5e971e4e31","system_id":"levelo_inurba_marseille","lat":43.288147,"lon":5.391652,"is_reserved":false,"is_disabled":false,"rental_uris":{"android":"levelo://app?vid=202e88b2-90d2-41aa-9e87-3c5e971e4e31","ios":"levelo://app?vid=202e88b2-90d2-41aa-9e87-3c5e971e4e31"},"vehicle_type_id":"4","last_reported":1761944945,"current_range_meters":16000,"station_id":"","pricing_plan_id":"cebpf4jnsgd1na2vs0mg"},{"bike_id":"c54e575d-9d7e-42ed-9ec5-0e46002c13e0","system_id":"levelo_inurba_marseille","lat":43.30118,"lon":5.43098,"is_reserved":false,"is_disabled":false,"rental_uris":{"android":"levelo://app?vid=c54e575d-9d7e-42ed-9ec5-0e46002c13e0","ios":"levelo://app?vid=c54e575d-9d7e-42ed-9ec5-0e46002c13e0"},"vehicle_type_id":"4","last_reported":1761944945,"current_range_meters":16000,"station_id":"st_d3js3co5814s73ftftug","pricing_plan_id":"cebpf4jnsgd1na2vs0mg"},{"bike_id":"bfc82e72-9c79-45c9-abc5-9f0f0b9628b2","system_id":"levelo_inurba_marseille","lat":43.27369,"lon":5.36249,"is_reserved":false,"is_disabled":false,"rental_uris":{"android":"levelo://app?vid=bfc82e72-9c79-45c9-abc5-9f0f0b9628b2","ios":"levelo://app?vid=bfc82e72-9c79-45c9-abc5-9f0f0b9628b2"},"vehicle_type_id":"4","last_reported":1761944945,"current_range_meters":16000,"station_id":"ce4bhbh2rcd13ifvqeo0","pricing_plan_id":"cebpf4jnsgd1na2vs0mg"},{"bike_id":"b8260940-1349-485d-9243-33fa537b4fce","system_id":"levelo_inurba_marseille","lat":43.27956,"lon":5.41027,"is_reserved":false,"is_disabled":false,"rental_uris":{"android":"levelo://app?vid=b8260940-1349-485d-9243-33fa537b4fce","ios":"levelo://app?vid=b8260940-1349-485d-9243-33fa537b4fce"},"vehicle_type_id":"4","last_reported":1761944945,"current_range_meters":16000,"station_id":"ce4bhnp2rcd13ifvqh0g","pricing_plan_id":"cebpf4jnsgd1na2vs0mg"},{"bike_id":"6df5d1b3-a573-47f0-acd9-dcc1039518a8","system_id":"levelo_inurba_marseille","lat":43.27949,"lon":5.41031,"is_reserved":false,"is_disabled":false,"rental_uris":{"android":"levelo://app?vid=6df5d1b3-a573-47f0-acd9-dcc1039518a8","ios":"levelo://app?vid=6df5d1b3-a573-47f0-acd9-dcc1039518a8"},"vehicle_type_id":"4","last_reported":1761944945,"current_range_meters":16000,"station_id":"ce4bhnp2rcd13ifvqh0g","pricing_plan_id":"cebpf4jnsgd1na2vs0mg"},{"bike_id":"23a3e0bb-dabb-4740-a641-7db3be8a8c83","system_id":"levelo_inurba_marseille","lat":43.255116,"lon":5.376516,"is_reserved":false,"is_disabled":false,"rental_uris":{"android":"levelo://app?vid=23a3e0bb-dabb-4740-a641-7db3be8a8c83","ios":"levelo://app?vid=23a3e0bb-dabb-4740-a641-7db3be8a8c83"},"vehicle_type_id":"4","last_reported":1761944945,"current_range_meters":16400,"station_id":"ce4bhh12rcd13ifvqff0","pricing_plan_id":"cebpf4jnsgd1na2vs0mg"},{"bike_id":"36a40590-ec8d-4911-b110-4cf64635fc24","system_id":"levelo_inurba_marseille","lat":43.29257,"lon":5.38442,"is_reserved":false,"is_disabled":false,"rental_uris":{"android":"levelo://app?vid=36a40590-ec8d-4911-b110-4cf64635fc24","ios":"levelo://app?vid=36a40590-ec8d-4911-b110-4cf64635fc24"},"vehicle_type_id":"4","last_reported":1761944945,"current_range_meters":16400,"station_id":"ce4bh692rcd13ifvqea0","pricing_plan_id":"cebpf4jnsgd1na2vs0mg"},{"bike_id":"e97bd841-a757-4f02-af2a-2c6920cfa105","system_id":"levelo_inurba_marseille","lat":43.28173,"lon":5.42629,"is_reserved":false,"is_disabled":false,"rental_uris":{"android":"levelo://app?vid=e97bd841-a757-4f02-af2a-2c6920cfa105","ios":"levelo://app?vid=e97bd841-a757-4f02-af2a-2c6920cfa105"},"vehicle_type_id":"4","last_reported":1761944945,"current_range_meters":16400,"station_id":"ce4bhnh2rcd13ifvqgug","pricing_plan_id":"cebpf4jnsgd1na2vs0mg"},{"bike_id":"772e79c3-d115-4fd9-9f88-5291ce2424a6","system_id":"levelo_inurba_marseille","lat":43.27999,"lon":5.40006,"is_reserved":false,"is_disabled":false,"rental_uris":{"android":"levelo://app?vid=772e79c3-d115-4fd9-9f88-5291ce2424a6","ios":"levelo://app?vid=772e79c3-d115-4fd9-9f88-5291ce2424a6"},"vehicle_type_id":"4","last_reported":1761944945,"current_range_meters":16400,"station_id":"ce4bho92rcd13ifvqh4g","pricing_plan_id":"cebpf4jnsgd1na2vs0mg"},{"bike_id":"472a1028-9e29-4e6f-b089-eae1dc72cf56","system_id":"levelo_inurba_marseille","lat":43.23067,"lon":5.35496,"is_reserved":false,"is_disabled":false,"rental_uris":{"android":"levelo://app?vid=472a1028-9e29-4e6f-b089-eae1dc72cf56","ios":"levelo://app?vid=472a1028-9e29-4e6f-b089-eae1dc72cf56"},"vehicle_type_id":"4","last_reported":1761944945,"current_range_meters":16400,"station_id":"cpo3342slgdg3j2ifvpg","pricing_plan_id":"cebpf4jnsgd1na2vs0mg"},{"bike_id":"e04f332d-b41c-47fd-b12f-6fdc7d63f429","system_id":"levelo_inurba_marseille","lat":43.30856,"lon":5.38303,"is_reserved":false,"is_disabled":false,"rental_uris":{"android":"levelo://app?vid=e04f332d-b41c-47fd-b12f-6fdc7d63f429","ios":"levelo://app?vid=e04f332d-b41c-47fd-b12f-6fdc7d63f429"},"vehicle_type_id":"4","last_reported":1761944945,"current_range_meters":16400,"station_id":"","pricing_plan_id":"cebpf4jnsgd1na2vs0mg"},{"bike_id":"a5a16550-6fb4-48f8-8a89-89ded033084f","system_id":"levelo_inurba_marseille","lat":43.281581,"lon":5.426487,"is_reserved":false,"is_disabled":false,"rental_uris":{"android":"levelo://app?vid=a5a16550-6fb4-48f8-8a89-89ded033084f","ios":"levelo://app?vid=a5a16550-6fb4-48f8-8a89-89ded033084f"},"vehicle_type_id":"4","last_reported":1761944945,"current_range_meters":16400,"station_id":"ce4bhnh2rcd13ifvqgug","pricing_plan_id":"cebpf4jnsgd1na2vs0mg"},{"bike_id":"c2807477-fd8d-44ed-9bdc-b3f90f0cbde0","system_id":"levelo_inurba_marseille","lat":43.31878,"lon":5.39981,"is_reserved":false,"is_disabled":false,"rental_uris":{"android":"levelo://app?vid=c2807477-fd8d-44ed-9bdc-b3f90f0cbde0","ios":"levelo://app?vid=c2807477-fd8d-44ed-9bdc-b3f90f0cbde0"},"vehicle_type_id":"4","last_reported":1761944945,"current_range_meters":16400,"station_id":"","pricing_plan_id":"cebpf4jnsgd1na2vs0mg"},{"bike_id":"8e61a1b0-b51e-4808-89e8-bacdad2c9db4","system_id":"levelo_inurba_marseille","lat":43.27578,"lon":5.38471,"is_reserved":false,"is_disabled":false,"rental_uris":{"android":"levelo://app?vid=8e61a1b0-b51e-4808-89e8-bacdad2c9db4","ios":"levelo://app?vid=8e61a1b0-b51e-4808-89e8-bacdad2c9db4"},"vehicle_type_id":"4","last_reported":1761944945,"current_range_meters":16400,"station_id":"ce4bhh92rcd13ifvqfi0","pricing_plan_id":"cebpf4jnsgd1na2vs0mg"},{"bike_id":"98d10a64-5b1c-423c-87e7-a8af1618811d","system_id":"levelo_inurba_marseille","lat":43.29531,"lon":5.38549,"is_reserved":false,"is_disabled":false,"rental_uris":{"android":"levelo://app?vid=98d10a64-5b1c-423c-87e7-a8af1618811d","ios":"levelo://app?vid=98d10a64-5b1c-423c-87e7-a8af1618811d"},"vehicle_type_id":"4","last_reported":1761944945,"current_range_meters":16400,"station_id":"ce4bgih2rcd13ifvqba0","pricing_plan_id":"cebpf4jnsgd1na2vs0mg"},{"bike_id":"74d9fcad-a2b6-495b-88b1-ea28dfe52b71","system_id":"levelo_inurba_marseille","lat":43.31757,"lon":5.39008,"is_reserved":false,"is_disabled":false,"rental_uris":{"android":"levelo://app?vid=74d9fcad-a2b6-495b-88b1-ea28dfe52b71","ios":"levelo://app?vid=74d9fcad-a2b6-495b-88b1-ea28dfe52b71"},"vehicle_type_id":"4","last_reported":1761944945,"current_range_meters":16800,"station_id":"ce4bhqp2rcd13ifvqhng","pricing_plan_id":"cebpf4jnsgd1na2vs0mg"},{"bike_id":"3f53b30b-4d49-466f-ad4f-2e0cd848a211","system_id":"levelo_inurba_marseille","lat":43.29487,"lon":5.43304,"is_reserved":false,"is_disabled":false,"rental_uris":{"android":"levelo://app?vid=3f53b30b-4d49-466f-ad4f-2e0cd848a211","ios":"levelo://app?vid=3f53b30b-4d49-466f-ad4f-2e0cd848a211"},"vehicle_type_id":"4","last_reported":1761944945,"current_range_meters":16800,"station_id":"st_d3j5ugp08ojc73fj9d10","pricing_plan_id":"cebpf4jnsgd1na2vs0mg"},{"bike_id":"516799ba-a44b-46cb-88bd-74466c65d2d2","system_id":"levelo_inurba_marseille","lat":43.29534,"lon":5.38545,"is_reserved":false,"is_disabled":false,"rental_uris":{"android":"levelo://app?vid=516799ba-a44b-46cb-88bd-74466c65d2d2","ios":"levelo://app?vid=516799ba-a44b-46cb-88bd-74466c65d2d2"},"vehicle_type_id":"4","last_reported":1761944945,"current_range_meters":16800,"station_id":"ce4bgih2rcd13ifvqba0","pricing_plan_id":"cebpf4jnsgd1na2vs0mg"},{"bike_id":"d618314f-f73c-412f-886f-0e7a63213353","system_id":"levelo_inurba_marseille","lat":43.305342,"lon":5.384204,"is_reserved":false,"is_disabled":false,"rental_uris":{"android":"levelo://app?vid=d618314f-f73c-412f-886f-0e7a63213353","ios":"levelo://app?vid=d618314f-f73c-412f-886f-0e7a63213353"},"vehicle_type_id":"4","last_reported":1761944945,"current_range_meters":16800,"station_id":"ce4bgg92rcd13ifvqb30","pricing_plan_id":"cebpf4jnsgd1na2vs0mg"},{"bike_id":"ced8b747-e5ab-4e7a-b1f4-22a1ebc20f6f","system_id":"levelo_inurba_marseille","lat":43.30779,"lon":5.3763,"is_reserved":false,"is_disabled":true,"rental_uris":{"android":"levelo://app?vid=ced8b747-e5ab-4e7a-b1f4-22a1ebc20f6f","ios":"levelo://app?vid=ced8b747-e5ab-4e7a-b1f4-22a1ebc20f6f"},"vehicle_type_id":"4","last_reported":1761944945,"current_range_meters":16800,"station_id":"ce4bgv92rcd13ifvqcq0","pricing_plan_id":"cebpf4jnsgd1na2vs0mg"},{"bike_id":"ae3598c3-d5d8-4133-922b-9187802cb4d8","system_id":"levelo_inurba_marseille","lat":43.32092,"lon":5.36802,"is_reserved":false,"is_disabled":false,"rental_uris":{"android":"levelo://app?vid=ae3598c3-d5d8-4133-922b-9187802cb4d8","ios":"levelo://app?vid=ae3598c3-d5d8-4133-922b-9187802cb4d8"},"vehicle_type_id":"4","last_reported":1761944945,"current_range_meters":16800,"station_id":"ce4bhrh2rcd13ifvqhug","pricing_plan_id":"cebpf4jnsgd1na2vs0mg"},{"bike_id":"c42de068-ba0a-471e-b3b4-17e367f4671b","system_id":"levelo_inurba_marseille","lat":43.295126,"lon":5.390322,"is_reserved":false,"is_disabled":false,"rental_uris":{"android":"levelo://app?vid=c42de068-ba0a-471e-b3b4-17e367f4671b","ios":"levelo://app?vid=c42de068-ba0a-471e-b3b4-17e367f4671b"},"vehicle_type_id":"4","last_reported":1761944945,"current_range_meters":16800,"station_id":"ce4bh3p2rcd13ifvqdp0","pricing_plan_id":"cebpf4jnsgd1na2vs0mg"},{"bike_id":"847cfdee-9b16-427a-b8df-310a2c0759b9","system_id":"levelo_inurba_marseille","lat":43.29273,"lon":5.37636,"is_reserved":false,"is_disabled":false,"rental_uris":{"android":"levelo://app?vid=847cfdee-9b16-427a-b8df-310a2c0759b9","ios":"levelo://app?vid=847cfdee-9b16-427a-b8df-310a2c0759b9"},"vehicle_type_id":"4","last_reported":1761944945,"current_range_meters":17200,"station_id":"ce4bgi12rcd13ifvqb80","pricing_plan_id":"cebpf4jnsgd1na2vs0mg"},{"bike_id":"68dfe5bf-96d8-40ed-a701-d1cafa21ceb7","system_id":"levelo_inurba_marseille","lat":43.30562,"lon":5.38942,"is_reserved":false,"is_disabled":false,"rental_uris":{"android":"levelo://app?vid=68dfe5bf-96d8-40ed-a701-d1cafa21ceb7","ios":"levelo://app?vid=68dfe5bf-96d8-40ed-a701-d1cafa21ceb7"},"vehicle_type_id":"4","last_reported":1761944945,"current_range_meters":17200,"station_id":"ce4bgk12rcd13ifvqbi0","pricing_plan_id":"cebpf4jnsgd1na2vs0mg"},{"bike_id":"6da830a8-111a-4fc5-a34c-ced64d9d2dc3","system_id":"levelo_inurba_marseille","lat":43.30589,"lon":5.39364,"is_reserved":false,"is_disabled":true,"rental_uris":{"android":"levelo://app?vid=6da830a8-111a-4fc5-a34c-ced64d9d2dc3","ios":"levelo://app?vid=6da830a8-111a-4fc5-a34c-ced64d9d2dc3"},"vehicle_type_id":"4","last_reported":1761944945,"current_range_meters":17200,"station_id":"ce4bh0p2rcd13ifvqd80","pricing_plan_id":"cebpf4jnsgd1na2vs0mg"},{"bike_id":"c04ea6ec-c85d-4b9a-aa74-f0de2415a6d2","system_id":"levelo_inurba_marseille","lat":43.31503,"lon":5.38409,"is_reserved":false,"is_disabled":false,"rental_uris":{"android":"levelo://app?vid=c04ea6ec-c85d-4b9a-aa74-f0de2415a6d2","ios":"levelo://app?vid=c04ea6ec-c85d-4b9a-aa74-f0de2415a6d2"},"vehicle_type_id":"4","last_reported":1761944945,"current_range_meters":17200,"station_id":"","pricing_plan_id":"cebpf4jnsgd1na2vs0mg"},{"bike_id":"fbcc5886-69e3-488f-96fd-e45314a075e6","system_id":"levelo_inurba_marseille","lat":43.28858,"lon":5.42507,"is_reserved":false,"is_disabled":false,"rental_uris":{"android":"levelo://app?vid=fbcc5886-69e3-488f-96fd-e45314a075e6","ios":"levelo://app?vid=fbcc5886-69e3-488f-96fd-e45314a075e6"},"vehicle_type_id":"4","last_reported":1761944945,"current_range_meters":17200,"station_id":"st_d3b462108ojc7389ooeg","pricing_plan_id":"cebpf4jnsgd1na2vs0mg"},{"bike_id":"4e54111d-f227-41f6-8c56-6e1811feaf6c","system_id":"levelo_inurba_marseille","lat":43.29263,"lon":5.38439,"is_reserved":false,"is_disabled":false,"rental_uris":{"android":"levelo://app?vid=4e54111d-f227-41f6-8c56-6e1811feaf6c","ios":"levelo://app?vid=4e54111d-f227-41f6-8c56-6e1811feaf6c"},"vehicle_type_id":"4","last_reported":1761944945,"current_range_meters":17200,"station_id":"ce4bh692rcd13ifvqea0","pricing_plan_id":"cebpf4jnsgd1na2vs0mg"},{"bike_id":"3708e1d2-c0c2-45b9-9650-3c749e33056e","system_id":"levelo_inurba_marseille","lat":43.25084,"lon":5.39522,"is_reserved":false,"is_disabled":false,"rental_uris":{"android":"levelo://app?vid=3708e1d2-c0c2-45b9-9650-3c749e33056e","ios":"levelo://app?vid=3708e1d2-c0c2-45b9-9650-3c749e33056e"},"vehicle_type_id":"4","last_reported":1761944945,"current_range_meters":17200,"station_id":"ce4bhm12rcd13ifvqgkg","pricing_plan_id":"cebpf4jnsgd1na2vs0mg"},{"bike_id":"a52d6c36-34c4-44d8-be2f-4926d387c817","system_id":"levelo_inurba_marseille","lat":43.29524,"lon":5.38565,"is_reserved":false,"is_disabled":false,"rental_uris":{"android":"levelo://app?vid=a52d6c36-34c4-44d8-be2f-4926d387c817","ios":"levelo://app?vid=a52d6c36-34c4-44d8-be2f-4926d387c817"},"vehicle_type_id":"4","last_reported":1761944945,"current_range_meters":17600,"station_id":"ce4bgih2rcd13ifvqba0","pricing_plan_id":"cebpf4jnsgd1na2vs0mg"},{"bike_id":"6165d0b8-c839-4ae5-b482-d361d4729517","system_id":"levelo_inurba_marseille","lat":43.313248,"lon":5.396904,"is_reserved":false,"is_disabled":false,"rental_uris":{"android":"levelo://app?vid=6165d0b8-c839-4ae5-b482-d361d4729517","ios":"levelo://app?vid=6165d0b8-c839-4ae5-b482-d361d4729517"},"vehicle_type_id":"4","last_reported":1761944945,"current_range_meters":17600,"station_id":"ce4bgvp2rcd13ifvqcu0","pricing_plan_id":"cebpf4jnsgd1na2vs0mg"},{"bike_id":"2133592e-b1a3-4faf-a052-0874a35770d9","system_id":"levelo_inurba_marseille","lat":43.296361,"lon":5.405938,"is_reserved":false,"is_disabled":false,"rental_uris":{"android":"levelo://app?vid=2133592e-b1a3-4faf-a052-0874a35770d9","ios":"levelo://app?vid=2133592e-b1a3-4faf-a052-0874a35770d9"},"vehicle_type_id":"4","last_reported":1761944945,"current_range_meters":17600,"station_id":"ce4bh0h2rcd13ifvqd60","pricing_plan_id":"cebpf4jnsgd1na2vs0mg"},{"bike_id":"3da6f616-2de7-40dd-b4e3-ea4a3fa5ce91","system_id":"levelo_inurba_marseille","lat":43.292651,"lon":5.384359,"is_reserved":false,"is_disabled":false,"rental_uris":{"android":"levelo://app?vid=3da6f616-2de7-40dd-b4e3-ea4a3fa5ce91","ios":"levelo://app?vid=3da6f616-2de7-40dd-b4e3-ea4a3fa5ce91"},"vehicle_type_id":"4","last_reported":1761944945,"current_range_meters":17600,"station_id":"ce4bh692rcd13ifvqea0","pricing_plan_id":"cebpf4jnsgd1na2vs0mg"},{"bike_id":"cdd112f3-6912-49dd-9e7f-dbb25c44d0bb","system_id":"levelo_inurba_marseille","lat":43.29748,"lon":5.42768,"is_reserved":false,"is_disabled":false,"rental_uris":{"android":"levelo://app?vid=cdd112f3-6912-49dd-9e7f-dbb25c44d0bb","ios":"levelo://app?vid=cdd112f3-6912-49dd-9e7f-dbb25c44d0bb"},"vehicle_type_id":"4","last_reported":1761944945,"current_range_meters":17600,"station_id":"st_d3md5207bmas73dh9klg","pricing_plan_id":"cebpf4jnsgd1na2vs0mg"},{"bike_id":"c7066394-68c9-496b-a4dd-a8339b8e9bd2","system_id":"levelo_inurba_marseille","lat":43.29022,"lon":5.38627,"is_reserved":false,"is_disabled":false,"rental_uris":{"android":"levelo://app?vid=c7066394-68c9-496b-a4dd-a8339b8e9bd2","ios":"levelo://app?vid=c7066394-68c9-496b-a4dd-a8339b8e9bd2"},"vehicle_type_id":"4","last_reported":1761944945,"current_range_meters":17600,"station_id":"ce4bh4p2rcd13ifvqe0g","pricing_plan_id":"cebpf4jnsgd1na2vs0mg"},{"bike_id":"252ff558-e70b-4ae0-9044-acc668b445bb","system_id":"levelo_inurba_marseille","lat":43.21193,"lon":5.3507,"is_reserved":false,"is_disabled":false,"rental_uris":{"android":"levelo://app?vid=252ff558-e70b-4ae0-9044-acc668b445bb","ios":"levelo://app?vid=252ff558-e70b-4ae0-9044-acc668b445bb"},"vehicle_type_id":"4","last_reported":1761944945,"current_range_meters":17600,"station_id":"st_cvj6sg6p6f1abm77japg","pricing_plan_id":"cebpf4jnsgd1na2vs0mg"},{"bike_id":"7a40df5c-50cc-4a80-bd27-e690d1783ee8","system_id":"levelo_inurba_marseille","lat":43.32112,"lon":5.36777,"is_reserved":false,"is_disabled":false,"rental_uris":{"android":"levelo://app?vid=7a40df5c-50cc-4a80-bd27-e690d1783ee8","ios":"levelo://app?vid=7a40df5c-50cc-4a80-bd27-e690d1783ee8"},"vehicle_type_id":"4","last_reported":1761944945,"current_range_meters":17600,"station_id":"ce4bhrh2rcd13ifvqhug","pricing_plan_id":"cebpf4jnsgd1na2vs0mg"},{"bike_id":"0b951a33-8ea4-4d55-9b90-e84b0ed21ff0","system_id":"levelo_inurba_marseille","lat":43.29252,"lon":5.38434,"is_reserved":false,"is_disabled":true,"rental_uris":{"android":"levelo://app?vid=0b951a33-8ea4-4d55-9b90-e84b0ed21ff0","ios":"levelo://app?vid=0b951a33-8ea4-4d55-9b90-e84b0ed21ff0"},"vehicle_type_id":"4","last_reported":1761944945,"current_range_meters":18000,"station_id":"ce4bh692rcd13ifvqea0","pricing_plan_id":"cebpf4jnsgd1na2vs0mg"},{"bike_id":"9c8a0e56-177d-408d-9575-1860c4be36dc","system_id":"levelo_inurba_marseille","lat":43.30912,"lon":5.36851,"is_reserved":false,"is_disabled":false,"rental_uris":{"android":"levelo://app?vid=9c8a0e56-177d-408d-9575-1860c4be36dc","ios":"levelo://app?vid=9c8a0e56-177d-408d-9575-1860c4be36dc"},"vehicle_type_id":"4","last_reported":1761944945,"current_range_meters":18000,"station_id":"ce4bgn92rcd13ifvqbvg","pricing_plan_id":"cebpf4jnsgd1na2vs0mg"},{"bike_id":"c3de4193-b30f-4c53-a743-4e3a738e9dde","system_id":"levelo_inurba_marseille","lat":43.26677,"lon":5.38269,"is_reserved":false,"is_disabled":false,"rental_uris":{"android":"levelo://app?vid=c3de4193-b30f-4c53-a743-4e3a738e9dde","ios":"levelo://app?vid=c3de4193-b30f-4c53-a743-4e3a738e9dde"},"vehicle_type_id":"4","last_reported":1761944945,"current_range_meters":18000,"station_id":"ce4bhg92rcd13ifvqf90","pricing_plan_id":"cebpf4jnsgd1na2vs0mg"},{"bike_id":"0089665c-d050-4f0d-8d27-e9a6af9208fc","system_id":"levelo_inurba_marseille","lat":43.30195,"lon":5.380209,"is_reserved":false,"is_disabled":false,"rental_uris":{"android":"levelo://app?vid=0089665c-d050-4f0d-8d27-e9a6af9208fc","ios":"levelo://app?vid=0089665c-d050-4f0d-8d27-e9a6af9208fc"},"vehicle_type_id":"4","last_reported":1761944945,"current_range_meters":18000,"station_id":"","pricing_plan_id":"cebpf4jnsgd1na2vs0mg"},{"bike_id":"0c3bfe72-1bfa-4fe4-8ec1-abc531b0b6c5","system_id":"levelo_inurba_marseille","lat":43.26544,"lon":5.37279,"is_reserved":false,"is_disabled":true,"rental_uris":{"android":"levelo://app?vid=0c3bfe72-1bfa-4fe4-8ec1-abc531b0b6c5","ios":"levelo://app?vid=0c3bfe72-1bfa-4fe4-8ec1-abc531b0b6c5"},"vehicle_type_id":"4","last_reported":1761944945,"current_range_meters":18000,"station_id":"ce4bhg12rcd13ifvqf70","pricing_plan_id":"cebpf4jnsgd1na2vs0mg"},{"bike_id":"f9a376bb-e16d-419c-884a-492ffebe4f2f","system_id":"levelo_inurba_marseille","lat":43.25336,"lon":5.42182,"is_reserved":false,"is_disabled":false,"rental_uris":{"android":"levelo://app?vid=f9a376bb-e16d-419c-884a-492ffebe4f2f","ios":"levelo://app?vid=f9a376bb-e16d-419c-884a-492ffebe4f2f"},"vehicle_type_id":"4","last_reported":1761944945,"current_range_meters":18000,"station_id":"st_d2m65c5bi1j21697t3ng","pricing_plan_id":"cebpf4jnsgd1na2vs0mg"},{"bike_id":"ec343bac-082c-4f2c-9f75-1ead722cc6b9","system_id":"levelo_inurba_marseille","lat":43.29271,"lon":5.38443,"is_reserved":false,"is_disabled":false,"rental_uris":{"android":"levelo://app?vid=ec343bac-082c-4f2c-9f75-1ead722cc6b9","ios":"levelo://app?vid=ec343bac-082c-4f2c-9f75-1ead722cc6b9"},"vehicle_type_id":"4","last_reported":1761944945,"current_range_meters":18000,"station_id":"ce4bh692rcd13ifvqea0","pricing_plan_id":"cebpf4jnsgd1na2vs0mg"},{"bike_id":"d452d34c-d4bc-48b1-a676-b04c892b33ad","system_id":"levelo_inurba_marseille","lat":43.29541,"lon":5.38543,"is_reserved":false,"is_disabled":false,"rental_uris":{"android":"levelo://app?vid=d452d34c-d4bc-48b1-a676-b04c892b33ad","ios":"levelo://app?vid=d452d34c-d4bc-48b1-a676-b04c892b33ad"},"vehicle_type_id":"4","last_reported":1761944945,"current_range_meters":18000,"station_id":"ce4bgih2rcd13ifvqba0","pricing_plan_id":"cebpf4jnsgd1na2vs0mg"},{"bike_id":"bfd47976-4b12-4a3a-abee-96cc29a7d071","system_id":"levelo_inurba_marseille","lat":43.295,"lon":5.43305,"is_reserved":false,"is_disabled":false,"rental_uris":{"android":"levelo://app?vid=bfd47976-4b12-4a3a-abee-96cc29a7d071","ios":"levelo://app?vid=bfd47976-4b12-4a3a-abee-96cc29a7d071"},"vehicle_type_id":"4","last_reported":1761944945,"current_range_meters":18800,"station_id":"st_d3j5ugp08ojc73fj9d10","pricing_plan_id":"cebpf4jnsgd1na2vs0mg"},{"bike_id":"256489bb-a0f6-4be1-ba92-05d3e173bc8b","system_id":"levelo_inurba_marseille","lat":43.24166,"lon":5.39731,"is_reserved":false,"is_disabled":false,"rental_uris":{"android":"levelo://app?vid=256489bb-a0f6-4be1-ba92-05d3e173bc8b","ios":"levelo://app?vid=256489bb-a0f6-4be1-ba92-05d3e173bc8b"},"vehicle_type_id":"4","last_reported":1761944945,"current_range_meters":18800,"station_id":"ce4bhn12rcd13ifvqgpg","pricing_plan_id":"cebpf4jnsgd1na2vs0mg"},{"bike_id":"e3fb49f5-399b-4d6f-8db8-5b0bff4d385f","system_id":"levelo_inurba_marseille","lat":43.33753,"lon":5.37428,"is_reserved":false,"is_disabled":false,"rental_uris":{"android":"levelo://app?vid=e3fb49f5-399b-4d6f-8db8-5b0bff4d385f","ios":"levelo://app?vid=e3fb49f5-399b-4d6f-8db8-5b0bff4d385f"},"vehicle_type_id":"4","last_reported":1761944945,"current_range_meters":18800,"station_id":"ce4bh612rcd13ifvqe6g","pricing_plan_id":"cebpf4jnsgd1na2vs0mg"},{"bike_id":"94084d75-b1ec-4cf5-8736-b1d0c7eed7ce","system_id":"levelo_inurba_marseille","lat":43.33024,"lon":5.39041,"is_reserved":false,"is_disabled":false,"rental_uris":{"android":"levelo://app?vid=94084d75-b1ec-4cf5-8736-b1d0c7eed7ce","ios":"levelo://app?vid=94084d75-b1ec-4cf5-8736-b1d0c7eed7ce"},"vehicle_type_id":"4","last_reported":1761944945,"current_range_meters":18800,"station_id":"ce4bhr92rcd13ifvqhrg","pricing_plan_id":"cebpf4jnsgd1na2vs0mg"},{"bike_id":"a62c8899-99d3-4b36-998e-f99186dfc0b8","system_id":"levelo_inurba_marseille","lat":43.27841,"lon":5.39213,"is_reserved":false,"is_disabled":false,"rental_uris":{"android":"levelo://app?vid=a62c8899-99d3-4b36-998e-f99186dfc0b8","ios":"levelo://app?vid=a62c8899-99d3-4b36-998e-f99186dfc0b8"},"vehicle_type_id":"4","last_reported":1761944945,"current_range_meters":18800,"station_id":"ce4bhjp2rcd13ifvqga0","pricing_plan_id":"cebpf4jnsgd1na2vs0mg"},{"bike_id":"f4c38a56-4a35-49a9-bdea-5d14ae1ba768","system_id":"levelo_inurba_marseille","lat":43.29758,"lon":5.42775,"is_reserved":false,"is_disabled":false,"rental_uris":{"android":"levelo://app?vid=f4c38a56-4a35-49a9-bdea-5d14ae1ba768","ios":"levelo://app?vid=f4c38a56-4a35-49a9-bdea-5d14ae1ba768"},"vehicle_type_id":"4","last_reported":1761944945,"current_range_meters":19200,"station_id":"st_d3md5207bmas73dh9klg","pricing_plan_id":"cebpf4jnsgd1na2vs0mg"},{"bike_id":"ab970699-388e-42be-adbb-ca8b6cb83043","system_id":"levelo_inurba_marseille","lat":43.27372,"lon":5.36257,"is_reserved":false,"is_disabled":false,"rental_uris":{"android":"levelo://app?vid=ab970699-388e-42be-adbb-ca8b6cb83043","ios":"levelo://app?vid=ab970699-388e-42be-adbb-ca8b6cb83043"},"vehicle_type_id":"4","last_reported":1761944945,"current_range_meters":19200,"station_id":"ce4bhbh2rcd13ifvqeo0","pricing_plan_id":"cebpf4jnsgd1na2vs0mg"},{"bike_id":"32632625-b281-4348-990f-071d78c42b84","system_id":"levelo_inurba_marseille","lat":43.26569,"lon":5.39014,"is_reserved":false,"is_disabled":false,"rental_uris":{"android":"levelo://app?vid=32632625-b281-4348-990f-071d78c42b84","ios":"levelo://app?vid=32632625-b281-4348-990f-071d78c42b84"},"vehicle_type_id":"4","last_reported":1761944945,"current_range_meters":19200,"station_id":"","pricing_plan_id":"cebpf4jnsgd1na2vs0mg"},{"bike_id":"a5f9d115-2eb0-463d-bf65-9070eaddf3fb","system_id":"levelo_inurba_marseille","lat":43.23979,"lon":5.366,"is_reserved":false,"is_disabled":false,"rental_uris":{"android":"levelo://app?vid=a5f9d115-2eb0-463d-bf65-9070eaddf3fb","ios":"levelo://app?vid=a5f9d115-2eb0-463d-bf65-9070eaddf3fb"},"vehicle_type_id":"4","last_reported":1761944945,"current_range_meters":19200,"station_id":"ce4bhi12rcd13ifvqfp0","pricing_plan_id":"cebpf4jnsgd1na2vs0mg"},{"bike_id":"41598790-345d-414f-9e87-720cb432f278","system_id":"levelo_inurba_marseille","lat":43.29477,"lon":5.36227,"is_reserved":false,"is_disabled":false,"rental_uris":{"android":"levelo://app?vid=41598790-345d-414f-9e87-720cb432f278","ios":"levelo://app?vid=41598790-345d-414f-9e87-720cb432f278"},"vehicle_type_id":"4","last_reported":1761944945,"current_range_meters":19200,"station_id":"","pricing_plan_id":"cebpf4jnsgd1na2vs0mg"},{"bike_id":"9ee030a8-2096-47dc-9a00-9b0afd75e3d0","system_id":"levelo_inurba_marseille","lat":43.32657,"lon":5.40977,"is_reserved":false,"is_disabled":false,"rental_uris":{"android":"levelo://app?vid=9ee030a8-2096-47dc-9a00-9b0afd75e3d0","ios":"levelo://app?vid=9ee030a8-2096-47dc-9a00-9b0afd75e3d0"},"vehicle_type_id":"4","last_reported":1761944945,"current_range_meters":19200,"station_id":"ce4bhpp2rcd13ifvqhgg","pricing_plan_id":"cebpf4jnsgd1na2vs0mg"},{"bike_id":"50c2c89c-4a9b-41f6-af05-b4e430e07029","system_id":"levelo_inurba_marseille","lat":43.24628,"lon":5.43143,"is_reserved":false,"is_disabled":false,"rental_uris":{"android":"levelo://app?vid=50c2c89c-4a9b-41f6-af05-b4e430e07029","ios":"levelo://app?vid=50c2c89c-4a9b-41f6-af05-b4e430e07029"},"vehicle_type_id":"4","last_reported":1761944945,"current_range_meters":19200,"station_id":"st_d2m6c4gdas8pm72e190g","pricing_plan_id":"cebpf4jnsgd1na2vs0mg"},{"bike_id":"cc0d6697-bf7c-4001-828f-c5cf42c80c59","system_id":"levelo_inurba_marseille","lat":43.212004,"lon":5.350781,"is_reserved":false,"is_disabled":false,"rental_uris":{"android":"levelo://app?vid=cc0d6697-bf7c-4001-828f-c5cf42c80c59","ios":"levelo://app?vid=cc0d6697-bf7c-4001-828f-c5cf42c80c59"},"vehicle_type_id":"4","last_reported":1761944945,"current_range_meters":19200,"station_id":"","pricing_plan_id":"cebpf4jnsgd1na2vs0mg"},{"bike_id":"1d29646a-da1f-4f66-b008-0838ffb2fa84","system_id":"levelo_inurba_marseille","lat":43.299853,"lon":5.372451,"is_reserved":false,"is_disabled":false,"rental_uris":{"android":"levelo://app?vid=1d29646a-da1f-4f66-b008-0838ffb2fa84","ios":"levelo://app?vid=1d29646a-da1f-4f66-b008-0838ffb2fa84"},"vehicle_type_id":"4","last_reported":1761944945,"current_range_meters":19200,"station_id":"","pricing_plan_id":"cebpf4jnsgd1na2vs0mg"},{"bike_id":"52b04612-cd38-411f-a68e-6bb9cb24a90a","system_id":"levelo_inurba_marseille","lat":43.24161,"lon":5.36373,"is_reserved":false,"is_disabled":false,"rental_uris":{"android":"levelo://app?vid=52b04612-cd38-411f-a68e-6bb9cb24a90a","ios":"levelo://app?vid=52b04612-cd38-411f-a68e-6bb9cb24a90a"},"vehicle_type_id":"4","last_reported":1761944945,"current_range_meters":19600,"station_id":"cpo36qri1sfpv3e86is0","pricing_plan_id":"cebpf4jnsgd1na2vs0mg"},{"bike_id":"a5cb859b-d1f6-4546-b44d-58f2af5faab8","system_id":"levelo_inurba_marseille","lat":43.30159,"lon":5.38088,"is_reserved":false,"is_disabled":true,"rental_uris":{"android":"levelo://app?vid=a5cb859b-d1f6-4546-b44d-58f2af5faab8","ios":"levelo://app?vid=a5cb859b-d1f6-4546-b44d-58f2af5faab8"},"vehicle_type_id":"4","last_reported":1761944945,"current_range_meters":19600,"station_id":"ce4bgjp2rcd13ifvqbh0","pricing_plan_id":"cebpf4jnsgd1na2vs0mg"},{"bike_id":"b4a09c0d-7b1e-4054-98f9-e5bf1a00e19e","system_id":"levelo_inurba_marseille","lat":43.305786,"lon":5.365222,"is_reserved":false,"is_disabled":false,"rental_uris":{"android":"levelo://app?vid=b4a09c0d-7b1e-4054-98f9-e5bf1a00e19e","ios":"levelo://app?vid=b4a09c0d-7b1e-4054-98f9-e5bf1a00e19e"},"vehicle_type_id":"4","last_reported":1761944945,"current_range_meters":19600,"station_id":"ce4bgs12rcd13ifvqcag","pricing_plan_id":"cebpf4jnsgd1na2vs0mg"},{"bike_id":"82307e5d-1d88-4836-b33e-a10a4da30997","system_id":"levelo_inurba_marseille","lat":43.265616,"lon":5.403266,"is_reserved":false,"is_disabled":false,"rental_uris":{"android":"levelo://app?vid=82307e5d-1d88-4836-b33e-a10a4da30997","ios":"levelo://app?vid=82307e5d-1d88-4836-b33e-a10a4da30997"},"vehicle_type_id":"4","last_reported":1761944945,"current_range_meters":19600,"station_id":"ce4bhmp2rcd13ifvqgng","pricing_plan_id":"cebpf4jnsgd1na2vs0mg"},{"bike_id":"e3ef3d09-361a-4912-8cea-2a659dc7108c","system_id":"levelo_inurba_marseille","lat":43.29265,"lon":5.38458,"is_reserved":false,"is_disabled":false,"rental_uris":{"android":"levelo://app?vid=e3ef3d09-361a-4912-8cea-2a659dc7108c","ios":"levelo://app?vid=e3ef3d09-361a-4912-8cea-2a659dc7108c"},"vehicle_type_id":"4","last_reported":1761944945,"current_range_meters":19600,"station_id":"ce4bh692rcd13ifvqea0","pricing_plan_id":"cebpf4jnsgd1na2vs0mg"},{"bike_id":"47cc11d7-2f04-4894-aa6c-cc833d1ae073","system_id":"levelo_inurba_marseille","lat":43.29248,"lon":5.38446,"is_reserved":false,"is_disabled":false,"rental_uris":{"android":"levelo://app?vid=47cc11d7-2f04-4894-aa6c-cc833d1ae073","ios":"levelo://app?vid=47cc11d7-2f04-4894-aa6c-cc833d1ae073"},"vehicle_type_id":"4","last_reported":1761944945,"current_range_meters":19600,"station_id":"ce4bh692rcd13ifvqea0","pricing_plan_id":"cebpf4jnsgd1na2vs0mg"},{"bike_id":"7c19b7e9-393b-4fa2-b057-4dd7dff08f6d","system_id":"levelo_inurba_marseille","lat":43.211956,"lon":5.350788,"is_reserved":false,"is_disabled":false,"rental_uris":{"android":"levelo://app?vid=7c19b7e9-393b-4fa2-b057-4dd7dff08f6d","ios":"levelo://app?vid=7c19b7e9-393b-4fa2-b057-4dd7dff08f6d"},"vehicle_type_id":"4","last_reported":1761944945,"current_range_meters":19600,"station_id":"st_cvj6sg6p6f1abm77japg","pricing_plan_id":"cebpf4jnsgd1na2vs0mg"},{"bike_id":"a73a24c3-2218-4652-a302-2ad81b7034ad","system_id":"levelo_inurba_marseille","lat":43.31817,"lon":5.38762,"is_reserved":false,"is_disabled":false,"rental_uris":{"android":"levelo://app?vid=a73a24c3-2218-4652-a302-2ad81b7034ad","ios":"levelo://app?vid=a73a24c3-2218-4652-a302-2ad81b7034ad"},"vehicle_type_id":"4","last_reported":1761944945,"current_range_meters":19600,"station_id":"","pricing_plan_id":"cebpf4jnsgd1na2vs0mg"},{"bike_id":"b3342104-be95-47da-b0c3-8a5c08709f31","system_id":"levelo_inurba_marseille","lat":43.28003,"lon":5.39999,"is_reserved":false,"is_disabled":false,"rental_uris":{"android":"levelo://app?vid=b3342104-be95-47da-b0c3-8a5c08709f31","ios":"levelo://app?vid=b3342104-be95-47da-b0c3-8a5c08709f31"},"vehicle_type_id":"4","last_reported":1761944945,"current_range_meters":19600,"station_id":"ce4bho92rcd13ifvqh4g","pricing_plan_id":"cebpf4jnsgd1na2vs0mg"},{"bike_id":"7f4b9f72-d533-4c50-b777-a37f593201d7","system_id":"levelo_inurba_marseille","lat":43.26781,"lon":5.39409,"is_reserved":false,"is_disabled":false,"rental_uris":{"android":"levelo://app?vid=7f4b9f72-d533-4c50-b777-a37f593201d7","ios":"levelo://app?vid=7f4b9f72-d533-4c50-b777-a37f593201d7"},"vehicle_type_id":"4","last_reported":1761944945,"current_range_meters":19600,"station_id":"ce4bhh12rcd13ifvqfg0","pricing_plan_id":"cebpf4jnsgd1na2vs0mg"},{"bike_id":"d8fb1702-924c-4042-9597-3b3d8915486d","system_id":"levelo_inurba_marseille","lat":43.305355,"lon":5.365446,"is_reserved":false,"is_disabled":false,"rental_uris":{"android":"levelo://app?vid=d8fb1702-924c-4042-9597-3b3d8915486d","ios":"levelo://app?vid=d8fb1702-924c-4042-9597-3b3d8915486d"},"vehicle_type_id":"4","last_reported":1761944945,"current_range_meters":19600,"station_id":"ce4bgs12rcd13ifvqcag","pricing_plan_id":"cebpf4jnsgd1na2vs0mg"},{"bike_id":"1510912d-5500-4029-8c52-09b2dbc632be","system_id":"levelo_inurba_marseille","lat":43.29444,"lon":5.40129,"is_reserved":false,"is_disabled":true,"rental_uris":{"android":"levelo://app?vid=1510912d-5500-4029-8c52-09b2dbc632be","ios":"levelo://app?vid=1510912d-5500-4029-8c52-09b2dbc632be"},"vehicle_type_id":"4","last_reported":1761944945,"current_range_meters":20000,"station_id":"","pricing_plan_id":"cebpf4jnsgd1na2vs0mg"},{"bike_id":"e0de6d7b-607c-464b-b377-7df5f2e43785","system_id":"levelo_inurba_marseille","lat":43.247,"lon":5.39291,"is_reserved":false,"is_disabled":false,"rental_uris":{"android":"levelo://app?vid=e0de6d7b-607c-464b-b377-7df5f2e43785","ios":"levelo://app?vid=e0de6d7b-607c-464b-b377-7df5f2e43785"},"vehicle_type_id":"4","last_reported":1761944945,"current_range_meters":20000,"station_id":"","pricing_plan_id":"cebpf4jnsgd1na2vs0mg"},{"bike_id":"7776d34e-6db1-4a95-b64a-dfa1faf6c280","system_id":"levelo_inurba_marseille","lat":43.30202,"lon":5.36981,"is_reserved":false,"is_disabled":false,"rental_uris":{"android":"levelo://app?vid=7776d34e-6db1-4a95-b64a-dfa1faf6c280","ios":"levelo://app?vid=7776d34e-6db1-4a95-b64a-dfa1faf6c280"},"vehicle_type_id":"4","last_reported":1761944945,"current_range_meters":20000,"station_id":"","pricing_plan_id":"cebpf4jnsgd1na2vs0mg"},{"bike_id":"2742994a-7270-4ff9-8fc6-08f4fbae31ca","system_id":"levelo_inurba_marseille","lat":43.29531,"lon":5.385419,"is_reserved":false,"is_disabled":false,"rental_uris":{"android":"levelo://app?vid=2742994a-7270-4ff9-8fc6-08f4fbae31ca","ios":"levelo://app?vid=2742994a-7270-4ff9-8fc6-08f4fbae31ca"},"vehicle_type_id":"4","last_reported":1761944945,"current_range_meters":20000,"station_id":"ce4bgih2rcd13ifvqba0","pricing_plan_id":"cebpf4jnsgd1na2vs0mg"},{"bike_id":"aba3082d-e598-4d79-bdce-683c30b6609a","system_id":"levelo_inurba_marseille","lat":43.29099,"lon":5.3813,"is_reserved":false,"is_disabled":false,"rental_uris":{"android":"levelo://app?vid=aba3082d-e598-4d79-bdce-683c30b6609a","ios":"levelo://app?vid=aba3082d-e598-4d79-bdce-683c30b6609a"},"vehicle_type_id":"4","last_reported":1761944945,"current_range_meters":20000,"station_id":"ce4bh512rcd13ifvqe2g","pricing_plan_id":"cebpf4jnsgd1na2vs0mg"},{"bike_id":"578a57cc-dd8f-4b86-9eea-c52481c8e90f","system_id":"levelo_inurba_marseille","lat":43.21193,"lon":5.35058,"is_reserved":false,"is_disabled":false,"rental_uris":{"android":"levelo://app?vid=578a57cc-dd8f-4b86-9eea-c52481c8e90f","ios":"levelo://app?vid=578a57cc-dd8f-4b86-9eea-c52481c8e90f"},"vehicle_type_id":"4","last_reported":1761944945,"current_range_meters":20000,"station_id":"st_cvj6sg6p6f1abm77japg","pricing_plan_id":"cebpf4jnsgd1na2vs0mg"},{"bike_id":"887e604a-4beb-47a5-90e2-a087398a0055","system_id":"levelo_inurba_marseille","lat":43.28665,"lon":5.36353,"is_reserved":false,"is_disabled":false,"rental_uris":{"android":"levelo://app?vid=887e604a-4beb-47a5-90e2-a087398a0055","ios":"levelo://app?vid=887e604a-4beb-47a5-90e2-a087398a0055"},"vehicle_type_id":"4","last_reported":1761944945,"current_range_meters":20000,"station_id":"ce4bhah2rcd13ifvqej0","pricing_plan_id":"cebpf4jnsgd1na2vs0mg"},{"bike_id":"ba541a52-7e4e-4241-9791-ae6f1fb03dcd","system_id":"levelo_inurba_marseille","lat":43.319988,"lon":5.415944,"is_reserved":false,"is_disabled":false,"rental_uris":{"android":"levelo://app?vid=ba541a52-7e4e-4241-9791-ae6f1fb03dcd","ios":"levelo://app?vid=ba541a52-7e4e-4241-9791-ae6f1fb03dcd"},"vehicle_type_id":"4","last_reported":1761944945,"current_range_meters":20000,"station_id":"","pricing_plan_id":"cebpf4jnsgd1na2vs0mg"},{"bike_id":"1e74bd02-1c9a-407e-8d57-12db7e0fdfbf","system_id":"levelo_inurba_marseille","lat":43.285999,"lon":5.351127,"is_reserved":false,"is_disabled":false,"rental_uris":{"android":"levelo://app?vid=1e74bd02-1c9a-407e-8d57-12db7e0fdfbf","ios":"levelo://app?vid=1e74bd02-1c9a-407e-8d57-12db7e0fdfbf"},"vehicle_type_id":"4","last_reported":1761944945,"current_range_meters":20000,"station_id":"","pricing_plan_id":"cebpf4jnsgd1na2vs0mg"},{"bike_id":"96023cdd-742a-436c-a64d-3060544072a2","system_id":"levelo_inurba_marseille","lat":43.29489,"lon":5.43306,"is_reserved":false,"is_disabled":false,"rental_uris":{"android":"levelo://app?vid=96023cdd-742a-436c-a64d-3060544072a2","ios":"levelo://app?vid=96023cdd-742a-436c-a64d-3060544072a2"},"vehicle_type_id":"4","last_reported":1761944945,"current_range_meters":20400,"station_id":"st_d3j5ugp08ojc73fj9d10","pricing_plan_id":"cebpf4jnsgd1na2vs0mg"},{"bike_id":"ea8030a7-7630-4c71-bb5c-1e271bfc61ac","system_id":"levelo_inurba_marseille","lat":43.29533,"lon":5.38527,"is_reserved":false,"is_disabled":false,"rental_uris":{"android":"levelo://app?vid=ea8030a7-7630-4c71-bb5c-1e271bfc61ac","ios":"levelo://app?vid=ea8030a7-7630-4c71-bb5c-1e271bfc61ac"},"vehicle_type_id":"4","last_reported":1761944945,"current_range_meters":20400,"station_id":"ce4bgih2rcd13ifvqba0","pricing_plan_id":"cebpf4jnsgd1na2vs0mg"},{"bike_id":"5f6c0a8d-e2ad-48fd-b50a-a8d4b3fee249","system_id":"levelo_inurba_marseille","lat":43.31323,"lon":5.39697,"is_reserved":false,"is_disabled":false,"rental_uris":{"android":"levelo://app?vid=5f6c0a8d-e2ad-48fd-b50a-a8d4b3fee249","ios":"levelo://app?vid=5f6c0a8d-e2ad-48fd-b50a-a8d4b3fee249"},"vehicle_type_id":"4","last_reported":1761944945,"current_range_meters":20400,"station_id":"ce4bgvp2rcd13ifvqcu0","pricing_plan_id":"cebpf4jnsgd1na2vs0mg"},{"bike_id":"7b0eaa70-7657-4098-8e47-f6fae1ad1d21","system_id":"levelo_inurba_marseille","lat":43.25856,"lon":5.39886,"is_reserved":false,"is_disabled":false,"rental_uris":{"android":"levelo://app?vid=7b0eaa70-7657-4098-8e47-f6fae1ad1d21","ios":"levelo://app?vid=7b0eaa70-7657-4098-8e47-f6fae1ad1d21"},"vehicle_type_id":"4","last_reported":1761944945,"current_range_meters":20400,"station_id":"ce4bhl92rcd13ifvqghg","pricing_plan_id":"cebpf4jnsgd1na2vs0mg"},{"bike_id":"6ed35159-3be2-4bda-bd2a-442bc863eea1","system_id":"levelo_inurba_marseille","lat":43.24181,"lon":5.39725,"is_reserved":false,"is_disabled":false,"rental_uris":{"android":"levelo://app?vid=6ed35159-3be2-4bda-bd2a-442bc863eea1","ios":"levelo://app?vid=6ed35159-3be2-4bda-bd2a-442bc863eea1"},"vehicle_type_id":"4","last_reported":1761944945,"current_range_meters":20400,"station_id":"ce4bhn12rcd13ifvqgpg","pricing_plan_id":"cebpf4jnsgd1na2vs0mg"},{"bike_id":"72baf2ef-7de6-4bc0-8e11-ee60541207dc","system_id":"levelo_inurba_marseille","lat":43.29264,"lon":5.38445,"is_reserved":false,"is_disabled":false,"rental_uris":{"android":"levelo://app?vid=72baf2ef-7de6-4bc0-8e11-ee60541207dc","ios":"levelo://app?vid=72baf2ef-7de6-4bc0-8e11-ee60541207dc"},"vehicle_type_id":"4","last_reported":1761944945,"current_range_meters":20400,"station_id":"ce4bh692rcd13ifvqea0","pricing_plan_id":"cebpf4jnsgd1na2vs0mg"},{"bike_id":"4819f989-cc61-428f-923f-d64b7de962a1","system_id":"levelo_inurba_marseille","lat":43.29284,"lon":5.40123,"is_reserved":false,"is_disabled":false,"rental_uris":{"android":"levelo://app?vid=4819f989-cc61-428f-923f-d64b7de962a1","ios":"levelo://app?vid=4819f989-cc61-428f-923f-d64b7de962a1"},"vehicle_type_id":"4","last_reported":1761944945,"current_range_meters":20400,"station_id":"ce4bh312rcd13ifvqdk0","pricing_plan_id":"cebpf4jnsgd1na2vs0mg"},{"bike_id":"79c3e17b-6b52-40f3-829f-6b443681b1d3","system_id":"levelo_inurba_marseille","lat":43.28111,"lon":5.39663,"is_reserved":false,"is_disabled":false,"rental_uris":{"android":"levelo://app?vid=79c3e17b-6b52-40f3-829f-6b443681b1d3","ios":"levelo://app?vid=79c3e17b-6b52-40f3-829f-6b443681b1d3"},"vehicle_type_id":"4","last_reported":1761944945,"current_range_meters":20800,"station_id":"ce4bho12rcd13ifvqh2g","pricing_plan_id":"cebpf4jnsgd1na2vs0mg"},{"bike_id":"1af74fe3-6ad6-4b8f-af9a-1a1810def892","system_id":"levelo_inurba_marseille","lat":43.281553,"lon":5.426471,"is_reserved":false,"is_disabled":false,"rental_uris":{"android":"levelo://app?vid=1af74fe3-6ad6-4b8f-af9a-1a1810def892","ios":"levelo://app?vid=1af74fe3-6ad6-4b8f-af9a-1a1810def892"},"vehicle_type_id":"4","last_reported":1761944945,"current_range_meters":20800,"station_id":"ce4bhnh2rcd13ifvqgug","pricing_plan_id":"cebpf4jnsgd1na2vs0mg"},