{"last_updated":1733964656,"ttl":60,"version":"2.2","data":{"bikes":[{"bike_id":"fb25f55d-a8d3-45ac-bd6b-859bedbb41ea","system_id":"levelo_inurba_marseille","lat":43.28462,"lon":5.35891,"is_reserved":false,"is_disabled":false,"rental_uris":{"android":"levelo://app?vid=fb25f55d-a8d3-45ac-bd6b-859bedbb41ea","ios":"levelo://app?vid=fb25f55d-a8d3-45ac-bd6b-859bedbb41ea"},"vehicle_type_id":"4","last_reported":1733964656,"current_range_meters":38400,"station_id":"ce4bhah2rcd13ifvqei0","pricing_plan_id":"cebpf4jnsgd1na2vs0mg"},{"bike_id":"ca55b2a3-c5bb-4e4a-8b94-df2e708f26d3","system_id":"levelo_inurba_marseille","lat":43.29851,"lon":5.36291,"is_reserved":false,"is_disabled":false,"rental_uris":{"android":"levelo://app?vid=ca55b2a3-c5bb-4e4a-8b94-df2e708f26d3","ios":"levelo://app?vid=ca55b2a3-c5bb-4e4a-8b94-df2e708f26d3"},"vehicle_type_id":"4","last_reported":1733964656,"current_range_meters":38000,"station_id":"ce4bgpp2rcd13ifvqc3g","pricing_plan_id":"cebpf4jnsgd1na2vs0mg"},{"bike_id":"5a1d5db3-014a-4e87-97d8-818e2656f060","system_id":"levelo_inurba_marseille","lat":43.25582,"lon":5.38236,"is_reserved":false,"is_disabled":false,"rental_uris":{"android":"levelo://app?vid=5a1d5db3-014a-4e87-97d8-818e2656f060","ios":"levelo://app?vid=5a1d5db3-014a-4e87-97d8-818e2656f060"},"vehicle_type_id":"4","last_reported":1733964656,"current_range_meters":38800,"station_id":"ce4bhih2rcd13ifvqfs0","pricing_plan_id":"cebpf4jnsgd1na2vs0mg"},{"bike_id":"60e9ed68-c2d5-4fcc-b1fe-df98992a2ea5","system_id":"levelo_inurba_marseille","lat":43.30759,"lon":5.3683,"is_reserved":false,"is_disabled":true,"rental_uris":{"android":"levelo://app?vid=60e9ed68-c2d5-4fcc-b1fe-df98992a2ea5","ios":"levelo://app?vid=60e9ed68-c2d5-4fcc-b1fe-df98992a2ea5"},"vehicle_type_id":"4","last_reported":1733964656,"current_range_meters":0,"station_id":"","pricing_plan_id":"cebpf4jnsgd1na2vs0mg"},{"bike_id":"9c4daf97-e3c6-4a13-8b5d-75462a0f0b04","system_id":"levelo_inurba_marseille","lat":43.30181,"lon":5.36628,"is_reserved":false,"is_disabled":false,"rental_uris":{"android":"levelo://app?vid=9c4daf97-e3c6-4a13-8b5d-75462a0f0b04","ios":"levelo://app?vid=9c4daf97-e3c6-4a13-8b5d-75462a0f0b04"},"vehicle_type_id":"4","last_reported":1733964656,"current_range_meters":38000,"station_id":"ce4bgrh2rcd13ifvqc8g","pricing_plan_id":"cebpf4jnsgd1na2vs0mg"},{"bike_id":"b266efff-3a14-4d1a-a25a-c68ad062a1f4","system_id":"levelo_inurba_marseille","lat":43.24163,"lon":5.36397,"is_reserved":false,"is_disabled":false,"rental_uris":{"android":"levelo://app?vid=b266efff-3a14-4d1a-a25a-c68ad062a1f4","ios":"levelo://app?vid=b266efff-3a14-4d1a-a25a-c68ad062a1f4"},"vehicle_type_id":"4","last_reported":1733964656,"current_range_meters":7200,"station_id":"cpo36qri1sfpv3e86is0","pricing_plan_id":"cebpf4jnsgd1na2vs0mg"},{"bike_id":"bb9d7253-10c6-4121-a593-4387d3e5acad","system_id":"levelo_inurba_marseille","lat":43.3132,"lon":5.39724,"is_reserved":false,"is_disabled":false,"rental_uris":{"android":"levelo://app?vid=bb9d7253-10c6-4121-a593-4387d3e5acad","ios":"levelo://app?vid=bb9d7253-10c6-4121-a593-4387d3e5acad"},"vehicle_type_id":"4","last_reported":1733964656,"current_range_meters":38800,"station_id":"ce4bgvp2rcd13ifvqcu0","pricing_plan_id":"cebpf4jnsgd1na2vs0mg"},{"bike_id":"61de78b7-9c9e-4513-adff-0b20401ca1a6","system_id":"levelo_inurba_marseille","lat":43.30926,"lon":5.40146,"is_reserved":false,"is_disabled":false,"rental_uris":{"android":"levelo://app?vid=61de78b7-9c9e-4513-adff-0b20401ca1a6","ios":"levelo://app?vid=61de78b7-9c9e-4513-adff-0b20401ca1a6"},"vehicle_type_id":"4","last_reported":1733964656,"current_range_meters":30800,"station_id":"ce4bgvp2rcd13ifvqct0","pricing_plan_id":"cebpf4jnsgd1na2vs0mg"},{"bike_id":"8f431f81-4fbd-424e-9942-25f20eab3824","system_id":"levelo_inurba_marseille","lat":43.24672,"lon":5.38177,"is_reserved":false,"is_disabled":false,"rental_uris":{"android":"levelo://app?vid=8f431f81-4fbd-424e-9942-25f20eab3824","ios":"levelo://app?vid=8f431f81-4fbd-424e-9942-25f20eab3824"},"vehicle_type_id":"4","last_reported":1733964656,"current_range_meters":16000,"station_id":"ce4bhih2rcd13ifvqfr0","pricing_plan_id":"cebpf4jnsgd1na2vs0mg"},{"bike_id":"5a23a20e-a944-4a34-b00e-6e99f68129d2","system_id":"levelo_inurba_marseille","lat":43.24807,"lon":5.37459,"is_reserved":false,"is_disabled":false,"rental_uris":{"android":"levelo://app?vid=5a23a20e-a944-4a34-b00e-6e99f68129d2","ios":"levelo://app?vid=5a23a20e-a944-4a34-b00e-6e99f68129d2"},"vehicle_type_id":"4","last_reported":1733964656,"current_range_meters":34000,"station_id":"ce4bhgh2rcd13ifvqfb0","pricing_plan_id":"cebpf4jnsgd1na2vs0mg"},{"bike_id":"8896d466-9a4c-499f-b34b-21fc00fbac43","system_id":"levelo_inurba_marseille","lat":43.24408,"lon":5.37035,"is_reserved":false,"is_disabled":false,"rental_uris":{"android":"levelo://app?vid=8896d466-9a4c-499f-b34b-21fc00fbac43","ios":"levelo://app?vid=8896d466-9a4c-499f-b34b-21fc00fbac43"},"vehicle_type_id":"4","last_reported":1733964656,"current_range_meters":25200,"station_id":"ce4bhhh2rcd13ifvqfk0","pricing_plan_id":"cebpf4jnsgd1na2vs0mg"},{"bike_id":"9a419345-c074-4bed-a055-62578d579e76","system_id":"levelo_inurba_marseille","lat":43.28847,"lon":5.35864,"is_reserved":false,"is_disabled":false,"rental_uris":{"android":"levelo://app?vid=9a419345-c074-4bed-a055-62578d579e76","ios":"levelo://app?vid=9a419345-c074-4bed-a055-62578d579e76"},"vehicle_type_id":"4","last_reported":1733964656,"current_range_meters":18000,"station_id":"ce4bhb12rcd13ifvqem0","pricing_plan_id":"cebpf4jnsgd1na2vs0mg"},{"bike_id":"3f5757ec-261c-4569-827f-4e10e7682bac","system_id":"levelo_inurba_marseille","lat":43.30322,"lon":5.40433,"is_reserved":false,"is_disabled":false,"rental_uris":{"android":"levelo://app?vid=3f5757ec-261c-4569-827f-4e10e7682bac","ios":"levelo://app?vid=3f5757ec-261c-4569-827f-4e10e7682bac"},"vehicle_type_id":"4","last_reported":1733964656,"current_range_meters":38800,"station_id":"ce4bh012rcd13ifvqd10","pricing_plan_id":"cebpf4jnsgd1na2vs0mg"},{"bike_id":"980f96eb-32c9-4906-98f6-c44dbf4c84a1","system_id":"levelo_inurba_marseille","lat":43.27455,"lon":5.40073,"is_reserved":false,"is_disabled":true,"rental_uris":{"android":"levelo://app?vid=980f96eb-32c9-4906-98f6-c44dbf4c84a1","ios":"levelo://app?vid=980f96eb-32c9-4906-98f6-c44dbf4c84a1"},"vehicle_type_id":"4","last_reported":1733964656,"current_range_meters":0,"station_id":"","pricing_plan_id":"cebpf4jnsgd1na2vs0mg"},{"bike_id":"c27b2ac7-b882-4fe3-8a97-aadbe9a52196","system_id":"levelo_inurba_marseille","lat":43.30426,"lon":5.3889,"is_reserved":false,"is_disabled":false,"rental_uris":{"android":"levelo://app?vid=c27b2ac7-b882-4fe3-8a97-aadbe9a52196","ios":"levelo://app?vid=c27b2ac7-b882-4fe3-8a97-aadbe9a52196"},"vehicle_type_id":"4","last_reported":1733964656,"current_range_meters":24800,"station_id":"ce4bgk12rcd13ifvqbi0","pricing_plan_id":"cebpf4jnsgd1na2vs0mg"},{"bike_id":"2ba08c37-8c9a-4d56-8797-798e12f02f2f","system_id":"levelo_inurba_marseille","lat":43.28109,"lon":5.37826,"is_reserved":false,"is_disabled":false,"rental_uris":{"android":"levelo://app?vid=2ba08c37-8c9a-4d56-8797-798e12f02f2f","ios":"levelo://app?vid=2ba08c37-8c9a-4d56-8797-798e12f02f2f"},"vehicle_type_id":"4","last_reported":1733964656,"current_range_meters":30000,"station_id":"ce4bha12rcd13ifvqee0","pricing_plan_id":"cebpf4jnsgd1na2vs0mg"},{"bike_id":"d5cc55ae-ad80-4db1-a1cd-fc4e6214f527","system_id":"levelo_inurba_marseille","lat":43.28266,"lon":5.35067,"is_reserved":false,"is_disabled":false,"rental_uris":{"android":"levelo://app?vid=d5cc55ae-ad80-4db1-a1cd-fc4e6214f527","ios":"levelo://app?vid=d5cc55ae-ad80-4db1-a1cd-fc4e6214f527"},"vehicle_type_id":"4","last_reported":1733964656,"current_range_meters":35200,"station_id":"ce4bhbp2rcd13ifvqerg","pricing_plan_id":"cebpf4jnsgd1na2vs0mg"},{"bike_id":"aea59221-944d-4391-8bbb-9700d74ca504","system_id":"levelo_inurba_marseille","lat":43.30675,"lon":5.40081,"is_reserved":false,"is_disabled":false,"rental_uris":{"android":"levelo://app?vid=aea59221-944d-4391-8bbb-9700d74ca504","ios":"levelo://app?vid=aea59221-944d-4391-8bbb-9700d74ca504"},"vehicle_type_id":"4","last_reported":1733964656,"current_range_meters":38800,"station_id":"ce4bh112rcd13ifvqda0","pricing_plan_id":"cebpf4jnsgd1na2vs0mg"},{"bike_id":"97148cec-36b7-44a7-809a-ca7907bb5002","system_id":"levelo_inurba_marseille","lat":43.28104,"lon":5.3784,"is_reserved":false,"is_disabled":false,"rental_uris":{"android":"levelo://app?vid=97148cec-36b7-44a7-809a-ca7907bb5002","ios":"levelo://app?vid=97148cec-36b7-44a7-809a-ca7907bb5002"},"vehicle_type_id":"4","last_reported":1733964656,"current_range_meters":36800,"station_id":"ce4bha12rcd13ifvqee0","pricing_plan_id":"cebpf4jnsgd1na2vs0mg"},{"bike_id":"e77c41ec-01fc-4fd5-a63a-7ada717e028a","system_id":"levelo_inurba_marseille","lat":43.26058,"lon":5.39397,"is_reserved":false,"is_disabled":false,"rental_uris":{"android":"levelo://app?vid=e77c41ec-01fc-4fd5-a63a-7ada717e028a","ios":"levelo://app?vid=e77c41ec-01fc-4fd5-a63a-7ada717e028a"},"vehicle_type_id":"4","last_reported":1733964656,"current_range_meters":38800,"station_id":"ce4bhh92rcd13ifvqfj0","pricing_plan_id":"cebpf4jnsgd1na2vs0mg"},{"bike_id":"0db5aa65-4491-4fa7-b3cd-837cf2eebdd8","system_id":"levelo_inurba_marseille","lat":43.24658,"lon":5.38899,"is_reserved":false,"is_disabled":false,"rental_uris":{"android":"levelo://app?vid=0db5aa65-4491-4fa7-b3cd-837cf2eebdd8","ios":"levelo://app?vid=0db5aa65-4491-4fa7-b3cd-837cf2eebdd8"},"vehicle_type_id":"4","last_reported":1733964656,"current_range_meters":17600,"station_id":"ce4bhg12rcd13ifvqf60","pricing_plan_id":"cebpf4jnsgd1na2vs0mg"},{"bike_id":"a0b54cec-d2a7-49ff-8aa2-eb4afb08e4da","system_id":"levelo_inurba_marseille","lat":43.32656,"lon":5.40995,"is_reserved":false,"is_disabled":false,"rental_uris":{"android":"levelo://app?vid=a0b54cec-d2a7-49ff-8aa2-eb4afb08e4da","ios":"levelo://app?vid=a0b54cec-d2a7-49ff-8aa2-eb4afb08e4da"},"vehicle_type_id":"4","last_reported":1733964656,"current_range_meters":10000,"station_id":"ce4bhpp2rcd13ifvqhgg","pricing_plan_id":"cebpf4jnsgd1na2vs0mg"},{"bike_id":"e07a9d9b-b9bc-475a-ab32-b71a16c6f1be","system_id":"levelo_inurba_marseille","lat":43.27993,"lon":5.4166,"is_reserved":false,"is_disabled":false,"rental_uris":{"android":"levelo://app?vid=e07a9d9b-b9bc-475a-ab32-b71a16c6f1be","ios":"levelo://app?vid=e07a9d9b-b9bc-475a-ab32-b71a16c6f1be"},"vehicle_type_id":"4","last_reported":1733964656,"current_range_meters":38000,"station_id":"ce4bho12rcd13ifvqh1g","pricing_plan_id":"cebpf4jnsgd1na2vs0mg"},{"bike_id":"eb005499-3c0e-4f41-9831-c070b319130e","system_id":"levelo_inurba_marseille","lat":43.2861,"lon":5.3707,"is_reserved":false,"is_disabled":false,"rental_uris":{"android":"levelo://app?vid=eb005499-3c0e-4f41-9831-c070b319130e","ios":"levelo://app?vid=eb005499-3c0e-4f41-9831-c070b319130e"},"vehicle_type_id":"4","last_reported":1733964656,"current_range_meters":37600,"station_id":"ce4bht12rcd13ifvqi60","pricing_plan_id":"cebpf4jnsgd1na2vs0mg"},{"bike_id":"c30e2927-d1ce-4add-bd99-3834be65c25a","system_id":"levelo_inurba_marseille","lat":43.28843,"lon":5.35869,"is_reserved":false,"is_disabled":false,"rental_uris":{"android":"levelo://app?vid=c30e2927-d1ce-4add-bd99-3834be65c25a","ios":"levelo://app?vid=c30e2927-d1ce-4add-bd99-3834be65c25a"},"vehicle_type_id":"4","last_reported":1733964656,"current_range_meters":37600,"station_id":"ce4bhb12rcd13ifvqem0","pricing_plan_id":"cebpf4jnsgd1na2vs0mg"},{"bike_id":"5870df74-945f-4206-9aad-41ee5ab062fa","system_id":"levelo_inurba_marseille","lat":43.28726,"lon":5.3608,"is_reserved":false,"is_disabled":false,"rental_uris":{"android":"levelo://app?vid=5870df74-945f-4206-9aad-41ee5ab062fa","ios":"levelo://app?vid=5870df74-945f-4206-9aad-41ee5ab062fa"},"vehicle_type_id":"4","last_reported":1733964656,"current_range_meters":38800,"station_id":"cki0cbj6b192h4jlfktg","pricing_plan_id":"cebpf4jnsgd1na2vs0mg"},{"bike_id":"7d6c161c-e7d9-4a88-8e06-b01b0fc5c080","system_id":"levelo_inurba_marseille","lat":43.27943,"lon":5.41037,"is_reserved":false,"is_disabled":false,"rental_uris":{"android":"levelo://app?vid=7d6c161c-e7d9-4a88-8e06-b01b0fc5c080","ios":"levelo://app?vid=7d6c161c-e7d9-4a88-8e06-b01b0fc5c080"},"vehicle_type_id":"4","last_reported":1733964656,"current_range_meters":32000,"station_id":"ce4bhnp2rcd13ifvqh0g","pricing_plan_id":"cebpf4jnsgd1na2vs0mg"},{"bike_id":"b36cdf80-1f07-4f1d-94de-2669d2dcedec","system_id":"levelo_inurba_marseille","lat":43.27892,"lon":5.37997,"is_reserved":false,"is_disabled":false,"rental_uris":{"android":"levelo://app?vid=b36cdf80-1f07-4f1d-94de-2669d2dcedec","ios":"levelo://app?vid=b36cdf80-1f07-4f1d-94de-2669d2dcedec"},"vehicle_type_id":"4","last_reported":1733964656,"current_range_meters":36000,"station_id":"ce4bhf92rcd13ifvqf50","pricing_plan_id":"cebpf4jnsgd1na2vs0mg"},{"bike_id":"8c14bb66-f77e-43c2-acd8-d357b8ffc508","system_id":"levelo_inurba_marseille","lat":43.28844,"lon":5.39328,"is_reserved":false,"is_disabled":false,"rental_uris":{"android":"levelo://app?vid=8c14bb66-f77e-43c2-acd8-d357b8ffc508","ios":"levelo://app?vid=8c14bb66-f77e-43c2-acd8-d357b8ffc508"},"vehicle_type_id":"4","last_reported":1733964656,"current_range_meters":37600,"station_id":"ce4bh2p2rcd13ifvqdi0","pricing_plan_id":"cebpf4jnsgd1na2vs0mg"},{"bike_id":"3b403c2a-6211-4996-930f-87dd353ec5f4","system_id":"levelo_inurba_marseille","lat":43.30417,"lon":5.41283,"is_reserved":false,"is_disabled":false,"rental_uris":{"android":"levelo://app?vid=3b403c2a-6211-4996-930f-87dd353ec5f4","ios":"levelo://app?vid=3b403c2a-6211-4996-930f-87dd353ec5f4"},"vehicle_type_id":"4","last_reported":1733964656,"current_range_meters":30400,"station_id":"ce4bhop2rcd13ifvqh8g","pricing_plan_id":"cebpf4jnsgd1na2vs0mg"},{"bike_id":"95c915fb-ef8e-49eb-8873-2f04c1046c28","system_id":"levelo_inurba_marseille","lat":43.31348,"lon":5.38502,"is_reserved":false,"is_disabled":false,"rental_uris":{"android":"levelo://app?vid=95c915fb-ef8e-49eb-8873-2f04c1046c28","ios":"levelo://app?vid=95c915fb-ef8e-49eb-8873-2f04c1046c28"},"vehicle_type_id":"4","last_reported":1733964656,"current_range_meters":8400,"station_id":"ce4bgt92rcd13ifvqcf0","pricing_plan_id":"cebpf4jnsgd1na2vs0mg"},{"bike_id":"a7afacb6-d403-424e-9514-2512ada0c43a","system_id":"levelo_inurba_marseille","lat":43.31703,"lon":5.40436,"is_reserved":false,"is_disabled":false,"rental_uris":{"android":"levelo://app?vid=a7afacb6-d403-424e-9514-2512ada0c43a","ios":"levelo://app?vid=a7afacb6-d403-424e-9514-2512ada0c43a"},"vehicle_type_id":"4","last_reported":1733964656,"current_range_meters":38400,"station_id":"ce4bh012rcd13ifvqd00","pricing_plan_id":"cebpf4jnsgd1na2vs0mg"},{"bike_id":"c67601b6-bcad-4149-a980-a07b049bc54c","system_id":"levelo_inurba_marseille","lat":43.25881,"lon":5.39845,"is_reserved":false,"is_disabled":false,"rental_uris":{"android":"levelo://app?vid=c67601b6-bcad-4149-a980-a07b049bc54c","ios":"levelo://app?vid=c67601b6-bcad-4149-a980-a07b049bc54c"},"vehicle_type_id":"4","last_reported":1733964656,"current_range_meters":8800,"station_id":"ce4bhl92rcd13ifvqghg","pricing_plan_id":"cebpf4jnsgd1na2vs0mg"},{"bike_id":"36272bbc-2413-4d65-9f8d-f8eaf63041c0","system_id":"levelo_inurba_marseille","lat":43.27059,"lon":5.4028,"is_reserved":false,"is_disabled":true,"rental_uris":{"android":"levelo://app?vid=36272bbc-2413-4d65-9f8d-f8eaf63041c0","ios":"levelo://app?vid=36272bbc-2413-4d65-9f8d-f8eaf63041c0"},"vehicle_type_id":"4","last_reported":1733964656,"current_range_meters":25600,"station_id":"ce4bhk92rcd13ifvqgc0","pricing_plan_id":"cebpf4jnsgd1na2vs0mg"},{"bike_id":"fe4cab58-ba30-4c78-b62f-d4434eea7628","system_id":"levelo_inurba_marseille","lat":43.29437,"lon":5.39777,"is_reserved":false,"is_disabled":true,"rental_uris":{"android":"levelo://app?vid=fe4cab58-ba30-4c78-b62f-d4434eea7628","ios":"levelo://app?vid=fe4cab58-ba30-4c78-b62f-d4434eea7628"},"vehicle_type_id":"4","last_reported":1733964656,"current_range_meters":33200,"station_id":"ce4bh3h2rcd13ifvqdo0","pricing_plan_id":"cebpf4jnsgd1na2vs0mg"},{"bike_id":"ecc110ce-c5e8-44d9-971f-5baa0bdacd3e","system_id":"levelo_inurba_marseille","lat":43.24813,"lon":5.3746,"is_reserved":false,"is_disabled":false,"rental_uris":{"android":"levelo://app?vid=ecc110ce-c5e8-44d9-971f-5baa0bdacd3e","ios":"levelo://app?vid=ecc110ce-c5e8-44d9-971f-5baa0bdacd3e"},"vehicle_type_id":"4","last_reported":1733964656,"current_range_meters":19600,"station_id":"ce4bhgh2rcd13ifvqfb0","pricing_plan_id":"cebpf4jnsgd1na2vs0mg"},{"bike_id":"6eb5c1a9-b331-4dc5-aa95-be408c9bb8fc","system_id":"levelo_inurba_marseille","lat":43.27899,"lon":5.38061,"is_reserved":false,"is_disabled":false,"rental_uris":{"android":"levelo://app?vid=6eb5c1a9-b331-4dc5-aa95-be408c9bb8fc","ios":"levelo://app?vid=6eb5c1a9-b331-4dc5-aa95-be408c9bb8fc"},"vehicle_type_id":"4","last_reported":1733964656,"current_range_meters":37600,"station_id":"ce4bhf92rcd13ifvqf50","pricing_plan_id":"cebpf4jnsgd1na2vs0mg"},{"bike_id":"ca25d926-6e78-492c-bdb6-ff918dcd7fea","system_id":"levelo_inurba_marseille","lat":43.25024,"lon":5.4048,"is_reserved":false,"is_disabled":false,"rental_uris":{"android":"levelo://app?vid=ca25d926-6e78-492c-bdb6-ff918dcd7fea","ios":"levelo://app?vid=ca25d926-6e78-492c-bdb6-ff918dcd7fea"},"vehicle_type_id":"4","last_reported":1733964656,"current_range_meters":38800,"station_id":"ce4bhlh2rcd13ifvqgig","pricing_plan_id":"cebpf4jnsgd1na2vs0mg"},{"bike_id":"85f112c9-e3fd-4498-a97f-7e2428fe9ece","system_id":"levelo_inurba_marseille","lat":43.33612,"lon":5.41031,"is_reserved":false,"is_disabled":false,"rental_uris":{"android":"levelo://app?vid=85f112c9-e3fd-4498-a97f-7e2428fe9ece","ios":"levelo://app?vid=85f112c9-e3fd-4498-a97f-7e2428fe9ece"},"vehicle_type_id":"4","last_reported":1733964656,"current_range_meters":8000,"station_id":"ce4bhqh2rcd13ifvqhmg","pricing_plan_id":"cebpf4jnsgd1na2vs0mg"},{"bike_id":"8979b88b-e0c9-465c-b920-54c929607786","system_id":"levelo_inurba_marseille","lat":43.30403,"lon":5.36788,"is_reserved":false,"is_disabled":false,"rental_uris":{"android":"levelo://app?vid=8979b88b-e0c9-465c-b920-54c929607786","ios":"levelo://app?vid=8979b88b-e0c9-465c-b920-54c929607786"},"vehicle_type_id":"4","last_reported":1733964656,"current_range_meters":17200,"station_id":"","pricing_plan_id":"cebpf4jnsgd1na2vs0mg"},{"bike_id":"3a56946e-b571-4f0a-89c3-228266a44430","system_id":"levelo_inurba_marseille","lat":43.26597,"lon":5.38971,"is_reserved":false,"is_disabled":false,"rental_uris":{"android":"levelo://app?vid=3a56946e-b571-4f0a-89c3-228266a44430","ios":"levelo://app?vid=3a56946e-b571-4f0a-89c3-228266a44430"},"vehicle_type_id":"4","last_reported":1733964656,"current_range_meters":5600,"station_id":"","pricing_plan_id":"cebpf4jnsgd1na2vs0mg"},{"bike_id":"5a3e6a74-cac8-4592-b68b-bffd14a77a38","system_id":"levelo_inurba_marseille","lat":43.28693,"lon":5.39976,"is_reserved":false,"is_disabled":false,"rental_uris":{"android":"levelo://app?vid=5a3e6a74-cac8-4592-b68b-bffd14a77a38","ios":"levelo://app?vid=5a3e6a74-cac8-4592-b68b-bffd14a77a38"},"vehicle_type_id":"4","last_reported":1733964656,"current_range_meters":38800,"station_id":"ce4bho92rcd13ifvqh3g","pricing_plan_id":"cebpf4jnsgd1na2vs0mg"},{"bike_id":"1a57a953-7738-448c-9bad-8fe31e4d9112","system_id":"levelo_inurba_marseille","lat":43.31306,"lon":5.40228,"is_reserved":false,"is_disabled":false,"rental_uris":{"android":"levelo://app?vid=1a57a953-7738-448c-9bad-8fe31e4d9112","ios":"levelo://app?vid=1a57a953-7738-448c-9bad-8fe31e4d9112"},"vehicle_type_id":"4","last_reported":1733964656,"current_range_meters":8400,"station_id":"","pricing_plan_id":"cebpf4jnsgd1na2vs0mg"},{"bike_id":"83d86471-0b95-4477-9349-a015d55c6b4b","system_id":"levelo_inurba_marseille","lat":43.320028,"lon":5.381461,"is_reserved":false,"is_disabled":true,"rental_uris":{"android":"levelo://app?vid=83d86471-0b95-4477-9349-a015d55c6b4b","ios":"levelo://app?vid=83d86471-0b95-4477-9349-a015d55c6b4b"},"vehicle_type_id":"4","last_reported":1733964656,"current_range_meters":0,"station_id":"ce4bhr12rcd13ifvqhpg","pricing_plan_id":"cebpf4jnsgd1na2vs0mg"},{"bike_id":"538c5820-1da6-405b-97ad-542e7b6c44b3","system_id":"levelo_inurba_marseille","lat":43.23191,"lon":5.39989,"is_reserved":false,"is_disabled":false,"rental_uris":{"android":"levelo://app?vid=538c5820-1da6-405b-97ad-542e7b6c44b3","ios":"levelo://app?vid=538c5820-1da6-405b-97ad-542e7b6c44b3"},"vehicle_type_id":"4","last_reported":1733964656,"current_range_meters":21600,"station_id":"ce4bhn12rcd13ifvqgqg","pricing_plan_id":"cebpf4jnsgd1na2vs0mg"},{"bike_id":"912b9652-d6db-47d7-b69a-ee743e156f59","system_id":"levelo_inurba_marseille","lat":43.28472,"lon":5.35875,"is_reserved":false,"is_disabled":false,"rental_uris":{"android":"levelo://app?vid=912b9652-d6db-47d7-b69a-ee743e156f59","ios":"levelo://app?vid=912b9652-d6db-47d7-b69a-ee743e156f59"},"vehicle_type_id":"4","last_reported":1733964656,"current_range_meters":38800,"station_id":"ce4bhah2rcd13ifvqei0","pricing_plan_id":"cebpf4jnsgd1na2vs0mg"},{"bike_id":"6f6dd2d5-a267-4d24-8cd3-283a35f3d29d","system_id":"levelo_inurba_marseille","lat":43.28843,"lon":5.39337,"is_reserved":false,"is_disabled":false,"rental_uris":{"android":"levelo://app?vid=6f6dd2d5-a267-4d24-8cd3-283a35f3d29d","ios":"levelo://app?vid=6f6dd2d5-a267-4d24-8cd3-283a35f3d29d"},"vehicle_type_id":"4","last_reported":1733964656,"current_range_meters":38000,"station_id":"ce4bh2p2rcd13ifvqdi0","pricing_plan_id":"cebpf4jnsgd1na2vs0mg"},{"bike_id":"dc3e0ee7-ac7d-4751-9445-b495e8f2198d","system_id":"levelo_inurba_marseille","lat":43.30928,"lon":5.40156,"is_reserved":false,"is_disabled":false,"rental_uris":{"android":"levelo://app?vid=dc3e0ee7-ac7d-4751-9445-b495e8f2198d","ios":"levelo://app?vid=dc3e0ee7-ac7d-4751-9445-b495e8f2198d"},"vehicle_type_id":"4","last_reported":1733964656,"current_range_meters":34000,"station_id":"ce4bgvp2rcd13ifvqct0","pricing_plan_id":"cebpf4jnsgd1na2vs0mg"},{"bike_id":"cf504aa2-7a5b-44a8-9e13-efcb53c1bdd9","system_id":"levelo_inurba_marseille","lat":43.28684,"lon":5.37403,"is_reserved":false,"is_disabled":false,"rental_uris":{"android":"levelo://app?vid=cf504aa2-7a5b-44a8-9e13-efcb53c1bdd9","ios":"levelo://app?vid=cf504aa2-7a5b-44a8-9e13-efcb53c1bdd9"},"vehicle_type_id":"4","last_reported":1733964656,"current_range_meters":38800,"station_id":"ce4bh3p2rcd13ifvqdq0","pricing_plan_id":"cebpf4jnsgd1na2vs0mg"},{"bike_id":"f07204be-daf7-4ac6-b57f-67c482e0237e","system_id":"levelo_inurba_marseille","lat":43.29918,"lon":5.37455,"is_reserved":false,"is_disabled":false,"rental_uris":{"android":"levelo://app?vid=f07204be-daf7-4ac6-b57f-67c482e0237e","ios":"levelo://app?vid=f07204be-daf7-4ac6-b57f-67c482e0237e"},"vehicle_type_id":"4","last_reported":1733964656,"current_range_meters":32000,"station_id":"ce4bgjh2rcd13ifvqbg0","pricing_plan_id":"cebpf4jnsgd1na2vs0mg"},{"bike_id":"90324b92-2d52-4f43-bd59-91b2038c3497","system_id":"levelo_inurba_marseille","lat":43.28937,"lon":5.36627,"is_reserved":false,"is_disabled":true,"rental_uris":{"android":"levelo://app?vid=90324b92-2d52-4f43-bd59-91b2038c3497","ios":"levelo://app?vid=90324b92-2d52-4f43-bd59-91b2038c3497"},"vehicle_type_id":"4","last_reported":1733964656,"current_range_meters":28000,"station_id":"ce4bhap2rcd13ifvqek0","pricing_plan_id":"cebpf4jnsgd1na2vs0mg"},{"bike_id":"a78bc863-104c-43b9-83e3-eff74ea8f6ce","system_id":"levelo_inurba_marseille","lat":43.304384,"lon":5.388821,"is_reserved":false,"is_disabled":false,"rental_uris":{"android":"levelo://app?vid=a78bc863-104c-43b9-83e3-eff74ea8f6ce","ios":"levelo://app?vid=a78bc863-104c-43b9-83e3-eff74ea8f6ce"},"vehicle_type_id":"4","last_reported":1733964656,"current_range_meters":38800,"station_id":"ce4bgk12rcd13ifvqbi0","pricing_plan_id":"cebpf4jnsgd1na2vs0mg"},{"bike_id":"1686641e-fa25-460d-b830-148d1253ba92","system_id":"levelo_inurba_marseille","lat":43.30877,"lon":5.39635,"is_reserved":false,"is_disabled":false,"rental_uris":{"android":"levelo://app?vid=1686641e-fa25-460d-b830-148d1253ba92","ios":"levelo://app?vid=1686641e-fa25-460d-b830-148d1253ba92"},"vehicle_type_id":"4","last_reported":1733964656,"current_range_meters":38800,"station_id":"ce4bh012rcd13ifvqcv0","pricing_plan_id":"cebpf4jnsgd1na2vs0mg"},{"bike_id":"11933e04-d81a-4d25-aa83-cc295172b3a1","system_id":"levelo_inurba_marseille","lat":43.25413,"lon":5.38255,"is_reserved":false,"is_disabled":true,"rental_uris":{"android":"levelo://app?vid=11933e04-d81a-4d25-aa83-cc295172b3a1","ios":"levelo://app?vid=11933e04-d81a-4d25-aa83-cc295172b3a1"},"vehicle_type_id":"4","last_reported":1733964656,"current_range_meters":33200,"station_id":"","pricing_plan_id":"cebpf4jnsgd1na2vs0mg"},{"bike_id":"c54c8965-7c23-4ef3-9e71-75e946489602","system_id":"levelo_inurba_marseille","lat":43.2781,"lon":5.40711,"is_reserved":false,"is_disabled":false,"rental_uris":{"android":"levelo://app?vid=c54c8965-7c23-4ef3-9e71-75e946489602","ios":"levelo://app?vid=c54c8965-7c23-4ef3-9e71-75e946489602"},"vehicle_type_id":"4","last_reported":1733964656,"current_range_meters":38400,"station_id":"ce4bhnh2rcd13ifvqgtg","pricing_plan_id":"cebpf4jnsgd1na2vs0mg"},{"bike_id":"6faa6ee7-a588-4286-8e0c-a7deeaae5bab","system_id":"levelo_inurba_marseille","lat":43.27378,"lon":5.36267,"is_reserved":false,"is_disabled":false,"rental_uris":{"android":"levelo://app?vid=6faa6ee7-a588-4286-8e0c-a7deeaae5bab","ios":"levelo://app?vid=6faa6ee7-a588-4286-8e0c-a7deeaae5bab"},"vehicle_type_id":"4","last_reported":1733964656,"current_range_meters":38800,"station_id":"ce4bhbh2rcd13ifvqeo0","pricing_plan_id":"cebpf4jnsgd1na2vs0mg"},{"bike_id":"5ff9bfad-28dd-4797-bd2b-38c152eae848","system_id":"levelo_inurba_marseille","lat":43.25727,"lon":5.41106,"is_reserved":false,"is_disabled":false,"rental_uris":{"android":"levelo://app?vid=5ff9bfad-28dd-4797-bd2b-38c152eae848","ios":"levelo://app?vid=5ff9bfad-28dd-4797-bd2b-38c152eae848"},"vehicle_type_id":"4","last_reported":1733964656,"current_range_meters":32400,"station_id":"ce4bhkp2rcd13ifvqgd0","pricing_plan_id":"cebpf4jnsgd1na2vs0mg"},{"bike_id":"6347bfa3-6e15-456a-b2b4-94185362c352","system_id":"levelo_inurba_marseille","lat":43.30896,"lon":5.39646,"is_reserved":false,"is_disabled":false,"rental_uris":{"android":"levelo://app?vid=6347bfa3-6e15-456a-b2b4-94185362c352","ios":"levelo://app?vid=6347bfa3-6e15-456a-b2b4-94185362c352"},"vehicle_type_id":"4","last_reported":1733964656,"current_range_meters":33600,"station_id":"ce4bh012rcd13ifvqcv0","pricing_plan_id":"cebpf4jnsgd1na2vs0mg"},{"bike_id":"716e3651-726d-4797-92a9-2212a7dacea5","system_id":"levelo_inurba_marseille","lat":43.298962,"lon":5.436608,"is_reserved":false,"is_disabled":false,"rental_uris":{"android":"levelo://app?vid=716e3651-726d-4797-92a9-2212a7dacea5","ios":"levelo://app?vid=716e3651-726d-4797-92a9-2212a7dacea5"},"vehicle_type_id":"4","last_reported":1733964656,"current_range_meters":38800,"station_id":"ce4bhpp2rcd13ifvqhfg","pricing_plan_id":"cebpf4jnsgd1na2vs0mg"},{"bike_id":"30b7f7b0-cffb-44e8-9e23-86428fe1183d","system_id":"levelo_inurba_marseille","lat":43.23065,"lon":5.35468,"is_reserved":false,"is_disabled":false,"rental_uris":{"android":"levelo://app?vid=30b7f7b0-cffb-44e8-9e23-86428fe1183d","ios":"levelo://app?vid=30b7f7b0-cffb-44e8-9e23-86428fe1183d"},"vehicle_type_id":"4","last_reported":1733964656,"current_range_meters":12000,"station_id":"cpo3342slgdg3j2ifvpg","pricing_plan_id":"cebpf4jnsgd1na2vs0mg"},{"bike_id":"551f4ede-9e92-4f06-a5b3-6819bc555477","system_id":"levelo_inurba_marseille","lat":43.284526,"lon":5.358844,"is_reserved":false,"is_disabled":false,"rental_uris":{"android":"levelo://app?vid=551f4ede-9e92-4f06-a5b3-6819bc555477","ios":"levelo://app?vid=551f4ede-9e92-4f06-a5b3-6819bc555477"},"vehicle_type_id":"4","last_reported":1733964656,"current_range_meters":12800,"station_id":"ce4bhah2rcd13ifvqei0","pricing_plan_id":"cebpf4jnsgd1na2vs0mg"},{"bike_id":"33f06ed4-c8ad-43f5-b7ff-27c41657a24c","system_id":"levelo_inurba_marseille","lat":43.26215,"lon":5.37937,"is_reserved":false,"is_disabled":false,"rental_uris":{"android":"levelo://app?vid=33f06ed4-c8ad-43f5-b7ff-27c41657a24c","ios":"levelo://app?vid=33f06ed4-c8ad-43f5-b7ff-27c41657a24c"},"vehicle_type_id":"4","last_reported":1733964656,"current_range_meters":38800,"station_id":"ce4bhjp2rcd13ifvqg90","pricing_plan_id":"cebpf4jnsgd1na2vs0mg"},{"bike_id":"2acee701-f2d8-4c07-8786-a12053357075","system_id":"levelo_inurba_marseille","lat":43.28042,"lon":5.36956,"is_reserved":false,"is_disabled":false,"rental_uris":{"android":"levelo://app?vid=2acee701-f2d8-4c07-8786-a12053357075","ios":"levelo://app?vid=2acee701-f2d8-4c07-8786-a12053357075"},"vehicle_type_id":"4","last_reported":1733964656,"current_range_meters":8800,"station_id":"ce4bha12rcd13ifvqef0","pricing_plan_id":"cebpf4jnsgd1na2vs0mg"},{"bike_id":"f8b49a8b-76af-4c34-a445-4719a4b98693","system_id":"levelo_inurba_marseille","lat":43.32288,"lon":5.38268,"is_reserved":false,"is_disabled":false,"rental_uris":{"android":"levelo://app?vid=f8b49a8b-76af-4c34-a445-4719a4b98693","ios":"levelo://app?vid=f8b49a8b-76af-4c34-a445-4719a4b98693"},"vehicle_type_id":"4","last_reported":1733964656,"current_range_meters":38000,"station_id":"ce4bhr12rcd13ifvqhqg","pricing_plan_id":"cebpf4jnsgd1na2vs0mg"},{"bike_id":"895a55aa-9568-4ecb-a74e-550fa21a2cb4","system_id":"levelo_inurba_marseille","lat":43.29943,"lon":5.38644,"is_reserved":false,"is_disabled":false,"rental_uris":{"android":"levelo://app?vid=895a55aa-9568-4ecb-a74e-550fa21a2cb4","ios":"levelo://app?vid=895a55aa-9568-4ecb-a74e-550fa21a2cb4"},"vehicle_type_id":"4","last_reported":1733964656,"current_range_meters":34000,"station_id":"","pricing_plan_id":"cebpf4jnsgd1na2vs0mg"},{"bike_id":"0d53dcaf-8962-4e66-91c6-9e14207be27e","system_id":"levelo_inurba_marseille","lat":43.3078,"lon":5.37653,"is_reserved":false,"is_disabled":false,"rental_uris":{"android":"levelo://app?vid=0d53dcaf-8962-4e66-91c6-9e14207be27e","ios":"levelo://app?vid=0d53dcaf-8962-4e66-91c6-9e14207be27e"},"vehicle_type_id":"4","last_reported":1733964656,"current_range_meters":9200,"station_id":"ce4bgv92rcd13ifvqcq0","pricing_plan_id":"cebpf4jnsgd1na2vs0mg"},{"bike_id":"ad547f54-c462-4e85-b8e8-65630b691f30","system_id":"levelo_inurba_marseille","lat":43.2884,"lon":5.3583,"is_reserved":false,"is_disabled":false,"rental_uris":{"android":"levelo://app?vid=ad547f54-c462-4e85-b8e8-65630b691f30","ios":"levelo://app?vid=ad547f54-c462-4e85-b8e8-65630b691f30"},"vehicle_type_id":"4","last_reported":1733964656,"current_range_meters":22800,"station_id":"ce4bhb12rcd13ifvqem0","pricing_plan_id":"cebpf4jnsgd1na2vs0mg"},{"bike_id":"d619b683-1a9a-4049-9696-4d1d6e0182e1","system_id":"levelo_inurba_marseille","lat":43.286649,"lon":5.363587,"is_reserved":false,"is_disabled":false,"rental_uris":{"android":"levelo://app?vid=d619b683-1a9a-4049-9696-4d1d6e0182e1","ios":"levelo://app?vid=d619b683-1a9a-4049-9696-4d1d6e0182e1"},"vehicle_type_id":"4","last_reported":1733964656,"current_range_meters":18800,"station_id":"ce4bhah2rcd13ifvqej0","pricing_plan_id":"cebpf4jnsgd1na2vs0mg"},{"bike_id":"e1bdce55-ccd2-417a-8f1d-8c8751ae4b56","system_id":"levelo_inurba_marseille","lat":43.28702,"lon":5.37372,"is_reserved":false,"is_disabled":false,"rental_uris":{"android":"levelo://app?vid=e1bdce55-ccd2-417a-8f1d-8c8751ae4b56","ios":"levelo://app?vid=e1bdce55-ccd2-417a-8f1d-8c8751ae4b56"},"vehicle_type_id":"4","last_reported":1733964656,"current_range_meters":14400,"station_id":"ce4bh3p2rcd13ifvqdq0","pricing_plan_id":"cebpf4jnsgd1na2vs0mg"},{"bike_id":"8c25e51b-d73f-4746-8296-50d822456d52","system_id":"levelo_inurba_marseille","lat":43.26528,"lon":5.37281,"is_reserved":false,"is_disabled":false,"rental_uris":{"android":"levelo://app?vid=8c25e51b-d73f-4746-8296-50d822456d52","ios":"levelo://app?vid=8c25e51b-d73f-4746-8296-50d822456d52"},"vehicle_type_id":"4","last_reported":1733964656,"current_range_meters":24800,"station_id":"ce4bhg12rcd13ifvqf70","pricing_plan_id":"cebpf4jnsgd1na2vs0mg"},{"bike_id":"0b25774c-63f2-4cdb-806c-04acae59e20d","system_id":"levelo_inurba_marseille","lat":43.28264,"lon":5.35057,"is_reserved":false,"is_disabled":false,"rental_uris":{"android":"levelo://app?vid=0b25774c-63f2-4cdb-806c-04acae59e20d","ios":"levelo://app?vid=0b25774c-63f2-4cdb-806c-04acae59e20d"},"vehicle_type_id":"4","last_reported":1733964656,"current_range_meters":28800,"station_id":"ce4bhbp2rcd13ifvqerg","pricing_plan_id":"cebpf4jnsgd1na2vs0mg"},{"bike_id":"0f17d2c4-bf96-42e6-978b-f52d4d5288cd","system_id":"levelo_inurba_marseille","lat":43.30319,"lon":5.40438,"is_reserved":false,"is_disabled":true,"rental_uris":{"android":"levelo://app?vid=0f17d2c4-bf96-42e6-978b-f52d4d5288cd","ios":"levelo://app?vid=0f17d2c4-bf96-42e6-978b-f52d4d5288cd"},"vehicle_type_id":"4","last_reported":1733964656,"current_range_meters":8400,"station_id":"ce4bh012rcd13ifvqd10","pricing_plan_id":"cebpf4jnsgd1na2vs0mg"},{"bike_id":"6b727eee-2263-4eaa-9a3a-c925e23e9f78","system_id":"levelo_inurba_marseille","lat":43.27994,"lon":5.4166,"is_reserved":false,"is_disabled":false,"rental_uris":{"android":"levelo://app?vid=6b727eee-2263-4eaa-9a3a-c925e23e9f78","ios":"levelo://app?vid=6b727eee-2263-4eaa-9a3a-c925e23e9f78"},"vehicle_type_id":"4","last_reported":1733964656,"current_range_meters":38800,"station_id":"ce4bho12rcd13ifvqh1g","pricing_plan_id":"cebpf4jnsgd1na2vs0mg"},{"bike_id":"79263867-ab0b-431e-89dc-246e72ff457f","system_id":"levelo_inurba_marseille","lat":43.28672,"lon":5.38684,"is_reserved":false,"is_disabled":true,"rental_uris":{"android":"levelo://app?vid=79263867-ab0b-431e-89dc-246e72ff457f","ios":"levelo://app?vid=79263867-ab0b-431e-89dc-246e72ff457f"},"vehicle_type_id":"4","last_reported":1733964656,"current_range_meters":38400,"station_id":"ce4bh492rcd13ifvqdug","pricing_plan_id":"cebpf4jnsgd1na2vs0mg"},{"bike_id":"4da8f61d-0f2a-4234-a08c-151dfadd6b43","system_id":"levelo_inurba_marseille","lat":43.300373,"lon":5.36408,"is_reserved":false,"is_disabled":true,"rental_uris":{"android":"levelo://app?vid=4da8f61d-0f2a-4234-a08c-151dfadd6b43","ios":"levelo://app?vid=4da8f61d-0f2a-4234-a08c-151dfadd6b43"},"vehicle_type_id":"4","last_reported":1733964656,"current_range_meters":0,"station_id":"","pricing_plan_id":"cebpf4jnsgd1na2vs0mg"},{"bike_id":"47ef26d5-25f5-43cd-9a35-bd5b3b5bc590","system_id":"levelo_inurba_marseille","lat":43.30936,"lon":5.40147,"is_reserved":false,"is_disabled":false,"rental_uris":{"android":"levelo://app?vid=47ef26d5-25f5-43cd-9a35-bd5b3b5bc590","ios":"levelo://app?vid=47ef26d5-25f5-43cd-9a35-bd5b3b5bc590"},"vehicle_type_id":"4","last_reported":1733964656,"current_range_meters":10800,"station_id":"ce4bgvp2rcd13ifvqct0","pricing_plan_id":"cebpf4jnsgd1na2vs0mg"},{"bike_id":"e5a6cc4b-832e-4ca6-87fd-bab4322900f3","system_id":"levelo_inurba_marseille","lat":43.31177,"lon":5.38707,"is_reserved":false,"is_disabled":false,"rental_uris":{"android":"levelo://app?vid=e5a6cc4b-832e-4ca6-87fd-bab4322900f3","ios":"levelo://app?vid=e5a6cc4b-832e-4ca6-87fd-bab4322900f3"},"vehicle_type_id":"4","last_reported":1733964656,"current_range_meters":28000,"station_id":"ce4bgv12rcd13ifvqcp0","pricing_plan_id":"cebpf4jnsgd1na2vs0mg"},{"bike_id":"6b7da9da-7ed8-4376-8377-8274a75ba481","system_id":"levelo_inurba_marseille","lat":43.2663,"lon":5.40324,"is_reserved":false,"is_disabled":false,"rental_uris":{"android":"levelo://app?vid=6b7da9da-7ed8-4376-8377-8274a75ba481","ios":"levelo://app?vid=6b7da9da-7ed8-4376-8377-8274a75ba481"},"vehicle_type_id":"4","last_reported":1733964656,"current_range_meters":38400,"station_id":"","pricing_plan_id":"cebpf4jnsgd1na2vs0mg"},{"bike_id":"e0cdb3b5-4448-4cfe-b12d-06d7ed4960ca","system_id":"levelo_inurba_marseille","lat":43.30644,"lon":5.40075,"is_reserved":false,"is_disabled":false,"rental_uris":{"android":"levelo://app?vid=e0cdb3b5-4448-4cfe-b12d-06d7ed4960ca","ios":"levelo://app?vid=e0cdb3b5-4448-4cfe-b12d-06d7ed4960ca"},"vehicle_type_id":"4","last_reported":1733964656,"current_range_meters":38800,"station_id":"ce4bh112rcd13ifvqda0","pricing_plan_id":"cebpf4jnsgd1na2vs0mg"},{"bike_id":"4f0c1ef8-f41d-45b8-b048-56d2ab124e5f","system_id":"levelo_inurba_marseille","lat":43.27614,"lon":5.36115,"is_reserved":false,"is_disabled":false,"rental_uris":{"android":"levelo://app?vid=4f0c1ef8-f41d-45b8-b048-56d2ab124e5f","ios":"levelo://app?vid=4f0c1ef8-f41d-45b8-b048-56d2ab124e5f"},"vehicle_type_id":"4","last_reported":1733964656,"current_range_meters":38800,"station_id":"ce4bgj92rcd13ifvqbe0","pricing_plan_id":"cebpf4jnsgd1na2vs0mg"},{"bike_id":"af67ac53-ba21-4ff0-8334-95679e9ff2cc","system_id":"levelo_inurba_marseille","lat":43.278805,"lon":5.388003,"is_reserved":false,"is_disabled":true,"rental_uris":{"android":"levelo://app?vid=af67ac53-ba21-4ff0-8334-95679e9ff2cc","ios":"levelo://app?vid=af67ac53-ba21-4ff0-8334-95679e9ff2cc"},"vehicle_type_id":"4","last_reported":1733964656,"current_range_meters":0,"station_id":"","pricing_plan_id":"cebpf4jnsgd1na2vs0mg"},{"bike_id":"ab6bb814-6be0-4a23-8be0-7c219c550454","system_id":"levelo_inurba_marseille","lat":43.29445,"lon":5.39756,"is_reserved":false,"is_disabled":true,"rental_uris":{"android":"levelo://app?vid=ab6bb814-6be0-4a23-8be0-7c219c550454","ios":"levelo://app?vid=ab6bb814-6be0-4a23-8be0-7c219c550454"},"vehicle_type_id":"4","last_reported":1733964656,"current_range_meters":0,"station_id":"ce4bh3h2rcd13ifvqdo0","pricing_plan_id":"cebpf4jnsgd1na2vs0mg"},{"bike_id":"4615db22-8e24-4c0e-bb14-71b2648a6ecf","system_id":"levelo_inurba_marseille","lat":43.2481,"lon":5.37448,"is_reserved":false,"is_disabled":false,"rental_uris":{"android":"levelo://app?vid=4615db22-8e24-4c0e-bb14-71b2648a6ecf","ios":"levelo://app?vid=4615db22-8e24-4c0e-bb14-71b2648a6ecf"},"vehicle_type_id":"4","last_reported":1733964656,"current_range_meters":38800,"station_id":"ce4bhgh2rcd13ifvqfb0","pricing_plan_id":"cebpf4jnsgd1na2vs0mg"},{"bike_id":"f8d16ca8-f75d-4f50-aec4-42bc8a77916e","system_id":"levelo_inurba_marseille","lat":43.28711,"lon":5.36078,"is_reserved":false,"is_disabled":false,"rental_uris":{"android":"levelo://app?vid=f8d16ca8-f75d-4f50-aec4-42bc8a77916e","ios":"levelo://app?vid=f8d16ca8-f75d-4f50-aec4-42bc8a77916e"},"vehicle_type_id":"4","last_reported":1733964656,"current_range_meters":38400,"station_id":"cki0cbj6b192h4jlfktg","pricing_plan_id":"cebpf4jnsgd1na2vs0mg"},{"bike_id":"82c9545d-9d79-429e-b2af-bff9e5a6d0d9","system_id":"levelo_inurba_marseille","lat":43.25884,"lon":5.39882,"is_reserved":false,"is_disabled":false,"rental_uris":{"android":"levelo://app?vid=82c9545d-9d79-429e-b2af-bff9e5a6d0d9","ios":"levelo://app?vid=82c9545d-9d79-429e-b2af-bff9e5a6d0d9"},"vehicle_type_id":"4","last_reported":1733964656,"current_range_meters":36000,"station_id":"ce4bhl92rcd13ifvqghg","pricing_plan_id":"cebpf4jnsgd1na2vs0mg"},{"bike_id":"c3f87c2d-f647-4d71-89d3-fc010d8ba668","system_id":"levelo_inurba_marseille","lat":43.28479,"lon":5.38425,"is_reserved":false,"is_disabled":true,"rental_uris":{"android":"levelo://app?vid=c3f87c2d-f647-4d71-89d3-fc010d8ba668","ios":"levelo://app?vid=c3f87c2d-f647-4d71-89d3-fc010d8ba668"},"vehicle_type_id":"4","last_reported":1733964656,"current_range_meters":0,"station_id":"ce4bh512rcd13ifvqe3g","pricing_plan_id":"cebpf4jnsgd1na2vs0mg"},{"bike_id":"0fa2039c-5ee9-4ac8-bd2f-e5ab82259f0e","system_id":"levelo_inurba_marseille","lat":43.31199,"lon":5.36777,"is_reserved":false,"is_disabled":true,"rental_uris":{"android":"levelo://app?vid=0fa2039c-5ee9-4ac8-bd2f-e5ab82259f0e","ios":"levelo://app?vid=0fa2039c-5ee9-4ac8-bd2f-e5ab82259f0e"},"vehicle_type_id":"4","last_reported":1733964656,"current_range_meters":1200,"station_id":"","pricing_plan_id":"cebpf4jnsgd1na2vs0mg"},{"bike_id":"1d546492-5c45-4898-b426-a5d4d1493470","system_id":"levelo_inurba_marseille","lat":43.2857,"lon":5.39493,"is_reserved":false,"is_disabled":false,"rental_uris":{"android":"levelo://app?vid=1d546492-5c45-4898-b426-a5d4d1493470","ios":"levelo://app?vid=1d546492-5c45-4898-b426-a5d4d1493470"},"vehicle_type_id":"4","last_reported":1733964656,"current_range_meters":25200,"station_id":"ce4bh292rcd13ifvqdg0","pricing_plan_id":"cebpf4jnsgd1na2vs0mg"},{"bike_id":"d6c6c36b-0cad-45f6-b711-edb7c85a4435","system_id":"levelo_inurba_marseille","lat":43.28105,"lon":5.37836,"is_reserved":false,"is_disabled":false,"rental_uris":{"android":"levelo://app?vid=d6c6c36b-0cad-45f6-b711-edb7c85a4435","ios":"levelo://app?vid=d6c6c36b-0cad-45f6-b711-edb7c85a4435"},"vehicle_type_id":"4","last_reported":1733964656,"current_range_meters":24400,"station_id":"ce4bha12rcd13ifvqee0","pricing_plan_id":"cebpf4jnsgd1na2vs0mg"},{"bike_id":"be0b8c3f-0afb-42d7-82d2-88e533cc17ea","system_id":"levelo_inurba_marseille","lat":43.291053,"lon":5.372191,"is_reserved":false,"is_disabled":true,"rental_uris":{"android":"levelo://app?vid=be0b8c3f-0afb-42d7-82d2-88e533cc17ea","ios":"levelo://app?vid=be0b8c3f-0afb-42d7-82d2-88e533cc17ea"},"vehicle_type_id":"4","last_reported":1733964656,"current_range_meters":24800,"station_id":"","pricing_plan_id":"cebpf4jnsgd1na2vs0mg"},{"bike_id":"f6cd67c9-9d47-4a6f-a19a-661b419f05e0","system_id":"levelo_inurba_marseille","lat":43.31272,"lon":5.40171,"is_reserved":false,"is_disabled":false,"rental_uris":{"android":"levelo://app?vid=f6cd67c9-9d47-4a6f-a19a-661b419f05e0","ios":"levelo://app?vid=f6cd67c9-9d47-4a6f-a19a-661b419f05e0"},"vehicle_type_id":"4","last_reported":1733964656,"current_range_meters":38800,"station_id":"ce4bh092rcd13ifvqd30","pricing_plan_id":"cebpf4jnsgd1na2vs0mg"},{"bike_id":"b5fcaa86-c09e-4c69-8628-53e487fd6934","system_id":"levelo_inurba_marseille","lat":43.29374,"lon":5.37875,"is_reserved":false,"is_disabled":true,"rental_uris":{"android":"levelo://app?vid=b5fcaa86-c09e-4c69-8628-53e487fd6934","ios":"levelo://app?vid=b5fcaa86-c09e-4c69-8628-53e487fd6934"},"vehicle_type_id":"4","last_reported":1733964656,"current_range_meters":38000,"station_id":"ce4bgjh2rcd13ifvqbf0","pricing_plan_id":"cebpf4jnsgd1na2vs0mg"},{"bike_id":"935ada8d-de8c-4228-9bf6-07bee1be6f63","system_id":"levelo_inurba_marseille","lat":43.29554,"lon":5.42294,"is_reserved":false,"is_disabled":false,"rental_uris":{"android":"levelo://app?vid=935ada8d-de8c-4228-9bf6-07bee1be6f63","ios":"levelo://app?vid=935ada8d-de8c-4228-9bf6-07bee1be6f63"},"vehicle_type_id":"4","last_reported":1733964656,"current_range_meters":20000,"station_id":"ce4bhph2rcd13ifvqhdg","pricing_plan_id":"cebpf4jnsgd1na2vs0mg"},{"bike_id":"cebd5362-7b70-47b1-bc49-530ef80e1944","system_id":"levelo_inurba_marseille","lat":43.31789,"lon":5.38094,"is_reserved":false,"is_disabled":true,"rental_uris":{"android":"levelo://app?vid=cebd5362-7b70-47b1-bc49-530ef80e1944","ios":"levelo://app?vid=cebd5362-7b70-47b1-bc49-530ef80e1944"},"vehicle_type_id":"4","last_reported":1733964656,"current_range_meters":800,"station_id":"","pricing_plan_id":"cebpf4jnsgd1na2vs0mg"},{"bike_id":"daa91068-bea1-428f-b6ee-45a5b270e54a","system_id":"levelo_inurba_marseille","lat":43.30536,"lon":5.38423,"is_reserved":false,"is_disabled":false,"rental_uris":{"android":"levelo://app?vid=daa91068-bea1-428f-b6ee-45a5b270e54a","ios":"levelo://app?vid=daa91068-bea1-428f-b6ee-45a5b270e54a"},"vehicle_type_id":"4","last_reported":1733964656,"current_range_meters":38000,"station_id":"ce4bgg92rcd13ifvqb30","pricing_plan_id":"cebpf4jnsgd1na2vs0mg"},{"bike_id":"0aaf9b22-f7e1-4e4f-a1a5-7a779d72a1d4","system_id":"levelo_inurba_marseille","lat":43.298381,"lon":5.377541,"is_reserved":false,"is_disabled":true,"rental_uris":{"android":"levelo://app?vid=0aaf9b22-f7e1-4e4f-a1a5-7a779d72a1d4","ios":"levelo://app?vid=0aaf9b22-f7e1-4e4f-a1a5-7a779d72a1d4"},"vehicle_type_id":"4","last_reported":1733964656,"current_range_meters":0,"station_id":"","pricing_plan_id":"cebpf4jnsgd1na2vs0mg"},{"bike_id":"ef3b6362-7aa5-45c6-8ea7-d10ba64fef03","system_id":"levelo_inurba_marseille","lat":43.29819,"lon":5.38768,"is_reserved":false,"is_disabled":false,"rental_uris":{"android":"levelo://app?vid=ef3b6362-7aa5-45c6-8ea7-d10ba64fef03","ios":"levelo://app?vid=ef3b6362-7aa5-45c6-8ea7-d10ba64fef03"},"vehicle_type_id":"4","last_reported":1733964656,"current_range_meters":16000,"station_id":"","pricing_plan_id":"cebpf4jnsgd1na2vs0mg"},{"bike_id":"91c3f92e-5d61-470b-b958-c89d04138b23","system_id":"levelo_inurba_marseille","lat":43.29603,"lon":5.37562,"is_reserved":false,"is_disabled":true,"rental_uris":{"android":"levelo://app?vid=91c3f92e-5d61-470b-b958-c89d04138b23","ios":"levelo://app?vid=91c3f92e-5d61-470b-b958-c89d04138b23"},"vehicle_type_id":"4","last_reported":1733964656,"current_range_meters":3600,"station_id":"ce4bgh92rcd13ifvqb50","pricing_plan_id":"cebpf4jnsgd1na2vs0mg"},{"bike_id":"0c077105-d637-4568-bc4c-f0339898e3bf","system_id":"levelo_inurba_marseille","lat":43.31761,"lon":5.39006,"is_reserved":false,"is_disabled":false,"rental_uris":{"android":"levelo://app?vid=0c077105-d637-4568-bc4c-f0339898e3bf","ios":"levelo://app?vid=0c077105-d637-4568-bc4c-f0339898e3bf"},"vehicle_type_id":"4","last_reported":1733964656,"current_range_meters":38800,"station_id":"ce4bhqp2rcd13ifvqhng","pricing_plan_id":"cebpf4jnsgd1na2vs0mg"},{"bike_id":"a85501a2-1a09-455f-954b-c790a9d4e292","system_id":"levelo_inurba_marseille","lat":43.31107,"lon":5.42426,"is_reserved":false,"is_disabled":false,"rental_uris":{"android":"levelo://app?vid=a85501a2-1a09-455f-954b-c790a9d4e292","ios":"levelo://app?vid=a85501a2-1a09-455f-954b-c790a9d4e292"},"vehicle_type_id":"4","last_reported":1733964656,"current_range_meters":19200,"station_id":"ce4bhp92rcd13ifvqhag","pricing_plan_id":"cebpf4jnsgd1na2vs0mg"},{"bike_id":"b8e3a311-f02b-4399-af7b-1bfb5506fa2a","system_id":"levelo_inurba_marseille","lat":43.24648,"lon":5.38886,"is_reserved":false,"is_disabled":false,"rental_uris":{"android":"levelo://app?vid=b8e3a311-f02b-4399-af7b-1bfb5506fa2a","ios":"levelo://app?vid=b8e3a311-f02b-4399-af7b-1bfb5506fa2a"},"vehicle_type_id":"4","last_reported":1733964656,"current_range_meters":26800,"station_id":"ce4bhg12rcd13ifvqf60","pricing_plan_id":"cebpf4jnsgd1na2vs0mg"},{"bike_id":"eb2a26dc-d895-4b2d-8eec-536a09e2de62","system_id":"levelo_inurba_marseille","lat":43.30928,"lon":5.40188,"is_reserved":false,"is_disabled":false,"rental_uris":{"android":"levelo://app?vid=eb2a26dc-d895-4b2d-8eec-536a09e2de62","ios":"levelo://app?vid=eb2a26dc-d895-4b2d-8eec-536a09e2de62"},"vehicle_type_id":"4","last_reported":1733964656,"current_range_meters":26000,"station_id":"ce4bgvp2rcd13ifvqct0","pricing_plan_id":"cebpf4jnsgd1na2vs0mg"},{"bike_id":"e845a170-8a5e-4e5c-9f4e-c26431866b15","system_id":"levelo_inurba_marseille","lat":43.27176,"lon":5.40988,"is_reserved":false,"is_disabled":false,"rental_uris":{"android":"levelo://app?vid=e845a170-8a5e-4e5c-9f4e-c26431866b15","ios":"levelo://app?vid=e845a170-8a5e-4e5c-9f4e-c26431866b15"},"vehicle_type_id":"4","last_reported":1733964656,"current_range_meters":14400,"station_id":"ce4bhl12rcd13ifvqgf0","pricing_plan_id":"cebpf4jnsgd1na2vs0mg"},{"bike_id":"f329caa1-2afa-4eb4-929e-10ebb05d24cf","system_id":"levelo_inurba_marseille","lat":43.315385,"lon":5.380195,"is_reserved":false,"is_disabled":false,"rental_uris":{"android":"levelo://app?vid=f329caa1-2afa-4eb4-929e-10ebb05d24cf","ios":"levelo://app?vid=f329caa1-2afa-4eb4-929e-10ebb05d24cf"},"vehicle_type_id":"4","last_reported":1733964656,"current_range_meters":39200,"station_id":"ce4bhsp2rcd13ifvqi50","pricing_plan_id":"cebpf4jnsgd1na2vs0mg"},{"bike_id":"1fce8014-29d7-44e2-9d2c-8d29b03c9734","system_id":"levelo_inurba_marseille","lat":43.28688,"lon":5.39984,"is_reserved":false,"is_disabled":false,"rental_uris":{"android":"levelo://app?vid=1fce8014-29d7-44e2-9d2c-8d29b03c9734","ios":"levelo://app?vid=1fce8014-29d7-44e2-9d2c-8d29b03c9734"},"vehicle_type_id":"4","last_reported":1733964656,"current_range_meters":38800,"station_id":"ce4bho92rcd13ifvqh3g","pricing_plan_id":"cebpf4jnsgd1na2vs0mg"},{"bike_id":"5746a913-59cb-4881-b851-217de753d5a3","system_id":"levelo_inurba_marseille","lat":43.25101,"lon":5.39538,"is_reserved":false,"is_disabled":false,"rental_uris":{"android":"levelo://app?vid=5746a913-59cb-4881-b851-217de753d5a3","ios":"levelo://app?vid=5746a913-59cb-4881-b851-217de753d5a3"},"vehicle_type_id":"4","last_reported":1733964656,"current_range_meters":27600,"station_id":"ce4bhm12rcd13ifvqgkg","pricing_plan_id":"cebpf4jnsgd1na2vs0mg"},{"bike_id":"fc6bce5c-fc82-4c38-916f-35df49872efb","system_id":"levelo_inurba_marseille","lat":43.31984,"lon":5.38099,"is_reserved":false,"is_disabled":false,"rental_uris":{"android":"levelo://app?vid=fc6bce5c-fc82-4c38-916f-35df49872efb","ios":"levelo://app?vid=fc6bce5c-fc82-4c38-916f-35df49872efb"},"vehicle_type_id":"4","last_reported":1733964656,"current_range_meters":38800,"station_id":"","pricing_plan_id":"cebpf4jnsgd1na2vs0mg"},{"bike_id":"fa78bd84-cc9c-420b-aac1-bebf868e59df","system_id":"levelo_inurba_marseille","lat":43.3176,"lon":5.39015,"is_reserved":false,"is_disabled":false,"rental_uris":{"android":"levelo://app?vid=fa78bd84-cc9c-420b-aac1-bebf868e59df","ios":"levelo://app?vid=fa78bd84-cc9c-420b-aac1-bebf868e59df"},"vehicle_type_id":"4","last_reported":1733964656,"current_range_meters":38800,"station_id":"ce4bhqp2rcd13ifvqhng","pricing_plan_id":"cebpf4jnsgd1na2vs0mg"},{"bike_id":"6ff81125-71bf-40cc-a5d6-cc392c4e7a61","system_id":"levelo_inurba_marseille","lat":43.31756,"lon":5.39021,"is_reserved":false,"is_disabled":false,"rental_uris":{"android":"levelo://app?vid=6ff81125-71bf-40cc-a5d6-cc392c4e7a61","ios":"levelo://app?vid=6ff81125-71bf-40cc-a5d6-cc392c4e7a61"},"vehicle_type_id":"4","last_reported":1733964656,"current_range_meters":12800,"station_id":"ce4bhqp2rcd13ifvqhng","pricing_plan_id":"cebpf4jnsgd1na2vs0mg"},{"bike_id":"9f59f892-069b-4e04-9fca-167860a220e8","system_id":"levelo_inurba_marseille","lat":43.3132,"lon":5.39714,"is_reserved":false,"is_disabled":false,"rental_uris":{"android":"levelo://app?vid=9f59f892-069b-4e04-9fca-167860a220e8","ios":"levelo://app?vid=9f59f892-069b-4e04-9fca-167860a220e8"},"vehicle_type_id":"4","last_reported":1733964656,"current_range_meters":20000,"station_id":"ce4bgvp2rcd13ifvqcu0","pricing_plan_id":"cebpf4jnsgd1na2vs0mg"},{"bike_id":"a5fca068-4999-4c02-8ca7-03c2a14173d9","system_id":"levelo_inurba_marseille","lat":43.28563,"lon":5.39504,"is_reserved":false,"is_disabled":false,"rental_uris":{"android":"levelo://app?vid=a5fca068-4999-4c02-8ca7-03c2a14173d9","ios":"levelo://app?vid=a5fca068-4999-4c02-8ca7-03c2a14173d9"},"vehicle_type_id":"4","last_reported":1733964656,"current_range_meters":39200,"station_id":"ce4bh292rcd13ifvqdg0","pricing_plan_id":"cebpf4jnsgd1na2vs0mg"},{"bike_id":"76f3328f-e574-457e-a081-a550f776ec21","system_id":"levelo_inurba_marseille","lat":43.24065,"lon":5.37762,"is_reserved":false,"is_disabled":false,"rental_uris":{"android":"levelo://app?vid=76f3328f-e574-457e-a081-a550f776ec21","ios":"levelo://app?vid=76f3328f-e574-457e-a081-a550f776ec21"},"vehicle_type_id":"4","last_reported":1733964656,"current_range_meters":28400,"station_id":"ce4bhnp2rcd13ifvqgvg","pricing_plan_id":"cebpf4jnsgd1na2vs0mg"},{"bike_id":"52fe41bd-3215-4f1d-8eb8-941b0d7396b8","system_id":"levelo_inurba_marseille","lat":43.311763,"lon":5.38707,"is_reserved":false,"is_disabled":false,"rental_uris":{"android":"levelo://app?vid=52fe41bd-3215-4f1d-8eb8-941b0d7396b8","ios":"levelo://app?vid=52fe41bd-3215-4f1d-8eb8-941b0d7396b8"},"vehicle_type_id":"4","last_reported":1733964656,"current_range_meters":32800,"station_id":"ce4bgv12rcd13ifvqcp0","pricing_plan_id":"cebpf4jnsgd1na2vs0mg"},{"bike_id":"ef1675a4-1a15-40b4-af8d-26ca4e4efdd1","system_id":"levelo_inurba_marseille","lat":43.28698,"lon":5.3738,"is_reserved":false,"is_disabled":false,"rental_uris":{"android":"levelo://app?vid=ef1675a4-1a15-40b4-af8d-26ca4e4efdd1","ios":"levelo://app?vid=ef1675a4-1a15-40b4-af8d-26ca4e4efdd1"},"vehicle_type_id":"4","last_reported":1733964656,"current_range_meters":39200,"station_id":"ce4bh3p2rcd13ifvqdq0","pricing_plan_id":"cebpf4jnsgd1na2vs0mg"},{"bike_id":"96092791-8138-4990-a442-bce3dc035acc","system_id":"levelo_inurba_marseille","lat":43.30924,"lon":5.40149,"is_reserved":false,"is_disabled":false,"rental_uris":{"android":"levelo://app?vid=96092791-8138-4990-a442-bce3dc035acc","ios":"levelo://app?vid=96092791-8138-4990-a442-bce3dc035acc"},"vehicle_type_id":"4","last_reported":1733964656,"current_range_meters":22400,"station_id":"ce4bgvp2rcd13ifvqct0","pricing_plan_id":"cebpf4jnsgd1na2vs0mg"},{"bike_id":"440c0882-719b-4b38-aba1-872c74c75218","system_id":"levelo_inurba_marseille","lat":43.32283,"lon":5.38278,"is_reserved":false,"is_disabled":false,"rental_uris":{"android":"levelo://app?vid=440c0882-719b-4b38-aba1-872c74c75218","ios":"levelo://app?vid=440c0882-719b-4b38-aba1-872c74c75218"},"vehicle_type_id":"4","last_reported":1733964656,"current_range_meters":38400,"station_id":"ce4bhr12rcd13ifvqhqg","pricing_plan_id":"cebpf4jnsgd1na2vs0mg"},{"bike_id":"9f4ff309-16c5-4f67-9aac-83afe40d118a","system_id":"levelo_inurba_marseille","lat":43.239568,"lon":5.366277,"is_reserved":false,"is_disabled":false,"rental_uris":{"android":"levelo://app?vid=9f4ff309-16c5-4f67-9aac-83afe40d118a","ios":"levelo://app?vid=9f4ff309-16c5-4f67-9aac-83afe40d118a"},"vehicle_type_id":"4","last_reported":1733964656,"current_range_meters":38800,"station_id":"ce4bhi12rcd13ifvqfp0","pricing_plan_id":"cebpf4jnsgd1na2vs0mg"},{"bike_id":"ac9259c7-5b76-4714-8295-8c5ed3303148","system_id":"levelo_inurba_marseille","lat":43.26558,"lon":5.3728,"is_reserved":false,"is_disabled":false,"rental_uris":{"android":"levelo://app?vid=ac9259c7-5b76-4714-8295-8c5ed3303148","ios":"levelo://app?vid=ac9259c7-5b76-4714-8295-8c5ed3303148"},"vehicle_type_id":"4","last_reported":1733964656,"current_range_meters":36800,"station_id":"ce4bhg12rcd13ifvqf70","pricing_plan_id":"cebpf4jnsgd1na2vs0mg"},{"bike_id":"accc15c2-75c8-4823-a61f-1d4d7e399167","system_id":"levelo_inurba_marseille","lat":43.29419,"lon":5.38603,"is_reserved":false,"is_disabled":true,"rental_uris":{"android":"levelo://app?vid=accc15c2-75c8-4823-a61f-1d4d7e399167","ios":"levelo://app?vid=accc15c2-75c8-4823-a61f-1d4d7e399167"},"vehicle_type_id":"4","last_reported":1733964656,"current_range_meters":9200,"station_id":"ce4bh2h2rcd13ifvqdh0","pricing_plan_id":"cebpf4jnsgd1na2vs0mg"},{"bike_id":"348a5c80-3b1e-4fa4-a2c8-d0287c9ea325","system_id":"levelo_inurba_marseille","lat":43.279891,"lon":5.416537,"is_reserved":false,"is_disabled":false,"rental_uris":{"android":"levelo://app?vid=348a5c80-3b1e-4fa4-a2c8-d0287c9ea325","ios":"levelo://app?vid=348a5c80-3b1e-4fa4-a2c8-d0287c9ea325"},"vehicle_type_id":"4","last_reported":1733964656,"current_range_meters":30000,"station_id":"ce4bho12rcd13ifvqh1g","pricing_plan_id":"cebpf4jnsgd1na2vs0mg"},{"bike_id":"20dec2c9-ca70-4520-b174-a81f4e369962","system_id":"levelo_inurba_marseille","lat":43.29553,"lon":5.42282,"is_reserved":false,"is_disabled":false,"rental_uris":{"android":"levelo://app?vid=20dec2c9-ca70-4520-b174-a81f4e369962","ios":"levelo://app?vid=20dec2c9-ca70-4520-b174-a81f4e369962"},"vehicle_type_id":"4","last_reported":1733964656,"current_range_meters":34800,"station_id":"ce4bhph2rcd13ifvqhdg","pricing_plan_id":"cebpf4jnsgd1na2vs0mg"},{"bike_id":"2e837f88-b2ad-48b6-8548-d8f989884f5c","system_id":"levelo_inurba_marseille","lat":43.28408,"lon":5.37524,"is_reserved":false,"is_disabled":false,"rental_uris":{"android":"levelo://app?vid=2e837f88-b2ad-48b6-8548-d8f989884f5c","ios":"levelo://app?vid=2e837f88-b2ad-48b6-8548-d8f989884f5c"},"vehicle_type_id":"4","last_reported":1733964656,"current_range_meters":34000,"station_id":"ce4bh412rcd13ifvqds0","pricing_plan_id":"cebpf4jnsgd1na2vs0mg"},{"bike_id":"2c014ae4-7d58-406f-a0f3-e7beffdd9a3b","system_id":"levelo_inurba_marseille","lat":43.30096,"lon":5.3909,"is_reserved":false,"is_disabled":true,"rental_uris":{"android":"levelo://app?vid=2c014ae4-7d58-406f-a0f3-e7beffdd9a3b","ios":"levelo://app?vid=2c014ae4-7d58-406f-a0f3-e7beffdd9a3b"},"vehicle_type_id":"4","last_reported":1733964656,"current_range_meters":29600,"station_id":"ce4bh192rcd13ifvqdb0","pricing_plan_id":"cebpf4jnsgd1na2vs0mg"},{"bike_id":"b4146eb4-08fe-461c-b382-1250780012c6","system_id":"levelo_inurba_marseille","lat":43.30955,"lon":5.3905,"is_reserved":false,"is_disabled":false,"rental_uris":{"android":"levelo://app?vid=b4146eb4-08fe-461c-b382-1250780012c6","ios":"levelo://app?vid=b4146eb4-08fe-461c-b382-1250780012c6"},"vehicle_type_id":"4","last_reported":1733964656,"current_range_meters":27200,"station_id":"ce4bgup2rcd13ifvqco0","pricing_plan_id":"cebpf4jnsgd1na2vs0mg"},{"bike_id":"e966d2c7-c9e1-4cb1-9a39-6325607b0be4","system_id":"levelo_inurba_marseille","lat":43.337444,"lon":5.374475,"is_reserved":false,"is_disabled":true,"rental_uris":{"android":"levelo://app?vid=e966d2c7-c9e1-4cb1-9a39-6325607b0be4","ios":"levelo://app?vid=e966d2c7-c9e1-4cb1-9a39-6325607b0be4"},"vehicle_type_id":"4","last_reported":1733964656,"current_range_meters":0,"station_id":"","pricing_plan_id":"cebpf4jnsgd1na2vs0mg"},{"bike_id":"4af07e7b-26e3-478f-b540-65a412c01bb4","system_id":"levelo_inurba_marseille","lat":43.30454,"lon":5.3889,"is_reserved":false,"is_disabled":false,"rental_uris":{"android":"levelo://app?vid=4af07e7b-26e3-478f-b540-65a412c01bb4","ios":"levelo://app?vid=4af07e7b-26e3-478f-b540-65a412c01bb4"},"vehicle_type_id":"4","last_reported":1733964656,"current_range_meters":27200,"station_id":"ce4bgk12rcd13ifvqbi0","pricing_plan_id":"cebpf4jnsgd1na2vs0mg"},{"bike_id":"312bb54d-7981-48b2-bad1-cc0be49295b2","system_id":"levelo_inurba_marseille","lat":43.28821,"lon":5.35844,"is_reserved":false,"is_disabled":false,"rental_uris":{"android":"levelo://app?vid=312bb54d-7981-48b2-bad1-cc0be49295b2","ios":"levelo://app?vid=312bb54d-7981-48b2-bad1-cc0be49295b2"},"vehicle_type_id":"4","last_reported":1733964656,"current_range_meters":34000,"station_id":"ce4bhb12rcd13ifvqem0","pricing_plan_id":"cebpf4jnsgd1na2vs0mg"},{"bike_id":"f0a4f587-2333-4a7a-8819-09121e495e1b","system_id":"levelo_inurba_marseille","lat":43.22929,"lon":5.35374,"is_reserved":false,"is_disabled":false,"rental_uris":{"android":"levelo://app?vid=f0a4f587-2333-4a7a-8819-09121e495e1b","ios":"levelo://app?vid=f0a4f587-2333-4a7a-8819-09121e495e1b"},"vehicle_type_id":"4","last_reported":1733964656,"current_range_meters":11200,"station_id":"cpo3532slgdg3j2ikp40","pricing_plan_id":"cebpf4jnsgd1na2vs0mg"},{"bike_id":"2dc9aa74-69ff-4394-843e-e42cabc0b059","system_id":"levelo_inurba_marseille","lat":43.28694,"lon":5.37383,"is_reserved":false,"is_disabled":false,"rental_uris":{"android":"levelo://app?vid=2dc9aa74-69ff-4394-843e-e42cabc0b059","ios":"levelo://app?vid=2dc9aa74-69ff-4394-843e-e42cabc0b059"},"vehicle_type_id":"4","last_reported":1733964656,"current_range_meters":38800,"station_id":"ce4bh3p2rcd13ifvqdq0","pricing_plan_id":"cebpf4jnsgd1na2vs0mg"},{"bike_id":"81480221-5bd6-4736-a9d5-695a06b94e56","system_id":"levelo_inurba_marseille","lat":43.25079,"lon":5.39522,"is_reserved":false,"is_disabled":false,"rental_uris":{"android":"levelo://app?vid=81480221-5bd6-4736-a9d5-695a06b94e56","ios":"levelo://app?vid=81480221-5bd6-4736-a9d5-695a06b94e56"},"vehicle_type_id":"4","last_reported":1733964656,"current_range_meters":37600,"station_id":"ce4bhm12rcd13ifvqgkg","pricing_plan_id":"cebpf4jnsgd1na2vs0mg"},{"bike_id":"17f59de1-b3ce-4e3a-95ec-402199b35e46","system_id":"levelo_inurba_marseille","lat":43.246467,"lon":5.388898,"is_reserved":false,"is_disabled":false,"rental_uris":{"android":"levelo://app?vid=17f59de1-b3ce-4e3a-95ec-402199b35e46","ios":"levelo://app?vid=17f59de1-b3ce-4e3a-95ec-402199b35e46"},"vehicle_type_id":"4","last_reported":1733964656,"current_range_meters":29600,"station_id":"ce4bhg12rcd13ifvqf60","pricing_plan_id":"cebpf4jnsgd1na2vs0mg"},{"bike_id":"e2b090ff-7c7f-4d4a-8f5b-c317e750043e","system_id":"levelo_inurba_marseille","lat":43.27068,"lon":5.4228,"is_reserved":false,"is_disabled":true,"rental_uris":{"android":"levelo://app?vid=e2b090ff-7c7f-4d4a-8f5b-c317e750043e","ios":"levelo://app?vid=e2b090ff-7c7f-4d4a-8f5b-c317e750043e"},"vehicle_type_id":"4","last_reported":1733964656,"current_range_meters":0,"station_id":"ce4bhk92rcd13ifvqgb0","pricing_plan_id":"cebpf4jnsgd1na2vs0mg"},{"bike_id":"1802c294-deb8-4890-b7ca-3e995fd26543","system_id":"levelo_inurba_marseille","lat":43.27071,"lon":5.42285,"is_reserved":false,"is_disabled":false,"rental_uris":{"android":"levelo://app?vid=1802c294-deb8-4890-b7ca-3e995fd26543","ios":"levelo://app?vid=1802c294-deb8-4890-b7ca-3e995fd26543"},"vehicle_type_id":"4","last_reported":1733964656,"current_range_meters":36400,"station_id":"ce4bhk92rcd13ifvqgb0","pricing_plan_id":"cebpf4jnsgd1na2vs0mg"},{"bike_id":"c07bed49-7bd1-4167-905d-ca3f4558f43f","system_id":"levelo_inurba_marseille","lat":43.27831,"lon":5.39208,"is_reserved":false,"is_disabled":false,"rental_uris":{"android":"levelo://app?vid=c07bed49-7bd1-4167-905d-ca3f4558f43f","ios":"levelo://app?vid=c07bed49-7bd1-4167-905d-ca3f4558f43f"},"vehicle_type_id":"4","last_reported":1733964656,"current_range_meters":28800,"station_id":"ce4bhjp2rcd13ifvqga0","pricing_plan_id":"cebpf4jnsgd1na2vs0mg"},{"bike_id":"58cf3891-dd94-4bdf-8a77-a287a3f2609a","system_id":"levelo_inurba_marseille","lat":43.24418,"lon":5.37069,"is_reserved":false,"is_disabled":false,"rental_uris":{"android":"levelo://app?vid=58cf3891-dd94-4bdf-8a77-a287a3f2609a","ios":"levelo://app?vid=58cf3891-dd94-4bdf-8a77-a287a3f2609a"},"vehicle_type_id":"4","last_reported":1733964656,"current_range_meters":38800,"station_id":"ce4bhhh2rcd13ifvqfk0","pricing_plan_id":"cebpf4jnsgd1na2vs0mg"},{"bike_id":"fe4d47c1-dfb5-4e68-bfe4-126efd20c0c3","system_id":"levelo_inurba_marseille","lat":43.30812,"lon":5.37359,"is_reserved":false,"is_disabled":false,"rental_uris":{"android":"levelo://app?vid=fe4d47c1-dfb5-4e68-bfe4-126efd20c0c3","ios":"levelo://app?vid=fe4d47c1-dfb5-4e68-bfe4-126efd20c0c3"},"vehicle_type_id":"4","last_reported":1733964656,"current_range_meters":24400,"station_id":"","pricing_plan_id":"cebpf4jnsgd1na2vs0mg"},{"bike_id":"47ca1389-a4a0-4b65-a481-87698db823a2","system_id":"levelo_inurba_marseille","lat":43.28073,"lon":5.39647,"is_reserved":false,"is_disabled":false,"rental_uris":{"android":"levelo://app?vid=47ca1389-a4a0-4b65-a481-87698db823a2","ios":"levelo://app?vid=47ca1389-a4a0-4b65-a481-87698db823a2"},"vehicle_type_id":"4","last_reported":1733964656,"current_range_meters":38800,"station_id":"ce4bho12rcd13ifvqh2g","pricing_plan_id":"cebpf4jnsgd1na2vs0mg"},{"bike_id":"0e82dade-8dc2-491d-9db4-3976e18d4a8b","system_id":"levelo_inurba_marseille","lat":43.31169,"lon":5.3875,"is_reserved":false,"is_disabled":false,"rental_uris":{"android":"levelo://app?vid=0e82dade-8dc2-491d-9db4-3976e18d4a8b","ios":"levelo://app?vid=0e82dade-8dc2-491d-9db4-3976e18d4a8b"},"vehicle_type_id":"4","last_reported":1733964656,"current_range_meters":16400,"station_id":"ce4bgv12rcd13ifvqcp0","pricing_plan_id":"cebpf4jnsgd1na2vs0mg"},{"bike_id":"c346be12-582d-42dc-8dce-5e128ded35bf","system_id":"levelo_inurba_marseille","lat":43.31995,"lon":5.38148,"is_reserved":false,"is_disabled":false,"rental_uris":{"android":"levelo://app?vid=c346be12-582d-42dc-8dce-5e128ded35bf","ios":"levelo://app?vid=c346be12-582d-42dc-8dce-5e128ded35bf"},"vehicle_type_id":"4","last_reported":1733964656,"current_range_meters":23200,"station_id":"ce4bhr12rcd13ifvqhpg","pricing_plan_id":"cebpf4jnsgd1na2vs0mg"},{"bike_id":"82f09025-3cfb-4790-b608-4b1833086855","system_id":"levelo_inurba_marseille","lat":43.24397,"lon":5.37061,"is_reserved":false,"is_disabled":false,"rental_uris":{"android":"levelo://app?vid=82f09025-3cfb-4790-b608-4b1833086855","ios":"levelo://app?vid=82f09025-3cfb-4790-b608-4b1833086855"},"vehicle_type_id":"4","last_reported":1733964656,"current_range_meters":8800,"station_id":"ce4bhhh2rcd13ifvqfk0","pricing_plan_id":"cebpf4jnsgd1na2vs0mg"},{"bike_id":"ea655d78-9f27-4bbd-b8af-755dcc25abb1","system_id":"levelo_inurba_marseille","lat":43.31179,"lon":5.38712,"is_reserved":false,"is_disabled":false,"rental_uris":{"android":"levelo://app?vid=ea655d78-9f27-4bbd-b8af-755dcc25abb1","ios":"levelo://app?vid=ea655d78-9f27-4bbd-b8af-755dcc25abb1"},"vehicle_type_id":"4","last_reported":1733964656,"current_range_meters":38800,"station_id":"ce4bgv12rcd13ifvqcp0","pricing_plan_id":"cebpf4jnsgd1na2vs0mg"},{"bike_id":"097a41bf-6635-41a6-b7a7-1173cae29ada","system_id":"levelo_inurba_marseille","lat":43.22995,"lon":5.35332,"is_reserved":false,"is_disabled":false,"rental_uris":{"android":"levelo://app?vid=097a41bf-6635-41a6-b7a7-1173cae29ada","ios":"levelo://app?vid=097a41bf-6635-41a6-b7a7-1173cae29ada"},"vehicle_type_id":"4","last_reported":1733964656,"current_range_meters":39200,"station_id":"cpo3532slgdg3j2ikp40","pricing_plan_id":"cebpf4jnsgd1na2vs0mg"},{"bike_id":"a90ab59e-9775-4bc6-a3e9-285e464122de","system_id":"levelo_inurba_marseille","lat":43.24645,"lon":5.38891,"is_reserved":false,"is_disabled":false,"rental_uris":{"android":"levelo://app?vid=a90ab59e-9775-4bc6-a3e9-285e464122de","ios":"levelo://app?vid=a90ab59e-9775-4bc6-a3e9-285e464122de"},"vehicle_type_id":"4","last_reported":1733964656,"current_range_meters":36800,"station_id":"ce4bhg12rcd13ifvqf60","pricing_plan_id":"cebpf4jnsgd1na2vs0mg"},{"bike_id":"a5b9952e-4be2-4396-90f5-bd968bacb94f","system_id":"levelo_inurba_marseille","lat":43.31371,"lon":5.38502,"is_reserved":false,"is_disabled":false,"rental_uris":{"android":"levelo://app?vid=a5b9952e-4be2-4396-90f5-bd968bacb94f","ios":"levelo://app?vid=a5b9952e-4be2-4396-90f5-bd968bacb94f"},"vehicle_type_id":"4","last_reported":1733964656,"current_range_meters":35200,"station_id":"ce4bgt92rcd13ifvqcf0","pricing_plan_id":"cebpf4jnsgd1na2vs0mg"},{"bike_id":"e08a3c45-9a07-474f-9717-a27fa81c4ce9","system_id":"levelo_inurba_marseille","lat":43.30782,"lon":5.38756,"is_reserved":false,"is_disabled":true,"rental_uris":{"android":"levelo://app?vid=e08a3c45-9a07-474f-9717-a27fa81c4ce9","ios":"levelo://app?vid=e08a3c45-9a07-474f-9717-a27fa81c4ce9"},"vehicle_type_id":"4","last_reported":1733964656,"current_range_meters":0,"station_id":"","pricing_plan_id":"cebpf4jnsgd1na2vs0mg"},{"bike_id":"0d974de1-1c7e-426d-9571-822e6fb4cb35","system_id":"levelo_inurba_marseille","lat":43.33744,"lon":5.39199,"is_reserved":false,"is_disabled":false,"rental_uris":{"android":"levelo://app?vid=0d974de1-1c7e-426d-9571-822e6fb4cb35","ios":"levelo://app?vid=0d974de1-1c7e-426d-9571-822e6fb4cb35"},"vehicle_type_id":"4","last_reported":1733964656,"current_range_meters":28800,"station_id":"ce4bhr92rcd13ifvqhsg","pricing_plan_id":"cebpf4jnsgd1na2vs0mg"},{"bike_id":"da28e2f0-7add-4e98-94c8-64ba50e22469","system_id":"levelo_inurba_marseille","lat":43.28107,"lon":5.37855,"is_reserved":false,"is_disabled":false,"rental_uris":{"android":"levelo://app?vid=da28e2f0-7add-4e98-94c8-64ba50e22469","ios":"levelo://app?vid=da28e2f0-7add-4e98-94c8-64ba50e22469"},"vehicle_type_id":"4","last_reported":1733964656,"current_range_meters":38400,"station_id":"ce4bha12rcd13ifvqee0","pricing_plan_id":"cebpf4jnsgd1na2vs0mg"},{"bike_id":"d8b953f2-f14c-4c14-b2ea-95ebb57b2730","system_id":"levelo_inurba_marseille","lat":43.28709,"lon":5.40007,"is_reserved":false,"is_disabled":false,"rental_uris":{"android":"levelo://app?vid=d8b953f2-f14c-4c14-b2ea-95ebb57b2730","ios":"levelo://app?vid=d8b953f2-f14c-4c14-b2ea-95ebb57b2730"},"vehicle_type_id":"4","last_reported":1733964656,"current_range_meters":24400,"station_id":"ce4bho92rcd13ifvqh3g","pricing_plan_id":"cebpf4jnsgd1na2vs0mg"},{"bike_id":"96bf4cb0-2c8e-4663-a88b-30b55c3084dc","system_id":"levelo_inurba_marseille","lat":43.25579,"lon":5.38235,"is_reserved":false,"is_disabled":false,"rental_uris":{"android":"levelo://app?vid=96bf4cb0-2c8e-4663-a88b-30b55c3084dc","ios":"levelo://app?vid=96bf4cb0-2c8e-4663-a88b-30b55c3084dc"},"vehicle_type_id":"4","last_reported":1733964656,"current_range_meters":36800,"station_id":"ce4bhih2rcd13ifvqfs0","pricing_plan_id":"cebpf4jnsgd1na2vs0mg"},{"bike_id":"e3f5cbcc-c0d9-4ed4-96fa-131656aa7cf7","system_id":"levelo_inurba_marseille","lat":43.29566,"lon":5.37518,"is_reserved":false,"is_disabled":true,"rental_uris":{"android":"levelo://app?vid=e3f5cbcc-c0d9-4ed4-96fa-131656aa7cf7","ios":"levelo://app?vid=e3f5cbcc-c0d9-4ed4-96fa-131656aa7cf7"},"vehicle_type_id":"4","last_reported":1733964656,"current_range_meters":0,"station_id":"ce4bgh92rcd13ifvqb50","pricing_plan_id":"cebpf4jnsgd1na2vs0mg"},{"bike_id":"fb5fbe2a-8677-41b7-82a4-a25b969343e9","system_id":"levelo_inurba_marseille","lat":43.30591,"lon":5.37216,"is_reserved":false,"is_disabled":false,"rental_uris":{"android":"levelo://app?vid=fb5fbe2a-8677-41b7-82a4-a25b969343e9","ios":"levelo://app?vid=fb5fbe2a-8677-41b7-82a4-a25b969343e9"},"vehicle_type_id":"4","last_reported":1733964656,"current_range_meters":16800,"station_id":"ce4bgqh2rcd13ifvqc4g","pricing_plan_id":"cebpf4jnsgd1na2vs0mg"},{"bike_id":"24e2d508-70c2-4d6f-a1fa-b3d33bf6422f","system_id":"levelo_inurba_marseille","lat":43.29044,"lon":5.35914,"is_reserved":false,"is_disabled":false,"rental_uris":{"android":"levelo://app?vid=24e2d508-70c2-4d6f-a1fa-b3d33bf6422f","ios":"levelo://app?vid=24e2d508-70c2-4d6f-a1fa-b3d33bf6422f"},"vehicle_type_id":"4","last_reported":1733964656,"current_range_meters":19200,"station_id":"ce4bha92rcd13ifvqeg0","pricing_plan_id":"cebpf4jnsgd1na2vs0mg"},{"bike_id":"af77a2c4-4f01-4eac-8bd5-698508bacd7c","system_id":"levelo_inurba_marseille","lat":43.27181,"lon":5.40996,"is_reserved":false,"is_disabled":false,"rental_uris":{"android":"levelo://app?vid=af77a2c4-4f01-4eac-8bd5-698508bacd7c","ios":"levelo://app?vid=af77a2c4-4f01-4eac-8bd5-698508bacd7c"},"vehicle_type_id":"4","last_reported":1733964656,"current_range_meters":22000,"station_id":"ce4bhl12rcd13ifvqgf0","pricing_plan_id":"cebpf4jnsgd1na2vs0mg"},{"bike_id":"e2a77f5d-1d63-4243-bf72-8b9ec30686b1","system_id":"levelo_inurba_marseille","lat":43.287111,"lon":5.379396,"is_reserved":false,"is_disabled":true,"rental_uris":{"android":"levelo://app?vid=e2a77f5d-1d63-4243-bf72-8b9ec30686b1","ios":"levelo://app?vid=e2a77f5d-1d63-4243-bf72-8b9ec30686b1"},"vehicle_type_id":"4","last_reported":1733964656,"current_range_meters":32400,"station_id":"ce4bh9p2rcd13ifvqec0","pricing_plan_id":"cebpf4jnsgd1na2vs0mg"},{"bike_id":"20abf19b-fa18-4d3d-a838-c819b9493d23","system_id":"levelo_inurba_marseille","lat":43.26704,"lon":5.38228,"is_reserved":false,"is_disabled":false,"rental_uris":{"android":"levelo://app?vid=20abf19b-fa18-4d3d-a838-c819b9493d23","ios":"levelo://app?vid=20abf19b-fa18-4d3d-a838-c819b9493d23"},"vehicle_type_id":"4","last_reported":1733964656,"current_range_meters":37600,"station_id":"ce4bhg92rcd13ifvqf90","pricing_plan_id":"cebpf4jnsgd1na2vs0mg"},{"bike_id":"4fe61e0f-8ed6-4060-bc3c-90ef006f64b6","system_id":"levelo_inurba_marseille","lat":43.30137,"lon":5.38772,"is_reserved":false,"is_disabled":true,"rental_uris":{"android":"levelo://app?vid=4fe61e0f-8ed6-4060-bc3c-90ef006f64b6","ios":"levelo://app?vid=4fe61e0f-8ed6-4060-bc3c-90ef006f64b6"},"vehicle_type_id":"4","last_reported":1733964656,"current_range_meters":0,"station_id":"ce4bghh2rcd13ifvqb60","pricing_plan_id":"cebpf4jnsgd1na2vs0mg"},{"bike_id":"9c369d08-d269-4791-906c-d00945526349","system_id":"levelo_inurba_marseille","lat":43.30319,"lon":5.40439,"is_reserved":false,"is_disabled":false,"rental_uris":{"android":"levelo://app?vid=9c369d08-d269-4791-906c-d00945526349","ios":"levelo://app?vid=9c369d08-d269-4791-906c-d00945526349"},"vehicle_type_id":"4","last_reported":1733964656,"current_range_meters":26000,"station_id":"ce4bh012rcd13ifvqd10","pricing_plan_id":"cebpf4jnsgd1na2vs0mg"},{"bike_id":"719781ef-4cbd-4631-965b-6343c9720e99","system_id":"levelo_inurba_marseille","lat":43.32369,"lon":5.38881,"is_reserved":false,"is_disabled":false,"rental_uris":{"android":"levelo://app?vid=719781ef-4cbd-4631-965b-6343c9720e99","ios":"levelo://app?vid=719781ef-4cbd-4631-965b-6343c9720e99"},"vehicle_type_id":"4","last_reported":1733964656,"current_range_meters":38800,"station_id":"ce4bhqp2rcd13ifvqhog","pricing_plan_id":"cebpf4jnsgd1na2vs0mg"},{"bike_id":"d3cf3087-7271-43c4-b488-d550de5ac948","system_id":"levelo_inurba_marseille","lat":43.28568,"lon":5.39498,"is_reserved":false,"is_disabled":false,"rental_uris":{"android":"levelo://app?vid=d3cf3087-7271-43c4-b488-d550de5ac948","ios":"levelo://app?vid=d3cf3087-7271-43c4-b488-d550de5ac948"},"vehicle_type_id":"4","last_reported":1733964656,"current_range_meters":39200,"station_id":"ce4bh292rcd13ifvqdg0","pricing_plan_id":"cebpf4jnsgd1na2vs0mg"},{"bike_id":"774e3e4e-9dca-4553-b7c2-8757073b0d7d","system_id":"levelo_inurba_marseille","lat":43.28102,"lon":5.37844,"is_reserved":false,"is_disabled":false,"rental_uris":{"android":"levelo://app?vid=774e3e4e-9dca-4553-b7c2-8757073b0d7d","ios":"levelo://app?vid=774e3e4e-9dca-4553-b7c2-8757073b0d7d"},"vehicle_type_id":"4","last_reported":1733964656,"current_range_meters":30000,"station_id":"ce4bha12rcd13ifvqee0","pricing_plan_id":"cebpf4jnsgd1na2vs0mg"},{"bike_id":"a66c4b95-337e-4b9a-950c-e8c8d8e7a3a1","system_id":"levelo_inurba_marseille","lat":43.324799,"lon":5.365716,"is_reserved":false,"is_disabled":true,"rental_uris":{"android":"levelo://app?vid=a66c4b95-337e-4b9a-950c-e8c8d8e7a3a1","ios":"levelo://app?vid=a66c4b95-337e-4b9a-950c-e8c8d8e7a3a1"},"vehicle_type_id":"4","last_reported":1733964656,"current_range_meters":0,"station_id":"","pricing_plan_id":"cebpf4jnsgd1na2vs0mg"},{"bike_id":"3e8bc289-f7e7-4a8a-a3f2-64a9bcfa1cf2","system_id":"levelo_inurba_marseille","lat":43.33646,"lon":5.41031,"is_reserved":false,"is_disabled":false,"rental_uris":{"android":"levelo://app?vid=3e8bc289-f7e7-4a8a-a3f2-64a9bcfa1cf2","ios":"levelo://app?vid=3e8bc289-f7e7-4a8a-a3f2-64a9bcfa1cf2"},"vehicle_type_id":"4","last_reported":1733964656,"current_range_meters":28400,"station_id":"ce4bhqh2rcd13ifvqhmg","pricing_plan_id":"cebpf4jnsgd1na2vs0mg"},{"bike_id":"fd68a44b-d7e7-4ac9-9f93-63b59e3318d2","system_id":"levelo_inurba_marseille","lat":43.33718,"lon":5.39181,"is_reserved":false,"is_disabled":false,"rental_uris":{"android":"levelo://app?vid=fd68a44b-d7e7-4ac9-9f93-63b59e3318d2","ios":"levelo://app?vid=fd68a44b-d7e7-4ac9-9f93-63b59e3318d2"},"vehicle_type_id":"4","last_reported":1733964656,"current_range_meters":38800,"station_id":"ce4bhr92rcd13ifvqhsg","pricing_plan_id":"cebpf4jnsgd1na2vs0mg"},{"bike_id":"321fd520-305a-4bff-ae40-2c4ccb7ccf74","system_id":"levelo_inurba_marseille","lat":43.29018,"lon":5.3815,"is_reserved":false,"is_disabled":true,"rental_uris":{"android":"levelo://app?vid=321fd520-305a-4bff-ae40-2c4ccb7ccf74","ios":"levelo://app?vid=321fd520-305a-4bff-ae40-2c4ccb7ccf74"},"vehicle_type_id":"4","last_reported":1733964656,"current_range_meters":38000,"station_id":"ce4bh4p2rcd13ifvqe1g","pricing_plan_id":"cebpf4jnsgd1na2vs0mg"},{"bike_id":"1c20bdf0-4020-4d0f-855f-4b0572e97a4b","system_id":"levelo_inurba_marseille","lat":43.31222,"lon":5.38753,"is_reserved":false,"is_disabled":false,"rental_uris":{"android":"levelo://app?vid=1c20bdf0-4020-4d0f-855f-4b0572e97a4b","ios":"levelo://app?vid=1c20bdf0-4020-4d0f-855f-4b0572e97a4b"},"vehicle_type_id":"4","last_reported":1733964656,"current_range_meters":20000,"station_id":"ce4bgv12rcd13ifvqcp0","pricing_plan_id":"cebpf4jnsgd1na2vs0mg"},{"bike_id":"75bc53cd-099d-4532-9fce-83fc33d36897","system_id":"levelo_inurba_marseille","lat":43.24073,"lon":5.37802,"is_reserved":false,"is_disabled":false,"rental_uris":{"android":"levelo://app?vid=75bc53cd-099d-4532-9fce-83fc33d36897","ios":"levelo://app?vid=75bc53cd-099d-4532-9fce-83fc33d36897"},"vehicle_type_id":"4","last_reported":1733964656,"current_range_meters":14800,"station_id":"ce4bhnp2rcd13ifvqgvg","pricing_plan_id":"cebpf4jnsgd1na2vs0mg"},{"bike_id":"36c22a16-66d2-4f78-a6c0-ae41b756b49e","system_id":"levelo_inurba_marseille","lat":43.30942,"lon":5.39022,"is_reserved":false,"is_disabled":true,"rental_uris":{"android":"levelo://app?vid=36c22a16-66d2-4f78-a6c0-ae41b756b49e","ios":"levelo://app?vid=36c22a16-66d2-4f78-a6c0-ae41b756b49e"},"vehicle_type_id":"4","last_reported":1733964656,"current_range_meters":39200,"station_id":"ce4bgup2rcd13ifvqco0","pricing_plan_id":"cebpf4jnsgd1na2vs0mg"},{"bike_id":"01892d6f-65be-4f07-9b12-d0551c6a9a27","system_id":"levelo_inurba_marseille","lat":43.28708,"lon":5.37926,"is_reserved":false,"is_disabled":false,"rental_uris":{"android":"levelo://app?vid=01892d6f-65be-4f07-9b12-d0551c6a9a27","ios":"levelo://app?vid=01892d6f-65be-4f07-9b12-d0551c6a9a27"},"vehicle_type_id":"4","last_reported":1733964656,"current_range_meters":26000,"station_id":"ce4bh9p2rcd13ifvqec0","pricing_plan_id":"cebpf4jnsgd1na2vs0mg"},{"bike_id":"2175ae3c-739a-49a6-8b88-c695a996a497","system_id":"levelo_inurba_marseille","lat":43.24085,"lon":5.37755,"is_reserved":false,"is_disabled":true,"rental_uris":{"android":"levelo://app?vid=2175ae3c-739a-49a6-8b88-c695a996a497","ios":"levelo://app?vid=2175ae3c-739a-49a6-8b88-c695a996a497"},"vehicle_type_id":"4","last_reported":1733964656,"current_range_meters":34000,"station_id":"ce4bhnp2rcd13ifvqgvg","pricing_plan_id":"cebpf4jnsgd1na2vs0mg"},{"bike_id":"30b10b05-0727-4744-bd9d-dfe00d58e615","system_id":"levelo_inurba_marseille","lat":43.28718,"lon":5.39995,"is_reserved":false,"is_disabled":false,"rental_uris":{"android":"levelo://app?vid=30b10b05-0727-4744-bd9d-dfe00d58e615","ios":"levelo://app?vid=30b10b05-0727-4744-bd9d-dfe00d58e615"},"vehicle_type_id":"4","last_reported":1733964656,"current_range_meters":8400,"station_id":"ce4bho92rcd13ifvqh3g","pricing_plan_id":"cebpf4jnsgd1na2vs0mg"},{"bike_id":"8934cfd7-7a30-4578-9b27-97502688e616","system_id":"levelo_inurba_marseille","lat":43.32654,"lon":5.40985,"is_reserved":false,"is_disabled":false,"rental_uris":{"android":"levelo://app?vid=8934cfd7-7a30-4578-9b27-97502688e616","ios":"levelo://app?vid=8934cfd7-7a30-4578-9b27-97502688e616"},"vehicle_type_id":"4","last_reported":1733964656,"current_range_meters":38400,"station_id":"ce4bhpp2rcd13ifvqhgg","pricing_plan_id":"cebpf4jnsgd1na2vs0mg"},{"bike_id":"bbcff5ca-4212-4f97-ad4e-cc9f02df715c","system_id":"levelo_inurba_marseille","lat":43.23189,"lon":5.39987,"is_reserved":false,"is_disabled":false,"rental_uris":{"android":"levelo://app?vid=bbcff5ca-4212-4f97-ad4e-cc9f02df715c","ios":"levelo://app?vid=bbcff5ca-4212-4f97-ad4e-cc9f02df715c"},"vehicle_type_id":"4","last_reported":1733964656,"current_range_meters":38800,"station_id":"ce4bhn12rcd13ifvqgqg","pricing_plan_id":"cebpf4jnsgd1na2vs0mg"},{"bike_id":"024cb6ed-8905-461f-90e9-7b3f966b01d2","system_id":"levelo_inurba_marseille","lat":43.3127,"lon":5.40162,"is_reserved":false,"is_disabled":false,"rental_uris":{"android":"levelo://app?vid=024cb6ed-8905-461f-90e9-7b3f966b01d2","ios":"levelo://app?vid=024cb6ed-8905-461f-90e9-7b3f966b01d2"},"vehicle_type_id":"4","last_reported":1733964656,"current_range_meters":38400,"station_id":"ce4bh092rcd13ifvqd30","pricing_plan_id":"cebpf4jnsgd1na2vs0mg"},{"bike_id":"4da1084a-1985-4c35-a89f-61c7c892e3ad","system_id":"levelo_inurba_marseille","lat":43.2809,"lon":5.37858,"is_reserved":false,"is_disabled":false,"rental_uris":{"android":"levelo://app?vid=4da1084a-1985-4c35-a89f-61c7c892e3ad","ios":"levelo://app?vid=4da1084a-1985-4c35-a89f-61c7c892e3ad"},"vehicle_type_id":"4","last_reported":1733964656,"current_range_meters":23200,"station_id":"ce4bha12rcd13ifvqee0","pricing_plan_id":"cebpf4jnsgd1na2vs0mg"},{"bike_id":"94d24d12-981d-4c28-b9a7-c4bd686eb9f2","system_id":"levelo_inurba_marseille","lat":43.25733,"lon":5.41118,"is_reserved":false,"is_disabled":false,"rental_uris":{"android":"levelo://app?vid=94d24d12-981d-4c28-b9a7-c4bd686eb9f2","ios":"levelo://app?vid=94d24d12-981d-4c28-b9a7-c4bd686eb9f2"},"vehicle_type_id":"4","last_reported":1733964656,"current_range_meters":38800,"station_id":"ce4bhkp2rcd13ifvqgd0","pricing_plan_id":"cebpf4jnsgd1na2vs0mg"},{"bike_id":"d036b19e-8df6-4187-a6d9-9a0849ac833c","system_id":"levelo_inurba_marseille","lat":43.28005,"lon":5.41658,"is_reserved":false,"is_disabled":false,"rental_uris":{"android":"levelo://app?vid=d036b19e-8df6-4187-a6d9-9a0849ac833c","ios":"levelo://app?vid=d036b19e-8df6-4187-a6d9-9a0849ac833c"},"vehicle_type_id":"4","last_reported":1733964656,"current_range_meters":28000,"station_id":"ce4bho12rcd13ifvqh1g","pricing_plan_id":"cebpf4jnsgd1na2vs0mg"},{"bike_id":"62dc3d6f-14e9-4572-8025-9eaf9b53e0fb","system_id":"levelo_inurba_marseille","lat":43.28608,"lon":5.37062,"is_reserved":false,"is_disabled":false,"rental_uris":{"android":"levelo://app?vid=62dc3d6f-14e9-4572-8025-9eaf9b53e0fb","ios":"levelo://app?vid=62dc3d6f-14e9-4572-8025-9eaf9b53e0fb"},"vehicle_type_id":"4","last_reported":1733964656,"current_range_meters":38800,"station_id":"ce4bht12rcd13ifvqi60","pricing_plan_id":"cebpf4jnsgd1na2vs0mg"},{"bike_id":"a7f53bbb-ccf6-4480-bdbd-62551e7753c7","system_id":"levelo_inurba_marseille","lat":43.30442,"lon":5.38916,"is_reserved":false,"is_disabled":false,"rental_uris":{"android":"levelo://app?vid=a7f53bbb-ccf6-4480-bdbd-62551e7753c7","ios":"levelo://app?vid=a7f53bbb-ccf6-4480-bdbd-62551e7753c7"},"vehicle_type_id":"4","last_reported":1733964656,"current_range_meters":28400,"station_id":"ce4bgk12rcd13ifvqbi0","pricing_plan_id":"cebpf4jnsgd1na2vs0mg"},{"bike_id":"6ce0bc6a-f090-41e7-a895-4b31e4cde588","system_id":"levelo_inurba_marseille","lat":43.312573,"lon":5.40182,"is_reserved":false,"is_disabled":false,"rental_uris":{"android":"levelo://app?vid=6ce0bc6a-f090-41e7-a895-4b31e4cde588","ios":"levelo://app?vid=6ce0bc6a-f090-41e7-a895-4b31e4cde588"},"vehicle_type_id":"4","last_reported":1733964656,"current_range_meters":28800,"station_id":"ce4bh092rcd13ifvqd30","pricing_plan_id":"cebpf4jnsgd1na2vs0mg"},{"bike_id":"01a9ccc3-a625-4eee-b6cd-9dc053cb5ca0","system_id":"levelo_inurba_marseille","lat":43.28701,"lon":5.40029,"is_reserved":false,"is_disabled":false,"rental_uris":{"android":"levelo://app?vid=01a9ccc3-a625-4eee-b6cd-9dc053cb5ca0","ios":"levelo://app?vid=01a9ccc3-a625-4eee-b6cd-9dc053cb5ca0"},"vehicle_type_id":"4","last_reported":1733964656,"current_range_meters":29600,"station_id":"ce4bho92rcd13ifvqh3g","pricing_plan_id":"cebpf4jnsgd1na2vs0mg"},{"bike_id":"ab1c6a12-19ac-4afb-af5f-776c48efacd2","system_id":"levelo_inurba_marseille","lat":43.23193,"lon":5.35563,"is_reserved":false,"is_disabled":false,"rental_uris":{"android":"levelo://app?vid=ab1c6a12-19ac-4afb-af5f-776c48efacd2","ios":"levelo://app?vid=ab1c6a12-19ac-4afb-af5f-776c48efacd2"},"vehicle_type_id":"4","last_reported":1733964656,"current_range_meters":18000,"station_id":"ce4bhu92rcd13ifvqi70","pricing_plan_id":"cebpf4jnsgd1na2vs0mg"},{"bike_id":"ac09602b-8f45-470a-ac00-2f9a5e15457c","system_id":"levelo_inurba_marseille","lat":43.34139,"lon":5.40905,"is_reserved":false,"is_disabled":false,"rental_uris":{"android":"levelo://app?vid=ac09602b-8f45-470a-ac00-2f9a5e15457c","ios":"levelo://app?vid=ac09602b-8f45-470a-ac00-2f9a5e15457c"},"vehicle_type_id":"4","last_reported":1733964656,"current_range_meters":38000,"station_id":"ce4bhqh2rcd13ifvqhlg","pricing_plan_id":"cebpf4jnsgd1na2vs0mg"},{"bike_id":"d04735ce-ff35-4de8-964b-9e0752c67a51","system_id":"levelo_inurba_marseille","lat":43.2573,"lon":5.41107,"is_reserved":false,"is_disabled":false,"rental_uris":{"android":"levelo://app?vid=d04735ce-ff35-4de8-964b-9e0752c67a51","ios":"levelo://app?vid=d04735ce-ff35-4de8-964b-9e0752c67a51"},"vehicle_type_id":"4","last_reported":1733964656,"current_range_meters":24800,"station_id":"ce4bhkp2rcd13ifvqgd0","pricing_plan_id":"cebpf4jnsgd1na2vs0mg"},{"bike_id":"034afd89-7884-46aa-947a-c5f301e52728","system_id":"levelo_inurba_marseille","lat":43.30885,"lon":5.39626,"is_reserved":false,"is_disabled":true,"rental_uris":{"android":"levelo://app?vid=034afd89-7884-46aa-947a-c5f301e52728","ios":"levelo://app?vid=034afd89-7884-46aa-947a-c5f301e52728"},"vehicle_type_id":"4","last_reported":1733964656,"current_range_meters":20800,"station_id":"ce4bh012rcd13ifvqcv0","pricing_plan_id":"cebpf4jnsgd1na2vs0mg"},{"bike_id":"2834884c-f0f4-4ce3-a7e8-0cc515ed9af5","system_id":"levelo_inurba_marseille","lat":43.2549,"lon":5.37644,"is_reserved":false,"is_disabled":false,"rental_uris":{"android":"levelo://app?vid=2834884c-f0f4-4ce3-a7e8-0cc515ed9af5","ios":"levelo://app?vid=2834884c-f0f4-4ce3-a7e8-0cc515ed9af5"},"vehicle_type_id":"4","last_reported":1733964656,"current_range_meters":38000,"station_id":"ce4bhh12rcd13ifvqff0","pricing_plan_id":"cebpf4jnsgd1na2vs0mg"},{"bike_id":"ed9491a5-825a-48d5-9796-906879c98844","system_id":"levelo_inurba_marseille","lat":43.290373,"lon":5.399662,"is_reserved":false,"is_disabled":true,"rental_uris":{"android":"levelo://app?vid=ed9491a5-825a-48d5-9796-906879c98844","ios":"levelo://app?vid=ed9491a5-825a-48d5-9796-906879c98844"},"vehicle_type_id":"4","last_reported":1733964656,"current_range_meters":0,"station_id":"ce4bh392rcd13ifvqdm0","pricing_plan_id":"cebpf4jnsgd1na2vs0mg"},{"bike_id":"63128977-3866-4d15-8716-1acea914ac16","system_id":"levelo_inurba_marseille","lat":43.33478,"lon":5.41036,"is_reserved":false,"is_disabled":false,"rental_uris":{"android":"levelo://app?vid=63128977-3866-4d15-8716-1acea914ac16","ios":"levelo://app?vid=63128977-3866-4d15-8716-1acea914ac16"},"vehicle_type_id":"4","last_reported":1733964656,"current_range_meters":8000,"station_id":"","pricing_plan_id":"cebpf4jnsgd1na2vs0mg"},{"bike_id":"ef9c5f0a-5bc9-4c23-bd0f-ba27102c93b5","system_id":"levelo_inurba_marseille","lat":43.30431,"lon":5.38901,"is_reserved":false,"is_disabled":false,"rental_uris":{"android":"levelo://app?vid=ef9c5f0a-5bc9-4c23-bd0f-ba27102c93b5","ios":"levelo://app?vid=ef9c5f0a-5bc9-4c23-bd0f-ba27102c93b5"},"vehicle_type_id":"4","last_reported":1733964656,"current_range_meters":38800,"station_id":"ce4bgk12rcd13ifvqbi0","pricing_plan_id":"cebpf4jnsgd1na2vs0mg"},{"bike_id":"3125d0ae-884f-4a3e-823a-ed0e3cad176b","system_id":"levelo_inurba_marseille","lat":43.24388,"lon":5.3706,"is_reserved":false,"is_disabled":false,"rental_uris":{"android":"levelo://app?vid=3125d0ae-884f-4a3e-823a-ed0e3cad176b","ios":"levelo://app?vid=3125d0ae-884f-4a3e-823a-ed0e3cad176b"},"vehicle_type_id":"4","last_reported":1733964656,"current_range_meters":36800,"station_id":"ce4bhhh2rcd13ifvqfk0","pricing_plan_id":"cebpf4jnsgd1na2vs0mg"},{"bike_id":"ba5ab117-891f-4313-9f5f-feac44e18e28","system_id":"levelo_inurba_marseille","lat":43.30418,"lon":5.38885,"is_reserved":false,"is_disabled":false,"rental_uris":{"android":"levelo://app?vid=ba5ab117-891f-4313-9f5f-feac44e18e28","ios":"levelo://app?vid=ba5ab117-891f-4313-9f5f-feac44e18e28"},"vehicle_type_id":"4","last_reported":1733964656,"current_range_meters":37600,"station_id":"ce4bgk12rcd13ifvqbi0","pricing_plan_id":"cebpf4jnsgd1na2vs0mg"},{"bike_id":"1b9459f5-dcc2-4e43-84c1-999b14f8e0bb","system_id":"levelo_inurba_marseille","lat":43.25578,"lon":5.3822,"is_reserved":false,"is_disabled":false,"rental_uris":{"android":"levelo://app?vid=1b9459f5-dcc2-4e43-84c1-999b14f8e0bb","ios":"levelo://app?vid=1b9459f5-dcc2-4e43-84c1-999b14f8e0bb"},"vehicle_type_id":"4","last_reported":1733964656,"current_range_meters":16800,"station_id":"ce4bhih2rcd13ifvqfs0","pricing_plan_id":"cebpf4jnsgd1na2vs0mg"},{"bike_id":"83a5e861-8381-4dcd-8908-0469d605e9e7","system_id":"levelo_inurba_marseille","lat":43.28657,"lon":5.36357,"is_reserved":false,"is_disabled":false,"rental_uris":{"android":"levelo://app?vid=83a5e861-8381-4dcd-8908-0469d605e9e7","ios":"levelo://app?vid=83a5e861-8381-4dcd-8908-0469d605e9e7"},"vehicle_type_id":"4","last_reported":1733964656,"current_range_meters":38800,"station_id":"ce4bhah2rcd13ifvqej0","pricing_plan_id":"cebpf4jnsgd1na2vs0mg"},{"bike_id":"df063bd4-f815-47f5-aa4b-21b60e1c746b","system_id":"levelo_inurba_marseille","lat":43.29257,"lon":5.40159,"is_reserved":false,"is_disabled":false,"rental_uris":{"android":"levelo://app?vid=df063bd4-f815-47f5-aa4b-21b60e1c746b","ios":"levelo://app?vid=df063bd4-f815-47f5-aa4b-21b60e1c746b"},"vehicle_type_id":"4","last_reported":1733964656,"current_range_meters":16400,"station_id":"ce4bh312rcd13ifvqdk0","pricing_plan_id":"cebpf4jnsgd1na2vs0mg"},{"bike_id":"cdca900c-5d4e-42ea-b5d2-19e8d7b52456","system_id":"levelo_inurba_marseille","lat":43.28106,"lon":5.37839,"is_reserved":false,"is_disabled":false,"rental_uris":{"android":"levelo://app?vid=cdca900c-5d4e-42ea-b5d2-19e8d7b52456","ios":"levelo://app?vid=cdca900c-5d4e-42ea-b5d2-19e8d7b52456"},"vehicle_type_id":"4","last_reported":1733964656,"current_range_meters":38800,"station_id":"ce4bha12rcd13ifvqee0","pricing_plan_id":"cebpf4jnsgd1na2vs0mg"},{"bike_id":"e8fb8f0f-fc51-4928-929a-76364f1920ab","system_id":"levelo_inurba_marseille","lat":43.28703,"lon":5.40029,"is_reserved":false,"is_disabled":false,"rental_uris":{"android":"levelo://app?vid=e8fb8f0f-fc51-4928-929a-76364f1920ab","ios":"levelo://app?vid=e8fb8f0f-fc51-4928-929a-76364f1920ab"},"vehicle_type_id":"4","last_reported":1733964656,"current_range_meters":38800,"station_id":"ce4bho92rcd13ifvqh3g","pricing_plan_id":"cebpf4jnsgd1na2vs0mg"},{"bike_id":"a3c767c7-64e0-4790-9c34-0bb19a690a43","system_id":"levelo_inurba_marseille","lat":43.26498,"lon":5.39548,"is_reserved":false,"is_disabled":false,"rental_uris":{"android":"levelo://app?vid=a3c767c7-64e0-4790-9c34-0bb19a690a43","ios":"levelo://app?vid=a3c767c7-64e0-4790-9c34-0bb19a690a43"},"vehicle_type_id":"4","last_reported":1733964656,"current_range_meters":18000,"station_id":"ce4bhi12rcd13ifvqfq0","pricing_plan_id":"cebpf4jnsgd1na2vs0mg"},{"bike_id":"1ac9278a-3e01-4769-b034-ba34b3377894","system_id":"levelo_inurba_marseille","lat":43.30923,"lon":5.40171,"is_reserved":false,"is_disabled":false,"rental_uris":{"android":"levelo://app?vid=1ac9278a-3e01-4769-b034-ba34b3377894","ios":"levelo://app?vid=1ac9278a-3e01-4769-b034-ba34b3377894"},"vehicle_type_id":"4","last_reported":1733964656,"current_range_meters":19200,"station_id":"ce4bgvp2rcd13ifvqct0","pricing_plan_id":"cebpf4jnsgd1na2vs0mg"},{"bike_id":"ee0186ce-5ee6-443a-aa7c-853a1e294ff2","system_id":"levelo_inurba_marseille","lat":43.29614,"lon":5.37708,"is_reserved":false,"is_disabled":true,"rental_uris":{"android":"levelo://app?vid=ee0186ce-5ee6-443a-aa7c-853a1e294ff2","ios":"levelo://app?vid=ee0186ce-5ee6-443a-aa7c-853a1e294ff2"},"vehicle_type_id":"4","last_reported":1733964656,"current_range_meters":8000,"station_id":"ce4bgi92rcd13ifvqb90","pricing_plan_id":"cebpf4jnsgd1na2vs0mg"},{"bike_id":"3d3cc1fc-0629-437a-a117-76049fee6dbb","system_id":"levelo_inurba_marseille","lat":43.3234,"lon":5.4061,"is_reserved":false,"is_disabled":false,"rental_uris":{"android":"levelo://app?vid=3d3cc1fc-0629-437a-a117-76049fee6dbb","ios":"levelo://app?vid=3d3cc1fc-0629-437a-a117-76049fee6dbb"},"vehicle_type_id":"4","last_reported":1733964656,"current_range_meters":38800,"station_id":"ce4bhq92rcd13ifvqhjg","pricing_plan_id":"cebpf4jnsgd1na2vs0mg"},{"bike_id":"bd406df6-67f1-4ad4-be41-d9f71197ce38","system_id":"levelo_inurba_marseille","lat":43.28919,"lon":5.38385,"is_reserved":false,"is_disabled":false,"rental_uris":{"android":"levelo://app?vid=bd406df6-67f1-4ad4-be41-d9f71197ce38","ios":"levelo://app?vid=bd406df6-67f1-4ad4-be41-d9f71197ce38"},"vehicle_type_id":"4","last_reported":1733964656,"current_range_meters":38000,"station_id":"ce4bh612rcd13ifvqe6g","pricing_plan_id":"cebpf4jnsgd1na2vs0mg"},{"bike_id":"6bdee74d-e5c2-42e5-a6fd-8f401afd7419","system_id":"levelo_inurba_marseille","lat":43.244,"lon":5.37064,"is_reserved":false,"is_disabled":false,"rental_uris":{"android":"levelo://app?vid=6bdee74d-e5c2-42e5-a6fd-8f401afd7419","ios":"levelo://app?vid=6bdee74d-e5c2-42e5-a6fd-8f401afd7419"},"vehicle_type_id":"4","last_reported":1733964656,"current_range_meters":11600,"station_id":"ce4bhhh2rcd13ifvqfk0","pricing_plan_id":"cebpf4jnsgd1na2vs0mg"},{"bike_id":"38c1f477-54b0-487d-9e9c-970db0f0bad4","system_id":"levelo_inurba_marseille","lat":43.25492,"lon":5.37647,"is_reserved":false,"is_disabled":true,"rental_uris":{"android":"levelo://app?vid=38c1f477-54b0-487d-9e9c-970db0f0bad4","ios":"levelo://app?vid=38c1f477-54b0-487d-9e9c-970db0f0bad4"},"vehicle_type_id":"4","last_reported":1733964656,"current_range_meters":0,"station_id":"ce4bhh12rcd13ifvqff0","pricing_plan_id":"cebpf4jnsgd1na2vs0mg"},{"bike_id":"6bdf579b-7880-46cb-8b72-768423e19e56","system_id":"levelo_inurba_marseille","lat":43.3087,"lon":5.39648,"is_reserved":false,"is_disabled":false,"rental_uris":{"android":"levelo://app?vid=6bdf579b-7880-46cb-8b72-768423e19e56","ios":"levelo://app?vid=6bdf579b-7880-46cb-8b72-768423e19e56"},"vehicle_type_id":"4","last_reported":1733964656,"current_range_meters":12400,"station_id":"ce4bh012rcd13ifvqcv0","pricing_plan_id":"cebpf4jnsgd1na2vs0mg"},{"bike_id":"aeee7448-02e6-45b0-b0ac-d55c99806503","system_id":"levelo_inurba_marseille","lat":43.25578,"lon":5.38228,"is_reserved":false,"is_disabled":true,"rental_uris":{"android":"levelo://app?vid=aeee7448-02e6-45b0-b0ac-d55c99806503","ios":"levelo://app?vid=aeee7448-02e6-45b0-b0ac-d55c99806503"},"vehicle_type_id":"4","last_reported":1733964656,"current_range_meters":4800,"station_id":"ce4bhih2rcd13ifvqfs0","pricing_plan_id":"cebpf4jnsgd1na2vs0mg"},{"bike_id":"aed8761d-d1b1-48ba-92b0-e6e4d35ad49f","system_id":"levelo_inurba_marseille","lat":43.2418,"lon":5.39729,"is_reserved":false,"is_disabled":false,"rental_uris":{"android":"levelo://app?vid=aed8761d-d1b1-48ba-92b0-e6e4d35ad49f","ios":"levelo://app?vid=aed8761d-d1b1-48ba-92b0-e6e4d35ad49f"},"vehicle_type_id":"4","last_reported":1733964656,"current_range_meters":37600,"station_id":"ce4bhn12rcd13ifvqgpg","pricing_plan_id":"cebpf4jnsgd1na2vs0mg"},{"bike_id":"fc434179-c2b4-4ef3-8bd2-18bf25c73820","system_id":"levelo_inurba_marseille","lat":43.31182,"lon":5.38708,"is_reserved":false,"is_disabled":false,"rental_uris":{"android":"levelo://app?vid=fc434179-c2b4-4ef3-8bd2-18bf25c73820","ios":"levelo://app?vid=fc434179-c2b4-4ef3-8bd2-18bf25c73820"},"vehicle_type_id":"4","last_reported":1733964656,"current_range_meters":37600,"station_id":"ce4bgv12rcd13ifvqcp0","pricing_plan_id":"cebpf4jnsgd1na2vs0mg"},{"bike_id":"e9b6a54e-7b0b-4590-8c3f-bc08afea0898","system_id":"levelo_inurba_marseille","lat":43.31488,"lon":5.37313,"is_reserved":false,"is_disabled":false,"rental_uris":{"android":"levelo://app?vid=e9b6a54e-7b0b-4590-8c3f-bc08afea0898","ios":"levelo://app?vid=e9b6a54e-7b0b-4590-8c3f-bc08afea0898"},"vehicle_type_id":"4","last_reported":1733964656,"current_range_meters":34800,"station_id":"ce4bgt12rcd13ifvqcd0","pricing_plan_id":"cebpf4jnsgd1na2vs0mg"},{"bike_id":"a7a382e6-d767-4051-b0ac-5310c609410c","system_id":"levelo_inurba_marseille","lat":43.25116,"lon":5.4032,"is_reserved":false,"is_disabled":false,"rental_uris":{"android":"levelo://app?vid=a7a382e6-d767-4051-b0ac-5310c609410c","ios":"levelo://app?vid=a7a382e6-d767-4051-b0ac-5310c609410c"},"vehicle_type_id":"4","last_reported":1733964656,"current_range_meters":38800,"station_id":"ce4bhlh2rcd13ifvqgig","pricing_plan_id":"cebpf4jnsgd1na2vs0mg"},{"bike_id":"b6fc7948-3572-4bbd-9bef-5e4be43c8661","system_id":"levelo_inurba_marseille","lat":43.28562,"lon":5.39511,"is_reserved":false,"is_disabled":false,"rental_uris":{"android":"levelo://app?vid=b6fc7948-3572-4bbd-9bef-5e4be43c8661","ios":"levelo://app?vid=b6fc7948-3572-4bbd-9bef-5e4be43c8661"},"vehicle_type_id":"4","last_reported":1733964656,"current_range_meters":35200,"station_id":"ce4bh292rcd13ifvqdg0","pricing_plan_id":"cebpf4jnsgd1na2vs0mg"},{"bike_id":"23c74843-ac34-4d55-ae3d-bd90fa93fff4","system_id":"levelo_inurba_marseille","lat":43.28241,"lon":5.35072,"is_reserved":false,"is_disabled":false,"rental_uris":{"android":"levelo://app?vid=23c74843-ac34-4d55-ae3d-bd90fa93fff4","ios":"levelo://app?vid=23c74843-ac34-4d55-ae3d-bd90fa93fff4"},"vehicle_type_id":"4","last_reported":1733964656,"current_range_meters":10000,"station_id":"ce4bhbp2rcd13ifvqerg","pricing_plan_id":"cebpf4jnsgd1na2vs0mg"},{"bike_id":"3b58220a-25f8-48eb-b647-f6f0ede5a9e3","system_id":"levelo_inurba_marseille","lat":43.28019,"lon":5.41741,"is_reserved":false,"is_disabled":false,"rental_uris":{"android":"levelo://app?vid=3b58220a-25f8-48eb-b647-f6f0ede5a9e3","ios":"levelo://app?vid=3b58220a-25f8-48eb-b647-f6f0ede5a9e3"},"vehicle_type_id":"4","last_reported":1733964656,"current_range_meters":24400,"station_id":"","pricing_plan_id":"cebpf4jnsgd1na2vs0mg"},{"bike_id":"64a6efea-3d8d-4a39-8e3f-d4afdd90970d","system_id":"levelo_inurba_marseille","lat":43.24804,"lon":5.37458,"is_reserved":false,"is_disabled":false,"rental_uris":{"android":"levelo://app?vid=64a6efea-3d8d-4a39-8e3f-d4afdd90970d","ios":"levelo://app?vid=64a6efea-3d8d-4a39-8e3f-d4afdd90970d"},"vehicle_type_id":"4","last_reported":1733964656,"current_range_meters":38800,"station_id":"ce4bhgh2rcd13ifvqfb0","pricing_plan_id":"cebpf4jnsgd1na2vs0mg"},{"bike_id":"467a8ed9-8f9d-4f9c-a7a2-b2a4bc21bd4a","system_id":"levelo_inurba_marseille","lat":43.24648,"lon":5.38913,"is_reserved":false,"is_disabled":false,"rental_uris":{"android":"levelo://app?vid=467a8ed9-8f9d-4f9c-a7a2-b2a4bc21bd4a","ios":"levelo://app?vid=467a8ed9-8f9d-4f9c-a7a2-b2a4bc21bd4a"},"vehicle_type_id":"4","last_reported":1733964656,"current_range_meters":37600,"station_id":"ce4bhg12rcd13ifvqf60","pricing_plan_id":"cebpf4jnsgd1na2vs0mg"},{"bike_id":"16492b5b-37d8-452f-8923-009b71c8397d","system_id":"levelo_inurba_marseille","lat":43.25579,"lon":5.38232,"is_reserved":false,"is_disabled":false,"rental_uris":{"android":"levelo://app?vid=16492b5b-37d8-452f-8923-009b71c8397d","ios":"levelo://app?vid=16492b5b-37d8-452f-8923-009b71c8397d"},"vehicle_type_id":"4","last_reported":1733964656,"current_range_meters":28400,"station_id":"ce4bhih2rcd13ifvqfs0","pricing_plan_id":"cebpf4jnsgd1na2vs0mg"},{"bike_id":"33099d93-ce10-45ff-bd7c-95104a3498a9","system_id":"levelo_inurba_marseille","lat":43.2799,"lon":5.4168,"is_reserved":false,"is_disabled":false,"rental_uris":{"android":"levelo://app?vid=33099d93-ce10-45ff-bd7c-95104a3498a9","ios":"levelo://app?vid=33099d93-ce10-45ff-bd7c-95104a3498a9"},"vehicle_type_id":"4","last_reported":1733964656,"current_range_meters":38000,"station_id":"ce4bho12rcd13ifvqh1g","pricing_plan_id":"cebpf4jnsgd1na2vs0mg"},{"bike_id":"4d9975b2-8caf-4dfe-9202-9f11fbd0b727","system_id":"levelo_inurba_marseille","lat":43.29522,"lon":5.37501,"is_reserved":false,"is_disabled":true,"rental_uris":{"android":"levelo://app?vid=4d9975b2-8caf-4dfe-9202-9f11fbd0b727","ios":"levelo://app?vid=4d9975b2-8caf-4dfe-9202-9f11fbd0b727"},"vehicle_type_id":"4","last_reported":1733964656,"current_range_meters":19200,"station_id":"ce4bgkp2rcd13ifvqbmg","pricing_plan_id":"cebpf4jnsgd1na2vs0mg"},{"bike_id":"a5589391-a7e4-412b-9a87-f917b2322580","system_id":"levelo_inurba_marseille","lat":43.23075,"lon":5.35477,"is_reserved":false,"is_disabled":false,"rental_uris":{"android":"levelo://app?vid=a5589391-a7e4-412b-9a87-f917b2322580","ios":"levelo://app?vid=a5589391-a7e4-412b-9a87-f917b2322580"},"vehicle_type_id":"4","last_reported":1733964656,"current_range_meters":19200,"station_id":"cpo3342slgdg3j2ifvpg","pricing_plan_id":"cebpf4jnsgd1na2vs0mg"},{"bike_id":"3e8e43ef-e426-4eb0-a4d7-3859a0f0b46a","system_id":"levelo_inurba_marseille","lat":43.27614,"lon":5.36111,"is_reserved":false,"is_disabled":false,"rental_uris":{"android":"levelo://app?vid=3e8e43ef-e426-4eb0-a4d7-3859a0f0b46a","ios":"levelo://app?vid=3e8e43ef-e426-4eb0-a4d7-3859a0f0b46a"},"vehicle_type_id":"4","last_reported":1733964656,"current_range_meters":6800,"station_id":"ce4bgj92rcd13ifvqbe0","pricing_plan_id":"cebpf4jnsgd1na2vs0mg"},{"bike_id":"9ec434bf-ed24-40e8-a1ba-464c29049ca6","system_id":"levelo_inurba_marseille","lat":43.31361,"lon":5.38496,"is_reserved":false,"is_disabled":false,"rental_uris":{"android":"levelo://app?vid=9ec434bf-ed24-40e8-a1ba-464c29049ca6","ios":"levelo://app?vid=9ec434bf-ed24-40e8-a1ba-464c29049ca6"},"vehicle_type_id":"4","last_reported":1733964656,"current_range_meters":30800,"station_id":"ce4bgt92rcd13ifvqcf0","pricing_plan_id":"cebpf4jnsgd1na2vs0mg"},{"bike_id":"5d45934d-d05c-4f24-8f37-3eea3f951ebe","system_id":"levelo_inurba_marseille","lat":43.30553,"lon":5.40471,"is_reserved":false,"is_disabled":false,"rental_uris":{"android":"levelo://app?vid=5d45934d-d05c-4f24-8f37-3eea3f951ebe","ios":"levelo://app?vid=5d45934d-d05c-4f24-8f37-3eea3f951ebe"},