{"last_updated":1777207245,"ttl":60,"version":"2.2","data":{"bikes":[{"bike_id":"78b08557-60ae-4ee0-8be4-e06537853457","system_id":"levelo_inurba_marseille","lat":43.26206,"lon":5.37916,"is_reserved":false,"is_disabled":false,"rental_uris":{"android":"levelo://app?vid=78b08557-60ae-4ee0-8be4-e06537853457","ios":"levelo://app?vid=78b08557-60ae-4ee0-8be4-e06537853457"},"vehicle_type_id":"4","last_reported":1777207245,"current_range_meters":2800,"station_id":"ce4bhjp2rcd13ifvqg90","pricing_plan_id":"cebpf4jnsgd1na2vs0mg"},{"bike_id":"13470a8b-d309-4980-ab91-84a07ea3c434","system_id":"levelo_inurba_marseille","lat":43.31051,"lon":5.39325,"is_reserved":false,"is_disabled":false,"rental_uris":{"android":"levelo://app?vid=13470a8b-d309-4980-ab91-84a07ea3c434","ios":"levelo://app?vid=13470a8b-d309-4980-ab91-84a07ea3c434"},"vehicle_type_id":"4","last_reported":1777207245,"current_range_meters":2800,"station_id":"","pricing_plan_id":"cebpf4jnsgd1na2vs0mg"},{"bike_id":"933fbca5-b9b0-42ec-b9b1-206fdc2e8dab","system_id":"levelo_inurba_marseille","lat":43.26956,"lon":5.38617,"is_reserved":false,"is_disabled":true,"rental_uris":{"android":"levelo://app?vid=933fbca5-b9b0-42ec-b9b1-206fdc2e8dab","ios":"levelo://app?vid=933fbca5-b9b0-42ec-b9b1-206fdc2e8dab"},"vehicle_type_id":"4","last_reported":1777207245,"current_range_meters":3200,"station_id":"ce4bhh92rcd13ifvqfh0","pricing_plan_id":"cebpf4jnsgd1na2vs0mg"},{"bike_id":"996a9c39-5488-4499-a6e5-712f03770299","system_id":"levelo_inurba_marseille","lat":43.28476,"lon":5.38433,"is_reserved":false,"is_disabled":false,"rental_uris":{"android":"levelo://app?vid=996a9c39-5488-4499-a6e5-712f03770299","ios":"levelo://app?vid=996a9c39-5488-4499-a6e5-712f03770299"},"vehicle_type_id":"4","last_reported":1777207245,"current_range_meters":3200,"station_id":"ce4bh512rcd13ifvqe3g","pricing_plan_id":"cebpf4jnsgd1na2vs0mg"},{"bike_id":"cf8cd335-0117-4153-885d-e437e3608410","system_id":"levelo_inurba_marseille","lat":43.29344,"lon":5.37845,"is_reserved":false,"is_disabled":false,"rental_uris":{"android":"levelo://app?vid=cf8cd335-0117-4153-885d-e437e3608410","ios":"levelo://app?vid=cf8cd335-0117-4153-885d-e437e3608410"},"vehicle_type_id":"4","last_reported":1777207245,"current_range_meters":3200,"station_id":"ce4bgjh2rcd13ifvqbf0","pricing_plan_id":"cebpf4jnsgd1na2vs0mg"},{"bike_id":"d1d5c7cf-8e64-4123-ad8a-ccd792fc4d10","system_id":"levelo_inurba_marseille","lat":43.29354,"lon":5.39866,"is_reserved":false,"is_disabled":false,"rental_uris":{"android":"levelo://app?vid=d1d5c7cf-8e64-4123-ad8a-ccd792fc4d10","ios":"levelo://app?vid=d1d5c7cf-8e64-4123-ad8a-ccd792fc4d10"},"vehicle_type_id":"4","last_reported":1777207245,"current_range_meters":3200,"station_id":"","pricing_plan_id":"cebpf4jnsgd1na2vs0mg"},{"bike_id":"b5429b18-fda0-40c0-b21b-82b0b9a7a558","system_id":"levelo_inurba_marseille","lat":43.28411,"lon":5.34992,"is_reserved":false,"is_disabled":false,"rental_uris":{"android":"levelo://app?vid=b5429b18-fda0-40c0-b21b-82b0b9a7a558","ios":"levelo://app?vid=b5429b18-fda0-40c0-b21b-82b0b9a7a558"},"vehicle_type_id":"4","last_reported":1777207245,"current_range_meters":3200,"station_id":"ce4bhbh2rcd13ifvqepg","pricing_plan_id":"cebpf4jnsgd1na2vs0mg"},{"bike_id":"9d2b1fdd-34a0-43c3-8d81-40d9384d7b18","system_id":"levelo_inurba_marseille","lat":43.23963,"lon":5.3663,"is_reserved":false,"is_disabled":false,"rental_uris":{"android":"levelo://app?vid=9d2b1fdd-34a0-43c3-8d81-40d9384d7b18","ios":"levelo://app?vid=9d2b1fdd-34a0-43c3-8d81-40d9384d7b18"},"vehicle_type_id":"4","last_reported":1777207245,"current_range_meters":3200,"station_id":"ce4bhi12rcd13ifvqfp0","pricing_plan_id":"cebpf4jnsgd1na2vs0mg"},{"bike_id":"9059f02d-804b-48f8-91d1-1e12e0aafd81","system_id":"levelo_inurba_marseille","lat":43.25503,"lon":5.37646,"is_reserved":false,"is_disabled":false,"rental_uris":{"android":"levelo://app?vid=9059f02d-804b-48f8-91d1-1e12e0aafd81","ios":"levelo://app?vid=9059f02d-804b-48f8-91d1-1e12e0aafd81"},"vehicle_type_id":"4","last_reported":1777207245,"current_range_meters":3600,"station_id":"ce4bhh12rcd13ifvqff0","pricing_plan_id":"cebpf4jnsgd1na2vs0mg"},{"bike_id":"06558e5b-846f-4e20-b375-c8972d75dc5a","system_id":"levelo_inurba_marseille","lat":43.27336,"lon":5.43102,"is_reserved":false,"is_disabled":false,"rental_uris":{"android":"levelo://app?vid=06558e5b-846f-4e20-b375-c8972d75dc5a","ios":"levelo://app?vid=06558e5b-846f-4e20-b375-c8972d75dc5a"},"vehicle_type_id":"4","last_reported":1777207245,"current_range_meters":3600,"station_id":"","pricing_plan_id":"cebpf4jnsgd1na2vs0mg"},{"bike_id":"40d69b45-a292-4d7d-b8e6-837b8b5a9d0c","system_id":"levelo_inurba_marseille","lat":43.28469,"lon":5.48396,"is_reserved":false,"is_disabled":false,"rental_uris":{"android":"levelo://app?vid=40d69b45-a292-4d7d-b8e6-837b8b5a9d0c","ios":"levelo://app?vid=40d69b45-a292-4d7d-b8e6-837b8b5a9d0c"},"vehicle_type_id":"4","last_reported":1777207245,"current_range_meters":3600,"station_id":"","pricing_plan_id":"cebpf4jnsgd1na2vs0mg"},{"bike_id":"2b904323-62af-4cab-9f73-9e319f329ae3","system_id":"levelo_inurba_marseille","lat":43.29573,"lon":5.37526,"is_reserved":false,"is_disabled":true,"rental_uris":{"android":"levelo://app?vid=2b904323-62af-4cab-9f73-9e319f329ae3","ios":"levelo://app?vid=2b904323-62af-4cab-9f73-9e319f329ae3"},"vehicle_type_id":"4","last_reported":1777207245,"current_range_meters":3600,"station_id":"ce4bgh92rcd13ifvqb50","pricing_plan_id":"cebpf4jnsgd1na2vs0mg"},{"bike_id":"21dede0f-3130-44eb-8b85-fa264898eb82","system_id":"levelo_inurba_marseille","lat":43.2901,"lon":5.35605,"is_reserved":false,"is_disabled":false,"rental_uris":{"android":"levelo://app?vid=21dede0f-3130-44eb-8b85-fa264898eb82","ios":"levelo://app?vid=21dede0f-3130-44eb-8b85-fa264898eb82"},"vehicle_type_id":"4","last_reported":1777207245,"current_range_meters":3600,"station_id":"ce4bhb92rcd13ifvqen0","pricing_plan_id":"cebpf4jnsgd1na2vs0mg"},{"bike_id":"541dbded-315f-4ca8-ac49-47fcb4294bb7","system_id":"levelo_inurba_marseille","lat":43.33532,"lon":5.37464,"is_reserved":false,"is_disabled":false,"rental_uris":{"android":"levelo://app?vid=541dbded-315f-4ca8-ac49-47fcb4294bb7","ios":"levelo://app?vid=541dbded-315f-4ca8-ac49-47fcb4294bb7"},"vehicle_type_id":"4","last_reported":1777207245,"current_range_meters":3600,"station_id":"st_d46tts09ee8s73dlu43g","pricing_plan_id":"cebpf4jnsgd1na2vs0mg"},{"bike_id":"2a0cab69-4d08-4a59-bcd2-7545b003da0a","system_id":"levelo_inurba_marseille","lat":43.26205,"lon":5.37441,"is_reserved":false,"is_disabled":false,"rental_uris":{"android":"levelo://app?vid=2a0cab69-4d08-4a59-bcd2-7545b003da0a","ios":"levelo://app?vid=2a0cab69-4d08-4a59-bcd2-7545b003da0a"},"vehicle_type_id":"4","last_reported":1777207245,"current_range_meters":3600,"station_id":"ce4bhgp2rcd13ifvqfc0","pricing_plan_id":"cebpf4jnsgd1na2vs0mg"},{"bike_id":"c1c0afb7-465b-402d-9073-7ca5b3bc2042","system_id":"levelo_inurba_marseille","lat":43.31692,"lon":5.40465,"is_reserved":false,"is_disabled":false,"rental_uris":{"android":"levelo://app?vid=c1c0afb7-465b-402d-9073-7ca5b3bc2042","ios":"levelo://app?vid=c1c0afb7-465b-402d-9073-7ca5b3bc2042"},"vehicle_type_id":"4","last_reported":1777207245,"current_range_meters":3600,"station_id":"ce4bh012rcd13ifvqd00","pricing_plan_id":"cebpf4jnsgd1na2vs0mg"},{"bike_id":"f6bd047c-bb98-404e-ad7d-4db2a51150d0","system_id":"levelo_inurba_marseille","lat":43.21188,"lon":5.35067,"is_reserved":false,"is_disabled":false,"rental_uris":{"android":"levelo://app?vid=f6bd047c-bb98-404e-ad7d-4db2a51150d0","ios":"levelo://app?vid=f6bd047c-bb98-404e-ad7d-4db2a51150d0"},"vehicle_type_id":"4","last_reported":1777207245,"current_range_meters":4000,"station_id":"st_cvj6sg6p6f1abm77japg","pricing_plan_id":"cebpf4jnsgd1na2vs0mg"},{"bike_id":"bf6fe4c5-19c2-40e6-8348-c19f0040b640","system_id":"levelo_inurba_marseille","lat":43.28711,"lon":5.39987,"is_reserved":false,"is_disabled":false,"rental_uris":{"android":"levelo://app?vid=bf6fe4c5-19c2-40e6-8348-c19f0040b640","ios":"levelo://app?vid=bf6fe4c5-19c2-40e6-8348-c19f0040b640"},"vehicle_type_id":"4","last_reported":1777207245,"current_range_meters":4000,"station_id":"ce4bho92rcd13ifvqh3g","pricing_plan_id":"cebpf4jnsgd1na2vs0mg"},{"bike_id":"e6321f91-04b7-4b15-ad0f-2d58077126c7","system_id":"levelo_inurba_marseille","lat":43.29883,"lon":5.42092,"is_reserved":false,"is_disabled":false,"rental_uris":{"android":"levelo://app?vid=e6321f91-04b7-4b15-ad0f-2d58077126c7","ios":"levelo://app?vid=e6321f91-04b7-4b15-ad0f-2d58077126c7"},"vehicle_type_id":"4","last_reported":1777207245,"current_range_meters":4000,"station_id":"st_d6tc004otcvc738tfe70","pricing_plan_id":"cebpf4jnsgd1na2vs0mg"},{"bike_id":"818a8e30-4e5d-4749-8dcb-32f02f8e40dc","system_id":"levelo_inurba_marseille","lat":43.3031,"lon":5.41854,"is_reserved":false,"is_disabled":false,"rental_uris":{"android":"levelo://app?vid=818a8e30-4e5d-4749-8dcb-32f02f8e40dc","ios":"levelo://app?vid=818a8e30-4e5d-4749-8dcb-32f02f8e40dc"},"vehicle_type_id":"4","last_reported":1777207245,"current_range_meters":4000,"station_id":"ce4bhop2rcd13ifvqh7g","pricing_plan_id":"cebpf4jnsgd1na2vs0mg"},{"bike_id":"f3fb7105-b6eb-4dbf-81b3-1d3b16314f6a","system_id":"levelo_inurba_marseille","lat":43.2863,"lon":5.37041,"is_reserved":false,"is_disabled":false,"rental_uris":{"android":"levelo://app?vid=f3fb7105-b6eb-4dbf-81b3-1d3b16314f6a","ios":"levelo://app?vid=f3fb7105-b6eb-4dbf-81b3-1d3b16314f6a"},"vehicle_type_id":"4","last_reported":1777207245,"current_range_meters":4000,"station_id":"ce4bht12rcd13ifvqi60","pricing_plan_id":"cebpf4jnsgd1na2vs0mg"},{"bike_id":"8d1cc07a-c87d-4a7b-8797-cd61ba104d31","system_id":"levelo_inurba_marseille","lat":43.29528,"lon":5.39014,"is_reserved":false,"is_disabled":true,"rental_uris":{"android":"levelo://app?vid=8d1cc07a-c87d-4a7b-8797-cd61ba104d31","ios":"levelo://app?vid=8d1cc07a-c87d-4a7b-8797-cd61ba104d31"},"vehicle_type_id":"4","last_reported":1777207245,"current_range_meters":4000,"station_id":"ce4bh3p2rcd13ifvqdp0","pricing_plan_id":"cebpf4jnsgd1na2vs0mg"},{"bike_id":"90fac789-06e9-4c33-94b9-e82543e03c21","system_id":"levelo_inurba_marseille","lat":43.22522,"lon":5.41601,"is_reserved":false,"is_disabled":true,"rental_uris":{"android":"levelo://app?vid=90fac789-06e9-4c33-94b9-e82543e03c21","ios":"levelo://app?vid=90fac789-06e9-4c33-94b9-e82543e03c21"},"vehicle_type_id":"4","last_reported":1777207245,"current_range_meters":4000,"station_id":"st_d2o4gvlbi1j2169b742g","pricing_plan_id":"cebpf4jnsgd1na2vs0mg"},{"bike_id":"e603f9a2-fa9d-4cb2-9a7e-08775b2873ee","system_id":"levelo_inurba_marseille","lat":43.26568,"lon":5.39012,"is_reserved":false,"is_disabled":false,"rental_uris":{"android":"levelo://app?vid=e603f9a2-fa9d-4cb2-9a7e-08775b2873ee","ios":"levelo://app?vid=e603f9a2-fa9d-4cb2-9a7e-08775b2873ee"},"vehicle_type_id":"4","last_reported":1777207245,"current_range_meters":4000,"station_id":"ce4bhe12rcd13ifvqf30","pricing_plan_id":"cebpf4jnsgd1na2vs0mg"},{"bike_id":"ecdb5920-5a4f-4c5a-aa88-9644173d8afb","system_id":"levelo_inurba_marseille","lat":43.26208,"lon":5.3744,"is_reserved":false,"is_disabled":false,"rental_uris":{"android":"levelo://app?vid=ecdb5920-5a4f-4c5a-aa88-9644173d8afb","ios":"levelo://app?vid=ecdb5920-5a4f-4c5a-aa88-9644173d8afb"},"vehicle_type_id":"4","last_reported":1777207245,"current_range_meters":4000,"station_id":"ce4bhgp2rcd13ifvqfc0","pricing_plan_id":"cebpf4jnsgd1na2vs0mg"},{"bike_id":"1a53a67e-9022-4580-83c0-fc3f72c9ef8d","system_id":"levelo_inurba_marseille","lat":43.29612,"lon":5.38097,"is_reserved":false,"is_disabled":false,"rental_uris":{"android":"levelo://app?vid=1a53a67e-9022-4580-83c0-fc3f72c9ef8d","ios":"levelo://app?vid=1a53a67e-9022-4580-83c0-fc3f72c9ef8d"},"vehicle_type_id":"4","last_reported":1777207245,"current_range_meters":4000,"station_id":"ce4bgl12rcd13ifvqbo0","pricing_plan_id":"cebpf4jnsgd1na2vs0mg"},{"bike_id":"0cd2fd7c-6402-466e-aa1b-fa186d7a7ed3","system_id":"levelo_inurba_marseille","lat":43.33194,"lon":5.37792,"is_reserved":false,"is_disabled":false,"rental_uris":{"android":"levelo://app?vid=0cd2fd7c-6402-466e-aa1b-fa186d7a7ed3","ios":"levelo://app?vid=0cd2fd7c-6402-466e-aa1b-fa186d7a7ed3"},"vehicle_type_id":"4","last_reported":1777207245,"current_range_meters":4400,"station_id":"","pricing_plan_id":"cebpf4jnsgd1na2vs0mg"},{"bike_id":"84c8a771-33c9-421f-a5d6-bf9791123e26","system_id":"levelo_inurba_marseille","lat":43.31992,"lon":5.38135,"is_reserved":false,"is_disabled":false,"rental_uris":{"android":"levelo://app?vid=84c8a771-33c9-421f-a5d6-bf9791123e26","ios":"levelo://app?vid=84c8a771-33c9-421f-a5d6-bf9791123e26"},"vehicle_type_id":"4","last_reported":1777207245,"current_range_meters":4400,"station_id":"ce4bhr12rcd13ifvqhpg","pricing_plan_id":"cebpf4jnsgd1na2vs0mg"},{"bike_id":"c0126e79-e455-4033-aa6f-9cd2537e8b04","system_id":"levelo_inurba_marseille","lat":43.28697,"lon":5.46689,"is_reserved":false,"is_disabled":false,"rental_uris":{"android":"levelo://app?vid=c0126e79-e455-4033-aa6f-9cd2537e8b04","ios":"levelo://app?vid=c0126e79-e455-4033-aa6f-9cd2537e8b04"},"vehicle_type_id":"4","last_reported":1777207245,"current_range_meters":4400,"station_id":"st_d6tc3vkotcvc738tfjhg","pricing_plan_id":"cebpf4jnsgd1na2vs0mg"},{"bike_id":"5a4163c6-002a-4c51-9595-ce1a05963235","system_id":"levelo_inurba_marseille","lat":43.29018,"lon":5.38128,"is_reserved":false,"is_disabled":true,"rental_uris":{"android":"levelo://app?vid=5a4163c6-002a-4c51-9595-ce1a05963235","ios":"levelo://app?vid=5a4163c6-002a-4c51-9595-ce1a05963235"},"vehicle_type_id":"4","last_reported":1777207245,"current_range_meters":4400,"station_id":"ce4bh4p2rcd13ifvqe1g","pricing_plan_id":"cebpf4jnsgd1na2vs0mg"},{"bike_id":"ace34436-51fe-4536-a1f6-cfa009f56977","system_id":"levelo_inurba_marseille","lat":43.33536,"lon":5.37461,"is_reserved":false,"is_disabled":false,"rental_uris":{"android":"levelo://app?vid=ace34436-51fe-4536-a1f6-cfa009f56977","ios":"levelo://app?vid=ace34436-51fe-4536-a1f6-cfa009f56977"},"vehicle_type_id":"4","last_reported":1777207245,"current_range_meters":4400,"station_id":"st_d46tts09ee8s73dlu43g","pricing_plan_id":"cebpf4jnsgd1na2vs0mg"},{"bike_id":"e5bab3d4-51df-40f4-acb7-898a38cfd436","system_id":"levelo_inurba_marseille","lat":43.21201,"lon":5.35047,"is_reserved":false,"is_disabled":false,"rental_uris":{"android":"levelo://app?vid=e5bab3d4-51df-40f4-acb7-898a38cfd436","ios":"levelo://app?vid=e5bab3d4-51df-40f4-acb7-898a38cfd436"},"vehicle_type_id":"4","last_reported":1777207245,"current_range_meters":4400,"station_id":"st_cvj6sg6p6f1abm77japg","pricing_plan_id":"cebpf4jnsgd1na2vs0mg"},{"bike_id":"17fe3f56-b486-40dd-ac6a-710ede14c97d","system_id":"levelo_inurba_marseille","lat":43.314869,"lon":5.373029,"is_reserved":false,"is_disabled":false,"rental_uris":{"android":"levelo://app?vid=17fe3f56-b486-40dd-ac6a-710ede14c97d","ios":"levelo://app?vid=17fe3f56-b486-40dd-ac6a-710ede14c97d"},"vehicle_type_id":"4","last_reported":1777207245,"current_range_meters":4400,"station_id":"","pricing_plan_id":"cebpf4jnsgd1na2vs0mg"},{"bike_id":"648bc781-8e68-4ccd-aedc-987a153e904f","system_id":"levelo_inurba_marseille","lat":43.29265,"lon":5.38457,"is_reserved":false,"is_disabled":false,"rental_uris":{"android":"levelo://app?vid=648bc781-8e68-4ccd-aedc-987a153e904f","ios":"levelo://app?vid=648bc781-8e68-4ccd-aedc-987a153e904f"},"vehicle_type_id":"4","last_reported":1777207245,"current_range_meters":4400,"station_id":"ce4bh692rcd13ifvqea0","pricing_plan_id":"cebpf4jnsgd1na2vs0mg"},{"bike_id":"73b29586-6035-4b17-8f89-10c778399a16","system_id":"levelo_inurba_marseille","lat":43.3199,"lon":5.3814,"is_reserved":false,"is_disabled":false,"rental_uris":{"android":"levelo://app?vid=73b29586-6035-4b17-8f89-10c778399a16","ios":"levelo://app?vid=73b29586-6035-4b17-8f89-10c778399a16"},"vehicle_type_id":"4","last_reported":1777207245,"current_range_meters":4400,"station_id":"ce4bhr12rcd13ifvqhpg","pricing_plan_id":"cebpf4jnsgd1na2vs0mg"},{"bike_id":"f052f3ed-28f6-4c29-844b-cc3bffd83805","system_id":"levelo_inurba_marseille","lat":43.32323,"lon":5.36742,"is_reserved":false,"is_disabled":false,"rental_uris":{"android":"levelo://app?vid=f052f3ed-28f6-4c29-844b-cc3bffd83805","ios":"levelo://app?vid=f052f3ed-28f6-4c29-844b-cc3bffd83805"},"vehicle_type_id":"4","last_reported":1777207245,"current_range_meters":4400,"station_id":"ce4bhsh2rcd13ifvqi2g","pricing_plan_id":"cebpf4jnsgd1na2vs0mg"},{"bike_id":"c21f29a4-bd1b-4786-8ebc-27a155aaa7bd","system_id":"levelo_inurba_marseille","lat":43.30297,"lon":5.36878,"is_reserved":false,"is_disabled":false,"rental_uris":{"android":"levelo://app?vid=c21f29a4-bd1b-4786-8ebc-27a155aaa7bd","ios":"levelo://app?vid=c21f29a4-bd1b-4786-8ebc-27a155aaa7bd"},"vehicle_type_id":"4","last_reported":1777207245,"current_range_meters":4400,"station_id":"ce4bgqh2rcd13ifvqc5g","pricing_plan_id":"cebpf4jnsgd1na2vs0mg"},{"bike_id":"979e6196-9c4d-449a-a6cf-d44cc39bf083","system_id":"levelo_inurba_marseille","lat":43.29543,"lon":5.39394,"is_reserved":false,"is_disabled":false,"rental_uris":{"android":"levelo://app?vid=979e6196-9c4d-449a-a6cf-d44cc39bf083","ios":"levelo://app?vid=979e6196-9c4d-449a-a6cf-d44cc39bf083"},"vehicle_type_id":"4","last_reported":1777207245,"current_range_meters":4400,"station_id":"ce4bh292rcd13ifvqdf0","pricing_plan_id":"cebpf4jnsgd1na2vs0mg"},{"bike_id":"413e4623-e4a6-44c0-8fe0-f06c3e224af8","system_id":"levelo_inurba_marseille","lat":43.31865,"lon":5.36813,"is_reserved":false,"is_disabled":false,"rental_uris":{"android":"levelo://app?vid=413e4623-e4a6-44c0-8fe0-f06c3e224af8","ios":"levelo://app?vid=413e4623-e4a6-44c0-8fe0-f06c3e224af8"},"vehicle_type_id":"4","last_reported":1777207245,"current_range_meters":4800,"station_id":"st_d6o2h0d0559c73evc1b0","pricing_plan_id":"cebpf4jnsgd1na2vs0mg"},{"bike_id":"a03ce919-3949-4c06-bbb8-c0f13ba943b2","system_id":"levelo_inurba_marseille","lat":43.25529,"lon":5.3769,"is_reserved":false,"is_disabled":true,"rental_uris":{"android":"levelo://app?vid=a03ce919-3949-4c06-bbb8-c0f13ba943b2","ios":"levelo://app?vid=a03ce919-3949-4c06-bbb8-c0f13ba943b2"},"vehicle_type_id":"4","last_reported":1777207245,"current_range_meters":4800,"station_id":"","pricing_plan_id":"cebpf4jnsgd1na2vs0mg"},{"bike_id":"e9caee44-b787-4c36-a632-4bd6c1ec7cfa","system_id":"levelo_inurba_marseille","lat":43.28496,"lon":5.48403,"is_reserved":false,"is_disabled":false,"rental_uris":{"android":"levelo://app?vid=e9caee44-b787-4c36-a632-4bd6c1ec7cfa","ios":"levelo://app?vid=e9caee44-b787-4c36-a632-4bd6c1ec7cfa"},"vehicle_type_id":"4","last_reported":1777207245,"current_range_meters":4800,"station_id":"st_d3svhcjqgbts73a3dn0g","pricing_plan_id":"cebpf4jnsgd1na2vs0mg"},{"bike_id":"724d0869-017c-4e7e-9911-705be0df09b1","system_id":"levelo_inurba_marseille","lat":43.31457,"lon":5.37397,"is_reserved":false,"is_disabled":false,"rental_uris":{"android":"levelo://app?vid=724d0869-017c-4e7e-9911-705be0df09b1","ios":"levelo://app?vid=724d0869-017c-4e7e-9911-705be0df09b1"},"vehicle_type_id":"4","last_reported":1777207245,"current_range_meters":4800,"station_id":"","pricing_plan_id":"cebpf4jnsgd1na2vs0mg"},{"bike_id":"0f126928-5121-4469-a9c9-6740d8de1e82","system_id":"levelo_inurba_marseille","lat":43.24416,"lon":5.37413,"is_reserved":false,"is_disabled":false,"rental_uris":{"android":"levelo://app?vid=0f126928-5121-4469-a9c9-6740d8de1e82","ios":"levelo://app?vid=0f126928-5121-4469-a9c9-6740d8de1e82"},"vehicle_type_id":"4","last_reported":1777207245,"current_range_meters":4800,"station_id":"","pricing_plan_id":"cebpf4jnsgd1na2vs0mg"},{"bike_id":"05a33fd5-e436-4ad0-a907-865e546c41d5","system_id":"levelo_inurba_marseille","lat":43.22554,"lon":5.41613,"is_reserved":false,"is_disabled":true,"rental_uris":{"android":"levelo://app?vid=05a33fd5-e436-4ad0-a907-865e546c41d5","ios":"levelo://app?vid=05a33fd5-e436-4ad0-a907-865e546c41d5"},"vehicle_type_id":"4","last_reported":1777207245,"current_range_meters":4800,"station_id":"","pricing_plan_id":"cebpf4jnsgd1na2vs0mg"},{"bike_id":"ad6c642a-6f23-4eb9-8fec-dcc08aa11886","system_id":"levelo_inurba_marseille","lat":43.28421,"lon":5.34975,"is_reserved":false,"is_disabled":false,"rental_uris":{"android":"levelo://app?vid=ad6c642a-6f23-4eb9-8fec-dcc08aa11886","ios":"levelo://app?vid=ad6c642a-6f23-4eb9-8fec-dcc08aa11886"},"vehicle_type_id":"4","last_reported":1777207245,"current_range_meters":4800,"station_id":"ce4bhbh2rcd13ifvqepg","pricing_plan_id":"cebpf4jnsgd1na2vs0mg"},{"bike_id":"a1fa8530-65b9-4008-96f3-a6831b1af9e3","system_id":"levelo_inurba_marseille","lat":43.33548,"lon":5.3746,"is_reserved":false,"is_disabled":true,"rental_uris":{"android":"levelo://app?vid=a1fa8530-65b9-4008-96f3-a6831b1af9e3","ios":"levelo://app?vid=a1fa8530-65b9-4008-96f3-a6831b1af9e3"},"vehicle_type_id":"4","last_reported":1777207245,"current_range_meters":4800,"station_id":"st_d46tts09ee8s73dlu43g","pricing_plan_id":"cebpf4jnsgd1na2vs0mg"},{"bike_id":"0cd9417f-3de4-42c1-b989-7d05e46f7e63","system_id":"levelo_inurba_marseille","lat":43.24548,"lon":5.39525,"is_reserved":false,"is_disabled":false,"rental_uris":{"android":"levelo://app?vid=0cd9417f-3de4-42c1-b989-7d05e46f7e63","ios":"levelo://app?vid=0cd9417f-3de4-42c1-b989-7d05e46f7e63"},"vehicle_type_id":"4","last_reported":1777207245,"current_range_meters":5600,"station_id":"ce4bhlp2rcd13ifvqgjg","pricing_plan_id":"cebpf4jnsgd1na2vs0mg"},{"bike_id":"2670d991-0257-4b07-b03d-8eaa062ba0f0","system_id":"levelo_inurba_marseille","lat":43.30389,"lon":5.42467,"is_reserved":false,"is_disabled":false,"rental_uris":{"android":"levelo://app?vid=2670d991-0257-4b07-b03d-8eaa062ba0f0","ios":"levelo://app?vid=2670d991-0257-4b07-b03d-8eaa062ba0f0"},"vehicle_type_id":"4","last_reported":1777207245,"current_range_meters":5600,"station_id":"ce4bhoh2rcd13ifvqh6g","pricing_plan_id":"cebpf4jnsgd1na2vs0mg"},{"bike_id":"e7760414-c99e-4edb-8d77-254918982c51","system_id":"levelo_inurba_marseille","lat":43.280813,"lon":5.396654,"is_reserved":false,"is_disabled":false,"rental_uris":{"android":"levelo://app?vid=e7760414-c99e-4edb-8d77-254918982c51","ios":"levelo://app?vid=e7760414-c99e-4edb-8d77-254918982c51"},"vehicle_type_id":"4","last_reported":1777207245,"current_range_meters":5600,"station_id":"ce4bho12rcd13ifvqh2g","pricing_plan_id":"cebpf4jnsgd1na2vs0mg"},{"bike_id":"70578acc-b935-4f77-be23-bcde1db99b26","system_id":"levelo_inurba_marseille","lat":43.29794,"lon":5.38155,"is_reserved":false,"is_disabled":false,"rental_uris":{"android":"levelo://app?vid=70578acc-b935-4f77-be23-bcde1db99b26","ios":"levelo://app?vid=70578acc-b935-4f77-be23-bcde1db99b26"},"vehicle_type_id":"4","last_reported":1777207245,"current_range_meters":5600,"station_id":"ce4bgip2rcd13ifvqbb0","pricing_plan_id":"cebpf4jnsgd1na2vs0mg"},{"bike_id":"2948bbb4-8d58-432d-9429-4708f94a8d77","system_id":"levelo_inurba_marseille","lat":43.27664,"lon":5.38908,"is_reserved":false,"is_disabled":false,"rental_uris":{"android":"levelo://app?vid=2948bbb4-8d58-432d-9429-4708f94a8d77","ios":"levelo://app?vid=2948bbb4-8d58-432d-9429-4708f94a8d77"},"vehicle_type_id":"4","last_reported":1777207245,"current_range_meters":5600,"station_id":"ce4bhi12rcd13ifvqfo0","pricing_plan_id":"cebpf4jnsgd1na2vs0mg"},{"bike_id":"fea5a28c-0167-4a62-9062-e629ed9b3e8f","system_id":"levelo_inurba_marseille","lat":43.2847,"lon":5.48404,"is_reserved":false,"is_disabled":false,"rental_uris":{"android":"levelo://app?vid=fea5a28c-0167-4a62-9062-e629ed9b3e8f","ios":"levelo://app?vid=fea5a28c-0167-4a62-9062-e629ed9b3e8f"},"vehicle_type_id":"4","last_reported":1777207245,"current_range_meters":5600,"station_id":"st_d3svhcjqgbts73a3dn0g","pricing_plan_id":"cebpf4jnsgd1na2vs0mg"},{"bike_id":"b7904a7b-6e2f-4701-984a-e73867d4f17c","system_id":"levelo_inurba_marseille","lat":43.29276,"lon":5.36844,"is_reserved":false,"is_disabled":false,"rental_uris":{"android":"levelo://app?vid=b7904a7b-6e2f-4701-984a-e73867d4f17c","ios":"levelo://app?vid=b7904a7b-6e2f-4701-984a-e73867d4f17c"},"vehicle_type_id":"4","last_reported":1777207245,"current_range_meters":5600,"station_id":"ce4bhbp2rcd13ifvqesg","pricing_plan_id":"cebpf4jnsgd1na2vs0mg"},{"bike_id":"1ccfe6f4-e5d4-4b33-812d-52bd4f628f2d","system_id":"levelo_inurba_marseille","lat":43.24805,"lon":5.37445,"is_reserved":false,"is_disabled":false,"rental_uris":{"android":"levelo://app?vid=1ccfe6f4-e5d4-4b33-812d-52bd4f628f2d","ios":"levelo://app?vid=1ccfe6f4-e5d4-4b33-812d-52bd4f628f2d"},"vehicle_type_id":"4","last_reported":1777207245,"current_range_meters":5600,"station_id":"ce4bhgh2rcd13ifvqfb0","pricing_plan_id":"cebpf4jnsgd1na2vs0mg"},{"bike_id":"29a648f5-2046-4763-876b-93a6a5a2b239","system_id":"levelo_inurba_marseille","lat":43.29579,"lon":5.37497,"is_reserved":false,"is_disabled":false,"rental_uris":{"android":"levelo://app?vid=29a648f5-2046-4763-876b-93a6a5a2b239","ios":"levelo://app?vid=29a648f5-2046-4763-876b-93a6a5a2b239"},"vehicle_type_id":"4","last_reported":1777207245,"current_range_meters":5600,"station_id":"ce4bgh92rcd13ifvqb50","pricing_plan_id":"cebpf4jnsgd1na2vs0mg"},{"bike_id":"edc2a3bb-1aa4-404a-9f62-c14a9c4956a6","system_id":"levelo_inurba_marseille","lat":43.25406,"lon":5.41893,"is_reserved":false,"is_disabled":false,"rental_uris":{"android":"levelo://app?vid=edc2a3bb-1aa4-404a-9f62-c14a9c4956a6","ios":"levelo://app?vid=edc2a3bb-1aa4-404a-9f62-c14a9c4956a6"},"vehicle_type_id":"4","last_reported":1777207245,"current_range_meters":5600,"station_id":"","pricing_plan_id":"cebpf4jnsgd1na2vs0mg"},{"bike_id":"61ae2b34-0e2f-4c48-9d0d-744304585bf8","system_id":"levelo_inurba_marseille","lat":43.255,"lon":5.37649,"is_reserved":false,"is_disabled":false,"rental_uris":{"android":"levelo://app?vid=61ae2b34-0e2f-4c48-9d0d-744304585bf8","ios":"levelo://app?vid=61ae2b34-0e2f-4c48-9d0d-744304585bf8"},"vehicle_type_id":"4","last_reported":1777207245,"current_range_meters":5600,"station_id":"ce4bhh12rcd13ifvqff0","pricing_plan_id":"cebpf4jnsgd1na2vs0mg"},{"bike_id":"77c3125d-06e0-47cd-93f4-f16b78ab7fd3","system_id":"levelo_inurba_marseille","lat":43.21755,"lon":5.34592,"is_reserved":false,"is_disabled":false,"rental_uris":{"android":"levelo://app?vid=77c3125d-06e0-47cd-93f4-f16b78ab7fd3","ios":"levelo://app?vid=77c3125d-06e0-47cd-93f4-f16b78ab7fd3"},"vehicle_type_id":"4","last_reported":1777207245,"current_range_meters":5600,"station_id":"st_cvj6r9ubvosntc0bgbag","pricing_plan_id":"cebpf4jnsgd1na2vs0mg"},{"bike_id":"566d96b8-5e9f-424c-a211-21ad768be894","system_id":"levelo_inurba_marseille","lat":43.28536,"lon":5.44094,"is_reserved":false,"is_disabled":false,"rental_uris":{"android":"levelo://app?vid=566d96b8-5e9f-424c-a211-21ad768be894","ios":"levelo://app?vid=566d96b8-5e9f-424c-a211-21ad768be894"},"vehicle_type_id":"4","last_reported":1777207245,"current_range_meters":6000,"station_id":"st_d3j3df2ikq2c7380ej80","pricing_plan_id":"cebpf4jnsgd1na2vs0mg"},{"bike_id":"59df43ab-e007-45c0-b4ae-00eca9962a94","system_id":"levelo_inurba_marseille","lat":43.21746,"lon":5.34612,"is_reserved":false,"is_disabled":false,"rental_uris":{"android":"levelo://app?vid=59df43ab-e007-45c0-b4ae-00eca9962a94","ios":"levelo://app?vid=59df43ab-e007-45c0-b4ae-00eca9962a94"},"vehicle_type_id":"4","last_reported":1777207245,"current_range_meters":6000,"station_id":"st_cvj6r9ubvosntc0bgbag","pricing_plan_id":"cebpf4jnsgd1na2vs0mg"},{"bike_id":"9a7c39d8-ef30-4694-b180-b6fe0a089530","system_id":"levelo_inurba_marseille","lat":43.30108,"lon":5.43116,"is_reserved":false,"is_disabled":false,"rental_uris":{"android":"levelo://app?vid=9a7c39d8-ef30-4694-b180-b6fe0a089530","ios":"levelo://app?vid=9a7c39d8-ef30-4694-b180-b6fe0a089530"},"vehicle_type_id":"4","last_reported":1777207245,"current_range_meters":6000,"station_id":"st_d3js3co5814s73ftftug","pricing_plan_id":"cebpf4jnsgd1na2vs0mg"},{"bike_id":"27cd71a7-0940-4415-a67f-21597fbf1cd9","system_id":"levelo_inurba_marseille","lat":43.34855,"lon":5.37582,"is_reserved":false,"is_disabled":false,"rental_uris":{"android":"levelo://app?vid=27cd71a7-0940-4415-a67f-21597fbf1cd9","ios":"levelo://app?vid=27cd71a7-0940-4415-a67f-21597fbf1cd9"},"vehicle_type_id":"4","last_reported":1777207245,"current_range_meters":6000,"station_id":"","pricing_plan_id":"cebpf4jnsgd1na2vs0mg"},{"bike_id":"7d1bd3e1-6fa5-4a81-b0ce-045b4844a577","system_id":"levelo_inurba_marseille","lat":43.298096,"lon":5.380895,"is_reserved":false,"is_disabled":false,"rental_uris":{"android":"levelo://app?vid=7d1bd3e1-6fa5-4a81-b0ce-045b4844a577","ios":"levelo://app?vid=7d1bd3e1-6fa5-4a81-b0ce-045b4844a577"},"vehicle_type_id":"4","last_reported":1777207245,"current_range_meters":6000,"station_id":"ce4bgip2rcd13ifvqbb0","pricing_plan_id":"cebpf4jnsgd1na2vs0mg"},{"bike_id":"26d26955-b302-4311-88a8-057f7b19117a","system_id":"levelo_inurba_marseille","lat":43.29652,"lon":5.36063,"is_reserved":false,"is_disabled":false,"rental_uris":{"android":"levelo://app?vid=26d26955-b302-4311-88a8-057f7b19117a","ios":"levelo://app?vid=26d26955-b302-4311-88a8-057f7b19117a"},"vehicle_type_id":"4","last_reported":1777207245,"current_range_meters":6000,"station_id":"","pricing_plan_id":"cebpf4jnsgd1na2vs0mg"},{"bike_id":"7f14f307-ed9b-4bde-a995-2c9126a5e681","system_id":"levelo_inurba_marseille","lat":43.3047,"lon":5.37887,"is_reserved":false,"is_disabled":true,"rental_uris":{"android":"levelo://app?vid=7f14f307-ed9b-4bde-a995-2c9126a5e681","ios":"levelo://app?vid=7f14f307-ed9b-4bde-a995-2c9126a5e681"},"vehicle_type_id":"4","last_reported":1777207245,"current_range_meters":6000,"station_id":"ce4bgup2rcd13ifvqcn0","pricing_plan_id":"cebpf4jnsgd1na2vs0mg"},{"bike_id":"3a1dde76-eca1-4259-a733-fe668960caa8","system_id":"levelo_inurba_marseille","lat":43.24451,"lon":5.39064,"is_reserved":false,"is_disabled":false,"rental_uris":{"android":"levelo://app?vid=3a1dde76-eca1-4259-a733-fe668960caa8","ios":"levelo://app?vid=3a1dde76-eca1-4259-a733-fe668960caa8"},"vehicle_type_id":"4","last_reported":1777207245,"current_range_meters":6000,"station_id":"","pricing_plan_id":"cebpf4jnsgd1na2vs0mg"},{"bike_id":"8dac6c76-9c56-49ee-9c52-aa853cc488e1","system_id":"levelo_inurba_marseille","lat":43.31325,"lon":5.39696,"is_reserved":false,"is_disabled":false,"rental_uris":{"android":"levelo://app?vid=8dac6c76-9c56-49ee-9c52-aa853cc488e1","ios":"levelo://app?vid=8dac6c76-9c56-49ee-9c52-aa853cc488e1"},"vehicle_type_id":"4","last_reported":1777207245,"current_range_meters":6000,"station_id":"ce4bgvp2rcd13ifvqcu0","pricing_plan_id":"cebpf4jnsgd1na2vs0mg"},{"bike_id":"7e55dbf5-c2bb-4d18-8c69-8be3c85ec95c","system_id":"levelo_inurba_marseille","lat":43.30594,"lon":5.37239,"is_reserved":false,"is_disabled":false,"rental_uris":{"android":"levelo://app?vid=7e55dbf5-c2bb-4d18-8c69-8be3c85ec95c","ios":"levelo://app?vid=7e55dbf5-c2bb-4d18-8c69-8be3c85ec95c"},"vehicle_type_id":"4","last_reported":1777207245,"current_range_meters":6000,"station_id":"ce4bgqh2rcd13ifvqc4g","pricing_plan_id":"cebpf4jnsgd1na2vs0mg"},{"bike_id":"995bb8fe-2e63-4c90-9423-26bbc684bf0a","system_id":"levelo_inurba_marseille","lat":43.29008,"lon":5.35601,"is_reserved":false,"is_disabled":false,"rental_uris":{"android":"levelo://app?vid=995bb8fe-2e63-4c90-9423-26bbc684bf0a","ios":"levelo://app?vid=995bb8fe-2e63-4c90-9423-26bbc684bf0a"},"vehicle_type_id":"4","last_reported":1777207245,"current_range_meters":6000,"station_id":"ce4bhb92rcd13ifvqen0","pricing_plan_id":"cebpf4jnsgd1na2vs0mg"},{"bike_id":"8326d22c-4a68-42b0-ba19-9c11d3ccde7f","system_id":"levelo_inurba_marseille","lat":43.2319,"lon":5.35554,"is_reserved":false,"is_disabled":false,"rental_uris":{"android":"levelo://app?vid=8326d22c-4a68-42b0-ba19-9c11d3ccde7f","ios":"levelo://app?vid=8326d22c-4a68-42b0-ba19-9c11d3ccde7f"},"vehicle_type_id":"4","last_reported":1777207245,"current_range_meters":6000,"station_id":"ce4bhu92rcd13ifvqi70","pricing_plan_id":"cebpf4jnsgd1na2vs0mg"},{"bike_id":"833d7be3-421b-4c5f-bc44-1a51dc01aed7","system_id":"levelo_inurba_marseille","lat":43.29657,"lon":5.37292,"is_reserved":false,"is_disabled":true,"rental_uris":{"android":"levelo://app?vid=833d7be3-421b-4c5f-bc44-1a51dc01aed7","ios":"levelo://app?vid=833d7be3-421b-4c5f-bc44-1a51dc01aed7"},"vehicle_type_id":"4","last_reported":1777207245,"current_range_meters":6000,"station_id":"ce4bgk12rcd13ifvqbj0","pricing_plan_id":"cebpf4jnsgd1na2vs0mg"},{"bike_id":"f33c6c9d-346a-4c73-9b31-f3ca6fe92254","system_id":"levelo_inurba_marseille","lat":43.29605,"lon":5.37698,"is_reserved":false,"is_disabled":true,"rental_uris":{"android":"levelo://app?vid=f33c6c9d-346a-4c73-9b31-f3ca6fe92254","ios":"levelo://app?vid=f33c6c9d-346a-4c73-9b31-f3ca6fe92254"},"vehicle_type_id":"4","last_reported":1777207245,"current_range_meters":6000,"station_id":"ce4bgi92rcd13ifvqb90","pricing_plan_id":"cebpf4jnsgd1na2vs0mg"},{"bike_id":"5454f3c2-412a-4d92-8a5f-96286b8638ad","system_id":"levelo_inurba_marseille","lat":43.21755,"lon":5.34594,"is_reserved":false,"is_disabled":false,"rental_uris":{"android":"levelo://app?vid=5454f3c2-412a-4d92-8a5f-96286b8638ad","ios":"levelo://app?vid=5454f3c2-412a-4d92-8a5f-96286b8638ad"},"vehicle_type_id":"4","last_reported":1777207245,"current_range_meters":6000,"station_id":"st_cvj6r9ubvosntc0bgbag","pricing_plan_id":"cebpf4jnsgd1na2vs0mg"},{"bike_id":"cc701168-a2db-43e5-904f-a3998598bffa","system_id":"levelo_inurba_marseille","lat":43.26549,"lon":5.37279,"is_reserved":false,"is_disabled":false,"rental_uris":{"android":"levelo://app?vid=cc701168-a2db-43e5-904f-a3998598bffa","ios":"levelo://app?vid=cc701168-a2db-43e5-904f-a3998598bffa"},"vehicle_type_id":"4","last_reported":1777207245,"current_range_meters":6000,"station_id":"ce4bhg12rcd13ifvqf70","pricing_plan_id":"cebpf4jnsgd1na2vs0mg"},{"bike_id":"5367fafd-42a5-4c52-bd35-5d85953af91c","system_id":"levelo_inurba_marseille","lat":43.30892,"lon":5.37189,"is_reserved":false,"is_disabled":true,"rental_uris":{"android":"levelo://app?vid=5367fafd-42a5-4c52-bd35-5d85953af91c","ios":"levelo://app?vid=5367fafd-42a5-4c52-bd35-5d85953af91c"},"vehicle_type_id":"4","last_reported":1777207245,"current_range_meters":6400,"station_id":"ce4bguh2rcd13ifvqckg","pricing_plan_id":"cebpf4jnsgd1na2vs0mg"},{"bike_id":"9762113e-a054-458e-a16d-f34215941270","system_id":"levelo_inurba_marseille","lat":43.2922,"lon":5.36061,"is_reserved":false,"is_disabled":true,"rental_uris":{"android":"levelo://app?vid=9762113e-a054-458e-a16d-f34215941270","ios":"levelo://app?vid=9762113e-a054-458e-a16d-f34215941270"},"vehicle_type_id":"4","last_reported":1777207245,"current_range_meters":6400,"station_id":"ce4bhbh2rcd13ifvqeqg","pricing_plan_id":"cebpf4jnsgd1na2vs0mg"},{"bike_id":"5687bcf3-d7dc-457c-91e4-c37491638fcd","system_id":"levelo_inurba_marseille","lat":43.24164,"lon":5.36379,"is_reserved":false,"is_disabled":false,"rental_uris":{"android":"levelo://app?vid=5687bcf3-d7dc-457c-91e4-c37491638fcd","ios":"levelo://app?vid=5687bcf3-d7dc-457c-91e4-c37491638fcd"},"vehicle_type_id":"4","last_reported":1777207245,"current_range_meters":6400,"station_id":"cpo36qri1sfpv3e86is0","pricing_plan_id":"cebpf4jnsgd1na2vs0mg"},{"bike_id":"085eefc3-42b6-4e5f-8fa3-5e096f60ac23","system_id":"levelo_inurba_marseille","lat":43.2175,"lon":5.34595,"is_reserved":false,"is_disabled":true,"rental_uris":{"android":"levelo://app?vid=085eefc3-42b6-4e5f-8fa3-5e096f60ac23","ios":"levelo://app?vid=085eefc3-42b6-4e5f-8fa3-5e096f60ac23"},"vehicle_type_id":"4","last_reported":1777207245,"current_range_meters":6400,"station_id":"st_cvj6r9ubvosntc0bgbag","pricing_plan_id":"cebpf4jnsgd1na2vs0mg"},{"bike_id":"e79bde01-2f2e-4687-9114-2908a926683e","system_id":"levelo_inurba_marseille","lat":43.33548,"lon":5.37456,"is_reserved":false,"is_disabled":false,"rental_uris":{"android":"levelo://app?vid=e79bde01-2f2e-4687-9114-2908a926683e","ios":"levelo://app?vid=e79bde01-2f2e-4687-9114-2908a926683e"},"vehicle_type_id":"4","last_reported":1777207245,"current_range_meters":6400,"station_id":"st_d46tts09ee8s73dlu43g","pricing_plan_id":"cebpf4jnsgd1na2vs0mg"},{"bike_id":"0e385029-f21e-4196-be6e-7feb5fd87d07","system_id":"levelo_inurba_marseille","lat":43.31881,"lon":5.36805,"is_reserved":false,"is_disabled":false,"rental_uris":{"android":"levelo://app?vid=0e385029-f21e-4196-be6e-7feb5fd87d07","ios":"levelo://app?vid=0e385029-f21e-4196-be6e-7feb5fd87d07"},"vehicle_type_id":"4","last_reported":1777207245,"current_range_meters":6400,"station_id":"st_d6o2h0d0559c73evc1b0","pricing_plan_id":"cebpf4jnsgd1na2vs0mg"},{"bike_id":"18f0b378-8f5d-40bc-97a7-ebf73f9ff7bd","system_id":"levelo_inurba_marseille","lat":43.31722,"lon":5.42376,"is_reserved":false,"is_disabled":false,"rental_uris":{"android":"levelo://app?vid=18f0b378-8f5d-40bc-97a7-ebf73f9ff7bd","ios":"levelo://app?vid=18f0b378-8f5d-40bc-97a7-ebf73f9ff7bd"},"vehicle_type_id":"4","last_reported":1777207245,"current_range_meters":6400,"station_id":"ce4bhp92rcd13ifvqhbg","pricing_plan_id":"cebpf4jnsgd1na2vs0mg"},{"bike_id":"42137a02-3c53-4653-b5fe-957c29b11e6f","system_id":"levelo_inurba_marseille","lat":43.29012,"lon":5.35607,"is_reserved":false,"is_disabled":false,"rental_uris":{"android":"levelo://app?vid=42137a02-3c53-4653-b5fe-957c29b11e6f","ios":"levelo://app?vid=42137a02-3c53-4653-b5fe-957c29b11e6f"},"vehicle_type_id":"4","last_reported":1777207245,"current_range_meters":6400,"station_id":"ce4bhb92rcd13ifvqen0","pricing_plan_id":"cebpf4jnsgd1na2vs0mg"},{"bike_id":"be3a7578-0bf0-4973-955f-bda32e516ded","system_id":"levelo_inurba_marseille","lat":43.28916,"lon":5.38385,"is_reserved":false,"is_disabled":false,"rental_uris":{"android":"levelo://app?vid=be3a7578-0bf0-4973-955f-bda32e516ded","ios":"levelo://app?vid=be3a7578-0bf0-4973-955f-bda32e516ded"},"vehicle_type_id":"4","last_reported":1777207245,"current_range_meters":6800,"station_id":"ce4bh612rcd13ifvqe6g","pricing_plan_id":"cebpf4jnsgd1na2vs0mg"},{"bike_id":"757fdfcb-45d7-4c45-8e18-f9ab346e8260","system_id":"levelo_inurba_marseille","lat":43.24663,"lon":5.39804,"is_reserved":false,"is_disabled":false,"rental_uris":{"android":"levelo://app?vid=757fdfcb-45d7-4c45-8e18-f9ab346e8260","ios":"levelo://app?vid=757fdfcb-45d7-4c45-8e18-f9ab346e8260"},"vehicle_type_id":"4","last_reported":1777207245,"current_range_meters":6800,"station_id":"","pricing_plan_id":"cebpf4jnsgd1na2vs0mg"},{"bike_id":"dcf3c7cc-fd9e-448d-9a58-59ca264eaa33","system_id":"levelo_inurba_marseille","lat":43.23189,"lon":5.39975,"is_reserved":false,"is_disabled":false,"rental_uris":{"android":"levelo://app?vid=dcf3c7cc-fd9e-448d-9a58-59ca264eaa33","ios":"levelo://app?vid=dcf3c7cc-fd9e-448d-9a58-59ca264eaa33"},"vehicle_type_id":"4","last_reported":1777207245,"current_range_meters":6800,"station_id":"ce4bhn12rcd13ifvqgqg","pricing_plan_id":"cebpf4jnsgd1na2vs0mg"},{"bike_id":"72337c7c-15fe-4d9d-a055-b6365e7a1881","system_id":"levelo_inurba_marseille","lat":43.24938,"lon":5.40478,"is_reserved":false,"is_disabled":false,"rental_uris":{"android":"levelo://app?vid=72337c7c-15fe-4d9d-a055-b6365e7a1881","ios":"levelo://app?vid=72337c7c-15fe-4d9d-a055-b6365e7a1881"},"vehicle_type_id":"4","last_reported":1777207245,"current_range_meters":6800,"station_id":"st_d2ngiaodas8pm72gd1h0","pricing_plan_id":"cebpf4jnsgd1na2vs0mg"},{"bike_id":"46a1f74a-01a9-454d-a9cc-571a83d43c60","system_id":"levelo_inurba_marseille","lat":43.24129,"lon":5.36401,"is_reserved":false,"is_disabled":false,"rental_uris":{"android":"levelo://app?vid=46a1f74a-01a9-454d-a9cc-571a83d43c60","ios":"levelo://app?vid=46a1f74a-01a9-454d-a9cc-571a83d43c60"},"vehicle_type_id":"4","last_reported":1777207245,"current_range_meters":6800,"station_id":"cpo36qri1sfpv3e86is0","pricing_plan_id":"cebpf4jnsgd1na2vs0mg"},{"bike_id":"6b60b3c8-da35-492c-9411-418199a97ad7","system_id":"levelo_inurba_marseille","lat":43.28483,"lon":5.48386,"is_reserved":false,"is_disabled":false,"rental_uris":{"android":"levelo://app?vid=6b60b3c8-da35-492c-9411-418199a97ad7","ios":"levelo://app?vid=6b60b3c8-da35-492c-9411-418199a97ad7"},"vehicle_type_id":"4","last_reported":1777207245,"current_range_meters":6800,"station_id":"","pricing_plan_id":"cebpf4jnsgd1na2vs0mg"},{"bike_id":"f54ccc15-12bb-43a9-bcae-01eb62b17984","system_id":"levelo_inurba_marseille","lat":43.24815,"lon":5.37458,"is_reserved":false,"is_disabled":false,"rental_uris":{"android":"levelo://app?vid=f54ccc15-12bb-43a9-bcae-01eb62b17984","ios":"levelo://app?vid=f54ccc15-12bb-43a9-bcae-01eb62b17984"},"vehicle_type_id":"4","last_reported":1777207245,"current_range_meters":6800,"station_id":"ce4bhgh2rcd13ifvqfb0","pricing_plan_id":"cebpf4jnsgd1na2vs0mg"},{"bike_id":"b5a94ff7-25f8-4573-8e6b-1ecfdd956116","system_id":"levelo_inurba_marseille","lat":43.29586,"lon":5.37726,"is_reserved":false,"is_disabled":false,"rental_uris":{"android":"levelo://app?vid=b5a94ff7-25f8-4573-8e6b-1ecfdd956116","ios":"levelo://app?vid=b5a94ff7-25f8-4573-8e6b-1ecfdd956116"},"vehicle_type_id":"4","last_reported":1777207245,"current_range_meters":6800,"station_id":"ce4bgi92rcd13ifvqb90","pricing_plan_id":"cebpf4jnsgd1na2vs0mg"},{"bike_id":"adfeb2f2-21a5-4adf-a92e-a60a7bb66934","system_id":"levelo_inurba_marseille","lat":43.28999,"lon":5.3562,"is_reserved":false,"is_disabled":true,"rental_uris":{"android":"levelo://app?vid=adfeb2f2-21a5-4adf-a92e-a60a7bb66934","ios":"levelo://app?vid=adfeb2f2-21a5-4adf-a92e-a60a7bb66934"},"vehicle_type_id":"4","last_reported":1777207245,"current_range_meters":6800,"station_id":"ce4bhb92rcd13ifvqen0","pricing_plan_id":"cebpf4jnsgd1na2vs0mg"},{"bike_id":"b9ed9245-7019-4a6e-bd43-3c941d977295","system_id":"levelo_inurba_marseille","lat":43.21747,"lon":5.34602,"is_reserved":false,"is_disabled":false,"rental_uris":{"android":"levelo://app?vid=b9ed9245-7019-4a6e-bd43-3c941d977295","ios":"levelo://app?vid=b9ed9245-7019-4a6e-bd43-3c941d977295"},"vehicle_type_id":"4","last_reported":1777207245,"current_range_meters":6800,"station_id":"st_cvj6r9ubvosntc0bgbag","pricing_plan_id":"cebpf4jnsgd1na2vs0mg"},{"bike_id":"e6e0181d-d51b-42d7-93b1-7e8f4d00629c","system_id":"levelo_inurba_marseille","lat":43.29823,"lon":5.42019,"is_reserved":false,"is_disabled":true,"rental_uris":{"android":"levelo://app?vid=e6e0181d-d51b-42d7-93b1-7e8f4d00629c","ios":"levelo://app?vid=e6e0181d-d51b-42d7-93b1-7e8f4d00629c"},"vehicle_type_id":"4","last_reported":1777207245,"current_range_meters":6800,"station_id":"","pricing_plan_id":"cebpf4jnsgd1na2vs0mg"},{"bike_id":"fda983b3-301e-40f3-bb07-e5c67ab620e4","system_id":"levelo_inurba_marseille","lat":43.25083,"lon":5.40419,"is_reserved":false,"is_disabled":false,"rental_uris":{"android":"levelo://app?vid=fda983b3-301e-40f3-bb07-e5c67ab620e4","ios":"levelo://app?vid=fda983b3-301e-40f3-bb07-e5c67ab620e4"},"vehicle_type_id":"4","last_reported":1777207245,"current_range_meters":6800,"station_id":"","pricing_plan_id":"cebpf4jnsgd1na2vs0mg"},{"bike_id":"4bcf0e64-be47-461c-b105-544ba4e9a730","system_id":"levelo_inurba_marseille","lat":43.28,"lon":5.38679,"is_reserved":false,"is_disabled":true,"rental_uris":{"android":"levelo://app?vid=4bcf0e64-be47-461c-b105-544ba4e9a730","ios":"levelo://app?vid=4bcf0e64-be47-461c-b105-544ba4e9a730"},"vehicle_type_id":"4","last_reported":1777207245,"current_range_meters":6800,"station_id":"","pricing_plan_id":"cebpf4jnsgd1na2vs0mg"},{"bike_id":"43415a5b-93f6-43e7-9362-e8ca2b097157","system_id":"levelo_inurba_marseille","lat":43.28614,"lon":5.35093,"is_reserved":false,"is_disabled":false,"rental_uris":{"android":"levelo://app?vid=43415a5b-93f6-43e7-9362-e8ca2b097157","ios":"levelo://app?vid=43415a5b-93f6-43e7-9362-e8ca2b097157"},"vehicle_type_id":"4","last_reported":1777207245,"current_range_meters":6800,"station_id":"ce4bhch2rcd13ifvqeug","pricing_plan_id":"cebpf4jnsgd1na2vs0mg"},{"bike_id":"ffe9ebb4-44f1-4785-be6c-09d5e254dbd4","system_id":"levelo_inurba_marseille","lat":43.3016,"lon":5.38084,"is_reserved":false,"is_disabled":false,"rental_uris":{"android":"levelo://app?vid=ffe9ebb4-44f1-4785-be6c-09d5e254dbd4","ios":"levelo://app?vid=ffe9ebb4-44f1-4785-be6c-09d5e254dbd4"},"vehicle_type_id":"4","last_reported":1777207245,"current_range_meters":6800,"station_id":"ce4bgjp2rcd13ifvqbh0","pricing_plan_id":"cebpf4jnsgd1na2vs0mg"},{"bike_id":"30a80de8-9355-4fff-a0a8-707996dcb066","system_id":"levelo_inurba_marseille","lat":43.27944,"lon":5.41039,"is_reserved":false,"is_disabled":false,"rental_uris":{"android":"levelo://app?vid=30a80de8-9355-4fff-a0a8-707996dcb066","ios":"levelo://app?vid=30a80de8-9355-4fff-a0a8-707996dcb066"},"vehicle_type_id":"4","last_reported":1777207245,"current_range_meters":6800,"station_id":"ce4bhnp2rcd13ifvqh0g","pricing_plan_id":"cebpf4jnsgd1na2vs0mg"},{"bike_id":"d054276e-6372-4793-ae37-6281dafb78f8","system_id":"levelo_inurba_marseille","lat":43.3376,"lon":5.37435,"is_reserved":false,"is_disabled":false,"rental_uris":{"android":"levelo://app?vid=d054276e-6372-4793-ae37-6281dafb78f8","ios":"levelo://app?vid=d054276e-6372-4793-ae37-6281dafb78f8"},"vehicle_type_id":"4","last_reported":1777207245,"current_range_meters":6800,"station_id":"","pricing_plan_id":"cebpf4jnsgd1na2vs0mg"},{"bike_id":"ab00b04a-0196-422d-a9ce-a6cf5fa97720","system_id":"levelo_inurba_marseille","lat":43.28418,"lon":5.34981,"is_reserved":false,"is_disabled":false,"rental_uris":{"android":"levelo://app?vid=ab00b04a-0196-422d-a9ce-a6cf5fa97720","ios":"levelo://app?vid=ab00b04a-0196-422d-a9ce-a6cf5fa97720"},"vehicle_type_id":"4","last_reported":1777207245,"current_range_meters":6800,"station_id":"ce4bhbh2rcd13ifvqepg","pricing_plan_id":"cebpf4jnsgd1na2vs0mg"},{"bike_id":"62015064-8961-4f45-848d-ae5a35badf0a","system_id":"levelo_inurba_marseille","lat":43.317191,"lon":5.423896,"is_reserved":false,"is_disabled":false,"rental_uris":{"android":"levelo://app?vid=62015064-8961-4f45-848d-ae5a35badf0a","ios":"levelo://app?vid=62015064-8961-4f45-848d-ae5a35badf0a"},"vehicle_type_id":"4","last_reported":1777207245,"current_range_meters":6800,"station_id":"ce4bhp92rcd13ifvqhbg","pricing_plan_id":"cebpf4jnsgd1na2vs0mg"},{"bike_id":"577bfdf5-6f2c-490d-a748-b8e81e08342d","system_id":"levelo_inurba_marseille","lat":43.262,"lon":5.37931,"is_reserved":false,"is_disabled":false,"rental_uris":{"android":"levelo://app?vid=577bfdf5-6f2c-490d-a748-b8e81e08342d","ios":"levelo://app?vid=577bfdf5-6f2c-490d-a748-b8e81e08342d"},"vehicle_type_id":"4","last_reported":1777207245,"current_range_meters":6800,"station_id":"ce4bhjp2rcd13ifvqg90","pricing_plan_id":"cebpf4jnsgd1na2vs0mg"},{"bike_id":"5fdff1d7-b2d7-4e39-ad7f-00ed09411d1d","system_id":"levelo_inurba_marseille","lat":43.28476,"lon":5.48388,"is_reserved":false,"is_disabled":false,"rental_uris":{"android":"levelo://app?vid=5fdff1d7-b2d7-4e39-ad7f-00ed09411d1d","ios":"levelo://app?vid=5fdff1d7-b2d7-4e39-ad7f-00ed09411d1d"},"vehicle_type_id":"4","last_reported":1777207245,"current_range_meters":7200,"station_id":"st_d3svhcjqgbts73a3dn0g","pricing_plan_id":"cebpf4jnsgd1na2vs0mg"},{"bike_id":"ec99394c-6a1a-4f83-9101-f948e502c52b","system_id":"levelo_inurba_marseille","lat":43.30139,"lon":5.38061,"is_reserved":false,"is_disabled":false,"rental_uris":{"android":"levelo://app?vid=ec99394c-6a1a-4f83-9101-f948e502c52b","ios":"levelo://app?vid=ec99394c-6a1a-4f83-9101-f948e502c52b"},"vehicle_type_id":"4","last_reported":1777207245,"current_range_meters":7200,"station_id":"ce4bgjp2rcd13ifvqbh0","pricing_plan_id":"cebpf4jnsgd1na2vs0mg"},{"bike_id":"1fa7c290-baf4-43ed-aa99-7181dabef99e","system_id":"levelo_inurba_marseille","lat":43.33547,"lon":5.37435,"is_reserved":false,"is_disabled":false,"rental_uris":{"android":"levelo://app?vid=1fa7c290-baf4-43ed-aa99-7181dabef99e","ios":"levelo://app?vid=1fa7c290-baf4-43ed-aa99-7181dabef99e"},"vehicle_type_id":"4","last_reported":1777207245,"current_range_meters":7200,"station_id":"st_d46tts09ee8s73dlu43g","pricing_plan_id":"cebpf4jnsgd1na2vs0mg"},{"bike_id":"6cf3a600-b22f-4888-b1ea-a099526102d1","system_id":"levelo_inurba_marseille","lat":43.24657,"lon":5.38156,"is_reserved":false,"is_disabled":false,"rental_uris":{"android":"levelo://app?vid=6cf3a600-b22f-4888-b1ea-a099526102d1","ios":"levelo://app?vid=6cf3a600-b22f-4888-b1ea-a099526102d1"},"vehicle_type_id":"4","last_reported":1777207245,"current_range_meters":7200,"station_id":"ce4bhih2rcd13ifvqfr0","pricing_plan_id":"cebpf4jnsgd1na2vs0mg"},{"bike_id":"39f36854-54a2-4a69-bc81-3441e5957f45","system_id":"levelo_inurba_marseille","lat":43.28408,"lon":5.34985,"is_reserved":false,"is_disabled":false,"rental_uris":{"android":"levelo://app?vid=39f36854-54a2-4a69-bc81-3441e5957f45","ios":"levelo://app?vid=39f36854-54a2-4a69-bc81-3441e5957f45"},"vehicle_type_id":"4","last_reported":1777207245,"current_range_meters":7200,"station_id":"ce4bhbh2rcd13ifvqepg","pricing_plan_id":"cebpf4jnsgd1na2vs0mg"},{"bike_id":"be3dbaca-317c-43ef-8335-8f03df566046","system_id":"levelo_inurba_marseille","lat":43.28466,"lon":5.48399,"is_reserved":false,"is_disabled":true,"rental_uris":{"android":"levelo://app?vid=be3dbaca-317c-43ef-8335-8f03df566046","ios":"levelo://app?vid=be3dbaca-317c-43ef-8335-8f03df566046"},"vehicle_type_id":"4","last_reported":1777207245,"current_range_meters":7200,"station_id":"st_d3svhcjqgbts73a3dn0g","pricing_plan_id":"cebpf4jnsgd1na2vs0mg"},{"bike_id":"0f33b7ca-2647-4b17-8c42-fb2ed61ed039","system_id":"levelo_inurba_marseille","lat":43.29069,"lon":5.37148,"is_reserved":false,"is_disabled":false,"rental_uris":{"android":"levelo://app?vid=0f33b7ca-2647-4b17-8c42-fb2ed61ed039","ios":"levelo://app?vid=0f33b7ca-2647-4b17-8c42-fb2ed61ed039"},"vehicle_type_id":"4","last_reported":1777207245,"current_range_meters":7200,"station_id":"ce4bh5p2rcd13ifvqe4g","pricing_plan_id":"cebpf4jnsgd1na2vs0mg"},{"bike_id":"673573fb-7457-48f9-bf98-23c4f082a93a","system_id":"levelo_inurba_marseille","lat":43.23191,"lon":5.39964,"is_reserved":false,"is_disabled":false,"rental_uris":{"android":"levelo://app?vid=673573fb-7457-48f9-bf98-23c4f082a93a","ios":"levelo://app?vid=673573fb-7457-48f9-bf98-23c4f082a93a"},"vehicle_type_id":"4","last_reported":1777207245,"current_range_meters":7200,"station_id":"ce4bhn12rcd13ifvqgqg","pricing_plan_id":"cebpf4jnsgd1na2vs0mg"},{"bike_id":"145ae6f0-7a6f-408a-aa85-a7c3130e0fcb","system_id":"levelo_inurba_marseille","lat":43.3096,"lon":5.40139,"is_reserved":false,"is_disabled":false,"rental_uris":{"android":"levelo://app?vid=145ae6f0-7a6f-408a-aa85-a7c3130e0fcb","ios":"levelo://app?vid=145ae6f0-7a6f-408a-aa85-a7c3130e0fcb"},"vehicle_type_id":"4","last_reported":1777207245,"current_range_meters":7200,"station_id":"ce4bgvp2rcd13ifvqct0","pricing_plan_id":"cebpf4jnsgd1na2vs0mg"},{"bike_id":"b7166d00-058e-4f8a-ac08-8d7664362d9a","system_id":"levelo_inurba_marseille","lat":43.26556,"lon":5.37271,"is_reserved":false,"is_disabled":true,"rental_uris":{"android":"levelo://app?vid=b7166d00-058e-4f8a-ac08-8d7664362d9a","ios":"levelo://app?vid=b7166d00-058e-4f8a-ac08-8d7664362d9a"},"vehicle_type_id":"4","last_reported":1777207245,"current_range_meters":7200,"station_id":"ce4bhg12rcd13ifvqf70","pricing_plan_id":"cebpf4jnsgd1na2vs0mg"},{"bike_id":"7c2a04de-5d23-4907-adc3-61b0699fe600","system_id":"levelo_inurba_marseille","lat":43.28855,"lon":5.3585,"is_reserved":false,"is_disabled":false,"rental_uris":{"android":"levelo://app?vid=7c2a04de-5d23-4907-adc3-61b0699fe600","ios":"levelo://app?vid=7c2a04de-5d23-4907-adc3-61b0699fe600"},"vehicle_type_id":"4","last_reported":1777207245,"current_range_meters":7200,"station_id":"ce4bhb12rcd13ifvqem0","pricing_plan_id":"cebpf4jnsgd1na2vs0mg"},{"bike_id":"3e38d436-ae87-49d4-a9b9-718db5f25cf3","system_id":"levelo_inurba_marseille","lat":43.29305,"lon":5.371586,"is_reserved":false,"is_disabled":false,"rental_uris":{"android":"levelo://app?vid=3e38d436-ae87-49d4-a9b9-718db5f25cf3","ios":"levelo://app?vid=3e38d436-ae87-49d4-a9b9-718db5f25cf3"},"vehicle_type_id":"4","last_reported":1777207245,"current_range_meters":7200,"station_id":"ce4bgh92rcd13ifvqb40","pricing_plan_id":"cebpf4jnsgd1na2vs0mg"},{"bike_id":"fbae2ad0-8b58-45b7-a98a-5e8ab07ce62f","system_id":"levelo_inurba_marseille","lat":43.23153,"lon":5.43704,"is_reserved":false,"is_disabled":false,"rental_uris":{"android":"levelo://app?vid=fbae2ad0-8b58-45b7-a98a-5e8ab07ce62f","ios":"levelo://app?vid=fbae2ad0-8b58-45b7-a98a-5e8ab07ce62f"},"vehicle_type_id":"4","last_reported":1777207245,"current_range_meters":7200,"station_id":"ce4bhmp2rcd13ifvqgog","pricing_plan_id":"cebpf4jnsgd1na2vs0mg"},{"bike_id":"494fd0fc-3b39-4504-a26b-321afbf22977","system_id":"levelo_inurba_marseille","lat":43.23838,"lon":5.38577,"is_reserved":false,"is_disabled":false,"rental_uris":{"android":"levelo://app?vid=494fd0fc-3b39-4504-a26b-321afbf22977","ios":"levelo://app?vid=494fd0fc-3b39-4504-a26b-321afbf22977"},"vehicle_type_id":"4","last_reported":1777207245,"current_range_meters":8000,"station_id":"","pricing_plan_id":"cebpf4jnsgd1na2vs0mg"},{"bike_id":"f818e507-9a1c-4b95-bc22-abca566c1219","system_id":"levelo_inurba_marseille","lat":43.29004,"lon":5.35606,"is_reserved":false,"is_disabled":false,"rental_uris":{"android":"levelo://app?vid=f818e507-9a1c-4b95-bc22-abca566c1219","ios":"levelo://app?vid=f818e507-9a1c-4b95-bc22-abca566c1219"},"vehicle_type_id":"4","last_reported":1777207245,"current_range_meters":8000,"station_id":"ce4bhb92rcd13ifvqen0","pricing_plan_id":"cebpf4jnsgd1na2vs0mg"},{"bike_id":"c8602ec4-5bc5-4ff2-baee-83e5c094a5ed","system_id":"levelo_inurba_marseille","lat":43.29268,"lon":5.3684,"is_reserved":false,"is_disabled":false,"rental_uris":{"android":"levelo://app?vid=c8602ec4-5bc5-4ff2-baee-83e5c094a5ed","ios":"levelo://app?vid=c8602ec4-5bc5-4ff2-baee-83e5c094a5ed"},"vehicle_type_id":"4","last_reported":1777207245,"current_range_meters":8000,"station_id":"ce4bhbp2rcd13ifvqesg","pricing_plan_id":"cebpf4jnsgd1na2vs0mg"},{"bike_id":"fa5864cb-8dc5-4a9e-9ad2-2cc146e40b34","system_id":"levelo_inurba_marseille","lat":43.29165,"lon":5.35796,"is_reserved":false,"is_disabled":false,"rental_uris":{"android":"levelo://app?vid=fa5864cb-8dc5-4a9e-9ad2-2cc146e40b34","ios":"levelo://app?vid=fa5864cb-8dc5-4a9e-9ad2-2cc146e40b34"},"vehicle_type_id":"4","last_reported":1777207245,"current_range_meters":8000,"station_id":"ce4bhb12rcd13ifvqel0","pricing_plan_id":"cebpf4jnsgd1na2vs0mg"},{"bike_id":"fb350924-3b39-4197-a891-8208914eef37","system_id":"levelo_inurba_marseille","lat":43.24807,"lon":5.37448,"is_reserved":false,"is_disabled":false,"rental_uris":{"android":"levelo://app?vid=fb350924-3b39-4197-a891-8208914eef37","ios":"levelo://app?vid=fb350924-3b39-4197-a891-8208914eef37"},"vehicle_type_id":"4","last_reported":1777207245,"current_range_meters":8000,"station_id":"ce4bhgh2rcd13ifvqfb0","pricing_plan_id":"cebpf4jnsgd1na2vs0mg"},{"bike_id":"4470a9dc-0144-467a-9b93-3600a3a76722","system_id":"levelo_inurba_marseille","lat":43.28279,"lon":5.35055,"is_reserved":false,"is_disabled":false,"rental_uris":{"android":"levelo://app?vid=4470a9dc-0144-467a-9b93-3600a3a76722","ios":"levelo://app?vid=4470a9dc-0144-467a-9b93-3600a3a76722"},"vehicle_type_id":"4","last_reported":1777207245,"current_range_meters":8000,"station_id":"ce4bhbp2rcd13ifvqerg","pricing_plan_id":"cebpf4jnsgd1na2vs0mg"},{"bike_id":"a5d1c5f8-e551-41de-b7f3-a52119a1050b","system_id":"levelo_inurba_marseille","lat":43.27804,"lon":5.37454,"is_reserved":false,"is_disabled":false,"rental_uris":{"android":"levelo://app?vid=a5d1c5f8-e551-41de-b7f3-a52119a1050b","ios":"levelo://app?vid=a5d1c5f8-e551-41de-b7f3-a52119a1050b"},"vehicle_type_id":"4","last_reported":1777207245,"current_range_meters":8000,"station_id":"","pricing_plan_id":"cebpf4jnsgd1na2vs0mg"},{"bike_id":"64809ef5-a9fa-47c6-96aa-0c51f2e859e7","system_id":"levelo_inurba_marseille","lat":43.26196,"lon":5.37927,"is_reserved":false,"is_disabled":false,"rental_uris":{"android":"levelo://app?vid=64809ef5-a9fa-47c6-96aa-0c51f2e859e7","ios":"levelo://app?vid=64809ef5-a9fa-47c6-96aa-0c51f2e859e7"},"vehicle_type_id":"4","last_reported":1777207245,"current_range_meters":8000,"station_id":"ce4bhjp2rcd13ifvqg90","pricing_plan_id":"cebpf4jnsgd1na2vs0mg"},{"bike_id":"661352ad-320f-4fec-900e-52bef15be9f8","system_id":"levelo_inurba_marseille","lat":43.3087,"lon":5.39657,"is_reserved":false,"is_disabled":false,"rental_uris":{"android":"levelo://app?vid=661352ad-320f-4fec-900e-52bef15be9f8","ios":"levelo://app?vid=661352ad-320f-4fec-900e-52bef15be9f8"},"vehicle_type_id":"4","last_reported":1777207245,"current_range_meters":8000,"station_id":"ce4bh012rcd13ifvqcv0","pricing_plan_id":"cebpf4jnsgd1na2vs0mg"},{"bike_id":"1d9e76bf-96fc-4391-9c53-ced34279c539","system_id":"levelo_inurba_marseille","lat":43.23143,"lon":5.43711,"is_reserved":false,"is_disabled":false,"rental_uris":{"android":"levelo://app?vid=1d9e76bf-96fc-4391-9c53-ced34279c539","ios":"levelo://app?vid=1d9e76bf-96fc-4391-9c53-ced34279c539"},"vehicle_type_id":"4","last_reported":1777207245,"current_range_meters":8000,"station_id":"ce4bhmp2rcd13ifvqgog","pricing_plan_id":"cebpf4jnsgd1na2vs0mg"},{"bike_id":"d435150b-197b-46a1-b32e-b70528f666dc","system_id":"levelo_inurba_marseille","lat":43.26406,"lon":5.41033,"is_reserved":false,"is_disabled":false,"rental_uris":{"android":"levelo://app?vid=d435150b-197b-46a1-b32e-b70528f666dc","ios":"levelo://app?vid=d435150b-197b-46a1-b32e-b70528f666dc"},"vehicle_type_id":"4","last_reported":1777207245,"current_range_meters":8000,"station_id":"st_d4e5ca6na9uc73bfl5fg","pricing_plan_id":"cebpf4jnsgd1na2vs0mg"},{"bike_id":"6e48a8c2-492c-4c01-beb0-e869aa979149","system_id":"levelo_inurba_marseille","lat":43.30549,"lon":5.36527,"is_reserved":false,"is_disabled":false,"rental_uris":{"android":"levelo://app?vid=6e48a8c2-492c-4c01-beb0-e869aa979149","ios":"levelo://app?vid=6e48a8c2-492c-4c01-beb0-e869aa979149"},"vehicle_type_id":"4","last_reported":1777207245,"current_range_meters":8000,"station_id":"ce4bgs12rcd13ifvqcag","pricing_plan_id":"cebpf4jnsgd1na2vs0mg"},{"bike_id":"f7716b3d-5dc6-4c1f-94ea-dd8b69d23a22","system_id":"levelo_inurba_marseille","lat":43.27618,"lon":5.43526,"is_reserved":false,"is_disabled":false,"rental_uris":{"android":"levelo://app?vid=f7716b3d-5dc6-4c1f-94ea-dd8b69d23a22","ios":"levelo://app?vid=f7716b3d-5dc6-4c1f-94ea-dd8b69d23a22"},"vehicle_type_id":"4","last_reported":1777207245,"current_range_meters":8000,"station_id":"","pricing_plan_id":"cebpf4jnsgd1na2vs0mg"},{"bike_id":"6fefe45f-2e4d-4ce5-a9fc-a6bb1d77c1d3","system_id":"levelo_inurba_marseille","lat":43.28616,"lon":5.35096,"is_reserved":false,"is_disabled":true,"rental_uris":{"android":"levelo://app?vid=6fefe45f-2e4d-4ce5-a9fc-a6bb1d77c1d3","ios":"levelo://app?vid=6fefe45f-2e4d-4ce5-a9fc-a6bb1d77c1d3"},"vehicle_type_id":"4","last_reported":1777207245,"current_range_meters":8000,"station_id":"","pricing_plan_id":"cebpf4jnsgd1na2vs0mg"},{"bike_id":"df75676a-7c3f-4d29-80c0-260795f2c62d","system_id":"levelo_inurba_marseille","lat":43.27954,"lon":5.40803,"is_reserved":false,"is_disabled":false,"rental_uris":{"android":"levelo://app?vid=df75676a-7c3f-4d29-80c0-260795f2c62d","ios":"levelo://app?vid=df75676a-7c3f-4d29-80c0-260795f2c62d"},"vehicle_type_id":"4","last_reported":1777207245,"current_range_meters":8400,"station_id":"","pricing_plan_id":"cebpf4jnsgd1na2vs0mg"},{"bike_id":"d84dad1f-3355-427c-a81e-a3f872caa973","system_id":"levelo_inurba_marseille","lat":43.28701,"lon":5.46684,"is_reserved":false,"is_disabled":false,"rental_uris":{"android":"levelo://app?vid=d84dad1f-3355-427c-a81e-a3f872caa973","ios":"levelo://app?vid=d84dad1f-3355-427c-a81e-a3f872caa973"},"vehicle_type_id":"4","last_reported":1777207245,"current_range_meters":8400,"station_id":"st_d6tc3vkotcvc738tfjhg","pricing_plan_id":"cebpf4jnsgd1na2vs0mg"},{"bike_id":"4f594e27-9519-4af6-8f97-55e059ccc230","system_id":"levelo_inurba_marseille","lat":43.280115,"lon":5.416592,"is_reserved":false,"is_disabled":false,"rental_uris":{"android":"levelo://app?vid=4f594e27-9519-4af6-8f97-55e059ccc230","ios":"levelo://app?vid=4f594e27-9519-4af6-8f97-55e059ccc230"},"vehicle_type_id":"4","last_reported":1777207245,"current_range_meters":8400,"station_id":"ce4bho12rcd13ifvqh1g","pricing_plan_id":"cebpf4jnsgd1na2vs0mg"},{"bike_id":"3142bc3c-82f8-47a3-b9b7-bdb5ae2f4136","system_id":"levelo_inurba_marseille","lat":43.26041,"lon":5.37544,"is_reserved":false,"is_disabled":false,"rental_uris":{"android":"levelo://app?vid=3142bc3c-82f8-47a3-b9b7-bdb5ae2f4136","ios":"levelo://app?vid=3142bc3c-82f8-47a3-b9b7-bdb5ae2f4136"},"vehicle_type_id":"4","last_reported":1777207245,"current_range_meters":8400,"station_id":"ce4bhgh2rcd13ifvqfa0","pricing_plan_id":"cebpf4jnsgd1na2vs0mg"},{"bike_id":"6c03a756-6268-4631-a1f0-4d7b6ab3b005","system_id":"levelo_inurba_marseille","lat":43.26051,"lon":5.39392,"is_reserved":false,"is_disabled":false,"rental_uris":{"android":"levelo://app?vid=6c03a756-6268-4631-a1f0-4d7b6ab3b005","ios":"levelo://app?vid=6c03a756-6268-4631-a1f0-4d7b6ab3b005"},"vehicle_type_id":"4","last_reported":1777207245,"current_range_meters":8400,"station_id":"ce4bhh92rcd13ifvqfj0","pricing_plan_id":"cebpf4jnsgd1na2vs0mg"},{"bike_id":"1535c653-0eb8-4d1b-b448-9ed626f4e8d6","system_id":"levelo_inurba_marseille","lat":43.29601,"lon":5.38097,"is_reserved":false,"is_disabled":false,"rental_uris":{"android":"levelo://app?vid=1535c653-0eb8-4d1b-b448-9ed626f4e8d6","ios":"levelo://app?vid=1535c653-0eb8-4d1b-b448-9ed626f4e8d6"},"vehicle_type_id":"4","last_reported":1777207245,"current_range_meters":8400,"station_id":"ce4bgl12rcd13ifvqbo0","pricing_plan_id":"cebpf4jnsgd1na2vs0mg"},{"bike_id":"35d37074-fd35-4fe4-9e0b-415b07d37709","system_id":"levelo_inurba_marseille","lat":43.2916,"lon":5.37151,"is_reserved":false,"is_disabled":false,"rental_uris":{"android":"levelo://app?vid=35d37074-fd35-4fe4-9e0b-415b07d37709","ios":"levelo://app?vid=35d37074-fd35-4fe4-9e0b-415b07d37709"},"vehicle_type_id":"4","last_reported":1777207245,"current_range_meters":8400,"station_id":"ce4bha92rcd13ifvqeh0","pricing_plan_id":"cebpf4jnsgd1na2vs0mg"},{"bike_id":"867e4efb-03e8-466f-a027-d873140a375d","system_id":"levelo_inurba_marseille","lat":43.24817,"lon":5.37465,"is_reserved":false,"is_disabled":false,"rental_uris":{"android":"levelo://app?vid=867e4efb-03e8-466f-a027-d873140a375d","ios":"levelo://app?vid=867e4efb-03e8-466f-a027-d873140a375d"},"vehicle_type_id":"4","last_reported":1777207245,"current_range_meters":8400,"station_id":"ce4bhgh2rcd13ifvqfb0","pricing_plan_id":"cebpf4jnsgd1na2vs0mg"},{"bike_id":"2a6bd589-b4ff-4dbe-b290-a2edfaed780f","system_id":"levelo_inurba_marseille","lat":43.24388,"lon":5.37084,"is_reserved":false,"is_disabled":false,"rental_uris":{"android":"levelo://app?vid=2a6bd589-b4ff-4dbe-b290-a2edfaed780f","ios":"levelo://app?vid=2a6bd589-b4ff-4dbe-b290-a2edfaed780f"},"vehicle_type_id":"4","last_reported":1777207245,"current_range_meters":8400,"station_id":"ce4bhhh2rcd13ifvqfk0","pricing_plan_id":"cebpf4jnsgd1na2vs0mg"},{"bike_id":"8e37fa05-a4db-452d-9b9e-ff9751cb5543","system_id":"levelo_inurba_marseille","lat":43.29805,"lon":5.3934,"is_reserved":false,"is_disabled":false,"rental_uris":{"android":"levelo://app?vid=8e37fa05-a4db-452d-9b9e-ff9751cb5543","ios":"levelo://app?vid=8e37fa05-a4db-452d-9b9e-ff9751cb5543"},"vehicle_type_id":"4","last_reported":1777207245,"current_range_meters":8800,"station_id":"chh1huq6cuj3fo74tm60","pricing_plan_id":"cebpf4jnsgd1na2vs0mg"},{"bike_id":"cea31a32-5e3a-46c4-9d32-5011edfbb303","system_id":"levelo_inurba_marseille","lat":43.337444,"lon":5.374475,"is_reserved":false,"is_disabled":true,"rental_uris":{"android":"levelo://app?vid=cea31a32-5e3a-46c4-9d32-5011edfbb303","ios":"levelo://app?vid=cea31a32-5e3a-46c4-9d32-5011edfbb303"},"vehicle_type_id":"4","last_reported":1777207245,"current_range_meters":8800,"station_id":"","pricing_plan_id":"cebpf4jnsgd1na2vs0mg"},{"bike_id":"48044fa4-cdc5-4d2e-9af6-19fd5dd35f5f","system_id":"levelo_inurba_marseille","lat":43.25717,"lon":5.41099,"is_reserved":false,"is_disabled":false,"rental_uris":{"android":"levelo://app?vid=48044fa4-cdc5-4d2e-9af6-19fd5dd35f5f","ios":"levelo://app?vid=48044fa4-cdc5-4d2e-9af6-19fd5dd35f5f"},"vehicle_type_id":"4","last_reported":1777207245,"current_range_meters":8800,"station_id":"ce4bhkp2rcd13ifvqgd0","pricing_plan_id":"cebpf4jnsgd1na2vs0mg"},{"bike_id":"5354cf07-79ed-432a-b193-14addfafc2f9","system_id":"levelo_inurba_marseille","lat":43.2438,"lon":5.37045,"is_reserved":false,"is_disabled":false,"rental_uris":{"android":"levelo://app?vid=5354cf07-79ed-432a-b193-14addfafc2f9","ios":"levelo://app?vid=5354cf07-79ed-432a-b193-14addfafc2f9"},"vehicle_type_id":"4","last_reported":1777207245,"current_range_meters":8800,"station_id":"ce4bhhh2rcd13ifvqfk0","pricing_plan_id":"cebpf4jnsgd1na2vs0mg"},{"bike_id":"3dd88976-0db9-4f79-9d69-2b4de8a2650c","system_id":"levelo_inurba_marseille","lat":43.2256,"lon":5.41635,"is_reserved":false,"is_disabled":false,"rental_uris":{"android":"levelo://app?vid=3dd88976-0db9-4f79-9d69-2b4de8a2650c","ios":"levelo://app?vid=3dd88976-0db9-4f79-9d69-2b4de8a2650c"},"vehicle_type_id":"4","last_reported":1777207245,"current_range_meters":8800,"station_id":"st_d2o4gvlbi1j2169b742g","pricing_plan_id":"cebpf4jnsgd1na2vs0mg"},{"bike_id":"5676b1df-3102-49f0-94ea-6bd037dc90c9","system_id":"levelo_inurba_marseille","lat":43.31128,"lon":5.38062,"is_reserved":false,"is_disabled":false,"rental_uris":{"android":"levelo://app?vid=5676b1df-3102-49f0-94ea-6bd037dc90c9","ios":"levelo://app?vid=5676b1df-3102-49f0-94ea-6bd037dc90c9"},"vehicle_type_id":"4","last_reported":1777207245,"current_range_meters":8800,"station_id":"","pricing_plan_id":"cebpf4jnsgd1na2vs0mg"},{"bike_id":"3641d640-2b8a-4f13-b91c-6c317e71d939","system_id":"levelo_inurba_marseille","lat":43.24169,"lon":5.3639,"is_reserved":false,"is_disabled":false,"rental_uris":{"android":"levelo://app?vid=3641d640-2b8a-4f13-b91c-6c317e71d939","ios":"levelo://app?vid=3641d640-2b8a-4f13-b91c-6c317e71d939"},"vehicle_type_id":"4","last_reported":1777207245,"current_range_meters":8800,"station_id":"cpo36qri1sfpv3e86is0","pricing_plan_id":"cebpf4jnsgd1na2vs0mg"},{"bike_id":"9bbf1e9d-6737-4217-8ec3-b0d06e6a1719","system_id":"levelo_inurba_marseille","lat":43.27378,"lon":5.36252,"is_reserved":false,"is_disabled":false,"rental_uris":{"android":"levelo://app?vid=9bbf1e9d-6737-4217-8ec3-b0d06e6a1719","ios":"levelo://app?vid=9bbf1e9d-6737-4217-8ec3-b0d06e6a1719"},"vehicle_type_id":"4","last_reported":1777207245,"current_range_meters":8800,"station_id":"ce4bhbh2rcd13ifvqeo0","pricing_plan_id":"cebpf4jnsgd1na2vs0mg"},{"bike_id":"d710e251-fad5-471b-bfaf-1dcc26c8e783","system_id":"levelo_inurba_marseille","lat":43.24459,"lon":5.42538,"is_reserved":false,"is_disabled":false,"rental_uris":{"android":"levelo://app?vid=d710e251-fad5-471b-bfaf-1dcc26c8e783","ios":"levelo://app?vid=d710e251-fad5-471b-bfaf-1dcc26c8e783"},"vehicle_type_id":"4","last_reported":1777207245,"current_range_meters":8800,"station_id":"st_d4a3vfp97mjs738cd8kg","pricing_plan_id":"cebpf4jnsgd1na2vs0mg"},{"bike_id":"17f5223a-84d1-46d9-b55d-6a7e95a08bd7","system_id":"levelo_inurba_marseille","lat":43.24795,"lon":5.3746,"is_reserved":false,"is_disabled":false,"rental_uris":{"android":"levelo://app?vid=17f5223a-84d1-46d9-b55d-6a7e95a08bd7","ios":"levelo://app?vid=17f5223a-84d1-46d9-b55d-6a7e95a08bd7"},"vehicle_type_id":"4","last_reported":1777207245,"current_range_meters":8800,"station_id":"ce4bhgh2rcd13ifvqfb0","pricing_plan_id":"cebpf4jnsgd1na2vs0mg"},{"bike_id":"d1063a8e-a667-4f9b-9166-4b2ea1244e5f","system_id":"levelo_inurba_marseille","lat":43.24804,"lon":5.37432,"is_reserved":false,"is_disabled":false,"rental_uris":{"android":"levelo://app?vid=d1063a8e-a667-4f9b-9166-4b2ea1244e5f","ios":"levelo://app?vid=d1063a8e-a667-4f9b-9166-4b2ea1244e5f"},"vehicle_type_id":"4","last_reported":1777207245,"current_range_meters":8800,"station_id":"ce4bhgh2rcd13ifvqfb0","pricing_plan_id":"cebpf4jnsgd1na2vs0mg"},{"bike_id":"1db00e34-5de7-4dcd-8e5e-0acb9338b4b7","system_id":"levelo_inurba_marseille","lat":43.32126,"lon":5.36779,"is_reserved":false,"is_disabled":false,"rental_uris":{"android":"levelo://app?vid=1db00e34-5de7-4dcd-8e5e-0acb9338b4b7","ios":"levelo://app?vid=1db00e34-5de7-4dcd-8e5e-0acb9338b4b7"},"vehicle_type_id":"4","last_reported":1777207245,"current_range_meters":8800,"station_id":"ce4bhrh2rcd13ifvqhug","pricing_plan_id":"cebpf4jnsgd1na2vs0mg"},{"bike_id":"b21748b2-fb24-4ee6-8e6a-c7c61264faec","system_id":"levelo_inurba_marseille","lat":43.27369,"lon":5.42174,"is_reserved":false,"is_disabled":false,"rental_uris":{"android":"levelo://app?vid=b21748b2-fb24-4ee6-8e6a-c7c61264faec","ios":"levelo://app?vid=b21748b2-fb24-4ee6-8e6a-c7c61264faec"},"vehicle_type_id":"4","last_reported":1777207245,"current_range_meters":8800,"station_id":"","pricing_plan_id":"cebpf4jnsgd1na2vs0mg"},{"bike_id":"a78c4cf8-6f0f-4b95-a435-c6377aca3889","system_id":"levelo_inurba_marseille","lat":43.28428,"lon":5.34984,"is_reserved":false,"is_disabled":false,"rental_uris":{"android":"levelo://app?vid=a78c4cf8-6f0f-4b95-a435-c6377aca3889","ios":"levelo://app?vid=a78c4cf8-6f0f-4b95-a435-c6377aca3889"},"vehicle_type_id":"4","last_reported":1777207245,"current_range_meters":8800,"station_id":"ce4bhbh2rcd13ifvqepg","pricing_plan_id":"cebpf4jnsgd1na2vs0mg"},{"bike_id":"1f13452b-ac27-48ca-bbd2-1255b0865067","system_id":"levelo_inurba_marseille","lat":43.27828,"lon":5.37933,"is_reserved":false,"is_disabled":false,"rental_uris":{"android":"levelo://app?vid=1f13452b-ac27-48ca-bbd2-1255b0865067","ios":"levelo://app?vid=1f13452b-ac27-48ca-bbd2-1255b0865067"},"vehicle_type_id":"4","last_reported":1777207245,"current_range_meters":8800,"station_id":"","pricing_plan_id":"cebpf4jnsgd1na2vs0mg"},{"bike_id":"93378c7e-8a33-4e07-ab2a-fc9cc927fe7a","system_id":"levelo_inurba_marseille","lat":43.28865,"lon":5.39332,"is_reserved":false,"is_disabled":true,"rental_uris":{"android":"levelo://app?vid=93378c7e-8a33-4e07-ab2a-fc9cc927fe7a","ios":"levelo://app?vid=93378c7e-8a33-4e07-ab2a-fc9cc927fe7a"},"vehicle_type_id":"4","last_reported":1777207245,"current_range_meters":8800,"station_id":"ce4bh2p2rcd13ifvqdi0","pricing_plan_id":"cebpf4jnsgd1na2vs0mg"},{"bike_id":"d5745ec8-244f-4a10-b0cf-ba5032b624de","system_id":"levelo_inurba_marseille","lat":43.23972,"lon":5.36612,"is_reserved":false,"is_disabled":false,"rental_uris":{"android":"levelo://app?vid=d5745ec8-244f-4a10-b0cf-ba5032b624de","ios":"levelo://app?vid=d5745ec8-244f-4a10-b0cf-ba5032b624de"},"vehicle_type_id":"4","last_reported":1777207245,"current_range_meters":8800,"station_id":"ce4bhi12rcd13ifvqfp0","pricing_plan_id":"cebpf4jnsgd1na2vs0mg"},{"bike_id":"d0d29561-5aac-4540-9fd8-4ef61a6610e0","system_id":"levelo_inurba_marseille","lat":43.29228,"lon":5.36052,"is_reserved":false,"is_disabled":false,"rental_uris":{"android":"levelo://app?vid=d0d29561-5aac-4540-9fd8-4ef61a6610e0","ios":"levelo://app?vid=d0d29561-5aac-4540-9fd8-4ef61a6610e0"},"vehicle_type_id":"4","last_reported":1777207245,"current_range_meters":8800,"station_id":"ce4bhbh2rcd13ifvqeqg","pricing_plan_id":"cebpf4jnsgd1na2vs0mg"},{"bike_id":"a4b0cc02-e7f6-4c0a-9453-e3df9ffc7e30","system_id":"levelo_inurba_marseille","lat":43.23958,"lon":5.36632,"is_reserved":false,"is_disabled":false,"rental_uris":{"android":"levelo://app?vid=a4b0cc02-e7f6-4c0a-9453-e3df9ffc7e30","ios":"levelo://app?vid=a4b0cc02-e7f6-4c0a-9453-e3df9ffc7e30"},"vehicle_type_id":"4","last_reported":1777207245,"current_range_meters":8800,"station_id":"ce4bhi12rcd13ifvqfp0","pricing_plan_id":"cebpf4jnsgd1na2vs0mg"},{"bike_id":"410b50e2-2d5c-48c6-a5c9-1e02cea14100","system_id":"levelo_inurba_marseille","lat":43.23178,"lon":5.3998,"is_reserved":false,"is_disabled":false,"rental_uris":{"android":"levelo://app?vid=410b50e2-2d5c-48c6-a5c9-1e02cea14100","ios":"levelo://app?vid=410b50e2-2d5c-48c6-a5c9-1e02cea14100"},"vehicle_type_id":"4","last_reported":1777207245,"current_range_meters":8800,"station_id":"ce4bhn12rcd13ifvqgqg","pricing_plan_id":"cebpf4jnsgd1na2vs0mg"},{"bike_id":"f6f0079e-bb27-4bae-9f46-a238d4a43dab","system_id":"levelo_inurba_marseille","lat":43.31221,"lon":5.36839,"is_reserved":false,"is_disabled":false,"rental_uris":{"android":"levelo://app?vid=f6f0079e-bb27-4bae-9f46-a238d4a43dab","ios":"levelo://app?vid=f6f0079e-bb27-4bae-9f46-a238d4a43dab"},"vehicle_type_id":"4","last_reported":1777207245,"current_range_meters":8800,"station_id":"ce4bgl92rcd13ifvqbq0","pricing_plan_id":"cebpf4jnsgd1na2vs0mg"},{"bike_id":"fc29bf68-a4a4-425a-93b6-68c4374f7320","system_id":"levelo_inurba_marseille","lat":43.23176,"lon":5.39987,"is_reserved":false,"is_disabled":false,"rental_uris":{"android":"levelo://app?vid=fc29bf68-a4a4-425a-93b6-68c4374f7320","ios":"levelo://app?vid=fc29bf68-a4a4-425a-93b6-68c4374f7320"},"vehicle_type_id":"4","last_reported":1777207245,"current_range_meters":8800,"station_id":"ce4bhn12rcd13ifvqgqg","pricing_plan_id":"cebpf4jnsgd1na2vs0mg"},{"bike_id":"57637c8a-471c-422e-9fb3-b88d26a22817","system_id":"levelo_inurba_marseille","lat":43.23954,"lon":5.36613,"is_reserved":false,"is_disabled":false,"rental_uris":{"android":"levelo://app?vid=57637c8a-471c-422e-9fb3-b88d26a22817","ios":"levelo://app?vid=57637c8a-471c-422e-9fb3-b88d26a22817"},"vehicle_type_id":"4","last_reported":1777207245,"current_range_meters":9200,"station_id":"ce4bhi12rcd13ifvqfp0","pricing_plan_id":"cebpf4jnsgd1na2vs0mg"},{"bike_id":"a3098898-a03a-4168-98c0-6780a4d17ef0","system_id":"levelo_inurba_marseille","lat":43.29892,"lon":5.38146,"is_reserved":false,"is_disabled":true,"rental_uris":{"android":"levelo://app?vid=a3098898-a03a-4168-98c0-6780a4d17ef0","ios":"levelo://app?vid=a3098898-a03a-4168-98c0-6780a4d17ef0"},"vehicle_type_id":"4","last_reported":1777207245,"current_range_meters":9200,"station_id":"ce4bgj12rcd13ifvqbc0","pricing_plan_id":"cebpf4jnsgd1na2vs0mg"},{"bike_id":"b7729d91-7b28-46df-b002-be015f5f18f4","system_id":"levelo_inurba_marseille","lat":43.28085,"lon":5.39647,"is_reserved":false,"is_disabled":false,"rental_uris":{"android":"levelo://app?vid=b7729d91-7b28-46df-b002-be015f5f18f4","ios":"levelo://app?vid=b7729d91-7b28-46df-b002-be015f5f18f4"},"vehicle_type_id":"4","last_reported":1777207245,"current_range_meters":9200,"station_id":"ce4bho12rcd13ifvqh2g","pricing_plan_id":"cebpf4jnsgd1na2vs0mg"},{"bike_id":"cfae915e-7759-4e10-bb0f-07d6de82e535","system_id":"levelo_inurba_marseille","lat":43.28875,"lon":5.42513,"is_reserved":false,"is_disabled":false,"rental_uris":{"android":"levelo://app?vid=cfae915e-7759-4e10-bb0f-07d6de82e535","ios":"levelo://app?vid=cfae915e-7759-4e10-bb0f-07d6de82e535"},"vehicle_type_id":"4","last_reported":1777207245,"current_range_meters":9200,"station_id":"st_d3b462108ojc7389ooeg","pricing_plan_id":"cebpf4jnsgd1na2vs0mg"},{"bike_id":"9ec2bafa-621a-4d6a-9477-06704acd26ca","system_id":"levelo_inurba_marseille","lat":43.27467,"lon":5.41641,"is_reserved":false,"is_disabled":false,"rental_uris":{"android":"levelo://app?vid=9ec2bafa-621a-4d6a-9477-06704acd26ca","ios":"levelo://app?vid=9ec2bafa-621a-4d6a-9477-06704acd26ca"},"vehicle_type_id":"4","last_reported":1777207245,"current_range_meters":9200,"station_id":"","pricing_plan_id":"cebpf4jnsgd1na2vs0mg"},{"bike_id":"6b5b9e45-67f3-4a64-a294-ead66e30dbef","system_id":"levelo_inurba_marseille","lat":43.24678,"lon":5.38122,"is_reserved":false,"is_disabled":false,"rental_uris":{"android":"levelo://app?vid=6b5b9e45-67f3-4a64-a294-ead66e30dbef","ios":"levelo://app?vid=6b5b9e45-67f3-4a64-a294-ead66e30dbef"},"vehicle_type_id":"4","last_reported":1777207245,"current_range_meters":9200,"station_id":"ce4bhih2rcd13ifvqfr0","pricing_plan_id":"cebpf4jnsgd1na2vs0mg"},{"bike_id":"b44d4bbd-11b3-4ba9-9f43-6577832a81e3","system_id":"levelo_inurba_marseille","lat":43.30543,"lon":5.36558,"is_reserved":false,"is_disabled":false,"rental_uris":{"android":"levelo://app?vid=b44d4bbd-11b3-4ba9-9f43-6577832a81e3","ios":"levelo://app?vid=b44d4bbd-11b3-4ba9-9f43-6577832a81e3"},"vehicle_type_id":"4","last_reported":1777207245,"current_range_meters":9200,"station_id":"ce4bgs12rcd13ifvqcag","pricing_plan_id":"cebpf4jnsgd1na2vs0mg"},{"bike_id":"fa751cf9-28f3-4d65-b8f1-30773d90354d","system_id":"levelo_inurba_marseille","lat":43.24954,"lon":5.40495,"is_reserved":false,"is_disabled":false,"rental_uris":{"android":"levelo://app?vid=fa751cf9-28f3-4d65-b8f1-30773d90354d","ios":"levelo://app?vid=fa751cf9-28f3-4d65-b8f1-30773d90354d"},"vehicle_type_id":"4","last_reported":1777207245,"current_range_meters":9200,"station_id":"st_d2ngiaodas8pm72gd1h0","pricing_plan_id":"cebpf4jnsgd1na2vs0mg"},{"bike_id":"467af7e3-1dde-41a3-a6ca-71104d671795","system_id":"levelo_inurba_marseille","lat":43.32635,"lon":5.40981,"is_reserved":false,"is_disabled":false,"rental_uris":{"android":"levelo://app?vid=467af7e3-1dde-41a3-a6ca-71104d671795","ios":"levelo://app?vid=467af7e3-1dde-41a3-a6ca-71104d671795"},"vehicle_type_id":"4","last_reported":1777207245,"current_range_meters":9200,"station_id":"ce4bhpp2rcd13ifvqhgg","pricing_plan_id":"cebpf4jnsgd1na2vs0mg"},{"bike_id":"cc784def-ac84-4b46-bab5-2521ddcb1307","system_id":"levelo_inurba_marseille","lat":43.26216,"lon":5.37437,"is_reserved":false,"is_disabled":false,"rental_uris":{"android":"levelo://app?vid=cc784def-ac84-4b46-bab5-2521ddcb1307","ios":"levelo://app?vid=cc784def-ac84-4b46-bab5-2521ddcb1307"},"vehicle_type_id":"4","last_reported":1777207245,"current_range_meters":9200,"station_id":"ce4bhgp2rcd13ifvqfc0","pricing_plan_id":"cebpf4jnsgd1na2vs0mg"},{"bike_id":"fd583349-9e7d-4e5b-8155-1da1a7a44b99","system_id":"levelo_inurba_marseille","lat":43.27959,"lon":5.41029,"is_reserved":false,"is_disabled":false,"rental_uris":{"android":"levelo://app?vid=fd583349-9e7d-4e5b-8155-1da1a7a44b99","ios":"levelo://app?vid=fd583349-9e7d-4e5b-8155-1da1a7a44b99"},"vehicle_type_id":"4","last_reported":1777207245,"current_range_meters":9200,"station_id":"ce4bhnp2rcd13ifvqh0g","pricing_plan_id":"cebpf4jnsgd1na2vs0mg"},{"bike_id":"7917a9d5-4ac9-40bd-8834-5d3047c76c9d","system_id":"levelo_inurba_marseille","lat":43.32497,"lon":5.40755,"is_reserved":false,"is_disabled":false,"rental_uris":{"android":"levelo://app?vid=7917a9d5-4ac9-40bd-8834-5d3047c76c9d","ios":"levelo://app?vid=7917a9d5-4ac9-40bd-8834-5d3047c76c9d"},"vehicle_type_id":"4","last_reported":1777207245,"current_range_meters":9200,"station_id":"","pricing_plan_id":"cebpf4jnsgd1na2vs0mg"},{"bike_id":"4b49ab9b-eeca-4117-b1e9-4b53277a58b0","system_id":"levelo_inurba_marseille","lat":43.23192,"lon":5.35545,"is_reserved":false,"is_disabled":true,"rental_uris":{"android":"levelo://app?vid=4b49ab9b-eeca-4117-b1e9-4b53277a58b0","ios":"levelo://app?vid=4b49ab9b-eeca-4117-b1e9-4b53277a58b0"},"vehicle_type_id":"4","last_reported":1777207245,"current_range_meters":9200,"station_id":"ce4bhu92rcd13ifvqi70","pricing_plan_id":"cebpf4jnsgd1na2vs0mg"},{"bike_id":"aa617e93-6150-470f-be56-9fbd872bcc84","system_id":"levelo_inurba_marseille","lat":43.31083,"lon":5.42434,"is_reserved":false,"is_disabled":false,"rental_uris":{"android":"levelo://app?vid=aa617e93-6150-470f-be56-9fbd872bcc84","ios":"levelo://app?vid=aa617e93-6150-470f-be56-9fbd872bcc84"},"vehicle_type_id":"4","last_reported":1777207245,"current_range_meters":9200,"station_id":"ce4bhp92rcd13ifvqhag","pricing_plan_id":"cebpf4jnsgd1na2vs0mg"},{"bike_id":"90dd5051-b351-4fd9-ad08-44f74f0b0e8e","system_id":"levelo_inurba_marseille","lat":43.21769,"lon":5.34591,"is_reserved":false,"is_disabled":false,"rental_uris":{"android":"levelo://app?vid=90dd5051-b351-4fd9-ad08-44f74f0b0e8e","ios":"levelo://app?vid=90dd5051-b351-4fd9-ad08-44f74f0b0e8e"},"vehicle_type_id":"4","last_reported":1777207245,"current_range_meters":9200,"station_id":"st_cvj6r9ubvosntc0bgbag","pricing_plan_id":"cebpf4jnsgd1na2vs0mg"},{"bike_id":"7b9926f3-1d2b-4da5-87b5-bf4a0fec5f8c","system_id":"levelo_inurba_marseille","lat":43.24172,"lon":5.36374,"is_reserved":false,"is_disabled":false,"rental_uris":{"android":"levelo://app?vid=7b9926f3-1d2b-4da5-87b5-bf4a0fec5f8c","ios":"levelo://app?vid=7b9926f3-1d2b-4da5-87b5-bf4a0fec5f8c"},"vehicle_type_id":"4","last_reported":1777207245,"current_range_meters":9200,"station_id":"cpo36qri1sfpv3e86is0","pricing_plan_id":"cebpf4jnsgd1na2vs0mg"},{"bike_id":"50fcb081-4b05-4355-adf3-07f022c0399c","system_id":"levelo_inurba_marseille","lat":43.30959,"lon":5.37904,"is_reserved":false,"is_disabled":false,"rental_uris":{"android":"levelo://app?vid=50fcb081-4b05-4355-adf3-07f022c0399c","ios":"levelo://app?vid=50fcb081-4b05-4355-adf3-07f022c0399c"},"vehicle_type_id":"4","last_reported":1777207245,"current_range_meters":9200,"station_id":"","pricing_plan_id":"cebpf4jnsgd1na2vs0mg"},{"bike_id":"c5e4557e-a579-4ba0-b540-76be6c2c51d2","system_id":"levelo_inurba_marseille","lat":43.26979,"lon":5.40326,"is_reserved":false,"is_disabled":true,"rental_uris":{"android":"levelo://app?vid=c5e4557e-a579-4ba0-b540-76be6c2c51d2","ios":"levelo://app?vid=c5e4557e-a579-4ba0-b540-76be6c2c51d2"},"vehicle_type_id":"4","last_reported":1777207245,"current_range_meters":9600,"station_id":"","pricing_plan_id":"cebpf4jnsgd1na2vs0mg"},{"bike_id":"32d8062d-b01e-46bc-92b9-65d5fbd8fc06","system_id":"levelo_inurba_marseille","lat":43.23955,"lon":5.36616,"is_reserved":false,"is_disabled":false,"rental_uris":{"android":"levelo://app?vid=32d8062d-b01e-46bc-92b9-65d5fbd8fc06","ios":"levelo://app?vid=32d8062d-b01e-46bc-92b9-65d5fbd8fc06"},"vehicle_type_id":"4","last_reported":1777207245,"current_range_meters":9600,"station_id":"ce4bhi12rcd13ifvqfp0","pricing_plan_id":"cebpf4jnsgd1na2vs0mg"},{"bike_id":"2881562f-5e49-4315-80bf-dc8fd103d061","system_id":"levelo_inurba_marseille","lat":43.21185,"lon":5.3507,"is_reserved":false,"is_disabled":false,"rental_uris":{"android":"levelo://app?vid=2881562f-5e49-4315-80bf-dc8fd103d061","ios":"levelo://app?vid=2881562f-5e49-4315-80bf-dc8fd103d061"},"vehicle_type_id":"4","last_reported":1777207245,"current_range_meters":9600,"station_id":"st_cvj6sg6p6f1abm77japg","pricing_plan_id":"cebpf4jnsgd1na2vs0mg"},{"bike_id":"1dbbb389-5931-4d64-b29b-02449b2d67dc","system_id":"levelo_inurba_marseille","lat":43.24459,"lon":5.42538,"is_reserved":false,"is_disabled":false,"rental_uris":{"android":"levelo://app?vid=1dbbb389-5931-4d64-b29b-02449b2d67dc","ios":"levelo://app?vid=1dbbb389-5931-4d64-b29b-02449b2d67dc"},"vehicle_type_id":"4","last_reported":1777207245,"current_range_meters":9600,"station_id":"st_d4a3vfp97mjs738cd8kg","pricing_plan_id":"cebpf4jnsgd1na2vs0mg"},{"bike_id":"a17a356a-6340-4eae-b4d5-d59f3247dda3","system_id":"levelo_inurba_marseille","lat":43.25976,"lon":5.39206,"is_reserved":false,"is_disabled":false,"rental_uris":{"android":"levelo://app?vid=a17a356a-6340-4eae-b4d5-d59f3247dda3","ios":"levelo://app?vid=a17a356a-6340-4eae-b4d5-d59f3247dda3"},"vehicle_type_id":"4","last_reported":1777207245,"current_range_meters":9600,"station_id":"","pricing_plan_id":"cebpf4jnsgd1na2vs0mg"},{"bike_id":"d68cd392-a214-40e4-8e5f-e39fa567524a","system_id":"levelo_inurba_marseille","lat":43.30152,"lon":5.37418,"is_reserved":false,"is_disabled":true,"rental_uris":{"android":"levelo://app?vid=d68cd392-a214-40e4-8e5f-e39fa567524a","ios":"levelo://app?vid=d68cd392-a214-40e4-8e5f-e39fa567524a"},"vehicle_type_id":"4","last_reported":1777207245,"current_range_meters":9600,"station_id":"ce4bgs92rcd13ifvqcc0","pricing_plan_id":"cebpf4jnsgd1na2vs0mg"},{"bike_id":"0d8c3362-be20-49ce-8a46-7df1fa0c42ea","system_id":"levelo_inurba_marseille","lat":43.24832,"lon":5.37442,"is_reserved":false,"is_disabled":false,"rental_uris":{"android":"levelo://app?vid=0d8c3362-be20-49ce-8a46-7df1fa0c42ea","ios":"levelo://app?vid=0d8c3362-be20-49ce-8a46-7df1fa0c42ea"},"vehicle_type_id":"4","last_reported":1777207245,"current_range_meters":9600,"station_id":"ce4bhgh2rcd13ifvqfb0","pricing_plan_id":"cebpf4jnsgd1na2vs0mg"},{"bike_id":"7df5a73c-54d9-4df0-a5db-351499d6dc87","system_id":"levelo_inurba_marseille","lat":43.33137,"lon":5.3771,"is_reserved":false,"is_disabled":false,"rental_uris":{"android":"levelo://app?vid=7df5a73c-54d9-4df0-a5db-351499d6dc87","ios":"levelo://app?vid=7df5a73c-54d9-4df0-a5db-351499d6dc87"},"vehicle_type_id":"4","last_reported":1777207245,"current_range_meters":9600,"station_id":"st_d46cu089ee8s73dldbu0","pricing_plan_id":"cebpf4jnsgd1na2vs0mg"},{"bike_id":"3a51192a-cf81-497f-b0a3-0ff0c4ad16d3","system_id":"levelo_inurba_marseille","lat":43.28615,"lon":5.35103,"is_reserved":false,"is_disabled":false,"rental_uris":{"android":"levelo://app?vid=3a51192a-cf81-497f-b0a3-0ff0c4ad16d3","ios":"levelo://app?vid=3a51192a-cf81-497f-b0a3-0ff0c4ad16d3"},"vehicle_type_id":"4","last_reported":1777207245,"current_range_meters":9600,"station_id":"ce4bhch2rcd13ifvqeug","pricing_plan_id":"cebpf4jnsgd1na2vs0mg"},{"bike_id":"50f8bdff-b169-44f8-8920-840c94d5e30a","system_id":"levelo_inurba_marseille","lat":43.28473,"lon":5.48393,"is_reserved":false,"is_disabled":true,"rental_uris":{"android":"levelo://app?vid=50f8bdff-b169-44f8-8920-840c94d5e30a","ios":"levelo://app?vid=50f8bdff-b169-44f8-8920-840c94d5e30a"},"vehicle_type_id":"4","last_reported":1777207245,"current_range_meters":9600,"station_id":"","pricing_plan_id":"cebpf4jnsgd1na2vs0mg"},{"bike_id":"2725b0c0-a653-43ae-bc24-ce0141576499","system_id":"levelo_inurba_marseille","lat":43.30122,"lon":5.43115,"is_reserved":false,"is_disabled":false,"rental_uris":{"android":"levelo://app?vid=2725b0c0-a653-43ae-bc24-ce0141576499","ios":"levelo://app?vid=2725b0c0-a653-43ae-bc24-ce0141576499"},"vehicle_type_id":"4","last_reported":1777207245,"current_range_meters":9600,"station_id":"st_d3js3co5814s73ftftug","pricing_plan_id":"cebpf4jnsgd1na2vs0mg"},{"bike_id":"d14efd0c-e366-4155-97e2-f16087981e06","system_id":"levelo_inurba_marseille","lat":43.317016,"lon":5.404923,"is_reserved":false,"is_disabled":false,"rental_uris":{"android":"levelo://app?vid=d14efd0c-e366-4155-97e2-f16087981e06","ios":"levelo://app?vid=d14efd0c-e366-4155-97e2-f16087981e06"},"vehicle_type_id":"4","last_reported":1777207245,"current_range_meters":9600,"station_id":"ce4bh012rcd13ifvqd00","pricing_plan_id":"cebpf4jnsgd1na2vs0mg"},{"bike_id":"cfd786a4-fb67-40da-a702-6c8197529a94","system_id":"levelo_inurba_marseille","lat":43.27362,"lon":5.36247,"is_reserved":false,"is_disabled":false,"rental_uris":{"android":"levelo://app?vid=cfd786a4-fb67-40da-a702-6c8197529a94","ios":"levelo://app?vid=cfd786a4-fb67-40da-a702-6c8197529a94"},"vehicle_type_id":"4","last_reported":1777207245,"current_range_meters":9600,"station_id":"ce4bhbh2rcd13ifvqeo0","pricing_plan_id":"cebpf4jnsgd1na2vs0mg"},{"bike_id":"1c94fb5c-542d-4cb1-8558-d07c486a04ae","system_id":"levelo_inurba_marseille","lat":43.32508,"lon":5.38255,"is_reserved":false,"is_disabled":false,"rental_uris":{"android":"levelo://app?vid=1c94fb5c-542d-4cb1-8558-d07c486a04ae","ios":"levelo://app?vid=1c94fb5c-542d-4cb1-8558-d07c486a04ae"},"vehicle_type_id":"4","last_reported":1777207245,"current_range_meters":9600,"station_id":"st_d4asgbiv49dc73anf9m0","pricing_plan_id":"cebpf4jnsgd1na2vs0mg"},{"bike_id":"f34d417f-55b3-4000-855c-b2add1843f10","system_id":"levelo_inurba_marseille","lat":43.25116,"lon":5.4032,"is_reserved":false,"is_disabled":false,"rental_uris":{"android":"levelo://app?vid=f34d417f-55b3-4000-855c-b2add1843f10","ios":"levelo://app?vid=f34d417f-55b3-4000-855c-b2add1843f10"},"vehicle_type_id":"4","last_reported":1777207245,"current_range_meters":9600,"station_id":"ce4bhlh2rcd13ifvqgig","pricing_plan_id":"cebpf4jnsgd1na2vs0mg"},{"bike_id":"a5ebe279-a5b9-4fa7-8321-ebc7fdfc284f","system_id":"levelo_inurba_marseille","lat":43.27377,"lon":5.36254,"is_reserved":false,"is_disabled":false,"rental_uris":{"android":"levelo://app?vid=a5ebe279-a5b9-4fa7-8321-ebc7fdfc284f","ios":"levelo://app?vid=a5ebe279-a5b9-4fa7-8321-ebc7fdfc284f"},"vehicle_type_id":"4","last_reported":1777207245,"current_range_meters":9600,"station_id":"ce4bhbh2rcd13ifvqeo0","pricing_plan_id":"cebpf4jnsgd1na2vs0mg"},{"bike_id":"8cf258b6-5d8a-47c0-b8c7-7f3d1258f635","system_id":"levelo_inurba_marseille","lat":43.2174,"lon":5.34601,"is_reserved":false,"is_disabled":false,"rental_uris":{"android":"levelo://app?vid=8cf258b6-5d8a-47c0-b8c7-7f3d1258f635","ios":"levelo://app?vid=8cf258b6-5d8a-47c0-b8c7-7f3d1258f635"},"vehicle_type_id":"4","last_reported":1777207245,"current_range_meters":9600,"station_id":"st_cvj6r9ubvosntc0bgbag","pricing_plan_id":"cebpf4jnsgd1na2vs0mg"},{"bike_id":"97f0351e-0015-4f6a-a402-604cdb115786","system_id":"levelo_inurba_marseille","lat":43.21193,"lon":5.35053,"is_reserved":false,"is_disabled":false,"rental_uris":{"android":"levelo://app?vid=97f0351e-0015-4f6a-a402-604cdb115786","ios":"levelo://app?vid=97f0351e-0015-4f6a-a402-604cdb115786"},"vehicle_type_id":"4","last_reported":1777207245,"current_range_meters":10000,"station_id":"st_cvj6sg6p6f1abm77japg","pricing_plan_id":"cebpf4jnsgd1na2vs0mg"},{"bike_id":"e5d0e68a-dee4-4664-b2e7-41693e048ab1","system_id":"levelo_inurba_marseille","lat":43.28939,"lon":5.39628,"is_reserved":false,"is_disabled":true,"rental_uris":{"android":"levelo://app?vid=e5d0e68a-dee4-4664-b2e7-41693e048ab1","ios":"levelo://app?vid=e5d0e68a-dee4-4664-b2e7-41693e048ab1"},"vehicle_type_id":"4","last_reported":1777207245,"current_range_meters":10000,"station_id":"ce4bh3h2rcd13ifvqdn0","pricing_plan_id":"cebpf4jnsgd1na2vs0mg"},{"bike_id":"afe2c699-d272-47f9-9a1b-81ffe94bdde8","system_id":"levelo_inurba_marseille","lat":43.24168,"lon":5.36372,"is_reserved":false,"is_disabled":false,"rental_uris":{"android":"levelo://app?vid=afe2c699-d272-47f9-9a1b-81ffe94bdde8","ios":"levelo://app?vid=afe2c699-d272-47f9-9a1b-81ffe94bdde8"},"vehicle_type_id":"4","last_reported":1777207245,"current_range_meters":10000,"station_id":"cpo36qri1sfpv3e86is0","pricing_plan_id":"cebpf4jnsgd1na2vs0mg"},{"bike_id":"08de8301-8466-48fb-9e61-30ecee08e2e3","system_id":"levelo_inurba_marseille","lat":43.21752,"lon":5.34614,"is_reserved":false,"is_disabled":false,"rental_uris":{"android":"levelo://app?vid=08de8301-8466-48fb-9e61-30ecee08e2e3","ios":"levelo://app?vid=08de8301-8466-48fb-9e61-30ecee08e2e3"},"vehicle_type_id":"4","last_reported":1777207245,"current_range_meters":10000,"station_id":"st_cvj6r9ubvosntc0bgbag","pricing_plan_id":"cebpf4jnsgd1na2vs0mg"},{"bike_id":"b8776fd9-d992-4162-8499-a53320284dbb","system_id":"levelo_inurba_marseille","lat":43.27959,"lon":5.38684,"is_reserved":false,"is_disabled":false,"rental_uris":{"android":"levelo://app?vid=b8776fd9-d992-4162-8499-a53320284dbb","ios":"levelo://app?vid=b8776fd9-d992-4162-8499-a53320284dbb"},"vehicle_type_id":"4","last_reported":1777207245,"current_range_meters":10000,"station_id":"","pricing_plan_id":"cebpf4jnsgd1na2vs0mg"},{"bike_id":"329f67e2-4dc9-4f57-a785-62f35a1b71b6","system_id":"levelo_inurba_marseille","lat":43.21189,"lon":5.35055,"is_reserved":false,"is_disabled":false,"rental_uris":{"android":"levelo://app?vid=329f67e2-4dc9-4f57-a785-62f35a1b71b6","ios":"levelo://app?vid=329f67e2-4dc9-4f57-a785-62f35a1b71b6"},"vehicle_type_id":"4","last_reported":1777207245,"current_range_meters":10000,"station_id":"st_cvj6sg6p6f1abm77japg","pricing_plan_id":"cebpf4jnsgd1na2vs0mg"},{"bike_id":"1b7bb941-83c3-4ec7-8d56-88190ac17fc3","system_id":"levelo_inurba_marseille","lat":43.28157,"lon":5.39207,"is_reserved":false,"is_disabled":false,"rental_uris":{"android":"levelo://app?vid=1b7bb941-83c3-4ec7-8d56-88190ac17fc3","ios":"levelo://app?vid=1b7bb941-83c3-4ec7-8d56-88190ac17fc3"},"vehicle_type_id":"4","last_reported":1777207245,"current_range_meters":10000,"station_id":"","pricing_plan_id":"cebpf4jnsgd1na2vs0mg"},{"bike_id":"aa6356b0-73ca-47aa-9575-0ab0a8429def","system_id":"levelo_inurba_marseille","lat":43.24388,"lon":5.37052,"is_reserved":false,"is_disabled":false,"rental_uris":{"android":"levelo://app?vid=aa6356b0-73ca-47aa-9575-0ab0a8429def","ios":"levelo://app?vid=aa6356b0-73ca-47aa-9575-0ab0a8429def"},"vehicle_type_id":"4","last_reported":1777207245,"current_range_meters":10000,"station_id":"ce4bhhh2rcd13ifvqfk0","pricing_plan_id":"cebpf4jnsgd1na2vs0mg"},{"bike_id":"9cee4e90-2861-42ab-8f88-f2f3c8ba8048","system_id":"levelo_inurba_marseille","lat":43.31532,"lon":5.38026,"is_reserved":false,"is_disabled":false,"rental_uris":{"android":"levelo://app?vid=9cee4e90-2861-42ab-8f88-f2f3c8ba8048","ios":"levelo://app?vid=9cee4e90-2861-42ab-8f88-f2f3c8ba8048"},"vehicle_type_id":"4","last_reported":1777207245,"current_range_meters":10000,"station_id":"ce4bhsp2rcd13ifvqi50","pricing_plan_id":"cebpf4jnsgd1na2vs0mg"},{"bike_id":"72df981c-e30f-40da-b646-ff9f3a0fe4c3","system_id":"levelo_inurba_marseille","lat":43.24176,"lon":5.36403,"is_reserved":false,"is_disabled":false,"rental_uris":{"android":"levelo://app?vid=72df981c-e30f-40da-b646-ff9f3a0fe4c3","ios":"levelo://app?vid=72df981c-e30f-40da-b646-ff9f3a0fe4c3"},"vehicle_type_id":"4","last_reported":1777207245,"current_range_meters":10000,"station_id":"cpo36qri1sfpv3e86is0","pricing_plan_id":"cebpf4jnsgd1na2vs0mg"},{"bike_id":"1c834dff-0496-44a5-8e5d-5d39868b4716","system_id":"levelo_inurba_marseille","lat":43.23164,"lon":5.43681,"is_reserved":false,"is_disabled":false,"rental_uris":{"android":"levelo://app?vid=1c834dff-0496-44a5-8e5d-5d39868b4716","ios":"levelo://app?vid=1c834dff-0496-44a5-8e5d-5d39868b4716"},"vehicle_type_id":"4","last_reported":1777207245,"current_range_meters":10000,"station_id":"ce4bhmp2rcd13ifvqgog","pricing_plan_id":"cebpf4jnsgd1na2vs0mg"},{"bike_id":"5f4cd023-de79-45dc-8e42-f60b452731d2","system_id":"levelo_inurba_marseille","lat":43.21747,"lon":5.34596,"is_reserved":false,"is_disabled":false,"rental_uris":{"android":"levelo://app?vid=5f4cd023-de79-45dc-8e42-f60b452731d2","ios":"levelo://app?vid=5f4cd023-de79-45dc-8e42-f60b452731d2"},"vehicle_type_id":"4","last_reported":1777207245,"current_range_meters":10000,"station_id":"st_cvj6r9ubvosntc0bgbag","pricing_plan_id":"cebpf4jnsgd1na2vs0mg"},{"bike_id":"62a20b6e-e98d-4cc9-b298-e865d7184b00","system_id":"levelo_inurba_marseille","lat":43.25495,"lon":5.37622,"is_reserved":false,"is_disabled":false,"rental_uris":{"android":"levelo://app?vid=62a20b6e-e98d-4cc9-b298-e865d7184b00","ios":"levelo://app?vid=62a20b6e-e98d-4cc9-b298-e865d7184b00"},"vehicle_type_id":"4","last_reported":1777207245,"current_range_meters":10000,"station_id":"ce4bhh12rcd13ifvqff0","pricing_plan_id":"cebpf4jnsgd1na2vs0mg"},{"bike_id":"b19efe4d-6d62-417f-9135-5074b386989a","system_id":"levelo_inurba_marseille","lat":43.21766,"lon":5.34577,"is_reserved":false,"is_disabled":false,"rental_uris":{"android":"levelo://app?vid=b19efe4d-6d62-417f-9135-5074b386989a","ios":"levelo://app?vid=b19efe4d-6d62-417f-9135-5074b386989a"},"vehicle_type_id":"4","last_reported":1777207245,"current_range_meters":10000,"station_id":"st_cvj6r9ubvosntc0bgbag","pricing_plan_id":"cebpf4jnsgd1na2vs0mg"},{"bike_id":"4e586fe4-94d6-478a-8f16-96a4b0256485","system_id":"levelo_inurba_marseille","lat":43.27227,"lon":5.4095,"is_reserved":false,"is_disabled":false,"rental_uris":{"android":"levelo://app?vid=4e586fe4-94d6-478a-8f16-96a4b0256485","ios":"levelo://app?vid=4e586fe4-94d6-478a-8f16-96a4b0256485"},"vehicle_type_id":"4","last_reported":1777207245,"current_range_meters":10000,"station_id":"ce4bhl12rcd13ifvqgf0","pricing_plan_id":"cebpf4jnsgd1na2vs0mg"},{"bike_id":"24bf736f-d9fa-46ce-9fd3-242a3f17c533","system_id":"levelo_inurba_marseille","lat":43.31164,"lon":5.38712,"is_reserved":false,"is_disabled":false,"rental_uris":{"android":"levelo://app?vid=24bf736f-d9fa-46ce-9fd3-242a3f17c533","ios":"levelo://app?vid=24bf736f-d9fa-46ce-9fd3-242a3f17c533"},"vehicle_type_id":"4","last_reported":1777207245,"current_range_meters":10000,"station_id":"ce4bgv12rcd13ifvqcp0","pricing_plan_id":"cebpf4jnsgd1na2vs0mg"},{"bike_id":"61075d33-3a9e-4857-b3e4-51a59bb1db59","system_id":"levelo_inurba_marseille","lat":43.31543,"lon":5.38028,"is_reserved":false,"is_disabled":false,"rental_uris":{"android":"levelo://app?vid=61075d33-3a9e-4857-b3e4-51a59bb1db59","ios":"levelo://app?vid=61075d33-3a9e-4857-b3e4-51a59bb1db59"},"vehicle_type_id":"4","last_reported":1777207245,"current_range_meters":10000,"station_id":"ce4bhsp2rcd13ifvqi50","pricing_plan_id":"cebpf4jnsgd1na2vs0mg"},{"bike_id":"ff9316b5-da8c-476d-9d2b-cb9977068019","system_id":"levelo_inurba_marseille","lat":43.2119,"lon":5.35067,"is_reserved":false,"is_disabled":false,"rental_uris":{"android":"levelo://app?vid=ff9316b5-da8c-476d-9d2b-cb9977068019","ios":"levelo://app?vid=ff9316b5-da8c-476d-9d2b-cb9977068019"},"vehicle_type_id":"4","last_reported":1777207245,"current_range_meters":10000,"station_id":"st_cvj6sg6p6f1abm77japg","pricing_plan_id":"cebpf4jnsgd1na2vs0mg"},{"bike_id":"036cd278-c2a7-4105-9053-80418e7b1ee5","system_id":"levelo_inurba_marseille","lat":43.25856,"lon":5.39898,"is_reserved":false,"is_disabled":false,"rental_uris":{"android":"levelo://app?vid=036cd278-c2a7-4105-9053-80418e7b1ee5","ios":"levelo://app?vid=036cd278-c2a7-4105-9053-80418e7b1ee5"},"vehicle_type_id":"4","last_reported":1777207245,"current_range_meters":10800,"station_id":"ce4bhl92rcd13ifvqghg","pricing_plan_id":"cebpf4jnsgd1na2vs0mg"},{"bike_id":"8bac0f38-df28-420f-81e9-7688df22509b","system_id":"levelo_inurba_marseille","lat":43.31277,"lon":5.39681,"is_reserved":false,"is_disabled":false,"rental_uris":{"android":"levelo://app?vid=8bac0f38-df28-420f-81e9-7688df22509b","ios":"levelo://app?vid=8bac0f38-df28-420f-81e9-7688df22509b"},"vehicle_type_id":"4","last_reported":1777207245,"current_range_meters":10800,"station_id":"","pricing_plan_id":"cebpf4jnsgd1na2vs0mg"},{"bike_id":"5c6dbc22-6dc1-4a74-95d1-677c3ccf7a7b","system_id":"levelo_inurba_marseille","lat":43.29953,"lon":5.36534,"is_reserved":false,"is_disabled":true,"rental_uris":{"android":"levelo://app?vid=5c6dbc22-6dc1-4a74-95d1-677c3ccf7a7b","ios":"levelo://app?vid=5c6dbc22-6dc1-4a74-95d1-677c3ccf7a7b"},"vehicle_type_id":"4","last_reported":1777207245,"current_range_meters":10800,"station_id":"ce4bgm92rcd13ifvqbr0","pricing_plan_id":"cebpf4jnsgd1na2vs0mg"},{"bike_id":"ad06fbeb-2893-47bd-9310-693ccba410e9","system_id":"levelo_inurba_marseille","lat":43.28763,"lon":5.46823,"is_reserved":false,"is_disabled":false,"rental_uris":{"android":"levelo://app?vid=ad06fbeb-2893-47bd-9310-693ccba410e9","ios":"levelo://app?vid=ad06fbeb-2893-47bd-9310-693ccba410e9"},"vehicle_type_id":"4","last_reported":1777207245,"current_range_meters":10800,"station_id":"","pricing_plan_id":"cebpf4jnsgd1na2vs0mg"},{"bike_id":"6b9ceb44-f98b-4474-bf14-5e53602be7a5","system_id":"levelo_inurba_marseille","lat":43.33542,"lon":5.37463,"is_reserved":false,"is_disabled":false,"rental_uris":{"android":"levelo://app?vid=6b9ceb44-f98b-4474-bf14-5e53602be7a5","ios":"levelo://app?vid=6b9ceb44-f98b-4474-bf14-5e53602be7a5"},"vehicle_type_id":"4","last_reported":1777207245,"current_range_meters":10800,"station_id":"st_d46tts09ee8s73dlu43g","pricing_plan_id":"cebpf4jnsgd1na2vs0mg"},{"bike_id":"970f3220-8b71-4114-ba16-fc5a4a48ea88","system_id":"levelo_inurba_marseille","lat":43.31346,"lon":5.39694,"is_reserved":false,"is_disabled":false,"rental_uris":{"android":"levelo://app?vid=970f3220-8b71-4114-ba16-fc5a4a48ea88","ios":"levelo://app?vid=970f3220-8b71-4114-ba16-fc5a4a48ea88"},"vehicle_type_id":"4","last_reported":1777207245,"current_range_meters":10800,"station_id":"ce4bgvp2rcd13ifvqcu0","pricing_plan_id":"cebpf4jnsgd1na2vs0mg"},{"bike_id":"cf4537a9-051c-4080-9a3f-93f632ce0082","system_id":"levelo_inurba_marseille","lat":43.337444,"lon":5.374475,"is_reserved":false,"is_disabled":false,"rental_uris":{"android":"levelo://app?vid=cf4537a9-051c-4080-9a3f-93f632ce0082","ios":"levelo://app?vid=cf4537a9-051c-4080-9a3f-93f632ce0082"},"vehicle_type_id":"4","last_reported":1777207245,"current_range_meters":10800,"station_id":"","pricing_plan_id":"cebpf4jnsgd1na2vs0mg"},{"bike_id":"7033a2dc-6056-4b98-963d-bc2651c8862b","system_id":"levelo_inurba_marseille","lat":43.2737,"lon":5.36271,"is_reserved":false,"is_disabled":false,"rental_uris":{"android":"levelo://app?vid=7033a2dc-6056-4b98-963d-bc2651c8862b","ios":"levelo://app?vid=7033a2dc-6056-4b98-963d-bc2651c8862b"},"vehicle_type_id":"4","last_reported":1777207245,"current_range_meters":10800,"station_id":"ce4bhbh2rcd13ifvqeo0","pricing_plan_id":"cebpf4jnsgd1na2vs0mg"},{"bike_id":"c41d0b74-f283-49d7-861e-dd1344699277","system_id":"levelo_inurba_marseille","lat":43.30486,"lon":5.37888,"is_reserved":false,"is_disabled":true,"rental_uris":{"android":"levelo://app?vid=c41d0b74-f283-49d7-861e-dd1344699277","ios":"levelo://app?vid=c41d0b74-f283-49d7-861e-dd1344699277"},