{"last_updated":1734534573,"ttl":60,"version":"2.2","data":{"bikes":[{"bike_id":"e6104320-5417-49d8-9b38-1c75866a7d01","system_id":"levelo_inurba_marseille","lat":43.29821,"lon":5.36286,"is_reserved":false,"is_disabled":false,"rental_uris":{"android":"levelo://app?vid=e6104320-5417-49d8-9b38-1c75866a7d01","ios":"levelo://app?vid=e6104320-5417-49d8-9b38-1c75866a7d01"},"vehicle_type_id":"4","last_reported":1734534573,"current_range_meters":36800,"station_id":"ce4bgpp2rcd13ifvqc3g","pricing_plan_id":"cebpf4jnsgd1na2vs0mg"},{"bike_id":"9e3aeb8f-72bf-4133-86f8-eb3c3c0e4766","system_id":"levelo_inurba_marseille","lat":43.27374,"lon":5.36253,"is_reserved":false,"is_disabled":false,"rental_uris":{"android":"levelo://app?vid=9e3aeb8f-72bf-4133-86f8-eb3c3c0e4766","ios":"levelo://app?vid=9e3aeb8f-72bf-4133-86f8-eb3c3c0e4766"},"vehicle_type_id":"4","last_reported":1734534573,"current_range_meters":38000,"station_id":"ce4bhbh2rcd13ifvqeo0","pricing_plan_id":"cebpf4jnsgd1na2vs0mg"},{"bike_id":"68ae3e89-ff54-490d-ad4d-2a307476a24a","system_id":"levelo_inurba_marseille","lat":43.2768,"lon":5.38898,"is_reserved":false,"is_disabled":false,"rental_uris":{"android":"levelo://app?vid=68ae3e89-ff54-490d-ad4d-2a307476a24a","ios":"levelo://app?vid=68ae3e89-ff54-490d-ad4d-2a307476a24a"},"vehicle_type_id":"4","last_reported":1734534573,"current_range_meters":37600,"station_id":"ce4bhi12rcd13ifvqfo0","pricing_plan_id":"cebpf4jnsgd1na2vs0mg"},{"bike_id":"ed47d069-7f8e-44e1-b993-32ab0d130fe6","system_id":"levelo_inurba_marseille","lat":43.25576,"lon":5.38231,"is_reserved":false,"is_disabled":false,"rental_uris":{"android":"levelo://app?vid=ed47d069-7f8e-44e1-b993-32ab0d130fe6","ios":"levelo://app?vid=ed47d069-7f8e-44e1-b993-32ab0d130fe6"},"vehicle_type_id":"4","last_reported":1734534573,"current_range_meters":15200,"station_id":"ce4bhih2rcd13ifvqfs0","pricing_plan_id":"cebpf4jnsgd1na2vs0mg"},{"bike_id":"81d3e597-3bce-470f-a24f-c70eb8e49aa7","system_id":"levelo_inurba_marseille","lat":43.28262,"lon":5.35082,"is_reserved":false,"is_disabled":false,"rental_uris":{"android":"levelo://app?vid=81d3e597-3bce-470f-a24f-c70eb8e49aa7","ios":"levelo://app?vid=81d3e597-3bce-470f-a24f-c70eb8e49aa7"},"vehicle_type_id":"4","last_reported":1734534573,"current_range_meters":12800,"station_id":"ce4bhbp2rcd13ifvqerg","pricing_plan_id":"cebpf4jnsgd1na2vs0mg"},{"bike_id":"b1b1f756-c1a0-4e66-8530-9c85602c1813","system_id":"levelo_inurba_marseille","lat":43.32371,"lon":5.36777,"is_reserved":false,"is_disabled":false,"rental_uris":{"android":"levelo://app?vid=b1b1f756-c1a0-4e66-8530-9c85602c1813","ios":"levelo://app?vid=b1b1f756-c1a0-4e66-8530-9c85602c1813"},"vehicle_type_id":"4","last_reported":1734534573,"current_range_meters":17600,"station_id":"ce4bhsh2rcd13ifvqi2g","pricing_plan_id":"cebpf4jnsgd1na2vs0mg"},{"bike_id":"64ff5b0b-103b-402e-8007-73ab97fd567c","system_id":"levelo_inurba_marseille","lat":43.28412,"lon":5.3499,"is_reserved":false,"is_disabled":false,"rental_uris":{"android":"levelo://app?vid=64ff5b0b-103b-402e-8007-73ab97fd567c","ios":"levelo://app?vid=64ff5b0b-103b-402e-8007-73ab97fd567c"},"vehicle_type_id":"4","last_reported":1734534573,"current_range_meters":27600,"station_id":"ce4bhbh2rcd13ifvqepg","pricing_plan_id":"cebpf4jnsgd1na2vs0mg"},{"bike_id":"bca2340a-8004-4c0f-8043-686a667e19f3","system_id":"levelo_inurba_marseille","lat":43.26558,"lon":5.3728,"is_reserved":false,"is_disabled":false,"rental_uris":{"android":"levelo://app?vid=bca2340a-8004-4c0f-8043-686a667e19f3","ios":"levelo://app?vid=bca2340a-8004-4c0f-8043-686a667e19f3"},"vehicle_type_id":"4","last_reported":1734534573,"current_range_meters":30400,"station_id":"ce4bhg12rcd13ifvqf70","pricing_plan_id":"cebpf4jnsgd1na2vs0mg"},{"bike_id":"1ea39a5a-f978-4bb0-845c-7aea80f4d8ff","system_id":"levelo_inurba_marseille","lat":43.29561,"lon":5.37521,"is_reserved":false,"is_disabled":false,"rental_uris":{"android":"levelo://app?vid=1ea39a5a-f978-4bb0-845c-7aea80f4d8ff","ios":"levelo://app?vid=1ea39a5a-f978-4bb0-845c-7aea80f4d8ff"},"vehicle_type_id":"4","last_reported":1734534573,"current_range_meters":34800,"station_id":"ce4bgh92rcd13ifvqb50","pricing_plan_id":"cebpf4jnsgd1na2vs0mg"},{"bike_id":"9b9caeab-a244-4574-925e-961a887d2c08","system_id":"levelo_inurba_marseille","lat":43.29677,"lon":5.37297,"is_reserved":false,"is_disabled":false,"rental_uris":{"android":"levelo://app?vid=9b9caeab-a244-4574-925e-961a887d2c08","ios":"levelo://app?vid=9b9caeab-a244-4574-925e-961a887d2c08"},"vehicle_type_id":"4","last_reported":1734534573,"current_range_meters":36400,"station_id":"ce4bgk12rcd13ifvqbj0","pricing_plan_id":"cebpf4jnsgd1na2vs0mg"},{"bike_id":"a5bab296-af15-45a1-81e9-5b6f00bc7788","system_id":"levelo_inurba_marseille","lat":43.26934,"lon":5.4024,"is_reserved":false,"is_disabled":false,"rental_uris":{"android":"levelo://app?vid=a5bab296-af15-45a1-81e9-5b6f00bc7788","ios":"levelo://app?vid=a5bab296-af15-45a1-81e9-5b6f00bc7788"},"vehicle_type_id":"4","last_reported":1734534573,"current_range_meters":34800,"station_id":"cjm6bp8fraef2m0cb0m0","pricing_plan_id":"cebpf4jnsgd1na2vs0mg"},{"bike_id":"a133477b-045c-4f2d-a293-d145b65ebcf4","system_id":"levelo_inurba_marseille","lat":43.3088,"lon":5.37191,"is_reserved":false,"is_disabled":false,"rental_uris":{"android":"levelo://app?vid=a133477b-045c-4f2d-a293-d145b65ebcf4","ios":"levelo://app?vid=a133477b-045c-4f2d-a293-d145b65ebcf4"},"vehicle_type_id":"4","last_reported":1734534573,"current_range_meters":19600,"station_id":"ce4bguh2rcd13ifvqckg","pricing_plan_id":"cebpf4jnsgd1na2vs0mg"},{"bike_id":"58be73d0-d5d6-49d5-a5d7-8c143188158e","system_id":"levelo_inurba_marseille","lat":43.298512,"lon":5.362839,"is_reserved":false,"is_disabled":false,"rental_uris":{"android":"levelo://app?vid=58be73d0-d5d6-49d5-a5d7-8c143188158e","ios":"levelo://app?vid=58be73d0-d5d6-49d5-a5d7-8c143188158e"},"vehicle_type_id":"4","last_reported":1734534573,"current_range_meters":32800,"station_id":"ce4bgpp2rcd13ifvqc3g","pricing_plan_id":"cebpf4jnsgd1na2vs0mg"},{"bike_id":"c9649ab2-957d-4b2b-abbc-393bb27ac84e","system_id":"levelo_inurba_marseille","lat":43.26191,"lon":5.37451,"is_reserved":false,"is_disabled":false,"rental_uris":{"android":"levelo://app?vid=c9649ab2-957d-4b2b-abbc-393bb27ac84e","ios":"levelo://app?vid=c9649ab2-957d-4b2b-abbc-393bb27ac84e"},"vehicle_type_id":"4","last_reported":1734534573,"current_range_meters":38800,"station_id":"ce4bhgp2rcd13ifvqfc0","pricing_plan_id":"cebpf4jnsgd1na2vs0mg"},{"bike_id":"a2104b26-4a01-4dc6-b355-fbab2d119e02","system_id":"levelo_inurba_marseille","lat":43.32483,"lon":5.36569,"is_reserved":false,"is_disabled":false,"rental_uris":{"android":"levelo://app?vid=a2104b26-4a01-4dc6-b355-fbab2d119e02","ios":"levelo://app?vid=a2104b26-4a01-4dc6-b355-fbab2d119e02"},"vehicle_type_id":"4","last_reported":1734534573,"current_range_meters":35200,"station_id":"ce4bhs12rcd13ifvqhvg","pricing_plan_id":"cebpf4jnsgd1na2vs0mg"},{"bike_id":"6f12691b-aa45-41f5-b3c6-8f27cab59197","system_id":"levelo_inurba_marseille","lat":43.30533,"lon":5.36549,"is_reserved":false,"is_disabled":false,"rental_uris":{"android":"levelo://app?vid=6f12691b-aa45-41f5-b3c6-8f27cab59197","ios":"levelo://app?vid=6f12691b-aa45-41f5-b3c6-8f27cab59197"},"vehicle_type_id":"4","last_reported":1734534573,"current_range_meters":29600,"station_id":"ce4bgs12rcd13ifvqcag","pricing_plan_id":"cebpf4jnsgd1na2vs0mg"},{"bike_id":"3dd4ebee-f039-4600-a111-270909de9c3b","system_id":"levelo_inurba_marseille","lat":43.26216,"lon":5.37441,"is_reserved":false,"is_disabled":false,"rental_uris":{"android":"levelo://app?vid=3dd4ebee-f039-4600-a111-270909de9c3b","ios":"levelo://app?vid=3dd4ebee-f039-4600-a111-270909de9c3b"},"vehicle_type_id":"4","last_reported":1734534573,"current_range_meters":7200,"station_id":"ce4bhgp2rcd13ifvqfc0","pricing_plan_id":"cebpf4jnsgd1na2vs0mg"},{"bike_id":"50434008-f4eb-457d-b9e2-509c242abd7f","system_id":"levelo_inurba_marseille","lat":43.32368,"lon":5.38884,"is_reserved":false,"is_disabled":false,"rental_uris":{"android":"levelo://app?vid=50434008-f4eb-457d-b9e2-509c242abd7f","ios":"levelo://app?vid=50434008-f4eb-457d-b9e2-509c242abd7f"},"vehicle_type_id":"4","last_reported":1734534573,"current_range_meters":32800,"station_id":"ce4bhqp2rcd13ifvqhog","pricing_plan_id":"cebpf4jnsgd1na2vs0mg"},{"bike_id":"99e56d3e-e40e-40f5-b3b6-610887eda43e","system_id":"levelo_inurba_marseille","lat":43.26204,"lon":5.37931,"is_reserved":false,"is_disabled":false,"rental_uris":{"android":"levelo://app?vid=99e56d3e-e40e-40f5-b3b6-610887eda43e","ios":"levelo://app?vid=99e56d3e-e40e-40f5-b3b6-610887eda43e"},"vehicle_type_id":"4","last_reported":1734534573,"current_range_meters":18800,"station_id":"ce4bhjp2rcd13ifvqg90","pricing_plan_id":"cebpf4jnsgd1na2vs0mg"},{"bike_id":"83ceee81-f211-4cfc-b8f6-755c5725298b","system_id":"levelo_inurba_marseille","lat":43.30479,"lon":5.37917,"is_reserved":false,"is_disabled":false,"rental_uris":{"android":"levelo://app?vid=83ceee81-f211-4cfc-b8f6-755c5725298b","ios":"levelo://app?vid=83ceee81-f211-4cfc-b8f6-755c5725298b"},"vehicle_type_id":"4","last_reported":1734534573,"current_range_meters":29600,"station_id":"ce4bgup2rcd13ifvqcn0","pricing_plan_id":"cebpf4jnsgd1na2vs0mg"},{"bike_id":"124e6c05-4926-4207-84f5-da69a7334d60","system_id":"levelo_inurba_marseille","lat":43.29043,"lon":5.38156,"is_reserved":false,"is_disabled":true,"rental_uris":{"android":"levelo://app?vid=124e6c05-4926-4207-84f5-da69a7334d60","ios":"levelo://app?vid=124e6c05-4926-4207-84f5-da69a7334d60"},"vehicle_type_id":"4","last_reported":1734534573,"current_range_meters":33600,"station_id":"ce4bh4p2rcd13ifvqe1g","pricing_plan_id":"cebpf4jnsgd1na2vs0mg"},{"bike_id":"e997f56f-26a9-4ad1-9feb-f0c0c9894c03","system_id":"levelo_inurba_marseille","lat":43.30532,"lon":5.367,"is_reserved":false,"is_disabled":false,"rental_uris":{"android":"levelo://app?vid=e997f56f-26a9-4ad1-9feb-f0c0c9894c03","ios":"levelo://app?vid=e997f56f-26a9-4ad1-9feb-f0c0c9894c03"},"vehicle_type_id":"4","last_reported":1734534573,"current_range_meters":10800,"station_id":"ce4bgrp2rcd13ifvqc9g","pricing_plan_id":"cebpf4jnsgd1na2vs0mg"},{"bike_id":"658b0806-2222-4755-8b2c-883c2c8d7d78","system_id":"levelo_inurba_marseille","lat":43.31164,"lon":5.3767,"is_reserved":false,"is_disabled":false,"rental_uris":{"android":"levelo://app?vid=658b0806-2222-4755-8b2c-883c2c8d7d78","ios":"levelo://app?vid=658b0806-2222-4755-8b2c-883c2c8d7d78"},"vehicle_type_id":"4","last_reported":1734534573,"current_range_meters":25600,"station_id":"","pricing_plan_id":"cebpf4jnsgd1na2vs0mg"},{"bike_id":"12825fc7-c4d4-4652-92c7-b1bbcf86503b","system_id":"levelo_inurba_marseille","lat":43.30554,"lon":5.36534,"is_reserved":false,"is_disabled":false,"rental_uris":{"android":"levelo://app?vid=12825fc7-c4d4-4652-92c7-b1bbcf86503b","ios":"levelo://app?vid=12825fc7-c4d4-4652-92c7-b1bbcf86503b"},"vehicle_type_id":"4","last_reported":1734534573,"current_range_meters":38800,"station_id":"ce4bgs12rcd13ifvqcag","pricing_plan_id":"cebpf4jnsgd1na2vs0mg"},{"bike_id":"9432a679-477a-4a35-8836-4463a61bb607","system_id":"levelo_inurba_marseille","lat":43.27383,"lon":5.36263,"is_reserved":false,"is_disabled":false,"rental_uris":{"android":"levelo://app?vid=9432a679-477a-4a35-8836-4463a61bb607","ios":"levelo://app?vid=9432a679-477a-4a35-8836-4463a61bb607"},"vehicle_type_id":"4","last_reported":1734534573,"current_range_meters":38800,"station_id":"ce4bhbh2rcd13ifvqeo0","pricing_plan_id":"cebpf4jnsgd1na2vs0mg"},{"bike_id":"2ae7fc52-11d1-4607-ba57-fc1895cfc982","system_id":"levelo_inurba_marseille","lat":43.26686,"lon":5.38267,"is_reserved":false,"is_disabled":false,"rental_uris":{"android":"levelo://app?vid=2ae7fc52-11d1-4607-ba57-fc1895cfc982","ios":"levelo://app?vid=2ae7fc52-11d1-4607-ba57-fc1895cfc982"},"vehicle_type_id":"4","last_reported":1734534573,"current_range_meters":38800,"station_id":"ce4bhg92rcd13ifvqf90","pricing_plan_id":"cebpf4jnsgd1na2vs0mg"},{"bike_id":"2491c714-f3f7-493b-9790-9992e16c8fb6","system_id":"levelo_inurba_marseille","lat":43.34179,"lon":5.40941,"is_reserved":false,"is_disabled":true,"rental_uris":{"android":"levelo://app?vid=2491c714-f3f7-493b-9790-9992e16c8fb6","ios":"levelo://app?vid=2491c714-f3f7-493b-9790-9992e16c8fb6"},"vehicle_type_id":"4","last_reported":1734534573,"current_range_meters":38800,"station_id":"ce4bhqh2rcd13ifvqhlg","pricing_plan_id":"cebpf4jnsgd1na2vs0mg"},{"bike_id":"03dcc4cf-7478-40f3-9bc7-5aceae97b56a","system_id":"levelo_inurba_marseille","lat":43.3014,"lon":5.37412,"is_reserved":false,"is_disabled":false,"rental_uris":{"android":"levelo://app?vid=03dcc4cf-7478-40f3-9bc7-5aceae97b56a","ios":"levelo://app?vid=03dcc4cf-7478-40f3-9bc7-5aceae97b56a"},"vehicle_type_id":"4","last_reported":1734534573,"current_range_meters":26000,"station_id":"ce4bgs92rcd13ifvqcc0","pricing_plan_id":"cebpf4jnsgd1na2vs0mg"},{"bike_id":"ea1ee0a0-f240-4d25-84d9-e6fb6fc7a18c","system_id":"levelo_inurba_marseille","lat":43.33805,"lon":5.42104,"is_reserved":false,"is_disabled":true,"rental_uris":{"android":"levelo://app?vid=ea1ee0a0-f240-4d25-84d9-e6fb6fc7a18c","ios":"levelo://app?vid=ea1ee0a0-f240-4d25-84d9-e6fb6fc7a18c"},"vehicle_type_id":"4","last_reported":1734534573,"current_range_meters":0,"station_id":"","pricing_plan_id":"cebpf4jnsgd1na2vs0mg"},{"bike_id":"9e029ead-aa40-4b90-852d-0ced0eaff4ea","system_id":"levelo_inurba_marseille","lat":43.30096,"lon":5.39073,"is_reserved":false,"is_disabled":false,"rental_uris":{"android":"levelo://app?vid=9e029ead-aa40-4b90-852d-0ced0eaff4ea","ios":"levelo://app?vid=9e029ead-aa40-4b90-852d-0ced0eaff4ea"},"vehicle_type_id":"4","last_reported":1734534573,"current_range_meters":25600,"station_id":"ce4bh192rcd13ifvqdb0","pricing_plan_id":"cebpf4jnsgd1na2vs0mg"},{"bike_id":"591a3165-8b96-47bf-bcab-7168d49394fb","system_id":"levelo_inurba_marseille","lat":43.27891,"lon":5.3802,"is_reserved":false,"is_disabled":false,"rental_uris":{"android":"levelo://app?vid=591a3165-8b96-47bf-bcab-7168d49394fb","ios":"levelo://app?vid=591a3165-8b96-47bf-bcab-7168d49394fb"},"vehicle_type_id":"4","last_reported":1734534573,"current_range_meters":38000,"station_id":"ce4bhf92rcd13ifvqf50","pricing_plan_id":"cebpf4jnsgd1na2vs0mg"},{"bike_id":"72a064bc-633a-44f8-90ec-e9b52fa69534","system_id":"levelo_inurba_marseille","lat":43.299,"lon":5.38134,"is_reserved":false,"is_disabled":false,"rental_uris":{"android":"levelo://app?vid=72a064bc-633a-44f8-90ec-e9b52fa69534","ios":"levelo://app?vid=72a064bc-633a-44f8-90ec-e9b52fa69534"},"vehicle_type_id":"4","last_reported":1734534573,"current_range_meters":22000,"station_id":"ce4bgj12rcd13ifvqbc0","pricing_plan_id":"cebpf4jnsgd1na2vs0mg"},{"bike_id":"f500c588-6feb-4b09-aaa0-56bd71506c9c","system_id":"levelo_inurba_marseille","lat":43.30135,"lon":5.37389,"is_reserved":false,"is_disabled":false,"rental_uris":{"android":"levelo://app?vid=f500c588-6feb-4b09-aaa0-56bd71506c9c","ios":"levelo://app?vid=f500c588-6feb-4b09-aaa0-56bd71506c9c"},"vehicle_type_id":"4","last_reported":1734534573,"current_range_meters":38800,"station_id":"ce4bgs92rcd13ifvqcc0","pricing_plan_id":"cebpf4jnsgd1na2vs0mg"},{"bike_id":"479a850f-2b01-4579-aa9e-9c036fb58b24","system_id":"levelo_inurba_marseille","lat":43.30332,"lon":5.40432,"is_reserved":false,"is_disabled":false,"rental_uris":{"android":"levelo://app?vid=479a850f-2b01-4579-aa9e-9c036fb58b24","ios":"levelo://app?vid=479a850f-2b01-4579-aa9e-9c036fb58b24"},"vehicle_type_id":"4","last_reported":1734534573,"current_range_meters":31200,"station_id":"ce4bh012rcd13ifvqd10","pricing_plan_id":"cebpf4jnsgd1na2vs0mg"},{"bike_id":"80aac995-d4b8-4903-a858-ec9828c2523a","system_id":"levelo_inurba_marseille","lat":43.26938,"lon":5.40262,"is_reserved":false,"is_disabled":false,"rental_uris":{"android":"levelo://app?vid=80aac995-d4b8-4903-a858-ec9828c2523a","ios":"levelo://app?vid=80aac995-d4b8-4903-a858-ec9828c2523a"},"vehicle_type_id":"4","last_reported":1734534573,"current_range_meters":22400,"station_id":"cjm6bp8fraef2m0cb0m0","pricing_plan_id":"cebpf4jnsgd1na2vs0mg"},{"bike_id":"0edaaed6-432e-414b-bb72-9c3a58e0972f","system_id":"levelo_inurba_marseille","lat":43.29068,"lon":5.37157,"is_reserved":false,"is_disabled":false,"rental_uris":{"android":"levelo://app?vid=0edaaed6-432e-414b-bb72-9c3a58e0972f","ios":"levelo://app?vid=0edaaed6-432e-414b-bb72-9c3a58e0972f"},"vehicle_type_id":"4","last_reported":1734534573,"current_range_meters":26000,"station_id":"ce4bh5p2rcd13ifvqe4g","pricing_plan_id":"cebpf4jnsgd1na2vs0mg"},{"bike_id":"8bfac80e-1fb6-4c29-8a7a-e5d1d210dc81","system_id":"levelo_inurba_marseille","lat":43.31011,"lon":5.38069,"is_reserved":false,"is_disabled":false,"rental_uris":{"android":"levelo://app?vid=8bfac80e-1fb6-4c29-8a7a-e5d1d210dc81","ios":"levelo://app?vid=8bfac80e-1fb6-4c29-8a7a-e5d1d210dc81"},"vehicle_type_id":"4","last_reported":1734534573,"current_range_meters":24000,"station_id":"","pricing_plan_id":"cebpf4jnsgd1na2vs0mg"},{"bike_id":"8fa2601a-6431-442e-ba0d-9b4cd17b90df","system_id":"levelo_inurba_marseille","lat":43.29535,"lon":5.39398,"is_reserved":false,"is_disabled":false,"rental_uris":{"android":"levelo://app?vid=8fa2601a-6431-442e-ba0d-9b4cd17b90df","ios":"levelo://app?vid=8fa2601a-6431-442e-ba0d-9b4cd17b90df"},"vehicle_type_id":"4","last_reported":1734534573,"current_range_meters":30800,"station_id":"ce4bh292rcd13ifvqdf0","pricing_plan_id":"cebpf4jnsgd1na2vs0mg"},{"bike_id":"8baeb32b-6ca9-44a0-b9b4-5d8264e57ed9","system_id":"levelo_inurba_marseille","lat":43.31084,"lon":5.4243,"is_reserved":false,"is_disabled":false,"rental_uris":{"android":"levelo://app?vid=8baeb32b-6ca9-44a0-b9b4-5d8264e57ed9","ios":"levelo://app?vid=8baeb32b-6ca9-44a0-b9b4-5d8264e57ed9"},"vehicle_type_id":"4","last_reported":1734534573,"current_range_meters":38000,"station_id":"ce4bhp92rcd13ifvqhag","pricing_plan_id":"cebpf4jnsgd1na2vs0mg"},{"bike_id":"d95550e9-7388-4315-9e27-934b58e4f59a","system_id":"levelo_inurba_marseille","lat":43.29735,"lon":5.3769,"is_reserved":false,"is_disabled":false,"rental_uris":{"android":"levelo://app?vid=d95550e9-7388-4315-9e27-934b58e4f59a","ios":"levelo://app?vid=d95550e9-7388-4315-9e27-934b58e4f59a"},"vehicle_type_id":"4","last_reported":1734534573,"current_range_meters":38000,"station_id":"ce4bgkh2rcd13ifvqbl0","pricing_plan_id":"cebpf4jnsgd1na2vs0mg"},{"bike_id":"4cd8f22a-82ae-4985-b778-378a4fb404d0","system_id":"levelo_inurba_marseille","lat":43.29852,"lon":5.36289,"is_reserved":false,"is_disabled":false,"rental_uris":{"android":"levelo://app?vid=4cd8f22a-82ae-4985-b778-378a4fb404d0","ios":"levelo://app?vid=4cd8f22a-82ae-4985-b778-378a4fb404d0"},"vehicle_type_id":"4","last_reported":1734534573,"current_range_meters":9600,"station_id":"ce4bgpp2rcd13ifvqc3g","pricing_plan_id":"cebpf4jnsgd1na2vs0mg"},{"bike_id":"3498dd8d-73e4-481b-adb1-2cda39a6ad58","system_id":"levelo_inurba_marseille","lat":43.29214,"lon":5.36055,"is_reserved":false,"is_disabled":false,"rental_uris":{"android":"levelo://app?vid=3498dd8d-73e4-481b-adb1-2cda39a6ad58","ios":"levelo://app?vid=3498dd8d-73e4-481b-adb1-2cda39a6ad58"},"vehicle_type_id":"4","last_reported":1734534573,"current_range_meters":27600,"station_id":"ce4bhbh2rcd13ifvqeqg","pricing_plan_id":"cebpf4jnsgd1na2vs0mg"},{"bike_id":"3f3164a8-7165-4d53-b04b-edd879146a01","system_id":"levelo_inurba_marseille","lat":43.30089,"lon":5.39104,"is_reserved":false,"is_disabled":false,"rental_uris":{"android":"levelo://app?vid=3f3164a8-7165-4d53-b04b-edd879146a01","ios":"levelo://app?vid=3f3164a8-7165-4d53-b04b-edd879146a01"},"vehicle_type_id":"4","last_reported":1734534573,"current_range_meters":16000,"station_id":"ce4bh192rcd13ifvqdb0","pricing_plan_id":"cebpf4jnsgd1na2vs0mg"},{"bike_id":"86c83bcb-399d-43cb-a4b5-54e53dfd94eb","system_id":"levelo_inurba_marseille","lat":43.30546,"lon":5.36672,"is_reserved":false,"is_disabled":false,"rental_uris":{"android":"levelo://app?vid=86c83bcb-399d-43cb-a4b5-54e53dfd94eb","ios":"levelo://app?vid=86c83bcb-399d-43cb-a4b5-54e53dfd94eb"},"vehicle_type_id":"4","last_reported":1734534573,"current_range_meters":39200,"station_id":"ce4bgrp2rcd13ifvqc9g","pricing_plan_id":"cebpf4jnsgd1na2vs0mg"},{"bike_id":"d934720e-09bf-486a-9bbc-963abaa245d2","system_id":"levelo_inurba_marseille","lat":43.29036,"lon":5.3757,"is_reserved":false,"is_disabled":false,"rental_uris":{"android":"levelo://app?vid=d934720e-09bf-486a-9bbc-963abaa245d2","ios":"levelo://app?vid=d934720e-09bf-486a-9bbc-963abaa245d2"},"vehicle_type_id":"4","last_reported":1734534573,"current_range_meters":24400,"station_id":"ce4bh692rcd13ifvqe90","pricing_plan_id":"cebpf4jnsgd1na2vs0mg"},{"bike_id":"4fb1257c-26e3-4168-becb-db67c9c84e80","system_id":"levelo_inurba_marseille","lat":43.297,"lon":5.37708,"is_reserved":false,"is_disabled":false,"rental_uris":{"android":"levelo://app?vid=4fb1257c-26e3-4168-becb-db67c9c84e80","ios":"levelo://app?vid=4fb1257c-26e3-4168-becb-db67c9c84e80"},"vehicle_type_id":"4","last_reported":1734534573,"current_range_meters":19200,"station_id":"ce4bgkh2rcd13ifvqbl0","pricing_plan_id":"cebpf4jnsgd1na2vs0mg"},{"bike_id":"43da0757-9d0c-402c-965f-7d9c93d7e818","system_id":"levelo_inurba_marseille","lat":43.2559,"lon":5.3824,"is_reserved":false,"is_disabled":true,"rental_uris":{"android":"levelo://app?vid=43da0757-9d0c-402c-965f-7d9c93d7e818","ios":"levelo://app?vid=43da0757-9d0c-402c-965f-7d9c93d7e818"},"vehicle_type_id":"4","last_reported":1734534573,"current_range_meters":1600,"station_id":"ce4bhih2rcd13ifvqfs0","pricing_plan_id":"cebpf4jnsgd1na2vs0mg"},{"bike_id":"a9002301-2815-4da8-b708-209cae3ff729","system_id":"levelo_inurba_marseille","lat":43.27999,"lon":5.41664,"is_reserved":false,"is_disabled":false,"rental_uris":{"android":"levelo://app?vid=a9002301-2815-4da8-b708-209cae3ff729","ios":"levelo://app?vid=a9002301-2815-4da8-b708-209cae3ff729"},"vehicle_type_id":"4","last_reported":1734534573,"current_range_meters":29600,"station_id":"ce4bho12rcd13ifvqh1g","pricing_plan_id":"cebpf4jnsgd1na2vs0mg"},{"bike_id":"72492ff3-d3e5-4b81-822b-1d3357339451","system_id":"levelo_inurba_marseille","lat":43.29092,"lon":5.39915,"is_reserved":false,"is_disabled":true,"rental_uris":{"android":"levelo://app?vid=72492ff3-d3e5-4b81-822b-1d3357339451","ios":"levelo://app?vid=72492ff3-d3e5-4b81-822b-1d3357339451"},"vehicle_type_id":"4","last_reported":1734534573,"current_range_meters":38400,"station_id":"","pricing_plan_id":"cebpf4jnsgd1na2vs0mg"},{"bike_id":"c9aecb48-1552-47ad-af23-8b6bab0d2fdf","system_id":"levelo_inurba_marseille","lat":43.25081,"lon":5.39523,"is_reserved":false,"is_disabled":true,"rental_uris":{"android":"levelo://app?vid=c9aecb48-1552-47ad-af23-8b6bab0d2fdf","ios":"levelo://app?vid=c9aecb48-1552-47ad-af23-8b6bab0d2fdf"},"vehicle_type_id":"4","last_reported":1734534573,"current_range_meters":0,"station_id":"ce4bhm12rcd13ifvqgkg","pricing_plan_id":"cebpf4jnsgd1na2vs0mg"},{"bike_id":"20ce049d-9d00-4dff-9417-e04a6e42b12c","system_id":"levelo_inurba_marseille","lat":43.27985,"lon":5.41655,"is_reserved":false,"is_disabled":false,"rental_uris":{"android":"levelo://app?vid=20ce049d-9d00-4dff-9417-e04a6e42b12c","ios":"levelo://app?vid=20ce049d-9d00-4dff-9417-e04a6e42b12c"},"vehicle_type_id":"4","last_reported":1734534573,"current_range_meters":29600,"station_id":"ce4bho12rcd13ifvqh1g","pricing_plan_id":"cebpf4jnsgd1na2vs0mg"},{"bike_id":"b28f9753-28e1-431d-914b-59d1f0cf26b3","system_id":"levelo_inurba_marseille","lat":43.26556,"lon":5.37287,"is_reserved":false,"is_disabled":false,"rental_uris":{"android":"levelo://app?vid=b28f9753-28e1-431d-914b-59d1f0cf26b3","ios":"levelo://app?vid=b28f9753-28e1-431d-914b-59d1f0cf26b3"},"vehicle_type_id":"4","last_reported":1734534573,"current_range_meters":11200,"station_id":"ce4bhg12rcd13ifvqf70","pricing_plan_id":"cebpf4jnsgd1na2vs0mg"},{"bike_id":"9dc602f1-a01c-4a08-8757-d4e4d234b8a2","system_id":"levelo_inurba_marseille","lat":43.29849,"lon":5.36259,"is_reserved":false,"is_disabled":false,"rental_uris":{"android":"levelo://app?vid=9dc602f1-a01c-4a08-8757-d4e4d234b8a2","ios":"levelo://app?vid=9dc602f1-a01c-4a08-8757-d4e4d234b8a2"},"vehicle_type_id":"4","last_reported":1734534573,"current_range_meters":18800,"station_id":"ce4bgpp2rcd13ifvqc3g","pricing_plan_id":"cebpf4jnsgd1na2vs0mg"},{"bike_id":"a47a812b-8479-4dbf-a984-c261870d3f1a","system_id":"levelo_inurba_marseille","lat":43.31359,"lon":5.36751,"is_reserved":false,"is_disabled":false,"rental_uris":{"android":"levelo://app?vid=a47a812b-8479-4dbf-a984-c261870d3f1a","ios":"levelo://app?vid=a47a812b-8479-4dbf-a984-c261870d3f1a"},"vehicle_type_id":"4","last_reported":1734534573,"current_range_meters":36800,"station_id":"ce4bgr92rcd13ifvqc6g","pricing_plan_id":"cebpf4jnsgd1na2vs0mg"},{"bike_id":"800168c5-b2a2-4351-8cb5-178e8372baa8","system_id":"levelo_inurba_marseille","lat":43.27314,"lon":5.39086,"is_reserved":false,"is_disabled":false,"rental_uris":{"android":"levelo://app?vid=800168c5-b2a2-4351-8cb5-178e8372baa8","ios":"levelo://app?vid=800168c5-b2a2-4351-8cb5-178e8372baa8"},"vehicle_type_id":"4","last_reported":1734534573,"current_range_meters":21600,"station_id":"ce4bhgp2rcd13ifvqfe0","pricing_plan_id":"cebpf4jnsgd1na2vs0mg"},{"bike_id":"d943c758-086f-4a7c-b718-b103076aef5c","system_id":"levelo_inurba_marseille","lat":43.24386,"lon":5.37058,"is_reserved":false,"is_disabled":false,"rental_uris":{"android":"levelo://app?vid=d943c758-086f-4a7c-b718-b103076aef5c","ios":"levelo://app?vid=d943c758-086f-4a7c-b718-b103076aef5c"},"vehicle_type_id":"4","last_reported":1734534573,"current_range_meters":16000,"station_id":"ce4bhhh2rcd13ifvqfk0","pricing_plan_id":"cebpf4jnsgd1na2vs0mg"},{"bike_id":"758d4334-6dfe-4eea-a09a-3b38d0630c17","system_id":"levelo_inurba_marseille","lat":43.29535,"lon":5.39399,"is_reserved":false,"is_disabled":false,"rental_uris":{"android":"levelo://app?vid=758d4334-6dfe-4eea-a09a-3b38d0630c17","ios":"levelo://app?vid=758d4334-6dfe-4eea-a09a-3b38d0630c17"},"vehicle_type_id":"4","last_reported":1734534573,"current_range_meters":12800,"station_id":"ce4bh292rcd13ifvqdf0","pricing_plan_id":"cebpf4jnsgd1na2vs0mg"},{"bike_id":"990b10d5-dc20-4d68-9abd-b7eaf39a4263","system_id":"levelo_inurba_marseille","lat":43.29093,"lon":5.38144,"is_reserved":false,"is_disabled":false,"rental_uris":{"android":"levelo://app?vid=990b10d5-dc20-4d68-9abd-b7eaf39a4263","ios":"levelo://app?vid=990b10d5-dc20-4d68-9abd-b7eaf39a4263"},"vehicle_type_id":"4","last_reported":1734534573,"current_range_meters":37600,"station_id":"ce4bh512rcd13ifvqe2g","pricing_plan_id":"cebpf4jnsgd1na2vs0mg"},{"bike_id":"782bcbf2-b7de-4b04-bebc-aaa0329dd90c","system_id":"levelo_inurba_marseille","lat":43.23195,"lon":5.35559,"is_reserved":false,"is_disabled":false,"rental_uris":{"android":"levelo://app?vid=782bcbf2-b7de-4b04-bebc-aaa0329dd90c","ios":"levelo://app?vid=782bcbf2-b7de-4b04-bebc-aaa0329dd90c"},"vehicle_type_id":"4","last_reported":1734534573,"current_range_meters":39200,"station_id":"ce4bhu92rcd13ifvqi70","pricing_plan_id":"cebpf4jnsgd1na2vs0mg"},{"bike_id":"c975cb7c-3f96-48b4-975c-b45a2de133bb","system_id":"levelo_inurba_marseille","lat":43.30641,"lon":5.40082,"is_reserved":false,"is_disabled":false,"rental_uris":{"android":"levelo://app?vid=c975cb7c-3f96-48b4-975c-b45a2de133bb","ios":"levelo://app?vid=c975cb7c-3f96-48b4-975c-b45a2de133bb"},"vehicle_type_id":"4","last_reported":1734534573,"current_range_meters":3200,"station_id":"ce4bh112rcd13ifvqda0","pricing_plan_id":"cebpf4jnsgd1na2vs0mg"},{"bike_id":"96ff88dc-8cf7-4b0f-a345-fa00220da932","system_id":"levelo_inurba_marseille","lat":43.27414,"lon":5.42395,"is_reserved":false,"is_disabled":true,"rental_uris":{"android":"levelo://app?vid=96ff88dc-8cf7-4b0f-a345-fa00220da932","ios":"levelo://app?vid=96ff88dc-8cf7-4b0f-a345-fa00220da932"},"vehicle_type_id":"4","last_reported":1734534573,"current_range_meters":0,"station_id":"","pricing_plan_id":"cebpf4jnsgd1na2vs0mg"},{"bike_id":"48e505c5-451e-4cbe-9e9c-b70a9066904a","system_id":"levelo_inurba_marseille","lat":43.2439,"lon":5.37065,"is_reserved":false,"is_disabled":false,"rental_uris":{"android":"levelo://app?vid=48e505c5-451e-4cbe-9e9c-b70a9066904a","ios":"levelo://app?vid=48e505c5-451e-4cbe-9e9c-b70a9066904a"},"vehicle_type_id":"4","last_reported":1734534573,"current_range_meters":19200,"station_id":"ce4bhhh2rcd13ifvqfk0","pricing_plan_id":"cebpf4jnsgd1na2vs0mg"},{"bike_id":"c80cb0ed-4cb3-4d19-99d1-5182d266e397","system_id":"levelo_inurba_marseille","lat":43.30912,"lon":5.39585,"is_reserved":false,"is_disabled":false,"rental_uris":{"android":"levelo://app?vid=c80cb0ed-4cb3-4d19-99d1-5182d266e397","ios":"levelo://app?vid=c80cb0ed-4cb3-4d19-99d1-5182d266e397"},"vehicle_type_id":"4","last_reported":1734534573,"current_range_meters":11200,"station_id":"ce4bh012rcd13ifvqcv0","pricing_plan_id":"cebpf4jnsgd1na2vs0mg"},{"bike_id":"822408b5-93b6-4b7e-a2e4-a91cfb6d79ad","system_id":"levelo_inurba_marseille","lat":43.2418,"lon":5.39721,"is_reserved":false,"is_disabled":false,"rental_uris":{"android":"levelo://app?vid=822408b5-93b6-4b7e-a2e4-a91cfb6d79ad","ios":"levelo://app?vid=822408b5-93b6-4b7e-a2e4-a91cfb6d79ad"},"vehicle_type_id":"4","last_reported":1734534573,"current_range_meters":38800,"station_id":"ce4bhn12rcd13ifvqgpg","pricing_plan_id":"cebpf4jnsgd1na2vs0mg"},{"bike_id":"721d44a6-f88e-459f-b4bb-a8f7669f3eff","system_id":"levelo_inurba_marseille","lat":43.30537,"lon":5.36533,"is_reserved":false,"is_disabled":false,"rental_uris":{"android":"levelo://app?vid=721d44a6-f88e-459f-b4bb-a8f7669f3eff","ios":"levelo://app?vid=721d44a6-f88e-459f-b4bb-a8f7669f3eff"},"vehicle_type_id":"4","last_reported":1734534573,"current_range_meters":6800,"station_id":"ce4bgs12rcd13ifvqcag","pricing_plan_id":"cebpf4jnsgd1na2vs0mg"},{"bike_id":"c915f53d-e149-407b-9cbc-319144892dfe","system_id":"levelo_inurba_marseille","lat":43.25933,"lon":5.40904,"is_reserved":false,"is_disabled":false,"rental_uris":{"android":"levelo://app?vid=c915f53d-e149-407b-9cbc-319144892dfe","ios":"levelo://app?vid=c915f53d-e149-407b-9cbc-319144892dfe"},"vehicle_type_id":"4","last_reported":1734534573,"current_range_meters":19200,"station_id":"ce4bhm92rcd13ifvqglg","pricing_plan_id":"cebpf4jnsgd1na2vs0mg"},{"bike_id":"37a3e5bf-6f53-427b-9a89-d96d119f0635","system_id":"levelo_inurba_marseille","lat":43.28421,"lon":5.34999,"is_reserved":false,"is_disabled":false,"rental_uris":{"android":"levelo://app?vid=37a3e5bf-6f53-427b-9a89-d96d119f0635","ios":"levelo://app?vid=37a3e5bf-6f53-427b-9a89-d96d119f0635"},"vehicle_type_id":"4","last_reported":1734534573,"current_range_meters":6000,"station_id":"ce4bhbh2rcd13ifvqepg","pricing_plan_id":"cebpf4jnsgd1na2vs0mg"},{"bike_id":"e5e195d4-401f-47b5-ba3c-a395c7187273","system_id":"levelo_inurba_marseille","lat":43.28003,"lon":5.4001,"is_reserved":false,"is_disabled":false,"rental_uris":{"android":"levelo://app?vid=e5e195d4-401f-47b5-ba3c-a395c7187273","ios":"levelo://app?vid=e5e195d4-401f-47b5-ba3c-a395c7187273"},"vehicle_type_id":"4","last_reported":1734534573,"current_range_meters":22400,"station_id":"ce4bho92rcd13ifvqh4g","pricing_plan_id":"cebpf4jnsgd1na2vs0mg"},{"bike_id":"a3426e49-f13c-4df8-9708-0628039ce786","system_id":"levelo_inurba_marseille","lat":43.31064,"lon":5.38349,"is_reserved":false,"is_disabled":false,"rental_uris":{"android":"levelo://app?vid=a3426e49-f13c-4df8-9708-0628039ce786","ios":"levelo://app?vid=a3426e49-f13c-4df8-9708-0628039ce786"},"vehicle_type_id":"4","last_reported":1734534573,"current_range_meters":18000,"station_id":"ce4bgv92rcd13ifvqcr0","pricing_plan_id":"cebpf4jnsgd1na2vs0mg"},{"bike_id":"97fa7a5d-a7ef-4e16-876a-146c6b539c7c","system_id":"levelo_inurba_marseille","lat":43.27687,"lon":5.38921,"is_reserved":false,"is_disabled":true,"rental_uris":{"android":"levelo://app?vid=97fa7a5d-a7ef-4e16-876a-146c6b539c7c","ios":"levelo://app?vid=97fa7a5d-a7ef-4e16-876a-146c6b539c7c"},"vehicle_type_id":"4","last_reported":1734534573,"current_range_meters":400,"station_id":"ce4bhi12rcd13ifvqfo0","pricing_plan_id":"cebpf4jnsgd1na2vs0mg"},{"bike_id":"1f088edd-e254-4389-aab0-8bb3edc2dc9e","system_id":"levelo_inurba_marseille","lat":43.32476,"lon":5.36579,"is_reserved":false,"is_disabled":false,"rental_uris":{"android":"levelo://app?vid=1f088edd-e254-4389-aab0-8bb3edc2dc9e","ios":"levelo://app?vid=1f088edd-e254-4389-aab0-8bb3edc2dc9e"},"vehicle_type_id":"4","last_reported":1734534573,"current_range_meters":38800,"station_id":"ce4bhs12rcd13ifvqhvg","pricing_plan_id":"cebpf4jnsgd1na2vs0mg"},{"bike_id":"7eba5650-919d-4742-a1ec-5a9b429580ae","system_id":"levelo_inurba_marseille","lat":43.28419,"lon":5.34983,"is_reserved":false,"is_disabled":false,"rental_uris":{"android":"levelo://app?vid=7eba5650-919d-4742-a1ec-5a9b429580ae","ios":"levelo://app?vid=7eba5650-919d-4742-a1ec-5a9b429580ae"},"vehicle_type_id":"4","last_reported":1734534573,"current_range_meters":27600,"station_id":"ce4bhbh2rcd13ifvqepg","pricing_plan_id":"cebpf4jnsgd1na2vs0mg"},{"bike_id":"333aa382-91bd-401e-8a2d-c42eb56f0e06","system_id":"levelo_inurba_marseille","lat":43.27808,"lon":5.40705,"is_reserved":false,"is_disabled":false,"rental_uris":{"android":"levelo://app?vid=333aa382-91bd-401e-8a2d-c42eb56f0e06","ios":"levelo://app?vid=333aa382-91bd-401e-8a2d-c42eb56f0e06"},"vehicle_type_id":"4","last_reported":1734534573,"current_range_meters":38800,"station_id":"ce4bhnh2rcd13ifvqgtg","pricing_plan_id":"cebpf4jnsgd1na2vs0mg"},{"bike_id":"33f6f55c-3d9e-4b7b-9275-9aff81a78108","system_id":"levelo_inurba_marseille","lat":43.25867,"lon":5.39896,"is_reserved":false,"is_disabled":false,"rental_uris":{"android":"levelo://app?vid=33f6f55c-3d9e-4b7b-9275-9aff81a78108","ios":"levelo://app?vid=33f6f55c-3d9e-4b7b-9275-9aff81a78108"},"vehicle_type_id":"4","last_reported":1734534573,"current_range_meters":37600,"station_id":"ce4bhl92rcd13ifvqghg","pricing_plan_id":"cebpf4jnsgd1na2vs0mg"},{"bike_id":"623ea859-d213-452a-9e52-48ac7dd6a7ee","system_id":"levelo_inurba_marseille","lat":43.29005,"lon":5.35611,"is_reserved":false,"is_disabled":false,"rental_uris":{"android":"levelo://app?vid=623ea859-d213-452a-9e52-48ac7dd6a7ee","ios":"levelo://app?vid=623ea859-d213-452a-9e52-48ac7dd6a7ee"},"vehicle_type_id":"4","last_reported":1734534573,"current_range_meters":6400,"station_id":"ce4bhb92rcd13ifvqen0","pricing_plan_id":"cebpf4jnsgd1na2vs0mg"},{"bike_id":"c7b69568-7a78-440f-b70f-d8bf1dc5a75e","system_id":"levelo_inurba_marseille","lat":43.29843,"lon":5.36286,"is_reserved":false,"is_disabled":false,"rental_uris":{"android":"levelo://app?vid=c7b69568-7a78-440f-b70f-d8bf1dc5a75e","ios":"levelo://app?vid=c7b69568-7a78-440f-b70f-d8bf1dc5a75e"},"vehicle_type_id":"4","last_reported":1734534573,"current_range_meters":38800,"station_id":"ce4bgpp2rcd13ifvqc3g","pricing_plan_id":"cebpf4jnsgd1na2vs0mg"},{"bike_id":"193aabb3-71ad-4907-a9ee-129083832518","system_id":"levelo_inurba_marseille","lat":43.30343,"lon":5.41869,"is_reserved":false,"is_disabled":false,"rental_uris":{"android":"levelo://app?vid=193aabb3-71ad-4907-a9ee-129083832518","ios":"levelo://app?vid=193aabb3-71ad-4907-a9ee-129083832518"},"vehicle_type_id":"4","last_reported":1734534573,"current_range_meters":14000,"station_id":"ce4bhop2rcd13ifvqh7g","pricing_plan_id":"cebpf4jnsgd1na2vs0mg"},{"bike_id":"ba60245e-88fd-4aa5-9df5-baee3ef1d4e4","system_id":"levelo_inurba_marseille","lat":43.28708,"lon":5.3796,"is_reserved":false,"is_disabled":true,"rental_uris":{"android":"levelo://app?vid=ba60245e-88fd-4aa5-9df5-baee3ef1d4e4","ios":"levelo://app?vid=ba60245e-88fd-4aa5-9df5-baee3ef1d4e4"},"vehicle_type_id":"4","last_reported":1734534573,"current_range_meters":27200,"station_id":"ce4bh9p2rcd13ifvqec0","pricing_plan_id":"cebpf4jnsgd1na2vs0mg"},{"bike_id":"4c8b14c1-a279-4e3d-b684-d6545dbf4d61","system_id":"levelo_inurba_marseille","lat":43.31042,"lon":5.37539,"is_reserved":false,"is_disabled":false,"rental_uris":{"android":"levelo://app?vid=4c8b14c1-a279-4e3d-b684-d6545dbf4d61","ios":"levelo://app?vid=4c8b14c1-a279-4e3d-b684-d6545dbf4d61"},"vehicle_type_id":"4","last_reported":1734534573,"current_range_meters":33200,"station_id":"","pricing_plan_id":"cebpf4jnsgd1na2vs0mg"},{"bike_id":"0adb5049-7100-49ae-91bd-6c3cc202171c","system_id":"levelo_inurba_marseille","lat":43.287,"lon":5.39986,"is_reserved":false,"is_disabled":false,"rental_uris":{"android":"levelo://app?vid=0adb5049-7100-49ae-91bd-6c3cc202171c","ios":"levelo://app?vid=0adb5049-7100-49ae-91bd-6c3cc202171c"},"vehicle_type_id":"4","last_reported":1734534573,"current_range_meters":9600,"station_id":"ce4bho92rcd13ifvqh3g","pricing_plan_id":"cebpf4jnsgd1na2vs0mg"},{"bike_id":"e0c2eddf-4ba9-4754-b0b5-efd80badee74","system_id":"levelo_inurba_marseille","lat":43.25826,"lon":5.39429,"is_reserved":false,"is_disabled":true,"rental_uris":{"android":"levelo://app?vid=e0c2eddf-4ba9-4754-b0b5-efd80badee74","ios":"levelo://app?vid=e0c2eddf-4ba9-4754-b0b5-efd80badee74"},"vehicle_type_id":"4","last_reported":1734534573,"current_range_meters":400,"station_id":"ce4bhip2rcd13ifvqft0","pricing_plan_id":"cebpf4jnsgd1na2vs0mg"},{"bike_id":"ff6c6cb2-193d-4cda-989d-8ff0aca58427","system_id":"levelo_inurba_marseille","lat":43.30783,"lon":5.37651,"is_reserved":false,"is_disabled":false,"rental_uris":{"android":"levelo://app?vid=ff6c6cb2-193d-4cda-989d-8ff0aca58427","ios":"levelo://app?vid=ff6c6cb2-193d-4cda-989d-8ff0aca58427"},"vehicle_type_id":"4","last_reported":1734534573,"current_range_meters":11200,"station_id":"ce4bgv92rcd13ifvqcq0","pricing_plan_id":"cebpf4jnsgd1na2vs0mg"},{"bike_id":"68907ca0-038a-4705-886b-af6c122ac485","system_id":"levelo_inurba_marseille","lat":43.23181,"lon":5.39991,"is_reserved":false,"is_disabled":false,"rental_uris":{"android":"levelo://app?vid=68907ca0-038a-4705-886b-af6c122ac485","ios":"levelo://app?vid=68907ca0-038a-4705-886b-af6c122ac485"},"vehicle_type_id":"4","last_reported":1734534573,"current_range_meters":39200,"station_id":"ce4bhn12rcd13ifvqgqg","pricing_plan_id":"cebpf4jnsgd1na2vs0mg"},{"bike_id":"215a18a2-06a4-4496-97df-1c7ed800da76","system_id":"levelo_inurba_marseille","lat":43.29021,"lon":5.38139,"is_reserved":false,"is_disabled":false,"rental_uris":{"android":"levelo://app?vid=215a18a2-06a4-4496-97df-1c7ed800da76","ios":"levelo://app?vid=215a18a2-06a4-4496-97df-1c7ed800da76"},"vehicle_type_id":"4","last_reported":1734534573,"current_range_meters":19600,"station_id":"ce4bh4p2rcd13ifvqe1g","pricing_plan_id":"cebpf4jnsgd1na2vs0mg"},{"bike_id":"f9d4f3ab-ccf0-4ad6-8026-ba451bbaf237","system_id":"levelo_inurba_marseille","lat":43.29264,"lon":5.38443,"is_reserved":false,"is_disabled":false,"rental_uris":{"android":"levelo://app?vid=f9d4f3ab-ccf0-4ad6-8026-ba451bbaf237","ios":"levelo://app?vid=f9d4f3ab-ccf0-4ad6-8026-ba451bbaf237"},"vehicle_type_id":"4","last_reported":1734534573,"current_range_meters":8000,"station_id":"ce4bh692rcd13ifvqea0","pricing_plan_id":"cebpf4jnsgd1na2vs0mg"},{"bike_id":"5d5d6398-1536-408f-a77e-f95a6f0f09ea","system_id":"levelo_inurba_marseille","lat":43.3042,"lon":5.41283,"is_reserved":false,"is_disabled":false,"rental_uris":{"android":"levelo://app?vid=5d5d6398-1536-408f-a77e-f95a6f0f09ea","ios":"levelo://app?vid=5d5d6398-1536-408f-a77e-f95a6f0f09ea"},"vehicle_type_id":"4","last_reported":1734534573,"current_range_meters":38800,"station_id":"ce4bhop2rcd13ifvqh8g","pricing_plan_id":"cebpf4jnsgd1na2vs0mg"},{"bike_id":"bed315f7-efaa-43d0-8df3-295dc392e362","system_id":"levelo_inurba_marseille","lat":43.26563,"lon":5.39015,"is_reserved":false,"is_disabled":false,"rental_uris":{"android":"levelo://app?vid=bed315f7-efaa-43d0-8df3-295dc392e362","ios":"levelo://app?vid=bed315f7-efaa-43d0-8df3-295dc392e362"},"vehicle_type_id":"4","last_reported":1734534573,"current_range_meters":31200,"station_id":"ce4bhe12rcd13ifvqf30","pricing_plan_id":"cebpf4jnsgd1na2vs0mg"},{"bike_id":"bb337245-7c41-4671-900b-a4d92ae562c6","system_id":"levelo_inurba_marseille","lat":43.29511,"lon":5.39033,"is_reserved":false,"is_disabled":true,"rental_uris":{"android":"levelo://app?vid=bb337245-7c41-4671-900b-a4d92ae562c6","ios":"levelo://app?vid=bb337245-7c41-4671-900b-a4d92ae562c6"},"vehicle_type_id":"4","last_reported":1734534573,"current_range_meters":0,"station_id":"ce4bh3p2rcd13ifvqdp0","pricing_plan_id":"cebpf4jnsgd1na2vs0mg"},{"bike_id":"0922cbda-1a7f-4eca-9662-ee2368dcb332","system_id":"levelo_inurba_marseille","lat":43.26212,"lon":5.3744,"is_reserved":false,"is_disabled":false,"rental_uris":{"android":"levelo://app?vid=0922cbda-1a7f-4eca-9662-ee2368dcb332","ios":"levelo://app?vid=0922cbda-1a7f-4eca-9662-ee2368dcb332"},"vehicle_type_id":"4","last_reported":1734534573,"current_range_meters":27200,"station_id":"ce4bhgp2rcd13ifvqfc0","pricing_plan_id":"cebpf4jnsgd1na2vs0mg"},{"bike_id":"9396cc6c-e32e-4065-85ca-fe1b009ef3ba","system_id":"levelo_inurba_marseille","lat":43.25116,"lon":5.40317,"is_reserved":false,"is_disabled":false,"rental_uris":{"android":"levelo://app?vid=9396cc6c-e32e-4065-85ca-fe1b009ef3ba","ios":"levelo://app?vid=9396cc6c-e32e-4065-85ca-fe1b009ef3ba"},"vehicle_type_id":"4","last_reported":1734534573,"current_range_meters":24800,"station_id":"ce4bhlh2rcd13ifvqgig","pricing_plan_id":"cebpf4jnsgd1na2vs0mg"},{"bike_id":"6f7acd99-77cb-462a-9f2d-c4e504bcc16a","system_id":"levelo_inurba_marseille","lat":43.231906,"lon":5.399826,"is_reserved":false,"is_disabled":false,"rental_uris":{"android":"levelo://app?vid=6f7acd99-77cb-462a-9f2d-c4e504bcc16a","ios":"levelo://app?vid=6f7acd99-77cb-462a-9f2d-c4e504bcc16a"},"vehicle_type_id":"4","last_reported":1734534573,"current_range_meters":38800,"station_id":"ce4bhn12rcd13ifvqgqg","pricing_plan_id":"cebpf4jnsgd1na2vs0mg"},{"bike_id":"ac86af18-ecc8-477e-a5b7-a72fd8c8d5b7","system_id":"levelo_inurba_marseille","lat":43.306,"lon":5.37221,"is_reserved":false,"is_disabled":false,"rental_uris":{"android":"levelo://app?vid=ac86af18-ecc8-477e-a5b7-a72fd8c8d5b7","ios":"levelo://app?vid=ac86af18-ecc8-477e-a5b7-a72fd8c8d5b7"},"vehicle_type_id":"4","last_reported":1734534573,"current_range_meters":18800,"station_id":"ce4bgqh2rcd13ifvqc4g","pricing_plan_id":"cebpf4jnsgd1na2vs0mg"},{"bike_id":"c5bd26fa-32ee-49d7-8f2e-aae30ab2547f","system_id":"levelo_inurba_marseille","lat":43.29225,"lon":5.3607,"is_reserved":false,"is_disabled":false,"rental_uris":{"android":"levelo://app?vid=c5bd26fa-32ee-49d7-8f2e-aae30ab2547f","ios":"levelo://app?vid=c5bd26fa-32ee-49d7-8f2e-aae30ab2547f"},"vehicle_type_id":"4","last_reported":1734534573,"current_range_meters":35200,"station_id":"ce4bhbh2rcd13ifvqeqg","pricing_plan_id":"cebpf4jnsgd1na2vs0mg"},{"bike_id":"9f498653-46b2-480b-969a-354ff1739d6d","system_id":"levelo_inurba_marseille","lat":43.29601,"lon":5.38094,"is_reserved":false,"is_disabled":false,"rental_uris":{"android":"levelo://app?vid=9f498653-46b2-480b-969a-354ff1739d6d","ios":"levelo://app?vid=9f498653-46b2-480b-969a-354ff1739d6d"},"vehicle_type_id":"4","last_reported":1734534573,"current_range_meters":4400,"station_id":"ce4bgl12rcd13ifvqbo0","pricing_plan_id":"cebpf4jnsgd1na2vs0mg"},{"bike_id":"f3625e82-4ed0-4a36-9613-eed8ce523c5f","system_id":"levelo_inurba_marseille","lat":43.29977,"lon":5.37176,"is_reserved":false,"is_disabled":false,"rental_uris":{"android":"levelo://app?vid=f3625e82-4ed0-4a36-9613-eed8ce523c5f","ios":"levelo://app?vid=f3625e82-4ed0-4a36-9613-eed8ce523c5f"},"vehicle_type_id":"4","last_reported":1734534573,"current_range_meters":38000,"station_id":"ce4bgr92rcd13ifvqc7g","pricing_plan_id":"cebpf4jnsgd1na2vs0mg"},{"bike_id":"98fa323b-513c-4e77-80ab-0662e809c449","system_id":"levelo_inurba_marseille","lat":43.29282,"lon":5.36851,"is_reserved":false,"is_disabled":false,"rental_uris":{"android":"levelo://app?vid=98fa323b-513c-4e77-80ab-0662e809c449","ios":"levelo://app?vid=98fa323b-513c-4e77-80ab-0662e809c449"},"vehicle_type_id":"4","last_reported":1734534573,"current_range_meters":36000,"station_id":"ce4bhbp2rcd13ifvqesg","pricing_plan_id":"cebpf4jnsgd1na2vs0mg"},{"bike_id":"c322e508-8fd6-46a8-b80e-f6f1a2ae74ec","system_id":"levelo_inurba_marseille","lat":43.315337,"lon":5.380251,"is_reserved":false,"is_disabled":false,"rental_uris":{"android":"levelo://app?vid=c322e508-8fd6-46a8-b80e-f6f1a2ae74ec","ios":"levelo://app?vid=c322e508-8fd6-46a8-b80e-f6f1a2ae74ec"},"vehicle_type_id":"4","last_reported":1734534573,"current_range_meters":22800,"station_id":"ce4bhsp2rcd13ifvqi50","pricing_plan_id":"cebpf4jnsgd1na2vs0mg"},{"bike_id":"17b2d2b0-9855-46b4-a478-0bd9c7277056","system_id":"levelo_inurba_marseille","lat":43.30511,"lon":5.37267,"is_reserved":false,"is_disabled":false,"rental_uris":{"android":"levelo://app?vid=17b2d2b0-9855-46b4-a478-0bd9c7277056","ios":"levelo://app?vid=17b2d2b0-9855-46b4-a478-0bd9c7277056"},"vehicle_type_id":"4","last_reported":1734534573,"current_range_meters":11200,"station_id":"","pricing_plan_id":"cebpf4jnsgd1na2vs0mg"},{"bike_id":"3adf4377-ebd6-4934-90c6-cbbabf9a6e47","system_id":"levelo_inurba_marseille","lat":43.30135,"lon":5.37425,"is_reserved":false,"is_disabled":false,"rental_uris":{"android":"levelo://app?vid=3adf4377-ebd6-4934-90c6-cbbabf9a6e47","ios":"levelo://app?vid=3adf4377-ebd6-4934-90c6-cbbabf9a6e47"},"vehicle_type_id":"4","last_reported":1734534573,"current_range_meters":26000,"station_id":"ce4bgs92rcd13ifvqcc0","pricing_plan_id":"cebpf4jnsgd1na2vs0mg"},{"bike_id":"174c09aa-95ed-4f91-8a6f-4bb7683d885d","system_id":"levelo_inurba_marseille","lat":43.29577,"lon":5.37501,"is_reserved":false,"is_disabled":false,"rental_uris":{"android":"levelo://app?vid=174c09aa-95ed-4f91-8a6f-4bb7683d885d","ios":"levelo://app?vid=174c09aa-95ed-4f91-8a6f-4bb7683d885d"},"vehicle_type_id":"4","last_reported":1734534573,"current_range_meters":12800,"station_id":"ce4bgh92rcd13ifvqb50","pricing_plan_id":"cebpf4jnsgd1na2vs0mg"},{"bike_id":"26834ff2-ba18-4af3-8168-ea5d7a23e7a6","system_id":"levelo_inurba_marseille","lat":43.29093,"lon":5.38143,"is_reserved":false,"is_disabled":false,"rental_uris":{"android":"levelo://app?vid=26834ff2-ba18-4af3-8168-ea5d7a23e7a6","ios":"levelo://app?vid=26834ff2-ba18-4af3-8168-ea5d7a23e7a6"},"vehicle_type_id":"4","last_reported":1734534573,"current_range_meters":19200,"station_id":"ce4bh512rcd13ifvqe2g","pricing_plan_id":"cebpf4jnsgd1na2vs0mg"},{"bike_id":"9f97f512-1b19-443a-b67f-86de027e5577","system_id":"levelo_inurba_marseille","lat":43.33982,"lon":5.38827,"is_reserved":false,"is_disabled":false,"rental_uris":{"android":"levelo://app?vid=9f97f512-1b19-443a-b67f-86de027e5577","ios":"levelo://app?vid=9f97f512-1b19-443a-b67f-86de027e5577"},"vehicle_type_id":"4","last_reported":1734534573,"current_range_meters":26800,"station_id":"","pricing_plan_id":"cebpf4jnsgd1na2vs0mg"},{"bike_id":"4b1287ea-b137-4649-aa07-b6ececfe9347","system_id":"levelo_inurba_marseille","lat":43.26557,"lon":5.37283,"is_reserved":false,"is_disabled":true,"rental_uris":{"android":"levelo://app?vid=4b1287ea-b137-4649-aa07-b6ececfe9347","ios":"levelo://app?vid=4b1287ea-b137-4649-aa07-b6ececfe9347"},"vehicle_type_id":"4","last_reported":1734534573,"current_range_meters":800,"station_id":"ce4bhg12rcd13ifvqf70","pricing_plan_id":"cebpf4jnsgd1na2vs0mg"},{"bike_id":"27fb8d27-d207-4944-922f-ef21125b4454","system_id":"levelo_inurba_marseille","lat":43.26805,"lon":5.40258,"is_reserved":false,"is_disabled":false,"rental_uris":{"android":"levelo://app?vid=27fb8d27-d207-4944-922f-ef21125b4454","ios":"levelo://app?vid=27fb8d27-d207-4944-922f-ef21125b4454"},"vehicle_type_id":"4","last_reported":1734534573,"current_range_meters":31200,"station_id":"ce501612rcd8frsf0b60","pricing_plan_id":"cebpf4jnsgd1na2vs0mg"},{"bike_id":"e76713dd-0332-4434-8c79-2688e85d546a","system_id":"levelo_inurba_marseille","lat":43.30539,"lon":5.36528,"is_reserved":false,"is_disabled":false,"rental_uris":{"android":"levelo://app?vid=e76713dd-0332-4434-8c79-2688e85d546a","ios":"levelo://app?vid=e76713dd-0332-4434-8c79-2688e85d546a"},"vehicle_type_id":"4","last_reported":1734534573,"current_range_meters":22400,"station_id":"ce4bgs12rcd13ifvqcag","pricing_plan_id":"cebpf4jnsgd1na2vs0mg"},{"bike_id":"a3cf41a4-697d-4bf7-a14d-7b5478677bb7","system_id":"levelo_inurba_marseille","lat":43.30782,"lon":5.37648,"is_reserved":false,"is_disabled":false,"rental_uris":{"android":"levelo://app?vid=a3cf41a4-697d-4bf7-a14d-7b5478677bb7","ios":"levelo://app?vid=a3cf41a4-697d-4bf7-a14d-7b5478677bb7"},"vehicle_type_id":"4","last_reported":1734534573,"current_range_meters":36800,"station_id":"ce4bgv92rcd13ifvqcq0","pricing_plan_id":"cebpf4jnsgd1na2vs0mg"},{"bike_id":"3f684ade-8ff8-412b-8c78-ba957e925730","system_id":"levelo_inurba_marseille","lat":43.30541,"lon":5.36705,"is_reserved":false,"is_disabled":false,"rental_uris":{"android":"levelo://app?vid=3f684ade-8ff8-412b-8c78-ba957e925730","ios":"levelo://app?vid=3f684ade-8ff8-412b-8c78-ba957e925730"},"vehicle_type_id":"4","last_reported":1734534573,"current_range_meters":28000,"station_id":"ce4bgrp2rcd13ifvqc9g","pricing_plan_id":"cebpf4jnsgd1na2vs0mg"},{"bike_id":"1c50754a-b301-46b3-bb46-221b69c1982f","system_id":"levelo_inurba_marseille","lat":43.26563,"lon":5.37278,"is_reserved":false,"is_disabled":false,"rental_uris":{"android":"levelo://app?vid=1c50754a-b301-46b3-bb46-221b69c1982f","ios":"levelo://app?vid=1c50754a-b301-46b3-bb46-221b69c1982f"},"vehicle_type_id":"4","last_reported":1734534573,"current_range_meters":28400,"station_id":"ce4bhg12rcd13ifvqf70","pricing_plan_id":"cebpf4jnsgd1na2vs0mg"},{"bike_id":"d5a433b3-a3ff-4040-bbb4-235772432b3d","system_id":"levelo_inurba_marseille","lat":43.27911,"lon":5.39594,"is_reserved":false,"is_disabled":false,"rental_uris":{"android":"levelo://app?vid=d5a433b3-a3ff-4040-bbb4-235772432b3d","ios":"levelo://app?vid=d5a433b3-a3ff-4040-bbb4-235772432b3d"},"vehicle_type_id":"4","last_reported":1734534573,"current_range_meters":15200,"station_id":"ce4bhf92rcd13ifvqf40","pricing_plan_id":"cebpf4jnsgd1na2vs0mg"},{"bike_id":"466a39d9-4513-4f2c-9bdf-d6c9ee74acfa","system_id":"levelo_inurba_marseille","lat":43.27979,"lon":5.41644,"is_reserved":false,"is_disabled":false,"rental_uris":{"android":"levelo://app?vid=466a39d9-4513-4f2c-9bdf-d6c9ee74acfa","ios":"levelo://app?vid=466a39d9-4513-4f2c-9bdf-d6c9ee74acfa"},"vehicle_type_id":"4","last_reported":1734534573,"current_range_meters":28400,"station_id":"ce4bho12rcd13ifvqh1g","pricing_plan_id":"cebpf4jnsgd1na2vs0mg"},{"bike_id":"63ac9ec0-94d0-4b1e-8838-1ee7b4295fda","system_id":"levelo_inurba_marseille","lat":43.3211,"lon":5.36788,"is_reserved":false,"is_disabled":true,"rental_uris":{"android":"levelo://app?vid=63ac9ec0-94d0-4b1e-8838-1ee7b4295fda","ios":"levelo://app?vid=63ac9ec0-94d0-4b1e-8838-1ee7b4295fda"},"vehicle_type_id":"4","last_reported":1734534573,"current_range_meters":0,"station_id":"ce4bhrh2rcd13ifvqhug","pricing_plan_id":"cebpf4jnsgd1na2vs0mg"},{"bike_id":"12e8eaa3-57cd-4d29-a80f-b25ffc7e7a2a","system_id":"levelo_inurba_marseille","lat":43.26552,"lon":5.37286,"is_reserved":false,"is_disabled":false,"rental_uris":{"android":"levelo://app?vid=12e8eaa3-57cd-4d29-a80f-b25ffc7e7a2a","ios":"levelo://app?vid=12e8eaa3-57cd-4d29-a80f-b25ffc7e7a2a"},"vehicle_type_id":"4","last_reported":1734534573,"current_range_meters":30000,"station_id":"ce4bhg12rcd13ifvqf70","pricing_plan_id":"cebpf4jnsgd1na2vs0mg"},{"bike_id":"b59f257a-8dab-4413-b919-883a7a53a7fd","system_id":"levelo_inurba_marseille","lat":43.27056,"lon":5.40266,"is_reserved":false,"is_disabled":false,"rental_uris":{"android":"levelo://app?vid=b59f257a-8dab-4413-b919-883a7a53a7fd","ios":"levelo://app?vid=b59f257a-8dab-4413-b919-883a7a53a7fd"},"vehicle_type_id":"4","last_reported":1734534573,"current_range_meters":24000,"station_id":"ce4bhk92rcd13ifvqgc0","pricing_plan_id":"cebpf4jnsgd1na2vs0mg"},{"bike_id":"c4af1916-dc1a-4664-a29e-bd093b83f72a","system_id":"levelo_inurba_marseille","lat":43.30129,"lon":5.3985,"is_reserved":false,"is_disabled":true,"rental_uris":{"android":"levelo://app?vid=c4af1916-dc1a-4664-a29e-bd093b83f72a","ios":"levelo://app?vid=c4af1916-dc1a-4664-a29e-bd093b83f72a"},"vehicle_type_id":"4","last_reported":1734534573,"current_range_meters":0,"station_id":"ce4bh0h2rcd13ifvqd40","pricing_plan_id":"cebpf4jnsgd1na2vs0mg"},{"bike_id":"e49249f7-67ae-4467-9089-d0be452ea2b0","system_id":"levelo_inurba_marseille","lat":43.27192,"lon":5.40996,"is_reserved":false,"is_disabled":false,"rental_uris":{"android":"levelo://app?vid=e49249f7-67ae-4467-9089-d0be452ea2b0","ios":"levelo://app?vid=e49249f7-67ae-4467-9089-d0be452ea2b0"},"vehicle_type_id":"4","last_reported":1734534573,"current_range_meters":38400,"station_id":"ce4bhl12rcd13ifvqgf0","pricing_plan_id":"cebpf4jnsgd1na2vs0mg"},{"bike_id":"b3fafb4b-a78c-49f3-a0ff-e5ded4e125df","system_id":"levelo_inurba_marseille","lat":43.30088,"lon":5.39078,"is_reserved":false,"is_disabled":false,"rental_uris":{"android":"levelo://app?vid=b3fafb4b-a78c-49f3-a0ff-e5ded4e125df","ios":"levelo://app?vid=b3fafb4b-a78c-49f3-a0ff-e5ded4e125df"},"vehicle_type_id":"4","last_reported":1734534573,"current_range_meters":36400,"station_id":"ce4bh192rcd13ifvqdb0","pricing_plan_id":"cebpf4jnsgd1na2vs0mg"},{"bike_id":"882de910-9b3d-43e3-b04c-ac39dcd38f96","system_id":"levelo_inurba_marseille","lat":43.30569,"lon":5.36701,"is_reserved":false,"is_disabled":false,"rental_uris":{"android":"levelo://app?vid=882de910-9b3d-43e3-b04c-ac39dcd38f96","ios":"levelo://app?vid=882de910-9b3d-43e3-b04c-ac39dcd38f96"},"vehicle_type_id":"4","last_reported":1734534573,"current_range_meters":38800,"station_id":"ce4bgrp2rcd13ifvqc9g","pricing_plan_id":"cebpf4jnsgd1na2vs0mg"},{"bike_id":"7e876e85-730f-4bb1-8e78-bc65c4d6fe75","system_id":"levelo_inurba_marseille","lat":43.29041,"lon":5.35905,"is_reserved":false,"is_disabled":false,"rental_uris":{"android":"levelo://app?vid=7e876e85-730f-4bb1-8e78-bc65c4d6fe75","ios":"levelo://app?vid=7e876e85-730f-4bb1-8e78-bc65c4d6fe75"},"vehicle_type_id":"4","last_reported":1734534573,"current_range_meters":26000,"station_id":"ce4bha92rcd13ifvqeg0","pricing_plan_id":"cebpf4jnsgd1na2vs0mg"},{"bike_id":"ee5d8866-4c21-49e5-a6c2-bcdfb8f2360c","system_id":"levelo_inurba_marseille","lat":43.29715,"lon":5.36602,"is_reserved":false,"is_disabled":false,"rental_uris":{"android":"levelo://app?vid=ee5d8866-4c21-49e5-a6c2-bcdfb8f2360c","ios":"levelo://app?vid=ee5d8866-4c21-49e5-a6c2-bcdfb8f2360c"},"vehicle_type_id":"4","last_reported":1734534573,"current_range_meters":32000,"station_id":"ce4bgn12rcd13ifvqbt0","pricing_plan_id":"cebpf4jnsgd1na2vs0mg"},{"bike_id":"740d66e7-2dcf-4d56-b49a-a9b4c431e170","system_id":"levelo_inurba_marseille","lat":43.29711,"lon":5.36613,"is_reserved":false,"is_disabled":false,"rental_uris":{"android":"levelo://app?vid=740d66e7-2dcf-4d56-b49a-a9b4c431e170","ios":"levelo://app?vid=740d66e7-2dcf-4d56-b49a-a9b4c431e170"},"vehicle_type_id":"4","last_reported":1734534573,"current_range_meters":10800,"station_id":"ce4bgn12rcd13ifvqbt0","pricing_plan_id":"cebpf4jnsgd1na2vs0mg"},{"bike_id":"9a466067-27a8-4936-a906-59fa3e169a87","system_id":"levelo_inurba_marseille","lat":43.26492,"lon":5.39539,"is_reserved":false,"is_disabled":false,"rental_uris":{"android":"levelo://app?vid=9a466067-27a8-4936-a906-59fa3e169a87","ios":"levelo://app?vid=9a466067-27a8-4936-a906-59fa3e169a87"},"vehicle_type_id":"4","last_reported":1734534573,"current_range_meters":34800,"station_id":"ce4bhi12rcd13ifvqfq0","pricing_plan_id":"cebpf4jnsgd1na2vs0mg"},{"bike_id":"97f1d201-f690-496d-a32f-8bfd46f004c8","system_id":"levelo_inurba_marseille","lat":43.27909,"lon":5.38015,"is_reserved":false,"is_disabled":false,"rental_uris":{"android":"levelo://app?vid=97f1d201-f690-496d-a32f-8bfd46f004c8","ios":"levelo://app?vid=97f1d201-f690-496d-a32f-8bfd46f004c8"},"vehicle_type_id":"4","last_reported":1734534573,"current_range_meters":38800,"station_id":"ce4bhf92rcd13ifvqf50","pricing_plan_id":"cebpf4jnsgd1na2vs0mg"},{"bike_id":"535b0247-de6c-4b3c-9fd6-d16e6ed21664","system_id":"levelo_inurba_marseille","lat":43.31355,"lon":5.36709,"is_reserved":false,"is_disabled":false,"rental_uris":{"android":"levelo://app?vid=535b0247-de6c-4b3c-9fd6-d16e6ed21664","ios":"levelo://app?vid=535b0247-de6c-4b3c-9fd6-d16e6ed21664"},"vehicle_type_id":"4","last_reported":1734534573,"current_range_meters":38800,"station_id":"ce4bgr92rcd13ifvqc6g","pricing_plan_id":"cebpf4jnsgd1na2vs0mg"},{"bike_id":"e78cf0ef-a444-4a79-9395-16a479b1c4d9","system_id":"levelo_inurba_marseille","lat":43.292728,"lon":5.401098,"is_reserved":false,"is_disabled":true,"rental_uris":{"android":"levelo://app?vid=e78cf0ef-a444-4a79-9395-16a479b1c4d9","ios":"levelo://app?vid=e78cf0ef-a444-4a79-9395-16a479b1c4d9"},"vehicle_type_id":"4","last_reported":1734534573,"current_range_meters":800,"station_id":"ce4bh312rcd13ifvqdk0","pricing_plan_id":"cebpf4jnsgd1na2vs0mg"},{"bike_id":"6d31d612-7555-4df9-b35a-e5291f6752dd","system_id":"levelo_inurba_marseille","lat":43.30554,"lon":5.36543,"is_reserved":false,"is_disabled":false,"rental_uris":{"android":"levelo://app?vid=6d31d612-7555-4df9-b35a-e5291f6752dd","ios":"levelo://app?vid=6d31d612-7555-4df9-b35a-e5291f6752dd"},"vehicle_type_id":"4","last_reported":1734534573,"current_range_meters":20000,"station_id":"ce4bgs12rcd13ifvqcag","pricing_plan_id":"cebpf4jnsgd1na2vs0mg"},{"bike_id":"0266573f-9bf5-4cb0-8ce9-212652a48bac","system_id":"levelo_inurba_marseille","lat":43.28418,"lon":5.34985,"is_reserved":false,"is_disabled":false,"rental_uris":{"android":"levelo://app?vid=0266573f-9bf5-4cb0-8ce9-212652a48bac","ios":"levelo://app?vid=0266573f-9bf5-4cb0-8ce9-212652a48bac"},"vehicle_type_id":"4","last_reported":1734534573,"current_range_meters":27200,"station_id":"ce4bhbh2rcd13ifvqepg","pricing_plan_id":"cebpf4jnsgd1na2vs0mg"},{"bike_id":"54e78b38-fc43-4810-a9ee-2c7346f40493","system_id":"levelo_inurba_marseille","lat":43.30301,"lon":5.39195,"is_reserved":false,"is_disabled":false,"rental_uris":{"android":"levelo://app?vid=54e78b38-fc43-4810-a9ee-2c7346f40493","ios":"levelo://app?vid=54e78b38-fc43-4810-a9ee-2c7346f40493"},"vehicle_type_id":"4","last_reported":1734534573,"current_range_meters":16400,"station_id":"ce4bgkh2rcd13ifvqbk0","pricing_plan_id":"cebpf4jnsgd1na2vs0mg"},{"bike_id":"8b21dd7d-3e2f-4cbd-9749-7f883f4710f1","system_id":"levelo_inurba_marseille","lat":43.3122,"lon":5.3683,"is_reserved":false,"is_disabled":false,"rental_uris":{"android":"levelo://app?vid=8b21dd7d-3e2f-4cbd-9749-7f883f4710f1","ios":"levelo://app?vid=8b21dd7d-3e2f-4cbd-9749-7f883f4710f1"},"vehicle_type_id":"4","last_reported":1734534573,"current_range_meters":27600,"station_id":"ce4bgl92rcd13ifvqbq0","pricing_plan_id":"cebpf4jnsgd1na2vs0mg"},{"bike_id":"bba85a74-2c52-4269-a2b5-9bc2de67d67d","system_id":"levelo_inurba_marseille","lat":43.30549,"lon":5.36531,"is_reserved":false,"is_disabled":false,"rental_uris":{"android":"levelo://app?vid=bba85a74-2c52-4269-a2b5-9bc2de67d67d","ios":"levelo://app?vid=bba85a74-2c52-4269-a2b5-9bc2de67d67d"},"vehicle_type_id":"4","last_reported":1734534573,"current_range_meters":38800,"station_id":"ce4bgs12rcd13ifvqcag","pricing_plan_id":"cebpf4jnsgd1na2vs0mg"},{"bike_id":"78f5dcee-b6ca-4cfa-ae6f-ebcf64be1236","system_id":"levelo_inurba_marseille","lat":43.323511,"lon":5.40624,"is_reserved":false,"is_disabled":false,"rental_uris":{"android":"levelo://app?vid=78f5dcee-b6ca-4cfa-ae6f-ebcf64be1236","ios":"levelo://app?vid=78f5dcee-b6ca-4cfa-ae6f-ebcf64be1236"},"vehicle_type_id":"4","last_reported":1734534573,"current_range_meters":38800,"station_id":"ce4bhq92rcd13ifvqhjg","pricing_plan_id":"cebpf4jnsgd1na2vs0mg"},{"bike_id":"3b6b4939-1633-4ed0-b9d9-c85e89d5cb1a","system_id":"levelo_inurba_marseille","lat":43.26685,"lon":5.38274,"is_reserved":false,"is_disabled":false,"rental_uris":{"android":"levelo://app?vid=3b6b4939-1633-4ed0-b9d9-c85e89d5cb1a","ios":"levelo://app?vid=3b6b4939-1633-4ed0-b9d9-c85e89d5cb1a"},"vehicle_type_id":"4","last_reported":1734534573,"current_range_meters":4800,"station_id":"ce4bhg92rcd13ifvqf90","pricing_plan_id":"cebpf4jnsgd1na2vs0mg"},{"bike_id":"23a4db80-3122-4142-9eab-e7591337624b","system_id":"levelo_inurba_marseille","lat":43.30528,"lon":5.36712,"is_reserved":false,"is_disabled":false,"rental_uris":{"android":"levelo://app?vid=23a4db80-3122-4142-9eab-e7591337624b","ios":"levelo://app?vid=23a4db80-3122-4142-9eab-e7591337624b"},"vehicle_type_id":"4","last_reported":1734534573,"current_range_meters":24800,"station_id":"ce4bgrp2rcd13ifvqc9g","pricing_plan_id":"cebpf4jnsgd1na2vs0mg"},{"bike_id":"80b05b51-71c4-43eb-ae94-7b6820fddb65","system_id":"levelo_inurba_marseille","lat":43.28264,"lon":5.35073,"is_reserved":false,"is_disabled":false,"rental_uris":{"android":"levelo://app?vid=80b05b51-71c4-43eb-ae94-7b6820fddb65","ios":"levelo://app?vid=80b05b51-71c4-43eb-ae94-7b6820fddb65"},"vehicle_type_id":"4","last_reported":1734534573,"current_range_meters":26000,"station_id":"ce4bhbp2rcd13ifvqerg","pricing_plan_id":"cebpf4jnsgd1na2vs0mg"},{"bike_id":"680358db-eb64-4f35-bba9-4d9ebd5f23e1","system_id":"levelo_inurba_marseille","lat":43.28416,"lon":5.34985,"is_reserved":false,"is_disabled":false,"rental_uris":{"android":"levelo://app?vid=680358db-eb64-4f35-bba9-4d9ebd5f23e1","ios":"levelo://app?vid=680358db-eb64-4f35-bba9-4d9ebd5f23e1"},"vehicle_type_id":"4","last_reported":1734534573,"current_range_meters":8400,"station_id":"ce4bhbh2rcd13ifvqepg","pricing_plan_id":"cebpf4jnsgd1na2vs0mg"},{"bike_id":"3f37807f-d28e-422d-981f-3b66e1fb21df","system_id":"levelo_inurba_marseille","lat":43.29859,"lon":5.36274,"is_reserved":false,"is_disabled":false,"rental_uris":{"android":"levelo://app?vid=3f37807f-d28e-422d-981f-3b66e1fb21df","ios":"levelo://app?vid=3f37807f-d28e-422d-981f-3b66e1fb21df"},"vehicle_type_id":"4","last_reported":1734534573,"current_range_meters":38800,"station_id":"ce4bgpp2rcd13ifvqc3g","pricing_plan_id":"cebpf4jnsgd1na2vs0mg"},{"bike_id":"e06e5437-0ec2-4fc8-8eea-3b1bd1eae0c0","system_id":"levelo_inurba_marseille","lat":43.28269,"lon":5.35075,"is_reserved":false,"is_disabled":false,"rental_uris":{"android":"levelo://app?vid=e06e5437-0ec2-4fc8-8eea-3b1bd1eae0c0","ios":"levelo://app?vid=e06e5437-0ec2-4fc8-8eea-3b1bd1eae0c0"},"vehicle_type_id":"4","last_reported":1734534573,"current_range_meters":38800,"station_id":"ce4bhbp2rcd13ifvqerg","pricing_plan_id":"cebpf4jnsgd1na2vs0mg"},{"bike_id":"9a9ca54f-8f83-4db0-b780-a7eb0fa7f88d","system_id":"levelo_inurba_marseille","lat":43.26023,"lon":5.37554,"is_reserved":false,"is_disabled":false,"rental_uris":{"android":"levelo://app?vid=9a9ca54f-8f83-4db0-b780-a7eb0fa7f88d","ios":"levelo://app?vid=9a9ca54f-8f83-4db0-b780-a7eb0fa7f88d"},"vehicle_type_id":"4","last_reported":1734534573,"current_range_meters":33600,"station_id":"ce4bhgh2rcd13ifvqfa0","pricing_plan_id":"cebpf4jnsgd1na2vs0mg"},{"bike_id":"a3232108-6d4d-45f4-ac66-cd85d6391bc7","system_id":"levelo_inurba_marseille","lat":43.23055,"lon":5.35499,"is_reserved":false,"is_disabled":false,"rental_uris":{"android":"levelo://app?vid=a3232108-6d4d-45f4-ac66-cd85d6391bc7","ios":"levelo://app?vid=a3232108-6d4d-45f4-ac66-cd85d6391bc7"},"vehicle_type_id":"4","last_reported":1734534573,"current_range_meters":37600,"station_id":"cpo3342slgdg3j2ifvpg","pricing_plan_id":"cebpf4jnsgd1na2vs0mg"},{"bike_id":"f9bd643c-59af-42ac-9746-fdfc90743924","system_id":"levelo_inurba_marseille","lat":43.29843,"lon":5.36275,"is_reserved":false,"is_disabled":false,"rental_uris":{"android":"levelo://app?vid=f9bd643c-59af-42ac-9746-fdfc90743924","ios":"levelo://app?vid=f9bd643c-59af-42ac-9746-fdfc90743924"},"vehicle_type_id":"4","last_reported":1734534573,"current_range_meters":36400,"station_id":"ce4bgpp2rcd13ifvqc3g","pricing_plan_id":"cebpf4jnsgd1na2vs0mg"},{"bike_id":"41913424-ff41-4f1e-9c7b-2d197dbc7699","system_id":"levelo_inurba_marseille","lat":43.309597,"lon":5.401533,"is_reserved":false,"is_disabled":true,"rental_uris":{"android":"levelo://app?vid=41913424-ff41-4f1e-9c7b-2d197dbc7699","ios":"levelo://app?vid=41913424-ff41-4f1e-9c7b-2d197dbc7699"},"vehicle_type_id":"4","last_reported":1734534573,"current_range_meters":0,"station_id":"ce4bgvp2rcd13ifvqct0","pricing_plan_id":"cebpf4jnsgd1na2vs0mg"},{"bike_id":"36bdf915-8b4b-40b9-875b-7ee4225a8b65","system_id":"levelo_inurba_marseille","lat":43.26049,"lon":5.39394,"is_reserved":false,"is_disabled":false,"rental_uris":{"android":"levelo://app?vid=36bdf915-8b4b-40b9-875b-7ee4225a8b65","ios":"levelo://app?vid=36bdf915-8b4b-40b9-875b-7ee4225a8b65"},"vehicle_type_id":"4","last_reported":1734534573,"current_range_meters":36400,"station_id":"ce4bhh92rcd13ifvqfj0","pricing_plan_id":"cebpf4jnsgd1na2vs0mg"},{"bike_id":"fe0d5836-1055-4c86-b2d4-5a84da1f74e5","system_id":"levelo_inurba_marseille","lat":43.29267,"lon":5.38446,"is_reserved":false,"is_disabled":false,"rental_uris":{"android":"levelo://app?vid=fe0d5836-1055-4c86-b2d4-5a84da1f74e5","ios":"levelo://app?vid=fe0d5836-1055-4c86-b2d4-5a84da1f74e5"},"vehicle_type_id":"4","last_reported":1734534573,"current_range_meters":22000,"station_id":"ce4bh692rcd13ifvqea0","pricing_plan_id":"cebpf4jnsgd1na2vs0mg"},{"bike_id":"8d30d9f0-7776-45f2-8ca2-148f1b7d555d","system_id":"levelo_inurba_marseille","lat":43.30136,"lon":5.38088,"is_reserved":false,"is_disabled":false,"rental_uris":{"android":"levelo://app?vid=8d30d9f0-7776-45f2-8ca2-148f1b7d555d","ios":"levelo://app?vid=8d30d9f0-7776-45f2-8ca2-148f1b7d555d"},"vehicle_type_id":"4","last_reported":1734534573,"current_range_meters":18800,"station_id":"ce4bgjp2rcd13ifvqbh0","pricing_plan_id":"cebpf4jnsgd1na2vs0mg"},{"bike_id":"f65fc50c-1ed9-4e6e-9871-4862e95ec14b","system_id":"levelo_inurba_marseille","lat":43.25101,"lon":5.39526,"is_reserved":false,"is_disabled":false,"rental_uris":{"android":"levelo://app?vid=f65fc50c-1ed9-4e6e-9871-4862e95ec14b","ios":"levelo://app?vid=f65fc50c-1ed9-4e6e-9871-4862e95ec14b"},"vehicle_type_id":"4","last_reported":1734534573,"current_range_meters":36800,"station_id":"ce4bhm12rcd13ifvqgkg","pricing_plan_id":"cebpf4jnsgd1na2vs0mg"},{"bike_id":"94920b07-c7e3-4bf9-8036-143bc93c6beb","system_id":"levelo_inurba_marseille","lat":43.25724,"lon":5.41104,"is_reserved":false,"is_disabled":false,"rental_uris":{"android":"levelo://app?vid=94920b07-c7e3-4bf9-8036-143bc93c6beb","ios":"levelo://app?vid=94920b07-c7e3-4bf9-8036-143bc93c6beb"},"vehicle_type_id":"4","last_reported":1734534573,"current_range_meters":38800,"station_id":"ce4bhkp2rcd13ifvqgd0","pricing_plan_id":"cebpf4jnsgd1na2vs0mg"},{"bike_id":"c76cbf8a-8f16-429a-9413-bfb595fe5ba9","system_id":"levelo_inurba_marseille","lat":43.28105,"lon":5.37829,"is_reserved":false,"is_disabled":true,"rental_uris":{"android":"levelo://app?vid=c76cbf8a-8f16-429a-9413-bfb595fe5ba9","ios":"levelo://app?vid=c76cbf8a-8f16-429a-9413-bfb595fe5ba9"},"vehicle_type_id":"4","last_reported":1734534573,"current_range_meters":800,"station_id":"ce4bha12rcd13ifvqee0","pricing_plan_id":"cebpf4jnsgd1na2vs0mg"},{"bike_id":"1f755a75-a51a-47ab-8fe5-948c5d6456a0","system_id":"levelo_inurba_marseille","lat":43.29622,"lon":5.37745,"is_reserved":false,"is_disabled":false,"rental_uris":{"android":"levelo://app?vid=1f755a75-a51a-47ab-8fe5-948c5d6456a0","ios":"levelo://app?vid=1f755a75-a51a-47ab-8fe5-948c5d6456a0"},"vehicle_type_id":"4","last_reported":1734534573,"current_range_meters":9600,"station_id":"ce4bgi92rcd13ifvqb90","pricing_plan_id":"cebpf4jnsgd1na2vs0mg"},{"bike_id":"bc8b7873-fdd2-4d95-9f82-fd12ed8749fa","system_id":"levelo_inurba_marseille","lat":43.2886,"lon":5.35841,"is_reserved":false,"is_disabled":false,"rental_uris":{"android":"levelo://app?vid=bc8b7873-fdd2-4d95-9f82-fd12ed8749fa","ios":"levelo://app?vid=bc8b7873-fdd2-4d95-9f82-fd12ed8749fa"},"vehicle_type_id":"4","last_reported":1734534573,"current_range_meters":10800,"station_id":"ce4bhb12rcd13ifvqem0","pricing_plan_id":"cebpf4jnsgd1na2vs0mg"},{"bike_id":"c8399855-72d4-4f25-aa5a-52a18924a7b8","system_id":"levelo_inurba_marseille","lat":43.24167,"lon":5.3639,"is_reserved":false,"is_disabled":false,"rental_uris":{"android":"levelo://app?vid=c8399855-72d4-4f25-aa5a-52a18924a7b8","ios":"levelo://app?vid=c8399855-72d4-4f25-aa5a-52a18924a7b8"},"vehicle_type_id":"4","last_reported":1734534573,"current_range_meters":6800,"station_id":"cpo36qri1sfpv3e86is0","pricing_plan_id":"cebpf4jnsgd1na2vs0mg"},{"bike_id":"f8b9f595-57de-4f40-884a-1ccbe4ed31e9","system_id":"levelo_inurba_marseille","lat":43.31693,"lon":5.40483,"is_reserved":false,"is_disabled":false,"rental_uris":{"android":"levelo://app?vid=f8b9f595-57de-4f40-884a-1ccbe4ed31e9","ios":"levelo://app?vid=f8b9f595-57de-4f40-884a-1ccbe4ed31e9"},"vehicle_type_id":"4","last_reported":1734534573,"current_range_meters":38800,"station_id":"ce4bh012rcd13ifvqd00","pricing_plan_id":"cebpf4jnsgd1na2vs0mg"},{"bike_id":"4445b7b8-a637-4564-9692-76939df6a3f4","system_id":"levelo_inurba_marseille","lat":43.27061,"lon":5.40257,"is_reserved":false,"is_disabled":false,"rental_uris":{"android":"levelo://app?vid=4445b7b8-a637-4564-9692-76939df6a3f4","ios":"levelo://app?vid=4445b7b8-a637-4564-9692-76939df6a3f4"},"vehicle_type_id":"4","last_reported":1734534573,"current_range_meters":31200,"station_id":"ce4bhk92rcd13ifvqgc0","pricing_plan_id":"cebpf4jnsgd1na2vs0mg"},{"bike_id":"3e2eab8a-c9f9-4585-8ab6-8d91c14c2710","system_id":"levelo_inurba_marseille","lat":43.30608,"lon":5.37223,"is_reserved":false,"is_disabled":false,"rental_uris":{"android":"levelo://app?vid=3e2eab8a-c9f9-4585-8ab6-8d91c14c2710","ios":"levelo://app?vid=3e2eab8a-c9f9-4585-8ab6-8d91c14c2710"},"vehicle_type_id":"4","last_reported":1734534573,"current_range_meters":38400,"station_id":"ce4bgqh2rcd13ifvqc4g","pricing_plan_id":"cebpf4jnsgd1na2vs0mg"},{"bike_id":"53da10f9-d8a7-4c74-a773-945da348653c","system_id":"levelo_inurba_marseille","lat":43.29905,"lon":5.3816,"is_reserved":false,"is_disabled":false,"rental_uris":{"android":"levelo://app?vid=53da10f9-d8a7-4c74-a773-945da348653c","ios":"levelo://app?vid=53da10f9-d8a7-4c74-a773-945da348653c"},"vehicle_type_id":"4","last_reported":1734534573,"current_range_meters":38800,"station_id":"ce4bgj12rcd13ifvqbc0","pricing_plan_id":"cebpf4jnsgd1na2vs0mg"},{"bike_id":"e15c90f8-c3e1-4f63-a79b-61e7ead6478f","system_id":"levelo_inurba_marseille","lat":43.29299,"lon":5.37461,"is_reserved":false,"is_disabled":false,"rental_uris":{"android":"levelo://app?vid=e15c90f8-c3e1-4f63-a79b-61e7ead6478f","ios":"levelo://app?vid=e15c90f8-c3e1-4f63-a79b-61e7ead6478f"},"vehicle_type_id":"4","last_reported":1734534573,"current_range_meters":38800,"station_id":"ce4bgi12rcd13ifvqb70","pricing_plan_id":"cebpf4jnsgd1na2vs0mg"},{"bike_id":"5a0b8173-0159-4031-b6e8-cf65e6901cc7","system_id":"levelo_inurba_marseille","lat":43.27996,"lon":5.4166,"is_reserved":false,"is_disabled":false,"rental_uris":{"android":"levelo://app?vid=5a0b8173-0159-4031-b6e8-cf65e6901cc7","ios":"levelo://app?vid=5a0b8173-0159-4031-b6e8-cf65e6901cc7"},"vehicle_type_id":"4","last_reported":1734534573,"current_range_meters":37600,"station_id":"ce4bho12rcd13ifvqh1g","pricing_plan_id":"cebpf4jnsgd1na2vs0mg"},{"bike_id":"96f6c28f-4b43-4b88-ba3a-5c5a3fc06c6e","system_id":"levelo_inurba_marseille","lat":43.27053,"lon":5.40256,"is_reserved":false,"is_disabled":false,"rental_uris":{"android":"levelo://app?vid=96f6c28f-4b43-4b88-ba3a-5c5a3fc06c6e","ios":"levelo://app?vid=96f6c28f-4b43-4b88-ba3a-5c5a3fc06c6e"},"vehicle_type_id":"4","last_reported":1734534573,"current_range_meters":34800,"station_id":"ce4bhk92rcd13ifvqgc0","pricing_plan_id":"cebpf4jnsgd1na2vs0mg"},{"bike_id":"0964a333-009c-43df-a369-e7b7f1f82c22","system_id":"levelo_inurba_marseille","lat":43.30543,"lon":5.36696,"is_reserved":false,"is_disabled":true,"rental_uris":{"android":"levelo://app?vid=0964a333-009c-43df-a369-e7b7f1f82c22","ios":"levelo://app?vid=0964a333-009c-43df-a369-e7b7f1f82c22"},"vehicle_type_id":"4","last_reported":1734534573,"current_range_meters":28000,"station_id":"","pricing_plan_id":"cebpf4jnsgd1na2vs0mg"},{"bike_id":"6b99e6f3-6fd4-4ed8-9207-9ae6099ee00e","system_id":"levelo_inurba_marseille","lat":43.2649,"lon":5.39544,"is_reserved":false,"is_disabled":false,"rental_uris":{"android":"levelo://app?vid=6b99e6f3-6fd4-4ed8-9207-9ae6099ee00e","ios":"levelo://app?vid=6b99e6f3-6fd4-4ed8-9207-9ae6099ee00e"},"vehicle_type_id":"4","last_reported":1734534573,"current_range_meters":38000,"station_id":"ce4bhi12rcd13ifvqfq0","pricing_plan_id":"cebpf4jnsgd1na2vs0mg"},{"bike_id":"8f15a65b-29a8-4a31-9611-fa0598196508","system_id":"levelo_inurba_marseille","lat":43.30458,"lon":5.37907,"is_reserved":false,"is_disabled":false,"rental_uris":{"android":"levelo://app?vid=8f15a65b-29a8-4a31-9611-fa0598196508","ios":"levelo://app?vid=8f15a65b-29a8-4a31-9611-fa0598196508"},"vehicle_type_id":"4","last_reported":1734534573,"current_range_meters":3200,"station_id":"ce4bgup2rcd13ifvqcn0","pricing_plan_id":"cebpf4jnsgd1na2vs0mg"},{"bike_id":"af55aa35-e6f5-4652-891c-a52bcdfc25bf","system_id":"levelo_inurba_marseille","lat":43.29034,"lon":5.37556,"is_reserved":false,"is_disabled":false,"rental_uris":{"android":"levelo://app?vid=af55aa35-e6f5-4652-891c-a52bcdfc25bf","ios":"levelo://app?vid=af55aa35-e6f5-4652-891c-a52bcdfc25bf"},"vehicle_type_id":"4","last_reported":1734534573,"current_range_meters":38400,"station_id":"ce4bh692rcd13ifvqe90","pricing_plan_id":"cebpf4jnsgd1na2vs0mg"},{"bike_id":"9d2aefec-f4a3-4a23-a13a-c09b46ffe2e4","system_id":"levelo_inurba_marseille","lat":43.31195,"lon":5.36709,"is_reserved":false,"is_disabled":false,"rental_uris":{"android":"levelo://app?vid=9d2aefec-f4a3-4a23-a13a-c09b46ffe2e4","ios":"levelo://app?vid=9d2aefec-f4a3-4a23-a13a-c09b46ffe2e4"},"vehicle_type_id":"4","last_reported":1734534573,"current_range_meters":37600,"station_id":"","pricing_plan_id":"cebpf4jnsgd1na2vs0mg"},{"bike_id":"19670b47-0867-4ef2-94e8-f3c1c6c98415","system_id":"levelo_inurba_marseille","lat":43.29968,"lon":5.38492,"is_reserved":false,"is_disabled":false,"rental_uris":{"android":"levelo://app?vid=19670b47-0867-4ef2-94e8-f3c1c6c98415","ios":"levelo://app?vid=19670b47-0867-4ef2-94e8-f3c1c6c98415"},"vehicle_type_id":"4","last_reported":1734534573,"current_range_meters":38800,"station_id":"ce4bgj92rcd13ifvqbd0","pricing_plan_id":"cebpf4jnsgd1na2vs0mg"},{"bike_id":"b20792e4-e83a-4150-90c6-cf43bcd11d6a","system_id":"levelo_inurba_marseille","lat":43.31324,"lon":5.39707,"is_reserved":false,"is_disabled":false,"rental_uris":{"android":"levelo://app?vid=b20792e4-e83a-4150-90c6-cf43bcd11d6a","ios":"levelo://app?vid=b20792e4-e83a-4150-90c6-cf43bcd11d6a"},"vehicle_type_id":"4","last_reported":1734534573,"current_range_meters":28400,"station_id":"ce4bgvp2rcd13ifvqcu0","pricing_plan_id":"cebpf4jnsgd1na2vs0mg"},{"bike_id":"53f4ad25-935a-4c4a-a538-7283e0f43637","system_id":"levelo_inurba_marseille","lat":43.29575,"lon":5.36741,"is_reserved":false,"is_disabled":false,"rental_uris":{"android":"levelo://app?vid=53f4ad25-935a-4c4a-a538-7283e0f43637","ios":"levelo://app?vid=53f4ad25-935a-4c4a-a538-7283e0f43637"},"vehicle_type_id":"4","last_reported":1734534573,"current_range_meters":38800,"station_id":"ce4bgph2rcd13ifvqc2g","pricing_plan_id":"cebpf4jnsgd1na2vs0mg"},{"bike_id":"bad8f74f-3cb3-4d9a-8174-a1b6b60e1361","system_id":"levelo_inurba_marseille","lat":43.30569,"lon":5.3653,"is_reserved":false,"is_disabled":false,"rental_uris":{"android":"levelo://app?vid=bad8f74f-3cb3-4d9a-8174-a1b6b60e1361","ios":"levelo://app?vid=bad8f74f-3cb3-4d9a-8174-a1b6b60e1361"},"vehicle_type_id":"4","last_reported":1734534573,"current_range_meters":32000,"station_id":"ce4bgs12rcd13ifvqcag","pricing_plan_id":"cebpf4jnsgd1na2vs0mg"},{"bike_id":"ab4cf047-2518-4238-a07c-ebc316cfc0cc","system_id":"levelo_inurba_marseille","lat":43.31715,"lon":5.40448,"is_reserved":false,"is_disabled":false,"rental_uris":{"android":"levelo://app?vid=ab4cf047-2518-4238-a07c-ebc316cfc0cc","ios":"levelo://app?vid=ab4cf047-2518-4238-a07c-ebc316cfc0cc"},"vehicle_type_id":"4","last_reported":1734534573,"current_range_meters":30400,"station_id":"ce4bh012rcd13ifvqd00","pricing_plan_id":"cebpf4jnsgd1na2vs0mg"},{"bike_id":"4c81663a-43a0-424e-a52a-f94bcd943ebd","system_id":"levelo_inurba_marseille","lat":43.27051,"lon":5.40289,"is_reserved":false,"is_disabled":false,"rental_uris":{"android":"levelo://app?vid=4c81663a-43a0-424e-a52a-f94bcd943ebd","ios":"levelo://app?vid=4c81663a-43a0-424e-a52a-f94bcd943ebd"},"vehicle_type_id":"4","last_reported":1734534573,"current_range_meters":38000,"station_id":"ce4bhk92rcd13ifvqgc0","pricing_plan_id":"cebpf4jnsgd1na2vs0mg"},{"bike_id":"d6515d9c-0a0c-4b2a-8dd5-10aa2045ad3c","system_id":"levelo_inurba_marseille","lat":43.27379,"lon":5.36255,"is_reserved":false,"is_disabled":false,"rental_uris":{"android":"levelo://app?vid=d6515d9c-0a0c-4b2a-8dd5-10aa2045ad3c","ios":"levelo://app?vid=d6515d9c-0a0c-4b2a-8dd5-10aa2045ad3c"},"vehicle_type_id":"4","last_reported":1734534573,"current_range_meters":38800,"station_id":"ce4bhbh2rcd13ifvqeo0","pricing_plan_id":"cebpf4jnsgd1na2vs0mg"},{"bike_id":"0207f8a4-516c-46ff-9895-b226d519d4c1","system_id":"levelo_inurba_marseille","lat":43.23199,"lon":5.35549,"is_reserved":false,"is_disabled":false,"rental_uris":{"android":"levelo://app?vid=0207f8a4-516c-46ff-9895-b226d519d4c1","ios":"levelo://app?vid=0207f8a4-516c-46ff-9895-b226d519d4c1"},"vehicle_type_id":"4","last_reported":1734534573,"current_range_meters":36400,"station_id":"ce4bhu92rcd13ifvqi70","pricing_plan_id":"cebpf4jnsgd1na2vs0mg"},{"bike_id":"d847de0d-e1c7-4376-b69a-2abf76f0e76d","system_id":"levelo_inurba_marseille","lat":43.27894,"lon":5.38023,"is_reserved":false,"is_disabled":false,"rental_uris":{"android":"levelo://app?vid=d847de0d-e1c7-4376-b69a-2abf76f0e76d","ios":"levelo://app?vid=d847de0d-e1c7-4376-b69a-2abf76f0e76d"},"vehicle_type_id":"4","last_reported":1734534573,"current_range_meters":16400,"station_id":"ce4bhf92rcd13ifvqf50","pricing_plan_id":"cebpf4jnsgd1na2vs0mg"},{"bike_id":"82f7f145-591c-4ce0-8f76-660882a2845e","system_id":"levelo_inurba_marseille","lat":43.33614,"lon":5.41022,"is_reserved":false,"is_disabled":true,"rental_uris":{"android":"levelo://app?vid=82f7f145-591c-4ce0-8f76-660882a2845e","ios":"levelo://app?vid=82f7f145-591c-4ce0-8f76-660882a2845e"},"vehicle_type_id":"4","last_reported":1734534573,"current_range_meters":28800,"station_id":"ce4bhqh2rcd13ifvqhmg","pricing_plan_id":"cebpf4jnsgd1na2vs0mg"},{"bike_id":"9a444e92-eb92-4f01-afcc-416105324b8d","system_id":"levelo_inurba_marseille","lat":43.26556,"lon":5.37286,"is_reserved":false,"is_disabled":false,"rental_uris":{"android":"levelo://app?vid=9a444e92-eb92-4f01-afcc-416105324b8d","ios":"levelo://app?vid=9a444e92-eb92-4f01-afcc-416105324b8d"},"vehicle_type_id":"4","last_reported":1734534573,"current_range_meters":38800,"station_id":"ce4bhg12rcd13ifvqf70","pricing_plan_id":"cebpf4jnsgd1na2vs0mg"},{"bike_id":"ac7c5f56-daad-496c-965f-9103737000e8","system_id":"levelo_inurba_marseille","lat":43.23962,"lon":5.36647,"is_reserved":false,"is_disabled":false,"rental_uris":{"android":"levelo://app?vid=ac7c5f56-daad-496c-965f-9103737000e8","ios":"levelo://app?vid=ac7c5f56-daad-496c-965f-9103737000e8"},"vehicle_type_id":"4","last_reported":1734534573,"current_range_meters":38000,"station_id":"ce4bhi12rcd13ifvqfp0","pricing_plan_id":"cebpf4jnsgd1na2vs0mg"},{"bike_id":"2cfd643a-c674-46a9-9d29-5f3a8b06261a","system_id":"levelo_inurba_marseille","lat":43.32477,"lon":5.36568,"is_reserved":false,"is_disabled":false,"rental_uris":{"android":"levelo://app?vid=2cfd643a-c674-46a9-9d29-5f3a8b06261a","ios":"levelo://app?vid=2cfd643a-c674-46a9-9d29-5f3a8b06261a"},"vehicle_type_id":"4","last_reported":1734534573,"current_range_meters":24400,"station_id":"ce4bhs12rcd13ifvqhvg","pricing_plan_id":"cebpf4jnsgd1na2vs0mg"},{"bike_id":"55eb3b8d-2227-470b-b9a8-f7520629c64b","system_id":"levelo_inurba_marseille","lat":43.30548,"lon":5.36531,"is_reserved":false,"is_disabled":false,"rental_uris":{"android":"levelo://app?vid=55eb3b8d-2227-470b-b9a8-f7520629c64b","ios":"levelo://app?vid=55eb3b8d-2227-470b-b9a8-f7520629c64b"},"vehicle_type_id":"4","last_reported":1734534573,"current_range_meters":17600,"station_id":"ce4bgs12rcd13ifvqcag","pricing_plan_id":"cebpf4jnsgd1na2vs0mg"},{"bike_id":"19d07322-c64a-461f-acf5-9f589c5bfb4f","system_id":"levelo_inurba_marseille","lat":43.31124,"lon":5.3777,"is_reserved":false,"is_disabled":true,"rental_uris":{"android":"levelo://app?vid=19d07322-c64a-461f-acf5-9f589c5bfb4f","ios":"levelo://app?vid=19d07322-c64a-461f-acf5-9f589c5bfb4f"},"vehicle_type_id":"4","last_reported":1734534573,"current_range_meters":1600,"station_id":"ce4bgt92rcd13ifvqcg0","pricing_plan_id":"cebpf4jnsgd1na2vs0mg"},{"bike_id":"c573e8c0-4326-474f-99df-316d45fdfe60","system_id":"levelo_inurba_marseille","lat":43.27067,"lon":5.40271,"is_reserved":false,"is_disabled":false,"rental_uris":{"android":"levelo://app?vid=c573e8c0-4326-474f-99df-316d45fdfe60","ios":"levelo://app?vid=c573e8c0-4326-474f-99df-316d45fdfe60"},"vehicle_type_id":"4","last_reported":1734534573,"current_range_meters":28400,"station_id":"ce4bhk92rcd13ifvqgc0","pricing_plan_id":"cebpf4jnsgd1na2vs0mg"},{"bike_id":"6b7795db-36bf-4605-adc1-ccb67d6a5a8b","system_id":"levelo_inurba_marseille","lat":43.27372,"lon":5.3626,"is_reserved":false,"is_disabled":false,"rental_uris":{"android":"levelo://app?vid=6b7795db-36bf-4605-adc1-ccb67d6a5a8b","ios":"levelo://app?vid=6b7795db-36bf-4605-adc1-ccb67d6a5a8b"},"vehicle_type_id":"4","last_reported":1734534573,"current_range_meters":38800,"station_id":"ce4bhbh2rcd13ifvqeo0","pricing_plan_id":"cebpf4jnsgd1na2vs0mg"},{"bike_id":"ac819833-beca-4261-9800-c0ebd73640da","system_id":"levelo_inurba_marseille","lat":43.25001,"lon":5.38919,"is_reserved":false,"is_disabled":false,"rental_uris":{"android":"levelo://app?vid=ac819833-beca-4261-9800-c0ebd73640da","ios":"levelo://app?vid=ac819833-beca-4261-9800-c0ebd73640da"},"vehicle_type_id":"4","last_reported":1734534573,"current_range_meters":34000,"station_id":"ce4bhgp2rcd13ifvqfd0","pricing_plan_id":"cebpf4jnsgd1na2vs0mg"},{"bike_id":"be561738-cfba-4432-8b9a-965011325c67","system_id":"levelo_inurba_marseille","lat":43.30928,"lon":5.40144,"is_reserved":false,"is_disabled":true,"rental_uris":{"android":"levelo://app?vid=be561738-cfba-4432-8b9a-965011325c67","ios":"levelo://app?vid=be561738-cfba-4432-8b9a-965011325c67"},"vehicle_type_id":"4","last_reported":1734534573,"current_range_meters":400,"station_id":"ce4bgvp2rcd13ifvqct0","pricing_plan_id":"cebpf4jnsgd1na2vs0mg"},{"bike_id":"9609362d-b1f9-4f05-83d1-95698308b57b","system_id":"levelo_inurba_marseille","lat":43.29021,"lon":5.38131,"is_reserved":false,"is_disabled":false,"rental_uris":{"android":"levelo://app?vid=9609362d-b1f9-4f05-83d1-95698308b57b","ios":"levelo://app?vid=9609362d-b1f9-4f05-83d1-95698308b57b"},"vehicle_type_id":"4","last_reported":1734534573,"current_range_meters":37600,"station_id":"ce4bh4p2rcd13ifvqe1g","pricing_plan_id":"cebpf4jnsgd1na2vs0mg"},{"bike_id":"94dbe6ce-ba1d-41dd-b0cf-1f05a50be5b3","system_id":"levelo_inurba_marseille","lat":43.23188,"lon":5.35547,"is_reserved":false,"is_disabled":false,"rental_uris":{"android":"levelo://app?vid=94dbe6ce-ba1d-41dd-b0cf-1f05a50be5b3","ios":"levelo://app?vid=94dbe6ce-ba1d-41dd-b0cf-1f05a50be5b3"},"vehicle_type_id":"4","last_reported":1734534573,"current_range_meters":30000,"station_id":"ce4bhu92rcd13ifvqi70","pricing_plan_id":"cebpf4jnsgd1na2vs0mg"},{"bike_id":"aeb6e88a-8c30-4ddc-83d4-f558cae0b147","system_id":"levelo_inurba_marseille","lat":43.29894,"lon":5.38142,"is_reserved":false,"is_disabled":false,"rental_uris":{"android":"levelo://app?vid=aeb6e88a-8c30-4ddc-83d4-f558cae0b147","ios":"levelo://app?vid=aeb6e88a-8c30-4ddc-83d4-f558cae0b147"},"vehicle_type_id":"4","last_reported":1734534573,"current_range_meters":38400,"station_id":"ce4bgj12rcd13ifvqbc0","pricing_plan_id":"cebpf4jnsgd1na2vs0mg"},{"bike_id":"7b305c6f-361b-46c6-bcc8-6b2d9fd084fa","system_id":"levelo_inurba_marseille","lat":43.28119,"lon":5.4422,"is_reserved":false,"is_disabled":true,"rental_uris":{"android":"levelo://app?vid=7b305c6f-361b-46c6-bcc8-6b2d9fd084fa","ios":"levelo://app?vid=7b305c6f-361b-46c6-bcc8-6b2d9fd084fa"},"vehicle_type_id":"4","last_reported":1734534573,"current_range_meters":0,"station_id":"","pricing_plan_id":"cebpf4jnsgd1na2vs0mg"},{"bike_id":"096a7850-aaf4-4da2-8608-845011c432b5","system_id":"levelo_inurba_marseille","lat":43.33733,"lon":5.39184,"is_reserved":false,"is_disabled":false,"rental_uris":{"android":"levelo://app?vid=096a7850-aaf4-4da2-8608-845011c432b5","ios":"levelo://app?vid=096a7850-aaf4-4da2-8608-845011c432b5"},"vehicle_type_id":"4","last_reported":1734534573,"current_range_meters":38800,"station_id":"ce4bhr92rcd13ifvqhsg","pricing_plan_id":"cebpf4jnsgd1na2vs0mg"},{"bike_id":"e193505e-10a8-4b4b-8af5-b42f326d9e04","system_id":"levelo_inurba_marseille","lat":43.2705,"lon":5.40272,"is_reserved":false,"is_disabled":false,"rental_uris":{"android":"levelo://app?vid=e193505e-10a8-4b4b-8af5-b42f326d9e04","ios":"levelo://app?vid=e193505e-10a8-4b4b-8af5-b42f326d9e04"},"vehicle_type_id":"4","last_reported":1734534573,"current_range_meters":24800,"station_id":"ce4bhk92rcd13ifvqgc0","pricing_plan_id":"cebpf4jnsgd1na2vs0mg"},{"bike_id":"c81d12c0-b3b4-4b91-a004-bb72046d4aaa","system_id":"levelo_inurba_marseille","lat":43.301337,"lon":5.374183,"is_reserved":false,"is_disabled":false,"rental_uris":{"android":"levelo://app?vid=c81d12c0-b3b4-4b91-a004-bb72046d4aaa","ios":"levelo://app?vid=c81d12c0-b3b4-4b91-a004-bb72046d4aaa"},"vehicle_type_id":"4","last_reported":1734534573,"current_range_meters":29600,"station_id":"ce4bgs92rcd13ifvqcc0","pricing_plan_id":"cebpf4jnsgd1na2vs0mg"},{"bike_id":"8d1c4201-2a72-4c4e-a53e-78bc816e5adf","system_id":"levelo_inurba_marseille","lat":43.26689,"lon":5.38276,"is_reserved":false,"is_disabled":false,"rental_uris":{"android":"levelo://app?vid=8d1c4201-2a72-4c4e-a53e-78bc816e5adf","ios":"levelo://app?vid=8d1c4201-2a72-4c4e-a53e-78bc816e5adf"},"vehicle_type_id":"4","last_reported":1734534573,"current_range_meters":36000,"station_id":"ce4bhg92rcd13ifvqf90","pricing_plan_id":"cebpf4jnsgd1na2vs0mg"},{"bike_id":"ae0e7118-6f59-4232-bfe0-1e559ebff2c0","system_id":"levelo_inurba_marseille","lat":43.30281,"lon":5.37692,"is_reserved":false,"is_disabled":false,"rental_uris":{"android":"levelo://app?vid=ae0e7118-6f59-4232-bfe0-1e559ebff2c0","ios":"levelo://app?vid=ae0e7118-6f59-4232-bfe0-1e559ebff2c0"},"vehicle_type_id":"4","last_reported":1734534573,"current_range_meters":38000,"station_id":"ce4bguh2rcd13ifvqcj0","pricing_plan_id":"cebpf4jnsgd1na2vs0mg"},{"bike_id":"ee01a507-8893-4440-bbe0-75da356e3a4f","system_id":"levelo_inurba_marseille","lat":43.29904,"lon":5.38144,"is_reserved":false,"is_disabled":true,"rental_uris":{"android":"levelo://app?vid=ee01a507-8893-4440-bbe0-75da356e3a4f","ios":"levelo://app?vid=ee01a507-8893-4440-bbe0-75da356e3a4f"},"vehicle_type_id":"4","last_reported":1734534573,"current_range_meters":0,"station_id":"ce4bgj12rcd13ifvqbc0","pricing_plan_id":"cebpf4jnsgd1na2vs0mg"},{"bike_id":"db096120-123f-4da5-ad64-583f4719ba51","system_id":"levelo_inurba_marseille","lat":43.3078,"lon":5.37587,"is_reserved":false,"is_disabled":true,"rental_uris":{"android":"levelo://app?vid=db096120-123f-4da5-ad64-583f4719ba51","ios":"levelo://app?vid=db096120-123f-4da5-ad64-583f4719ba51"},"vehicle_type_id":"4","last_reported":1734534573,"current_range_meters":0,"station_id":"","pricing_plan_id":"cebpf4jnsgd1na2vs0mg"},{"bike_id":"e9cf3688-3063-419e-871b-6fa8e6008b1a","system_id":"levelo_inurba_marseille","lat":43.26551,"lon":5.37288,"is_reserved":false,"is_disabled":false,"rental_uris":{"android":"levelo://app?vid=e9cf3688-3063-419e-871b-6fa8e6008b1a","ios":"levelo://app?vid=e9cf3688-3063-419e-871b-6fa8e6008b1a"},"vehicle_type_id":"4","last_reported":1734534573,"current_range_meters":3200,"station_id":"ce4bhg12rcd13ifvqf70","pricing_plan_id":"cebpf4jnsgd1na2vs0mg"},{"bike_id":"0202ef24-b792-4759-baea-d0a792040129","system_id":"levelo_inurba_marseille","lat":43.25818,"lon":5.39423,"is_reserved":false,"is_disabled":false,"rental_uris":{"android":"levelo://app?vid=0202ef24-b792-4759-baea-d0a792040129","ios":"levelo://app?vid=0202ef24-b792-4759-baea-d0a792040129"},"vehicle_type_id":"4","last_reported":1734534573,"current_range_meters":38800,"station_id":"ce4bhip2rcd13ifvqft0","pricing_plan_id":"cebpf4jnsgd1na2vs0mg"},{"bike_id":"4b9b2632-a515-4304-a8d7-9c5c9ced147a","system_id":"levelo_inurba_marseille","lat":43.29914,"lon":5.37465,"is_reserved":false,"is_disabled":false,"rental_uris":{"android":"levelo://app?vid=4b9b2632-a515-4304-a8d7-9c5c9ced147a","ios":"levelo://app?vid=4b9b2632-a515-4304-a8d7-9c5c9ced147a"},"vehicle_type_id":"4","last_reported":1734534573,"current_range_meters":38000,"station_id":"ce4bgjh2rcd13ifvqbg0","pricing_plan_id":"cebpf4jnsgd1na2vs0mg"},{"bike_id":"d51b49fa-b8ee-45fb-ae69-b5c3f9283df6","system_id":"levelo_inurba_marseille","lat":43.30272,"lon":5.37694,"is_reserved":false,"is_disabled":false,"rental_uris":{"android":"levelo://app?vid=d51b49fa-b8ee-45fb-ae69-b5c3f9283df6","ios":"levelo://app?vid=d51b49fa-b8ee-45fb-ae69-b5c3f9283df6"},"vehicle_type_id":"4","last_reported":1734534573,"current_range_meters":36000,"station_id":"ce4bguh2rcd13ifvqcj0","pricing_plan_id":"cebpf4jnsgd1na2vs0mg"},{"bike_id":"8748229d-2497-4ea3-a734-4c915cbcdf13","system_id":"levelo_inurba_marseille","lat":43.30122,"lon":5.39843,"is_reserved":false,"is_disabled":false,"rental_uris":{"android":"levelo://app?vid=8748229d-2497-4ea3-a734-4c915cbcdf13","ios":"levelo://app?vid=8748229d-2497-4ea3-a734-4c915cbcdf13"},"vehicle_type_id":"4","last_reported":1734534573,"current_range_meters":35200,"station_id":"ce4bh0h2rcd13ifvqd40","pricing_plan_id":"cebpf4jnsgd1na2vs0mg"},{"bike_id":"15b06ab3-5941-43b5-a9a5-ceb90aabbb54","system_id":"levelo_inurba_marseille","lat":43.22942,"lon":5.35397,"is_reserved":false,"is_disabled":false,"rental_uris":{"android":"levelo://app?vid=15b06ab3-5941-43b5-a9a5-ceb90aabbb54","ios":"levelo://app?vid=15b06ab3-5941-43b5-a9a5-ceb90aabbb54"},"vehicle_type_id":"4","last_reported":1734534573,"current_range_meters":38800,"station_id":"cpo3532slgdg3j2ikp40","pricing_plan_id":"cebpf4jnsgd1na2vs0mg"},{"bike_id":"d85a8ef0-3e26-4457-943a-90f55e137bf2","system_id":"levelo_inurba_marseille","lat":43.30585,"lon":5.37207,"is_reserved":false,"is_disabled":false,"rental_uris":{"android":"levelo://app?vid=d85a8ef0-3e26-4457-943a-90f55e137bf2","ios":"levelo://app?vid=d85a8ef0-3e26-4457-943a-90f55e137bf2"},"vehicle_type_id":"4","last_reported":1734534573,"current_range_meters":38400,"station_id":"ce4bgqh2rcd13ifvqc4g","pricing_plan_id":"cebpf4jnsgd1na2vs0mg"},{"bike_id":"6f20b9e6-aef4-4173-baaa-e05909bf15aa","system_id":"levelo_inurba_marseille","lat":43.24389,"lon":5.3706,"is_reserved":false,"is_disabled":false,"rental_uris":{"android":"levelo://app?vid=6f20b9e6-aef4-4173-baaa-e05909bf15aa","ios":"levelo://app?vid=6f20b9e6-aef4-4173-baaa-e05909bf15aa"},"vehicle_type_id":"4","last_reported":1734534573,"current_range_meters":38000,"station_id":"ce4bhhh2rcd13ifvqfk0","pricing_plan_id":"cebpf4jnsgd1na2vs0mg"},{"bike_id":"6a0ae4c9-6ed4-4a44-b5f0-9a425887e29c","system_id":"levelo_inurba_marseille","lat":43.30353,"lon":5.41887,"is_reserved":false,"is_disabled":true,"rental_uris":{"android":"levelo://app?vid=6a0ae4c9-6ed4-4a44-b5f0-9a425887e29c","ios":"levelo://app?vid=6a0ae4c9-6ed4-4a44-b5f0-9a425887e29c"},"vehicle_type_id":"4","last_reported":1734534573,"current_range_meters":0,"station_id":"ce4bhop2rcd13ifvqh7g","pricing_plan_id":"cebpf4jnsgd1na2vs0mg"},{"bike_id":"1b636e69-355f-42ec-a8dd-0e177ddb1933","system_id":"levelo_inurba_marseille","lat":43.25503,"lon":5.3766,"is_reserved":false,"is_disabled":false,"rental_uris":{"android":"levelo://app?vid=1b636e69-355f-42ec-a8dd-0e177ddb1933","ios":"levelo://app?vid=1b636e69-355f-42ec-a8dd-0e177ddb1933"},"vehicle_type_id":"4","last_reported":1734534573,"current_range_meters":38800,"station_id":"ce4bhh12rcd13ifvqff0","pricing_plan_id":"cebpf4jnsgd1na2vs0mg"},{"bike_id":"e3423766-ff70-4b7b-a941-b3f451968318","system_id":"levelo_inurba_marseille","lat":43.29551,"lon":5.42284,"is_reserved":false,"is_disabled":true,"rental_uris":{"android":"levelo://app?vid=e3423766-ff70-4b7b-a941-b3f451968318","ios":"levelo://app?vid=e3423766-ff70-4b7b-a941-b3f451968318"},"vehicle_type_id":"4","last_reported":1734534573,"current_range_meters":38800,"station_id":"ce4bhph2rcd13ifvqhdg","pricing_plan_id":"cebpf4jnsgd1na2vs0mg"},{"bike_id":"fb9abf56-6a29-49f0-b35e-f40843280666","system_id":"levelo_inurba_marseille","lat":43.23177,"lon":5.39999,"is_reserved":false,"is_disabled":false,"rental_uris":{"android":"levelo://app?vid=fb9abf56-6a29-49f0-b35e-f40843280666","ios":"levelo://app?vid=fb9abf56-6a29-49f0-b35e-f40843280666"},"vehicle_type_id":"4","last_reported":1734534573,"current_range_meters":26000,"station_id":"ce4bhn12rcd13ifvqgqg","pricing_plan_id":"cebpf4jnsgd1na2vs0mg"},{"bike_id":"1ad6ef1f-0825-446e-9823-600eb7f9f322","system_id":"levelo_inurba_marseille","lat":43.23148,"lon":5.43722,"is_reserved":false,"is_disabled":true,"rental_uris":{"android":"levelo://app?vid=1ad6ef1f-0825-446e-9823-600eb7f9f322","ios":"levelo://app?vid=1ad6ef1f-0825-446e-9823-600eb7f9f322"},"vehicle_type_id":"4","last_reported":1734534573,"current_range_meters":1600,"station_id":"ce4bhmp2rcd13ifvqgog","pricing_plan_id":"cebpf4jnsgd1na2vs0mg"},{"bike_id":"ed9211a5-8a9b-4791-9676-40d5da4ce6f1","system_id":"levelo_inurba_marseille","lat":43.31712,"lon":5.43708,"is_reserved":false,"is_disabled":false,"rental_uris":{"android":"levelo://app?vid=ed9211a5-8a9b-4791-9676-40d5da4ce6f1","ios":"levelo://app?vid=ed9211a5-8a9b-4791-9676-40d5da4ce6f1"},"vehicle_type_id":"4","last_reported":1734534573,"current_range_meters":38800,"station_id":"ce4bhp92rcd13ifvqhcg","pricing_plan_id":"cebpf4jnsgd1na2vs0mg"},{"bike_id":"f9bfe81a-7a20-4305-b0c4-72236497aa15","system_id":"levelo_inurba_marseille","lat":43.25503,"lon":5.37649,"is_reserved":false,"is_disabled":false,"rental_uris":{"android":"levelo://app?vid=f9bfe81a-7a20-4305-b0c4-72236497aa15","ios":"levelo://app?vid=f9bfe81a-7a20-4305-b0c4-72236497aa15"},"vehicle_type_id":"4","last_reported":1734534573,"current_range_meters":38000,"station_id":"ce4bhh12rcd13ifvqff0","pricing_plan_id":"cebpf4jnsgd1na2vs0mg"},{"bike_id":"dda38de9-f2fc-4b22-ab17-c69940e2958f","system_id":"levelo_inurba_marseille","lat":43.23192,"lon":5.35555,"is_reserved":false,"is_disabled":false,"rental_uris":{"android":"levelo://app?vid=dda38de9-f2fc-4b22-ab17-c69940e2958f","ios":"levelo://app?vid=dda38de9-f2fc-4b22-ab17-c69940e2958f"},"vehicle_type_id":"4","last_reported":1734534573,"current_range_meters":24000,"station_id":"ce4bhu92rcd13ifvqi70","pricing_plan_id":"cebpf4jnsgd1na2vs0mg"},{"bike_id":"3c444741-cea4-409d-b5b6-2377c2a5898b","system_id":"levelo_inurba_marseille","lat":43.27081,"lon":5.40267,"is_reserved":false,"is_disabled":false,"rental_uris":{"android":"levelo://app?vid=3c444741-cea4-409d-b5b6-2377c2a5898b","ios":"levelo://app?vid=3c444741-cea4-409d-b5b6-2377c2a5898b"},"vehicle_type_id":"4","last_reported":1734534573,"current_range_meters":8000,"station_id":"ce4bhk92rcd13ifvqgc0","pricing_plan_id":"cebpf4jnsgd1na2vs0mg"},{"bike_id":"5edff508-c673-4823-b64e-f467d84e1735","system_id":"levelo_inurba_marseille","lat":43.29588,"lon":5.36733,"is_reserved":false,"is_disabled":false,"rental_uris":{"android":"levelo://app?vid=5edff508-c673-4823-b64e-f467d84e1735","ios":"levelo://app?vid=5edff508-c673-4823-b64e-f467d84e1735"},"vehicle_type_id":"4","last_reported":1734534573,"current_range_meters":12400,"station_id":"ce4bgph2rcd13ifvqc2g","pricing_plan_id":"cebpf4jnsgd1na2vs0mg"},{"bike_id":"a4eb1442-f48e-414c-9161-5ca64584f15e","system_id":"levelo_inurba_marseille","lat":43.31682,"lon":5.40476,"is_reserved":false,"is_disabled":false,"rental_uris":{"android":"levelo://app?vid=a4eb1442-f48e-414c-9161-5ca64584f15e","ios":"levelo://app?vid=a4eb1442-f48e-414c-9161-5ca64584f15e"},"vehicle_type_id":"4","last_reported":1734534573,"current_range_meters":32400,"station_id":"","pricing_plan_id":"cebpf4jnsgd1na2vs0mg"},{"bike_id":"ee7fe823-1aac-479b-b7ec-09676a4b2eed","system_id":"levelo_inurba_marseille","lat":43.27916,"lon":5.39577,"is_reserved":false,"is_disabled":false,"rental_uris":{"android":"levelo://app?vid=ee7fe823-1aac-479b-b7ec-09676a4b2eed","ios":"levelo://app?vid=ee7fe823-1aac-479b-b7ec-09676a4b2eed"},"vehicle_type_id":"4","last_reported":1734534573,"current_range_meters":11200,"station_id":"ce4bhf92rcd13ifvqf40","pricing_plan_id":"cebpf4jnsgd1na2vs0mg"},{"bike_id":"104a0529-c991-4a35-b60f-a187666692b8","system_id":"levelo_inurba_marseille","lat":43.29197,"lon":5.35815,"is_reserved":false,"is_disabled":false,"rental_uris":{"android":"levelo://app?vid=104a0529-c991-4a35-b60f-a187666692b8","ios":"levelo://app?vid=104a0529-c991-4a35-b60f-a187666692b8"},"vehicle_type_id":"4","last_reported":1734534573,"current_range_meters":9600,"station_id":"ce4bhb12rcd13ifvqel0","pricing_plan_id":"cebpf4jnsgd1na2vs0mg"},{"bike_id":"1c4127b9-486f-41b4-8296-37dda68e98bf","system_id":"levelo_inurba_marseille","lat":43.2319,"lon":5.35561,"is_reserved":false,"is_disabled":false,"rental_uris":{"android":"levelo://app?vid=1c4127b9-486f-41b4-8296-37dda68e98bf","ios":"levelo://app?vid=1c4127b9-486f-41b4-8296-37dda68e98bf"},"vehicle_type_id":"4","last_reported":1734534573,"current_range_meters":36400,"station_id":"ce4bhu92rcd13ifvqi70","pricing_plan_id":"cebpf4jnsgd1na2vs0mg"},{"bike_id":"47c8d280-a3ee-43ef-8691-72d298c93f9e","system_id":"levelo_inurba_marseille","lat":43.30536,"lon":5.36701,"is_reserved":false,"is_disabled":false,"rental_uris":{"android":"levelo://app?vid=47c8d280-a3ee-43ef-8691-72d298c93f9e","ios":"levelo://app?vid=47c8d280-a3ee-43ef-8691-72d298c93f9e"},"vehicle_type_id":"4","last_reported":1734534573,"current_range_meters":38800,"station_id":"ce4bgrp2rcd13ifvqc9g","pricing_plan_id":"cebpf4jnsgd1na2vs0mg"},{"bike_id":"718de3d0-4795-4bca-90c6-39fab9ddb7fc","system_id":"levelo_inurba_marseille","lat":43.2902,"lon":5.3813,"is_reserved":false,"is_disabled":false,"rental_uris":{"android":"levelo://app?vid=718de3d0-4795-4bca-90c6-39fab9ddb7fc","ios":"levelo://app?vid=718de3d0-4795-4bca-90c6-39fab9ddb7fc"},"vehicle_type_id":"4","last_reported":1734534573,"current_range_meters":16000,"station_id":"ce4bh4p2rcd13ifvqe1g","pricing_plan_id":"cebpf4jnsgd1na2vs0mg"},{"bike_id":"5f4b3c8f-7074-40ce-8427-acb3bee36188","system_id":"levelo_inurba_marseille","lat":43.25931,"lon":5.4091,"is_reserved":false,"is_disabled":false,"rental_uris":{"android":"levelo://app?vid=5f4b3c8f-7074-40ce-8427-acb3bee36188","ios":"levelo://app?vid=5f4b3c8f-7074-40ce-8427-acb3bee36188"},"vehicle_type_id":"4","last_reported":1734534573,"current_range_meters":22800,"station_id":"ce4bhm92rcd13ifvqglg","pricing_plan_id":"cebpf4jnsgd1na2vs0mg"},{"bike_id":"d2cd9ed2-3f3e-4249-b488-fa9d5405da6a","system_id":"levelo_inurba_marseille","lat":43.29274,"lon":5.38466,"is_reserved":false,"is_disabled":true,"rental_uris":{"android":"levelo://app?vid=d2cd9ed2-3f3e-4249-b488-fa9d5405da6a","ios":"levelo://app?vid=d2cd9ed2-3f3e-4249-b488-fa9d5405da6a"},"vehicle_type_id":"4","last_reported":1734534573,"current_range_meters":800,"station_id":"ce4bh692rcd13ifvqea0","pricing_plan_id":"cebpf4jnsgd1na2vs0mg"},{"bike_id":"ccf777db-a227-4326-ae8a-2531025c4fe8","system_id":"levelo_inurba_marseille","lat":43.30905,"lon":5.36847,"is_reserved":false,"is_disabled":false,"rental_uris":{"android":"levelo://app?vid=ccf777db-a227-4326-ae8a-2531025c4fe8","ios":"levelo://app?vid=ccf777db-a227-4326-ae8a-2531025c4fe8"},"vehicle_type_id":"4","last_reported":1734534573,"current_range_meters":38000,"station_id":"ce4bgn92rcd13ifvqbvg","pricing_plan_id":"cebpf4jnsgd1na2vs0mg"},{"bike_id":"2e88d214-7318-4007-bb13-0f0321fab900","system_id":"levelo_inurba_marseille","lat":43.30182,"lon":5.36617,"is_reserved":false,"is_disabled":false,"rental_uris":{"android":"levelo://app?vid=2e88d214-7318-4007-bb13-0f0321fab900","ios":"levelo://app?vid=2e88d214-7318-4007-bb13-0f0321fab900"},"vehicle_type_id":"4","last_reported":1734534573,"current_range_meters":10800,"station_id":"ce4bgrh2rcd13ifvqc8g","pricing_plan_id":"cebpf4jnsgd1na2vs0mg"},