{"last_updated":1738314556,"ttl":60,"version":"2.2","data":{"bikes":[{"bike_id":"56219279-1c5e-4efe-819b-8ac0b6caa470","system_id":"levelo_inurba_marseille","lat":43.30348,"lon":5.41878,"is_reserved":false,"is_disabled":false,"rental_uris":{"android":"levelo://app?vid=56219279-1c5e-4efe-819b-8ac0b6caa470","ios":"levelo://app?vid=56219279-1c5e-4efe-819b-8ac0b6caa470"},"vehicle_type_id":"4","last_reported":1738314557,"current_range_meters":38800,"station_id":"ce4bhop2rcd13ifvqh7g","pricing_plan_id":"cebpf4jnsgd1na2vs0mg"},{"bike_id":"31270426-539a-44d7-942e-c2e16893d54c","system_id":"levelo_inurba_marseille","lat":43.29568,"lon":5.375,"is_reserved":false,"is_disabled":false,"rental_uris":{"android":"levelo://app?vid=31270426-539a-44d7-942e-c2e16893d54c","ios":"levelo://app?vid=31270426-539a-44d7-942e-c2e16893d54c"},"vehicle_type_id":"4","last_reported":1738314557,"current_range_meters":37600,"station_id":"ce4bgh92rcd13ifvqb50","pricing_plan_id":"cebpf4jnsgd1na2vs0mg"},{"bike_id":"af2c35d1-2444-41c5-8dfa-778a63a41e71","system_id":"levelo_inurba_marseille","lat":43.25719,"lon":5.41106,"is_reserved":false,"is_disabled":false,"rental_uris":{"android":"levelo://app?vid=af2c35d1-2444-41c5-8dfa-778a63a41e71","ios":"levelo://app?vid=af2c35d1-2444-41c5-8dfa-778a63a41e71"},"vehicle_type_id":"4","last_reported":1738314557,"current_range_meters":37600,"station_id":"ce4bhkp2rcd13ifvqgd0","pricing_plan_id":"cebpf4jnsgd1na2vs0mg"},{"bike_id":"25ac8cc1-e2a5-4c75-92f5-c6d52029761b","system_id":"levelo_inurba_marseille","lat":43.30301,"lon":5.36907,"is_reserved":false,"is_disabled":false,"rental_uris":{"android":"levelo://app?vid=25ac8cc1-e2a5-4c75-92f5-c6d52029761b","ios":"levelo://app?vid=25ac8cc1-e2a5-4c75-92f5-c6d52029761b"},"vehicle_type_id":"4","last_reported":1738314557,"current_range_meters":36800,"station_id":"ce4bgqh2rcd13ifvqc5g","pricing_plan_id":"cebpf4jnsgd1na2vs0mg"},{"bike_id":"b072ac3d-85df-4b87-a971-dba3f4dc09f7","system_id":"levelo_inurba_marseille","lat":43.30464,"lon":5.37905,"is_reserved":false,"is_disabled":false,"rental_uris":{"android":"levelo://app?vid=b072ac3d-85df-4b87-a971-dba3f4dc09f7","ios":"levelo://app?vid=b072ac3d-85df-4b87-a971-dba3f4dc09f7"},"vehicle_type_id":"4","last_reported":1738314557,"current_range_meters":14800,"station_id":"ce4bgup2rcd13ifvqcn0","pricing_plan_id":"cebpf4jnsgd1na2vs0mg"},{"bike_id":"e715b552-0644-4de4-88b8-ab0b420edec1","system_id":"levelo_inurba_marseille","lat":43.28701,"lon":5.39987,"is_reserved":false,"is_disabled":true,"rental_uris":{"android":"levelo://app?vid=e715b552-0644-4de4-88b8-ab0b420edec1","ios":"levelo://app?vid=e715b552-0644-4de4-88b8-ab0b420edec1"},"vehicle_type_id":"4","last_reported":1738314557,"current_range_meters":400,"station_id":"ce4bho92rcd13ifvqh3g","pricing_plan_id":"cebpf4jnsgd1na2vs0mg"},{"bike_id":"f7f8117f-03ef-415e-85c6-2eeaf165e4f2","system_id":"levelo_inurba_marseille","lat":43.26214,"lon":5.40381,"is_reserved":false,"is_disabled":true,"rental_uris":{"android":"levelo://app?vid=f7f8117f-03ef-415e-85c6-2eeaf165e4f2","ios":"levelo://app?vid=f7f8117f-03ef-415e-85c6-2eeaf165e4f2"},"vehicle_type_id":"4","last_reported":1738314557,"current_range_meters":23200,"station_id":"","pricing_plan_id":"cebpf4jnsgd1na2vs0mg"},{"bike_id":"db2f7542-8e40-44da-8d36-7e91cd1d776d","system_id":"levelo_inurba_marseille","lat":43.30944,"lon":5.39029,"is_reserved":false,"is_disabled":false,"rental_uris":{"android":"levelo://app?vid=db2f7542-8e40-44da-8d36-7e91cd1d776d","ios":"levelo://app?vid=db2f7542-8e40-44da-8d36-7e91cd1d776d"},"vehicle_type_id":"4","last_reported":1738314557,"current_range_meters":24800,"station_id":"ce4bgup2rcd13ifvqco0","pricing_plan_id":"cebpf4jnsgd1na2vs0mg"},{"bike_id":"685704c5-16c7-46eb-9c61-d2af1e48f785","system_id":"levelo_inurba_marseille","lat":43.27312,"lon":5.39116,"is_reserved":false,"is_disabled":false,"rental_uris":{"android":"levelo://app?vid=685704c5-16c7-46eb-9c61-d2af1e48f785","ios":"levelo://app?vid=685704c5-16c7-46eb-9c61-d2af1e48f785"},"vehicle_type_id":"4","last_reported":1738314557,"current_range_meters":28800,"station_id":"ce4bhgp2rcd13ifvqfe0","pricing_plan_id":"cebpf4jnsgd1na2vs0mg"},{"bike_id":"fa90cb4b-e496-4f14-b492-c9095cf23d3f","system_id":"levelo_inurba_marseille","lat":43.29905,"lon":5.38135,"is_reserved":false,"is_disabled":true,"rental_uris":{"android":"levelo://app?vid=fa90cb4b-e496-4f14-b492-c9095cf23d3f","ios":"levelo://app?vid=fa90cb4b-e496-4f14-b492-c9095cf23d3f"},"vehicle_type_id":"4","last_reported":1738314557,"current_range_meters":26000,"station_id":"ce4bgj12rcd13ifvqbc0","pricing_plan_id":"cebpf4jnsgd1na2vs0mg"},{"bike_id":"029c1c55-771b-423d-b136-a4a5af8d1d8f","system_id":"levelo_inurba_marseille","lat":43.26951,"lon":5.38649,"is_reserved":false,"is_disabled":false,"rental_uris":{"android":"levelo://app?vid=029c1c55-771b-423d-b136-a4a5af8d1d8f","ios":"levelo://app?vid=029c1c55-771b-423d-b136-a4a5af8d1d8f"},"vehicle_type_id":"4","last_reported":1738314557,"current_range_meters":33600,"station_id":"ce4bhh92rcd13ifvqfh0","pricing_plan_id":"cebpf4jnsgd1na2vs0mg"},{"bike_id":"894c4f53-54a0-41ea-8136-c197654f9583","system_id":"levelo_inurba_marseille","lat":43.295959,"lon":5.380972,"is_reserved":false,"is_disabled":false,"rental_uris":{"android":"levelo://app?vid=894c4f53-54a0-41ea-8136-c197654f9583","ios":"levelo://app?vid=894c4f53-54a0-41ea-8136-c197654f9583"},"vehicle_type_id":"4","last_reported":1738314557,"current_range_meters":38800,"station_id":"ce4bgl12rcd13ifvqbo0","pricing_plan_id":"cebpf4jnsgd1na2vs0mg"},{"bike_id":"33bfa8fe-28c6-40ca-954b-8e56adacd586","system_id":"levelo_inurba_marseille","lat":43.26208,"lon":5.4052,"is_reserved":false,"is_disabled":false,"rental_uris":{"android":"levelo://app?vid=33bfa8fe-28c6-40ca-954b-8e56adacd586","ios":"levelo://app?vid=33bfa8fe-28c6-40ca-954b-8e56adacd586"},"vehicle_type_id":"4","last_reported":1738314557,"current_range_meters":27600,"station_id":"ce4bhmh2rcd13ifvqgmg","pricing_plan_id":"cebpf4jnsgd1na2vs0mg"},{"bike_id":"c690f3c5-d8c8-4734-90f4-d9166924ba58","system_id":"levelo_inurba_marseille","lat":43.29102,"lon":5.3814,"is_reserved":false,"is_disabled":true,"rental_uris":{"android":"levelo://app?vid=c690f3c5-d8c8-4734-90f4-d9166924ba58","ios":"levelo://app?vid=c690f3c5-d8c8-4734-90f4-d9166924ba58"},"vehicle_type_id":"4","last_reported":1738314557,"current_range_meters":2000,"station_id":"ce4bh512rcd13ifvqe2g","pricing_plan_id":"cebpf4jnsgd1na2vs0mg"},{"bike_id":"454b3f23-449e-4244-a481-1f8d2fbc0543","system_id":"levelo_inurba_marseille","lat":43.2749,"lon":5.42475,"is_reserved":false,"is_disabled":false,"rental_uris":{"android":"levelo://app?vid=454b3f23-449e-4244-a481-1f8d2fbc0543","ios":"levelo://app?vid=454b3f23-449e-4244-a481-1f8d2fbc0543"},"vehicle_type_id":"4","last_reported":1738314557,"current_range_meters":2800,"station_id":"ce4bhn92rcd13ifvqgrg","pricing_plan_id":"cebpf4jnsgd1na2vs0mg"},{"bike_id":"32c2be47-5997-40f8-b9d1-340939e2797c","system_id":"levelo_inurba_marseille","lat":43.27813,"lon":5.407,"is_reserved":false,"is_disabled":false,"rental_uris":{"android":"levelo://app?vid=32c2be47-5997-40f8-b9d1-340939e2797c","ios":"levelo://app?vid=32c2be47-5997-40f8-b9d1-340939e2797c"},"vehicle_type_id":"4","last_reported":1738314557,"current_range_meters":19600,"station_id":"ce4bhnh2rcd13ifvqgtg","pricing_plan_id":"cebpf4jnsgd1na2vs0mg"},{"bike_id":"7163f91a-fd61-44b7-8e20-b1a9dcf913cd","system_id":"levelo_inurba_marseille","lat":43.30174,"lon":5.37404,"is_reserved":false,"is_disabled":false,"rental_uris":{"android":"levelo://app?vid=7163f91a-fd61-44b7-8e20-b1a9dcf913cd","ios":"levelo://app?vid=7163f91a-fd61-44b7-8e20-b1a9dcf913cd"},"vehicle_type_id":"4","last_reported":1738314557,"current_range_meters":4000,"station_id":"ce4bgs92rcd13ifvqcc0","pricing_plan_id":"cebpf4jnsgd1na2vs0mg"},{"bike_id":"1fbf3f20-0930-4b85-8900-561217e5a0eb","system_id":"levelo_inurba_marseille","lat":43.30407,"lon":5.41285,"is_reserved":false,"is_disabled":false,"rental_uris":{"android":"levelo://app?vid=1fbf3f20-0930-4b85-8900-561217e5a0eb","ios":"levelo://app?vid=1fbf3f20-0930-4b85-8900-561217e5a0eb"},"vehicle_type_id":"4","last_reported":1738314557,"current_range_meters":28400,"station_id":"ce4bhop2rcd13ifvqh8g","pricing_plan_id":"cebpf4jnsgd1na2vs0mg"},{"bike_id":"45aae4cc-4dbe-4320-8416-114ee05978f1","system_id":"levelo_inurba_marseille","lat":43.29784,"lon":5.38109,"is_reserved":false,"is_disabled":true,"rental_uris":{"android":"levelo://app?vid=45aae4cc-4dbe-4320-8416-114ee05978f1","ios":"levelo://app?vid=45aae4cc-4dbe-4320-8416-114ee05978f1"},"vehicle_type_id":"4","last_reported":1738314557,"current_range_meters":37600,"station_id":"ce4bgip2rcd13ifvqbb0","pricing_plan_id":"cebpf4jnsgd1na2vs0mg"},{"bike_id":"086c7782-679f-4d19-9aaa-d696ab0b8c4e","system_id":"levelo_inurba_marseille","lat":43.27792,"lon":5.40722,"is_reserved":false,"is_disabled":true,"rental_uris":{"android":"levelo://app?vid=086c7782-679f-4d19-9aaa-d696ab0b8c4e","ios":"levelo://app?vid=086c7782-679f-4d19-9aaa-d696ab0b8c4e"},"vehicle_type_id":"4","last_reported":1738314557,"current_range_meters":27200,"station_id":"ce4bhnh2rcd13ifvqgtg","pricing_plan_id":"cebpf4jnsgd1na2vs0mg"},{"bike_id":"93df7b93-bd44-4f48-9008-f5bad7152cc2","system_id":"levelo_inurba_marseille","lat":43.301459,"lon":5.380847,"is_reserved":false,"is_disabled":false,"rental_uris":{"android":"levelo://app?vid=93df7b93-bd44-4f48-9008-f5bad7152cc2","ios":"levelo://app?vid=93df7b93-bd44-4f48-9008-f5bad7152cc2"},"vehicle_type_id":"4","last_reported":1738314557,"current_range_meters":16400,"station_id":"ce4bgjp2rcd13ifvqbh0","pricing_plan_id":"cebpf4jnsgd1na2vs0mg"},{"bike_id":"4d04043b-d19f-4ba5-869b-e465e7c6903f","system_id":"levelo_inurba_marseille","lat":43.24065,"lon":5.37779,"is_reserved":false,"is_disabled":false,"rental_uris":{"android":"levelo://app?vid=4d04043b-d19f-4ba5-869b-e465e7c6903f","ios":"levelo://app?vid=4d04043b-d19f-4ba5-869b-e465e7c6903f"},"vehicle_type_id":"4","last_reported":1738314557,"current_range_meters":38400,"station_id":"ce4bhnp2rcd13ifvqgvg","pricing_plan_id":"cebpf4jnsgd1na2vs0mg"},{"bike_id":"befe1838-b5eb-4db0-aeea-9ea02214eae7","system_id":"levelo_inurba_marseille","lat":43.25083,"lon":5.39507,"is_reserved":false,"is_disabled":false,"rental_uris":{"android":"levelo://app?vid=befe1838-b5eb-4db0-aeea-9ea02214eae7","ios":"levelo://app?vid=befe1838-b5eb-4db0-aeea-9ea02214eae7"},"vehicle_type_id":"4","last_reported":1738314557,"current_range_meters":34000,"station_id":"ce4bhm12rcd13ifvqgkg","pricing_plan_id":"cebpf4jnsgd1na2vs0mg"},{"bike_id":"7a4b3ce6-5e76-4c3d-b967-fdb1381cfca1","system_id":"levelo_inurba_marseille","lat":43.2918,"lon":5.39348,"is_reserved":false,"is_disabled":true,"rental_uris":{"android":"levelo://app?vid=7a4b3ce6-5e76-4c3d-b967-fdb1381cfca1","ios":"levelo://app?vid=7a4b3ce6-5e76-4c3d-b967-fdb1381cfca1"},"vehicle_type_id":"4","last_reported":1738314557,"current_range_meters":800,"station_id":"ce4bh192rcd13ifvqdd0","pricing_plan_id":"cebpf4jnsgd1na2vs0mg"},{"bike_id":"a2c2f7f6-53e1-41aa-a1bb-36c8d98a1715","system_id":"levelo_inurba_marseille","lat":43.27809,"lon":5.40726,"is_reserved":false,"is_disabled":false,"rental_uris":{"android":"levelo://app?vid=a2c2f7f6-53e1-41aa-a1bb-36c8d98a1715","ios":"levelo://app?vid=a2c2f7f6-53e1-41aa-a1bb-36c8d98a1715"},"vehicle_type_id":"4","last_reported":1738314557,"current_range_meters":8800,"station_id":"ce4bhnh2rcd13ifvqgtg","pricing_plan_id":"cebpf4jnsgd1na2vs0mg"},{"bike_id":"ab0ec696-ce2c-4f7f-a964-2e9c9f313854","system_id":"levelo_inurba_marseille","lat":43.23961,"lon":5.36643,"is_reserved":false,"is_disabled":false,"rental_uris":{"android":"levelo://app?vid=ab0ec696-ce2c-4f7f-a964-2e9c9f313854","ios":"levelo://app?vid=ab0ec696-ce2c-4f7f-a964-2e9c9f313854"},"vehicle_type_id":"4","last_reported":1738314557,"current_range_meters":29600,"station_id":"ce4bhi12rcd13ifvqfp0","pricing_plan_id":"cebpf4jnsgd1na2vs0mg"},{"bike_id":"e99c90aa-e079-42e2-a963-1534829ba9c7","system_id":"levelo_inurba_marseille","lat":43.262103,"lon":5.37447,"is_reserved":false,"is_disabled":false,"rental_uris":{"android":"levelo://app?vid=e99c90aa-e079-42e2-a963-1534829ba9c7","ios":"levelo://app?vid=e99c90aa-e079-42e2-a963-1534829ba9c7"},"vehicle_type_id":"4","last_reported":1738314557,"current_range_meters":32400,"station_id":"ce4bhgp2rcd13ifvqfc0","pricing_plan_id":"cebpf4jnsgd1na2vs0mg"},{"bike_id":"d908ef3b-09f1-43ac-a5bc-eb4b647015c1","system_id":"levelo_inurba_marseille","lat":43.29221,"lon":5.36048,"is_reserved":false,"is_disabled":false,"rental_uris":{"android":"levelo://app?vid=d908ef3b-09f1-43ac-a5bc-eb4b647015c1","ios":"levelo://app?vid=d908ef3b-09f1-43ac-a5bc-eb4b647015c1"},"vehicle_type_id":"4","last_reported":1738314557,"current_range_meters":8800,"station_id":"ce4bhbh2rcd13ifvqeqg","pricing_plan_id":"cebpf4jnsgd1na2vs0mg"},{"bike_id":"472815ce-dd78-4e4c-82e8-cea31da48d22","system_id":"levelo_inurba_marseille","lat":43.337196,"lon":5.391828,"is_reserved":false,"is_disabled":false,"rental_uris":{"android":"levelo://app?vid=472815ce-dd78-4e4c-82e8-cea31da48d22","ios":"levelo://app?vid=472815ce-dd78-4e4c-82e8-cea31da48d22"},"vehicle_type_id":"4","last_reported":1738314557,"current_range_meters":38800,"station_id":"ce4bhr92rcd13ifvqhsg","pricing_plan_id":"cebpf4jnsgd1na2vs0mg"},{"bike_id":"cc47836a-b908-432f-8e0e-2f793407f141","system_id":"levelo_inurba_marseille","lat":43.22926,"lon":5.35382,"is_reserved":false,"is_disabled":false,"rental_uris":{"android":"levelo://app?vid=cc47836a-b908-432f-8e0e-2f793407f141","ios":"levelo://app?vid=cc47836a-b908-432f-8e0e-2f793407f141"},"vehicle_type_id":"4","last_reported":1738314557,"current_range_meters":10800,"station_id":"cpo3532slgdg3j2ikp40","pricing_plan_id":"cebpf4jnsgd1na2vs0mg"},{"bike_id":"866af598-ce00-4c4a-8cef-571d5a74515d","system_id":"levelo_inurba_marseille","lat":43.30887,"lon":5.36869,"is_reserved":false,"is_disabled":false,"rental_uris":{"android":"levelo://app?vid=866af598-ce00-4c4a-8cef-571d5a74515d","ios":"levelo://app?vid=866af598-ce00-4c4a-8cef-571d5a74515d"},"vehicle_type_id":"4","last_reported":1738314557,"current_range_meters":39200,"station_id":"ce4bgn92rcd13ifvqbvg","pricing_plan_id":"cebpf4jnsgd1na2vs0mg"},{"bike_id":"e7c9cfbe-f55c-43c4-80d7-cb08a2924f3a","system_id":"levelo_inurba_marseille","lat":43.29905,"lon":5.37475,"is_reserved":false,"is_disabled":false,"rental_uris":{"android":"levelo://app?vid=e7c9cfbe-f55c-43c4-80d7-cb08a2924f3a","ios":"levelo://app?vid=e7c9cfbe-f55c-43c4-80d7-cb08a2924f3a"},"vehicle_type_id":"4","last_reported":1738314557,"current_range_meters":17200,"station_id":"ce4bgjh2rcd13ifvqbg0","pricing_plan_id":"cebpf4jnsgd1na2vs0mg"},{"bike_id":"fe74346d-5132-48f7-b795-af0d4905ad40","system_id":"levelo_inurba_marseille","lat":43.284756,"lon":5.38422,"is_reserved":false,"is_disabled":false,"rental_uris":{"android":"levelo://app?vid=fe74346d-5132-48f7-b795-af0d4905ad40","ios":"levelo://app?vid=fe74346d-5132-48f7-b795-af0d4905ad40"},"vehicle_type_id":"4","last_reported":1738314557,"current_range_meters":24400,"station_id":"ce4bh512rcd13ifvqe3g","pricing_plan_id":"cebpf4jnsgd1na2vs0mg"},{"bike_id":"f6afaadc-8a64-4520-9e68-285b035334db","system_id":"levelo_inurba_marseille","lat":43.30517,"lon":5.36781,"is_reserved":false,"is_disabled":false,"rental_uris":{"android":"levelo://app?vid=f6afaadc-8a64-4520-9e68-285b035334db","ios":"levelo://app?vid=f6afaadc-8a64-4520-9e68-285b035334db"},"vehicle_type_id":"4","last_reported":1738314557,"current_range_meters":3200,"station_id":"ce4bgrp2rcd13ifvqc9g","pricing_plan_id":"cebpf4jnsgd1na2vs0mg"},{"bike_id":"3aa27d30-2944-4532-89e5-8de721bb8381","system_id":"levelo_inurba_marseille","lat":43.29217,"lon":5.36096,"is_reserved":false,"is_disabled":false,"rental_uris":{"android":"levelo://app?vid=3aa27d30-2944-4532-89e5-8de721bb8381","ios":"levelo://app?vid=3aa27d30-2944-4532-89e5-8de721bb8381"},"vehicle_type_id":"4","last_reported":1738314557,"current_range_meters":34800,"station_id":"ce4bhbh2rcd13ifvqeqg","pricing_plan_id":"cebpf4jnsgd1na2vs0mg"},{"bike_id":"38a7a170-9c0f-4c7d-bbc1-33ebfe8d2a0d","system_id":"levelo_inurba_marseille","lat":43.24645,"lon":5.38895,"is_reserved":false,"is_disabled":false,"rental_uris":{"android":"levelo://app?vid=38a7a170-9c0f-4c7d-bbc1-33ebfe8d2a0d","ios":"levelo://app?vid=38a7a170-9c0f-4c7d-bbc1-33ebfe8d2a0d"},"vehicle_type_id":"4","last_reported":1738314557,"current_range_meters":38800,"station_id":"ce4bhg12rcd13ifvqf60","pricing_plan_id":"cebpf4jnsgd1na2vs0mg"},{"bike_id":"06ea09e9-9827-43be-a86c-3096f790f66d","system_id":"levelo_inurba_marseille","lat":43.25087,"lon":5.39523,"is_reserved":false,"is_disabled":false,"rental_uris":{"android":"levelo://app?vid=06ea09e9-9827-43be-a86c-3096f790f66d","ios":"levelo://app?vid=06ea09e9-9827-43be-a86c-3096f790f66d"},"vehicle_type_id":"4","last_reported":1738314557,"current_range_meters":33600,"station_id":"ce4bhm12rcd13ifvqgkg","pricing_plan_id":"cebpf4jnsgd1na2vs0mg"},{"bike_id":"7fbc607b-e12b-47bd-a53f-1c18ac62adfd","system_id":"levelo_inurba_marseille","lat":43.27813,"lon":5.40742,"is_reserved":false,"is_disabled":false,"rental_uris":{"android":"levelo://app?vid=7fbc607b-e12b-47bd-a53f-1c18ac62adfd","ios":"levelo://app?vid=7fbc607b-e12b-47bd-a53f-1c18ac62adfd"},"vehicle_type_id":"4","last_reported":1738314557,"current_range_meters":34000,"station_id":"ce4bhnh2rcd13ifvqgtg","pricing_plan_id":"cebpf4jnsgd1na2vs0mg"},{"bike_id":"735cf356-6ca7-4c83-bf25-d301ccde8042","system_id":"levelo_inurba_marseille","lat":43.2722,"lon":5.40952,"is_reserved":false,"is_disabled":false,"rental_uris":{"android":"levelo://app?vid=735cf356-6ca7-4c83-bf25-d301ccde8042","ios":"levelo://app?vid=735cf356-6ca7-4c83-bf25-d301ccde8042"},"vehicle_type_id":"4","last_reported":1738314557,"current_range_meters":27200,"station_id":"ce4bhl12rcd13ifvqgf0","pricing_plan_id":"cebpf4jnsgd1na2vs0mg"},{"bike_id":"f34fcd93-0f66-400a-8f07-aa08bfa23861","system_id":"levelo_inurba_marseille","lat":43.25942,"lon":5.40886,"is_reserved":false,"is_disabled":false,"rental_uris":{"android":"levelo://app?vid=f34fcd93-0f66-400a-8f07-aa08bfa23861","ios":"levelo://app?vid=f34fcd93-0f66-400a-8f07-aa08bfa23861"},"vehicle_type_id":"4","last_reported":1738314557,"current_range_meters":38400,"station_id":"ce4bhm92rcd13ifvqglg","pricing_plan_id":"cebpf4jnsgd1na2vs0mg"},{"bike_id":"abeaed77-608d-47ae-b8e4-a2e36704ed2c","system_id":"levelo_inurba_marseille","lat":43.27058,"lon":5.40281,"is_reserved":false,"is_disabled":true,"rental_uris":{"android":"levelo://app?vid=abeaed77-608d-47ae-b8e4-a2e36704ed2c","ios":"levelo://app?vid=abeaed77-608d-47ae-b8e4-a2e36704ed2c"},"vehicle_type_id":"4","last_reported":1738314557,"current_range_meters":36800,"station_id":"ce4bhk92rcd13ifvqgc0","pricing_plan_id":"cebpf4jnsgd1na2vs0mg"},{"bike_id":"606053f9-3da2-4594-b4df-8e24b5fa812c","system_id":"levelo_inurba_marseille","lat":43.269339,"lon":5.402524,"is_reserved":false,"is_disabled":false,"rental_uris":{"android":"levelo://app?vid=606053f9-3da2-4594-b4df-8e24b5fa812c","ios":"levelo://app?vid=606053f9-3da2-4594-b4df-8e24b5fa812c"},"vehicle_type_id":"4","last_reported":1738314557,"current_range_meters":38000,"station_id":"cjm6bp8fraef2m0cb0m0","pricing_plan_id":"cebpf4jnsgd1na2vs0mg"},{"bike_id":"c3b60fbf-93d2-4381-9a10-c9fead286892","system_id":"levelo_inurba_marseille","lat":43.32568,"lon":5.36538,"is_reserved":false,"is_disabled":false,"rental_uris":{"android":"levelo://app?vid=c3b60fbf-93d2-4381-9a10-c9fead286892","ios":"levelo://app?vid=c3b60fbf-93d2-4381-9a10-c9fead286892"},"vehicle_type_id":"4","last_reported":1738314557,"current_range_meters":17200,"station_id":"","pricing_plan_id":"cebpf4jnsgd1na2vs0mg"},{"bike_id":"98ce8ffc-5472-474d-a279-9cd781a6aa87","system_id":"levelo_inurba_marseille","lat":43.34131,"lon":5.40907,"is_reserved":false,"is_disabled":false,"rental_uris":{"android":"levelo://app?vid=98ce8ffc-5472-474d-a279-9cd781a6aa87","ios":"levelo://app?vid=98ce8ffc-5472-474d-a279-9cd781a6aa87"},"vehicle_type_id":"4","last_reported":1738314557,"current_range_meters":38800,"station_id":"ce4bhqh2rcd13ifvqhlg","pricing_plan_id":"cebpf4jnsgd1na2vs0mg"},{"bike_id":"7bf0b083-5d7a-408e-adaa-18c38cfadd6e","system_id":"levelo_inurba_marseille","lat":43.22923,"lon":5.35387,"is_reserved":false,"is_disabled":false,"rental_uris":{"android":"levelo://app?vid=7bf0b083-5d7a-408e-adaa-18c38cfadd6e","ios":"levelo://app?vid=7bf0b083-5d7a-408e-adaa-18c38cfadd6e"},"vehicle_type_id":"4","last_reported":1738314557,"current_range_meters":12800,"station_id":"cpo3532slgdg3j2ikp40","pricing_plan_id":"cebpf4jnsgd1na2vs0mg"},{"bike_id":"dc547e1e-8dbf-48e7-8694-ca928c746860","system_id":"levelo_inurba_marseille","lat":43.30205,"lon":5.39475,"is_reserved":false,"is_disabled":false,"rental_uris":{"android":"levelo://app?vid=dc547e1e-8dbf-48e7-8694-ca928c746860","ios":"levelo://app?vid=dc547e1e-8dbf-48e7-8694-ca928c746860"},"vehicle_type_id":"4","last_reported":1738314557,"current_range_meters":28000,"station_id":"ce4bh0p2rcd13ifvqd70","pricing_plan_id":"cebpf4jnsgd1na2vs0mg"},{"bike_id":"db14cd8a-5ba9-45f6-b197-f717b13b5230","system_id":"levelo_inurba_marseille","lat":43.29852,"lon":5.3628,"is_reserved":false,"is_disabled":false,"rental_uris":{"android":"levelo://app?vid=db14cd8a-5ba9-45f6-b197-f717b13b5230","ios":"levelo://app?vid=db14cd8a-5ba9-45f6-b197-f717b13b5230"},"vehicle_type_id":"4","last_reported":1738314557,"current_range_meters":38800,"station_id":"ce4bgpp2rcd13ifvqc3g","pricing_plan_id":"cebpf4jnsgd1na2vs0mg"},{"bike_id":"ba129d01-c854-426a-b56c-c7cb35ee6bf8","system_id":"levelo_inurba_marseille","lat":43.23148,"lon":5.43715,"is_reserved":false,"is_disabled":false,"rental_uris":{"android":"levelo://app?vid=ba129d01-c854-426a-b56c-c7cb35ee6bf8","ios":"levelo://app?vid=ba129d01-c854-426a-b56c-c7cb35ee6bf8"},"vehicle_type_id":"4","last_reported":1738314557,"current_range_meters":24800,"station_id":"ce4bhmp2rcd13ifvqgog","pricing_plan_id":"cebpf4jnsgd1na2vs0mg"},{"bike_id":"10d31094-e8d4-4e9d-bf6f-3c654bea52c2","system_id":"levelo_inurba_marseille","lat":43.28163,"lon":5.42654,"is_reserved":false,"is_disabled":false,"rental_uris":{"android":"levelo://app?vid=10d31094-e8d4-4e9d-bf6f-3c654bea52c2","ios":"levelo://app?vid=10d31094-e8d4-4e9d-bf6f-3c654bea52c2"},"vehicle_type_id":"4","last_reported":1738314557,"current_range_meters":6400,"station_id":"ce4bhnh2rcd13ifvqgug","pricing_plan_id":"cebpf4jnsgd1na2vs0mg"},{"bike_id":"cbf80fc8-83c3-4077-b70f-6754cc7f80e0","system_id":"levelo_inurba_marseille","lat":43.29301,"lon":5.37465,"is_reserved":false,"is_disabled":false,"rental_uris":{"android":"levelo://app?vid=cbf80fc8-83c3-4077-b70f-6754cc7f80e0","ios":"levelo://app?vid=cbf80fc8-83c3-4077-b70f-6754cc7f80e0"},"vehicle_type_id":"4","last_reported":1738314557,"current_range_meters":27200,"station_id":"ce4bgi12rcd13ifvqb70","pricing_plan_id":"cebpf4jnsgd1na2vs0mg"},{"bike_id":"0d0813fa-cc8c-457d-80e7-eddc6728ce08","system_id":"levelo_inurba_marseille","lat":43.27965,"lon":5.38764,"is_reserved":false,"is_disabled":false,"rental_uris":{"android":"levelo://app?vid=0d0813fa-cc8c-457d-80e7-eddc6728ce08","ios":"levelo://app?vid=0d0813fa-cc8c-457d-80e7-eddc6728ce08"},"vehicle_type_id":"4","last_reported":1738314557,"current_range_meters":38800,"station_id":"ce4bhg12rcd13ifvqf80","pricing_plan_id":"cebpf4jnsgd1na2vs0mg"},{"bike_id":"9f7cbc3c-6e0b-4442-8c70-64c0b2a1452e","system_id":"levelo_inurba_marseille","lat":43.23054,"lon":5.35498,"is_reserved":false,"is_disabled":false,"rental_uris":{"android":"levelo://app?vid=9f7cbc3c-6e0b-4442-8c70-64c0b2a1452e","ios":"levelo://app?vid=9f7cbc3c-6e0b-4442-8c70-64c0b2a1452e"},"vehicle_type_id":"4","last_reported":1738314557,"current_range_meters":8800,"station_id":"cpo3342slgdg3j2ifvpg","pricing_plan_id":"cebpf4jnsgd1na2vs0mg"},{"bike_id":"c8a3a0ed-dff2-4f3c-87dc-2e6b47b1ad28","system_id":"levelo_inurba_marseille","lat":43.337444,"lon":5.374475,"is_reserved":false,"is_disabled":true,"rental_uris":{"android":"levelo://app?vid=c8a3a0ed-dff2-4f3c-87dc-2e6b47b1ad28","ios":"levelo://app?vid=c8a3a0ed-dff2-4f3c-87dc-2e6b47b1ad28"},"vehicle_type_id":"4","last_reported":1738314557,"current_range_meters":0,"station_id":"","pricing_plan_id":"cebpf4jnsgd1na2vs0mg"},{"bike_id":"a670671f-5865-4f97-bf58-77fcfbee311b","system_id":"levelo_inurba_marseille","lat":43.28339,"lon":5.38116,"is_reserved":false,"is_disabled":false,"rental_uris":{"android":"levelo://app?vid=a670671f-5865-4f97-bf58-77fcfbee311b","ios":"levelo://app?vid=a670671f-5865-4f97-bf58-77fcfbee311b"},"vehicle_type_id":"4","last_reported":1738314557,"current_range_meters":20400,"station_id":"ce4bh412rcd13ifvqdr0","pricing_plan_id":"cebpf4jnsgd1na2vs0mg"},{"bike_id":"7960f516-979e-4462-8eae-097a6a83b4c2","system_id":"levelo_inurba_marseille","lat":43.30214,"lon":5.3946,"is_reserved":false,"is_disabled":false,"rental_uris":{"android":"levelo://app?vid=7960f516-979e-4462-8eae-097a6a83b4c2","ios":"levelo://app?vid=7960f516-979e-4462-8eae-097a6a83b4c2"},"vehicle_type_id":"4","last_reported":1738314557,"current_range_meters":6800,"station_id":"ce4bh0p2rcd13ifvqd70","pricing_plan_id":"cebpf4jnsgd1na2vs0mg"},{"bike_id":"24e4f6d7-34dd-438b-9e7b-670f39c83ad8","system_id":"levelo_inurba_marseille","lat":43.29796,"lon":5.3809,"is_reserved":false,"is_disabled":false,"rental_uris":{"android":"levelo://app?vid=24e4f6d7-34dd-438b-9e7b-670f39c83ad8","ios":"levelo://app?vid=24e4f6d7-34dd-438b-9e7b-670f39c83ad8"},"vehicle_type_id":"4","last_reported":1738314557,"current_range_meters":30000,"station_id":"ce4bgip2rcd13ifvqbb0","pricing_plan_id":"cebpf4jnsgd1na2vs0mg"},{"bike_id":"7247902a-635d-4f06-9cf7-f11e089c2d38","system_id":"levelo_inurba_marseille","lat":43.26935,"lon":5.4026,"is_reserved":false,"is_disabled":false,"rental_uris":{"android":"levelo://app?vid=7247902a-635d-4f06-9cf7-f11e089c2d38","ios":"levelo://app?vid=7247902a-635d-4f06-9cf7-f11e089c2d38"},"vehicle_type_id":"4","last_reported":1738314557,"current_range_meters":38000,"station_id":"cjm6bp8fraef2m0cb0m0","pricing_plan_id":"cebpf4jnsgd1na2vs0mg"},{"bike_id":"f2f2de95-c232-4664-8d03-66b9685572e6","system_id":"levelo_inurba_marseille","lat":43.28929,"lon":5.38404,"is_reserved":false,"is_disabled":true,"rental_uris":{"android":"levelo://app?vid=f2f2de95-c232-4664-8d03-66b9685572e6","ios":"levelo://app?vid=f2f2de95-c232-4664-8d03-66b9685572e6"},"vehicle_type_id":"4","last_reported":1738314557,"current_range_meters":38400,"station_id":"ce4bh612rcd13ifvqe6g","pricing_plan_id":"cebpf4jnsgd1na2vs0mg"},{"bike_id":"78e1bc18-d7b0-4aef-8fa5-842bfface35a","system_id":"levelo_inurba_marseille","lat":43.2668,"lon":5.38265,"is_reserved":false,"is_disabled":false,"rental_uris":{"android":"levelo://app?vid=78e1bc18-d7b0-4aef-8fa5-842bfface35a","ios":"levelo://app?vid=78e1bc18-d7b0-4aef-8fa5-842bfface35a"},"vehicle_type_id":"4","last_reported":1738314557,"current_range_meters":38800,"station_id":"ce4bhg92rcd13ifvqf90","pricing_plan_id":"cebpf4jnsgd1na2vs0mg"},{"bike_id":"67bc6512-e550-4b02-a35f-fa00a80893a2","system_id":"levelo_inurba_marseille","lat":43.30939,"lon":5.37285,"is_reserved":false,"is_disabled":false,"rental_uris":{"android":"levelo://app?vid=67bc6512-e550-4b02-a35f-fa00a80893a2","ios":"levelo://app?vid=67bc6512-e550-4b02-a35f-fa00a80893a2"},"vehicle_type_id":"4","last_reported":1738314557,"current_range_meters":31200,"station_id":"","pricing_plan_id":"cebpf4jnsgd1na2vs0mg"},{"bike_id":"9c1d57d3-f08b-4d7e-9389-a4b34f9d2a60","system_id":"levelo_inurba_marseille","lat":43.29808,"lon":5.38102,"is_reserved":false,"is_disabled":false,"rental_uris":{"android":"levelo://app?vid=9c1d57d3-f08b-4d7e-9389-a4b34f9d2a60","ios":"levelo://app?vid=9c1d57d3-f08b-4d7e-9389-a4b34f9d2a60"},"vehicle_type_id":"4","last_reported":1738314557,"current_range_meters":39200,"station_id":"ce4bgip2rcd13ifvqbb0","pricing_plan_id":"cebpf4jnsgd1na2vs0mg"},{"bike_id":"32802d31-82e5-49aa-928e-45336ddb5e58","system_id":"levelo_inurba_marseille","lat":43.24995,"lon":5.3894,"is_reserved":false,"is_disabled":false,"rental_uris":{"android":"levelo://app?vid=32802d31-82e5-49aa-928e-45336ddb5e58","ios":"levelo://app?vid=32802d31-82e5-49aa-928e-45336ddb5e58"},"vehicle_type_id":"4","last_reported":1738314557,"current_range_meters":38800,"station_id":"ce4bhgp2rcd13ifvqfd0","pricing_plan_id":"cebpf4jnsgd1na2vs0mg"},{"bike_id":"d06240a3-8895-42e8-9212-5c068d44e9d2","system_id":"levelo_inurba_marseille","lat":43.2862,"lon":5.35103,"is_reserved":false,"is_disabled":false,"rental_uris":{"android":"levelo://app?vid=d06240a3-8895-42e8-9212-5c068d44e9d2","ios":"levelo://app?vid=d06240a3-8895-42e8-9212-5c068d44e9d2"},"vehicle_type_id":"4","last_reported":1738314557,"current_range_meters":27200,"station_id":"ce4bhch2rcd13ifvqeug","pricing_plan_id":"cebpf4jnsgd1na2vs0mg"},{"bike_id":"323795ea-b784-49f7-ad28-dfc256b8eaa4","system_id":"levelo_inurba_marseille","lat":43.3019,"lon":5.39473,"is_reserved":false,"is_disabled":false,"rental_uris":{"android":"levelo://app?vid=323795ea-b784-49f7-ad28-dfc256b8eaa4","ios":"levelo://app?vid=323795ea-b784-49f7-ad28-dfc256b8eaa4"},"vehicle_type_id":"4","last_reported":1738314557,"current_range_meters":16000,"station_id":"ce4bh0p2rcd13ifvqd70","pricing_plan_id":"cebpf4jnsgd1na2vs0mg"},{"bike_id":"a730ad96-1643-4b28-8bdb-7f33f046a999","system_id":"levelo_inurba_marseille","lat":43.30125,"lon":5.37422,"is_reserved":false,"is_disabled":false,"rental_uris":{"android":"levelo://app?vid=a730ad96-1643-4b28-8bdb-7f33f046a999","ios":"levelo://app?vid=a730ad96-1643-4b28-8bdb-7f33f046a999"},"vehicle_type_id":"4","last_reported":1738314557,"current_range_meters":39200,"station_id":"ce4bgs92rcd13ifvqcc0","pricing_plan_id":"cebpf4jnsgd1na2vs0mg"},{"bike_id":"a7e1bb12-c60b-445a-9547-4b41c03d5f68","system_id":"levelo_inurba_marseille","lat":43.28146,"lon":5.42667,"is_reserved":false,"is_disabled":true,"rental_uris":{"android":"levelo://app?vid=a7e1bb12-c60b-445a-9547-4b41c03d5f68","ios":"levelo://app?vid=a7e1bb12-c60b-445a-9547-4b41c03d5f68"},"vehicle_type_id":"4","last_reported":1738314557,"current_range_meters":0,"station_id":"ce4bhnh2rcd13ifvqgug","pricing_plan_id":"cebpf4jnsgd1na2vs0mg"},{"bike_id":"d130db0a-48b7-47ee-b133-0a81904f0cda","system_id":"levelo_inurba_marseille","lat":43.289985,"lon":5.356225,"is_reserved":false,"is_disabled":true,"rental_uris":{"android":"levelo://app?vid=d130db0a-48b7-47ee-b133-0a81904f0cda","ios":"levelo://app?vid=d130db0a-48b7-47ee-b133-0a81904f0cda"},"vehicle_type_id":"4","last_reported":1738314557,"current_range_meters":34000,"station_id":"ce4bhb92rcd13ifvqen0","pricing_plan_id":"cebpf4jnsgd1na2vs0mg"},{"bike_id":"0d0eefef-63b5-4557-addb-cac3f528bd64","system_id":"levelo_inurba_marseille","lat":43.313404,"lon":5.367294,"is_reserved":false,"is_disabled":false,"rental_uris":{"android":"levelo://app?vid=0d0eefef-63b5-4557-addb-cac3f528bd64","ios":"levelo://app?vid=0d0eefef-63b5-4557-addb-cac3f528bd64"},"vehicle_type_id":"4","last_reported":1738314557,"current_range_meters":23200,"station_id":"ce4bgr92rcd13ifvqc6g","pricing_plan_id":"cebpf4jnsgd1na2vs0mg"},{"bike_id":"237f58cf-c0f7-445a-b229-455eab95adcd","system_id":"levelo_inurba_marseille","lat":43.28977,"lon":5.37816,"is_reserved":false,"is_disabled":false,"rental_uris":{"android":"levelo://app?vid=237f58cf-c0f7-445a-b229-455eab95adcd","ios":"levelo://app?vid=237f58cf-c0f7-445a-b229-455eab95adcd"},"vehicle_type_id":"4","last_reported":1738314557,"current_range_meters":30400,"station_id":"ce4bh9p2rcd13ifvqed0","pricing_plan_id":"cebpf4jnsgd1na2vs0mg"},{"bike_id":"a36de8bd-2e3e-4fb2-8780-295adcb078f0","system_id":"levelo_inurba_marseille","lat":43.26572,"lon":5.37284,"is_reserved":false,"is_disabled":false,"rental_uris":{"android":"levelo://app?vid=a36de8bd-2e3e-4fb2-8780-295adcb078f0","ios":"levelo://app?vid=a36de8bd-2e3e-4fb2-8780-295adcb078f0"},"vehicle_type_id":"4","last_reported":1738314557,"current_range_meters":33600,"station_id":"ce4bhg12rcd13ifvqf70","pricing_plan_id":"cebpf4jnsgd1na2vs0mg"},{"bike_id":"9838cc78-2b53-49d3-ae13-82df62c4fd64","system_id":"levelo_inurba_marseille","lat":43.28412,"lon":5.40934,"is_reserved":false,"is_disabled":true,"rental_uris":{"android":"levelo://app?vid=9838cc78-2b53-49d3-ae13-82df62c4fd64","ios":"levelo://app?vid=9838cc78-2b53-49d3-ae13-82df62c4fd64"},"vehicle_type_id":"4","last_reported":1738314557,"current_range_meters":0,"station_id":"","pricing_plan_id":"cebpf4jnsgd1na2vs0mg"},{"bike_id":"5ce6b42a-5d43-4d16-b34c-0410affa1292","system_id":"levelo_inurba_marseille","lat":43.3014,"lon":5.37418,"is_reserved":false,"is_disabled":false,"rental_uris":{"android":"levelo://app?vid=5ce6b42a-5d43-4d16-b34c-0410affa1292","ios":"levelo://app?vid=5ce6b42a-5d43-4d16-b34c-0410affa1292"},"vehicle_type_id":"4","last_reported":1738314557,"current_range_meters":35200,"station_id":"ce4bgs92rcd13ifvqcc0","pricing_plan_id":"cebpf4jnsgd1na2vs0mg"},{"bike_id":"75d471a0-4c4f-4874-b310-436c6e9c20f7","system_id":"levelo_inurba_marseille","lat":43.30459,"lon":5.37902,"is_reserved":false,"is_disabled":false,"rental_uris":{"android":"levelo://app?vid=75d471a0-4c4f-4874-b310-436c6e9c20f7","ios":"levelo://app?vid=75d471a0-4c4f-4874-b310-436c6e9c20f7"},"vehicle_type_id":"4","last_reported":1738314557,"current_range_meters":16800,"station_id":"ce4bgup2rcd13ifvqcn0","pricing_plan_id":"cebpf4jnsgd1na2vs0mg"},{"bike_id":"a6b336c6-34d6-4b26-bccf-abefa3771ff1","system_id":"levelo_inurba_marseille","lat":43.23141,"lon":5.4371,"is_reserved":false,"is_disabled":false,"rental_uris":{"android":"levelo://app?vid=a6b336c6-34d6-4b26-bccf-abefa3771ff1","ios":"levelo://app?vid=a6b336c6-34d6-4b26-bccf-abefa3771ff1"},"vehicle_type_id":"4","last_reported":1738314557,"current_range_meters":38400,"station_id":"ce4bhmp2rcd13ifvqgog","pricing_plan_id":"cebpf4jnsgd1na2vs0mg"},{"bike_id":"9f6c79b2-892b-47dd-b852-741b9f20e95f","system_id":"levelo_inurba_marseille","lat":43.25084,"lon":5.39513,"is_reserved":false,"is_disabled":false,"rental_uris":{"android":"levelo://app?vid=9f6c79b2-892b-47dd-b852-741b9f20e95f","ios":"levelo://app?vid=9f6c79b2-892b-47dd-b852-741b9f20e95f"},"vehicle_type_id":"4","last_reported":1738314557,"current_range_meters":38800,"station_id":"ce4bhm12rcd13ifvqgkg","pricing_plan_id":"cebpf4jnsgd1na2vs0mg"},{"bike_id":"515644c8-15f1-4b1d-bf30-f2af731b28d7","system_id":"levelo_inurba_marseille","lat":43.29557,"lon":5.42294,"is_reserved":false,"is_disabled":false,"rental_uris":{"android":"levelo://app?vid=515644c8-15f1-4b1d-bf30-f2af731b28d7","ios":"levelo://app?vid=515644c8-15f1-4b1d-bf30-f2af731b28d7"},"vehicle_type_id":"4","last_reported":1738314557,"current_range_meters":38400,"station_id":"ce4bhph2rcd13ifvqhdg","pricing_plan_id":"cebpf4jnsgd1na2vs0mg"},{"bike_id":"c655a1c9-006c-45e2-aaed-72c55a308aea","system_id":"levelo_inurba_marseille","lat":43.27487,"lon":5.4247,"is_reserved":false,"is_disabled":false,"rental_uris":{"android":"levelo://app?vid=c655a1c9-006c-45e2-aaed-72c55a308aea","ios":"levelo://app?vid=c655a1c9-006c-45e2-aaed-72c55a308aea"},"vehicle_type_id":"4","last_reported":1738314557,"current_range_meters":27200,"station_id":"ce4bhn92rcd13ifvqgrg","pricing_plan_id":"cebpf4jnsgd1na2vs0mg"},{"bike_id":"3d3683d0-6fa2-4625-8b79-882bbb185c30","system_id":"levelo_inurba_marseille","lat":43.32285,"lon":5.38269,"is_reserved":false,"is_disabled":false,"rental_uris":{"android":"levelo://app?vid=3d3683d0-6fa2-4625-8b79-882bbb185c30","ios":"levelo://app?vid=3d3683d0-6fa2-4625-8b79-882bbb185c30"},"vehicle_type_id":"4","last_reported":1738314557,"current_range_meters":28400,"station_id":"ce4bhr12rcd13ifvqhqg","pricing_plan_id":"cebpf4jnsgd1na2vs0mg"},{"bike_id":"395110a8-dcbf-49d6-a7c7-ec0f66f22503","system_id":"levelo_inurba_marseille","lat":43.26944,"lon":5.38629,"is_reserved":false,"is_disabled":false,"rental_uris":{"android":"levelo://app?vid=395110a8-dcbf-49d6-a7c7-ec0f66f22503","ios":"levelo://app?vid=395110a8-dcbf-49d6-a7c7-ec0f66f22503"},"vehicle_type_id":"4","last_reported":1738314557,"current_range_meters":39200,"station_id":"ce4bhh92rcd13ifvqfh0","pricing_plan_id":"cebpf4jnsgd1na2vs0mg"},{"bike_id":"ad1098ba-277c-480c-a0e7-8081658bd46f","system_id":"levelo_inurba_marseille","lat":43.33594,"lon":5.41029,"is_reserved":false,"is_disabled":false,"rental_uris":{"android":"levelo://app?vid=ad1098ba-277c-480c-a0e7-8081658bd46f","ios":"levelo://app?vid=ad1098ba-277c-480c-a0e7-8081658bd46f"},"vehicle_type_id":"4","last_reported":1738314557,"current_range_meters":38800,"station_id":"ce4bhqh2rcd13ifvqhmg","pricing_plan_id":"cebpf4jnsgd1na2vs0mg"},{"bike_id":"94773afe-a938-40e3-8dfd-df42f2d79573","system_id":"levelo_inurba_marseille","lat":43.29705,"lon":5.36624,"is_reserved":false,"is_disabled":false,"rental_uris":{"android":"levelo://app?vid=94773afe-a938-40e3-8dfd-df42f2d79573","ios":"levelo://app?vid=94773afe-a938-40e3-8dfd-df42f2d79573"},"vehicle_type_id":"4","last_reported":1738314557,"current_range_meters":9200,"station_id":"ce4bgn12rcd13ifvqbt0","pricing_plan_id":"cebpf4jnsgd1na2vs0mg"},{"bike_id":"4ce57a69-7bf8-474d-ad10-1e334386d79e","system_id":"levelo_inurba_marseille","lat":43.30483,"lon":5.37899,"is_reserved":false,"is_disabled":false,"rental_uris":{"android":"levelo://app?vid=4ce57a69-7bf8-474d-ad10-1e334386d79e","ios":"levelo://app?vid=4ce57a69-7bf8-474d-ad10-1e334386d79e"},"vehicle_type_id":"4","last_reported":1738314557,"current_range_meters":34000,"station_id":"ce4bgup2rcd13ifvqcn0","pricing_plan_id":"cebpf4jnsgd1na2vs0mg"},{"bike_id":"81cbfe48-6e1a-420c-8b24-7c4f1fab9886","system_id":"levelo_inurba_marseille","lat":43.27054,"lon":5.41066,"is_reserved":false,"is_disabled":false,"rental_uris":{"android":"levelo://app?vid=81cbfe48-6e1a-420c-8b24-7c4f1fab9886","ios":"levelo://app?vid=81cbfe48-6e1a-420c-8b24-7c4f1fab9886"},"vehicle_type_id":"4","last_reported":1738314557,"current_range_meters":36000,"station_id":"ce4bhl12rcd13ifvqgf0","pricing_plan_id":"cebpf4jnsgd1na2vs0mg"},{"bike_id":"d979d8d2-ec65-47af-9229-e4270aab279a","system_id":"levelo_inurba_marseille","lat":43.230644,"lon":5.354972,"is_reserved":false,"is_disabled":false,"rental_uris":{"android":"levelo://app?vid=d979d8d2-ec65-47af-9229-e4270aab279a","ios":"levelo://app?vid=d979d8d2-ec65-47af-9229-e4270aab279a"},"vehicle_type_id":"4","last_reported":1738314557,"current_range_meters":9600,"station_id":"cpo3342slgdg3j2ifvpg","pricing_plan_id":"cebpf4jnsgd1na2vs0mg"},{"bike_id":"b177a830-e596-4432-8406-f3d49a083261","system_id":"levelo_inurba_marseille","lat":43.28177,"lon":5.42649,"is_reserved":false,"is_disabled":false,"rental_uris":{"android":"levelo://app?vid=b177a830-e596-4432-8406-f3d49a083261","ios":"levelo://app?vid=b177a830-e596-4432-8406-f3d49a083261"},"vehicle_type_id":"4","last_reported":1738314557,"current_range_meters":22400,"station_id":"ce4bhnh2rcd13ifvqgug","pricing_plan_id":"cebpf4jnsgd1na2vs0mg"},{"bike_id":"f10d9b40-8520-41ee-b039-cd6e7d066065","system_id":"levelo_inurba_marseille","lat":43.26219,"lon":5.37458,"is_reserved":false,"is_disabled":false,"rental_uris":{"android":"levelo://app?vid=f10d9b40-8520-41ee-b039-cd6e7d066065","ios":"levelo://app?vid=f10d9b40-8520-41ee-b039-cd6e7d066065"},"vehicle_type_id":"4","last_reported":1738314557,"current_range_meters":34000,"station_id":"ce4bhgp2rcd13ifvqfc0","pricing_plan_id":"cebpf4jnsgd1na2vs0mg"},{"bike_id":"7dacd3f8-aad8-4674-bea1-60dcb6b675dc","system_id":"levelo_inurba_marseille","lat":43.29844,"lon":5.36284,"is_reserved":false,"is_disabled":false,"rental_uris":{"android":"levelo://app?vid=7dacd3f8-aad8-4674-bea1-60dcb6b675dc","ios":"levelo://app?vid=7dacd3f8-aad8-4674-bea1-60dcb6b675dc"},"vehicle_type_id":"4","last_reported":1738314557,"current_range_meters":38000,"station_id":"ce4bgpp2rcd13ifvqc3g","pricing_plan_id":"cebpf4jnsgd1na2vs0mg"},{"bike_id":"8f982301-5907-46b6-b1e8-1b8abf5c682a","system_id":"levelo_inurba_marseille","lat":43.26211,"lon":5.37439,"is_reserved":false,"is_disabled":false,"rental_uris":{"android":"levelo://app?vid=8f982301-5907-46b6-b1e8-1b8abf5c682a","ios":"levelo://app?vid=8f982301-5907-46b6-b1e8-1b8abf5c682a"},"vehicle_type_id":"4","last_reported":1738314557,"current_range_meters":26000,"station_id":"ce4bhgp2rcd13ifvqfc0","pricing_plan_id":"cebpf4jnsgd1na2vs0mg"},{"bike_id":"efe7056c-0b9c-4a4c-83d6-452434e2f890","system_id":"levelo_inurba_marseille","lat":43.26917,"lon":5.38927,"is_reserved":false,"is_disabled":false,"rental_uris":{"android":"levelo://app?vid=efe7056c-0b9c-4a4c-83d6-452434e2f890","ios":"levelo://app?vid=efe7056c-0b9c-4a4c-83d6-452434e2f890"},"vehicle_type_id":"4","last_reported":1738314557,"current_range_meters":24000,"station_id":"ce4bhhh2rcd13ifvqfl0","pricing_plan_id":"cebpf4jnsgd1na2vs0mg"},{"bike_id":"4cc9db8a-03a2-4de4-aca9-21e8ad238f45","system_id":"levelo_inurba_marseille","lat":43.30473,"lon":5.37904,"is_reserved":false,"is_disabled":false,"rental_uris":{"android":"levelo://app?vid=4cc9db8a-03a2-4de4-aca9-21e8ad238f45","ios":"levelo://app?vid=4cc9db8a-03a2-4de4-aca9-21e8ad238f45"},"vehicle_type_id":"4","last_reported":1738314557,"current_range_meters":33600,"station_id":"ce4bgup2rcd13ifvqcn0","pricing_plan_id":"cebpf4jnsgd1na2vs0mg"},{"bike_id":"7d6260ec-6d8c-4d5b-8950-1a493871014c","system_id":"levelo_inurba_marseille","lat":43.298979,"lon":5.436646,"is_reserved":false,"is_disabled":false,"rental_uris":{"android":"levelo://app?vid=7d6260ec-6d8c-4d5b-8950-1a493871014c","ios":"levelo://app?vid=7d6260ec-6d8c-4d5b-8950-1a493871014c"},"vehicle_type_id":"4","last_reported":1738314557,"current_range_meters":30400,"station_id":"ce4bhpp2rcd13ifvqhfg","pricing_plan_id":"cebpf4jnsgd1na2vs0mg"},{"bike_id":"1b91759c-57a8-4292-83bf-b6dd4cd08d36","system_id":"levelo_inurba_marseille","lat":43.27213,"lon":5.39212,"is_reserved":false,"is_disabled":false,"rental_uris":{"android":"levelo://app?vid=1b91759c-57a8-4292-83bf-b6dd4cd08d36","ios":"levelo://app?vid=1b91759c-57a8-4292-83bf-b6dd4cd08d36"},"vehicle_type_id":"4","last_reported":1738314557,"current_range_meters":38400,"station_id":"ce4bhhp2rcd13ifvqfm0","pricing_plan_id":"cebpf4jnsgd1na2vs0mg"},{"bike_id":"1b6fd190-21fa-4758-93db-00b7057d89a9","system_id":"levelo_inurba_marseille","lat":43.257234,"lon":5.411118,"is_reserved":false,"is_disabled":false,"rental_uris":{"android":"levelo://app?vid=1b6fd190-21fa-4758-93db-00b7057d89a9","ios":"levelo://app?vid=1b6fd190-21fa-4758-93db-00b7057d89a9"},"vehicle_type_id":"4","last_reported":1738314557,"current_range_meters":35600,"station_id":"ce4bhkp2rcd13ifvqgd0","pricing_plan_id":"cebpf4jnsgd1na2vs0mg"},{"bike_id":"2b23f237-33fe-4b62-96f9-57bc3344dc1b","system_id":"levelo_inurba_marseille","lat":43.30306,"lon":5.36903,"is_reserved":false,"is_disabled":false,"rental_uris":{"android":"levelo://app?vid=2b23f237-33fe-4b62-96f9-57bc3344dc1b","ios":"levelo://app?vid=2b23f237-33fe-4b62-96f9-57bc3344dc1b"},"vehicle_type_id":"4","last_reported":1738314557,"current_range_meters":8000,"station_id":"ce4bgqh2rcd13ifvqc5g","pricing_plan_id":"cebpf4jnsgd1na2vs0mg"},{"bike_id":"26cae171-ab9b-4d56-875a-045fe9083ed8","system_id":"levelo_inurba_marseille","lat":43.31168,"lon":5.38725,"is_reserved":false,"is_disabled":false,"rental_uris":{"android":"levelo://app?vid=26cae171-ab9b-4d56-875a-045fe9083ed8","ios":"levelo://app?vid=26cae171-ab9b-4d56-875a-045fe9083ed8"},"vehicle_type_id":"4","last_reported":1738314557,"current_range_meters":24000,"station_id":"ce4bgv12rcd13ifvqcp0","pricing_plan_id":"cebpf4jnsgd1na2vs0mg"},{"bike_id":"d8b1c3f9-ff6e-4179-8423-4ba0d2a2af0e","system_id":"levelo_inurba_marseille","lat":43.3372,"lon":5.39202,"is_reserved":false,"is_disabled":false,"rental_uris":{"android":"levelo://app?vid=d8b1c3f9-ff6e-4179-8423-4ba0d2a2af0e","ios":"levelo://app?vid=d8b1c3f9-ff6e-4179-8423-4ba0d2a2af0e"},"vehicle_type_id":"4","last_reported":1738314557,"current_range_meters":39200,"station_id":"ce4bhr92rcd13ifvqhsg","pricing_plan_id":"cebpf4jnsgd1na2vs0mg"},{"bike_id":"04ff2fdd-e2be-419b-b511-04d5aab6064b","system_id":"levelo_inurba_marseille","lat":43.30245,"lon":5.40066,"is_reserved":false,"is_disabled":false,"rental_uris":{"android":"levelo://app?vid=04ff2fdd-e2be-419b-b511-04d5aab6064b","ios":"levelo://app?vid=04ff2fdd-e2be-419b-b511-04d5aab6064b"},"vehicle_type_id":"4","last_reported":1738314557,"current_range_meters":4000,"station_id":"ce4bgvh2rcd13ifvqcs0","pricing_plan_id":"cebpf4jnsgd1na2vs0mg"},{"bike_id":"165e3b0d-7743-4294-bc7c-13df3cfe9383","system_id":"levelo_inurba_marseille","lat":43.27208,"lon":5.39197,"is_reserved":false,"is_disabled":true,"rental_uris":{"android":"levelo://app?vid=165e3b0d-7743-4294-bc7c-13df3cfe9383","ios":"levelo://app?vid=165e3b0d-7743-4294-bc7c-13df3cfe9383"},"vehicle_type_id":"4","last_reported":1738314557,"current_range_meters":37600,"station_id":"ce4bhhp2rcd13ifvqfm0","pricing_plan_id":"cebpf4jnsgd1na2vs0mg"},{"bike_id":"37a316fb-b3fd-47c4-b337-ae3ed2613770","system_id":"levelo_inurba_marseille","lat":43.25856,"lon":5.399,"is_reserved":false,"is_disabled":false,"rental_uris":{"android":"levelo://app?vid=37a316fb-b3fd-47c4-b337-ae3ed2613770","ios":"levelo://app?vid=37a316fb-b3fd-47c4-b337-ae3ed2613770"},"vehicle_type_id":"4","last_reported":1738314557,"current_range_meters":14000,"station_id":"ce4bhl92rcd13ifvqghg","pricing_plan_id":"cebpf4jnsgd1na2vs0mg"},{"bike_id":"520c39ce-f03c-4286-af26-3f5510aa22b8","system_id":"levelo_inurba_marseille","lat":43.2749,"lon":5.4245,"is_reserved":false,"is_disabled":false,"rental_uris":{"android":"levelo://app?vid=520c39ce-f03c-4286-af26-3f5510aa22b8","ios":"levelo://app?vid=520c39ce-f03c-4286-af26-3f5510aa22b8"},"vehicle_type_id":"4","last_reported":1738314557,"current_range_meters":24000,"station_id":"ce4bhn92rcd13ifvqgrg","pricing_plan_id":"cebpf4jnsgd1na2vs0mg"},{"bike_id":"e24f3e17-69b1-4221-8f33-9ff073fc1fa9","system_id":"levelo_inurba_marseille","lat":43.2649,"lon":5.39548,"is_reserved":false,"is_disabled":false,"rental_uris":{"android":"levelo://app?vid=e24f3e17-69b1-4221-8f33-9ff073fc1fa9","ios":"levelo://app?vid=e24f3e17-69b1-4221-8f33-9ff073fc1fa9"},"vehicle_type_id":"4","last_reported":1738314557,"current_range_meters":28400,"station_id":"ce4bhi12rcd13ifvqfq0","pricing_plan_id":"cebpf4jnsgd1na2vs0mg"},{"bike_id":"4d73c34c-8324-421e-8d75-d402308ad3e2","system_id":"levelo_inurba_marseille","lat":43.3049,"lon":5.37906,"is_reserved":false,"is_disabled":false,"rental_uris":{"android":"levelo://app?vid=4d73c34c-8324-421e-8d75-d402308ad3e2","ios":"levelo://app?vid=4d73c34c-8324-421e-8d75-d402308ad3e2"},"vehicle_type_id":"4","last_reported":1738314557,"current_range_meters":25600,"station_id":"ce4bgup2rcd13ifvqcn0","pricing_plan_id":"cebpf4jnsgd1na2vs0mg"},{"bike_id":"5fe1723e-b040-42b2-968c-0f91cc4a35fb","system_id":"levelo_inurba_marseille","lat":43.31243,"lon":5.36848,"is_reserved":false,"is_disabled":false,"rental_uris":{"android":"levelo://app?vid=5fe1723e-b040-42b2-968c-0f91cc4a35fb","ios":"levelo://app?vid=5fe1723e-b040-42b2-968c-0f91cc4a35fb"},"vehicle_type_id":"4","last_reported":1738314557,"current_range_meters":38000,"station_id":"ce4bgl92rcd13ifvqbq0","pricing_plan_id":"cebpf4jnsgd1na2vs0mg"},{"bike_id":"987d394c-f4fd-420b-a640-a44b12cfb998","system_id":"levelo_inurba_marseille","lat":43.27216,"lon":5.392,"is_reserved":false,"is_disabled":false,"rental_uris":{"android":"levelo://app?vid=987d394c-f4fd-420b-a640-a44b12cfb998","ios":"levelo://app?vid=987d394c-f4fd-420b-a640-a44b12cfb998"},"vehicle_type_id":"4","last_reported":1738314557,"current_range_meters":38800,"station_id":"ce4bhhp2rcd13ifvqfm0","pricing_plan_id":"cebpf4jnsgd1na2vs0mg"},{"bike_id":"ee2f7bfb-3705-464e-83a9-c7d8ae9c26d7","system_id":"levelo_inurba_marseille","lat":43.30307,"lon":5.36922,"is_reserved":false,"is_disabled":false,"rental_uris":{"android":"levelo://app?vid=ee2f7bfb-3705-464e-83a9-c7d8ae9c26d7","ios":"levelo://app?vid=ee2f7bfb-3705-464e-83a9-c7d8ae9c26d7"},"vehicle_type_id":"4","last_reported":1738314557,"current_range_meters":18800,"station_id":"ce4bgqh2rcd13ifvqc5g","pricing_plan_id":"cebpf4jnsgd1na2vs0mg"},{"bike_id":"7208d5bc-dadf-4d7c-9707-5667f95f0cff","system_id":"levelo_inurba_marseille","lat":43.29865,"lon":5.39721,"is_reserved":false,"is_disabled":false,"rental_uris":{"android":"levelo://app?vid=7208d5bc-dadf-4d7c-9707-5667f95f0cff","ios":"levelo://app?vid=7208d5bc-dadf-4d7c-9707-5667f95f0cff"},"vehicle_type_id":"4","last_reported":1738314557,"current_range_meters":31200,"station_id":"ce4bh0h2rcd13ifvqd50","pricing_plan_id":"cebpf4jnsgd1na2vs0mg"},{"bike_id":"1dec9efd-4980-4fe7-9942-03afb846a5e9","system_id":"levelo_inurba_marseille","lat":43.259383,"lon":5.409007,"is_reserved":false,"is_disabled":false,"rental_uris":{"android":"levelo://app?vid=1dec9efd-4980-4fe7-9942-03afb846a5e9","ios":"levelo://app?vid=1dec9efd-4980-4fe7-9942-03afb846a5e9"},"vehicle_type_id":"4","last_reported":1738314557,"current_range_meters":9200,"station_id":"ce4bhm92rcd13ifvqglg","pricing_plan_id":"cebpf4jnsgd1na2vs0mg"},{"bike_id":"3e7ae16a-8dc5-4e6e-b0da-3f89c3a3dbf7","system_id":"levelo_inurba_marseille","lat":43.34159,"lon":5.40901,"is_reserved":false,"is_disabled":false,"rental_uris":{"android":"levelo://app?vid=3e7ae16a-8dc5-4e6e-b0da-3f89c3a3dbf7","ios":"levelo://app?vid=3e7ae16a-8dc5-4e6e-b0da-3f89c3a3dbf7"},"vehicle_type_id":"4","last_reported":1738314557,"current_range_meters":39200,"station_id":"ce4bhqh2rcd13ifvqhlg","pricing_plan_id":"cebpf4jnsgd1na2vs0mg"},{"bike_id":"92da4d26-0347-4329-a990-2cee2c00956b","system_id":"levelo_inurba_marseille","lat":43.26668,"lon":5.3828,"is_reserved":false,"is_disabled":false,"rental_uris":{"android":"levelo://app?vid=92da4d26-0347-4329-a990-2cee2c00956b","ios":"levelo://app?vid=92da4d26-0347-4329-a990-2cee2c00956b"},"vehicle_type_id":"4","last_reported":1738314557,"current_range_meters":16400,"station_id":"ce4bhg92rcd13ifvqf90","pricing_plan_id":"cebpf4jnsgd1na2vs0mg"},{"bike_id":"d98678c3-7f26-4497-91c2-cba8237ee9ad","system_id":"levelo_inurba_marseille","lat":43.325415,"lon":5.414362,"is_reserved":false,"is_disabled":false,"rental_uris":{"android":"levelo://app?vid=d98678c3-7f26-4497-91c2-cba8237ee9ad","ios":"levelo://app?vid=d98678c3-7f26-4497-91c2-cba8237ee9ad"},"vehicle_type_id":"4","last_reported":1738314557,"current_range_meters":39200,"station_id":"ce4bhq12rcd13ifvqhhg","pricing_plan_id":"cebpf4jnsgd1na2vs0mg"},{"bike_id":"dc2b7f95-24d7-4c3e-a8c0-d3a5a0018e28","system_id":"levelo_inurba_marseille","lat":43.2749,"lon":5.42463,"is_reserved":false,"is_disabled":false,"rental_uris":{"android":"levelo://app?vid=dc2b7f95-24d7-4c3e-a8c0-d3a5a0018e28","ios":"levelo://app?vid=dc2b7f95-24d7-4c3e-a8c0-d3a5a0018e28"},"vehicle_type_id":"4","last_reported":1738314557,"current_range_meters":10000,"station_id":"ce4bhn92rcd13ifvqgrg","pricing_plan_id":"cebpf4jnsgd1na2vs0mg"},{"bike_id":"39fda13f-0f56-4d84-bd3a-f99078c8032f","system_id":"levelo_inurba_marseille","lat":43.29859,"lon":5.36291,"is_reserved":false,"is_disabled":false,"rental_uris":{"android":"levelo://app?vid=39fda13f-0f56-4d84-bd3a-f99078c8032f","ios":"levelo://app?vid=39fda13f-0f56-4d84-bd3a-f99078c8032f"},"vehicle_type_id":"4","last_reported":1738314557,"current_range_meters":39200,"station_id":"ce4bgpp2rcd13ifvqc3g","pricing_plan_id":"cebpf4jnsgd1na2vs0mg"},{"bike_id":"9fd2b53c-c176-4281-adad-9fc6e73930a3","system_id":"levelo_inurba_marseille","lat":43.24068,"lon":5.37752,"is_reserved":false,"is_disabled":false,"rental_uris":{"android":"levelo://app?vid=9fd2b53c-c176-4281-adad-9fc6e73930a3","ios":"levelo://app?vid=9fd2b53c-c176-4281-adad-9fc6e73930a3"},"vehicle_type_id":"4","last_reported":1738314557,"current_range_meters":38400,"station_id":"ce4bhnp2rcd13ifvqgvg","pricing_plan_id":"cebpf4jnsgd1na2vs0mg"},{"bike_id":"5419cc44-aa20-4356-a268-3d350eb2e261","system_id":"levelo_inurba_marseille","lat":43.26952,"lon":5.38642,"is_reserved":false,"is_disabled":false,"rental_uris":{"android":"levelo://app?vid=5419cc44-aa20-4356-a268-3d350eb2e261","ios":"levelo://app?vid=5419cc44-aa20-4356-a268-3d350eb2e261"},"vehicle_type_id":"4","last_reported":1738314557,"current_range_meters":28000,"station_id":"ce4bhh92rcd13ifvqfh0","pricing_plan_id":"cebpf4jnsgd1na2vs0mg"},{"bike_id":"5b14f240-fedb-46da-87e6-316138eaf05e","system_id":"levelo_inurba_marseille","lat":43.30282,"lon":5.37717,"is_reserved":false,"is_disabled":false,"rental_uris":{"android":"levelo://app?vid=5b14f240-fedb-46da-87e6-316138eaf05e","ios":"levelo://app?vid=5b14f240-fedb-46da-87e6-316138eaf05e"},"vehicle_type_id":"4","last_reported":1738314557,"current_range_meters":29600,"station_id":"ce4bguh2rcd13ifvqcj0","pricing_plan_id":"cebpf4jnsgd1na2vs0mg"},{"bike_id":"101628df-1e09-4ff6-8e87-4204c0cd24f4","system_id":"levelo_inurba_marseille","lat":43.26042,"lon":5.39379,"is_reserved":false,"is_disabled":false,"rental_uris":{"android":"levelo://app?vid=101628df-1e09-4ff6-8e87-4204c0cd24f4","ios":"levelo://app?vid=101628df-1e09-4ff6-8e87-4204c0cd24f4"},"vehicle_type_id":"4","last_reported":1738314557,"current_range_meters":38000,"station_id":"ce4bhh92rcd13ifvqfj0","pricing_plan_id":"cebpf4jnsgd1na2vs0mg"},{"bike_id":"cd6b353a-d9ae-47b8-9eb1-cf960e9a39fe","system_id":"levelo_inurba_marseille","lat":43.2928,"lon":5.36812,"is_reserved":false,"is_disabled":false,"rental_uris":{"android":"levelo://app?vid=cd6b353a-d9ae-47b8-9eb1-cf960e9a39fe","ios":"levelo://app?vid=cd6b353a-d9ae-47b8-9eb1-cf960e9a39fe"},"vehicle_type_id":"4","last_reported":1738314557,"current_range_meters":10800,"station_id":"ce4bhbp2rcd13ifvqesg","pricing_plan_id":"cebpf4jnsgd1na2vs0mg"},{"bike_id":"9061c30b-f0f7-46e3-8477-d3c2c36b1f53","system_id":"levelo_inurba_marseille","lat":43.28038,"lon":5.36964,"is_reserved":false,"is_disabled":true,"rental_uris":{"android":"levelo://app?vid=9061c30b-f0f7-46e3-8477-d3c2c36b1f53","ios":"levelo://app?vid=9061c30b-f0f7-46e3-8477-d3c2c36b1f53"},"vehicle_type_id":"4","last_reported":1738314557,"current_range_meters":38000,"station_id":"ce4bha12rcd13ifvqef0","pricing_plan_id":"cebpf4jnsgd1na2vs0mg"},{"bike_id":"b47546f7-90c4-40f8-abd8-4029ca471b85","system_id":"levelo_inurba_marseille","lat":43.27365,"lon":5.36246,"is_reserved":false,"is_disabled":false,"rental_uris":{"android":"levelo://app?vid=b47546f7-90c4-40f8-abd8-4029ca471b85","ios":"levelo://app?vid=b47546f7-90c4-40f8-abd8-4029ca471b85"},"vehicle_type_id":"4","last_reported":1738314557,"current_range_meters":38000,"station_id":"ce4bhbh2rcd13ifvqeo0","pricing_plan_id":"cebpf4jnsgd1na2vs0mg"},{"bike_id":"16993b99-1b15-4df1-9c73-04bda390870f","system_id":"levelo_inurba_marseille","lat":43.279,"lon":5.38024,"is_reserved":false,"is_disabled":false,"rental_uris":{"android":"levelo://app?vid=16993b99-1b15-4df1-9c73-04bda390870f","ios":"levelo://app?vid=16993b99-1b15-4df1-9c73-04bda390870f"},"vehicle_type_id":"4","last_reported":1738314557,"current_range_meters":38400,"station_id":"ce4bhf92rcd13ifvqf50","pricing_plan_id":"cebpf4jnsgd1na2vs0mg"},{"bike_id":"2125c853-fec5-4b7f-9cc1-7d4128611209","system_id":"levelo_inurba_marseille","lat":43.304567,"lon":5.379003,"is_reserved":false,"is_disabled":false,"rental_uris":{"android":"levelo://app?vid=2125c853-fec5-4b7f-9cc1-7d4128611209","ios":"levelo://app?vid=2125c853-fec5-4b7f-9cc1-7d4128611209"},"vehicle_type_id":"4","last_reported":1738314557,"current_range_meters":30400,"station_id":"ce4bgup2rcd13ifvqcn0","pricing_plan_id":"cebpf4jnsgd1na2vs0mg"},{"bike_id":"e76772ad-4d7b-4743-aa72-133535f3d9df","system_id":"levelo_inurba_marseille","lat":43.296239,"lon":5.377045,"is_reserved":false,"is_disabled":true,"rental_uris":{"android":"levelo://app?vid=e76772ad-4d7b-4743-aa72-133535f3d9df","ios":"levelo://app?vid=e76772ad-4d7b-4743-aa72-133535f3d9df"},"vehicle_type_id":"4","last_reported":1738314557,"current_range_meters":0,"station_id":"","pricing_plan_id":"cebpf4jnsgd1na2vs0mg"},{"bike_id":"ab2c796a-c23b-4a3a-9534-777b873d6a05","system_id":"levelo_inurba_marseille","lat":43.24145,"lon":5.36435,"is_reserved":false,"is_disabled":false,"rental_uris":{"android":"levelo://app?vid=ab2c796a-c23b-4a3a-9534-777b873d6a05","ios":"levelo://app?vid=ab2c796a-c23b-4a3a-9534-777b873d6a05"},"vehicle_type_id":"4","last_reported":1738314557,"current_range_meters":37600,"station_id":"cpo36qri1sfpv3e86is0","pricing_plan_id":"cebpf4jnsgd1na2vs0mg"},{"bike_id":"a22bc9df-d568-4f1f-a1e9-de3b4dbe67fd","system_id":"levelo_inurba_marseille","lat":43.28424,"lon":5.35034,"is_reserved":false,"is_disabled":false,"rental_uris":{"android":"levelo://app?vid=a22bc9df-d568-4f1f-a1e9-de3b4dbe67fd","ios":"levelo://app?vid=a22bc9df-d568-4f1f-a1e9-de3b4dbe67fd"},"vehicle_type_id":"4","last_reported":1738314557,"current_range_meters":14800,"station_id":"","pricing_plan_id":"cebpf4jnsgd1na2vs0mg"},{"bike_id":"0475cbd6-ae45-4a7b-ad08-c7ffeb3d4b97","system_id":"levelo_inurba_marseille","lat":43.28277,"lon":5.35019,"is_reserved":false,"is_disabled":false,"rental_uris":{"android":"levelo://app?vid=0475cbd6-ae45-4a7b-ad08-c7ffeb3d4b97","ios":"levelo://app?vid=0475cbd6-ae45-4a7b-ad08-c7ffeb3d4b97"},"vehicle_type_id":"4","last_reported":1738314557,"current_range_meters":24400,"station_id":"ce4bhbp2rcd13ifvqerg","pricing_plan_id":"cebpf4jnsgd1na2vs0mg"},{"bike_id":"58feef8f-17b5-470d-8151-c7a13f0dbe24","system_id":"levelo_inurba_marseille","lat":43.28417,"lon":5.37517,"is_reserved":false,"is_disabled":true,"rental_uris":{"android":"levelo://app?vid=58feef8f-17b5-470d-8151-c7a13f0dbe24","ios":"levelo://app?vid=58feef8f-17b5-470d-8151-c7a13f0dbe24"},"vehicle_type_id":"4","last_reported":1738314557,"current_range_meters":1600,"station_id":"ce4bh412rcd13ifvqds0","pricing_plan_id":"cebpf4jnsgd1na2vs0mg"},{"bike_id":"0f168e02-8dfe-4ea2-8c6e-e54d7054b03a","system_id":"levelo_inurba_marseille","lat":43.29412,"lon":5.38628,"is_reserved":false,"is_disabled":false,"rental_uris":{"android":"levelo://app?vid=0f168e02-8dfe-4ea2-8c6e-e54d7054b03a","ios":"levelo://app?vid=0f168e02-8dfe-4ea2-8c6e-e54d7054b03a"},"vehicle_type_id":"4","last_reported":1738314557,"current_range_meters":27600,"station_id":"ce4bh2h2rcd13ifvqdh0","pricing_plan_id":"cebpf4jnsgd1na2vs0mg"},{"bike_id":"8178c7cd-e4fb-427f-b81c-4c8471f4af55","system_id":"levelo_inurba_marseille","lat":43.24067,"lon":5.37753,"is_reserved":false,"is_disabled":false,"rental_uris":{"android":"levelo://app?vid=8178c7cd-e4fb-427f-b81c-4c8471f4af55","ios":"levelo://app?vid=8178c7cd-e4fb-427f-b81c-4c8471f4af55"},"vehicle_type_id":"4","last_reported":1738314557,"current_range_meters":19200,"station_id":"ce4bhnp2rcd13ifvqgvg","pricing_plan_id":"cebpf4jnsgd1na2vs0mg"},{"bike_id":"59c84c8c-f740-4013-8df2-50bb9ed0c76d","system_id":"levelo_inurba_marseille","lat":43.25071,"lon":5.39521,"is_reserved":false,"is_disabled":false,"rental_uris":{"android":"levelo://app?vid=59c84c8c-f740-4013-8df2-50bb9ed0c76d","ios":"levelo://app?vid=59c84c8c-f740-4013-8df2-50bb9ed0c76d"},"vehicle_type_id":"4","last_reported":1738314557,"current_range_meters":38800,"station_id":"ce4bhm12rcd13ifvqgkg","pricing_plan_id":"cebpf4jnsgd1na2vs0mg"},{"bike_id":"3f831f4c-410d-4190-abe8-83cfa2caa92f","system_id":"levelo_inurba_marseille","lat":43.29081,"lon":5.38154,"is_reserved":false,"is_disabled":false,"rental_uris":{"android":"levelo://app?vid=3f831f4c-410d-4190-abe8-83cfa2caa92f","ios":"levelo://app?vid=3f831f4c-410d-4190-abe8-83cfa2caa92f"},"vehicle_type_id":"4","last_reported":1738314557,"current_range_meters":30000,"station_id":"ce4bh512rcd13ifvqe2g","pricing_plan_id":"cebpf4jnsgd1na2vs0mg"},{"bike_id":"b3f9d40e-c6c3-4e70-a1cf-be32056d433c","system_id":"levelo_inurba_marseille","lat":43.2439,"lon":5.37069,"is_reserved":false,"is_disabled":true,"rental_uris":{"android":"levelo://app?vid=b3f9d40e-c6c3-4e70-a1cf-be32056d433c","ios":"levelo://app?vid=b3f9d40e-c6c3-4e70-a1cf-be32056d433c"},"vehicle_type_id":"4","last_reported":1738314557,"current_range_meters":0,"station_id":"ce4bhhh2rcd13ifvqfk0","pricing_plan_id":"cebpf4jnsgd1na2vs0mg"},{"bike_id":"d9ed5303-640c-4034-8a17-1ad90548a427","system_id":"levelo_inurba_marseille","lat":43.25093,"lon":5.3952,"is_reserved":false,"is_disabled":false,"rental_uris":{"android":"levelo://app?vid=d9ed5303-640c-4034-8a17-1ad90548a427","ios":"levelo://app?vid=d9ed5303-640c-4034-8a17-1ad90548a427"},"vehicle_type_id":"4","last_reported":1738314557,"current_range_meters":38800,"station_id":"ce4bhm12rcd13ifvqgkg","pricing_plan_id":"cebpf4jnsgd1na2vs0mg"},{"bike_id":"fc2dee61-6a5e-41ce-a75c-e2029dcb39bc","system_id":"levelo_inurba_marseille","lat":43.26553,"lon":5.37276,"is_reserved":false,"is_disabled":false,"rental_uris":{"android":"levelo://app?vid=fc2dee61-6a5e-41ce-a75c-e2029dcb39bc","ios":"levelo://app?vid=fc2dee61-6a5e-41ce-a75c-e2029dcb39bc"},"vehicle_type_id":"4","last_reported":1738314557,"current_range_meters":14800,"station_id":"ce4bhg12rcd13ifvqf70","pricing_plan_id":"cebpf4jnsgd1na2vs0mg"},{"bike_id":"f099780e-5154-4312-b743-b1d2c1afb968","system_id":"levelo_inurba_marseille","lat":43.30885,"lon":5.37208,"is_reserved":false,"is_disabled":true,"rental_uris":{"android":"levelo://app?vid=f099780e-5154-4312-b743-b1d2c1afb968","ios":"levelo://app?vid=f099780e-5154-4312-b743-b1d2c1afb968"},"vehicle_type_id":"4","last_reported":1738314557,"current_range_meters":1200,"station_id":"ce4bguh2rcd13ifvqckg","pricing_plan_id":"cebpf4jnsgd1na2vs0mg"},{"bike_id":"98d3b3e4-cfb0-4926-8be8-90a8034d23db","system_id":"levelo_inurba_marseille","lat":43.283498,"lon":5.381012,"is_reserved":false,"is_disabled":false,"rental_uris":{"android":"levelo://app?vid=98d3b3e4-cfb0-4926-8be8-90a8034d23db","ios":"levelo://app?vid=98d3b3e4-cfb0-4926-8be8-90a8034d23db"},"vehicle_type_id":"4","last_reported":1738314557,"current_range_meters":39200,"station_id":"ce4bh412rcd13ifvqdr0","pricing_plan_id":"cebpf4jnsgd1na2vs0mg"},{"bike_id":"c9d20610-5d5e-4bf9-84eb-65e4cbfa80ef","system_id":"levelo_inurba_marseille","lat":43.28974,"lon":5.37848,"is_reserved":false,"is_disabled":false,"rental_uris":{"android":"levelo://app?vid=c9d20610-5d5e-4bf9-84eb-65e4cbfa80ef","ios":"levelo://app?vid=c9d20610-5d5e-4bf9-84eb-65e4cbfa80ef"},"vehicle_type_id":"4","last_reported":1738314557,"current_range_meters":22000,"station_id":"ce4bh9p2rcd13ifvqed0","pricing_plan_id":"cebpf4jnsgd1na2vs0mg"},{"bike_id":"28e881d1-0d7a-445a-bd5a-bac2f44cfb8c","system_id":"levelo_inurba_marseille","lat":43.25941,"lon":5.40921,"is_reserved":false,"is_disabled":true,"rental_uris":{"android":"levelo://app?vid=28e881d1-0d7a-445a-bd5a-bac2f44cfb8c","ios":"levelo://app?vid=28e881d1-0d7a-445a-bd5a-bac2f44cfb8c"},"vehicle_type_id":"4","last_reported":1738314557,"current_range_meters":11600,"station_id":"ce4bhm92rcd13ifvqglg","pricing_plan_id":"cebpf4jnsgd1na2vs0mg"},{"bike_id":"e8e1f7c6-d773-4c38-bfcc-4a6d773355ce","system_id":"levelo_inurba_marseille","lat":43.22939,"lon":5.353858,"is_reserved":false,"is_disabled":false,"rental_uris":{"android":"levelo://app?vid=e8e1f7c6-d773-4c38-bfcc-4a6d773355ce","ios":"levelo://app?vid=e8e1f7c6-d773-4c38-bfcc-4a6d773355ce"},"vehicle_type_id":"4","last_reported":1738314557,"current_range_meters":38800,"station_id":"cpo3532slgdg3j2ikp40","pricing_plan_id":"cebpf4jnsgd1na2vs0mg"},{"bike_id":"57b7807f-dadf-4a68-98f3-8bb7398bbe27","system_id":"levelo_inurba_marseille","lat":43.26933,"lon":5.402472,"is_reserved":false,"is_disabled":false,"rental_uris":{"android":"levelo://app?vid=57b7807f-dadf-4a68-98f3-8bb7398bbe27","ios":"levelo://app?vid=57b7807f-dadf-4a68-98f3-8bb7398bbe27"},"vehicle_type_id":"4","last_reported":1738314557,"current_range_meters":24000,"station_id":"cjm6bp8fraef2m0cb0m0","pricing_plan_id":"cebpf4jnsgd1na2vs0mg"},{"bike_id":"9c577c7e-bb6a-4366-a029-5d396357d344","system_id":"levelo_inurba_marseille","lat":43.29609,"lon":5.36759,"is_reserved":false,"is_disabled":false,"rental_uris":{"android":"levelo://app?vid=9c577c7e-bb6a-4366-a029-5d396357d344","ios":"levelo://app?vid=9c577c7e-bb6a-4366-a029-5d396357d344"},"vehicle_type_id":"4","last_reported":1738314557,"current_range_meters":37600,"station_id":"ce4bgph2rcd13ifvqc2g","pricing_plan_id":"cebpf4jnsgd1na2vs0mg"},{"bike_id":"a8724ee6-b513-4f53-b4c5-2a4d573c4309","system_id":"levelo_inurba_marseille","lat":43.31363,"lon":5.36723,"is_reserved":false,"is_disabled":false,"rental_uris":{"android":"levelo://app?vid=a8724ee6-b513-4f53-b4c5-2a4d573c4309","ios":"levelo://app?vid=a8724ee6-b513-4f53-b4c5-2a4d573c4309"},"vehicle_type_id":"4","last_reported":1738314557,"current_range_meters":28400,"station_id":"ce4bgr92rcd13ifvqc6g","pricing_plan_id":"cebpf4jnsgd1na2vs0mg"},{"bike_id":"e04f22a3-2cfb-4602-ab8d-ae5a2a9f468c","system_id":"levelo_inurba_marseille","lat":43.29298,"lon":5.3746,"is_reserved":false,"is_disabled":false,"rental_uris":{"android":"levelo://app?vid=e04f22a3-2cfb-4602-ab8d-ae5a2a9f468c","ios":"levelo://app?vid=e04f22a3-2cfb-4602-ab8d-ae5a2a9f468c"},"vehicle_type_id":"4","last_reported":1738314557,"current_range_meters":30000,"station_id":"ce4bgi12rcd13ifvqb70","pricing_plan_id":"cebpf4jnsgd1na2vs0mg"},{"bike_id":"e3d8a223-fb6b-449d-8e45-ad3295748cda","system_id":"levelo_inurba_marseille","lat":43.29427,"lon":5.38215,"is_reserved":false,"is_disabled":false,"rental_uris":{"android":"levelo://app?vid=e3d8a223-fb6b-449d-8e45-ad3295748cda","ios":"levelo://app?vid=e3d8a223-fb6b-449d-8e45-ad3295748cda"},"vehicle_type_id":"4","last_reported":1738314557,"current_range_meters":36800,"station_id":"","pricing_plan_id":"cebpf4jnsgd1na2vs0mg"},{"bike_id":"8bc009e3-1ce5-45c9-b779-06d6abd79b42","system_id":"levelo_inurba_marseille","lat":43.31118,"lon":5.37772,"is_reserved":false,"is_disabled":false,"rental_uris":{"android":"levelo://app?vid=8bc009e3-1ce5-45c9-b779-06d6abd79b42","ios":"levelo://app?vid=8bc009e3-1ce5-45c9-b779-06d6abd79b42"},"vehicle_type_id":"4","last_reported":1738314557,"current_range_meters":24000,"station_id":"ce4bgt92rcd13ifvqcg0","pricing_plan_id":"cebpf4jnsgd1na2vs0mg"},{"bike_id":"386a8e71-6eb7-430d-9b2f-f931fb30041c","system_id":"levelo_inurba_marseille","lat":43.30194,"lon":5.39765,"is_reserved":false,"is_disabled":false,"rental_uris":{"android":"levelo://app?vid=386a8e71-6eb7-430d-9b2f-f931fb30041c","ios":"levelo://app?vid=386a8e71-6eb7-430d-9b2f-f931fb30041c"},"vehicle_type_id":"4","last_reported":1738314557,"current_range_meters":22000,"station_id":"ce4bh0h2rcd13ifvqd40","pricing_plan_id":"cebpf4jnsgd1na2vs0mg"},{"bike_id":"373bfe74-d76a-4cb7-9e90-95f400400236","system_id":"levelo_inurba_marseille","lat":43.31757,"lon":5.39017,"is_reserved":false,"is_disabled":false,"rental_uris":{"android":"levelo://app?vid=373bfe74-d76a-4cb7-9e90-95f400400236","ios":"levelo://app?vid=373bfe74-d76a-4cb7-9e90-95f400400236"},"vehicle_type_id":"4","last_reported":1738314557,"current_range_meters":37600,"station_id":"ce4bhqp2rcd13ifvqhng","pricing_plan_id":"cebpf4jnsgd1na2vs0mg"},{"bike_id":"de1813f4-44ef-456f-9b4c-749914e29e87","system_id":"levelo_inurba_marseille","lat":43.29685,"lon":5.3729,"is_reserved":false,"is_disabled":false,"rental_uris":{"android":"levelo://app?vid=de1813f4-44ef-456f-9b4c-749914e29e87","ios":"levelo://app?vid=de1813f4-44ef-456f-9b4c-749914e29e87"},"vehicle_type_id":"4","last_reported":1738314557,"current_range_meters":28800,"station_id":"ce4bgk12rcd13ifvqbj0","pricing_plan_id":"cebpf4jnsgd1na2vs0mg"},{"bike_id":"60335d1b-4a92-46bd-8eca-dffb02768c78","system_id":"levelo_inurba_marseille","lat":43.25001,"lon":5.38955,"is_reserved":false,"is_disabled":false,"rental_uris":{"android":"levelo://app?vid=60335d1b-4a92-46bd-8eca-dffb02768c78","ios":"levelo://app?vid=60335d1b-4a92-46bd-8eca-dffb02768c78"},"vehicle_type_id":"4","last_reported":1738314557,"current_range_meters":17200,"station_id":"ce4bhgp2rcd13ifvqfd0","pricing_plan_id":"cebpf4jnsgd1na2vs0mg"},{"bike_id":"60911234-26e8-4f42-acbb-88b4c360ca2e","system_id":"levelo_inurba_marseille","lat":43.24998,"lon":5.38931,"is_reserved":false,"is_disabled":false,"rental_uris":{"android":"levelo://app?vid=60911234-26e8-4f42-acbb-88b4c360ca2e","ios":"levelo://app?vid=60911234-26e8-4f42-acbb-88b4c360ca2e"},"vehicle_type_id":"4","last_reported":1738314557,"current_range_meters":32000,"station_id":"ce4bhgp2rcd13ifvqfd0","pricing_plan_id":"cebpf4jnsgd1na2vs0mg"},{"bike_id":"c837f71d-2688-466a-b96d-e6d4865e5925","system_id":"levelo_inurba_marseille","lat":43.30537,"lon":5.36735,"is_reserved":false,"is_disabled":false,"rental_uris":{"android":"levelo://app?vid=c837f71d-2688-466a-b96d-e6d4865e5925","ios":"levelo://app?vid=c837f71d-2688-466a-b96d-e6d4865e5925"},"vehicle_type_id":"4","last_reported":1738314557,"current_range_meters":38800,"station_id":"ce4bgrp2rcd13ifvqc9g","pricing_plan_id":"cebpf4jnsgd1na2vs0mg"},{"bike_id":"070218cf-5f55-4a87-b307-d0bbb1caf6f4","system_id":"levelo_inurba_marseille","lat":43.23183,"lon":5.39988,"is_reserved":false,"is_disabled":false,"rental_uris":{"android":"levelo://app?vid=070218cf-5f55-4a87-b307-d0bbb1caf6f4","ios":"levelo://app?vid=070218cf-5f55-4a87-b307-d0bbb1caf6f4"},"vehicle_type_id":"4","last_reported":1738314557,"current_range_meters":38800,"station_id":"ce4bhn12rcd13ifvqgqg","pricing_plan_id":"cebpf4jnsgd1na2vs0mg"},{"bike_id":"c0dd6acb-e111-4830-b706-614809304a0b","system_id":"levelo_inurba_marseille","lat":43.27502,"lon":5.4246,"is_reserved":false,"is_disabled":true,"rental_uris":{"android":"levelo://app?vid=c0dd6acb-e111-4830-b706-614809304a0b","ios":"levelo://app?vid=c0dd6acb-e111-4830-b706-614809304a0b"},"vehicle_type_id":"4","last_reported":1738314557,"current_range_meters":21600,"station_id":"ce4bhn92rcd13ifvqgrg","pricing_plan_id":"cebpf4jnsgd1na2vs0mg"},{"bike_id":"c2b1dc29-a452-4f95-92b6-c46c1343a7f0","system_id":"levelo_inurba_marseille","lat":43.23149,"lon":5.43715,"is_reserved":false,"is_disabled":false,"rental_uris":{"android":"levelo://app?vid=c2b1dc29-a452-4f95-92b6-c46c1343a7f0","ios":"levelo://app?vid=c2b1dc29-a452-4f95-92b6-c46c1343a7f0"},"vehicle_type_id":"4","last_reported":1738314557,"current_range_meters":14000,"station_id":"ce4bhmp2rcd13ifvqgog","pricing_plan_id":"cebpf4jnsgd1na2vs0mg"},{"bike_id":"71f34f72-d3b7-46a5-9bd4-1fe057b3152f","system_id":"levelo_inurba_marseille","lat":43.22935,"lon":5.35365,"is_reserved":false,"is_disabled":false,"rental_uris":{"android":"levelo://app?vid=71f34f72-d3b7-46a5-9bd4-1fe057b3152f","ios":"levelo://app?vid=71f34f72-d3b7-46a5-9bd4-1fe057b3152f"},"vehicle_type_id":"4","last_reported":1738314557,"current_range_meters":39200,"station_id":"cpo3532slgdg3j2ikp40","pricing_plan_id":"cebpf4jnsgd1na2vs0mg"},{"bike_id":"90445bf2-7643-45b5-b4a4-c3dfe9771bc9","system_id":"levelo_inurba_marseille","lat":43.31338,"lon":5.3674,"is_reserved":false,"is_disabled":false,"rental_uris":{"android":"levelo://app?vid=90445bf2-7643-45b5-b4a4-c3dfe9771bc9","ios":"levelo://app?vid=90445bf2-7643-45b5-b4a4-c3dfe9771bc9"},"vehicle_type_id":"4","last_reported":1738314557,"current_range_meters":39200,"station_id":"ce4bgr92rcd13ifvqc6g","pricing_plan_id":"cebpf4jnsgd1na2vs0mg"},{"bike_id":"20029bdd-9f9c-4ff9-86e4-5ba6ed30f46a","system_id":"levelo_inurba_marseille","lat":43.23148,"lon":5.43705,"is_reserved":false,"is_disabled":true,"rental_uris":{"android":"levelo://app?vid=20029bdd-9f9c-4ff9-86e4-5ba6ed30f46a","ios":"levelo://app?vid=20029bdd-9f9c-4ff9-86e4-5ba6ed30f46a"},"vehicle_type_id":"4","last_reported":1738314557,"current_range_meters":0,"station_id":"ce4bhmp2rcd13ifvqgog","pricing_plan_id":"cebpf4jnsgd1na2vs0mg"},{"bike_id":"9a420f87-7d7e-4781-b326-9c09400ca210","system_id":"levelo_inurba_marseille","lat":43.262087,"lon":5.374453,"is_reserved":false,"is_disabled":false,"rental_uris":{"android":"levelo://app?vid=9a420f87-7d7e-4781-b326-9c09400ca210","ios":"levelo://app?vid=9a420f87-7d7e-4781-b326-9c09400ca210"},"vehicle_type_id":"4","last_reported":1738314557,"current_range_meters":38800,"station_id":"ce4bhgp2rcd13ifvqfc0","pricing_plan_id":"cebpf4jnsgd1na2vs0mg"},{"bike_id":"c687eddb-4178-4e1d-94a4-28c26fdd7204","system_id":"levelo_inurba_marseille","lat":43.29855,"lon":5.36273,"is_reserved":false,"is_disabled":true,"rental_uris":{"android":"levelo://app?vid=c687eddb-4178-4e1d-94a4-28c26fdd7204","ios":"levelo://app?vid=c687eddb-4178-4e1d-94a4-28c26fdd7204"},"vehicle_type_id":"4","last_reported":1738314557,"current_range_meters":35600,"station_id":"ce4bgpp2rcd13ifvqc3g","pricing_plan_id":"cebpf4jnsgd1na2vs0mg"},{"bike_id":"279becec-4a79-4c20-8a99-f00d2ae395c1","system_id":"levelo_inurba_marseille","lat":43.3107,"lon":5.38369,"is_reserved":false,"is_disabled":false,"rental_uris":{"android":"levelo://app?vid=279becec-4a79-4c20-8a99-f00d2ae395c1","ios":"levelo://app?vid=279becec-4a79-4c20-8a99-f00d2ae395c1"},"vehicle_type_id":"4","last_reported":1738314557,"current_range_meters":9200,"station_id":"ce4bgv92rcd13ifvqcr0","pricing_plan_id":"cebpf4jnsgd1na2vs0mg"},{"bike_id":"c7b7d5dc-fcd4-4974-ac80-02e658adb2bb","system_id":"levelo_inurba_marseille","lat":43.30153,"lon":5.3808,"is_reserved":false,"is_disabled":false,"rental_uris":{"android":"levelo://app?vid=c7b7d5dc-fcd4-4974-ac80-02e658adb2bb","ios":"levelo://app?vid=c7b7d5dc-fcd4-4974-ac80-02e658adb2bb"},"vehicle_type_id":"4","last_reported":1738314557,"current_range_meters":38800,"station_id":"ce4bgjp2rcd13ifvqbh0","pricing_plan_id":"cebpf4jnsgd1na2vs0mg"},{"bike_id":"7a8503ce-2278-4768-90d1-b87e022c42c6","system_id":"levelo_inurba_marseille","lat":43.28613,"lon":5.3512,"is_reserved":false,"is_disabled":false,"rental_uris":{"android":"levelo://app?vid=7a8503ce-2278-4768-90d1-b87e022c42c6","ios":"levelo://app?vid=7a8503ce-2278-4768-90d1-b87e022c42c6"},"vehicle_type_id":"4","last_reported":1738314557,"current_range_meters":38800,"station_id":"ce4bhch2rcd13ifvqeug","pricing_plan_id":"cebpf4jnsgd1na2vs0mg"},{"bike_id":"77982fa2-73f6-4a85-bb7c-67126c76cf24","system_id":"levelo_inurba_marseille","lat":43.30146,"lon":5.38086,"is_reserved":false,"is_disabled":false,"rental_uris":{"android":"levelo://app?vid=77982fa2-73f6-4a85-bb7c-67126c76cf24","ios":"levelo://app?vid=77982fa2-73f6-4a85-bb7c-67126c76cf24"},"vehicle_type_id":"4","last_reported":1738314557,"current_range_meters":38800,"station_id":"ce4bgjp2rcd13ifvqbh0","pricing_plan_id":"cebpf4jnsgd1na2vs0mg"},{"bike_id":"46fdb6e5-fcb2-4c4b-ab56-c91307ece41d","system_id":"levelo_inurba_marseille","lat":43.28341,"lon":5.38111,"is_reserved":false,"is_disabled":false,"rental_uris":{"android":"levelo://app?vid=46fdb6e5-fcb2-4c4b-ab56-c91307ece41d","ios":"levelo://app?vid=46fdb6e5-fcb2-4c4b-ab56-c91307ece41d"},"vehicle_type_id":"4","last_reported":1738314557,"current_range_meters":36800,"station_id":"ce4bh412rcd13ifvqdr0","pricing_plan_id":"cebpf4jnsgd1na2vs0mg"},{"bike_id":"45fd4a2a-a5dc-4b7e-962f-4641aedb60dd","system_id":"levelo_inurba_marseille","lat":43.2799,"lon":5.41664,"is_reserved":false,"is_disabled":true,"rental_uris":{"android":"levelo://app?vid=45fd4a2a-a5dc-4b7e-962f-4641aedb60dd","ios":"levelo://app?vid=45fd4a2a-a5dc-4b7e-962f-4641aedb60dd"},"vehicle_type_id":"4","last_reported":1738314557,"current_range_meters":35600,"station_id":"ce4bho12rcd13ifvqh1g","pricing_plan_id":"cebpf4jnsgd1na2vs0mg"},{"bike_id":"bbd37f25-b511-4ba3-9ad8-9c3bb19bb776","system_id":"levelo_inurba_marseille","lat":43.30262,"lon":5.36881,"is_reserved":false,"is_disabled":false,"rental_uris":{"android":"levelo://app?vid=bbd37f25-b511-4ba3-9ad8-9c3bb19bb776","ios":"levelo://app?vid=bbd37f25-b511-4ba3-9ad8-9c3bb19bb776"},"vehicle_type_id":"4","last_reported":1738314557,"current_range_meters":19200,"station_id":"ce4bgqh2rcd13ifvqc5g","pricing_plan_id":"cebpf4jnsgd1na2vs0mg"},{"bike_id":"de91c01c-2175-469d-9749-238795ae4a96","system_id":"levelo_inurba_marseille","lat":43.32289,"lon":5.38277,"is_reserved":false,"is_disabled":false,"rental_uris":{"android":"levelo://app?vid=de91c01c-2175-469d-9749-238795ae4a96","ios":"levelo://app?vid=de91c01c-2175-469d-9749-238795ae4a96"},"vehicle_type_id":"4","last_reported":1738314557,"current_range_meters":36000,"station_id":"ce4bhr12rcd13ifvqhqg","pricing_plan_id":"cebpf4jnsgd1na2vs0mg"},{"bike_id":"3388de07-63e7-4f0f-a28f-4753adf55e62","system_id":"levelo_inurba_marseille","lat":43.29599,"lon":5.36913,"is_reserved":false,"is_disabled":false,"rental_uris":{"android":"levelo://app?vid=3388de07-63e7-4f0f-a28f-4753adf55e62","ios":"levelo://app?vid=3388de07-63e7-4f0f-a28f-4753adf55e62"},"vehicle_type_id":"4","last_reported":1738314557,"current_range_meters":30000,"station_id":"ce4bgph2rcd13ifvqc2g","pricing_plan_id":"cebpf4jnsgd1na2vs0mg"},{"bike_id":"4d213e19-460b-4ffc-abf2-31a900d6c917","system_id":"levelo_inurba_marseille","lat":43.2761,"lon":5.36132,"is_reserved":false,"is_disabled":false,"rental_uris":{"android":"levelo://app?vid=4d213e19-460b-4ffc-abf2-31a900d6c917","ios":"levelo://app?vid=4d213e19-460b-4ffc-abf2-31a900d6c917"},"vehicle_type_id":"4","last_reported":1738314557,"current_range_meters":38400,"station_id":"ce4bgj92rcd13ifvqbe0","pricing_plan_id":"cebpf4jnsgd1na2vs0mg"},{"bike_id":"95aee25f-5c57-4ea4-ae9b-fd75ffb2acea","system_id":"levelo_inurba_marseille","lat":43.23191,"lon":5.39951,"is_reserved":false,"is_disabled":false,"rental_uris":{"android":"levelo://app?vid=95aee25f-5c57-4ea4-ae9b-fd75ffb2acea","ios":"levelo://app?vid=95aee25f-5c57-4ea4-ae9b-fd75ffb2acea"},"vehicle_type_id":"4","last_reported":1738314557,"current_range_meters":23200,"station_id":"ce4bhn12rcd13ifvqgqg","pricing_plan_id":"cebpf4jnsgd1na2vs0mg"},{"bike_id":"8c893236-4e50-4d74-9aae-eef51dda8b0f","system_id":"levelo_inurba_marseille","lat":43.28079,"lon":5.37885,"is_reserved":false,"is_disabled":false,"rental_uris":{"android":"levelo://app?vid=8c893236-4e50-4d74-9aae-eef51dda8b0f","ios":"levelo://app?vid=8c893236-4e50-4d74-9aae-eef51dda8b0f"},"vehicle_type_id":"4","last_reported":1738314557,"current_range_meters":8000,"station_id":"ce4bha12rcd13ifvqee0","pricing_plan_id":"cebpf4jnsgd1na2vs0mg"},{"bike_id":"528fe304-774b-4f5e-99b0-3a6df52f7bd5","system_id":"levelo_inurba_marseille","lat":43.26929,"lon":5.40274,"is_reserved":false,"is_disabled":false,"rental_uris":{"android":"levelo://app?vid=528fe304-774b-4f5e-99b0-3a6df52f7bd5","ios":"levelo://app?vid=528fe304-774b-4f5e-99b0-3a6df52f7bd5"},"vehicle_type_id":"4","last_reported":1738314557,"current_range_meters":25600,"station_id":"cjm6bp8fraef2m0cb0m0","pricing_plan_id":"cebpf4jnsgd1na2vs0mg"},{"bike_id":"4799a4e4-9073-403d-94fe-248f14dc2a4e","system_id":"levelo_inurba_marseille","lat":43.30297,"lon":5.36915,"is_reserved":false,"is_disabled":false,"rental_uris":{"android":"levelo://app?vid=4799a4e4-9073-403d-94fe-248f14dc2a4e","ios":"levelo://app?vid=4799a4e4-9073-403d-94fe-248f14dc2a4e"},"vehicle_type_id":"4","last_reported":1738314557,"current_range_meters":36000,"station_id":"ce4bgqh2rcd13ifvqc5g","pricing_plan_id":"cebpf4jnsgd1na2vs0mg"},{"bike_id":"36e662b7-a4f2-4ed5-8594-bc39af4071d8","system_id":"levelo_inurba_marseille","lat":43.28398,"lon":5.37519,"is_reserved":false,"is_disabled":false,"rental_uris":{"android":"levelo://app?vid=36e662b7-a4f2-4ed5-8594-bc39af4071d8","ios":"levelo://app?vid=36e662b7-a4f2-4ed5-8594-bc39af4071d8"},"vehicle_type_id":"4","last_reported":1738314557,"current_range_meters":38800,"station_id":"ce4bh412rcd13ifvqds0","pricing_plan_id":"cebpf4jnsgd1na2vs0mg"},{"bike_id":"b6aa9903-20fd-4375-b4ec-40a8b6cae738","system_id":"levelo_inurba_marseille","lat":43.26198,"lon":5.3793,"is_reserved":false,"is_disabled":false,"rental_uris":{"android":"levelo://app?vid=b6aa9903-20fd-4375-b4ec-40a8b6cae738","ios":"levelo://app?vid=b6aa9903-20fd-4375-b4ec-40a8b6cae738"},"vehicle_type_id":"4","last_reported":1738314557,"current_range_meters":35200,"station_id":"ce4bhjp2rcd13ifvqg90","pricing_plan_id":"cebpf4jnsgd1na2vs0mg"},{"bike_id":"3f3b38da-8d76-49d6-be17-984cf0fc3296","system_id":"levelo_inurba_marseille","lat":43.28716,"lon":5.37946,"is_reserved":false,"is_disabled":false,"rental_uris":{"android":"levelo://app?vid=3f3b38da-8d76-49d6-be17-984cf0fc3296","ios":"levelo://app?vid=3f3b38da-8d76-49d6-be17-984cf0fc3296"},"vehicle_type_id":"4","last_reported":1738314557,"current_range_meters":19200,"station_id":"ce4bh9p2rcd13ifvqec0","pricing_plan_id":"cebpf4jnsgd1na2vs0mg"},{"bike_id":"ba1e8d7d-8e09-46a6-9069-ea3c3d66b9d2","system_id":"levelo_inurba_marseille","lat":43.30317,"lon":5.36908,"is_reserved":false,"is_disabled":false,"rental_uris":{"android":"levelo://app?vid=ba1e8d7d-8e09-46a6-9069-ea3c3d66b9d2","ios":"levelo://app?vid=ba1e8d7d-8e09-46a6-9069-ea3c3d66b9d2"},"vehicle_type_id":"4","last_reported":1738314557,"current_range_meters":34800,"station_id":"ce4bgqh2rcd13ifvqc5g","pricing_plan_id":"cebpf4jnsgd1na2vs0mg"},{"bike_id":"a12ae85b-f24f-4163-8f94-5bb5a813ed2c","system_id":"levelo_inurba_marseille","lat":43.30153,"lon":5.381,"is_reserved":false,"is_disabled":false,"rental_uris":{"android":"levelo://app?vid=a12ae85b-f24f-4163-8f94-5bb5a813ed2c","ios":"levelo://app?vid=a12ae85b-f24f-4163-8f94-5bb5a813ed2c"},"vehicle_type_id":"4","last_reported":1738314557,"current_range_meters":38000,"station_id":"ce4bgjp2rcd13ifvqbh0","pricing_plan_id":"cebpf4jnsgd1na2vs0mg"},{"bike_id":"d6008e4b-c4fc-4e46-a6ec-9afe2ed04cfa","system_id":"levelo_inurba_marseille","lat":43.31505,"lon":5.38869,"is_reserved":false,"is_disabled":false,"rental_uris":{"android":"levelo://app?vid=d6008e4b-c4fc-4e46-a6ec-9afe2ed04cfa","ios":"levelo://app?vid=d6008e4b-c4fc-4e46-a6ec-9afe2ed04cfa"},"vehicle_type_id":"4","last_reported":1738314557,"current_range_meters":17600,"station_id":"","pricing_plan_id":"cebpf4jnsgd1na2vs0mg"},{"bike_id":"d16bf5d5-b0a7-4a76-889e-7caff8c35fa4","system_id":"levelo_inurba_marseille","lat":43.25002,"lon":5.3893,"is_reserved":false,"is_disabled":false,"rental_uris":{"android":"levelo://app?vid=d16bf5d5-b0a7-4a76-889e-7caff8c35fa4","ios":"levelo://app?vid=d16bf5d5-b0a7-4a76-889e-7caff8c35fa4"},"vehicle_type_id":"4","last_reported":1738314557,"current_range_meters":25200,"station_id":"ce4bhgp2rcd13ifvqfd0","pricing_plan_id":"cebpf4jnsgd1na2vs0mg"},{"bike_id":"bd8a828d-e634-4034-9cac-55889d5bbfa5","system_id":"levelo_inurba_marseille","lat":43.2816,"lon":5.42655,"is_reserved":false,"is_disabled":false,"rental_uris":{"android":"levelo://app?vid=bd8a828d-e634-4034-9cac-55889d5bbfa5","ios":"levelo://app?vid=bd8a828d-e634-4034-9cac-55889d5bbfa5"},"vehicle_type_id":"4","last_reported":1738314557,"current_range_meters":27200,"station_id":"ce4bhnh2rcd13ifvqgug","pricing_plan_id":"cebpf4jnsgd1na2vs0mg"},{"bike_id":"2cf95841-bc69-4d76-bb4f-dd1068032a77","system_id":"levelo_inurba_marseille","lat":43.29239,"lon":5.36096,"is_reserved":false,"is_disabled":false,"rental_uris":{"android":"levelo://app?vid=2cf95841-bc69-4d76-bb4f-dd1068032a77","ios":"levelo://app?vid=2cf95841-bc69-4d76-bb4f-dd1068032a77"},"vehicle_type_id":"4","last_reported":1738314557,"current_range_meters":25600,"station_id":"ce4bhbh2rcd13ifvqeqg","pricing_plan_id":"cebpf4jnsgd1na2vs0mg"},{"bike_id":"6f62346f-c4bf-4514-9be6-2d454717edd7","system_id":"levelo_inurba_marseille","lat":43.3034,"lon":5.41932,"is_reserved":false,"is_disabled":false,"rental_uris":{"android":"levelo://app?vid=6f62346f-c4bf-4514-9be6-2d454717edd7","ios":"levelo://app?vid=6f62346f-c4bf-4514-9be6-2d454717edd7"},"vehicle_type_id":"4","last_reported":1738314557,"current_range_meters":33600,"station_id":"ce4bhop2rcd13ifvqh7g","pricing_plan_id":"cebpf4jnsgd1na2vs0mg"},{"bike_id":"f9d35a32-65b2-4842-bd83-8cbe10324274","system_id":"levelo_inurba_marseille","lat":43.28627,"lon":5.3511,"is_reserved":false,"is_disabled":false,"rental_uris":{"android":"levelo://app?vid=f9d35a32-65b2-4842-bd83-8cbe10324274","ios":"levelo://app?vid=f9d35a32-65b2-4842-bd83-8cbe10324274"},"vehicle_type_id":"4","last_reported":1738314557,"current_range_meters":13600,"station_id":"ce4bhch2rcd13ifvqeug","pricing_plan_id":"cebpf4jnsgd1na2vs0mg"},{"bike_id":"57ea5f77-abf9-41ff-8ffe-e281a2630bfe","system_id":"levelo_inurba_marseille","lat":43.28106,"lon":5.39657,"is_reserved":false,"is_disabled":true,"rental_uris":{"android":"levelo://app?vid=57ea5f77-abf9-41ff-8ffe-e281a2630bfe","ios":"levelo://app?vid=57ea5f77-abf9-41ff-8ffe-e281a2630bfe"},"vehicle_type_id":"4","last_reported":1738314557,"current_range_meters":36800,"station_id":"ce4bho12rcd13ifvqh2g","pricing_plan_id":"cebpf4jnsgd1na2vs0mg"},{"bike_id":"a719c1d1-84c9-4f79-93b9-ea9743df40b6","system_id":"levelo_inurba_marseille","lat":43.24064,"lon":5.37768,"is_reserved":false,"is_disabled":false,"rental_uris":{"android":"levelo://app?vid=a719c1d1-84c9-4f79-93b9-ea9743df40b6","ios":"levelo://app?vid=a719c1d1-84c9-4f79-93b9-ea9743df40b6"},"vehicle_type_id":"4","last_reported":1738314557,"current_range_meters":36400,"station_id":"ce4bhnp2rcd13ifvqgvg","pricing_plan_id":"cebpf4jnsgd1na2vs0mg"},{"bike_id":"f1c524e0-8dce-4e4c-a7ca-2d1a4fa607a9","system_id":"levelo_inurba_marseille","lat":43.30446,"lon":5.37918,"is_reserved":false,"is_disabled":true,"rental_uris":{"android":"levelo://app?vid=f1c524e0-8dce-4e4c-a7ca-2d1a4fa607a9","ios":"levelo://app?vid=f1c524e0-8dce-4e4c-a7ca-2d1a4fa607a9"},"vehicle_type_id":"4","last_reported":1738314557,"current_range_meters":0,"station_id":"ce4bgup2rcd13ifvqcn0","pricing_plan_id":"cebpf4jnsgd1na2vs0mg"},{"bike_id":"e98716a2-2bce-49c4-b47c-53ee0ee27964","system_id":"levelo_inurba_marseille","lat":43.29025,"lon":5.37583,"is_reserved":false,"is_disabled":false,"rental_uris":{"android":"levelo://app?vid=e98716a2-2bce-49c4-b47c-53ee0ee27964","ios":"levelo://app?vid=e98716a2-2bce-49c4-b47c-53ee0ee27964"},"vehicle_type_id":"4","last_reported":1738314557,"current_range_meters":38400,"station_id":"ce4bh692rcd13ifvqe90","pricing_plan_id":"cebpf4jnsgd1na2vs0mg"},{"bike_id":"8872a40e-b0b9-4ad7-8a02-9f5554da338a","system_id":"levelo_inurba_marseille","lat":43.29226,"lon":5.36065,"is_reserved":false,"is_disabled":false,"rental_uris":{"android":"levelo://app?vid=8872a40e-b0b9-4ad7-8a02-9f5554da338a","ios":"levelo://app?vid=8872a40e-b0b9-4ad7-8a02-9f5554da338a"},"vehicle_type_id":"4","last_reported":1738314557,"current_range_meters":19200,"station_id":"ce4bhbh2rcd13ifvqeqg","pricing_plan_id":"cebpf4jnsgd1na2vs0mg"},{"bike_id":"1045c39d-9f42-4b09-96ab-0331c7bf14c9","system_id":"levelo_inurba_marseille","lat":43.29582,"lon":5.36749,"is_reserved":false,"is_disabled":false,"rental_uris":{"android":"levelo://app?vid=1045c39d-9f42-4b09-96ab-0331c7bf14c9","ios":"levelo://app?vid=1045c39d-9f42-4b09-96ab-0331c7bf14c9"},"vehicle_type_id":"4","last_reported":1738314557,"current_range_meters":27600,"station_id":"ce4bgph2rcd13ifvqc2g","pricing_plan_id":"cebpf4jnsgd1na2vs0mg"},{"bike_id":"ad3cdf25-9963-4fac-b030-f249efcede1b","system_id":"levelo_inurba_marseille","lat":43.24387,"lon":5.37062,"is_reserved":false,"is_disabled":false,"rental_uris":{"android":"levelo://app?vid=ad3cdf25-9963-4fac-b030-f249efcede1b","ios":"levelo://app?vid=ad3cdf25-9963-4fac-b030-f249efcede1b"},"vehicle_type_id":"4","last_reported":1738314557,"current_range_meters":16800,"station_id":"ce4bhhh2rcd13ifvqfk0","pricing_plan_id":"cebpf4jnsgd1na2vs0mg"},{"bike_id":"0ed39a79-e831-4aa5-ab3f-13a3ae3a3ee8","system_id":"levelo_inurba_marseille","lat":43.30529,"lon":5.36528,"is_reserved":false,"is_disabled":false,"rental_uris":{"android":"levelo://app?vid=0ed39a79-e831-4aa5-ab3f-13a3ae3a3ee8","ios":"levelo://app?vid=0ed39a79-e831-4aa5-ab3f-13a3ae3a3ee8"},"vehicle_type_id":"4","last_reported":1738314557,"current_range_meters":4400,"station_id":"ce4bgs12rcd13ifvqcag","pricing_plan_id":"cebpf4jnsgd1na2vs0mg"},{"bike_id":"56d6b97f-30a2-4c2a-8be6-a12a9fc19507","system_id":"levelo_inurba_marseille","lat":43.31761,"lon":5.39047,"is_reserved":false,"is_disabled":false,"rental_uris":{"android":"levelo://app?vid=56d6b97f-30a2-4c2a-8be6-a12a9fc19507","ios":"levelo://app?vid=56d6b97f-30a2-4c2a-8be6-a12a9fc19507"},"vehicle_type_id":"4","last_reported":1738314557,"current_range_meters":14400,"station_id":"ce4bhqp2rcd13ifvqhng","pricing_plan_id":"cebpf4jnsgd1na2vs0mg"},{"bike_id":"e7a8ab92-781b-454c-983c-b704077182bf","system_id":"levelo_inurba_marseille","lat":43.30033,"lon":5.41395,"is_reserved":false,"is_disabled":true,"rental_uris":{"android":"levelo://app?vid=e7a8ab92-781b-454c-983c-b704077182bf","ios":"levelo://app?vid=e7a8ab92-781b-454c-983c-b704077182bf"},"vehicle_type_id":"4","last_reported":1738314557,"current_range_meters":12400,"station_id":"","pricing_plan_id":"cebpf4jnsgd1na2vs0mg"},{"bike_id":"4a1e9f62-bab4-41dd-a460-5c9b1a6299cf","system_id":"levelo_inurba_marseille","lat":43.29577,"lon":5.36742,"is_reserved":false,"is_disabled":false,"rental_uris":{"android":"levelo://app?vid=4a1e9f62-bab4-41dd-a460-5c9b1a6299cf","ios":"levelo://app?vid=4a1e9f62-bab4-41dd-a460-5c9b1a6299cf"},"vehicle_type_id":"4","last_reported":1738314557,"current_range_meters":36000,"station_id":"ce4bgph2rcd13ifvqc2g","pricing_plan_id":"cebpf4jnsgd1na2vs0mg"},{"bike_id":"d2a61873-58f7-4bc8-abeb-3ce8c1c55c8d","system_id":"levelo_inurba_marseille","lat":43.27175,"lon":5.41006,"is_reserved":false,"is_disabled":false,"rental_uris":{"android":"levelo://app?vid=d2a61873-58f7-4bc8-abeb-3ce8c1c55c8d","ios":"levelo://app?vid=d2a61873-58f7-4bc8-abeb-3ce8c1c55c8d"},"vehicle_type_id":"4","last_reported":1738314557,"current_range_meters":12800,"station_id":"ce4bhl12rcd13ifvqgf0","pricing_plan_id":"cebpf4jnsgd1na2vs0mg"},{"bike_id":"afe2a81d-a278-4d40-bd64-f629b5be59c3","system_id":"levelo_inurba_marseille","lat":43.29283,"lon":5.40116,"is_reserved":false,"is_disabled":false,"rental_uris":{"android":"levelo://app?vid=afe2a81d-a278-4d40-bd64-f629b5be59c3","ios":"levelo://app?vid=afe2a81d-a278-4d40-bd64-f629b5be59c3"},"vehicle_type_id":"4","last_reported":1738314557,"current_range_meters":11200,"station_id":"ce4bh312rcd13ifvqdk0","pricing_plan_id":"cebpf4jnsgd1na2vs0mg"},{"bike_id":"b61407a7-d93a-47a9-ae07-fdf92f9b0164","system_id":"levelo_inurba_marseille","lat":43.27621,"lon":5.36106,"is_reserved":false,"is_disabled":true,"rental_uris":{"android":"levelo://app?vid=b61407a7-d93a-47a9-ae07-fdf92f9b0164","ios":"levelo://app?vid=b61407a7-d93a-47a9-ae07-fdf92f9b0164"},"vehicle_type_id":"4","last_reported":1738314557,"current_range_meters":0,"station_id":"","pricing_plan_id":"cebpf4jnsgd1na2vs0mg"},{"bike_id":"4513872b-8c8e-44b3-b254-8fad0c767d47","system_id":"levelo_inurba_marseille","lat":43.24542,"lon":5.39547,"is_reserved":false,"is_disabled":false,"rental_uris":{"android":"levelo://app?vid=4513872b-8c8e-44b3-b254-8fad0c767d47","ios":"levelo://app?vid=4513872b-8c8e-44b3-b254-8fad0c767d47"},"vehicle_type_id":"4","last_reported":1738314557,"current_range_meters":29600,"station_id":"ce4bhlp2rcd13ifvqgjg","pricing_plan_id":"cebpf4jnsgd1na2vs0mg"},{"bike_id":"cfbb5204-c0e4-43d6-b3e4-9696e0ec11e8","system_id":"levelo_inurba_marseille","lat":43.25081,"lon":5.39514,"is_reserved":false,"is_disabled":false,"rental_uris":{"android":"levelo://app?vid=cfbb5204-c0e4-43d6-b3e4-9696e0ec11e8","ios":"levelo://app?vid=cfbb5204-c0e4-43d6-b3e4-9696e0ec11e8"},"vehicle_type_id":"4","last_reported":1738314557,"current_range_meters":12400,"station_id":"ce4bhm12rcd13ifvqgkg","pricing_plan_id":"cebpf4jnsgd1na2vs0mg"},{"bike_id":"8382186f-0d25-40e6-beca-2632cc8590f2","system_id":"levelo_inurba_marseille","lat":43.2955,"lon":5.42293,"is_reserved":false,"is_disabled":false,"rental_uris":{"android":"levelo://app?vid=8382186f-0d25-40e6-beca-2632cc8590f2","ios":"levelo://app?vid=8382186f-0d25-40e6-beca-2632cc8590f2"},"vehicle_type_id":"4","last_reported":1738314557,"current_range_meters":6000,"station_id":"ce4bhph2rcd13ifvqhdg","pricing_plan_id":"cebpf4jnsgd1na2vs0mg"},{"bike_id":"2c0b7118-bbc4-45ab-8e66-46d9bf6de98d","system_id":"levelo_inurba_marseille","lat":43.27055,"lon":5.40255,"is_reserved":false,"is_disabled":false,"rental_uris":{"android":"levelo://app?vid=2c0b7118-bbc4-45ab-8e66-46d9bf6de98d","ios":"levelo://app?vid=2c0b7118-bbc4-45ab-8e66-46d9bf6de98d"},"vehicle_type_id":"4","last_reported":1738314557,"current_range_meters":37600,"station_id":"ce4bhk92rcd13ifvqgc0","pricing_plan_id":"cebpf4jnsgd1na2vs0mg"},{"bike_id":"3a270d31-15f9-44b4-a231-d121719a025c","system_id":"levelo_inurba_marseille","lat":43.28348,"lon":5.38109,"is_reserved":false,"is_disabled":false,"rental_uris":{"android":"levelo://app?vid=3a270d31-15f9-44b4-a231-d121719a025c","ios":"levelo://app?vid=3a270d31-15f9-44b4-a231-d121719a025c"},"vehicle_type_id":"4","last_reported":1738314557,"current_range_meters":38800,"station_id":"ce4bh412rcd13ifvqdr0","pricing_plan_id":"cebpf4jnsgd1na2vs0mg"},{"bike_id":"6a3cbb9f-8663-4702-ab2f-57714697fccd","system_id":"levelo_inurba_marseille","lat":43.30122,"lon":5.37427,"is_reserved":false,"is_disabled":false,"rental_uris":{"android":"levelo://app?vid=6a3cbb9f-8663-4702-ab2f-57714697fccd","ios":"levelo://app?vid=6a3cbb9f-8663-4702-ab2f-57714697fccd"},"vehicle_type_id":"4","last_reported":1738314557,"current_range_meters":28000,"station_id":"ce4bgs92rcd13ifvqcc0","pricing_plan_id":"cebpf4jnsgd1na2vs0mg"},{"bike_id":"fc061574-043e-4aba-9633-1642a78aeb3a","system_id":"levelo_inurba_marseille","lat":43.30805,"lon":5.38149,"is_reserved":false,"is_disabled":true,"rental_uris":{"android":"levelo://app?vid=fc061574-043e-4aba-9633-1642a78aeb3a","ios":"levelo://app?vid=fc061574-043e-4aba-9633-1642a78aeb3a"},"vehicle_type_id":"4","last_reported":1738314557,"current_range_meters":11600,"station_id":"ce4bgt12rcd13ifvqce0","pricing_plan_id":"cebpf4jnsgd1na2vs0mg"},{"bike_id":"32b9f82d-d46a-4196-aa59-a12f990f6dce","system_id":"levelo_inurba_marseille","lat":43.27198,"lon":5.3918,"is_reserved":false,"is_disabled":false,"rental_uris":{"android":"levelo://app?vid=32b9f82d-d46a-4196-aa59-a12f990f6dce","ios":"levelo://app?vid=32b9f82d-d46a-4196-aa59-a12f990f6dce"},"vehicle_type_id":"4","last_reported":1738314557,"current_range_meters":6800,"station_id":"ce4bhhp2rcd13ifvqfm0","pricing_plan_id":"cebpf4jnsgd1na2vs0mg"},{"bike_id":"268b7364-7a94-40d7-9b24-bede754795e4","system_id":"levelo_inurba_marseille","lat":43.2808,"lon":5.37873,"is_reserved":false,"is_disabled":false,"rental_uris":{"android":"levelo://app?vid=268b7364-7a94-40d7-9b24-bede754795e4","ios":"levelo://app?vid=268b7364-7a94-40d7-9b24-bede754795e4"},"vehicle_type_id":"4","last_reported":1738314557,"current_range_meters":31200,"station_id":"ce4bha12rcd13ifvqee0","pricing_plan_id":"cebpf4jnsgd1na2vs0mg"},{"bike_id":"68e34b9b-7cbb-473a-935b-b3218e018ee2","system_id":"levelo_inurba_marseille","lat":43.31368,"lon":5.36705,"is_reserved":false,"is_disabled":false,"rental_uris":{"android":"levelo://app?vid=68e34b9b-7cbb-473a-935b-b3218e018ee2","ios":"levelo://app?vid=68e34b9b-7cbb-473a-935b-b3218e018ee2"},"vehicle_type_id":"4","last_reported":1738314557,"current_range_meters":24400,"station_id":"ce4bgr92rcd13ifvqc6g","pricing_plan_id":"cebpf4jnsgd1na2vs0mg"},{"bike_id":"32d9a329-7366-4eb8-8d55-73b5c99c70c3","system_id":"levelo_inurba_marseille","lat":43.23181,"lon":5.35548,"is_reserved":false,"is_disabled":false,"rental_uris":{"android":"levelo://app?vid=32d9a329-7366-4eb8-8d55-73b5c99c70c3","ios":"levelo://app?vid=32d9a329-7366-4eb8-8d55-73b5c99c70c3"},"vehicle_type_id":"4","last_reported":1738314557,"current_range_meters":38800,"station_id":"ce4bhu92rcd13ifvqi70","pricing_plan_id":"cebpf4jnsgd1na2vs0mg"},{"bike_id":"d7861766-e988-4bfb-97ef-8827400e38fd","system_id":"levelo_inurba_marseille","lat":43.2317,"lon":5.40005,"is_reserved":false,"is_disabled":false,"rental_uris":{"android":"levelo://app?vid=d7861766-e988-4bfb-97ef-8827400e38fd","ios":"levelo://app?vid=d7861766-e988-4bfb-97ef-8827400e38fd"},"vehicle_type_id":"4","last_reported":1738314557,"current_range_meters":38800,"station_id":"ce4bhn12rcd13ifvqgqg","pricing_plan_id":"cebpf4jnsgd1na2vs0mg"},{"bike_id":"0a2fd205-d616-4064-aa75-d4d529957d90","system_id":"levelo_inurba_marseille","lat":43.23068,"lon":5.35519,"is_reserved":false,"is_disabled":false,"rental_uris":{"android":"levelo://app?vid=0a2fd205-d616-4064-aa75-d4d529957d90","ios":"levelo://app?vid=0a2fd205-d616-4064-aa75-d4d529957d90"},"vehicle_type_id":"4","last_reported":1738314557,"current_range_meters":22000,"station_id":"cpo3342slgdg3j2ifvpg","pricing_plan_id":"cebpf4jnsgd1na2vs0mg"},{"bike_id":"ced2363a-22eb-4168-93a3-d2771e65c65d","system_id":"levelo_inurba_marseille","lat":43.28269,"lon":5.35062,"is_reserved":false,"is_disabled":false,"rental_uris":{"android":"levelo://app?vid=ced2363a-22eb-4168-93a3-d2771e65c65d","ios":"levelo://app?vid=ced2363a-22eb-4168-93a3-d2771e65c65d"},"vehicle_type_id":"4","last_reported":1738314557,"current_range_meters":37600,"station_id":"ce4bhbp2rcd13ifvqerg","pricing_plan_id":"cebpf4jnsgd1na2vs0mg"},{"bike_id":"d3555a00-aebd-4cd5-b0cb-1da00d423369","system_id":"levelo_inurba_marseille","lat":43.30457,"lon":5.38254,"is_reserved":false,"is_disabled":false,"rental_uris":{"android":"levelo://app?vid=d3555a00-aebd-4cd5-b0cb-1da00d423369","ios":"levelo://app?vid=d3555a00-aebd-4cd5-b0cb-1da00d423369"},"vehicle_type_id":"4","last_reported":1738314557,"current_range_meters":17600,"station_id":"","pricing_plan_id":"cebpf4jnsgd1na2vs0mg"},{"bike_id":"94931f21-350d-4566-8bea-491f51e9a25d","system_id":"levelo_inurba_marseille","lat":43.26935,"lon":5.38913,"is_reserved":false,"is_disabled":false,"rental_uris":{"android":"levelo://app?vid=94931f21-350d-4566-8bea-491f51e9a25d","ios":"levelo://app?vid=94931f21-350d-4566-8bea-491f51e9a25d"},"vehicle_type_id":"4","last_reported":1738314557,"current_range_meters":38800,"station_id":"ce4bhhh2rcd13ifvqfl0","pricing_plan_id":"cebpf4jnsgd1na2vs0mg"},{"bike_id":"851692c4-6ece-4a71-ba19-f442921d2278","system_id":"levelo_inurba_marseille","lat":43.29908,"lon":5.43653,"is_reserved":false,"is_disabled":false,"rental_uris":{"android":"levelo://app?vid=851692c4-6ece-4a71-ba19-f442921d2278","ios":"levelo://app?vid=851692c4-6ece-4a71-ba19-f442921d2278"},"vehicle_type_id":"4","last_reported":1738314557,"current_range_meters":37600,"station_id":"ce4bhpp2rcd13ifvqhfg","pricing_plan_id":"cebpf4jnsgd1na2vs0mg"},{"bike_id":"3951c645-adcf-415f-8d33-5c5bc84c27c8","system_id":"levelo_inurba_marseille","lat":43.278123,"lon":5.407137,"is_reserved":false,"is_disabled":false,"rental_uris":{"android":"levelo://app?vid=3951c645-adcf-415f-8d33-5c5bc84c27c8","ios":"levelo://app?vid=3951c645-adcf-415f-8d33-5c5bc84c27c8"},"vehicle_type_id":"4","last_reported":1738314557,"current_range_meters":22400,"station_id":"ce4bhnh2rcd13ifvqgtg","pricing_plan_id":"cebpf4jnsgd1na2vs0mg"},{"bike_id":"298229e7-31d7-4ee6-9f26-e874640aeab1","system_id":"levelo_inurba_marseille","lat":43.27809,"lon":5.40713,"is_reserved":false,"is_disabled":false,"rental_uris":{"android":"levelo://app?vid=298229e7-31d7-4ee6-9f26-e874640aeab1","ios":"levelo://app?vid=298229e7-31d7-4ee6-9f26-e874640aeab1"},"vehicle_type_id":"4","last_reported":1738314557,"current_range_meters":20400,"station_id":"ce4bhnh2rcd13ifvqgtg","pricing_plan_id":"cebpf4jnsgd1na2vs0mg"},{"bike_id":"2dcea597-6175-45f7-be3e-2ee0705f08d3","system_id":"levelo_inurba_marseille","lat":43.26944,"lon":5.38914,"is_reserved":false,"is_disabled":false,"rental_uris":{"android":"levelo://app?vid=2dcea597-6175-45f7-be3e-2ee0705f08d3","ios":"levelo://app?vid=2dcea597-6175-45f7-be3e-2ee0705f08d3"},"vehicle_type_id":"4","last_reported":1738314557,"current_range_meters":39200,"station_id":"ce4bhhh2rcd13ifvqfl0","pricing_plan_id":"cebpf4jnsgd1na2vs0mg"},{"bike_id":"803e03d8-7d2e-4feb-ac46-774902d16dee","system_id":"levelo_inurba_marseille","lat":43.33731,"lon":5.37442,"is_reserved":false,"is_disabled":true,"rental_uris":{"android":"levelo://app?vid=803e03d8-7d2e-4feb-ac46-774902d16dee","ios":"levelo://app?vid=803e03d8-7d2e-4feb-ac46-774902d16dee"},"vehicle_type_id":"4","last_reported":1738314557,"current_range_meters":25200,"station_id":"","pricing_plan_id":"cebpf4jnsgd1na2vs0mg"},{"bike_id":"baa29b07-c929-4791-93f4-403cf3c9ae74","system_id":"levelo_inurba_marseille","lat":43.29924,"lon":5.37449,"is_reserved":false,"is_disabled":false,"rental_uris":{"android":"levelo://app?vid=baa29b07-c929-4791-93f4-403cf3c9ae74","ios":"levelo://app?vid=baa29b07-c929-4791-93f4-403cf3c9ae74"},"vehicle_type_id":"4","last_reported":1738314557,"current_range_meters":18800,"station_id":"ce4bgjh2rcd13ifvqbg0","pricing_plan_id":"cebpf4jnsgd1na2vs0mg"},